{"keyword":"戸数","data":[{"name":"羽村市社会福祉協議会","province":"東京都","city":"羽村市","address":"羽村市栄町2-18-1羽村市福祉センター","lat":35.770621,"lon":139.313052},{"name":"羽村市","province":"東京都","city":"羽村市","address":"羽村市緑ヶ丘5-2-1","lat":35.7677658,"lon":139.3105383},{"name":"羽村市社会福祉協議会","province":"東京都","city":"羽村市","address":"羽村市栄町2-18-1","lat":35.77059,"lon":139.31313},{"name":"羽村市高齢福祉介護課介護予防・地域支援係","province":"東京都","city":"羽村市","address":"羽村市緑ヶ丘5-2-1(市役所内)","lat":35.767506,"lon":139.310928},{"name":"羽村市地域包括支援センターあさひ","province":"東京都","city":"羽村市","address":"羽村市富士見平1-3-1エムマンション1階A号室","lat":35.765984,"lon":139.323135},{"name":"羽村市地域包括支援センターあゆみ","province":"東京都","city":"羽村市","address":"羽村市羽加美1-9-2","lat":35.770855,"lon":139.303635},{"name":"羽村市高齢福祉介護課高齢福祉係","province":"東京都","city":"羽村市","address":"羽村市緑ヶ丘5-2-1","lat":35.767506,"lon":139.310928},{"name":"羽村市消費生活センター","province":"東京都","city":"羽村市","address":"羽村市緑ヶ丘5-1-30","lat":35.76709,"lon":139.310135},{"name":"羽村市地域包括支援センターあかしあ","province":"東京都","city":"羽村市","address":"羽村市玉川2-6-6","lat":35.749191,"lon":139.314972},{"name":"小作浄水場","province":"東京都","city":"羽村市","address":"東京都羽村市小作台4丁目2-1","lat":35.77612268,"lon":139.2958031},{"name":"羽村市選挙管理委員会","province":"東京都","city":"羽村市","address":"羽村市緑ヶ丘5-1-30羽村市役所分庁舎","lat":35.767163,"lon":139.311017},{"name":"羽村高等学校","province":"東京都","city":"羽村市","address":"東京都羽村市羽4152-1","lat":35.76512217,"lon":139.33141434},{"name":"羽村市社会福祉協議会","province":"東京都","city":"羽村市","address":"羽村市栄町2-18-1羽村市福祉センター","lat":35.770621,"lon":139.313052},{"name":"羽村市社会福祉協議会","province":"東京都","city":"羽村市","address":"羽村市栄町2-18-1","lat":35.77059,"lon":139.31313},{"name":"羽村市高齢福祉介護課介護予防・地域支援係","province":"東京都","city":"羽村市","address":"羽村市緑ヶ丘5-2-1(市役所内)","lat":35.767506,"lon":139.310928},{"name":"羽村市地域包括支援センターあさひ","province":"東京都","city":"羽村市","address":"羽村市富士見平1-3-1エムマンション1階A号室","lat":35.765984,"lon":139.323135},{"name":"羽村市地域包括支援センターあゆみ","province":"東京都","city":"羽村市","address":"羽村市羽加美1-9-2","lat":35.770855,"lon":139.303635},{"name":"羽村市高齢福祉介護課高齢福祉係","province":"東京都","city":"羽村市","address":"羽村市緑ヶ丘5-2-1","lat":35.767506,"lon":139.310928},{"name":"羽村市消費生活センター","province":"東京都","city":"羽村市","address":"羽村市緑ヶ丘5-1-30","lat":35.76709,"lon":139.310135},{"name":"羽村市地域包括支援センターあかしあ","province":"東京都","city":"羽村市","address":"羽村市玉川2-6-6","lat":35.749191,"lon":139.314972},{"name":"小作浄水場","province":"東京都","city":"羽村市","address":"東京都羽村市小作台4丁目2-1","lat":35.77612268,"lon":139.2958031},{"name":"羽村高等学校","province":"東京都","city":"羽村市","address":"東京都羽村市羽4152-1","lat":35.76512217,"lon":139.33141434},{"name":"羽村市高齢福祉介護課介護予防・地域支援係","province":"東京都","city":"羽村市","address":"羽村市緑ヶ丘5-2-1(市役所内)","lat":35.767506,"lon":139.310928},{"name":"羽村市地域包括支援センターあさひ","province":"東京都","city":"羽村市","address":"羽村市富士見平1-3-1エムマンション1階A号室","lat":35.765984,"lon":139.323135},{"name":"羽村市地域包括支援センターあゆみ","province":"東京都","city":"羽村市","address":"羽村市羽加美1-9-2","lat":35.770855,"lon":139.303635},{"name":"羽村市高齢福祉介護課高齢福祉係","province":"東京都","city":"羽村市","address":"羽村市緑ヶ丘5-2-1","lat":35.767506,"lon":139.310928},{"name":"羽村市消費生活センター","province":"東京都","city":"羽村市","address":"羽村市緑ヶ丘5-1-30","lat":35.76709,"lon":139.310135},{"name":"羽村市地域包括支援センターあかしあ","province":"東京都","city":"羽村市","address":"羽村市玉川2-6-6","lat":35.749191,"lon":139.314972},{"name":"羽村高等学校","province":"東京都","city":"羽村市","address":"東京都羽村市羽4152-1","lat":35.76512217,"lon":139.33141434},{"name":"羽村市高齢福祉介護課介護予防・地域支援係","province":"東京都","city":"羽村市","address":"羽村市緑ヶ丘5-2-1(市役所内)","lat":35.767506,"lon":139.310928},{"name":"羽村市地域包括支援センターあさひ","province":"東京都","city":"羽村市","address":"羽村市富士見平1-3-1エムマンション1階A号室","lat":35.765984,"lon":139.323135},{"name":"羽村市地域包括支援センターあゆみ","province":"東京都","city":"羽村市","address":"羽村市羽加美1-9-2","lat":35.770855,"lon":139.303635},{"name":"羽村市高齢福祉介護課高齢福祉係","province":"東京都","city":"羽村市","address":"羽村市緑ヶ丘5-2-1","lat":35.767506,"lon":139.310928},{"name":"羽村市消費生活センター","province":"東京都","city":"羽村市","address":"羽村市緑ヶ丘5-1-30","lat":35.76709,"lon":139.310135},{"name":"羽村市地域包括支援センターあかしあ","province":"東京都","city":"羽村市","address":"羽村市玉川2-6-6","lat":35.749191,"lon":139.314972},{"name":"羽村高等学校","province":"東京都","city":"羽村市","address":"東京都羽村市羽4152-1","lat":35.76512217,"lon":139.33141434},{"name":"羽村市高齢福祉介護課介護予防・地域支援係","province":"東京都","city":"羽村市","address":"羽村市緑ヶ丘5-2-1(市役所内)","lat":35.767506,"lon":139.310928},{"name":"羽村市地域包括支援センターあさひ","province":"東京都","city":"羽村市","address":"羽村市富士見平1-3-1エムマンション1階A号室","lat":35.765984,"lon":139.323135},{"name":"羽村市地域包括支援センターあゆみ","province":"東京都","city":"羽村市","address":"羽村市羽加美1-9-2","lat":35.770855,"lon":139.303635},{"name":"羽村市高齢福祉介護課高齢福祉係","province":"東京都","city":"羽村市","address":"羽村市緑ヶ丘5-2-1","lat":35.767506,"lon":139.310928},{"name":"羽村市消費生活センター","province":"東京都","city":"羽村市","address":"羽村市緑ヶ丘5-1-30","lat":35.76709,"lon":139.310135},{"name":"羽村市地域包括支援センターあかしあ","province":"東京都","city":"羽村市","address":"羽村市玉川2-6-6","lat":35.749191,"lon":139.314972},{"name":"羽村市高齢福祉介護課介護予防・地域支援係","province":"東京都","city":"羽村市","address":"羽村市緑ヶ丘5-2-1(市役所内)","lat":35.767506,"lon":139.310928},{"name":"羽村市地域包括支援センターあさひ","province":"東京都","city":"羽村市","address":"羽村市富士見平1-3-1エムマンション1階A号室","lat":35.765984,"lon":139.323135},{"name":"羽村市地域包括支援センターあゆみ","province":"東京都","city":"羽村市","address":"羽村市羽加美1-9-2","lat":35.770855,"lon":139.303635},{"name":"羽村市高齢福祉介護課高齢福祉係","province":"東京都","city":"羽村市","address":"羽村市緑ヶ丘5-2-1","lat":35.767506,"lon":139.310928},{"name":"羽村市消費生活センター","province":"東京都","city":"羽村市","address":"羽村市緑ヶ丘5-1-30","lat":35.76709,"lon":139.310135},{"name":"羽村市地域包括支援センターあかしあ","province":"東京都","city":"羽村市","address":"羽村市玉川2-6-6","lat":35.749191,"lon":139.314972},{"name":"羽村市高齢福祉介護課介護予防・地域支援係","province":"東京都","city":"羽村市","address":"羽村市緑ヶ丘5-2-1(市役所内)","lat":35.767506,"lon":139.310928},{"name":"羽村市地域包括支援センターあさひ","province":"東京都","city":"羽村市","address":"羽村市富士見平1-3-1エムマンション1階A号室","lat":35.765984,"lon":139.323135},{"name":"羽村市地域包括支援センターあゆみ","province":"東京都","city":"羽村市","address":"羽村市羽加美1-9-2","lat":35.770855,"lon":139.303635},{"name":"羽村市高齢福祉介護課高齢福祉係","province":"東京都","city":"羽村市","address":"羽村市緑ヶ丘5-2-1","lat":35.767506,"lon":139.310928},{"name":"羽村市消費生活センター","province":"東京都","city":"羽村市","address":"羽村市緑ヶ丘5-1-30","lat":35.76709,"lon":139.310135},{"name":"羽村市地域包括支援センターあかしあ","province":"東京都","city":"羽村市","address":"羽村市玉川2-6-6","lat":35.749191,"lon":139.314972},{"name":"羽村市高齢福祉介護課介護予防・地域支援係","province":"東京都","city":"羽村市","address":"羽村市緑ヶ丘5-2-1(市役所内)","lat":35.767506,"lon":139.310928},{"name":"羽村市地域包括支援センターあさひ","province":"東京都","city":"羽村市","address":"羽村市富士見平1-3-1エムマンション1階A号室","lat":35.765984,"lon":139.323135},{"name":"羽村市地域包括支援センターあゆみ","province":"東京都","city":"羽村市","address":"羽村市羽加美1-9-2","lat":35.770855,"lon":139.303635},{"name":"羽村市高齢福祉介護課高齢福祉係","province":"東京都","city":"羽村市","address":"羽村市緑ヶ丘5-2-1","lat":35.767506,"lon":139.310928},{"name":"羽村市消費生活センター","province":"東京都","city":"羽村市","address":"羽村市緑ヶ丘5-1-30","lat":35.76709,"lon":139.310135},{"name":"羽村市地域包括支援センターあかしあ","province":"東京都","city":"羽村市","address":"羽村市玉川2-6-6","lat":35.749191,"lon":139.314972},{"name":"羽村市高齢福祉介護課介護予防・地域支援係","province":"東京都","city":"羽村市","address":"羽村市緑ヶ丘5-2-1(市役所内)","lat":35.767506,"lon":139.310928},{"name":"羽村市地域包括支援センターあさひ","province":"東京都","city":"羽村市","address":"羽村市富士見平1-3-1エムマンション1階A号室","lat":35.765984,"lon":139.323135},{"name":"羽村市地域包括支援センターあゆみ","province":"東京都","city":"羽村市","address":"羽村市羽加美1-9-2","lat":35.770855,"lon":139.303635},{"name":"羽村市高齢福祉介護課高齢福祉係","province":"東京都","city":"羽村市","address":"羽村市緑ヶ丘5-2-1","lat":35.767506,"lon":139.310928},{"name":"羽村市消費生活センター","province":"東京都","city":"羽村市","address":"羽村市緑ヶ丘5-1-30","lat":35.76709,"lon":139.310135},{"name":"羽村市地域包括支援センターあかしあ","province":"東京都","city":"羽村市","address":"羽村市玉川2-6-6","lat":35.749191,"lon":139.314972},{"name":"羽村市高齢福祉介護課介護予防・地域支援係","province":"東京都","city":"羽村市","address":"羽村市緑ヶ丘5-2-1(市役所内)","lat":35.767506,"lon":139.310928},{"name":"羽村市地域包括支援センターあさひ","province":"東京都","city":"羽村市","address":"羽村市富士見平1-3-1エムマンション1階A号室","lat":35.765984,"lon":139.323135},{"name":"羽村市地域包括支援センターあゆみ","province":"東京都","city":"羽村市","address":"羽村市羽加美1-9-2","lat":35.770855,"lon":139.303635},{"name":"羽村市高齢福祉介護課高齢福祉係","province":"東京都","city":"羽村市","address":"羽村市緑ヶ丘5-2-1","lat":35.767506,"lon":139.310928},{"name":"羽村市消費生活センター","province":"東京都","city":"羽村市","address":"羽村市緑ヶ丘5-1-30","lat":35.76709,"lon":139.310135},{"name":"羽村市地域包括支援センターあかしあ","province":"東京都","city":"羽村市","address":"羽村市玉川2-6-6","lat":35.749191,"lon":139.314972},{"name":"羽村市高齢福祉介護課介護予防・地域支援係","province":"東京都","city":"羽村市","address":"羽村市緑ヶ丘5-2-1(市役所内)","lat":35.767506,"lon":139.310928},{"name":"羽村市地域包括支援センターあさひ","province":"東京都","city":"羽村市","address":"羽村市富士見平1-3-1エムマンション1階A号室","lat":35.765984,"lon":139.323135},{"name":"羽村市地域包括支援センターあゆみ","province":"東京都","city":"羽村市","address":"羽村市羽加美1-9-2","lat":35.770855,"lon":139.303635},{"name":"羽村市高齢福祉介護課高齢福祉係","province":"東京都","city":"羽村市","address":"羽村市緑ヶ丘5-2-1","lat":35.767506,"lon":139.310928},{"name":"羽村市消費生活センター","province":"東京都","city":"羽村市","address":"羽村市緑ヶ丘5-1-30","lat":35.76709,"lon":139.310135},{"name":"羽村市地域包括支援センターあかしあ","province":"東京都","city":"羽村市","address":"羽村市玉川2-6-6","lat":35.749191,"lon":139.314972},{"name":"羽村市高齢福祉介護課介護予防・地域支援係","province":"東京都","city":"羽村市","address":"羽村市緑ヶ丘5-2-1(市役所内)","lat":35.767506,"lon":139.310928},{"name":"羽村市地域包括支援センターあさひ","province":"東京都","city":"羽村市","address":"羽村市富士見平1-3-1エムマンション1階A号室","lat":35.765984,"lon":139.323135},{"name":"羽村市地域包括支援センターあゆみ","province":"東京都","city":"羽村市","address":"羽村市羽加美1-9-2","lat":35.770855,"lon":139.303635},{"name":"羽村市高齢福祉介護課高齢福祉係","province":"東京都","city":"羽村市","address":"羽村市緑ヶ丘5-2-1","lat":35.767506,"lon":139.310928},{"name":"羽村市消費生活センター","province":"東京都","city":"羽村市","address":"羽村市緑ヶ丘5-1-30","lat":35.76709,"lon":139.310135},{"name":"羽村市地域包括支援センターあかしあ","province":"東京都","city":"羽村市","address":"羽村市玉川2-6-6","lat":35.749191,"lon":139.314972},{"name":"羽村市高齢福祉介護課介護予防・地域支援係","province":"東京都","city":"羽村市","address":"羽村市緑ヶ丘5-2-1(市役所内)","lat":35.767506,"lon":139.310928},{"name":"羽村市地域包括支援センターあさひ","province":"東京都","city":"羽村市","address":"羽村市富士見平1-3-1エムマンション1階A号室","lat":35.765984,"lon":139.323135},{"name":"羽村市地域包括支援センターあゆみ","province":"東京都","city":"羽村市","address":"羽村市羽加美1-9-2","lat":35.770855,"lon":139.303635},{"name":"羽村市高齢福祉介護課高齢福祉係","province":"東京都","city":"羽村市","address":"羽村市緑ヶ丘5-2-1","lat":35.767506,"lon":139.310928},{"name":"羽村市消費生活センター","province":"東京都","city":"羽村市","address":"羽村市緑ヶ丘5-1-30","lat":35.76709,"lon":139.310135},{"name":"羽村市地域包括支援センターあかしあ","province":"東京都","city":"羽村市","address":"羽村市玉川2-6-6","lat":35.749191,"lon":139.314972},{"name":"羽村市高齢福祉介護課介護予防・地域支援係","province":"東京都","city":"羽村市","address":"羽村市緑ヶ丘5-2-1(市役所内)","lat":35.767506,"lon":139.310928},{"name":"羽村市地域包括支援センターあさひ","province":"東京都","city":"羽村市","address":"羽村市富士見平1-3-1エムマンション1階A号室","lat":35.765984,"lon":139.323135},{"name":"羽村市地域包括支援センターあゆみ","province":"東京都","city":"羽村市","address":"羽村市羽加美1-9-2","lat":35.770855,"lon":139.303635},{"name":"羽村市高齢福祉介護課高齢福祉係","province":"東京都","city":"羽村市","address":"羽村市緑ヶ丘5-2-1","lat":35.767506,"lon":139.310928},{"name":"羽村市消費生活センター","province":"東京都","city":"羽村市","address":"羽村市緑ヶ丘5-1-30","lat":35.76709,"lon":139.310135},{"name":"羽村市地域包括支援センターあかしあ","province":"東京都","city":"羽村市","address":"羽村市玉川2-6-6","lat":35.749191,"lon":139.314972},{"name":"羽村市高齢福祉介護課介護予防・地域支援係","province":"東京都","city":"羽村市","address":"羽村市緑ヶ丘5-2-1(市役所内)","lat":35.767506,"lon":139.310928},{"name":"羽村市地域包括支援センターあさひ","province":"東京都","city":"羽村市","address":"羽村市富士見平1-3-1エムマンション1階A号室","lat":35.765984,"lon":139.323135},{"name":"羽村市地域包括支援センターあゆみ","province":"東京都","city":"羽村市","address":"羽村市羽加美1-9-2","lat":35.770855,"lon":139.303635},{"name":"羽村市高齢福祉介護課高齢福祉係","province":"東京都","city":"羽村市","address":"羽村市緑ヶ丘5-2-1","lat":35.767506,"lon":139.310928},{"name":"羽村市消費生活センター","province":"東京都","city":"羽村市","address":"羽村市緑ヶ丘5-1-30","lat":35.76709,"lon":139.310135},{"name":"羽村市地域包括支援センターあかしあ","province":"東京都","city":"羽村市","address":"羽村市玉川2-6-6","lat":35.749191,"lon":139.314972},{"name":"羽村市高齢福祉介護課介護予防・地域支援係","province":"東京都","city":"羽村市","address":"羽村市緑ヶ丘5-2-1(市役所内)","lat":35.767506,"lon":139.310928},{"name":"羽村市地域包括支援センターあさひ","province":"東京都","city":"羽村市","address":"羽村市富士見平1-3-1エムマンション1階A号室","lat":35.765984,"lon":139.323135},{"name":"羽村市地域包括支援センターあゆみ","province":"東京都","city":"羽村市","address":"羽村市羽加美1-9-2","lat":35.770855,"lon":139.303635},{"name":"羽村市高齢福祉介護課高齢福祉係","province":"東京都","city":"羽村市","address":"羽村市緑ヶ丘5-2-1","lat":35.767506,"lon":139.310928},{"name":"羽村市消費生活センター","province":"東京都","city":"羽村市","address":"羽村市緑ヶ丘5-1-30","lat":35.76709,"lon":139.310135},{"name":"羽村市地域包括支援センターあかしあ","province":"東京都","city":"羽村市","address":"羽村市玉川2-6-6","lat":35.749191,"lon":139.314972},{"name":"羽村市高齢福祉介護課介護予防・地域支援係","province":"東京都","city":"羽村市","address":"羽村市緑ヶ丘5-2-1(市役所内)","lat":35.767506,"lon":139.310928},{"name":"羽村市地域包括支援センターあさひ","province":"東京都","city":"羽村市","address":"羽村市富士見平1-3-1エムマンション1階A号室","lat":35.765984,"lon":139.323135},{"name":"羽村市地域包括支援センターあゆみ","province":"東京都","city":"羽村市","address":"羽村市羽加美1-9-2","lat":35.770855,"lon":139.303635},{"name":"羽村市高齢福祉介護課高齢福祉係","province":"東京都","city":"羽村市","address":"羽村市緑ヶ丘5-2-1","lat":35.767506,"lon":139.310928},{"name":"羽村市消費生活センター","province":"東京都","city":"羽村市","address":"羽村市緑ヶ丘5-1-30","lat":35.76709,"lon":139.310135},{"name":"羽村市地域包括支援センターあかしあ","province":"東京都","city":"羽村市","address":"羽村市玉川2-6-6","lat":35.749191,"lon":139.314972},{"name":"羽村市高齢福祉介護課介護予防・地域支援係","province":"東京都","city":"羽村市","address":"羽村市緑ヶ丘5-2-1(市役所内)","lat":35.767506,"lon":139.310928},{"name":"羽村市地域包括支援センターあさひ","province":"東京都","city":"羽村市","address":"羽村市富士見平1-3-1エムマンション1階A号室","lat":35.765984,"lon":139.323135},{"name":"羽村市地域包括支援センターあゆみ","province":"東京都","city":"羽村市","address":"羽村市羽加美1-9-2","lat":35.770855,"lon":139.303635},{"name":"羽村市高齢福祉介護課高齢福祉係","province":"東京都","city":"羽村市","address":"羽村市緑ヶ丘5-2-1","lat":35.767506,"lon":139.310928},{"name":"羽村市消費生活センター","province":"東京都","city":"羽村市","address":"羽村市緑ヶ丘5-1-30","lat":35.76709,"lon":139.310135},{"name":"羽村市地域包括支援センターあかしあ","province":"東京都","city":"羽村市","address":"羽村市玉川2-6-6","lat":35.749191,"lon":139.314972},{"name":"羽村市高齢福祉介護課介護予防・地域支援係","province":"東京都","city":"羽村市","address":"羽村市緑ヶ丘5-2-1(市役所内)","lat":35.767506,"lon":139.310928},{"name":"羽村市地域包括支援センターあさひ","province":"東京都","city":"羽村市","address":"羽村市富士見平1-3-1エムマンション1階A号室","lat":35.765984,"lon":139.323135},{"name":"羽村市地域包括支援センターあゆみ","province":"東京都","city":"羽村市","address":"羽村市羽加美1-9-2","lat":35.770855,"lon":139.303635},{"name":"羽村市高齢福祉介護課高齢福祉係","province":"東京都","city":"羽村市","address":"羽村市緑ヶ丘5-2-1","lat":35.767506,"lon":139.310928},{"name":"羽村市消費生活センター","province":"東京都","city":"羽村市","address":"羽村市緑ヶ丘5-1-30","lat":35.76709,"lon":139.310135},{"name":"羽村市地域包括支援センターあかしあ","province":"東京都","city":"羽村市","address":"羽村市玉川2-6-6","lat":35.749191,"lon":139.314972},{"name":"羽村市高齢福祉介護課介護予防・地域支援係","province":"東京都","city":"羽村市","address":"羽村市緑ヶ丘5-2-1(市役所内)","lat":35.767506,"lon":139.310928},{"name":"羽村市地域包括支援センターあさひ","province":"東京都","city":"羽村市","address":"羽村市富士見平1-3-1エムマンション1階A号室","lat":35.765984,"lon":139.323135},{"name":"羽村市地域包括支援センターあゆみ","province":"東京都","city":"羽村市","address":"羽村市羽加美1-9-2","lat":35.770855,"lon":139.303635},{"name":"羽村市高齢福祉介護課高齢福祉係","province":"東京都","city":"羽村市","address":"羽村市緑ヶ丘5-2-1","lat":35.767506,"lon":139.310928},{"name":"羽村市消費生活センター","province":"東京都","city":"羽村市","address":"羽村市緑ヶ丘5-1-30","lat":35.76709,"lon":139.310135},{"name":"羽村市地域包括支援センターあかしあ","province":"東京都","city":"羽村市","address":"羽村市玉川2-6-6","lat":35.749191,"lon":139.314972},{"name":"羽村市高齢福祉介護課介護予防・地域支援係","province":"東京都","city":"羽村市","address":"羽村市緑ヶ丘5-2-1(市役所内)","lat":35.767506,"lon":139.310928},{"name":"羽村市地域包括支援センターあさひ","province":"東京都","city":"羽村市","address":"羽村市富士見平1-3-1エムマンション1階A号室","lat":35.765984,"lon":139.323135},{"name":"羽村市地域包括支援センターあゆみ","province":"東京都","city":"羽村市","address":"羽村市羽加美1-9-2","lat":35.770855,"lon":139.303635},{"name":"羽村市高齢福祉介護課高齢福祉係","province":"東京都","city":"羽村市","address":"羽村市緑ヶ丘5-2-1","lat":35.767506,"lon":139.310928},{"name":"羽村市消費生活センター","province":"東京都","city":"羽村市","address":"羽村市緑ヶ丘5-1-30","lat":35.76709,"lon":139.310135},{"name":"羽村市地域包括支援センターあかしあ","province":"東京都","city":"羽村市","address":"羽村市玉川2-6-6","lat":35.749191,"lon":139.314972}]}