{"keyword":"男女","data":[{"name":"羽村まつの木保育園","province":"東京都","city":"羽村市","address":"羽村市小作台3-9-12","lat":35.776437,"lon":139.298175},{"name":"かやの実保育園","province":"東京都","city":"羽村市","address":"羽村市栄町2-1-5","lat":35.772146,"lon":139.306613},{"name":"富士見第一保育園","province":"東京都","city":"羽村市","address":"羽村市緑ヶ丘4-12-40","lat":35.766716,"lon":139.315227},{"name":"羽村たつの子保育園","province":"東京都","city":"羽村市","address":"羽村市五ノ神2-6-20","lat":35.761058,"lon":139.32044},{"name":"太陽の子保育園","province":"東京都","city":"羽村市","address":"羽村市五ノ神3-15-7","lat":35.762364,"lon":139.319477},{"name":"富士見第二保育園","province":"東京都","city":"羽村市","address":"羽村市富士見平2-3-16","lat":35.762947,"lon":139.324007},{"name":"玉水保育園","province":"東京都","city":"羽村市","address":"羽村市羽東3-21-12","lat":35.755373,"lon":139.310322},{"name":"羽村しらうめ保育園","province":"東京都","city":"羽村市","address":"羽村市羽東1-29-16","lat":35.761978,"lon":139.31231},{"name":"さくら保育園","province":"東京都","city":"羽村市","address":"羽村市羽加美2-16-1","lat":35.76601,"lon":139.303547},{"name":"まつぼっくり保育園","province":"東京都","city":"羽村市","address":"羽村市羽西1-7-3","lat":35.771554,"lon":139.300036},{"name":"チューリップ保育園","province":"東京都","city":"羽村市","address":"羽村市双葉町1-1-22","lat":35.762711,"lon":139.331206},{"name":"あおぞら保育園","province":"東京都","city":"羽村市","address":"羽村市神明台1-3-9","lat":35.756767,"lon":139.318693},{"name":"りあん","province":"東京都","city":"羽村市","address":"羽村市栄町二丁目7番地27ユウヒハイム106","lat":35.772457,"lon":139.310455},{"name":"五乃神学園","province":"東京都","city":"羽村市","address":"羽村市五ノ神345","lat":35.768052,"lon":139.332695},{"name":"パレットルーム羽村教室","province":"東京都","city":"羽村市","address":"羽村市五ノ神4-1-8日芳ビル2階","lat":35.760311,"lon":139.314758},{"name":"わくわくプレイス","province":"東京都","city":"羽村市","address":"羽村市富士見平1-3-1エムマンション101","lat":35.765961,"lon":139.322854},{"name":"リアン羽西店","province":"東京都","city":"羽村市","address":"羽村市羽西2-6-9-1階","lat":35.769987,"lon":139.298028},{"name":"羽村市保健センター","province":"東京都","city":"羽村市","address":"羽村市緑ケ丘5-5-2","lat":35.768793,"lon":139.311749},{"name":"羽村市庁舎","province":"東京都","city":"羽村市","address":"東京都羽村市緑ヶ丘5丁目2-1","lat":35.76719,"lon":139.310911},{"name":"羽村市図書館","province":"東京都","city":"羽村市","address":"東京都羽村市緑ヶ丘2丁目11-2","lat":35.764407,"lon":139.316644},{"name":"羽村市庁舎","province":"東京都","city":"羽村市","address":"東京都羽村市緑ヶ丘5丁目2","lat":35.767,"lon":139.311365},{"name":"羽村市分庁舎","province":"東京都","city":"羽村市","address":"東京都羽村市緑ヶ丘5丁目1-30","lat":35.766638,"lon":139.310455},{"name":"生涯学習センターゆとろぎ","province":"東京都","city":"羽村市","address":"東京都羽村市緑ヶ丘1丁目11-5","lat":35.764066,"lon":139.315887},{"name":"生涯学習センターゆとろぎ","province":"東京都","city":"羽村市","address":"東京都羽村市緑ヶ丘1丁目11-5","lat":35.763896,"lon":139.316009},{"name":"生涯学習センターゆとろぎ","province":"東京都","city":"羽村市","address":"東京都羽村市緑ヶ丘1丁目11-5","lat":35.764101,"lon":139.315766},{"name":"生涯学習センターゆとろぎ","province":"東京都","city":"羽村市","address":"東京都羽村市緑ヶ丘1丁目11-5","lat":35.764055,"lon":139.316225},{"name":"羽村市コミュニティセンター じゅらく苑","province":"東京都","city":"羽村市","address":"東京都羽村市緑ヶ丘5丁目2-6","lat":35.767878,"lon":139.310934},{"name":"羽村市コミュニティセンター じゅらく苑","province":"東京都","city":"羽村市","address":"東京都羽村市緑ヶ丘5丁目2-6","lat":35.767834,"lon":139.31097},{"name":"高齢者在宅サービスセンターいこいの里","province":"東京都","city":"羽村市","address":"東京都羽村市羽加美4丁目18-6","lat":35.760295,"lon":139.299354},{"name":"双葉町会館","province":"東京都","city":"羽村市","address":"東京都羽村市双葉町2丁目14-45","lat":35.759737,"lon":139.333494},{"name":"羽村市保健センター","province":"東京都","city":"羽村市","address":"東京都羽村市緑ヶ丘5丁目5-2","lat":35.768893,"lon":139.311826},{"name":"羽村市保健センター","province":"東京都","city":"羽村市","address":"東京都羽村市緑ヶ丘5丁目5","lat":35.768679,"lon":139.311815},{"name":"羽村市保健センター","province":"東京都","city":"羽村市","address":"東京都羽村市緑ヶ丘5丁目5-2","lat":35.768822,"lon":139.311658},{"name":"羽村市図書館","province":"東京都","city":"羽村市","address":"東京都羽村市緑ヶ丘2丁目11-2","lat":35.764488,"lon":139.31642},{"name":"羽村市スポーツセンター","province":"東京都","city":"羽村市","address":"東京都羽村市羽加美1丁目29-5","lat":35.767972,"lon":139.307594},{"name":"羽村市スポーツセンター","province":"東京都","city":"羽村市","address":"東京都羽村市羽加美1丁目29-5","lat":35.768173,"lon":139.307628},{"name":"羽村市スイミングセンター","province":"東京都","city":"羽村市","address":"東京都羽村市五ノ神319-3","lat":35.768429,"lon":139.329127},{"name":"羽村市スイミングセンター","province":"東京都","city":"羽村市","address":"東京都羽村市五ノ神319-3","lat":35.768455,"lon":139.329088},{"name":"羽村市郷土博物館","province":"東京都","city":"羽村市","address":"東京都羽村市羽741","lat":35.755054,"lon":139.303378},{"name":"羽村市中央児童館","province":"東京都","city":"羽村市","address":"東京都羽村市羽中3丁目6-19","lat":35.761388,"lon":139.309272},{"name":"羽村市東児童館","province":"東京都","city":"羽村市","address":"東京都羽村市神明台3丁目30-2","lat":35.760347,"lon":139.328388},{"name":"羽村市東児童館","province":"東京都","city":"羽村市","address":"東京都羽村市神明台3丁目30-2","lat":35.760315,"lon":139.328323},{"name":"羽村市西児童館","province":"東京都","city":"羽村市","address":"東京都羽村市小作台5丁目28-3","lat":35.772806,"lon":139.303026},{"name":"武蔵野公園","province":"東京都","city":"羽村市","address":"東京都羽村市栄町2丁目5","lat":35.774225,"lon":139.310484},{"name":"武蔵野公園","province":"東京都","city":"羽村市","address":"東京都羽村市栄町2丁目5","lat":35.774181,"lon":139.310556},{"name":"あさひ公園","province":"東京都","city":"羽村市","address":"東京都羽村市神明台3丁目31","lat":35.760034,"lon":139.327622},{"name":"富士見公園","province":"東京都","city":"羽村市","address":"東京都羽村市緑ヶ丘4丁目11","lat":35.76862,"lon":139.315328},{"name":"富士見公園","province":"東京都","city":"羽村市","address":"東京都羽村市緑ヶ丘4丁目11","lat":35.768033,"lon":139.31692},{"name":"富士見公園","province":"東京都","city":"羽村市","address":"東京都羽村市緑ヶ丘4丁目11","lat":35.766895,"lon":139.315911},{"name":"神明児童公園","province":"東京都","city":"羽村市","address":"東京都羽村市神明台1丁目16","lat":35.754761,"lon":139.32018},{"name":"川崎公園","province":"東京都","city":"羽村市","address":"東京都羽村市川崎2丁目6","lat":35.753146,"lon":139.318419},{"name":"羽村市動物公園","province":"東京都","city":"羽村市","address":"東京都羽村市富士見平3丁目4","lat":35.76597,"lon":139.328838},{"name":"羽村市動物公園","province":"東京都","city":"羽村市","address":"東京都羽村市富士見平3丁目4","lat":35.766401,"lon":139.32858},{"name":"羽村市動物公園","province":"東京都","city":"羽村市","address":"東京都羽村市羽","lat":35.766839,"lon":139.328696},{"name":"田の上公園","province":"東京都","city":"羽村市","address":"東京都羽村市羽中2丁目11","lat":35.76244,"lon":139.309256},{"name":"羽ケ上公園","province":"東京都","city":"羽村市","address":"東京都羽村市羽加美1丁目14","lat":35.771401,"lon":139.30614},{"name":"あけぼの杉児童公園","province":"東京都","city":"羽村市","address":"東京都羽村市羽加美1丁目36","lat":35.76765,"lon":139.305912},{"name":"多摩川一里塚公園","province":"東京都","city":"羽村市","address":"東京都羽村市玉川2丁目9","lat":35.75112,"lon":139.312708},{"name":"小作ふれあい公園","province":"東京都","city":"羽村市","address":"東京都羽村市羽西3丁目2","lat":35.772525,"lon":139.297217},{"name":"羽村市水上公園","province":"東京都","city":"羽村市","address":"東京都羽村市羽中4丁目9","lat":35.757744,"lon":139.305986},{"name":"双葉町公園","province":"東京都","city":"羽村市","address":"東京都羽村市双葉町2丁目7","lat":35.756744,"lon":139.332772},{"name":"羽村駅東口公衆トイレ","province":"東京都","city":"羽村市","address":"東京都羽村市羽東1丁目7-26","lat":35.758633,"lon":139.315955},{"name":"羽村駅西口公衆トイレ","province":"東京都","city":"羽村市","address":"東京都羽村市羽東1丁目7-26","lat":35.758357,"lon":139.315787},{"name":"小作駅東口公衆トイレ","province":"東京都","city":"羽村市","address":"東京都羽村市小作台5丁目35-1","lat":35.776294,"lon":139.302156},{"name":"小作駅西口公衆トイレ","province":"東京都","city":"羽村市","address":"東京都羽村市小作台5丁目35-1","lat":35.776137,"lon":139.301848},{"name":"羽村市福祉センター","province":"東京都","city":"羽村市","address":"東京都羽村市栄町2丁目18-1","lat":35.770375,"lon":139.313091},{"name":"羽村市福祉センター","province":"東京都","city":"羽村市","address":"東京都羽村市栄町2丁目18-1","lat":35.770417,"lon":139.313065},{"name":"羽村市福祉センター","province":"東京都","city":"羽村市","address":"東京都羽村市栄町2丁目18-1","lat":35.770664,"lon":139.312802},{"name":"羽村市弓道場","province":"東京都","city":"羽村市","address":"東京都羽村市小作台4丁目2-8","lat":35.776707,"lon":139.294217},{"name":"阿蘇神社本殿","province":"東京都","city":"羽村市","address":"東京都羽村市羽加美4-6-7","lat":35.762913,"lon":139.297931},{"name":"羽村市図書館","province":"東京都","city":"羽村市","address":"東京都羽村市緑ヶ丘2丁目11-2","lat":35.76440514,"lon":139.31654616},{"name":"小作台図書室","province":"東京都","city":"羽村市","address":"東京都羽村市小作台5丁目6-4","lat":35.7747202,"lon":139.30078885},{"name":"第一配水場","province":"東京都","city":"羽村市","address":"東京都羽村市緑ケ丘2-18-5","lat":35.7647394,"lon":139.319607},{"name":"小作浄水場","province":"東京都","city":"羽村市","address":"東京都羽村市小作台4-2-1","lat":35.7761234,"lon":139.295803},{"name":"羽村まつの木保育園","province":"東京都","city":"羽村市","address":"羽村市小作台3-9-12","lat":35.77639,"lon":139.29802},{"name":"かやの実保育園","province":"東京都","city":"羽村市","address":"羽村市栄町2-1-5","lat":35.77195,"lon":139.30655},{"name":"富士見第一保育園","province":"東京都","city":"羽村市","address":"羽村市緑ヶ丘4-12-40","lat":35.76726,"lon":139.31453},{"name":"羽村たつの子保育園","province":"東京都","city":"羽村市","address":"羽村市五ノ神2-6-20","lat":35.76101,"lon":139.3206},{"name":"太陽の子保育園","province":"東京都","city":"羽村市","address":"羽村市五ノ神3-15-7","lat":35.7621,"lon":139.31966},{"name":"富士見第二保育園","province":"東京都","city":"羽村市","address":"羽村市富士見平2-3-16","lat":35.76303,"lon":139.32391},{"name":"羽村しらうめ保育園","province":"東京都","city":"羽村市","address":"羽村市羽東1-29-16","lat":35.76213,"lon":139.31235},{"name":"玉水保育園","province":"東京都","city":"羽村市","address":"羽村市羽東3-21-12","lat":35.75568,"lon":139.31007},{"name":"さくら保育園","province":"東京都","city":"羽村市","address":"羽村市羽加美2-16-1","lat":35.76581,"lon":139.3036},{"name":"まつぼっくり保育園","province":"東京都","city":"羽村市","address":"羽村市羽西1-7-3","lat":35.77147,"lon":139.30037},{"name":"チューリップ保育園","province":"東京都","city":"羽村市","address":"羽村市双葉町1-1-22","lat":35.76336,"lon":139.33096},{"name":"あおぞら保育園","province":"東京都","city":"羽村市","address":"羽村市神明台1-3-9","lat":35.75671,"lon":139.319},{"name":"羽村市","province":"東京都","city":"羽村市","address":"羽村市緑ケ丘5-2-1","lat":35.76751,"lon":139.31093},{"name":"羽村駅東口第一自転車駐車場","province":"東京都","city":"羽村市","address":"東京都羽村市五ノ神4丁目","lat":35.76052778,"lon":139.31565191},{"name":"羽村駅東口第三自転車駐車場","province":"東京都","city":"羽村市","address":"東京都羽村市五ノ神2丁目1-9","lat":35.76077509,"lon":139.31956547},{"name":"羽村駅東口第四自転車駐車場","province":"東京都","city":"羽村市","address":"東京都羽村市五ノ神1丁目","lat":35.75810868,"lon":139.31778513},{"name":"羽村駅西口第一自転車駐車場","province":"東京都","city":"羽村市","address":"東京都羽村市羽東1丁目16-8","lat":35.75781972,"lon":139.31426876},{"name":"羽村駅西口第二自転車駐車場","province":"東京都","city":"羽村市","address":"東京都羽村市羽東1丁目7-6","lat":35.75721985,"lon":139.31640472},{"name":"羽村駅西口第三自転車駐車場","province":"東京都","city":"羽村市","address":"東京都羽村市羽東1丁目18","lat":35.75882792,"lon":139.31361323},{"name":"羽村駅西口第四自転車駐車場","province":"東京都","city":"羽村市","address":"東京都羽村市羽東1丁目2","lat":35.7604583,"lon":139.31395483},{"name":"小作駅東口第二自転車駐車場","province":"東京都","city":"羽村市","address":"東京都羽村市栄町1丁目1","lat":35.77466196,"lon":139.30458021},{"name":"小作駅西口第二自転車駐車場","province":"東京都","city":"羽村市","address":"東京都羽村市小作台5丁目22","lat":35.77487023,"lon":139.30289423},{"name":"五ノ神ビル駐輪場","province":"東京都","city":"羽村市","address":"東京都羽村市五ノ神4丁目13-9","lat":35.7595946,"lon":139.3170796},{"name":"羽村市高齢福祉介護課介護予防・地域支援係","province":"東京都","city":"羽村市","address":"羽村市緑ヶ丘5-2-1(市役所内)","lat":35.767506,"lon":139.310928},{"name":"羽村市地域包括支援センターあさひ","province":"東京都","city":"羽村市","address":"羽村市富士見平1-3-1エムマンション1階A号室","lat":35.765984,"lon":139.323135},{"name":"羽村市地域包括支援センターあゆみ","province":"東京都","city":"羽村市","address":"羽村市羽加美1-9-2","lat":35.770855,"lon":139.303635},{"name":"羽村市高齢福祉介護課高齢福祉係","province":"東京都","city":"羽村市","address":"羽村市緑ヶ丘5-2-1","lat":35.767506,"lon":139.310928},{"name":"羽村市消費生活センター","province":"東京都","city":"羽村市","address":"羽村市緑ヶ丘5-1-30","lat":35.76709,"lon":139.310135},{"name":"羽村市地域包括支援センターあかしあ","province":"東京都","city":"羽村市","address":"羽村市玉川2-6-6","lat":35.749191,"lon":139.314972},{"name":"障害者就労継続支援Ｂ型事業いちょう","province":"東京都","city":"羽村市","address":"東京都羽村市栄町2丁目18-1","lat":35.770621,"lon":139.31305184},{"name":"地域活動支援センターⅠ型事業あおば","province":"東京都","city":"羽村市","address":"東京都羽村市栄町2丁目18-1","lat":35.770621,"lon":139.31305184},{"name":"社会福祉法人そよかぜ福祉作業所ひばり園","province":"東京都","city":"羽村市","address":"東京都羽村市栄町3丁目3-1","lat":35.77235412,"lon":139.31292959},{"name":"羽村しらうめ保育園","province":"東京都","city":"羽村市","address":"羽村市羽東1-29-16","lat":35.76214,"lon":139.31235},{"name":"富士見第二保育園","province":"東京都","city":"羽村市","address":"羽村市富士見平2-3-16","lat":35.7654,"lon":139.32941},{"name":"羽村街道","province":"東京都","city":"羽村市","address":"東京都羽村市神明台3丁目1-1","lat":35.76112241,"lon":139.32386788},{"name":"羽村四面道","province":"東京都","city":"羽村市","address":"東京都羽村市五ノ神3丁目5-16","lat":35.76322207,"lon":139.32066531},{"name":"羽村神明台一丁目","province":"東京都","city":"羽村市","address":"東京都羽村市神明台1丁目4-1","lat":35.75750045,"lon":139.31920171},{"name":"栄小学校入口","province":"東京都","city":"羽村市","address":"東京都羽村市栄町3丁目4-2","lat":35.77472338,"lon":139.31590149},{"name":"羽村グリーントリム入口","province":"東京都","city":"羽村市","address":"東京都羽村市小作台5丁目29-6","lat":35.77159562,"lon":139.30316096},{"name":"羽村間坂","province":"東京都","city":"羽村市","address":"東京都羽村市栄町2丁目22-5","lat":35.76829619,"lon":139.3103327},{"name":"羽村団地入口","province":"東京都","city":"羽村市","address":"東京都羽村市富士見平1丁目13-1","lat":35.76331376,"lon":139.32211796},{"name":"小作変電所前","province":"東京都","city":"羽村市","address":"東京都羽村市小作台1丁目29-16","lat":35.77612013,"lon":139.30464961},{"name":"羽村駅東口前","province":"東京都","city":"羽村市","address":"東京都羽村市五ノ神1丁目3-10","lat":35.75940575,"lon":139.31774066},{"name":"羽村消防署入口","province":"東京都","city":"羽村市","address":"東京都羽村市栄町3丁目3","lat":35.77165702,"lon":139.31421283},{"name":"羽村富士見小学校西","province":"東京都","city":"羽村市","address":"東京都羽村市緑ヶ丘1丁目23","lat":35.76199705,"lon":139.31518801},{"name":"富士見第一保育園前","province":"東京都","city":"羽村市","address":"東京都羽村市緑ヶ丘2丁目1-11","lat":35.76625489,"lon":139.31508512},{"name":"五ノ神武蔵野南","province":"東京都","city":"羽村市","address":"東京都羽村市五ノ神1丁目4","lat":35.75968074,"lon":139.3185267},{"name":"羽村栄町二丁目","province":"東京都","city":"羽村市","address":"東京都羽村市栄町2丁目10-7","lat":35.77073196,"lon":139.30830502},{"name":"羽村間坂西","province":"東京都","city":"羽村市","address":"東京都羽村市羽加美1丁目33","lat":35.76722399,"lon":139.30695522},{"name":"羽村富士見小学校北","province":"東京都","city":"羽村市","address":"東京都羽村市緑ヶ丘2丁目19","lat":35.76386914,"lon":139.31812939},{"name":"羽村郵便局前","province":"東京都","city":"羽村市","address":"東京都羽村市緑ヶ丘1丁目14","lat":35.76326912,"lon":139.31507688},{"name":"羽村栄町一丁目","province":"東京都","city":"羽村市","address":"東京都羽村市栄町1丁目12-1","lat":35.77444538,"lon":139.30666894},{"name":"羽村水木公園前","province":"東京都","city":"羽村市","address":"東京都羽村市神明台2丁目1","lat":35.7582338,"lon":139.3223181},{"name":"羽村郵便局北","province":"東京都","city":"羽村市","address":"東京都羽村市緑ヶ丘5丁目17-21","lat":35.76510218,"lon":139.31289368},{"name":"羽村郵便局前第二","province":"東京都","city":"羽村市","address":"東京都羽村市緑ヶ丘1丁目6-14","lat":35.76481057,"lon":139.31382416},{"name":"羽村公民館前","province":"東京都","city":"羽村市","address":"東京都羽村市緑ヶ丘2丁目11-2","lat":35.76440514,"lon":139.31654616},{"name":"羽村小作坂上第二","province":"東京都","city":"羽村市","address":"東京都羽村市小作台5丁目20-8","lat":35.77336205,"lon":139.30230821},{"name":"小作駅入口","province":"東京都","city":"羽村市","address":"東京都羽村市小作台4丁目11-1","lat":35.77478682,"lon":139.29957227},{"name":"羽村駅東口第二","province":"東京都","city":"羽村市","address":"東京都羽村市五ノ神1丁目2-10","lat":35.75866139,"lon":139.31777401},{"name":"羽村市役所前","province":"東京都","city":"羽村市","address":"東京都羽村市緑ヶ丘5丁目2-1","lat":35.76772958,"lon":139.31045492},{"name":"羽村街道西","province":"東京都","city":"羽村市","address":"東京都羽村市神明台2丁目1","lat":35.7582338,"lon":139.3223181},{"name":"羽村栄小学校前","province":"東京都","city":"羽村市","address":"東京都羽村市栄町2丁目6-4","lat":35.77280404,"lon":139.31182967},{"name":"羽村特別支援学校","province":"東京都","city":"羽村市","address":"東京都羽村市五ノ神319-1","lat":35.76854397,"lon":139.33101427},{"name":"羽村四面道南","province":"東京都","city":"羽村市","address":"東京都羽村市五ノ神3丁目1-53","lat":35.76354697,"lon":139.31869601},{"name":"羽村駅北","province":"東京都","city":"羽村市","address":"東京都羽村市五ノ神4丁目6-7","lat":35.76111661,"lon":139.31601297},{"name":"小作駅北第二","province":"東京都","city":"羽村市","address":"東京都羽村市小作台2丁目17-24","lat":35.779228,"lon":139.30085537},{"name":"羽村小作西","province":"東京都","city":"羽村市","address":"東京都羽村市小作台4丁目4-1","lat":35.77570335,"lon":139.29834179},{"name":"武蔵野公園入口","province":"東京都","city":"羽村市","address":"東京都羽村市栄町1丁目13-14","lat":35.77302333,"lon":139.30711338},{"name":"栄小学校西","province":"東京都","city":"羽村市","address":"東京都羽村市栄町2丁目7","lat":35.77254293,"lon":139.31072699},{"name":"五ノ神三丁目","province":"東京都","city":"羽村市","address":"東京都羽村市五ノ神3丁目16-1","lat":35.76238881,"lon":139.32036536},{"name":"羽村富士見公園入口","province":"東京都","city":"羽村市","address":"東京都羽村市緑ヶ丘4丁目10-17","lat":35.76808809,"lon":139.3179515},{"name":"羽村スポーツセンター北","province":"東京都","city":"羽村市","address":"東京都羽村市羽加美1丁目6-1","lat":35.76906262,"lon":139.30506922},{"name":"羽村栄町一丁目東","province":"東京都","city":"羽村市","address":"東京都羽村市栄町1丁目8-86","lat":35.77558695,"lon":139.30818823},{"name":"富士見平二丁目","province":"東京都","city":"羽村市","address":"東京都羽村市富士見平2丁目18","lat":35.76165011,"lon":139.32365121},{"name":"小作台一丁目","province":"東京都","city":"羽村市","address":"東京都羽村市小作台1丁目20-5","lat":35.77694502,"lon":139.30413573},{"name":"小作浄水場","province":"東京都","city":"羽村市","address":"東京都羽村市小作台4丁目2-1","lat":35.77612268,"lon":139.2958031},{"name":"(有)西村商店","province":"東京都","city":"羽村市","address":"羽村市神明台3-33-25","lat":35.759457,"lon":139.325348},{"name":"(株)鈴商  羽村事業所","province":"東京都","city":"羽村市","address":"羽村市五ノ神361-1","lat":35.771442,"lon":139.330597},{"name":"環境センター","province":"東京都","city":"羽村市","address":"東京都羽村市羽","lat":35.758251,"lon":139.298889},{"name":"羽村市","province":"東京都","city":"羽村市","address":"羽村市緑ケ丘5-2-1","lat":35.767746,"lon":139.310547},{"name":"羽村市保健センター","province":"東京都","city":"羽村市","address":"東京都羽村市緑ヶ丘5丁目5-2","lat":35.76879339,"lon":139.31174922},{"name":"羽村高等学校","province":"東京都","city":"羽村市","address":"東京都羽村市羽4152-1","lat":35.76512217,"lon":139.33141434},{"name":"羽村市スポーツセンター","province":"東京都","city":"羽村市","address":"東京都羽村市羽加美1丁目29-5","lat":35.76826834,"lon":139.30764403},{"name":"羽村市本庁舎","province":"東京都","city":"羽村市","address":"羽村市緑ヶ丘5-2-1","lat":35.767766,"lon":139.310538},{"name":"りあん","province":"東京都","city":"羽村市","address":"羽村市栄町二丁目7番地27ユウヒハイム106","lat":35.772457,"lon":139.310455},{"name":"五乃神学園","province":"東京都","city":"羽村市","address":"羽村市五ノ神345","lat":35.768052,"lon":139.332695},{"name":"パレットルーム羽村教室","province":"東京都","city":"羽村市","address":"羽村市五ノ神4-1-8日芳ビル2階","lat":35.760311,"lon":139.314758},{"name":"わくわくプレイス","province":"東京都","city":"羽村市","address":"羽村市富士見平1-3-1エムマンション101","lat":35.765961,"lon":139.322854},{"name":"リアン羽西店","province":"東京都","city":"羽村市","address":"羽村市羽西2-6-9-1階","lat":35.769987,"lon":139.298028},{"name":"羽村市図書館","province":"東京都","city":"羽村市","address":"東京都羽村市緑ヶ丘2丁目11-2","lat":35.76440514,"lon":139.31654616},{"name":"小作台図書室","province":"東京都","city":"羽村市","address":"東京都羽村市小作台5丁目6-4","lat":35.7747202,"lon":139.30078885},{"name":"第一配水場","province":"東京都","city":"羽村市","address":"東京都羽村市緑ケ丘2-18-5","lat":35.7647394,"lon":139.319607},{"name":"小作浄水場","province":"東京都","city":"羽村市","address":"東京都羽村市小作台4-2-1","lat":35.7761234,"lon":139.295803},{"name":"羽村市","province":"東京都","city":"羽村市","address":"羽村市緑ケ丘5-2-1","lat":35.76751,"lon":139.31093},{"name":"羽村駅東口第一自転車駐車場","province":"東京都","city":"羽村市","address":"東京都羽村市五ノ神4丁目","lat":35.76052778,"lon":139.31565191},{"name":"羽村駅東口第三自転車駐車場","province":"東京都","city":"羽村市","address":"東京都羽村市五ノ神2丁目1-9","lat":35.76077509,"lon":139.31956547},{"name":"羽村駅東口第四自転車駐車場","province":"東京都","city":"羽村市","address":"東京都羽村市五ノ神1丁目","lat":35.75810868,"lon":139.31778513},{"name":"羽村駅西口第一自転車駐車場","province":"東京都","city":"羽村市","address":"東京都羽村市羽東1丁目16-8","lat":35.75781972,"lon":139.31426876},{"name":"羽村駅西口第二自転車駐車場","province":"東京都","city":"羽村市","address":"東京都羽村市羽東1丁目7-6","lat":35.75721985,"lon":139.31640472},{"name":"羽村駅西口第三自転車駐車場","province":"東京都","city":"羽村市","address":"東京都羽村市羽東1丁目18","lat":35.75882792,"lon":139.31361323},{"name":"羽村駅西口第四自転車駐車場","province":"東京都","city":"羽村市","address":"東京都羽村市羽東1丁目2","lat":35.7604583,"lon":139.31395483},{"name":"小作駅東口第二自転車駐車場","province":"東京都","city":"羽村市","address":"東京都羽村市栄町1丁目1","lat":35.77466196,"lon":139.30458021},{"name":"小作駅西口第二自転車駐車場","province":"東京都","city":"羽村市","address":"東京都羽村市小作台5丁目22","lat":35.77487023,"lon":139.30289423},{"name":"五ノ神ビル駐輪場","province":"東京都","city":"羽村市","address":"東京都羽村市五ノ神4丁目13-9","lat":35.7595946,"lon":139.3170796},{"name":"羽村市高齢福祉介護課介護予防・地域支援係","province":"東京都","city":"羽村市","address":"羽村市緑ヶ丘5-2-1(市役所内)","lat":35.767506,"lon":139.310928},{"name":"羽村市地域包括支援センターあさひ","province":"東京都","city":"羽村市","address":"羽村市富士見平1-3-1エムマンション1階A号室","lat":35.765984,"lon":139.323135},{"name":"羽村市地域包括支援センターあゆみ","province":"東京都","city":"羽村市","address":"羽村市羽加美1-9-2","lat":35.770855,"lon":139.303635},{"name":"羽村市高齢福祉介護課高齢福祉係","province":"東京都","city":"羽村市","address":"羽村市緑ヶ丘5-2-1","lat":35.767506,"lon":139.310928},{"name":"羽村市消費生活センター","province":"東京都","city":"羽村市","address":"羽村市緑ヶ丘5-1-30","lat":35.76709,"lon":139.310135},{"name":"羽村市地域包括支援センターあかしあ","province":"東京都","city":"羽村市","address":"羽村市玉川2-6-6","lat":35.749191,"lon":139.314972},{"name":"羽村街道","province":"東京都","city":"羽村市","address":"東京都羽村市神明台3丁目1-1","lat":35.76112241,"lon":139.32386788},{"name":"羽村四面道","province":"東京都","city":"羽村市","address":"東京都羽村市五ノ神3丁目5-16","lat":35.76322207,"lon":139.32066531},{"name":"羽村神明台一丁目","province":"東京都","city":"羽村市","address":"東京都羽村市神明台1丁目4-1","lat":35.75750045,"lon":139.31920171},{"name":"栄小学校入口","province":"東京都","city":"羽村市","address":"東京都羽村市栄町3丁目4-2","lat":35.77472338,"lon":139.31590149},{"name":"羽村グリーントリム入口","province":"東京都","city":"羽村市","address":"東京都羽村市小作台5丁目29-6","lat":35.77159562,"lon":139.30316096},{"name":"羽村間坂","province":"東京都","city":"羽村市","address":"東京都羽村市栄町2丁目22-5","lat":35.76829619,"lon":139.3103327},{"name":"羽村団地入口","province":"東京都","city":"羽村市","address":"東京都羽村市富士見平1丁目13-1","lat":35.76331376,"lon":139.32211796},{"name":"小作変電所前","province":"東京都","city":"羽村市","address":"東京都羽村市小作台1丁目29-16","lat":35.77612013,"lon":139.30464961},{"name":"羽村駅東口前","province":"東京都","city":"羽村市","address":"東京都羽村市五ノ神1丁目3-10","lat":35.75940575,"lon":139.31774066},{"name":"羽村消防署入口","province":"東京都","city":"羽村市","address":"東京都羽村市栄町3丁目3","lat":35.77165702,"lon":139.31421283},{"name":"羽村富士見小学校西","province":"東京都","city":"羽村市","address":"東京都羽村市緑ヶ丘1丁目23","lat":35.76199705,"lon":139.31518801},{"name":"富士見第一保育園前","province":"東京都","city":"羽村市","address":"東京都羽村市緑ヶ丘2丁目1-11","lat":35.76625489,"lon":139.31508512},{"name":"五ノ神武蔵野南","province":"東京都","city":"羽村市","address":"東京都羽村市五ノ神1丁目4","lat":35.75968074,"lon":139.3185267},{"name":"羽村栄町二丁目","province":"東京都","city":"羽村市","address":"東京都羽村市栄町2丁目10-7","lat":35.77073196,"lon":139.30830502},{"name":"羽村間坂西","province":"東京都","city":"羽村市","address":"東京都羽村市羽加美1丁目33","lat":35.76722399,"lon":139.30695522},{"name":"羽村富士見小学校北","province":"東京都","city":"羽村市","address":"東京都羽村市緑ヶ丘2丁目19","lat":35.76386914,"lon":139.31812939},{"name":"羽村郵便局前","province":"東京都","city":"羽村市","address":"東京都羽村市緑ヶ丘1丁目14","lat":35.76326912,"lon":139.31507688},{"name":"羽村栄町一丁目","province":"東京都","city":"羽村市","address":"東京都羽村市栄町1丁目12-1","lat":35.77444538,"lon":139.30666894},{"name":"羽村水木公園前","province":"東京都","city":"羽村市","address":"東京都羽村市神明台2丁目1","lat":35.7582338,"lon":139.3223181},{"name":"羽村郵便局北","province":"東京都","city":"羽村市","address":"東京都羽村市緑ヶ丘5丁目17-21","lat":35.76510218,"lon":139.31289368},{"name":"羽村郵便局前第二","province":"東京都","city":"羽村市","address":"東京都羽村市緑ヶ丘1丁目6-14","lat":35.76481057,"lon":139.31382416},{"name":"羽村公民館前","province":"東京都","city":"羽村市","address":"東京都羽村市緑ヶ丘2丁目11-2","lat":35.76440514,"lon":139.31654616},{"name":"羽村小作坂上第二","province":"東京都","city":"羽村市","address":"東京都羽村市小作台5丁目20-8","lat":35.77336205,"lon":139.30230821},{"name":"小作駅入口","province":"東京都","city":"羽村市","address":"東京都羽村市小作台4丁目11-1","lat":35.77478682,"lon":139.29957227},{"name":"羽村駅東口第二","province":"東京都","city":"羽村市","address":"東京都羽村市五ノ神1丁目2-10","lat":35.75866139,"lon":139.31777401},{"name":"羽村市役所前","province":"東京都","city":"羽村市","address":"東京都羽村市緑ヶ丘5丁目2-1","lat":35.76772958,"lon":139.31045492},{"name":"羽村街道西","province":"東京都","city":"羽村市","address":"東京都羽村市神明台2丁目1","lat":35.7582338,"lon":139.3223181},{"name":"羽村栄小学校前","province":"東京都","city":"羽村市","address":"東京都羽村市栄町2丁目6-4","lat":35.77280404,"lon":139.31182967},{"name":"羽村特別支援学校","province":"東京都","city":"羽村市","address":"東京都羽村市五ノ神319-1","lat":35.76854397,"lon":139.33101427},{"name":"羽村四面道南","province":"東京都","city":"羽村市","address":"東京都羽村市五ノ神3丁目1-53","lat":35.76354697,"lon":139.31869601},{"name":"羽村駅北","province":"東京都","city":"羽村市","address":"東京都羽村市五ノ神4丁目6-7","lat":35.76111661,"lon":139.31601297},{"name":"小作駅北第二","province":"東京都","city":"羽村市","address":"東京都羽村市小作台2丁目17-24","lat":35.779228,"lon":139.30085537},{"name":"羽村小作西","province":"東京都","city":"羽村市","address":"東京都羽村市小作台4丁目4-1","lat":35.77570335,"lon":139.29834179},{"name":"武蔵野公園入口","province":"東京都","city":"羽村市","address":"東京都羽村市栄町1丁目13-14","lat":35.77302333,"lon":139.30711338},{"name":"栄小学校西","province":"東京都","city":"羽村市","address":"東京都羽村市栄町2丁目7","lat":35.77254293,"lon":139.31072699},{"name":"五ノ神三丁目","province":"東京都","city":"羽村市","address":"東京都羽村市五ノ神3丁目16-1","lat":35.76238881,"lon":139.32036536},{"name":"羽村富士見公園入口","province":"東京都","city":"羽村市","address":"東京都羽村市緑ヶ丘4丁目10-17","lat":35.76808809,"lon":139.3179515},{"name":"羽村スポーツセンター北","province":"東京都","city":"羽村市","address":"東京都羽村市羽加美1丁目6-1","lat":35.76906262,"lon":139.30506922},{"name":"羽村栄町一丁目東","province":"東京都","city":"羽村市","address":"東京都羽村市栄町1丁目8-86","lat":35.77558695,"lon":139.30818823},{"name":"富士見平二丁目","province":"東京都","city":"羽村市","address":"東京都羽村市富士見平2丁目18","lat":35.76165011,"lon":139.32365121},{"name":"小作台一丁目","province":"東京都","city":"羽村市","address":"東京都羽村市小作台1丁目20-5","lat":35.77694502,"lon":139.30413573},{"name":"(有)西村商店","province":"東京都","city":"羽村市","address":"羽村市神明台3-33-25","lat":35.759457,"lon":139.325348},{"name":"(株)鈴商  羽村事業所","province":"東京都","city":"羽村市","address":"羽村市五ノ神361-1","lat":35.771442,"lon":139.330597},{"name":"環境センター","province":"東京都","city":"羽村市","address":"東京都羽村市羽","lat":35.758251,"lon":139.298889},{"name":"羽村市","province":"東京都","city":"羽村市","address":"羽村市緑ケ丘5-2-1","lat":35.767746,"lon":139.310547},{"name":"りあん","province":"東京都","city":"羽村市","address":"羽村市栄町二丁目7番地27ユウヒハイム106","lat":35.772457,"lon":139.310455},{"name":"五乃神学園","province":"東京都","city":"羽村市","address":"羽村市五ノ神345","lat":35.768052,"lon":139.332695},{"name":"パレットルーム羽村教室","province":"東京都","city":"羽村市","address":"羽村市五ノ神4-1-8日芳ビル2階","lat":35.760311,"lon":139.314758},{"name":"わくわくプレイス","province":"東京都","city":"羽村市","address":"羽村市富士見平1-3-1エムマンション101","lat":35.765961,"lon":139.322854},{"name":"リアン羽西店","province":"東京都","city":"羽村市","address":"羽村市羽西2-6-9-1階","lat":35.769987,"lon":139.298028},{"name":"羽村市図書館","province":"東京都","city":"羽村市","address":"東京都羽村市緑ヶ丘2丁目11-2","lat":35.76440514,"lon":139.31654616},{"name":"小作台図書室","province":"東京都","city":"羽村市","address":"東京都羽村市小作台5丁目6-4","lat":35.7747202,"lon":139.30078885},{"name":"第一配水場","province":"東京都","city":"羽村市","address":"東京都羽村市緑ケ丘2-18-5","lat":35.7647394,"lon":139.319607},{"name":"小作浄水場","province":"東京都","city":"羽村市","address":"東京都羽村市小作台4-2-1","lat":35.7761234,"lon":139.295803},{"name":"羽村駅東口第一自転車駐車場","province":"東京都","city":"羽村市","address":"東京都羽村市五ノ神4丁目","lat":35.76052778,"lon":139.31565191},{"name":"羽村駅東口第三自転車駐車場","province":"東京都","city":"羽村市","address":"東京都羽村市五ノ神2丁目1-9","lat":35.76077509,"lon":139.31956547},{"name":"羽村駅東口第四自転車駐車場","province":"東京都","city":"羽村市","address":"東京都羽村市五ノ神1丁目","lat":35.75810868,"lon":139.31778513},{"name":"羽村駅西口第一自転車駐車場","province":"東京都","city":"羽村市","address":"東京都羽村市羽東1丁目16-8","lat":35.75781972,"lon":139.31426876},{"name":"羽村駅西口第二自転車駐車場","province":"東京都","city":"羽村市","address":"東京都羽村市羽東1丁目7-6","lat":35.75721985,"lon":139.31640472},{"name":"羽村駅西口第三自転車駐車場","province":"東京都","city":"羽村市","address":"東京都羽村市羽東1丁目18","lat":35.75882792,"lon":139.31361323},{"name":"羽村駅西口第四自転車駐車場","province":"東京都","city":"羽村市","address":"東京都羽村市羽東1丁目2","lat":35.7604583,"lon":139.31395483},{"name":"小作駅東口第二自転車駐車場","province":"東京都","city":"羽村市","address":"東京都羽村市栄町1丁目1","lat":35.77466196,"lon":139.30458021},{"name":"小作駅西口第二自転車駐車場","province":"東京都","city":"羽村市","address":"東京都羽村市小作台5丁目22","lat":35.77487023,"lon":139.30289423},{"name":"五ノ神ビル駐輪場","province":"東京都","city":"羽村市","address":"東京都羽村市五ノ神4丁目13-9","lat":35.7595946,"lon":139.3170796},{"name":"羽村市高齢福祉介護課介護予防・地域支援係","province":"東京都","city":"羽村市","address":"羽村市緑ヶ丘5-2-1(市役所内)","lat":35.767506,"lon":139.310928},{"name":"羽村市地域包括支援センターあさひ","province":"東京都","city":"羽村市","address":"羽村市富士見平1-3-1エムマンション1階A号室","lat":35.765984,"lon":139.323135},{"name":"羽村市地域包括支援センターあゆみ","province":"東京都","city":"羽村市","address":"羽村市羽加美1-9-2","lat":35.770855,"lon":139.303635},{"name":"羽村市高齢福祉介護課高齢福祉係","province":"東京都","city":"羽村市","address":"羽村市緑ヶ丘5-2-1","lat":35.767506,"lon":139.310928},{"name":"羽村市消費生活センター","province":"東京都","city":"羽村市","address":"羽村市緑ヶ丘5-1-30","lat":35.76709,"lon":139.310135},{"name":"羽村市地域包括支援センターあかしあ","province":"東京都","city":"羽村市","address":"羽村市玉川2-6-6","lat":35.749191,"lon":139.314972},{"name":"羽村街道","province":"東京都","city":"羽村市","address":"東京都羽村市神明台3丁目1-1","lat":35.76112241,"lon":139.32386788},{"name":"羽村四面道","province":"東京都","city":"羽村市","address":"東京都羽村市五ノ神3丁目5-16","lat":35.76322207,"lon":139.32066531},{"name":"羽村神明台一丁目","province":"東京都","city":"羽村市","address":"東京都羽村市神明台1丁目4-1","lat":35.75750045,"lon":139.31920171},{"name":"栄小学校入口","province":"東京都","city":"羽村市","address":"東京都羽村市栄町3丁目4-2","lat":35.77472338,"lon":139.31590149},{"name":"羽村グリーントリム入口","province":"東京都","city":"羽村市","address":"東京都羽村市小作台5丁目29-6","lat":35.77159562,"lon":139.30316096},{"name":"羽村間坂","province":"東京都","city":"羽村市","address":"東京都羽村市栄町2丁目22-5","lat":35.76829619,"lon":139.3103327},{"name":"羽村団地入口","province":"東京都","city":"羽村市","address":"東京都羽村市富士見平1丁目13-1","lat":35.76331376,"lon":139.32211796},{"name":"小作変電所前","province":"東京都","city":"羽村市","address":"東京都羽村市小作台1丁目29-16","lat":35.77612013,"lon":139.30464961},{"name":"羽村駅東口前","province":"東京都","city":"羽村市","address":"東京都羽村市五ノ神1丁目3-10","lat":35.75940575,"lon":139.31774066},{"name":"羽村消防署入口","province":"東京都","city":"羽村市","address":"東京都羽村市栄町3丁目3","lat":35.77165702,"lon":139.31421283},{"name":"羽村富士見小学校西","province":"東京都","city":"羽村市","address":"東京都羽村市緑ヶ丘1丁目23","lat":35.76199705,"lon":139.31518801},{"name":"富士見第一保育園前","province":"東京都","city":"羽村市","address":"東京都羽村市緑ヶ丘2丁目1-11","lat":35.76625489,"lon":139.31508512},{"name":"五ノ神武蔵野南","province":"東京都","city":"羽村市","address":"東京都羽村市五ノ神1丁目4","lat":35.75968074,"lon":139.3185267},{"name":"羽村栄町二丁目","province":"東京都","city":"羽村市","address":"東京都羽村市栄町2丁目10-7","lat":35.77073196,"lon":139.30830502},{"name":"羽村間坂西","province":"東京都","city":"羽村市","address":"東京都羽村市羽加美1丁目33","lat":35.76722399,"lon":139.30695522},{"name":"羽村富士見小学校北","province":"東京都","city":"羽村市","address":"東京都羽村市緑ヶ丘2丁目19","lat":35.76386914,"lon":139.31812939},{"name":"羽村郵便局前","province":"東京都","city":"羽村市","address":"東京都羽村市緑ヶ丘1丁目14","lat":35.76326912,"lon":139.31507688},{"name":"羽村栄町一丁目","province":"東京都","city":"羽村市","address":"東京都羽村市栄町1丁目12-1","lat":35.77444538,"lon":139.30666894},{"name":"羽村水木公園前","province":"東京都","city":"羽村市","address":"東京都羽村市神明台2丁目1","lat":35.7582338,"lon":139.3223181},{"name":"羽村郵便局北","province":"東京都","city":"羽村市","address":"東京都羽村市緑ヶ丘5丁目17-21","lat":35.76510218,"lon":139.31289368},{"name":"羽村郵便局前第二","province":"東京都","city":"羽村市","address":"東京都羽村市緑ヶ丘1丁目6-14","lat":35.76481057,"lon":139.31382416},{"name":"羽村公民館前","province":"東京都","city":"羽村市","address":"東京都羽村市緑ヶ丘2丁目11-2","lat":35.76440514,"lon":139.31654616},{"name":"羽村小作坂上第二","province":"東京都","city":"羽村市","address":"東京都羽村市小作台5丁目20-8","lat":35.77336205,"lon":139.30230821},{"name":"小作駅入口","province":"東京都","city":"羽村市","address":"東京都羽村市小作台4丁目11-1","lat":35.77478682,"lon":139.29957227},{"name":"羽村駅東口第二","province":"東京都","city":"羽村市","address":"東京都羽村市五ノ神1丁目2-10","lat":35.75866139,"lon":139.31777401},{"name":"羽村市役所前","province":"東京都","city":"羽村市","address":"東京都羽村市緑ヶ丘5丁目2-1","lat":35.76772958,"lon":139.31045492},{"name":"羽村街道西","province":"東京都","city":"羽村市","address":"東京都羽村市神明台2丁目1","lat":35.7582338,"lon":139.3223181},{"name":"羽村栄小学校前","province":"東京都","city":"羽村市","address":"東京都羽村市栄町2丁目6-4","lat":35.77280404,"lon":139.31182967},{"name":"羽村特別支援学校","province":"東京都","city":"羽村市","address":"東京都羽村市五ノ神319-1","lat":35.76854397,"lon":139.33101427},{"name":"羽村四面道南","province":"東京都","city":"羽村市","address":"東京都羽村市五ノ神3丁目1-53","lat":35.76354697,"lon":139.31869601},{"name":"羽村駅北","province":"東京都","city":"羽村市","address":"東京都羽村市五ノ神4丁目6-7","lat":35.76111661,"lon":139.31601297},{"name":"小作駅北第二","province":"東京都","city":"羽村市","address":"東京都羽村市小作台2丁目17-24","lat":35.779228,"lon":139.30085537},{"name":"羽村小作西","province":"東京都","city":"羽村市","address":"東京都羽村市小作台4丁目4-1","lat":35.77570335,"lon":139.29834179},{"name":"武蔵野公園入口","province":"東京都","city":"羽村市","address":"東京都羽村市栄町1丁目13-14","lat":35.77302333,"lon":139.30711338},{"name":"栄小学校西","province":"東京都","city":"羽村市","address":"東京都羽村市栄町2丁目7","lat":35.77254293,"lon":139.31072699},{"name":"五ノ神三丁目","province":"東京都","city":"羽村市","address":"東京都羽村市五ノ神3丁目16-1","lat":35.76238881,"lon":139.32036536},{"name":"羽村富士見公園入口","province":"東京都","city":"羽村市","address":"東京都羽村市緑ヶ丘4丁目10-17","lat":35.76808809,"lon":139.3179515},{"name":"羽村スポーツセンター北","province":"東京都","city":"羽村市","address":"東京都羽村市羽加美1丁目6-1","lat":35.76906262,"lon":139.30506922},{"name":"羽村栄町一丁目東","province":"東京都","city":"羽村市","address":"東京都羽村市栄町1丁目8-86","lat":35.77558695,"lon":139.30818823},{"name":"富士見平二丁目","province":"東京都","city":"羽村市","address":"東京都羽村市富士見平2丁目18","lat":35.76165011,"lon":139.32365121},{"name":"小作台一丁目","province":"東京都","city":"羽村市","address":"東京都羽村市小作台1丁目20-5","lat":35.77694502,"lon":139.30413573},{"name":"(有)西村商店","province":"東京都","city":"羽村市","address":"羽村市神明台3-33-25","lat":35.759457,"lon":139.325348},{"name":"(株)鈴商  羽村事業所","province":"東京都","city":"羽村市","address":"羽村市五ノ神361-1","lat":35.771442,"lon":139.330597},{"name":"環境センター","province":"東京都","city":"羽村市","address":"東京都羽村市羽","lat":35.758251,"lon":139.298889},{"name":"りあん","province":"東京都","city":"羽村市","address":"羽村市栄町二丁目7番地27ユウヒハイム106","lat":35.772457,"lon":139.310455},{"name":"五乃神学園","province":"東京都","city":"羽村市","address":"羽村市五ノ神345","lat":35.768052,"lon":139.332695},{"name":"パレットルーム羽村教室","province":"東京都","city":"羽村市","address":"羽村市五ノ神4-1-8日芳ビル2階","lat":35.760311,"lon":139.314758},{"name":"わくわくプレイス","province":"東京都","city":"羽村市","address":"羽村市富士見平1-3-1エムマンション101","lat":35.765961,"lon":139.322854},{"name":"リアン羽西店","province":"東京都","city":"羽村市","address":"羽村市羽西2-6-9-1階","lat":35.769987,"lon":139.298028},{"name":"羽村市図書館","province":"東京都","city":"羽村市","address":"東京都羽村市緑ヶ丘2丁目11-2","lat":35.76440514,"lon":139.31654616},{"name":"小作台図書室","province":"東京都","city":"羽村市","address":"東京都羽村市小作台5丁目6-4","lat":35.7747202,"lon":139.30078885},{"name":"第一配水場","province":"東京都","city":"羽村市","address":"東京都羽村市緑ケ丘2-18-5","lat":35.7647394,"lon":139.319607},{"name":"小作浄水場","province":"東京都","city":"羽村市","address":"東京都羽村市小作台4-2-1","lat":35.7761234,"lon":139.295803},{"name":"羽村駅東口第一自転車駐車場","province":"東京都","city":"羽村市","address":"東京都羽村市五ノ神4丁目","lat":35.76052778,"lon":139.31565191},{"name":"羽村駅東口第三自転車駐車場","province":"東京都","city":"羽村市","address":"東京都羽村市五ノ神2丁目1-9","lat":35.76077509,"lon":139.31956547},{"name":"羽村駅東口第四自転車駐車場","province":"東京都","city":"羽村市","address":"東京都羽村市五ノ神1丁目","lat":35.75810868,"lon":139.31778513},{"name":"羽村駅西口第一自転車駐車場","province":"東京都","city":"羽村市","address":"東京都羽村市羽東1丁目16-8","lat":35.75781972,"lon":139.31426876},{"name":"羽村駅西口第二自転車駐車場","province":"東京都","city":"羽村市","address":"東京都羽村市羽東1丁目7-6","lat":35.75721985,"lon":139.31640472},{"name":"羽村駅西口第三自転車駐車場","province":"東京都","city":"羽村市","address":"東京都羽村市羽東1丁目18","lat":35.75882792,"lon":139.31361323},{"name":"羽村駅西口第四自転車駐車場","province":"東京都","city":"羽村市","address":"東京都羽村市羽東1丁目2","lat":35.7604583,"lon":139.31395483},{"name":"小作駅東口第二自転車駐車場","province":"東京都","city":"羽村市","address":"東京都羽村市栄町1丁目1","lat":35.77466196,"lon":139.30458021},{"name":"小作駅西口第二自転車駐車場","province":"東京都","city":"羽村市","address":"東京都羽村市小作台5丁目22","lat":35.77487023,"lon":139.30289423},{"name":"五ノ神ビル駐輪場","province":"東京都","city":"羽村市","address":"東京都羽村市五ノ神4丁目13-9","lat":35.7595946,"lon":139.3170796},{"name":"羽村街道","province":"東京都","city":"羽村市","address":"東京都羽村市神明台3丁目1-1","lat":35.76112241,"lon":139.32386788},{"name":"羽村四面道","province":"東京都","city":"羽村市","address":"東京都羽村市五ノ神3丁目5-16","lat":35.76322207,"lon":139.32066531},{"name":"羽村神明台一丁目","province":"東京都","city":"羽村市","address":"東京都羽村市神明台1丁目4-1","lat":35.75750045,"lon":139.31920171},{"name":"栄小学校入口","province":"東京都","city":"羽村市","address":"東京都羽村市栄町3丁目4-2","lat":35.77472338,"lon":139.31590149},{"name":"羽村グリーントリム入口","province":"東京都","city":"羽村市","address":"東京都羽村市小作台5丁目29-6","lat":35.77159562,"lon":139.30316096},{"name":"羽村間坂","province":"東京都","city":"羽村市","address":"東京都羽村市栄町2丁目22-5","lat":35.76829619,"lon":139.3103327},{"name":"羽村団地入口","province":"東京都","city":"羽村市","address":"東京都羽村市富士見平1丁目13-1","lat":35.76331376,"lon":139.32211796},{"name":"小作変電所前","province":"東京都","city":"羽村市","address":"東京都羽村市小作台1丁目29-16","lat":35.77612013,"lon":139.30464961},{"name":"羽村駅東口前","province":"東京都","city":"羽村市","address":"東京都羽村市五ノ神1丁目3-10","lat":35.75940575,"lon":139.31774066},{"name":"羽村消防署入口","province":"東京都","city":"羽村市","address":"東京都羽村市栄町3丁目3","lat":35.77165702,"lon":139.31421283},{"name":"羽村富士見小学校西","province":"東京都","city":"羽村市","address":"東京都羽村市緑ヶ丘1丁目23","lat":35.76199705,"lon":139.31518801},{"name":"富士見第一保育園前","province":"東京都","city":"羽村市","address":"東京都羽村市緑ヶ丘2丁目1-11","lat":35.76625489,"lon":139.31508512},{"name":"五ノ神武蔵野南","province":"東京都","city":"羽村市","address":"東京都羽村市五ノ神1丁目4","lat":35.75968074,"lon":139.3185267},{"name":"羽村栄町二丁目","province":"東京都","city":"羽村市","address":"東京都羽村市栄町2丁目10-7","lat":35.77073196,"lon":139.30830502},{"name":"羽村間坂西","province":"東京都","city":"羽村市","address":"東京都羽村市羽加美1丁目33","lat":35.76722399,"lon":139.30695522},{"name":"羽村富士見小学校北","province":"東京都","city":"羽村市","address":"東京都羽村市緑ヶ丘2丁目19","lat":35.76386914,"lon":139.31812939},{"name":"羽村郵便局前","province":"東京都","city":"羽村市","address":"東京都羽村市緑ヶ丘1丁目14","lat":35.76326912,"lon":139.31507688},{"name":"羽村栄町一丁目","province":"東京都","city":"羽村市","address":"東京都羽村市栄町1丁目12-1","lat":35.77444538,"lon":139.30666894},{"name":"羽村水木公園前","province":"東京都","city":"羽村市","address":"東京都羽村市神明台2丁目1","lat":35.7582338,"lon":139.3223181},{"name":"羽村郵便局北","province":"東京都","city":"羽村市","address":"東京都羽村市緑ヶ丘5丁目17-21","lat":35.76510218,"lon":139.31289368},{"name":"羽村郵便局前第二","province":"東京都","city":"羽村市","address":"東京都羽村市緑ヶ丘1丁目6-14","lat":35.76481057,"lon":139.31382416},{"name":"羽村公民館前","province":"東京都","city":"羽村市","address":"東京都羽村市緑ヶ丘2丁目11-2","lat":35.76440514,"lon":139.31654616},{"name":"羽村小作坂上第二","province":"東京都","city":"羽村市","address":"東京都羽村市小作台5丁目20-8","lat":35.77336205,"lon":139.30230821},{"name":"小作駅入口","province":"東京都","city":"羽村市","address":"東京都羽村市小作台4丁目11-1","lat":35.77478682,"lon":139.29957227},{"name":"羽村駅東口第二","province":"東京都","city":"羽村市","address":"東京都羽村市五ノ神1丁目2-10","lat":35.75866139,"lon":139.31777401},{"name":"羽村市役所前","province":"東京都","city":"羽村市","address":"東京都羽村市緑ヶ丘5丁目2-1","lat":35.76772958,"lon":139.31045492},{"name":"羽村街道西","province":"東京都","city":"羽村市","address":"東京都羽村市神明台2丁目1","lat":35.7582338,"lon":139.3223181},{"name":"羽村栄小学校前","province":"東京都","city":"羽村市","address":"東京都羽村市栄町2丁目6-4","lat":35.77280404,"lon":139.31182967},{"name":"羽村特別支援学校","province":"東京都","city":"羽村市","address":"東京都羽村市五ノ神319-1","lat":35.76854397,"lon":139.33101427},{"name":"羽村四面道南","province":"東京都","city":"羽村市","address":"東京都羽村市五ノ神3丁目1-53","lat":35.76354697,"lon":139.31869601},{"name":"羽村駅北","province":"東京都","city":"羽村市","address":"東京都羽村市五ノ神4丁目6-7","lat":35.76111661,"lon":139.31601297},{"name":"小作駅北第二","province":"東京都","city":"羽村市","address":"東京都羽村市小作台2丁目17-24","lat":35.779228,"lon":139.30085537},{"name":"羽村小作西","province":"東京都","city":"羽村市","address":"東京都羽村市小作台4丁目4-1","lat":35.77570335,"lon":139.29834179},{"name":"武蔵野公園入口","province":"東京都","city":"羽村市","address":"東京都羽村市栄町1丁目13-14","lat":35.77302333,"lon":139.30711338},{"name":"栄小学校西","province":"東京都","city":"羽村市","address":"東京都羽村市栄町2丁目7","lat":35.77254293,"lon":139.31072699},{"name":"五ノ神三丁目","province":"東京都","city":"羽村市","address":"東京都羽村市五ノ神3丁目16-1","lat":35.76238881,"lon":139.32036536},{"name":"羽村富士見公園入口","province":"東京都","city":"羽村市","address":"東京都羽村市緑ヶ丘4丁目10-17","lat":35.76808809,"lon":139.3179515},{"name":"羽村スポーツセンター北","province":"東京都","city":"羽村市","address":"東京都羽村市羽加美1丁目6-1","lat":35.76906262,"lon":139.30506922},{"name":"羽村栄町一丁目東","province":"東京都","city":"羽村市","address":"東京都羽村市栄町1丁目8-86","lat":35.77558695,"lon":139.30818823},{"name":"富士見平二丁目","province":"東京都","city":"羽村市","address":"東京都羽村市富士見平2丁目18","lat":35.76165011,"lon":139.32365121},{"name":"小作台一丁目","province":"東京都","city":"羽村市","address":"東京都羽村市小作台1丁目20-5","lat":35.77694502,"lon":139.30413573},{"name":"(有)西村商店","province":"東京都","city":"羽村市","address":"羽村市神明台3-33-25","lat":35.759457,"lon":139.325348},{"name":"(株)鈴商  羽村事業所","province":"東京都","city":"羽村市","address":"羽村市五ノ神361-1","lat":35.771442,"lon":139.330597},{"name":"環境センター","province":"東京都","city":"羽村市","address":"東京都羽村市羽","lat":35.758251,"lon":139.298889},{"name":"りあん","province":"東京都","city":"羽村市","address":"羽村市栄町二丁目7番地27ユウヒハイム106","lat":35.772457,"lon":139.310455},{"name":"五乃神学園","province":"東京都","city":"羽村市","address":"羽村市五ノ神345","lat":35.768052,"lon":139.332695},{"name":"パレットルーム羽村教室","province":"東京都","city":"羽村市","address":"羽村市五ノ神4-1-8日芳ビル2階","lat":35.760311,"lon":139.314758},{"name":"わくわくプレイス","province":"東京都","city":"羽村市","address":"羽村市富士見平1-3-1エムマンション101","lat":35.765961,"lon":139.322854},{"name":"リアン羽西店","province":"東京都","city":"羽村市","address":"羽村市羽西2-6-9-1階","lat":35.769987,"lon":139.298028},{"name":"羽村市図書館","province":"東京都","city":"羽村市","address":"東京都羽村市緑ヶ丘2丁目11-2","lat":35.76440514,"lon":139.31654616},{"name":"小作台図書室","province":"東京都","city":"羽村市","address":"東京都羽村市小作台5丁目6-4","lat":35.7747202,"lon":139.30078885},{"name":"第一配水場","province":"東京都","city":"羽村市","address":"東京都羽村市緑ケ丘2-18-5","lat":35.7647394,"lon":139.319607},{"name":"小作浄水場","province":"東京都","city":"羽村市","address":"東京都羽村市小作台4-2-1","lat":35.7761234,"lon":139.295803},{"name":"羽村駅東口第一自転車駐車場","province":"東京都","city":"羽村市","address":"東京都羽村市五ノ神4丁目","lat":35.76052778,"lon":139.31565191},{"name":"羽村駅東口第三自転車駐車場","province":"東京都","city":"羽村市","address":"東京都羽村市五ノ神2丁目1-9","lat":35.76077509,"lon":139.31956547},{"name":"羽村駅東口第四自転車駐車場","province":"東京都","city":"羽村市","address":"東京都羽村市五ノ神1丁目","lat":35.75810868,"lon":139.31778513},{"name":"羽村駅西口第一自転車駐車場","province":"東京都","city":"羽村市","address":"東京都羽村市羽東1丁目16-8","lat":35.75781972,"lon":139.31426876},{"name":"羽村駅西口第二自転車駐車場","province":"東京都","city":"羽村市","address":"東京都羽村市羽東1丁目7-6","lat":35.75721985,"lon":139.31640472},{"name":"羽村駅西口第三自転車駐車場","province":"東京都","city":"羽村市","address":"東京都羽村市羽東1丁目18","lat":35.75882792,"lon":139.31361323},{"name":"羽村駅西口第四自転車駐車場","province":"東京都","city":"羽村市","address":"東京都羽村市羽東1丁目2","lat":35.7604583,"lon":139.31395483},{"name":"小作駅東口第二自転車駐車場","province":"東京都","city":"羽村市","address":"東京都羽村市栄町1丁目1","lat":35.77466196,"lon":139.30458021},{"name":"小作駅西口第二自転車駐車場","province":"東京都","city":"羽村市","address":"東京都羽村市小作台5丁目22","lat":35.77487023,"lon":139.30289423},{"name":"五ノ神ビル駐輪場","province":"東京都","city":"羽村市","address":"東京都羽村市五ノ神4丁目13-9","lat":35.7595946,"lon":139.3170796},{"name":"羽村街道","province":"東京都","city":"羽村市","address":"東京都羽村市神明台3丁目1-1","lat":35.76112241,"lon":139.32386788},{"name":"羽村四面道","province":"東京都","city":"羽村市","address":"東京都羽村市五ノ神3丁目5-16","lat":35.76322207,"lon":139.32066531},{"name":"羽村神明台一丁目","province":"東京都","city":"羽村市","address":"東京都羽村市神明台1丁目4-1","lat":35.75750045,"lon":139.31920171},{"name":"栄小学校入口","province":"東京都","city":"羽村市","address":"東京都羽村市栄町3丁目4-2","lat":35.77472338,"lon":139.31590149},{"name":"羽村グリーントリム入口","province":"東京都","city":"羽村市","address":"東京都羽村市小作台5丁目29-6","lat":35.77159562,"lon":139.30316096},{"name":"羽村間坂","province":"東京都","city":"羽村市","address":"東京都羽村市栄町2丁目22-5","lat":35.76829619,"lon":139.3103327},{"name":"羽村団地入口","province":"東京都","city":"羽村市","address":"東京都羽村市富士見平1丁目13-1","lat":35.76331376,"lon":139.32211796},{"name":"小作変電所前","province":"東京都","city":"羽村市","address":"東京都羽村市小作台1丁目29-16","lat":35.77612013,"lon":139.30464961},{"name":"羽村駅東口前","province":"東京都","city":"羽村市","address":"東京都羽村市五ノ神1丁目3-10","lat":35.75940575,"lon":139.31774066},{"name":"羽村消防署入口","province":"東京都","city":"羽村市","address":"東京都羽村市栄町3丁目3","lat":35.77165702,"lon":139.31421283},{"name":"羽村富士見小学校西","province":"東京都","city":"羽村市","address":"東京都羽村市緑ヶ丘1丁目23","lat":35.76199705,"lon":139.31518801},{"name":"富士見第一保育園前","province":"東京都","city":"羽村市","address":"東京都羽村市緑ヶ丘2丁目1-11","lat":35.76625489,"lon":139.31508512},{"name":"五ノ神武蔵野南","province":"東京都","city":"羽村市","address":"東京都羽村市五ノ神1丁目4","lat":35.75968074,"lon":139.3185267},{"name":"羽村栄町二丁目","province":"東京都","city":"羽村市","address":"東京都羽村市栄町2丁目10-7","lat":35.77073196,"lon":139.30830502},{"name":"羽村間坂西","province":"東京都","city":"羽村市","address":"東京都羽村市羽加美1丁目33","lat":35.76722399,"lon":139.30695522},{"name":"羽村富士見小学校北","province":"東京都","city":"羽村市","address":"東京都羽村市緑ヶ丘2丁目19","lat":35.76386914,"lon":139.31812939},{"name":"羽村郵便局前","province":"東京都","city":"羽村市","address":"東京都羽村市緑ヶ丘1丁目14","lat":35.76326912,"lon":139.31507688},{"name":"羽村栄町一丁目","province":"東京都","city":"羽村市","address":"東京都羽村市栄町1丁目12-1","lat":35.77444538,"lon":139.30666894},{"name":"羽村水木公園前","province":"東京都","city":"羽村市","address":"東京都羽村市神明台2丁目1","lat":35.7582338,"lon":139.3223181},{"name":"羽村郵便局北","province":"東京都","city":"羽村市","address":"東京都羽村市緑ヶ丘5丁目17-21","lat":35.76510218,"lon":139.31289368},{"name":"羽村郵便局前第二","province":"東京都","city":"羽村市","address":"東京都羽村市緑ヶ丘1丁目6-14","lat":35.76481057,"lon":139.31382416},{"name":"羽村公民館前","province":"東京都","city":"羽村市","address":"東京都羽村市緑ヶ丘2丁目11-2","lat":35.76440514,"lon":139.31654616},{"name":"羽村小作坂上第二","province":"東京都","city":"羽村市","address":"東京都羽村市小作台5丁目20-8","lat":35.77336205,"lon":139.30230821},{"name":"小作駅入口","province":"東京都","city":"羽村市","address":"東京都羽村市小作台4丁目11-1","lat":35.77478682,"lon":139.29957227},{"name":"羽村駅東口第二","province":"東京都","city":"羽村市","address":"東京都羽村市五ノ神1丁目2-10","lat":35.75866139,"lon":139.31777401},{"name":"羽村市役所前","province":"東京都","city":"羽村市","address":"東京都羽村市緑ヶ丘5丁目2-1","lat":35.76772958,"lon":139.31045492},{"name":"羽村街道西","province":"東京都","city":"羽村市","address":"東京都羽村市神明台2丁目1","lat":35.7582338,"lon":139.3223181},{"name":"羽村栄小学校前","province":"東京都","city":"羽村市","address":"東京都羽村市栄町2丁目6-4","lat":35.77280404,"lon":139.31182967},{"name":"羽村特別支援学校","province":"東京都","city":"羽村市","address":"東京都羽村市五ノ神319-1","lat":35.76854397,"lon":139.33101427},{"name":"羽村四面道南","province":"東京都","city":"羽村市","address":"東京都羽村市五ノ神3丁目1-53","lat":35.76354697,"lon":139.31869601},{"name":"羽村駅北","province":"東京都","city":"羽村市","address":"東京都羽村市五ノ神4丁目6-7","lat":35.76111661,"lon":139.31601297},{"name":"小作駅北第二","province":"東京都","city":"羽村市","address":"東京都羽村市小作台2丁目17-24","lat":35.779228,"lon":139.30085537},{"name":"羽村小作西","province":"東京都","city":"羽村市","address":"東京都羽村市小作台4丁目4-1","lat":35.77570335,"lon":139.29834179},{"name":"武蔵野公園入口","province":"東京都","city":"羽村市","address":"東京都羽村市栄町1丁目13-14","lat":35.77302333,"lon":139.30711338},{"name":"栄小学校西","province":"東京都","city":"羽村市","address":"東京都羽村市栄町2丁目7","lat":35.77254293,"lon":139.31072699},{"name":"五ノ神三丁目","province":"東京都","city":"羽村市","address":"東京都羽村市五ノ神3丁目16-1","lat":35.76238881,"lon":139.32036536},{"name":"羽村富士見公園入口","province":"東京都","city":"羽村市","address":"東京都羽村市緑ヶ丘4丁目10-17","lat":35.76808809,"lon":139.3179515},{"name":"羽村スポーツセンター北","province":"東京都","city":"羽村市","address":"東京都羽村市羽加美1丁目6-1","lat":35.76906262,"lon":139.30506922},{"name":"羽村栄町一丁目東","province":"東京都","city":"羽村市","address":"東京都羽村市栄町1丁目8-86","lat":35.77558695,"lon":139.30818823},{"name":"富士見平二丁目","province":"東京都","city":"羽村市","address":"東京都羽村市富士見平2丁目18","lat":35.76165011,"lon":139.32365121},{"name":"小作台一丁目","province":"東京都","city":"羽村市","address":"東京都羽村市小作台1丁目20-5","lat":35.77694502,"lon":139.30413573},{"name":"環境センター","province":"東京都","city":"羽村市","address":"東京都羽村市羽","lat":35.758251,"lon":139.298889},{"name":"りあん","province":"東京都","city":"羽村市","address":"羽村市栄町二丁目7番地27ユウヒハイム106","lat":35.772457,"lon":139.310455},{"name":"五乃神学園","province":"東京都","city":"羽村市","address":"羽村市五ノ神345","lat":35.768052,"lon":139.332695},{"name":"パレットルーム羽村教室","province":"東京都","city":"羽村市","address":"羽村市五ノ神4-1-8日芳ビル2階","lat":35.760311,"lon":139.314758},{"name":"わくわくプレイス","province":"東京都","city":"羽村市","address":"羽村市富士見平1-3-1エムマンション101","lat":35.765961,"lon":139.322854},{"name":"リアン羽西店","province":"東京都","city":"羽村市","address":"羽村市羽西2-6-9-1階","lat":35.769987,"lon":139.298028},{"name":"第一配水場","province":"東京都","city":"羽村市","address":"東京都羽村市緑ケ丘2-18-5","lat":35.7647394,"lon":139.319607},{"name":"小作浄水場","province":"東京都","city":"羽村市","address":"東京都羽村市小作台4-2-1","lat":35.7761234,"lon":139.295803},{"name":"羽村駅東口第一自転車駐車場","province":"東京都","city":"羽村市","address":"東京都羽村市五ノ神4丁目","lat":35.76052778,"lon":139.31565191},{"name":"羽村駅東口第三自転車駐車場","province":"東京都","city":"羽村市","address":"東京都羽村市五ノ神2丁目1-9","lat":35.76077509,"lon":139.31956547},{"name":"羽村駅東口第四自転車駐車場","province":"東京都","city":"羽村市","address":"東京都羽村市五ノ神1丁目","lat":35.75810868,"lon":139.31778513},{"name":"羽村駅西口第一自転車駐車場","province":"東京都","city":"羽村市","address":"東京都羽村市羽東1丁目16-8","lat":35.75781972,"lon":139.31426876},{"name":"羽村駅西口第二自転車駐車場","province":"東京都","city":"羽村市","address":"東京都羽村市羽東1丁目7-6","lat":35.75721985,"lon":139.31640472},{"name":"羽村駅西口第三自転車駐車場","province":"東京都","city":"羽村市","address":"東京都羽村市羽東1丁目18","lat":35.75882792,"lon":139.31361323},{"name":"羽村駅西口第四自転車駐車場","province":"東京都","city":"羽村市","address":"東京都羽村市羽東1丁目2","lat":35.7604583,"lon":139.31395483},{"name":"小作駅東口第二自転車駐車場","province":"東京都","city":"羽村市","address":"東京都羽村市栄町1丁目1","lat":35.77466196,"lon":139.30458021},{"name":"小作駅西口第二自転車駐車場","province":"東京都","city":"羽村市","address":"東京都羽村市小作台5丁目22","lat":35.77487023,"lon":139.30289423},{"name":"五ノ神ビル駐輪場","province":"東京都","city":"羽村市","address":"東京都羽村市五ノ神4丁目13-9","lat":35.7595946,"lon":139.3170796},{"name":"羽村街道","province":"東京都","city":"羽村市","address":"東京都羽村市神明台3丁目1-1","lat":35.76112241,"lon":139.32386788},{"name":"羽村四面道","province":"東京都","city":"羽村市","address":"東京都羽村市五ノ神3丁目5-16","lat":35.76322207,"lon":139.32066531},{"name":"羽村神明台一丁目","province":"東京都","city":"羽村市","address":"東京都羽村市神明台1丁目4-1","lat":35.75750045,"lon":139.31920171},{"name":"栄小学校入口","province":"東京都","city":"羽村市","address":"東京都羽村市栄町3丁目4-2","lat":35.77472338,"lon":139.31590149},{"name":"羽村グリーントリム入口","province":"東京都","city":"羽村市","address":"東京都羽村市小作台5丁目29-6","lat":35.77159562,"lon":139.30316096},{"name":"羽村間坂","province":"東京都","city":"羽村市","address":"東京都羽村市栄町2丁目22-5","lat":35.76829619,"lon":139.3103327},{"name":"羽村団地入口","province":"東京都","city":"羽村市","address":"東京都羽村市富士見平1丁目13-1","lat":35.76331376,"lon":139.32211796},{"name":"小作変電所前","province":"東京都","city":"羽村市","address":"東京都羽村市小作台1丁目29-16","lat":35.77612013,"lon":139.30464961},{"name":"羽村駅東口前","province":"東京都","city":"羽村市","address":"東京都羽村市五ノ神1丁目3-10","lat":35.75940575,"lon":139.31774066},{"name":"羽村消防署入口","province":"東京都","city":"羽村市","address":"東京都羽村市栄町3丁目3","lat":35.77165702,"lon":139.31421283},{"name":"羽村富士見小学校西","province":"東京都","city":"羽村市","address":"東京都羽村市緑ヶ丘1丁目23","lat":35.76199705,"lon":139.31518801},{"name":"富士見第一保育園前","province":"東京都","city":"羽村市","address":"東京都羽村市緑ヶ丘2丁目1-11","lat":35.76625489,"lon":139.31508512},{"name":"五ノ神武蔵野南","province":"東京都","city":"羽村市","address":"東京都羽村市五ノ神1丁目4","lat":35.75968074,"lon":139.3185267},{"name":"羽村栄町二丁目","province":"東京都","city":"羽村市","address":"東京都羽村市栄町2丁目10-7","lat":35.77073196,"lon":139.30830502},{"name":"羽村間坂西","province":"東京都","city":"羽村市","address":"東京都羽村市羽加美1丁目33","lat":35.76722399,"lon":139.30695522},{"name":"羽村富士見小学校北","province":"東京都","city":"羽村市","address":"東京都羽村市緑ヶ丘2丁目19","lat":35.76386914,"lon":139.31812939},{"name":"羽村郵便局前","province":"東京都","city":"羽村市","address":"東京都羽村市緑ヶ丘1丁目14","lat":35.76326912,"lon":139.31507688},{"name":"羽村栄町一丁目","province":"東京都","city":"羽村市","address":"東京都羽村市栄町1丁目12-1","lat":35.77444538,"lon":139.30666894},{"name":"羽村水木公園前","province":"東京都","city":"羽村市","address":"東京都羽村市神明台2丁目1","lat":35.7582338,"lon":139.3223181},{"name":"羽村郵便局北","province":"東京都","city":"羽村市","address":"東京都羽村市緑ヶ丘5丁目17-21","lat":35.76510218,"lon":139.31289368},{"name":"羽村郵便局前第二","province":"東京都","city":"羽村市","address":"東京都羽村市緑ヶ丘1丁目6-14","lat":35.76481057,"lon":139.31382416},{"name":"羽村公民館前","province":"東京都","city":"羽村市","address":"東京都羽村市緑ヶ丘2丁目11-2","lat":35.76440514,"lon":139.31654616},{"name":"羽村小作坂上第二","province":"東京都","city":"羽村市","address":"東京都羽村市小作台5丁目20-8","lat":35.77336205,"lon":139.30230821},{"name":"小作駅入口","province":"東京都","city":"羽村市","address":"東京都羽村市小作台4丁目11-1","lat":35.77478682,"lon":139.29957227},{"name":"羽村駅東口第二","province":"東京都","city":"羽村市","address":"東京都羽村市五ノ神1丁目2-10","lat":35.75866139,"lon":139.31777401},{"name":"羽村市役所前","province":"東京都","city":"羽村市","address":"東京都羽村市緑ヶ丘5丁目2-1","lat":35.76772958,"lon":139.31045492},{"name":"羽村街道西","province":"東京都","city":"羽村市","address":"東京都羽村市神明台2丁目1","lat":35.7582338,"lon":139.3223181},{"name":"羽村栄小学校前","province":"東京都","city":"羽村市","address":"東京都羽村市栄町2丁目6-4","lat":35.77280404,"lon":139.31182967},{"name":"羽村特別支援学校","province":"東京都","city":"羽村市","address":"東京都羽村市五ノ神319-1","lat":35.76854397,"lon":139.33101427},{"name":"羽村四面道南","province":"東京都","city":"羽村市","address":"東京都羽村市五ノ神3丁目1-53","lat":35.76354697,"lon":139.31869601},{"name":"羽村駅北","province":"東京都","city":"羽村市","address":"東京都羽村市五ノ神4丁目6-7","lat":35.76111661,"lon":139.31601297},{"name":"小作駅北第二","province":"東京都","city":"羽村市","address":"東京都羽村市小作台2丁目17-24","lat":35.779228,"lon":139.30085537},{"name":"羽村小作西","province":"東京都","city":"羽村市","address":"東京都羽村市小作台4丁目4-1","lat":35.77570335,"lon":139.29834179},{"name":"武蔵野公園入口","province":"東京都","city":"羽村市","address":"東京都羽村市栄町1丁目13-14","lat":35.77302333,"lon":139.30711338},{"name":"栄小学校西","province":"東京都","city":"羽村市","address":"東京都羽村市栄町2丁目7","lat":35.77254293,"lon":139.31072699},{"name":"五ノ神三丁目","province":"東京都","city":"羽村市","address":"東京都羽村市五ノ神3丁目16-1","lat":35.76238881,"lon":139.32036536},{"name":"羽村富士見公園入口","province":"東京都","city":"羽村市","address":"東京都羽村市緑ヶ丘4丁目10-17","lat":35.76808809,"lon":139.3179515},{"name":"羽村スポーツセンター北","province":"東京都","city":"羽村市","address":"東京都羽村市羽加美1丁目6-1","lat":35.76906262,"lon":139.30506922},{"name":"羽村栄町一丁目東","province":"東京都","city":"羽村市","address":"東京都羽村市栄町1丁目8-86","lat":35.77558695,"lon":139.30818823},{"name":"富士見平二丁目","province":"東京都","city":"羽村市","address":"東京都羽村市富士見平2丁目18","lat":35.76165011,"lon":139.32365121},{"name":"小作台一丁目","province":"東京都","city":"羽村市","address":"東京都羽村市小作台1丁目20-5","lat":35.77694502,"lon":139.30413573},{"name":"環境センター","province":"東京都","city":"羽村市","address":"東京都羽村市羽","lat":35.758251,"lon":139.298889},{"name":"りあん","province":"東京都","city":"羽村市","address":"羽村市栄町二丁目7番地27ユウヒハイム106","lat":35.772457,"lon":139.310455},{"name":"五乃神学園","province":"東京都","city":"羽村市","address":"羽村市五ノ神345","lat":35.768052,"lon":139.332695},{"name":"パレットルーム羽村教室","province":"東京都","city":"羽村市","address":"羽村市五ノ神4-1-8日芳ビル2階","lat":35.760311,"lon":139.314758},{"name":"わくわくプレイス","province":"東京都","city":"羽村市","address":"羽村市富士見平1-3-1エムマンション101","lat":35.765961,"lon":139.322854},{"name":"リアン羽西店","province":"東京都","city":"羽村市","address":"羽村市羽西2-6-9-1階","lat":35.769987,"lon":139.298028},{"name":"第一配水場","province":"東京都","city":"羽村市","address":"東京都羽村市緑ケ丘2-18-5","lat":35.7647394,"lon":139.319607},{"name":"小作浄水場","province":"東京都","city":"羽村市","address":"東京都羽村市小作台4-2-1","lat":35.7761234,"lon":139.295803},{"name":"羽村駅東口第一自転車駐車場","province":"東京都","city":"羽村市","address":"東京都羽村市五ノ神4丁目","lat":35.76052778,"lon":139.31565191},{"name":"羽村駅東口第三自転車駐車場","province":"東京都","city":"羽村市","address":"東京都羽村市五ノ神2丁目1-9","lat":35.76077509,"lon":139.31956547},{"name":"羽村駅東口第四自転車駐車場","province":"東京都","city":"羽村市","address":"東京都羽村市五ノ神1丁目","lat":35.75810868,"lon":139.31778513},{"name":"羽村駅西口第一自転車駐車場","province":"東京都","city":"羽村市","address":"東京都羽村市羽東1丁目16-8","lat":35.75781972,"lon":139.31426876},{"name":"羽村駅西口第二自転車駐車場","province":"東京都","city":"羽村市","address":"東京都羽村市羽東1丁目7-6","lat":35.75721985,"lon":139.31640472},{"name":"羽村駅西口第三自転車駐車場","province":"東京都","city":"羽村市","address":"東京都羽村市羽東1丁目18","lat":35.75882792,"lon":139.31361323},{"name":"羽村駅西口第四自転車駐車場","province":"東京都","city":"羽村市","address":"東京都羽村市羽東1丁目2","lat":35.7604583,"lon":139.31395483},{"name":"小作駅東口第二自転車駐車場","province":"東京都","city":"羽村市","address":"東京都羽村市栄町1丁目1","lat":35.77466196,"lon":139.30458021},{"name":"小作駅西口第二自転車駐車場","province":"東京都","city":"羽村市","address":"東京都羽村市小作台5丁目22","lat":35.77487023,"lon":139.30289423},{"name":"五ノ神ビル駐輪場","province":"東京都","city":"羽村市","address":"東京都羽村市五ノ神4丁目13-9","lat":35.7595946,"lon":139.3170796},{"name":"羽村街道","province":"東京都","city":"羽村市","address":"東京都羽村市神明台3丁目1-1","lat":35.76112241,"lon":139.32386788},{"name":"羽村四面道","province":"東京都","city":"羽村市","address":"東京都羽村市五ノ神3丁目5-16","lat":35.76322207,"lon":139.32066531},{"name":"羽村神明台一丁目","province":"東京都","city":"羽村市","address":"東京都羽村市神明台1丁目4-1","lat":35.75750045,"lon":139.31920171},{"name":"栄小学校入口","province":"東京都","city":"羽村市","address":"東京都羽村市栄町3丁目4-2","lat":35.77472338,"lon":139.31590149},{"name":"羽村グリーントリム入口","province":"東京都","city":"羽村市","address":"東京都羽村市小作台5丁目29-6","lat":35.77159562,"lon":139.30316096},{"name":"羽村間坂","province":"東京都","city":"羽村市","address":"東京都羽村市栄町2丁目22-5","lat":35.76829619,"lon":139.3103327},{"name":"羽村団地入口","province":"東京都","city":"羽村市","address":"東京都羽村市富士見平1丁目13-1","lat":35.76331376,"lon":139.32211796},{"name":"小作変電所前","province":"東京都","city":"羽村市","address":"東京都羽村市小作台1丁目29-16","lat":35.77612013,"lon":139.30464961},{"name":"羽村駅東口前","province":"東京都","city":"羽村市","address":"東京都羽村市五ノ神1丁目3-10","lat":35.75940575,"lon":139.31774066},{"name":"羽村消防署入口","province":"東京都","city":"羽村市","address":"東京都羽村市栄町3丁目3","lat":35.77165702,"lon":139.31421283},{"name":"羽村富士見小学校西","province":"東京都","city":"羽村市","address":"東京都羽村市緑ヶ丘1丁目23","lat":35.76199705,"lon":139.31518801},{"name":"富士見第一保育園前","province":"東京都","city":"羽村市","address":"東京都羽村市緑ヶ丘2丁目1-11","lat":35.76625489,"lon":139.31508512},{"name":"五ノ神武蔵野南","province":"東京都","city":"羽村市","address":"東京都羽村市五ノ神1丁目4","lat":35.75968074,"lon":139.3185267},{"name":"羽村栄町二丁目","province":"東京都","city":"羽村市","address":"東京都羽村市栄町2丁目10-7","lat":35.77073196,"lon":139.30830502},{"name":"羽村間坂西","province":"東京都","city":"羽村市","address":"東京都羽村市羽加美1丁目33","lat":35.76722399,"lon":139.30695522},{"name":"羽村富士見小学校北","province":"東京都","city":"羽村市","address":"東京都羽村市緑ヶ丘2丁目19","lat":35.76386914,"lon":139.31812939},{"name":"羽村郵便局前","province":"東京都","city":"羽村市","address":"東京都羽村市緑ヶ丘1丁目14","lat":35.76326912,"lon":139.31507688},{"name":"羽村栄町一丁目","province":"東京都","city":"羽村市","address":"東京都羽村市栄町1丁目12-1","lat":35.77444538,"lon":139.30666894},{"name":"羽村水木公園前","province":"東京都","city":"羽村市","address":"東京都羽村市神明台2丁目1","lat":35.7582338,"lon":139.3223181},{"name":"羽村郵便局北","province":"東京都","city":"羽村市","address":"東京都羽村市緑ヶ丘5丁目17-21","lat":35.76510218,"lon":139.31289368},{"name":"羽村郵便局前第二","province":"東京都","city":"羽村市","address":"東京都羽村市緑ヶ丘1丁目6-14","lat":35.76481057,"lon":139.31382416},{"name":"羽村公民館前","province":"東京都","city":"羽村市","address":"東京都羽村市緑ヶ丘2丁目11-2","lat":35.76440514,"lon":139.31654616},{"name":"羽村小作坂上第二","province":"東京都","city":"羽村市","address":"東京都羽村市小作台5丁目20-8","lat":35.77336205,"lon":139.30230821},{"name":"小作駅入口","province":"東京都","city":"羽村市","address":"東京都羽村市小作台4丁目11-1","lat":35.77478682,"lon":139.29957227},{"name":"羽村駅東口第二","province":"東京都","city":"羽村市","address":"東京都羽村市五ノ神1丁目2-10","lat":35.75866139,"lon":139.31777401},{"name":"羽村市役所前","province":"東京都","city":"羽村市","address":"東京都羽村市緑ヶ丘5丁目2-1","lat":35.76772958,"lon":139.31045492},{"name":"羽村街道西","province":"東京都","city":"羽村市","address":"東京都羽村市神明台2丁目1","lat":35.7582338,"lon":139.3223181},{"name":"羽村栄小学校前","province":"東京都","city":"羽村市","address":"東京都羽村市栄町2丁目6-4","lat":35.77280404,"lon":139.31182967},{"name":"羽村特別支援学校","province":"東京都","city":"羽村市","address":"東京都羽村市五ノ神319-1","lat":35.76854397,"lon":139.33101427},{"name":"羽村四面道南","province":"東京都","city":"羽村市","address":"東京都羽村市五ノ神3丁目1-53","lat":35.76354697,"lon":139.31869601},{"name":"羽村駅北","province":"東京都","city":"羽村市","address":"東京都羽村市五ノ神4丁目6-7","lat":35.76111661,"lon":139.31601297},{"name":"小作駅北第二","province":"東京都","city":"羽村市","address":"東京都羽村市小作台2丁目17-24","lat":35.779228,"lon":139.30085537},{"name":"羽村小作西","province":"東京都","city":"羽村市","address":"東京都羽村市小作台4丁目4-1","lat":35.77570335,"lon":139.29834179},{"name":"武蔵野公園入口","province":"東京都","city":"羽村市","address":"東京都羽村市栄町1丁目13-14","lat":35.77302333,"lon":139.30711338},{"name":"栄小学校西","province":"東京都","city":"羽村市","address":"東京都羽村市栄町2丁目7","lat":35.77254293,"lon":139.31072699},{"name":"五ノ神三丁目","province":"東京都","city":"羽村市","address":"東京都羽村市五ノ神3丁目16-1","lat":35.76238881,"lon":139.32036536},{"name":"羽村富士見公園入口","province":"東京都","city":"羽村市","address":"東京都羽村市緑ヶ丘4丁目10-17","lat":35.76808809,"lon":139.3179515},{"name":"羽村スポーツセンター北","province":"東京都","city":"羽村市","address":"東京都羽村市羽加美1丁目6-1","lat":35.76906262,"lon":139.30506922},{"name":"羽村栄町一丁目東","province":"東京都","city":"羽村市","address":"東京都羽村市栄町1丁目8-86","lat":35.77558695,"lon":139.30818823},{"name":"富士見平二丁目","province":"東京都","city":"羽村市","address":"東京都羽村市富士見平2丁目18","lat":35.76165011,"lon":139.32365121},{"name":"小作台一丁目","province":"東京都","city":"羽村市","address":"東京都羽村市小作台1丁目20-5","lat":35.77694502,"lon":139.30413573},{"name":"環境センター","province":"東京都","city":"羽村市","address":"東京都羽村市羽","lat":35.758251,"lon":139.298889},{"name":"第一配水場","province":"東京都","city":"羽村市","address":"東京都羽村市緑ケ丘2-18-5","lat":35.7647394,"lon":139.319607},{"name":"小作浄水場","province":"東京都","city":"羽村市","address":"東京都羽村市小作台4-2-1","lat":35.7761234,"lon":139.295803},{"name":"羽村駅東口第一自転車駐車場","province":"東京都","city":"羽村市","address":"東京都羽村市五ノ神4丁目","lat":35.76052778,"lon":139.31565191},{"name":"羽村駅東口第三自転車駐車場","province":"東京都","city":"羽村市","address":"東京都羽村市五ノ神2丁目1-9","lat":35.76077509,"lon":139.31956547},{"name":"羽村駅東口第四自転車駐車場","province":"東京都","city":"羽村市","address":"東京都羽村市五ノ神1丁目","lat":35.75810868,"lon":139.31778513},{"name":"羽村駅西口第一自転車駐車場","province":"東京都","city":"羽村市","address":"東京都羽村市羽東1丁目16-8","lat":35.75781972,"lon":139.31426876},{"name":"羽村駅西口第二自転車駐車場","province":"東京都","city":"羽村市","address":"東京都羽村市羽東1丁目7-6","lat":35.75721985,"lon":139.31640472},{"name":"羽村駅西口第三自転車駐車場","province":"東京都","city":"羽村市","address":"東京都羽村市羽東1丁目18","lat":35.75882792,"lon":139.31361323},{"name":"羽村駅西口第四自転車駐車場","province":"東京都","city":"羽村市","address":"東京都羽村市羽東1丁目2","lat":35.7604583,"lon":139.31395483},{"name":"小作駅東口第二自転車駐車場","province":"東京都","city":"羽村市","address":"東京都羽村市栄町1丁目1","lat":35.77466196,"lon":139.30458021},{"name":"小作駅西口第二自転車駐車場","province":"東京都","city":"羽村市","address":"東京都羽村市小作台5丁目22","lat":35.77487023,"lon":139.30289423},{"name":"五ノ神ビル駐輪場","province":"東京都","city":"羽村市","address":"東京都羽村市五ノ神4丁目13-9","lat":35.7595946,"lon":139.3170796},{"name":"環境センター","province":"東京都","city":"羽村市","address":"東京都羽村市羽","lat":35.758251,"lon":139.298889},{"name":"第一配水場","province":"東京都","city":"羽村市","address":"東京都羽村市緑ケ丘2-18-5","lat":35.7647394,"lon":139.319607},{"name":"小作浄水場","province":"東京都","city":"羽村市","address":"東京都羽村市小作台4-2-1","lat":35.7761234,"lon":139.295803},{"name":"羽村駅東口第一自転車駐車場","province":"東京都","city":"羽村市","address":"東京都羽村市五ノ神4丁目","lat":35.76052778,"lon":139.31565191},{"name":"羽村駅東口第三自転車駐車場","province":"東京都","city":"羽村市","address":"東京都羽村市五ノ神2丁目1-9","lat":35.76077509,"lon":139.31956547},{"name":"羽村駅東口第四自転車駐車場","province":"東京都","city":"羽村市","address":"東京都羽村市五ノ神1丁目","lat":35.75810868,"lon":139.31778513},{"name":"羽村駅西口第一自転車駐車場","province":"東京都","city":"羽村市","address":"東京都羽村市羽東1丁目16-8","lat":35.75781972,"lon":139.31426876},{"name":"羽村駅西口第二自転車駐車場","province":"東京都","city":"羽村市","address":"東京都羽村市羽東1丁目7-6","lat":35.75721985,"lon":139.31640472},{"name":"羽村駅西口第三自転車駐車場","province":"東京都","city":"羽村市","address":"東京都羽村市羽東1丁目18","lat":35.75882792,"lon":139.31361323},{"name":"羽村駅西口第四自転車駐車場","province":"東京都","city":"羽村市","address":"東京都羽村市羽東1丁目2","lat":35.7604583,"lon":139.31395483},{"name":"小作駅東口第二自転車駐車場","province":"東京都","city":"羽村市","address":"東京都羽村市栄町1丁目1","lat":35.77466196,"lon":139.30458021},{"name":"小作駅西口第二自転車駐車場","province":"東京都","city":"羽村市","address":"東京都羽村市小作台5丁目22","lat":35.77487023,"lon":139.30289423},{"name":"五ノ神ビル駐輪場","province":"東京都","city":"羽村市","address":"東京都羽村市五ノ神4丁目13-9","lat":35.7595946,"lon":139.3170796},{"name":"環境センター","province":"東京都","city":"羽村市","address":"東京都羽村市羽","lat":35.758251,"lon":139.298889},{"name":"第一配水場","province":"東京都","city":"羽村市","address":"東京都羽村市緑ケ丘2-18-5","lat":35.7647394,"lon":139.319607},{"name":"小作浄水場","province":"東京都","city":"羽村市","address":"東京都羽村市小作台4-2-1","lat":35.7761234,"lon":139.295803},{"name":"羽村駅東口第一自転車駐車場","province":"東京都","city":"羽村市","address":"東京都羽村市五ノ神4丁目","lat":35.76052778,"lon":139.31565191},{"name":"羽村駅東口第三自転車駐車場","province":"東京都","city":"羽村市","address":"東京都羽村市五ノ神2丁目1-9","lat":35.76077509,"lon":139.31956547},{"name":"羽村駅東口第四自転車駐車場","province":"東京都","city":"羽村市","address":"東京都羽村市五ノ神1丁目","lat":35.75810868,"lon":139.31778513},{"name":"羽村駅西口第一自転車駐車場","province":"東京都","city":"羽村市","address":"東京都羽村市羽東1丁目16-8","lat":35.75781972,"lon":139.31426876},{"name":"羽村駅西口第二自転車駐車場","province":"東京都","city":"羽村市","address":"東京都羽村市羽東1丁目7-6","lat":35.75721985,"lon":139.31640472},{"name":"羽村駅西口第三自転車駐車場","province":"東京都","city":"羽村市","address":"東京都羽村市羽東1丁目18","lat":35.75882792,"lon":139.31361323},{"name":"羽村駅西口第四自転車駐車場","province":"東京都","city":"羽村市","address":"東京都羽村市羽東1丁目2","lat":35.7604583,"lon":139.31395483},{"name":"小作駅東口第二自転車駐車場","province":"東京都","city":"羽村市","address":"東京都羽村市栄町1丁目1","lat":35.77466196,"lon":139.30458021},{"name":"小作駅西口第二自転車駐車場","province":"東京都","city":"羽村市","address":"東京都羽村市小作台5丁目22","lat":35.77487023,"lon":139.30289423},{"name":"五ノ神ビル駐輪場","province":"東京都","city":"羽村市","address":"東京都羽村市五ノ神4丁目13-9","lat":35.7595946,"lon":139.3170796},{"name":"環境センター","province":"東京都","city":"羽村市","address":"東京都羽村市羽","lat":35.758251,"lon":139.298889},{"name":"環境センター","province":"東京都","city":"羽村市","address":"東京都羽村市羽","lat":35.758251,"lon":139.298889},{"name":"環境センター","province":"東京都","city":"羽村市","address":"東京都羽村市羽","lat":35.758251,"lon":139.298889},{"name":"環境センター","province":"東京都","city":"羽村市","address":"東京都羽村市羽","lat":35.758251,"lon":139.298889},{"name":"環境センター","province":"東京都","city":"羽村市","address":"東京都羽村市羽","lat":35.758251,"lon":139.298889},{"name":"環境センター","province":"東京都","city":"羽村市","address":"東京都羽村市羽","lat":35.758251,"lon":139.298889},{"name":"環境センター","province":"東京都","city":"羽村市","address":"東京都羽村市羽","lat":35.758251,"lon":139.298889},{"name":"環境センター","province":"東京都","city":"羽村市","address":"東京都羽村市羽","lat":35.758251,"lon":139.298889},{"name":"環境センター","province":"東京都","city":"羽村市","address":"東京都羽村市羽","lat":35.758251,"lon":139.298889},{"name":"環境センター","province":"東京都","city":"羽村市","address":"東京都羽村市羽","lat":35.758251,"lon":139.298889},{"name":"環境センター","province":"東京都","city":"羽村市","address":"東京都羽村市羽","lat":35.758251,"lon":139.298889},{"name":"環境センター","province":"東京都","city":"羽村市","address":"東京都羽村市羽","lat":35.758251,"lon":139.298889},{"name":"環境センター","province":"東京都","city":"羽村市","address":"東京都羽村市羽","lat":35.758251,"lon":139.298889},{"name":"環境センター","province":"東京都","city":"羽村市","address":"東京都羽村市羽","lat":35.758251,"lon":139.298889},{"name":"環境センター","province":"東京都","city":"羽村市","address":"東京都羽村市羽","lat":35.758251,"lon":139.298889},{"name":"環境センター","province":"東京都","city":"羽村市","address":"東京都羽村市羽","lat":35.758251,"lon":139.298889},{"name":"環境センター","province":"東京都","city":"羽村市","address":"東京都羽村市羽","lat":35.758251,"lon":139.298889},{"name":"環境センター","province":"東京都","city":"羽村市","address":"東京都羽村市羽","lat":35.758251,"lon":139.298889},{"name":"環境センター","province":"東京都","city":"羽村市","address":"東京都羽村市羽","lat":35.758251,"lon":139.298889},{"name":"環境センター","province":"東京都","city":"羽村市","address":"東京都羽村市羽","lat":35.758251,"lon":139.298889},{"name":"環境センター","province":"東京都","city":"羽村市","address":"東京都羽村市羽","lat":35.758251,"lon":139.298889},{"name":"環境センター","province":"東京都","city":"羽村市","address":"東京都羽村市羽","lat":35.758251,"lon":139.298889},{"name":"環境センター","province":"東京都","city":"羽村市","address":"東京都羽村市羽","lat":35.758251,"lon":139.298889},{"name":"環境センター","province":"東京都","city":"羽村市","address":"東京都羽村市羽","lat":35.758251,"lon":139.298889},{"name":"環境センター","province":"東京都","city":"羽村市","address":"東京都羽村市羽","lat":35.758251,"lon":139.298889},{"name":"環境センター","province":"東京都","city":"羽村市","address":"東京都羽村市羽","lat":35.758251,"lon":139.298889},{"name":"環境センター","province":"東京都","city":"羽村市","address":"東京都羽村市羽","lat":35.758251,"lon":139.298889}]}