{"keyword":"破損","data":[{"name":"羽村市高齢福祉介護課介護予防・地域支援係","province":"東京都","city":"羽村市","address":"羽村市緑ヶ丘5-2-1(市役所内)","lat":35.767506,"lon":139.310928},{"name":"羽村市地域包括支援センターあさひ","province":"東京都","city":"羽村市","address":"羽村市富士見平1-3-1エムマンション1階A号室","lat":35.765984,"lon":139.323135},{"name":"羽村市地域包括支援センターあゆみ","province":"東京都","city":"羽村市","address":"羽村市羽加美1-9-2","lat":35.770855,"lon":139.303635},{"name":"羽村市高齢福祉介護課高齢福祉係","province":"東京都","city":"羽村市","address":"羽村市緑ヶ丘5-2-1","lat":35.767506,"lon":139.310928},{"name":"羽村市消費生活センター","province":"東京都","city":"羽村市","address":"羽村市緑ヶ丘5-1-30","lat":35.76709,"lon":139.310135},{"name":"羽村市地域包括支援センターあかしあ","province":"東京都","city":"羽村市","address":"羽村市玉川2-6-6","lat":35.749191,"lon":139.314972},{"name":"羽村街道","province":"東京都","city":"羽村市","address":"東京都羽村市神明台3丁目1-1","lat":35.76112241,"lon":139.32386788},{"name":"羽村四面道","province":"東京都","city":"羽村市","address":"東京都羽村市五ノ神3丁目5-16","lat":35.76322207,"lon":139.32066531},{"name":"羽村神明台一丁目","province":"東京都","city":"羽村市","address":"東京都羽村市神明台1丁目4-1","lat":35.75750045,"lon":139.31920171},{"name":"栄小学校入口","province":"東京都","city":"羽村市","address":"東京都羽村市栄町3丁目4-2","lat":35.77472338,"lon":139.31590149},{"name":"羽村グリーントリム入口","province":"東京都","city":"羽村市","address":"東京都羽村市小作台5丁目29-6","lat":35.77159562,"lon":139.30316096},{"name":"羽村間坂","province":"東京都","city":"羽村市","address":"東京都羽村市栄町2丁目22-5","lat":35.76829619,"lon":139.3103327},{"name":"羽村団地入口","province":"東京都","city":"羽村市","address":"東京都羽村市富士見平1丁目13-1","lat":35.76331376,"lon":139.32211796},{"name":"小作変電所前","province":"東京都","city":"羽村市","address":"東京都羽村市小作台1丁目29-16","lat":35.77612013,"lon":139.30464961},{"name":"羽村駅東口前","province":"東京都","city":"羽村市","address":"東京都羽村市五ノ神1丁目3-10","lat":35.75940575,"lon":139.31774066},{"name":"羽村消防署入口","province":"東京都","city":"羽村市","address":"東京都羽村市栄町3丁目3","lat":35.77165702,"lon":139.31421283},{"name":"羽村富士見小学校西","province":"東京都","city":"羽村市","address":"東京都羽村市緑ヶ丘1丁目23","lat":35.76199705,"lon":139.31518801},{"name":"富士見第一保育園前","province":"東京都","city":"羽村市","address":"東京都羽村市緑ヶ丘2丁目1-11","lat":35.76625489,"lon":139.31508512},{"name":"五ノ神武蔵野南","province":"東京都","city":"羽村市","address":"東京都羽村市五ノ神1丁目4","lat":35.75968074,"lon":139.3185267},{"name":"羽村栄町二丁目","province":"東京都","city":"羽村市","address":"東京都羽村市栄町2丁目10-7","lat":35.77073196,"lon":139.30830502},{"name":"羽村間坂西","province":"東京都","city":"羽村市","address":"東京都羽村市羽加美1丁目33","lat":35.76722399,"lon":139.30695522},{"name":"羽村富士見小学校北","province":"東京都","city":"羽村市","address":"東京都羽村市緑ヶ丘2丁目19","lat":35.76386914,"lon":139.31812939},{"name":"羽村郵便局前","province":"東京都","city":"羽村市","address":"東京都羽村市緑ヶ丘1丁目14","lat":35.76326912,"lon":139.31507688},{"name":"羽村栄町一丁目","province":"東京都","city":"羽村市","address":"東京都羽村市栄町1丁目12-1","lat":35.77444538,"lon":139.30666894},{"name":"羽村水木公園前","province":"東京都","city":"羽村市","address":"東京都羽村市神明台2丁目1","lat":35.7582338,"lon":139.3223181},{"name":"羽村郵便局北","province":"東京都","city":"羽村市","address":"東京都羽村市緑ヶ丘5丁目17-21","lat":35.76510218,"lon":139.31289368},{"name":"羽村郵便局前第二","province":"東京都","city":"羽村市","address":"東京都羽村市緑ヶ丘1丁目6-14","lat":35.76481057,"lon":139.31382416},{"name":"羽村公民館前","province":"東京都","city":"羽村市","address":"東京都羽村市緑ヶ丘2丁目11-2","lat":35.76440514,"lon":139.31654616},{"name":"羽村小作坂上第二","province":"東京都","city":"羽村市","address":"東京都羽村市小作台5丁目20-8","lat":35.77336205,"lon":139.30230821},{"name":"小作駅入口","province":"東京都","city":"羽村市","address":"東京都羽村市小作台4丁目11-1","lat":35.77478682,"lon":139.29957227},{"name":"羽村駅東口第二","province":"東京都","city":"羽村市","address":"東京都羽村市五ノ神1丁目2-10","lat":35.75866139,"lon":139.31777401},{"name":"羽村市役所前","province":"東京都","city":"羽村市","address":"東京都羽村市緑ヶ丘5丁目2-1","lat":35.76772958,"lon":139.31045492},{"name":"羽村街道西","province":"東京都","city":"羽村市","address":"東京都羽村市神明台2丁目1","lat":35.7582338,"lon":139.3223181},{"name":"羽村栄小学校前","province":"東京都","city":"羽村市","address":"東京都羽村市栄町2丁目6-4","lat":35.77280404,"lon":139.31182967},{"name":"羽村特別支援学校","province":"東京都","city":"羽村市","address":"東京都羽村市五ノ神319-1","lat":35.76854397,"lon":139.33101427},{"name":"羽村四面道南","province":"東京都","city":"羽村市","address":"東京都羽村市五ノ神3丁目1-53","lat":35.76354697,"lon":139.31869601},{"name":"羽村駅北","province":"東京都","city":"羽村市","address":"東京都羽村市五ノ神4丁目6-7","lat":35.76111661,"lon":139.31601297},{"name":"小作駅北第二","province":"東京都","city":"羽村市","address":"東京都羽村市小作台2丁目17-24","lat":35.779228,"lon":139.30085537},{"name":"羽村小作西","province":"東京都","city":"羽村市","address":"東京都羽村市小作台4丁目4-1","lat":35.77570335,"lon":139.29834179},{"name":"武蔵野公園入口","province":"東京都","city":"羽村市","address":"東京都羽村市栄町1丁目13-14","lat":35.77302333,"lon":139.30711338},{"name":"栄小学校西","province":"東京都","city":"羽村市","address":"東京都羽村市栄町2丁目7","lat":35.77254293,"lon":139.31072699},{"name":"五ノ神三丁目","province":"東京都","city":"羽村市","address":"東京都羽村市五ノ神3丁目16-1","lat":35.76238881,"lon":139.32036536},{"name":"羽村富士見公園入口","province":"東京都","city":"羽村市","address":"東京都羽村市緑ヶ丘4丁目10-17","lat":35.76808809,"lon":139.3179515},{"name":"羽村スポーツセンター北","province":"東京都","city":"羽村市","address":"東京都羽村市羽加美1丁目6-1","lat":35.76906262,"lon":139.30506922},{"name":"羽村栄町一丁目東","province":"東京都","city":"羽村市","address":"東京都羽村市栄町1丁目8-86","lat":35.77558695,"lon":139.30818823},{"name":"富士見平二丁目","province":"東京都","city":"羽村市","address":"東京都羽村市富士見平2丁目18","lat":35.76165011,"lon":139.32365121},{"name":"小作台一丁目","province":"東京都","city":"羽村市","address":"東京都羽村市小作台1丁目20-5","lat":35.77694502,"lon":139.30413573},{"name":"小作浄水場","province":"東京都","city":"羽村市","address":"東京都羽村市小作台4丁目2-1","lat":35.77612268,"lon":139.2958031},{"name":"羽村市高齢福祉介護課介護予防・地域支援係","province":"東京都","city":"羽村市","address":"羽村市緑ヶ丘5-2-1(市役所内)","lat":35.767506,"lon":139.310928},{"name":"羽村市地域包括支援センターあさひ","province":"東京都","city":"羽村市","address":"羽村市富士見平1-3-1エムマンション1階A号室","lat":35.765984,"lon":139.323135},{"name":"羽村市地域包括支援センターあゆみ","province":"東京都","city":"羽村市","address":"羽村市羽加美1-9-2","lat":35.770855,"lon":139.303635},{"name":"羽村市高齢福祉介護課高齢福祉係","province":"東京都","city":"羽村市","address":"羽村市緑ヶ丘5-2-1","lat":35.767506,"lon":139.310928},{"name":"羽村市消費生活センター","province":"東京都","city":"羽村市","address":"羽村市緑ヶ丘5-1-30","lat":35.76709,"lon":139.310135},{"name":"羽村市地域包括支援センターあかしあ","province":"東京都","city":"羽村市","address":"羽村市玉川2-6-6","lat":35.749191,"lon":139.314972},{"name":"羽村街道","province":"東京都","city":"羽村市","address":"東京都羽村市神明台3丁目1-1","lat":35.76112241,"lon":139.32386788},{"name":"羽村四面道","province":"東京都","city":"羽村市","address":"東京都羽村市五ノ神3丁目5-16","lat":35.76322207,"lon":139.32066531},{"name":"羽村神明台一丁目","province":"東京都","city":"羽村市","address":"東京都羽村市神明台1丁目4-1","lat":35.75750045,"lon":139.31920171},{"name":"栄小学校入口","province":"東京都","city":"羽村市","address":"東京都羽村市栄町3丁目4-2","lat":35.77472338,"lon":139.31590149},{"name":"羽村グリーントリム入口","province":"東京都","city":"羽村市","address":"東京都羽村市小作台5丁目29-6","lat":35.77159562,"lon":139.30316096},{"name":"羽村間坂","province":"東京都","city":"羽村市","address":"東京都羽村市栄町2丁目22-5","lat":35.76829619,"lon":139.3103327},{"name":"羽村団地入口","province":"東京都","city":"羽村市","address":"東京都羽村市富士見平1丁目13-1","lat":35.76331376,"lon":139.32211796},{"name":"小作変電所前","province":"東京都","city":"羽村市","address":"東京都羽村市小作台1丁目29-16","lat":35.77612013,"lon":139.30464961},{"name":"羽村駅東口前","province":"東京都","city":"羽村市","address":"東京都羽村市五ノ神1丁目3-10","lat":35.75940575,"lon":139.31774066},{"name":"羽村消防署入口","province":"東京都","city":"羽村市","address":"東京都羽村市栄町3丁目3","lat":35.77165702,"lon":139.31421283},{"name":"羽村富士見小学校西","province":"東京都","city":"羽村市","address":"東京都羽村市緑ヶ丘1丁目23","lat":35.76199705,"lon":139.31518801},{"name":"富士見第一保育園前","province":"東京都","city":"羽村市","address":"東京都羽村市緑ヶ丘2丁目1-11","lat":35.76625489,"lon":139.31508512},{"name":"五ノ神武蔵野南","province":"東京都","city":"羽村市","address":"東京都羽村市五ノ神1丁目4","lat":35.75968074,"lon":139.3185267},{"name":"羽村栄町二丁目","province":"東京都","city":"羽村市","address":"東京都羽村市栄町2丁目10-7","lat":35.77073196,"lon":139.30830502},{"name":"羽村間坂西","province":"東京都","city":"羽村市","address":"東京都羽村市羽加美1丁目33","lat":35.76722399,"lon":139.30695522},{"name":"羽村富士見小学校北","province":"東京都","city":"羽村市","address":"東京都羽村市緑ヶ丘2丁目19","lat":35.76386914,"lon":139.31812939},{"name":"羽村郵便局前","province":"東京都","city":"羽村市","address":"東京都羽村市緑ヶ丘1丁目14","lat":35.76326912,"lon":139.31507688},{"name":"羽村栄町一丁目","province":"東京都","city":"羽村市","address":"東京都羽村市栄町1丁目12-1","lat":35.77444538,"lon":139.30666894},{"name":"羽村水木公園前","province":"東京都","city":"羽村市","address":"東京都羽村市神明台2丁目1","lat":35.7582338,"lon":139.3223181},{"name":"羽村郵便局北","province":"東京都","city":"羽村市","address":"東京都羽村市緑ヶ丘5丁目17-21","lat":35.76510218,"lon":139.31289368},{"name":"羽村郵便局前第二","province":"東京都","city":"羽村市","address":"東京都羽村市緑ヶ丘1丁目6-14","lat":35.76481057,"lon":139.31382416},{"name":"羽村公民館前","province":"東京都","city":"羽村市","address":"東京都羽村市緑ヶ丘2丁目11-2","lat":35.76440514,"lon":139.31654616},{"name":"羽村小作坂上第二","province":"東京都","city":"羽村市","address":"東京都羽村市小作台5丁目20-8","lat":35.77336205,"lon":139.30230821},{"name":"小作駅入口","province":"東京都","city":"羽村市","address":"東京都羽村市小作台4丁目11-1","lat":35.77478682,"lon":139.29957227},{"name":"羽村駅東口第二","province":"東京都","city":"羽村市","address":"東京都羽村市五ノ神1丁目2-10","lat":35.75866139,"lon":139.31777401},{"name":"羽村市役所前","province":"東京都","city":"羽村市","address":"東京都羽村市緑ヶ丘5丁目2-1","lat":35.76772958,"lon":139.31045492},{"name":"羽村街道西","province":"東京都","city":"羽村市","address":"東京都羽村市神明台2丁目1","lat":35.7582338,"lon":139.3223181},{"name":"羽村栄小学校前","province":"東京都","city":"羽村市","address":"東京都羽村市栄町2丁目6-4","lat":35.77280404,"lon":139.31182967},{"name":"羽村特別支援学校","province":"東京都","city":"羽村市","address":"東京都羽村市五ノ神319-1","lat":35.76854397,"lon":139.33101427},{"name":"羽村四面道南","province":"東京都","city":"羽村市","address":"東京都羽村市五ノ神3丁目1-53","lat":35.76354697,"lon":139.31869601},{"name":"羽村駅北","province":"東京都","city":"羽村市","address":"東京都羽村市五ノ神4丁目6-7","lat":35.76111661,"lon":139.31601297},{"name":"小作駅北第二","province":"東京都","city":"羽村市","address":"東京都羽村市小作台2丁目17-24","lat":35.779228,"lon":139.30085537},{"name":"羽村小作西","province":"東京都","city":"羽村市","address":"東京都羽村市小作台4丁目4-1","lat":35.77570335,"lon":139.29834179},{"name":"武蔵野公園入口","province":"東京都","city":"羽村市","address":"東京都羽村市栄町1丁目13-14","lat":35.77302333,"lon":139.30711338},{"name":"栄小学校西","province":"東京都","city":"羽村市","address":"東京都羽村市栄町2丁目7","lat":35.77254293,"lon":139.31072699},{"name":"五ノ神三丁目","province":"東京都","city":"羽村市","address":"東京都羽村市五ノ神3丁目16-1","lat":35.76238881,"lon":139.32036536},{"name":"羽村富士見公園入口","province":"東京都","city":"羽村市","address":"東京都羽村市緑ヶ丘4丁目10-17","lat":35.76808809,"lon":139.3179515},{"name":"羽村スポーツセンター北","province":"東京都","city":"羽村市","address":"東京都羽村市羽加美1丁目6-1","lat":35.76906262,"lon":139.30506922},{"name":"羽村栄町一丁目東","province":"東京都","city":"羽村市","address":"東京都羽村市栄町1丁目8-86","lat":35.77558695,"lon":139.30818823},{"name":"富士見平二丁目","province":"東京都","city":"羽村市","address":"東京都羽村市富士見平2丁目18","lat":35.76165011,"lon":139.32365121},{"name":"小作台一丁目","province":"東京都","city":"羽村市","address":"東京都羽村市小作台1丁目20-5","lat":35.77694502,"lon":139.30413573},{"name":"小作浄水場","province":"東京都","city":"羽村市","address":"東京都羽村市小作台4丁目2-1","lat":35.77612268,"lon":139.2958031},{"name":"羽村市高齢福祉介護課介護予防・地域支援係","province":"東京都","city":"羽村市","address":"羽村市緑ヶ丘5-2-1(市役所内)","lat":35.767506,"lon":139.310928},{"name":"羽村市地域包括支援センターあさひ","province":"東京都","city":"羽村市","address":"羽村市富士見平1-3-1エムマンション1階A号室","lat":35.765984,"lon":139.323135},{"name":"羽村市地域包括支援センターあゆみ","province":"東京都","city":"羽村市","address":"羽村市羽加美1-9-2","lat":35.770855,"lon":139.303635},{"name":"羽村市高齢福祉介護課高齢福祉係","province":"東京都","city":"羽村市","address":"羽村市緑ヶ丘5-2-1","lat":35.767506,"lon":139.310928},{"name":"羽村市消費生活センター","province":"東京都","city":"羽村市","address":"羽村市緑ヶ丘5-1-30","lat":35.76709,"lon":139.310135},{"name":"羽村市地域包括支援センターあかしあ","province":"東京都","city":"羽村市","address":"羽村市玉川2-6-6","lat":35.749191,"lon":139.314972},{"name":"羽村街道","province":"東京都","city":"羽村市","address":"東京都羽村市神明台3丁目1-1","lat":35.76112241,"lon":139.32386788},{"name":"羽村四面道","province":"東京都","city":"羽村市","address":"東京都羽村市五ノ神3丁目5-16","lat":35.76322207,"lon":139.32066531},{"name":"羽村神明台一丁目","province":"東京都","city":"羽村市","address":"東京都羽村市神明台1丁目4-1","lat":35.75750045,"lon":139.31920171},{"name":"栄小学校入口","province":"東京都","city":"羽村市","address":"東京都羽村市栄町3丁目4-2","lat":35.77472338,"lon":139.31590149},{"name":"羽村グリーントリム入口","province":"東京都","city":"羽村市","address":"東京都羽村市小作台5丁目29-6","lat":35.77159562,"lon":139.30316096},{"name":"羽村間坂","province":"東京都","city":"羽村市","address":"東京都羽村市栄町2丁目22-5","lat":35.76829619,"lon":139.3103327},{"name":"羽村団地入口","province":"東京都","city":"羽村市","address":"東京都羽村市富士見平1丁目13-1","lat":35.76331376,"lon":139.32211796},{"name":"小作変電所前","province":"東京都","city":"羽村市","address":"東京都羽村市小作台1丁目29-16","lat":35.77612013,"lon":139.30464961},{"name":"羽村駅東口前","province":"東京都","city":"羽村市","address":"東京都羽村市五ノ神1丁目3-10","lat":35.75940575,"lon":139.31774066},{"name":"羽村消防署入口","province":"東京都","city":"羽村市","address":"東京都羽村市栄町3丁目3","lat":35.77165702,"lon":139.31421283},{"name":"羽村富士見小学校西","province":"東京都","city":"羽村市","address":"東京都羽村市緑ヶ丘1丁目23","lat":35.76199705,"lon":139.31518801},{"name":"富士見第一保育園前","province":"東京都","city":"羽村市","address":"東京都羽村市緑ヶ丘2丁目1-11","lat":35.76625489,"lon":139.31508512},{"name":"五ノ神武蔵野南","province":"東京都","city":"羽村市","address":"東京都羽村市五ノ神1丁目4","lat":35.75968074,"lon":139.3185267},{"name":"羽村栄町二丁目","province":"東京都","city":"羽村市","address":"東京都羽村市栄町2丁目10-7","lat":35.77073196,"lon":139.30830502},{"name":"羽村間坂西","province":"東京都","city":"羽村市","address":"東京都羽村市羽加美1丁目33","lat":35.76722399,"lon":139.30695522},{"name":"羽村富士見小学校北","province":"東京都","city":"羽村市","address":"東京都羽村市緑ヶ丘2丁目19","lat":35.76386914,"lon":139.31812939},{"name":"羽村郵便局前","province":"東京都","city":"羽村市","address":"東京都羽村市緑ヶ丘1丁目14","lat":35.76326912,"lon":139.31507688},{"name":"羽村栄町一丁目","province":"東京都","city":"羽村市","address":"東京都羽村市栄町1丁目12-1","lat":35.77444538,"lon":139.30666894},{"name":"羽村水木公園前","province":"東京都","city":"羽村市","address":"東京都羽村市神明台2丁目1","lat":35.7582338,"lon":139.3223181},{"name":"羽村郵便局北","province":"東京都","city":"羽村市","address":"東京都羽村市緑ヶ丘5丁目17-21","lat":35.76510218,"lon":139.31289368},{"name":"羽村郵便局前第二","province":"東京都","city":"羽村市","address":"東京都羽村市緑ヶ丘1丁目6-14","lat":35.76481057,"lon":139.31382416},{"name":"羽村公民館前","province":"東京都","city":"羽村市","address":"東京都羽村市緑ヶ丘2丁目11-2","lat":35.76440514,"lon":139.31654616},{"name":"羽村小作坂上第二","province":"東京都","city":"羽村市","address":"東京都羽村市小作台5丁目20-8","lat":35.77336205,"lon":139.30230821},{"name":"小作駅入口","province":"東京都","city":"羽村市","address":"東京都羽村市小作台4丁目11-1","lat":35.77478682,"lon":139.29957227},{"name":"羽村駅東口第二","province":"東京都","city":"羽村市","address":"東京都羽村市五ノ神1丁目2-10","lat":35.75866139,"lon":139.31777401},{"name":"羽村市役所前","province":"東京都","city":"羽村市","address":"東京都羽村市緑ヶ丘5丁目2-1","lat":35.76772958,"lon":139.31045492},{"name":"羽村街道西","province":"東京都","city":"羽村市","address":"東京都羽村市神明台2丁目1","lat":35.7582338,"lon":139.3223181},{"name":"羽村栄小学校前","province":"東京都","city":"羽村市","address":"東京都羽村市栄町2丁目6-4","lat":35.77280404,"lon":139.31182967},{"name":"羽村特別支援学校","province":"東京都","city":"羽村市","address":"東京都羽村市五ノ神319-1","lat":35.76854397,"lon":139.33101427},{"name":"羽村四面道南","province":"東京都","city":"羽村市","address":"東京都羽村市五ノ神3丁目1-53","lat":35.76354697,"lon":139.31869601},{"name":"羽村駅北","province":"東京都","city":"羽村市","address":"東京都羽村市五ノ神4丁目6-7","lat":35.76111661,"lon":139.31601297},{"name":"小作駅北第二","province":"東京都","city":"羽村市","address":"東京都羽村市小作台2丁目17-24","lat":35.779228,"lon":139.30085537},{"name":"羽村小作西","province":"東京都","city":"羽村市","address":"東京都羽村市小作台4丁目4-1","lat":35.77570335,"lon":139.29834179},{"name":"武蔵野公園入口","province":"東京都","city":"羽村市","address":"東京都羽村市栄町1丁目13-14","lat":35.77302333,"lon":139.30711338},{"name":"栄小学校西","province":"東京都","city":"羽村市","address":"東京都羽村市栄町2丁目7","lat":35.77254293,"lon":139.31072699},{"name":"五ノ神三丁目","province":"東京都","city":"羽村市","address":"東京都羽村市五ノ神3丁目16-1","lat":35.76238881,"lon":139.32036536},{"name":"羽村富士見公園入口","province":"東京都","city":"羽村市","address":"東京都羽村市緑ヶ丘4丁目10-17","lat":35.76808809,"lon":139.3179515},{"name":"羽村スポーツセンター北","province":"東京都","city":"羽村市","address":"東京都羽村市羽加美1丁目6-1","lat":35.76906262,"lon":139.30506922},{"name":"羽村栄町一丁目東","province":"東京都","city":"羽村市","address":"東京都羽村市栄町1丁目8-86","lat":35.77558695,"lon":139.30818823},{"name":"富士見平二丁目","province":"東京都","city":"羽村市","address":"東京都羽村市富士見平2丁目18","lat":35.76165011,"lon":139.32365121},{"name":"小作台一丁目","province":"東京都","city":"羽村市","address":"東京都羽村市小作台1丁目20-5","lat":35.77694502,"lon":139.30413573},{"name":"小作浄水場","province":"東京都","city":"羽村市","address":"東京都羽村市小作台4丁目2-1","lat":35.77612268,"lon":139.2958031},{"name":"羽村市高齢福祉介護課介護予防・地域支援係","province":"東京都","city":"羽村市","address":"羽村市緑ヶ丘5-2-1(市役所内)","lat":35.767506,"lon":139.310928},{"name":"羽村市地域包括支援センターあさひ","province":"東京都","city":"羽村市","address":"羽村市富士見平1-3-1エムマンション1階A号室","lat":35.765984,"lon":139.323135},{"name":"羽村市地域包括支援センターあゆみ","province":"東京都","city":"羽村市","address":"羽村市羽加美1-9-2","lat":35.770855,"lon":139.303635},{"name":"羽村市高齢福祉介護課高齢福祉係","province":"東京都","city":"羽村市","address":"羽村市緑ヶ丘5-2-1","lat":35.767506,"lon":139.310928},{"name":"羽村市消費生活センター","province":"東京都","city":"羽村市","address":"羽村市緑ヶ丘5-1-30","lat":35.76709,"lon":139.310135},{"name":"羽村市地域包括支援センターあかしあ","province":"東京都","city":"羽村市","address":"羽村市玉川2-6-6","lat":35.749191,"lon":139.314972},{"name":"羽村街道","province":"東京都","city":"羽村市","address":"東京都羽村市神明台3丁目1-1","lat":35.76112241,"lon":139.32386788},{"name":"羽村四面道","province":"東京都","city":"羽村市","address":"東京都羽村市五ノ神3丁目5-16","lat":35.76322207,"lon":139.32066531},{"name":"羽村神明台一丁目","province":"東京都","city":"羽村市","address":"東京都羽村市神明台1丁目4-1","lat":35.75750045,"lon":139.31920171},{"name":"栄小学校入口","province":"東京都","city":"羽村市","address":"東京都羽村市栄町3丁目4-2","lat":35.77472338,"lon":139.31590149},{"name":"羽村グリーントリム入口","province":"東京都","city":"羽村市","address":"東京都羽村市小作台5丁目29-6","lat":35.77159562,"lon":139.30316096},{"name":"羽村間坂","province":"東京都","city":"羽村市","address":"東京都羽村市栄町2丁目22-5","lat":35.76829619,"lon":139.3103327},{"name":"羽村団地入口","province":"東京都","city":"羽村市","address":"東京都羽村市富士見平1丁目13-1","lat":35.76331376,"lon":139.32211796},{"name":"小作変電所前","province":"東京都","city":"羽村市","address":"東京都羽村市小作台1丁目29-16","lat":35.77612013,"lon":139.30464961},{"name":"羽村駅東口前","province":"東京都","city":"羽村市","address":"東京都羽村市五ノ神1丁目3-10","lat":35.75940575,"lon":139.31774066},{"name":"羽村消防署入口","province":"東京都","city":"羽村市","address":"東京都羽村市栄町3丁目3","lat":35.77165702,"lon":139.31421283},{"name":"羽村富士見小学校西","province":"東京都","city":"羽村市","address":"東京都羽村市緑ヶ丘1丁目23","lat":35.76199705,"lon":139.31518801},{"name":"富士見第一保育園前","province":"東京都","city":"羽村市","address":"東京都羽村市緑ヶ丘2丁目1-11","lat":35.76625489,"lon":139.31508512},{"name":"五ノ神武蔵野南","province":"東京都","city":"羽村市","address":"東京都羽村市五ノ神1丁目4","lat":35.75968074,"lon":139.3185267},{"name":"羽村栄町二丁目","province":"東京都","city":"羽村市","address":"東京都羽村市栄町2丁目10-7","lat":35.77073196,"lon":139.30830502},{"name":"羽村間坂西","province":"東京都","city":"羽村市","address":"東京都羽村市羽加美1丁目33","lat":35.76722399,"lon":139.30695522},{"name":"羽村富士見小学校北","province":"東京都","city":"羽村市","address":"東京都羽村市緑ヶ丘2丁目19","lat":35.76386914,"lon":139.31812939},{"name":"羽村郵便局前","province":"東京都","city":"羽村市","address":"東京都羽村市緑ヶ丘1丁目14","lat":35.76326912,"lon":139.31507688},{"name":"羽村栄町一丁目","province":"東京都","city":"羽村市","address":"東京都羽村市栄町1丁目12-1","lat":35.77444538,"lon":139.30666894},{"name":"羽村水木公園前","province":"東京都","city":"羽村市","address":"東京都羽村市神明台2丁目1","lat":35.7582338,"lon":139.3223181},{"name":"羽村郵便局北","province":"東京都","city":"羽村市","address":"東京都羽村市緑ヶ丘5丁目17-21","lat":35.76510218,"lon":139.31289368},{"name":"羽村郵便局前第二","province":"東京都","city":"羽村市","address":"東京都羽村市緑ヶ丘1丁目6-14","lat":35.76481057,"lon":139.31382416},{"name":"羽村公民館前","province":"東京都","city":"羽村市","address":"東京都羽村市緑ヶ丘2丁目11-2","lat":35.76440514,"lon":139.31654616},{"name":"羽村小作坂上第二","province":"東京都","city":"羽村市","address":"東京都羽村市小作台5丁目20-8","lat":35.77336205,"lon":139.30230821},{"name":"小作駅入口","province":"東京都","city":"羽村市","address":"東京都羽村市小作台4丁目11-1","lat":35.77478682,"lon":139.29957227},{"name":"羽村駅東口第二","province":"東京都","city":"羽村市","address":"東京都羽村市五ノ神1丁目2-10","lat":35.75866139,"lon":139.31777401},{"name":"羽村市役所前","province":"東京都","city":"羽村市","address":"東京都羽村市緑ヶ丘5丁目2-1","lat":35.76772958,"lon":139.31045492},{"name":"羽村街道西","province":"東京都","city":"羽村市","address":"東京都羽村市神明台2丁目1","lat":35.7582338,"lon":139.3223181},{"name":"羽村栄小学校前","province":"東京都","city":"羽村市","address":"東京都羽村市栄町2丁目6-4","lat":35.77280404,"lon":139.31182967},{"name":"羽村特別支援学校","province":"東京都","city":"羽村市","address":"東京都羽村市五ノ神319-1","lat":35.76854397,"lon":139.33101427},{"name":"羽村四面道南","province":"東京都","city":"羽村市","address":"東京都羽村市五ノ神3丁目1-53","lat":35.76354697,"lon":139.31869601},{"name":"羽村駅北","province":"東京都","city":"羽村市","address":"東京都羽村市五ノ神4丁目6-7","lat":35.76111661,"lon":139.31601297},{"name":"小作駅北第二","province":"東京都","city":"羽村市","address":"東京都羽村市小作台2丁目17-24","lat":35.779228,"lon":139.30085537},{"name":"羽村小作西","province":"東京都","city":"羽村市","address":"東京都羽村市小作台4丁目4-1","lat":35.77570335,"lon":139.29834179},{"name":"武蔵野公園入口","province":"東京都","city":"羽村市","address":"東京都羽村市栄町1丁目13-14","lat":35.77302333,"lon":139.30711338},{"name":"栄小学校西","province":"東京都","city":"羽村市","address":"東京都羽村市栄町2丁目7","lat":35.77254293,"lon":139.31072699},{"name":"五ノ神三丁目","province":"東京都","city":"羽村市","address":"東京都羽村市五ノ神3丁目16-1","lat":35.76238881,"lon":139.32036536},{"name":"羽村富士見公園入口","province":"東京都","city":"羽村市","address":"東京都羽村市緑ヶ丘4丁目10-17","lat":35.76808809,"lon":139.3179515},{"name":"羽村スポーツセンター北","province":"東京都","city":"羽村市","address":"東京都羽村市羽加美1丁目6-1","lat":35.76906262,"lon":139.30506922},{"name":"羽村栄町一丁目東","province":"東京都","city":"羽村市","address":"東京都羽村市栄町1丁目8-86","lat":35.77558695,"lon":139.30818823},{"name":"富士見平二丁目","province":"東京都","city":"羽村市","address":"東京都羽村市富士見平2丁目18","lat":35.76165011,"lon":139.32365121},{"name":"小作台一丁目","province":"東京都","city":"羽村市","address":"東京都羽村市小作台1丁目20-5","lat":35.77694502,"lon":139.30413573},{"name":"小作浄水場","province":"東京都","city":"羽村市","address":"東京都羽村市小作台4丁目2-1","lat":35.77612268,"lon":139.2958031},{"name":"羽村市高齢福祉介護課介護予防・地域支援係","province":"東京都","city":"羽村市","address":"羽村市緑ヶ丘5-2-1(市役所内)","lat":35.767506,"lon":139.310928},{"name":"羽村市地域包括支援センターあさひ","province":"東京都","city":"羽村市","address":"羽村市富士見平1-3-1エムマンション1階A号室","lat":35.765984,"lon":139.323135},{"name":"羽村市地域包括支援センターあゆみ","province":"東京都","city":"羽村市","address":"羽村市羽加美1-9-2","lat":35.770855,"lon":139.303635},{"name":"羽村市高齢福祉介護課高齢福祉係","province":"東京都","city":"羽村市","address":"羽村市緑ヶ丘5-2-1","lat":35.767506,"lon":139.310928},{"name":"羽村市消費生活センター","province":"東京都","city":"羽村市","address":"羽村市緑ヶ丘5-1-30","lat":35.76709,"lon":139.310135},{"name":"羽村市地域包括支援センターあかしあ","province":"東京都","city":"羽村市","address":"羽村市玉川2-6-6","lat":35.749191,"lon":139.314972},{"name":"羽村街道","province":"東京都","city":"羽村市","address":"東京都羽村市神明台3丁目1-1","lat":35.76112241,"lon":139.32386788},{"name":"羽村四面道","province":"東京都","city":"羽村市","address":"東京都羽村市五ノ神3丁目5-16","lat":35.76322207,"lon":139.32066531},{"name":"羽村神明台一丁目","province":"東京都","city":"羽村市","address":"東京都羽村市神明台1丁目4-1","lat":35.75750045,"lon":139.31920171},{"name":"栄小学校入口","province":"東京都","city":"羽村市","address":"東京都羽村市栄町3丁目4-2","lat":35.77472338,"lon":139.31590149},{"name":"羽村グリーントリム入口","province":"東京都","city":"羽村市","address":"東京都羽村市小作台5丁目29-6","lat":35.77159562,"lon":139.30316096},{"name":"羽村間坂","province":"東京都","city":"羽村市","address":"東京都羽村市栄町2丁目22-5","lat":35.76829619,"lon":139.3103327},{"name":"羽村団地入口","province":"東京都","city":"羽村市","address":"東京都羽村市富士見平1丁目13-1","lat":35.76331376,"lon":139.32211796},{"name":"小作変電所前","province":"東京都","city":"羽村市","address":"東京都羽村市小作台1丁目29-16","lat":35.77612013,"lon":139.30464961},{"name":"羽村駅東口前","province":"東京都","city":"羽村市","address":"東京都羽村市五ノ神1丁目3-10","lat":35.75940575,"lon":139.31774066},{"name":"羽村消防署入口","province":"東京都","city":"羽村市","address":"東京都羽村市栄町3丁目3","lat":35.77165702,"lon":139.31421283},{"name":"羽村富士見小学校西","province":"東京都","city":"羽村市","address":"東京都羽村市緑ヶ丘1丁目23","lat":35.76199705,"lon":139.31518801},{"name":"富士見第一保育園前","province":"東京都","city":"羽村市","address":"東京都羽村市緑ヶ丘2丁目1-11","lat":35.76625489,"lon":139.31508512},{"name":"五ノ神武蔵野南","province":"東京都","city":"羽村市","address":"東京都羽村市五ノ神1丁目4","lat":35.75968074,"lon":139.3185267},{"name":"羽村栄町二丁目","province":"東京都","city":"羽村市","address":"東京都羽村市栄町2丁目10-7","lat":35.77073196,"lon":139.30830502},{"name":"羽村間坂西","province":"東京都","city":"羽村市","address":"東京都羽村市羽加美1丁目33","lat":35.76722399,"lon":139.30695522},{"name":"羽村富士見小学校北","province":"東京都","city":"羽村市","address":"東京都羽村市緑ヶ丘2丁目19","lat":35.76386914,"lon":139.31812939},{"name":"羽村郵便局前","province":"東京都","city":"羽村市","address":"東京都羽村市緑ヶ丘1丁目14","lat":35.76326912,"lon":139.31507688},{"name":"羽村栄町一丁目","province":"東京都","city":"羽村市","address":"東京都羽村市栄町1丁目12-1","lat":35.77444538,"lon":139.30666894},{"name":"羽村水木公園前","province":"東京都","city":"羽村市","address":"東京都羽村市神明台2丁目1","lat":35.7582338,"lon":139.3223181},{"name":"羽村郵便局北","province":"東京都","city":"羽村市","address":"東京都羽村市緑ヶ丘5丁目17-21","lat":35.76510218,"lon":139.31289368},{"name":"羽村郵便局前第二","province":"東京都","city":"羽村市","address":"東京都羽村市緑ヶ丘1丁目6-14","lat":35.76481057,"lon":139.31382416},{"name":"羽村公民館前","province":"東京都","city":"羽村市","address":"東京都羽村市緑ヶ丘2丁目11-2","lat":35.76440514,"lon":139.31654616},{"name":"羽村小作坂上第二","province":"東京都","city":"羽村市","address":"東京都羽村市小作台5丁目20-8","lat":35.77336205,"lon":139.30230821},{"name":"小作駅入口","province":"東京都","city":"羽村市","address":"東京都羽村市小作台4丁目11-1","lat":35.77478682,"lon":139.29957227},{"name":"羽村駅東口第二","province":"東京都","city":"羽村市","address":"東京都羽村市五ノ神1丁目2-10","lat":35.75866139,"lon":139.31777401},{"name":"羽村市役所前","province":"東京都","city":"羽村市","address":"東京都羽村市緑ヶ丘5丁目2-1","lat":35.76772958,"lon":139.31045492},{"name":"羽村街道西","province":"東京都","city":"羽村市","address":"東京都羽村市神明台2丁目1","lat":35.7582338,"lon":139.3223181},{"name":"羽村栄小学校前","province":"東京都","city":"羽村市","address":"東京都羽村市栄町2丁目6-4","lat":35.77280404,"lon":139.31182967},{"name":"羽村特別支援学校","province":"東京都","city":"羽村市","address":"東京都羽村市五ノ神319-1","lat":35.76854397,"lon":139.33101427},{"name":"羽村四面道南","province":"東京都","city":"羽村市","address":"東京都羽村市五ノ神3丁目1-53","lat":35.76354697,"lon":139.31869601},{"name":"羽村駅北","province":"東京都","city":"羽村市","address":"東京都羽村市五ノ神4丁目6-7","lat":35.76111661,"lon":139.31601297},{"name":"小作駅北第二","province":"東京都","city":"羽村市","address":"東京都羽村市小作台2丁目17-24","lat":35.779228,"lon":139.30085537},{"name":"羽村小作西","province":"東京都","city":"羽村市","address":"東京都羽村市小作台4丁目4-1","lat":35.77570335,"lon":139.29834179},{"name":"武蔵野公園入口","province":"東京都","city":"羽村市","address":"東京都羽村市栄町1丁目13-14","lat":35.77302333,"lon":139.30711338},{"name":"栄小学校西","province":"東京都","city":"羽村市","address":"東京都羽村市栄町2丁目7","lat":35.77254293,"lon":139.31072699},{"name":"五ノ神三丁目","province":"東京都","city":"羽村市","address":"東京都羽村市五ノ神3丁目16-1","lat":35.76238881,"lon":139.32036536},{"name":"羽村富士見公園入口","province":"東京都","city":"羽村市","address":"東京都羽村市緑ヶ丘4丁目10-17","lat":35.76808809,"lon":139.3179515},{"name":"羽村スポーツセンター北","province":"東京都","city":"羽村市","address":"東京都羽村市羽加美1丁目6-1","lat":35.76906262,"lon":139.30506922},{"name":"羽村栄町一丁目東","province":"東京都","city":"羽村市","address":"東京都羽村市栄町1丁目8-86","lat":35.77558695,"lon":139.30818823},{"name":"富士見平二丁目","province":"東京都","city":"羽村市","address":"東京都羽村市富士見平2丁目18","lat":35.76165011,"lon":139.32365121},{"name":"小作台一丁目","province":"東京都","city":"羽村市","address":"東京都羽村市小作台1丁目20-5","lat":35.77694502,"lon":139.30413573},{"name":"小作浄水場","province":"東京都","city":"羽村市","address":"東京都羽村市小作台4丁目2-1","lat":35.77612268,"lon":139.2958031},{"name":"羽村市高齢福祉介護課介護予防・地域支援係","province":"東京都","city":"羽村市","address":"羽村市緑ヶ丘5-2-1(市役所内)","lat":35.767506,"lon":139.310928},{"name":"羽村市地域包括支援センターあさひ","province":"東京都","city":"羽村市","address":"羽村市富士見平1-3-1エムマンション1階A号室","lat":35.765984,"lon":139.323135},{"name":"羽村市地域包括支援センターあゆみ","province":"東京都","city":"羽村市","address":"羽村市羽加美1-9-2","lat":35.770855,"lon":139.303635},{"name":"羽村市高齢福祉介護課高齢福祉係","province":"東京都","city":"羽村市","address":"羽村市緑ヶ丘5-2-1","lat":35.767506,"lon":139.310928},{"name":"羽村市消費生活センター","province":"東京都","city":"羽村市","address":"羽村市緑ヶ丘5-1-30","lat":35.76709,"lon":139.310135},{"name":"羽村市地域包括支援センターあかしあ","province":"東京都","city":"羽村市","address":"羽村市玉川2-6-6","lat":35.749191,"lon":139.314972},{"name":"羽村街道","province":"東京都","city":"羽村市","address":"東京都羽村市神明台3丁目1-1","lat":35.76112241,"lon":139.32386788},{"name":"羽村四面道","province":"東京都","city":"羽村市","address":"東京都羽村市五ノ神3丁目5-16","lat":35.76322207,"lon":139.32066531},{"name":"羽村神明台一丁目","province":"東京都","city":"羽村市","address":"東京都羽村市神明台1丁目4-1","lat":35.75750045,"lon":139.31920171},{"name":"栄小学校入口","province":"東京都","city":"羽村市","address":"東京都羽村市栄町3丁目4-2","lat":35.77472338,"lon":139.31590149},{"name":"羽村グリーントリム入口","province":"東京都","city":"羽村市","address":"東京都羽村市小作台5丁目29-6","lat":35.77159562,"lon":139.30316096},{"name":"羽村間坂","province":"東京都","city":"羽村市","address":"東京都羽村市栄町2丁目22-5","lat":35.76829619,"lon":139.3103327},{"name":"羽村団地入口","province":"東京都","city":"羽村市","address":"東京都羽村市富士見平1丁目13-1","lat":35.76331376,"lon":139.32211796},{"name":"小作変電所前","province":"東京都","city":"羽村市","address":"東京都羽村市小作台1丁目29-16","lat":35.77612013,"lon":139.30464961},{"name":"羽村駅東口前","province":"東京都","city":"羽村市","address":"東京都羽村市五ノ神1丁目3-10","lat":35.75940575,"lon":139.31774066},{"name":"羽村消防署入口","province":"東京都","city":"羽村市","address":"東京都羽村市栄町3丁目3","lat":35.77165702,"lon":139.31421283},{"name":"羽村富士見小学校西","province":"東京都","city":"羽村市","address":"東京都羽村市緑ヶ丘1丁目23","lat":35.76199705,"lon":139.31518801},{"name":"富士見第一保育園前","province":"東京都","city":"羽村市","address":"東京都羽村市緑ヶ丘2丁目1-11","lat":35.76625489,"lon":139.31508512},{"name":"五ノ神武蔵野南","province":"東京都","city":"羽村市","address":"東京都羽村市五ノ神1丁目4","lat":35.75968074,"lon":139.3185267},{"name":"羽村栄町二丁目","province":"東京都","city":"羽村市","address":"東京都羽村市栄町2丁目10-7","lat":35.77073196,"lon":139.30830502},{"name":"羽村間坂西","province":"東京都","city":"羽村市","address":"東京都羽村市羽加美1丁目33","lat":35.76722399,"lon":139.30695522},{"name":"羽村富士見小学校北","province":"東京都","city":"羽村市","address":"東京都羽村市緑ヶ丘2丁目19","lat":35.76386914,"lon":139.31812939},{"name":"羽村郵便局前","province":"東京都","city":"羽村市","address":"東京都羽村市緑ヶ丘1丁目14","lat":35.76326912,"lon":139.31507688},{"name":"羽村栄町一丁目","province":"東京都","city":"羽村市","address":"東京都羽村市栄町1丁目12-1","lat":35.77444538,"lon":139.30666894},{"name":"羽村水木公園前","province":"東京都","city":"羽村市","address":"東京都羽村市神明台2丁目1","lat":35.7582338,"lon":139.3223181},{"name":"羽村郵便局北","province":"東京都","city":"羽村市","address":"東京都羽村市緑ヶ丘5丁目17-21","lat":35.76510218,"lon":139.31289368},{"name":"羽村郵便局前第二","province":"東京都","city":"羽村市","address":"東京都羽村市緑ヶ丘1丁目6-14","lat":35.76481057,"lon":139.31382416},{"name":"羽村公民館前","province":"東京都","city":"羽村市","address":"東京都羽村市緑ヶ丘2丁目11-2","lat":35.76440514,"lon":139.31654616},{"name":"羽村小作坂上第二","province":"東京都","city":"羽村市","address":"東京都羽村市小作台5丁目20-8","lat":35.77336205,"lon":139.30230821},{"name":"小作駅入口","province":"東京都","city":"羽村市","address":"東京都羽村市小作台4丁目11-1","lat":35.77478682,"lon":139.29957227},{"name":"羽村駅東口第二","province":"東京都","city":"羽村市","address":"東京都羽村市五ノ神1丁目2-10","lat":35.75866139,"lon":139.31777401},{"name":"羽村市役所前","province":"東京都","city":"羽村市","address":"東京都羽村市緑ヶ丘5丁目2-1","lat":35.76772958,"lon":139.31045492},{"name":"羽村街道西","province":"東京都","city":"羽村市","address":"東京都羽村市神明台2丁目1","lat":35.7582338,"lon":139.3223181},{"name":"羽村栄小学校前","province":"東京都","city":"羽村市","address":"東京都羽村市栄町2丁目6-4","lat":35.77280404,"lon":139.31182967},{"name":"羽村特別支援学校","province":"東京都","city":"羽村市","address":"東京都羽村市五ノ神319-1","lat":35.76854397,"lon":139.33101427},{"name":"羽村四面道南","province":"東京都","city":"羽村市","address":"東京都羽村市五ノ神3丁目1-53","lat":35.76354697,"lon":139.31869601},{"name":"羽村駅北","province":"東京都","city":"羽村市","address":"東京都羽村市五ノ神4丁目6-7","lat":35.76111661,"lon":139.31601297},{"name":"小作駅北第二","province":"東京都","city":"羽村市","address":"東京都羽村市小作台2丁目17-24","lat":35.779228,"lon":139.30085537},{"name":"羽村小作西","province":"東京都","city":"羽村市","address":"東京都羽村市小作台4丁目4-1","lat":35.77570335,"lon":139.29834179},{"name":"武蔵野公園入口","province":"東京都","city":"羽村市","address":"東京都羽村市栄町1丁目13-14","lat":35.77302333,"lon":139.30711338},{"name":"栄小学校西","province":"東京都","city":"羽村市","address":"東京都羽村市栄町2丁目7","lat":35.77254293,"lon":139.31072699},{"name":"五ノ神三丁目","province":"東京都","city":"羽村市","address":"東京都羽村市五ノ神3丁目16-1","lat":35.76238881,"lon":139.32036536},{"name":"羽村富士見公園入口","province":"東京都","city":"羽村市","address":"東京都羽村市緑ヶ丘4丁目10-17","lat":35.76808809,"lon":139.3179515},{"name":"羽村スポーツセンター北","province":"東京都","city":"羽村市","address":"東京都羽村市羽加美1丁目6-1","lat":35.76906262,"lon":139.30506922},{"name":"羽村栄町一丁目東","province":"東京都","city":"羽村市","address":"東京都羽村市栄町1丁目8-86","lat":35.77558695,"lon":139.30818823},{"name":"富士見平二丁目","province":"東京都","city":"羽村市","address":"東京都羽村市富士見平2丁目18","lat":35.76165011,"lon":139.32365121},{"name":"小作台一丁目","province":"東京都","city":"羽村市","address":"東京都羽村市小作台1丁目20-5","lat":35.77694502,"lon":139.30413573},{"name":"小作浄水場","province":"東京都","city":"羽村市","address":"東京都羽村市小作台4丁目2-1","lat":35.77612268,"lon":139.2958031},{"name":"羽村市高齢福祉介護課介護予防・地域支援係","province":"東京都","city":"羽村市","address":"羽村市緑ヶ丘5-2-1(市役所内)","lat":35.767506,"lon":139.310928},{"name":"羽村市地域包括支援センターあさひ","province":"東京都","city":"羽村市","address":"羽村市富士見平1-3-1エムマンション1階A号室","lat":35.765984,"lon":139.323135},{"name":"羽村市地域包括支援センターあゆみ","province":"東京都","city":"羽村市","address":"羽村市羽加美1-9-2","lat":35.770855,"lon":139.303635},{"name":"羽村市高齢福祉介護課高齢福祉係","province":"東京都","city":"羽村市","address":"羽村市緑ヶ丘5-2-1","lat":35.767506,"lon":139.310928},{"name":"羽村市消費生活センター","province":"東京都","city":"羽村市","address":"羽村市緑ヶ丘5-1-30","lat":35.76709,"lon":139.310135},{"name":"羽村市地域包括支援センターあかしあ","province":"東京都","city":"羽村市","address":"羽村市玉川2-6-6","lat":35.749191,"lon":139.314972},{"name":"羽村街道","province":"東京都","city":"羽村市","address":"東京都羽村市神明台3丁目1-1","lat":35.76112241,"lon":139.32386788},{"name":"羽村四面道","province":"東京都","city":"羽村市","address":"東京都羽村市五ノ神3丁目5-16","lat":35.76322207,"lon":139.32066531},{"name":"羽村神明台一丁目","province":"東京都","city":"羽村市","address":"東京都羽村市神明台1丁目4-1","lat":35.75750045,"lon":139.31920171},{"name":"栄小学校入口","province":"東京都","city":"羽村市","address":"東京都羽村市栄町3丁目4-2","lat":35.77472338,"lon":139.31590149},{"name":"羽村グリーントリム入口","province":"東京都","city":"羽村市","address":"東京都羽村市小作台5丁目29-6","lat":35.77159562,"lon":139.30316096},{"name":"羽村間坂","province":"東京都","city":"羽村市","address":"東京都羽村市栄町2丁目22-5","lat":35.76829619,"lon":139.3103327},{"name":"羽村団地入口","province":"東京都","city":"羽村市","address":"東京都羽村市富士見平1丁目13-1","lat":35.76331376,"lon":139.32211796},{"name":"小作変電所前","province":"東京都","city":"羽村市","address":"東京都羽村市小作台1丁目29-16","lat":35.77612013,"lon":139.30464961},{"name":"羽村駅東口前","province":"東京都","city":"羽村市","address":"東京都羽村市五ノ神1丁目3-10","lat":35.75940575,"lon":139.31774066},{"name":"羽村消防署入口","province":"東京都","city":"羽村市","address":"東京都羽村市栄町3丁目3","lat":35.77165702,"lon":139.31421283},{"name":"羽村富士見小学校西","province":"東京都","city":"羽村市","address":"東京都羽村市緑ヶ丘1丁目23","lat":35.76199705,"lon":139.31518801},{"name":"富士見第一保育園前","province":"東京都","city":"羽村市","address":"東京都羽村市緑ヶ丘2丁目1-11","lat":35.76625489,"lon":139.31508512},{"name":"五ノ神武蔵野南","province":"東京都","city":"羽村市","address":"東京都羽村市五ノ神1丁目4","lat":35.75968074,"lon":139.3185267},{"name":"羽村栄町二丁目","province":"東京都","city":"羽村市","address":"東京都羽村市栄町2丁目10-7","lat":35.77073196,"lon":139.30830502},{"name":"羽村間坂西","province":"東京都","city":"羽村市","address":"東京都羽村市羽加美1丁目33","lat":35.76722399,"lon":139.30695522},{"name":"羽村富士見小学校北","province":"東京都","city":"羽村市","address":"東京都羽村市緑ヶ丘2丁目19","lat":35.76386914,"lon":139.31812939},{"name":"羽村郵便局前","province":"東京都","city":"羽村市","address":"東京都羽村市緑ヶ丘1丁目14","lat":35.76326912,"lon":139.31507688},{"name":"羽村栄町一丁目","province":"東京都","city":"羽村市","address":"東京都羽村市栄町1丁目12-1","lat":35.77444538,"lon":139.30666894},{"name":"羽村水木公園前","province":"東京都","city":"羽村市","address":"東京都羽村市神明台2丁目1","lat":35.7582338,"lon":139.3223181},{"name":"羽村郵便局北","province":"東京都","city":"羽村市","address":"東京都羽村市緑ヶ丘5丁目17-21","lat":35.76510218,"lon":139.31289368},{"name":"羽村郵便局前第二","province":"東京都","city":"羽村市","address":"東京都羽村市緑ヶ丘1丁目6-14","lat":35.76481057,"lon":139.31382416},{"name":"羽村公民館前","province":"東京都","city":"羽村市","address":"東京都羽村市緑ヶ丘2丁目11-2","lat":35.76440514,"lon":139.31654616},{"name":"羽村小作坂上第二","province":"東京都","city":"羽村市","address":"東京都羽村市小作台5丁目20-8","lat":35.77336205,"lon":139.30230821},{"name":"小作駅入口","province":"東京都","city":"羽村市","address":"東京都羽村市小作台4丁目11-1","lat":35.77478682,"lon":139.29957227},{"name":"羽村駅東口第二","province":"東京都","city":"羽村市","address":"東京都羽村市五ノ神1丁目2-10","lat":35.75866139,"lon":139.31777401},{"name":"羽村市役所前","province":"東京都","city":"羽村市","address":"東京都羽村市緑ヶ丘5丁目2-1","lat":35.76772958,"lon":139.31045492},{"name":"羽村街道西","province":"東京都","city":"羽村市","address":"東京都羽村市神明台2丁目1","lat":35.7582338,"lon":139.3223181},{"name":"羽村栄小学校前","province":"東京都","city":"羽村市","address":"東京都羽村市栄町2丁目6-4","lat":35.77280404,"lon":139.31182967},{"name":"羽村特別支援学校","province":"東京都","city":"羽村市","address":"東京都羽村市五ノ神319-1","lat":35.76854397,"lon":139.33101427},{"name":"羽村四面道南","province":"東京都","city":"羽村市","address":"東京都羽村市五ノ神3丁目1-53","lat":35.76354697,"lon":139.31869601},{"name":"羽村駅北","province":"東京都","city":"羽村市","address":"東京都羽村市五ノ神4丁目6-7","lat":35.76111661,"lon":139.31601297},{"name":"小作駅北第二","province":"東京都","city":"羽村市","address":"東京都羽村市小作台2丁目17-24","lat":35.779228,"lon":139.30085537},{"name":"羽村小作西","province":"東京都","city":"羽村市","address":"東京都羽村市小作台4丁目4-1","lat":35.77570335,"lon":139.29834179},{"name":"武蔵野公園入口","province":"東京都","city":"羽村市","address":"東京都羽村市栄町1丁目13-14","lat":35.77302333,"lon":139.30711338},{"name":"栄小学校西","province":"東京都","city":"羽村市","address":"東京都羽村市栄町2丁目7","lat":35.77254293,"lon":139.31072699},{"name":"五ノ神三丁目","province":"東京都","city":"羽村市","address":"東京都羽村市五ノ神3丁目16-1","lat":35.76238881,"lon":139.32036536},{"name":"羽村富士見公園入口","province":"東京都","city":"羽村市","address":"東京都羽村市緑ヶ丘4丁目10-17","lat":35.76808809,"lon":139.3179515},{"name":"羽村スポーツセンター北","province":"東京都","city":"羽村市","address":"東京都羽村市羽加美1丁目6-1","lat":35.76906262,"lon":139.30506922},{"name":"羽村栄町一丁目東","province":"東京都","city":"羽村市","address":"東京都羽村市栄町1丁目8-86","lat":35.77558695,"lon":139.30818823},{"name":"富士見平二丁目","province":"東京都","city":"羽村市","address":"東京都羽村市富士見平2丁目18","lat":35.76165011,"lon":139.32365121},{"name":"小作台一丁目","province":"東京都","city":"羽村市","address":"東京都羽村市小作台1丁目20-5","lat":35.77694502,"lon":139.30413573},{"name":"小作浄水場","province":"東京都","city":"羽村市","address":"東京都羽村市小作台4丁目2-1","lat":35.77612268,"lon":139.2958031},{"name":"羽村市高齢福祉介護課介護予防・地域支援係","province":"東京都","city":"羽村市","address":"羽村市緑ヶ丘5-2-1(市役所内)","lat":35.767506,"lon":139.310928},{"name":"羽村市地域包括支援センターあさひ","province":"東京都","city":"羽村市","address":"羽村市富士見平1-3-1エムマンション1階A号室","lat":35.765984,"lon":139.323135},{"name":"羽村市地域包括支援センターあゆみ","province":"東京都","city":"羽村市","address":"羽村市羽加美1-9-2","lat":35.770855,"lon":139.303635},{"name":"羽村市高齢福祉介護課高齢福祉係","province":"東京都","city":"羽村市","address":"羽村市緑ヶ丘5-2-1","lat":35.767506,"lon":139.310928},{"name":"羽村市消費生活センター","province":"東京都","city":"羽村市","address":"羽村市緑ヶ丘5-1-30","lat":35.76709,"lon":139.310135},{"name":"羽村市地域包括支援センターあかしあ","province":"東京都","city":"羽村市","address":"羽村市玉川2-6-6","lat":35.749191,"lon":139.314972},{"name":"羽村街道","province":"東京都","city":"羽村市","address":"東京都羽村市神明台3丁目1-1","lat":35.76112241,"lon":139.32386788},{"name":"羽村四面道","province":"東京都","city":"羽村市","address":"東京都羽村市五ノ神3丁目5-16","lat":35.76322207,"lon":139.32066531},{"name":"羽村神明台一丁目","province":"東京都","city":"羽村市","address":"東京都羽村市神明台1丁目4-1","lat":35.75750045,"lon":139.31920171},{"name":"栄小学校入口","province":"東京都","city":"羽村市","address":"東京都羽村市栄町3丁目4-2","lat":35.77472338,"lon":139.31590149},{"name":"羽村グリーントリム入口","province":"東京都","city":"羽村市","address":"東京都羽村市小作台5丁目29-6","lat":35.77159562,"lon":139.30316096},{"name":"羽村間坂","province":"東京都","city":"羽村市","address":"東京都羽村市栄町2丁目22-5","lat":35.76829619,"lon":139.3103327},{"name":"羽村団地入口","province":"東京都","city":"羽村市","address":"東京都羽村市富士見平1丁目13-1","lat":35.76331376,"lon":139.32211796},{"name":"小作変電所前","province":"東京都","city":"羽村市","address":"東京都羽村市小作台1丁目29-16","lat":35.77612013,"lon":139.30464961},{"name":"羽村駅東口前","province":"東京都","city":"羽村市","address":"東京都羽村市五ノ神1丁目3-10","lat":35.75940575,"lon":139.31774066},{"name":"羽村消防署入口","province":"東京都","city":"羽村市","address":"東京都羽村市栄町3丁目3","lat":35.77165702,"lon":139.31421283},{"name":"羽村富士見小学校西","province":"東京都","city":"羽村市","address":"東京都羽村市緑ヶ丘1丁目23","lat":35.76199705,"lon":139.31518801},{"name":"富士見第一保育園前","province":"東京都","city":"羽村市","address":"東京都羽村市緑ヶ丘2丁目1-11","lat":35.76625489,"lon":139.31508512},{"name":"五ノ神武蔵野南","province":"東京都","city":"羽村市","address":"東京都羽村市五ノ神1丁目4","lat":35.75968074,"lon":139.3185267},{"name":"羽村栄町二丁目","province":"東京都","city":"羽村市","address":"東京都羽村市栄町2丁目10-7","lat":35.77073196,"lon":139.30830502},{"name":"羽村間坂西","province":"東京都","city":"羽村市","address":"東京都羽村市羽加美1丁目33","lat":35.76722399,"lon":139.30695522},{"name":"羽村富士見小学校北","province":"東京都","city":"羽村市","address":"東京都羽村市緑ヶ丘2丁目19","lat":35.76386914,"lon":139.31812939},{"name":"羽村郵便局前","province":"東京都","city":"羽村市","address":"東京都羽村市緑ヶ丘1丁目14","lat":35.76326912,"lon":139.31507688},{"name":"羽村栄町一丁目","province":"東京都","city":"羽村市","address":"東京都羽村市栄町1丁目12-1","lat":35.77444538,"lon":139.30666894},{"name":"羽村水木公園前","province":"東京都","city":"羽村市","address":"東京都羽村市神明台2丁目1","lat":35.7582338,"lon":139.3223181},{"name":"羽村郵便局北","province":"東京都","city":"羽村市","address":"東京都羽村市緑ヶ丘5丁目17-21","lat":35.76510218,"lon":139.31289368},{"name":"羽村郵便局前第二","province":"東京都","city":"羽村市","address":"東京都羽村市緑ヶ丘1丁目6-14","lat":35.76481057,"lon":139.31382416},{"name":"羽村公民館前","province":"東京都","city":"羽村市","address":"東京都羽村市緑ヶ丘2丁目11-2","lat":35.76440514,"lon":139.31654616},{"name":"羽村小作坂上第二","province":"東京都","city":"羽村市","address":"東京都羽村市小作台5丁目20-8","lat":35.77336205,"lon":139.30230821},{"name":"小作駅入口","province":"東京都","city":"羽村市","address":"東京都羽村市小作台4丁目11-1","lat":35.77478682,"lon":139.29957227},{"name":"羽村駅東口第二","province":"東京都","city":"羽村市","address":"東京都羽村市五ノ神1丁目2-10","lat":35.75866139,"lon":139.31777401},{"name":"羽村市役所前","province":"東京都","city":"羽村市","address":"東京都羽村市緑ヶ丘5丁目2-1","lat":35.76772958,"lon":139.31045492},{"name":"羽村街道西","province":"東京都","city":"羽村市","address":"東京都羽村市神明台2丁目1","lat":35.7582338,"lon":139.3223181},{"name":"羽村栄小学校前","province":"東京都","city":"羽村市","address":"東京都羽村市栄町2丁目6-4","lat":35.77280404,"lon":139.31182967},{"name":"羽村特別支援学校","province":"東京都","city":"羽村市","address":"東京都羽村市五ノ神319-1","lat":35.76854397,"lon":139.33101427},{"name":"羽村四面道南","province":"東京都","city":"羽村市","address":"東京都羽村市五ノ神3丁目1-53","lat":35.76354697,"lon":139.31869601},{"name":"羽村駅北","province":"東京都","city":"羽村市","address":"東京都羽村市五ノ神4丁目6-7","lat":35.76111661,"lon":139.31601297},{"name":"小作駅北第二","province":"東京都","city":"羽村市","address":"東京都羽村市小作台2丁目17-24","lat":35.779228,"lon":139.30085537},{"name":"羽村小作西","province":"東京都","city":"羽村市","address":"東京都羽村市小作台4丁目4-1","lat":35.77570335,"lon":139.29834179},{"name":"武蔵野公園入口","province":"東京都","city":"羽村市","address":"東京都羽村市栄町1丁目13-14","lat":35.77302333,"lon":139.30711338},{"name":"栄小学校西","province":"東京都","city":"羽村市","address":"東京都羽村市栄町2丁目7","lat":35.77254293,"lon":139.31072699},{"name":"五ノ神三丁目","province":"東京都","city":"羽村市","address":"東京都羽村市五ノ神3丁目16-1","lat":35.76238881,"lon":139.32036536},{"name":"羽村富士見公園入口","province":"東京都","city":"羽村市","address":"東京都羽村市緑ヶ丘4丁目10-17","lat":35.76808809,"lon":139.3179515},{"name":"羽村スポーツセンター北","province":"東京都","city":"羽村市","address":"東京都羽村市羽加美1丁目6-1","lat":35.76906262,"lon":139.30506922},{"name":"羽村栄町一丁目東","province":"東京都","city":"羽村市","address":"東京都羽村市栄町1丁目8-86","lat":35.77558695,"lon":139.30818823},{"name":"富士見平二丁目","province":"東京都","city":"羽村市","address":"東京都羽村市富士見平2丁目18","lat":35.76165011,"lon":139.32365121},{"name":"小作台一丁目","province":"東京都","city":"羽村市","address":"東京都羽村市小作台1丁目20-5","lat":35.77694502,"lon":139.30413573},{"name":"小作浄水場","province":"東京都","city":"羽村市","address":"東京都羽村市小作台4丁目2-1","lat":35.77612268,"lon":139.2958031},{"name":"羽村市高齢福祉介護課介護予防・地域支援係","province":"東京都","city":"羽村市","address":"羽村市緑ヶ丘5-2-1(市役所内)","lat":35.767506,"lon":139.310928},{"name":"羽村市地域包括支援センターあさひ","province":"東京都","city":"羽村市","address":"羽村市富士見平1-3-1エムマンション1階A号室","lat":35.765984,"lon":139.323135},{"name":"羽村市地域包括支援センターあゆみ","province":"東京都","city":"羽村市","address":"羽村市羽加美1-9-2","lat":35.770855,"lon":139.303635},{"name":"羽村市高齢福祉介護課高齢福祉係","province":"東京都","city":"羽村市","address":"羽村市緑ヶ丘5-2-1","lat":35.767506,"lon":139.310928},{"name":"羽村市消費生活センター","province":"東京都","city":"羽村市","address":"羽村市緑ヶ丘5-1-30","lat":35.76709,"lon":139.310135},{"name":"羽村市地域包括支援センターあかしあ","province":"東京都","city":"羽村市","address":"羽村市玉川2-6-6","lat":35.749191,"lon":139.314972},{"name":"羽村街道","province":"東京都","city":"羽村市","address":"東京都羽村市神明台3丁目1-1","lat":35.76112241,"lon":139.32386788},{"name":"羽村四面道","province":"東京都","city":"羽村市","address":"東京都羽村市五ノ神3丁目5-16","lat":35.76322207,"lon":139.32066531},{"name":"羽村神明台一丁目","province":"東京都","city":"羽村市","address":"東京都羽村市神明台1丁目4-1","lat":35.75750045,"lon":139.31920171},{"name":"栄小学校入口","province":"東京都","city":"羽村市","address":"東京都羽村市栄町3丁目4-2","lat":35.77472338,"lon":139.31590149},{"name":"羽村グリーントリム入口","province":"東京都","city":"羽村市","address":"東京都羽村市小作台5丁目29-6","lat":35.77159562,"lon":139.30316096},{"name":"羽村間坂","province":"東京都","city":"羽村市","address":"東京都羽村市栄町2丁目22-5","lat":35.76829619,"lon":139.3103327},{"name":"羽村団地入口","province":"東京都","city":"羽村市","address":"東京都羽村市富士見平1丁目13-1","lat":35.76331376,"lon":139.32211796},{"name":"小作変電所前","province":"東京都","city":"羽村市","address":"東京都羽村市小作台1丁目29-16","lat":35.77612013,"lon":139.30464961},{"name":"羽村駅東口前","province":"東京都","city":"羽村市","address":"東京都羽村市五ノ神1丁目3-10","lat":35.75940575,"lon":139.31774066},{"name":"羽村消防署入口","province":"東京都","city":"羽村市","address":"東京都羽村市栄町3丁目3","lat":35.77165702,"lon":139.31421283},{"name":"羽村富士見小学校西","province":"東京都","city":"羽村市","address":"東京都羽村市緑ヶ丘1丁目23","lat":35.76199705,"lon":139.31518801},{"name":"富士見第一保育園前","province":"東京都","city":"羽村市","address":"東京都羽村市緑ヶ丘2丁目1-11","lat":35.76625489,"lon":139.31508512},{"name":"五ノ神武蔵野南","province":"東京都","city":"羽村市","address":"東京都羽村市五ノ神1丁目4","lat":35.75968074,"lon":139.3185267},{"name":"羽村栄町二丁目","province":"東京都","city":"羽村市","address":"東京都羽村市栄町2丁目10-7","lat":35.77073196,"lon":139.30830502},{"name":"羽村間坂西","province":"東京都","city":"羽村市","address":"東京都羽村市羽加美1丁目33","lat":35.76722399,"lon":139.30695522},{"name":"羽村富士見小学校北","province":"東京都","city":"羽村市","address":"東京都羽村市緑ヶ丘2丁目19","lat":35.76386914,"lon":139.31812939},{"name":"羽村郵便局前","province":"東京都","city":"羽村市","address":"東京都羽村市緑ヶ丘1丁目14","lat":35.76326912,"lon":139.31507688},{"name":"羽村栄町一丁目","province":"東京都","city":"羽村市","address":"東京都羽村市栄町1丁目12-1","lat":35.77444538,"lon":139.30666894},{"name":"羽村水木公園前","province":"東京都","city":"羽村市","address":"東京都羽村市神明台2丁目1","lat":35.7582338,"lon":139.3223181},{"name":"羽村郵便局北","province":"東京都","city":"羽村市","address":"東京都羽村市緑ヶ丘5丁目17-21","lat":35.76510218,"lon":139.31289368},{"name":"羽村郵便局前第二","province":"東京都","city":"羽村市","address":"東京都羽村市緑ヶ丘1丁目6-14","lat":35.76481057,"lon":139.31382416},{"name":"羽村公民館前","province":"東京都","city":"羽村市","address":"東京都羽村市緑ヶ丘2丁目11-2","lat":35.76440514,"lon":139.31654616},{"name":"羽村小作坂上第二","province":"東京都","city":"羽村市","address":"東京都羽村市小作台5丁目20-8","lat":35.77336205,"lon":139.30230821},{"name":"小作駅入口","province":"東京都","city":"羽村市","address":"東京都羽村市小作台4丁目11-1","lat":35.77478682,"lon":139.29957227},{"name":"羽村駅東口第二","province":"東京都","city":"羽村市","address":"東京都羽村市五ノ神1丁目2-10","lat":35.75866139,"lon":139.31777401},{"name":"羽村市役所前","province":"東京都","city":"羽村市","address":"東京都羽村市緑ヶ丘5丁目2-1","lat":35.76772958,"lon":139.31045492},{"name":"羽村街道西","province":"東京都","city":"羽村市","address":"東京都羽村市神明台2丁目1","lat":35.7582338,"lon":139.3223181},{"name":"羽村栄小学校前","province":"東京都","city":"羽村市","address":"東京都羽村市栄町2丁目6-4","lat":35.77280404,"lon":139.31182967},{"name":"羽村特別支援学校","province":"東京都","city":"羽村市","address":"東京都羽村市五ノ神319-1","lat":35.76854397,"lon":139.33101427},{"name":"羽村四面道南","province":"東京都","city":"羽村市","address":"東京都羽村市五ノ神3丁目1-53","lat":35.76354697,"lon":139.31869601},{"name":"羽村駅北","province":"東京都","city":"羽村市","address":"東京都羽村市五ノ神4丁目6-7","lat":35.76111661,"lon":139.31601297},{"name":"小作駅北第二","province":"東京都","city":"羽村市","address":"東京都羽村市小作台2丁目17-24","lat":35.779228,"lon":139.30085537},{"name":"羽村小作西","province":"東京都","city":"羽村市","address":"東京都羽村市小作台4丁目4-1","lat":35.77570335,"lon":139.29834179},{"name":"武蔵野公園入口","province":"東京都","city":"羽村市","address":"東京都羽村市栄町1丁目13-14","lat":35.77302333,"lon":139.30711338},{"name":"栄小学校西","province":"東京都","city":"羽村市","address":"東京都羽村市栄町2丁目7","lat":35.77254293,"lon":139.31072699},{"name":"五ノ神三丁目","province":"東京都","city":"羽村市","address":"東京都羽村市五ノ神3丁目16-1","lat":35.76238881,"lon":139.32036536},{"name":"羽村富士見公園入口","province":"東京都","city":"羽村市","address":"東京都羽村市緑ヶ丘4丁目10-17","lat":35.76808809,"lon":139.3179515},{"name":"羽村スポーツセンター北","province":"東京都","city":"羽村市","address":"東京都羽村市羽加美1丁目6-1","lat":35.76906262,"lon":139.30506922},{"name":"羽村栄町一丁目東","province":"東京都","city":"羽村市","address":"東京都羽村市栄町1丁目8-86","lat":35.77558695,"lon":139.30818823},{"name":"富士見平二丁目","province":"東京都","city":"羽村市","address":"東京都羽村市富士見平2丁目18","lat":35.76165011,"lon":139.32365121},{"name":"小作台一丁目","province":"東京都","city":"羽村市","address":"東京都羽村市小作台1丁目20-5","lat":35.77694502,"lon":139.30413573},{"name":"小作浄水場","province":"東京都","city":"羽村市","address":"東京都羽村市小作台4丁目2-1","lat":35.77612268,"lon":139.2958031},{"name":"羽村市高齢福祉介護課介護予防・地域支援係","province":"東京都","city":"羽村市","address":"羽村市緑ヶ丘5-2-1(市役所内)","lat":35.767506,"lon":139.310928},{"name":"羽村市地域包括支援センターあさひ","province":"東京都","city":"羽村市","address":"羽村市富士見平1-3-1エムマンション1階A号室","lat":35.765984,"lon":139.323135},{"name":"羽村市地域包括支援センターあゆみ","province":"東京都","city":"羽村市","address":"羽村市羽加美1-9-2","lat":35.770855,"lon":139.303635},{"name":"羽村市高齢福祉介護課高齢福祉係","province":"東京都","city":"羽村市","address":"羽村市緑ヶ丘5-2-1","lat":35.767506,"lon":139.310928},{"name":"羽村市消費生活センター","province":"東京都","city":"羽村市","address":"羽村市緑ヶ丘5-1-30","lat":35.76709,"lon":139.310135},{"name":"羽村市地域包括支援センターあかしあ","province":"東京都","city":"羽村市","address":"羽村市玉川2-6-6","lat":35.749191,"lon":139.314972},{"name":"羽村街道","province":"東京都","city":"羽村市","address":"東京都羽村市神明台3丁目1-1","lat":35.76112241,"lon":139.32386788},{"name":"羽村四面道","province":"東京都","city":"羽村市","address":"東京都羽村市五ノ神3丁目5-16","lat":35.76322207,"lon":139.32066531},{"name":"羽村神明台一丁目","province":"東京都","city":"羽村市","address":"東京都羽村市神明台1丁目4-1","lat":35.75750045,"lon":139.31920171},{"name":"栄小学校入口","province":"東京都","city":"羽村市","address":"東京都羽村市栄町3丁目4-2","lat":35.77472338,"lon":139.31590149},{"name":"羽村グリーントリム入口","province":"東京都","city":"羽村市","address":"東京都羽村市小作台5丁目29-6","lat":35.77159562,"lon":139.30316096},{"name":"羽村間坂","province":"東京都","city":"羽村市","address":"東京都羽村市栄町2丁目22-5","lat":35.76829619,"lon":139.3103327},{"name":"羽村団地入口","province":"東京都","city":"羽村市","address":"東京都羽村市富士見平1丁目13-1","lat":35.76331376,"lon":139.32211796},{"name":"小作変電所前","province":"東京都","city":"羽村市","address":"東京都羽村市小作台1丁目29-16","lat":35.77612013,"lon":139.30464961},{"name":"羽村駅東口前","province":"東京都","city":"羽村市","address":"東京都羽村市五ノ神1丁目3-10","lat":35.75940575,"lon":139.31774066},{"name":"羽村消防署入口","province":"東京都","city":"羽村市","address":"東京都羽村市栄町3丁目3","lat":35.77165702,"lon":139.31421283},{"name":"羽村富士見小学校西","province":"東京都","city":"羽村市","address":"東京都羽村市緑ヶ丘1丁目23","lat":35.76199705,"lon":139.31518801},{"name":"富士見第一保育園前","province":"東京都","city":"羽村市","address":"東京都羽村市緑ヶ丘2丁目1-11","lat":35.76625489,"lon":139.31508512},{"name":"五ノ神武蔵野南","province":"東京都","city":"羽村市","address":"東京都羽村市五ノ神1丁目4","lat":35.75968074,"lon":139.3185267},{"name":"羽村栄町二丁目","province":"東京都","city":"羽村市","address":"東京都羽村市栄町2丁目10-7","lat":35.77073196,"lon":139.30830502},{"name":"羽村間坂西","province":"東京都","city":"羽村市","address":"東京都羽村市羽加美1丁目33","lat":35.76722399,"lon":139.30695522},{"name":"羽村富士見小学校北","province":"東京都","city":"羽村市","address":"東京都羽村市緑ヶ丘2丁目19","lat":35.76386914,"lon":139.31812939},{"name":"羽村郵便局前","province":"東京都","city":"羽村市","address":"東京都羽村市緑ヶ丘1丁目14","lat":35.76326912,"lon":139.31507688},{"name":"羽村栄町一丁目","province":"東京都","city":"羽村市","address":"東京都羽村市栄町1丁目12-1","lat":35.77444538,"lon":139.30666894},{"name":"羽村水木公園前","province":"東京都","city":"羽村市","address":"東京都羽村市神明台2丁目1","lat":35.7582338,"lon":139.3223181},{"name":"羽村郵便局北","province":"東京都","city":"羽村市","address":"東京都羽村市緑ヶ丘5丁目17-21","lat":35.76510218,"lon":139.31289368},{"name":"羽村郵便局前第二","province":"東京都","city":"羽村市","address":"東京都羽村市緑ヶ丘1丁目6-14","lat":35.76481057,"lon":139.31382416},{"name":"羽村公民館前","province":"東京都","city":"羽村市","address":"東京都羽村市緑ヶ丘2丁目11-2","lat":35.76440514,"lon":139.31654616},{"name":"羽村小作坂上第二","province":"東京都","city":"羽村市","address":"東京都羽村市小作台5丁目20-8","lat":35.77336205,"lon":139.30230821},{"name":"小作駅入口","province":"東京都","city":"羽村市","address":"東京都羽村市小作台4丁目11-1","lat":35.77478682,"lon":139.29957227},{"name":"羽村駅東口第二","province":"東京都","city":"羽村市","address":"東京都羽村市五ノ神1丁目2-10","lat":35.75866139,"lon":139.31777401},{"name":"羽村市役所前","province":"東京都","city":"羽村市","address":"東京都羽村市緑ヶ丘5丁目2-1","lat":35.76772958,"lon":139.31045492},{"name":"羽村街道西","province":"東京都","city":"羽村市","address":"東京都羽村市神明台2丁目1","lat":35.7582338,"lon":139.3223181},{"name":"羽村栄小学校前","province":"東京都","city":"羽村市","address":"東京都羽村市栄町2丁目6-4","lat":35.77280404,"lon":139.31182967},{"name":"羽村特別支援学校","province":"東京都","city":"羽村市","address":"東京都羽村市五ノ神319-1","lat":35.76854397,"lon":139.33101427},{"name":"羽村四面道南","province":"東京都","city":"羽村市","address":"東京都羽村市五ノ神3丁目1-53","lat":35.76354697,"lon":139.31869601},{"name":"羽村駅北","province":"東京都","city":"羽村市","address":"東京都羽村市五ノ神4丁目6-7","lat":35.76111661,"lon":139.31601297},{"name":"小作駅北第二","province":"東京都","city":"羽村市","address":"東京都羽村市小作台2丁目17-24","lat":35.779228,"lon":139.30085537},{"name":"羽村小作西","province":"東京都","city":"羽村市","address":"東京都羽村市小作台4丁目4-1","lat":35.77570335,"lon":139.29834179},{"name":"武蔵野公園入口","province":"東京都","city":"羽村市","address":"東京都羽村市栄町1丁目13-14","lat":35.77302333,"lon":139.30711338},{"name":"栄小学校西","province":"東京都","city":"羽村市","address":"東京都羽村市栄町2丁目7","lat":35.77254293,"lon":139.31072699},{"name":"五ノ神三丁目","province":"東京都","city":"羽村市","address":"東京都羽村市五ノ神3丁目16-1","lat":35.76238881,"lon":139.32036536},{"name":"羽村富士見公園入口","province":"東京都","city":"羽村市","address":"東京都羽村市緑ヶ丘4丁目10-17","lat":35.76808809,"lon":139.3179515},{"name":"羽村スポーツセンター北","province":"東京都","city":"羽村市","address":"東京都羽村市羽加美1丁目6-1","lat":35.76906262,"lon":139.30506922},{"name":"羽村栄町一丁目東","province":"東京都","city":"羽村市","address":"東京都羽村市栄町1丁目8-86","lat":35.77558695,"lon":139.30818823},{"name":"富士見平二丁目","province":"東京都","city":"羽村市","address":"東京都羽村市富士見平2丁目18","lat":35.76165011,"lon":139.32365121},{"name":"小作台一丁目","province":"東京都","city":"羽村市","address":"東京都羽村市小作台1丁目20-5","lat":35.77694502,"lon":139.30413573},{"name":"小作浄水場","province":"東京都","city":"羽村市","address":"東京都羽村市小作台4丁目2-1","lat":35.77612268,"lon":139.2958031},{"name":"羽村市高齢福祉介護課介護予防・地域支援係","province":"東京都","city":"羽村市","address":"羽村市緑ヶ丘5-2-1(市役所内)","lat":35.767506,"lon":139.310928},{"name":"羽村市地域包括支援センターあさひ","province":"東京都","city":"羽村市","address":"羽村市富士見平1-3-1エムマンション1階A号室","lat":35.765984,"lon":139.323135},{"name":"羽村市地域包括支援センターあゆみ","province":"東京都","city":"羽村市","address":"羽村市羽加美1-9-2","lat":35.770855,"lon":139.303635},{"name":"羽村市高齢福祉介護課高齢福祉係","province":"東京都","city":"羽村市","address":"羽村市緑ヶ丘5-2-1","lat":35.767506,"lon":139.310928},{"name":"羽村市消費生活センター","province":"東京都","city":"羽村市","address":"羽村市緑ヶ丘5-1-30","lat":35.76709,"lon":139.310135},{"name":"羽村市地域包括支援センターあかしあ","province":"東京都","city":"羽村市","address":"羽村市玉川2-6-6","lat":35.749191,"lon":139.314972},{"name":"羽村街道","province":"東京都","city":"羽村市","address":"東京都羽村市神明台3丁目1-1","lat":35.76112241,"lon":139.32386788},{"name":"羽村四面道","province":"東京都","city":"羽村市","address":"東京都羽村市五ノ神3丁目5-16","lat":35.76322207,"lon":139.32066531},{"name":"羽村神明台一丁目","province":"東京都","city":"羽村市","address":"東京都羽村市神明台1丁目4-1","lat":35.75750045,"lon":139.31920171},{"name":"栄小学校入口","province":"東京都","city":"羽村市","address":"東京都羽村市栄町3丁目4-2","lat":35.77472338,"lon":139.31590149},{"name":"羽村グリーントリム入口","province":"東京都","city":"羽村市","address":"東京都羽村市小作台5丁目29-6","lat":35.77159562,"lon":139.30316096},{"name":"羽村間坂","province":"東京都","city":"羽村市","address":"東京都羽村市栄町2丁目22-5","lat":35.76829619,"lon":139.3103327},{"name":"羽村団地入口","province":"東京都","city":"羽村市","address":"東京都羽村市富士見平1丁目13-1","lat":35.76331376,"lon":139.32211796},{"name":"小作変電所前","province":"東京都","city":"羽村市","address":"東京都羽村市小作台1丁目29-16","lat":35.77612013,"lon":139.30464961},{"name":"羽村駅東口前","province":"東京都","city":"羽村市","address":"東京都羽村市五ノ神1丁目3-10","lat":35.75940575,"lon":139.31774066},{"name":"羽村消防署入口","province":"東京都","city":"羽村市","address":"東京都羽村市栄町3丁目3","lat":35.77165702,"lon":139.31421283},{"name":"羽村富士見小学校西","province":"東京都","city":"羽村市","address":"東京都羽村市緑ヶ丘1丁目23","lat":35.76199705,"lon":139.31518801},{"name":"富士見第一保育園前","province":"東京都","city":"羽村市","address":"東京都羽村市緑ヶ丘2丁目1-11","lat":35.76625489,"lon":139.31508512},{"name":"五ノ神武蔵野南","province":"東京都","city":"羽村市","address":"東京都羽村市五ノ神1丁目4","lat":35.75968074,"lon":139.3185267},{"name":"羽村栄町二丁目","province":"東京都","city":"羽村市","address":"東京都羽村市栄町2丁目10-7","lat":35.77073196,"lon":139.30830502},{"name":"羽村間坂西","province":"東京都","city":"羽村市","address":"東京都羽村市羽加美1丁目33","lat":35.76722399,"lon":139.30695522},{"name":"羽村富士見小学校北","province":"東京都","city":"羽村市","address":"東京都羽村市緑ヶ丘2丁目19","lat":35.76386914,"lon":139.31812939},{"name":"羽村郵便局前","province":"東京都","city":"羽村市","address":"東京都羽村市緑ヶ丘1丁目14","lat":35.76326912,"lon":139.31507688},{"name":"羽村栄町一丁目","province":"東京都","city":"羽村市","address":"東京都羽村市栄町1丁目12-1","lat":35.77444538,"lon":139.30666894},{"name":"羽村水木公園前","province":"東京都","city":"羽村市","address":"東京都羽村市神明台2丁目1","lat":35.7582338,"lon":139.3223181},{"name":"羽村郵便局北","province":"東京都","city":"羽村市","address":"東京都羽村市緑ヶ丘5丁目17-21","lat":35.76510218,"lon":139.31289368},{"name":"羽村郵便局前第二","province":"東京都","city":"羽村市","address":"東京都羽村市緑ヶ丘1丁目6-14","lat":35.76481057,"lon":139.31382416},{"name":"羽村公民館前","province":"東京都","city":"羽村市","address":"東京都羽村市緑ヶ丘2丁目11-2","lat":35.76440514,"lon":139.31654616},{"name":"羽村小作坂上第二","province":"東京都","city":"羽村市","address":"東京都羽村市小作台5丁目20-8","lat":35.77336205,"lon":139.30230821},{"name":"小作駅入口","province":"東京都","city":"羽村市","address":"東京都羽村市小作台4丁目11-1","lat":35.77478682,"lon":139.29957227},{"name":"羽村駅東口第二","province":"東京都","city":"羽村市","address":"東京都羽村市五ノ神1丁目2-10","lat":35.75866139,"lon":139.31777401},{"name":"羽村市役所前","province":"東京都","city":"羽村市","address":"東京都羽村市緑ヶ丘5丁目2-1","lat":35.76772958,"lon":139.31045492},{"name":"羽村街道西","province":"東京都","city":"羽村市","address":"東京都羽村市神明台2丁目1","lat":35.7582338,"lon":139.3223181},{"name":"羽村栄小学校前","province":"東京都","city":"羽村市","address":"東京都羽村市栄町2丁目6-4","lat":35.77280404,"lon":139.31182967},{"name":"羽村特別支援学校","province":"東京都","city":"羽村市","address":"東京都羽村市五ノ神319-1","lat":35.76854397,"lon":139.33101427},{"name":"羽村四面道南","province":"東京都","city":"羽村市","address":"東京都羽村市五ノ神3丁目1-53","lat":35.76354697,"lon":139.31869601},{"name":"羽村駅北","province":"東京都","city":"羽村市","address":"東京都羽村市五ノ神4丁目6-7","lat":35.76111661,"lon":139.31601297},{"name":"小作駅北第二","province":"東京都","city":"羽村市","address":"東京都羽村市小作台2丁目17-24","lat":35.779228,"lon":139.30085537},{"name":"羽村小作西","province":"東京都","city":"羽村市","address":"東京都羽村市小作台4丁目4-1","lat":35.77570335,"lon":139.29834179},{"name":"武蔵野公園入口","province":"東京都","city":"羽村市","address":"東京都羽村市栄町1丁目13-14","lat":35.77302333,"lon":139.30711338},{"name":"栄小学校西","province":"東京都","city":"羽村市","address":"東京都羽村市栄町2丁目7","lat":35.77254293,"lon":139.31072699},{"name":"五ノ神三丁目","province":"東京都","city":"羽村市","address":"東京都羽村市五ノ神3丁目16-1","lat":35.76238881,"lon":139.32036536},{"name":"羽村富士見公園入口","province":"東京都","city":"羽村市","address":"東京都羽村市緑ヶ丘4丁目10-17","lat":35.76808809,"lon":139.3179515},{"name":"羽村スポーツセンター北","province":"東京都","city":"羽村市","address":"東京都羽村市羽加美1丁目6-1","lat":35.76906262,"lon":139.30506922},{"name":"羽村栄町一丁目東","province":"東京都","city":"羽村市","address":"東京都羽村市栄町1丁目8-86","lat":35.77558695,"lon":139.30818823},{"name":"富士見平二丁目","province":"東京都","city":"羽村市","address":"東京都羽村市富士見平2丁目18","lat":35.76165011,"lon":139.32365121},{"name":"小作台一丁目","province":"東京都","city":"羽村市","address":"東京都羽村市小作台1丁目20-5","lat":35.77694502,"lon":139.30413573},{"name":"小作浄水場","province":"東京都","city":"羽村市","address":"東京都羽村市小作台4丁目2-1","lat":35.77612268,"lon":139.2958031},{"name":"羽村市高齢福祉介護課介護予防・地域支援係","province":"東京都","city":"羽村市","address":"羽村市緑ヶ丘5-2-1(市役所内)","lat":35.767506,"lon":139.310928},{"name":"羽村市地域包括支援センターあさひ","province":"東京都","city":"羽村市","address":"羽村市富士見平1-3-1エムマンション1階A号室","lat":35.765984,"lon":139.323135},{"name":"羽村市地域包括支援センターあゆみ","province":"東京都","city":"羽村市","address":"羽村市羽加美1-9-2","lat":35.770855,"lon":139.303635},{"name":"羽村市高齢福祉介護課高齢福祉係","province":"東京都","city":"羽村市","address":"羽村市緑ヶ丘5-2-1","lat":35.767506,"lon":139.310928},{"name":"羽村市消費生活センター","province":"東京都","city":"羽村市","address":"羽村市緑ヶ丘5-1-30","lat":35.76709,"lon":139.310135},{"name":"羽村市地域包括支援センターあかしあ","province":"東京都","city":"羽村市","address":"羽村市玉川2-6-6","lat":35.749191,"lon":139.314972},{"name":"羽村街道","province":"東京都","city":"羽村市","address":"東京都羽村市神明台3丁目1-1","lat":35.76112241,"lon":139.32386788},{"name":"羽村四面道","province":"東京都","city":"羽村市","address":"東京都羽村市五ノ神3丁目5-16","lat":35.76322207,"lon":139.32066531},{"name":"羽村神明台一丁目","province":"東京都","city":"羽村市","address":"東京都羽村市神明台1丁目4-1","lat":35.75750045,"lon":139.31920171},{"name":"栄小学校入口","province":"東京都","city":"羽村市","address":"東京都羽村市栄町3丁目4-2","lat":35.77472338,"lon":139.31590149},{"name":"羽村グリーントリム入口","province":"東京都","city":"羽村市","address":"東京都羽村市小作台5丁目29-6","lat":35.77159562,"lon":139.30316096},{"name":"羽村間坂","province":"東京都","city":"羽村市","address":"東京都羽村市栄町2丁目22-5","lat":35.76829619,"lon":139.3103327},{"name":"羽村団地入口","province":"東京都","city":"羽村市","address":"東京都羽村市富士見平1丁目13-1","lat":35.76331376,"lon":139.32211796},{"name":"小作変電所前","province":"東京都","city":"羽村市","address":"東京都羽村市小作台1丁目29-16","lat":35.77612013,"lon":139.30464961},{"name":"羽村駅東口前","province":"東京都","city":"羽村市","address":"東京都羽村市五ノ神1丁目3-10","lat":35.75940575,"lon":139.31774066},{"name":"羽村消防署入口","province":"東京都","city":"羽村市","address":"東京都羽村市栄町3丁目3","lat":35.77165702,"lon":139.31421283},{"name":"羽村富士見小学校西","province":"東京都","city":"羽村市","address":"東京都羽村市緑ヶ丘1丁目23","lat":35.76199705,"lon":139.31518801},{"name":"富士見第一保育園前","province":"東京都","city":"羽村市","address":"東京都羽村市緑ヶ丘2丁目1-11","lat":35.76625489,"lon":139.31508512},{"name":"五ノ神武蔵野南","province":"東京都","city":"羽村市","address":"東京都羽村市五ノ神1丁目4","lat":35.75968074,"lon":139.3185267},{"name":"羽村栄町二丁目","province":"東京都","city":"羽村市","address":"東京都羽村市栄町2丁目10-7","lat":35.77073196,"lon":139.30830502},{"name":"羽村間坂西","province":"東京都","city":"羽村市","address":"東京都羽村市羽加美1丁目33","lat":35.76722399,"lon":139.30695522},{"name":"羽村富士見小学校北","province":"東京都","city":"羽村市","address":"東京都羽村市緑ヶ丘2丁目19","lat":35.76386914,"lon":139.31812939},{"name":"羽村郵便局前","province":"東京都","city":"羽村市","address":"東京都羽村市緑ヶ丘1丁目14","lat":35.76326912,"lon":139.31507688},{"name":"羽村栄町一丁目","province":"東京都","city":"羽村市","address":"東京都羽村市栄町1丁目12-1","lat":35.77444538,"lon":139.30666894},{"name":"羽村水木公園前","province":"東京都","city":"羽村市","address":"東京都羽村市神明台2丁目1","lat":35.7582338,"lon":139.3223181},{"name":"羽村郵便局北","province":"東京都","city":"羽村市","address":"東京都羽村市緑ヶ丘5丁目17-21","lat":35.76510218,"lon":139.31289368},{"name":"羽村郵便局前第二","province":"東京都","city":"羽村市","address":"東京都羽村市緑ヶ丘1丁目6-14","lat":35.76481057,"lon":139.31382416},{"name":"羽村公民館前","province":"東京都","city":"羽村市","address":"東京都羽村市緑ヶ丘2丁目11-2","lat":35.76440514,"lon":139.31654616},{"name":"羽村小作坂上第二","province":"東京都","city":"羽村市","address":"東京都羽村市小作台5丁目20-8","lat":35.77336205,"lon":139.30230821},{"name":"小作駅入口","province":"東京都","city":"羽村市","address":"東京都羽村市小作台4丁目11-1","lat":35.77478682,"lon":139.29957227},{"name":"羽村駅東口第二","province":"東京都","city":"羽村市","address":"東京都羽村市五ノ神1丁目2-10","lat":35.75866139,"lon":139.31777401},{"name":"羽村市役所前","province":"東京都","city":"羽村市","address":"東京都羽村市緑ヶ丘5丁目2-1","lat":35.76772958,"lon":139.31045492},{"name":"羽村街道西","province":"東京都","city":"羽村市","address":"東京都羽村市神明台2丁目1","lat":35.7582338,"lon":139.3223181},{"name":"羽村栄小学校前","province":"東京都","city":"羽村市","address":"東京都羽村市栄町2丁目6-4","lat":35.77280404,"lon":139.31182967},{"name":"羽村特別支援学校","province":"東京都","city":"羽村市","address":"東京都羽村市五ノ神319-1","lat":35.76854397,"lon":139.33101427},{"name":"羽村四面道南","province":"東京都","city":"羽村市","address":"東京都羽村市五ノ神3丁目1-53","lat":35.76354697,"lon":139.31869601},{"name":"羽村駅北","province":"東京都","city":"羽村市","address":"東京都羽村市五ノ神4丁目6-7","lat":35.76111661,"lon":139.31601297},{"name":"小作駅北第二","province":"東京都","city":"羽村市","address":"東京都羽村市小作台2丁目17-24","lat":35.779228,"lon":139.30085537},{"name":"羽村小作西","province":"東京都","city":"羽村市","address":"東京都羽村市小作台4丁目4-1","lat":35.77570335,"lon":139.29834179},{"name":"武蔵野公園入口","province":"東京都","city":"羽村市","address":"東京都羽村市栄町1丁目13-14","lat":35.77302333,"lon":139.30711338},{"name":"栄小学校西","province":"東京都","city":"羽村市","address":"東京都羽村市栄町2丁目7","lat":35.77254293,"lon":139.31072699},{"name":"五ノ神三丁目","province":"東京都","city":"羽村市","address":"東京都羽村市五ノ神3丁目16-1","lat":35.76238881,"lon":139.32036536},{"name":"羽村富士見公園入口","province":"東京都","city":"羽村市","address":"東京都羽村市緑ヶ丘4丁目10-17","lat":35.76808809,"lon":139.3179515},{"name":"羽村スポーツセンター北","province":"東京都","city":"羽村市","address":"東京都羽村市羽加美1丁目6-1","lat":35.76906262,"lon":139.30506922},{"name":"羽村栄町一丁目東","province":"東京都","city":"羽村市","address":"東京都羽村市栄町1丁目8-86","lat":35.77558695,"lon":139.30818823},{"name":"富士見平二丁目","province":"東京都","city":"羽村市","address":"東京都羽村市富士見平2丁目18","lat":35.76165011,"lon":139.32365121},{"name":"小作台一丁目","province":"東京都","city":"羽村市","address":"東京都羽村市小作台1丁目20-5","lat":35.77694502,"lon":139.30413573},{"name":"小作浄水場","province":"東京都","city":"羽村市","address":"東京都羽村市小作台4丁目2-1","lat":35.77612268,"lon":139.2958031},{"name":"羽村市高齢福祉介護課介護予防・地域支援係","province":"東京都","city":"羽村市","address":"羽村市緑ヶ丘5-2-1(市役所内)","lat":35.767506,"lon":139.310928},{"name":"羽村市地域包括支援センターあさひ","province":"東京都","city":"羽村市","address":"羽村市富士見平1-3-1エムマンション1階A号室","lat":35.765984,"lon":139.323135},{"name":"羽村市地域包括支援センターあゆみ","province":"東京都","city":"羽村市","address":"羽村市羽加美1-9-2","lat":35.770855,"lon":139.303635},{"name":"羽村市高齢福祉介護課高齢福祉係","province":"東京都","city":"羽村市","address":"羽村市緑ヶ丘5-2-1","lat":35.767506,"lon":139.310928},{"name":"羽村市消費生活センター","province":"東京都","city":"羽村市","address":"羽村市緑ヶ丘5-1-30","lat":35.76709,"lon":139.310135},{"name":"羽村市地域包括支援センターあかしあ","province":"東京都","city":"羽村市","address":"羽村市玉川2-6-6","lat":35.749191,"lon":139.314972},{"name":"羽村街道","province":"東京都","city":"羽村市","address":"東京都羽村市神明台3丁目1-1","lat":35.76112241,"lon":139.32386788},{"name":"羽村四面道","province":"東京都","city":"羽村市","address":"東京都羽村市五ノ神3丁目5-16","lat":35.76322207,"lon":139.32066531},{"name":"羽村神明台一丁目","province":"東京都","city":"羽村市","address":"東京都羽村市神明台1丁目4-1","lat":35.75750045,"lon":139.31920171},{"name":"栄小学校入口","province":"東京都","city":"羽村市","address":"東京都羽村市栄町3丁目4-2","lat":35.77472338,"lon":139.31590149},{"name":"羽村グリーントリム入口","province":"東京都","city":"羽村市","address":"東京都羽村市小作台5丁目29-6","lat":35.77159562,"lon":139.30316096},{"name":"羽村間坂","province":"東京都","city":"羽村市","address":"東京都羽村市栄町2丁目22-5","lat":35.76829619,"lon":139.3103327},{"name":"羽村団地入口","province":"東京都","city":"羽村市","address":"東京都羽村市富士見平1丁目13-1","lat":35.76331376,"lon":139.32211796},{"name":"小作変電所前","province":"東京都","city":"羽村市","address":"東京都羽村市小作台1丁目29-16","lat":35.77612013,"lon":139.30464961},{"name":"羽村駅東口前","province":"東京都","city":"羽村市","address":"東京都羽村市五ノ神1丁目3-10","lat":35.75940575,"lon":139.31774066},{"name":"羽村消防署入口","province":"東京都","city":"羽村市","address":"東京都羽村市栄町3丁目3","lat":35.77165702,"lon":139.31421283},{"name":"羽村富士見小学校西","province":"東京都","city":"羽村市","address":"東京都羽村市緑ヶ丘1丁目23","lat":35.76199705,"lon":139.31518801},{"name":"富士見第一保育園前","province":"東京都","city":"羽村市","address":"東京都羽村市緑ヶ丘2丁目1-11","lat":35.76625489,"lon":139.31508512},{"name":"五ノ神武蔵野南","province":"東京都","city":"羽村市","address":"東京都羽村市五ノ神1丁目4","lat":35.75968074,"lon":139.3185267},{"name":"羽村栄町二丁目","province":"東京都","city":"羽村市","address":"東京都羽村市栄町2丁目10-7","lat":35.77073196,"lon":139.30830502},{"name":"羽村間坂西","province":"東京都","city":"羽村市","address":"東京都羽村市羽加美1丁目33","lat":35.76722399,"lon":139.30695522},{"name":"羽村富士見小学校北","province":"東京都","city":"羽村市","address":"東京都羽村市緑ヶ丘2丁目19","lat":35.76386914,"lon":139.31812939},{"name":"羽村郵便局前","province":"東京都","city":"羽村市","address":"東京都羽村市緑ヶ丘1丁目14","lat":35.76326912,"lon":139.31507688},{"name":"羽村栄町一丁目","province":"東京都","city":"羽村市","address":"東京都羽村市栄町1丁目12-1","lat":35.77444538,"lon":139.30666894},{"name":"羽村水木公園前","province":"東京都","city":"羽村市","address":"東京都羽村市神明台2丁目1","lat":35.7582338,"lon":139.3223181},{"name":"羽村郵便局北","province":"東京都","city":"羽村市","address":"東京都羽村市緑ヶ丘5丁目17-21","lat":35.76510218,"lon":139.31289368},{"name":"羽村郵便局前第二","province":"東京都","city":"羽村市","address":"東京都羽村市緑ヶ丘1丁目6-14","lat":35.76481057,"lon":139.31382416},{"name":"羽村公民館前","province":"東京都","city":"羽村市","address":"東京都羽村市緑ヶ丘2丁目11-2","lat":35.76440514,"lon":139.31654616},{"name":"羽村小作坂上第二","province":"東京都","city":"羽村市","address":"東京都羽村市小作台5丁目20-8","lat":35.77336205,"lon":139.30230821},{"name":"小作駅入口","province":"東京都","city":"羽村市","address":"東京都羽村市小作台4丁目11-1","lat":35.77478682,"lon":139.29957227},{"name":"羽村駅東口第二","province":"東京都","city":"羽村市","address":"東京都羽村市五ノ神1丁目2-10","lat":35.75866139,"lon":139.31777401},{"name":"羽村市役所前","province":"東京都","city":"羽村市","address":"東京都羽村市緑ヶ丘5丁目2-1","lat":35.76772958,"lon":139.31045492},{"name":"羽村街道西","province":"東京都","city":"羽村市","address":"東京都羽村市神明台2丁目1","lat":35.7582338,"lon":139.3223181},{"name":"羽村栄小学校前","province":"東京都","city":"羽村市","address":"東京都羽村市栄町2丁目6-4","lat":35.77280404,"lon":139.31182967},{"name":"羽村特別支援学校","province":"東京都","city":"羽村市","address":"東京都羽村市五ノ神319-1","lat":35.76854397,"lon":139.33101427},{"name":"羽村四面道南","province":"東京都","city":"羽村市","address":"東京都羽村市五ノ神3丁目1-53","lat":35.76354697,"lon":139.31869601},{"name":"羽村駅北","province":"東京都","city":"羽村市","address":"東京都羽村市五ノ神4丁目6-7","lat":35.76111661,"lon":139.31601297},{"name":"小作駅北第二","province":"東京都","city":"羽村市","address":"東京都羽村市小作台2丁目17-24","lat":35.779228,"lon":139.30085537},{"name":"羽村小作西","province":"東京都","city":"羽村市","address":"東京都羽村市小作台4丁目4-1","lat":35.77570335,"lon":139.29834179},{"name":"武蔵野公園入口","province":"東京都","city":"羽村市","address":"東京都羽村市栄町1丁目13-14","lat":35.77302333,"lon":139.30711338},{"name":"栄小学校西","province":"東京都","city":"羽村市","address":"東京都羽村市栄町2丁目7","lat":35.77254293,"lon":139.31072699},{"name":"五ノ神三丁目","province":"東京都","city":"羽村市","address":"東京都羽村市五ノ神3丁目16-1","lat":35.76238881,"lon":139.32036536},{"name":"羽村富士見公園入口","province":"東京都","city":"羽村市","address":"東京都羽村市緑ヶ丘4丁目10-17","lat":35.76808809,"lon":139.3179515},{"name":"羽村スポーツセンター北","province":"東京都","city":"羽村市","address":"東京都羽村市羽加美1丁目6-1","lat":35.76906262,"lon":139.30506922},{"name":"羽村栄町一丁目東","province":"東京都","city":"羽村市","address":"東京都羽村市栄町1丁目8-86","lat":35.77558695,"lon":139.30818823},{"name":"富士見平二丁目","province":"東京都","city":"羽村市","address":"東京都羽村市富士見平2丁目18","lat":35.76165011,"lon":139.32365121},{"name":"小作台一丁目","province":"東京都","city":"羽村市","address":"東京都羽村市小作台1丁目20-5","lat":35.77694502,"lon":139.30413573},{"name":"小作浄水場","province":"東京都","city":"羽村市","address":"東京都羽村市小作台4丁目2-1","lat":35.77612268,"lon":139.2958031},{"name":"羽村市高齢福祉介護課介護予防・地域支援係","province":"東京都","city":"羽村市","address":"羽村市緑ヶ丘5-2-1(市役所内)","lat":35.767506,"lon":139.310928},{"name":"羽村市地域包括支援センターあさひ","province":"東京都","city":"羽村市","address":"羽村市富士見平1-3-1エムマンション1階A号室","lat":35.765984,"lon":139.323135},{"name":"羽村市地域包括支援センターあゆみ","province":"東京都","city":"羽村市","address":"羽村市羽加美1-9-2","lat":35.770855,"lon":139.303635},{"name":"羽村市高齢福祉介護課高齢福祉係","province":"東京都","city":"羽村市","address":"羽村市緑ヶ丘5-2-1","lat":35.767506,"lon":139.310928},{"name":"羽村市消費生活センター","province":"東京都","city":"羽村市","address":"羽村市緑ヶ丘5-1-30","lat":35.76709,"lon":139.310135},{"name":"羽村市地域包括支援センターあかしあ","province":"東京都","city":"羽村市","address":"羽村市玉川2-6-6","lat":35.749191,"lon":139.314972},{"name":"羽村街道","province":"東京都","city":"羽村市","address":"東京都羽村市神明台3丁目1-1","lat":35.76112241,"lon":139.32386788},{"name":"羽村四面道","province":"東京都","city":"羽村市","address":"東京都羽村市五ノ神3丁目5-16","lat":35.76322207,"lon":139.32066531},{"name":"羽村神明台一丁目","province":"東京都","city":"羽村市","address":"東京都羽村市神明台1丁目4-1","lat":35.75750045,"lon":139.31920171},{"name":"栄小学校入口","province":"東京都","city":"羽村市","address":"東京都羽村市栄町3丁目4-2","lat":35.77472338,"lon":139.31590149},{"name":"羽村グリーントリム入口","province":"東京都","city":"羽村市","address":"東京都羽村市小作台5丁目29-6","lat":35.77159562,"lon":139.30316096},{"name":"羽村間坂","province":"東京都","city":"羽村市","address":"東京都羽村市栄町2丁目22-5","lat":35.76829619,"lon":139.3103327},{"name":"羽村団地入口","province":"東京都","city":"羽村市","address":"東京都羽村市富士見平1丁目13-1","lat":35.76331376,"lon":139.32211796},{"name":"小作変電所前","province":"東京都","city":"羽村市","address":"東京都羽村市小作台1丁目29-16","lat":35.77612013,"lon":139.30464961},{"name":"羽村駅東口前","province":"東京都","city":"羽村市","address":"東京都羽村市五ノ神1丁目3-10","lat":35.75940575,"lon":139.31774066},{"name":"羽村消防署入口","province":"東京都","city":"羽村市","address":"東京都羽村市栄町3丁目3","lat":35.77165702,"lon":139.31421283},{"name":"羽村富士見小学校西","province":"東京都","city":"羽村市","address":"東京都羽村市緑ヶ丘1丁目23","lat":35.76199705,"lon":139.31518801},{"name":"富士見第一保育園前","province":"東京都","city":"羽村市","address":"東京都羽村市緑ヶ丘2丁目1-11","lat":35.76625489,"lon":139.31508512},{"name":"五ノ神武蔵野南","province":"東京都","city":"羽村市","address":"東京都羽村市五ノ神1丁目4","lat":35.75968074,"lon":139.3185267},{"name":"羽村栄町二丁目","province":"東京都","city":"羽村市","address":"東京都羽村市栄町2丁目10-7","lat":35.77073196,"lon":139.30830502},{"name":"羽村間坂西","province":"東京都","city":"羽村市","address":"東京都羽村市羽加美1丁目33","lat":35.76722399,"lon":139.30695522},{"name":"羽村富士見小学校北","province":"東京都","city":"羽村市","address":"東京都羽村市緑ヶ丘2丁目19","lat":35.76386914,"lon":139.31812939},{"name":"羽村郵便局前","province":"東京都","city":"羽村市","address":"東京都羽村市緑ヶ丘1丁目14","lat":35.76326912,"lon":139.31507688},{"name":"羽村栄町一丁目","province":"東京都","city":"羽村市","address":"東京都羽村市栄町1丁目12-1","lat":35.77444538,"lon":139.30666894},{"name":"羽村水木公園前","province":"東京都","city":"羽村市","address":"東京都羽村市神明台2丁目1","lat":35.7582338,"lon":139.3223181},{"name":"羽村郵便局北","province":"東京都","city":"羽村市","address":"東京都羽村市緑ヶ丘5丁目17-21","lat":35.76510218,"lon":139.31289368},{"name":"羽村郵便局前第二","province":"東京都","city":"羽村市","address":"東京都羽村市緑ヶ丘1丁目6-14","lat":35.76481057,"lon":139.31382416},{"name":"羽村公民館前","province":"東京都","city":"羽村市","address":"東京都羽村市緑ヶ丘2丁目11-2","lat":35.76440514,"lon":139.31654616},{"name":"羽村小作坂上第二","province":"東京都","city":"羽村市","address":"東京都羽村市小作台5丁目20-8","lat":35.77336205,"lon":139.30230821},{"name":"小作駅入口","province":"東京都","city":"羽村市","address":"東京都羽村市小作台4丁目11-1","lat":35.77478682,"lon":139.29957227},{"name":"羽村駅東口第二","province":"東京都","city":"羽村市","address":"東京都羽村市五ノ神1丁目2-10","lat":35.75866139,"lon":139.31777401},{"name":"羽村市役所前","province":"東京都","city":"羽村市","address":"東京都羽村市緑ヶ丘5丁目2-1","lat":35.76772958,"lon":139.31045492},{"name":"羽村街道西","province":"東京都","city":"羽村市","address":"東京都羽村市神明台2丁目1","lat":35.7582338,"lon":139.3223181},{"name":"羽村栄小学校前","province":"東京都","city":"羽村市","address":"東京都羽村市栄町2丁目6-4","lat":35.77280404,"lon":139.31182967},{"name":"羽村特別支援学校","province":"東京都","city":"羽村市","address":"東京都羽村市五ノ神319-1","lat":35.76854397,"lon":139.33101427},{"name":"羽村四面道南","province":"東京都","city":"羽村市","address":"東京都羽村市五ノ神3丁目1-53","lat":35.76354697,"lon":139.31869601},{"name":"羽村駅北","province":"東京都","city":"羽村市","address":"東京都羽村市五ノ神4丁目6-7","lat":35.76111661,"lon":139.31601297},{"name":"小作駅北第二","province":"東京都","city":"羽村市","address":"東京都羽村市小作台2丁目17-24","lat":35.779228,"lon":139.30085537},{"name":"羽村小作西","province":"東京都","city":"羽村市","address":"東京都羽村市小作台4丁目4-1","lat":35.77570335,"lon":139.29834179},{"name":"武蔵野公園入口","province":"東京都","city":"羽村市","address":"東京都羽村市栄町1丁目13-14","lat":35.77302333,"lon":139.30711338},{"name":"栄小学校西","province":"東京都","city":"羽村市","address":"東京都羽村市栄町2丁目7","lat":35.77254293,"lon":139.31072699},{"name":"五ノ神三丁目","province":"東京都","city":"羽村市","address":"東京都羽村市五ノ神3丁目16-1","lat":35.76238881,"lon":139.32036536},{"name":"羽村富士見公園入口","province":"東京都","city":"羽村市","address":"東京都羽村市緑ヶ丘4丁目10-17","lat":35.76808809,"lon":139.3179515},{"name":"羽村スポーツセンター北","province":"東京都","city":"羽村市","address":"東京都羽村市羽加美1丁目6-1","lat":35.76906262,"lon":139.30506922},{"name":"羽村栄町一丁目東","province":"東京都","city":"羽村市","address":"東京都羽村市栄町1丁目8-86","lat":35.77558695,"lon":139.30818823},{"name":"富士見平二丁目","province":"東京都","city":"羽村市","address":"東京都羽村市富士見平2丁目18","lat":35.76165011,"lon":139.32365121},{"name":"小作台一丁目","province":"東京都","city":"羽村市","address":"東京都羽村市小作台1丁目20-5","lat":35.77694502,"lon":139.30413573},{"name":"小作浄水場","province":"東京都","city":"羽村市","address":"東京都羽村市小作台4丁目2-1","lat":35.77612268,"lon":139.2958031},{"name":"羽村市高齢福祉介護課介護予防・地域支援係","province":"東京都","city":"羽村市","address":"羽村市緑ヶ丘5-2-1(市役所内)","lat":35.767506,"lon":139.310928},{"name":"羽村市地域包括支援センターあさひ","province":"東京都","city":"羽村市","address":"羽村市富士見平1-3-1エムマンション1階A号室","lat":35.765984,"lon":139.323135},{"name":"羽村市地域包括支援センターあゆみ","province":"東京都","city":"羽村市","address":"羽村市羽加美1-9-2","lat":35.770855,"lon":139.303635},{"name":"羽村市高齢福祉介護課高齢福祉係","province":"東京都","city":"羽村市","address":"羽村市緑ヶ丘5-2-1","lat":35.767506,"lon":139.310928},{"name":"羽村市消費生活センター","province":"東京都","city":"羽村市","address":"羽村市緑ヶ丘5-1-30","lat":35.76709,"lon":139.310135},{"name":"羽村市地域包括支援センターあかしあ","province":"東京都","city":"羽村市","address":"羽村市玉川2-6-6","lat":35.749191,"lon":139.314972},{"name":"羽村街道","province":"東京都","city":"羽村市","address":"東京都羽村市神明台3丁目1-1","lat":35.76112241,"lon":139.32386788},{"name":"羽村四面道","province":"東京都","city":"羽村市","address":"東京都羽村市五ノ神3丁目5-16","lat":35.76322207,"lon":139.32066531},{"name":"羽村神明台一丁目","province":"東京都","city":"羽村市","address":"東京都羽村市神明台1丁目4-1","lat":35.75750045,"lon":139.31920171},{"name":"栄小学校入口","province":"東京都","city":"羽村市","address":"東京都羽村市栄町3丁目4-2","lat":35.77472338,"lon":139.31590149},{"name":"羽村グリーントリム入口","province":"東京都","city":"羽村市","address":"東京都羽村市小作台5丁目29-6","lat":35.77159562,"lon":139.30316096},{"name":"羽村間坂","province":"東京都","city":"羽村市","address":"東京都羽村市栄町2丁目22-5","lat":35.76829619,"lon":139.3103327},{"name":"羽村団地入口","province":"東京都","city":"羽村市","address":"東京都羽村市富士見平1丁目13-1","lat":35.76331376,"lon":139.32211796},{"name":"小作変電所前","province":"東京都","city":"羽村市","address":"東京都羽村市小作台1丁目29-16","lat":35.77612013,"lon":139.30464961},{"name":"羽村駅東口前","province":"東京都","city":"羽村市","address":"東京都羽村市五ノ神1丁目3-10","lat":35.75940575,"lon":139.31774066},{"name":"羽村消防署入口","province":"東京都","city":"羽村市","address":"東京都羽村市栄町3丁目3","lat":35.77165702,"lon":139.31421283},{"name":"羽村富士見小学校西","province":"東京都","city":"羽村市","address":"東京都羽村市緑ヶ丘1丁目23","lat":35.76199705,"lon":139.31518801},{"name":"富士見第一保育園前","province":"東京都","city":"羽村市","address":"東京都羽村市緑ヶ丘2丁目1-11","lat":35.76625489,"lon":139.31508512},{"name":"五ノ神武蔵野南","province":"東京都","city":"羽村市","address":"東京都羽村市五ノ神1丁目4","lat":35.75968074,"lon":139.3185267},{"name":"羽村栄町二丁目","province":"東京都","city":"羽村市","address":"東京都羽村市栄町2丁目10-7","lat":35.77073196,"lon":139.30830502},{"name":"羽村間坂西","province":"東京都","city":"羽村市","address":"東京都羽村市羽加美1丁目33","lat":35.76722399,"lon":139.30695522},{"name":"羽村富士見小学校北","province":"東京都","city":"羽村市","address":"東京都羽村市緑ヶ丘2丁目19","lat":35.76386914,"lon":139.31812939},{"name":"羽村郵便局前","province":"東京都","city":"羽村市","address":"東京都羽村市緑ヶ丘1丁目14","lat":35.76326912,"lon":139.31507688},{"name":"羽村栄町一丁目","province":"東京都","city":"羽村市","address":"東京都羽村市栄町1丁目12-1","lat":35.77444538,"lon":139.30666894},{"name":"羽村水木公園前","province":"東京都","city":"羽村市","address":"東京都羽村市神明台2丁目1","lat":35.7582338,"lon":139.3223181},{"name":"羽村郵便局北","province":"東京都","city":"羽村市","address":"東京都羽村市緑ヶ丘5丁目17-21","lat":35.76510218,"lon":139.31289368},{"name":"羽村郵便局前第二","province":"東京都","city":"羽村市","address":"東京都羽村市緑ヶ丘1丁目6-14","lat":35.76481057,"lon":139.31382416},{"name":"羽村公民館前","province":"東京都","city":"羽村市","address":"東京都羽村市緑ヶ丘2丁目11-2","lat":35.76440514,"lon":139.31654616},{"name":"羽村小作坂上第二","province":"東京都","city":"羽村市","address":"東京都羽村市小作台5丁目20-8","lat":35.77336205,"lon":139.30230821},{"name":"小作駅入口","province":"東京都","city":"羽村市","address":"東京都羽村市小作台4丁目11-1","lat":35.77478682,"lon":139.29957227},{"name":"羽村駅東口第二","province":"東京都","city":"羽村市","address":"東京都羽村市五ノ神1丁目2-10","lat":35.75866139,"lon":139.31777401},{"name":"羽村市役所前","province":"東京都","city":"羽村市","address":"東京都羽村市緑ヶ丘5丁目2-1","lat":35.76772958,"lon":139.31045492},{"name":"羽村街道西","province":"東京都","city":"羽村市","address":"東京都羽村市神明台2丁目1","lat":35.7582338,"lon":139.3223181},{"name":"羽村栄小学校前","province":"東京都","city":"羽村市","address":"東京都羽村市栄町2丁目6-4","lat":35.77280404,"lon":139.31182967},{"name":"羽村特別支援学校","province":"東京都","city":"羽村市","address":"東京都羽村市五ノ神319-1","lat":35.76854397,"lon":139.33101427},{"name":"羽村四面道南","province":"東京都","city":"羽村市","address":"東京都羽村市五ノ神3丁目1-53","lat":35.76354697,"lon":139.31869601},{"name":"羽村駅北","province":"東京都","city":"羽村市","address":"東京都羽村市五ノ神4丁目6-7","lat":35.76111661,"lon":139.31601297},{"name":"小作駅北第二","province":"東京都","city":"羽村市","address":"東京都羽村市小作台2丁目17-24","lat":35.779228,"lon":139.30085537},{"name":"羽村小作西","province":"東京都","city":"羽村市","address":"東京都羽村市小作台4丁目4-1","lat":35.77570335,"lon":139.29834179},{"name":"武蔵野公園入口","province":"東京都","city":"羽村市","address":"東京都羽村市栄町1丁目13-14","lat":35.77302333,"lon":139.30711338},{"name":"栄小学校西","province":"東京都","city":"羽村市","address":"東京都羽村市栄町2丁目7","lat":35.77254293,"lon":139.31072699},{"name":"五ノ神三丁目","province":"東京都","city":"羽村市","address":"東京都羽村市五ノ神3丁目16-1","lat":35.76238881,"lon":139.32036536},{"name":"羽村富士見公園入口","province":"東京都","city":"羽村市","address":"東京都羽村市緑ヶ丘4丁目10-17","lat":35.76808809,"lon":139.3179515},{"name":"羽村スポーツセンター北","province":"東京都","city":"羽村市","address":"東京都羽村市羽加美1丁目6-1","lat":35.76906262,"lon":139.30506922},{"name":"羽村栄町一丁目東","province":"東京都","city":"羽村市","address":"東京都羽村市栄町1丁目8-86","lat":35.77558695,"lon":139.30818823},{"name":"富士見平二丁目","province":"東京都","city":"羽村市","address":"東京都羽村市富士見平2丁目18","lat":35.76165011,"lon":139.32365121},{"name":"小作台一丁目","province":"東京都","city":"羽村市","address":"東京都羽村市小作台1丁目20-5","lat":35.77694502,"lon":139.30413573},{"name":"小作浄水場","province":"東京都","city":"羽村市","address":"東京都羽村市小作台4丁目2-1","lat":35.77612268,"lon":139.2958031},{"name":"羽村市高齢福祉介護課介護予防・地域支援係","province":"東京都","city":"羽村市","address":"羽村市緑ヶ丘5-2-1(市役所内)","lat":35.767506,"lon":139.310928},{"name":"羽村市地域包括支援センターあさひ","province":"東京都","city":"羽村市","address":"羽村市富士見平1-3-1エムマンション1階A号室","lat":35.765984,"lon":139.323135},{"name":"羽村市地域包括支援センターあゆみ","province":"東京都","city":"羽村市","address":"羽村市羽加美1-9-2","lat":35.770855,"lon":139.303635},{"name":"羽村市高齢福祉介護課高齢福祉係","province":"東京都","city":"羽村市","address":"羽村市緑ヶ丘5-2-1","lat":35.767506,"lon":139.310928},{"name":"羽村市消費生活センター","province":"東京都","city":"羽村市","address":"羽村市緑ヶ丘5-1-30","lat":35.76709,"lon":139.310135},{"name":"羽村市地域包括支援センターあかしあ","province":"東京都","city":"羽村市","address":"羽村市玉川2-6-6","lat":35.749191,"lon":139.314972},{"name":"羽村街道","province":"東京都","city":"羽村市","address":"東京都羽村市神明台3丁目1-1","lat":35.76112241,"lon":139.32386788},{"name":"羽村四面道","province":"東京都","city":"羽村市","address":"東京都羽村市五ノ神3丁目5-16","lat":35.76322207,"lon":139.32066531},{"name":"羽村神明台一丁目","province":"東京都","city":"羽村市","address":"東京都羽村市神明台1丁目4-1","lat":35.75750045,"lon":139.31920171},{"name":"栄小学校入口","province":"東京都","city":"羽村市","address":"東京都羽村市栄町3丁目4-2","lat":35.77472338,"lon":139.31590149},{"name":"羽村グリーントリム入口","province":"東京都","city":"羽村市","address":"東京都羽村市小作台5丁目29-6","lat":35.77159562,"lon":139.30316096},{"name":"羽村間坂","province":"東京都","city":"羽村市","address":"東京都羽村市栄町2丁目22-5","lat":35.76829619,"lon":139.3103327},{"name":"羽村団地入口","province":"東京都","city":"羽村市","address":"東京都羽村市富士見平1丁目13-1","lat":35.76331376,"lon":139.32211796},{"name":"小作変電所前","province":"東京都","city":"羽村市","address":"東京都羽村市小作台1丁目29-16","lat":35.77612013,"lon":139.30464961},{"name":"羽村駅東口前","province":"東京都","city":"羽村市","address":"東京都羽村市五ノ神1丁目3-10","lat":35.75940575,"lon":139.31774066},{"name":"羽村消防署入口","province":"東京都","city":"羽村市","address":"東京都羽村市栄町3丁目3","lat":35.77165702,"lon":139.31421283},{"name":"羽村富士見小学校西","province":"東京都","city":"羽村市","address":"東京都羽村市緑ヶ丘1丁目23","lat":35.76199705,"lon":139.31518801},{"name":"富士見第一保育園前","province":"東京都","city":"羽村市","address":"東京都羽村市緑ヶ丘2丁目1-11","lat":35.76625489,"lon":139.31508512},{"name":"五ノ神武蔵野南","province":"東京都","city":"羽村市","address":"東京都羽村市五ノ神1丁目4","lat":35.75968074,"lon":139.3185267},{"name":"羽村栄町二丁目","province":"東京都","city":"羽村市","address":"東京都羽村市栄町2丁目10-7","lat":35.77073196,"lon":139.30830502},{"name":"羽村間坂西","province":"東京都","city":"羽村市","address":"東京都羽村市羽加美1丁目33","lat":35.76722399,"lon":139.30695522},{"name":"羽村富士見小学校北","province":"東京都","city":"羽村市","address":"東京都羽村市緑ヶ丘2丁目19","lat":35.76386914,"lon":139.31812939},{"name":"羽村郵便局前","province":"東京都","city":"羽村市","address":"東京都羽村市緑ヶ丘1丁目14","lat":35.76326912,"lon":139.31507688},{"name":"羽村栄町一丁目","province":"東京都","city":"羽村市","address":"東京都羽村市栄町1丁目12-1","lat":35.77444538,"lon":139.30666894},{"name":"羽村水木公園前","province":"東京都","city":"羽村市","address":"東京都羽村市神明台2丁目1","lat":35.7582338,"lon":139.3223181},{"name":"羽村郵便局北","province":"東京都","city":"羽村市","address":"東京都羽村市緑ヶ丘5丁目17-21","lat":35.76510218,"lon":139.31289368},{"name":"羽村郵便局前第二","province":"東京都","city":"羽村市","address":"東京都羽村市緑ヶ丘1丁目6-14","lat":35.76481057,"lon":139.31382416},{"name":"羽村公民館前","province":"東京都","city":"羽村市","address":"東京都羽村市緑ヶ丘2丁目11-2","lat":35.76440514,"lon":139.31654616},{"name":"羽村小作坂上第二","province":"東京都","city":"羽村市","address":"東京都羽村市小作台5丁目20-8","lat":35.77336205,"lon":139.30230821},{"name":"小作駅入口","province":"東京都","city":"羽村市","address":"東京都羽村市小作台4丁目11-1","lat":35.77478682,"lon":139.29957227},{"name":"羽村駅東口第二","province":"東京都","city":"羽村市","address":"東京都羽村市五ノ神1丁目2-10","lat":35.75866139,"lon":139.31777401},{"name":"羽村市役所前","province":"東京都","city":"羽村市","address":"東京都羽村市緑ヶ丘5丁目2-1","lat":35.76772958,"lon":139.31045492},{"name":"羽村街道西","province":"東京都","city":"羽村市","address":"東京都羽村市神明台2丁目1","lat":35.7582338,"lon":139.3223181},{"name":"羽村栄小学校前","province":"東京都","city":"羽村市","address":"東京都羽村市栄町2丁目6-4","lat":35.77280404,"lon":139.31182967},{"name":"羽村特別支援学校","province":"東京都","city":"羽村市","address":"東京都羽村市五ノ神319-1","lat":35.76854397,"lon":139.33101427},{"name":"羽村四面道南","province":"東京都","city":"羽村市","address":"東京都羽村市五ノ神3丁目1-53","lat":35.76354697,"lon":139.31869601},{"name":"羽村駅北","province":"東京都","city":"羽村市","address":"東京都羽村市五ノ神4丁目6-7","lat":35.76111661,"lon":139.31601297},{"name":"小作駅北第二","province":"東京都","city":"羽村市","address":"東京都羽村市小作台2丁目17-24","lat":35.779228,"lon":139.30085537},{"name":"羽村小作西","province":"東京都","city":"羽村市","address":"東京都羽村市小作台4丁目4-1","lat":35.77570335,"lon":139.29834179},{"name":"武蔵野公園入口","province":"東京都","city":"羽村市","address":"東京都羽村市栄町1丁目13-14","lat":35.77302333,"lon":139.30711338},{"name":"栄小学校西","province":"東京都","city":"羽村市","address":"東京都羽村市栄町2丁目7","lat":35.77254293,"lon":139.31072699},{"name":"五ノ神三丁目","province":"東京都","city":"羽村市","address":"東京都羽村市五ノ神3丁目16-1","lat":35.76238881,"lon":139.32036536},{"name":"羽村富士見公園入口","province":"東京都","city":"羽村市","address":"東京都羽村市緑ヶ丘4丁目10-17","lat":35.76808809,"lon":139.3179515},{"name":"羽村スポーツセンター北","province":"東京都","city":"羽村市","address":"東京都羽村市羽加美1丁目6-1","lat":35.76906262,"lon":139.30506922},{"name":"羽村栄町一丁目東","province":"東京都","city":"羽村市","address":"東京都羽村市栄町1丁目8-86","lat":35.77558695,"lon":139.30818823},{"name":"富士見平二丁目","province":"東京都","city":"羽村市","address":"東京都羽村市富士見平2丁目18","lat":35.76165011,"lon":139.32365121},{"name":"小作台一丁目","province":"東京都","city":"羽村市","address":"東京都羽村市小作台1丁目20-5","lat":35.77694502,"lon":139.30413573},{"name":"小作浄水場","province":"東京都","city":"羽村市","address":"東京都羽村市小作台4丁目2-1","lat":35.77612268,"lon":139.2958031},{"name":"羽村市高齢福祉介護課介護予防・地域支援係","province":"東京都","city":"羽村市","address":"羽村市緑ヶ丘5-2-1(市役所内)","lat":35.767506,"lon":139.310928},{"name":"羽村市地域包括支援センターあさひ","province":"東京都","city":"羽村市","address":"羽村市富士見平1-3-1エムマンション1階A号室","lat":35.765984,"lon":139.323135},{"name":"羽村市地域包括支援センターあゆみ","province":"東京都","city":"羽村市","address":"羽村市羽加美1-9-2","lat":35.770855,"lon":139.303635},{"name":"羽村市高齢福祉介護課高齢福祉係","province":"東京都","city":"羽村市","address":"羽村市緑ヶ丘5-2-1","lat":35.767506,"lon":139.310928},{"name":"羽村市消費生活センター","province":"東京都","city":"羽村市","address":"羽村市緑ヶ丘5-1-30","lat":35.76709,"lon":139.310135},{"name":"羽村市地域包括支援センターあかしあ","province":"東京都","city":"羽村市","address":"羽村市玉川2-6-6","lat":35.749191,"lon":139.314972},{"name":"羽村街道","province":"東京都","city":"羽村市","address":"東京都羽村市神明台3丁目1-1","lat":35.76112241,"lon":139.32386788},{"name":"羽村四面道","province":"東京都","city":"羽村市","address":"東京都羽村市五ノ神3丁目5-16","lat":35.76322207,"lon":139.32066531},{"name":"羽村神明台一丁目","province":"東京都","city":"羽村市","address":"東京都羽村市神明台1丁目4-1","lat":35.75750045,"lon":139.31920171},{"name":"栄小学校入口","province":"東京都","city":"羽村市","address":"東京都羽村市栄町3丁目4-2","lat":35.77472338,"lon":139.31590149},{"name":"羽村グリーントリム入口","province":"東京都","city":"羽村市","address":"東京都羽村市小作台5丁目29-6","lat":35.77159562,"lon":139.30316096},{"name":"羽村間坂","province":"東京都","city":"羽村市","address":"東京都羽村市栄町2丁目22-5","lat":35.76829619,"lon":139.3103327},{"name":"羽村団地入口","province":"東京都","city":"羽村市","address":"東京都羽村市富士見平1丁目13-1","lat":35.76331376,"lon":139.32211796},{"name":"小作変電所前","province":"東京都","city":"羽村市","address":"東京都羽村市小作台1丁目29-16","lat":35.77612013,"lon":139.30464961},{"name":"羽村駅東口前","province":"東京都","city":"羽村市","address":"東京都羽村市五ノ神1丁目3-10","lat":35.75940575,"lon":139.31774066},{"name":"羽村消防署入口","province":"東京都","city":"羽村市","address":"東京都羽村市栄町3丁目3","lat":35.77165702,"lon":139.31421283},{"name":"羽村富士見小学校西","province":"東京都","city":"羽村市","address":"東京都羽村市緑ヶ丘1丁目23","lat":35.76199705,"lon":139.31518801},{"name":"富士見第一保育園前","province":"東京都","city":"羽村市","address":"東京都羽村市緑ヶ丘2丁目1-11","lat":35.76625489,"lon":139.31508512},{"name":"五ノ神武蔵野南","province":"東京都","city":"羽村市","address":"東京都羽村市五ノ神1丁目4","lat":35.75968074,"lon":139.3185267},{"name":"羽村栄町二丁目","province":"東京都","city":"羽村市","address":"東京都羽村市栄町2丁目10-7","lat":35.77073196,"lon":139.30830502},{"name":"羽村間坂西","province":"東京都","city":"羽村市","address":"東京都羽村市羽加美1丁目33","lat":35.76722399,"lon":139.30695522},{"name":"羽村富士見小学校北","province":"東京都","city":"羽村市","address":"東京都羽村市緑ヶ丘2丁目19","lat":35.76386914,"lon":139.31812939},{"name":"羽村郵便局前","province":"東京都","city":"羽村市","address":"東京都羽村市緑ヶ丘1丁目14","lat":35.76326912,"lon":139.31507688},{"name":"羽村栄町一丁目","province":"東京都","city":"羽村市","address":"東京都羽村市栄町1丁目12-1","lat":35.77444538,"lon":139.30666894},{"name":"羽村水木公園前","province":"東京都","city":"羽村市","address":"東京都羽村市神明台2丁目1","lat":35.7582338,"lon":139.3223181},{"name":"羽村郵便局北","province":"東京都","city":"羽村市","address":"東京都羽村市緑ヶ丘5丁目17-21","lat":35.76510218,"lon":139.31289368},{"name":"羽村郵便局前第二","province":"東京都","city":"羽村市","address":"東京都羽村市緑ヶ丘1丁目6-14","lat":35.76481057,"lon":139.31382416},{"name":"羽村公民館前","province":"東京都","city":"羽村市","address":"東京都羽村市緑ヶ丘2丁目11-2","lat":35.76440514,"lon":139.31654616},{"name":"羽村小作坂上第二","province":"東京都","city":"羽村市","address":"東京都羽村市小作台5丁目20-8","lat":35.77336205,"lon":139.30230821},{"name":"小作駅入口","province":"東京都","city":"羽村市","address":"東京都羽村市小作台4丁目11-1","lat":35.77478682,"lon":139.29957227},{"name":"羽村駅東口第二","province":"東京都","city":"羽村市","address":"東京都羽村市五ノ神1丁目2-10","lat":35.75866139,"lon":139.31777401},{"name":"羽村市役所前","province":"東京都","city":"羽村市","address":"東京都羽村市緑ヶ丘5丁目2-1","lat":35.76772958,"lon":139.31045492},{"name":"羽村街道西","province":"東京都","city":"羽村市","address":"東京都羽村市神明台2丁目1","lat":35.7582338,"lon":139.3223181},{"name":"羽村栄小学校前","province":"東京都","city":"羽村市","address":"東京都羽村市栄町2丁目6-4","lat":35.77280404,"lon":139.31182967},{"name":"羽村特別支援学校","province":"東京都","city":"羽村市","address":"東京都羽村市五ノ神319-1","lat":35.76854397,"lon":139.33101427},{"name":"羽村四面道南","province":"東京都","city":"羽村市","address":"東京都羽村市五ノ神3丁目1-53","lat":35.76354697,"lon":139.31869601},{"name":"羽村駅北","province":"東京都","city":"羽村市","address":"東京都羽村市五ノ神4丁目6-7","lat":35.76111661,"lon":139.31601297},{"name":"小作駅北第二","province":"東京都","city":"羽村市","address":"東京都羽村市小作台2丁目17-24","lat":35.779228,"lon":139.30085537},{"name":"羽村小作西","province":"東京都","city":"羽村市","address":"東京都羽村市小作台4丁目4-1","lat":35.77570335,"lon":139.29834179},{"name":"武蔵野公園入口","province":"東京都","city":"羽村市","address":"東京都羽村市栄町1丁目13-14","lat":35.77302333,"lon":139.30711338},{"name":"栄小学校西","province":"東京都","city":"羽村市","address":"東京都羽村市栄町2丁目7","lat":35.77254293,"lon":139.31072699},{"name":"五ノ神三丁目","province":"東京都","city":"羽村市","address":"東京都羽村市五ノ神3丁目16-1","lat":35.76238881,"lon":139.32036536},{"name":"羽村富士見公園入口","province":"東京都","city":"羽村市","address":"東京都羽村市緑ヶ丘4丁目10-17","lat":35.76808809,"lon":139.3179515},{"name":"羽村スポーツセンター北","province":"東京都","city":"羽村市","address":"東京都羽村市羽加美1丁目6-1","lat":35.76906262,"lon":139.30506922},{"name":"羽村栄町一丁目東","province":"東京都","city":"羽村市","address":"東京都羽村市栄町1丁目8-86","lat":35.77558695,"lon":139.30818823},{"name":"富士見平二丁目","province":"東京都","city":"羽村市","address":"東京都羽村市富士見平2丁目18","lat":35.76165011,"lon":139.32365121},{"name":"小作台一丁目","province":"東京都","city":"羽村市","address":"東京都羽村市小作台1丁目20-5","lat":35.77694502,"lon":139.30413573},{"name":"小作浄水場","province":"東京都","city":"羽村市","address":"東京都羽村市小作台4丁目2-1","lat":35.77612268,"lon":139.2958031},{"name":"羽村市高齢福祉介護課介護予防・地域支援係","province":"東京都","city":"羽村市","address":"羽村市緑ヶ丘5-2-1(市役所内)","lat":35.767506,"lon":139.310928},{"name":"羽村市地域包括支援センターあさひ","province":"東京都","city":"羽村市","address":"羽村市富士見平1-3-1エムマンション1階A号室","lat":35.765984,"lon":139.323135},{"name":"羽村市地域包括支援センターあゆみ","province":"東京都","city":"羽村市","address":"羽村市羽加美1-9-2","lat":35.770855,"lon":139.303635},{"name":"羽村市高齢福祉介護課高齢福祉係","province":"東京都","city":"羽村市","address":"羽村市緑ヶ丘5-2-1","lat":35.767506,"lon":139.310928},{"name":"羽村市消費生活センター","province":"東京都","city":"羽村市","address":"羽村市緑ヶ丘5-1-30","lat":35.76709,"lon":139.310135},{"name":"羽村市地域包括支援センターあかしあ","province":"東京都","city":"羽村市","address":"羽村市玉川2-6-6","lat":35.749191,"lon":139.314972},{"name":"羽村街道","province":"東京都","city":"羽村市","address":"東京都羽村市神明台3丁目1-1","lat":35.76112241,"lon":139.32386788},{"name":"羽村四面道","province":"東京都","city":"羽村市","address":"東京都羽村市五ノ神3丁目5-16","lat":35.76322207,"lon":139.32066531},{"name":"羽村神明台一丁目","province":"東京都","city":"羽村市","address":"東京都羽村市神明台1丁目4-1","lat":35.75750045,"lon":139.31920171},{"name":"栄小学校入口","province":"東京都","city":"羽村市","address":"東京都羽村市栄町3丁目4-2","lat":35.77472338,"lon":139.31590149},{"name":"羽村グリーントリム入口","province":"東京都","city":"羽村市","address":"東京都羽村市小作台5丁目29-6","lat":35.77159562,"lon":139.30316096},{"name":"羽村間坂","province":"東京都","city":"羽村市","address":"東京都羽村市栄町2丁目22-5","lat":35.76829619,"lon":139.3103327},{"name":"羽村団地入口","province":"東京都","city":"羽村市","address":"東京都羽村市富士見平1丁目13-1","lat":35.76331376,"lon":139.32211796},{"name":"小作変電所前","province":"東京都","city":"羽村市","address":"東京都羽村市小作台1丁目29-16","lat":35.77612013,"lon":139.30464961},{"name":"羽村駅東口前","province":"東京都","city":"羽村市","address":"東京都羽村市五ノ神1丁目3-10","lat":35.75940575,"lon":139.31774066},{"name":"羽村消防署入口","province":"東京都","city":"羽村市","address":"東京都羽村市栄町3丁目3","lat":35.77165702,"lon":139.31421283},{"name":"羽村富士見小学校西","province":"東京都","city":"羽村市","address":"東京都羽村市緑ヶ丘1丁目23","lat":35.76199705,"lon":139.31518801},{"name":"富士見第一保育園前","province":"東京都","city":"羽村市","address":"東京都羽村市緑ヶ丘2丁目1-11","lat":35.76625489,"lon":139.31508512},{"name":"五ノ神武蔵野南","province":"東京都","city":"羽村市","address":"東京都羽村市五ノ神1丁目4","lat":35.75968074,"lon":139.3185267},{"name":"羽村栄町二丁目","province":"東京都","city":"羽村市","address":"東京都羽村市栄町2丁目10-7","lat":35.77073196,"lon":139.30830502},{"name":"羽村間坂西","province":"東京都","city":"羽村市","address":"東京都羽村市羽加美1丁目33","lat":35.76722399,"lon":139.30695522},{"name":"羽村富士見小学校北","province":"東京都","city":"羽村市","address":"東京都羽村市緑ヶ丘2丁目19","lat":35.76386914,"lon":139.31812939},{"name":"羽村郵便局前","province":"東京都","city":"羽村市","address":"東京都羽村市緑ヶ丘1丁目14","lat":35.76326912,"lon":139.31507688},{"name":"羽村栄町一丁目","province":"東京都","city":"羽村市","address":"東京都羽村市栄町1丁目12-1","lat":35.77444538,"lon":139.30666894},{"name":"羽村水木公園前","province":"東京都","city":"羽村市","address":"東京都羽村市神明台2丁目1","lat":35.7582338,"lon":139.3223181},{"name":"羽村郵便局北","province":"東京都","city":"羽村市","address":"東京都羽村市緑ヶ丘5丁目17-21","lat":35.76510218,"lon":139.31289368},{"name":"羽村郵便局前第二","province":"東京都","city":"羽村市","address":"東京都羽村市緑ヶ丘1丁目6-14","lat":35.76481057,"lon":139.31382416},{"name":"羽村公民館前","province":"東京都","city":"羽村市","address":"東京都羽村市緑ヶ丘2丁目11-2","lat":35.76440514,"lon":139.31654616},{"name":"羽村小作坂上第二","province":"東京都","city":"羽村市","address":"東京都羽村市小作台5丁目20-8","lat":35.77336205,"lon":139.30230821},{"name":"小作駅入口","province":"東京都","city":"羽村市","address":"東京都羽村市小作台4丁目11-1","lat":35.77478682,"lon":139.29957227},{"name":"羽村駅東口第二","province":"東京都","city":"羽村市","address":"東京都羽村市五ノ神1丁目2-10","lat":35.75866139,"lon":139.31777401},{"name":"羽村市役所前","province":"東京都","city":"羽村市","address":"東京都羽村市緑ヶ丘5丁目2-1","lat":35.76772958,"lon":139.31045492},{"name":"羽村街道西","province":"東京都","city":"羽村市","address":"東京都羽村市神明台2丁目1","lat":35.7582338,"lon":139.3223181},{"name":"羽村栄小学校前","province":"東京都","city":"羽村市","address":"東京都羽村市栄町2丁目6-4","lat":35.77280404,"lon":139.31182967},{"name":"羽村特別支援学校","province":"東京都","city":"羽村市","address":"東京都羽村市五ノ神319-1","lat":35.76854397,"lon":139.33101427},{"name":"羽村四面道南","province":"東京都","city":"羽村市","address":"東京都羽村市五ノ神3丁目1-53","lat":35.76354697,"lon":139.31869601},{"name":"羽村駅北","province":"東京都","city":"羽村市","address":"東京都羽村市五ノ神4丁目6-7","lat":35.76111661,"lon":139.31601297},{"name":"小作駅北第二","province":"東京都","city":"羽村市","address":"東京都羽村市小作台2丁目17-24","lat":35.779228,"lon":139.30085537},{"name":"羽村小作西","province":"東京都","city":"羽村市","address":"東京都羽村市小作台4丁目4-1","lat":35.77570335,"lon":139.29834179},{"name":"武蔵野公園入口","province":"東京都","city":"羽村市","address":"東京都羽村市栄町1丁目13-14","lat":35.77302333,"lon":139.30711338},{"name":"栄小学校西","province":"東京都","city":"羽村市","address":"東京都羽村市栄町2丁目7","lat":35.77254293,"lon":139.31072699},{"name":"五ノ神三丁目","province":"東京都","city":"羽村市","address":"東京都羽村市五ノ神3丁目16-1","lat":35.76238881,"lon":139.32036536},{"name":"羽村富士見公園入口","province":"東京都","city":"羽村市","address":"東京都羽村市緑ヶ丘4丁目10-17","lat":35.76808809,"lon":139.3179515},{"name":"羽村スポーツセンター北","province":"東京都","city":"羽村市","address":"東京都羽村市羽加美1丁目6-1","lat":35.76906262,"lon":139.30506922},{"name":"羽村栄町一丁目東","province":"東京都","city":"羽村市","address":"東京都羽村市栄町1丁目8-86","lat":35.77558695,"lon":139.30818823},{"name":"富士見平二丁目","province":"東京都","city":"羽村市","address":"東京都羽村市富士見平2丁目18","lat":35.76165011,"lon":139.32365121},{"name":"小作台一丁目","province":"東京都","city":"羽村市","address":"東京都羽村市小作台1丁目20-5","lat":35.77694502,"lon":139.30413573},{"name":"小作浄水場","province":"東京都","city":"羽村市","address":"東京都羽村市小作台4丁目2-1","lat":35.77612268,"lon":139.2958031},{"name":"羽村市高齢福祉介護課介護予防・地域支援係","province":"東京都","city":"羽村市","address":"羽村市緑ヶ丘5-2-1(市役所内)","lat":35.767506,"lon":139.310928},{"name":"羽村市地域包括支援センターあさひ","province":"東京都","city":"羽村市","address":"羽村市富士見平1-3-1エムマンション1階A号室","lat":35.765984,"lon":139.323135},{"name":"羽村市地域包括支援センターあゆみ","province":"東京都","city":"羽村市","address":"羽村市羽加美1-9-2","lat":35.770855,"lon":139.303635},{"name":"羽村市高齢福祉介護課高齢福祉係","province":"東京都","city":"羽村市","address":"羽村市緑ヶ丘5-2-1","lat":35.767506,"lon":139.310928},{"name":"羽村市消費生活センター","province":"東京都","city":"羽村市","address":"羽村市緑ヶ丘5-1-30","lat":35.76709,"lon":139.310135},{"name":"羽村市地域包括支援センターあかしあ","province":"東京都","city":"羽村市","address":"羽村市玉川2-6-6","lat":35.749191,"lon":139.314972},{"name":"羽村街道","province":"東京都","city":"羽村市","address":"東京都羽村市神明台3丁目1-1","lat":35.76112241,"lon":139.32386788},{"name":"羽村四面道","province":"東京都","city":"羽村市","address":"東京都羽村市五ノ神3丁目5-16","lat":35.76322207,"lon":139.32066531},{"name":"羽村神明台一丁目","province":"東京都","city":"羽村市","address":"東京都羽村市神明台1丁目4-1","lat":35.75750045,"lon":139.31920171},{"name":"栄小学校入口","province":"東京都","city":"羽村市","address":"東京都羽村市栄町3丁目4-2","lat":35.77472338,"lon":139.31590149},{"name":"羽村グリーントリム入口","province":"東京都","city":"羽村市","address":"東京都羽村市小作台5丁目29-6","lat":35.77159562,"lon":139.30316096},{"name":"羽村間坂","province":"東京都","city":"羽村市","address":"東京都羽村市栄町2丁目22-5","lat":35.76829619,"lon":139.3103327},{"name":"羽村団地入口","province":"東京都","city":"羽村市","address":"東京都羽村市富士見平1丁目13-1","lat":35.76331376,"lon":139.32211796},{"name":"小作変電所前","province":"東京都","city":"羽村市","address":"東京都羽村市小作台1丁目29-16","lat":35.77612013,"lon":139.30464961},{"name":"羽村駅東口前","province":"東京都","city":"羽村市","address":"東京都羽村市五ノ神1丁目3-10","lat":35.75940575,"lon":139.31774066},{"name":"羽村消防署入口","province":"東京都","city":"羽村市","address":"東京都羽村市栄町3丁目3","lat":35.77165702,"lon":139.31421283},{"name":"羽村富士見小学校西","province":"東京都","city":"羽村市","address":"東京都羽村市緑ヶ丘1丁目23","lat":35.76199705,"lon":139.31518801},{"name":"富士見第一保育園前","province":"東京都","city":"羽村市","address":"東京都羽村市緑ヶ丘2丁目1-11","lat":35.76625489,"lon":139.31508512},{"name":"五ノ神武蔵野南","province":"東京都","city":"羽村市","address":"東京都羽村市五ノ神1丁目4","lat":35.75968074,"lon":139.3185267},{"name":"羽村栄町二丁目","province":"東京都","city":"羽村市","address":"東京都羽村市栄町2丁目10-7","lat":35.77073196,"lon":139.30830502},{"name":"羽村間坂西","province":"東京都","city":"羽村市","address":"東京都羽村市羽加美1丁目33","lat":35.76722399,"lon":139.30695522},{"name":"羽村富士見小学校北","province":"東京都","city":"羽村市","address":"東京都羽村市緑ヶ丘2丁目19","lat":35.76386914,"lon":139.31812939},{"name":"羽村郵便局前","province":"東京都","city":"羽村市","address":"東京都羽村市緑ヶ丘1丁目14","lat":35.76326912,"lon":139.31507688},{"name":"羽村栄町一丁目","province":"東京都","city":"羽村市","address":"東京都羽村市栄町1丁目12-1","lat":35.77444538,"lon":139.30666894},{"name":"羽村水木公園前","province":"東京都","city":"羽村市","address":"東京都羽村市神明台2丁目1","lat":35.7582338,"lon":139.3223181},{"name":"羽村郵便局北","province":"東京都","city":"羽村市","address":"東京都羽村市緑ヶ丘5丁目17-21","lat":35.76510218,"lon":139.31289368},{"name":"羽村郵便局前第二","province":"東京都","city":"羽村市","address":"東京都羽村市緑ヶ丘1丁目6-14","lat":35.76481057,"lon":139.31382416},{"name":"羽村公民館前","province":"東京都","city":"羽村市","address":"東京都羽村市緑ヶ丘2丁目11-2","lat":35.76440514,"lon":139.31654616},{"name":"羽村小作坂上第二","province":"東京都","city":"羽村市","address":"東京都羽村市小作台5丁目20-8","lat":35.77336205,"lon":139.30230821},{"name":"小作駅入口","province":"東京都","city":"羽村市","address":"東京都羽村市小作台4丁目11-1","lat":35.77478682,"lon":139.29957227},{"name":"羽村駅東口第二","province":"東京都","city":"羽村市","address":"東京都羽村市五ノ神1丁目2-10","lat":35.75866139,"lon":139.31777401},{"name":"羽村市役所前","province":"東京都","city":"羽村市","address":"東京都羽村市緑ヶ丘5丁目2-1","lat":35.76772958,"lon":139.31045492},{"name":"羽村街道西","province":"東京都","city":"羽村市","address":"東京都羽村市神明台2丁目1","lat":35.7582338,"lon":139.3223181},{"name":"羽村栄小学校前","province":"東京都","city":"羽村市","address":"東京都羽村市栄町2丁目6-4","lat":35.77280404,"lon":139.31182967},{"name":"羽村特別支援学校","province":"東京都","city":"羽村市","address":"東京都羽村市五ノ神319-1","lat":35.76854397,"lon":139.33101427},{"name":"羽村四面道南","province":"東京都","city":"羽村市","address":"東京都羽村市五ノ神3丁目1-53","lat":35.76354697,"lon":139.31869601},{"name":"羽村駅北","province":"東京都","city":"羽村市","address":"東京都羽村市五ノ神4丁目6-7","lat":35.76111661,"lon":139.31601297},{"name":"小作駅北第二","province":"東京都","city":"羽村市","address":"東京都羽村市小作台2丁目17-24","lat":35.779228,"lon":139.30085537},{"name":"羽村小作西","province":"東京都","city":"羽村市","address":"東京都羽村市小作台4丁目4-1","lat":35.77570335,"lon":139.29834179},{"name":"武蔵野公園入口","province":"東京都","city":"羽村市","address":"東京都羽村市栄町1丁目13-14","lat":35.77302333,"lon":139.30711338},{"name":"栄小学校西","province":"東京都","city":"羽村市","address":"東京都羽村市栄町2丁目7","lat":35.77254293,"lon":139.31072699},{"name":"五ノ神三丁目","province":"東京都","city":"羽村市","address":"東京都羽村市五ノ神3丁目16-1","lat":35.76238881,"lon":139.32036536},{"name":"羽村富士見公園入口","province":"東京都","city":"羽村市","address":"東京都羽村市緑ヶ丘4丁目10-17","lat":35.76808809,"lon":139.3179515},{"name":"羽村スポーツセンター北","province":"東京都","city":"羽村市","address":"東京都羽村市羽加美1丁目6-1","lat":35.76906262,"lon":139.30506922},{"name":"羽村栄町一丁目東","province":"東京都","city":"羽村市","address":"東京都羽村市栄町1丁目8-86","lat":35.77558695,"lon":139.30818823},{"name":"富士見平二丁目","province":"東京都","city":"羽村市","address":"東京都羽村市富士見平2丁目18","lat":35.76165011,"lon":139.32365121},{"name":"小作台一丁目","province":"東京都","city":"羽村市","address":"東京都羽村市小作台1丁目20-5","lat":35.77694502,"lon":139.30413573},{"name":"小作浄水場","province":"東京都","city":"羽村市","address":"東京都羽村市小作台4丁目2-1","lat":35.77612268,"lon":139.2958031},{"name":"羽村市高齢福祉介護課介護予防・地域支援係","province":"東京都","city":"羽村市","address":"羽村市緑ヶ丘5-2-1(市役所内)","lat":35.767506,"lon":139.310928},{"name":"羽村市地域包括支援センターあさひ","province":"東京都","city":"羽村市","address":"羽村市富士見平1-3-1エムマンション1階A号室","lat":35.765984,"lon":139.323135},{"name":"羽村市地域包括支援センターあゆみ","province":"東京都","city":"羽村市","address":"羽村市羽加美1-9-2","lat":35.770855,"lon":139.303635},{"name":"羽村市高齢福祉介護課高齢福祉係","province":"東京都","city":"羽村市","address":"羽村市緑ヶ丘5-2-1","lat":35.767506,"lon":139.310928},{"name":"羽村市消費生活センター","province":"東京都","city":"羽村市","address":"羽村市緑ヶ丘5-1-30","lat":35.76709,"lon":139.310135},{"name":"羽村市地域包括支援センターあかしあ","province":"東京都","city":"羽村市","address":"羽村市玉川2-6-6","lat":35.749191,"lon":139.314972},{"name":"羽村街道","province":"東京都","city":"羽村市","address":"東京都羽村市神明台3丁目1-1","lat":35.76112241,"lon":139.32386788},{"name":"羽村四面道","province":"東京都","city":"羽村市","address":"東京都羽村市五ノ神3丁目5-16","lat":35.76322207,"lon":139.32066531},{"name":"羽村神明台一丁目","province":"東京都","city":"羽村市","address":"東京都羽村市神明台1丁目4-1","lat":35.75750045,"lon":139.31920171},{"name":"栄小学校入口","province":"東京都","city":"羽村市","address":"東京都羽村市栄町3丁目4-2","lat":35.77472338,"lon":139.31590149},{"name":"羽村グリーントリム入口","province":"東京都","city":"羽村市","address":"東京都羽村市小作台5丁目29-6","lat":35.77159562,"lon":139.30316096},{"name":"羽村間坂","province":"東京都","city":"羽村市","address":"東京都羽村市栄町2丁目22-5","lat":35.76829619,"lon":139.3103327},{"name":"羽村団地入口","province":"東京都","city":"羽村市","address":"東京都羽村市富士見平1丁目13-1","lat":35.76331376,"lon":139.32211796},{"name":"小作変電所前","province":"東京都","city":"羽村市","address":"東京都羽村市小作台1丁目29-16","lat":35.77612013,"lon":139.30464961},{"name":"羽村駅東口前","province":"東京都","city":"羽村市","address":"東京都羽村市五ノ神1丁目3-10","lat":35.75940575,"lon":139.31774066},{"name":"羽村消防署入口","province":"東京都","city":"羽村市","address":"東京都羽村市栄町3丁目3","lat":35.77165702,"lon":139.31421283},{"name":"羽村富士見小学校西","province":"東京都","city":"羽村市","address":"東京都羽村市緑ヶ丘1丁目23","lat":35.76199705,"lon":139.31518801},{"name":"富士見第一保育園前","province":"東京都","city":"羽村市","address":"東京都羽村市緑ヶ丘2丁目1-11","lat":35.76625489,"lon":139.31508512},{"name":"五ノ神武蔵野南","province":"東京都","city":"羽村市","address":"東京都羽村市五ノ神1丁目4","lat":35.75968074,"lon":139.3185267},{"name":"羽村栄町二丁目","province":"東京都","city":"羽村市","address":"東京都羽村市栄町2丁目10-7","lat":35.77073196,"lon":139.30830502},{"name":"羽村間坂西","province":"東京都","city":"羽村市","address":"東京都羽村市羽加美1丁目33","lat":35.76722399,"lon":139.30695522},{"name":"羽村富士見小学校北","province":"東京都","city":"羽村市","address":"東京都羽村市緑ヶ丘2丁目19","lat":35.76386914,"lon":139.31812939},{"name":"羽村郵便局前","province":"東京都","city":"羽村市","address":"東京都羽村市緑ヶ丘1丁目14","lat":35.76326912,"lon":139.31507688},{"name":"羽村栄町一丁目","province":"東京都","city":"羽村市","address":"東京都羽村市栄町1丁目12-1","lat":35.77444538,"lon":139.30666894},{"name":"羽村水木公園前","province":"東京都","city":"羽村市","address":"東京都羽村市神明台2丁目1","lat":35.7582338,"lon":139.3223181},{"name":"羽村郵便局北","province":"東京都","city":"羽村市","address":"東京都羽村市緑ヶ丘5丁目17-21","lat":35.76510218,"lon":139.31289368},{"name":"羽村郵便局前第二","province":"東京都","city":"羽村市","address":"東京都羽村市緑ヶ丘1丁目6-14","lat":35.76481057,"lon":139.31382416},{"name":"羽村公民館前","province":"東京都","city":"羽村市","address":"東京都羽村市緑ヶ丘2丁目11-2","lat":35.76440514,"lon":139.31654616},{"name":"羽村小作坂上第二","province":"東京都","city":"羽村市","address":"東京都羽村市小作台5丁目20-8","lat":35.77336205,"lon":139.30230821},{"name":"小作駅入口","province":"東京都","city":"羽村市","address":"東京都羽村市小作台4丁目11-1","lat":35.77478682,"lon":139.29957227},{"name":"羽村駅東口第二","province":"東京都","city":"羽村市","address":"東京都羽村市五ノ神1丁目2-10","lat":35.75866139,"lon":139.31777401},{"name":"羽村市役所前","province":"東京都","city":"羽村市","address":"東京都羽村市緑ヶ丘5丁目2-1","lat":35.76772958,"lon":139.31045492},{"name":"羽村街道西","province":"東京都","city":"羽村市","address":"東京都羽村市神明台2丁目1","lat":35.7582338,"lon":139.3223181},{"name":"羽村栄小学校前","province":"東京都","city":"羽村市","address":"東京都羽村市栄町2丁目6-4","lat":35.77280404,"lon":139.31182967},{"name":"羽村特別支援学校","province":"東京都","city":"羽村市","address":"東京都羽村市五ノ神319-1","lat":35.76854397,"lon":139.33101427},{"name":"羽村四面道南","province":"東京都","city":"羽村市","address":"東京都羽村市五ノ神3丁目1-53","lat":35.76354697,"lon":139.31869601},{"name":"羽村駅北","province":"東京都","city":"羽村市","address":"東京都羽村市五ノ神4丁目6-7","lat":35.76111661,"lon":139.31601297},{"name":"小作駅北第二","province":"東京都","city":"羽村市","address":"東京都羽村市小作台2丁目17-24","lat":35.779228,"lon":139.30085537},{"name":"羽村小作西","province":"東京都","city":"羽村市","address":"東京都羽村市小作台4丁目4-1","lat":35.77570335,"lon":139.29834179},{"name":"武蔵野公園入口","province":"東京都","city":"羽村市","address":"東京都羽村市栄町1丁目13-14","lat":35.77302333,"lon":139.30711338},{"name":"栄小学校西","province":"東京都","city":"羽村市","address":"東京都羽村市栄町2丁目7","lat":35.77254293,"lon":139.31072699},{"name":"五ノ神三丁目","province":"東京都","city":"羽村市","address":"東京都羽村市五ノ神3丁目16-1","lat":35.76238881,"lon":139.32036536},{"name":"羽村富士見公園入口","province":"東京都","city":"羽村市","address":"東京都羽村市緑ヶ丘4丁目10-17","lat":35.76808809,"lon":139.3179515},{"name":"羽村スポーツセンター北","province":"東京都","city":"羽村市","address":"東京都羽村市羽加美1丁目6-1","lat":35.76906262,"lon":139.30506922},{"name":"羽村栄町一丁目東","province":"東京都","city":"羽村市","address":"東京都羽村市栄町1丁目8-86","lat":35.77558695,"lon":139.30818823},{"name":"富士見平二丁目","province":"東京都","city":"羽村市","address":"東京都羽村市富士見平2丁目18","lat":35.76165011,"lon":139.32365121},{"name":"小作台一丁目","province":"東京都","city":"羽村市","address":"東京都羽村市小作台1丁目20-5","lat":35.77694502,"lon":139.30413573},{"name":"小作浄水場","province":"東京都","city":"羽村市","address":"東京都羽村市小作台4丁目2-1","lat":35.77612268,"lon":139.2958031},{"name":"羽村市高齢福祉介護課介護予防・地域支援係","province":"東京都","city":"羽村市","address":"羽村市緑ヶ丘5-2-1(市役所内)","lat":35.767506,"lon":139.310928},{"name":"羽村市地域包括支援センターあさひ","province":"東京都","city":"羽村市","address":"羽村市富士見平1-3-1エムマンション1階A号室","lat":35.765984,"lon":139.323135},{"name":"羽村市地域包括支援センターあゆみ","province":"東京都","city":"羽村市","address":"羽村市羽加美1-9-2","lat":35.770855,"lon":139.303635},{"name":"羽村市高齢福祉介護課高齢福祉係","province":"東京都","city":"羽村市","address":"羽村市緑ヶ丘5-2-1","lat":35.767506,"lon":139.310928},{"name":"羽村市消費生活センター","province":"東京都","city":"羽村市","address":"羽村市緑ヶ丘5-1-30","lat":35.76709,"lon":139.310135},{"name":"羽村市地域包括支援センターあかしあ","province":"東京都","city":"羽村市","address":"羽村市玉川2-6-6","lat":35.749191,"lon":139.314972},{"name":"羽村市高齢福祉介護課介護予防・地域支援係","province":"東京都","city":"羽村市","address":"羽村市緑ヶ丘5-2-1(市役所内)","lat":35.767506,"lon":139.310928},{"name":"羽村市地域包括支援センターあさひ","province":"東京都","city":"羽村市","address":"羽村市富士見平1-3-1エムマンション1階A号室","lat":35.765984,"lon":139.323135},{"name":"羽村市地域包括支援センターあゆみ","province":"東京都","city":"羽村市","address":"羽村市羽加美1-9-2","lat":35.770855,"lon":139.303635},{"name":"羽村市高齢福祉介護課高齢福祉係","province":"東京都","city":"羽村市","address":"羽村市緑ヶ丘5-2-1","lat":35.767506,"lon":139.310928},{"name":"羽村市消費生活センター","province":"東京都","city":"羽村市","address":"羽村市緑ヶ丘5-1-30","lat":35.76709,"lon":139.310135},{"name":"羽村市地域包括支援センターあかしあ","province":"東京都","city":"羽村市","address":"羽村市玉川2-6-6","lat":35.749191,"lon":139.314972},{"name":"羽村市高齢福祉介護課介護予防・地域支援係","province":"東京都","city":"羽村市","address":"羽村市緑ヶ丘5-2-1(市役所内)","lat":35.767506,"lon":139.310928},{"name":"羽村市地域包括支援センターあさひ","province":"東京都","city":"羽村市","address":"羽村市富士見平1-3-1エムマンション1階A号室","lat":35.765984,"lon":139.323135},{"name":"羽村市地域包括支援センターあゆみ","province":"東京都","city":"羽村市","address":"羽村市羽加美1-9-2","lat":35.770855,"lon":139.303635},{"name":"羽村市高齢福祉介護課高齢福祉係","province":"東京都","city":"羽村市","address":"羽村市緑ヶ丘5-2-1","lat":35.767506,"lon":139.310928},{"name":"羽村市消費生活センター","province":"東京都","city":"羽村市","address":"羽村市緑ヶ丘5-1-30","lat":35.76709,"lon":139.310135},{"name":"羽村市地域包括支援センターあかしあ","province":"東京都","city":"羽村市","address":"羽村市玉川2-6-6","lat":35.749191,"lon":139.314972},{"name":"羽村市高齢福祉介護課介護予防・地域支援係","province":"東京都","city":"羽村市","address":"羽村市緑ヶ丘5-2-1(市役所内)","lat":35.767506,"lon":139.310928},{"name":"羽村市地域包括支援センターあさひ","province":"東京都","city":"羽村市","address":"羽村市富士見平1-3-1エムマンション1階A号室","lat":35.765984,"lon":139.323135},{"name":"羽村市地域包括支援センターあゆみ","province":"東京都","city":"羽村市","address":"羽村市羽加美1-9-2","lat":35.770855,"lon":139.303635},{"name":"羽村市高齢福祉介護課高齢福祉係","province":"東京都","city":"羽村市","address":"羽村市緑ヶ丘5-2-1","lat":35.767506,"lon":139.310928},{"name":"羽村市消費生活センター","province":"東京都","city":"羽村市","address":"羽村市緑ヶ丘5-1-30","lat":35.76709,"lon":139.310135},{"name":"羽村市地域包括支援センターあかしあ","province":"東京都","city":"羽村市","address":"羽村市玉川2-6-6","lat":35.749191,"lon":139.314972},{"name":"羽村市高齢福祉介護課介護予防・地域支援係","province":"東京都","city":"羽村市","address":"羽村市緑ヶ丘5-2-1(市役所内)","lat":35.767506,"lon":139.310928},{"name":"羽村市地域包括支援センターあさひ","province":"東京都","city":"羽村市","address":"羽村市富士見平1-3-1エムマンション1階A号室","lat":35.765984,"lon":139.323135},{"name":"羽村市地域包括支援センターあゆみ","province":"東京都","city":"羽村市","address":"羽村市羽加美1-9-2","lat":35.770855,"lon":139.303635},{"name":"羽村市高齢福祉介護課高齢福祉係","province":"東京都","city":"羽村市","address":"羽村市緑ヶ丘5-2-1","lat":35.767506,"lon":139.310928},{"name":"羽村市消費生活センター","province":"東京都","city":"羽村市","address":"羽村市緑ヶ丘5-1-30","lat":35.76709,"lon":139.310135},{"name":"羽村市地域包括支援センターあかしあ","province":"東京都","city":"羽村市","address":"羽村市玉川2-6-6","lat":35.749191,"lon":139.314972},{"name":"羽村市高齢福祉介護課介護予防・地域支援係","province":"東京都","city":"羽村市","address":"羽村市緑ヶ丘5-2-1(市役所内)","lat":35.767506,"lon":139.310928},{"name":"羽村市地域包括支援センターあさひ","province":"東京都","city":"羽村市","address":"羽村市富士見平1-3-1エムマンション1階A号室","lat":35.765984,"lon":139.323135},{"name":"羽村市地域包括支援センターあゆみ","province":"東京都","city":"羽村市","address":"羽村市羽加美1-9-2","lat":35.770855,"lon":139.303635},{"name":"羽村市高齢福祉介護課高齢福祉係","province":"東京都","city":"羽村市","address":"羽村市緑ヶ丘5-2-1","lat":35.767506,"lon":139.310928},{"name":"羽村市消費生活センター","province":"東京都","city":"羽村市","address":"羽村市緑ヶ丘5-1-30","lat":35.76709,"lon":139.310135},{"name":"羽村市地域包括支援センターあかしあ","province":"東京都","city":"羽村市","address":"羽村市玉川2-6-6","lat":35.749191,"lon":139.314972},{"name":"羽村市高齢福祉介護課介護予防・地域支援係","province":"東京都","city":"羽村市","address":"羽村市緑ヶ丘5-2-1(市役所内)","lat":35.767506,"lon":139.310928},{"name":"羽村市地域包括支援センターあさひ","province":"東京都","city":"羽村市","address":"羽村市富士見平1-3-1エムマンション1階A号室","lat":35.765984,"lon":139.323135},{"name":"羽村市地域包括支援センターあゆみ","province":"東京都","city":"羽村市","address":"羽村市羽加美1-9-2","lat":35.770855,"lon":139.303635},{"name":"羽村市高齢福祉介護課高齢福祉係","province":"東京都","city":"羽村市","address":"羽村市緑ヶ丘5-2-1","lat":35.767506,"lon":139.310928},{"name":"羽村市消費生活センター","province":"東京都","city":"羽村市","address":"羽村市緑ヶ丘5-1-30","lat":35.76709,"lon":139.310135},{"name":"羽村市地域包括支援センターあかしあ","province":"東京都","city":"羽村市","address":"羽村市玉川2-6-6","lat":35.749191,"lon":139.314972},{"name":"羽村市高齢福祉介護課介護予防・地域支援係","province":"東京都","city":"羽村市","address":"羽村市緑ヶ丘5-2-1(市役所内)","lat":35.767506,"lon":139.310928},{"name":"羽村市地域包括支援センターあさひ","province":"東京都","city":"羽村市","address":"羽村市富士見平1-3-1エムマンション1階A号室","lat":35.765984,"lon":139.323135},{"name":"羽村市地域包括支援センターあゆみ","province":"東京都","city":"羽村市","address":"羽村市羽加美1-9-2","lat":35.770855,"lon":139.303635},{"name":"羽村市高齢福祉介護課高齢福祉係","province":"東京都","city":"羽村市","address":"羽村市緑ヶ丘5-2-1","lat":35.767506,"lon":139.310928},{"name":"羽村市消費生活センター","province":"東京都","city":"羽村市","address":"羽村市緑ヶ丘5-1-30","lat":35.76709,"lon":139.310135},{"name":"羽村市地域包括支援センターあかしあ","province":"東京都","city":"羽村市","address":"羽村市玉川2-6-6","lat":35.749191,"lon":139.314972},{"name":"羽村市高齢福祉介護課介護予防・地域支援係","province":"東京都","city":"羽村市","address":"羽村市緑ヶ丘5-2-1(市役所内)","lat":35.767506,"lon":139.310928},{"name":"羽村市地域包括支援センターあさひ","province":"東京都","city":"羽村市","address":"羽村市富士見平1-3-1エムマンション1階A号室","lat":35.765984,"lon":139.323135},{"name":"羽村市地域包括支援センターあゆみ","province":"東京都","city":"羽村市","address":"羽村市羽加美1-9-2","lat":35.770855,"lon":139.303635},{"name":"羽村市高齢福祉介護課高齢福祉係","province":"東京都","city":"羽村市","address":"羽村市緑ヶ丘5-2-1","lat":35.767506,"lon":139.310928},{"name":"羽村市消費生活センター","province":"東京都","city":"羽村市","address":"羽村市緑ヶ丘5-1-30","lat":35.76709,"lon":139.310135},{"name":"羽村市地域包括支援センターあかしあ","province":"東京都","city":"羽村市","address":"羽村市玉川2-6-6","lat":35.749191,"lon":139.314972},{"name":"羽村市高齢福祉介護課介護予防・地域支援係","province":"東京都","city":"羽村市","address":"羽村市緑ヶ丘5-2-1(市役所内)","lat":35.767506,"lon":139.310928},{"name":"羽村市地域包括支援センターあさひ","province":"東京都","city":"羽村市","address":"羽村市富士見平1-3-1エムマンション1階A号室","lat":35.765984,"lon":139.323135},{"name":"羽村市地域包括支援センターあゆみ","province":"東京都","city":"羽村市","address":"羽村市羽加美1-9-2","lat":35.770855,"lon":139.303635},{"name":"羽村市高齢福祉介護課高齢福祉係","province":"東京都","city":"羽村市","address":"羽村市緑ヶ丘5-2-1","lat":35.767506,"lon":139.310928},{"name":"羽村市消費生活センター","province":"東京都","city":"羽村市","address":"羽村市緑ヶ丘5-1-30","lat":35.76709,"lon":139.310135},{"name":"羽村市地域包括支援センターあかしあ","province":"東京都","city":"羽村市","address":"羽村市玉川2-6-6","lat":35.749191,"lon":139.314972},{"name":"羽村市高齢福祉介護課介護予防・地域支援係","province":"東京都","city":"羽村市","address":"羽村市緑ヶ丘5-2-1(市役所内)","lat":35.767506,"lon":139.310928},{"name":"羽村市地域包括支援センターあさひ","province":"東京都","city":"羽村市","address":"羽村市富士見平1-3-1エムマンション1階A号室","lat":35.765984,"lon":139.323135},{"name":"羽村市地域包括支援センターあゆみ","province":"東京都","city":"羽村市","address":"羽村市羽加美1-9-2","lat":35.770855,"lon":139.303635},{"name":"羽村市高齢福祉介護課高齢福祉係","province":"東京都","city":"羽村市","address":"羽村市緑ヶ丘5-2-1","lat":35.767506,"lon":139.310928},{"name":"羽村市消費生活センター","province":"東京都","city":"羽村市","address":"羽村市緑ヶ丘5-1-30","lat":35.76709,"lon":139.310135},{"name":"羽村市地域包括支援センターあかしあ","province":"東京都","city":"羽村市","address":"羽村市玉川2-6-6","lat":35.749191,"lon":139.314972},{"name":"羽村市高齢福祉介護課介護予防・地域支援係","province":"東京都","city":"羽村市","address":"羽村市緑ヶ丘5-2-1(市役所内)","lat":35.767506,"lon":139.310928},{"name":"羽村市地域包括支援センターあさひ","province":"東京都","city":"羽村市","address":"羽村市富士見平1-3-1エムマンション1階A号室","lat":35.765984,"lon":139.323135},{"name":"羽村市地域包括支援センターあゆみ","province":"東京都","city":"羽村市","address":"羽村市羽加美1-9-2","lat":35.770855,"lon":139.303635},{"name":"羽村市高齢福祉介護課高齢福祉係","province":"東京都","city":"羽村市","address":"羽村市緑ヶ丘5-2-1","lat":35.767506,"lon":139.310928},{"name":"羽村市消費生活センター","province":"東京都","city":"羽村市","address":"羽村市緑ヶ丘5-1-30","lat":35.76709,"lon":139.310135},{"name":"羽村市地域包括支援センターあかしあ","province":"東京都","city":"羽村市","address":"羽村市玉川2-6-6","lat":35.749191,"lon":139.314972},{"name":"羽村市高齢福祉介護課介護予防・地域支援係","province":"東京都","city":"羽村市","address":"羽村市緑ヶ丘5-2-1(市役所内)","lat":35.767506,"lon":139.310928},{"name":"羽村市地域包括支援センターあさひ","province":"東京都","city":"羽村市","address":"羽村市富士見平1-3-1エムマンション1階A号室","lat":35.765984,"lon":139.323135},{"name":"羽村市地域包括支援センターあゆみ","province":"東京都","city":"羽村市","address":"羽村市羽加美1-9-2","lat":35.770855,"lon":139.303635},{"name":"羽村市高齢福祉介護課高齢福祉係","province":"東京都","city":"羽村市","address":"羽村市緑ヶ丘5-2-1","lat":35.767506,"lon":139.310928},{"name":"羽村市消費生活センター","province":"東京都","city":"羽村市","address":"羽村市緑ヶ丘5-1-30","lat":35.76709,"lon":139.310135},{"name":"羽村市地域包括支援センターあかしあ","province":"東京都","city":"羽村市","address":"羽村市玉川2-6-6","lat":35.749191,"lon":139.314972}]}