{"keyword":"自転車","data":[{"name":"羽村駅東口第一自転車駐車場","province":"東京都","city":"羽村市","address":"東京都羽村市五ノ神4丁目","lat":35.76052778,"lon":139.31565191},{"name":"羽村駅東口第三自転車駐車場","province":"東京都","city":"羽村市","address":"東京都羽村市五ノ神2丁目1-9","lat":35.76077509,"lon":139.31956547},{"name":"羽村駅東口第四自転車駐車場","province":"東京都","city":"羽村市","address":"東京都羽村市五ノ神1丁目","lat":35.75810868,"lon":139.31778513},{"name":"羽村駅西口第一自転車駐車場","province":"東京都","city":"羽村市","address":"東京都羽村市羽東1丁目16-8","lat":35.75781972,"lon":139.31426876},{"name":"羽村駅西口第二自転車駐車場","province":"東京都","city":"羽村市","address":"東京都羽村市羽東1丁目7-6","lat":35.75721985,"lon":139.31640472},{"name":"羽村駅西口第三自転車駐車場","province":"東京都","city":"羽村市","address":"東京都羽村市羽東1丁目18","lat":35.75882792,"lon":139.31361323},{"name":"羽村駅西口第四自転車駐車場","province":"東京都","city":"羽村市","address":"東京都羽村市羽東1丁目2","lat":35.7604583,"lon":139.31395483},{"name":"小作駅東口第二自転車駐車場","province":"東京都","city":"羽村市","address":"東京都羽村市栄町1丁目1","lat":35.77466196,"lon":139.30458021},{"name":"小作駅西口第二自転車駐車場","province":"東京都","city":"羽村市","address":"東京都羽村市小作台5丁目22","lat":35.77487023,"lon":139.30289423},{"name":"五ノ神ビル駐輪場","province":"東京都","city":"羽村市","address":"東京都羽村市五ノ神4丁目13-9","lat":35.7595946,"lon":139.3170796}]}