{"keyword":"連絡","data":[{"name":"羽村市高齢福祉介護課介護予防・地域支援係","province":"東京都","city":"羽村市","address":"羽村市緑ヶ丘5-2-1(市役所内)","lat":35.767506,"lon":139.310928},{"name":"羽村市地域包括支援センターあさひ","province":"東京都","city":"羽村市","address":"羽村市富士見平1-3-1エムマンション1階A号室","lat":35.765984,"lon":139.323135},{"name":"羽村市地域包括支援センターあゆみ","province":"東京都","city":"羽村市","address":"羽村市羽加美1-9-2","lat":35.770855,"lon":139.303635},{"name":"羽村市高齢福祉介護課高齢福祉係","province":"東京都","city":"羽村市","address":"羽村市緑ヶ丘5-2-1","lat":35.767506,"lon":139.310928},{"name":"羽村市消費生活センター","province":"東京都","city":"羽村市","address":"羽村市緑ヶ丘5-1-30","lat":35.76709,"lon":139.310135},{"name":"羽村市地域包括支援センターあかしあ","province":"東京都","city":"羽村市","address":"羽村市玉川2-6-6","lat":35.749191,"lon":139.314972}]}