{"keyword":"週","data":[{"name":"西児童館","province":"東京都","city":"羽村市","address":"羽村市小作台5-28-3","lat":35.772834,"lon":139.3031},{"name":"中央児童館","province":"東京都","city":"羽村市","address":"羽村市羽中3-6-19","lat":35.761333,"lon":139.309227},{"name":"東児童館","province":"東京都","city":"羽村市","address":"羽村市神明台3-30-2","lat":35.760262,"lon":139.328443},{"name":"羽村市社会福祉協議会","province":"東京都","city":"羽村市","address":"羽村市栄町2-18-1羽村市福祉センター","lat":35.770621,"lon":139.313052},{"name":"阿蘇神社本殿","province":"東京都","city":"羽村市","address":"東京都羽村市羽加美4-6-7","lat":35.762913,"lon":139.297931},{"name":"羽村市図書館","province":"東京都","city":"羽村市","address":"東京都羽村市緑ヶ丘2丁目11-2","lat":35.76440514,"lon":139.31654616},{"name":"小作台図書室","province":"東京都","city":"羽村市","address":"東京都羽村市小作台5丁目6-4","lat":35.7747202,"lon":139.30078885},{"name":"西児童館","province":"東京都","city":"羽村市","address":"羽村市小作台5-28-3","lat":35.77283,"lon":139.30299},{"name":"中央児童館","province":"東京都","city":"羽村市","address":"羽村市羽中3-6-19","lat":35.76157,"lon":139.30798},{"name":"東児童館","province":"東京都","city":"羽村市","address":"羽村市神明台3-30-2","lat":35.76001,"lon":139.32841},{"name":"羽村市社会福祉協議会","province":"東京都","city":"羽村市","address":"羽村市栄町2-18-1","lat":35.77059,"lon":139.31313},{"name":"東児童館","province":"東京都","city":"羽村市","address":"羽村市神明台3-30-2","lat":35.76001,"lon":139.32842},{"name":"小作浄水場","province":"東京都","city":"羽村市","address":"東京都羽村市小作台4丁目2-1","lat":35.77612268,"lon":139.2958031},{"name":"＊?羽村市郷土博物館","province":"東京都","city":"羽村市","address":"羽村市羽741","lat":35.755144,"lon":139.303426},{"name":"＊?羽村市図書館","province":"東京都","city":"羽村市","address":"羽村市緑ヶ丘2-11-2","lat":35.764333,"lon":139.316618},{"name":"＊?羽村市図書館小作台図書室","province":"東京都","city":"羽村市","address":"羽村市小作台5-6-4","lat":35.774731,"lon":139.300783},{"name":"＊?羽村市図書館加美分室","province":"東京都","city":"羽村市","address":"羽村市羽加美3-10-12","lat":35.764221,"lon":139.302333},{"name":"＊?羽村市図書館富士見平分室","province":"東京都","city":"羽村市","address":"羽村市富士見平1-18","lat":35.765932,"lon":139.325657},{"name":"＊?羽村市図書館川崎分室","province":"東京都","city":"羽村市","address":"羽村市川崎4-2-4","lat":35.753009,"lon":139.316964},{"name":"羽村市保健センター","province":"東京都","city":"羽村市","address":"東京都羽村市緑ヶ丘5丁目5-2","lat":35.76879339,"lon":139.31174922},{"name":"羽村市本庁舎","province":"東京都","city":"羽村市","address":"羽村市緑ヶ丘5-2-1","lat":35.767766,"lon":139.310538},{"name":"西児童館","province":"東京都","city":"羽村市","address":"羽村市小作台5-28-3","lat":35.772834,"lon":139.3031},{"name":"中央児童館","province":"東京都","city":"羽村市","address":"羽村市羽中3-6-19","lat":35.761333,"lon":139.309227},{"name":"東児童館","province":"東京都","city":"羽村市","address":"羽村市神明台3-30-2","lat":35.760262,"lon":139.328443},{"name":"羽村市社会福祉協議会","province":"東京都","city":"羽村市","address":"羽村市栄町2-18-1羽村市福祉センター","lat":35.770621,"lon":139.313052},{"name":"阿蘇神社本殿","province":"東京都","city":"羽村市","address":"東京都羽村市羽加美4-6-7","lat":35.762913,"lon":139.297931},{"name":"羽村市図書館","province":"東京都","city":"羽村市","address":"東京都羽村市緑ヶ丘2丁目11-2","lat":35.76440514,"lon":139.31654616},{"name":"小作台図書室","province":"東京都","city":"羽村市","address":"東京都羽村市小作台5丁目6-4","lat":35.7747202,"lon":139.30078885},{"name":"西児童館","province":"東京都","city":"羽村市","address":"羽村市小作台5-28-3","lat":35.77283,"lon":139.30299},{"name":"中央児童館","province":"東京都","city":"羽村市","address":"羽村市羽中3-6-19","lat":35.76157,"lon":139.30798},{"name":"東児童館","province":"東京都","city":"羽村市","address":"羽村市神明台3-30-2","lat":35.76001,"lon":139.32841},{"name":"羽村市社会福祉協議会","province":"東京都","city":"羽村市","address":"羽村市栄町2-18-1","lat":35.77059,"lon":139.31313},{"name":"東児童館","province":"東京都","city":"羽村市","address":"羽村市神明台3-30-2","lat":35.76001,"lon":139.32842},{"name":"小作浄水場","province":"東京都","city":"羽村市","address":"東京都羽村市小作台4丁目2-1","lat":35.77612268,"lon":139.2958031},{"name":"＊?羽村市郷土博物館","province":"東京都","city":"羽村市","address":"羽村市羽741","lat":35.755144,"lon":139.303426},{"name":"＊?羽村市図書館","province":"東京都","city":"羽村市","address":"羽村市緑ヶ丘2-11-2","lat":35.764333,"lon":139.316618},{"name":"＊?羽村市図書館小作台図書室","province":"東京都","city":"羽村市","address":"羽村市小作台5-6-4","lat":35.774731,"lon":139.300783},{"name":"＊?羽村市図書館加美分室","province":"東京都","city":"羽村市","address":"羽村市羽加美3-10-12","lat":35.764221,"lon":139.302333},{"name":"＊?羽村市図書館富士見平分室","province":"東京都","city":"羽村市","address":"羽村市富士見平1-18","lat":35.765932,"lon":139.325657},{"name":"＊?羽村市図書館川崎分室","province":"東京都","city":"羽村市","address":"羽村市川崎4-2-4","lat":35.753009,"lon":139.316964},{"name":"羽村市保健センター","province":"東京都","city":"羽村市","address":"東京都羽村市緑ヶ丘5丁目5-2","lat":35.76879339,"lon":139.31174922},{"name":"羽村市本庁舎","province":"東京都","city":"羽村市","address":"羽村市緑ヶ丘5-2-1","lat":35.767766,"lon":139.310538},{"name":"西児童館","province":"東京都","city":"羽村市","address":"羽村市小作台5-28-3","lat":35.772834,"lon":139.3031},{"name":"中央児童館","province":"東京都","city":"羽村市","address":"羽村市羽中3-6-19","lat":35.761333,"lon":139.309227},{"name":"東児童館","province":"東京都","city":"羽村市","address":"羽村市神明台3-30-2","lat":35.760262,"lon":139.328443},{"name":"羽村市社会福祉協議会","province":"東京都","city":"羽村市","address":"羽村市栄町2-18-1羽村市福祉センター","lat":35.770621,"lon":139.313052},{"name":"阿蘇神社本殿","province":"東京都","city":"羽村市","address":"東京都羽村市羽加美4-6-7","lat":35.762913,"lon":139.297931},{"name":"羽村市図書館","province":"東京都","city":"羽村市","address":"東京都羽村市緑ヶ丘2丁目11-2","lat":35.76440514,"lon":139.31654616},{"name":"小作台図書室","province":"東京都","city":"羽村市","address":"東京都羽村市小作台5丁目6-4","lat":35.7747202,"lon":139.30078885},{"name":"西児童館","province":"東京都","city":"羽村市","address":"羽村市小作台5-28-3","lat":35.77283,"lon":139.30299},{"name":"中央児童館","province":"東京都","city":"羽村市","address":"羽村市羽中3-6-19","lat":35.76157,"lon":139.30798},{"name":"東児童館","province":"東京都","city":"羽村市","address":"羽村市神明台3-30-2","lat":35.76001,"lon":139.32841},{"name":"羽村市社会福祉協議会","province":"東京都","city":"羽村市","address":"羽村市栄町2-18-1","lat":35.77059,"lon":139.31313},{"name":"東児童館","province":"東京都","city":"羽村市","address":"羽村市神明台3-30-2","lat":35.76001,"lon":139.32842},{"name":"＊?羽村市郷土博物館","province":"東京都","city":"羽村市","address":"羽村市羽741","lat":35.755144,"lon":139.303426},{"name":"＊?羽村市図書館","province":"東京都","city":"羽村市","address":"羽村市緑ヶ丘2-11-2","lat":35.764333,"lon":139.316618},{"name":"＊?羽村市図書館小作台図書室","province":"東京都","city":"羽村市","address":"羽村市小作台5-6-4","lat":35.774731,"lon":139.300783},{"name":"＊?羽村市図書館加美分室","province":"東京都","city":"羽村市","address":"羽村市羽加美3-10-12","lat":35.764221,"lon":139.302333},{"name":"＊?羽村市図書館富士見平分室","province":"東京都","city":"羽村市","address":"羽村市富士見平1-18","lat":35.765932,"lon":139.325657},{"name":"＊?羽村市図書館川崎分室","province":"東京都","city":"羽村市","address":"羽村市川崎4-2-4","lat":35.753009,"lon":139.316964},{"name":"西児童館","province":"東京都","city":"羽村市","address":"羽村市小作台5-28-3","lat":35.772834,"lon":139.3031},{"name":"中央児童館","province":"東京都","city":"羽村市","address":"羽村市羽中3-6-19","lat":35.761333,"lon":139.309227},{"name":"東児童館","province":"東京都","city":"羽村市","address":"羽村市神明台3-30-2","lat":35.760262,"lon":139.328443},{"name":"羽村市社会福祉協議会","province":"東京都","city":"羽村市","address":"羽村市栄町2-18-1羽村市福祉センター","lat":35.770621,"lon":139.313052},{"name":"阿蘇神社本殿","province":"東京都","city":"羽村市","address":"東京都羽村市羽加美4-6-7","lat":35.762913,"lon":139.297931},{"name":"羽村市図書館","province":"東京都","city":"羽村市","address":"東京都羽村市緑ヶ丘2丁目11-2","lat":35.76440514,"lon":139.31654616},{"name":"小作台図書室","province":"東京都","city":"羽村市","address":"東京都羽村市小作台5丁目6-4","lat":35.7747202,"lon":139.30078885},{"name":"西児童館","province":"東京都","city":"羽村市","address":"羽村市小作台5-28-3","lat":35.77283,"lon":139.30299},{"name":"中央児童館","province":"東京都","city":"羽村市","address":"羽村市羽中3-6-19","lat":35.76157,"lon":139.30798},{"name":"東児童館","province":"東京都","city":"羽村市","address":"羽村市神明台3-30-2","lat":35.76001,"lon":139.32841},{"name":"羽村市社会福祉協議会","province":"東京都","city":"羽村市","address":"羽村市栄町2-18-1","lat":35.77059,"lon":139.31313},{"name":"東児童館","province":"東京都","city":"羽村市","address":"羽村市神明台3-30-2","lat":35.76001,"lon":139.32842},{"name":"＊?羽村市郷土博物館","province":"東京都","city":"羽村市","address":"羽村市羽741","lat":35.755144,"lon":139.303426},{"name":"＊?羽村市図書館","province":"東京都","city":"羽村市","address":"羽村市緑ヶ丘2-11-2","lat":35.764333,"lon":139.316618},{"name":"＊?羽村市図書館小作台図書室","province":"東京都","city":"羽村市","address":"羽村市小作台5-6-4","lat":35.774731,"lon":139.300783},{"name":"＊?羽村市図書館加美分室","province":"東京都","city":"羽村市","address":"羽村市羽加美3-10-12","lat":35.764221,"lon":139.302333},{"name":"＊?羽村市図書館富士見平分室","province":"東京都","city":"羽村市","address":"羽村市富士見平1-18","lat":35.765932,"lon":139.325657},{"name":"＊?羽村市図書館川崎分室","province":"東京都","city":"羽村市","address":"羽村市川崎4-2-4","lat":35.753009,"lon":139.316964},{"name":"西児童館","province":"東京都","city":"羽村市","address":"羽村市小作台5-28-3","lat":35.772834,"lon":139.3031},{"name":"中央児童館","province":"東京都","city":"羽村市","address":"羽村市羽中3-6-19","lat":35.761333,"lon":139.309227},{"name":"東児童館","province":"東京都","city":"羽村市","address":"羽村市神明台3-30-2","lat":35.760262,"lon":139.328443},{"name":"阿蘇神社本殿","province":"東京都","city":"羽村市","address":"東京都羽村市羽加美4-6-7","lat":35.762913,"lon":139.297931},{"name":"羽村市図書館","province":"東京都","city":"羽村市","address":"東京都羽村市緑ヶ丘2丁目11-2","lat":35.76440514,"lon":139.31654616},{"name":"小作台図書室","province":"東京都","city":"羽村市","address":"東京都羽村市小作台5丁目6-4","lat":35.7747202,"lon":139.30078885},{"name":"西児童館","province":"東京都","city":"羽村市","address":"羽村市小作台5-28-3","lat":35.77283,"lon":139.30299},{"name":"中央児童館","province":"東京都","city":"羽村市","address":"羽村市羽中3-6-19","lat":35.76157,"lon":139.30798},{"name":"東児童館","province":"東京都","city":"羽村市","address":"羽村市神明台3-30-2","lat":35.76001,"lon":139.32841},{"name":"東児童館","province":"東京都","city":"羽村市","address":"羽村市神明台3-30-2","lat":35.76001,"lon":139.32842},{"name":"＊?羽村市郷土博物館","province":"東京都","city":"羽村市","address":"羽村市羽741","lat":35.755144,"lon":139.303426},{"name":"＊?羽村市図書館","province":"東京都","city":"羽村市","address":"羽村市緑ヶ丘2-11-2","lat":35.764333,"lon":139.316618},{"name":"＊?羽村市図書館小作台図書室","province":"東京都","city":"羽村市","address":"羽村市小作台5-6-4","lat":35.774731,"lon":139.300783},{"name":"＊?羽村市図書館加美分室","province":"東京都","city":"羽村市","address":"羽村市羽加美3-10-12","lat":35.764221,"lon":139.302333},{"name":"＊?羽村市図書館富士見平分室","province":"東京都","city":"羽村市","address":"羽村市富士見平1-18","lat":35.765932,"lon":139.325657},{"name":"＊?羽村市図書館川崎分室","province":"東京都","city":"羽村市","address":"羽村市川崎4-2-4","lat":35.753009,"lon":139.316964},{"name":"西児童館","province":"東京都","city":"羽村市","address":"羽村市小作台5-28-3","lat":35.772834,"lon":139.3031},{"name":"中央児童館","province":"東京都","city":"羽村市","address":"羽村市羽中3-6-19","lat":35.761333,"lon":139.309227},{"name":"東児童館","province":"東京都","city":"羽村市","address":"羽村市神明台3-30-2","lat":35.760262,"lon":139.328443},{"name":"阿蘇神社本殿","province":"東京都","city":"羽村市","address":"東京都羽村市羽加美4-6-7","lat":35.762913,"lon":139.297931},{"name":"羽村市図書館","province":"東京都","city":"羽村市","address":"東京都羽村市緑ヶ丘2丁目11-2","lat":35.76440514,"lon":139.31654616},{"name":"小作台図書室","province":"東京都","city":"羽村市","address":"東京都羽村市小作台5丁目6-4","lat":35.7747202,"lon":139.30078885},{"name":"西児童館","province":"東京都","city":"羽村市","address":"羽村市小作台5-28-3","lat":35.77283,"lon":139.30299},{"name":"中央児童館","province":"東京都","city":"羽村市","address":"羽村市羽中3-6-19","lat":35.76157,"lon":139.30798},{"name":"東児童館","province":"東京都","city":"羽村市","address":"羽村市神明台3-30-2","lat":35.76001,"lon":139.32841},{"name":"東児童館","province":"東京都","city":"羽村市","address":"羽村市神明台3-30-2","lat":35.76001,"lon":139.32842},{"name":"＊?羽村市郷土博物館","province":"東京都","city":"羽村市","address":"羽村市羽741","lat":35.755144,"lon":139.303426},{"name":"＊?羽村市図書館","province":"東京都","city":"羽村市","address":"羽村市緑ヶ丘2-11-2","lat":35.764333,"lon":139.316618},{"name":"＊?羽村市図書館小作台図書室","province":"東京都","city":"羽村市","address":"羽村市小作台5-6-4","lat":35.774731,"lon":139.300783},{"name":"＊?羽村市図書館加美分室","province":"東京都","city":"羽村市","address":"羽村市羽加美3-10-12","lat":35.764221,"lon":139.302333},{"name":"＊?羽村市図書館富士見平分室","province":"東京都","city":"羽村市","address":"羽村市富士見平1-18","lat":35.765932,"lon":139.325657},{"name":"＊?羽村市図書館川崎分室","province":"東京都","city":"羽村市","address":"羽村市川崎4-2-4","lat":35.753009,"lon":139.316964},{"name":"西児童館","province":"東京都","city":"羽村市","address":"羽村市小作台5-28-3","lat":35.772834,"lon":139.3031},{"name":"中央児童館","province":"東京都","city":"羽村市","address":"羽村市羽中3-6-19","lat":35.761333,"lon":139.309227},{"name":"東児童館","province":"東京都","city":"羽村市","address":"羽村市神明台3-30-2","lat":35.760262,"lon":139.328443},{"name":"阿蘇神社本殿","province":"東京都","city":"羽村市","address":"東京都羽村市羽加美4-6-7","lat":35.762913,"lon":139.297931},{"name":"羽村市図書館","province":"東京都","city":"羽村市","address":"東京都羽村市緑ヶ丘2丁目11-2","lat":35.76440514,"lon":139.31654616},{"name":"小作台図書室","province":"東京都","city":"羽村市","address":"東京都羽村市小作台5丁目6-4","lat":35.7747202,"lon":139.30078885},{"name":"西児童館","province":"東京都","city":"羽村市","address":"羽村市小作台5-28-3","lat":35.77283,"lon":139.30299},{"name":"中央児童館","province":"東京都","city":"羽村市","address":"羽村市羽中3-6-19","lat":35.76157,"lon":139.30798},{"name":"東児童館","province":"東京都","city":"羽村市","address":"羽村市神明台3-30-2","lat":35.76001,"lon":139.32841},{"name":"東児童館","province":"東京都","city":"羽村市","address":"羽村市神明台3-30-2","lat":35.76001,"lon":139.32842},{"name":"＊?羽村市郷土博物館","province":"東京都","city":"羽村市","address":"羽村市羽741","lat":35.755144,"lon":139.303426},{"name":"＊?羽村市図書館","province":"東京都","city":"羽村市","address":"羽村市緑ヶ丘2-11-2","lat":35.764333,"lon":139.316618},{"name":"＊?羽村市図書館小作台図書室","province":"東京都","city":"羽村市","address":"羽村市小作台5-6-4","lat":35.774731,"lon":139.300783},{"name":"＊?羽村市図書館加美分室","province":"東京都","city":"羽村市","address":"羽村市羽加美3-10-12","lat":35.764221,"lon":139.302333},{"name":"＊?羽村市図書館富士見平分室","province":"東京都","city":"羽村市","address":"羽村市富士見平1-18","lat":35.765932,"lon":139.325657},{"name":"＊?羽村市図書館川崎分室","province":"東京都","city":"羽村市","address":"羽村市川崎4-2-4","lat":35.753009,"lon":139.316964},{"name":"西児童館","province":"東京都","city":"羽村市","address":"羽村市小作台5-28-3","lat":35.772834,"lon":139.3031},{"name":"中央児童館","province":"東京都","city":"羽村市","address":"羽村市羽中3-6-19","lat":35.761333,"lon":139.309227},{"name":"東児童館","province":"東京都","city":"羽村市","address":"羽村市神明台3-30-2","lat":35.760262,"lon":139.328443},{"name":"阿蘇神社本殿","province":"東京都","city":"羽村市","address":"東京都羽村市羽加美4-6-7","lat":35.762913,"lon":139.297931},{"name":"羽村市図書館","province":"東京都","city":"羽村市","address":"東京都羽村市緑ヶ丘2丁目11-2","lat":35.76440514,"lon":139.31654616},{"name":"小作台図書室","province":"東京都","city":"羽村市","address":"東京都羽村市小作台5丁目6-4","lat":35.7747202,"lon":139.30078885},{"name":"西児童館","province":"東京都","city":"羽村市","address":"羽村市小作台5-28-3","lat":35.77283,"lon":139.30299},{"name":"中央児童館","province":"東京都","city":"羽村市","address":"羽村市羽中3-6-19","lat":35.76157,"lon":139.30798},{"name":"東児童館","province":"東京都","city":"羽村市","address":"羽村市神明台3-30-2","lat":35.76001,"lon":139.32841},{"name":"東児童館","province":"東京都","city":"羽村市","address":"羽村市神明台3-30-2","lat":35.76001,"lon":139.32842},{"name":"＊?羽村市郷土博物館","province":"東京都","city":"羽村市","address":"羽村市羽741","lat":35.755144,"lon":139.303426},{"name":"＊?羽村市図書館","province":"東京都","city":"羽村市","address":"羽村市緑ヶ丘2-11-2","lat":35.764333,"lon":139.316618},{"name":"＊?羽村市図書館小作台図書室","province":"東京都","city":"羽村市","address":"羽村市小作台5-6-4","lat":35.774731,"lon":139.300783},{"name":"＊?羽村市図書館加美分室","province":"東京都","city":"羽村市","address":"羽村市羽加美3-10-12","lat":35.764221,"lon":139.302333},{"name":"＊?羽村市図書館富士見平分室","province":"東京都","city":"羽村市","address":"羽村市富士見平1-18","lat":35.765932,"lon":139.325657},{"name":"＊?羽村市図書館川崎分室","province":"東京都","city":"羽村市","address":"羽村市川崎4-2-4","lat":35.753009,"lon":139.316964},{"name":"西児童館","province":"東京都","city":"羽村市","address":"羽村市小作台5-28-3","lat":35.772834,"lon":139.3031},{"name":"中央児童館","province":"東京都","city":"羽村市","address":"羽村市羽中3-6-19","lat":35.761333,"lon":139.309227},{"name":"東児童館","province":"東京都","city":"羽村市","address":"羽村市神明台3-30-2","lat":35.760262,"lon":139.328443},{"name":"阿蘇神社本殿","province":"東京都","city":"羽村市","address":"東京都羽村市羽加美4-6-7","lat":35.762913,"lon":139.297931},{"name":"羽村市図書館","province":"東京都","city":"羽村市","address":"東京都羽村市緑ヶ丘2丁目11-2","lat":35.76440514,"lon":139.31654616},{"name":"小作台図書室","province":"東京都","city":"羽村市","address":"東京都羽村市小作台5丁目6-4","lat":35.7747202,"lon":139.30078885},{"name":"西児童館","province":"東京都","city":"羽村市","address":"羽村市小作台5-28-3","lat":35.77283,"lon":139.30299},{"name":"中央児童館","province":"東京都","city":"羽村市","address":"羽村市羽中3-6-19","lat":35.76157,"lon":139.30798},{"name":"東児童館","province":"東京都","city":"羽村市","address":"羽村市神明台3-30-2","lat":35.76001,"lon":139.32841},{"name":"東児童館","province":"東京都","city":"羽村市","address":"羽村市神明台3-30-2","lat":35.76001,"lon":139.32842},{"name":"＊?羽村市郷土博物館","province":"東京都","city":"羽村市","address":"羽村市羽741","lat":35.755144,"lon":139.303426},{"name":"＊?羽村市図書館","province":"東京都","city":"羽村市","address":"羽村市緑ヶ丘2-11-2","lat":35.764333,"lon":139.316618},{"name":"＊?羽村市図書館小作台図書室","province":"東京都","city":"羽村市","address":"羽村市小作台5-6-4","lat":35.774731,"lon":139.300783},{"name":"＊?羽村市図書館加美分室","province":"東京都","city":"羽村市","address":"羽村市羽加美3-10-12","lat":35.764221,"lon":139.302333},{"name":"＊?羽村市図書館富士見平分室","province":"東京都","city":"羽村市","address":"羽村市富士見平1-18","lat":35.765932,"lon":139.325657},{"name":"＊?羽村市図書館川崎分室","province":"東京都","city":"羽村市","address":"羽村市川崎4-2-4","lat":35.753009,"lon":139.316964},{"name":"西児童館","province":"東京都","city":"羽村市","address":"羽村市小作台5-28-3","lat":35.772834,"lon":139.3031},{"name":"中央児童館","province":"東京都","city":"羽村市","address":"羽村市羽中3-6-19","lat":35.761333,"lon":139.309227},{"name":"東児童館","province":"東京都","city":"羽村市","address":"羽村市神明台3-30-2","lat":35.760262,"lon":139.328443},{"name":"阿蘇神社本殿","province":"東京都","city":"羽村市","address":"東京都羽村市羽加美4-6-7","lat":35.762913,"lon":139.297931},{"name":"羽村市図書館","province":"東京都","city":"羽村市","address":"東京都羽村市緑ヶ丘2丁目11-2","lat":35.76440514,"lon":139.31654616},{"name":"小作台図書室","province":"東京都","city":"羽村市","address":"東京都羽村市小作台5丁目6-4","lat":35.7747202,"lon":139.30078885},{"name":"西児童館","province":"東京都","city":"羽村市","address":"羽村市小作台5-28-3","lat":35.77283,"lon":139.30299},{"name":"中央児童館","province":"東京都","city":"羽村市","address":"羽村市羽中3-6-19","lat":35.76157,"lon":139.30798},{"name":"東児童館","province":"東京都","city":"羽村市","address":"羽村市神明台3-30-2","lat":35.76001,"lon":139.32841},{"name":"東児童館","province":"東京都","city":"羽村市","address":"羽村市神明台3-30-2","lat":35.76001,"lon":139.32842},{"name":"＊?羽村市郷土博物館","province":"東京都","city":"羽村市","address":"羽村市羽741","lat":35.755144,"lon":139.303426},{"name":"＊?羽村市図書館","province":"東京都","city":"羽村市","address":"羽村市緑ヶ丘2-11-2","lat":35.764333,"lon":139.316618},{"name":"＊?羽村市図書館小作台図書室","province":"東京都","city":"羽村市","address":"羽村市小作台5-6-4","lat":35.774731,"lon":139.300783},{"name":"＊?羽村市図書館加美分室","province":"東京都","city":"羽村市","address":"羽村市羽加美3-10-12","lat":35.764221,"lon":139.302333},{"name":"＊?羽村市図書館富士見平分室","province":"東京都","city":"羽村市","address":"羽村市富士見平1-18","lat":35.765932,"lon":139.325657},{"name":"＊?羽村市図書館川崎分室","province":"東京都","city":"羽村市","address":"羽村市川崎4-2-4","lat":35.753009,"lon":139.316964},{"name":"西児童館","province":"東京都","city":"羽村市","address":"羽村市小作台5-28-3","lat":35.772834,"lon":139.3031},{"name":"中央児童館","province":"東京都","city":"羽村市","address":"羽村市羽中3-6-19","lat":35.761333,"lon":139.309227},{"name":"東児童館","province":"東京都","city":"羽村市","address":"羽村市神明台3-30-2","lat":35.760262,"lon":139.328443},{"name":"阿蘇神社本殿","province":"東京都","city":"羽村市","address":"東京都羽村市羽加美4-6-7","lat":35.762913,"lon":139.297931},{"name":"羽村市図書館","province":"東京都","city":"羽村市","address":"東京都羽村市緑ヶ丘2丁目11-2","lat":35.76440514,"lon":139.31654616},{"name":"小作台図書室","province":"東京都","city":"羽村市","address":"東京都羽村市小作台5丁目6-4","lat":35.7747202,"lon":139.30078885},{"name":"西児童館","province":"東京都","city":"羽村市","address":"羽村市小作台5-28-3","lat":35.77283,"lon":139.30299},{"name":"中央児童館","province":"東京都","city":"羽村市","address":"羽村市羽中3-6-19","lat":35.76157,"lon":139.30798},{"name":"東児童館","province":"東京都","city":"羽村市","address":"羽村市神明台3-30-2","lat":35.76001,"lon":139.32841},{"name":"東児童館","province":"東京都","city":"羽村市","address":"羽村市神明台3-30-2","lat":35.76001,"lon":139.32842},{"name":"＊?羽村市郷土博物館","province":"東京都","city":"羽村市","address":"羽村市羽741","lat":35.755144,"lon":139.303426},{"name":"＊?羽村市図書館","province":"東京都","city":"羽村市","address":"羽村市緑ヶ丘2-11-2","lat":35.764333,"lon":139.316618},{"name":"＊?羽村市図書館小作台図書室","province":"東京都","city":"羽村市","address":"羽村市小作台5-6-4","lat":35.774731,"lon":139.300783},{"name":"＊?羽村市図書館加美分室","province":"東京都","city":"羽村市","address":"羽村市羽加美3-10-12","lat":35.764221,"lon":139.302333},{"name":"＊?羽村市図書館富士見平分室","province":"東京都","city":"羽村市","address":"羽村市富士見平1-18","lat":35.765932,"lon":139.325657},{"name":"＊?羽村市図書館川崎分室","province":"東京都","city":"羽村市","address":"羽村市川崎4-2-4","lat":35.753009,"lon":139.316964},{"name":"西児童館","province":"東京都","city":"羽村市","address":"羽村市小作台5-28-3","lat":35.772834,"lon":139.3031},{"name":"中央児童館","province":"東京都","city":"羽村市","address":"羽村市羽中3-6-19","lat":35.761333,"lon":139.309227},{"name":"東児童館","province":"東京都","city":"羽村市","address":"羽村市神明台3-30-2","lat":35.760262,"lon":139.328443},{"name":"阿蘇神社本殿","province":"東京都","city":"羽村市","address":"東京都羽村市羽加美4-6-7","lat":35.762913,"lon":139.297931},{"name":"羽村市図書館","province":"東京都","city":"羽村市","address":"東京都羽村市緑ヶ丘2丁目11-2","lat":35.76440514,"lon":139.31654616},{"name":"小作台図書室","province":"東京都","city":"羽村市","address":"東京都羽村市小作台5丁目6-4","lat":35.7747202,"lon":139.30078885},{"name":"西児童館","province":"東京都","city":"羽村市","address":"羽村市小作台5-28-3","lat":35.77283,"lon":139.30299},{"name":"中央児童館","province":"東京都","city":"羽村市","address":"羽村市羽中3-6-19","lat":35.76157,"lon":139.30798},{"name":"東児童館","province":"東京都","city":"羽村市","address":"羽村市神明台3-30-2","lat":35.76001,"lon":139.32841},{"name":"東児童館","province":"東京都","city":"羽村市","address":"羽村市神明台3-30-2","lat":35.76001,"lon":139.32842},{"name":"＊?羽村市郷土博物館","province":"東京都","city":"羽村市","address":"羽村市羽741","lat":35.755144,"lon":139.303426},{"name":"＊?羽村市図書館","province":"東京都","city":"羽村市","address":"羽村市緑ヶ丘2-11-2","lat":35.764333,"lon":139.316618},{"name":"＊?羽村市図書館小作台図書室","province":"東京都","city":"羽村市","address":"羽村市小作台5-6-4","lat":35.774731,"lon":139.300783},{"name":"＊?羽村市図書館加美分室","province":"東京都","city":"羽村市","address":"羽村市羽加美3-10-12","lat":35.764221,"lon":139.302333},{"name":"＊?羽村市図書館富士見平分室","province":"東京都","city":"羽村市","address":"羽村市富士見平1-18","lat":35.765932,"lon":139.325657},{"name":"＊?羽村市図書館川崎分室","province":"東京都","city":"羽村市","address":"羽村市川崎4-2-4","lat":35.753009,"lon":139.316964},{"name":"西児童館","province":"東京都","city":"羽村市","address":"羽村市小作台5-28-3","lat":35.772834,"lon":139.3031},{"name":"中央児童館","province":"東京都","city":"羽村市","address":"羽村市羽中3-6-19","lat":35.761333,"lon":139.309227},{"name":"東児童館","province":"東京都","city":"羽村市","address":"羽村市神明台3-30-2","lat":35.760262,"lon":139.328443},{"name":"阿蘇神社本殿","province":"東京都","city":"羽村市","address":"東京都羽村市羽加美4-6-7","lat":35.762913,"lon":139.297931},{"name":"羽村市図書館","province":"東京都","city":"羽村市","address":"東京都羽村市緑ヶ丘2丁目11-2","lat":35.76440514,"lon":139.31654616},{"name":"小作台図書室","province":"東京都","city":"羽村市","address":"東京都羽村市小作台5丁目6-4","lat":35.7747202,"lon":139.30078885},{"name":"西児童館","province":"東京都","city":"羽村市","address":"羽村市小作台5-28-3","lat":35.77283,"lon":139.30299},{"name":"中央児童館","province":"東京都","city":"羽村市","address":"羽村市羽中3-6-19","lat":35.76157,"lon":139.30798},{"name":"東児童館","province":"東京都","city":"羽村市","address":"羽村市神明台3-30-2","lat":35.76001,"lon":139.32841},{"name":"東児童館","province":"東京都","city":"羽村市","address":"羽村市神明台3-30-2","lat":35.76001,"lon":139.32842},{"name":"＊?羽村市郷土博物館","province":"東京都","city":"羽村市","address":"羽村市羽741","lat":35.755144,"lon":139.303426},{"name":"＊?羽村市図書館","province":"東京都","city":"羽村市","address":"羽村市緑ヶ丘2-11-2","lat":35.764333,"lon":139.316618},{"name":"＊?羽村市図書館小作台図書室","province":"東京都","city":"羽村市","address":"羽村市小作台5-6-4","lat":35.774731,"lon":139.300783},{"name":"＊?羽村市図書館加美分室","province":"東京都","city":"羽村市","address":"羽村市羽加美3-10-12","lat":35.764221,"lon":139.302333},{"name":"＊?羽村市図書館富士見平分室","province":"東京都","city":"羽村市","address":"羽村市富士見平1-18","lat":35.765932,"lon":139.325657},{"name":"＊?羽村市図書館川崎分室","province":"東京都","city":"羽村市","address":"羽村市川崎4-2-4","lat":35.753009,"lon":139.316964},{"name":"西児童館","province":"東京都","city":"羽村市","address":"羽村市小作台5-28-3","lat":35.772834,"lon":139.3031},{"name":"中央児童館","province":"東京都","city":"羽村市","address":"羽村市羽中3-6-19","lat":35.761333,"lon":139.309227},{"name":"東児童館","province":"東京都","city":"羽村市","address":"羽村市神明台3-30-2","lat":35.760262,"lon":139.328443},{"name":"阿蘇神社本殿","province":"東京都","city":"羽村市","address":"東京都羽村市羽加美4-6-7","lat":35.762913,"lon":139.297931},{"name":"羽村市図書館","province":"東京都","city":"羽村市","address":"東京都羽村市緑ヶ丘2丁目11-2","lat":35.76440514,"lon":139.31654616},{"name":"小作台図書室","province":"東京都","city":"羽村市","address":"東京都羽村市小作台5丁目6-4","lat":35.7747202,"lon":139.30078885},{"name":"西児童館","province":"東京都","city":"羽村市","address":"羽村市小作台5-28-3","lat":35.77283,"lon":139.30299},{"name":"中央児童館","province":"東京都","city":"羽村市","address":"羽村市羽中3-6-19","lat":35.76157,"lon":139.30798},{"name":"東児童館","province":"東京都","city":"羽村市","address":"羽村市神明台3-30-2","lat":35.76001,"lon":139.32841},{"name":"東児童館","province":"東京都","city":"羽村市","address":"羽村市神明台3-30-2","lat":35.76001,"lon":139.32842},{"name":"＊?羽村市郷土博物館","province":"東京都","city":"羽村市","address":"羽村市羽741","lat":35.755144,"lon":139.303426},{"name":"＊?羽村市図書館","province":"東京都","city":"羽村市","address":"羽村市緑ヶ丘2-11-2","lat":35.764333,"lon":139.316618},{"name":"＊?羽村市図書館小作台図書室","province":"東京都","city":"羽村市","address":"羽村市小作台5-6-4","lat":35.774731,"lon":139.300783},{"name":"＊?羽村市図書館加美分室","province":"東京都","city":"羽村市","address":"羽村市羽加美3-10-12","lat":35.764221,"lon":139.302333},{"name":"＊?羽村市図書館富士見平分室","province":"東京都","city":"羽村市","address":"羽村市富士見平1-18","lat":35.765932,"lon":139.325657},{"name":"＊?羽村市図書館川崎分室","province":"東京都","city":"羽村市","address":"羽村市川崎4-2-4","lat":35.753009,"lon":139.316964},{"name":"西児童館","province":"東京都","city":"羽村市","address":"羽村市小作台5-28-3","lat":35.772834,"lon":139.3031},{"name":"中央児童館","province":"東京都","city":"羽村市","address":"羽村市羽中3-6-19","lat":35.761333,"lon":139.309227},{"name":"東児童館","province":"東京都","city":"羽村市","address":"羽村市神明台3-30-2","lat":35.760262,"lon":139.328443},{"name":"阿蘇神社本殿","province":"東京都","city":"羽村市","address":"東京都羽村市羽加美4-6-7","lat":35.762913,"lon":139.297931},{"name":"羽村市図書館","province":"東京都","city":"羽村市","address":"東京都羽村市緑ヶ丘2丁目11-2","lat":35.76440514,"lon":139.31654616},{"name":"小作台図書室","province":"東京都","city":"羽村市","address":"東京都羽村市小作台5丁目6-4","lat":35.7747202,"lon":139.30078885},{"name":"西児童館","province":"東京都","city":"羽村市","address":"羽村市小作台5-28-3","lat":35.77283,"lon":139.30299},{"name":"中央児童館","province":"東京都","city":"羽村市","address":"羽村市羽中3-6-19","lat":35.76157,"lon":139.30798},{"name":"東児童館","province":"東京都","city":"羽村市","address":"羽村市神明台3-30-2","lat":35.76001,"lon":139.32841},{"name":"東児童館","province":"東京都","city":"羽村市","address":"羽村市神明台3-30-2","lat":35.76001,"lon":139.32842},{"name":"＊?羽村市郷土博物館","province":"東京都","city":"羽村市","address":"羽村市羽741","lat":35.755144,"lon":139.303426},{"name":"＊?羽村市図書館","province":"東京都","city":"羽村市","address":"羽村市緑ヶ丘2-11-2","lat":35.764333,"lon":139.316618},{"name":"＊?羽村市図書館小作台図書室","province":"東京都","city":"羽村市","address":"羽村市小作台5-6-4","lat":35.774731,"lon":139.300783},{"name":"＊?羽村市図書館加美分室","province":"東京都","city":"羽村市","address":"羽村市羽加美3-10-12","lat":35.764221,"lon":139.302333},{"name":"＊?羽村市図書館富士見平分室","province":"東京都","city":"羽村市","address":"羽村市富士見平1-18","lat":35.765932,"lon":139.325657},{"name":"＊?羽村市図書館川崎分室","province":"東京都","city":"羽村市","address":"羽村市川崎4-2-4","lat":35.753009,"lon":139.316964},{"name":"西児童館","province":"東京都","city":"羽村市","address":"羽村市小作台5-28-3","lat":35.772834,"lon":139.3031},{"name":"中央児童館","province":"東京都","city":"羽村市","address":"羽村市羽中3-6-19","lat":35.761333,"lon":139.309227},{"name":"東児童館","province":"東京都","city":"羽村市","address":"羽村市神明台3-30-2","lat":35.760262,"lon":139.328443},{"name":"阿蘇神社本殿","province":"東京都","city":"羽村市","address":"東京都羽村市羽加美4-6-7","lat":35.762913,"lon":139.297931},{"name":"羽村市図書館","province":"東京都","city":"羽村市","address":"東京都羽村市緑ヶ丘2丁目11-2","lat":35.76440514,"lon":139.31654616},{"name":"小作台図書室","province":"東京都","city":"羽村市","address":"東京都羽村市小作台5丁目6-4","lat":35.7747202,"lon":139.30078885},{"name":"西児童館","province":"東京都","city":"羽村市","address":"羽村市小作台5-28-3","lat":35.77283,"lon":139.30299},{"name":"中央児童館","province":"東京都","city":"羽村市","address":"羽村市羽中3-6-19","lat":35.76157,"lon":139.30798},{"name":"東児童館","province":"東京都","city":"羽村市","address":"羽村市神明台3-30-2","lat":35.76001,"lon":139.32841},{"name":"東児童館","province":"東京都","city":"羽村市","address":"羽村市神明台3-30-2","lat":35.76001,"lon":139.32842},{"name":"＊?羽村市郷土博物館","province":"東京都","city":"羽村市","address":"羽村市羽741","lat":35.755144,"lon":139.303426},{"name":"＊?羽村市図書館","province":"東京都","city":"羽村市","address":"羽村市緑ヶ丘2-11-2","lat":35.764333,"lon":139.316618},{"name":"＊?羽村市図書館小作台図書室","province":"東京都","city":"羽村市","address":"羽村市小作台5-6-4","lat":35.774731,"lon":139.300783},{"name":"＊?羽村市図書館加美分室","province":"東京都","city":"羽村市","address":"羽村市羽加美3-10-12","lat":35.764221,"lon":139.302333},{"name":"＊?羽村市図書館富士見平分室","province":"東京都","city":"羽村市","address":"羽村市富士見平1-18","lat":35.765932,"lon":139.325657},{"name":"＊?羽村市図書館川崎分室","province":"東京都","city":"羽村市","address":"羽村市川崎4-2-4","lat":35.753009,"lon":139.316964},{"name":"西児童館","province":"東京都","city":"羽村市","address":"羽村市小作台5-28-3","lat":35.772834,"lon":139.3031},{"name":"中央児童館","province":"東京都","city":"羽村市","address":"羽村市羽中3-6-19","lat":35.761333,"lon":139.309227},{"name":"東児童館","province":"東京都","city":"羽村市","address":"羽村市神明台3-30-2","lat":35.760262,"lon":139.328443},{"name":"阿蘇神社本殿","province":"東京都","city":"羽村市","address":"東京都羽村市羽加美4-6-7","lat":35.762913,"lon":139.297931},{"name":"羽村市図書館","province":"東京都","city":"羽村市","address":"東京都羽村市緑ヶ丘2丁目11-2","lat":35.76440514,"lon":139.31654616},{"name":"小作台図書室","province":"東京都","city":"羽村市","address":"東京都羽村市小作台5丁目6-4","lat":35.7747202,"lon":139.30078885},{"name":"西児童館","province":"東京都","city":"羽村市","address":"羽村市小作台5-28-3","lat":35.77283,"lon":139.30299},{"name":"中央児童館","province":"東京都","city":"羽村市","address":"羽村市羽中3-6-19","lat":35.76157,"lon":139.30798},{"name":"東児童館","province":"東京都","city":"羽村市","address":"羽村市神明台3-30-2","lat":35.76001,"lon":139.32841},{"name":"東児童館","province":"東京都","city":"羽村市","address":"羽村市神明台3-30-2","lat":35.76001,"lon":139.32842},{"name":"＊?羽村市郷土博物館","province":"東京都","city":"羽村市","address":"羽村市羽741","lat":35.755144,"lon":139.303426},{"name":"＊?羽村市図書館","province":"東京都","city":"羽村市","address":"羽村市緑ヶ丘2-11-2","lat":35.764333,"lon":139.316618},{"name":"＊?羽村市図書館小作台図書室","province":"東京都","city":"羽村市","address":"羽村市小作台5-6-4","lat":35.774731,"lon":139.300783},{"name":"＊?羽村市図書館加美分室","province":"東京都","city":"羽村市","address":"羽村市羽加美3-10-12","lat":35.764221,"lon":139.302333},{"name":"＊?羽村市図書館富士見平分室","province":"東京都","city":"羽村市","address":"羽村市富士見平1-18","lat":35.765932,"lon":139.325657},{"name":"＊?羽村市図書館川崎分室","province":"東京都","city":"羽村市","address":"羽村市川崎4-2-4","lat":35.753009,"lon":139.316964},{"name":"西児童館","province":"東京都","city":"羽村市","address":"羽村市小作台5-28-3","lat":35.772834,"lon":139.3031},{"name":"中央児童館","province":"東京都","city":"羽村市","address":"羽村市羽中3-6-19","lat":35.761333,"lon":139.309227},{"name":"東児童館","province":"東京都","city":"羽村市","address":"羽村市神明台3-30-2","lat":35.760262,"lon":139.328443},{"name":"阿蘇神社本殿","province":"東京都","city":"羽村市","address":"東京都羽村市羽加美4-6-7","lat":35.762913,"lon":139.297931},{"name":"羽村市図書館","province":"東京都","city":"羽村市","address":"東京都羽村市緑ヶ丘2丁目11-2","lat":35.76440514,"lon":139.31654616},{"name":"小作台図書室","province":"東京都","city":"羽村市","address":"東京都羽村市小作台5丁目6-4","lat":35.7747202,"lon":139.30078885},{"name":"西児童館","province":"東京都","city":"羽村市","address":"羽村市小作台5-28-3","lat":35.77283,"lon":139.30299},{"name":"中央児童館","province":"東京都","city":"羽村市","address":"羽村市羽中3-6-19","lat":35.76157,"lon":139.30798},{"name":"東児童館","province":"東京都","city":"羽村市","address":"羽村市神明台3-30-2","lat":35.76001,"lon":139.32841},{"name":"東児童館","province":"東京都","city":"羽村市","address":"羽村市神明台3-30-2","lat":35.76001,"lon":139.32842},{"name":"＊?羽村市郷土博物館","province":"東京都","city":"羽村市","address":"羽村市羽741","lat":35.755144,"lon":139.303426},{"name":"＊?羽村市図書館","province":"東京都","city":"羽村市","address":"羽村市緑ヶ丘2-11-2","lat":35.764333,"lon":139.316618},{"name":"＊?羽村市図書館小作台図書室","province":"東京都","city":"羽村市","address":"羽村市小作台5-6-4","lat":35.774731,"lon":139.300783},{"name":"＊?羽村市図書館加美分室","province":"東京都","city":"羽村市","address":"羽村市羽加美3-10-12","lat":35.764221,"lon":139.302333},{"name":"＊?羽村市図書館富士見平分室","province":"東京都","city":"羽村市","address":"羽村市富士見平1-18","lat":35.765932,"lon":139.325657},{"name":"＊?羽村市図書館川崎分室","province":"東京都","city":"羽村市","address":"羽村市川崎4-2-4","lat":35.753009,"lon":139.316964},{"name":"西児童館","province":"東京都","city":"羽村市","address":"羽村市小作台5-28-3","lat":35.772834,"lon":139.3031},{"name":"中央児童館","province":"東京都","city":"羽村市","address":"羽村市羽中3-6-19","lat":35.761333,"lon":139.309227},{"name":"東児童館","province":"東京都","city":"羽村市","address":"羽村市神明台3-30-2","lat":35.760262,"lon":139.328443},{"name":"阿蘇神社本殿","province":"東京都","city":"羽村市","address":"東京都羽村市羽加美4-6-7","lat":35.762913,"lon":139.297931},{"name":"羽村市図書館","province":"東京都","city":"羽村市","address":"東京都羽村市緑ヶ丘2丁目11-2","lat":35.76440514,"lon":139.31654616},{"name":"小作台図書室","province":"東京都","city":"羽村市","address":"東京都羽村市小作台5丁目6-4","lat":35.7747202,"lon":139.30078885},{"name":"西児童館","province":"東京都","city":"羽村市","address":"羽村市小作台5-28-3","lat":35.77283,"lon":139.30299},{"name":"中央児童館","province":"東京都","city":"羽村市","address":"羽村市羽中3-6-19","lat":35.76157,"lon":139.30798},{"name":"東児童館","province":"東京都","city":"羽村市","address":"羽村市神明台3-30-2","lat":35.76001,"lon":139.32841},{"name":"東児童館","province":"東京都","city":"羽村市","address":"羽村市神明台3-30-2","lat":35.76001,"lon":139.32842},{"name":"＊?羽村市郷土博物館","province":"東京都","city":"羽村市","address":"羽村市羽741","lat":35.755144,"lon":139.303426},{"name":"＊?羽村市図書館","province":"東京都","city":"羽村市","address":"羽村市緑ヶ丘2-11-2","lat":35.764333,"lon":139.316618},{"name":"＊?羽村市図書館小作台図書室","province":"東京都","city":"羽村市","address":"羽村市小作台5-6-4","lat":35.774731,"lon":139.300783},{"name":"＊?羽村市図書館加美分室","province":"東京都","city":"羽村市","address":"羽村市羽加美3-10-12","lat":35.764221,"lon":139.302333},{"name":"＊?羽村市図書館富士見平分室","province":"東京都","city":"羽村市","address":"羽村市富士見平1-18","lat":35.765932,"lon":139.325657},{"name":"＊?羽村市図書館川崎分室","province":"東京都","city":"羽村市","address":"羽村市川崎4-2-4","lat":35.753009,"lon":139.316964},{"name":"西児童館","province":"東京都","city":"羽村市","address":"羽村市小作台5-28-3","lat":35.772834,"lon":139.3031},{"name":"中央児童館","province":"東京都","city":"羽村市","address":"羽村市羽中3-6-19","lat":35.761333,"lon":139.309227},{"name":"東児童館","province":"東京都","city":"羽村市","address":"羽村市神明台3-30-2","lat":35.760262,"lon":139.328443},{"name":"阿蘇神社本殿","province":"東京都","city":"羽村市","address":"東京都羽村市羽加美4-6-7","lat":35.762913,"lon":139.297931},{"name":"羽村市図書館","province":"東京都","city":"羽村市","address":"東京都羽村市緑ヶ丘2丁目11-2","lat":35.76440514,"lon":139.31654616},{"name":"小作台図書室","province":"東京都","city":"羽村市","address":"東京都羽村市小作台5丁目6-4","lat":35.7747202,"lon":139.30078885},{"name":"西児童館","province":"東京都","city":"羽村市","address":"羽村市小作台5-28-3","lat":35.77283,"lon":139.30299},{"name":"中央児童館","province":"東京都","city":"羽村市","address":"羽村市羽中3-6-19","lat":35.76157,"lon":139.30798},{"name":"東児童館","province":"東京都","city":"羽村市","address":"羽村市神明台3-30-2","lat":35.76001,"lon":139.32841},{"name":"東児童館","province":"東京都","city":"羽村市","address":"羽村市神明台3-30-2","lat":35.76001,"lon":139.32842},{"name":"＊?羽村市郷土博物館","province":"東京都","city":"羽村市","address":"羽村市羽741","lat":35.755144,"lon":139.303426},{"name":"＊?羽村市図書館","province":"東京都","city":"羽村市","address":"羽村市緑ヶ丘2-11-2","lat":35.764333,"lon":139.316618},{"name":"＊?羽村市図書館小作台図書室","province":"東京都","city":"羽村市","address":"羽村市小作台5-6-4","lat":35.774731,"lon":139.300783},{"name":"＊?羽村市図書館加美分室","province":"東京都","city":"羽村市","address":"羽村市羽加美3-10-12","lat":35.764221,"lon":139.302333},{"name":"＊?羽村市図書館富士見平分室","province":"東京都","city":"羽村市","address":"羽村市富士見平1-18","lat":35.765932,"lon":139.325657},{"name":"＊?羽村市図書館川崎分室","province":"東京都","city":"羽村市","address":"羽村市川崎4-2-4","lat":35.753009,"lon":139.316964},{"name":"西児童館","province":"東京都","city":"羽村市","address":"羽村市小作台5-28-3","lat":35.772834,"lon":139.3031},{"name":"中央児童館","province":"東京都","city":"羽村市","address":"羽村市羽中3-6-19","lat":35.761333,"lon":139.309227},{"name":"東児童館","province":"東京都","city":"羽村市","address":"羽村市神明台3-30-2","lat":35.760262,"lon":139.328443},{"name":"阿蘇神社本殿","province":"東京都","city":"羽村市","address":"東京都羽村市羽加美4-6-7","lat":35.762913,"lon":139.297931},{"name":"羽村市図書館","province":"東京都","city":"羽村市","address":"東京都羽村市緑ヶ丘2丁目11-2","lat":35.76440514,"lon":139.31654616},{"name":"小作台図書室","province":"東京都","city":"羽村市","address":"東京都羽村市小作台5丁目6-4","lat":35.7747202,"lon":139.30078885},{"name":"西児童館","province":"東京都","city":"羽村市","address":"羽村市小作台5-28-3","lat":35.77283,"lon":139.30299},{"name":"中央児童館","province":"東京都","city":"羽村市","address":"羽村市羽中3-6-19","lat":35.76157,"lon":139.30798},{"name":"東児童館","province":"東京都","city":"羽村市","address":"羽村市神明台3-30-2","lat":35.76001,"lon":139.32841},{"name":"東児童館","province":"東京都","city":"羽村市","address":"羽村市神明台3-30-2","lat":35.76001,"lon":139.32842},{"name":"＊?羽村市郷土博物館","province":"東京都","city":"羽村市","address":"羽村市羽741","lat":35.755144,"lon":139.303426},{"name":"＊?羽村市図書館","province":"東京都","city":"羽村市","address":"羽村市緑ヶ丘2-11-2","lat":35.764333,"lon":139.316618},{"name":"＊?羽村市図書館小作台図書室","province":"東京都","city":"羽村市","address":"羽村市小作台5-6-4","lat":35.774731,"lon":139.300783},{"name":"＊?羽村市図書館加美分室","province":"東京都","city":"羽村市","address":"羽村市羽加美3-10-12","lat":35.764221,"lon":139.302333},{"name":"＊?羽村市図書館富士見平分室","province":"東京都","city":"羽村市","address":"羽村市富士見平1-18","lat":35.765932,"lon":139.325657},{"name":"＊?羽村市図書館川崎分室","province":"東京都","city":"羽村市","address":"羽村市川崎4-2-4","lat":35.753009,"lon":139.316964},{"name":"西児童館","province":"東京都","city":"羽村市","address":"羽村市小作台5-28-3","lat":35.772834,"lon":139.3031},{"name":"中央児童館","province":"東京都","city":"羽村市","address":"羽村市羽中3-6-19","lat":35.761333,"lon":139.309227},{"name":"東児童館","province":"東京都","city":"羽村市","address":"羽村市神明台3-30-2","lat":35.760262,"lon":139.328443},{"name":"阿蘇神社本殿","province":"東京都","city":"羽村市","address":"東京都羽村市羽加美4-6-7","lat":35.762913,"lon":139.297931},{"name":"羽村市図書館","province":"東京都","city":"羽村市","address":"東京都羽村市緑ヶ丘2丁目11-2","lat":35.76440514,"lon":139.31654616},{"name":"小作台図書室","province":"東京都","city":"羽村市","address":"東京都羽村市小作台5丁目6-4","lat":35.7747202,"lon":139.30078885},{"name":"西児童館","province":"東京都","city":"羽村市","address":"羽村市小作台5-28-3","lat":35.77283,"lon":139.30299},{"name":"中央児童館","province":"東京都","city":"羽村市","address":"羽村市羽中3-6-19","lat":35.76157,"lon":139.30798},{"name":"東児童館","province":"東京都","city":"羽村市","address":"羽村市神明台3-30-2","lat":35.76001,"lon":139.32841},{"name":"東児童館","province":"東京都","city":"羽村市","address":"羽村市神明台3-30-2","lat":35.76001,"lon":139.32842},{"name":"＊?羽村市郷土博物館","province":"東京都","city":"羽村市","address":"羽村市羽741","lat":35.755144,"lon":139.303426},{"name":"＊?羽村市図書館","province":"東京都","city":"羽村市","address":"羽村市緑ヶ丘2-11-2","lat":35.764333,"lon":139.316618},{"name":"＊?羽村市図書館小作台図書室","province":"東京都","city":"羽村市","address":"羽村市小作台5-6-4","lat":35.774731,"lon":139.300783},{"name":"＊?羽村市図書館加美分室","province":"東京都","city":"羽村市","address":"羽村市羽加美3-10-12","lat":35.764221,"lon":139.302333},{"name":"＊?羽村市図書館富士見平分室","province":"東京都","city":"羽村市","address":"羽村市富士見平1-18","lat":35.765932,"lon":139.325657},{"name":"＊?羽村市図書館川崎分室","province":"東京都","city":"羽村市","address":"羽村市川崎4-2-4","lat":35.753009,"lon":139.316964},{"name":"西児童館","province":"東京都","city":"羽村市","address":"羽村市小作台5-28-3","lat":35.772834,"lon":139.3031},{"name":"中央児童館","province":"東京都","city":"羽村市","address":"羽村市羽中3-6-19","lat":35.761333,"lon":139.309227},{"name":"東児童館","province":"東京都","city":"羽村市","address":"羽村市神明台3-30-2","lat":35.760262,"lon":139.328443},{"name":"阿蘇神社本殿","province":"東京都","city":"羽村市","address":"東京都羽村市羽加美4-6-7","lat":35.762913,"lon":139.297931},{"name":"羽村市図書館","province":"東京都","city":"羽村市","address":"東京都羽村市緑ヶ丘2丁目11-2","lat":35.76440514,"lon":139.31654616},{"name":"小作台図書室","province":"東京都","city":"羽村市","address":"東京都羽村市小作台5丁目6-4","lat":35.7747202,"lon":139.30078885},{"name":"西児童館","province":"東京都","city":"羽村市","address":"羽村市小作台5-28-3","lat":35.77283,"lon":139.30299},{"name":"中央児童館","province":"東京都","city":"羽村市","address":"羽村市羽中3-6-19","lat":35.76157,"lon":139.30798},{"name":"東児童館","province":"東京都","city":"羽村市","address":"羽村市神明台3-30-2","lat":35.76001,"lon":139.32841},{"name":"東児童館","province":"東京都","city":"羽村市","address":"羽村市神明台3-30-2","lat":35.76001,"lon":139.32842},{"name":"＊?羽村市郷土博物館","province":"東京都","city":"羽村市","address":"羽村市羽741","lat":35.755144,"lon":139.303426},{"name":"＊?羽村市図書館","province":"東京都","city":"羽村市","address":"羽村市緑ヶ丘2-11-2","lat":35.764333,"lon":139.316618},{"name":"＊?羽村市図書館小作台図書室","province":"東京都","city":"羽村市","address":"羽村市小作台5-6-4","lat":35.774731,"lon":139.300783},{"name":"＊?羽村市図書館加美分室","province":"東京都","city":"羽村市","address":"羽村市羽加美3-10-12","lat":35.764221,"lon":139.302333},{"name":"＊?羽村市図書館富士見平分室","province":"東京都","city":"羽村市","address":"羽村市富士見平1-18","lat":35.765932,"lon":139.325657},{"name":"＊?羽村市図書館川崎分室","province":"東京都","city":"羽村市","address":"羽村市川崎4-2-4","lat":35.753009,"lon":139.316964},{"name":"西児童館","province":"東京都","city":"羽村市","address":"羽村市小作台5-28-3","lat":35.772834,"lon":139.3031},{"name":"中央児童館","province":"東京都","city":"羽村市","address":"羽村市羽中3-6-19","lat":35.761333,"lon":139.309227},{"name":"東児童館","province":"東京都","city":"羽村市","address":"羽村市神明台3-30-2","lat":35.760262,"lon":139.328443},{"name":"阿蘇神社本殿","province":"東京都","city":"羽村市","address":"東京都羽村市羽加美4-6-7","lat":35.762913,"lon":139.297931},{"name":"羽村市図書館","province":"東京都","city":"羽村市","address":"東京都羽村市緑ヶ丘2丁目11-2","lat":35.76440514,"lon":139.31654616},{"name":"小作台図書室","province":"東京都","city":"羽村市","address":"東京都羽村市小作台5丁目6-4","lat":35.7747202,"lon":139.30078885},{"name":"西児童館","province":"東京都","city":"羽村市","address":"羽村市小作台5-28-3","lat":35.77283,"lon":139.30299},{"name":"中央児童館","province":"東京都","city":"羽村市","address":"羽村市羽中3-6-19","lat":35.76157,"lon":139.30798},{"name":"東児童館","province":"東京都","city":"羽村市","address":"羽村市神明台3-30-2","lat":35.76001,"lon":139.32841},{"name":"東児童館","province":"東京都","city":"羽村市","address":"羽村市神明台3-30-2","lat":35.76001,"lon":139.32842},{"name":"＊?羽村市郷土博物館","province":"東京都","city":"羽村市","address":"羽村市羽741","lat":35.755144,"lon":139.303426},{"name":"＊?羽村市図書館","province":"東京都","city":"羽村市","address":"羽村市緑ヶ丘2-11-2","lat":35.764333,"lon":139.316618},{"name":"＊?羽村市図書館小作台図書室","province":"東京都","city":"羽村市","address":"羽村市小作台5-6-4","lat":35.774731,"lon":139.300783},{"name":"＊?羽村市図書館加美分室","province":"東京都","city":"羽村市","address":"羽村市羽加美3-10-12","lat":35.764221,"lon":139.302333},{"name":"＊?羽村市図書館富士見平分室","province":"東京都","city":"羽村市","address":"羽村市富士見平1-18","lat":35.765932,"lon":139.325657},{"name":"＊?羽村市図書館川崎分室","province":"東京都","city":"羽村市","address":"羽村市川崎4-2-4","lat":35.753009,"lon":139.316964},{"name":"西児童館","province":"東京都","city":"羽村市","address":"羽村市小作台5-28-3","lat":35.772834,"lon":139.3031},{"name":"中央児童館","province":"東京都","city":"羽村市","address":"羽村市羽中3-6-19","lat":35.761333,"lon":139.309227},{"name":"東児童館","province":"東京都","city":"羽村市","address":"羽村市神明台3-30-2","lat":35.760262,"lon":139.328443},{"name":"阿蘇神社本殿","province":"東京都","city":"羽村市","address":"東京都羽村市羽加美4-6-7","lat":35.762913,"lon":139.297931},{"name":"羽村市図書館","province":"東京都","city":"羽村市","address":"東京都羽村市緑ヶ丘2丁目11-2","lat":35.76440514,"lon":139.31654616},{"name":"小作台図書室","province":"東京都","city":"羽村市","address":"東京都羽村市小作台5丁目6-4","lat":35.7747202,"lon":139.30078885},{"name":"西児童館","province":"東京都","city":"羽村市","address":"羽村市小作台5-28-3","lat":35.77283,"lon":139.30299},{"name":"中央児童館","province":"東京都","city":"羽村市","address":"羽村市羽中3-6-19","lat":35.76157,"lon":139.30798},{"name":"東児童館","province":"東京都","city":"羽村市","address":"羽村市神明台3-30-2","lat":35.76001,"lon":139.32841},{"name":"東児童館","province":"東京都","city":"羽村市","address":"羽村市神明台3-30-2","lat":35.76001,"lon":139.32842},{"name":"＊?羽村市郷土博物館","province":"東京都","city":"羽村市","address":"羽村市羽741","lat":35.755144,"lon":139.303426},{"name":"＊?羽村市図書館","province":"東京都","city":"羽村市","address":"羽村市緑ヶ丘2-11-2","lat":35.764333,"lon":139.316618},{"name":"＊?羽村市図書館小作台図書室","province":"東京都","city":"羽村市","address":"羽村市小作台5-6-4","lat":35.774731,"lon":139.300783},{"name":"＊?羽村市図書館加美分室","province":"東京都","city":"羽村市","address":"羽村市羽加美3-10-12","lat":35.764221,"lon":139.302333},{"name":"＊?羽村市図書館富士見平分室","province":"東京都","city":"羽村市","address":"羽村市富士見平1-18","lat":35.765932,"lon":139.325657},{"name":"＊?羽村市図書館川崎分室","province":"東京都","city":"羽村市","address":"羽村市川崎4-2-4","lat":35.753009,"lon":139.316964},{"name":"西児童館","province":"東京都","city":"羽村市","address":"羽村市小作台5-28-3","lat":35.772834,"lon":139.3031},{"name":"中央児童館","province":"東京都","city":"羽村市","address":"羽村市羽中3-6-19","lat":35.761333,"lon":139.309227},{"name":"東児童館","province":"東京都","city":"羽村市","address":"羽村市神明台3-30-2","lat":35.760262,"lon":139.328443},{"name":"阿蘇神社本殿","province":"東京都","city":"羽村市","address":"東京都羽村市羽加美4-6-7","lat":35.762913,"lon":139.297931},{"name":"羽村市図書館","province":"東京都","city":"羽村市","address":"東京都羽村市緑ヶ丘2丁目11-2","lat":35.76440514,"lon":139.31654616},{"name":"小作台図書室","province":"東京都","city":"羽村市","address":"東京都羽村市小作台5丁目6-4","lat":35.7747202,"lon":139.30078885},{"name":"西児童館","province":"東京都","city":"羽村市","address":"羽村市小作台5-28-3","lat":35.77283,"lon":139.30299},{"name":"中央児童館","province":"東京都","city":"羽村市","address":"羽村市羽中3-6-19","lat":35.76157,"lon":139.30798},{"name":"東児童館","province":"東京都","city":"羽村市","address":"羽村市神明台3-30-2","lat":35.76001,"lon":139.32841},{"name":"東児童館","province":"東京都","city":"羽村市","address":"羽村市神明台3-30-2","lat":35.76001,"lon":139.32842},{"name":"＊?羽村市郷土博物館","province":"東京都","city":"羽村市","address":"羽村市羽741","lat":35.755144,"lon":139.303426},{"name":"＊?羽村市図書館","province":"東京都","city":"羽村市","address":"羽村市緑ヶ丘2-11-2","lat":35.764333,"lon":139.316618},{"name":"＊?羽村市図書館小作台図書室","province":"東京都","city":"羽村市","address":"羽村市小作台5-6-4","lat":35.774731,"lon":139.300783},{"name":"＊?羽村市図書館加美分室","province":"東京都","city":"羽村市","address":"羽村市羽加美3-10-12","lat":35.764221,"lon":139.302333},{"name":"＊?羽村市図書館富士見平分室","province":"東京都","city":"羽村市","address":"羽村市富士見平1-18","lat":35.765932,"lon":139.325657},{"name":"＊?羽村市図書館川崎分室","province":"東京都","city":"羽村市","address":"羽村市川崎4-2-4","lat":35.753009,"lon":139.316964},{"name":"西児童館","province":"東京都","city":"羽村市","address":"羽村市小作台5-28-3","lat":35.772834,"lon":139.3031},{"name":"中央児童館","province":"東京都","city":"羽村市","address":"羽村市羽中3-6-19","lat":35.761333,"lon":139.309227},{"name":"東児童館","province":"東京都","city":"羽村市","address":"羽村市神明台3-30-2","lat":35.760262,"lon":139.328443},{"name":"阿蘇神社本殿","province":"東京都","city":"羽村市","address":"東京都羽村市羽加美4-6-7","lat":35.762913,"lon":139.297931},{"name":"羽村市図書館","province":"東京都","city":"羽村市","address":"東京都羽村市緑ヶ丘2丁目11-2","lat":35.76440514,"lon":139.31654616},{"name":"小作台図書室","province":"東京都","city":"羽村市","address":"東京都羽村市小作台5丁目6-4","lat":35.7747202,"lon":139.30078885},{"name":"西児童館","province":"東京都","city":"羽村市","address":"羽村市小作台5-28-3","lat":35.77283,"lon":139.30299},{"name":"中央児童館","province":"東京都","city":"羽村市","address":"羽村市羽中3-6-19","lat":35.76157,"lon":139.30798},{"name":"東児童館","province":"東京都","city":"羽村市","address":"羽村市神明台3-30-2","lat":35.76001,"lon":139.32841},{"name":"東児童館","province":"東京都","city":"羽村市","address":"羽村市神明台3-30-2","lat":35.76001,"lon":139.32842},{"name":"＊?羽村市郷土博物館","province":"東京都","city":"羽村市","address":"羽村市羽741","lat":35.755144,"lon":139.303426},{"name":"＊?羽村市図書館","province":"東京都","city":"羽村市","address":"羽村市緑ヶ丘2-11-2","lat":35.764333,"lon":139.316618},{"name":"＊?羽村市図書館小作台図書室","province":"東京都","city":"羽村市","address":"羽村市小作台5-6-4","lat":35.774731,"lon":139.300783},{"name":"＊?羽村市図書館加美分室","province":"東京都","city":"羽村市","address":"羽村市羽加美3-10-12","lat":35.764221,"lon":139.302333},{"name":"＊?羽村市図書館富士見平分室","province":"東京都","city":"羽村市","address":"羽村市富士見平1-18","lat":35.765932,"lon":139.325657},{"name":"＊?羽村市図書館川崎分室","province":"東京都","city":"羽村市","address":"羽村市川崎4-2-4","lat":35.753009,"lon":139.316964},{"name":"西児童館","province":"東京都","city":"羽村市","address":"羽村市小作台5-28-3","lat":35.772834,"lon":139.3031},{"name":"中央児童館","province":"東京都","city":"羽村市","address":"羽村市羽中3-6-19","lat":35.761333,"lon":139.309227},{"name":"東児童館","province":"東京都","city":"羽村市","address":"羽村市神明台3-30-2","lat":35.760262,"lon":139.328443},{"name":"阿蘇神社本殿","province":"東京都","city":"羽村市","address":"東京都羽村市羽加美4-6-7","lat":35.762913,"lon":139.297931},{"name":"羽村市図書館","province":"東京都","city":"羽村市","address":"東京都羽村市緑ヶ丘2丁目11-2","lat":35.76440514,"lon":139.31654616},{"name":"小作台図書室","province":"東京都","city":"羽村市","address":"東京都羽村市小作台5丁目6-4","lat":35.7747202,"lon":139.30078885},{"name":"西児童館","province":"東京都","city":"羽村市","address":"羽村市小作台5-28-3","lat":35.77283,"lon":139.30299},{"name":"中央児童館","province":"東京都","city":"羽村市","address":"羽村市羽中3-6-19","lat":35.76157,"lon":139.30798},{"name":"東児童館","province":"東京都","city":"羽村市","address":"羽村市神明台3-30-2","lat":35.76001,"lon":139.32841},{"name":"東児童館","province":"東京都","city":"羽村市","address":"羽村市神明台3-30-2","lat":35.76001,"lon":139.32842},{"name":"＊?羽村市郷土博物館","province":"東京都","city":"羽村市","address":"羽村市羽741","lat":35.755144,"lon":139.303426},{"name":"＊?羽村市図書館","province":"東京都","city":"羽村市","address":"羽村市緑ヶ丘2-11-2","lat":35.764333,"lon":139.316618},{"name":"＊?羽村市図書館小作台図書室","province":"東京都","city":"羽村市","address":"羽村市小作台5-6-4","lat":35.774731,"lon":139.300783},{"name":"＊?羽村市図書館加美分室","province":"東京都","city":"羽村市","address":"羽村市羽加美3-10-12","lat":35.764221,"lon":139.302333},{"name":"＊?羽村市図書館富士見平分室","province":"東京都","city":"羽村市","address":"羽村市富士見平1-18","lat":35.765932,"lon":139.325657},{"name":"＊?羽村市図書館川崎分室","province":"東京都","city":"羽村市","address":"羽村市川崎4-2-4","lat":35.753009,"lon":139.316964},{"name":"西児童館","province":"東京都","city":"羽村市","address":"羽村市小作台5-28-3","lat":35.772834,"lon":139.3031},{"name":"中央児童館","province":"東京都","city":"羽村市","address":"羽村市羽中3-6-19","lat":35.761333,"lon":139.309227},{"name":"東児童館","province":"東京都","city":"羽村市","address":"羽村市神明台3-30-2","lat":35.760262,"lon":139.328443},{"name":"阿蘇神社本殿","province":"東京都","city":"羽村市","address":"東京都羽村市羽加美4-6-7","lat":35.762913,"lon":139.297931},{"name":"羽村市図書館","province":"東京都","city":"羽村市","address":"東京都羽村市緑ヶ丘2丁目11-2","lat":35.76440514,"lon":139.31654616},{"name":"小作台図書室","province":"東京都","city":"羽村市","address":"東京都羽村市小作台5丁目6-4","lat":35.7747202,"lon":139.30078885},{"name":"西児童館","province":"東京都","city":"羽村市","address":"羽村市小作台5-28-3","lat":35.77283,"lon":139.30299},{"name":"中央児童館","province":"東京都","city":"羽村市","address":"羽村市羽中3-6-19","lat":35.76157,"lon":139.30798},{"name":"東児童館","province":"東京都","city":"羽村市","address":"羽村市神明台3-30-2","lat":35.76001,"lon":139.32841},{"name":"東児童館","province":"東京都","city":"羽村市","address":"羽村市神明台3-30-2","lat":35.76001,"lon":139.32842},{"name":"＊?羽村市郷土博物館","province":"東京都","city":"羽村市","address":"羽村市羽741","lat":35.755144,"lon":139.303426},{"name":"＊?羽村市図書館","province":"東京都","city":"羽村市","address":"羽村市緑ヶ丘2-11-2","lat":35.764333,"lon":139.316618},{"name":"＊?羽村市図書館小作台図書室","province":"東京都","city":"羽村市","address":"羽村市小作台5-6-4","lat":35.774731,"lon":139.300783},{"name":"＊?羽村市図書館加美分室","province":"東京都","city":"羽村市","address":"羽村市羽加美3-10-12","lat":35.764221,"lon":139.302333},{"name":"＊?羽村市図書館富士見平分室","province":"東京都","city":"羽村市","address":"羽村市富士見平1-18","lat":35.765932,"lon":139.325657},{"name":"＊?羽村市図書館川崎分室","province":"東京都","city":"羽村市","address":"羽村市川崎4-2-4","lat":35.753009,"lon":139.316964},{"name":"西児童館","province":"東京都","city":"羽村市","address":"羽村市小作台5-28-3","lat":35.772834,"lon":139.3031},{"name":"中央児童館","province":"東京都","city":"羽村市","address":"羽村市羽中3-6-19","lat":35.761333,"lon":139.309227},{"name":"東児童館","province":"東京都","city":"羽村市","address":"羽村市神明台3-30-2","lat":35.760262,"lon":139.328443},{"name":"阿蘇神社本殿","province":"東京都","city":"羽村市","address":"東京都羽村市羽加美4-6-7","lat":35.762913,"lon":139.297931},{"name":"羽村市図書館","province":"東京都","city":"羽村市","address":"東京都羽村市緑ヶ丘2丁目11-2","lat":35.76440514,"lon":139.31654616},{"name":"小作台図書室","province":"東京都","city":"羽村市","address":"東京都羽村市小作台5丁目6-4","lat":35.7747202,"lon":139.30078885},{"name":"西児童館","province":"東京都","city":"羽村市","address":"羽村市小作台5-28-3","lat":35.77283,"lon":139.30299},{"name":"中央児童館","province":"東京都","city":"羽村市","address":"羽村市羽中3-6-19","lat":35.76157,"lon":139.30798},{"name":"東児童館","province":"東京都","city":"羽村市","address":"羽村市神明台3-30-2","lat":35.76001,"lon":139.32841},{"name":"東児童館","province":"東京都","city":"羽村市","address":"羽村市神明台3-30-2","lat":35.76001,"lon":139.32842},{"name":"＊?羽村市郷土博物館","province":"東京都","city":"羽村市","address":"羽村市羽741","lat":35.755144,"lon":139.303426},{"name":"＊?羽村市図書館","province":"東京都","city":"羽村市","address":"羽村市緑ヶ丘2-11-2","lat":35.764333,"lon":139.316618},{"name":"＊?羽村市図書館小作台図書室","province":"東京都","city":"羽村市","address":"羽村市小作台5-6-4","lat":35.774731,"lon":139.300783},{"name":"＊?羽村市図書館加美分室","province":"東京都","city":"羽村市","address":"羽村市羽加美3-10-12","lat":35.764221,"lon":139.302333},{"name":"＊?羽村市図書館富士見平分室","province":"東京都","city":"羽村市","address":"羽村市富士見平1-18","lat":35.765932,"lon":139.325657},{"name":"＊?羽村市図書館川崎分室","province":"東京都","city":"羽村市","address":"羽村市川崎4-2-4","lat":35.753009,"lon":139.316964},{"name":"西児童館","province":"東京都","city":"羽村市","address":"羽村市小作台5-28-3","lat":35.772834,"lon":139.3031},{"name":"中央児童館","province":"東京都","city":"羽村市","address":"羽村市羽中3-6-19","lat":35.761333,"lon":139.309227},{"name":"東児童館","province":"東京都","city":"羽村市","address":"羽村市神明台3-30-2","lat":35.760262,"lon":139.328443},{"name":"阿蘇神社本殿","province":"東京都","city":"羽村市","address":"東京都羽村市羽加美4-6-7","lat":35.762913,"lon":139.297931},{"name":"羽村市図書館","province":"東京都","city":"羽村市","address":"東京都羽村市緑ヶ丘2丁目11-2","lat":35.76440514,"lon":139.31654616},{"name":"小作台図書室","province":"東京都","city":"羽村市","address":"東京都羽村市小作台5丁目6-4","lat":35.7747202,"lon":139.30078885},{"name":"西児童館","province":"東京都","city":"羽村市","address":"羽村市小作台5-28-3","lat":35.77283,"lon":139.30299},{"name":"中央児童館","province":"東京都","city":"羽村市","address":"羽村市羽中3-6-19","lat":35.76157,"lon":139.30798},{"name":"東児童館","province":"東京都","city":"羽村市","address":"羽村市神明台3-30-2","lat":35.76001,"lon":139.32841},{"name":"東児童館","province":"東京都","city":"羽村市","address":"羽村市神明台3-30-2","lat":35.76001,"lon":139.32842},{"name":"＊?羽村市郷土博物館","province":"東京都","city":"羽村市","address":"羽村市羽741","lat":35.755144,"lon":139.303426},{"name":"＊?羽村市図書館","province":"東京都","city":"羽村市","address":"羽村市緑ヶ丘2-11-2","lat":35.764333,"lon":139.316618},{"name":"＊?羽村市図書館小作台図書室","province":"東京都","city":"羽村市","address":"羽村市小作台5-6-4","lat":35.774731,"lon":139.300783},{"name":"＊?羽村市図書館加美分室","province":"東京都","city":"羽村市","address":"羽村市羽加美3-10-12","lat":35.764221,"lon":139.302333},{"name":"＊?羽村市図書館富士見平分室","province":"東京都","city":"羽村市","address":"羽村市富士見平1-18","lat":35.765932,"lon":139.325657},{"name":"＊?羽村市図書館川崎分室","province":"東京都","city":"羽村市","address":"羽村市川崎4-2-4","lat":35.753009,"lon":139.316964},{"name":"西児童館","province":"東京都","city":"羽村市","address":"羽村市小作台5-28-3","lat":35.772834,"lon":139.3031},{"name":"中央児童館","province":"東京都","city":"羽村市","address":"羽村市羽中3-6-19","lat":35.761333,"lon":139.309227},{"name":"東児童館","province":"東京都","city":"羽村市","address":"羽村市神明台3-30-2","lat":35.760262,"lon":139.328443},{"name":"阿蘇神社本殿","province":"東京都","city":"羽村市","address":"東京都羽村市羽加美4-6-7","lat":35.762913,"lon":139.297931},{"name":"羽村市図書館","province":"東京都","city":"羽村市","address":"東京都羽村市緑ヶ丘2丁目11-2","lat":35.76440514,"lon":139.31654616},{"name":"小作台図書室","province":"東京都","city":"羽村市","address":"東京都羽村市小作台5丁目6-4","lat":35.7747202,"lon":139.30078885},{"name":"西児童館","province":"東京都","city":"羽村市","address":"羽村市小作台5-28-3","lat":35.77283,"lon":139.30299},{"name":"中央児童館","province":"東京都","city":"羽村市","address":"羽村市羽中3-6-19","lat":35.76157,"lon":139.30798},{"name":"東児童館","province":"東京都","city":"羽村市","address":"羽村市神明台3-30-2","lat":35.76001,"lon":139.32841},{"name":"東児童館","province":"東京都","city":"羽村市","address":"羽村市神明台3-30-2","lat":35.76001,"lon":139.32842},{"name":"＊?羽村市郷土博物館","province":"東京都","city":"羽村市","address":"羽村市羽741","lat":35.755144,"lon":139.303426},{"name":"＊?羽村市図書館","province":"東京都","city":"羽村市","address":"羽村市緑ヶ丘2-11-2","lat":35.764333,"lon":139.316618},{"name":"＊?羽村市図書館小作台図書室","province":"東京都","city":"羽村市","address":"羽村市小作台5-6-4","lat":35.774731,"lon":139.300783},{"name":"＊?羽村市図書館加美分室","province":"東京都","city":"羽村市","address":"羽村市羽加美3-10-12","lat":35.764221,"lon":139.302333},{"name":"＊?羽村市図書館富士見平分室","province":"東京都","city":"羽村市","address":"羽村市富士見平1-18","lat":35.765932,"lon":139.325657},{"name":"＊?羽村市図書館川崎分室","province":"東京都","city":"羽村市","address":"羽村市川崎4-2-4","lat":35.753009,"lon":139.316964},{"name":"西児童館","province":"東京都","city":"羽村市","address":"羽村市小作台5-28-3","lat":35.772834,"lon":139.3031},{"name":"中央児童館","province":"東京都","city":"羽村市","address":"羽村市羽中3-6-19","lat":35.761333,"lon":139.309227},{"name":"東児童館","province":"東京都","city":"羽村市","address":"羽村市神明台3-30-2","lat":35.760262,"lon":139.328443},{"name":"阿蘇神社本殿","province":"東京都","city":"羽村市","address":"東京都羽村市羽加美4-6-7","lat":35.762913,"lon":139.297931},{"name":"羽村市図書館","province":"東京都","city":"羽村市","address":"東京都羽村市緑ヶ丘2丁目11-2","lat":35.76440514,"lon":139.31654616},{"name":"小作台図書室","province":"東京都","city":"羽村市","address":"東京都羽村市小作台5丁目6-4","lat":35.7747202,"lon":139.30078885},{"name":"西児童館","province":"東京都","city":"羽村市","address":"羽村市小作台5-28-3","lat":35.77283,"lon":139.30299},{"name":"中央児童館","province":"東京都","city":"羽村市","address":"羽村市羽中3-6-19","lat":35.76157,"lon":139.30798},{"name":"東児童館","province":"東京都","city":"羽村市","address":"羽村市神明台3-30-2","lat":35.76001,"lon":139.32841},{"name":"東児童館","province":"東京都","city":"羽村市","address":"羽村市神明台3-30-2","lat":35.76001,"lon":139.32842},{"name":"＊?羽村市郷土博物館","province":"東京都","city":"羽村市","address":"羽村市羽741","lat":35.755144,"lon":139.303426},{"name":"＊?羽村市図書館","province":"東京都","city":"羽村市","address":"羽村市緑ヶ丘2-11-2","lat":35.764333,"lon":139.316618},{"name":"＊?羽村市図書館小作台図書室","province":"東京都","city":"羽村市","address":"羽村市小作台5-6-4","lat":35.774731,"lon":139.300783},{"name":"＊?羽村市図書館加美分室","province":"東京都","city":"羽村市","address":"羽村市羽加美3-10-12","lat":35.764221,"lon":139.302333},{"name":"＊?羽村市図書館富士見平分室","province":"東京都","city":"羽村市","address":"羽村市富士見平1-18","lat":35.765932,"lon":139.325657},{"name":"＊?羽村市図書館川崎分室","province":"東京都","city":"羽村市","address":"羽村市川崎4-2-4","lat":35.753009,"lon":139.316964},{"name":"西児童館","province":"東京都","city":"羽村市","address":"羽村市小作台5-28-3","lat":35.772834,"lon":139.3031},{"name":"中央児童館","province":"東京都","city":"羽村市","address":"羽村市羽中3-6-19","lat":35.761333,"lon":139.309227},{"name":"東児童館","province":"東京都","city":"羽村市","address":"羽村市神明台3-30-2","lat":35.760262,"lon":139.328443},{"name":"阿蘇神社本殿","province":"東京都","city":"羽村市","address":"東京都羽村市羽加美4-6-7","lat":35.762913,"lon":139.297931},{"name":"羽村市図書館","province":"東京都","city":"羽村市","address":"東京都羽村市緑ヶ丘2丁目11-2","lat":35.76440514,"lon":139.31654616},{"name":"小作台図書室","province":"東京都","city":"羽村市","address":"東京都羽村市小作台5丁目6-4","lat":35.7747202,"lon":139.30078885},{"name":"西児童館","province":"東京都","city":"羽村市","address":"羽村市小作台5-28-3","lat":35.77283,"lon":139.30299},{"name":"中央児童館","province":"東京都","city":"羽村市","address":"羽村市羽中3-6-19","lat":35.76157,"lon":139.30798},{"name":"東児童館","province":"東京都","city":"羽村市","address":"羽村市神明台3-30-2","lat":35.76001,"lon":139.32841},{"name":"東児童館","province":"東京都","city":"羽村市","address":"羽村市神明台3-30-2","lat":35.76001,"lon":139.32842},{"name":"＊?羽村市郷土博物館","province":"東京都","city":"羽村市","address":"羽村市羽741","lat":35.755144,"lon":139.303426},{"name":"＊?羽村市図書館","province":"東京都","city":"羽村市","address":"羽村市緑ヶ丘2-11-2","lat":35.764333,"lon":139.316618},{"name":"＊?羽村市図書館小作台図書室","province":"東京都","city":"羽村市","address":"羽村市小作台5-6-4","lat":35.774731,"lon":139.300783},{"name":"＊?羽村市図書館加美分室","province":"東京都","city":"羽村市","address":"羽村市羽加美3-10-12","lat":35.764221,"lon":139.302333},{"name":"＊?羽村市図書館富士見平分室","province":"東京都","city":"羽村市","address":"羽村市富士見平1-18","lat":35.765932,"lon":139.325657},{"name":"＊?羽村市図書館川崎分室","province":"東京都","city":"羽村市","address":"羽村市川崎4-2-4","lat":35.753009,"lon":139.316964},{"name":"西児童館","province":"東京都","city":"羽村市","address":"羽村市小作台5-28-3","lat":35.772834,"lon":139.3031},{"name":"中央児童館","province":"東京都","city":"羽村市","address":"羽村市羽中3-6-19","lat":35.761333,"lon":139.309227},{"name":"東児童館","province":"東京都","city":"羽村市","address":"羽村市神明台3-30-2","lat":35.760262,"lon":139.328443},{"name":"阿蘇神社本殿","province":"東京都","city":"羽村市","address":"東京都羽村市羽加美4-6-7","lat":35.762913,"lon":139.297931},{"name":"羽村市図書館","province":"東京都","city":"羽村市","address":"東京都羽村市緑ヶ丘2丁目11-2","lat":35.76440514,"lon":139.31654616},{"name":"小作台図書室","province":"東京都","city":"羽村市","address":"東京都羽村市小作台5丁目6-4","lat":35.7747202,"lon":139.30078885},{"name":"西児童館","province":"東京都","city":"羽村市","address":"羽村市小作台5-28-3","lat":35.77283,"lon":139.30299},{"name":"中央児童館","province":"東京都","city":"羽村市","address":"羽村市羽中3-6-19","lat":35.76157,"lon":139.30798},{"name":"東児童館","province":"東京都","city":"羽村市","address":"羽村市神明台3-30-2","lat":35.76001,"lon":139.32841},{"name":"東児童館","province":"東京都","city":"羽村市","address":"羽村市神明台3-30-2","lat":35.76001,"lon":139.32842},{"name":"＊?羽村市郷土博物館","province":"東京都","city":"羽村市","address":"羽村市羽741","lat":35.755144,"lon":139.303426},{"name":"＊?羽村市図書館","province":"東京都","city":"羽村市","address":"羽村市緑ヶ丘2-11-2","lat":35.764333,"lon":139.316618},{"name":"＊?羽村市図書館小作台図書室","province":"東京都","city":"羽村市","address":"羽村市小作台5-6-4","lat":35.774731,"lon":139.300783},{"name":"＊?羽村市図書館加美分室","province":"東京都","city":"羽村市","address":"羽村市羽加美3-10-12","lat":35.764221,"lon":139.302333},{"name":"＊?羽村市図書館富士見平分室","province":"東京都","city":"羽村市","address":"羽村市富士見平1-18","lat":35.765932,"lon":139.325657},{"name":"＊?羽村市図書館川崎分室","province":"東京都","city":"羽村市","address":"羽村市川崎4-2-4","lat":35.753009,"lon":139.316964},{"name":"西児童館","province":"東京都","city":"羽村市","address":"羽村市小作台5-28-3","lat":35.772834,"lon":139.3031},{"name":"中央児童館","province":"東京都","city":"羽村市","address":"羽村市羽中3-6-19","lat":35.761333,"lon":139.309227},{"name":"東児童館","province":"東京都","city":"羽村市","address":"羽村市神明台3-30-2","lat":35.760262,"lon":139.328443},{"name":"阿蘇神社本殿","province":"東京都","city":"羽村市","address":"東京都羽村市羽加美4-6-7","lat":35.762913,"lon":139.297931},{"name":"羽村市図書館","province":"東京都","city":"羽村市","address":"東京都羽村市緑ヶ丘2丁目11-2","lat":35.76440514,"lon":139.31654616},{"name":"小作台図書室","province":"東京都","city":"羽村市","address":"東京都羽村市小作台5丁目6-4","lat":35.7747202,"lon":139.30078885},{"name":"西児童館","province":"東京都","city":"羽村市","address":"羽村市小作台5-28-3","lat":35.77283,"lon":139.30299},{"name":"中央児童館","province":"東京都","city":"羽村市","address":"羽村市羽中3-6-19","lat":35.76157,"lon":139.30798},{"name":"東児童館","province":"東京都","city":"羽村市","address":"羽村市神明台3-30-2","lat":35.76001,"lon":139.32841},{"name":"東児童館","province":"東京都","city":"羽村市","address":"羽村市神明台3-30-2","lat":35.76001,"lon":139.32842},{"name":"＊?羽村市郷土博物館","province":"東京都","city":"羽村市","address":"羽村市羽741","lat":35.755144,"lon":139.303426},{"name":"＊?羽村市図書館","province":"東京都","city":"羽村市","address":"羽村市緑ヶ丘2-11-2","lat":35.764333,"lon":139.316618},{"name":"＊?羽村市図書館小作台図書室","province":"東京都","city":"羽村市","address":"羽村市小作台5-6-4","lat":35.774731,"lon":139.300783},{"name":"＊?羽村市図書館加美分室","province":"東京都","city":"羽村市","address":"羽村市羽加美3-10-12","lat":35.764221,"lon":139.302333},{"name":"＊?羽村市図書館富士見平分室","province":"東京都","city":"羽村市","address":"羽村市富士見平1-18","lat":35.765932,"lon":139.325657},{"name":"＊?羽村市図書館川崎分室","province":"東京都","city":"羽村市","address":"羽村市川崎4-2-4","lat":35.753009,"lon":139.316964},{"name":"西児童館","province":"東京都","city":"羽村市","address":"羽村市小作台5-28-3","lat":35.772834,"lon":139.3031},{"name":"中央児童館","province":"東京都","city":"羽村市","address":"羽村市羽中3-6-19","lat":35.761333,"lon":139.309227},{"name":"東児童館","province":"東京都","city":"羽村市","address":"羽村市神明台3-30-2","lat":35.760262,"lon":139.328443},{"name":"阿蘇神社本殿","province":"東京都","city":"羽村市","address":"東京都羽村市羽加美4-6-7","lat":35.762913,"lon":139.297931},{"name":"羽村市図書館","province":"東京都","city":"羽村市","address":"東京都羽村市緑ヶ丘2丁目11-2","lat":35.76440514,"lon":139.31654616},{"name":"小作台図書室","province":"東京都","city":"羽村市","address":"東京都羽村市小作台5丁目6-4","lat":35.7747202,"lon":139.30078885},{"name":"西児童館","province":"東京都","city":"羽村市","address":"羽村市小作台5-28-3","lat":35.77283,"lon":139.30299},{"name":"中央児童館","province":"東京都","city":"羽村市","address":"羽村市羽中3-6-19","lat":35.76157,"lon":139.30798},{"name":"東児童館","province":"東京都","city":"羽村市","address":"羽村市神明台3-30-2","lat":35.76001,"lon":139.32841},{"name":"東児童館","province":"東京都","city":"羽村市","address":"羽村市神明台3-30-2","lat":35.76001,"lon":139.32842},{"name":"＊?羽村市郷土博物館","province":"東京都","city":"羽村市","address":"羽村市羽741","lat":35.755144,"lon":139.303426},{"name":"＊?羽村市図書館","province":"東京都","city":"羽村市","address":"羽村市緑ヶ丘2-11-2","lat":35.764333,"lon":139.316618},{"name":"＊?羽村市図書館小作台図書室","province":"東京都","city":"羽村市","address":"羽村市小作台5-6-4","lat":35.774731,"lon":139.300783},{"name":"＊?羽村市図書館加美分室","province":"東京都","city":"羽村市","address":"羽村市羽加美3-10-12","lat":35.764221,"lon":139.302333},{"name":"＊?羽村市図書館富士見平分室","province":"東京都","city":"羽村市","address":"羽村市富士見平1-18","lat":35.765932,"lon":139.325657},{"name":"＊?羽村市図書館川崎分室","province":"東京都","city":"羽村市","address":"羽村市川崎4-2-4","lat":35.753009,"lon":139.316964},{"name":"西児童館","province":"東京都","city":"羽村市","address":"羽村市小作台5-28-3","lat":35.772834,"lon":139.3031},{"name":"中央児童館","province":"東京都","city":"羽村市","address":"羽村市羽中3-6-19","lat":35.761333,"lon":139.309227},{"name":"東児童館","province":"東京都","city":"羽村市","address":"羽村市神明台3-30-2","lat":35.760262,"lon":139.328443},{"name":"阿蘇神社本殿","province":"東京都","city":"羽村市","address":"東京都羽村市羽加美4-6-7","lat":35.762913,"lon":139.297931},{"name":"羽村市図書館","province":"東京都","city":"羽村市","address":"東京都羽村市緑ヶ丘2丁目11-2","lat":35.76440514,"lon":139.31654616},{"name":"小作台図書室","province":"東京都","city":"羽村市","address":"東京都羽村市小作台5丁目6-4","lat":35.7747202,"lon":139.30078885},{"name":"西児童館","province":"東京都","city":"羽村市","address":"羽村市小作台5-28-3","lat":35.77283,"lon":139.30299},{"name":"中央児童館","province":"東京都","city":"羽村市","address":"羽村市羽中3-6-19","lat":35.76157,"lon":139.30798},{"name":"東児童館","province":"東京都","city":"羽村市","address":"羽村市神明台3-30-2","lat":35.76001,"lon":139.32841},{"name":"東児童館","province":"東京都","city":"羽村市","address":"羽村市神明台3-30-2","lat":35.76001,"lon":139.32842},{"name":"＊?羽村市郷土博物館","province":"東京都","city":"羽村市","address":"羽村市羽741","lat":35.755144,"lon":139.303426},{"name":"＊?羽村市図書館","province":"東京都","city":"羽村市","address":"羽村市緑ヶ丘2-11-2","lat":35.764333,"lon":139.316618},{"name":"＊?羽村市図書館小作台図書室","province":"東京都","city":"羽村市","address":"羽村市小作台5-6-4","lat":35.774731,"lon":139.300783},{"name":"＊?羽村市図書館加美分室","province":"東京都","city":"羽村市","address":"羽村市羽加美3-10-12","lat":35.764221,"lon":139.302333},{"name":"＊?羽村市図書館富士見平分室","province":"東京都","city":"羽村市","address":"羽村市富士見平1-18","lat":35.765932,"lon":139.325657},{"name":"＊?羽村市図書館川崎分室","province":"東京都","city":"羽村市","address":"羽村市川崎4-2-4","lat":35.753009,"lon":139.316964},{"name":"西児童館","province":"東京都","city":"羽村市","address":"羽村市小作台5-28-3","lat":35.772834,"lon":139.3031},{"name":"中央児童館","province":"東京都","city":"羽村市","address":"羽村市羽中3-6-19","lat":35.761333,"lon":139.309227},{"name":"東児童館","province":"東京都","city":"羽村市","address":"羽村市神明台3-30-2","lat":35.760262,"lon":139.328443},{"name":"阿蘇神社本殿","province":"東京都","city":"羽村市","address":"東京都羽村市羽加美4-6-7","lat":35.762913,"lon":139.297931},{"name":"羽村市図書館","province":"東京都","city":"羽村市","address":"東京都羽村市緑ヶ丘2丁目11-2","lat":35.76440514,"lon":139.31654616},{"name":"小作台図書室","province":"東京都","city":"羽村市","address":"東京都羽村市小作台5丁目6-4","lat":35.7747202,"lon":139.30078885},{"name":"西児童館","province":"東京都","city":"羽村市","address":"羽村市小作台5-28-3","lat":35.77283,"lon":139.30299},{"name":"中央児童館","province":"東京都","city":"羽村市","address":"羽村市羽中3-6-19","lat":35.76157,"lon":139.30798},{"name":"東児童館","province":"東京都","city":"羽村市","address":"羽村市神明台3-30-2","lat":35.76001,"lon":139.32841},{"name":"東児童館","province":"東京都","city":"羽村市","address":"羽村市神明台3-30-2","lat":35.76001,"lon":139.32842},{"name":"＊?羽村市郷土博物館","province":"東京都","city":"羽村市","address":"羽村市羽741","lat":35.755144,"lon":139.303426},{"name":"＊?羽村市図書館","province":"東京都","city":"羽村市","address":"羽村市緑ヶ丘2-11-2","lat":35.764333,"lon":139.316618},{"name":"＊?羽村市図書館小作台図書室","province":"東京都","city":"羽村市","address":"羽村市小作台5-6-4","lat":35.774731,"lon":139.300783},{"name":"＊?羽村市図書館加美分室","province":"東京都","city":"羽村市","address":"羽村市羽加美3-10-12","lat":35.764221,"lon":139.302333},{"name":"＊?羽村市図書館富士見平分室","province":"東京都","city":"羽村市","address":"羽村市富士見平1-18","lat":35.765932,"lon":139.325657},{"name":"＊?羽村市図書館川崎分室","province":"東京都","city":"羽村市","address":"羽村市川崎4-2-4","lat":35.753009,"lon":139.316964},{"name":"西児童館","province":"東京都","city":"羽村市","address":"羽村市小作台5-28-3","lat":35.772834,"lon":139.3031},{"name":"中央児童館","province":"東京都","city":"羽村市","address":"羽村市羽中3-6-19","lat":35.761333,"lon":139.309227},{"name":"東児童館","province":"東京都","city":"羽村市","address":"羽村市神明台3-30-2","lat":35.760262,"lon":139.328443},{"name":"阿蘇神社本殿","province":"東京都","city":"羽村市","address":"東京都羽村市羽加美4-6-7","lat":35.762913,"lon":139.297931},{"name":"羽村市図書館","province":"東京都","city":"羽村市","address":"東京都羽村市緑ヶ丘2丁目11-2","lat":35.76440514,"lon":139.31654616},{"name":"小作台図書室","province":"東京都","city":"羽村市","address":"東京都羽村市小作台5丁目6-4","lat":35.7747202,"lon":139.30078885},{"name":"西児童館","province":"東京都","city":"羽村市","address":"羽村市小作台5-28-3","lat":35.77283,"lon":139.30299},{"name":"中央児童館","province":"東京都","city":"羽村市","address":"羽村市羽中3-6-19","lat":35.76157,"lon":139.30798},{"name":"東児童館","province":"東京都","city":"羽村市","address":"羽村市神明台3-30-2","lat":35.76001,"lon":139.32841},{"name":"東児童館","province":"東京都","city":"羽村市","address":"羽村市神明台3-30-2","lat":35.76001,"lon":139.32842},{"name":"＊?羽村市郷土博物館","province":"東京都","city":"羽村市","address":"羽村市羽741","lat":35.755144,"lon":139.303426},{"name":"＊?羽村市図書館","province":"東京都","city":"羽村市","address":"羽村市緑ヶ丘2-11-2","lat":35.764333,"lon":139.316618},{"name":"＊?羽村市図書館小作台図書室","province":"東京都","city":"羽村市","address":"羽村市小作台5-6-4","lat":35.774731,"lon":139.300783},{"name":"＊?羽村市図書館加美分室","province":"東京都","city":"羽村市","address":"羽村市羽加美3-10-12","lat":35.764221,"lon":139.302333},{"name":"＊?羽村市図書館富士見平分室","province":"東京都","city":"羽村市","address":"羽村市富士見平1-18","lat":35.765932,"lon":139.325657},{"name":"＊?羽村市図書館川崎分室","province":"東京都","city":"羽村市","address":"羽村市川崎4-2-4","lat":35.753009,"lon":139.316964},{"name":"西児童館","province":"東京都","city":"羽村市","address":"羽村市小作台5-28-3","lat":35.772834,"lon":139.3031},{"name":"中央児童館","province":"東京都","city":"羽村市","address":"羽村市羽中3-6-19","lat":35.761333,"lon":139.309227},{"name":"東児童館","province":"東京都","city":"羽村市","address":"羽村市神明台3-30-2","lat":35.760262,"lon":139.328443},{"name":"阿蘇神社本殿","province":"東京都","city":"羽村市","address":"東京都羽村市羽加美4-6-7","lat":35.762913,"lon":139.297931},{"name":"羽村市図書館","province":"東京都","city":"羽村市","address":"東京都羽村市緑ヶ丘2丁目11-2","lat":35.76440514,"lon":139.31654616},{"name":"小作台図書室","province":"東京都","city":"羽村市","address":"東京都羽村市小作台5丁目6-4","lat":35.7747202,"lon":139.30078885},{"name":"西児童館","province":"東京都","city":"羽村市","address":"羽村市小作台5-28-3","lat":35.77283,"lon":139.30299},{"name":"中央児童館","province":"東京都","city":"羽村市","address":"羽村市羽中3-6-19","lat":35.76157,"lon":139.30798},{"name":"東児童館","province":"東京都","city":"羽村市","address":"羽村市神明台3-30-2","lat":35.76001,"lon":139.32841},{"name":"東児童館","province":"東京都","city":"羽村市","address":"羽村市神明台3-30-2","lat":35.76001,"lon":139.32842},{"name":"＊?羽村市郷土博物館","province":"東京都","city":"羽村市","address":"羽村市羽741","lat":35.755144,"lon":139.303426},{"name":"＊?羽村市図書館","province":"東京都","city":"羽村市","address":"羽村市緑ヶ丘2-11-2","lat":35.764333,"lon":139.316618},{"name":"＊?羽村市図書館小作台図書室","province":"東京都","city":"羽村市","address":"羽村市小作台5-6-4","lat":35.774731,"lon":139.300783},{"name":"＊?羽村市図書館加美分室","province":"東京都","city":"羽村市","address":"羽村市羽加美3-10-12","lat":35.764221,"lon":139.302333},{"name":"＊?羽村市図書館富士見平分室","province":"東京都","city":"羽村市","address":"羽村市富士見平1-18","lat":35.765932,"lon":139.325657},{"name":"＊?羽村市図書館川崎分室","province":"東京都","city":"羽村市","address":"羽村市川崎4-2-4","lat":35.753009,"lon":139.316964},{"name":"西児童館","province":"東京都","city":"羽村市","address":"羽村市小作台5-28-3","lat":35.772834,"lon":139.3031},{"name":"中央児童館","province":"東京都","city":"羽村市","address":"羽村市羽中3-6-19","lat":35.761333,"lon":139.309227},{"name":"東児童館","province":"東京都","city":"羽村市","address":"羽村市神明台3-30-2","lat":35.760262,"lon":139.328443},{"name":"阿蘇神社本殿","province":"東京都","city":"羽村市","address":"東京都羽村市羽加美4-6-7","lat":35.762913,"lon":139.297931},{"name":"羽村市図書館","province":"東京都","city":"羽村市","address":"東京都羽村市緑ヶ丘2丁目11-2","lat":35.76440514,"lon":139.31654616},{"name":"小作台図書室","province":"東京都","city":"羽村市","address":"東京都羽村市小作台5丁目6-4","lat":35.7747202,"lon":139.30078885},{"name":"西児童館","province":"東京都","city":"羽村市","address":"羽村市小作台5-28-3","lat":35.77283,"lon":139.30299},{"name":"中央児童館","province":"東京都","city":"羽村市","address":"羽村市羽中3-6-19","lat":35.76157,"lon":139.30798},{"name":"東児童館","province":"東京都","city":"羽村市","address":"羽村市神明台3-30-2","lat":35.76001,"lon":139.32841},{"name":"東児童館","province":"東京都","city":"羽村市","address":"羽村市神明台3-30-2","lat":35.76001,"lon":139.32842},{"name":"＊?羽村市郷土博物館","province":"東京都","city":"羽村市","address":"羽村市羽741","lat":35.755144,"lon":139.303426},{"name":"＊?羽村市図書館","province":"東京都","city":"羽村市","address":"羽村市緑ヶ丘2-11-2","lat":35.764333,"lon":139.316618},{"name":"＊?羽村市図書館小作台図書室","province":"東京都","city":"羽村市","address":"羽村市小作台5-6-4","lat":35.774731,"lon":139.300783},{"name":"＊?羽村市図書館加美分室","province":"東京都","city":"羽村市","address":"羽村市羽加美3-10-12","lat":35.764221,"lon":139.302333},{"name":"＊?羽村市図書館富士見平分室","province":"東京都","city":"羽村市","address":"羽村市富士見平1-18","lat":35.765932,"lon":139.325657},{"name":"＊?羽村市図書館川崎分室","province":"東京都","city":"羽村市","address":"羽村市川崎4-2-4","lat":35.753009,"lon":139.316964},{"name":"西児童館","province":"東京都","city":"羽村市","address":"羽村市小作台5-28-3","lat":35.772834,"lon":139.3031},{"name":"中央児童館","province":"東京都","city":"羽村市","address":"羽村市羽中3-6-19","lat":35.761333,"lon":139.309227},{"name":"東児童館","province":"東京都","city":"羽村市","address":"羽村市神明台3-30-2","lat":35.760262,"lon":139.328443},{"name":"阿蘇神社本殿","province":"東京都","city":"羽村市","address":"東京都羽村市羽加美4-6-7","lat":35.762913,"lon":139.297931},{"name":"羽村市図書館","province":"東京都","city":"羽村市","address":"東京都羽村市緑ヶ丘2丁目11-2","lat":35.76440514,"lon":139.31654616},{"name":"小作台図書室","province":"東京都","city":"羽村市","address":"東京都羽村市小作台5丁目6-4","lat":35.7747202,"lon":139.30078885},{"name":"西児童館","province":"東京都","city":"羽村市","address":"羽村市小作台5-28-3","lat":35.77283,"lon":139.30299},{"name":"中央児童館","province":"東京都","city":"羽村市","address":"羽村市羽中3-6-19","lat":35.76157,"lon":139.30798},{"name":"東児童館","province":"東京都","city":"羽村市","address":"羽村市神明台3-30-2","lat":35.76001,"lon":139.32841},{"name":"東児童館","province":"東京都","city":"羽村市","address":"羽村市神明台3-30-2","lat":35.76001,"lon":139.32842},{"name":"＊?羽村市郷土博物館","province":"東京都","city":"羽村市","address":"羽村市羽741","lat":35.755144,"lon":139.303426},{"name":"＊?羽村市図書館","province":"東京都","city":"羽村市","address":"羽村市緑ヶ丘2-11-2","lat":35.764333,"lon":139.316618},{"name":"＊?羽村市図書館小作台図書室","province":"東京都","city":"羽村市","address":"羽村市小作台5-6-4","lat":35.774731,"lon":139.300783},{"name":"＊?羽村市図書館加美分室","province":"東京都","city":"羽村市","address":"羽村市羽加美3-10-12","lat":35.764221,"lon":139.302333},{"name":"＊?羽村市図書館富士見平分室","province":"東京都","city":"羽村市","address":"羽村市富士見平1-18","lat":35.765932,"lon":139.325657},{"name":"＊?羽村市図書館川崎分室","province":"東京都","city":"羽村市","address":"羽村市川崎4-2-4","lat":35.753009,"lon":139.316964},{"name":"西児童館","province":"東京都","city":"羽村市","address":"羽村市小作台5-28-3","lat":35.772834,"lon":139.3031},{"name":"中央児童館","province":"東京都","city":"羽村市","address":"羽村市羽中3-6-19","lat":35.761333,"lon":139.309227},{"name":"東児童館","province":"東京都","city":"羽村市","address":"羽村市神明台3-30-2","lat":35.760262,"lon":139.328443},{"name":"阿蘇神社本殿","province":"東京都","city":"羽村市","address":"東京都羽村市羽加美4-6-7","lat":35.762913,"lon":139.297931},{"name":"羽村市図書館","province":"東京都","city":"羽村市","address":"東京都羽村市緑ヶ丘2丁目11-2","lat":35.76440514,"lon":139.31654616},{"name":"小作台図書室","province":"東京都","city":"羽村市","address":"東京都羽村市小作台5丁目6-4","lat":35.7747202,"lon":139.30078885},{"name":"西児童館","province":"東京都","city":"羽村市","address":"羽村市小作台5-28-3","lat":35.77283,"lon":139.30299},{"name":"中央児童館","province":"東京都","city":"羽村市","address":"羽村市羽中3-6-19","lat":35.76157,"lon":139.30798},{"name":"東児童館","province":"東京都","city":"羽村市","address":"羽村市神明台3-30-2","lat":35.76001,"lon":139.32841},{"name":"東児童館","province":"東京都","city":"羽村市","address":"羽村市神明台3-30-2","lat":35.76001,"lon":139.32842},{"name":"＊?羽村市郷土博物館","province":"東京都","city":"羽村市","address":"羽村市羽741","lat":35.755144,"lon":139.303426},{"name":"＊?羽村市図書館","province":"東京都","city":"羽村市","address":"羽村市緑ヶ丘2-11-2","lat":35.764333,"lon":139.316618},{"name":"＊?羽村市図書館小作台図書室","province":"東京都","city":"羽村市","address":"羽村市小作台5-6-4","lat":35.774731,"lon":139.300783},{"name":"＊?羽村市図書館加美分室","province":"東京都","city":"羽村市","address":"羽村市羽加美3-10-12","lat":35.764221,"lon":139.302333},{"name":"＊?羽村市図書館富士見平分室","province":"東京都","city":"羽村市","address":"羽村市富士見平1-18","lat":35.765932,"lon":139.325657},{"name":"＊?羽村市図書館川崎分室","province":"東京都","city":"羽村市","address":"羽村市川崎4-2-4","lat":35.753009,"lon":139.316964},{"name":"西児童館","province":"東京都","city":"羽村市","address":"羽村市小作台5-28-3","lat":35.772834,"lon":139.3031},{"name":"中央児童館","province":"東京都","city":"羽村市","address":"羽村市羽中3-6-19","lat":35.761333,"lon":139.309227},{"name":"東児童館","province":"東京都","city":"羽村市","address":"羽村市神明台3-30-2","lat":35.760262,"lon":139.328443},{"name":"阿蘇神社本殿","province":"東京都","city":"羽村市","address":"東京都羽村市羽加美4-6-7","lat":35.762913,"lon":139.297931},{"name":"羽村市図書館","province":"東京都","city":"羽村市","address":"東京都羽村市緑ヶ丘2丁目11-2","lat":35.76440514,"lon":139.31654616},{"name":"小作台図書室","province":"東京都","city":"羽村市","address":"東京都羽村市小作台5丁目6-4","lat":35.7747202,"lon":139.30078885},{"name":"西児童館","province":"東京都","city":"羽村市","address":"羽村市小作台5-28-3","lat":35.77283,"lon":139.30299},{"name":"中央児童館","province":"東京都","city":"羽村市","address":"羽村市羽中3-6-19","lat":35.76157,"lon":139.30798},{"name":"東児童館","province":"東京都","city":"羽村市","address":"羽村市神明台3-30-2","lat":35.76001,"lon":139.32841},{"name":"東児童館","province":"東京都","city":"羽村市","address":"羽村市神明台3-30-2","lat":35.76001,"lon":139.32842},{"name":"＊?羽村市郷土博物館","province":"東京都","city":"羽村市","address":"羽村市羽741","lat":35.755144,"lon":139.303426},{"name":"＊?羽村市図書館","province":"東京都","city":"羽村市","address":"羽村市緑ヶ丘2-11-2","lat":35.764333,"lon":139.316618},{"name":"＊?羽村市図書館小作台図書室","province":"東京都","city":"羽村市","address":"羽村市小作台5-6-4","lat":35.774731,"lon":139.300783},{"name":"＊?羽村市図書館加美分室","province":"東京都","city":"羽村市","address":"羽村市羽加美3-10-12","lat":35.764221,"lon":139.302333},{"name":"＊?羽村市図書館富士見平分室","province":"東京都","city":"羽村市","address":"羽村市富士見平1-18","lat":35.765932,"lon":139.325657},{"name":"＊?羽村市図書館川崎分室","province":"東京都","city":"羽村市","address":"羽村市川崎4-2-4","lat":35.753009,"lon":139.316964},{"name":"西児童館","province":"東京都","city":"羽村市","address":"羽村市小作台5-28-3","lat":35.772834,"lon":139.3031},{"name":"中央児童館","province":"東京都","city":"羽村市","address":"羽村市羽中3-6-19","lat":35.761333,"lon":139.309227},{"name":"東児童館","province":"東京都","city":"羽村市","address":"羽村市神明台3-30-2","lat":35.760262,"lon":139.328443},{"name":"阿蘇神社本殿","province":"東京都","city":"羽村市","address":"東京都羽村市羽加美4-6-7","lat":35.762913,"lon":139.297931},{"name":"羽村市図書館","province":"東京都","city":"羽村市","address":"東京都羽村市緑ヶ丘2丁目11-2","lat":35.76440514,"lon":139.31654616},{"name":"小作台図書室","province":"東京都","city":"羽村市","address":"東京都羽村市小作台5丁目6-4","lat":35.7747202,"lon":139.30078885},{"name":"西児童館","province":"東京都","city":"羽村市","address":"羽村市小作台5-28-3","lat":35.77283,"lon":139.30299},{"name":"中央児童館","province":"東京都","city":"羽村市","address":"羽村市羽中3-6-19","lat":35.76157,"lon":139.30798},{"name":"東児童館","province":"東京都","city":"羽村市","address":"羽村市神明台3-30-2","lat":35.76001,"lon":139.32841},{"name":"東児童館","province":"東京都","city":"羽村市","address":"羽村市神明台3-30-2","lat":35.76001,"lon":139.32842},{"name":"＊?羽村市郷土博物館","province":"東京都","city":"羽村市","address":"羽村市羽741","lat":35.755144,"lon":139.303426},{"name":"＊?羽村市図書館","province":"東京都","city":"羽村市","address":"羽村市緑ヶ丘2-11-2","lat":35.764333,"lon":139.316618},{"name":"＊?羽村市図書館小作台図書室","province":"東京都","city":"羽村市","address":"羽村市小作台5-6-4","lat":35.774731,"lon":139.300783},{"name":"＊?羽村市図書館加美分室","province":"東京都","city":"羽村市","address":"羽村市羽加美3-10-12","lat":35.764221,"lon":139.302333},{"name":"＊?羽村市図書館富士見平分室","province":"東京都","city":"羽村市","address":"羽村市富士見平1-18","lat":35.765932,"lon":139.325657},{"name":"＊?羽村市図書館川崎分室","province":"東京都","city":"羽村市","address":"羽村市川崎4-2-4","lat":35.753009,"lon":139.316964},{"name":"西児童館","province":"東京都","city":"羽村市","address":"羽村市小作台5-28-3","lat":35.772834,"lon":139.3031},{"name":"中央児童館","province":"東京都","city":"羽村市","address":"羽村市羽中3-6-19","lat":35.761333,"lon":139.309227},{"name":"東児童館","province":"東京都","city":"羽村市","address":"羽村市神明台3-30-2","lat":35.760262,"lon":139.328443},{"name":"阿蘇神社本殿","province":"東京都","city":"羽村市","address":"東京都羽村市羽加美4-6-7","lat":35.762913,"lon":139.297931},{"name":"羽村市図書館","province":"東京都","city":"羽村市","address":"東京都羽村市緑ヶ丘2丁目11-2","lat":35.76440514,"lon":139.31654616},{"name":"小作台図書室","province":"東京都","city":"羽村市","address":"東京都羽村市小作台5丁目6-4","lat":35.7747202,"lon":139.30078885},{"name":"西児童館","province":"東京都","city":"羽村市","address":"羽村市小作台5-28-3","lat":35.77283,"lon":139.30299},{"name":"中央児童館","province":"東京都","city":"羽村市","address":"羽村市羽中3-6-19","lat":35.76157,"lon":139.30798},{"name":"東児童館","province":"東京都","city":"羽村市","address":"羽村市神明台3-30-2","lat":35.76001,"lon":139.32841},{"name":"東児童館","province":"東京都","city":"羽村市","address":"羽村市神明台3-30-2","lat":35.76001,"lon":139.32842},{"name":"＊?羽村市郷土博物館","province":"東京都","city":"羽村市","address":"羽村市羽741","lat":35.755144,"lon":139.303426},{"name":"＊?羽村市図書館","province":"東京都","city":"羽村市","address":"羽村市緑ヶ丘2-11-2","lat":35.764333,"lon":139.316618},{"name":"＊?羽村市図書館小作台図書室","province":"東京都","city":"羽村市","address":"羽村市小作台5-6-4","lat":35.774731,"lon":139.300783},{"name":"＊?羽村市図書館加美分室","province":"東京都","city":"羽村市","address":"羽村市羽加美3-10-12","lat":35.764221,"lon":139.302333},{"name":"＊?羽村市図書館富士見平分室","province":"東京都","city":"羽村市","address":"羽村市富士見平1-18","lat":35.765932,"lon":139.325657},{"name":"＊?羽村市図書館川崎分室","province":"東京都","city":"羽村市","address":"羽村市川崎4-2-4","lat":35.753009,"lon":139.316964},{"name":"西児童館","province":"東京都","city":"羽村市","address":"羽村市小作台5-28-3","lat":35.772834,"lon":139.3031},{"name":"中央児童館","province":"東京都","city":"羽村市","address":"羽村市羽中3-6-19","lat":35.761333,"lon":139.309227},{"name":"東児童館","province":"東京都","city":"羽村市","address":"羽村市神明台3-30-2","lat":35.760262,"lon":139.328443},{"name":"阿蘇神社本殿","province":"東京都","city":"羽村市","address":"東京都羽村市羽加美4-6-7","lat":35.762913,"lon":139.297931},{"name":"羽村市図書館","province":"東京都","city":"羽村市","address":"東京都羽村市緑ヶ丘2丁目11-2","lat":35.76440514,"lon":139.31654616},{"name":"小作台図書室","province":"東京都","city":"羽村市","address":"東京都羽村市小作台5丁目6-4","lat":35.7747202,"lon":139.30078885},{"name":"西児童館","province":"東京都","city":"羽村市","address":"羽村市小作台5-28-3","lat":35.77283,"lon":139.30299},{"name":"中央児童館","province":"東京都","city":"羽村市","address":"羽村市羽中3-6-19","lat":35.76157,"lon":139.30798},{"name":"東児童館","province":"東京都","city":"羽村市","address":"羽村市神明台3-30-2","lat":35.76001,"lon":139.32841},{"name":"東児童館","province":"東京都","city":"羽村市","address":"羽村市神明台3-30-2","lat":35.76001,"lon":139.32842},{"name":"＊?羽村市郷土博物館","province":"東京都","city":"羽村市","address":"羽村市羽741","lat":35.755144,"lon":139.303426},{"name":"＊?羽村市図書館","province":"東京都","city":"羽村市","address":"羽村市緑ヶ丘2-11-2","lat":35.764333,"lon":139.316618},{"name":"＊?羽村市図書館小作台図書室","province":"東京都","city":"羽村市","address":"羽村市小作台5-6-4","lat":35.774731,"lon":139.300783},{"name":"＊?羽村市図書館加美分室","province":"東京都","city":"羽村市","address":"羽村市羽加美3-10-12","lat":35.764221,"lon":139.302333},{"name":"＊?羽村市図書館富士見平分室","province":"東京都","city":"羽村市","address":"羽村市富士見平1-18","lat":35.765932,"lon":139.325657},{"name":"＊?羽村市図書館川崎分室","province":"東京都","city":"羽村市","address":"羽村市川崎4-2-4","lat":35.753009,"lon":139.316964},{"name":"西児童館","province":"東京都","city":"羽村市","address":"羽村市小作台5-28-3","lat":35.772834,"lon":139.3031},{"name":"中央児童館","province":"東京都","city":"羽村市","address":"羽村市羽中3-6-19","lat":35.761333,"lon":139.309227},{"name":"東児童館","province":"東京都","city":"羽村市","address":"羽村市神明台3-30-2","lat":35.760262,"lon":139.328443},{"name":"阿蘇神社本殿","province":"東京都","city":"羽村市","address":"東京都羽村市羽加美4-6-7","lat":35.762913,"lon":139.297931},{"name":"羽村市図書館","province":"東京都","city":"羽村市","address":"東京都羽村市緑ヶ丘2丁目11-2","lat":35.76440514,"lon":139.31654616},{"name":"小作台図書室","province":"東京都","city":"羽村市","address":"東京都羽村市小作台5丁目6-4","lat":35.7747202,"lon":139.30078885},{"name":"西児童館","province":"東京都","city":"羽村市","address":"羽村市小作台5-28-3","lat":35.77283,"lon":139.30299},{"name":"中央児童館","province":"東京都","city":"羽村市","address":"羽村市羽中3-6-19","lat":35.76157,"lon":139.30798},{"name":"東児童館","province":"東京都","city":"羽村市","address":"羽村市神明台3-30-2","lat":35.76001,"lon":139.32841},{"name":"東児童館","province":"東京都","city":"羽村市","address":"羽村市神明台3-30-2","lat":35.76001,"lon":139.32842},{"name":"＊?羽村市郷土博物館","province":"東京都","city":"羽村市","address":"羽村市羽741","lat":35.755144,"lon":139.303426},{"name":"＊?羽村市図書館","province":"東京都","city":"羽村市","address":"羽村市緑ヶ丘2-11-2","lat":35.764333,"lon":139.316618},{"name":"＊?羽村市図書館小作台図書室","province":"東京都","city":"羽村市","address":"羽村市小作台5-6-4","lat":35.774731,"lon":139.300783},{"name":"＊?羽村市図書館加美分室","province":"東京都","city":"羽村市","address":"羽村市羽加美3-10-12","lat":35.764221,"lon":139.302333},{"name":"＊?羽村市図書館富士見平分室","province":"東京都","city":"羽村市","address":"羽村市富士見平1-18","lat":35.765932,"lon":139.325657},{"name":"＊?羽村市図書館川崎分室","province":"東京都","city":"羽村市","address":"羽村市川崎4-2-4","lat":35.753009,"lon":139.316964},{"name":"西児童館","province":"東京都","city":"羽村市","address":"羽村市小作台5-28-3","lat":35.772834,"lon":139.3031},{"name":"中央児童館","province":"東京都","city":"羽村市","address":"羽村市羽中3-6-19","lat":35.761333,"lon":139.309227},{"name":"東児童館","province":"東京都","city":"羽村市","address":"羽村市神明台3-30-2","lat":35.760262,"lon":139.328443},{"name":"阿蘇神社本殿","province":"東京都","city":"羽村市","address":"東京都羽村市羽加美4-6-7","lat":35.762913,"lon":139.297931},{"name":"羽村市図書館","province":"東京都","city":"羽村市","address":"東京都羽村市緑ヶ丘2丁目11-2","lat":35.76440514,"lon":139.31654616},{"name":"小作台図書室","province":"東京都","city":"羽村市","address":"東京都羽村市小作台5丁目6-4","lat":35.7747202,"lon":139.30078885},{"name":"西児童館","province":"東京都","city":"羽村市","address":"羽村市小作台5-28-3","lat":35.77283,"lon":139.30299},{"name":"中央児童館","province":"東京都","city":"羽村市","address":"羽村市羽中3-6-19","lat":35.76157,"lon":139.30798},{"name":"東児童館","province":"東京都","city":"羽村市","address":"羽村市神明台3-30-2","lat":35.76001,"lon":139.32841},{"name":"東児童館","province":"東京都","city":"羽村市","address":"羽村市神明台3-30-2","lat":35.76001,"lon":139.32842},{"name":"＊?羽村市郷土博物館","province":"東京都","city":"羽村市","address":"羽村市羽741","lat":35.755144,"lon":139.303426},{"name":"＊?羽村市図書館","province":"東京都","city":"羽村市","address":"羽村市緑ヶ丘2-11-2","lat":35.764333,"lon":139.316618},{"name":"＊?羽村市図書館小作台図書室","province":"東京都","city":"羽村市","address":"羽村市小作台5-6-4","lat":35.774731,"lon":139.300783},{"name":"＊?羽村市図書館加美分室","province":"東京都","city":"羽村市","address":"羽村市羽加美3-10-12","lat":35.764221,"lon":139.302333},{"name":"＊?羽村市図書館富士見平分室","province":"東京都","city":"羽村市","address":"羽村市富士見平1-18","lat":35.765932,"lon":139.325657},{"name":"＊?羽村市図書館川崎分室","province":"東京都","city":"羽村市","address":"羽村市川崎4-2-4","lat":35.753009,"lon":139.316964},{"name":"西児童館","province":"東京都","city":"羽村市","address":"羽村市小作台5-28-3","lat":35.772834,"lon":139.3031},{"name":"中央児童館","province":"東京都","city":"羽村市","address":"羽村市羽中3-6-19","lat":35.761333,"lon":139.309227},{"name":"東児童館","province":"東京都","city":"羽村市","address":"羽村市神明台3-30-2","lat":35.760262,"lon":139.328443},{"name":"阿蘇神社本殿","province":"東京都","city":"羽村市","address":"東京都羽村市羽加美4-6-7","lat":35.762913,"lon":139.297931},{"name":"羽村市図書館","province":"東京都","city":"羽村市","address":"東京都羽村市緑ヶ丘2丁目11-2","lat":35.76440514,"lon":139.31654616},{"name":"小作台図書室","province":"東京都","city":"羽村市","address":"東京都羽村市小作台5丁目6-4","lat":35.7747202,"lon":139.30078885},{"name":"西児童館","province":"東京都","city":"羽村市","address":"羽村市小作台5-28-3","lat":35.77283,"lon":139.30299},{"name":"中央児童館","province":"東京都","city":"羽村市","address":"羽村市羽中3-6-19","lat":35.76157,"lon":139.30798},{"name":"東児童館","province":"東京都","city":"羽村市","address":"羽村市神明台3-30-2","lat":35.76001,"lon":139.32841},{"name":"東児童館","province":"東京都","city":"羽村市","address":"羽村市神明台3-30-2","lat":35.76001,"lon":139.32842},{"name":"＊?羽村市郷土博物館","province":"東京都","city":"羽村市","address":"羽村市羽741","lat":35.755144,"lon":139.303426},{"name":"＊?羽村市図書館","province":"東京都","city":"羽村市","address":"羽村市緑ヶ丘2-11-2","lat":35.764333,"lon":139.316618},{"name":"＊?羽村市図書館小作台図書室","province":"東京都","city":"羽村市","address":"羽村市小作台5-6-4","lat":35.774731,"lon":139.300783},{"name":"＊?羽村市図書館加美分室","province":"東京都","city":"羽村市","address":"羽村市羽加美3-10-12","lat":35.764221,"lon":139.302333},{"name":"＊?羽村市図書館富士見平分室","province":"東京都","city":"羽村市","address":"羽村市富士見平1-18","lat":35.765932,"lon":139.325657},{"name":"＊?羽村市図書館川崎分室","province":"東京都","city":"羽村市","address":"羽村市川崎4-2-4","lat":35.753009,"lon":139.316964},{"name":"西児童館","province":"東京都","city":"羽村市","address":"羽村市小作台5-28-3","lat":35.772834,"lon":139.3031},{"name":"中央児童館","province":"東京都","city":"羽村市","address":"羽村市羽中3-6-19","lat":35.761333,"lon":139.309227},{"name":"東児童館","province":"東京都","city":"羽村市","address":"羽村市神明台3-30-2","lat":35.760262,"lon":139.328443},{"name":"阿蘇神社本殿","province":"東京都","city":"羽村市","address":"東京都羽村市羽加美4-6-7","lat":35.762913,"lon":139.297931},{"name":"羽村市図書館","province":"東京都","city":"羽村市","address":"東京都羽村市緑ヶ丘2丁目11-2","lat":35.76440514,"lon":139.31654616},{"name":"小作台図書室","province":"東京都","city":"羽村市","address":"東京都羽村市小作台5丁目6-4","lat":35.7747202,"lon":139.30078885},{"name":"西児童館","province":"東京都","city":"羽村市","address":"羽村市小作台5-28-3","lat":35.77283,"lon":139.30299},{"name":"中央児童館","province":"東京都","city":"羽村市","address":"羽村市羽中3-6-19","lat":35.76157,"lon":139.30798},{"name":"東児童館","province":"東京都","city":"羽村市","address":"羽村市神明台3-30-2","lat":35.76001,"lon":139.32841},{"name":"東児童館","province":"東京都","city":"羽村市","address":"羽村市神明台3-30-2","lat":35.76001,"lon":139.32842},{"name":"＊?羽村市郷土博物館","province":"東京都","city":"羽村市","address":"羽村市羽741","lat":35.755144,"lon":139.303426},{"name":"＊?羽村市図書館","province":"東京都","city":"羽村市","address":"羽村市緑ヶ丘2-11-2","lat":35.764333,"lon":139.316618},{"name":"＊?羽村市図書館小作台図書室","province":"東京都","city":"羽村市","address":"羽村市小作台5-6-4","lat":35.774731,"lon":139.300783},{"name":"＊?羽村市図書館加美分室","province":"東京都","city":"羽村市","address":"羽村市羽加美3-10-12","lat":35.764221,"lon":139.302333},{"name":"＊?羽村市図書館富士見平分室","province":"東京都","city":"羽村市","address":"羽村市富士見平1-18","lat":35.765932,"lon":139.325657},{"name":"＊?羽村市図書館川崎分室","province":"東京都","city":"羽村市","address":"羽村市川崎4-2-4","lat":35.753009,"lon":139.316964}]}