{"category":"park","data":[{"name":"前田家住宅外便所","province":"東京都","city":"新島村","address":"東京都新島村本村","lat":34.37612616,"lon":139.25397696},{"name":"板絵着色婦女群犬図","province":"東京都","city":"新島村","address":"東京都新島村本村6丁目10","lat":34.37602896,"lon":139.2529687},{"name":"銅鏡(松枝散双鳥鏡外8面)","province":"東京都","city":"新島村","address":"東京都新島村本村6丁目10","lat":34.37602896,"lon":139.2529687},{"name":"銅鏡（松竹双鶴鏡外1面）","province":"東京都","city":"新島村","address":"東京都新島村本村6丁目10","lat":34.37602896,"lon":139.2529687},{"name":"銅鏡（山吹双鳥鏡外1面）","province":"東京都","city":"新島村","address":"東京都新島村式根島","lat":34.32432977,"lon":139.21927444},{"name":"新島島役所資料（646冊394通9枚）","province":"東京都","city":"新島村","address":"東京都新島村本村","lat":34.37612616,"lon":139.25397696},{"name":"新島十三社神社資料（134冊）","province":"東京都","city":"新島村","address":"東京都新島村本村6丁目10","lat":34.37602896,"lon":139.2529687},{"name":"新島の神楽","province":"東京都","city":"新島村","address":"東京都新島村本村6丁目10","lat":34.37602896,"lon":139.2529687},{"name":"獅子木遣","province":"東京都","city":"新島村","address":"東京都新島村本村6丁目10","lat":34.37602896,"lon":139.2529687},{"name":"原町の井戸","province":"東京都","city":"新島村","address":"東京都新島村本村","lat":34.37612616,"lon":139.25397696},{"name":"吹之江遺跡","province":"東京都","city":"新島村","address":"東京都新島村式根島","lat":34.32432977,"lon":139.21927444},{"name":"天宥法印墓","province":"東京都","city":"新島村","address":"東京都新島村","lat":34.37713721,"lon":139.25657395},{"name":"宝篋印塔と五輪塔","province":"東京都","city":"新島村","address":"東京都新島村本村","lat":34.37612616,"lon":139.25397696},{"name":"流人墓地","province":"東京都","city":"新島村","address":"東京都新島村本村","lat":34.37612616,"lon":139.25397696},{"name":"向畑刑場跡","province":"東京都","city":"新島村","address":"東京都新島村本村","lat":34.37612616,"lon":139.25397696},{"name":"式根島のまいまいず井戸","province":"東京都","city":"新島村","address":"東京都新島村式根島","lat":34.32432977,"lon":139.21927444},{"name":"里川の水源","province":"東京都","city":"新島村","address":"東京都新島村","lat":34.37713721,"lon":139.25657395},{"name":"新島測量基点","province":"東京都","city":"新島村","address":"東京都新島村本村","lat":34.37612616,"lon":139.25397696},{"name":"流人牢屋跡","province":"東京都","city":"新島村","address":"東京都新島村本村","lat":34.37612616,"lon":139.25397696},{"name":"薩摩畑","province":"東京都","city":"新島村","address":"東京都新島村","lat":34.37713721,"lon":139.25657395},{"name":"塩釜の跡","province":"東京都","city":"新島村","address":"東京都新島村式根島","lat":34.32432977,"lon":139.21927444},{"name":"丸山の方角石","province":"東京都","city":"新島村","address":"東京都新島村式根島","lat":34.32432977,"lon":139.21927444},{"name":"新島村役場","province":"東京都","city":"新島村","address":"新島村本村1-1-1","lat":34.377094,"lon":139.257058},{"name":"式根島支所","province":"東京都","city":"新島村","address":"新島村式根島255-1","lat":34.529539,"lon":139.283903},{"name":"東京都大島支庁新島出張所","province":"東京都","city":"新島村","address":"新島村本村6-4-24","lat":34.373721,"lon":139.256622},{"name":"新島港湾空港管理事務所","province":"東京都","city":"新島村","address":"新島村字川原","lat":34.37036,"lon":139.269356},{"name":"東京都島しょ保健所大島出張所新島支所","province":"東京都","city":"新島村","address":"新島村本村6-4-24","lat":34.373721,"lon":139.256622},{"name":"東京都立新島高等学校","province":"東京都","city":"新島村","address":"新島村本村4-10-1","lat":34.369086,"lon":139.25827},{"name":"警視庁新島警察署","province":"東京都","city":"新島村","address":"新島村本村3-13-4","lat":34.372224,"lon":139.259511},{"name":"新島簡易裁判所","province":"東京都","city":"新島村","address":"新島村本村3-2-2","lat":34.376787,"lon":139.257702},{"name":"防衛装備庁航空装備研究所新島支所","province":"東京都","city":"新島村","address":"新島村字水尻","lat":34.363931,"lon":139.255265},{"name":"なまこ桟橋","province":"東京都","city":"新島村","address":"東京都新島村式根島","lat":34.32432977,"lon":139.21927444},{"name":"島しょ農林水産総合センター大島事業所新島分室","province":"東京都","city":"新島村","address":"新島村本村6-4-24","lat":34.373721,"lon":139.256622}]}