{"keyword":"支払","data":[{"name":"大浦野営場","province":"東京都","city":"新島村","address":"東京都新島村式根島","lat":34.330566,"lon":139.209249},{"name":"羽伏浦園地","province":"東京都","city":"新島村","address":"東京都新島村字ナムレ","lat":34.376098,"lon":139.275306},{"name":"羽伏浦公園（コロシアム）","province":"東京都","city":"新島村","address":"東京都新島村字檜山","lat":34.378296,"lon":139.274393},{"name":"羽伏浦野営場","province":"東京都","city":"新島村","address":"東京都新島村字檜山","lat":34.379032,"lon":139.271136},{"name":"間々下園地","province":"東京都","city":"新島村","address":"東京都新島村字黒根","lat":34.364378,"lon":139.24283},{"name":"間々下園地","province":"東京都","city":"新島村","address":"東京都新島村字黒根","lat":34.364234,"lon":139.243018},{"name":"若郷園地","province":"東京都","city":"新島村","address":"東京都新島村若郷1","lat":34.423818,"lon":139.282279},{"name":"泊園地","province":"東京都","city":"新島村","address":"東京都新島村式根島","lat":34.335652,"lon":139.212383},{"name":"式根島遊歩道（カンビキ）","province":"東京都","city":"新島村","address":"東京都新島村式根島","lat":34.324955,"lon":139.204427},{"name":"本村前浜便所","province":"東京都","city":"新島村","address":"東京都新島村本村6丁目8","lat":34.374565,"lon":139.252012},{"name":"本村前浜便所","province":"東京都","city":"新島村","address":"東京都新島村本村2丁目4","lat":34.379261,"lon":139.25419},{"name":"新島港船客待合所","province":"東京都","city":"新島村","address":"東京都新島村字黒根","lat":34.367204,"lon":139.244964},{"name":"向山展望台トイレ","province":"東京都","city":"新島村","address":"東京都新島村字向山","lat":34.352256,"lon":139.252576},{"name":"若郷前浜（奥）","province":"東京都","city":"新島村","address":"東京都新島村若郷1","lat":34.423842,"lon":139.282281},{"name":"波伏浦野営場","province":"東京都","city":"新島村","address":"東京都新島村字檜山","lat":34.379234,"lon":139.271105},{"name":"波伏浦海岸","province":"東京都","city":"新島村","address":"東京都新島村字ナムレ","lat":34.376117,"lon":139.275297},{"name":"前浜（森電気下）","province":"東京都","city":"新島村","address":"東京都新島村本村2丁目3","lat":34.378835,"lon":139.253938},{"name":"前浜（浜庄下）","province":"東京都","city":"新島村","address":"東京都新島村本村6丁目8","lat":34.374627,"lon":139.252022},{"name":"B堤防","province":"東京都","city":"新島村","address":"東京都新島村字黒根","lat":34.369354,"lon":139.247563},{"name":"泊海水浴場トイレ","province":"東京都","city":"新島村","address":"東京都新島村式根島","lat":34.335662,"lon":139.212384},{"name":"大浦海水浴場トイレ","province":"東京都","city":"新島村","address":"東京都新島村式根島","lat":34.330577,"lon":139.209237},{"name":"神引展望台トイレ","province":"東京都","city":"新島村","address":"東京都新島村式根島","lat":34.324963,"lon":139.20442},{"name":"＊?新島村博物館","province":"東京都","city":"新島村","address":"新島村本村2-36-3","lat":34.381649,"lon":139.259257},{"name":"大浦野営場","province":"東京都","city":"新島村","address":"東京都新島村式根島","lat":34.330566,"lon":139.209249},{"name":"羽伏浦園地","province":"東京都","city":"新島村","address":"東京都新島村字ナムレ","lat":34.376098,"lon":139.275306},{"name":"羽伏浦公園（コロシアム）","province":"東京都","city":"新島村","address":"東京都新島村字檜山","lat":34.378296,"lon":139.274393},{"name":"羽伏浦野営場","province":"東京都","city":"新島村","address":"東京都新島村字檜山","lat":34.379032,"lon":139.271136},{"name":"間々下園地","province":"東京都","city":"新島村","address":"東京都新島村字黒根","lat":34.364378,"lon":139.24283},{"name":"間々下園地","province":"東京都","city":"新島村","address":"東京都新島村字黒根","lat":34.364234,"lon":139.243018},{"name":"若郷園地","province":"東京都","city":"新島村","address":"東京都新島村若郷1","lat":34.423818,"lon":139.282279},{"name":"泊園地","province":"東京都","city":"新島村","address":"東京都新島村式根島","lat":34.335652,"lon":139.212383},{"name":"式根島遊歩道（カンビキ）","province":"東京都","city":"新島村","address":"東京都新島村式根島","lat":34.324955,"lon":139.204427},{"name":"本村前浜便所","province":"東京都","city":"新島村","address":"東京都新島村本村6丁目8","lat":34.374565,"lon":139.252012},{"name":"本村前浜便所","province":"東京都","city":"新島村","address":"東京都新島村本村2丁目4","lat":34.379261,"lon":139.25419},{"name":"新島港船客待合所","province":"東京都","city":"新島村","address":"東京都新島村字黒根","lat":34.367204,"lon":139.244964},{"name":"向山展望台トイレ","province":"東京都","city":"新島村","address":"東京都新島村字向山","lat":34.352256,"lon":139.252576},{"name":"若郷前浜（奥）","province":"東京都","city":"新島村","address":"東京都新島村若郷1","lat":34.423842,"lon":139.282281},{"name":"波伏浦野営場","province":"東京都","city":"新島村","address":"東京都新島村字檜山","lat":34.379234,"lon":139.271105},{"name":"波伏浦海岸","province":"東京都","city":"新島村","address":"東京都新島村字ナムレ","lat":34.376117,"lon":139.275297},{"name":"前浜（森電気下）","province":"東京都","city":"新島村","address":"東京都新島村本村2丁目3","lat":34.378835,"lon":139.253938},{"name":"前浜（浜庄下）","province":"東京都","city":"新島村","address":"東京都新島村本村6丁目8","lat":34.374627,"lon":139.252022},{"name":"B堤防","province":"東京都","city":"新島村","address":"東京都新島村字黒根","lat":34.369354,"lon":139.247563},{"name":"泊海水浴場トイレ","province":"東京都","city":"新島村","address":"東京都新島村式根島","lat":34.335662,"lon":139.212384},{"name":"大浦海水浴場トイレ","province":"東京都","city":"新島村","address":"東京都新島村式根島","lat":34.330577,"lon":139.209237},{"name":"神引展望台トイレ","province":"東京都","city":"新島村","address":"東京都新島村式根島","lat":34.324963,"lon":139.20442},{"name":"＊?新島村博物館","province":"東京都","city":"新島村","address":"新島村本村2-36-3","lat":34.381649,"lon":139.259257},{"name":"大浦野営場","province":"東京都","city":"新島村","address":"東京都新島村式根島","lat":34.330566,"lon":139.209249},{"name":"羽伏浦園地","province":"東京都","city":"新島村","address":"東京都新島村字ナムレ","lat":34.376098,"lon":139.275306},{"name":"羽伏浦公園（コロシアム）","province":"東京都","city":"新島村","address":"東京都新島村字檜山","lat":34.378296,"lon":139.274393},{"name":"羽伏浦野営場","province":"東京都","city":"新島村","address":"東京都新島村字檜山","lat":34.379032,"lon":139.271136},{"name":"間々下園地","province":"東京都","city":"新島村","address":"東京都新島村字黒根","lat":34.364378,"lon":139.24283},{"name":"間々下園地","province":"東京都","city":"新島村","address":"東京都新島村字黒根","lat":34.364234,"lon":139.243018},{"name":"若郷園地","province":"東京都","city":"新島村","address":"東京都新島村若郷1","lat":34.423818,"lon":139.282279},{"name":"泊園地","province":"東京都","city":"新島村","address":"東京都新島村式根島","lat":34.335652,"lon":139.212383},{"name":"式根島遊歩道（カンビキ）","province":"東京都","city":"新島村","address":"東京都新島村式根島","lat":34.324955,"lon":139.204427},{"name":"本村前浜便所","province":"東京都","city":"新島村","address":"東京都新島村本村6丁目8","lat":34.374565,"lon":139.252012},{"name":"本村前浜便所","province":"東京都","city":"新島村","address":"東京都新島村本村2丁目4","lat":34.379261,"lon":139.25419},{"name":"新島港船客待合所","province":"東京都","city":"新島村","address":"東京都新島村字黒根","lat":34.367204,"lon":139.244964},{"name":"向山展望台トイレ","province":"東京都","city":"新島村","address":"東京都新島村字向山","lat":34.352256,"lon":139.252576},{"name":"若郷前浜（奥）","province":"東京都","city":"新島村","address":"東京都新島村若郷1","lat":34.423842,"lon":139.282281},{"name":"波伏浦野営場","province":"東京都","city":"新島村","address":"東京都新島村字檜山","lat":34.379234,"lon":139.271105},{"name":"波伏浦海岸","province":"東京都","city":"新島村","address":"東京都新島村字ナムレ","lat":34.376117,"lon":139.275297},{"name":"前浜（森電気下）","province":"東京都","city":"新島村","address":"東京都新島村本村2丁目3","lat":34.378835,"lon":139.253938},{"name":"前浜（浜庄下）","province":"東京都","city":"新島村","address":"東京都新島村本村6丁目8","lat":34.374627,"lon":139.252022},{"name":"B堤防","province":"東京都","city":"新島村","address":"東京都新島村字黒根","lat":34.369354,"lon":139.247563},{"name":"泊海水浴場トイレ","province":"東京都","city":"新島村","address":"東京都新島村式根島","lat":34.335662,"lon":139.212384},{"name":"大浦海水浴場トイレ","province":"東京都","city":"新島村","address":"東京都新島村式根島","lat":34.330577,"lon":139.209237},{"name":"神引展望台トイレ","province":"東京都","city":"新島村","address":"東京都新島村式根島","lat":34.324963,"lon":139.20442},{"name":"＊?新島村博物館","province":"東京都","city":"新島村","address":"新島村本村2-36-3","lat":34.381649,"lon":139.259257},{"name":"＊?新島村博物館","province":"東京都","city":"新島村","address":"新島村本村2-36-3","lat":34.381649,"lon":139.259257},{"name":"＊?新島村博物館","province":"東京都","city":"新島村","address":"新島村本村2-36-3","lat":34.381649,"lon":139.259257},{"name":"＊?新島村博物館","province":"東京都","city":"新島村","address":"新島村本村2-36-3","lat":34.381649,"lon":139.259257},{"name":"＊?新島村博物館","province":"東京都","city":"新島村","address":"新島村本村2-36-3","lat":34.381649,"lon":139.259257},{"name":"＊?新島村博物館","province":"東京都","city":"新島村","address":"新島村本村2-36-3","lat":34.381649,"lon":139.259257},{"name":"＊?新島村博物館","province":"東京都","city":"新島村","address":"新島村本村2-36-3","lat":34.381649,"lon":139.259257},{"name":"＊?新島村博物館","province":"東京都","city":"新島村","address":"新島村本村2-36-3","lat":34.381649,"lon":139.259257},{"name":"＊?新島村博物館","province":"東京都","city":"新島村","address":"新島村本村2-36-3","lat":34.381649,"lon":139.259257},{"name":"＊?新島村博物館","province":"東京都","city":"新島村","address":"新島村本村2-36-3","lat":34.381649,"lon":139.259257},{"name":"＊?新島村博物館","province":"東京都","city":"新島村","address":"新島村本村2-36-3","lat":34.381649,"lon":139.259257},{"name":"＊?新島村博物館","province":"東京都","city":"新島村","address":"新島村本村2-36-3","lat":34.381649,"lon":139.259257},{"name":"＊?新島村博物館","province":"東京都","city":"新島村","address":"新島村本村2-36-3","lat":34.381649,"lon":139.259257},{"name":"＊?新島村博物館","province":"東京都","city":"新島村","address":"新島村本村2-36-3","lat":34.381649,"lon":139.259257},{"name":"＊?新島村博物館","province":"東京都","city":"新島村","address":"新島村本村2-36-3","lat":34.381649,"lon":139.259257},{"name":"＊?新島村博物館","province":"東京都","city":"新島村","address":"新島村本村2-36-3","lat":34.381649,"lon":139.259257},{"name":"＊?新島村博物館","province":"東京都","city":"新島村","address":"新島村本村2-36-3","lat":34.381649,"lon":139.259257},{"name":"＊?新島村博物館","province":"東京都","city":"新島村","address":"新島村本村2-36-3","lat":34.381649,"lon":139.259257},{"name":"＊?新島村博物館","province":"東京都","city":"新島村","address":"新島村本村2-36-3","lat":34.381649,"lon":139.259257},{"name":"＊?新島村博物館","province":"東京都","city":"新島村","address":"新島村本村2-36-3","lat":34.381649,"lon":139.259257},{"name":"＊?新島村博物館","province":"東京都","city":"新島村","address":"新島村本村2-36-3","lat":34.381649,"lon":139.259257},{"name":"＊?新島村博物館","province":"東京都","city":"新島村","address":"新島村本村2-36-3","lat":34.381649,"lon":139.259257},{"name":"＊?新島村博物館","province":"東京都","city":"新島村","address":"新島村本村2-36-3","lat":34.381649,"lon":139.259257},{"name":"＊?新島村博物館","province":"東京都","city":"新島村","address":"新島村本村2-36-3","lat":34.381649,"lon":139.259257},{"name":"＊?新島村博物館","province":"東京都","city":"新島村","address":"新島村本村2-36-3","lat":34.381649,"lon":139.259257},{"name":"＊?新島村博物館","province":"東京都","city":"新島村","address":"新島村本村2-36-3","lat":34.381649,"lon":139.259257},{"name":"＊?新島村博物館","province":"東京都","city":"新島村","address":"新島村本村2-36-3","lat":34.381649,"lon":139.259257},{"name":"＊?新島村博物館","province":"東京都","city":"新島村","address":"新島村本村2-36-3","lat":34.381649,"lon":139.259257},{"name":"＊?新島村博物館","province":"東京都","city":"新島村","address":"新島村本村2-36-3","lat":34.381649,"lon":139.259257},{"name":"＊?新島村博物館","province":"東京都","city":"新島村","address":"新島村本村2-36-3","lat":34.381649,"lon":139.259257},{"name":"＊?新島村博物館","province":"東京都","city":"新島村","address":"新島村本村2-36-3","lat":34.381649,"lon":139.259257},{"name":"＊?新島村博物館","province":"東京都","city":"新島村","address":"新島村本村2-36-3","lat":34.381649,"lon":139.259257},{"name":"＊?新島村博物館","province":"東京都","city":"新島村","address":"新島村本村2-36-3","lat":34.381649,"lon":139.259257},{"name":"＊?新島村博物館","province":"東京都","city":"新島村","address":"新島村本村2-36-3","lat":34.381649,"lon":139.259257},{"name":"＊?新島村博物館","province":"東京都","city":"新島村","address":"新島村本村2-36-3","lat":34.381649,"lon":139.259257},{"name":"＊?新島村博物館","province":"東京都","city":"新島村","address":"新島村本村2-36-3","lat":34.381649,"lon":139.259257},{"name":"＊?新島村博物館","province":"東京都","city":"新島村","address":"新島村本村2-36-3","lat":34.381649,"lon":139.259257},{"name":"＊?新島村博物館","province":"東京都","city":"新島村","address":"新島村本村2-36-3","lat":34.381649,"lon":139.259257},{"name":"＊?新島村博物館","province":"東京都","city":"新島村","address":"新島村本村2-36-3","lat":34.381649,"lon":139.259257},{"name":"＊?新島村博物館","province":"東京都","city":"新島村","address":"新島村本村2-36-3","lat":34.381649,"lon":139.259257},{"name":"＊?新島村博物館","province":"東京都","city":"新島村","address":"新島村本村2-36-3","lat":34.381649,"lon":139.259257}]}