{"keyword":"月間","data":[{"name":"新島村子ども家庭支援センター","province":"東京都","city":"新島村","address":"新島村本村3-12-8さわやか健康センター内","lat":34.372609,"lon":139.259704},{"name":"新島村子ども家庭支援センター","province":"東京都","city":"新島村","address":"新島村本村3-12-8さわやか健康センター内","lat":34.37287,"lon":139.25946},{"name":"式根島火葬場","province":"東京都","city":"新島村","address":"東京都新島村式根島856-3","lat":34.32414059,"lon":139.20735046},{"name":"式根島臨時ヘリポート","province":"東京都","city":"新島村","address":"東京都新島村式根島","lat":34.32432977,"lon":139.21927444},{"name":"新島村子ども家庭支援センター","province":"東京都","city":"新島村","address":"新島村本村3-12-8さわやか健康センター内","lat":34.372609,"lon":139.259704},{"name":"新島村子ども家庭支援センター","province":"東京都","city":"新島村","address":"新島村本村3-12-8さわやか健康センター内","lat":34.37287,"lon":139.25946},{"name":"式根島火葬場","province":"東京都","city":"新島村","address":"東京都新島村式根島856-3","lat":34.32414059,"lon":139.20735046},{"name":"式根島臨時ヘリポート","province":"東京都","city":"新島村","address":"東京都新島村式根島","lat":34.32432977,"lon":139.21927444},{"name":"新島村子ども家庭支援センター","province":"東京都","city":"新島村","address":"新島村本村3-12-8さわやか健康センター内","lat":34.372609,"lon":139.259704},{"name":"新島村子ども家庭支援センター","province":"東京都","city":"新島村","address":"新島村本村3-12-8さわやか健康センター内","lat":34.37287,"lon":139.25946},{"name":"式根島火葬場","province":"東京都","city":"新島村","address":"東京都新島村式根島856-3","lat":34.32414059,"lon":139.20735046},{"name":"式根島臨時ヘリポート","province":"東京都","city":"新島村","address":"東京都新島村式根島","lat":34.32432977,"lon":139.21927444},{"name":"新島村子ども家庭支援センター","province":"東京都","city":"新島村","address":"新島村本村3-12-8さわやか健康センター内","lat":34.372609,"lon":139.259704},{"name":"新島村子ども家庭支援センター","province":"東京都","city":"新島村","address":"新島村本村3-12-8さわやか健康センター内","lat":34.37287,"lon":139.25946},{"name":"式根島火葬場","province":"東京都","city":"新島村","address":"東京都新島村式根島856-3","lat":34.32414059,"lon":139.20735046},{"name":"式根島臨時ヘリポート","province":"東京都","city":"新島村","address":"東京都新島村式根島","lat":34.32432977,"lon":139.21927444},{"name":"新島村子ども家庭支援センター","province":"東京都","city":"新島村","address":"新島村本村3-12-8さわやか健康センター内","lat":34.372609,"lon":139.259704},{"name":"新島村子ども家庭支援センター","province":"東京都","city":"新島村","address":"新島村本村3-12-8さわやか健康センター内","lat":34.37287,"lon":139.25946},{"name":"式根島火葬場","province":"東京都","city":"新島村","address":"東京都新島村式根島856-3","lat":34.32414059,"lon":139.20735046},{"name":"新島村子ども家庭支援センター","province":"東京都","city":"新島村","address":"新島村本村3-12-8さわやか健康センター内","lat":34.372609,"lon":139.259704},{"name":"新島村子ども家庭支援センター","province":"東京都","city":"新島村","address":"新島村本村3-12-8さわやか健康センター内","lat":34.37287,"lon":139.25946},{"name":"式根島火葬場","province":"東京都","city":"新島村","address":"東京都新島村式根島856-3","lat":34.32414059,"lon":139.20735046},{"name":"新島村子ども家庭支援センター","province":"東京都","city":"新島村","address":"新島村本村3-12-8さわやか健康センター内","lat":34.372609,"lon":139.259704},{"name":"新島村子ども家庭支援センター","province":"東京都","city":"新島村","address":"新島村本村3-12-8さわやか健康センター内","lat":34.37287,"lon":139.25946},{"name":"式根島火葬場","province":"東京都","city":"新島村","address":"東京都新島村式根島856-3","lat":34.32414059,"lon":139.20735046},{"name":"新島村子ども家庭支援センター","province":"東京都","city":"新島村","address":"新島村本村3-12-8さわやか健康センター内","lat":34.372609,"lon":139.259704},{"name":"新島村子ども家庭支援センター","province":"東京都","city":"新島村","address":"新島村本村3-12-8さわやか健康センター内","lat":34.37287,"lon":139.25946},{"name":"式根島火葬場","province":"東京都","city":"新島村","address":"東京都新島村式根島856-3","lat":34.32414059,"lon":139.20735046},{"name":"新島村子ども家庭支援センター","province":"東京都","city":"新島村","address":"新島村本村3-12-8さわやか健康センター内","lat":34.372609,"lon":139.259704},{"name":"新島村子ども家庭支援センター","province":"東京都","city":"新島村","address":"新島村本村3-12-8さわやか健康センター内","lat":34.37287,"lon":139.25946},{"name":"式根島火葬場","province":"東京都","city":"新島村","address":"東京都新島村式根島856-3","lat":34.32414059,"lon":139.20735046},{"name":"新島村子ども家庭支援センター","province":"東京都","city":"新島村","address":"新島村本村3-12-8さわやか健康センター内","lat":34.372609,"lon":139.259704},{"name":"新島村子ども家庭支援センター","province":"東京都","city":"新島村","address":"新島村本村3-12-8さわやか健康センター内","lat":34.37287,"lon":139.25946},{"name":"式根島火葬場","province":"東京都","city":"新島村","address":"東京都新島村式根島856-3","lat":34.32414059,"lon":139.20735046},{"name":"新島村子ども家庭支援センター","province":"東京都","city":"新島村","address":"新島村本村3-12-8さわやか健康センター内","lat":34.372609,"lon":139.259704},{"name":"新島村子ども家庭支援センター","province":"東京都","city":"新島村","address":"新島村本村3-12-8さわやか健康センター内","lat":34.37287,"lon":139.25946},{"name":"式根島火葬場","province":"東京都","city":"新島村","address":"東京都新島村式根島856-3","lat":34.32414059,"lon":139.20735046},{"name":"新島村子ども家庭支援センター","province":"東京都","city":"新島村","address":"新島村本村3-12-8さわやか健康センター内","lat":34.372609,"lon":139.259704},{"name":"新島村子ども家庭支援センター","province":"東京都","city":"新島村","address":"新島村本村3-12-8さわやか健康センター内","lat":34.37287,"lon":139.25946},{"name":"式根島火葬場","province":"東京都","city":"新島村","address":"東京都新島村式根島856-3","lat":34.32414059,"lon":139.20735046},{"name":"新島村子ども家庭支援センター","province":"東京都","city":"新島村","address":"新島村本村3-12-8さわやか健康センター内","lat":34.372609,"lon":139.259704},{"name":"新島村子ども家庭支援センター","province":"東京都","city":"新島村","address":"新島村本村3-12-8さわやか健康センター内","lat":34.37287,"lon":139.25946},{"name":"式根島火葬場","province":"東京都","city":"新島村","address":"東京都新島村式根島856-3","lat":34.32414059,"lon":139.20735046},{"name":"新島村子ども家庭支援センター","province":"東京都","city":"新島村","address":"新島村本村3-12-8さわやか健康センター内","lat":34.372609,"lon":139.259704},{"name":"新島村子ども家庭支援センター","province":"東京都","city":"新島村","address":"新島村本村3-12-8さわやか健康センター内","lat":34.37287,"lon":139.25946},{"name":"式根島火葬場","province":"東京都","city":"新島村","address":"東京都新島村式根島856-3","lat":34.32414059,"lon":139.20735046},{"name":"新島村子ども家庭支援センター","province":"東京都","city":"新島村","address":"新島村本村3-12-8さわやか健康センター内","lat":34.372609,"lon":139.259704},{"name":"新島村子ども家庭支援センター","province":"東京都","city":"新島村","address":"新島村本村3-12-8さわやか健康センター内","lat":34.37287,"lon":139.25946},{"name":"式根島火葬場","province":"東京都","city":"新島村","address":"東京都新島村式根島856-3","lat":34.32414059,"lon":139.20735046},{"name":"新島村子ども家庭支援センター","province":"東京都","city":"新島村","address":"新島村本村3-12-8さわやか健康センター内","lat":34.372609,"lon":139.259704},{"name":"新島村子ども家庭支援センター","province":"東京都","city":"新島村","address":"新島村本村3-12-8さわやか健康センター内","lat":34.37287,"lon":139.25946},{"name":"式根島火葬場","province":"東京都","city":"新島村","address":"東京都新島村式根島856-3","lat":34.32414059,"lon":139.20735046},{"name":"新島村子ども家庭支援センター","province":"東京都","city":"新島村","address":"新島村本村3-12-8さわやか健康センター内","lat":34.372609,"lon":139.259704},{"name":"新島村子ども家庭支援センター","province":"東京都","city":"新島村","address":"新島村本村3-12-8さわやか健康センター内","lat":34.37287,"lon":139.25946},{"name":"式根島火葬場","province":"東京都","city":"新島村","address":"東京都新島村式根島856-3","lat":34.32414059,"lon":139.20735046},{"name":"新島村子ども家庭支援センター","province":"東京都","city":"新島村","address":"新島村本村3-12-8さわやか健康センター内","lat":34.372609,"lon":139.259704},{"name":"新島村子ども家庭支援センター","province":"東京都","city":"新島村","address":"新島村本村3-12-8さわやか健康センター内","lat":34.37287,"lon":139.25946},{"name":"式根島火葬場","province":"東京都","city":"新島村","address":"東京都新島村式根島856-3","lat":34.32414059,"lon":139.20735046},{"name":"新島村子ども家庭支援センター","province":"東京都","city":"新島村","address":"新島村本村3-12-8さわやか健康センター内","lat":34.372609,"lon":139.259704},{"name":"新島村子ども家庭支援センター","province":"東京都","city":"新島村","address":"新島村本村3-12-8さわやか健康センター内","lat":34.37287,"lon":139.25946},{"name":"式根島火葬場","province":"東京都","city":"新島村","address":"東京都新島村式根島856-3","lat":34.32414059,"lon":139.20735046},{"name":"新島村子ども家庭支援センター","province":"東京都","city":"新島村","address":"新島村本村3-12-8さわやか健康センター内","lat":34.372609,"lon":139.259704},{"name":"新島村子ども家庭支援センター","province":"東京都","city":"新島村","address":"新島村本村3-12-8さわやか健康センター内","lat":34.37287,"lon":139.25946},{"name":"式根島火葬場","province":"東京都","city":"新島村","address":"東京都新島村式根島856-3","lat":34.32414059,"lon":139.20735046},{"name":"新島村子ども家庭支援センター","province":"東京都","city":"新島村","address":"新島村本村3-12-8さわやか健康センター内","lat":34.372609,"lon":139.259704},{"name":"新島村子ども家庭支援センター","province":"東京都","city":"新島村","address":"新島村本村3-12-8さわやか健康センター内","lat":34.37287,"lon":139.25946},{"name":"式根島火葬場","province":"東京都","city":"新島村","address":"東京都新島村式根島856-3","lat":34.32414059,"lon":139.20735046},{"name":"新島村子ども家庭支援センター","province":"東京都","city":"新島村","address":"新島村本村3-12-8さわやか健康センター内","lat":34.372609,"lon":139.259704},{"name":"新島村子ども家庭支援センター","province":"東京都","city":"新島村","address":"新島村本村3-12-8さわやか健康センター内","lat":34.37287,"lon":139.25946},{"name":"式根島火葬場","province":"東京都","city":"新島村","address":"東京都新島村式根島856-3","lat":34.32414059,"lon":139.20735046},{"name":"新島村子ども家庭支援センター","province":"東京都","city":"新島村","address":"新島村本村3-12-8さわやか健康センター内","lat":34.372609,"lon":139.259704},{"name":"新島村子ども家庭支援センター","province":"東京都","city":"新島村","address":"新島村本村3-12-8さわやか健康センター内","lat":34.37287,"lon":139.25946},{"name":"式根島火葬場","province":"東京都","city":"新島村","address":"東京都新島村式根島856-3","lat":34.32414059,"lon":139.20735046},{"name":"新島村子ども家庭支援センター","province":"東京都","city":"新島村","address":"新島村本村3-12-8さわやか健康センター内","lat":34.372609,"lon":139.259704},{"name":"新島村子ども家庭支援センター","province":"東京都","city":"新島村","address":"新島村本村3-12-8さわやか健康センター内","lat":34.37287,"lon":139.25946},{"name":"式根島火葬場","province":"東京都","city":"新島村","address":"東京都新島村式根島856-3","lat":34.32414059,"lon":139.20735046},{"name":"新島村子ども家庭支援センター","province":"東京都","city":"新島村","address":"新島村本村3-12-8さわやか健康センター内","lat":34.372609,"lon":139.259704},{"name":"新島村子ども家庭支援センター","province":"東京都","city":"新島村","address":"新島村本村3-12-8さわやか健康センター内","lat":34.37287,"lon":139.25946},{"name":"式根島火葬場","province":"東京都","city":"新島村","address":"東京都新島村式根島856-3","lat":34.32414059,"lon":139.20735046},{"name":"新島村子ども家庭支援センター","province":"東京都","city":"新島村","address":"新島村本村3-12-8さわやか健康センター内","lat":34.372609,"lon":139.259704},{"name":"新島村子ども家庭支援センター","province":"東京都","city":"新島村","address":"新島村本村3-12-8さわやか健康センター内","lat":34.37287,"lon":139.25946},{"name":"新島村子ども家庭支援センター","province":"東京都","city":"新島村","address":"新島村本村3-12-8さわやか健康センター内","lat":34.372609,"lon":139.259704},{"name":"新島村子ども家庭支援センター","province":"東京都","city":"新島村","address":"新島村本村3-12-8さわやか健康センター内","lat":34.37287,"lon":139.25946},{"name":"新島村子ども家庭支援センター","province":"東京都","city":"新島村","address":"新島村本村3-12-8さわやか健康センター内","lat":34.372609,"lon":139.259704},{"name":"新島村子ども家庭支援センター","province":"東京都","city":"新島村","address":"新島村本村3-12-8さわやか健康センター内","lat":34.37287,"lon":139.25946},{"name":"新島村子ども家庭支援センター","province":"東京都","city":"新島村","address":"新島村本村3-12-8さわやか健康センター内","lat":34.372609,"lon":139.259704},{"name":"新島村子ども家庭支援センター","province":"東京都","city":"新島村","address":"新島村本村3-12-8さわやか健康センター内","lat":34.37287,"lon":139.25946},{"name":"新島村子ども家庭支援センター","province":"東京都","city":"新島村","address":"新島村本村3-12-8さわやか健康センター内","lat":34.372609,"lon":139.259704},{"name":"新島村子ども家庭支援センター","province":"東京都","city":"新島村","address":"新島村本村3-12-8さわやか健康センター内","lat":34.37287,"lon":139.25946},{"name":"新島村子ども家庭支援センター","province":"東京都","city":"新島村","address":"新島村本村3-12-8さわやか健康センター内","lat":34.372609,"lon":139.259704},{"name":"新島村子ども家庭支援センター","province":"東京都","city":"新島村","address":"新島村本村3-12-8さわやか健康センター内","lat":34.37287,"lon":139.25946},{"name":"新島村子ども家庭支援センター","province":"東京都","city":"新島村","address":"新島村本村3-12-8さわやか健康センター内","lat":34.372609,"lon":139.259704},{"name":"新島村子ども家庭支援センター","province":"東京都","city":"新島村","address":"新島村本村3-12-8さわやか健康センター内","lat":34.37287,"lon":139.25946},{"name":"新島村子ども家庭支援センター","province":"東京都","city":"新島村","address":"新島村本村3-12-8さわやか健康センター内","lat":34.372609,"lon":139.259704},{"name":"新島村子ども家庭支援センター","province":"東京都","city":"新島村","address":"新島村本村3-12-8さわやか健康センター内","lat":34.37287,"lon":139.25946},{"name":"新島村子ども家庭支援センター","province":"東京都","city":"新島村","address":"新島村本村3-12-8さわやか健康センター内","lat":34.372609,"lon":139.259704},{"name":"新島村子ども家庭支援センター","province":"東京都","city":"新島村","address":"新島村本村3-12-8さわやか健康センター内","lat":34.37287,"lon":139.25946},{"name":"新島村子ども家庭支援センター","province":"東京都","city":"新島村","address":"新島村本村3-12-8さわやか健康センター内","lat":34.372609,"lon":139.259704},{"name":"新島村子ども家庭支援センター","province":"東京都","city":"新島村","address":"新島村本村3-12-8さわやか健康センター内","lat":34.37287,"lon":139.25946},{"name":"新島村子ども家庭支援センター","province":"東京都","city":"新島村","address":"新島村本村3-12-8さわやか健康センター内","lat":34.372609,"lon":139.259704},{"name":"新島村子ども家庭支援センター","province":"東京都","city":"新島村","address":"新島村本村3-12-8さわやか健康センター内","lat":34.37287,"lon":139.25946},{"name":"新島村子ども家庭支援センター","province":"東京都","city":"新島村","address":"新島村本村3-12-8さわやか健康センター内","lat":34.372609,"lon":139.259704},{"name":"新島村子ども家庭支援センター","province":"東京都","city":"新島村","address":"新島村本村3-12-8さわやか健康センター内","lat":34.37287,"lon":139.25946},{"name":"新島村子ども家庭支援センター","province":"東京都","city":"新島村","address":"新島村本村3-12-8さわやか健康センター内","lat":34.372609,"lon":139.259704},{"name":"新島村子ども家庭支援センター","province":"東京都","city":"新島村","address":"新島村本村3-12-8さわやか健康センター内","lat":34.37287,"lon":139.25946},{"name":"新島村子ども家庭支援センター","province":"東京都","city":"新島村","address":"新島村本村3-12-8さわやか健康センター内","lat":34.372609,"lon":139.259704},{"name":"新島村子ども家庭支援センター","province":"東京都","city":"新島村","address":"新島村本村3-12-8さわやか健康センター内","lat":34.37287,"lon":139.25946},{"name":"新島村子ども家庭支援センター","province":"東京都","city":"新島村","address":"新島村本村3-12-8さわやか健康センター内","lat":34.372609,"lon":139.259704},{"name":"新島村子ども家庭支援センター","province":"東京都","city":"新島村","address":"新島村本村3-12-8さわやか健康センター内","lat":34.37287,"lon":139.25946},{"name":"新島村子ども家庭支援センター","province":"東京都","city":"新島村","address":"新島村本村3-12-8さわやか健康センター内","lat":34.372609,"lon":139.259704},{"name":"新島村子ども家庭支援センター","province":"東京都","city":"新島村","address":"新島村本村3-12-8さわやか健康センター内","lat":34.37287,"lon":139.25946},{"name":"新島村子ども家庭支援センター","province":"東京都","city":"新島村","address":"新島村本村3-12-8さわやか健康センター内","lat":34.372609,"lon":139.259704},{"name":"新島村子ども家庭支援センター","province":"東京都","city":"新島村","address":"新島村本村3-12-8さわやか健康センター内","lat":34.37287,"lon":139.25946},{"name":"新島村子ども家庭支援センター","province":"東京都","city":"新島村","address":"新島村本村3-12-8さわやか健康センター内","lat":34.372609,"lon":139.259704},{"name":"新島村子ども家庭支援センター","province":"東京都","city":"新島村","address":"新島村本村3-12-8さわやか健康センター内","lat":34.37287,"lon":139.25946},{"name":"新島村子ども家庭支援センター","province":"東京都","city":"新島村","address":"新島村本村3-12-8さわやか健康センター内","lat":34.372609,"lon":139.259704},{"name":"新島村子ども家庭支援センター","province":"東京都","city":"新島村","address":"新島村本村3-12-8さわやか健康センター内","lat":34.37287,"lon":139.25946},{"name":"新島村子ども家庭支援センター","province":"東京都","city":"新島村","address":"新島村本村3-12-8さわやか健康センター内","lat":34.372609,"lon":139.259704},{"name":"新島村子ども家庭支援センター","province":"東京都","city":"新島村","address":"新島村本村3-12-8さわやか健康センター内","lat":34.37287,"lon":139.25946},{"name":"新島村子ども家庭支援センター","province":"東京都","city":"新島村","address":"新島村本村3-12-8さわやか健康センター内","lat":34.372609,"lon":139.259704},{"name":"新島村子ども家庭支援センター","province":"東京都","city":"新島村","address":"新島村本村3-12-8さわやか健康センター内","lat":34.37287,"lon":139.25946},{"name":"新島村子ども家庭支援センター","province":"東京都","city":"新島村","address":"新島村本村3-12-8さわやか健康センター内","lat":34.372609,"lon":139.259704},{"name":"新島村子ども家庭支援センター","province":"東京都","city":"新島村","address":"新島村本村3-12-8さわやか健康センター内","lat":34.37287,"lon":139.25946},{"name":"新島村子ども家庭支援センター","province":"東京都","city":"新島村","address":"新島村本村3-12-8さわやか健康センター内","lat":34.372609,"lon":139.259704},{"name":"新島村子ども家庭支援センター","province":"東京都","city":"新島村","address":"新島村本村3-12-8さわやか健康センター内","lat":34.37287,"lon":139.25946},{"name":"新島村子ども家庭支援センター","province":"東京都","city":"新島村","address":"新島村本村3-12-8さわやか健康センター内","lat":34.372609,"lon":139.259704},{"name":"新島村子ども家庭支援センター","province":"東京都","city":"新島村","address":"新島村本村3-12-8さわやか健康センター内","lat":34.37287,"lon":139.25946},{"name":"新島村子ども家庭支援センター","province":"東京都","city":"新島村","address":"新島村本村3-12-8さわやか健康センター内","lat":34.372609,"lon":139.259704},{"name":"新島村子ども家庭支援センター","province":"東京都","city":"新島村","address":"新島村本村3-12-8さわやか健康センター内","lat":34.37287,"lon":139.25946}]}