{"keyword":"管","data":[{"name":"前田家住宅外便所","province":"東京都","city":"新島村","address":"東京都新島村本村","lat":34.37612616,"lon":139.25397696},{"name":"板絵着色婦女群犬図","province":"東京都","city":"新島村","address":"東京都新島村本村6丁目10","lat":34.37602896,"lon":139.2529687},{"name":"銅鏡(松枝散双鳥鏡外8面)","province":"東京都","city":"新島村","address":"東京都新島村本村6丁目10","lat":34.37602896,"lon":139.2529687},{"name":"銅鏡（松竹双鶴鏡外1面）","province":"東京都","city":"新島村","address":"東京都新島村本村6丁目10","lat":34.37602896,"lon":139.2529687},{"name":"銅鏡（山吹双鳥鏡外1面）","province":"東京都","city":"新島村","address":"東京都新島村式根島","lat":34.32432977,"lon":139.21927444},{"name":"新島島役所資料（646冊394通9枚）","province":"東京都","city":"新島村","address":"東京都新島村本村","lat":34.37612616,"lon":139.25397696},{"name":"新島十三社神社資料（134冊）","province":"東京都","city":"新島村","address":"東京都新島村本村6丁目10","lat":34.37602896,"lon":139.2529687},{"name":"新島の神楽","province":"東京都","city":"新島村","address":"東京都新島村本村6丁目10","lat":34.37602896,"lon":139.2529687},{"name":"獅子木遣","province":"東京都","city":"新島村","address":"東京都新島村本村6丁目10","lat":34.37602896,"lon":139.2529687},{"name":"原町の井戸","province":"東京都","city":"新島村","address":"東京都新島村本村","lat":34.37612616,"lon":139.25397696},{"name":"吹之江遺跡","province":"東京都","city":"新島村","address":"東京都新島村式根島","lat":34.32432977,"lon":139.21927444},{"name":"天宥法印墓","province":"東京都","city":"新島村","address":"東京都新島村","lat":34.37713721,"lon":139.25657395},{"name":"宝篋印塔と五輪塔","province":"東京都","city":"新島村","address":"東京都新島村本村","lat":34.37612616,"lon":139.25397696},{"name":"流人墓地","province":"東京都","city":"新島村","address":"東京都新島村本村","lat":34.37612616,"lon":139.25397696},{"name":"向畑刑場跡","province":"東京都","city":"新島村","address":"東京都新島村本村","lat":34.37612616,"lon":139.25397696},{"name":"式根島のまいまいず井戸","province":"東京都","city":"新島村","address":"東京都新島村式根島","lat":34.32432977,"lon":139.21927444},{"name":"里川の水源","province":"東京都","city":"新島村","address":"東京都新島村","lat":34.37713721,"lon":139.25657395},{"name":"新島測量基点","province":"東京都","city":"新島村","address":"東京都新島村本村","lat":34.37612616,"lon":139.25397696},{"name":"流人牢屋跡","province":"東京都","city":"新島村","address":"東京都新島村本村","lat":34.37612616,"lon":139.25397696},{"name":"薩摩畑","province":"東京都","city":"新島村","address":"東京都新島村","lat":34.37713721,"lon":139.25657395},{"name":"塩釜の跡","province":"東京都","city":"新島村","address":"東京都新島村式根島","lat":34.32432977,"lon":139.21927444},{"name":"丸山の方角石","province":"東京都","city":"新島村","address":"東京都新島村式根島","lat":34.32432977,"lon":139.21927444},{"name":"なまこ桟橋","province":"東京都","city":"新島村","address":"東京都新島村式根島","lat":34.32432977,"lon":139.21927444}]}