{"keyword":"連絡","data":[{"name":"新島村役場","province":"東京都","city":"新島村","address":"新島村本村1-1-1","lat":34.376541,"lon":139.256912},{"name":"新島村社会福祉協議会","province":"東京都","city":"新島村","address":"新島村本村1-8-2","lat":34.376907,"lon":139.255188},{"name":"新島村地域包括支援センター","province":"東京都","city":"新島村","address":"新島村字瀬戸山116-2","lat":36.162987,"lon":139.358887},{"name":"新島村役場","province":"東京都","city":"新島村","address":"新島村本村1-1-1","lat":34.377094,"lon":139.257058},{"name":"式根島支所","province":"東京都","city":"新島村","address":"新島村式根島255-1","lat":34.529539,"lon":139.283903},{"name":"東京都大島支庁新島出張所","province":"東京都","city":"新島村","address":"新島村本村6-4-24","lat":34.373721,"lon":139.256622},{"name":"新島港湾空港管理事務所","province":"東京都","city":"新島村","address":"新島村字川原","lat":34.37036,"lon":139.269356},{"name":"東京都島しょ保健所大島出張所新島支所","province":"東京都","city":"新島村","address":"新島村本村6-4-24","lat":34.373721,"lon":139.256622},{"name":"東京都立新島高等学校","province":"東京都","city":"新島村","address":"新島村本村4-10-1","lat":34.369086,"lon":139.25827},{"name":"警視庁新島警察署","province":"東京都","city":"新島村","address":"新島村本村3-13-4","lat":34.372224,"lon":139.259511},{"name":"新島簡易裁判所","province":"東京都","city":"新島村","address":"新島村本村3-2-2","lat":34.376787,"lon":139.257702},{"name":"防衛装備庁航空装備研究所新島支所","province":"東京都","city":"新島村","address":"新島村字水尻","lat":34.363931,"lon":139.255265},{"name":"島しょ農林水産総合センター大島事業所新島分室","province":"東京都","city":"新島村","address":"新島村本村6-4-24","lat":34.373721,"lon":139.256622}]}