{"keyword":"階","data":[{"name":"大浦野営場","province":"東京都","city":"新島村","address":"東京都新島村式根島","lat":34.330566,"lon":139.209249},{"name":"羽伏浦園地","province":"東京都","city":"新島村","address":"東京都新島村字ナムレ","lat":34.376098,"lon":139.275306},{"name":"羽伏浦公園（コロシアム）","province":"東京都","city":"新島村","address":"東京都新島村字檜山","lat":34.378296,"lon":139.274393},{"name":"羽伏浦野営場","province":"東京都","city":"新島村","address":"東京都新島村字檜山","lat":34.379032,"lon":139.271136},{"name":"間々下園地","province":"東京都","city":"新島村","address":"東京都新島村字黒根","lat":34.364378,"lon":139.24283},{"name":"間々下園地","province":"東京都","city":"新島村","address":"東京都新島村字黒根","lat":34.364234,"lon":139.243018},{"name":"若郷園地","province":"東京都","city":"新島村","address":"東京都新島村若郷1","lat":34.423818,"lon":139.282279},{"name":"泊園地","province":"東京都","city":"新島村","address":"東京都新島村式根島","lat":34.335652,"lon":139.212383},{"name":"式根島遊歩道（カンビキ）","province":"東京都","city":"新島村","address":"東京都新島村式根島","lat":34.324955,"lon":139.204427},{"name":"本村前浜便所","province":"東京都","city":"新島村","address":"東京都新島村本村6丁目8","lat":34.374565,"lon":139.252012},{"name":"本村前浜便所","province":"東京都","city":"新島村","address":"東京都新島村本村2丁目4","lat":34.379261,"lon":139.25419},{"name":"新島港船客待合所","province":"東京都","city":"新島村","address":"東京都新島村字黒根","lat":34.367204,"lon":139.244964},{"name":"向山展望台トイレ","province":"東京都","city":"新島村","address":"東京都新島村字向山","lat":34.352256,"lon":139.252576},{"name":"若郷前浜（奥）","province":"東京都","city":"新島村","address":"東京都新島村若郷1","lat":34.423842,"lon":139.282281},{"name":"波伏浦野営場","province":"東京都","city":"新島村","address":"東京都新島村字檜山","lat":34.379234,"lon":139.271105},{"name":"波伏浦海岸","province":"東京都","city":"新島村","address":"東京都新島村字ナムレ","lat":34.376117,"lon":139.275297},{"name":"前浜（森電気下）","province":"東京都","city":"新島村","address":"東京都新島村本村2丁目3","lat":34.378835,"lon":139.253938},{"name":"前浜（浜庄下）","province":"東京都","city":"新島村","address":"東京都新島村本村6丁目8","lat":34.374627,"lon":139.252022},{"name":"B堤防","province":"東京都","city":"新島村","address":"東京都新島村字黒根","lat":34.369354,"lon":139.247563},{"name":"泊海水浴場トイレ","province":"東京都","city":"新島村","address":"東京都新島村式根島","lat":34.335662,"lon":139.212384},{"name":"大浦海水浴場トイレ","province":"東京都","city":"新島村","address":"東京都新島村式根島","lat":34.330577,"lon":139.209237},{"name":"神引展望台トイレ","province":"東京都","city":"新島村","address":"東京都新島村式根島","lat":34.324963,"lon":139.20442},{"name":"前田家住宅外便所","province":"東京都","city":"新島村","address":"東京都新島村本村","lat":34.37612616,"lon":139.25397696},{"name":"板絵着色婦女群犬図","province":"東京都","city":"新島村","address":"東京都新島村本村6丁目10","lat":34.37602896,"lon":139.2529687},{"name":"銅鏡(松枝散双鳥鏡外8面)","province":"東京都","city":"新島村","address":"東京都新島村本村6丁目10","lat":34.37602896,"lon":139.2529687},{"name":"銅鏡（松竹双鶴鏡外1面）","province":"東京都","city":"新島村","address":"東京都新島村本村6丁目10","lat":34.37602896,"lon":139.2529687},{"name":"銅鏡（山吹双鳥鏡外1面）","province":"東京都","city":"新島村","address":"東京都新島村式根島","lat":34.32432977,"lon":139.21927444},{"name":"新島島役所資料（646冊394通9枚）","province":"東京都","city":"新島村","address":"東京都新島村本村","lat":34.37612616,"lon":139.25397696},{"name":"新島十三社神社資料（134冊）","province":"東京都","city":"新島村","address":"東京都新島村本村6丁目10","lat":34.37602896,"lon":139.2529687},{"name":"新島の神楽","province":"東京都","city":"新島村","address":"東京都新島村本村6丁目10","lat":34.37602896,"lon":139.2529687},{"name":"獅子木遣","province":"東京都","city":"新島村","address":"東京都新島村本村6丁目10","lat":34.37602896,"lon":139.2529687},{"name":"原町の井戸","province":"東京都","city":"新島村","address":"東京都新島村本村","lat":34.37612616,"lon":139.25397696},{"name":"吹之江遺跡","province":"東京都","city":"新島村","address":"東京都新島村式根島","lat":34.32432977,"lon":139.21927444},{"name":"天宥法印墓","province":"東京都","city":"新島村","address":"東京都新島村","lat":34.37713721,"lon":139.25657395},{"name":"宝篋印塔と五輪塔","province":"東京都","city":"新島村","address":"東京都新島村本村","lat":34.37612616,"lon":139.25397696},{"name":"流人墓地","province":"東京都","city":"新島村","address":"東京都新島村本村","lat":34.37612616,"lon":139.25397696},{"name":"向畑刑場跡","province":"東京都","city":"新島村","address":"東京都新島村本村","lat":34.37612616,"lon":139.25397696},{"name":"式根島のまいまいず井戸","province":"東京都","city":"新島村","address":"東京都新島村式根島","lat":34.32432977,"lon":139.21927444},{"name":"里川の水源","province":"東京都","city":"新島村","address":"東京都新島村","lat":34.37713721,"lon":139.25657395},{"name":"新島測量基点","province":"東京都","city":"新島村","address":"東京都新島村本村","lat":34.37612616,"lon":139.25397696},{"name":"流人牢屋跡","province":"東京都","city":"新島村","address":"東京都新島村本村","lat":34.37612616,"lon":139.25397696},{"name":"薩摩畑","province":"東京都","city":"新島村","address":"東京都新島村","lat":34.37713721,"lon":139.25657395},{"name":"塩釜の跡","province":"東京都","city":"新島村","address":"東京都新島村式根島","lat":34.32432977,"lon":139.21927444},{"name":"丸山の方角石","province":"東京都","city":"新島村","address":"東京都新島村式根島","lat":34.32432977,"lon":139.21927444},{"name":"なまこ桟橋","province":"東京都","city":"新島村","address":"東京都新島村式根島","lat":34.32432977,"lon":139.21927444},{"name":"大浦野営場","province":"東京都","city":"新島村","address":"東京都新島村式根島","lat":34.330566,"lon":139.209249},{"name":"羽伏浦園地","province":"東京都","city":"新島村","address":"東京都新島村字ナムレ","lat":34.376098,"lon":139.275306},{"name":"羽伏浦公園（コロシアム）","province":"東京都","city":"新島村","address":"東京都新島村字檜山","lat":34.378296,"lon":139.274393},{"name":"羽伏浦野営場","province":"東京都","city":"新島村","address":"東京都新島村字檜山","lat":34.379032,"lon":139.271136},{"name":"間々下園地","province":"東京都","city":"新島村","address":"東京都新島村字黒根","lat":34.364378,"lon":139.24283},{"name":"間々下園地","province":"東京都","city":"新島村","address":"東京都新島村字黒根","lat":34.364234,"lon":139.243018},{"name":"若郷園地","province":"東京都","city":"新島村","address":"東京都新島村若郷1","lat":34.423818,"lon":139.282279},{"name":"泊園地","province":"東京都","city":"新島村","address":"東京都新島村式根島","lat":34.335652,"lon":139.212383},{"name":"式根島遊歩道（カンビキ）","province":"東京都","city":"新島村","address":"東京都新島村式根島","lat":34.324955,"lon":139.204427},{"name":"本村前浜便所","province":"東京都","city":"新島村","address":"東京都新島村本村6丁目8","lat":34.374565,"lon":139.252012},{"name":"本村前浜便所","province":"東京都","city":"新島村","address":"東京都新島村本村2丁目4","lat":34.379261,"lon":139.25419},{"name":"新島港船客待合所","province":"東京都","city":"新島村","address":"東京都新島村字黒根","lat":34.367204,"lon":139.244964},{"name":"向山展望台トイレ","province":"東京都","city":"新島村","address":"東京都新島村字向山","lat":34.352256,"lon":139.252576},{"name":"若郷前浜（奥）","province":"東京都","city":"新島村","address":"東京都新島村若郷1","lat":34.423842,"lon":139.282281},{"name":"波伏浦野営場","province":"東京都","city":"新島村","address":"東京都新島村字檜山","lat":34.379234,"lon":139.271105},{"name":"波伏浦海岸","province":"東京都","city":"新島村","address":"東京都新島村字ナムレ","lat":34.376117,"lon":139.275297},{"name":"前浜（森電気下）","province":"東京都","city":"新島村","address":"東京都新島村本村2丁目3","lat":34.378835,"lon":139.253938},{"name":"前浜（浜庄下）","province":"東京都","city":"新島村","address":"東京都新島村本村6丁目8","lat":34.374627,"lon":139.252022},{"name":"B堤防","province":"東京都","city":"新島村","address":"東京都新島村字黒根","lat":34.369354,"lon":139.247563},{"name":"泊海水浴場トイレ","province":"東京都","city":"新島村","address":"東京都新島村式根島","lat":34.335662,"lon":139.212384},{"name":"大浦海水浴場トイレ","province":"東京都","city":"新島村","address":"東京都新島村式根島","lat":34.330577,"lon":139.209237},{"name":"神引展望台トイレ","province":"東京都","city":"新島村","address":"東京都新島村式根島","lat":34.324963,"lon":139.20442},{"name":"前田家住宅外便所","province":"東京都","city":"新島村","address":"東京都新島村本村","lat":34.37612616,"lon":139.25397696},{"name":"板絵着色婦女群犬図","province":"東京都","city":"新島村","address":"東京都新島村本村6丁目10","lat":34.37602896,"lon":139.2529687},{"name":"銅鏡(松枝散双鳥鏡外8面)","province":"東京都","city":"新島村","address":"東京都新島村本村6丁目10","lat":34.37602896,"lon":139.2529687},{"name":"銅鏡（松竹双鶴鏡外1面）","province":"東京都","city":"新島村","address":"東京都新島村本村6丁目10","lat":34.37602896,"lon":139.2529687},{"name":"銅鏡（山吹双鳥鏡外1面）","province":"東京都","city":"新島村","address":"東京都新島村式根島","lat":34.32432977,"lon":139.21927444},{"name":"新島島役所資料（646冊394通9枚）","province":"東京都","city":"新島村","address":"東京都新島村本村","lat":34.37612616,"lon":139.25397696},{"name":"新島十三社神社資料（134冊）","province":"東京都","city":"新島村","address":"東京都新島村本村6丁目10","lat":34.37602896,"lon":139.2529687},{"name":"新島の神楽","province":"東京都","city":"新島村","address":"東京都新島村本村6丁目10","lat":34.37602896,"lon":139.2529687},{"name":"獅子木遣","province":"東京都","city":"新島村","address":"東京都新島村本村6丁目10","lat":34.37602896,"lon":139.2529687},{"name":"原町の井戸","province":"東京都","city":"新島村","address":"東京都新島村本村","lat":34.37612616,"lon":139.25397696},{"name":"吹之江遺跡","province":"東京都","city":"新島村","address":"東京都新島村式根島","lat":34.32432977,"lon":139.21927444},{"name":"天宥法印墓","province":"東京都","city":"新島村","address":"東京都新島村","lat":34.37713721,"lon":139.25657395},{"name":"宝篋印塔と五輪塔","province":"東京都","city":"新島村","address":"東京都新島村本村","lat":34.37612616,"lon":139.25397696},{"name":"流人墓地","province":"東京都","city":"新島村","address":"東京都新島村本村","lat":34.37612616,"lon":139.25397696},{"name":"向畑刑場跡","province":"東京都","city":"新島村","address":"東京都新島村本村","lat":34.37612616,"lon":139.25397696},{"name":"式根島のまいまいず井戸","province":"東京都","city":"新島村","address":"東京都新島村式根島","lat":34.32432977,"lon":139.21927444},{"name":"里川の水源","province":"東京都","city":"新島村","address":"東京都新島村","lat":34.37713721,"lon":139.25657395},{"name":"新島測量基点","province":"東京都","city":"新島村","address":"東京都新島村本村","lat":34.37612616,"lon":139.25397696},{"name":"流人牢屋跡","province":"東京都","city":"新島村","address":"東京都新島村本村","lat":34.37612616,"lon":139.25397696},{"name":"薩摩畑","province":"東京都","city":"新島村","address":"東京都新島村","lat":34.37713721,"lon":139.25657395},{"name":"塩釜の跡","province":"東京都","city":"新島村","address":"東京都新島村式根島","lat":34.32432977,"lon":139.21927444},{"name":"丸山の方角石","province":"東京都","city":"新島村","address":"東京都新島村式根島","lat":34.32432977,"lon":139.21927444},{"name":"なまこ桟橋","province":"東京都","city":"新島村","address":"東京都新島村式根島","lat":34.32432977,"lon":139.21927444},{"name":"大浦野営場","province":"東京都","city":"新島村","address":"東京都新島村式根島","lat":34.330566,"lon":139.209249},{"name":"羽伏浦園地","province":"東京都","city":"新島村","address":"東京都新島村字ナムレ","lat":34.376098,"lon":139.275306},{"name":"羽伏浦公園（コロシアム）","province":"東京都","city":"新島村","address":"東京都新島村字檜山","lat":34.378296,"lon":139.274393},{"name":"羽伏浦野営場","province":"東京都","city":"新島村","address":"東京都新島村字檜山","lat":34.379032,"lon":139.271136},{"name":"間々下園地","province":"東京都","city":"新島村","address":"東京都新島村字黒根","lat":34.364378,"lon":139.24283},{"name":"間々下園地","province":"東京都","city":"新島村","address":"東京都新島村字黒根","lat":34.364234,"lon":139.243018},{"name":"若郷園地","province":"東京都","city":"新島村","address":"東京都新島村若郷1","lat":34.423818,"lon":139.282279},{"name":"泊園地","province":"東京都","city":"新島村","address":"東京都新島村式根島","lat":34.335652,"lon":139.212383},{"name":"式根島遊歩道（カンビキ）","province":"東京都","city":"新島村","address":"東京都新島村式根島","lat":34.324955,"lon":139.204427},{"name":"本村前浜便所","province":"東京都","city":"新島村","address":"東京都新島村本村6丁目8","lat":34.374565,"lon":139.252012},{"name":"本村前浜便所","province":"東京都","city":"新島村","address":"東京都新島村本村2丁目4","lat":34.379261,"lon":139.25419},{"name":"新島港船客待合所","province":"東京都","city":"新島村","address":"東京都新島村字黒根","lat":34.367204,"lon":139.244964},{"name":"向山展望台トイレ","province":"東京都","city":"新島村","address":"東京都新島村字向山","lat":34.352256,"lon":139.252576},{"name":"若郷前浜（奥）","province":"東京都","city":"新島村","address":"東京都新島村若郷1","lat":34.423842,"lon":139.282281},{"name":"波伏浦野営場","province":"東京都","city":"新島村","address":"東京都新島村字檜山","lat":34.379234,"lon":139.271105},{"name":"波伏浦海岸","province":"東京都","city":"新島村","address":"東京都新島村字ナムレ","lat":34.376117,"lon":139.275297},{"name":"前浜（森電気下）","province":"東京都","city":"新島村","address":"東京都新島村本村2丁目3","lat":34.378835,"lon":139.253938},{"name":"前浜（浜庄下）","province":"東京都","city":"新島村","address":"東京都新島村本村6丁目8","lat":34.374627,"lon":139.252022},{"name":"B堤防","province":"東京都","city":"新島村","address":"東京都新島村字黒根","lat":34.369354,"lon":139.247563},{"name":"泊海水浴場トイレ","province":"東京都","city":"新島村","address":"東京都新島村式根島","lat":34.335662,"lon":139.212384},{"name":"大浦海水浴場トイレ","province":"東京都","city":"新島村","address":"東京都新島村式根島","lat":34.330577,"lon":139.209237},{"name":"神引展望台トイレ","province":"東京都","city":"新島村","address":"東京都新島村式根島","lat":34.324963,"lon":139.20442},{"name":"前田家住宅外便所","province":"東京都","city":"新島村","address":"東京都新島村本村","lat":34.37612616,"lon":139.25397696},{"name":"板絵着色婦女群犬図","province":"東京都","city":"新島村","address":"東京都新島村本村6丁目10","lat":34.37602896,"lon":139.2529687},{"name":"銅鏡(松枝散双鳥鏡外8面)","province":"東京都","city":"新島村","address":"東京都新島村本村6丁目10","lat":34.37602896,"lon":139.2529687},{"name":"銅鏡（松竹双鶴鏡外1面）","province":"東京都","city":"新島村","address":"東京都新島村本村6丁目10","lat":34.37602896,"lon":139.2529687},{"name":"銅鏡（山吹双鳥鏡外1面）","province":"東京都","city":"新島村","address":"東京都新島村式根島","lat":34.32432977,"lon":139.21927444},{"name":"新島島役所資料（646冊394通9枚）","province":"東京都","city":"新島村","address":"東京都新島村本村","lat":34.37612616,"lon":139.25397696},{"name":"新島十三社神社資料（134冊）","province":"東京都","city":"新島村","address":"東京都新島村本村6丁目10","lat":34.37602896,"lon":139.2529687},{"name":"新島の神楽","province":"東京都","city":"新島村","address":"東京都新島村本村6丁目10","lat":34.37602896,"lon":139.2529687},{"name":"獅子木遣","province":"東京都","city":"新島村","address":"東京都新島村本村6丁目10","lat":34.37602896,"lon":139.2529687},{"name":"原町の井戸","province":"東京都","city":"新島村","address":"東京都新島村本村","lat":34.37612616,"lon":139.25397696},{"name":"吹之江遺跡","province":"東京都","city":"新島村","address":"東京都新島村式根島","lat":34.32432977,"lon":139.21927444},{"name":"天宥法印墓","province":"東京都","city":"新島村","address":"東京都新島村","lat":34.37713721,"lon":139.25657395},{"name":"宝篋印塔と五輪塔","province":"東京都","city":"新島村","address":"東京都新島村本村","lat":34.37612616,"lon":139.25397696},{"name":"流人墓地","province":"東京都","city":"新島村","address":"東京都新島村本村","lat":34.37612616,"lon":139.25397696},{"name":"向畑刑場跡","province":"東京都","city":"新島村","address":"東京都新島村本村","lat":34.37612616,"lon":139.25397696},{"name":"式根島のまいまいず井戸","province":"東京都","city":"新島村","address":"東京都新島村式根島","lat":34.32432977,"lon":139.21927444},{"name":"里川の水源","province":"東京都","city":"新島村","address":"東京都新島村","lat":34.37713721,"lon":139.25657395},{"name":"新島測量基点","province":"東京都","city":"新島村","address":"東京都新島村本村","lat":34.37612616,"lon":139.25397696},{"name":"流人牢屋跡","province":"東京都","city":"新島村","address":"東京都新島村本村","lat":34.37612616,"lon":139.25397696},{"name":"薩摩畑","province":"東京都","city":"新島村","address":"東京都新島村","lat":34.37713721,"lon":139.25657395},{"name":"塩釜の跡","province":"東京都","city":"新島村","address":"東京都新島村式根島","lat":34.32432977,"lon":139.21927444},{"name":"丸山の方角石","province":"東京都","city":"新島村","address":"東京都新島村式根島","lat":34.32432977,"lon":139.21927444},{"name":"なまこ桟橋","province":"東京都","city":"新島村","address":"東京都新島村式根島","lat":34.32432977,"lon":139.21927444},{"name":"大浦野営場","province":"東京都","city":"新島村","address":"東京都新島村式根島","lat":34.330566,"lon":139.209249},{"name":"羽伏浦園地","province":"東京都","city":"新島村","address":"東京都新島村字ナムレ","lat":34.376098,"lon":139.275306},{"name":"羽伏浦公園（コロシアム）","province":"東京都","city":"新島村","address":"東京都新島村字檜山","lat":34.378296,"lon":139.274393},{"name":"羽伏浦野営場","province":"東京都","city":"新島村","address":"東京都新島村字檜山","lat":34.379032,"lon":139.271136},{"name":"間々下園地","province":"東京都","city":"新島村","address":"東京都新島村字黒根","lat":34.364378,"lon":139.24283},{"name":"間々下園地","province":"東京都","city":"新島村","address":"東京都新島村字黒根","lat":34.364234,"lon":139.243018},{"name":"若郷園地","province":"東京都","city":"新島村","address":"東京都新島村若郷1","lat":34.423818,"lon":139.282279},{"name":"泊園地","province":"東京都","city":"新島村","address":"東京都新島村式根島","lat":34.335652,"lon":139.212383},{"name":"式根島遊歩道（カンビキ）","province":"東京都","city":"新島村","address":"東京都新島村式根島","lat":34.324955,"lon":139.204427},{"name":"本村前浜便所","province":"東京都","city":"新島村","address":"東京都新島村本村6丁目8","lat":34.374565,"lon":139.252012},{"name":"本村前浜便所","province":"東京都","city":"新島村","address":"東京都新島村本村2丁目4","lat":34.379261,"lon":139.25419},{"name":"新島港船客待合所","province":"東京都","city":"新島村","address":"東京都新島村字黒根","lat":34.367204,"lon":139.244964},{"name":"向山展望台トイレ","province":"東京都","city":"新島村","address":"東京都新島村字向山","lat":34.352256,"lon":139.252576},{"name":"若郷前浜（奥）","province":"東京都","city":"新島村","address":"東京都新島村若郷1","lat":34.423842,"lon":139.282281},{"name":"波伏浦野営場","province":"東京都","city":"新島村","address":"東京都新島村字檜山","lat":34.379234,"lon":139.271105},{"name":"波伏浦海岸","province":"東京都","city":"新島村","address":"東京都新島村字ナムレ","lat":34.376117,"lon":139.275297},{"name":"前浜（森電気下）","province":"東京都","city":"新島村","address":"東京都新島村本村2丁目3","lat":34.378835,"lon":139.253938},{"name":"前浜（浜庄下）","province":"東京都","city":"新島村","address":"東京都新島村本村6丁目8","lat":34.374627,"lon":139.252022},{"name":"B堤防","province":"東京都","city":"新島村","address":"東京都新島村字黒根","lat":34.369354,"lon":139.247563},{"name":"泊海水浴場トイレ","province":"東京都","city":"新島村","address":"東京都新島村式根島","lat":34.335662,"lon":139.212384},{"name":"大浦海水浴場トイレ","province":"東京都","city":"新島村","address":"東京都新島村式根島","lat":34.330577,"lon":139.209237},{"name":"神引展望台トイレ","province":"東京都","city":"新島村","address":"東京都新島村式根島","lat":34.324963,"lon":139.20442},{"name":"前田家住宅外便所","province":"東京都","city":"新島村","address":"東京都新島村本村","lat":34.37612616,"lon":139.25397696},{"name":"板絵着色婦女群犬図","province":"東京都","city":"新島村","address":"東京都新島村本村6丁目10","lat":34.37602896,"lon":139.2529687},{"name":"銅鏡(松枝散双鳥鏡外8面)","province":"東京都","city":"新島村","address":"東京都新島村本村6丁目10","lat":34.37602896,"lon":139.2529687},{"name":"銅鏡（松竹双鶴鏡外1面）","province":"東京都","city":"新島村","address":"東京都新島村本村6丁目10","lat":34.37602896,"lon":139.2529687},{"name":"銅鏡（山吹双鳥鏡外1面）","province":"東京都","city":"新島村","address":"東京都新島村式根島","lat":34.32432977,"lon":139.21927444},{"name":"新島島役所資料（646冊394通9枚）","province":"東京都","city":"新島村","address":"東京都新島村本村","lat":34.37612616,"lon":139.25397696},{"name":"新島十三社神社資料（134冊）","province":"東京都","city":"新島村","address":"東京都新島村本村6丁目10","lat":34.37602896,"lon":139.2529687},{"name":"新島の神楽","province":"東京都","city":"新島村","address":"東京都新島村本村6丁目10","lat":34.37602896,"lon":139.2529687},{"name":"獅子木遣","province":"東京都","city":"新島村","address":"東京都新島村本村6丁目10","lat":34.37602896,"lon":139.2529687},{"name":"原町の井戸","province":"東京都","city":"新島村","address":"東京都新島村本村","lat":34.37612616,"lon":139.25397696},{"name":"吹之江遺跡","province":"東京都","city":"新島村","address":"東京都新島村式根島","lat":34.32432977,"lon":139.21927444},{"name":"天宥法印墓","province":"東京都","city":"新島村","address":"東京都新島村","lat":34.37713721,"lon":139.25657395},{"name":"宝篋印塔と五輪塔","province":"東京都","city":"新島村","address":"東京都新島村本村","lat":34.37612616,"lon":139.25397696},{"name":"流人墓地","province":"東京都","city":"新島村","address":"東京都新島村本村","lat":34.37612616,"lon":139.25397696},{"name":"向畑刑場跡","province":"東京都","city":"新島村","address":"東京都新島村本村","lat":34.37612616,"lon":139.25397696},{"name":"式根島のまいまいず井戸","province":"東京都","city":"新島村","address":"東京都新島村式根島","lat":34.32432977,"lon":139.21927444},{"name":"里川の水源","province":"東京都","city":"新島村","address":"東京都新島村","lat":34.37713721,"lon":139.25657395},{"name":"新島測量基点","province":"東京都","city":"新島村","address":"東京都新島村本村","lat":34.37612616,"lon":139.25397696},{"name":"流人牢屋跡","province":"東京都","city":"新島村","address":"東京都新島村本村","lat":34.37612616,"lon":139.25397696},{"name":"薩摩畑","province":"東京都","city":"新島村","address":"東京都新島村","lat":34.37713721,"lon":139.25657395},{"name":"塩釜の跡","province":"東京都","city":"新島村","address":"東京都新島村式根島","lat":34.32432977,"lon":139.21927444},{"name":"丸山の方角石","province":"東京都","city":"新島村","address":"東京都新島村式根島","lat":34.32432977,"lon":139.21927444},{"name":"なまこ桟橋","province":"東京都","city":"新島村","address":"東京都新島村式根島","lat":34.32432977,"lon":139.21927444},{"name":"大浦野営場","province":"東京都","city":"新島村","address":"東京都新島村式根島","lat":34.330566,"lon":139.209249},{"name":"羽伏浦園地","province":"東京都","city":"新島村","address":"東京都新島村字ナムレ","lat":34.376098,"lon":139.275306},{"name":"羽伏浦公園（コロシアム）","province":"東京都","city":"新島村","address":"東京都新島村字檜山","lat":34.378296,"lon":139.274393},{"name":"羽伏浦野営場","province":"東京都","city":"新島村","address":"東京都新島村字檜山","lat":34.379032,"lon":139.271136},{"name":"間々下園地","province":"東京都","city":"新島村","address":"東京都新島村字黒根","lat":34.364378,"lon":139.24283},{"name":"間々下園地","province":"東京都","city":"新島村","address":"東京都新島村字黒根","lat":34.364234,"lon":139.243018},{"name":"若郷園地","province":"東京都","city":"新島村","address":"東京都新島村若郷1","lat":34.423818,"lon":139.282279},{"name":"泊園地","province":"東京都","city":"新島村","address":"東京都新島村式根島","lat":34.335652,"lon":139.212383},{"name":"式根島遊歩道（カンビキ）","province":"東京都","city":"新島村","address":"東京都新島村式根島","lat":34.324955,"lon":139.204427},{"name":"本村前浜便所","province":"東京都","city":"新島村","address":"東京都新島村本村6丁目8","lat":34.374565,"lon":139.252012},{"name":"本村前浜便所","province":"東京都","city":"新島村","address":"東京都新島村本村2丁目4","lat":34.379261,"lon":139.25419},{"name":"新島港船客待合所","province":"東京都","city":"新島村","address":"東京都新島村字黒根","lat":34.367204,"lon":139.244964},{"name":"向山展望台トイレ","province":"東京都","city":"新島村","address":"東京都新島村字向山","lat":34.352256,"lon":139.252576},{"name":"若郷前浜（奥）","province":"東京都","city":"新島村","address":"東京都新島村若郷1","lat":34.423842,"lon":139.282281},{"name":"波伏浦野営場","province":"東京都","city":"新島村","address":"東京都新島村字檜山","lat":34.379234,"lon":139.271105},{"name":"波伏浦海岸","province":"東京都","city":"新島村","address":"東京都新島村字ナムレ","lat":34.376117,"lon":139.275297},{"name":"前浜（森電気下）","province":"東京都","city":"新島村","address":"東京都新島村本村2丁目3","lat":34.378835,"lon":139.253938},{"name":"前浜（浜庄下）","province":"東京都","city":"新島村","address":"東京都新島村本村6丁目8","lat":34.374627,"lon":139.252022},{"name":"B堤防","province":"東京都","city":"新島村","address":"東京都新島村字黒根","lat":34.369354,"lon":139.247563},{"name":"泊海水浴場トイレ","province":"東京都","city":"新島村","address":"東京都新島村式根島","lat":34.335662,"lon":139.212384},{"name":"大浦海水浴場トイレ","province":"東京都","city":"新島村","address":"東京都新島村式根島","lat":34.330577,"lon":139.209237},{"name":"神引展望台トイレ","province":"東京都","city":"新島村","address":"東京都新島村式根島","lat":34.324963,"lon":139.20442},{"name":"前田家住宅外便所","province":"東京都","city":"新島村","address":"東京都新島村本村","lat":34.37612616,"lon":139.25397696},{"name":"板絵着色婦女群犬図","province":"東京都","city":"新島村","address":"東京都新島村本村6丁目10","lat":34.37602896,"lon":139.2529687},{"name":"銅鏡(松枝散双鳥鏡外8面)","province":"東京都","city":"新島村","address":"東京都新島村本村6丁目10","lat":34.37602896,"lon":139.2529687},{"name":"銅鏡（松竹双鶴鏡外1面）","province":"東京都","city":"新島村","address":"東京都新島村本村6丁目10","lat":34.37602896,"lon":139.2529687},{"name":"銅鏡（山吹双鳥鏡外1面）","province":"東京都","city":"新島村","address":"東京都新島村式根島","lat":34.32432977,"lon":139.21927444},{"name":"新島島役所資料（646冊394通9枚）","province":"東京都","city":"新島村","address":"東京都新島村本村","lat":34.37612616,"lon":139.25397696},{"name":"新島十三社神社資料（134冊）","province":"東京都","city":"新島村","address":"東京都新島村本村6丁目10","lat":34.37602896,"lon":139.2529687},{"name":"新島の神楽","province":"東京都","city":"新島村","address":"東京都新島村本村6丁目10","lat":34.37602896,"lon":139.2529687},{"name":"獅子木遣","province":"東京都","city":"新島村","address":"東京都新島村本村6丁目10","lat":34.37602896,"lon":139.2529687},{"name":"原町の井戸","province":"東京都","city":"新島村","address":"東京都新島村本村","lat":34.37612616,"lon":139.25397696},{"name":"吹之江遺跡","province":"東京都","city":"新島村","address":"東京都新島村式根島","lat":34.32432977,"lon":139.21927444},{"name":"天宥法印墓","province":"東京都","city":"新島村","address":"東京都新島村","lat":34.37713721,"lon":139.25657395},{"name":"宝篋印塔と五輪塔","province":"東京都","city":"新島村","address":"東京都新島村本村","lat":34.37612616,"lon":139.25397696},{"name":"流人墓地","province":"東京都","city":"新島村","address":"東京都新島村本村","lat":34.37612616,"lon":139.25397696},{"name":"向畑刑場跡","province":"東京都","city":"新島村","address":"東京都新島村本村","lat":34.37612616,"lon":139.25397696},{"name":"式根島のまいまいず井戸","province":"東京都","city":"新島村","address":"東京都新島村式根島","lat":34.32432977,"lon":139.21927444},{"name":"里川の水源","province":"東京都","city":"新島村","address":"東京都新島村","lat":34.37713721,"lon":139.25657395},{"name":"新島測量基点","province":"東京都","city":"新島村","address":"東京都新島村本村","lat":34.37612616,"lon":139.25397696},{"name":"流人牢屋跡","province":"東京都","city":"新島村","address":"東京都新島村本村","lat":34.37612616,"lon":139.25397696},{"name":"薩摩畑","province":"東京都","city":"新島村","address":"東京都新島村","lat":34.37713721,"lon":139.25657395},{"name":"塩釜の跡","province":"東京都","city":"新島村","address":"東京都新島村式根島","lat":34.32432977,"lon":139.21927444},{"name":"丸山の方角石","province":"東京都","city":"新島村","address":"東京都新島村式根島","lat":34.32432977,"lon":139.21927444},{"name":"なまこ桟橋","province":"東京都","city":"新島村","address":"東京都新島村式根島","lat":34.32432977,"lon":139.21927444},{"name":"大浦野営場","province":"東京都","city":"新島村","address":"東京都新島村式根島","lat":34.330566,"lon":139.209249},{"name":"羽伏浦園地","province":"東京都","city":"新島村","address":"東京都新島村字ナムレ","lat":34.376098,"lon":139.275306},{"name":"羽伏浦公園（コロシアム）","province":"東京都","city":"新島村","address":"東京都新島村字檜山","lat":34.378296,"lon":139.274393},{"name":"羽伏浦野営場","province":"東京都","city":"新島村","address":"東京都新島村字檜山","lat":34.379032,"lon":139.271136},{"name":"間々下園地","province":"東京都","city":"新島村","address":"東京都新島村字黒根","lat":34.364378,"lon":139.24283},{"name":"間々下園地","province":"東京都","city":"新島村","address":"東京都新島村字黒根","lat":34.364234,"lon":139.243018},{"name":"若郷園地","province":"東京都","city":"新島村","address":"東京都新島村若郷1","lat":34.423818,"lon":139.282279},{"name":"泊園地","province":"東京都","city":"新島村","address":"東京都新島村式根島","lat":34.335652,"lon":139.212383},{"name":"式根島遊歩道（カンビキ）","province":"東京都","city":"新島村","address":"東京都新島村式根島","lat":34.324955,"lon":139.204427},{"name":"本村前浜便所","province":"東京都","city":"新島村","address":"東京都新島村本村6丁目8","lat":34.374565,"lon":139.252012},{"name":"本村前浜便所","province":"東京都","city":"新島村","address":"東京都新島村本村2丁目4","lat":34.379261,"lon":139.25419},{"name":"新島港船客待合所","province":"東京都","city":"新島村","address":"東京都新島村字黒根","lat":34.367204,"lon":139.244964},{"name":"向山展望台トイレ","province":"東京都","city":"新島村","address":"東京都新島村字向山","lat":34.352256,"lon":139.252576},{"name":"若郷前浜（奥）","province":"東京都","city":"新島村","address":"東京都新島村若郷1","lat":34.423842,"lon":139.282281},{"name":"波伏浦野営場","province":"東京都","city":"新島村","address":"東京都新島村字檜山","lat":34.379234,"lon":139.271105},{"name":"波伏浦海岸","province":"東京都","city":"新島村","address":"東京都新島村字ナムレ","lat":34.376117,"lon":139.275297},{"name":"前浜（森電気下）","province":"東京都","city":"新島村","address":"東京都新島村本村2丁目3","lat":34.378835,"lon":139.253938},{"name":"前浜（浜庄下）","province":"東京都","city":"新島村","address":"東京都新島村本村6丁目8","lat":34.374627,"lon":139.252022},{"name":"B堤防","province":"東京都","city":"新島村","address":"東京都新島村字黒根","lat":34.369354,"lon":139.247563},{"name":"泊海水浴場トイレ","province":"東京都","city":"新島村","address":"東京都新島村式根島","lat":34.335662,"lon":139.212384},{"name":"大浦海水浴場トイレ","province":"東京都","city":"新島村","address":"東京都新島村式根島","lat":34.330577,"lon":139.209237},{"name":"神引展望台トイレ","province":"東京都","city":"新島村","address":"東京都新島村式根島","lat":34.324963,"lon":139.20442},{"name":"前田家住宅外便所","province":"東京都","city":"新島村","address":"東京都新島村本村","lat":34.37612616,"lon":139.25397696},{"name":"板絵着色婦女群犬図","province":"東京都","city":"新島村","address":"東京都新島村本村6丁目10","lat":34.37602896,"lon":139.2529687},{"name":"銅鏡(松枝散双鳥鏡外8面)","province":"東京都","city":"新島村","address":"東京都新島村本村6丁目10","lat":34.37602896,"lon":139.2529687},{"name":"銅鏡（松竹双鶴鏡外1面）","province":"東京都","city":"新島村","address":"東京都新島村本村6丁目10","lat":34.37602896,"lon":139.2529687},{"name":"銅鏡（山吹双鳥鏡外1面）","province":"東京都","city":"新島村","address":"東京都新島村式根島","lat":34.32432977,"lon":139.21927444},{"name":"新島島役所資料（646冊394通9枚）","province":"東京都","city":"新島村","address":"東京都新島村本村","lat":34.37612616,"lon":139.25397696},{"name":"新島十三社神社資料（134冊）","province":"東京都","city":"新島村","address":"東京都新島村本村6丁目10","lat":34.37602896,"lon":139.2529687},{"name":"新島の神楽","province":"東京都","city":"新島村","address":"東京都新島村本村6丁目10","lat":34.37602896,"lon":139.2529687},{"name":"獅子木遣","province":"東京都","city":"新島村","address":"東京都新島村本村6丁目10","lat":34.37602896,"lon":139.2529687},{"name":"原町の井戸","province":"東京都","city":"新島村","address":"東京都新島村本村","lat":34.37612616,"lon":139.25397696},{"name":"吹之江遺跡","province":"東京都","city":"新島村","address":"東京都新島村式根島","lat":34.32432977,"lon":139.21927444},{"name":"天宥法印墓","province":"東京都","city":"新島村","address":"東京都新島村","lat":34.37713721,"lon":139.25657395},{"name":"宝篋印塔と五輪塔","province":"東京都","city":"新島村","address":"東京都新島村本村","lat":34.37612616,"lon":139.25397696},{"name":"流人墓地","province":"東京都","city":"新島村","address":"東京都新島村本村","lat":34.37612616,"lon":139.25397696},{"name":"向畑刑場跡","province":"東京都","city":"新島村","address":"東京都新島村本村","lat":34.37612616,"lon":139.25397696},{"name":"式根島のまいまいず井戸","province":"東京都","city":"新島村","address":"東京都新島村式根島","lat":34.32432977,"lon":139.21927444},{"name":"里川の水源","province":"東京都","city":"新島村","address":"東京都新島村","lat":34.37713721,"lon":139.25657395},{"name":"新島測量基点","province":"東京都","city":"新島村","address":"東京都新島村本村","lat":34.37612616,"lon":139.25397696},{"name":"流人牢屋跡","province":"東京都","city":"新島村","address":"東京都新島村本村","lat":34.37612616,"lon":139.25397696},{"name":"薩摩畑","province":"東京都","city":"新島村","address":"東京都新島村","lat":34.37713721,"lon":139.25657395},{"name":"塩釜の跡","province":"東京都","city":"新島村","address":"東京都新島村式根島","lat":34.32432977,"lon":139.21927444},{"name":"丸山の方角石","province":"東京都","city":"新島村","address":"東京都新島村式根島","lat":34.32432977,"lon":139.21927444},{"name":"なまこ桟橋","province":"東京都","city":"新島村","address":"東京都新島村式根島","lat":34.32432977,"lon":139.21927444},{"name":"大浦野営場","province":"東京都","city":"新島村","address":"東京都新島村式根島","lat":34.330566,"lon":139.209249},{"name":"羽伏浦園地","province":"東京都","city":"新島村","address":"東京都新島村字ナムレ","lat":34.376098,"lon":139.275306},{"name":"羽伏浦公園（コロシアム）","province":"東京都","city":"新島村","address":"東京都新島村字檜山","lat":34.378296,"lon":139.274393},{"name":"羽伏浦野営場","province":"東京都","city":"新島村","address":"東京都新島村字檜山","lat":34.379032,"lon":139.271136},{"name":"間々下園地","province":"東京都","city":"新島村","address":"東京都新島村字黒根","lat":34.364378,"lon":139.24283},{"name":"間々下園地","province":"東京都","city":"新島村","address":"東京都新島村字黒根","lat":34.364234,"lon":139.243018},{"name":"若郷園地","province":"東京都","city":"新島村","address":"東京都新島村若郷1","lat":34.423818,"lon":139.282279},{"name":"泊園地","province":"東京都","city":"新島村","address":"東京都新島村式根島","lat":34.335652,"lon":139.212383},{"name":"式根島遊歩道（カンビキ）","province":"東京都","city":"新島村","address":"東京都新島村式根島","lat":34.324955,"lon":139.204427},{"name":"本村前浜便所","province":"東京都","city":"新島村","address":"東京都新島村本村6丁目8","lat":34.374565,"lon":139.252012},{"name":"本村前浜便所","province":"東京都","city":"新島村","address":"東京都新島村本村2丁目4","lat":34.379261,"lon":139.25419},{"name":"新島港船客待合所","province":"東京都","city":"新島村","address":"東京都新島村字黒根","lat":34.367204,"lon":139.244964},{"name":"向山展望台トイレ","province":"東京都","city":"新島村","address":"東京都新島村字向山","lat":34.352256,"lon":139.252576},{"name":"若郷前浜（奥）","province":"東京都","city":"新島村","address":"東京都新島村若郷1","lat":34.423842,"lon":139.282281},{"name":"波伏浦野営場","province":"東京都","city":"新島村","address":"東京都新島村字檜山","lat":34.379234,"lon":139.271105},{"name":"波伏浦海岸","province":"東京都","city":"新島村","address":"東京都新島村字ナムレ","lat":34.376117,"lon":139.275297},{"name":"前浜（森電気下）","province":"東京都","city":"新島村","address":"東京都新島村本村2丁目3","lat":34.378835,"lon":139.253938},{"name":"前浜（浜庄下）","province":"東京都","city":"新島村","address":"東京都新島村本村6丁目8","lat":34.374627,"lon":139.252022},{"name":"B堤防","province":"東京都","city":"新島村","address":"東京都新島村字黒根","lat":34.369354,"lon":139.247563},{"name":"泊海水浴場トイレ","province":"東京都","city":"新島村","address":"東京都新島村式根島","lat":34.335662,"lon":139.212384},{"name":"大浦海水浴場トイレ","province":"東京都","city":"新島村","address":"東京都新島村式根島","lat":34.330577,"lon":139.209237},{"name":"神引展望台トイレ","province":"東京都","city":"新島村","address":"東京都新島村式根島","lat":34.324963,"lon":139.20442},{"name":"前田家住宅外便所","province":"東京都","city":"新島村","address":"東京都新島村本村","lat":34.37612616,"lon":139.25397696},{"name":"板絵着色婦女群犬図","province":"東京都","city":"新島村","address":"東京都新島村本村6丁目10","lat":34.37602896,"lon":139.2529687},{"name":"銅鏡(松枝散双鳥鏡外8面)","province":"東京都","city":"新島村","address":"東京都新島村本村6丁目10","lat":34.37602896,"lon":139.2529687},{"name":"銅鏡（松竹双鶴鏡外1面）","province":"東京都","city":"新島村","address":"東京都新島村本村6丁目10","lat":34.37602896,"lon":139.2529687},{"name":"銅鏡（山吹双鳥鏡外1面）","province":"東京都","city":"新島村","address":"東京都新島村式根島","lat":34.32432977,"lon":139.21927444},{"name":"新島島役所資料（646冊394通9枚）","province":"東京都","city":"新島村","address":"東京都新島村本村","lat":34.37612616,"lon":139.25397696},{"name":"新島十三社神社資料（134冊）","province":"東京都","city":"新島村","address":"東京都新島村本村6丁目10","lat":34.37602896,"lon":139.2529687},{"name":"新島の神楽","province":"東京都","city":"新島村","address":"東京都新島村本村6丁目10","lat":34.37602896,"lon":139.2529687},{"name":"獅子木遣","province":"東京都","city":"新島村","address":"東京都新島村本村6丁目10","lat":34.37602896,"lon":139.2529687},{"name":"原町の井戸","province":"東京都","city":"新島村","address":"東京都新島村本村","lat":34.37612616,"lon":139.25397696},{"name":"吹之江遺跡","province":"東京都","city":"新島村","address":"東京都新島村式根島","lat":34.32432977,"lon":139.21927444},{"name":"天宥法印墓","province":"東京都","city":"新島村","address":"東京都新島村","lat":34.37713721,"lon":139.25657395},{"name":"宝篋印塔と五輪塔","province":"東京都","city":"新島村","address":"東京都新島村本村","lat":34.37612616,"lon":139.25397696},{"name":"流人墓地","province":"東京都","city":"新島村","address":"東京都新島村本村","lat":34.37612616,"lon":139.25397696},{"name":"向畑刑場跡","province":"東京都","city":"新島村","address":"東京都新島村本村","lat":34.37612616,"lon":139.25397696},{"name":"式根島のまいまいず井戸","province":"東京都","city":"新島村","address":"東京都新島村式根島","lat":34.32432977,"lon":139.21927444},{"name":"里川の水源","province":"東京都","city":"新島村","address":"東京都新島村","lat":34.37713721,"lon":139.25657395},{"name":"新島測量基点","province":"東京都","city":"新島村","address":"東京都新島村本村","lat":34.37612616,"lon":139.25397696},{"name":"流人牢屋跡","province":"東京都","city":"新島村","address":"東京都新島村本村","lat":34.37612616,"lon":139.25397696},{"name":"薩摩畑","province":"東京都","city":"新島村","address":"東京都新島村","lat":34.37713721,"lon":139.25657395},{"name":"塩釜の跡","province":"東京都","city":"新島村","address":"東京都新島村式根島","lat":34.32432977,"lon":139.21927444},{"name":"丸山の方角石","province":"東京都","city":"新島村","address":"東京都新島村式根島","lat":34.32432977,"lon":139.21927444},{"name":"なまこ桟橋","province":"東京都","city":"新島村","address":"東京都新島村式根島","lat":34.32432977,"lon":139.21927444},{"name":"大浦野営場","province":"東京都","city":"新島村","address":"東京都新島村式根島","lat":34.330566,"lon":139.209249},{"name":"羽伏浦園地","province":"東京都","city":"新島村","address":"東京都新島村字ナムレ","lat":34.376098,"lon":139.275306},{"name":"羽伏浦公園（コロシアム）","province":"東京都","city":"新島村","address":"東京都新島村字檜山","lat":34.378296,"lon":139.274393},{"name":"羽伏浦野営場","province":"東京都","city":"新島村","address":"東京都新島村字檜山","lat":34.379032,"lon":139.271136},{"name":"間々下園地","province":"東京都","city":"新島村","address":"東京都新島村字黒根","lat":34.364378,"lon":139.24283},{"name":"間々下園地","province":"東京都","city":"新島村","address":"東京都新島村字黒根","lat":34.364234,"lon":139.243018},{"name":"若郷園地","province":"東京都","city":"新島村","address":"東京都新島村若郷1","lat":34.423818,"lon":139.282279},{"name":"泊園地","province":"東京都","city":"新島村","address":"東京都新島村式根島","lat":34.335652,"lon":139.212383},{"name":"式根島遊歩道（カンビキ）","province":"東京都","city":"新島村","address":"東京都新島村式根島","lat":34.324955,"lon":139.204427},{"name":"本村前浜便所","province":"東京都","city":"新島村","address":"東京都新島村本村6丁目8","lat":34.374565,"lon":139.252012},{"name":"本村前浜便所","province":"東京都","city":"新島村","address":"東京都新島村本村2丁目4","lat":34.379261,"lon":139.25419},{"name":"新島港船客待合所","province":"東京都","city":"新島村","address":"東京都新島村字黒根","lat":34.367204,"lon":139.244964},{"name":"向山展望台トイレ","province":"東京都","city":"新島村","address":"東京都新島村字向山","lat":34.352256,"lon":139.252576},{"name":"若郷前浜（奥）","province":"東京都","city":"新島村","address":"東京都新島村若郷1","lat":34.423842,"lon":139.282281},{"name":"波伏浦野営場","province":"東京都","city":"新島村","address":"東京都新島村字檜山","lat":34.379234,"lon":139.271105},{"name":"波伏浦海岸","province":"東京都","city":"新島村","address":"東京都新島村字ナムレ","lat":34.376117,"lon":139.275297},{"name":"前浜（森電気下）","province":"東京都","city":"新島村","address":"東京都新島村本村2丁目3","lat":34.378835,"lon":139.253938},{"name":"前浜（浜庄下）","province":"東京都","city":"新島村","address":"東京都新島村本村6丁目8","lat":34.374627,"lon":139.252022},{"name":"B堤防","province":"東京都","city":"新島村","address":"東京都新島村字黒根","lat":34.369354,"lon":139.247563},{"name":"泊海水浴場トイレ","province":"東京都","city":"新島村","address":"東京都新島村式根島","lat":34.335662,"lon":139.212384},{"name":"大浦海水浴場トイレ","province":"東京都","city":"新島村","address":"東京都新島村式根島","lat":34.330577,"lon":139.209237},{"name":"神引展望台トイレ","province":"東京都","city":"新島村","address":"東京都新島村式根島","lat":34.324963,"lon":139.20442},{"name":"前田家住宅外便所","province":"東京都","city":"新島村","address":"東京都新島村本村","lat":34.37612616,"lon":139.25397696},{"name":"板絵着色婦女群犬図","province":"東京都","city":"新島村","address":"東京都新島村本村6丁目10","lat":34.37602896,"lon":139.2529687},{"name":"銅鏡(松枝散双鳥鏡外8面)","province":"東京都","city":"新島村","address":"東京都新島村本村6丁目10","lat":34.37602896,"lon":139.2529687},{"name":"銅鏡（松竹双鶴鏡外1面）","province":"東京都","city":"新島村","address":"東京都新島村本村6丁目10","lat":34.37602896,"lon":139.2529687},{"name":"銅鏡（山吹双鳥鏡外1面）","province":"東京都","city":"新島村","address":"東京都新島村式根島","lat":34.32432977,"lon":139.21927444},{"name":"新島島役所資料（646冊394通9枚）","province":"東京都","city":"新島村","address":"東京都新島村本村","lat":34.37612616,"lon":139.25397696},{"name":"新島十三社神社資料（134冊）","province":"東京都","city":"新島村","address":"東京都新島村本村6丁目10","lat":34.37602896,"lon":139.2529687},{"name":"新島の神楽","province":"東京都","city":"新島村","address":"東京都新島村本村6丁目10","lat":34.37602896,"lon":139.2529687},{"name":"獅子木遣","province":"東京都","city":"新島村","address":"東京都新島村本村6丁目10","lat":34.37602896,"lon":139.2529687},{"name":"原町の井戸","province":"東京都","city":"新島村","address":"東京都新島村本村","lat":34.37612616,"lon":139.25397696},{"name":"吹之江遺跡","province":"東京都","city":"新島村","address":"東京都新島村式根島","lat":34.32432977,"lon":139.21927444},{"name":"天宥法印墓","province":"東京都","city":"新島村","address":"東京都新島村","lat":34.37713721,"lon":139.25657395},{"name":"宝篋印塔と五輪塔","province":"東京都","city":"新島村","address":"東京都新島村本村","lat":34.37612616,"lon":139.25397696},{"name":"流人墓地","province":"東京都","city":"新島村","address":"東京都新島村本村","lat":34.37612616,"lon":139.25397696},{"name":"向畑刑場跡","province":"東京都","city":"新島村","address":"東京都新島村本村","lat":34.37612616,"lon":139.25397696},{"name":"式根島のまいまいず井戸","province":"東京都","city":"新島村","address":"東京都新島村式根島","lat":34.32432977,"lon":139.21927444},{"name":"里川の水源","province":"東京都","city":"新島村","address":"東京都新島村","lat":34.37713721,"lon":139.25657395},{"name":"新島測量基点","province":"東京都","city":"新島村","address":"東京都新島村本村","lat":34.37612616,"lon":139.25397696},{"name":"流人牢屋跡","province":"東京都","city":"新島村","address":"東京都新島村本村","lat":34.37612616,"lon":139.25397696},{"name":"薩摩畑","province":"東京都","city":"新島村","address":"東京都新島村","lat":34.37713721,"lon":139.25657395},{"name":"塩釜の跡","province":"東京都","city":"新島村","address":"東京都新島村式根島","lat":34.32432977,"lon":139.21927444},{"name":"丸山の方角石","province":"東京都","city":"新島村","address":"東京都新島村式根島","lat":34.32432977,"lon":139.21927444},{"name":"なまこ桟橋","province":"東京都","city":"新島村","address":"東京都新島村式根島","lat":34.32432977,"lon":139.21927444},{"name":"大浦野営場","province":"東京都","city":"新島村","address":"東京都新島村式根島","lat":34.330566,"lon":139.209249},{"name":"羽伏浦園地","province":"東京都","city":"新島村","address":"東京都新島村字ナムレ","lat":34.376098,"lon":139.275306},{"name":"羽伏浦公園（コロシアム）","province":"東京都","city":"新島村","address":"東京都新島村字檜山","lat":34.378296,"lon":139.274393},{"name":"羽伏浦野営場","province":"東京都","city":"新島村","address":"東京都新島村字檜山","lat":34.379032,"lon":139.271136},{"name":"間々下園地","province":"東京都","city":"新島村","address":"東京都新島村字黒根","lat":34.364378,"lon":139.24283},{"name":"間々下園地","province":"東京都","city":"新島村","address":"東京都新島村字黒根","lat":34.364234,"lon":139.243018},{"name":"若郷園地","province":"東京都","city":"新島村","address":"東京都新島村若郷1","lat":34.423818,"lon":139.282279},{"name":"泊園地","province":"東京都","city":"新島村","address":"東京都新島村式根島","lat":34.335652,"lon":139.212383},{"name":"式根島遊歩道（カンビキ）","province":"東京都","city":"新島村","address":"東京都新島村式根島","lat":34.324955,"lon":139.204427},{"name":"本村前浜便所","province":"東京都","city":"新島村","address":"東京都新島村本村6丁目8","lat":34.374565,"lon":139.252012},{"name":"本村前浜便所","province":"東京都","city":"新島村","address":"東京都新島村本村2丁目4","lat":34.379261,"lon":139.25419},{"name":"新島港船客待合所","province":"東京都","city":"新島村","address":"東京都新島村字黒根","lat":34.367204,"lon":139.244964},{"name":"向山展望台トイレ","province":"東京都","city":"新島村","address":"東京都新島村字向山","lat":34.352256,"lon":139.252576},{"name":"若郷前浜（奥）","province":"東京都","city":"新島村","address":"東京都新島村若郷1","lat":34.423842,"lon":139.282281},{"name":"波伏浦野営場","province":"東京都","city":"新島村","address":"東京都新島村字檜山","lat":34.379234,"lon":139.271105},{"name":"波伏浦海岸","province":"東京都","city":"新島村","address":"東京都新島村字ナムレ","lat":34.376117,"lon":139.275297},{"name":"前浜（森電気下）","province":"東京都","city":"新島村","address":"東京都新島村本村2丁目3","lat":34.378835,"lon":139.253938},{"name":"前浜（浜庄下）","province":"東京都","city":"新島村","address":"東京都新島村本村6丁目8","lat":34.374627,"lon":139.252022},{"name":"B堤防","province":"東京都","city":"新島村","address":"東京都新島村字黒根","lat":34.369354,"lon":139.247563},{"name":"泊海水浴場トイレ","province":"東京都","city":"新島村","address":"東京都新島村式根島","lat":34.335662,"lon":139.212384},{"name":"大浦海水浴場トイレ","province":"東京都","city":"新島村","address":"東京都新島村式根島","lat":34.330577,"lon":139.209237},{"name":"神引展望台トイレ","province":"東京都","city":"新島村","address":"東京都新島村式根島","lat":34.324963,"lon":139.20442},{"name":"前田家住宅外便所","province":"東京都","city":"新島村","address":"東京都新島村本村","lat":34.37612616,"lon":139.25397696},{"name":"板絵着色婦女群犬図","province":"東京都","city":"新島村","address":"東京都新島村本村6丁目10","lat":34.37602896,"lon":139.2529687},{"name":"銅鏡(松枝散双鳥鏡外8面)","province":"東京都","city":"新島村","address":"東京都新島村本村6丁目10","lat":34.37602896,"lon":139.2529687},{"name":"銅鏡（松竹双鶴鏡外1面）","province":"東京都","city":"新島村","address":"東京都新島村本村6丁目10","lat":34.37602896,"lon":139.2529687},{"name":"銅鏡（山吹双鳥鏡外1面）","province":"東京都","city":"新島村","address":"東京都新島村式根島","lat":34.32432977,"lon":139.21927444},{"name":"新島島役所資料（646冊394通9枚）","province":"東京都","city":"新島村","address":"東京都新島村本村","lat":34.37612616,"lon":139.25397696},{"name":"新島十三社神社資料（134冊）","province":"東京都","city":"新島村","address":"東京都新島村本村6丁目10","lat":34.37602896,"lon":139.2529687},{"name":"新島の神楽","province":"東京都","city":"新島村","address":"東京都新島村本村6丁目10","lat":34.37602896,"lon":139.2529687},{"name":"獅子木遣","province":"東京都","city":"新島村","address":"東京都新島村本村6丁目10","lat":34.37602896,"lon":139.2529687},{"name":"原町の井戸","province":"東京都","city":"新島村","address":"東京都新島村本村","lat":34.37612616,"lon":139.25397696},{"name":"吹之江遺跡","province":"東京都","city":"新島村","address":"東京都新島村式根島","lat":34.32432977,"lon":139.21927444},{"name":"天宥法印墓","province":"東京都","city":"新島村","address":"東京都新島村","lat":34.37713721,"lon":139.25657395},{"name":"宝篋印塔と五輪塔","province":"東京都","city":"新島村","address":"東京都新島村本村","lat":34.37612616,"lon":139.25397696},{"name":"流人墓地","province":"東京都","city":"新島村","address":"東京都新島村本村","lat":34.37612616,"lon":139.25397696},{"name":"向畑刑場跡","province":"東京都","city":"新島村","address":"東京都新島村本村","lat":34.37612616,"lon":139.25397696},{"name":"式根島のまいまいず井戸","province":"東京都","city":"新島村","address":"東京都新島村式根島","lat":34.32432977,"lon":139.21927444},{"name":"里川の水源","province":"東京都","city":"新島村","address":"東京都新島村","lat":34.37713721,"lon":139.25657395},{"name":"新島測量基点","province":"東京都","city":"新島村","address":"東京都新島村本村","lat":34.37612616,"lon":139.25397696},{"name":"流人牢屋跡","province":"東京都","city":"新島村","address":"東京都新島村本村","lat":34.37612616,"lon":139.25397696},{"name":"薩摩畑","province":"東京都","city":"新島村","address":"東京都新島村","lat":34.37713721,"lon":139.25657395},{"name":"塩釜の跡","province":"東京都","city":"新島村","address":"東京都新島村式根島","lat":34.32432977,"lon":139.21927444},{"name":"丸山の方角石","province":"東京都","city":"新島村","address":"東京都新島村式根島","lat":34.32432977,"lon":139.21927444},{"name":"なまこ桟橋","province":"東京都","city":"新島村","address":"東京都新島村式根島","lat":34.32432977,"lon":139.21927444},{"name":"大浦野営場","province":"東京都","city":"新島村","address":"東京都新島村式根島","lat":34.330566,"lon":139.209249},{"name":"羽伏浦園地","province":"東京都","city":"新島村","address":"東京都新島村字ナムレ","lat":34.376098,"lon":139.275306},{"name":"羽伏浦公園（コロシアム）","province":"東京都","city":"新島村","address":"東京都新島村字檜山","lat":34.378296,"lon":139.274393},{"name":"羽伏浦野営場","province":"東京都","city":"新島村","address":"東京都新島村字檜山","lat":34.379032,"lon":139.271136},{"name":"間々下園地","province":"東京都","city":"新島村","address":"東京都新島村字黒根","lat":34.364378,"lon":139.24283},{"name":"間々下園地","province":"東京都","city":"新島村","address":"東京都新島村字黒根","lat":34.364234,"lon":139.243018},{"name":"若郷園地","province":"東京都","city":"新島村","address":"東京都新島村若郷1","lat":34.423818,"lon":139.282279},{"name":"泊園地","province":"東京都","city":"新島村","address":"東京都新島村式根島","lat":34.335652,"lon":139.212383},{"name":"式根島遊歩道（カンビキ）","province":"東京都","city":"新島村","address":"東京都新島村式根島","lat":34.324955,"lon":139.204427},{"name":"本村前浜便所","province":"東京都","city":"新島村","address":"東京都新島村本村6丁目8","lat":34.374565,"lon":139.252012},{"name":"本村前浜便所","province":"東京都","city":"新島村","address":"東京都新島村本村2丁目4","lat":34.379261,"lon":139.25419},{"name":"新島港船客待合所","province":"東京都","city":"新島村","address":"東京都新島村字黒根","lat":34.367204,"lon":139.244964},{"name":"向山展望台トイレ","province":"東京都","city":"新島村","address":"東京都新島村字向山","lat":34.352256,"lon":139.252576},{"name":"若郷前浜（奥）","province":"東京都","city":"新島村","address":"東京都新島村若郷1","lat":34.423842,"lon":139.282281},{"name":"波伏浦野営場","province":"東京都","city":"新島村","address":"東京都新島村字檜山","lat":34.379234,"lon":139.271105},{"name":"波伏浦海岸","province":"東京都","city":"新島村","address":"東京都新島村字ナムレ","lat":34.376117,"lon":139.275297},{"name":"前浜（森電気下）","province":"東京都","city":"新島村","address":"東京都新島村本村2丁目3","lat":34.378835,"lon":139.253938},{"name":"前浜（浜庄下）","province":"東京都","city":"新島村","address":"東京都新島村本村6丁目8","lat":34.374627,"lon":139.252022},{"name":"B堤防","province":"東京都","city":"新島村","address":"東京都新島村字黒根","lat":34.369354,"lon":139.247563},{"name":"泊海水浴場トイレ","province":"東京都","city":"新島村","address":"東京都新島村式根島","lat":34.335662,"lon":139.212384},{"name":"大浦海水浴場トイレ","province":"東京都","city":"新島村","address":"東京都新島村式根島","lat":34.330577,"lon":139.209237},{"name":"神引展望台トイレ","province":"東京都","city":"新島村","address":"東京都新島村式根島","lat":34.324963,"lon":139.20442},{"name":"前田家住宅外便所","province":"東京都","city":"新島村","address":"東京都新島村本村","lat":34.37612616,"lon":139.25397696},{"name":"板絵着色婦女群犬図","province":"東京都","city":"新島村","address":"東京都新島村本村6丁目10","lat":34.37602896,"lon":139.2529687},{"name":"銅鏡(松枝散双鳥鏡外8面)","province":"東京都","city":"新島村","address":"東京都新島村本村6丁目10","lat":34.37602896,"lon":139.2529687},{"name":"銅鏡（松竹双鶴鏡外1面）","province":"東京都","city":"新島村","address":"東京都新島村本村6丁目10","lat":34.37602896,"lon":139.2529687},{"name":"銅鏡（山吹双鳥鏡外1面）","province":"東京都","city":"新島村","address":"東京都新島村式根島","lat":34.32432977,"lon":139.21927444},{"name":"新島島役所資料（646冊394通9枚）","province":"東京都","city":"新島村","address":"東京都新島村本村","lat":34.37612616,"lon":139.25397696},{"name":"新島十三社神社資料（134冊）","province":"東京都","city":"新島村","address":"東京都新島村本村6丁目10","lat":34.37602896,"lon":139.2529687},{"name":"新島の神楽","province":"東京都","city":"新島村","address":"東京都新島村本村6丁目10","lat":34.37602896,"lon":139.2529687},{"name":"獅子木遣","province":"東京都","city":"新島村","address":"東京都新島村本村6丁目10","lat":34.37602896,"lon":139.2529687},{"name":"原町の井戸","province":"東京都","city":"新島村","address":"東京都新島村本村","lat":34.37612616,"lon":139.25397696},{"name":"吹之江遺跡","province":"東京都","city":"新島村","address":"東京都新島村式根島","lat":34.32432977,"lon":139.21927444},{"name":"天宥法印墓","province":"東京都","city":"新島村","address":"東京都新島村","lat":34.37713721,"lon":139.25657395},{"name":"宝篋印塔と五輪塔","province":"東京都","city":"新島村","address":"東京都新島村本村","lat":34.37612616,"lon":139.25397696},{"name":"流人墓地","province":"東京都","city":"新島村","address":"東京都新島村本村","lat":34.37612616,"lon":139.25397696},{"name":"向畑刑場跡","province":"東京都","city":"新島村","address":"東京都新島村本村","lat":34.37612616,"lon":139.25397696},{"name":"式根島のまいまいず井戸","province":"東京都","city":"新島村","address":"東京都新島村式根島","lat":34.32432977,"lon":139.21927444},{"name":"里川の水源","province":"東京都","city":"新島村","address":"東京都新島村","lat":34.37713721,"lon":139.25657395},{"name":"新島測量基点","province":"東京都","city":"新島村","address":"東京都新島村本村","lat":34.37612616,"lon":139.25397696},{"name":"流人牢屋跡","province":"東京都","city":"新島村","address":"東京都新島村本村","lat":34.37612616,"lon":139.25397696},{"name":"薩摩畑","province":"東京都","city":"新島村","address":"東京都新島村","lat":34.37713721,"lon":139.25657395},{"name":"塩釜の跡","province":"東京都","city":"新島村","address":"東京都新島村式根島","lat":34.32432977,"lon":139.21927444},{"name":"丸山の方角石","province":"東京都","city":"新島村","address":"東京都新島村式根島","lat":34.32432977,"lon":139.21927444},{"name":"なまこ桟橋","province":"東京都","city":"新島村","address":"東京都新島村式根島","lat":34.32432977,"lon":139.21927444},{"name":"大浦野営場","province":"東京都","city":"新島村","address":"東京都新島村式根島","lat":34.330566,"lon":139.209249},{"name":"羽伏浦園地","province":"東京都","city":"新島村","address":"東京都新島村字ナムレ","lat":34.376098,"lon":139.275306},{"name":"羽伏浦公園（コロシアム）","province":"東京都","city":"新島村","address":"東京都新島村字檜山","lat":34.378296,"lon":139.274393},{"name":"羽伏浦野営場","province":"東京都","city":"新島村","address":"東京都新島村字檜山","lat":34.379032,"lon":139.271136},{"name":"間々下園地","province":"東京都","city":"新島村","address":"東京都新島村字黒根","lat":34.364378,"lon":139.24283},{"name":"間々下園地","province":"東京都","city":"新島村","address":"東京都新島村字黒根","lat":34.364234,"lon":139.243018},{"name":"若郷園地","province":"東京都","city":"新島村","address":"東京都新島村若郷1","lat":34.423818,"lon":139.282279},{"name":"泊園地","province":"東京都","city":"新島村","address":"東京都新島村式根島","lat":34.335652,"lon":139.212383},{"name":"式根島遊歩道（カンビキ）","province":"東京都","city":"新島村","address":"東京都新島村式根島","lat":34.324955,"lon":139.204427},{"name":"本村前浜便所","province":"東京都","city":"新島村","address":"東京都新島村本村6丁目8","lat":34.374565,"lon":139.252012},{"name":"本村前浜便所","province":"東京都","city":"新島村","address":"東京都新島村本村2丁目4","lat":34.379261,"lon":139.25419},{"name":"新島港船客待合所","province":"東京都","city":"新島村","address":"東京都新島村字黒根","lat":34.367204,"lon":139.244964},{"name":"向山展望台トイレ","province":"東京都","city":"新島村","address":"東京都新島村字向山","lat":34.352256,"lon":139.252576},{"name":"若郷前浜（奥）","province":"東京都","city":"新島村","address":"東京都新島村若郷1","lat":34.423842,"lon":139.282281},{"name":"波伏浦野営場","province":"東京都","city":"新島村","address":"東京都新島村字檜山","lat":34.379234,"lon":139.271105},{"name":"波伏浦海岸","province":"東京都","city":"新島村","address":"東京都新島村字ナムレ","lat":34.376117,"lon":139.275297},{"name":"前浜（森電気下）","province":"東京都","city":"新島村","address":"東京都新島村本村2丁目3","lat":34.378835,"lon":139.253938},{"name":"前浜（浜庄下）","province":"東京都","city":"新島村","address":"東京都新島村本村6丁目8","lat":34.374627,"lon":139.252022},{"name":"B堤防","province":"東京都","city":"新島村","address":"東京都新島村字黒根","lat":34.369354,"lon":139.247563},{"name":"泊海水浴場トイレ","province":"東京都","city":"新島村","address":"東京都新島村式根島","lat":34.335662,"lon":139.212384},{"name":"大浦海水浴場トイレ","province":"東京都","city":"新島村","address":"東京都新島村式根島","lat":34.330577,"lon":139.209237},{"name":"神引展望台トイレ","province":"東京都","city":"新島村","address":"東京都新島村式根島","lat":34.324963,"lon":139.20442},{"name":"前田家住宅外便所","province":"東京都","city":"新島村","address":"東京都新島村本村","lat":34.37612616,"lon":139.25397696},{"name":"板絵着色婦女群犬図","province":"東京都","city":"新島村","address":"東京都新島村本村6丁目10","lat":34.37602896,"lon":139.2529687},{"name":"銅鏡(松枝散双鳥鏡外8面)","province":"東京都","city":"新島村","address":"東京都新島村本村6丁目10","lat":34.37602896,"lon":139.2529687},{"name":"銅鏡（松竹双鶴鏡外1面）","province":"東京都","city":"新島村","address":"東京都新島村本村6丁目10","lat":34.37602896,"lon":139.2529687},{"name":"銅鏡（山吹双鳥鏡外1面）","province":"東京都","city":"新島村","address":"東京都新島村式根島","lat":34.32432977,"lon":139.21927444},{"name":"新島島役所資料（646冊394通9枚）","province":"東京都","city":"新島村","address":"東京都新島村本村","lat":34.37612616,"lon":139.25397696},{"name":"新島十三社神社資料（134冊）","province":"東京都","city":"新島村","address":"東京都新島村本村6丁目10","lat":34.37602896,"lon":139.2529687},{"name":"新島の神楽","province":"東京都","city":"新島村","address":"東京都新島村本村6丁目10","lat":34.37602896,"lon":139.2529687},{"name":"獅子木遣","province":"東京都","city":"新島村","address":"東京都新島村本村6丁目10","lat":34.37602896,"lon":139.2529687},{"name":"原町の井戸","province":"東京都","city":"新島村","address":"東京都新島村本村","lat":34.37612616,"lon":139.25397696},{"name":"吹之江遺跡","province":"東京都","city":"新島村","address":"東京都新島村式根島","lat":34.32432977,"lon":139.21927444},{"name":"天宥法印墓","province":"東京都","city":"新島村","address":"東京都新島村","lat":34.37713721,"lon":139.25657395},{"name":"宝篋印塔と五輪塔","province":"東京都","city":"新島村","address":"東京都新島村本村","lat":34.37612616,"lon":139.25397696},{"name":"流人墓地","province":"東京都","city":"新島村","address":"東京都新島村本村","lat":34.37612616,"lon":139.25397696},{"name":"向畑刑場跡","province":"東京都","city":"新島村","address":"東京都新島村本村","lat":34.37612616,"lon":139.25397696},{"name":"式根島のまいまいず井戸","province":"東京都","city":"新島村","address":"東京都新島村式根島","lat":34.32432977,"lon":139.21927444},{"name":"里川の水源","province":"東京都","city":"新島村","address":"東京都新島村","lat":34.37713721,"lon":139.25657395},{"name":"新島測量基点","province":"東京都","city":"新島村","address":"東京都新島村本村","lat":34.37612616,"lon":139.25397696},{"name":"流人牢屋跡","province":"東京都","city":"新島村","address":"東京都新島村本村","lat":34.37612616,"lon":139.25397696},{"name":"薩摩畑","province":"東京都","city":"新島村","address":"東京都新島村","lat":34.37713721,"lon":139.25657395},{"name":"塩釜の跡","province":"東京都","city":"新島村","address":"東京都新島村式根島","lat":34.32432977,"lon":139.21927444},{"name":"丸山の方角石","province":"東京都","city":"新島村","address":"東京都新島村式根島","lat":34.32432977,"lon":139.21927444},{"name":"なまこ桟橋","province":"東京都","city":"新島村","address":"東京都新島村式根島","lat":34.32432977,"lon":139.21927444},{"name":"大浦野営場","province":"東京都","city":"新島村","address":"東京都新島村式根島","lat":34.330566,"lon":139.209249},{"name":"羽伏浦園地","province":"東京都","city":"新島村","address":"東京都新島村字ナムレ","lat":34.376098,"lon":139.275306},{"name":"羽伏浦公園（コロシアム）","province":"東京都","city":"新島村","address":"東京都新島村字檜山","lat":34.378296,"lon":139.274393},{"name":"羽伏浦野営場","province":"東京都","city":"新島村","address":"東京都新島村字檜山","lat":34.379032,"lon":139.271136},{"name":"間々下園地","province":"東京都","city":"新島村","address":"東京都新島村字黒根","lat":34.364378,"lon":139.24283},{"name":"間々下園地","province":"東京都","city":"新島村","address":"東京都新島村字黒根","lat":34.364234,"lon":139.243018},{"name":"若郷園地","province":"東京都","city":"新島村","address":"東京都新島村若郷1","lat":34.423818,"lon":139.282279},{"name":"泊園地","province":"東京都","city":"新島村","address":"東京都新島村式根島","lat":34.335652,"lon":139.212383},{"name":"式根島遊歩道（カンビキ）","province":"東京都","city":"新島村","address":"東京都新島村式根島","lat":34.324955,"lon":139.204427},{"name":"本村前浜便所","province":"東京都","city":"新島村","address":"東京都新島村本村6丁目8","lat":34.374565,"lon":139.252012},{"name":"本村前浜便所","province":"東京都","city":"新島村","address":"東京都新島村本村2丁目4","lat":34.379261,"lon":139.25419},{"name":"新島港船客待合所","province":"東京都","city":"新島村","address":"東京都新島村字黒根","lat":34.367204,"lon":139.244964},{"name":"向山展望台トイレ","province":"東京都","city":"新島村","address":"東京都新島村字向山","lat":34.352256,"lon":139.252576},{"name":"若郷前浜（奥）","province":"東京都","city":"新島村","address":"東京都新島村若郷1","lat":34.423842,"lon":139.282281},{"name":"波伏浦野営場","province":"東京都","city":"新島村","address":"東京都新島村字檜山","lat":34.379234,"lon":139.271105},{"name":"波伏浦海岸","province":"東京都","city":"新島村","address":"東京都新島村字ナムレ","lat":34.376117,"lon":139.275297},{"name":"前浜（森電気下）","province":"東京都","city":"新島村","address":"東京都新島村本村2丁目3","lat":34.378835,"lon":139.253938},{"name":"前浜（浜庄下）","province":"東京都","city":"新島村","address":"東京都新島村本村6丁目8","lat":34.374627,"lon":139.252022},{"name":"B堤防","province":"東京都","city":"新島村","address":"東京都新島村字黒根","lat":34.369354,"lon":139.247563},{"name":"泊海水浴場トイレ","province":"東京都","city":"新島村","address":"東京都新島村式根島","lat":34.335662,"lon":139.212384},{"name":"大浦海水浴場トイレ","province":"東京都","city":"新島村","address":"東京都新島村式根島","lat":34.330577,"lon":139.209237},{"name":"神引展望台トイレ","province":"東京都","city":"新島村","address":"東京都新島村式根島","lat":34.324963,"lon":139.20442},{"name":"前田家住宅外便所","province":"東京都","city":"新島村","address":"東京都新島村本村","lat":34.37612616,"lon":139.25397696},{"name":"板絵着色婦女群犬図","province":"東京都","city":"新島村","address":"東京都新島村本村6丁目10","lat":34.37602896,"lon":139.2529687},{"name":"銅鏡(松枝散双鳥鏡外8面)","province":"東京都","city":"新島村","address":"東京都新島村本村6丁目10","lat":34.37602896,"lon":139.2529687},{"name":"銅鏡（松竹双鶴鏡外1面）","province":"東京都","city":"新島村","address":"東京都新島村本村6丁目10","lat":34.37602896,"lon":139.2529687},{"name":"銅鏡（山吹双鳥鏡外1面）","province":"東京都","city":"新島村","address":"東京都新島村式根島","lat":34.32432977,"lon":139.21927444},{"name":"新島島役所資料（646冊394通9枚）","province":"東京都","city":"新島村","address":"東京都新島村本村","lat":34.37612616,"lon":139.25397696},{"name":"新島十三社神社資料（134冊）","province":"東京都","city":"新島村","address":"東京都新島村本村6丁目10","lat":34.37602896,"lon":139.2529687},{"name":"新島の神楽","province":"東京都","city":"新島村","address":"東京都新島村本村6丁目10","lat":34.37602896,"lon":139.2529687},{"name":"獅子木遣","province":"東京都","city":"新島村","address":"東京都新島村本村6丁目10","lat":34.37602896,"lon":139.2529687},{"name":"原町の井戸","province":"東京都","city":"新島村","address":"東京都新島村本村","lat":34.37612616,"lon":139.25397696},{"name":"吹之江遺跡","province":"東京都","city":"新島村","address":"東京都新島村式根島","lat":34.32432977,"lon":139.21927444},{"name":"天宥法印墓","province":"東京都","city":"新島村","address":"東京都新島村","lat":34.37713721,"lon":139.25657395},{"name":"宝篋印塔と五輪塔","province":"東京都","city":"新島村","address":"東京都新島村本村","lat":34.37612616,"lon":139.25397696},{"name":"流人墓地","province":"東京都","city":"新島村","address":"東京都新島村本村","lat":34.37612616,"lon":139.25397696},{"name":"向畑刑場跡","province":"東京都","city":"新島村","address":"東京都新島村本村","lat":34.37612616,"lon":139.25397696},{"name":"式根島のまいまいず井戸","province":"東京都","city":"新島村","address":"東京都新島村式根島","lat":34.32432977,"lon":139.21927444},{"name":"里川の水源","province":"東京都","city":"新島村","address":"東京都新島村","lat":34.37713721,"lon":139.25657395},{"name":"新島測量基点","province":"東京都","city":"新島村","address":"東京都新島村本村","lat":34.37612616,"lon":139.25397696},{"name":"流人牢屋跡","province":"東京都","city":"新島村","address":"東京都新島村本村","lat":34.37612616,"lon":139.25397696},{"name":"薩摩畑","province":"東京都","city":"新島村","address":"東京都新島村","lat":34.37713721,"lon":139.25657395},{"name":"塩釜の跡","province":"東京都","city":"新島村","address":"東京都新島村式根島","lat":34.32432977,"lon":139.21927444},{"name":"丸山の方角石","province":"東京都","city":"新島村","address":"東京都新島村式根島","lat":34.32432977,"lon":139.21927444},{"name":"なまこ桟橋","province":"東京都","city":"新島村","address":"東京都新島村式根島","lat":34.32432977,"lon":139.21927444},{"name":"大浦野営場","province":"東京都","city":"新島村","address":"東京都新島村式根島","lat":34.330566,"lon":139.209249},{"name":"羽伏浦園地","province":"東京都","city":"新島村","address":"東京都新島村字ナムレ","lat":34.376098,"lon":139.275306},{"name":"羽伏浦公園（コロシアム）","province":"東京都","city":"新島村","address":"東京都新島村字檜山","lat":34.378296,"lon":139.274393},{"name":"羽伏浦野営場","province":"東京都","city":"新島村","address":"東京都新島村字檜山","lat":34.379032,"lon":139.271136},{"name":"間々下園地","province":"東京都","city":"新島村","address":"東京都新島村字黒根","lat":34.364378,"lon":139.24283},{"name":"間々下園地","province":"東京都","city":"新島村","address":"東京都新島村字黒根","lat":34.364234,"lon":139.243018},{"name":"若郷園地","province":"東京都","city":"新島村","address":"東京都新島村若郷1","lat":34.423818,"lon":139.282279},{"name":"泊園地","province":"東京都","city":"新島村","address":"東京都新島村式根島","lat":34.335652,"lon":139.212383},{"name":"式根島遊歩道（カンビキ）","province":"東京都","city":"新島村","address":"東京都新島村式根島","lat":34.324955,"lon":139.204427},{"name":"本村前浜便所","province":"東京都","city":"新島村","address":"東京都新島村本村6丁目8","lat":34.374565,"lon":139.252012},{"name":"本村前浜便所","province":"東京都","city":"新島村","address":"東京都新島村本村2丁目4","lat":34.379261,"lon":139.25419},{"name":"新島港船客待合所","province":"東京都","city":"新島村","address":"東京都新島村字黒根","lat":34.367204,"lon":139.244964},{"name":"向山展望台トイレ","province":"東京都","city":"新島村","address":"東京都新島村字向山","lat":34.352256,"lon":139.252576},{"name":"若郷前浜（奥）","province":"東京都","city":"新島村","address":"東京都新島村若郷1","lat":34.423842,"lon":139.282281},{"name":"波伏浦野営場","province":"東京都","city":"新島村","address":"東京都新島村字檜山","lat":34.379234,"lon":139.271105},{"name":"波伏浦海岸","province":"東京都","city":"新島村","address":"東京都新島村字ナムレ","lat":34.376117,"lon":139.275297},{"name":"前浜（森電気下）","province":"東京都","city":"新島村","address":"東京都新島村本村2丁目3","lat":34.378835,"lon":139.253938},{"name":"前浜（浜庄下）","province":"東京都","city":"新島村","address":"東京都新島村本村6丁目8","lat":34.374627,"lon":139.252022},{"name":"B堤防","province":"東京都","city":"新島村","address":"東京都新島村字黒根","lat":34.369354,"lon":139.247563},{"name":"泊海水浴場トイレ","province":"東京都","city":"新島村","address":"東京都新島村式根島","lat":34.335662,"lon":139.212384},{"name":"大浦海水浴場トイレ","province":"東京都","city":"新島村","address":"東京都新島村式根島","lat":34.330577,"lon":139.209237},{"name":"神引展望台トイレ","province":"東京都","city":"新島村","address":"東京都新島村式根島","lat":34.324963,"lon":139.20442},{"name":"前田家住宅外便所","province":"東京都","city":"新島村","address":"東京都新島村本村","lat":34.37612616,"lon":139.25397696},{"name":"板絵着色婦女群犬図","province":"東京都","city":"新島村","address":"東京都新島村本村6丁目10","lat":34.37602896,"lon":139.2529687},{"name":"銅鏡(松枝散双鳥鏡外8面)","province":"東京都","city":"新島村","address":"東京都新島村本村6丁目10","lat":34.37602896,"lon":139.2529687},{"name":"銅鏡（松竹双鶴鏡外1面）","province":"東京都","city":"新島村","address":"東京都新島村本村6丁目10","lat":34.37602896,"lon":139.2529687},{"name":"銅鏡（山吹双鳥鏡外1面）","province":"東京都","city":"新島村","address":"東京都新島村式根島","lat":34.32432977,"lon":139.21927444},{"name":"新島島役所資料（646冊394通9枚）","province":"東京都","city":"新島村","address":"東京都新島村本村","lat":34.37612616,"lon":139.25397696},{"name":"新島十三社神社資料（134冊）","province":"東京都","city":"新島村","address":"東京都新島村本村6丁目10","lat":34.37602896,"lon":139.2529687},{"name":"新島の神楽","province":"東京都","city":"新島村","address":"東京都新島村本村6丁目10","lat":34.37602896,"lon":139.2529687},{"name":"獅子木遣","province":"東京都","city":"新島村","address":"東京都新島村本村6丁目10","lat":34.37602896,"lon":139.2529687},{"name":"原町の井戸","province":"東京都","city":"新島村","address":"東京都新島村本村","lat":34.37612616,"lon":139.25397696},{"name":"吹之江遺跡","province":"東京都","city":"新島村","address":"東京都新島村式根島","lat":34.32432977,"lon":139.21927444},{"name":"天宥法印墓","province":"東京都","city":"新島村","address":"東京都新島村","lat":34.37713721,"lon":139.25657395},{"name":"宝篋印塔と五輪塔","province":"東京都","city":"新島村","address":"東京都新島村本村","lat":34.37612616,"lon":139.25397696},{"name":"流人墓地","province":"東京都","city":"新島村","address":"東京都新島村本村","lat":34.37612616,"lon":139.25397696},{"name":"向畑刑場跡","province":"東京都","city":"新島村","address":"東京都新島村本村","lat":34.37612616,"lon":139.25397696},{"name":"式根島のまいまいず井戸","province":"東京都","city":"新島村","address":"東京都新島村式根島","lat":34.32432977,"lon":139.21927444},{"name":"里川の水源","province":"東京都","city":"新島村","address":"東京都新島村","lat":34.37713721,"lon":139.25657395},{"name":"新島測量基点","province":"東京都","city":"新島村","address":"東京都新島村本村","lat":34.37612616,"lon":139.25397696},{"name":"流人牢屋跡","province":"東京都","city":"新島村","address":"東京都新島村本村","lat":34.37612616,"lon":139.25397696},{"name":"薩摩畑","province":"東京都","city":"新島村","address":"東京都新島村","lat":34.37713721,"lon":139.25657395},{"name":"塩釜の跡","province":"東京都","city":"新島村","address":"東京都新島村式根島","lat":34.32432977,"lon":139.21927444},{"name":"丸山の方角石","province":"東京都","city":"新島村","address":"東京都新島村式根島","lat":34.32432977,"lon":139.21927444},{"name":"なまこ桟橋","province":"東京都","city":"新島村","address":"東京都新島村式根島","lat":34.32432977,"lon":139.21927444},{"name":"大浦野営場","province":"東京都","city":"新島村","address":"東京都新島村式根島","lat":34.330566,"lon":139.209249},{"name":"羽伏浦園地","province":"東京都","city":"新島村","address":"東京都新島村字ナムレ","lat":34.376098,"lon":139.275306},{"name":"羽伏浦公園（コロシアム）","province":"東京都","city":"新島村","address":"東京都新島村字檜山","lat":34.378296,"lon":139.274393},{"name":"羽伏浦野営場","province":"東京都","city":"新島村","address":"東京都新島村字檜山","lat":34.379032,"lon":139.271136},{"name":"間々下園地","province":"東京都","city":"新島村","address":"東京都新島村字黒根","lat":34.364378,"lon":139.24283},{"name":"間々下園地","province":"東京都","city":"新島村","address":"東京都新島村字黒根","lat":34.364234,"lon":139.243018},{"name":"若郷園地","province":"東京都","city":"新島村","address":"東京都新島村若郷1","lat":34.423818,"lon":139.282279},{"name":"泊園地","province":"東京都","city":"新島村","address":"東京都新島村式根島","lat":34.335652,"lon":139.212383},{"name":"式根島遊歩道（カンビキ）","province":"東京都","city":"新島村","address":"東京都新島村式根島","lat":34.324955,"lon":139.204427},{"name":"本村前浜便所","province":"東京都","city":"新島村","address":"東京都新島村本村6丁目8","lat":34.374565,"lon":139.252012},{"name":"本村前浜便所","province":"東京都","city":"新島村","address":"東京都新島村本村2丁目4","lat":34.379261,"lon":139.25419},{"name":"新島港船客待合所","province":"東京都","city":"新島村","address":"東京都新島村字黒根","lat":34.367204,"lon":139.244964},{"name":"向山展望台トイレ","province":"東京都","city":"新島村","address":"東京都新島村字向山","lat":34.352256,"lon":139.252576},{"name":"若郷前浜（奥）","province":"東京都","city":"新島村","address":"東京都新島村若郷1","lat":34.423842,"lon":139.282281},{"name":"波伏浦野営場","province":"東京都","city":"新島村","address":"東京都新島村字檜山","lat":34.379234,"lon":139.271105},{"name":"波伏浦海岸","province":"東京都","city":"新島村","address":"東京都新島村字ナムレ","lat":34.376117,"lon":139.275297},{"name":"前浜（森電気下）","province":"東京都","city":"新島村","address":"東京都新島村本村2丁目3","lat":34.378835,"lon":139.253938},{"name":"前浜（浜庄下）","province":"東京都","city":"新島村","address":"東京都新島村本村6丁目8","lat":34.374627,"lon":139.252022},{"name":"B堤防","province":"東京都","city":"新島村","address":"東京都新島村字黒根","lat":34.369354,"lon":139.247563},{"name":"泊海水浴場トイレ","province":"東京都","city":"新島村","address":"東京都新島村式根島","lat":34.335662,"lon":139.212384},{"name":"大浦海水浴場トイレ","province":"東京都","city":"新島村","address":"東京都新島村式根島","lat":34.330577,"lon":139.209237},{"name":"神引展望台トイレ","province":"東京都","city":"新島村","address":"東京都新島村式根島","lat":34.324963,"lon":139.20442},{"name":"前田家住宅外便所","province":"東京都","city":"新島村","address":"東京都新島村本村","lat":34.37612616,"lon":139.25397696},{"name":"板絵着色婦女群犬図","province":"東京都","city":"新島村","address":"東京都新島村本村6丁目10","lat":34.37602896,"lon":139.2529687},{"name":"銅鏡(松枝散双鳥鏡外8面)","province":"東京都","city":"新島村","address":"東京都新島村本村6丁目10","lat":34.37602896,"lon":139.2529687},{"name":"銅鏡（松竹双鶴鏡外1面）","province":"東京都","city":"新島村","address":"東京都新島村本村6丁目10","lat":34.37602896,"lon":139.2529687},{"name":"銅鏡（山吹双鳥鏡外1面）","province":"東京都","city":"新島村","address":"東京都新島村式根島","lat":34.32432977,"lon":139.21927444},{"name":"新島島役所資料（646冊394通9枚）","province":"東京都","city":"新島村","address":"東京都新島村本村","lat":34.37612616,"lon":139.25397696},{"name":"新島十三社神社資料（134冊）","province":"東京都","city":"新島村","address":"東京都新島村本村6丁目10","lat":34.37602896,"lon":139.2529687},{"name":"新島の神楽","province":"東京都","city":"新島村","address":"東京都新島村本村6丁目10","lat":34.37602896,"lon":139.2529687},{"name":"獅子木遣","province":"東京都","city":"新島村","address":"東京都新島村本村6丁目10","lat":34.37602896,"lon":139.2529687},{"name":"原町の井戸","province":"東京都","city":"新島村","address":"東京都新島村本村","lat":34.37612616,"lon":139.25397696},{"name":"吹之江遺跡","province":"東京都","city":"新島村","address":"東京都新島村式根島","lat":34.32432977,"lon":139.21927444},{"name":"天宥法印墓","province":"東京都","city":"新島村","address":"東京都新島村","lat":34.37713721,"lon":139.25657395},{"name":"宝篋印塔と五輪塔","province":"東京都","city":"新島村","address":"東京都新島村本村","lat":34.37612616,"lon":139.25397696},{"name":"流人墓地","province":"東京都","city":"新島村","address":"東京都新島村本村","lat":34.37612616,"lon":139.25397696},{"name":"向畑刑場跡","province":"東京都","city":"新島村","address":"東京都新島村本村","lat":34.37612616,"lon":139.25397696},{"name":"式根島のまいまいず井戸","province":"東京都","city":"新島村","address":"東京都新島村式根島","lat":34.32432977,"lon":139.21927444},{"name":"里川の水源","province":"東京都","city":"新島村","address":"東京都新島村","lat":34.37713721,"lon":139.25657395},{"name":"新島測量基点","province":"東京都","city":"新島村","address":"東京都新島村本村","lat":34.37612616,"lon":139.25397696},{"name":"流人牢屋跡","province":"東京都","city":"新島村","address":"東京都新島村本村","lat":34.37612616,"lon":139.25397696},{"name":"薩摩畑","province":"東京都","city":"新島村","address":"東京都新島村","lat":34.37713721,"lon":139.25657395},{"name":"塩釜の跡","province":"東京都","city":"新島村","address":"東京都新島村式根島","lat":34.32432977,"lon":139.21927444},{"name":"丸山の方角石","province":"東京都","city":"新島村","address":"東京都新島村式根島","lat":34.32432977,"lon":139.21927444},{"name":"なまこ桟橋","province":"東京都","city":"新島村","address":"東京都新島村式根島","lat":34.32432977,"lon":139.21927444},{"name":"大浦野営場","province":"東京都","city":"新島村","address":"東京都新島村式根島","lat":34.330566,"lon":139.209249},{"name":"羽伏浦園地","province":"東京都","city":"新島村","address":"東京都新島村字ナムレ","lat":34.376098,"lon":139.275306},{"name":"羽伏浦公園（コロシアム）","province":"東京都","city":"新島村","address":"東京都新島村字檜山","lat":34.378296,"lon":139.274393},{"name":"羽伏浦野営場","province":"東京都","city":"新島村","address":"東京都新島村字檜山","lat":34.379032,"lon":139.271136},{"name":"間々下園地","province":"東京都","city":"新島村","address":"東京都新島村字黒根","lat":34.364378,"lon":139.24283},{"name":"間々下園地","province":"東京都","city":"新島村","address":"東京都新島村字黒根","lat":34.364234,"lon":139.243018},{"name":"若郷園地","province":"東京都","city":"新島村","address":"東京都新島村若郷1","lat":34.423818,"lon":139.282279},{"name":"泊園地","province":"東京都","city":"新島村","address":"東京都新島村式根島","lat":34.335652,"lon":139.212383},{"name":"式根島遊歩道（カンビキ）","province":"東京都","city":"新島村","address":"東京都新島村式根島","lat":34.324955,"lon":139.204427},{"name":"本村前浜便所","province":"東京都","city":"新島村","address":"東京都新島村本村6丁目8","lat":34.374565,"lon":139.252012},{"name":"本村前浜便所","province":"東京都","city":"新島村","address":"東京都新島村本村2丁目4","lat":34.379261,"lon":139.25419},{"name":"新島港船客待合所","province":"東京都","city":"新島村","address":"東京都新島村字黒根","lat":34.367204,"lon":139.244964},{"name":"向山展望台トイレ","province":"東京都","city":"新島村","address":"東京都新島村字向山","lat":34.352256,"lon":139.252576},{"name":"若郷前浜（奥）","province":"東京都","city":"新島村","address":"東京都新島村若郷1","lat":34.423842,"lon":139.282281},{"name":"波伏浦野営場","province":"東京都","city":"新島村","address":"東京都新島村字檜山","lat":34.379234,"lon":139.271105},{"name":"波伏浦海岸","province":"東京都","city":"新島村","address":"東京都新島村字ナムレ","lat":34.376117,"lon":139.275297},{"name":"前浜（森電気下）","province":"東京都","city":"新島村","address":"東京都新島村本村2丁目3","lat":34.378835,"lon":139.253938},{"name":"前浜（浜庄下）","province":"東京都","city":"新島村","address":"東京都新島村本村6丁目8","lat":34.374627,"lon":139.252022},{"name":"B堤防","province":"東京都","city":"新島村","address":"東京都新島村字黒根","lat":34.369354,"lon":139.247563},{"name":"泊海水浴場トイレ","province":"東京都","city":"新島村","address":"東京都新島村式根島","lat":34.335662,"lon":139.212384},{"name":"大浦海水浴場トイレ","province":"東京都","city":"新島村","address":"東京都新島村式根島","lat":34.330577,"lon":139.209237},{"name":"神引展望台トイレ","province":"東京都","city":"新島村","address":"東京都新島村式根島","lat":34.324963,"lon":139.20442},{"name":"前田家住宅外便所","province":"東京都","city":"新島村","address":"東京都新島村本村","lat":34.37612616,"lon":139.25397696},{"name":"板絵着色婦女群犬図","province":"東京都","city":"新島村","address":"東京都新島村本村6丁目10","lat":34.37602896,"lon":139.2529687},{"name":"銅鏡(松枝散双鳥鏡外8面)","province":"東京都","city":"新島村","address":"東京都新島村本村6丁目10","lat":34.37602896,"lon":139.2529687},{"name":"銅鏡（松竹双鶴鏡外1面）","province":"東京都","city":"新島村","address":"東京都新島村本村6丁目10","lat":34.37602896,"lon":139.2529687},{"name":"銅鏡（山吹双鳥鏡外1面）","province":"東京都","city":"新島村","address":"東京都新島村式根島","lat":34.32432977,"lon":139.21927444},{"name":"新島島役所資料（646冊394通9枚）","province":"東京都","city":"新島村","address":"東京都新島村本村","lat":34.37612616,"lon":139.25397696},{"name":"新島十三社神社資料（134冊）","province":"東京都","city":"新島村","address":"東京都新島村本村6丁目10","lat":34.37602896,"lon":139.2529687},{"name":"新島の神楽","province":"東京都","city":"新島村","address":"東京都新島村本村6丁目10","lat":34.37602896,"lon":139.2529687},{"name":"獅子木遣","province":"東京都","city":"新島村","address":"東京都新島村本村6丁目10","lat":34.37602896,"lon":139.2529687},{"name":"原町の井戸","province":"東京都","city":"新島村","address":"東京都新島村本村","lat":34.37612616,"lon":139.25397696},{"name":"吹之江遺跡","province":"東京都","city":"新島村","address":"東京都新島村式根島","lat":34.32432977,"lon":139.21927444},{"name":"天宥法印墓","province":"東京都","city":"新島村","address":"東京都新島村","lat":34.37713721,"lon":139.25657395},{"name":"宝篋印塔と五輪塔","province":"東京都","city":"新島村","address":"東京都新島村本村","lat":34.37612616,"lon":139.25397696},{"name":"流人墓地","province":"東京都","city":"新島村","address":"東京都新島村本村","lat":34.37612616,"lon":139.25397696},{"name":"向畑刑場跡","province":"東京都","city":"新島村","address":"東京都新島村本村","lat":34.37612616,"lon":139.25397696},{"name":"式根島のまいまいず井戸","province":"東京都","city":"新島村","address":"東京都新島村式根島","lat":34.32432977,"lon":139.21927444},{"name":"里川の水源","province":"東京都","city":"新島村","address":"東京都新島村","lat":34.37713721,"lon":139.25657395},{"name":"新島測量基点","province":"東京都","city":"新島村","address":"東京都新島村本村","lat":34.37612616,"lon":139.25397696},{"name":"流人牢屋跡","province":"東京都","city":"新島村","address":"東京都新島村本村","lat":34.37612616,"lon":139.25397696},{"name":"薩摩畑","province":"東京都","city":"新島村","address":"東京都新島村","lat":34.37713721,"lon":139.25657395},{"name":"塩釜の跡","province":"東京都","city":"新島村","address":"東京都新島村式根島","lat":34.32432977,"lon":139.21927444},{"name":"丸山の方角石","province":"東京都","city":"新島村","address":"東京都新島村式根島","lat":34.32432977,"lon":139.21927444},{"name":"なまこ桟橋","province":"東京都","city":"新島村","address":"東京都新島村式根島","lat":34.32432977,"lon":139.21927444},{"name":"大浦野営場","province":"東京都","city":"新島村","address":"東京都新島村式根島","lat":34.330566,"lon":139.209249},{"name":"羽伏浦園地","province":"東京都","city":"新島村","address":"東京都新島村字ナムレ","lat":34.376098,"lon":139.275306},{"name":"羽伏浦公園（コロシアム）","province":"東京都","city":"新島村","address":"東京都新島村字檜山","lat":34.378296,"lon":139.274393},{"name":"羽伏浦野営場","province":"東京都","city":"新島村","address":"東京都新島村字檜山","lat":34.379032,"lon":139.271136},{"name":"間々下園地","province":"東京都","city":"新島村","address":"東京都新島村字黒根","lat":34.364378,"lon":139.24283},{"name":"間々下園地","province":"東京都","city":"新島村","address":"東京都新島村字黒根","lat":34.364234,"lon":139.243018},{"name":"若郷園地","province":"東京都","city":"新島村","address":"東京都新島村若郷1","lat":34.423818,"lon":139.282279},{"name":"泊園地","province":"東京都","city":"新島村","address":"東京都新島村式根島","lat":34.335652,"lon":139.212383},{"name":"式根島遊歩道（カンビキ）","province":"東京都","city":"新島村","address":"東京都新島村式根島","lat":34.324955,"lon":139.204427},{"name":"本村前浜便所","province":"東京都","city":"新島村","address":"東京都新島村本村6丁目8","lat":34.374565,"lon":139.252012},{"name":"本村前浜便所","province":"東京都","city":"新島村","address":"東京都新島村本村2丁目4","lat":34.379261,"lon":139.25419},{"name":"新島港船客待合所","province":"東京都","city":"新島村","address":"東京都新島村字黒根","lat":34.367204,"lon":139.244964},{"name":"向山展望台トイレ","province":"東京都","city":"新島村","address":"東京都新島村字向山","lat":34.352256,"lon":139.252576},{"name":"若郷前浜（奥）","province":"東京都","city":"新島村","address":"東京都新島村若郷1","lat":34.423842,"lon":139.282281},{"name":"波伏浦野営場","province":"東京都","city":"新島村","address":"東京都新島村字檜山","lat":34.379234,"lon":139.271105},{"name":"波伏浦海岸","province":"東京都","city":"新島村","address":"東京都新島村字ナムレ","lat":34.376117,"lon":139.275297},{"name":"前浜（森電気下）","province":"東京都","city":"新島村","address":"東京都新島村本村2丁目3","lat":34.378835,"lon":139.253938},{"name":"前浜（浜庄下）","province":"東京都","city":"新島村","address":"東京都新島村本村6丁目8","lat":34.374627,"lon":139.252022},{"name":"B堤防","province":"東京都","city":"新島村","address":"東京都新島村字黒根","lat":34.369354,"lon":139.247563},{"name":"泊海水浴場トイレ","province":"東京都","city":"新島村","address":"東京都新島村式根島","lat":34.335662,"lon":139.212384},{"name":"大浦海水浴場トイレ","province":"東京都","city":"新島村","address":"東京都新島村式根島","lat":34.330577,"lon":139.209237},{"name":"神引展望台トイレ","province":"東京都","city":"新島村","address":"東京都新島村式根島","lat":34.324963,"lon":139.20442},{"name":"前田家住宅外便所","province":"東京都","city":"新島村","address":"東京都新島村本村","lat":34.37612616,"lon":139.25397696},{"name":"板絵着色婦女群犬図","province":"東京都","city":"新島村","address":"東京都新島村本村6丁目10","lat":34.37602896,"lon":139.2529687},{"name":"銅鏡(松枝散双鳥鏡外8面)","province":"東京都","city":"新島村","address":"東京都新島村本村6丁目10","lat":34.37602896,"lon":139.2529687},{"name":"銅鏡（松竹双鶴鏡外1面）","province":"東京都","city":"新島村","address":"東京都新島村本村6丁目10","lat":34.37602896,"lon":139.2529687},{"name":"銅鏡（山吹双鳥鏡外1面）","province":"東京都","city":"新島村","address":"東京都新島村式根島","lat":34.32432977,"lon":139.21927444},{"name":"新島島役所資料（646冊394通9枚）","province":"東京都","city":"新島村","address":"東京都新島村本村","lat":34.37612616,"lon":139.25397696},{"name":"新島十三社神社資料（134冊）","province":"東京都","city":"新島村","address":"東京都新島村本村6丁目10","lat":34.37602896,"lon":139.2529687},{"name":"新島の神楽","province":"東京都","city":"新島村","address":"東京都新島村本村6丁目10","lat":34.37602896,"lon":139.2529687},{"name":"獅子木遣","province":"東京都","city":"新島村","address":"東京都新島村本村6丁目10","lat":34.37602896,"lon":139.2529687},{"name":"原町の井戸","province":"東京都","city":"新島村","address":"東京都新島村本村","lat":34.37612616,"lon":139.25397696},{"name":"吹之江遺跡","province":"東京都","city":"新島村","address":"東京都新島村式根島","lat":34.32432977,"lon":139.21927444},{"name":"天宥法印墓","province":"東京都","city":"新島村","address":"東京都新島村","lat":34.37713721,"lon":139.25657395},{"name":"宝篋印塔と五輪塔","province":"東京都","city":"新島村","address":"東京都新島村本村","lat":34.37612616,"lon":139.25397696},{"name":"流人墓地","province":"東京都","city":"新島村","address":"東京都新島村本村","lat":34.37612616,"lon":139.25397696},{"name":"向畑刑場跡","province":"東京都","city":"新島村","address":"東京都新島村本村","lat":34.37612616,"lon":139.25397696},{"name":"式根島のまいまいず井戸","province":"東京都","city":"新島村","address":"東京都新島村式根島","lat":34.32432977,"lon":139.21927444},{"name":"里川の水源","province":"東京都","city":"新島村","address":"東京都新島村","lat":34.37713721,"lon":139.25657395},{"name":"新島測量基点","province":"東京都","city":"新島村","address":"東京都新島村本村","lat":34.37612616,"lon":139.25397696},{"name":"流人牢屋跡","province":"東京都","city":"新島村","address":"東京都新島村本村","lat":34.37612616,"lon":139.25397696},{"name":"薩摩畑","province":"東京都","city":"新島村","address":"東京都新島村","lat":34.37713721,"lon":139.25657395},{"name":"塩釜の跡","province":"東京都","city":"新島村","address":"東京都新島村式根島","lat":34.32432977,"lon":139.21927444},{"name":"丸山の方角石","province":"東京都","city":"新島村","address":"東京都新島村式根島","lat":34.32432977,"lon":139.21927444},{"name":"なまこ桟橋","province":"東京都","city":"新島村","address":"東京都新島村式根島","lat":34.32432977,"lon":139.21927444},{"name":"大浦野営場","province":"東京都","city":"新島村","address":"東京都新島村式根島","lat":34.330566,"lon":139.209249},{"name":"羽伏浦園地","province":"東京都","city":"新島村","address":"東京都新島村字ナムレ","lat":34.376098,"lon":139.275306},{"name":"羽伏浦公園（コロシアム）","province":"東京都","city":"新島村","address":"東京都新島村字檜山","lat":34.378296,"lon":139.274393},{"name":"羽伏浦野営場","province":"東京都","city":"新島村","address":"東京都新島村字檜山","lat":34.379032,"lon":139.271136},{"name":"間々下園地","province":"東京都","city":"新島村","address":"東京都新島村字黒根","lat":34.364378,"lon":139.24283},{"name":"間々下園地","province":"東京都","city":"新島村","address":"東京都新島村字黒根","lat":34.364234,"lon":139.243018},{"name":"若郷園地","province":"東京都","city":"新島村","address":"東京都新島村若郷1","lat":34.423818,"lon":139.282279},{"name":"泊園地","province":"東京都","city":"新島村","address":"東京都新島村式根島","lat":34.335652,"lon":139.212383},{"name":"式根島遊歩道（カンビキ）","province":"東京都","city":"新島村","address":"東京都新島村式根島","lat":34.324955,"lon":139.204427},{"name":"本村前浜便所","province":"東京都","city":"新島村","address":"東京都新島村本村6丁目8","lat":34.374565,"lon":139.252012},{"name":"本村前浜便所","province":"東京都","city":"新島村","address":"東京都新島村本村2丁目4","lat":34.379261,"lon":139.25419},{"name":"新島港船客待合所","province":"東京都","city":"新島村","address":"東京都新島村字黒根","lat":34.367204,"lon":139.244964},{"name":"向山展望台トイレ","province":"東京都","city":"新島村","address":"東京都新島村字向山","lat":34.352256,"lon":139.252576},{"name":"若郷前浜（奥）","province":"東京都","city":"新島村","address":"東京都新島村若郷1","lat":34.423842,"lon":139.282281},{"name":"波伏浦野営場","province":"東京都","city":"新島村","address":"東京都新島村字檜山","lat":34.379234,"lon":139.271105},{"name":"波伏浦海岸","province":"東京都","city":"新島村","address":"東京都新島村字ナムレ","lat":34.376117,"lon":139.275297},{"name":"前浜（森電気下）","province":"東京都","city":"新島村","address":"東京都新島村本村2丁目3","lat":34.378835,"lon":139.253938},{"name":"前浜（浜庄下）","province":"東京都","city":"新島村","address":"東京都新島村本村6丁目8","lat":34.374627,"lon":139.252022},{"name":"B堤防","province":"東京都","city":"新島村","address":"東京都新島村字黒根","lat":34.369354,"lon":139.247563},{"name":"泊海水浴場トイレ","province":"東京都","city":"新島村","address":"東京都新島村式根島","lat":34.335662,"lon":139.212384},{"name":"大浦海水浴場トイレ","province":"東京都","city":"新島村","address":"東京都新島村式根島","lat":34.330577,"lon":139.209237},{"name":"神引展望台トイレ","province":"東京都","city":"新島村","address":"東京都新島村式根島","lat":34.324963,"lon":139.20442},{"name":"前田家住宅外便所","province":"東京都","city":"新島村","address":"東京都新島村本村","lat":34.37612616,"lon":139.25397696},{"name":"板絵着色婦女群犬図","province":"東京都","city":"新島村","address":"東京都新島村本村6丁目10","lat":34.37602896,"lon":139.2529687},{"name":"銅鏡(松枝散双鳥鏡外8面)","province":"東京都","city":"新島村","address":"東京都新島村本村6丁目10","lat":34.37602896,"lon":139.2529687},{"name":"銅鏡（松竹双鶴鏡外1面）","province":"東京都","city":"新島村","address":"東京都新島村本村6丁目10","lat":34.37602896,"lon":139.2529687},{"name":"銅鏡（山吹双鳥鏡外1面）","province":"東京都","city":"新島村","address":"東京都新島村式根島","lat":34.32432977,"lon":139.21927444},{"name":"新島島役所資料（646冊394通9枚）","province":"東京都","city":"新島村","address":"東京都新島村本村","lat":34.37612616,"lon":139.25397696},{"name":"新島十三社神社資料（134冊）","province":"東京都","city":"新島村","address":"東京都新島村本村6丁目10","lat":34.37602896,"lon":139.2529687},{"name":"新島の神楽","province":"東京都","city":"新島村","address":"東京都新島村本村6丁目10","lat":34.37602896,"lon":139.2529687},{"name":"獅子木遣","province":"東京都","city":"新島村","address":"東京都新島村本村6丁目10","lat":34.37602896,"lon":139.2529687},{"name":"原町の井戸","province":"東京都","city":"新島村","address":"東京都新島村本村","lat":34.37612616,"lon":139.25397696},{"name":"吹之江遺跡","province":"東京都","city":"新島村","address":"東京都新島村式根島","lat":34.32432977,"lon":139.21927444},{"name":"天宥法印墓","province":"東京都","city":"新島村","address":"東京都新島村","lat":34.37713721,"lon":139.25657395},{"name":"宝篋印塔と五輪塔","province":"東京都","city":"新島村","address":"東京都新島村本村","lat":34.37612616,"lon":139.25397696},{"name":"流人墓地","province":"東京都","city":"新島村","address":"東京都新島村本村","lat":34.37612616,"lon":139.25397696},{"name":"向畑刑場跡","province":"東京都","city":"新島村","address":"東京都新島村本村","lat":34.37612616,"lon":139.25397696},{"name":"式根島のまいまいず井戸","province":"東京都","city":"新島村","address":"東京都新島村式根島","lat":34.32432977,"lon":139.21927444},{"name":"里川の水源","province":"東京都","city":"新島村","address":"東京都新島村","lat":34.37713721,"lon":139.25657395},{"name":"新島測量基点","province":"東京都","city":"新島村","address":"東京都新島村本村","lat":34.37612616,"lon":139.25397696},{"name":"流人牢屋跡","province":"東京都","city":"新島村","address":"東京都新島村本村","lat":34.37612616,"lon":139.25397696},{"name":"薩摩畑","province":"東京都","city":"新島村","address":"東京都新島村","lat":34.37713721,"lon":139.25657395},{"name":"塩釜の跡","province":"東京都","city":"新島村","address":"東京都新島村式根島","lat":34.32432977,"lon":139.21927444},{"name":"丸山の方角石","province":"東京都","city":"新島村","address":"東京都新島村式根島","lat":34.32432977,"lon":139.21927444},{"name":"なまこ桟橋","province":"東京都","city":"新島村","address":"東京都新島村式根島","lat":34.32432977,"lon":139.21927444},{"name":"大浦野営場","province":"東京都","city":"新島村","address":"東京都新島村式根島","lat":34.330566,"lon":139.209249},{"name":"羽伏浦園地","province":"東京都","city":"新島村","address":"東京都新島村字ナムレ","lat":34.376098,"lon":139.275306},{"name":"羽伏浦公園（コロシアム）","province":"東京都","city":"新島村","address":"東京都新島村字檜山","lat":34.378296,"lon":139.274393},{"name":"羽伏浦野営場","province":"東京都","city":"新島村","address":"東京都新島村字檜山","lat":34.379032,"lon":139.271136},{"name":"間々下園地","province":"東京都","city":"新島村","address":"東京都新島村字黒根","lat":34.364378,"lon":139.24283},{"name":"間々下園地","province":"東京都","city":"新島村","address":"東京都新島村字黒根","lat":34.364234,"lon":139.243018},{"name":"若郷園地","province":"東京都","city":"新島村","address":"東京都新島村若郷1","lat":34.423818,"lon":139.282279},{"name":"泊園地","province":"東京都","city":"新島村","address":"東京都新島村式根島","lat":34.335652,"lon":139.212383},{"name":"式根島遊歩道（カンビキ）","province":"東京都","city":"新島村","address":"東京都新島村式根島","lat":34.324955,"lon":139.204427},{"name":"本村前浜便所","province":"東京都","city":"新島村","address":"東京都新島村本村6丁目8","lat":34.374565,"lon":139.252012},{"name":"本村前浜便所","province":"東京都","city":"新島村","address":"東京都新島村本村2丁目4","lat":34.379261,"lon":139.25419},{"name":"新島港船客待合所","province":"東京都","city":"新島村","address":"東京都新島村字黒根","lat":34.367204,"lon":139.244964},{"name":"向山展望台トイレ","province":"東京都","city":"新島村","address":"東京都新島村字向山","lat":34.352256,"lon":139.252576},{"name":"若郷前浜（奥）","province":"東京都","city":"新島村","address":"東京都新島村若郷1","lat":34.423842,"lon":139.282281},{"name":"波伏浦野営場","province":"東京都","city":"新島村","address":"東京都新島村字檜山","lat":34.379234,"lon":139.271105},{"name":"波伏浦海岸","province":"東京都","city":"新島村","address":"東京都新島村字ナムレ","lat":34.376117,"lon":139.275297},{"name":"前浜（森電気下）","province":"東京都","city":"新島村","address":"東京都新島村本村2丁目3","lat":34.378835,"lon":139.253938},{"name":"前浜（浜庄下）","province":"東京都","city":"新島村","address":"東京都新島村本村6丁目8","lat":34.374627,"lon":139.252022},{"name":"B堤防","province":"東京都","city":"新島村","address":"東京都新島村字黒根","lat":34.369354,"lon":139.247563},{"name":"泊海水浴場トイレ","province":"東京都","city":"新島村","address":"東京都新島村式根島","lat":34.335662,"lon":139.212384},{"name":"大浦海水浴場トイレ","province":"東京都","city":"新島村","address":"東京都新島村式根島","lat":34.330577,"lon":139.209237},{"name":"神引展望台トイレ","province":"東京都","city":"新島村","address":"東京都新島村式根島","lat":34.324963,"lon":139.20442},{"name":"前田家住宅外便所","province":"東京都","city":"新島村","address":"東京都新島村本村","lat":34.37612616,"lon":139.25397696},{"name":"板絵着色婦女群犬図","province":"東京都","city":"新島村","address":"東京都新島村本村6丁目10","lat":34.37602896,"lon":139.2529687},{"name":"銅鏡(松枝散双鳥鏡外8面)","province":"東京都","city":"新島村","address":"東京都新島村本村6丁目10","lat":34.37602896,"lon":139.2529687},{"name":"銅鏡（松竹双鶴鏡外1面）","province":"東京都","city":"新島村","address":"東京都新島村本村6丁目10","lat":34.37602896,"lon":139.2529687},{"name":"銅鏡（山吹双鳥鏡外1面）","province":"東京都","city":"新島村","address":"東京都新島村式根島","lat":34.32432977,"lon":139.21927444},{"name":"新島島役所資料（646冊394通9枚）","province":"東京都","city":"新島村","address":"東京都新島村本村","lat":34.37612616,"lon":139.25397696},{"name":"新島十三社神社資料（134冊）","province":"東京都","city":"新島村","address":"東京都新島村本村6丁目10","lat":34.37602896,"lon":139.2529687},{"name":"新島の神楽","province":"東京都","city":"新島村","address":"東京都新島村本村6丁目10","lat":34.37602896,"lon":139.2529687},{"name":"獅子木遣","province":"東京都","city":"新島村","address":"東京都新島村本村6丁目10","lat":34.37602896,"lon":139.2529687},{"name":"原町の井戸","province":"東京都","city":"新島村","address":"東京都新島村本村","lat":34.37612616,"lon":139.25397696},{"name":"吹之江遺跡","province":"東京都","city":"新島村","address":"東京都新島村式根島","lat":34.32432977,"lon":139.21927444},{"name":"天宥法印墓","province":"東京都","city":"新島村","address":"東京都新島村","lat":34.37713721,"lon":139.25657395},{"name":"宝篋印塔と五輪塔","province":"東京都","city":"新島村","address":"東京都新島村本村","lat":34.37612616,"lon":139.25397696},{"name":"流人墓地","province":"東京都","city":"新島村","address":"東京都新島村本村","lat":34.37612616,"lon":139.25397696},{"name":"向畑刑場跡","province":"東京都","city":"新島村","address":"東京都新島村本村","lat":34.37612616,"lon":139.25397696},{"name":"式根島のまいまいず井戸","province":"東京都","city":"新島村","address":"東京都新島村式根島","lat":34.32432977,"lon":139.21927444},{"name":"里川の水源","province":"東京都","city":"新島村","address":"東京都新島村","lat":34.37713721,"lon":139.25657395},{"name":"新島測量基点","province":"東京都","city":"新島村","address":"東京都新島村本村","lat":34.37612616,"lon":139.25397696},{"name":"流人牢屋跡","province":"東京都","city":"新島村","address":"東京都新島村本村","lat":34.37612616,"lon":139.25397696},{"name":"薩摩畑","province":"東京都","city":"新島村","address":"東京都新島村","lat":34.37713721,"lon":139.25657395},{"name":"塩釜の跡","province":"東京都","city":"新島村","address":"東京都新島村式根島","lat":34.32432977,"lon":139.21927444},{"name":"丸山の方角石","province":"東京都","city":"新島村","address":"東京都新島村式根島","lat":34.32432977,"lon":139.21927444},{"name":"なまこ桟橋","province":"東京都","city":"新島村","address":"東京都新島村式根島","lat":34.32432977,"lon":139.21927444},{"name":"大浦野営場","province":"東京都","city":"新島村","address":"東京都新島村式根島","lat":34.330566,"lon":139.209249},{"name":"羽伏浦園地","province":"東京都","city":"新島村","address":"東京都新島村字ナムレ","lat":34.376098,"lon":139.275306},{"name":"羽伏浦公園（コロシアム）","province":"東京都","city":"新島村","address":"東京都新島村字檜山","lat":34.378296,"lon":139.274393},{"name":"羽伏浦野営場","province":"東京都","city":"新島村","address":"東京都新島村字檜山","lat":34.379032,"lon":139.271136},{"name":"間々下園地","province":"東京都","city":"新島村","address":"東京都新島村字黒根","lat":34.364378,"lon":139.24283},{"name":"間々下園地","province":"東京都","city":"新島村","address":"東京都新島村字黒根","lat":34.364234,"lon":139.243018},{"name":"若郷園地","province":"東京都","city":"新島村","address":"東京都新島村若郷1","lat":34.423818,"lon":139.282279},{"name":"泊園地","province":"東京都","city":"新島村","address":"東京都新島村式根島","lat":34.335652,"lon":139.212383},{"name":"式根島遊歩道（カンビキ）","province":"東京都","city":"新島村","address":"東京都新島村式根島","lat":34.324955,"lon":139.204427},{"name":"本村前浜便所","province":"東京都","city":"新島村","address":"東京都新島村本村6丁目8","lat":34.374565,"lon":139.252012},{"name":"本村前浜便所","province":"東京都","city":"新島村","address":"東京都新島村本村2丁目4","lat":34.379261,"lon":139.25419},{"name":"新島港船客待合所","province":"東京都","city":"新島村","address":"東京都新島村字黒根","lat":34.367204,"lon":139.244964},{"name":"向山展望台トイレ","province":"東京都","city":"新島村","address":"東京都新島村字向山","lat":34.352256,"lon":139.252576},{"name":"若郷前浜（奥）","province":"東京都","city":"新島村","address":"東京都新島村若郷1","lat":34.423842,"lon":139.282281},{"name":"波伏浦野営場","province":"東京都","city":"新島村","address":"東京都新島村字檜山","lat":34.379234,"lon":139.271105},{"name":"波伏浦海岸","province":"東京都","city":"新島村","address":"東京都新島村字ナムレ","lat":34.376117,"lon":139.275297},{"name":"前浜（森電気下）","province":"東京都","city":"新島村","address":"東京都新島村本村2丁目3","lat":34.378835,"lon":139.253938},{"name":"前浜（浜庄下）","province":"東京都","city":"新島村","address":"東京都新島村本村6丁目8","lat":34.374627,"lon":139.252022},{"name":"B堤防","province":"東京都","city":"新島村","address":"東京都新島村字黒根","lat":34.369354,"lon":139.247563},{"name":"泊海水浴場トイレ","province":"東京都","city":"新島村","address":"東京都新島村式根島","lat":34.335662,"lon":139.212384},{"name":"大浦海水浴場トイレ","province":"東京都","city":"新島村","address":"東京都新島村式根島","lat":34.330577,"lon":139.209237},{"name":"神引展望台トイレ","province":"東京都","city":"新島村","address":"東京都新島村式根島","lat":34.324963,"lon":139.20442},{"name":"前田家住宅外便所","province":"東京都","city":"新島村","address":"東京都新島村本村","lat":34.37612616,"lon":139.25397696},{"name":"板絵着色婦女群犬図","province":"東京都","city":"新島村","address":"東京都新島村本村6丁目10","lat":34.37602896,"lon":139.2529687},{"name":"銅鏡(松枝散双鳥鏡外8面)","province":"東京都","city":"新島村","address":"東京都新島村本村6丁目10","lat":34.37602896,"lon":139.2529687},{"name":"銅鏡（松竹双鶴鏡外1面）","province":"東京都","city":"新島村","address":"東京都新島村本村6丁目10","lat":34.37602896,"lon":139.2529687},{"name":"銅鏡（山吹双鳥鏡外1面）","province":"東京都","city":"新島村","address":"東京都新島村式根島","lat":34.32432977,"lon":139.21927444},{"name":"新島島役所資料（646冊394通9枚）","province":"東京都","city":"新島村","address":"東京都新島村本村","lat":34.37612616,"lon":139.25397696},{"name":"新島十三社神社資料（134冊）","province":"東京都","city":"新島村","address":"東京都新島村本村6丁目10","lat":34.37602896,"lon":139.2529687},{"name":"新島の神楽","province":"東京都","city":"新島村","address":"東京都新島村本村6丁目10","lat":34.37602896,"lon":139.2529687},{"name":"獅子木遣","province":"東京都","city":"新島村","address":"東京都新島村本村6丁目10","lat":34.37602896,"lon":139.2529687},{"name":"原町の井戸","province":"東京都","city":"新島村","address":"東京都新島村本村","lat":34.37612616,"lon":139.25397696},{"name":"吹之江遺跡","province":"東京都","city":"新島村","address":"東京都新島村式根島","lat":34.32432977,"lon":139.21927444},{"name":"天宥法印墓","province":"東京都","city":"新島村","address":"東京都新島村","lat":34.37713721,"lon":139.25657395},{"name":"宝篋印塔と五輪塔","province":"東京都","city":"新島村","address":"東京都新島村本村","lat":34.37612616,"lon":139.25397696},{"name":"流人墓地","province":"東京都","city":"新島村","address":"東京都新島村本村","lat":34.37612616,"lon":139.25397696},{"name":"向畑刑場跡","province":"東京都","city":"新島村","address":"東京都新島村本村","lat":34.37612616,"lon":139.25397696},{"name":"式根島のまいまいず井戸","province":"東京都","city":"新島村","address":"東京都新島村式根島","lat":34.32432977,"lon":139.21927444},{"name":"里川の水源","province":"東京都","city":"新島村","address":"東京都新島村","lat":34.37713721,"lon":139.25657395},{"name":"新島測量基点","province":"東京都","city":"新島村","address":"東京都新島村本村","lat":34.37612616,"lon":139.25397696},{"name":"流人牢屋跡","province":"東京都","city":"新島村","address":"東京都新島村本村","lat":34.37612616,"lon":139.25397696},{"name":"薩摩畑","province":"東京都","city":"新島村","address":"東京都新島村","lat":34.37713721,"lon":139.25657395},{"name":"塩釜の跡","province":"東京都","city":"新島村","address":"東京都新島村式根島","lat":34.32432977,"lon":139.21927444},{"name":"丸山の方角石","province":"東京都","city":"新島村","address":"東京都新島村式根島","lat":34.32432977,"lon":139.21927444},{"name":"なまこ桟橋","province":"東京都","city":"新島村","address":"東京都新島村式根島","lat":34.32432977,"lon":139.21927444},{"name":"大浦野営場","province":"東京都","city":"新島村","address":"東京都新島村式根島","lat":34.330566,"lon":139.209249},{"name":"羽伏浦園地","province":"東京都","city":"新島村","address":"東京都新島村字ナムレ","lat":34.376098,"lon":139.275306},{"name":"羽伏浦公園（コロシアム）","province":"東京都","city":"新島村","address":"東京都新島村字檜山","lat":34.378296,"lon":139.274393},{"name":"羽伏浦野営場","province":"東京都","city":"新島村","address":"東京都新島村字檜山","lat":34.379032,"lon":139.271136},{"name":"間々下園地","province":"東京都","city":"新島村","address":"東京都新島村字黒根","lat":34.364378,"lon":139.24283},{"name":"間々下園地","province":"東京都","city":"新島村","address":"東京都新島村字黒根","lat":34.364234,"lon":139.243018},{"name":"若郷園地","province":"東京都","city":"新島村","address":"東京都新島村若郷1","lat":34.423818,"lon":139.282279},{"name":"泊園地","province":"東京都","city":"新島村","address":"東京都新島村式根島","lat":34.335652,"lon":139.212383},{"name":"式根島遊歩道（カンビキ）","province":"東京都","city":"新島村","address":"東京都新島村式根島","lat":34.324955,"lon":139.204427},{"name":"本村前浜便所","province":"東京都","city":"新島村","address":"東京都新島村本村6丁目8","lat":34.374565,"lon":139.252012},{"name":"本村前浜便所","province":"東京都","city":"新島村","address":"東京都新島村本村2丁目4","lat":34.379261,"lon":139.25419},{"name":"新島港船客待合所","province":"東京都","city":"新島村","address":"東京都新島村字黒根","lat":34.367204,"lon":139.244964},{"name":"向山展望台トイレ","province":"東京都","city":"新島村","address":"東京都新島村字向山","lat":34.352256,"lon":139.252576},{"name":"若郷前浜（奥）","province":"東京都","city":"新島村","address":"東京都新島村若郷1","lat":34.423842,"lon":139.282281},{"name":"波伏浦野営場","province":"東京都","city":"新島村","address":"東京都新島村字檜山","lat":34.379234,"lon":139.271105},{"name":"波伏浦海岸","province":"東京都","city":"新島村","address":"東京都新島村字ナムレ","lat":34.376117,"lon":139.275297},{"name":"前浜（森電気下）","province":"東京都","city":"新島村","address":"東京都新島村本村2丁目3","lat":34.378835,"lon":139.253938},{"name":"前浜（浜庄下）","province":"東京都","city":"新島村","address":"東京都新島村本村6丁目8","lat":34.374627,"lon":139.252022},{"name":"B堤防","province":"東京都","city":"新島村","address":"東京都新島村字黒根","lat":34.369354,"lon":139.247563},{"name":"泊海水浴場トイレ","province":"東京都","city":"新島村","address":"東京都新島村式根島","lat":34.335662,"lon":139.212384},{"name":"大浦海水浴場トイレ","province":"東京都","city":"新島村","address":"東京都新島村式根島","lat":34.330577,"lon":139.209237},{"name":"神引展望台トイレ","province":"東京都","city":"新島村","address":"東京都新島村式根島","lat":34.324963,"lon":139.20442},{"name":"前田家住宅外便所","province":"東京都","city":"新島村","address":"東京都新島村本村","lat":34.37612616,"lon":139.25397696},{"name":"板絵着色婦女群犬図","province":"東京都","city":"新島村","address":"東京都新島村本村6丁目10","lat":34.37602896,"lon":139.2529687},{"name":"銅鏡(松枝散双鳥鏡外8面)","province":"東京都","city":"新島村","address":"東京都新島村本村6丁目10","lat":34.37602896,"lon":139.2529687},{"name":"銅鏡（松竹双鶴鏡外1面）","province":"東京都","city":"新島村","address":"東京都新島村本村6丁目10","lat":34.37602896,"lon":139.2529687},{"name":"銅鏡（山吹双鳥鏡外1面）","province":"東京都","city":"新島村","address":"東京都新島村式根島","lat":34.32432977,"lon":139.21927444},{"name":"新島島役所資料（646冊394通9枚）","province":"東京都","city":"新島村","address":"東京都新島村本村","lat":34.37612616,"lon":139.25397696},{"name":"新島十三社神社資料（134冊）","province":"東京都","city":"新島村","address":"東京都新島村本村6丁目10","lat":34.37602896,"lon":139.2529687},{"name":"新島の神楽","province":"東京都","city":"新島村","address":"東京都新島村本村6丁目10","lat":34.37602896,"lon":139.2529687},{"name":"獅子木遣","province":"東京都","city":"新島村","address":"東京都新島村本村6丁目10","lat":34.37602896,"lon":139.2529687},{"name":"原町の井戸","province":"東京都","city":"新島村","address":"東京都新島村本村","lat":34.37612616,"lon":139.25397696},{"name":"吹之江遺跡","province":"東京都","city":"新島村","address":"東京都新島村式根島","lat":34.32432977,"lon":139.21927444},{"name":"天宥法印墓","province":"東京都","city":"新島村","address":"東京都新島村","lat":34.37713721,"lon":139.25657395},{"name":"宝篋印塔と五輪塔","province":"東京都","city":"新島村","address":"東京都新島村本村","lat":34.37612616,"lon":139.25397696},{"name":"流人墓地","province":"東京都","city":"新島村","address":"東京都新島村本村","lat":34.37612616,"lon":139.25397696},{"name":"向畑刑場跡","province":"東京都","city":"新島村","address":"東京都新島村本村","lat":34.37612616,"lon":139.25397696},{"name":"式根島のまいまいず井戸","province":"東京都","city":"新島村","address":"東京都新島村式根島","lat":34.32432977,"lon":139.21927444},{"name":"里川の水源","province":"東京都","city":"新島村","address":"東京都新島村","lat":34.37713721,"lon":139.25657395},{"name":"新島測量基点","province":"東京都","city":"新島村","address":"東京都新島村本村","lat":34.37612616,"lon":139.25397696},{"name":"流人牢屋跡","province":"東京都","city":"新島村","address":"東京都新島村本村","lat":34.37612616,"lon":139.25397696},{"name":"薩摩畑","province":"東京都","city":"新島村","address":"東京都新島村","lat":34.37713721,"lon":139.25657395},{"name":"塩釜の跡","province":"東京都","city":"新島村","address":"東京都新島村式根島","lat":34.32432977,"lon":139.21927444},{"name":"丸山の方角石","province":"東京都","city":"新島村","address":"東京都新島村式根島","lat":34.32432977,"lon":139.21927444},{"name":"なまこ桟橋","province":"東京都","city":"新島村","address":"東京都新島村式根島","lat":34.32432977,"lon":139.21927444},{"name":"大浦野営場","province":"東京都","city":"新島村","address":"東京都新島村式根島","lat":34.330566,"lon":139.209249},{"name":"羽伏浦園地","province":"東京都","city":"新島村","address":"東京都新島村字ナムレ","lat":34.376098,"lon":139.275306},{"name":"羽伏浦公園（コロシアム）","province":"東京都","city":"新島村","address":"東京都新島村字檜山","lat":34.378296,"lon":139.274393},{"name":"羽伏浦野営場","province":"東京都","city":"新島村","address":"東京都新島村字檜山","lat":34.379032,"lon":139.271136},{"name":"間々下園地","province":"東京都","city":"新島村","address":"東京都新島村字黒根","lat":34.364378,"lon":139.24283},{"name":"間々下園地","province":"東京都","city":"新島村","address":"東京都新島村字黒根","lat":34.364234,"lon":139.243018},{"name":"若郷園地","province":"東京都","city":"新島村","address":"東京都新島村若郷1","lat":34.423818,"lon":139.282279},{"name":"泊園地","province":"東京都","city":"新島村","address":"東京都新島村式根島","lat":34.335652,"lon":139.212383},{"name":"式根島遊歩道（カンビキ）","province":"東京都","city":"新島村","address":"東京都新島村式根島","lat":34.324955,"lon":139.204427},{"name":"本村前浜便所","province":"東京都","city":"新島村","address":"東京都新島村本村6丁目8","lat":34.374565,"lon":139.252012},{"name":"本村前浜便所","province":"東京都","city":"新島村","address":"東京都新島村本村2丁目4","lat":34.379261,"lon":139.25419},{"name":"新島港船客待合所","province":"東京都","city":"新島村","address":"東京都新島村字黒根","lat":34.367204,"lon":139.244964},{"name":"向山展望台トイレ","province":"東京都","city":"新島村","address":"東京都新島村字向山","lat":34.352256,"lon":139.252576},{"name":"若郷前浜（奥）","province":"東京都","city":"新島村","address":"東京都新島村若郷1","lat":34.423842,"lon":139.282281},{"name":"波伏浦野営場","province":"東京都","city":"新島村","address":"東京都新島村字檜山","lat":34.379234,"lon":139.271105},{"name":"波伏浦海岸","province":"東京都","city":"新島村","address":"東京都新島村字ナムレ","lat":34.376117,"lon":139.275297},{"name":"前浜（森電気下）","province":"東京都","city":"新島村","address":"東京都新島村本村2丁目3","lat":34.378835,"lon":139.253938},{"name":"前浜（浜庄下）","province":"東京都","city":"新島村","address":"東京都新島村本村6丁目8","lat":34.374627,"lon":139.252022},{"name":"B堤防","province":"東京都","city":"新島村","address":"東京都新島村字黒根","lat":34.369354,"lon":139.247563},{"name":"泊海水浴場トイレ","province":"東京都","city":"新島村","address":"東京都新島村式根島","lat":34.335662,"lon":139.212384},{"name":"大浦海水浴場トイレ","province":"東京都","city":"新島村","address":"東京都新島村式根島","lat":34.330577,"lon":139.209237},{"name":"神引展望台トイレ","province":"東京都","city":"新島村","address":"東京都新島村式根島","lat":34.324963,"lon":139.20442},{"name":"前田家住宅外便所","province":"東京都","city":"新島村","address":"東京都新島村本村","lat":34.37612616,"lon":139.25397696},{"name":"板絵着色婦女群犬図","province":"東京都","city":"新島村","address":"東京都新島村本村6丁目10","lat":34.37602896,"lon":139.2529687},{"name":"銅鏡(松枝散双鳥鏡外8面)","province":"東京都","city":"新島村","address":"東京都新島村本村6丁目10","lat":34.37602896,"lon":139.2529687},{"name":"銅鏡（松竹双鶴鏡外1面）","province":"東京都","city":"新島村","address":"東京都新島村本村6丁目10","lat":34.37602896,"lon":139.2529687},{"name":"銅鏡（山吹双鳥鏡外1面）","province":"東京都","city":"新島村","address":"東京都新島村式根島","lat":34.32432977,"lon":139.21927444},{"name":"新島島役所資料（646冊394通9枚）","province":"東京都","city":"新島村","address":"東京都新島村本村","lat":34.37612616,"lon":139.25397696},{"name":"新島十三社神社資料（134冊）","province":"東京都","city":"新島村","address":"東京都新島村本村6丁目10","lat":34.37602896,"lon":139.2529687},{"name":"新島の神楽","province":"東京都","city":"新島村","address":"東京都新島村本村6丁目10","lat":34.37602896,"lon":139.2529687},{"name":"獅子木遣","province":"東京都","city":"新島村","address":"東京都新島村本村6丁目10","lat":34.37602896,"lon":139.2529687},{"name":"原町の井戸","province":"東京都","city":"新島村","address":"東京都新島村本村","lat":34.37612616,"lon":139.25397696},{"name":"吹之江遺跡","province":"東京都","city":"新島村","address":"東京都新島村式根島","lat":34.32432977,"lon":139.21927444},{"name":"天宥法印墓","province":"東京都","city":"新島村","address":"東京都新島村","lat":34.37713721,"lon":139.25657395},{"name":"宝篋印塔と五輪塔","province":"東京都","city":"新島村","address":"東京都新島村本村","lat":34.37612616,"lon":139.25397696},{"name":"流人墓地","province":"東京都","city":"新島村","address":"東京都新島村本村","lat":34.37612616,"lon":139.25397696},{"name":"向畑刑場跡","province":"東京都","city":"新島村","address":"東京都新島村本村","lat":34.37612616,"lon":139.25397696},{"name":"式根島のまいまいず井戸","province":"東京都","city":"新島村","address":"東京都新島村式根島","lat":34.32432977,"lon":139.21927444},{"name":"里川の水源","province":"東京都","city":"新島村","address":"東京都新島村","lat":34.37713721,"lon":139.25657395},{"name":"新島測量基点","province":"東京都","city":"新島村","address":"東京都新島村本村","lat":34.37612616,"lon":139.25397696},{"name":"流人牢屋跡","province":"東京都","city":"新島村","address":"東京都新島村本村","lat":34.37612616,"lon":139.25397696},{"name":"薩摩畑","province":"東京都","city":"新島村","address":"東京都新島村","lat":34.37713721,"lon":139.25657395},{"name":"塩釜の跡","province":"東京都","city":"新島村","address":"東京都新島村式根島","lat":34.32432977,"lon":139.21927444},{"name":"丸山の方角石","province":"東京都","city":"新島村","address":"東京都新島村式根島","lat":34.32432977,"lon":139.21927444},{"name":"なまこ桟橋","province":"東京都","city":"新島村","address":"東京都新島村式根島","lat":34.32432977,"lon":139.21927444},{"name":"大浦野営場","province":"東京都","city":"新島村","address":"東京都新島村式根島","lat":34.330566,"lon":139.209249},{"name":"羽伏浦園地","province":"東京都","city":"新島村","address":"東京都新島村字ナムレ","lat":34.376098,"lon":139.275306},{"name":"羽伏浦公園（コロシアム）","province":"東京都","city":"新島村","address":"東京都新島村字檜山","lat":34.378296,"lon":139.274393},{"name":"羽伏浦野営場","province":"東京都","city":"新島村","address":"東京都新島村字檜山","lat":34.379032,"lon":139.271136},{"name":"間々下園地","province":"東京都","city":"新島村","address":"東京都新島村字黒根","lat":34.364378,"lon":139.24283},{"name":"間々下園地","province":"東京都","city":"新島村","address":"東京都新島村字黒根","lat":34.364234,"lon":139.243018},{"name":"若郷園地","province":"東京都","city":"新島村","address":"東京都新島村若郷1","lat":34.423818,"lon":139.282279},{"name":"泊園地","province":"東京都","city":"新島村","address":"東京都新島村式根島","lat":34.335652,"lon":139.212383},{"name":"式根島遊歩道（カンビキ）","province":"東京都","city":"新島村","address":"東京都新島村式根島","lat":34.324955,"lon":139.204427},{"name":"本村前浜便所","province":"東京都","city":"新島村","address":"東京都新島村本村6丁目8","lat":34.374565,"lon":139.252012},{"name":"本村前浜便所","province":"東京都","city":"新島村","address":"東京都新島村本村2丁目4","lat":34.379261,"lon":139.25419},{"name":"新島港船客待合所","province":"東京都","city":"新島村","address":"東京都新島村字黒根","lat":34.367204,"lon":139.244964},{"name":"向山展望台トイレ","province":"東京都","city":"新島村","address":"東京都新島村字向山","lat":34.352256,"lon":139.252576},{"name":"若郷前浜（奥）","province":"東京都","city":"新島村","address":"東京都新島村若郷1","lat":34.423842,"lon":139.282281},{"name":"波伏浦野営場","province":"東京都","city":"新島村","address":"東京都新島村字檜山","lat":34.379234,"lon":139.271105},{"name":"波伏浦海岸","province":"東京都","city":"新島村","address":"東京都新島村字ナムレ","lat":34.376117,"lon":139.275297},{"name":"前浜（森電気下）","province":"東京都","city":"新島村","address":"東京都新島村本村2丁目3","lat":34.378835,"lon":139.253938},{"name":"前浜（浜庄下）","province":"東京都","city":"新島村","address":"東京都新島村本村6丁目8","lat":34.374627,"lon":139.252022},{"name":"B堤防","province":"東京都","city":"新島村","address":"東京都新島村字黒根","lat":34.369354,"lon":139.247563},{"name":"泊海水浴場トイレ","province":"東京都","city":"新島村","address":"東京都新島村式根島","lat":34.335662,"lon":139.212384},{"name":"大浦海水浴場トイレ","province":"東京都","city":"新島村","address":"東京都新島村式根島","lat":34.330577,"lon":139.209237},{"name":"神引展望台トイレ","province":"東京都","city":"新島村","address":"東京都新島村式根島","lat":34.324963,"lon":139.20442},{"name":"前田家住宅外便所","province":"東京都","city":"新島村","address":"東京都新島村本村","lat":34.37612616,"lon":139.25397696},{"name":"板絵着色婦女群犬図","province":"東京都","city":"新島村","address":"東京都新島村本村6丁目10","lat":34.37602896,"lon":139.2529687},{"name":"銅鏡(松枝散双鳥鏡外8面)","province":"東京都","city":"新島村","address":"東京都新島村本村6丁目10","lat":34.37602896,"lon":139.2529687},{"name":"銅鏡（松竹双鶴鏡外1面）","province":"東京都","city":"新島村","address":"東京都新島村本村6丁目10","lat":34.37602896,"lon":139.2529687},{"name":"銅鏡（山吹双鳥鏡外1面）","province":"東京都","city":"新島村","address":"東京都新島村式根島","lat":34.32432977,"lon":139.21927444},{"name":"新島島役所資料（646冊394通9枚）","province":"東京都","city":"新島村","address":"東京都新島村本村","lat":34.37612616,"lon":139.25397696},{"name":"新島十三社神社資料（134冊）","province":"東京都","city":"新島村","address":"東京都新島村本村6丁目10","lat":34.37602896,"lon":139.2529687},{"name":"新島の神楽","province":"東京都","city":"新島村","address":"東京都新島村本村6丁目10","lat":34.37602896,"lon":139.2529687},{"name":"獅子木遣","province":"東京都","city":"新島村","address":"東京都新島村本村6丁目10","lat":34.37602896,"lon":139.2529687},{"name":"原町の井戸","province":"東京都","city":"新島村","address":"東京都新島村本村","lat":34.37612616,"lon":139.25397696},{"name":"吹之江遺跡","province":"東京都","city":"新島村","address":"東京都新島村式根島","lat":34.32432977,"lon":139.21927444},{"name":"天宥法印墓","province":"東京都","city":"新島村","address":"東京都新島村","lat":34.37713721,"lon":139.25657395},{"name":"宝篋印塔と五輪塔","province":"東京都","city":"新島村","address":"東京都新島村本村","lat":34.37612616,"lon":139.25397696},{"name":"流人墓地","province":"東京都","city":"新島村","address":"東京都新島村本村","lat":34.37612616,"lon":139.25397696},{"name":"向畑刑場跡","province":"東京都","city":"新島村","address":"東京都新島村本村","lat":34.37612616,"lon":139.25397696},{"name":"式根島のまいまいず井戸","province":"東京都","city":"新島村","address":"東京都新島村式根島","lat":34.32432977,"lon":139.21927444},{"name":"里川の水源","province":"東京都","city":"新島村","address":"東京都新島村","lat":34.37713721,"lon":139.25657395},{"name":"新島測量基点","province":"東京都","city":"新島村","address":"東京都新島村本村","lat":34.37612616,"lon":139.25397696},{"name":"流人牢屋跡","province":"東京都","city":"新島村","address":"東京都新島村本村","lat":34.37612616,"lon":139.25397696},{"name":"薩摩畑","province":"東京都","city":"新島村","address":"東京都新島村","lat":34.37713721,"lon":139.25657395},{"name":"塩釜の跡","province":"東京都","city":"新島村","address":"東京都新島村式根島","lat":34.32432977,"lon":139.21927444},{"name":"丸山の方角石","province":"東京都","city":"新島村","address":"東京都新島村式根島","lat":34.32432977,"lon":139.21927444},{"name":"なまこ桟橋","province":"東京都","city":"新島村","address":"東京都新島村式根島","lat":34.32432977,"lon":139.21927444},{"name":"大浦野営場","province":"東京都","city":"新島村","address":"東京都新島村式根島","lat":34.330566,"lon":139.209249},{"name":"羽伏浦園地","province":"東京都","city":"新島村","address":"東京都新島村字ナムレ","lat":34.376098,"lon":139.275306},{"name":"羽伏浦公園（コロシアム）","province":"東京都","city":"新島村","address":"東京都新島村字檜山","lat":34.378296,"lon":139.274393},{"name":"羽伏浦野営場","province":"東京都","city":"新島村","address":"東京都新島村字檜山","lat":34.379032,"lon":139.271136},{"name":"間々下園地","province":"東京都","city":"新島村","address":"東京都新島村字黒根","lat":34.364378,"lon":139.24283},{"name":"間々下園地","province":"東京都","city":"新島村","address":"東京都新島村字黒根","lat":34.364234,"lon":139.243018},{"name":"若郷園地","province":"東京都","city":"新島村","address":"東京都新島村若郷1","lat":34.423818,"lon":139.282279},{"name":"泊園地","province":"東京都","city":"新島村","address":"東京都新島村式根島","lat":34.335652,"lon":139.212383},{"name":"式根島遊歩道（カンビキ）","province":"東京都","city":"新島村","address":"東京都新島村式根島","lat":34.324955,"lon":139.204427},{"name":"本村前浜便所","province":"東京都","city":"新島村","address":"東京都新島村本村6丁目8","lat":34.374565,"lon":139.252012},{"name":"本村前浜便所","province":"東京都","city":"新島村","address":"東京都新島村本村2丁目4","lat":34.379261,"lon":139.25419},{"name":"新島港船客待合所","province":"東京都","city":"新島村","address":"東京都新島村字黒根","lat":34.367204,"lon":139.244964},{"name":"向山展望台トイレ","province":"東京都","city":"新島村","address":"東京都新島村字向山","lat":34.352256,"lon":139.252576},{"name":"若郷前浜（奥）","province":"東京都","city":"新島村","address":"東京都新島村若郷1","lat":34.423842,"lon":139.282281},{"name":"波伏浦野営場","province":"東京都","city":"新島村","address":"東京都新島村字檜山","lat":34.379234,"lon":139.271105},{"name":"波伏浦海岸","province":"東京都","city":"新島村","address":"東京都新島村字ナムレ","lat":34.376117,"lon":139.275297},{"name":"前浜（森電気下）","province":"東京都","city":"新島村","address":"東京都新島村本村2丁目3","lat":34.378835,"lon":139.253938},{"name":"前浜（浜庄下）","province":"東京都","city":"新島村","address":"東京都新島村本村6丁目8","lat":34.374627,"lon":139.252022},{"name":"B堤防","province":"東京都","city":"新島村","address":"東京都新島村字黒根","lat":34.369354,"lon":139.247563},{"name":"泊海水浴場トイレ","province":"東京都","city":"新島村","address":"東京都新島村式根島","lat":34.335662,"lon":139.212384},{"name":"大浦海水浴場トイレ","province":"東京都","city":"新島村","address":"東京都新島村式根島","lat":34.330577,"lon":139.209237},{"name":"神引展望台トイレ","province":"東京都","city":"新島村","address":"東京都新島村式根島","lat":34.324963,"lon":139.20442},{"name":"前田家住宅外便所","province":"東京都","city":"新島村","address":"東京都新島村本村","lat":34.37612616,"lon":139.25397696},{"name":"板絵着色婦女群犬図","province":"東京都","city":"新島村","address":"東京都新島村本村6丁目10","lat":34.37602896,"lon":139.2529687},{"name":"銅鏡(松枝散双鳥鏡外8面)","province":"東京都","city":"新島村","address":"東京都新島村本村6丁目10","lat":34.37602896,"lon":139.2529687},{"name":"銅鏡（松竹双鶴鏡外1面）","province":"東京都","city":"新島村","address":"東京都新島村本村6丁目10","lat":34.37602896,"lon":139.2529687},{"name":"銅鏡（山吹双鳥鏡外1面）","province":"東京都","city":"新島村","address":"東京都新島村式根島","lat":34.32432977,"lon":139.21927444},{"name":"新島島役所資料（646冊394通9枚）","province":"東京都","city":"新島村","address":"東京都新島村本村","lat":34.37612616,"lon":139.25397696},{"name":"新島十三社神社資料（134冊）","province":"東京都","city":"新島村","address":"東京都新島村本村6丁目10","lat":34.37602896,"lon":139.2529687},{"name":"新島の神楽","province":"東京都","city":"新島村","address":"東京都新島村本村6丁目10","lat":34.37602896,"lon":139.2529687},{"name":"獅子木遣","province":"東京都","city":"新島村","address":"東京都新島村本村6丁目10","lat":34.37602896,"lon":139.2529687},{"name":"原町の井戸","province":"東京都","city":"新島村","address":"東京都新島村本村","lat":34.37612616,"lon":139.25397696},{"name":"吹之江遺跡","province":"東京都","city":"新島村","address":"東京都新島村式根島","lat":34.32432977,"lon":139.21927444},{"name":"天宥法印墓","province":"東京都","city":"新島村","address":"東京都新島村","lat":34.37713721,"lon":139.25657395},{"name":"宝篋印塔と五輪塔","province":"東京都","city":"新島村","address":"東京都新島村本村","lat":34.37612616,"lon":139.25397696},{"name":"流人墓地","province":"東京都","city":"新島村","address":"東京都新島村本村","lat":34.37612616,"lon":139.25397696},{"name":"向畑刑場跡","province":"東京都","city":"新島村","address":"東京都新島村本村","lat":34.37612616,"lon":139.25397696},{"name":"式根島のまいまいず井戸","province":"東京都","city":"新島村","address":"東京都新島村式根島","lat":34.32432977,"lon":139.21927444},{"name":"里川の水源","province":"東京都","city":"新島村","address":"東京都新島村","lat":34.37713721,"lon":139.25657395},{"name":"新島測量基点","province":"東京都","city":"新島村","address":"東京都新島村本村","lat":34.37612616,"lon":139.25397696},{"name":"流人牢屋跡","province":"東京都","city":"新島村","address":"東京都新島村本村","lat":34.37612616,"lon":139.25397696},{"name":"薩摩畑","province":"東京都","city":"新島村","address":"東京都新島村","lat":34.37713721,"lon":139.25657395},{"name":"塩釜の跡","province":"東京都","city":"新島村","address":"東京都新島村式根島","lat":34.32432977,"lon":139.21927444},{"name":"丸山の方角石","province":"東京都","city":"新島村","address":"東京都新島村式根島","lat":34.32432977,"lon":139.21927444},{"name":"なまこ桟橋","province":"東京都","city":"新島村","address":"東京都新島村式根島","lat":34.32432977,"lon":139.21927444},{"name":"大浦野営場","province":"東京都","city":"新島村","address":"東京都新島村式根島","lat":34.330566,"lon":139.209249},{"name":"羽伏浦園地","province":"東京都","city":"新島村","address":"東京都新島村字ナムレ","lat":34.376098,"lon":139.275306},{"name":"羽伏浦公園（コロシアム）","province":"東京都","city":"新島村","address":"東京都新島村字檜山","lat":34.378296,"lon":139.274393},{"name":"羽伏浦野営場","province":"東京都","city":"新島村","address":"東京都新島村字檜山","lat":34.379032,"lon":139.271136},{"name":"間々下園地","province":"東京都","city":"新島村","address":"東京都新島村字黒根","lat":34.364378,"lon":139.24283},{"name":"間々下園地","province":"東京都","city":"新島村","address":"東京都新島村字黒根","lat":34.364234,"lon":139.243018},{"name":"若郷園地","province":"東京都","city":"新島村","address":"東京都新島村若郷1","lat":34.423818,"lon":139.282279},{"name":"泊園地","province":"東京都","city":"新島村","address":"東京都新島村式根島","lat":34.335652,"lon":139.212383},{"name":"式根島遊歩道（カンビキ）","province":"東京都","city":"新島村","address":"東京都新島村式根島","lat":34.324955,"lon":139.204427},{"name":"本村前浜便所","province":"東京都","city":"新島村","address":"東京都新島村本村6丁目8","lat":34.374565,"lon":139.252012},{"name":"本村前浜便所","province":"東京都","city":"新島村","address":"東京都新島村本村2丁目4","lat":34.379261,"lon":139.25419},{"name":"新島港船客待合所","province":"東京都","city":"新島村","address":"東京都新島村字黒根","lat":34.367204,"lon":139.244964},{"name":"向山展望台トイレ","province":"東京都","city":"新島村","address":"東京都新島村字向山","lat":34.352256,"lon":139.252576},{"name":"若郷前浜（奥）","province":"東京都","city":"新島村","address":"東京都新島村若郷1","lat":34.423842,"lon":139.282281},{"name":"波伏浦野営場","province":"東京都","city":"新島村","address":"東京都新島村字檜山","lat":34.379234,"lon":139.271105},{"name":"波伏浦海岸","province":"東京都","city":"新島村","address":"東京都新島村字ナムレ","lat":34.376117,"lon":139.275297},{"name":"前浜（森電気下）","province":"東京都","city":"新島村","address":"東京都新島村本村2丁目3","lat":34.378835,"lon":139.253938},{"name":"前浜（浜庄下）","province":"東京都","city":"新島村","address":"東京都新島村本村6丁目8","lat":34.374627,"lon":139.252022},{"name":"B堤防","province":"東京都","city":"新島村","address":"東京都新島村字黒根","lat":34.369354,"lon":139.247563},{"name":"泊海水浴場トイレ","province":"東京都","city":"新島村","address":"東京都新島村式根島","lat":34.335662,"lon":139.212384},{"name":"大浦海水浴場トイレ","province":"東京都","city":"新島村","address":"東京都新島村式根島","lat":34.330577,"lon":139.209237},{"name":"神引展望台トイレ","province":"東京都","city":"新島村","address":"東京都新島村式根島","lat":34.324963,"lon":139.20442},{"name":"前田家住宅外便所","province":"東京都","city":"新島村","address":"東京都新島村本村","lat":34.37612616,"lon":139.25397696},{"name":"板絵着色婦女群犬図","province":"東京都","city":"新島村","address":"東京都新島村本村6丁目10","lat":34.37602896,"lon":139.2529687},{"name":"銅鏡(松枝散双鳥鏡外8面)","province":"東京都","city":"新島村","address":"東京都新島村本村6丁目10","lat":34.37602896,"lon":139.2529687},{"name":"銅鏡（松竹双鶴鏡外1面）","province":"東京都","city":"新島村","address":"東京都新島村本村6丁目10","lat":34.37602896,"lon":139.2529687},{"name":"銅鏡（山吹双鳥鏡外1面）","province":"東京都","city":"新島村","address":"東京都新島村式根島","lat":34.32432977,"lon":139.21927444},{"name":"新島島役所資料（646冊394通9枚）","province":"東京都","city":"新島村","address":"東京都新島村本村","lat":34.37612616,"lon":139.25397696},{"name":"新島十三社神社資料（134冊）","province":"東京都","city":"新島村","address":"東京都新島村本村6丁目10","lat":34.37602896,"lon":139.2529687},{"name":"新島の神楽","province":"東京都","city":"新島村","address":"東京都新島村本村6丁目10","lat":34.37602896,"lon":139.2529687},{"name":"獅子木遣","province":"東京都","city":"新島村","address":"東京都新島村本村6丁目10","lat":34.37602896,"lon":139.2529687},{"name":"原町の井戸","province":"東京都","city":"新島村","address":"東京都新島村本村","lat":34.37612616,"lon":139.25397696},{"name":"吹之江遺跡","province":"東京都","city":"新島村","address":"東京都新島村式根島","lat":34.32432977,"lon":139.21927444},{"name":"天宥法印墓","province":"東京都","city":"新島村","address":"東京都新島村","lat":34.37713721,"lon":139.25657395},{"name":"宝篋印塔と五輪塔","province":"東京都","city":"新島村","address":"東京都新島村本村","lat":34.37612616,"lon":139.25397696},{"name":"流人墓地","province":"東京都","city":"新島村","address":"東京都新島村本村","lat":34.37612616,"lon":139.25397696},{"name":"向畑刑場跡","province":"東京都","city":"新島村","address":"東京都新島村本村","lat":34.37612616,"lon":139.25397696},{"name":"式根島のまいまいず井戸","province":"東京都","city":"新島村","address":"東京都新島村式根島","lat":34.32432977,"lon":139.21927444},{"name":"里川の水源","province":"東京都","city":"新島村","address":"東京都新島村","lat":34.37713721,"lon":139.25657395},{"name":"新島測量基点","province":"東京都","city":"新島村","address":"東京都新島村本村","lat":34.37612616,"lon":139.25397696},{"name":"流人牢屋跡","province":"東京都","city":"新島村","address":"東京都新島村本村","lat":34.37612616,"lon":139.25397696},{"name":"薩摩畑","province":"東京都","city":"新島村","address":"東京都新島村","lat":34.37713721,"lon":139.25657395},{"name":"塩釜の跡","province":"東京都","city":"新島村","address":"東京都新島村式根島","lat":34.32432977,"lon":139.21927444},{"name":"丸山の方角石","province":"東京都","city":"新島村","address":"東京都新島村式根島","lat":34.32432977,"lon":139.21927444},{"name":"なまこ桟橋","province":"東京都","city":"新島村","address":"東京都新島村式根島","lat":34.32432977,"lon":139.21927444},{"name":"大浦野営場","province":"東京都","city":"新島村","address":"東京都新島村式根島","lat":34.330566,"lon":139.209249},{"name":"羽伏浦園地","province":"東京都","city":"新島村","address":"東京都新島村字ナムレ","lat":34.376098,"lon":139.275306},{"name":"羽伏浦公園（コロシアム）","province":"東京都","city":"新島村","address":"東京都新島村字檜山","lat":34.378296,"lon":139.274393},{"name":"羽伏浦野営場","province":"東京都","city":"新島村","address":"東京都新島村字檜山","lat":34.379032,"lon":139.271136},{"name":"間々下園地","province":"東京都","city":"新島村","address":"東京都新島村字黒根","lat":34.364378,"lon":139.24283},{"name":"間々下園地","province":"東京都","city":"新島村","address":"東京都新島村字黒根","lat":34.364234,"lon":139.243018},{"name":"若郷園地","province":"東京都","city":"新島村","address":"東京都新島村若郷1","lat":34.423818,"lon":139.282279},{"name":"泊園地","province":"東京都","city":"新島村","address":"東京都新島村式根島","lat":34.335652,"lon":139.212383},{"name":"式根島遊歩道（カンビキ）","province":"東京都","city":"新島村","address":"東京都新島村式根島","lat":34.324955,"lon":139.204427},{"name":"本村前浜便所","province":"東京都","city":"新島村","address":"東京都新島村本村6丁目8","lat":34.374565,"lon":139.252012},{"name":"本村前浜便所","province":"東京都","city":"新島村","address":"東京都新島村本村2丁目4","lat":34.379261,"lon":139.25419},{"name":"新島港船客待合所","province":"東京都","city":"新島村","address":"東京都新島村字黒根","lat":34.367204,"lon":139.244964},{"name":"向山展望台トイレ","province":"東京都","city":"新島村","address":"東京都新島村字向山","lat":34.352256,"lon":139.252576},{"name":"若郷前浜（奥）","province":"東京都","city":"新島村","address":"東京都新島村若郷1","lat":34.423842,"lon":139.282281},{"name":"波伏浦野営場","province":"東京都","city":"新島村","address":"東京都新島村字檜山","lat":34.379234,"lon":139.271105},{"name":"波伏浦海岸","province":"東京都","city":"新島村","address":"東京都新島村字ナムレ","lat":34.376117,"lon":139.275297},{"name":"前浜（森電気下）","province":"東京都","city":"新島村","address":"東京都新島村本村2丁目3","lat":34.378835,"lon":139.253938},{"name":"前浜（浜庄下）","province":"東京都","city":"新島村","address":"東京都新島村本村6丁目8","lat":34.374627,"lon":139.252022},{"name":"B堤防","province":"東京都","city":"新島村","address":"東京都新島村字黒根","lat":34.369354,"lon":139.247563},{"name":"泊海水浴場トイレ","province":"東京都","city":"新島村","address":"東京都新島村式根島","lat":34.335662,"lon":139.212384},{"name":"大浦海水浴場トイレ","province":"東京都","city":"新島村","address":"東京都新島村式根島","lat":34.330577,"lon":139.209237},{"name":"神引展望台トイレ","province":"東京都","city":"新島村","address":"東京都新島村式根島","lat":34.324963,"lon":139.20442},{"name":"前田家住宅外便所","province":"東京都","city":"新島村","address":"東京都新島村本村","lat":34.37612616,"lon":139.25397696},{"name":"板絵着色婦女群犬図","province":"東京都","city":"新島村","address":"東京都新島村本村6丁目10","lat":34.37602896,"lon":139.2529687},{"name":"銅鏡(松枝散双鳥鏡外8面)","province":"東京都","city":"新島村","address":"東京都新島村本村6丁目10","lat":34.37602896,"lon":139.2529687},{"name":"銅鏡（松竹双鶴鏡外1面）","province":"東京都","city":"新島村","address":"東京都新島村本村6丁目10","lat":34.37602896,"lon":139.2529687},{"name":"銅鏡（山吹双鳥鏡外1面）","province":"東京都","city":"新島村","address":"東京都新島村式根島","lat":34.32432977,"lon":139.21927444},{"name":"新島島役所資料（646冊394通9枚）","province":"東京都","city":"新島村","address":"東京都新島村本村","lat":34.37612616,"lon":139.25397696},{"name":"新島十三社神社資料（134冊）","province":"東京都","city":"新島村","address":"東京都新島村本村6丁目10","lat":34.37602896,"lon":139.2529687},{"name":"新島の神楽","province":"東京都","city":"新島村","address":"東京都新島村本村6丁目10","lat":34.37602896,"lon":139.2529687},{"name":"獅子木遣","province":"東京都","city":"新島村","address":"東京都新島村本村6丁目10","lat":34.37602896,"lon":139.2529687},{"name":"原町の井戸","province":"東京都","city":"新島村","address":"東京都新島村本村","lat":34.37612616,"lon":139.25397696},{"name":"吹之江遺跡","province":"東京都","city":"新島村","address":"東京都新島村式根島","lat":34.32432977,"lon":139.21927444},{"name":"天宥法印墓","province":"東京都","city":"新島村","address":"東京都新島村","lat":34.37713721,"lon":139.25657395},{"name":"宝篋印塔と五輪塔","province":"東京都","city":"新島村","address":"東京都新島村本村","lat":34.37612616,"lon":139.25397696},{"name":"流人墓地","province":"東京都","city":"新島村","address":"東京都新島村本村","lat":34.37612616,"lon":139.25397696},{"name":"向畑刑場跡","province":"東京都","city":"新島村","address":"東京都新島村本村","lat":34.37612616,"lon":139.25397696},{"name":"式根島のまいまいず井戸","province":"東京都","city":"新島村","address":"東京都新島村式根島","lat":34.32432977,"lon":139.21927444},{"name":"里川の水源","province":"東京都","city":"新島村","address":"東京都新島村","lat":34.37713721,"lon":139.25657395},{"name":"新島測量基点","province":"東京都","city":"新島村","address":"東京都新島村本村","lat":34.37612616,"lon":139.25397696},{"name":"流人牢屋跡","province":"東京都","city":"新島村","address":"東京都新島村本村","lat":34.37612616,"lon":139.25397696},{"name":"薩摩畑","province":"東京都","city":"新島村","address":"東京都新島村","lat":34.37713721,"lon":139.25657395},{"name":"塩釜の跡","province":"東京都","city":"新島村","address":"東京都新島村式根島","lat":34.32432977,"lon":139.21927444},{"name":"丸山の方角石","province":"東京都","city":"新島村","address":"東京都新島村式根島","lat":34.32432977,"lon":139.21927444},{"name":"なまこ桟橋","province":"東京都","city":"新島村","address":"東京都新島村式根島","lat":34.32432977,"lon":139.21927444},{"name":"大浦野営場","province":"東京都","city":"新島村","address":"東京都新島村式根島","lat":34.330566,"lon":139.209249},{"name":"羽伏浦園地","province":"東京都","city":"新島村","address":"東京都新島村字ナムレ","lat":34.376098,"lon":139.275306},{"name":"羽伏浦公園（コロシアム）","province":"東京都","city":"新島村","address":"東京都新島村字檜山","lat":34.378296,"lon":139.274393},{"name":"羽伏浦野営場","province":"東京都","city":"新島村","address":"東京都新島村字檜山","lat":34.379032,"lon":139.271136},{"name":"間々下園地","province":"東京都","city":"新島村","address":"東京都新島村字黒根","lat":34.364378,"lon":139.24283},{"name":"間々下園地","province":"東京都","city":"新島村","address":"東京都新島村字黒根","lat":34.364234,"lon":139.243018},{"name":"若郷園地","province":"東京都","city":"新島村","address":"東京都新島村若郷1","lat":34.423818,"lon":139.282279},{"name":"泊園地","province":"東京都","city":"新島村","address":"東京都新島村式根島","lat":34.335652,"lon":139.212383},{"name":"式根島遊歩道（カンビキ）","province":"東京都","city":"新島村","address":"東京都新島村式根島","lat":34.324955,"lon":139.204427},{"name":"本村前浜便所","province":"東京都","city":"新島村","address":"東京都新島村本村6丁目8","lat":34.374565,"lon":139.252012},{"name":"本村前浜便所","province":"東京都","city":"新島村","address":"東京都新島村本村2丁目4","lat":34.379261,"lon":139.25419},{"name":"新島港船客待合所","province":"東京都","city":"新島村","address":"東京都新島村字黒根","lat":34.367204,"lon":139.244964},{"name":"向山展望台トイレ","province":"東京都","city":"新島村","address":"東京都新島村字向山","lat":34.352256,"lon":139.252576},{"name":"若郷前浜（奥）","province":"東京都","city":"新島村","address":"東京都新島村若郷1","lat":34.423842,"lon":139.282281},{"name":"波伏浦野営場","province":"東京都","city":"新島村","address":"東京都新島村字檜山","lat":34.379234,"lon":139.271105},{"name":"波伏浦海岸","province":"東京都","city":"新島村","address":"東京都新島村字ナムレ","lat":34.376117,"lon":139.275297},{"name":"前浜（森電気下）","province":"東京都","city":"新島村","address":"東京都新島村本村2丁目3","lat":34.378835,"lon":139.253938},{"name":"前浜（浜庄下）","province":"東京都","city":"新島村","address":"東京都新島村本村6丁目8","lat":34.374627,"lon":139.252022},{"name":"B堤防","province":"東京都","city":"新島村","address":"東京都新島村字黒根","lat":34.369354,"lon":139.247563},{"name":"泊海水浴場トイレ","province":"東京都","city":"新島村","address":"東京都新島村式根島","lat":34.335662,"lon":139.212384},{"name":"大浦海水浴場トイレ","province":"東京都","city":"新島村","address":"東京都新島村式根島","lat":34.330577,"lon":139.209237},{"name":"神引展望台トイレ","province":"東京都","city":"新島村","address":"東京都新島村式根島","lat":34.324963,"lon":139.20442},{"name":"前田家住宅外便所","province":"東京都","city":"新島村","address":"東京都新島村本村","lat":34.37612616,"lon":139.25397696},{"name":"板絵着色婦女群犬図","province":"東京都","city":"新島村","address":"東京都新島村本村6丁目10","lat":34.37602896,"lon":139.2529687},{"name":"銅鏡(松枝散双鳥鏡外8面)","province":"東京都","city":"新島村","address":"東京都新島村本村6丁目10","lat":34.37602896,"lon":139.2529687},{"name":"銅鏡（松竹双鶴鏡外1面）","province":"東京都","city":"新島村","address":"東京都新島村本村6丁目10","lat":34.37602896,"lon":139.2529687},{"name":"銅鏡（山吹双鳥鏡外1面）","province":"東京都","city":"新島村","address":"東京都新島村式根島","lat":34.32432977,"lon":139.21927444},{"name":"新島島役所資料（646冊394通9枚）","province":"東京都","city":"新島村","address":"東京都新島村本村","lat":34.37612616,"lon":139.25397696},{"name":"新島十三社神社資料（134冊）","province":"東京都","city":"新島村","address":"東京都新島村本村6丁目10","lat":34.37602896,"lon":139.2529687},{"name":"新島の神楽","province":"東京都","city":"新島村","address":"東京都新島村本村6丁目10","lat":34.37602896,"lon":139.2529687},{"name":"獅子木遣","province":"東京都","city":"新島村","address":"東京都新島村本村6丁目10","lat":34.37602896,"lon":139.2529687},{"name":"原町の井戸","province":"東京都","city":"新島村","address":"東京都新島村本村","lat":34.37612616,"lon":139.25397696},{"name":"吹之江遺跡","province":"東京都","city":"新島村","address":"東京都新島村式根島","lat":34.32432977,"lon":139.21927444},{"name":"天宥法印墓","province":"東京都","city":"新島村","address":"東京都新島村","lat":34.37713721,"lon":139.25657395},{"name":"宝篋印塔と五輪塔","province":"東京都","city":"新島村","address":"東京都新島村本村","lat":34.37612616,"lon":139.25397696},{"name":"流人墓地","province":"東京都","city":"新島村","address":"東京都新島村本村","lat":34.37612616,"lon":139.25397696},{"name":"向畑刑場跡","province":"東京都","city":"新島村","address":"東京都新島村本村","lat":34.37612616,"lon":139.25397696},{"name":"式根島のまいまいず井戸","province":"東京都","city":"新島村","address":"東京都新島村式根島","lat":34.32432977,"lon":139.21927444},{"name":"里川の水源","province":"東京都","city":"新島村","address":"東京都新島村","lat":34.37713721,"lon":139.25657395},{"name":"新島測量基点","province":"東京都","city":"新島村","address":"東京都新島村本村","lat":34.37612616,"lon":139.25397696},{"name":"流人牢屋跡","province":"東京都","city":"新島村","address":"東京都新島村本村","lat":34.37612616,"lon":139.25397696},{"name":"薩摩畑","province":"東京都","city":"新島村","address":"東京都新島村","lat":34.37713721,"lon":139.25657395},{"name":"塩釜の跡","province":"東京都","city":"新島村","address":"東京都新島村式根島","lat":34.32432977,"lon":139.21927444},{"name":"丸山の方角石","province":"東京都","city":"新島村","address":"東京都新島村式根島","lat":34.32432977,"lon":139.21927444},{"name":"なまこ桟橋","province":"東京都","city":"新島村","address":"東京都新島村式根島","lat":34.32432977,"lon":139.21927444},{"name":"大浦野営場","province":"東京都","city":"新島村","address":"東京都新島村式根島","lat":34.330566,"lon":139.209249},{"name":"羽伏浦園地","province":"東京都","city":"新島村","address":"東京都新島村字ナムレ","lat":34.376098,"lon":139.275306},{"name":"羽伏浦公園（コロシアム）","province":"東京都","city":"新島村","address":"東京都新島村字檜山","lat":34.378296,"lon":139.274393},{"name":"羽伏浦野営場","province":"東京都","city":"新島村","address":"東京都新島村字檜山","lat":34.379032,"lon":139.271136},{"name":"間々下園地","province":"東京都","city":"新島村","address":"東京都新島村字黒根","lat":34.364378,"lon":139.24283},{"name":"間々下園地","province":"東京都","city":"新島村","address":"東京都新島村字黒根","lat":34.364234,"lon":139.243018},{"name":"若郷園地","province":"東京都","city":"新島村","address":"東京都新島村若郷1","lat":34.423818,"lon":139.282279},{"name":"泊園地","province":"東京都","city":"新島村","address":"東京都新島村式根島","lat":34.335652,"lon":139.212383},{"name":"式根島遊歩道（カンビキ）","province":"東京都","city":"新島村","address":"東京都新島村式根島","lat":34.324955,"lon":139.204427},{"name":"本村前浜便所","province":"東京都","city":"新島村","address":"東京都新島村本村6丁目8","lat":34.374565,"lon":139.252012},{"name":"本村前浜便所","province":"東京都","city":"新島村","address":"東京都新島村本村2丁目4","lat":34.379261,"lon":139.25419},{"name":"新島港船客待合所","province":"東京都","city":"新島村","address":"東京都新島村字黒根","lat":34.367204,"lon":139.244964},{"name":"向山展望台トイレ","province":"東京都","city":"新島村","address":"東京都新島村字向山","lat":34.352256,"lon":139.252576},{"name":"若郷前浜（奥）","province":"東京都","city":"新島村","address":"東京都新島村若郷1","lat":34.423842,"lon":139.282281},{"name":"波伏浦野営場","province":"東京都","city":"新島村","address":"東京都新島村字檜山","lat":34.379234,"lon":139.271105},{"name":"波伏浦海岸","province":"東京都","city":"新島村","address":"東京都新島村字ナムレ","lat":34.376117,"lon":139.275297},{"name":"前浜（森電気下）","province":"東京都","city":"新島村","address":"東京都新島村本村2丁目3","lat":34.378835,"lon":139.253938},{"name":"前浜（浜庄下）","province":"東京都","city":"新島村","address":"東京都新島村本村6丁目8","lat":34.374627,"lon":139.252022},{"name":"B堤防","province":"東京都","city":"新島村","address":"東京都新島村字黒根","lat":34.369354,"lon":139.247563},{"name":"泊海水浴場トイレ","province":"東京都","city":"新島村","address":"東京都新島村式根島","lat":34.335662,"lon":139.212384},{"name":"大浦海水浴場トイレ","province":"東京都","city":"新島村","address":"東京都新島村式根島","lat":34.330577,"lon":139.209237},{"name":"神引展望台トイレ","province":"東京都","city":"新島村","address":"東京都新島村式根島","lat":34.324963,"lon":139.20442},{"name":"前田家住宅外便所","province":"東京都","city":"新島村","address":"東京都新島村本村","lat":34.37612616,"lon":139.25397696},{"name":"板絵着色婦女群犬図","province":"東京都","city":"新島村","address":"東京都新島村本村6丁目10","lat":34.37602896,"lon":139.2529687},{"name":"銅鏡(松枝散双鳥鏡外8面)","province":"東京都","city":"新島村","address":"東京都新島村本村6丁目10","lat":34.37602896,"lon":139.2529687},{"name":"銅鏡（松竹双鶴鏡外1面）","province":"東京都","city":"新島村","address":"東京都新島村本村6丁目10","lat":34.37602896,"lon":139.2529687},{"name":"銅鏡（山吹双鳥鏡外1面）","province":"東京都","city":"新島村","address":"東京都新島村式根島","lat":34.32432977,"lon":139.21927444},{"name":"新島島役所資料（646冊394通9枚）","province":"東京都","city":"新島村","address":"東京都新島村本村","lat":34.37612616,"lon":139.25397696},{"name":"新島十三社神社資料（134冊）","province":"東京都","city":"新島村","address":"東京都新島村本村6丁目10","lat":34.37602896,"lon":139.2529687},{"name":"新島の神楽","province":"東京都","city":"新島村","address":"東京都新島村本村6丁目10","lat":34.37602896,"lon":139.2529687},{"name":"獅子木遣","province":"東京都","city":"新島村","address":"東京都新島村本村6丁目10","lat":34.37602896,"lon":139.2529687},{"name":"原町の井戸","province":"東京都","city":"新島村","address":"東京都新島村本村","lat":34.37612616,"lon":139.25397696},{"name":"吹之江遺跡","province":"東京都","city":"新島村","address":"東京都新島村式根島","lat":34.32432977,"lon":139.21927444},{"name":"天宥法印墓","province":"東京都","city":"新島村","address":"東京都新島村","lat":34.37713721,"lon":139.25657395},{"name":"宝篋印塔と五輪塔","province":"東京都","city":"新島村","address":"東京都新島村本村","lat":34.37612616,"lon":139.25397696},{"name":"流人墓地","province":"東京都","city":"新島村","address":"東京都新島村本村","lat":34.37612616,"lon":139.25397696},{"name":"向畑刑場跡","province":"東京都","city":"新島村","address":"東京都新島村本村","lat":34.37612616,"lon":139.25397696},{"name":"式根島のまいまいず井戸","province":"東京都","city":"新島村","address":"東京都新島村式根島","lat":34.32432977,"lon":139.21927444},{"name":"里川の水源","province":"東京都","city":"新島村","address":"東京都新島村","lat":34.37713721,"lon":139.25657395},{"name":"新島測量基点","province":"東京都","city":"新島村","address":"東京都新島村本村","lat":34.37612616,"lon":139.25397696},{"name":"流人牢屋跡","province":"東京都","city":"新島村","address":"東京都新島村本村","lat":34.37612616,"lon":139.25397696},{"name":"薩摩畑","province":"東京都","city":"新島村","address":"東京都新島村","lat":34.37713721,"lon":139.25657395},{"name":"塩釜の跡","province":"東京都","city":"新島村","address":"東京都新島村式根島","lat":34.32432977,"lon":139.21927444},{"name":"丸山の方角石","province":"東京都","city":"新島村","address":"東京都新島村式根島","lat":34.32432977,"lon":139.21927444},{"name":"なまこ桟橋","province":"東京都","city":"新島村","address":"東京都新島村式根島","lat":34.32432977,"lon":139.21927444},{"name":"大浦野営場","province":"東京都","city":"新島村","address":"東京都新島村式根島","lat":34.330566,"lon":139.209249},{"name":"羽伏浦園地","province":"東京都","city":"新島村","address":"東京都新島村字ナムレ","lat":34.376098,"lon":139.275306},{"name":"羽伏浦公園（コロシアム）","province":"東京都","city":"新島村","address":"東京都新島村字檜山","lat":34.378296,"lon":139.274393},{"name":"羽伏浦野営場","province":"東京都","city":"新島村","address":"東京都新島村字檜山","lat":34.379032,"lon":139.271136},{"name":"間々下園地","province":"東京都","city":"新島村","address":"東京都新島村字黒根","lat":34.364378,"lon":139.24283},{"name":"間々下園地","province":"東京都","city":"新島村","address":"東京都新島村字黒根","lat":34.364234,"lon":139.243018},{"name":"若郷園地","province":"東京都","city":"新島村","address":"東京都新島村若郷1","lat":34.423818,"lon":139.282279},{"name":"泊園地","province":"東京都","city":"新島村","address":"東京都新島村式根島","lat":34.335652,"lon":139.212383},{"name":"式根島遊歩道（カンビキ）","province":"東京都","city":"新島村","address":"東京都新島村式根島","lat":34.324955,"lon":139.204427},{"name":"本村前浜便所","province":"東京都","city":"新島村","address":"東京都新島村本村6丁目8","lat":34.374565,"lon":139.252012},{"name":"本村前浜便所","province":"東京都","city":"新島村","address":"東京都新島村本村2丁目4","lat":34.379261,"lon":139.25419},{"name":"新島港船客待合所","province":"東京都","city":"新島村","address":"東京都新島村字黒根","lat":34.367204,"lon":139.244964},{"name":"向山展望台トイレ","province":"東京都","city":"新島村","address":"東京都新島村字向山","lat":34.352256,"lon":139.252576},{"name":"若郷前浜（奥）","province":"東京都","city":"新島村","address":"東京都新島村若郷1","lat":34.423842,"lon":139.282281},{"name":"波伏浦野営場","province":"東京都","city":"新島村","address":"東京都新島村字檜山","lat":34.379234,"lon":139.271105},{"name":"波伏浦海岸","province":"東京都","city":"新島村","address":"東京都新島村字ナムレ","lat":34.376117,"lon":139.275297},{"name":"前浜（森電気下）","province":"東京都","city":"新島村","address":"東京都新島村本村2丁目3","lat":34.378835,"lon":139.253938},{"name":"前浜（浜庄下）","province":"東京都","city":"新島村","address":"東京都新島村本村6丁目8","lat":34.374627,"lon":139.252022},{"name":"B堤防","province":"東京都","city":"新島村","address":"東京都新島村字黒根","lat":34.369354,"lon":139.247563},{"name":"泊海水浴場トイレ","province":"東京都","city":"新島村","address":"東京都新島村式根島","lat":34.335662,"lon":139.212384},{"name":"大浦海水浴場トイレ","province":"東京都","city":"新島村","address":"東京都新島村式根島","lat":34.330577,"lon":139.209237},{"name":"神引展望台トイレ","province":"東京都","city":"新島村","address":"東京都新島村式根島","lat":34.324963,"lon":139.20442},{"name":"前田家住宅外便所","province":"東京都","city":"新島村","address":"東京都新島村本村","lat":34.37612616,"lon":139.25397696},{"name":"板絵着色婦女群犬図","province":"東京都","city":"新島村","address":"東京都新島村本村6丁目10","lat":34.37602896,"lon":139.2529687},{"name":"銅鏡(松枝散双鳥鏡外8面)","province":"東京都","city":"新島村","address":"東京都新島村本村6丁目10","lat":34.37602896,"lon":139.2529687},{"name":"銅鏡（松竹双鶴鏡外1面）","province":"東京都","city":"新島村","address":"東京都新島村本村6丁目10","lat":34.37602896,"lon":139.2529687},{"name":"銅鏡（山吹双鳥鏡外1面）","province":"東京都","city":"新島村","address":"東京都新島村式根島","lat":34.32432977,"lon":139.21927444},{"name":"新島島役所資料（646冊394通9枚）","province":"東京都","city":"新島村","address":"東京都新島村本村","lat":34.37612616,"lon":139.25397696},{"name":"新島十三社神社資料（134冊）","province":"東京都","city":"新島村","address":"東京都新島村本村6丁目10","lat":34.37602896,"lon":139.2529687},{"name":"新島の神楽","province":"東京都","city":"新島村","address":"東京都新島村本村6丁目10","lat":34.37602896,"lon":139.2529687},{"name":"獅子木遣","province":"東京都","city":"新島村","address":"東京都新島村本村6丁目10","lat":34.37602896,"lon":139.2529687},{"name":"原町の井戸","province":"東京都","city":"新島村","address":"東京都新島村本村","lat":34.37612616,"lon":139.25397696},{"name":"吹之江遺跡","province":"東京都","city":"新島村","address":"東京都新島村式根島","lat":34.32432977,"lon":139.21927444},{"name":"天宥法印墓","province":"東京都","city":"新島村","address":"東京都新島村","lat":34.37713721,"lon":139.25657395},{"name":"宝篋印塔と五輪塔","province":"東京都","city":"新島村","address":"東京都新島村本村","lat":34.37612616,"lon":139.25397696},{"name":"流人墓地","province":"東京都","city":"新島村","address":"東京都新島村本村","lat":34.37612616,"lon":139.25397696},{"name":"向畑刑場跡","province":"東京都","city":"新島村","address":"東京都新島村本村","lat":34.37612616,"lon":139.25397696},{"name":"式根島のまいまいず井戸","province":"東京都","city":"新島村","address":"東京都新島村式根島","lat":34.32432977,"lon":139.21927444},{"name":"里川の水源","province":"東京都","city":"新島村","address":"東京都新島村","lat":34.37713721,"lon":139.25657395},{"name":"新島測量基点","province":"東京都","city":"新島村","address":"東京都新島村本村","lat":34.37612616,"lon":139.25397696},{"name":"流人牢屋跡","province":"東京都","city":"新島村","address":"東京都新島村本村","lat":34.37612616,"lon":139.25397696},{"name":"薩摩畑","province":"東京都","city":"新島村","address":"東京都新島村","lat":34.37713721,"lon":139.25657395},{"name":"塩釜の跡","province":"東京都","city":"新島村","address":"東京都新島村式根島","lat":34.32432977,"lon":139.21927444},{"name":"丸山の方角石","province":"東京都","city":"新島村","address":"東京都新島村式根島","lat":34.32432977,"lon":139.21927444},{"name":"なまこ桟橋","province":"東京都","city":"新島村","address":"東京都新島村式根島","lat":34.32432977,"lon":139.21927444},{"name":"大浦野営場","province":"東京都","city":"新島村","address":"東京都新島村式根島","lat":34.330566,"lon":139.209249},{"name":"羽伏浦園地","province":"東京都","city":"新島村","address":"東京都新島村字ナムレ","lat":34.376098,"lon":139.275306},{"name":"羽伏浦公園（コロシアム）","province":"東京都","city":"新島村","address":"東京都新島村字檜山","lat":34.378296,"lon":139.274393},{"name":"羽伏浦野営場","province":"東京都","city":"新島村","address":"東京都新島村字檜山","lat":34.379032,"lon":139.271136},{"name":"間々下園地","province":"東京都","city":"新島村","address":"東京都新島村字黒根","lat":34.364378,"lon":139.24283},{"name":"間々下園地","province":"東京都","city":"新島村","address":"東京都新島村字黒根","lat":34.364234,"lon":139.243018},{"name":"若郷園地","province":"東京都","city":"新島村","address":"東京都新島村若郷1","lat":34.423818,"lon":139.282279},{"name":"泊園地","province":"東京都","city":"新島村","address":"東京都新島村式根島","lat":34.335652,"lon":139.212383},{"name":"式根島遊歩道（カンビキ）","province":"東京都","city":"新島村","address":"東京都新島村式根島","lat":34.324955,"lon":139.204427},{"name":"本村前浜便所","province":"東京都","city":"新島村","address":"東京都新島村本村6丁目8","lat":34.374565,"lon":139.252012},{"name":"本村前浜便所","province":"東京都","city":"新島村","address":"東京都新島村本村2丁目4","lat":34.379261,"lon":139.25419},{"name":"新島港船客待合所","province":"東京都","city":"新島村","address":"東京都新島村字黒根","lat":34.367204,"lon":139.244964},{"name":"向山展望台トイレ","province":"東京都","city":"新島村","address":"東京都新島村字向山","lat":34.352256,"lon":139.252576},{"name":"若郷前浜（奥）","province":"東京都","city":"新島村","address":"東京都新島村若郷1","lat":34.423842,"lon":139.282281},{"name":"波伏浦野営場","province":"東京都","city":"新島村","address":"東京都新島村字檜山","lat":34.379234,"lon":139.271105},{"name":"波伏浦海岸","province":"東京都","city":"新島村","address":"東京都新島村字ナムレ","lat":34.376117,"lon":139.275297},{"name":"前浜（森電気下）","province":"東京都","city":"新島村","address":"東京都新島村本村2丁目3","lat":34.378835,"lon":139.253938},{"name":"前浜（浜庄下）","province":"東京都","city":"新島村","address":"東京都新島村本村6丁目8","lat":34.374627,"lon":139.252022},{"name":"B堤防","province":"東京都","city":"新島村","address":"東京都新島村字黒根","lat":34.369354,"lon":139.247563},{"name":"泊海水浴場トイレ","province":"東京都","city":"新島村","address":"東京都新島村式根島","lat":34.335662,"lon":139.212384},{"name":"大浦海水浴場トイレ","province":"東京都","city":"新島村","address":"東京都新島村式根島","lat":34.330577,"lon":139.209237},{"name":"神引展望台トイレ","province":"東京都","city":"新島村","address":"東京都新島村式根島","lat":34.324963,"lon":139.20442},{"name":"前田家住宅外便所","province":"東京都","city":"新島村","address":"東京都新島村本村","lat":34.37612616,"lon":139.25397696},{"name":"板絵着色婦女群犬図","province":"東京都","city":"新島村","address":"東京都新島村本村6丁目10","lat":34.37602896,"lon":139.2529687},{"name":"銅鏡(松枝散双鳥鏡外8面)","province":"東京都","city":"新島村","address":"東京都新島村本村6丁目10","lat":34.37602896,"lon":139.2529687},{"name":"銅鏡（松竹双鶴鏡外1面）","province":"東京都","city":"新島村","address":"東京都新島村本村6丁目10","lat":34.37602896,"lon":139.2529687},{"name":"銅鏡（山吹双鳥鏡外1面）","province":"東京都","city":"新島村","address":"東京都新島村式根島","lat":34.32432977,"lon":139.21927444},{"name":"新島島役所資料（646冊394通9枚）","province":"東京都","city":"新島村","address":"東京都新島村本村","lat":34.37612616,"lon":139.25397696},{"name":"新島十三社神社資料（134冊）","province":"東京都","city":"新島村","address":"東京都新島村本村6丁目10","lat":34.37602896,"lon":139.2529687},{"name":"新島の神楽","province":"東京都","city":"新島村","address":"東京都新島村本村6丁目10","lat":34.37602896,"lon":139.2529687},{"name":"獅子木遣","province":"東京都","city":"新島村","address":"東京都新島村本村6丁目10","lat":34.37602896,"lon":139.2529687},{"name":"原町の井戸","province":"東京都","city":"新島村","address":"東京都新島村本村","lat":34.37612616,"lon":139.25397696},{"name":"吹之江遺跡","province":"東京都","city":"新島村","address":"東京都新島村式根島","lat":34.32432977,"lon":139.21927444},{"name":"天宥法印墓","province":"東京都","city":"新島村","address":"東京都新島村","lat":34.37713721,"lon":139.25657395},{"name":"宝篋印塔と五輪塔","province":"東京都","city":"新島村","address":"東京都新島村本村","lat":34.37612616,"lon":139.25397696},{"name":"流人墓地","province":"東京都","city":"新島村","address":"東京都新島村本村","lat":34.37612616,"lon":139.25397696},{"name":"向畑刑場跡","province":"東京都","city":"新島村","address":"東京都新島村本村","lat":34.37612616,"lon":139.25397696},{"name":"式根島のまいまいず井戸","province":"東京都","city":"新島村","address":"東京都新島村式根島","lat":34.32432977,"lon":139.21927444},{"name":"里川の水源","province":"東京都","city":"新島村","address":"東京都新島村","lat":34.37713721,"lon":139.25657395},{"name":"新島測量基点","province":"東京都","city":"新島村","address":"東京都新島村本村","lat":34.37612616,"lon":139.25397696},{"name":"流人牢屋跡","province":"東京都","city":"新島村","address":"東京都新島村本村","lat":34.37612616,"lon":139.25397696},{"name":"薩摩畑","province":"東京都","city":"新島村","address":"東京都新島村","lat":34.37713721,"lon":139.25657395},{"name":"塩釜の跡","province":"東京都","city":"新島村","address":"東京都新島村式根島","lat":34.32432977,"lon":139.21927444},{"name":"丸山の方角石","province":"東京都","city":"新島村","address":"東京都新島村式根島","lat":34.32432977,"lon":139.21927444},{"name":"なまこ桟橋","province":"東京都","city":"新島村","address":"東京都新島村式根島","lat":34.32432977,"lon":139.21927444},{"name":"大浦野営場","province":"東京都","city":"新島村","address":"東京都新島村式根島","lat":34.330566,"lon":139.209249},{"name":"羽伏浦園地","province":"東京都","city":"新島村","address":"東京都新島村字ナムレ","lat":34.376098,"lon":139.275306},{"name":"羽伏浦公園（コロシアム）","province":"東京都","city":"新島村","address":"東京都新島村字檜山","lat":34.378296,"lon":139.274393},{"name":"羽伏浦野営場","province":"東京都","city":"新島村","address":"東京都新島村字檜山","lat":34.379032,"lon":139.271136},{"name":"間々下園地","province":"東京都","city":"新島村","address":"東京都新島村字黒根","lat":34.364378,"lon":139.24283},{"name":"間々下園地","province":"東京都","city":"新島村","address":"東京都新島村字黒根","lat":34.364234,"lon":139.243018},{"name":"若郷園地","province":"東京都","city":"新島村","address":"東京都新島村若郷1","lat":34.423818,"lon":139.282279},{"name":"泊園地","province":"東京都","city":"新島村","address":"東京都新島村式根島","lat":34.335652,"lon":139.212383},{"name":"式根島遊歩道（カンビキ）","province":"東京都","city":"新島村","address":"東京都新島村式根島","lat":34.324955,"lon":139.204427},{"name":"本村前浜便所","province":"東京都","city":"新島村","address":"東京都新島村本村6丁目8","lat":34.374565,"lon":139.252012},{"name":"本村前浜便所","province":"東京都","city":"新島村","address":"東京都新島村本村2丁目4","lat":34.379261,"lon":139.25419},{"name":"新島港船客待合所","province":"東京都","city":"新島村","address":"東京都新島村字黒根","lat":34.367204,"lon":139.244964},{"name":"向山展望台トイレ","province":"東京都","city":"新島村","address":"東京都新島村字向山","lat":34.352256,"lon":139.252576},{"name":"若郷前浜（奥）","province":"東京都","city":"新島村","address":"東京都新島村若郷1","lat":34.423842,"lon":139.282281},{"name":"波伏浦野営場","province":"東京都","city":"新島村","address":"東京都新島村字檜山","lat":34.379234,"lon":139.271105},{"name":"波伏浦海岸","province":"東京都","city":"新島村","address":"東京都新島村字ナムレ","lat":34.376117,"lon":139.275297},{"name":"前浜（森電気下）","province":"東京都","city":"新島村","address":"東京都新島村本村2丁目3","lat":34.378835,"lon":139.253938},{"name":"前浜（浜庄下）","province":"東京都","city":"新島村","address":"東京都新島村本村6丁目8","lat":34.374627,"lon":139.252022},{"name":"B堤防","province":"東京都","city":"新島村","address":"東京都新島村字黒根","lat":34.369354,"lon":139.247563},{"name":"泊海水浴場トイレ","province":"東京都","city":"新島村","address":"東京都新島村式根島","lat":34.335662,"lon":139.212384},{"name":"大浦海水浴場トイレ","province":"東京都","city":"新島村","address":"東京都新島村式根島","lat":34.330577,"lon":139.209237},{"name":"神引展望台トイレ","province":"東京都","city":"新島村","address":"東京都新島村式根島","lat":34.324963,"lon":139.20442},{"name":"前田家住宅外便所","province":"東京都","city":"新島村","address":"東京都新島村本村","lat":34.37612616,"lon":139.25397696},{"name":"板絵着色婦女群犬図","province":"東京都","city":"新島村","address":"東京都新島村本村6丁目10","lat":34.37602896,"lon":139.2529687},{"name":"銅鏡(松枝散双鳥鏡外8面)","province":"東京都","city":"新島村","address":"東京都新島村本村6丁目10","lat":34.37602896,"lon":139.2529687},{"name":"銅鏡（松竹双鶴鏡外1面）","province":"東京都","city":"新島村","address":"東京都新島村本村6丁目10","lat":34.37602896,"lon":139.2529687},{"name":"銅鏡（山吹双鳥鏡外1面）","province":"東京都","city":"新島村","address":"東京都新島村式根島","lat":34.32432977,"lon":139.21927444},{"name":"新島島役所資料（646冊394通9枚）","province":"東京都","city":"新島村","address":"東京都新島村本村","lat":34.37612616,"lon":139.25397696},{"name":"新島十三社神社資料（134冊）","province":"東京都","city":"新島村","address":"東京都新島村本村6丁目10","lat":34.37602896,"lon":139.2529687},{"name":"新島の神楽","province":"東京都","city":"新島村","address":"東京都新島村本村6丁目10","lat":34.37602896,"lon":139.2529687},{"name":"獅子木遣","province":"東京都","city":"新島村","address":"東京都新島村本村6丁目10","lat":34.37602896,"lon":139.2529687},{"name":"原町の井戸","province":"東京都","city":"新島村","address":"東京都新島村本村","lat":34.37612616,"lon":139.25397696},{"name":"吹之江遺跡","province":"東京都","city":"新島村","address":"東京都新島村式根島","lat":34.32432977,"lon":139.21927444},{"name":"天宥法印墓","province":"東京都","city":"新島村","address":"東京都新島村","lat":34.37713721,"lon":139.25657395},{"name":"宝篋印塔と五輪塔","province":"東京都","city":"新島村","address":"東京都新島村本村","lat":34.37612616,"lon":139.25397696},{"name":"流人墓地","province":"東京都","city":"新島村","address":"東京都新島村本村","lat":34.37612616,"lon":139.25397696},{"name":"向畑刑場跡","province":"東京都","city":"新島村","address":"東京都新島村本村","lat":34.37612616,"lon":139.25397696},{"name":"式根島のまいまいず井戸","province":"東京都","city":"新島村","address":"東京都新島村式根島","lat":34.32432977,"lon":139.21927444},{"name":"里川の水源","province":"東京都","city":"新島村","address":"東京都新島村","lat":34.37713721,"lon":139.25657395},{"name":"新島測量基点","province":"東京都","city":"新島村","address":"東京都新島村本村","lat":34.37612616,"lon":139.25397696},{"name":"流人牢屋跡","province":"東京都","city":"新島村","address":"東京都新島村本村","lat":34.37612616,"lon":139.25397696},{"name":"薩摩畑","province":"東京都","city":"新島村","address":"東京都新島村","lat":34.37713721,"lon":139.25657395},{"name":"塩釜の跡","province":"東京都","city":"新島村","address":"東京都新島村式根島","lat":34.32432977,"lon":139.21927444},{"name":"丸山の方角石","province":"東京都","city":"新島村","address":"東京都新島村式根島","lat":34.32432977,"lon":139.21927444},{"name":"なまこ桟橋","province":"東京都","city":"新島村","address":"東京都新島村式根島","lat":34.32432977,"lon":139.21927444},{"name":"大浦野営場","province":"東京都","city":"新島村","address":"東京都新島村式根島","lat":34.330566,"lon":139.209249},{"name":"羽伏浦園地","province":"東京都","city":"新島村","address":"東京都新島村字ナムレ","lat":34.376098,"lon":139.275306},{"name":"羽伏浦公園（コロシアム）","province":"東京都","city":"新島村","address":"東京都新島村字檜山","lat":34.378296,"lon":139.274393},{"name":"羽伏浦野営場","province":"東京都","city":"新島村","address":"東京都新島村字檜山","lat":34.379032,"lon":139.271136},{"name":"間々下園地","province":"東京都","city":"新島村","address":"東京都新島村字黒根","lat":34.364378,"lon":139.24283},{"name":"間々下園地","province":"東京都","city":"新島村","address":"東京都新島村字黒根","lat":34.364234,"lon":139.243018},{"name":"若郷園地","province":"東京都","city":"新島村","address":"東京都新島村若郷1","lat":34.423818,"lon":139.282279},{"name":"泊園地","province":"東京都","city":"新島村","address":"東京都新島村式根島","lat":34.335652,"lon":139.212383},{"name":"式根島遊歩道（カンビキ）","province":"東京都","city":"新島村","address":"東京都新島村式根島","lat":34.324955,"lon":139.204427},{"name":"本村前浜便所","province":"東京都","city":"新島村","address":"東京都新島村本村6丁目8","lat":34.374565,"lon":139.252012},{"name":"本村前浜便所","province":"東京都","city":"新島村","address":"東京都新島村本村2丁目4","lat":34.379261,"lon":139.25419},{"name":"新島港船客待合所","province":"東京都","city":"新島村","address":"東京都新島村字黒根","lat":34.367204,"lon":139.244964},{"name":"向山展望台トイレ","province":"東京都","city":"新島村","address":"東京都新島村字向山","lat":34.352256,"lon":139.252576},{"name":"若郷前浜（奥）","province":"東京都","city":"新島村","address":"東京都新島村若郷1","lat":34.423842,"lon":139.282281},{"name":"波伏浦野営場","province":"東京都","city":"新島村","address":"東京都新島村字檜山","lat":34.379234,"lon":139.271105},{"name":"波伏浦海岸","province":"東京都","city":"新島村","address":"東京都新島村字ナムレ","lat":34.376117,"lon":139.275297},{"name":"前浜（森電気下）","province":"東京都","city":"新島村","address":"東京都新島村本村2丁目3","lat":34.378835,"lon":139.253938},{"name":"前浜（浜庄下）","province":"東京都","city":"新島村","address":"東京都新島村本村6丁目8","lat":34.374627,"lon":139.252022},{"name":"B堤防","province":"東京都","city":"新島村","address":"東京都新島村字黒根","lat":34.369354,"lon":139.247563},{"name":"泊海水浴場トイレ","province":"東京都","city":"新島村","address":"東京都新島村式根島","lat":34.335662,"lon":139.212384},{"name":"大浦海水浴場トイレ","province":"東京都","city":"新島村","address":"東京都新島村式根島","lat":34.330577,"lon":139.209237},{"name":"神引展望台トイレ","province":"東京都","city":"新島村","address":"東京都新島村式根島","lat":34.324963,"lon":139.20442},{"name":"前田家住宅外便所","province":"東京都","city":"新島村","address":"東京都新島村本村","lat":34.37612616,"lon":139.25397696},{"name":"板絵着色婦女群犬図","province":"東京都","city":"新島村","address":"東京都新島村本村6丁目10","lat":34.37602896,"lon":139.2529687},{"name":"銅鏡(松枝散双鳥鏡外8面)","province":"東京都","city":"新島村","address":"東京都新島村本村6丁目10","lat":34.37602896,"lon":139.2529687},{"name":"銅鏡（松竹双鶴鏡外1面）","province":"東京都","city":"新島村","address":"東京都新島村本村6丁目10","lat":34.37602896,"lon":139.2529687},{"name":"銅鏡（山吹双鳥鏡外1面）","province":"東京都","city":"新島村","address":"東京都新島村式根島","lat":34.32432977,"lon":139.21927444},{"name":"新島島役所資料（646冊394通9枚）","province":"東京都","city":"新島村","address":"東京都新島村本村","lat":34.37612616,"lon":139.25397696},{"name":"新島十三社神社資料（134冊）","province":"東京都","city":"新島村","address":"東京都新島村本村6丁目10","lat":34.37602896,"lon":139.2529687},{"name":"新島の神楽","province":"東京都","city":"新島村","address":"東京都新島村本村6丁目10","lat":34.37602896,"lon":139.2529687},{"name":"獅子木遣","province":"東京都","city":"新島村","address":"東京都新島村本村6丁目10","lat":34.37602896,"lon":139.2529687},{"name":"原町の井戸","province":"東京都","city":"新島村","address":"東京都新島村本村","lat":34.37612616,"lon":139.25397696},{"name":"吹之江遺跡","province":"東京都","city":"新島村","address":"東京都新島村式根島","lat":34.32432977,"lon":139.21927444},{"name":"天宥法印墓","province":"東京都","city":"新島村","address":"東京都新島村","lat":34.37713721,"lon":139.25657395},{"name":"宝篋印塔と五輪塔","province":"東京都","city":"新島村","address":"東京都新島村本村","lat":34.37612616,"lon":139.25397696},{"name":"流人墓地","province":"東京都","city":"新島村","address":"東京都新島村本村","lat":34.37612616,"lon":139.25397696},{"name":"向畑刑場跡","province":"東京都","city":"新島村","address":"東京都新島村本村","lat":34.37612616,"lon":139.25397696},{"name":"式根島のまいまいず井戸","province":"東京都","city":"新島村","address":"東京都新島村式根島","lat":34.32432977,"lon":139.21927444},{"name":"里川の水源","province":"東京都","city":"新島村","address":"東京都新島村","lat":34.37713721,"lon":139.25657395},{"name":"新島測量基点","province":"東京都","city":"新島村","address":"東京都新島村本村","lat":34.37612616,"lon":139.25397696},{"name":"流人牢屋跡","province":"東京都","city":"新島村","address":"東京都新島村本村","lat":34.37612616,"lon":139.25397696},{"name":"薩摩畑","province":"東京都","city":"新島村","address":"東京都新島村","lat":34.37713721,"lon":139.25657395},{"name":"塩釜の跡","province":"東京都","city":"新島村","address":"東京都新島村式根島","lat":34.32432977,"lon":139.21927444},{"name":"丸山の方角石","province":"東京都","city":"新島村","address":"東京都新島村式根島","lat":34.32432977,"lon":139.21927444},{"name":"なまこ桟橋","province":"東京都","city":"新島村","address":"東京都新島村式根島","lat":34.32432977,"lon":139.21927444},{"name":"大浦野営場","province":"東京都","city":"新島村","address":"東京都新島村式根島","lat":34.330566,"lon":139.209249},{"name":"羽伏浦園地","province":"東京都","city":"新島村","address":"東京都新島村字ナムレ","lat":34.376098,"lon":139.275306},{"name":"羽伏浦公園（コロシアム）","province":"東京都","city":"新島村","address":"東京都新島村字檜山","lat":34.378296,"lon":139.274393},{"name":"羽伏浦野営場","province":"東京都","city":"新島村","address":"東京都新島村字檜山","lat":34.379032,"lon":139.271136},{"name":"間々下園地","province":"東京都","city":"新島村","address":"東京都新島村字黒根","lat":34.364378,"lon":139.24283},{"name":"間々下園地","province":"東京都","city":"新島村","address":"東京都新島村字黒根","lat":34.364234,"lon":139.243018},{"name":"若郷園地","province":"東京都","city":"新島村","address":"東京都新島村若郷1","lat":34.423818,"lon":139.282279},{"name":"泊園地","province":"東京都","city":"新島村","address":"東京都新島村式根島","lat":34.335652,"lon":139.212383},{"name":"式根島遊歩道（カンビキ）","province":"東京都","city":"新島村","address":"東京都新島村式根島","lat":34.324955,"lon":139.204427},{"name":"本村前浜便所","province":"東京都","city":"新島村","address":"東京都新島村本村6丁目8","lat":34.374565,"lon":139.252012},{"name":"本村前浜便所","province":"東京都","city":"新島村","address":"東京都新島村本村2丁目4","lat":34.379261,"lon":139.25419},{"name":"新島港船客待合所","province":"東京都","city":"新島村","address":"東京都新島村字黒根","lat":34.367204,"lon":139.244964},{"name":"向山展望台トイレ","province":"東京都","city":"新島村","address":"東京都新島村字向山","lat":34.352256,"lon":139.252576},{"name":"若郷前浜（奥）","province":"東京都","city":"新島村","address":"東京都新島村若郷1","lat":34.423842,"lon":139.282281},{"name":"波伏浦野営場","province":"東京都","city":"新島村","address":"東京都新島村字檜山","lat":34.379234,"lon":139.271105},{"name":"波伏浦海岸","province":"東京都","city":"新島村","address":"東京都新島村字ナムレ","lat":34.376117,"lon":139.275297},{"name":"前浜（森電気下）","province":"東京都","city":"新島村","address":"東京都新島村本村2丁目3","lat":34.378835,"lon":139.253938},{"name":"前浜（浜庄下）","province":"東京都","city":"新島村","address":"東京都新島村本村6丁目8","lat":34.374627,"lon":139.252022},{"name":"B堤防","province":"東京都","city":"新島村","address":"東京都新島村字黒根","lat":34.369354,"lon":139.247563},{"name":"泊海水浴場トイレ","province":"東京都","city":"新島村","address":"東京都新島村式根島","lat":34.335662,"lon":139.212384},{"name":"大浦海水浴場トイレ","province":"東京都","city":"新島村","address":"東京都新島村式根島","lat":34.330577,"lon":139.209237},{"name":"神引展望台トイレ","province":"東京都","city":"新島村","address":"東京都新島村式根島","lat":34.324963,"lon":139.20442},{"name":"前田家住宅外便所","province":"東京都","city":"新島村","address":"東京都新島村本村","lat":34.37612616,"lon":139.25397696},{"name":"板絵着色婦女群犬図","province":"東京都","city":"新島村","address":"東京都新島村本村6丁目10","lat":34.37602896,"lon":139.2529687},{"name":"銅鏡(松枝散双鳥鏡外8面)","province":"東京都","city":"新島村","address":"東京都新島村本村6丁目10","lat":34.37602896,"lon":139.2529687},{"name":"銅鏡（松竹双鶴鏡外1面）","province":"東京都","city":"新島村","address":"東京都新島村本村6丁目10","lat":34.37602896,"lon":139.2529687},{"name":"銅鏡（山吹双鳥鏡外1面）","province":"東京都","city":"新島村","address":"東京都新島村式根島","lat":34.32432977,"lon":139.21927444},{"name":"新島島役所資料（646冊394通9枚）","province":"東京都","city":"新島村","address":"東京都新島村本村","lat":34.37612616,"lon":139.25397696},{"name":"新島十三社神社資料（134冊）","province":"東京都","city":"新島村","address":"東京都新島村本村6丁目10","lat":34.37602896,"lon":139.2529687},{"name":"新島の神楽","province":"東京都","city":"新島村","address":"東京都新島村本村6丁目10","lat":34.37602896,"lon":139.2529687},{"name":"獅子木遣","province":"東京都","city":"新島村","address":"東京都新島村本村6丁目10","lat":34.37602896,"lon":139.2529687},{"name":"原町の井戸","province":"東京都","city":"新島村","address":"東京都新島村本村","lat":34.37612616,"lon":139.25397696},{"name":"吹之江遺跡","province":"東京都","city":"新島村","address":"東京都新島村式根島","lat":34.32432977,"lon":139.21927444},{"name":"天宥法印墓","province":"東京都","city":"新島村","address":"東京都新島村","lat":34.37713721,"lon":139.25657395},{"name":"宝篋印塔と五輪塔","province":"東京都","city":"新島村","address":"東京都新島村本村","lat":34.37612616,"lon":139.25397696},{"name":"流人墓地","province":"東京都","city":"新島村","address":"東京都新島村本村","lat":34.37612616,"lon":139.25397696},{"name":"向畑刑場跡","province":"東京都","city":"新島村","address":"東京都新島村本村","lat":34.37612616,"lon":139.25397696},{"name":"式根島のまいまいず井戸","province":"東京都","city":"新島村","address":"東京都新島村式根島","lat":34.32432977,"lon":139.21927444},{"name":"里川の水源","province":"東京都","city":"新島村","address":"東京都新島村","lat":34.37713721,"lon":139.25657395},{"name":"新島測量基点","province":"東京都","city":"新島村","address":"東京都新島村本村","lat":34.37612616,"lon":139.25397696},{"name":"流人牢屋跡","province":"東京都","city":"新島村","address":"東京都新島村本村","lat":34.37612616,"lon":139.25397696},{"name":"薩摩畑","province":"東京都","city":"新島村","address":"東京都新島村","lat":34.37713721,"lon":139.25657395},{"name":"塩釜の跡","province":"東京都","city":"新島村","address":"東京都新島村式根島","lat":34.32432977,"lon":139.21927444},{"name":"丸山の方角石","province":"東京都","city":"新島村","address":"東京都新島村式根島","lat":34.32432977,"lon":139.21927444},{"name":"なまこ桟橋","province":"東京都","city":"新島村","address":"東京都新島村式根島","lat":34.32432977,"lon":139.21927444},{"name":"大浦野営場","province":"東京都","city":"新島村","address":"東京都新島村式根島","lat":34.330566,"lon":139.209249},{"name":"羽伏浦園地","province":"東京都","city":"新島村","address":"東京都新島村字ナムレ","lat":34.376098,"lon":139.275306},{"name":"羽伏浦公園（コロシアム）","province":"東京都","city":"新島村","address":"東京都新島村字檜山","lat":34.378296,"lon":139.274393},{"name":"羽伏浦野営場","province":"東京都","city":"新島村","address":"東京都新島村字檜山","lat":34.379032,"lon":139.271136},{"name":"間々下園地","province":"東京都","city":"新島村","address":"東京都新島村字黒根","lat":34.364378,"lon":139.24283},{"name":"間々下園地","province":"東京都","city":"新島村","address":"東京都新島村字黒根","lat":34.364234,"lon":139.243018},{"name":"若郷園地","province":"東京都","city":"新島村","address":"東京都新島村若郷1","lat":34.423818,"lon":139.282279},{"name":"泊園地","province":"東京都","city":"新島村","address":"東京都新島村式根島","lat":34.335652,"lon":139.212383},{"name":"式根島遊歩道（カンビキ）","province":"東京都","city":"新島村","address":"東京都新島村式根島","lat":34.324955,"lon":139.204427},{"name":"本村前浜便所","province":"東京都","city":"新島村","address":"東京都新島村本村6丁目8","lat":34.374565,"lon":139.252012},{"name":"本村前浜便所","province":"東京都","city":"新島村","address":"東京都新島村本村2丁目4","lat":34.379261,"lon":139.25419},{"name":"新島港船客待合所","province":"東京都","city":"新島村","address":"東京都新島村字黒根","lat":34.367204,"lon":139.244964},{"name":"向山展望台トイレ","province":"東京都","city":"新島村","address":"東京都新島村字向山","lat":34.352256,"lon":139.252576},{"name":"若郷前浜（奥）","province":"東京都","city":"新島村","address":"東京都新島村若郷1","lat":34.423842,"lon":139.282281},{"name":"波伏浦野営場","province":"東京都","city":"新島村","address":"東京都新島村字檜山","lat":34.379234,"lon":139.271105},{"name":"波伏浦海岸","province":"東京都","city":"新島村","address":"東京都新島村字ナムレ","lat":34.376117,"lon":139.275297},{"name":"前浜（森電気下）","province":"東京都","city":"新島村","address":"東京都新島村本村2丁目3","lat":34.378835,"lon":139.253938},{"name":"前浜（浜庄下）","province":"東京都","city":"新島村","address":"東京都新島村本村6丁目8","lat":34.374627,"lon":139.252022},{"name":"B堤防","province":"東京都","city":"新島村","address":"東京都新島村字黒根","lat":34.369354,"lon":139.247563},{"name":"泊海水浴場トイレ","province":"東京都","city":"新島村","address":"東京都新島村式根島","lat":34.335662,"lon":139.212384},{"name":"大浦海水浴場トイレ","province":"東京都","city":"新島村","address":"東京都新島村式根島","lat":34.330577,"lon":139.209237},{"name":"神引展望台トイレ","province":"東京都","city":"新島村","address":"東京都新島村式根島","lat":34.324963,"lon":139.20442},{"name":"前田家住宅外便所","province":"東京都","city":"新島村","address":"東京都新島村本村","lat":34.37612616,"lon":139.25397696},{"name":"板絵着色婦女群犬図","province":"東京都","city":"新島村","address":"東京都新島村本村6丁目10","lat":34.37602896,"lon":139.2529687},{"name":"銅鏡(松枝散双鳥鏡外8面)","province":"東京都","city":"新島村","address":"東京都新島村本村6丁目10","lat":34.37602896,"lon":139.2529687},{"name":"銅鏡（松竹双鶴鏡外1面）","province":"東京都","city":"新島村","address":"東京都新島村本村6丁目10","lat":34.37602896,"lon":139.2529687},{"name":"銅鏡（山吹双鳥鏡外1面）","province":"東京都","city":"新島村","address":"東京都新島村式根島","lat":34.32432977,"lon":139.21927444},{"name":"新島島役所資料（646冊394通9枚）","province":"東京都","city":"新島村","address":"東京都新島村本村","lat":34.37612616,"lon":139.25397696},{"name":"新島十三社神社資料（134冊）","province":"東京都","city":"新島村","address":"東京都新島村本村6丁目10","lat":34.37602896,"lon":139.2529687},{"name":"新島の神楽","province":"東京都","city":"新島村","address":"東京都新島村本村6丁目10","lat":34.37602896,"lon":139.2529687},{"name":"獅子木遣","province":"東京都","city":"新島村","address":"東京都新島村本村6丁目10","lat":34.37602896,"lon":139.2529687},{"name":"原町の井戸","province":"東京都","city":"新島村","address":"東京都新島村本村","lat":34.37612616,"lon":139.25397696},{"name":"吹之江遺跡","province":"東京都","city":"新島村","address":"東京都新島村式根島","lat":34.32432977,"lon":139.21927444},{"name":"天宥法印墓","province":"東京都","city":"新島村","address":"東京都新島村","lat":34.37713721,"lon":139.25657395},{"name":"宝篋印塔と五輪塔","province":"東京都","city":"新島村","address":"東京都新島村本村","lat":34.37612616,"lon":139.25397696},{"name":"流人墓地","province":"東京都","city":"新島村","address":"東京都新島村本村","lat":34.37612616,"lon":139.25397696},{"name":"向畑刑場跡","province":"東京都","city":"新島村","address":"東京都新島村本村","lat":34.37612616,"lon":139.25397696},{"name":"式根島のまいまいず井戸","province":"東京都","city":"新島村","address":"東京都新島村式根島","lat":34.32432977,"lon":139.21927444},{"name":"里川の水源","province":"東京都","city":"新島村","address":"東京都新島村","lat":34.37713721,"lon":139.25657395},{"name":"新島測量基点","province":"東京都","city":"新島村","address":"東京都新島村本村","lat":34.37612616,"lon":139.25397696},{"name":"流人牢屋跡","province":"東京都","city":"新島村","address":"東京都新島村本村","lat":34.37612616,"lon":139.25397696},{"name":"薩摩畑","province":"東京都","city":"新島村","address":"東京都新島村","lat":34.37713721,"lon":139.25657395},{"name":"塩釜の跡","province":"東京都","city":"新島村","address":"東京都新島村式根島","lat":34.32432977,"lon":139.21927444},{"name":"丸山の方角石","province":"東京都","city":"新島村","address":"東京都新島村式根島","lat":34.32432977,"lon":139.21927444},{"name":"なまこ桟橋","province":"東京都","city":"新島村","address":"東京都新島村式根島","lat":34.32432977,"lon":139.21927444},{"name":"大浦野営場","province":"東京都","city":"新島村","address":"東京都新島村式根島","lat":34.330566,"lon":139.209249},{"name":"羽伏浦園地","province":"東京都","city":"新島村","address":"東京都新島村字ナムレ","lat":34.376098,"lon":139.275306},{"name":"羽伏浦公園（コロシアム）","province":"東京都","city":"新島村","address":"東京都新島村字檜山","lat":34.378296,"lon":139.274393},{"name":"羽伏浦野営場","province":"東京都","city":"新島村","address":"東京都新島村字檜山","lat":34.379032,"lon":139.271136},{"name":"間々下園地","province":"東京都","city":"新島村","address":"東京都新島村字黒根","lat":34.364378,"lon":139.24283},{"name":"間々下園地","province":"東京都","city":"新島村","address":"東京都新島村字黒根","lat":34.364234,"lon":139.243018},{"name":"若郷園地","province":"東京都","city":"新島村","address":"東京都新島村若郷1","lat":34.423818,"lon":139.282279},{"name":"泊園地","province":"東京都","city":"新島村","address":"東京都新島村式根島","lat":34.335652,"lon":139.212383},{"name":"式根島遊歩道（カンビキ）","province":"東京都","city":"新島村","address":"東京都新島村式根島","lat":34.324955,"lon":139.204427},{"name":"本村前浜便所","province":"東京都","city":"新島村","address":"東京都新島村本村6丁目8","lat":34.374565,"lon":139.252012},{"name":"本村前浜便所","province":"東京都","city":"新島村","address":"東京都新島村本村2丁目4","lat":34.379261,"lon":139.25419},{"name":"新島港船客待合所","province":"東京都","city":"新島村","address":"東京都新島村字黒根","lat":34.367204,"lon":139.244964},{"name":"向山展望台トイレ","province":"東京都","city":"新島村","address":"東京都新島村字向山","lat":34.352256,"lon":139.252576},{"name":"若郷前浜（奥）","province":"東京都","city":"新島村","address":"東京都新島村若郷1","lat":34.423842,"lon":139.282281},{"name":"波伏浦野営場","province":"東京都","city":"新島村","address":"東京都新島村字檜山","lat":34.379234,"lon":139.271105},{"name":"波伏浦海岸","province":"東京都","city":"新島村","address":"東京都新島村字ナムレ","lat":34.376117,"lon":139.275297},{"name":"前浜（森電気下）","province":"東京都","city":"新島村","address":"東京都新島村本村2丁目3","lat":34.378835,"lon":139.253938},{"name":"前浜（浜庄下）","province":"東京都","city":"新島村","address":"東京都新島村本村6丁目8","lat":34.374627,"lon":139.252022},{"name":"B堤防","province":"東京都","city":"新島村","address":"東京都新島村字黒根","lat":34.369354,"lon":139.247563},{"name":"泊海水浴場トイレ","province":"東京都","city":"新島村","address":"東京都新島村式根島","lat":34.335662,"lon":139.212384},{"name":"大浦海水浴場トイレ","province":"東京都","city":"新島村","address":"東京都新島村式根島","lat":34.330577,"lon":139.209237},{"name":"神引展望台トイレ","province":"東京都","city":"新島村","address":"東京都新島村式根島","lat":34.324963,"lon":139.20442},{"name":"前田家住宅外便所","province":"東京都","city":"新島村","address":"東京都新島村本村","lat":34.37612616,"lon":139.25397696},{"name":"板絵着色婦女群犬図","province":"東京都","city":"新島村","address":"東京都新島村本村6丁目10","lat":34.37602896,"lon":139.2529687},{"name":"銅鏡(松枝散双鳥鏡外8面)","province":"東京都","city":"新島村","address":"東京都新島村本村6丁目10","lat":34.37602896,"lon":139.2529687},{"name":"銅鏡（松竹双鶴鏡外1面）","province":"東京都","city":"新島村","address":"東京都新島村本村6丁目10","lat":34.37602896,"lon":139.2529687},{"name":"銅鏡（山吹双鳥鏡外1面）","province":"東京都","city":"新島村","address":"東京都新島村式根島","lat":34.32432977,"lon":139.21927444},{"name":"新島島役所資料（646冊394通9枚）","province":"東京都","city":"新島村","address":"東京都新島村本村","lat":34.37612616,"lon":139.25397696},{"name":"新島十三社神社資料（134冊）","province":"東京都","city":"新島村","address":"東京都新島村本村6丁目10","lat":34.37602896,"lon":139.2529687},{"name":"新島の神楽","province":"東京都","city":"新島村","address":"東京都新島村本村6丁目10","lat":34.37602896,"lon":139.2529687},{"name":"獅子木遣","province":"東京都","city":"新島村","address":"東京都新島村本村6丁目10","lat":34.37602896,"lon":139.2529687},{"name":"原町の井戸","province":"東京都","city":"新島村","address":"東京都新島村本村","lat":34.37612616,"lon":139.25397696},{"name":"吹之江遺跡","province":"東京都","city":"新島村","address":"東京都新島村式根島","lat":34.32432977,"lon":139.21927444},{"name":"天宥法印墓","province":"東京都","city":"新島村","address":"東京都新島村","lat":34.37713721,"lon":139.25657395},{"name":"宝篋印塔と五輪塔","province":"東京都","city":"新島村","address":"東京都新島村本村","lat":34.37612616,"lon":139.25397696},{"name":"流人墓地","province":"東京都","city":"新島村","address":"東京都新島村本村","lat":34.37612616,"lon":139.25397696},{"name":"向畑刑場跡","province":"東京都","city":"新島村","address":"東京都新島村本村","lat":34.37612616,"lon":139.25397696},{"name":"式根島のまいまいず井戸","province":"東京都","city":"新島村","address":"東京都新島村式根島","lat":34.32432977,"lon":139.21927444},{"name":"里川の水源","province":"東京都","city":"新島村","address":"東京都新島村","lat":34.37713721,"lon":139.25657395},{"name":"新島測量基点","province":"東京都","city":"新島村","address":"東京都新島村本村","lat":34.37612616,"lon":139.25397696},{"name":"流人牢屋跡","province":"東京都","city":"新島村","address":"東京都新島村本村","lat":34.37612616,"lon":139.25397696},{"name":"薩摩畑","province":"東京都","city":"新島村","address":"東京都新島村","lat":34.37713721,"lon":139.25657395},{"name":"塩釜の跡","province":"東京都","city":"新島村","address":"東京都新島村式根島","lat":34.32432977,"lon":139.21927444},{"name":"丸山の方角石","province":"東京都","city":"新島村","address":"東京都新島村式根島","lat":34.32432977,"lon":139.21927444},{"name":"なまこ桟橋","province":"東京都","city":"新島村","address":"東京都新島村式根島","lat":34.32432977,"lon":139.21927444},{"name":"大浦野営場","province":"東京都","city":"新島村","address":"東京都新島村式根島","lat":34.330566,"lon":139.209249},{"name":"羽伏浦園地","province":"東京都","city":"新島村","address":"東京都新島村字ナムレ","lat":34.376098,"lon":139.275306},{"name":"羽伏浦公園（コロシアム）","province":"東京都","city":"新島村","address":"東京都新島村字檜山","lat":34.378296,"lon":139.274393},{"name":"羽伏浦野営場","province":"東京都","city":"新島村","address":"東京都新島村字檜山","lat":34.379032,"lon":139.271136},{"name":"間々下園地","province":"東京都","city":"新島村","address":"東京都新島村字黒根","lat":34.364378,"lon":139.24283},{"name":"間々下園地","province":"東京都","city":"新島村","address":"東京都新島村字黒根","lat":34.364234,"lon":139.243018},{"name":"若郷園地","province":"東京都","city":"新島村","address":"東京都新島村若郷1","lat":34.423818,"lon":139.282279},{"name":"泊園地","province":"東京都","city":"新島村","address":"東京都新島村式根島","lat":34.335652,"lon":139.212383},{"name":"式根島遊歩道（カンビキ）","province":"東京都","city":"新島村","address":"東京都新島村式根島","lat":34.324955,"lon":139.204427},{"name":"本村前浜便所","province":"東京都","city":"新島村","address":"東京都新島村本村6丁目8","lat":34.374565,"lon":139.252012},{"name":"本村前浜便所","province":"東京都","city":"新島村","address":"東京都新島村本村2丁目4","lat":34.379261,"lon":139.25419},{"name":"新島港船客待合所","province":"東京都","city":"新島村","address":"東京都新島村字黒根","lat":34.367204,"lon":139.244964},{"name":"向山展望台トイレ","province":"東京都","city":"新島村","address":"東京都新島村字向山","lat":34.352256,"lon":139.252576},{"name":"若郷前浜（奥）","province":"東京都","city":"新島村","address":"東京都新島村若郷1","lat":34.423842,"lon":139.282281},{"name":"波伏浦野営場","province":"東京都","city":"新島村","address":"東京都新島村字檜山","lat":34.379234,"lon":139.271105},{"name":"波伏浦海岸","province":"東京都","city":"新島村","address":"東京都新島村字ナムレ","lat":34.376117,"lon":139.275297},{"name":"前浜（森電気下）","province":"東京都","city":"新島村","address":"東京都新島村本村2丁目3","lat":34.378835,"lon":139.253938},{"name":"前浜（浜庄下）","province":"東京都","city":"新島村","address":"東京都新島村本村6丁目8","lat":34.374627,"lon":139.252022},{"name":"B堤防","province":"東京都","city":"新島村","address":"東京都新島村字黒根","lat":34.369354,"lon":139.247563},{"name":"泊海水浴場トイレ","province":"東京都","city":"新島村","address":"東京都新島村式根島","lat":34.335662,"lon":139.212384},{"name":"大浦海水浴場トイレ","province":"東京都","city":"新島村","address":"東京都新島村式根島","lat":34.330577,"lon":139.209237},{"name":"神引展望台トイレ","province":"東京都","city":"新島村","address":"東京都新島村式根島","lat":34.324963,"lon":139.20442},{"name":"前田家住宅外便所","province":"東京都","city":"新島村","address":"東京都新島村本村","lat":34.37612616,"lon":139.25397696},{"name":"板絵着色婦女群犬図","province":"東京都","city":"新島村","address":"東京都新島村本村6丁目10","lat":34.37602896,"lon":139.2529687},{"name":"銅鏡(松枝散双鳥鏡外8面)","province":"東京都","city":"新島村","address":"東京都新島村本村6丁目10","lat":34.37602896,"lon":139.2529687},{"name":"銅鏡（松竹双鶴鏡外1面）","province":"東京都","city":"新島村","address":"東京都新島村本村6丁目10","lat":34.37602896,"lon":139.2529687},{"name":"銅鏡（山吹双鳥鏡外1面）","province":"東京都","city":"新島村","address":"東京都新島村式根島","lat":34.32432977,"lon":139.21927444},{"name":"新島島役所資料（646冊394通9枚）","province":"東京都","city":"新島村","address":"東京都新島村本村","lat":34.37612616,"lon":139.25397696},{"name":"新島十三社神社資料（134冊）","province":"東京都","city":"新島村","address":"東京都新島村本村6丁目10","lat":34.37602896,"lon":139.2529687},{"name":"新島の神楽","province":"東京都","city":"新島村","address":"東京都新島村本村6丁目10","lat":34.37602896,"lon":139.2529687},{"name":"獅子木遣","province":"東京都","city":"新島村","address":"東京都新島村本村6丁目10","lat":34.37602896,"lon":139.2529687},{"name":"原町の井戸","province":"東京都","city":"新島村","address":"東京都新島村本村","lat":34.37612616,"lon":139.25397696},{"name":"吹之江遺跡","province":"東京都","city":"新島村","address":"東京都新島村式根島","lat":34.32432977,"lon":139.21927444},{"name":"天宥法印墓","province":"東京都","city":"新島村","address":"東京都新島村","lat":34.37713721,"lon":139.25657395},{"name":"宝篋印塔と五輪塔","province":"東京都","city":"新島村","address":"東京都新島村本村","lat":34.37612616,"lon":139.25397696},{"name":"流人墓地","province":"東京都","city":"新島村","address":"東京都新島村本村","lat":34.37612616,"lon":139.25397696},{"name":"向畑刑場跡","province":"東京都","city":"新島村","address":"東京都新島村本村","lat":34.37612616,"lon":139.25397696},{"name":"式根島のまいまいず井戸","province":"東京都","city":"新島村","address":"東京都新島村式根島","lat":34.32432977,"lon":139.21927444},{"name":"里川の水源","province":"東京都","city":"新島村","address":"東京都新島村","lat":34.37713721,"lon":139.25657395},{"name":"新島測量基点","province":"東京都","city":"新島村","address":"東京都新島村本村","lat":34.37612616,"lon":139.25397696},{"name":"流人牢屋跡","province":"東京都","city":"新島村","address":"東京都新島村本村","lat":34.37612616,"lon":139.25397696},{"name":"薩摩畑","province":"東京都","city":"新島村","address":"東京都新島村","lat":34.37713721,"lon":139.25657395},{"name":"塩釜の跡","province":"東京都","city":"新島村","address":"東京都新島村式根島","lat":34.32432977,"lon":139.21927444},{"name":"丸山の方角石","province":"東京都","city":"新島村","address":"東京都新島村式根島","lat":34.32432977,"lon":139.21927444},{"name":"なまこ桟橋","province":"東京都","city":"新島村","address":"東京都新島村式根島","lat":34.32432977,"lon":139.21927444},{"name":"大浦野営場","province":"東京都","city":"新島村","address":"東京都新島村式根島","lat":34.330566,"lon":139.209249},{"name":"羽伏浦園地","province":"東京都","city":"新島村","address":"東京都新島村字ナムレ","lat":34.376098,"lon":139.275306},{"name":"羽伏浦公園（コロシアム）","province":"東京都","city":"新島村","address":"東京都新島村字檜山","lat":34.378296,"lon":139.274393},{"name":"羽伏浦野営場","province":"東京都","city":"新島村","address":"東京都新島村字檜山","lat":34.379032,"lon":139.271136},{"name":"間々下園地","province":"東京都","city":"新島村","address":"東京都新島村字黒根","lat":34.364378,"lon":139.24283},{"name":"間々下園地","province":"東京都","city":"新島村","address":"東京都新島村字黒根","lat":34.364234,"lon":139.243018},{"name":"若郷園地","province":"東京都","city":"新島村","address":"東京都新島村若郷1","lat":34.423818,"lon":139.282279},{"name":"泊園地","province":"東京都","city":"新島村","address":"東京都新島村式根島","lat":34.335652,"lon":139.212383},{"name":"式根島遊歩道（カンビキ）","province":"東京都","city":"新島村","address":"東京都新島村式根島","lat":34.324955,"lon":139.204427},{"name":"本村前浜便所","province":"東京都","city":"新島村","address":"東京都新島村本村6丁目8","lat":34.374565,"lon":139.252012},{"name":"本村前浜便所","province":"東京都","city":"新島村","address":"東京都新島村本村2丁目4","lat":34.379261,"lon":139.25419},{"name":"新島港船客待合所","province":"東京都","city":"新島村","address":"東京都新島村字黒根","lat":34.367204,"lon":139.244964},{"name":"向山展望台トイレ","province":"東京都","city":"新島村","address":"東京都新島村字向山","lat":34.352256,"lon":139.252576},{"name":"若郷前浜（奥）","province":"東京都","city":"新島村","address":"東京都新島村若郷1","lat":34.423842,"lon":139.282281},{"name":"波伏浦野営場","province":"東京都","city":"新島村","address":"東京都新島村字檜山","lat":34.379234,"lon":139.271105},{"name":"波伏浦海岸","province":"東京都","city":"新島村","address":"東京都新島村字ナムレ","lat":34.376117,"lon":139.275297},{"name":"前浜（森電気下）","province":"東京都","city":"新島村","address":"東京都新島村本村2丁目3","lat":34.378835,"lon":139.253938},{"name":"前浜（浜庄下）","province":"東京都","city":"新島村","address":"東京都新島村本村6丁目8","lat":34.374627,"lon":139.252022},{"name":"B堤防","province":"東京都","city":"新島村","address":"東京都新島村字黒根","lat":34.369354,"lon":139.247563},{"name":"泊海水浴場トイレ","province":"東京都","city":"新島村","address":"東京都新島村式根島","lat":34.335662,"lon":139.212384},{"name":"大浦海水浴場トイレ","province":"東京都","city":"新島村","address":"東京都新島村式根島","lat":34.330577,"lon":139.209237},{"name":"神引展望台トイレ","province":"東京都","city":"新島村","address":"東京都新島村式根島","lat":34.324963,"lon":139.20442},{"name":"前田家住宅外便所","province":"東京都","city":"新島村","address":"東京都新島村本村","lat":34.37612616,"lon":139.25397696},{"name":"板絵着色婦女群犬図","province":"東京都","city":"新島村","address":"東京都新島村本村6丁目10","lat":34.37602896,"lon":139.2529687},{"name":"銅鏡(松枝散双鳥鏡外8面)","province":"東京都","city":"新島村","address":"東京都新島村本村6丁目10","lat":34.37602896,"lon":139.2529687},{"name":"銅鏡（松竹双鶴鏡外1面）","province":"東京都","city":"新島村","address":"東京都新島村本村6丁目10","lat":34.37602896,"lon":139.2529687},{"name":"銅鏡（山吹双鳥鏡外1面）","province":"東京都","city":"新島村","address":"東京都新島村式根島","lat":34.32432977,"lon":139.21927444},{"name":"新島島役所資料（646冊394通9枚）","province":"東京都","city":"新島村","address":"東京都新島村本村","lat":34.37612616,"lon":139.25397696},{"name":"新島十三社神社資料（134冊）","province":"東京都","city":"新島村","address":"東京都新島村本村6丁目10","lat":34.37602896,"lon":139.2529687},{"name":"新島の神楽","province":"東京都","city":"新島村","address":"東京都新島村本村6丁目10","lat":34.37602896,"lon":139.2529687},{"name":"獅子木遣","province":"東京都","city":"新島村","address":"東京都新島村本村6丁目10","lat":34.37602896,"lon":139.2529687},{"name":"原町の井戸","province":"東京都","city":"新島村","address":"東京都新島村本村","lat":34.37612616,"lon":139.25397696},{"name":"吹之江遺跡","province":"東京都","city":"新島村","address":"東京都新島村式根島","lat":34.32432977,"lon":139.21927444},{"name":"天宥法印墓","province":"東京都","city":"新島村","address":"東京都新島村","lat":34.37713721,"lon":139.25657395},{"name":"宝篋印塔と五輪塔","province":"東京都","city":"新島村","address":"東京都新島村本村","lat":34.37612616,"lon":139.25397696},{"name":"流人墓地","province":"東京都","city":"新島村","address":"東京都新島村本村","lat":34.37612616,"lon":139.25397696},{"name":"向畑刑場跡","province":"東京都","city":"新島村","address":"東京都新島村本村","lat":34.37612616,"lon":139.25397696},{"name":"式根島のまいまいず井戸","province":"東京都","city":"新島村","address":"東京都新島村式根島","lat":34.32432977,"lon":139.21927444},{"name":"里川の水源","province":"東京都","city":"新島村","address":"東京都新島村","lat":34.37713721,"lon":139.25657395},{"name":"新島測量基点","province":"東京都","city":"新島村","address":"東京都新島村本村","lat":34.37612616,"lon":139.25397696},{"name":"流人牢屋跡","province":"東京都","city":"新島村","address":"東京都新島村本村","lat":34.37612616,"lon":139.25397696},{"name":"薩摩畑","province":"東京都","city":"新島村","address":"東京都新島村","lat":34.37713721,"lon":139.25657395},{"name":"塩釜の跡","province":"東京都","city":"新島村","address":"東京都新島村式根島","lat":34.32432977,"lon":139.21927444},{"name":"丸山の方角石","province":"東京都","city":"新島村","address":"東京都新島村式根島","lat":34.32432977,"lon":139.21927444},{"name":"なまこ桟橋","province":"東京都","city":"新島村","address":"東京都新島村式根島","lat":34.32432977,"lon":139.21927444},{"name":"大浦野営場","province":"東京都","city":"新島村","address":"東京都新島村式根島","lat":34.330566,"lon":139.209249},{"name":"羽伏浦園地","province":"東京都","city":"新島村","address":"東京都新島村字ナムレ","lat":34.376098,"lon":139.275306},{"name":"羽伏浦公園（コロシアム）","province":"東京都","city":"新島村","address":"東京都新島村字檜山","lat":34.378296,"lon":139.274393},{"name":"羽伏浦野営場","province":"東京都","city":"新島村","address":"東京都新島村字檜山","lat":34.379032,"lon":139.271136},{"name":"間々下園地","province":"東京都","city":"新島村","address":"東京都新島村字黒根","lat":34.364378,"lon":139.24283},{"name":"間々下園地","province":"東京都","city":"新島村","address":"東京都新島村字黒根","lat":34.364234,"lon":139.243018},{"name":"若郷園地","province":"東京都","city":"新島村","address":"東京都新島村若郷1","lat":34.423818,"lon":139.282279},{"name":"泊園地","province":"東京都","city":"新島村","address":"東京都新島村式根島","lat":34.335652,"lon":139.212383},{"name":"式根島遊歩道（カンビキ）","province":"東京都","city":"新島村","address":"東京都新島村式根島","lat":34.324955,"lon":139.204427},{"name":"本村前浜便所","province":"東京都","city":"新島村","address":"東京都新島村本村6丁目8","lat":34.374565,"lon":139.252012},{"name":"本村前浜便所","province":"東京都","city":"新島村","address":"東京都新島村本村2丁目4","lat":34.379261,"lon":139.25419},{"name":"新島港船客待合所","province":"東京都","city":"新島村","address":"東京都新島村字黒根","lat":34.367204,"lon":139.244964},{"name":"向山展望台トイレ","province":"東京都","city":"新島村","address":"東京都新島村字向山","lat":34.352256,"lon":139.252576},{"name":"若郷前浜（奥）","province":"東京都","city":"新島村","address":"東京都新島村若郷1","lat":34.423842,"lon":139.282281},{"name":"波伏浦野営場","province":"東京都","city":"新島村","address":"東京都新島村字檜山","lat":34.379234,"lon":139.271105},{"name":"波伏浦海岸","province":"東京都","city":"新島村","address":"東京都新島村字ナムレ","lat":34.376117,"lon":139.275297},{"name":"前浜（森電気下）","province":"東京都","city":"新島村","address":"東京都新島村本村2丁目3","lat":34.378835,"lon":139.253938},{"name":"前浜（浜庄下）","province":"東京都","city":"新島村","address":"東京都新島村本村6丁目8","lat":34.374627,"lon":139.252022},{"name":"B堤防","province":"東京都","city":"新島村","address":"東京都新島村字黒根","lat":34.369354,"lon":139.247563},{"name":"泊海水浴場トイレ","province":"東京都","city":"新島村","address":"東京都新島村式根島","lat":34.335662,"lon":139.212384},{"name":"大浦海水浴場トイレ","province":"東京都","city":"新島村","address":"東京都新島村式根島","lat":34.330577,"lon":139.209237},{"name":"神引展望台トイレ","province":"東京都","city":"新島村","address":"東京都新島村式根島","lat":34.324963,"lon":139.20442},{"name":"前田家住宅外便所","province":"東京都","city":"新島村","address":"東京都新島村本村","lat":34.37612616,"lon":139.25397696},{"name":"板絵着色婦女群犬図","province":"東京都","city":"新島村","address":"東京都新島村本村6丁目10","lat":34.37602896,"lon":139.2529687},{"name":"銅鏡(松枝散双鳥鏡外8面)","province":"東京都","city":"新島村","address":"東京都新島村本村6丁目10","lat":34.37602896,"lon":139.2529687},{"name":"銅鏡（松竹双鶴鏡外1面）","province":"東京都","city":"新島村","address":"東京都新島村本村6丁目10","lat":34.37602896,"lon":139.2529687},{"name":"銅鏡（山吹双鳥鏡外1面）","province":"東京都","city":"新島村","address":"東京都新島村式根島","lat":34.32432977,"lon":139.21927444},{"name":"新島島役所資料（646冊394通9枚）","province":"東京都","city":"新島村","address":"東京都新島村本村","lat":34.37612616,"lon":139.25397696},{"name":"新島十三社神社資料（134冊）","province":"東京都","city":"新島村","address":"東京都新島村本村6丁目10","lat":34.37602896,"lon":139.2529687},{"name":"新島の神楽","province":"東京都","city":"新島村","address":"東京都新島村本村6丁目10","lat":34.37602896,"lon":139.2529687},{"name":"獅子木遣","province":"東京都","city":"新島村","address":"東京都新島村本村6丁目10","lat":34.37602896,"lon":139.2529687},{"name":"原町の井戸","province":"東京都","city":"新島村","address":"東京都新島村本村","lat":34.37612616,"lon":139.25397696},{"name":"吹之江遺跡","province":"東京都","city":"新島村","address":"東京都新島村式根島","lat":34.32432977,"lon":139.21927444},{"name":"天宥法印墓","province":"東京都","city":"新島村","address":"東京都新島村","lat":34.37713721,"lon":139.25657395},{"name":"宝篋印塔と五輪塔","province":"東京都","city":"新島村","address":"東京都新島村本村","lat":34.37612616,"lon":139.25397696},{"name":"流人墓地","province":"東京都","city":"新島村","address":"東京都新島村本村","lat":34.37612616,"lon":139.25397696},{"name":"向畑刑場跡","province":"東京都","city":"新島村","address":"東京都新島村本村","lat":34.37612616,"lon":139.25397696},{"name":"式根島のまいまいず井戸","province":"東京都","city":"新島村","address":"東京都新島村式根島","lat":34.32432977,"lon":139.21927444},{"name":"里川の水源","province":"東京都","city":"新島村","address":"東京都新島村","lat":34.37713721,"lon":139.25657395},{"name":"新島測量基点","province":"東京都","city":"新島村","address":"東京都新島村本村","lat":34.37612616,"lon":139.25397696},{"name":"流人牢屋跡","province":"東京都","city":"新島村","address":"東京都新島村本村","lat":34.37612616,"lon":139.25397696},{"name":"薩摩畑","province":"東京都","city":"新島村","address":"東京都新島村","lat":34.37713721,"lon":139.25657395},{"name":"塩釜の跡","province":"東京都","city":"新島村","address":"東京都新島村式根島","lat":34.32432977,"lon":139.21927444},{"name":"丸山の方角石","province":"東京都","city":"新島村","address":"東京都新島村式根島","lat":34.32432977,"lon":139.21927444},{"name":"なまこ桟橋","province":"東京都","city":"新島村","address":"東京都新島村式根島","lat":34.32432977,"lon":139.21927444},{"name":"大浦野営場","province":"東京都","city":"新島村","address":"東京都新島村式根島","lat":34.330566,"lon":139.209249},{"name":"羽伏浦園地","province":"東京都","city":"新島村","address":"東京都新島村字ナムレ","lat":34.376098,"lon":139.275306},{"name":"羽伏浦公園（コロシアム）","province":"東京都","city":"新島村","address":"東京都新島村字檜山","lat":34.378296,"lon":139.274393},{"name":"羽伏浦野営場","province":"東京都","city":"新島村","address":"東京都新島村字檜山","lat":34.379032,"lon":139.271136},{"name":"間々下園地","province":"東京都","city":"新島村","address":"東京都新島村字黒根","lat":34.364378,"lon":139.24283},{"name":"間々下園地","province":"東京都","city":"新島村","address":"東京都新島村字黒根","lat":34.364234,"lon":139.243018},{"name":"若郷園地","province":"東京都","city":"新島村","address":"東京都新島村若郷1","lat":34.423818,"lon":139.282279},{"name":"泊園地","province":"東京都","city":"新島村","address":"東京都新島村式根島","lat":34.335652,"lon":139.212383},{"name":"式根島遊歩道（カンビキ）","province":"東京都","city":"新島村","address":"東京都新島村式根島","lat":34.324955,"lon":139.204427},{"name":"本村前浜便所","province":"東京都","city":"新島村","address":"東京都新島村本村6丁目8","lat":34.374565,"lon":139.252012},{"name":"本村前浜便所","province":"東京都","city":"新島村","address":"東京都新島村本村2丁目4","lat":34.379261,"lon":139.25419},{"name":"新島港船客待合所","province":"東京都","city":"新島村","address":"東京都新島村字黒根","lat":34.367204,"lon":139.244964},{"name":"向山展望台トイレ","province":"東京都","city":"新島村","address":"東京都新島村字向山","lat":34.352256,"lon":139.252576},{"name":"若郷前浜（奥）","province":"東京都","city":"新島村","address":"東京都新島村若郷1","lat":34.423842,"lon":139.282281},{"name":"波伏浦野営場","province":"東京都","city":"新島村","address":"東京都新島村字檜山","lat":34.379234,"lon":139.271105},{"name":"波伏浦海岸","province":"東京都","city":"新島村","address":"東京都新島村字ナムレ","lat":34.376117,"lon":139.275297},{"name":"前浜（森電気下）","province":"東京都","city":"新島村","address":"東京都新島村本村2丁目3","lat":34.378835,"lon":139.253938},{"name":"前浜（浜庄下）","province":"東京都","city":"新島村","address":"東京都新島村本村6丁目8","lat":34.374627,"lon":139.252022},{"name":"B堤防","province":"東京都","city":"新島村","address":"東京都新島村字黒根","lat":34.369354,"lon":139.247563},{"name":"泊海水浴場トイレ","province":"東京都","city":"新島村","address":"東京都新島村式根島","lat":34.335662,"lon":139.212384},{"name":"大浦海水浴場トイレ","province":"東京都","city":"新島村","address":"東京都新島村式根島","lat":34.330577,"lon":139.209237},{"name":"神引展望台トイレ","province":"東京都","city":"新島村","address":"東京都新島村式根島","lat":34.324963,"lon":139.20442},{"name":"前田家住宅外便所","province":"東京都","city":"新島村","address":"東京都新島村本村","lat":34.37612616,"lon":139.25397696},{"name":"板絵着色婦女群犬図","province":"東京都","city":"新島村","address":"東京都新島村本村6丁目10","lat":34.37602896,"lon":139.2529687},{"name":"銅鏡(松枝散双鳥鏡外8面)","province":"東京都","city":"新島村","address":"東京都新島村本村6丁目10","lat":34.37602896,"lon":139.2529687},{"name":"銅鏡（松竹双鶴鏡外1面）","province":"東京都","city":"新島村","address":"東京都新島村本村6丁目10","lat":34.37602896,"lon":139.2529687},{"name":"銅鏡（山吹双鳥鏡外1面）","province":"東京都","city":"新島村","address":"東京都新島村式根島","lat":34.32432977,"lon":139.21927444},{"name":"新島島役所資料（646冊394通9枚）","province":"東京都","city":"新島村","address":"東京都新島村本村","lat":34.37612616,"lon":139.25397696},{"name":"新島十三社神社資料（134冊）","province":"東京都","city":"新島村","address":"東京都新島村本村6丁目10","lat":34.37602896,"lon":139.2529687},{"name":"新島の神楽","province":"東京都","city":"新島村","address":"東京都新島村本村6丁目10","lat":34.37602896,"lon":139.2529687},{"name":"獅子木遣","province":"東京都","city":"新島村","address":"東京都新島村本村6丁目10","lat":34.37602896,"lon":139.2529687},{"name":"原町の井戸","province":"東京都","city":"新島村","address":"東京都新島村本村","lat":34.37612616,"lon":139.25397696},{"name":"吹之江遺跡","province":"東京都","city":"新島村","address":"東京都新島村式根島","lat":34.32432977,"lon":139.21927444},{"name":"天宥法印墓","province":"東京都","city":"新島村","address":"東京都新島村","lat":34.37713721,"lon":139.25657395},{"name":"宝篋印塔と五輪塔","province":"東京都","city":"新島村","address":"東京都新島村本村","lat":34.37612616,"lon":139.25397696},{"name":"流人墓地","province":"東京都","city":"新島村","address":"東京都新島村本村","lat":34.37612616,"lon":139.25397696},{"name":"向畑刑場跡","province":"東京都","city":"新島村","address":"東京都新島村本村","lat":34.37612616,"lon":139.25397696},{"name":"式根島のまいまいず井戸","province":"東京都","city":"新島村","address":"東京都新島村式根島","lat":34.32432977,"lon":139.21927444},{"name":"里川の水源","province":"東京都","city":"新島村","address":"東京都新島村","lat":34.37713721,"lon":139.25657395},{"name":"新島測量基点","province":"東京都","city":"新島村","address":"東京都新島村本村","lat":34.37612616,"lon":139.25397696},{"name":"流人牢屋跡","province":"東京都","city":"新島村","address":"東京都新島村本村","lat":34.37612616,"lon":139.25397696},{"name":"薩摩畑","province":"東京都","city":"新島村","address":"東京都新島村","lat":34.37713721,"lon":139.25657395},{"name":"塩釜の跡","province":"東京都","city":"新島村","address":"東京都新島村式根島","lat":34.32432977,"lon":139.21927444},{"name":"丸山の方角石","province":"東京都","city":"新島村","address":"東京都新島村式根島","lat":34.32432977,"lon":139.21927444},{"name":"なまこ桟橋","province":"東京都","city":"新島村","address":"東京都新島村式根島","lat":34.32432977,"lon":139.21927444},{"name":"大浦野営場","province":"東京都","city":"新島村","address":"東京都新島村式根島","lat":34.330566,"lon":139.209249},{"name":"羽伏浦園地","province":"東京都","city":"新島村","address":"東京都新島村字ナムレ","lat":34.376098,"lon":139.275306},{"name":"羽伏浦公園（コロシアム）","province":"東京都","city":"新島村","address":"東京都新島村字檜山","lat":34.378296,"lon":139.274393},{"name":"羽伏浦野営場","province":"東京都","city":"新島村","address":"東京都新島村字檜山","lat":34.379032,"lon":139.271136},{"name":"間々下園地","province":"東京都","city":"新島村","address":"東京都新島村字黒根","lat":34.364378,"lon":139.24283},{"name":"間々下園地","province":"東京都","city":"新島村","address":"東京都新島村字黒根","lat":34.364234,"lon":139.243018},{"name":"若郷園地","province":"東京都","city":"新島村","address":"東京都新島村若郷1","lat":34.423818,"lon":139.282279},{"name":"泊園地","province":"東京都","city":"新島村","address":"東京都新島村式根島","lat":34.335652,"lon":139.212383},{"name":"式根島遊歩道（カンビキ）","province":"東京都","city":"新島村","address":"東京都新島村式根島","lat":34.324955,"lon":139.204427},{"name":"本村前浜便所","province":"東京都","city":"新島村","address":"東京都新島村本村6丁目8","lat":34.374565,"lon":139.252012},{"name":"本村前浜便所","province":"東京都","city":"新島村","address":"東京都新島村本村2丁目4","lat":34.379261,"lon":139.25419},{"name":"新島港船客待合所","province":"東京都","city":"新島村","address":"東京都新島村字黒根","lat":34.367204,"lon":139.244964},{"name":"向山展望台トイレ","province":"東京都","city":"新島村","address":"東京都新島村字向山","lat":34.352256,"lon":139.252576},{"name":"若郷前浜（奥）","province":"東京都","city":"新島村","address":"東京都新島村若郷1","lat":34.423842,"lon":139.282281},{"name":"波伏浦野営場","province":"東京都","city":"新島村","address":"東京都新島村字檜山","lat":34.379234,"lon":139.271105},{"name":"波伏浦海岸","province":"東京都","city":"新島村","address":"東京都新島村字ナムレ","lat":34.376117,"lon":139.275297},{"name":"前浜（森電気下）","province":"東京都","city":"新島村","address":"東京都新島村本村2丁目3","lat":34.378835,"lon":139.253938},{"name":"前浜（浜庄下）","province":"東京都","city":"新島村","address":"東京都新島村本村6丁目8","lat":34.374627,"lon":139.252022},{"name":"B堤防","province":"東京都","city":"新島村","address":"東京都新島村字黒根","lat":34.369354,"lon":139.247563},{"name":"泊海水浴場トイレ","province":"東京都","city":"新島村","address":"東京都新島村式根島","lat":34.335662,"lon":139.212384},{"name":"大浦海水浴場トイレ","province":"東京都","city":"新島村","address":"東京都新島村式根島","lat":34.330577,"lon":139.209237},{"name":"神引展望台トイレ","province":"東京都","city":"新島村","address":"東京都新島村式根島","lat":34.324963,"lon":139.20442},{"name":"前田家住宅外便所","province":"東京都","city":"新島村","address":"東京都新島村本村","lat":34.37612616,"lon":139.25397696},{"name":"板絵着色婦女群犬図","province":"東京都","city":"新島村","address":"東京都新島村本村6丁目10","lat":34.37602896,"lon":139.2529687},{"name":"銅鏡(松枝散双鳥鏡外8面)","province":"東京都","city":"新島村","address":"東京都新島村本村6丁目10","lat":34.37602896,"lon":139.2529687},{"name":"銅鏡（松竹双鶴鏡外1面）","province":"東京都","city":"新島村","address":"東京都新島村本村6丁目10","lat":34.37602896,"lon":139.2529687},{"name":"銅鏡（山吹双鳥鏡外1面）","province":"東京都","city":"新島村","address":"東京都新島村式根島","lat":34.32432977,"lon":139.21927444},{"name":"新島島役所資料（646冊394通9枚）","province":"東京都","city":"新島村","address":"東京都新島村本村","lat":34.37612616,"lon":139.25397696},{"name":"新島十三社神社資料（134冊）","province":"東京都","city":"新島村","address":"東京都新島村本村6丁目10","lat":34.37602896,"lon":139.2529687},{"name":"新島の神楽","province":"東京都","city":"新島村","address":"東京都新島村本村6丁目10","lat":34.37602896,"lon":139.2529687},{"name":"獅子木遣","province":"東京都","city":"新島村","address":"東京都新島村本村6丁目10","lat":34.37602896,"lon":139.2529687},{"name":"原町の井戸","province":"東京都","city":"新島村","address":"東京都新島村本村","lat":34.37612616,"lon":139.25397696},{"name":"吹之江遺跡","province":"東京都","city":"新島村","address":"東京都新島村式根島","lat":34.32432977,"lon":139.21927444},{"name":"天宥法印墓","province":"東京都","city":"新島村","address":"東京都新島村","lat":34.37713721,"lon":139.25657395},{"name":"宝篋印塔と五輪塔","province":"東京都","city":"新島村","address":"東京都新島村本村","lat":34.37612616,"lon":139.25397696},{"name":"流人墓地","province":"東京都","city":"新島村","address":"東京都新島村本村","lat":34.37612616,"lon":139.25397696},{"name":"向畑刑場跡","province":"東京都","city":"新島村","address":"東京都新島村本村","lat":34.37612616,"lon":139.25397696},{"name":"式根島のまいまいず井戸","province":"東京都","city":"新島村","address":"東京都新島村式根島","lat":34.32432977,"lon":139.21927444},{"name":"里川の水源","province":"東京都","city":"新島村","address":"東京都新島村","lat":34.37713721,"lon":139.25657395},{"name":"新島測量基点","province":"東京都","city":"新島村","address":"東京都新島村本村","lat":34.37612616,"lon":139.25397696},{"name":"流人牢屋跡","province":"東京都","city":"新島村","address":"東京都新島村本村","lat":34.37612616,"lon":139.25397696},{"name":"薩摩畑","province":"東京都","city":"新島村","address":"東京都新島村","lat":34.37713721,"lon":139.25657395},{"name":"塩釜の跡","province":"東京都","city":"新島村","address":"東京都新島村式根島","lat":34.32432977,"lon":139.21927444},{"name":"丸山の方角石","province":"東京都","city":"新島村","address":"東京都新島村式根島","lat":34.32432977,"lon":139.21927444},{"name":"なまこ桟橋","province":"東京都","city":"新島村","address":"東京都新島村式根島","lat":34.32432977,"lon":139.21927444},{"name":"大浦野営場","province":"東京都","city":"新島村","address":"東京都新島村式根島","lat":34.330566,"lon":139.209249},{"name":"羽伏浦園地","province":"東京都","city":"新島村","address":"東京都新島村字ナムレ","lat":34.376098,"lon":139.275306},{"name":"羽伏浦公園（コロシアム）","province":"東京都","city":"新島村","address":"東京都新島村字檜山","lat":34.378296,"lon":139.274393},{"name":"羽伏浦野営場","province":"東京都","city":"新島村","address":"東京都新島村字檜山","lat":34.379032,"lon":139.271136},{"name":"間々下園地","province":"東京都","city":"新島村","address":"東京都新島村字黒根","lat":34.364378,"lon":139.24283},{"name":"間々下園地","province":"東京都","city":"新島村","address":"東京都新島村字黒根","lat":34.364234,"lon":139.243018},{"name":"若郷園地","province":"東京都","city":"新島村","address":"東京都新島村若郷1","lat":34.423818,"lon":139.282279},{"name":"泊園地","province":"東京都","city":"新島村","address":"東京都新島村式根島","lat":34.335652,"lon":139.212383},{"name":"式根島遊歩道（カンビキ）","province":"東京都","city":"新島村","address":"東京都新島村式根島","lat":34.324955,"lon":139.204427},{"name":"本村前浜便所","province":"東京都","city":"新島村","address":"東京都新島村本村6丁目8","lat":34.374565,"lon":139.252012},{"name":"本村前浜便所","province":"東京都","city":"新島村","address":"東京都新島村本村2丁目4","lat":34.379261,"lon":139.25419},{"name":"新島港船客待合所","province":"東京都","city":"新島村","address":"東京都新島村字黒根","lat":34.367204,"lon":139.244964},{"name":"向山展望台トイレ","province":"東京都","city":"新島村","address":"東京都新島村字向山","lat":34.352256,"lon":139.252576},{"name":"若郷前浜（奥）","province":"東京都","city":"新島村","address":"東京都新島村若郷1","lat":34.423842,"lon":139.282281},{"name":"波伏浦野営場","province":"東京都","city":"新島村","address":"東京都新島村字檜山","lat":34.379234,"lon":139.271105},{"name":"波伏浦海岸","province":"東京都","city":"新島村","address":"東京都新島村字ナムレ","lat":34.376117,"lon":139.275297},{"name":"前浜（森電気下）","province":"東京都","city":"新島村","address":"東京都新島村本村2丁目3","lat":34.378835,"lon":139.253938},{"name":"前浜（浜庄下）","province":"東京都","city":"新島村","address":"東京都新島村本村6丁目8","lat":34.374627,"lon":139.252022},{"name":"B堤防","province":"東京都","city":"新島村","address":"東京都新島村字黒根","lat":34.369354,"lon":139.247563},{"name":"泊海水浴場トイレ","province":"東京都","city":"新島村","address":"東京都新島村式根島","lat":34.335662,"lon":139.212384},{"name":"大浦海水浴場トイレ","province":"東京都","city":"新島村","address":"東京都新島村式根島","lat":34.330577,"lon":139.209237},{"name":"神引展望台トイレ","province":"東京都","city":"新島村","address":"東京都新島村式根島","lat":34.324963,"lon":139.20442},{"name":"前田家住宅外便所","province":"東京都","city":"新島村","address":"東京都新島村本村","lat":34.37612616,"lon":139.25397696},{"name":"板絵着色婦女群犬図","province":"東京都","city":"新島村","address":"東京都新島村本村6丁目10","lat":34.37602896,"lon":139.2529687},{"name":"銅鏡(松枝散双鳥鏡外8面)","province":"東京都","city":"新島村","address":"東京都新島村本村6丁目10","lat":34.37602896,"lon":139.2529687},{"name":"銅鏡（松竹双鶴鏡外1面）","province":"東京都","city":"新島村","address":"東京都新島村本村6丁目10","lat":34.37602896,"lon":139.2529687},{"name":"銅鏡（山吹双鳥鏡外1面）","province":"東京都","city":"新島村","address":"東京都新島村式根島","lat":34.32432977,"lon":139.21927444},{"name":"新島島役所資料（646冊394通9枚）","province":"東京都","city":"新島村","address":"東京都新島村本村","lat":34.37612616,"lon":139.25397696},{"name":"新島十三社神社資料（134冊）","province":"東京都","city":"新島村","address":"東京都新島村本村6丁目10","lat":34.37602896,"lon":139.2529687},{"name":"新島の神楽","province":"東京都","city":"新島村","address":"東京都新島村本村6丁目10","lat":34.37602896,"lon":139.2529687},{"name":"獅子木遣","province":"東京都","city":"新島村","address":"東京都新島村本村6丁目10","lat":34.37602896,"lon":139.2529687},{"name":"原町の井戸","province":"東京都","city":"新島村","address":"東京都新島村本村","lat":34.37612616,"lon":139.25397696},{"name":"吹之江遺跡","province":"東京都","city":"新島村","address":"東京都新島村式根島","lat":34.32432977,"lon":139.21927444},{"name":"天宥法印墓","province":"東京都","city":"新島村","address":"東京都新島村","lat":34.37713721,"lon":139.25657395},{"name":"宝篋印塔と五輪塔","province":"東京都","city":"新島村","address":"東京都新島村本村","lat":34.37612616,"lon":139.25397696},{"name":"流人墓地","province":"東京都","city":"新島村","address":"東京都新島村本村","lat":34.37612616,"lon":139.25397696},{"name":"向畑刑場跡","province":"東京都","city":"新島村","address":"東京都新島村本村","lat":34.37612616,"lon":139.25397696},{"name":"式根島のまいまいず井戸","province":"東京都","city":"新島村","address":"東京都新島村式根島","lat":34.32432977,"lon":139.21927444},{"name":"里川の水源","province":"東京都","city":"新島村","address":"東京都新島村","lat":34.37713721,"lon":139.25657395},{"name":"新島測量基点","province":"東京都","city":"新島村","address":"東京都新島村本村","lat":34.37612616,"lon":139.25397696},{"name":"流人牢屋跡","province":"東京都","city":"新島村","address":"東京都新島村本村","lat":34.37612616,"lon":139.25397696},{"name":"薩摩畑","province":"東京都","city":"新島村","address":"東京都新島村","lat":34.37713721,"lon":139.25657395},{"name":"塩釜の跡","province":"東京都","city":"新島村","address":"東京都新島村式根島","lat":34.32432977,"lon":139.21927444},{"name":"丸山の方角石","province":"東京都","city":"新島村","address":"東京都新島村式根島","lat":34.32432977,"lon":139.21927444},{"name":"なまこ桟橋","province":"東京都","city":"新島村","address":"東京都新島村式根島","lat":34.32432977,"lon":139.21927444}]}