{"keyword":"公会堂","data":[{"name":"浅草橋区民館","province":"","city":"","address":"浅草橋2丁目8番7号","lat":35.69945588,"lon":139.7834753},{"name":"上野桜木会館","province":"","city":"","address":"上野桜木1丁目6番1号","lat":35.72008356,"lon":139.7710949},{"name":"馬道区民館","province":"","city":"","address":"浅草4丁目48番1号","lat":35.71823439,"lon":139.7987528},{"name":"寿区民館","province":"","city":"","address":"寿1丁目10番12号","lat":35.70731513,"lon":139.7890544},{"name":"金杉区民館下谷分館","province":"","city":"","address":"下谷3丁目14番3号","lat":35.72573346,"lon":139.7873534},{"name":"清川区民館","province":"","city":"","address":"清川1丁目23番8号","lat":35.72572411,"lon":139.8029727},{"name":"台東一丁目区民館","province":"","city":"","address":"台東1丁目25番5号","lat":35.70154551,"lon":139.7780753},{"name":"雷門区民館","province":"","city":"","address":"浅草1丁目37番3号","lat":35.71249472,"lon":139.7961333},{"name":"台東区民会館","province":"","city":"","address":"花川戸2丁目6番5号","lat":35.71432465,"lon":139.7988729},{"name":"金杉区民館","province":"","city":"","address":"下谷3丁目1番30号","lat":35.72322009,"lon":139.7856316},{"name":"東上野区民館","province":"","city":"","address":"東上野3丁目24番6号","lat":35.71125456,"lon":139.7796247},{"name":"上野区民館","province":"","city":"","address":"池之端1丁目1番12号","lat":35.70937446,"lon":139.7693153},{"name":"入谷区民館","province":"","city":"","address":"入谷1丁目15番6号","lat":35.72037389,"lon":139.7857838},{"name":"入谷区民館根岸分館（休館中）","province":"","city":"","address":"根岸2丁目18番17号","lat":35.7248834,"lon":139.7777443},{"name":"浅草公会堂","province":"","city":"","address":"浅草1丁目38番6号","lat":35.7126147,"lon":139.7951134},{"name":"台東区谷中防災コミュニティセンター","province":"","city":"","address":"谷中5丁目6番5号","lat":35.72545032,"lon":139.7663992},{"name":"谷中区民館","province":"東京都","city":"台東区","address":"台東区谷中5丁目6番5号","lat":35.7254502,"lon":139.7661989}]}