{"keyword":"男女","data":[{"name":"オープンオフィス本厚木駅前","province":"神奈川県","city":"厚木市","address":"神奈川県厚木市中町4丁目14-1","lat":35.43907921,"lon":139.36276105},{"name":"滝の沢浄水所","province":"神奈川県","city":"厚木市","address":"神奈川県厚木市旭町2丁目7-7","lat":35.43757946,"lon":139.36725512},{"name":"アルフレッサヘルスケア（株）南関東物流センター","province":"神奈川県","city":"厚木市","address":"神奈川県厚木市酒井1902","lat":35.40851,"lon":139.3627},{"name":"（株）大木厚木ＦＤＣ","province":"神奈川県","city":"厚木市","address":"神奈川県厚木市酒井1902","lat":35.40851,"lon":139.3627},{"name":"オープンオフィス本厚木駅前","province":"神奈川県","city":"厚木市","address":"神奈川県厚木市中町4丁目14-1","lat":35.43907921,"lon":139.36276105},{"name":"アルフレッサヘルスケア（株）南関東物流センター","province":"神奈川県","city":"厚木市","address":"神奈川県厚木市酒井1902","lat":35.40851,"lon":139.3627},{"name":"（株）大木厚木ＦＤＣ","province":"神奈川県","city":"厚木市","address":"神奈川県厚木市酒井1902","lat":35.40851,"lon":139.3627},{"name":"オープンオフィス本厚木駅前","province":"神奈川県","city":"厚木市","address":"神奈川県厚木市中町4丁目14-1","lat":35.43907921,"lon":139.36276105},{"name":"オープンオフィス本厚木駅前","province":"神奈川県","city":"厚木市","address":"神奈川県厚木市中町4丁目14-1","lat":35.43907921,"lon":139.36276105},{"name":"オープンオフィス本厚木駅前","province":"神奈川県","city":"厚木市","address":"神奈川県厚木市中町4丁目14-1","lat":35.43907921,"lon":139.36276105},{"name":"オープンオフィス本厚木駅前","province":"神奈川県","city":"厚木市","address":"神奈川県厚木市中町4丁目14-1","lat":35.43907921,"lon":139.36276105},{"name":"オープンオフィス本厚木駅前","province":"神奈川県","city":"厚木市","address":"神奈川県厚木市中町4丁目14-1","lat":35.43907921,"lon":139.36276105},{"name":"オープンオフィス本厚木駅前","province":"神奈川県","city":"厚木市","address":"神奈川県厚木市中町4丁目14-1","lat":35.43907921,"lon":139.36276105},{"name":"オープンオフィス本厚木駅前","province":"神奈川県","city":"厚木市","address":"神奈川県厚木市中町4丁目14-1","lat":35.43907921,"lon":139.36276105},{"name":"オープンオフィス本厚木駅前","province":"神奈川県","city":"厚木市","address":"神奈川県厚木市中町4丁目14-1","lat":35.43907921,"lon":139.36276105},{"name":"オープンオフィス本厚木駅前","province":"神奈川県","city":"厚木市","address":"神奈川県厚木市中町4丁目14-1","lat":35.43907921,"lon":139.36276105},{"name":"オープンオフィス本厚木駅前","province":"神奈川県","city":"厚木市","address":"神奈川県厚木市中町4丁目14-1","lat":35.43907921,"lon":139.36276105},{"name":"オープンオフィス本厚木駅前","province":"神奈川県","city":"厚木市","address":"神奈川県厚木市中町4丁目14-1","lat":35.43907921,"lon":139.36276105},{"name":"オープンオフィス本厚木駅前","province":"神奈川県","city":"厚木市","address":"神奈川県厚木市中町4丁目14-1","lat":35.43907921,"lon":139.36276105},{"name":"オープンオフィス本厚木駅前","province":"神奈川県","city":"厚木市","address":"神奈川県厚木市中町4丁目14-1","lat":35.43907921,"lon":139.36276105},{"name":"オープンオフィス本厚木駅前","province":"神奈川県","city":"厚木市","address":"神奈川県厚木市中町4丁目14-1","lat":35.43907921,"lon":139.36276105},{"name":"オープンオフィス本厚木駅前","province":"神奈川県","city":"厚木市","address":"神奈川県厚木市中町4丁目14-1","lat":35.43907921,"lon":139.36276105},{"name":"オープンオフィス本厚木駅前","province":"神奈川県","city":"厚木市","address":"神奈川県厚木市中町4丁目14-1","lat":35.43907921,"lon":139.36276105},{"name":"オープンオフィス本厚木駅前","province":"神奈川県","city":"厚木市","address":"神奈川県厚木市中町4丁目14-1","lat":35.43907921,"lon":139.36276105},{"name":"オープンオフィス本厚木駅前","province":"神奈川県","city":"厚木市","address":"神奈川県厚木市中町4丁目14-1","lat":35.43907921,"lon":139.36276105},{"name":"オープンオフィス本厚木駅前","province":"神奈川県","city":"厚木市","address":"神奈川県厚木市中町4丁目14-1","lat":35.43907921,"lon":139.36276105},{"name":"オープンオフィス本厚木駅前","province":"神奈川県","city":"厚木市","address":"神奈川県厚木市中町4丁目14-1","lat":35.43907921,"lon":139.36276105},{"name":"オープンオフィス本厚木駅前","province":"神奈川県","city":"厚木市","address":"神奈川県厚木市中町4丁目14-1","lat":35.43907921,"lon":139.36276105}]}