{"keyword":"保健","data":[{"name":"大泉町地域集会所","province":"群馬県","city":"邑楽郡大泉町","address":"大泉町4-35-17","lat":35.76382693,"lon":139.5957559},{"name":"やすらぎミラージュ地域包括支援センター","province":"群馬県","city":"邑楽郡大泉町","address":"大泉町4-24-7","lat":35.76263394,"lon":139.5971484},{"name":"練馬ゆめの木地域包括支援センター","province":"群馬県","city":"邑楽郡大泉町","address":"大泉町2-17-1","lat":35.76048762,"lon":139.6023445},{"name":"大泉町地域集会所","province":"群馬県","city":"邑楽郡大泉町","address":"大泉町4-35-17","lat":35.76382693,"lon":139.5957559},{"name":"大泉町地域集会所","province":"群馬県","city":"邑楽郡大泉町","address":"大泉町4-35-17","lat":35.76382693,"lon":139.5957559},{"name":"大泉町地域集会所","province":"群馬県","city":"邑楽郡大泉町","address":"大泉町4-35-17","lat":35.76382693,"lon":139.5957559},{"name":"大泉町地域集会所","province":"群馬県","city":"邑楽郡大泉町","address":"大泉町4-35-17","lat":35.76382693,"lon":139.5957559},{"name":"大泉町地域集会所","province":"群馬県","city":"邑楽郡大泉町","address":"大泉町4-35-17","lat":35.76382693,"lon":139.5957559},{"name":"大泉町地域集会所","province":"群馬県","city":"邑楽郡大泉町","address":"大泉町4-35-17","lat":35.76382693,"lon":139.5957559},{"name":"大泉町地域集会所","province":"群馬県","city":"邑楽郡大泉町","address":"大泉町4-35-17","lat":35.76382693,"lon":139.5957559},{"name":"大泉町地域集会所","province":"群馬県","city":"邑楽郡大泉町","address":"大泉町4-35-17","lat":35.76382693,"lon":139.5957559},{"name":"大泉町地域集会所","province":"群馬県","city":"邑楽郡大泉町","address":"大泉町4-35-17","lat":35.76382693,"lon":139.5957559},{"name":"大泉町地域集会所","province":"群馬県","city":"邑楽郡大泉町","address":"大泉町4-35-17","lat":35.76382693,"lon":139.5957559},{"name":"大泉町地域集会所","province":"群馬県","city":"邑楽郡大泉町","address":"大泉町4-35-17","lat":35.76382693,"lon":139.5957559},{"name":"大泉町地域集会所","province":"群馬県","city":"邑楽郡大泉町","address":"大泉町4-35-17","lat":35.76382693,"lon":139.5957559}]}