{"keyword":"男女","data":[{"name":"大泉町地域集会所","province":"群馬県","city":"邑楽郡大泉町","address":"大泉町4-35-17","lat":35.76382693,"lon":139.5957559},{"name":"大泉第一小","province":"群馬県","city":"邑楽郡大泉町","address":"大泉町3-16-23","lat":35.76532802,"lon":139.599555},{"name":"大泉北小","province":"群馬県","city":"邑楽郡大泉町","address":"大泉町4-28-22","lat":35.76172853,"lon":139.5961881},{"name":"橋戸小","province":"群馬県","city":"邑楽郡大泉町","address":"大泉町2-11-25","lat":35.75849673,"lon":139.6023585},{"name":"大泉北中","province":"群馬県","city":"邑楽郡大泉町","address":"大泉町5-4-32","lat":35.75915291,"lon":139.5968809},{"name":"大泉第一小","province":"群馬県","city":"邑楽郡大泉町","address":"大泉町3-16-23","lat":35.76532802,"lon":139.599555},{"name":"大泉北小","province":"群馬県","city":"邑楽郡大泉町","address":"大泉町4-28-22","lat":35.76172853,"lon":139.5961881},{"name":"橋戸小","province":"群馬県","city":"邑楽郡大泉町","address":"大泉町2-11-25","lat":35.75849673,"lon":139.6023585},{"name":"大泉北中","province":"群馬県","city":"邑楽郡大泉町","address":"大泉町5-4-32","lat":35.75915291,"lon":139.5968809},{"name":"大泉第一小","province":"群馬県","city":"邑楽郡大泉町","address":"大泉町3-16-23","lat":35.76532802,"lon":139.599555},{"name":"大泉北小","province":"群馬県","city":"邑楽郡大泉町","address":"大泉町4-28-22","lat":35.76172853,"lon":139.5961881},{"name":"橋戸小","province":"群馬県","city":"邑楽郡大泉町","address":"大泉町2-11-25","lat":35.75849673,"lon":139.6023585},{"name":"大泉北中","province":"群馬県","city":"邑楽郡大泉町","address":"大泉町5-4-32","lat":35.75915291,"lon":139.5968809},{"name":"大泉第一小","province":"群馬県","city":"邑楽郡大泉町","address":"大泉町3-16-23","lat":35.76532802,"lon":139.599555},{"name":"大泉北小","province":"群馬県","city":"邑楽郡大泉町","address":"大泉町4-28-22","lat":35.76172853,"lon":139.5961881},{"name":"橋戸小","province":"群馬県","city":"邑楽郡大泉町","address":"大泉町2-11-25","lat":35.75849673,"lon":139.6023585},{"name":"大泉北中","province":"群馬県","city":"邑楽郡大泉町","address":"大泉町5-4-32","lat":35.75915291,"lon":139.5968809},{"name":"大泉第一小","province":"群馬県","city":"邑楽郡大泉町","address":"大泉町3-16-23","lat":35.76532802,"lon":139.599555},{"name":"大泉北小","province":"群馬県","city":"邑楽郡大泉町","address":"大泉町4-28-22","lat":35.76172853,"lon":139.5961881},{"name":"橋戸小","province":"群馬県","city":"邑楽郡大泉町","address":"大泉町2-11-25","lat":35.75849673,"lon":139.6023585},{"name":"大泉北中","province":"群馬県","city":"邑楽郡大泉町","address":"大泉町5-4-32","lat":35.75915291,"lon":139.5968809},{"name":"大泉第一小","province":"群馬県","city":"邑楽郡大泉町","address":"大泉町3-16-23","lat":35.76532802,"lon":139.599555},{"name":"大泉北小","province":"群馬県","city":"邑楽郡大泉町","address":"大泉町4-28-22","lat":35.76172853,"lon":139.5961881},{"name":"橋戸小","province":"群馬県","city":"邑楽郡大泉町","address":"大泉町2-11-25","lat":35.75849673,"lon":139.6023585},{"name":"大泉北中","province":"群馬県","city":"邑楽郡大泉町","address":"大泉町5-4-32","lat":35.75915291,"lon":139.5968809},{"name":"大泉第一小","province":"群馬県","city":"邑楽郡大泉町","address":"大泉町3-16-23","lat":35.76532802,"lon":139.599555},{"name":"大泉北小","province":"群馬県","city":"邑楽郡大泉町","address":"大泉町4-28-22","lat":35.76172853,"lon":139.5961881},{"name":"橋戸小","province":"群馬県","city":"邑楽郡大泉町","address":"大泉町2-11-25","lat":35.75849673,"lon":139.6023585},{"name":"大泉北中","province":"群馬県","city":"邑楽郡大泉町","address":"大泉町5-4-32","lat":35.75915291,"lon":139.5968809},{"name":"大泉第一小","province":"群馬県","city":"邑楽郡大泉町","address":"大泉町3-16-23","lat":35.76532802,"lon":139.599555},{"name":"大泉北小","province":"群馬県","city":"邑楽郡大泉町","address":"大泉町4-28-22","lat":35.76172853,"lon":139.5961881},{"name":"橋戸小","province":"群馬県","city":"邑楽郡大泉町","address":"大泉町2-11-25","lat":35.75849673,"lon":139.6023585},{"name":"大泉北中","province":"群馬県","city":"邑楽郡大泉町","address":"大泉町5-4-32","lat":35.75915291,"lon":139.5968809},{"name":"大泉第一小","province":"群馬県","city":"邑楽郡大泉町","address":"大泉町3-16-23","lat":35.76532802,"lon":139.599555},{"name":"大泉北小","province":"群馬県","city":"邑楽郡大泉町","address":"大泉町4-28-22","lat":35.76172853,"lon":139.5961881},{"name":"橋戸小","province":"群馬県","city":"邑楽郡大泉町","address":"大泉町2-11-25","lat":35.75849673,"lon":139.6023585},{"name":"大泉北中","province":"群馬県","city":"邑楽郡大泉町","address":"大泉町5-4-32","lat":35.75915291,"lon":139.5968809},{"name":"大泉第一小","province":"群馬県","city":"邑楽郡大泉町","address":"大泉町3-16-23","lat":35.76532802,"lon":139.599555},{"name":"大泉北小","province":"群馬県","city":"邑楽郡大泉町","address":"大泉町4-28-22","lat":35.76172853,"lon":139.5961881},{"name":"橋戸小","province":"群馬県","city":"邑楽郡大泉町","address":"大泉町2-11-25","lat":35.75849673,"lon":139.6023585},{"name":"大泉北中","province":"群馬県","city":"邑楽郡大泉町","address":"大泉町5-4-32","lat":35.75915291,"lon":139.5968809}]}