{"keyword":"水上","data":[{"name":"宝田橋","province":"東京都","city":"千代田区","address":"東京都千代田区九段南1丁目2-1","lat":35.69407451,"lon":139.75364744},{"name":"月島ふ頭","province":"東京都","city":"中央区","address":"東京都中央区豊海町","lat":35.65314056,"lon":139.77090583},{"name":"常盤橋","province":"東京都","city":"中央区","address":"東京都中央区日本橋本石町2丁目1","lat":35.6869841,"lon":139.77150202},{"name":"平井橋","province":"東京都","city":"墨田区","address":"東京都墨田区立花3丁目","lat":35.70741364,"lon":139.83414302},{"name":"新砂緊急用船着場","province":"東京都","city":"江東区","address":"東京都江東区新砂3丁目","lat":35.66420213,"lon":139.83834118},{"name":"有明客船ターミナル","province":"東京都","city":"江東区","address":"東京都江東区有明3丁目","lat":35.63159354,"lon":139.78818561},{"name":"青海客船ターミナル","province":"東京都","city":"江東区","address":"東京都江東区青海2丁目","lat":35.61733141,"lon":139.78018715},{"name":"黒船橋乗船場","province":"東京都","city":"江東区","address":"東京都江東区門前仲町1丁目1","lat":35.67178636,"lon":139.79273166},{"name":"木場六丁目乗船場","province":"東京都","city":"江東区","address":"東京都江東区木場6丁目","lat":35.66762602,"lon":139.80679399},{"name":"亀戸中央公園乗船場","province":"東京都","city":"江東区","address":"東京都江東区亀戸8丁目","lat":35.7006893,"lon":139.8333461},{"name":"豊洲三丁目乗船場","province":"東京都","city":"江東区","address":"東京都江東区豊洲3丁目","lat":35.66003768,"lon":139.79466194},{"name":"旧中川川の駅スロープ","province":"東京都","city":"江東区","address":"東京都江東区大島9丁目","lat":35.69317076,"lon":139.84506485},{"name":"大井ふ頭中央海浜公園","province":"東京都","city":"品川区","address":"東京都品川区八潮4丁目","lat":35.59273644,"lon":139.75297102},{"name":"東海橋","province":"東京都","city":"品川区","address":"東京都品川区北品川3丁目","lat":35.61868541,"lon":139.73912927},{"name":"勝島１丁目","province":"東京都","city":"品川区","address":"東京都品川区勝島","lat":35.5980771,"lon":139.74558239},{"name":"多摩川二丁目緊急用船着場","province":"東京都","city":"大田区","address":"東京都大田区多摩川2丁目","lat":35.55788986,"lon":139.70234382},{"name":"東京都漁連水産物流通センター","province":"東京都","city":"大田区","address":"東京都大田区京浜島3丁目","lat":35.57325911,"lon":139.76385757},{"name":"大森ふるさとの浜辺公園","province":"東京都","city":"大田区","address":"東京都大田区平和の森公園2-2","lat":35.57713528,"lon":139.74270588},{"name":"羽田２、３丁目","province":"東京都","city":"大田区","address":"東京都大田区羽田5丁目23","lat":35.54810939,"lon":139.74881591},{"name":"東糀谷六丁目","province":"東京都","city":"大田区","address":"東京都大田区東糀谷6丁目","lat":35.55887451,"lon":139.75037338},{"name":"羽田空港天空橋","province":"東京都","city":"大田区","address":"東京都大田区羽田空港1丁目","lat":35.55478658,"lon":139.75528179},{"name":"岩淵緊急用船着場","province":"東京都","city":"北区","address":"東京都北区志茂5丁目","lat":35.78393271,"lon":139.72875445},{"name":"岩淵","province":"東京都","city":"北区","address":"東京都北区志茂5丁目","lat":35.78393271,"lon":139.72875445},{"name":"豊島","province":"東京都","city":"北区","address":"東京都北区豊島5丁目","lat":35.76601912,"lon":139.74959212},{"name":"北赤羽","province":"東京都","city":"北区","address":"東京都北区浮間1丁目","lat":35.78863696,"lon":139.70479799},{"name":"白鬚西","province":"東京都","city":"荒川区","address":"東京都荒川区南千住8丁目","lat":35.7377776,"lon":139.80756749},{"name":"小豆沢","province":"東京都","city":"板橋区","address":"東京都板橋区小豆沢4丁目","lat":35.77909659,"lon":139.69991806},{"name":"新田緊急用船着場","province":"東京都","city":"足立区","address":"東京都足立区新田3丁目","lat":35.77048507,"lon":139.74322027},{"name":"足立緊急用船着場","province":"東京都","city":"足立区","address":"東京都足立区足立2丁目","lat":35.76116864,"lon":139.80978165},{"name":"堀切緊急用船着場","province":"東京都","city":"葛飾区","address":"東京都葛飾区堀切1丁目12","lat":35.74083039,"lon":139.82605121},{"name":"柴又緊急用船着場","province":"東京都","city":"葛飾区","address":"東京都葛飾区柴又7丁目19","lat":35.75861667,"lon":139.88019269},{"name":"東立石緑地公園船着場","province":"東京都","city":"葛飾区","address":"東京都葛飾区東立石4丁目","lat":35.73627764,"lon":139.84912363},{"name":"新小岩防災船着場","province":"東京都","city":"葛飾区","address":"東京都葛飾区西新小岩1丁目1","lat":35.71611838,"lon":139.85394669},{"name":"青戸六丁目広場付近護岸","province":"東京都","city":"葛飾区","address":"東京都葛飾区青戸6丁目40","lat":35.75167333,"lon":139.85904985},{"name":"東京東部漁協荒天時避難繋船場","province":"東京都","city":"葛飾区","address":"東京都葛飾区奥戸7丁目20","lat":35.73899155,"lon":139.86218069},{"name":"第五建築事務所上平井橋係留所","province":"東京都","city":"葛飾区","address":"東京都葛飾区東四つ木1丁目1","lat":35.72488194,"lon":139.84146404},{"name":"ミヨシ油脂（株）専用荷揚げ場","province":"東京都","city":"葛飾区","address":"東京都葛飾区堀切4丁目66","lat":35.74979264,"lon":139.8225506},{"name":"上篠崎","province":"東京都","city":"江戸川区","address":"東京都江戸川区上篠崎2丁目27","lat":35.71283558,"lon":139.90618361},{"name":"葛西臨海公園","province":"東京都","city":"江戸川区","address":"東京都江戸川区臨海町6丁目","lat":35.6462852,"lon":139.85139641},{"name":"一之江橋","province":"東京都","city":"江戸川区","address":"東京都江戸川区新堀1丁目1","lat":35.70258678,"lon":139.88574945},{"name":"小松川","province":"東京都","city":"江戸川区","address":"東京都江戸川区小松川1丁目","lat":35.68984346,"lon":139.84946741},{"name":"新今井橋","province":"東京都","city":"江戸川区","address":"東京都江戸川区江戸川4丁目","lat":35.68234427,"lon":139.88820301},{"name":"平井","province":"東京都","city":"江戸川区","address":"東京都江戸川区平井6丁目71","lat":35.71365739,"lon":139.84385591},{"name":"なぎさ公園","province":"東京都","city":"江戸川区","address":"東京都江戸川区南葛西7丁目3","lat":35.64875249,"lon":139.88177994},{"name":"今井交通公園","province":"東京都","city":"江戸川区","address":"東京都江戸川区中葛西4丁目9","lat":35.66799142,"lon":139.86705815},{"name":"スポーツランド","province":"東京都","city":"江戸川区","address":"東京都江戸川区東篠崎1丁目8","lat":35.69783207,"lon":139.91731117},{"name":"ポニーランド","province":"東京都","city":"江戸川区","address":"東京都江戸川区南篠崎町3丁目23","lat":35.69480527,"lon":139.90019585},{"name":"篠崎公園","province":"東京都","city":"江戸川区","address":"東京都江戸川区上篠崎1丁目25","lat":35.7146518,"lon":139.89798133},{"name":"小岩菖蒲園","province":"東京都","city":"江戸川区","address":"東京都江戸川区北小岩4丁目37","lat":35.73856957,"lon":139.89622538},{"name":"常盤橋","province":"東京都","city":"中央区","address":"東京都中央区日本橋本石町2丁目1","lat":35.6869841,"lon":139.77150202},{"name":"夢の島マリーナ","province":"東京都","city":"江東区","address":"東京都江東区夢の島3丁目","lat":35.65190061,"lon":139.83152826},{"name":"黒船橋乗船場","province":"東京都","city":"江東区","address":"東京都江東区門前仲町1丁目1","lat":35.67178636,"lon":139.79273166},{"name":"大森ふるさとの浜辺公園","province":"東京都","city":"大田区","address":"東京都大田区平和の森公園2-2","lat":35.57713528,"lon":139.74270588},{"name":"東立石緑地公園船着場","province":"東京都","city":"葛飾区","address":"東京都葛飾区東立石4丁目6","lat":35.73208098,"lon":139.85309298},{"name":"上篠崎","province":"東京都","city":"江戸川区","address":"東京都江戸川区上篠崎2丁目27","lat":35.71283558,"lon":139.90618361},{"name":"一之江橋","province":"東京都","city":"江戸川区","address":"東京都江戸川区新堀1丁目1","lat":35.70258678,"lon":139.88574945},{"name":"平井","province":"東京都","city":"江戸川区","address":"東京都江戸川区平井6丁目71","lat":35.71365739,"lon":139.84385591},{"name":"なぎさ公園","province":"東京都","city":"江戸川区","address":"東京都江戸川区南葛西7丁目3","lat":35.64875249,"lon":139.88177994},{"name":"今井交通公園","province":"東京都","city":"江戸川区","address":"東京都江戸川区中葛西4丁目9","lat":35.66799142,"lon":139.86705815},{"name":"スポーツランド","province":"東京都","city":"江戸川区","address":"東京都江戸川区東篠崎1丁目8","lat":35.69783207,"lon":139.91731117},{"name":"ポニーランド","province":"東京都","city":"江戸川区","address":"東京都江戸川区篠崎町3丁目23","lat":35.70440913,"lon":139.91392782},{"name":"篠崎公園","province":"東京都","city":"江戸川区","address":"東京都江戸川区上篠崎1丁目25","lat":35.7146518,"lon":139.89798133},{"name":"小岩菖蒲園","province":"東京都","city":"江戸川区","address":"東京都江戸川区北小岩4丁目37","lat":35.73856957,"lon":139.89622538}]}