{"keyword":"一覧","data":[{"name":"阿佐谷図書館","province":"東京都","city":"杉並区","address":"東京都杉並区阿佐谷北3丁目36-14","lat":35.71167207,"lon":139.63323771},{"name":"阿佐谷地域区民センター","province":"東京都","city":"杉並区","address":"東京都杉並区阿佐谷北1丁目1-1","lat":35.70536466,"lon":139.64131788},{"name":"水道局和泉合同庁舎","province":"東京都","city":"杉並区","address":"東京都杉並区和泉3丁目8-10","lat":35.67532945,"lon":139.64612422},{"name":"今川図書館","province":"東京都","city":"杉並区","address":"東京都杉並区今川4丁目12-10","lat":35.71557075,"lon":139.5999347},{"name":"高円寺地域区民センター","province":"東京都","city":"杉並区","address":"東京都杉並区梅里1丁目22-32","lat":35.69705486,"lon":139.6538866},{"name":"永福PA上り","province":"東京都","city":"杉並区","address":"東京都杉並区永福1丁目5","lat":35.66823017,"lon":139.64248864},{"name":"荻窪地域区民センター","province":"東京都","city":"杉並区","address":"東京都杉並区荻窪2丁目34-20","lat":35.69852873,"lon":139.61902},{"name":"中央図書館","province":"東京都","city":"杉並区","address":"東京都杉並区荻窪3丁目40-23","lat":35.70185634,"lon":139.62677758},{"name":"荻窪体育館","province":"東京都","city":"杉並区","address":"東京都杉並区荻窪3丁目47-2","lat":35.70265069,"lon":139.62693586},{"name":"柿木図書館","province":"東京都","city":"杉並区","address":"東京都杉並区上井草1丁目6-13","lat":35.72025111,"lon":139.61211405},{"name":"上井草スポーツセンター","province":"東京都","city":"杉並区","address":"東京都杉並区上井草3丁目34-1","lat":35.72411984,"lon":139.60178143},{"name":"久我山会館","province":"東京都","city":"杉並区","address":"東京都杉並区久我山3丁目23-20","lat":35.68661291,"lon":139.59955808},{"name":"高円寺図書館","province":"東京都","city":"杉並区","address":"東京都杉並区高円寺南2丁目36-25","lat":35.70038225,"lon":139.65411699},{"name":"高円寺体育館","province":"東京都","city":"杉並区","address":"東京都杉並区高円寺南2丁目36-31","lat":35.69969344,"lon":139.65411702},{"name":"妙正寺体育館","province":"東京都","city":"杉並区","address":"東京都杉並区清水3丁目20-12","lat":35.71840702,"lon":139.61769145},{"name":"下井草図書館","province":"東京都","city":"杉並区","address":"東京都杉並区下井草3丁目26-5","lat":35.72091524,"lon":139.62327975},{"name":"井草地域区民センター","province":"東京都","city":"杉並区","address":"東京都杉並区下井草5丁目7-22","lat":35.72072896,"lon":139.61652477},{"name":"ウェルファーム杉並","province":"東京都","city":"杉並区","address":"東京都杉並区天沼3丁目19-16","lat":35.71011356,"lon":139.62080827},{"name":"高井戸図書館","province":"東京都","city":"杉並区","address":"東京都杉並区高井戸東1丁目28-1","lat":35.6816225,"lon":139.62287591},{"name":"高井戸地域区民センター","province":"東京都","city":"杉並区","address":"東京都杉並区高井戸東3丁目7-5","lat":35.68363319,"lon":139.61658187},{"name":"成田図書館","province":"東京都","city":"杉並区","address":"東京都杉並区成田東3丁目28-5","lat":35.6950713,"lon":139.63742423},{"name":"西荻図書館","province":"東京都","city":"杉並区","address":"東京都杉並区西荻北2丁目33-9","lat":35.70785511,"lon":139.60597619},{"name":"方南図書館","province":"東京都","city":"杉並区","address":"東京都杉並区方南1丁目51-2","lat":35.67904337,"lon":139.66003956},{"name":"西荻地域区民センター","province":"東京都","city":"杉並区","address":"東京都杉並区桃井4丁目3-2","lat":35.7126017,"lon":139.60218464},{"name":"松ノ木運動場","province":"東京都","city":"杉並区","address":"東京都杉並区松ノ木1丁目3-22","lat":35.68561423,"lon":139.64200202},{"name":"南荻窪図書館","province":"東京都","city":"杉並区","address":"東京都杉並区南荻窪1丁目10-2","lat":35.6950068,"lon":139.61445661},{"name":"大宮前体育館","province":"東京都","city":"杉並区","address":"東京都杉並区南荻窪2丁目1-1","lat":35.69688425,"lon":139.61046517},{"name":"宮前図書館","province":"東京都","city":"杉並区","address":"東京都杉並区宮前5丁目5-27","lat":35.69323714,"lon":139.59900787},{"name":"杉並第十小温水プール","province":"東京都","city":"杉並区","address":"東京都杉並区和田3丁目55-49","lat":35.69674945,"lon":139.65745574},{"name":"永福図書館","province":"東京都","city":"杉並区","address":"東京都杉並区永福3丁目51-17","lat":35.67845941,"lon":139.63804426}]}