{"keyword":"保育","data":[{"name":"阿佐谷北保育園","province":"東京都","city":"杉並区","address":"杉並区阿佐谷北6-26-13","lat":35.715005,"lon":139.63834},{"name":"阿佐谷保育園","province":"東京都","city":"杉並区","address":"杉並区阿佐谷北3-36-20","lat":35.711628,"lon":139.633532},{"name":"うぃず阿佐ヶ谷駅前保育園","province":"東京都","city":"杉並区","address":"杉並区阿佐谷北1-15-3","lat":35.707662,"lon":139.639074},{"name":"山吹あさがやきた保育園","province":"東京都","city":"杉並区","address":"杉並区阿佐谷北3-29-12","lat":35.711092,"lon":139.631557},{"name":"杉並さゆり保育園","province":"東京都","city":"杉並区","address":"杉並区高円寺北4-34-22","lat":35.709228,"lon":139.645287},{"name":"高円寺北保育園","province":"東京都","city":"杉並区","address":"杉並区高円寺北2-32-7","lat":35.708337,"lon":139.6529},{"name":"高円寺りとるぱんぷきんず","province":"東京都","city":"杉並区","address":"杉並区高円寺北1-27-3","lat":35.708404,"lon":139.657177},{"name":"高円寺東保育園","province":"東京都","city":"杉並区","address":"杉並区高円寺南1-28-4","lat":35.700735,"lon":139.661466},{"name":"高円寺南保育園","province":"東京都","city":"杉並区","address":"杉並区高円寺南4-44-11","lat":35.704946,"lon":139.651348},{"name":"マミー高円寺保育園","province":"東京都","city":"杉並区","address":"杉並区高円寺南2-40-45","lat":35.701407,"lon":139.652545},{"name":"大空と大地のなーさりぃ高円寺南園","province":"東京都","city":"杉並区","address":"杉並区高円寺南4-37-23","lat":35.704148,"lon":139.654147},{"name":"馬橋保育園","province":"東京都","city":"杉並区","address":"杉並区高円寺南3-16-14","lat":35.699682,"lon":139.645401},{"name":"阿佐谷東保育園","province":"東京都","city":"杉並区","address":"杉並区阿佐谷南1-42-7","lat":35.702082,"lon":139.639888},{"name":"のはら保育園","province":"東京都","city":"杉並区","address":"杉並区阿佐谷南1-14-8","lat":35.699774,"lon":139.63711},{"name":"グローバルキッズ荻窪保育園","province":"東京都","city":"杉並区","address":"杉並区阿佐谷南3-13-12","lat":35.703653,"lon":139.628027},{"name":"阿佐ヶ谷たいよう保育園","province":"東京都","city":"杉並区","address":"杉並区阿佐ヶ谷南1-48-5","lat":35.70359,"lon":139.636743},{"name":"和田保育園","province":"東京都","city":"杉並区","address":"杉並区和田1-66-19","lat":35.695028,"lon":139.662308},{"name":"むさしの保育園","province":"東京都","city":"杉並区","address":"杉並区和田1-8-20","lat":35.688034,"lon":139.662772},{"name":"佼成育子園","province":"東京都","city":"杉並区","address":"杉並区和田1-16-7","lat":35.690723,"lon":139.66503},{"name":"明愛保育園","province":"東京都","city":"杉並区","address":"杉並区和田1-61-15","lat":35.69513,"lon":139.664452},{"name":"ピノキオ幼児舎和田保育園","province":"東京都","city":"杉並区","address":"杉並区和田2-21-8","lat":35.690403,"lon":139.658478},{"name":"和田ここわ保育園","province":"東京都","city":"杉並区","address":"杉並区和田1-5-7","lat":35.689137,"lon":139.662967},{"name":"堀ノ内保育園","province":"東京都","city":"杉並区","address":"杉並区堀ノ内2-8-7","lat":35.686639,"lon":139.653032},{"name":"堀ノ内東保育園","province":"東京都","city":"杉並区","address":"杉並区堀ノ内3-49-19","lat":35.692422,"lon":139.653667},{"name":"ほりのうちさくらさくほいくえん","province":"東京都","city":"杉並区","address":"杉並区堀ノ内3-5-12","lat":35.691194,"lon":139.651837},{"name":"松ノ木保育園","province":"東京都","city":"杉並区","address":"杉並区松ノ木2-33-6","lat":35.692339,"lon":139.646035},{"name":"にじのいるか保育園杉並松の木","province":"東京都","city":"杉並区","address":"杉並区松ノ木1-12-39","lat":35.689828,"lon":139.643096},{"name":"東京立正保育園","province":"東京都","city":"杉並区","address":"杉並区松ノ木2-29-19","lat":35.690697,"lon":139.645493},{"name":"杉並保育園","province":"東京都","city":"杉並区","address":"杉並区成田東3-32-26","lat":35.694424,"lon":139.638877},{"name":"阿佐谷南保育園","province":"東京都","city":"杉並区","address":"杉並区成田東4-9-19","lat":35.698168,"lon":139.634322},{"name":"成田保育園","province":"東京都","city":"杉並区","address":"杉並区成田東2-16-5","lat":35.689072,"lon":139.633791},{"name":"杉並ゆりかご保育園","province":"東京都","city":"杉並区","address":"杉並区成田東1-18-8","lat":35.6912,"lon":139.641052},{"name":"うぃず成田東保育園","province":"東京都","city":"杉並区","address":"杉並区成田東3-17-32","lat":35.69213,"lon":139.6339},{"name":"ゆめの樹保育園なりたにし","province":"東京都","city":"杉並区","address":"杉並区成田西2-24-20","lat":35.690494,"lon":139.629717},{"name":"成田コスモ保育園","province":"東京都","city":"杉並区","address":"杉並区成田西3-8-12","lat":35.69398,"lon":139.630989},{"name":"井草保育園","province":"東京都","city":"杉並区","address":"杉並区井草2-15-15","lat":35.727031,"lon":139.61953},{"name":"Ｎｉｃｏｔ井荻","province":"東京都","city":"杉並区","address":"杉並区井草3-1-82階","lat":35.724828,"lon":139.615511},{"name":"Ａｇａｐｅ井草保育園","province":"東京都","city":"杉並区","address":"杉並区井草1-31-9","lat":35.726801,"lon":139.621746},{"name":"大空と大地のなーさりぃ下井草駅前園","province":"東京都","city":"杉並区","address":"杉並区井草1-6-11","lat":35.724762,"lon":139.623302},{"name":"ピノキオ幼児舎井荻保育園","province":"東京都","city":"杉並区","address":"杉並区井草4-15-16","lat":35.727817,"lon":139.610458},{"name":"中瀬保育園","province":"東京都","city":"杉並区","address":"杉並区下井草4-25-10","lat":35.72307,"lon":139.619533},{"name":"下井草保育園","province":"東京都","city":"杉並区","address":"杉並区下井草3-13-9","lat":35.719396,"lon":139.624571},{"name":"あい保育園下井草","province":"東京都","city":"杉並区","address":"杉並区下井草3-13-7","lat":35.719149,"lon":139.624441},{"name":"にじのいるか保育園杉並井草","province":"東京都","city":"杉並区","address":"杉並区下井草5-7-19","lat":35.720915,"lon":139.616716},{"name":"四宮保育園","province":"東京都","city":"杉並区","address":"杉並区上井草2-28-3","lat":35.722659,"lon":139.608767},{"name":"上井草保育園","province":"東京都","city":"杉並区","address":"杉並区上井草3-8-7","lat":35.718701,"lon":139.601259},{"name":"杉並元氣保育園","province":"東京都","city":"杉並区","address":"杉並区上井草4-6-6","lat":35.718062,"lon":139.594263},{"name":"本天沼保育園","province":"東京都","city":"杉並区","address":"杉並区本天沼3-34-35","lat":35.716316,"lon":139.623074},{"name":"パピーナ本天沼保育園","province":"東京都","city":"杉並区","address":"杉並区本天沼3-35-4","lat":35.714735,"lon":139.623597},{"name":"うぃず本天沼保育園","province":"東京都","city":"杉並区","address":"杉並区本天沼2-42-24","lat":35.715833,"lon":139.628285},{"name":"テンダーラビング保育園天沼","province":"東京都","city":"杉並区","address":"杉並区本天沼3-13-21","lat":35.712261,"lon":139.621491},{"name":"天沼保育園","province":"東京都","city":"杉並区","address":"杉並区天沼2-42-9","lat":35.71065,"lon":139.626133},{"name":"アスクおぎくぼ保育園","province":"東京都","city":"杉並区","address":"杉並区清水1-18-11","lat":35.710036,"lon":139.616917},{"name":"聖心保育園","province":"東京都","city":"杉並区","address":"杉並区桃井2-24-18","lat":35.714654,"lon":139.610887},{"name":"ココファン・ナーサリー桃井","province":"東京都","city":"杉並区","address":"杉並区桃井4-7-17","lat":35.714085,"lon":139.600735},{"name":"今川保育園","province":"東京都","city":"杉並区","address":"杉並区今川3-3-18","lat":35.715504,"lon":139.606001},{"name":"杉並井荻雲母保育園","province":"東京都","city":"杉並区","address":"杉並区今川1-15-16","lat":35.71769,"lon":139.611486},{"name":"井荻保育園","province":"東京都","city":"杉並区","address":"杉並区善福寺1-5-17","lat":35.710966,"lon":139.598629},{"name":"善福寺保育園","province":"東京都","city":"杉並区","address":"杉並区善福寺2-26-18","lat":35.713362,"lon":139.588627},{"name":"コンビプラザ善福寺保育園","province":"東京都","city":"杉並区","address":"杉並区善福寺1-16-19","lat":35.713749,"lon":139.599032},{"name":"西荻北保育園","province":"東京都","city":"杉並区","address":"杉並区西荻北2-27-18","lat":35.707325,"lon":139.602593},{"name":"ぴっころきっず西荻窪北口園","province":"東京都","city":"杉並区","address":"杉並区西荻北2-5-3杏順ビル1階","lat":35.704314,"lon":139.602599},{"name":"パピーナ西荻窪","province":"東京都","city":"杉並区","address":"杉並区西荻北2-4-8","lat":35.704503,"lon":139.601238},{"name":"上荻保育園","province":"東京都","city":"杉並区","address":"杉並区上荻1-20-13","lat":35.706056,"lon":139.6169},{"name":"ピノキオ幼児舎桃井保育園","province":"東京都","city":"杉並区","address":"杉並区上荻4-29-15さくら上荻ビル2階","lat":35.711796,"lon":139.602479},{"name":"ゆらりん荻窪保育園","province":"東京都","city":"杉並区","address":"杉並区上荻1-21-20常盤レジデンシア荻窪1F","lat":35.705714,"lon":139.616445},{"name":"頌栄保育園","province":"東京都","city":"杉並区","address":"杉並区上荻3-15-12","lat":35.708697,"lon":139.609204},{"name":"西田保育園","province":"東京都","city":"杉並区","address":"杉並区荻窪1-57-4","lat":35.695015,"lon":139.626903},{"name":"荻窪南保育園","province":"東京都","city":"杉並区","address":"杉並区荻窪1-1-6","lat":35.691071,"lon":139.621167},{"name":"荻窪東保育園","province":"東京都","city":"杉並区","address":"杉並区荻窪4-23-20","lat":35.701712,"lon":139.623714},{"name":"荻窪北保育園","province":"東京都","city":"杉並区","address":"杉並区荻窪5-17-8","lat":35.703561,"lon":139.618053},{"name":"まなびの森保育園荻窪","province":"東京都","city":"杉並区","address":"杉並区荻窪4-11-23","lat":35.70072,"lon":139.620423},{"name":"ひのまるキッズガーデンナーサリー","province":"東京都","city":"杉並区","address":"杉並区荻窪5-17-15","lat":35.703381,"lon":139.618639},{"name":"ゆめの樹保育園おぎくぼ","province":"東京都","city":"杉並区","address":"杉並区荻窪1-3-16","lat":35.691696,"lon":139.619592},{"name":"荻窪りとるぱんぷきんず","province":"東京都","city":"杉並区","address":"杉並区荻窪3-7-29","lat":35.698251,"lon":139.625045},{"name":"あい・あい保育園荻窪園","province":"東京都","city":"杉並区","address":"杉並区荻窪5-15-21トライアード2階","lat":35.703292,"lon":139.616548},{"name":"荻窪保育園","province":"東京都","city":"杉並区","address":"杉並区南荻窪2-25-17","lat":35.698665,"lon":139.612543},{"name":"にじいろ保育園南荻窪","province":"東京都","city":"杉並区","address":"杉並区南荻窪2-33-5","lat":35.699884,"lon":139.608479},{"name":"小学館アカデミーにしおぎ南保育園","province":"東京都","city":"杉並区","address":"杉並区西荻南4-14-4","lat":35.701225,"lon":139.604521},{"name":"アスク西荻南保育園","province":"東京都","city":"杉並区","address":"杉並区西荻南1-6-3","lat":35.696865,"lon":139.600416},{"name":"松庵保育園","province":"東京都","city":"杉並区","address":"杉並区松庵2-23-34","lat":35.699592,"lon":139.593269},{"name":"保育センターこどもの木かげ野のはな空のとり保育園","province":"東京都","city":"杉並区","address":"杉並区松庵1-9-33","lat":35.69442,"lon":139.592417},{"name":"グローバルキッズ松庵園","province":"東京都","city":"杉並区","address":"杉並区松庵2-23-6","lat":35.699645,"lon":139.592864},{"name":"大宮保育園","province":"東京都","city":"杉並区","address":"杉並区大宮2-16-16","lat":35.683237,"lon":139.636178},{"name":"Ｐｉｃｏナーサリ和田堀公園","province":"東京都","city":"杉並区","address":"杉並区大宮1-20-22","lat":35.686289,"lon":139.645129},{"name":"方南隣保館保育園","province":"東京都","city":"杉並区","address":"杉並区方南1-4-7","lat":35.674533,"lon":139.66057},{"name":"ポピンズナーサリースクール方南町","province":"東京都","city":"杉並区","address":"杉並区方南2-14-1","lat":35.683532,"lon":139.659092},{"name":"和泉保育園","province":"東京都","city":"杉並区","address":"杉並区和泉4-16-22","lat":35.679362,"lon":139.649943},{"name":"ベネッセ杉並和泉保育園","province":"東京都","city":"杉並区","address":"杉並区和泉2-32-6","lat":35.674385,"lon":139.65449},{"name":"和泉ここわ保育園","province":"東京都","city":"杉並区","address":"杉並区和泉2-17-5","lat":35.674152,"lon":139.648138},{"name":"うぃず杉並和泉保育園","province":"東京都","city":"杉並区","address":"杉並区和泉2-42-12","lat":35.677107,"lon":139.652293},{"name":"永福ここわ保育園","province":"東京都","city":"杉並区","address":"杉並区和泉2-23-4","lat":35.673908,"lon":139.651743},{"name":"永福南保育園","province":"東京都","city":"杉並区","address":"杉並区永福2-6-12","lat":35.67171,"lon":139.639397},{"name":"永福北保育園","province":"東京都","city":"杉並区","address":"杉並区永福4-25-4","lat":35.680681,"lon":139.641238},{"name":"日生永福町駅前保育園ひびき","province":"東京都","city":"杉並区","address":"杉並区永福2-54-8","lat":35.676332,"lon":139.641761},{"name":"ラ・プリマブランカえいふく","province":"東京都","city":"杉並区","address":"杉並区永福2-17-12","lat":35.67298,"lon":139.640222},{"name":"浜田山保育園","province":"東京都","city":"杉並区","address":"杉並区浜田山4-18-31","lat":35.687355,"lon":139.625939},{"name":"杉並の家保育園","province":"東京都","city":"杉並区","address":"杉並区浜田山4-31-5","lat":35.683886,"lon":139.632658},{"name":"杉並の家ちゅうりっぷ保育園","province":"東京都","city":"杉並区","address":"杉並区浜田山2-23-13","lat":35.680701,"lon":139.628803},{"name":"杉並の家ことり保育園","province":"東京都","city":"杉並区","address":"杉並区浜田山4-9-15","lat":35.683409,"lon":139.632883},{"name":"高井戸保育園","province":"東京都","city":"杉並区","address":"杉並区高井戸西1-31-3","lat":35.683028,"lon":139.613699},{"name":"まなびの森保育園高井戸","province":"東京都","city":"杉並区","address":"杉並区高井戸西1-9-4","lat":35.679411,"lon":139.610591},{"name":"高井戸東保育園","province":"東京都","city":"杉並区","address":"杉並区高井戸東3-14-9","lat":35.683325,"lon":139.624562},{"name":"上水保育園","province":"東京都","city":"杉並区","address":"杉並区高井戸東2-3-4","lat":35.677351,"lon":139.615888},{"name":"杉並たかいどいちご保育園","province":"東京都","city":"杉並区","address":"杉並区高井戸東4-5-7","lat":35.688158,"lon":139.619537},{"name":"下高井戸保育園","province":"東京都","city":"杉並区","address":"杉並区下高井戸3-31-11","lat":35.674543,"lon":139.631492},{"name":"杉並大宙みたけ保育園","province":"東京都","city":"杉並区","address":"杉並区上高井戸2-12-30","lat":35.677811,"lon":139.60878},{"name":"大宮前保育園","province":"東京都","city":"杉並区","address":"杉並区宮前5-19-8","lat":35.694768,"lon":139.60123},{"name":"宮前保育園","province":"東京都","city":"杉並区","address":"杉並区宮前2-24-38","lat":35.693138,"lon":139.614643},{"name":"アウル宮前保育園","province":"東京都","city":"杉並区","address":"杉並区宮前2-11-11","lat":35.692782,"lon":139.610229},{"name":"宮前おおぞら保育園","province":"東京都","city":"杉並区","address":"杉並区宮前2-24-22","lat":35.693415,"lon":139.614584},{"name":"上高井戸保育園","province":"東京都","city":"杉並区","address":"杉並区久我山1-4-15","lat":35.68253,"lon":139.599778},{"name":"久我山東保育園","province":"東京都","city":"杉並区","address":"杉並区久我山5-24-19","lat":35.68788,"lon":139.607674},{"name":"久我山保育園","province":"東京都","city":"杉並区","address":"杉並区久我山5-8-8","lat":35.68841,"lon":139.601491},{"name":"Ｐｉｃｏナーサリ久我山","province":"東京都","city":"杉並区","address":"杉並区久我山3-37-24","lat":35.688846,"lon":139.596942},{"name":"Ｐｉｃｏナーサリ久我山駅前","province":"東京都","city":"杉並区","address":"杉並区久我山4-2-15","lat":35.688949,"lon":139.598439},{"name":"あい保育園久我山","province":"東京都","city":"杉並区","address":"杉並区久我山5-28-13","lat":35.688577,"lon":139.606171},{"name":"ポピンズナーサリースクール久我山","province":"東京都","city":"杉並区","address":"杉並区久我山5-12-23","lat":35.687757,"lon":139.605391}]}