{"keyword":"児童","data":[{"name":"聖友学園","province":"東京都","city":"杉並区","address":"杉並区阿佐谷北3-28-19","lat":35.71104,"lon":139.63322},{"name":"救世軍世光寮","province":"東京都","city":"杉並区","address":"杉並区和田2-21-1","lat":35.69022,"lon":139.65883},{"name":"カリタスの園小百合の寮","province":"東京都","city":"杉並区","address":"杉並区井草4-19-28","lat":35.72827,"lon":139.61285},{"name":"東京家庭学校","province":"東京都","city":"杉並区","address":"杉並区高井戸東2-3-4","lat":35.67764,"lon":139.61531},{"name":"杉並学園","province":"東京都","city":"杉並区","address":"杉並区宮前3-10-8","lat":35.69553,"lon":139.60468},{"name":"聖友学園","province":"東京都","city":"杉並区","address":"杉並区阿佐谷北3-28-19","lat":35.711122,"lon":139.633382},{"name":"救世軍世光寮","province":"東京都","city":"杉並区","address":"杉並区和田2-21-1","lat":35.689964,"lon":139.659295},{"name":"カリタスの園小百合の寮","province":"東京都","city":"杉並区","address":"杉並区井草4-19-28","lat":35.728098,"lon":139.613394},{"name":"東京家庭学校","province":"東京都","city":"杉並区","address":"杉並区高井戸東2-3-4","lat":35.677351,"lon":139.615888},{"name":"杉並学園","province":"東京都","city":"杉並区","address":"杉並区宮前3-10-8","lat":35.695229,"lon":139.604432}]}