{"keyword":"区","data":[{"name":"杉並保健所（健康推進課）","province":"東京都","city":"杉並区","address":"杉並区荻窪5-20-1","lat":35.702253,"lon":139.620192},{"name":"杉並保健所（生活衛生課）","province":"東京都","city":"杉並区","address":"杉並区荻窪5-20-1","lat":35.702253,"lon":139.620192},{"name":"杉並保健所（保健予防課）","province":"東京都","city":"杉並区","address":"杉並区荻窪5-20-1","lat":35.702253,"lon":139.620192},{"name":"荻窪保健センター","province":"東京都","city":"杉並区","address":"杉並区荻窪5-20-1","lat":35.702253,"lon":139.620192},{"name":"高井戸保健センター","province":"東京都","city":"杉並区","address":"杉並区高井戸東3-20-3","lat":35.684972,"lon":139.620229},{"name":"高円寺保健センター","province":"東京都","city":"杉並区","address":"杉並区高円寺南3-24-15","lat":35.701429,"lon":139.645773},{"name":"上井草保健センター","province":"東京都","city":"杉並区","address":"杉並区上井草3-8-19","lat":35.719048,"lon":139.601429},{"name":"和泉保健センター","province":"東京都","city":"杉並区","address":"杉並区和泉4-50-6","lat":35.682654,"lon":139.655901},{"name":"杉並保健所（健康推進課）","province":"東京都","city":"杉並区","address":"東京都杉並区荻窪5丁目20-1","lat":35.70215612,"lon":139.62026419},{"name":"杉並保健所（生活衛生課）","province":"東京都","city":"杉並区","address":"東京都杉並区荻窪5丁目20-1","lat":35.70215612,"lon":139.62026419},{"name":"杉並保健所（保健予防課）","province":"東京都","city":"杉並区","address":"東京都杉並区荻窪5丁目20-1","lat":35.70215612,"lon":139.62026419},{"name":"荻窪保健センター","province":"東京都","city":"杉並区","address":"東京都杉並区荻窪5丁目20-1","lat":35.70215612,"lon":139.62026419},{"name":"高井戸保健センター","province":"東京都","city":"杉並区","address":"東京都杉並区高井戸東3丁目20-3","lat":35.68498036,"lon":139.62020099},{"name":"高円寺保健センター","province":"東京都","city":"杉並区","address":"東京都杉並区高円寺南3丁目24-15","lat":35.70143191,"lon":139.64577879},{"name":"上井草保健センター","province":"東京都","city":"杉並区","address":"東京都杉並区上井草3丁目8-19","lat":35.71903429,"lon":139.60143999},{"name":"和泉保健センター","province":"東京都","city":"杉並区","address":"東京都杉並区和泉4丁目50-6","lat":35.6826539,"lon":139.6559009},{"name":"杉並保健所（健康推進課）","province":"東京都","city":"杉並区","address":"杉並区荻窪5-20-1","lat":35.70236,"lon":139.62022},{"name":"杉並保健所（生活衛生課）","province":"東京都","city":"杉並区","address":"杉並区荻窪5-20-1","lat":35.70236,"lon":139.62022},{"name":"杉並保健所（保健予防課）","province":"東京都","city":"杉並区","address":"杉並区荻窪5-20-1","lat":35.70236,"lon":139.62022},{"name":"荻窪保健センター","province":"東京都","city":"杉並区","address":"杉並区荻窪5-20-1","lat":35.70236,"lon":139.62022},{"name":"高井戸保健センター","province":"東京都","city":"杉並区","address":"杉並区高井戸東3-20-3","lat":35.68507,"lon":139.62036},{"name":"高円寺保健センター","province":"東京都","city":"杉並区","address":"杉並区高円寺南3-24-15","lat":35.70125,"lon":139.64597},{"name":"上井草保健センター","province":"東京都","city":"杉並区","address":"杉並区上井草3-8-19","lat":35.71889,"lon":139.6013},{"name":"和泉保健センター","province":"東京都","city":"杉並区","address":"杉並区和泉4-50-6","lat":35.68291,"lon":139.65593}]}