{"keyword":"収蔵","data":[{"name":"杉並浄水所","province":"東京都","city":"杉並区","address":"東京都杉並区善福寺3-28-5","lat":35.715126,"lon":139.588683},{"name":"和泉水圧調整所","province":"東京都","city":"杉並区","address":"東京都杉並区和泉2-5-23","lat":35.671071,"lon":139.652962},{"name":"上井草給水所","province":"東京都","city":"杉並区","address":"東京都杉並区上井草3-22-12","lat":35.7216352,"lon":139.601235},{"name":"都立和田堀公園","province":"東京都","city":"杉並区","address":"東京都杉並区大宮2-26","lat":35.6849095,"lon":139.6415107},{"name":"区立蚕糸の森公園","province":"東京都","city":"杉並区","address":"東京都杉並区和田3-55","lat":35.69637,"lon":139.65699},{"name":"区立昭栄公園","province":"東京都","city":"杉並区","address":"東京都杉並区高井戸西1-12","lat":35.680084,"lon":139.6083509},{"name":"区立井草森公園","province":"東京都","city":"杉並区","address":"東京都杉並区井草4-12-1","lat":35.7269509,"lon":139.6117369},{"name":"区立馬橋公園","province":"東京都","city":"杉並区","address":"東京都杉並区高円寺北4-35-5","lat":35.709583,"lon":139.643056},{"name":"都立善福寺川緑地","province":"東京都","city":"杉並区","address":"東京都杉並区成田西3-14","lat":35.692188,"lon":139.628662},{"name":"医療法人財団荻窪病院","province":"東京都","city":"杉並区","address":"東京都杉並区今川3丁目1-24","lat":35.71524321,"lon":139.607323},{"name":"杉並浄水所","province":"東京都","city":"杉並区","address":"東京都杉並区善福寺3丁目28-5","lat":35.71512328,"lon":139.58868285},{"name":"和泉水圧調整所","province":"東京都","city":"杉並区","address":"東京都杉並区和泉2丁目5-23","lat":35.67117459,"lon":139.6530821},{"name":"上井草給水所","province":"東京都","city":"杉並区","address":"東京都杉並区上井草3丁目22-12","lat":35.72163399,"lon":139.60123435},{"name":"区立蚕糸の森公園","province":"東京都","city":"杉並区","address":"東京都杉並区和田3丁目55","lat":35.69724103,"lon":139.65698631},{"name":"区立昭栄公園","province":"東京都","city":"杉並区","address":"東京都杉並区高井戸西1丁目12","lat":35.68102216,"lon":139.60876867},{"name":"区立井草森公園","province":"東京都","city":"杉並区","address":"東京都杉並区下井草4丁目12-14","lat":35.71990697,"lon":139.62165216},{"name":"区立馬橋公園","province":"東京都","city":"杉並区","address":"東京都杉並区高円寺北4丁目35-5","lat":35.7096309,"lon":139.64303976},{"name":"荻窪病院","province":"東京都","city":"杉並区","address":"東京都杉並区今川3丁目1-24","lat":35.71524321,"lon":139.607323},{"name":"都立和田掘公園陸上競技場","province":"東京都","city":"杉並区","address":"東京都杉並区大宮1丁目6","lat":35.68397002,"lon":139.64332973},{"name":"済美山運動場広場","province":"東京都","city":"杉並区","address":"東京都杉並区堀ノ内1丁目15","lat":35.68507832,"lon":139.64686271},{"name":"ＮＨＫ旧富士見ヶ丘運動場","province":"東京都","city":"杉並区","address":"東京都杉並区久我山2丁目2-1","lat":35.68135258,"lon":139.60559113},{"name":"杉並区立柏の宮公園","province":"東京都","city":"杉並区","address":"東京都杉並区浜田山2丁目5-1","lat":35.67749532,"lon":139.62648411},{"name":"杉並区立井草森公園","province":"東京都","city":"杉並区","address":"東京都杉並区下井草4丁目12-14","lat":35.71990697,"lon":139.62165216},{"name":"杉並区","province":"東京都","city":"杉並区","address":"杉並区荻窪4-21-17","lat":35.70351,"lon":139.6225},{"name":"（株）千代田","province":"東京都","city":"杉並区","address":"杉並区南荻窪3-29-12","lat":35.7039,"lon":139.6101},{"name":"杉並浄水所","province":"東京都","city":"杉並区","address":"東京都杉並区善福寺3-28-5","lat":35.715126,"lon":139.588683},{"name":"和泉水圧調整所","province":"東京都","city":"杉並区","address":"東京都杉並区和泉2-5-23","lat":35.671071,"lon":139.652962},{"name":"上井草給水所","province":"東京都","city":"杉並区","address":"東京都杉並区上井草3-22-12","lat":35.7216352,"lon":139.601235},{"name":"都立和田堀公園","province":"東京都","city":"杉並区","address":"東京都杉並区大宮2-26","lat":35.6849095,"lon":139.6415107},{"name":"区立蚕糸の森公園","province":"東京都","city":"杉並区","address":"東京都杉並区和田3-55","lat":35.69637,"lon":139.65699},{"name":"区立昭栄公園","province":"東京都","city":"杉並区","address":"東京都杉並区高井戸西1-12","lat":35.680084,"lon":139.6083509},{"name":"区立井草森公園","province":"東京都","city":"杉並区","address":"東京都杉並区井草4-12-1","lat":35.7269509,"lon":139.6117369},{"name":"区立馬橋公園","province":"東京都","city":"杉並区","address":"東京都杉並区高円寺北4-35-5","lat":35.709583,"lon":139.643056},{"name":"都立善福寺川緑地","province":"東京都","city":"杉並区","address":"東京都杉並区成田西3-14","lat":35.692188,"lon":139.628662},{"name":"医療法人財団荻窪病院","province":"東京都","city":"杉並区","address":"東京都杉並区今川3丁目1-24","lat":35.71524321,"lon":139.607323},{"name":"杉並浄水所","province":"東京都","city":"杉並区","address":"東京都杉並区善福寺3丁目28-5","lat":35.71512328,"lon":139.58868285},{"name":"和泉水圧調整所","province":"東京都","city":"杉並区","address":"東京都杉並区和泉2丁目5-23","lat":35.67117459,"lon":139.6530821},{"name":"上井草給水所","province":"東京都","city":"杉並区","address":"東京都杉並区上井草3丁目22-12","lat":35.72163399,"lon":139.60123435},{"name":"区立蚕糸の森公園","province":"東京都","city":"杉並区","address":"東京都杉並区和田3丁目55","lat":35.69724103,"lon":139.65698631},{"name":"区立昭栄公園","province":"東京都","city":"杉並区","address":"東京都杉並区高井戸西1丁目12","lat":35.68102216,"lon":139.60876867},{"name":"区立井草森公園","province":"東京都","city":"杉並区","address":"東京都杉並区下井草4丁目12-14","lat":35.71990697,"lon":139.62165216},{"name":"区立馬橋公園","province":"東京都","city":"杉並区","address":"東京都杉並区高円寺北4丁目35-5","lat":35.7096309,"lon":139.64303976},{"name":"荻窪病院","province":"東京都","city":"杉並区","address":"東京都杉並区今川3丁目1-24","lat":35.71524321,"lon":139.607323},{"name":"都立和田掘公園陸上競技場","province":"東京都","city":"杉並区","address":"東京都杉並区大宮1丁目6","lat":35.68397002,"lon":139.64332973},{"name":"済美山運動場広場","province":"東京都","city":"杉並区","address":"東京都杉並区堀ノ内1丁目15","lat":35.68507832,"lon":139.64686271},{"name":"ＮＨＫ旧富士見ヶ丘運動場","province":"東京都","city":"杉並区","address":"東京都杉並区久我山2丁目2-1","lat":35.68135258,"lon":139.60559113},{"name":"杉並区立柏の宮公園","province":"東京都","city":"杉並区","address":"東京都杉並区浜田山2丁目5-1","lat":35.67749532,"lon":139.62648411},{"name":"杉並区立井草森公園","province":"東京都","city":"杉並区","address":"東京都杉並区下井草4丁目12-14","lat":35.71990697,"lon":139.62165216},{"name":"杉並区","province":"東京都","city":"杉並区","address":"杉並区荻窪4-21-17","lat":35.70351,"lon":139.6225},{"name":"（株）千代田","province":"東京都","city":"杉並区","address":"杉並区南荻窪3-29-12","lat":35.7039,"lon":139.6101},{"name":"杉並浄水所","province":"東京都","city":"杉並区","address":"東京都杉並区善福寺3-28-5","lat":35.715126,"lon":139.588683},{"name":"和泉水圧調整所","province":"東京都","city":"杉並区","address":"東京都杉並区和泉2-5-23","lat":35.671071,"lon":139.652962},{"name":"上井草給水所","province":"東京都","city":"杉並区","address":"東京都杉並区上井草3-22-12","lat":35.7216352,"lon":139.601235},{"name":"都立和田堀公園","province":"東京都","city":"杉並区","address":"東京都杉並区大宮2-26","lat":35.6849095,"lon":139.6415107},{"name":"区立蚕糸の森公園","province":"東京都","city":"杉並区","address":"東京都杉並区和田3-55","lat":35.69637,"lon":139.65699},{"name":"区立昭栄公園","province":"東京都","city":"杉並区","address":"東京都杉並区高井戸西1-12","lat":35.680084,"lon":139.6083509},{"name":"区立井草森公園","province":"東京都","city":"杉並区","address":"東京都杉並区井草4-12-1","lat":35.7269509,"lon":139.6117369},{"name":"区立馬橋公園","province":"東京都","city":"杉並区","address":"東京都杉並区高円寺北4-35-5","lat":35.709583,"lon":139.643056},{"name":"都立善福寺川緑地","province":"東京都","city":"杉並区","address":"東京都杉並区成田西3-14","lat":35.692188,"lon":139.628662},{"name":"医療法人財団荻窪病院","province":"東京都","city":"杉並区","address":"東京都杉並区今川3丁目1-24","lat":35.71524321,"lon":139.607323},{"name":"杉並浄水所","province":"東京都","city":"杉並区","address":"東京都杉並区善福寺3丁目28-5","lat":35.71512328,"lon":139.58868285},{"name":"和泉水圧調整所","province":"東京都","city":"杉並区","address":"東京都杉並区和泉2丁目5-23","lat":35.67117459,"lon":139.6530821},{"name":"上井草給水所","province":"東京都","city":"杉並区","address":"東京都杉並区上井草3丁目22-12","lat":35.72163399,"lon":139.60123435},{"name":"区立蚕糸の森公園","province":"東京都","city":"杉並区","address":"東京都杉並区和田3丁目55","lat":35.69724103,"lon":139.65698631},{"name":"区立昭栄公園","province":"東京都","city":"杉並区","address":"東京都杉並区高井戸西1丁目12","lat":35.68102216,"lon":139.60876867},{"name":"区立井草森公園","province":"東京都","city":"杉並区","address":"東京都杉並区下井草4丁目12-14","lat":35.71990697,"lon":139.62165216},{"name":"区立馬橋公園","province":"東京都","city":"杉並区","address":"東京都杉並区高円寺北4丁目35-5","lat":35.7096309,"lon":139.64303976},{"name":"荻窪病院","province":"東京都","city":"杉並区","address":"東京都杉並区今川3丁目1-24","lat":35.71524321,"lon":139.607323},{"name":"都立和田掘公園陸上競技場","province":"東京都","city":"杉並区","address":"東京都杉並区大宮1丁目6","lat":35.68397002,"lon":139.64332973},{"name":"済美山運動場広場","province":"東京都","city":"杉並区","address":"東京都杉並区堀ノ内1丁目15","lat":35.68507832,"lon":139.64686271},{"name":"ＮＨＫ旧富士見ヶ丘運動場","province":"東京都","city":"杉並区","address":"東京都杉並区久我山2丁目2-1","lat":35.68135258,"lon":139.60559113},{"name":"杉並区立柏の宮公園","province":"東京都","city":"杉並区","address":"東京都杉並区浜田山2丁目5-1","lat":35.67749532,"lon":139.62648411},{"name":"杉並区立井草森公園","province":"東京都","city":"杉並区","address":"東京都杉並区下井草4丁目12-14","lat":35.71990697,"lon":139.62165216},{"name":"杉並区","province":"東京都","city":"杉並区","address":"杉並区荻窪4-21-17","lat":35.70351,"lon":139.6225},{"name":"（株）千代田","province":"東京都","city":"杉並区","address":"杉並区南荻窪3-29-12","lat":35.7039,"lon":139.6101},{"name":"杉並浄水所","province":"東京都","city":"杉並区","address":"東京都杉並区善福寺3-28-5","lat":35.715126,"lon":139.588683},{"name":"和泉水圧調整所","province":"東京都","city":"杉並区","address":"東京都杉並区和泉2-5-23","lat":35.671071,"lon":139.652962},{"name":"上井草給水所","province":"東京都","city":"杉並区","address":"東京都杉並区上井草3-22-12","lat":35.7216352,"lon":139.601235},{"name":"都立和田堀公園","province":"東京都","city":"杉並区","address":"東京都杉並区大宮2-26","lat":35.6849095,"lon":139.6415107},{"name":"区立蚕糸の森公園","province":"東京都","city":"杉並区","address":"東京都杉並区和田3-55","lat":35.69637,"lon":139.65699},{"name":"区立昭栄公園","province":"東京都","city":"杉並区","address":"東京都杉並区高井戸西1-12","lat":35.680084,"lon":139.6083509},{"name":"区立井草森公園","province":"東京都","city":"杉並区","address":"東京都杉並区井草4-12-1","lat":35.7269509,"lon":139.6117369},{"name":"区立馬橋公園","province":"東京都","city":"杉並区","address":"東京都杉並区高円寺北4-35-5","lat":35.709583,"lon":139.643056},{"name":"都立善福寺川緑地","province":"東京都","city":"杉並区","address":"東京都杉並区成田西3-14","lat":35.692188,"lon":139.628662},{"name":"医療法人財団荻窪病院","province":"東京都","city":"杉並区","address":"東京都杉並区今川3丁目1-24","lat":35.71524321,"lon":139.607323},{"name":"荻窪病院","province":"東京都","city":"杉並区","address":"東京都杉並区今川3丁目1-24","lat":35.71524321,"lon":139.607323},{"name":"都立和田掘公園陸上競技場","province":"東京都","city":"杉並区","address":"東京都杉並区大宮1丁目6","lat":35.68397002,"lon":139.64332973},{"name":"済美山運動場広場","province":"東京都","city":"杉並区","address":"東京都杉並区堀ノ内1丁目15","lat":35.68507832,"lon":139.64686271},{"name":"ＮＨＫ旧富士見ヶ丘運動場","province":"東京都","city":"杉並区","address":"東京都杉並区久我山2丁目2-1","lat":35.68135258,"lon":139.60559113},{"name":"杉並区立柏の宮公園","province":"東京都","city":"杉並区","address":"東京都杉並区浜田山2丁目5-1","lat":35.67749532,"lon":139.62648411},{"name":"杉並区立井草森公園","province":"東京都","city":"杉並区","address":"東京都杉並区下井草4丁目12-14","lat":35.71990697,"lon":139.62165216},{"name":"杉並区","province":"東京都","city":"杉並区","address":"杉並区荻窪4-21-17","lat":35.70351,"lon":139.6225},{"name":"（株）千代田","province":"東京都","city":"杉並区","address":"杉並区南荻窪3-29-12","lat":35.7039,"lon":139.6101},{"name":"杉並浄水所","province":"東京都","city":"杉並区","address":"東京都杉並区善福寺3-28-5","lat":35.715126,"lon":139.588683},{"name":"和泉水圧調整所","province":"東京都","city":"杉並区","address":"東京都杉並区和泉2-5-23","lat":35.671071,"lon":139.652962},{"name":"上井草給水所","province":"東京都","city":"杉並区","address":"東京都杉並区上井草3-22-12","lat":35.7216352,"lon":139.601235},{"name":"都立和田堀公園","province":"東京都","city":"杉並区","address":"東京都杉並区大宮2-26","lat":35.6849095,"lon":139.6415107},{"name":"区立蚕糸の森公園","province":"東京都","city":"杉並区","address":"東京都杉並区和田3-55","lat":35.69637,"lon":139.65699},{"name":"区立昭栄公園","province":"東京都","city":"杉並区","address":"東京都杉並区高井戸西1-12","lat":35.680084,"lon":139.6083509},{"name":"区立井草森公園","province":"東京都","city":"杉並区","address":"東京都杉並区井草4-12-1","lat":35.7269509,"lon":139.6117369},{"name":"区立馬橋公園","province":"東京都","city":"杉並区","address":"東京都杉並区高円寺北4-35-5","lat":35.709583,"lon":139.643056},{"name":"都立善福寺川緑地","province":"東京都","city":"杉並区","address":"東京都杉並区成田西3-14","lat":35.692188,"lon":139.628662},{"name":"医療法人財団荻窪病院","province":"東京都","city":"杉並区","address":"東京都杉並区今川3丁目1-24","lat":35.71524321,"lon":139.607323},{"name":"荻窪病院","province":"東京都","city":"杉並区","address":"東京都杉並区今川3丁目1-24","lat":35.71524321,"lon":139.607323},{"name":"杉並区","province":"東京都","city":"杉並区","address":"杉並区荻窪4-21-17","lat":35.70351,"lon":139.6225},{"name":"（株）千代田","province":"東京都","city":"杉並区","address":"杉並区南荻窪3-29-12","lat":35.7039,"lon":139.6101},{"name":"杉並浄水所","province":"東京都","city":"杉並区","address":"東京都杉並区善福寺3-28-5","lat":35.715126,"lon":139.588683},{"name":"和泉水圧調整所","province":"東京都","city":"杉並区","address":"東京都杉並区和泉2-5-23","lat":35.671071,"lon":139.652962},{"name":"上井草給水所","province":"東京都","city":"杉並区","address":"東京都杉並区上井草3-22-12","lat":35.7216352,"lon":139.601235},{"name":"都立和田堀公園","province":"東京都","city":"杉並区","address":"東京都杉並区大宮2-26","lat":35.6849095,"lon":139.6415107},{"name":"区立蚕糸の森公園","province":"東京都","city":"杉並区","address":"東京都杉並区和田3-55","lat":35.69637,"lon":139.65699},{"name":"区立昭栄公園","province":"東京都","city":"杉並区","address":"東京都杉並区高井戸西1-12","lat":35.680084,"lon":139.6083509},{"name":"区立井草森公園","province":"東京都","city":"杉並区","address":"東京都杉並区井草4-12-1","lat":35.7269509,"lon":139.6117369},{"name":"区立馬橋公園","province":"東京都","city":"杉並区","address":"東京都杉並区高円寺北4-35-5","lat":35.709583,"lon":139.643056},{"name":"都立善福寺川緑地","province":"東京都","city":"杉並区","address":"東京都杉並区成田西3-14","lat":35.692188,"lon":139.628662},{"name":"医療法人財団荻窪病院","province":"東京都","city":"杉並区","address":"東京都杉並区今川3丁目1-24","lat":35.71524321,"lon":139.607323},{"name":"荻窪病院","province":"東京都","city":"杉並区","address":"東京都杉並区今川3丁目1-24","lat":35.71524321,"lon":139.607323},{"name":"杉並区","province":"東京都","city":"杉並区","address":"杉並区荻窪4-21-17","lat":35.70351,"lon":139.6225},{"name":"（株）千代田","province":"東京都","city":"杉並区","address":"杉並区南荻窪3-29-12","lat":35.7039,"lon":139.6101},{"name":"杉並浄水所","province":"東京都","city":"杉並区","address":"東京都杉並区善福寺3-28-5","lat":35.715126,"lon":139.588683},{"name":"和泉水圧調整所","province":"東京都","city":"杉並区","address":"東京都杉並区和泉2-5-23","lat":35.671071,"lon":139.652962},{"name":"上井草給水所","province":"東京都","city":"杉並区","address":"東京都杉並区上井草3-22-12","lat":35.7216352,"lon":139.601235},{"name":"都立和田堀公園","province":"東京都","city":"杉並区","address":"東京都杉並区大宮2-26","lat":35.6849095,"lon":139.6415107},{"name":"区立蚕糸の森公園","province":"東京都","city":"杉並区","address":"東京都杉並区和田3-55","lat":35.69637,"lon":139.65699},{"name":"区立昭栄公園","province":"東京都","city":"杉並区","address":"東京都杉並区高井戸西1-12","lat":35.680084,"lon":139.6083509},{"name":"区立井草森公園","province":"東京都","city":"杉並区","address":"東京都杉並区井草4-12-1","lat":35.7269509,"lon":139.6117369},{"name":"区立馬橋公園","province":"東京都","city":"杉並区","address":"東京都杉並区高円寺北4-35-5","lat":35.709583,"lon":139.643056},{"name":"都立善福寺川緑地","province":"東京都","city":"杉並区","address":"東京都杉並区成田西3-14","lat":35.692188,"lon":139.628662},{"name":"医療法人財団荻窪病院","province":"東京都","city":"杉並区","address":"東京都杉並区今川3丁目1-24","lat":35.71524321,"lon":139.607323},{"name":"荻窪病院","province":"東京都","city":"杉並区","address":"東京都杉並区今川3丁目1-24","lat":35.71524321,"lon":139.607323},{"name":"杉並区","province":"東京都","city":"杉並区","address":"杉並区荻窪4-21-17","lat":35.70351,"lon":139.6225},{"name":"（株）千代田","province":"東京都","city":"杉並区","address":"杉並区南荻窪3-29-12","lat":35.7039,"lon":139.6101},{"name":"杉並浄水所","province":"東京都","city":"杉並区","address":"東京都杉並区善福寺3-28-5","lat":35.715126,"lon":139.588683},{"name":"和泉水圧調整所","province":"東京都","city":"杉並区","address":"東京都杉並区和泉2-5-23","lat":35.671071,"lon":139.652962},{"name":"上井草給水所","province":"東京都","city":"杉並区","address":"東京都杉並区上井草3-22-12","lat":35.7216352,"lon":139.601235},{"name":"都立和田堀公園","province":"東京都","city":"杉並区","address":"東京都杉並区大宮2-26","lat":35.6849095,"lon":139.6415107},{"name":"区立蚕糸の森公園","province":"東京都","city":"杉並区","address":"東京都杉並区和田3-55","lat":35.69637,"lon":139.65699},{"name":"区立昭栄公園","province":"東京都","city":"杉並区","address":"東京都杉並区高井戸西1-12","lat":35.680084,"lon":139.6083509},{"name":"区立井草森公園","province":"東京都","city":"杉並区","address":"東京都杉並区井草4-12-1","lat":35.7269509,"lon":139.6117369},{"name":"区立馬橋公園","province":"東京都","city":"杉並区","address":"東京都杉並区高円寺北4-35-5","lat":35.709583,"lon":139.643056},{"name":"都立善福寺川緑地","province":"東京都","city":"杉並区","address":"東京都杉並区成田西3-14","lat":35.692188,"lon":139.628662},{"name":"医療法人財団荻窪病院","province":"東京都","city":"杉並区","address":"東京都杉並区今川3丁目1-24","lat":35.71524321,"lon":139.607323},{"name":"荻窪病院","province":"東京都","city":"杉並区","address":"東京都杉並区今川3丁目1-24","lat":35.71524321,"lon":139.607323},{"name":"杉並区","province":"東京都","city":"杉並区","address":"杉並区荻窪4-21-17","lat":35.70351,"lon":139.6225},{"name":"（株）千代田","province":"東京都","city":"杉並区","address":"杉並区南荻窪3-29-12","lat":35.7039,"lon":139.6101},{"name":"杉並浄水所","province":"東京都","city":"杉並区","address":"東京都杉並区善福寺3-28-5","lat":35.715126,"lon":139.588683},{"name":"和泉水圧調整所","province":"東京都","city":"杉並区","address":"東京都杉並区和泉2-5-23","lat":35.671071,"lon":139.652962},{"name":"上井草給水所","province":"東京都","city":"杉並区","address":"東京都杉並区上井草3-22-12","lat":35.7216352,"lon":139.601235},{"name":"都立和田堀公園","province":"東京都","city":"杉並区","address":"東京都杉並区大宮2-26","lat":35.6849095,"lon":139.6415107},{"name":"区立蚕糸の森公園","province":"東京都","city":"杉並区","address":"東京都杉並区和田3-55","lat":35.69637,"lon":139.65699},{"name":"区立昭栄公園","province":"東京都","city":"杉並区","address":"東京都杉並区高井戸西1-12","lat":35.680084,"lon":139.6083509},{"name":"区立井草森公園","province":"東京都","city":"杉並区","address":"東京都杉並区井草4-12-1","lat":35.7269509,"lon":139.6117369},{"name":"区立馬橋公園","province":"東京都","city":"杉並区","address":"東京都杉並区高円寺北4-35-5","lat":35.709583,"lon":139.643056},{"name":"都立善福寺川緑地","province":"東京都","city":"杉並区","address":"東京都杉並区成田西3-14","lat":35.692188,"lon":139.628662},{"name":"医療法人財団荻窪病院","province":"東京都","city":"杉並区","address":"東京都杉並区今川3丁目1-24","lat":35.71524321,"lon":139.607323},{"name":"荻窪病院","province":"東京都","city":"杉並区","address":"東京都杉並区今川3丁目1-24","lat":35.71524321,"lon":139.607323},{"name":"杉並区","province":"東京都","city":"杉並区","address":"杉並区荻窪4-21-17","lat":35.70351,"lon":139.6225},{"name":"（株）千代田","province":"東京都","city":"杉並区","address":"杉並区南荻窪3-29-12","lat":35.7039,"lon":139.6101},{"name":"杉並浄水所","province":"東京都","city":"杉並区","address":"東京都杉並区善福寺3-28-5","lat":35.715126,"lon":139.588683},{"name":"和泉水圧調整所","province":"東京都","city":"杉並区","address":"東京都杉並区和泉2-5-23","lat":35.671071,"lon":139.652962},{"name":"上井草給水所","province":"東京都","city":"杉並区","address":"東京都杉並区上井草3-22-12","lat":35.7216352,"lon":139.601235},{"name":"都立和田堀公園","province":"東京都","city":"杉並区","address":"東京都杉並区大宮2-26","lat":35.6849095,"lon":139.6415107},{"name":"区立蚕糸の森公園","province":"東京都","city":"杉並区","address":"東京都杉並区和田3-55","lat":35.69637,"lon":139.65699},{"name":"区立昭栄公園","province":"東京都","city":"杉並区","address":"東京都杉並区高井戸西1-12","lat":35.680084,"lon":139.6083509},{"name":"区立井草森公園","province":"東京都","city":"杉並区","address":"東京都杉並区井草4-12-1","lat":35.7269509,"lon":139.6117369},{"name":"区立馬橋公園","province":"東京都","city":"杉並区","address":"東京都杉並区高円寺北4-35-5","lat":35.709583,"lon":139.643056},{"name":"都立善福寺川緑地","province":"東京都","city":"杉並区","address":"東京都杉並区成田西3-14","lat":35.692188,"lon":139.628662},{"name":"医療法人財団荻窪病院","province":"東京都","city":"杉並区","address":"東京都杉並区今川3丁目1-24","lat":35.71524321,"lon":139.607323},{"name":"荻窪病院","province":"東京都","city":"杉並区","address":"東京都杉並区今川3丁目1-24","lat":35.71524321,"lon":139.607323},{"name":"杉並区","province":"東京都","city":"杉並区","address":"杉並区荻窪4-21-17","lat":35.70351,"lon":139.6225},{"name":"（株）千代田","province":"東京都","city":"杉並区","address":"杉並区南荻窪3-29-12","lat":35.7039,"lon":139.6101},{"name":"杉並浄水所","province":"東京都","city":"杉並区","address":"東京都杉並区善福寺3-28-5","lat":35.715126,"lon":139.588683},{"name":"和泉水圧調整所","province":"東京都","city":"杉並区","address":"東京都杉並区和泉2-5-23","lat":35.671071,"lon":139.652962},{"name":"上井草給水所","province":"東京都","city":"杉並区","address":"東京都杉並区上井草3-22-12","lat":35.7216352,"lon":139.601235},{"name":"都立和田堀公園","province":"東京都","city":"杉並区","address":"東京都杉並区大宮2-26","lat":35.6849095,"lon":139.6415107},{"name":"区立蚕糸の森公園","province":"東京都","city":"杉並区","address":"東京都杉並区和田3-55","lat":35.69637,"lon":139.65699},{"name":"区立昭栄公園","province":"東京都","city":"杉並区","address":"東京都杉並区高井戸西1-12","lat":35.680084,"lon":139.6083509},{"name":"区立井草森公園","province":"東京都","city":"杉並区","address":"東京都杉並区井草4-12-1","lat":35.7269509,"lon":139.6117369},{"name":"区立馬橋公園","province":"東京都","city":"杉並区","address":"東京都杉並区高円寺北4-35-5","lat":35.709583,"lon":139.643056},{"name":"都立善福寺川緑地","province":"東京都","city":"杉並区","address":"東京都杉並区成田西3-14","lat":35.692188,"lon":139.628662},{"name":"杉並区","province":"東京都","city":"杉並区","address":"杉並区荻窪4-21-17","lat":35.70351,"lon":139.6225},{"name":"（株）千代田","province":"東京都","city":"杉並区","address":"杉並区南荻窪3-29-12","lat":35.7039,"lon":139.6101},{"name":"杉並浄水所","province":"東京都","city":"杉並区","address":"東京都杉並区善福寺3-28-5","lat":35.715126,"lon":139.588683},{"name":"和泉水圧調整所","province":"東京都","city":"杉並区","address":"東京都杉並区和泉2-5-23","lat":35.671071,"lon":139.652962},{"name":"上井草給水所","province":"東京都","city":"杉並区","address":"東京都杉並区上井草3-22-12","lat":35.7216352,"lon":139.601235},{"name":"都立和田堀公園","province":"東京都","city":"杉並区","address":"東京都杉並区大宮2-26","lat":35.6849095,"lon":139.6415107},{"name":"区立蚕糸の森公園","province":"東京都","city":"杉並区","address":"東京都杉並区和田3-55","lat":35.69637,"lon":139.65699},{"name":"区立昭栄公園","province":"東京都","city":"杉並区","address":"東京都杉並区高井戸西1-12","lat":35.680084,"lon":139.6083509},{"name":"区立井草森公園","province":"東京都","city":"杉並区","address":"東京都杉並区井草4-12-1","lat":35.7269509,"lon":139.6117369},{"name":"区立馬橋公園","province":"東京都","city":"杉並区","address":"東京都杉並区高円寺北4-35-5","lat":35.709583,"lon":139.643056},{"name":"都立善福寺川緑地","province":"東京都","city":"杉並区","address":"東京都杉並区成田西3-14","lat":35.692188,"lon":139.628662},{"name":"杉並区","province":"東京都","city":"杉並区","address":"杉並区荻窪4-21-17","lat":35.70351,"lon":139.6225},{"name":"（株）千代田","province":"東京都","city":"杉並区","address":"杉並区南荻窪3-29-12","lat":35.7039,"lon":139.6101},{"name":"杉並浄水所","province":"東京都","city":"杉並区","address":"東京都杉並区善福寺3-28-5","lat":35.715126,"lon":139.588683},{"name":"和泉水圧調整所","province":"東京都","city":"杉並区","address":"東京都杉並区和泉2-5-23","lat":35.671071,"lon":139.652962},{"name":"上井草給水所","province":"東京都","city":"杉並区","address":"東京都杉並区上井草3-22-12","lat":35.7216352,"lon":139.601235},{"name":"都立和田堀公園","province":"東京都","city":"杉並区","address":"東京都杉並区大宮2-26","lat":35.6849095,"lon":139.6415107},{"name":"区立蚕糸の森公園","province":"東京都","city":"杉並区","address":"東京都杉並区和田3-55","lat":35.69637,"lon":139.65699},{"name":"区立昭栄公園","province":"東京都","city":"杉並区","address":"東京都杉並区高井戸西1-12","lat":35.680084,"lon":139.6083509},{"name":"区立井草森公園","province":"東京都","city":"杉並区","address":"東京都杉並区井草4-12-1","lat":35.7269509,"lon":139.6117369},{"name":"区立馬橋公園","province":"東京都","city":"杉並区","address":"東京都杉並区高円寺北4-35-5","lat":35.709583,"lon":139.643056},{"name":"都立善福寺川緑地","province":"東京都","city":"杉並区","address":"東京都杉並区成田西3-14","lat":35.692188,"lon":139.628662},{"name":"杉並区","province":"東京都","city":"杉並区","address":"杉並区荻窪4-21-17","lat":35.70351,"lon":139.6225},{"name":"（株）千代田","province":"東京都","city":"杉並区","address":"杉並区南荻窪3-29-12","lat":35.7039,"lon":139.6101},{"name":"杉並浄水所","province":"東京都","city":"杉並区","address":"東京都杉並区善福寺3-28-5","lat":35.715126,"lon":139.588683},{"name":"和泉水圧調整所","province":"東京都","city":"杉並区","address":"東京都杉並区和泉2-5-23","lat":35.671071,"lon":139.652962},{"name":"上井草給水所","province":"東京都","city":"杉並区","address":"東京都杉並区上井草3-22-12","lat":35.7216352,"lon":139.601235},{"name":"都立和田堀公園","province":"東京都","city":"杉並区","address":"東京都杉並区大宮2-26","lat":35.6849095,"lon":139.6415107},{"name":"区立蚕糸の森公園","province":"東京都","city":"杉並区","address":"東京都杉並区和田3-55","lat":35.69637,"lon":139.65699},{"name":"区立昭栄公園","province":"東京都","city":"杉並区","address":"東京都杉並区高井戸西1-12","lat":35.680084,"lon":139.6083509},{"name":"区立井草森公園","province":"東京都","city":"杉並区","address":"東京都杉並区井草4-12-1","lat":35.7269509,"lon":139.6117369},{"name":"区立馬橋公園","province":"東京都","city":"杉並区","address":"東京都杉並区高円寺北4-35-5","lat":35.709583,"lon":139.643056},{"name":"都立善福寺川緑地","province":"東京都","city":"杉並区","address":"東京都杉並区成田西3-14","lat":35.692188,"lon":139.628662},{"name":"杉並区","province":"東京都","city":"杉並区","address":"杉並区荻窪4-21-17","lat":35.70351,"lon":139.6225},{"name":"（株）千代田","province":"東京都","city":"杉並区","address":"杉並区南荻窪3-29-12","lat":35.7039,"lon":139.6101},{"name":"杉並浄水所","province":"東京都","city":"杉並区","address":"東京都杉並区善福寺3-28-5","lat":35.715126,"lon":139.588683},{"name":"和泉水圧調整所","province":"東京都","city":"杉並区","address":"東京都杉並区和泉2-5-23","lat":35.671071,"lon":139.652962},{"name":"上井草給水所","province":"東京都","city":"杉並区","address":"東京都杉並区上井草3-22-12","lat":35.7216352,"lon":139.601235},{"name":"都立和田堀公園","province":"東京都","city":"杉並区","address":"東京都杉並区大宮2-26","lat":35.6849095,"lon":139.6415107},{"name":"区立蚕糸の森公園","province":"東京都","city":"杉並区","address":"東京都杉並区和田3-55","lat":35.69637,"lon":139.65699},{"name":"区立昭栄公園","province":"東京都","city":"杉並区","address":"東京都杉並区高井戸西1-12","lat":35.680084,"lon":139.6083509},{"name":"区立井草森公園","province":"東京都","city":"杉並区","address":"東京都杉並区井草4-12-1","lat":35.7269509,"lon":139.6117369},{"name":"区立馬橋公園","province":"東京都","city":"杉並区","address":"東京都杉並区高円寺北4-35-5","lat":35.709583,"lon":139.643056},{"name":"都立善福寺川緑地","province":"東京都","city":"杉並区","address":"東京都杉並区成田西3-14","lat":35.692188,"lon":139.628662},{"name":"杉並区","province":"東京都","city":"杉並区","address":"杉並区荻窪4-21-17","lat":35.70351,"lon":139.6225},{"name":"（株）千代田","province":"東京都","city":"杉並区","address":"杉並区南荻窪3-29-12","lat":35.7039,"lon":139.6101},{"name":"杉並浄水所","province":"東京都","city":"杉並区","address":"東京都杉並区善福寺3-28-5","lat":35.715126,"lon":139.588683},{"name":"和泉水圧調整所","province":"東京都","city":"杉並区","address":"東京都杉並区和泉2-5-23","lat":35.671071,"lon":139.652962},{"name":"上井草給水所","province":"東京都","city":"杉並区","address":"東京都杉並区上井草3-22-12","lat":35.7216352,"lon":139.601235},{"name":"都立和田堀公園","province":"東京都","city":"杉並区","address":"東京都杉並区大宮2-26","lat":35.6849095,"lon":139.6415107},{"name":"区立蚕糸の森公園","province":"東京都","city":"杉並区","address":"東京都杉並区和田3-55","lat":35.69637,"lon":139.65699},{"name":"区立昭栄公園","province":"東京都","city":"杉並区","address":"東京都杉並区高井戸西1-12","lat":35.680084,"lon":139.6083509},{"name":"区立井草森公園","province":"東京都","city":"杉並区","address":"東京都杉並区井草4-12-1","lat":35.7269509,"lon":139.6117369},{"name":"区立馬橋公園","province":"東京都","city":"杉並区","address":"東京都杉並区高円寺北4-35-5","lat":35.709583,"lon":139.643056},{"name":"都立善福寺川緑地","province":"東京都","city":"杉並区","address":"東京都杉並区成田西3-14","lat":35.692188,"lon":139.628662},{"name":"杉並区","province":"東京都","city":"杉並区","address":"杉並区荻窪4-21-17","lat":35.70351,"lon":139.6225},{"name":"（株）千代田","province":"東京都","city":"杉並区","address":"杉並区南荻窪3-29-12","lat":35.7039,"lon":139.6101},{"name":"杉並浄水所","province":"東京都","city":"杉並区","address":"東京都杉並区善福寺3-28-5","lat":35.715126,"lon":139.588683},{"name":"和泉水圧調整所","province":"東京都","city":"杉並区","address":"東京都杉並区和泉2-5-23","lat":35.671071,"lon":139.652962},{"name":"上井草給水所","province":"東京都","city":"杉並区","address":"東京都杉並区上井草3-22-12","lat":35.7216352,"lon":139.601235},{"name":"都立和田堀公園","province":"東京都","city":"杉並区","address":"東京都杉並区大宮2-26","lat":35.6849095,"lon":139.6415107},{"name":"区立蚕糸の森公園","province":"東京都","city":"杉並区","address":"東京都杉並区和田3-55","lat":35.69637,"lon":139.65699},{"name":"区立昭栄公園","province":"東京都","city":"杉並区","address":"東京都杉並区高井戸西1-12","lat":35.680084,"lon":139.6083509},{"name":"区立井草森公園","province":"東京都","city":"杉並区","address":"東京都杉並区井草4-12-1","lat":35.7269509,"lon":139.6117369},{"name":"区立馬橋公園","province":"東京都","city":"杉並区","address":"東京都杉並区高円寺北4-35-5","lat":35.709583,"lon":139.643056},{"name":"都立善福寺川緑地","province":"東京都","city":"杉並区","address":"東京都杉並区成田西3-14","lat":35.692188,"lon":139.628662},{"name":"杉並区","province":"東京都","city":"杉並区","address":"杉並区荻窪4-21-17","lat":35.70351,"lon":139.6225},{"name":"（株）千代田","province":"東京都","city":"杉並区","address":"杉並区南荻窪3-29-12","lat":35.7039,"lon":139.6101},{"name":"杉並浄水所","province":"東京都","city":"杉並区","address":"東京都杉並区善福寺3-28-5","lat":35.715126,"lon":139.588683},{"name":"和泉水圧調整所","province":"東京都","city":"杉並区","address":"東京都杉並区和泉2-5-23","lat":35.671071,"lon":139.652962},{"name":"上井草給水所","province":"東京都","city":"杉並区","address":"東京都杉並区上井草3-22-12","lat":35.7216352,"lon":139.601235},{"name":"都立和田堀公園","province":"東京都","city":"杉並区","address":"東京都杉並区大宮2-26","lat":35.6849095,"lon":139.6415107},{"name":"区立蚕糸の森公園","province":"東京都","city":"杉並区","address":"東京都杉並区和田3-55","lat":35.69637,"lon":139.65699},{"name":"区立昭栄公園","province":"東京都","city":"杉並区","address":"東京都杉並区高井戸西1-12","lat":35.680084,"lon":139.6083509},{"name":"区立井草森公園","province":"東京都","city":"杉並区","address":"東京都杉並区井草4-12-1","lat":35.7269509,"lon":139.6117369},{"name":"区立馬橋公園","province":"東京都","city":"杉並区","address":"東京都杉並区高円寺北4-35-5","lat":35.709583,"lon":139.643056},{"name":"都立善福寺川緑地","province":"東京都","city":"杉並区","address":"東京都杉並区成田西3-14","lat":35.692188,"lon":139.628662},{"name":"杉並区","province":"東京都","city":"杉並区","address":"杉並区荻窪4-21-17","lat":35.70351,"lon":139.6225},{"name":"（株）千代田","province":"東京都","city":"杉並区","address":"杉並区南荻窪3-29-12","lat":35.7039,"lon":139.6101},{"name":"杉並浄水所","province":"東京都","city":"杉並区","address":"東京都杉並区善福寺3-28-5","lat":35.715126,"lon":139.588683},{"name":"和泉水圧調整所","province":"東京都","city":"杉並区","address":"東京都杉並区和泉2-5-23","lat":35.671071,"lon":139.652962},{"name":"上井草給水所","province":"東京都","city":"杉並区","address":"東京都杉並区上井草3-22-12","lat":35.7216352,"lon":139.601235},{"name":"都立和田堀公園","province":"東京都","city":"杉並区","address":"東京都杉並区大宮2-26","lat":35.6849095,"lon":139.6415107},{"name":"区立蚕糸の森公園","province":"東京都","city":"杉並区","address":"東京都杉並区和田3-55","lat":35.69637,"lon":139.65699},{"name":"区立昭栄公園","province":"東京都","city":"杉並区","address":"東京都杉並区高井戸西1-12","lat":35.680084,"lon":139.6083509},{"name":"区立井草森公園","province":"東京都","city":"杉並区","address":"東京都杉並区井草4-12-1","lat":35.7269509,"lon":139.6117369},{"name":"区立馬橋公園","province":"東京都","city":"杉並区","address":"東京都杉並区高円寺北4-35-5","lat":35.709583,"lon":139.643056},{"name":"都立善福寺川緑地","province":"東京都","city":"杉並区","address":"東京都杉並区成田西3-14","lat":35.692188,"lon":139.628662},{"name":"杉並区","province":"東京都","city":"杉並区","address":"杉並区荻窪4-21-17","lat":35.70351,"lon":139.6225},{"name":"（株）千代田","province":"東京都","city":"杉並区","address":"杉並区南荻窪3-29-12","lat":35.7039,"lon":139.6101},{"name":"杉並浄水所","province":"東京都","city":"杉並区","address":"東京都杉並区善福寺3-28-5","lat":35.715126,"lon":139.588683},{"name":"和泉水圧調整所","province":"東京都","city":"杉並区","address":"東京都杉並区和泉2-5-23","lat":35.671071,"lon":139.652962},{"name":"上井草給水所","province":"東京都","city":"杉並区","address":"東京都杉並区上井草3-22-12","lat":35.7216352,"lon":139.601235},{"name":"都立和田堀公園","province":"東京都","city":"杉並区","address":"東京都杉並区大宮2-26","lat":35.6849095,"lon":139.6415107},{"name":"区立蚕糸の森公園","province":"東京都","city":"杉並区","address":"東京都杉並区和田3-55","lat":35.69637,"lon":139.65699},{"name":"区立昭栄公園","province":"東京都","city":"杉並区","address":"東京都杉並区高井戸西1-12","lat":35.680084,"lon":139.6083509},{"name":"区立井草森公園","province":"東京都","city":"杉並区","address":"東京都杉並区井草4-12-1","lat":35.7269509,"lon":139.6117369},{"name":"区立馬橋公園","province":"東京都","city":"杉並区","address":"東京都杉並区高円寺北4-35-5","lat":35.709583,"lon":139.643056},{"name":"都立善福寺川緑地","province":"東京都","city":"杉並区","address":"東京都杉並区成田西3-14","lat":35.692188,"lon":139.628662},{"name":"杉並区","province":"東京都","city":"杉並区","address":"杉並区荻窪4-21-17","lat":35.70351,"lon":139.6225},{"name":"（株）千代田","province":"東京都","city":"杉並区","address":"杉並区南荻窪3-29-12","lat":35.7039,"lon":139.6101},{"name":"杉並浄水所","province":"東京都","city":"杉並区","address":"東京都杉並区善福寺3-28-5","lat":35.715126,"lon":139.588683},{"name":"和泉水圧調整所","province":"東京都","city":"杉並区","address":"東京都杉並区和泉2-5-23","lat":35.671071,"lon":139.652962},{"name":"上井草給水所","province":"東京都","city":"杉並区","address":"東京都杉並区上井草3-22-12","lat":35.7216352,"lon":139.601235},{"name":"都立和田堀公園","province":"東京都","city":"杉並区","address":"東京都杉並区大宮2-26","lat":35.6849095,"lon":139.6415107},{"name":"区立蚕糸の森公園","province":"東京都","city":"杉並区","address":"東京都杉並区和田3-55","lat":35.69637,"lon":139.65699},{"name":"区立昭栄公園","province":"東京都","city":"杉並区","address":"東京都杉並区高井戸西1-12","lat":35.680084,"lon":139.6083509},{"name":"区立井草森公園","province":"東京都","city":"杉並区","address":"東京都杉並区井草4-12-1","lat":35.7269509,"lon":139.6117369},{"name":"区立馬橋公園","province":"東京都","city":"杉並区","address":"東京都杉並区高円寺北4-35-5","lat":35.709583,"lon":139.643056},{"name":"都立善福寺川緑地","province":"東京都","city":"杉並区","address":"東京都杉並区成田西3-14","lat":35.692188,"lon":139.628662},{"name":"杉並区","province":"東京都","city":"杉並区","address":"杉並区荻窪4-21-17","lat":35.70351,"lon":139.6225},{"name":"（株）千代田","province":"東京都","city":"杉並区","address":"杉並区南荻窪3-29-12","lat":35.7039,"lon":139.6101},{"name":"杉並浄水所","province":"東京都","city":"杉並区","address":"東京都杉並区善福寺3-28-5","lat":35.715126,"lon":139.588683},{"name":"和泉水圧調整所","province":"東京都","city":"杉並区","address":"東京都杉並区和泉2-5-23","lat":35.671071,"lon":139.652962},{"name":"上井草給水所","province":"東京都","city":"杉並区","address":"東京都杉並区上井草3-22-12","lat":35.7216352,"lon":139.601235},{"name":"都立和田堀公園","province":"東京都","city":"杉並区","address":"東京都杉並区大宮2-26","lat":35.6849095,"lon":139.6415107},{"name":"区立蚕糸の森公園","province":"東京都","city":"杉並区","address":"東京都杉並区和田3-55","lat":35.69637,"lon":139.65699},{"name":"区立昭栄公園","province":"東京都","city":"杉並区","address":"東京都杉並区高井戸西1-12","lat":35.680084,"lon":139.6083509},{"name":"区立井草森公園","province":"東京都","city":"杉並区","address":"東京都杉並区井草4-12-1","lat":35.7269509,"lon":139.6117369},{"name":"区立馬橋公園","province":"東京都","city":"杉並区","address":"東京都杉並区高円寺北4-35-5","lat":35.709583,"lon":139.643056},{"name":"都立善福寺川緑地","province":"東京都","city":"杉並区","address":"東京都杉並区成田西3-14","lat":35.692188,"lon":139.628662},{"name":"杉並区","province":"東京都","city":"杉並区","address":"杉並区荻窪4-21-17","lat":35.70351,"lon":139.6225},{"name":"（株）千代田","province":"東京都","city":"杉並区","address":"杉並区南荻窪3-29-12","lat":35.7039,"lon":139.6101},{"name":"杉並浄水所","province":"東京都","city":"杉並区","address":"東京都杉並区善福寺3-28-5","lat":35.715126,"lon":139.588683},{"name":"和泉水圧調整所","province":"東京都","city":"杉並区","address":"東京都杉並区和泉2-5-23","lat":35.671071,"lon":139.652962},{"name":"上井草給水所","province":"東京都","city":"杉並区","address":"東京都杉並区上井草3-22-12","lat":35.7216352,"lon":139.601235},{"name":"都立和田堀公園","province":"東京都","city":"杉並区","address":"東京都杉並区大宮2-26","lat":35.6849095,"lon":139.6415107},{"name":"区立蚕糸の森公園","province":"東京都","city":"杉並区","address":"東京都杉並区和田3-55","lat":35.69637,"lon":139.65699},{"name":"区立昭栄公園","province":"東京都","city":"杉並区","address":"東京都杉並区高井戸西1-12","lat":35.680084,"lon":139.6083509},{"name":"区立井草森公園","province":"東京都","city":"杉並区","address":"東京都杉並区井草4-12-1","lat":35.7269509,"lon":139.6117369},{"name":"区立馬橋公園","province":"東京都","city":"杉並区","address":"東京都杉並区高円寺北4-35-5","lat":35.709583,"lon":139.643056},{"name":"都立善福寺川緑地","province":"東京都","city":"杉並区","address":"東京都杉並区成田西3-14","lat":35.692188,"lon":139.628662},{"name":"杉並区","province":"東京都","city":"杉並区","address":"杉並区荻窪4-21-17","lat":35.70351,"lon":139.6225},{"name":"（株）千代田","province":"東京都","city":"杉並区","address":"杉並区南荻窪3-29-12","lat":35.7039,"lon":139.6101},{"name":"杉並浄水所","province":"東京都","city":"杉並区","address":"東京都杉並区善福寺3-28-5","lat":35.715126,"lon":139.588683},{"name":"和泉水圧調整所","province":"東京都","city":"杉並区","address":"東京都杉並区和泉2-5-23","lat":35.671071,"lon":139.652962},{"name":"上井草給水所","province":"東京都","city":"杉並区","address":"東京都杉並区上井草3-22-12","lat":35.7216352,"lon":139.601235},{"name":"都立和田堀公園","province":"東京都","city":"杉並区","address":"東京都杉並区大宮2-26","lat":35.6849095,"lon":139.6415107},{"name":"区立蚕糸の森公園","province":"東京都","city":"杉並区","address":"東京都杉並区和田3-55","lat":35.69637,"lon":139.65699},{"name":"区立昭栄公園","province":"東京都","city":"杉並区","address":"東京都杉並区高井戸西1-12","lat":35.680084,"lon":139.6083509},{"name":"区立井草森公園","province":"東京都","city":"杉並区","address":"東京都杉並区井草4-12-1","lat":35.7269509,"lon":139.6117369},{"name":"区立馬橋公園","province":"東京都","city":"杉並区","address":"東京都杉並区高円寺北4-35-5","lat":35.709583,"lon":139.643056},{"name":"都立善福寺川緑地","province":"東京都","city":"杉並区","address":"東京都杉並区成田西3-14","lat":35.692188,"lon":139.628662},{"name":"杉並区","province":"東京都","city":"杉並区","address":"杉並区荻窪4-21-17","lat":35.70351,"lon":139.6225},{"name":"（株）千代田","province":"東京都","city":"杉並区","address":"杉並区南荻窪3-29-12","lat":35.7039,"lon":139.6101},{"name":"杉並浄水所","province":"東京都","city":"杉並区","address":"東京都杉並区善福寺3-28-5","lat":35.715126,"lon":139.588683},{"name":"和泉水圧調整所","province":"東京都","city":"杉並区","address":"東京都杉並区和泉2-5-23","lat":35.671071,"lon":139.652962},{"name":"上井草給水所","province":"東京都","city":"杉並区","address":"東京都杉並区上井草3-22-12","lat":35.7216352,"lon":139.601235},{"name":"都立和田堀公園","province":"東京都","city":"杉並区","address":"東京都杉並区大宮2-26","lat":35.6849095,"lon":139.6415107},{"name":"区立蚕糸の森公園","province":"東京都","city":"杉並区","address":"東京都杉並区和田3-55","lat":35.69637,"lon":139.65699},{"name":"区立昭栄公園","province":"東京都","city":"杉並区","address":"東京都杉並区高井戸西1-12","lat":35.680084,"lon":139.6083509},{"name":"区立井草森公園","province":"東京都","city":"杉並区","address":"東京都杉並区井草4-12-1","lat":35.7269509,"lon":139.6117369},{"name":"区立馬橋公園","province":"東京都","city":"杉並区","address":"東京都杉並区高円寺北4-35-5","lat":35.709583,"lon":139.643056},{"name":"都立善福寺川緑地","province":"東京都","city":"杉並区","address":"東京都杉並区成田西3-14","lat":35.692188,"lon":139.628662},{"name":"杉並区","province":"東京都","city":"杉並区","address":"杉並区荻窪4-21-17","lat":35.70351,"lon":139.6225},{"name":"（株）千代田","province":"東京都","city":"杉並区","address":"杉並区南荻窪3-29-12","lat":35.7039,"lon":139.6101},{"name":"杉並浄水所","province":"東京都","city":"杉並区","address":"東京都杉並区善福寺3-28-5","lat":35.715126,"lon":139.588683},{"name":"和泉水圧調整所","province":"東京都","city":"杉並区","address":"東京都杉並区和泉2-5-23","lat":35.671071,"lon":139.652962},{"name":"上井草給水所","province":"東京都","city":"杉並区","address":"東京都杉並区上井草3-22-12","lat":35.7216352,"lon":139.601235},{"name":"都立和田堀公園","province":"東京都","city":"杉並区","address":"東京都杉並区大宮2-26","lat":35.6849095,"lon":139.6415107},{"name":"区立蚕糸の森公園","province":"東京都","city":"杉並区","address":"東京都杉並区和田3-55","lat":35.69637,"lon":139.65699},{"name":"区立昭栄公園","province":"東京都","city":"杉並区","address":"東京都杉並区高井戸西1-12","lat":35.680084,"lon":139.6083509},{"name":"区立井草森公園","province":"東京都","city":"杉並区","address":"東京都杉並区井草4-12-1","lat":35.7269509,"lon":139.6117369},{"name":"区立馬橋公園","province":"東京都","city":"杉並区","address":"東京都杉並区高円寺北4-35-5","lat":35.709583,"lon":139.643056},{"name":"都立善福寺川緑地","province":"東京都","city":"杉並区","address":"東京都杉並区成田西3-14","lat":35.692188,"lon":139.628662},{"name":"杉並区","province":"東京都","city":"杉並区","address":"杉並区荻窪4-21-17","lat":35.70351,"lon":139.6225},{"name":"（株）千代田","province":"東京都","city":"杉並区","address":"杉並区南荻窪3-29-12","lat":35.7039,"lon":139.6101},{"name":"杉並浄水所","province":"東京都","city":"杉並区","address":"東京都杉並区善福寺3-28-5","lat":35.715126,"lon":139.588683},{"name":"和泉水圧調整所","province":"東京都","city":"杉並区","address":"東京都杉並区和泉2-5-23","lat":35.671071,"lon":139.652962},{"name":"上井草給水所","province":"東京都","city":"杉並区","address":"東京都杉並区上井草3-22-12","lat":35.7216352,"lon":139.601235},{"name":"都立和田堀公園","province":"東京都","city":"杉並区","address":"東京都杉並区大宮2-26","lat":35.6849095,"lon":139.6415107},{"name":"区立蚕糸の森公園","province":"東京都","city":"杉並区","address":"東京都杉並区和田3-55","lat":35.69637,"lon":139.65699},{"name":"区立昭栄公園","province":"東京都","city":"杉並区","address":"東京都杉並区高井戸西1-12","lat":35.680084,"lon":139.6083509},{"name":"区立井草森公園","province":"東京都","city":"杉並区","address":"東京都杉並区井草4-12-1","lat":35.7269509,"lon":139.6117369},{"name":"区立馬橋公園","province":"東京都","city":"杉並区","address":"東京都杉並区高円寺北4-35-5","lat":35.709583,"lon":139.643056},{"name":"都立善福寺川緑地","province":"東京都","city":"杉並区","address":"東京都杉並区成田西3-14","lat":35.692188,"lon":139.628662},{"name":"杉並区","province":"東京都","city":"杉並区","address":"杉並区荻窪4-21-17","lat":35.70351,"lon":139.6225},{"name":"（株）千代田","province":"東京都","city":"杉並区","address":"杉並区南荻窪3-29-12","lat":35.7039,"lon":139.6101},{"name":"杉並浄水所","province":"東京都","city":"杉並区","address":"東京都杉並区善福寺3-28-5","lat":35.715126,"lon":139.588683},{"name":"和泉水圧調整所","province":"東京都","city":"杉並区","address":"東京都杉並区和泉2-5-23","lat":35.671071,"lon":139.652962},{"name":"上井草給水所","province":"東京都","city":"杉並区","address":"東京都杉並区上井草3-22-12","lat":35.7216352,"lon":139.601235},{"name":"都立和田堀公園","province":"東京都","city":"杉並区","address":"東京都杉並区大宮2-26","lat":35.6849095,"lon":139.6415107},{"name":"区立蚕糸の森公園","province":"東京都","city":"杉並区","address":"東京都杉並区和田3-55","lat":35.69637,"lon":139.65699},{"name":"区立昭栄公園","province":"東京都","city":"杉並区","address":"東京都杉並区高井戸西1-12","lat":35.680084,"lon":139.6083509},{"name":"区立井草森公園","province":"東京都","city":"杉並区","address":"東京都杉並区井草4-12-1","lat":35.7269509,"lon":139.6117369},{"name":"区立馬橋公園","province":"東京都","city":"杉並区","address":"東京都杉並区高円寺北4-35-5","lat":35.709583,"lon":139.643056},{"name":"都立善福寺川緑地","province":"東京都","city":"杉並区","address":"東京都杉並区成田西3-14","lat":35.692188,"lon":139.628662},{"name":"杉並区","province":"東京都","city":"杉並区","address":"杉並区荻窪4-21-17","lat":35.70351,"lon":139.6225},{"name":"（株）千代田","province":"東京都","city":"杉並区","address":"杉並区南荻窪3-29-12","lat":35.7039,"lon":139.6101},{"name":"杉並浄水所","province":"東京都","city":"杉並区","address":"東京都杉並区善福寺3-28-5","lat":35.715126,"lon":139.588683},{"name":"和泉水圧調整所","province":"東京都","city":"杉並区","address":"東京都杉並区和泉2-5-23","lat":35.671071,"lon":139.652962},{"name":"上井草給水所","province":"東京都","city":"杉並区","address":"東京都杉並区上井草3-22-12","lat":35.7216352,"lon":139.601235},{"name":"都立和田堀公園","province":"東京都","city":"杉並区","address":"東京都杉並区大宮2-26","lat":35.6849095,"lon":139.6415107},{"name":"区立蚕糸の森公園","province":"東京都","city":"杉並区","address":"東京都杉並区和田3-55","lat":35.69637,"lon":139.65699},{"name":"区立昭栄公園","province":"東京都","city":"杉並区","address":"東京都杉並区高井戸西1-12","lat":35.680084,"lon":139.6083509},{"name":"区立井草森公園","province":"東京都","city":"杉並区","address":"東京都杉並区井草4-12-1","lat":35.7269509,"lon":139.6117369},{"name":"区立馬橋公園","province":"東京都","city":"杉並区","address":"東京都杉並区高円寺北4-35-5","lat":35.709583,"lon":139.643056},{"name":"都立善福寺川緑地","province":"東京都","city":"杉並区","address":"東京都杉並区成田西3-14","lat":35.692188,"lon":139.628662},{"name":"杉並区","province":"東京都","city":"杉並区","address":"杉並区荻窪4-21-17","lat":35.70351,"lon":139.6225},{"name":"（株）千代田","province":"東京都","city":"杉並区","address":"杉並区南荻窪3-29-12","lat":35.7039,"lon":139.6101},{"name":"杉並浄水所","province":"東京都","city":"杉並区","address":"東京都杉並区善福寺3-28-5","lat":35.715126,"lon":139.588683},{"name":"和泉水圧調整所","province":"東京都","city":"杉並区","address":"東京都杉並区和泉2-5-23","lat":35.671071,"lon":139.652962},{"name":"上井草給水所","province":"東京都","city":"杉並区","address":"東京都杉並区上井草3-22-12","lat":35.7216352,"lon":139.601235},{"name":"都立和田堀公園","province":"東京都","city":"杉並区","address":"東京都杉並区大宮2-26","lat":35.6849095,"lon":139.6415107},{"name":"区立蚕糸の森公園","province":"東京都","city":"杉並区","address":"東京都杉並区和田3-55","lat":35.69637,"lon":139.65699},{"name":"区立昭栄公園","province":"東京都","city":"杉並区","address":"東京都杉並区高井戸西1-12","lat":35.680084,"lon":139.6083509},{"name":"区立井草森公園","province":"東京都","city":"杉並区","address":"東京都杉並区井草4-12-1","lat":35.7269509,"lon":139.6117369},{"name":"区立馬橋公園","province":"東京都","city":"杉並区","address":"東京都杉並区高円寺北4-35-5","lat":35.709583,"lon":139.643056},{"name":"都立善福寺川緑地","province":"東京都","city":"杉並区","address":"東京都杉並区成田西3-14","lat":35.692188,"lon":139.628662},{"name":"杉並区","province":"東京都","city":"杉並区","address":"杉並区荻窪4-21-17","lat":35.70351,"lon":139.6225},{"name":"（株）千代田","province":"東京都","city":"杉並区","address":"杉並区南荻窪3-29-12","lat":35.7039,"lon":139.6101},{"name":"杉並浄水所","province":"東京都","city":"杉並区","address":"東京都杉並区善福寺3-28-5","lat":35.715126,"lon":139.588683},{"name":"和泉水圧調整所","province":"東京都","city":"杉並区","address":"東京都杉並区和泉2-5-23","lat":35.671071,"lon":139.652962},{"name":"上井草給水所","province":"東京都","city":"杉並区","address":"東京都杉並区上井草3-22-12","lat":35.7216352,"lon":139.601235},{"name":"都立和田堀公園","province":"東京都","city":"杉並区","address":"東京都杉並区大宮2-26","lat":35.6849095,"lon":139.6415107},{"name":"区立蚕糸の森公園","province":"東京都","city":"杉並区","address":"東京都杉並区和田3-55","lat":35.69637,"lon":139.65699},{"name":"区立昭栄公園","province":"東京都","city":"杉並区","address":"東京都杉並区高井戸西1-12","lat":35.680084,"lon":139.6083509},{"name":"区立井草森公園","province":"東京都","city":"杉並区","address":"東京都杉並区井草4-12-1","lat":35.7269509,"lon":139.6117369},{"name":"区立馬橋公園","province":"東京都","city":"杉並区","address":"東京都杉並区高円寺北4-35-5","lat":35.709583,"lon":139.643056},{"name":"都立善福寺川緑地","province":"東京都","city":"杉並区","address":"東京都杉並区成田西3-14","lat":35.692188,"lon":139.628662},{"name":"杉並区","province":"東京都","city":"杉並区","address":"杉並区荻窪4-21-17","lat":35.70351,"lon":139.6225},{"name":"（株）千代田","province":"東京都","city":"杉並区","address":"杉並区南荻窪3-29-12","lat":35.7039,"lon":139.6101},{"name":"杉並浄水所","province":"東京都","city":"杉並区","address":"東京都杉並区善福寺3-28-5","lat":35.715126,"lon":139.588683},{"name":"和泉水圧調整所","province":"東京都","city":"杉並区","address":"東京都杉並区和泉2-5-23","lat":35.671071,"lon":139.652962},{"name":"上井草給水所","province":"東京都","city":"杉並区","address":"東京都杉並区上井草3-22-12","lat":35.7216352,"lon":139.601235},{"name":"都立和田堀公園","province":"東京都","city":"杉並区","address":"東京都杉並区大宮2-26","lat":35.6849095,"lon":139.6415107},{"name":"区立蚕糸の森公園","province":"東京都","city":"杉並区","address":"東京都杉並区和田3-55","lat":35.69637,"lon":139.65699},{"name":"区立昭栄公園","province":"東京都","city":"杉並区","address":"東京都杉並区高井戸西1-12","lat":35.680084,"lon":139.6083509},{"name":"区立井草森公園","province":"東京都","city":"杉並区","address":"東京都杉並区井草4-12-1","lat":35.7269509,"lon":139.6117369},{"name":"区立馬橋公園","province":"東京都","city":"杉並区","address":"東京都杉並区高円寺北4-35-5","lat":35.709583,"lon":139.643056},{"name":"都立善福寺川緑地","province":"東京都","city":"杉並区","address":"東京都杉並区成田西3-14","lat":35.692188,"lon":139.628662},{"name":"杉並区","province":"東京都","city":"杉並区","address":"杉並区荻窪4-21-17","lat":35.70351,"lon":139.6225},{"name":"（株）千代田","province":"東京都","city":"杉並区","address":"杉並区南荻窪3-29-12","lat":35.7039,"lon":139.6101},{"name":"杉並浄水所","province":"東京都","city":"杉並区","address":"東京都杉並区善福寺3-28-5","lat":35.715126,"lon":139.588683},{"name":"和泉水圧調整所","province":"東京都","city":"杉並区","address":"東京都杉並区和泉2-5-23","lat":35.671071,"lon":139.652962},{"name":"上井草給水所","province":"東京都","city":"杉並区","address":"東京都杉並区上井草3-22-12","lat":35.7216352,"lon":139.601235},{"name":"都立和田堀公園","province":"東京都","city":"杉並区","address":"東京都杉並区大宮2-26","lat":35.6849095,"lon":139.6415107},{"name":"区立蚕糸の森公園","province":"東京都","city":"杉並区","address":"東京都杉並区和田3-55","lat":35.69637,"lon":139.65699},{"name":"区立昭栄公園","province":"東京都","city":"杉並区","address":"東京都杉並区高井戸西1-12","lat":35.680084,"lon":139.6083509},{"name":"区立井草森公園","province":"東京都","city":"杉並区","address":"東京都杉並区井草4-12-1","lat":35.7269509,"lon":139.6117369},{"name":"区立馬橋公園","province":"東京都","city":"杉並区","address":"東京都杉並区高円寺北4-35-5","lat":35.709583,"lon":139.643056},{"name":"都立善福寺川緑地","province":"東京都","city":"杉並区","address":"東京都杉並区成田西3-14","lat":35.692188,"lon":139.628662},{"name":"杉並浄水所","province":"東京都","city":"杉並区","address":"東京都杉並区善福寺3-28-5","lat":35.715126,"lon":139.588683},{"name":"和泉水圧調整所","province":"東京都","city":"杉並区","address":"東京都杉並区和泉2-5-23","lat":35.671071,"lon":139.652962},{"name":"上井草給水所","province":"東京都","city":"杉並区","address":"東京都杉並区上井草3-22-12","lat":35.7216352,"lon":139.601235},{"name":"都立和田堀公園","province":"東京都","city":"杉並区","address":"東京都杉並区大宮2-26","lat":35.6849095,"lon":139.6415107},{"name":"区立蚕糸の森公園","province":"東京都","city":"杉並区","address":"東京都杉並区和田3-55","lat":35.69637,"lon":139.65699},{"name":"区立昭栄公園","province":"東京都","city":"杉並区","address":"東京都杉並区高井戸西1-12","lat":35.680084,"lon":139.6083509},{"name":"区立井草森公園","province":"東京都","city":"杉並区","address":"東京都杉並区井草4-12-1","lat":35.7269509,"lon":139.6117369},{"name":"区立馬橋公園","province":"東京都","city":"杉並区","address":"東京都杉並区高円寺北4-35-5","lat":35.709583,"lon":139.643056},{"name":"都立善福寺川緑地","province":"東京都","city":"杉並区","address":"東京都杉並区成田西3-14","lat":35.692188,"lon":139.628662},{"name":"杉並浄水所","province":"東京都","city":"杉並区","address":"東京都杉並区善福寺3-28-5","lat":35.715126,"lon":139.588683},{"name":"和泉水圧調整所","province":"東京都","city":"杉並区","address":"東京都杉並区和泉2-5-23","lat":35.671071,"lon":139.652962},{"name":"上井草給水所","province":"東京都","city":"杉並区","address":"東京都杉並区上井草3-22-12","lat":35.7216352,"lon":139.601235},{"name":"都立和田堀公園","province":"東京都","city":"杉並区","address":"東京都杉並区大宮2-26","lat":35.6849095,"lon":139.6415107},{"name":"区立蚕糸の森公園","province":"東京都","city":"杉並区","address":"東京都杉並区和田3-55","lat":35.69637,"lon":139.65699},{"name":"区立昭栄公園","province":"東京都","city":"杉並区","address":"東京都杉並区高井戸西1-12","lat":35.680084,"lon":139.6083509},{"name":"区立井草森公園","province":"東京都","city":"杉並区","address":"東京都杉並区井草4-12-1","lat":35.7269509,"lon":139.6117369},{"name":"区立馬橋公園","province":"東京都","city":"杉並区","address":"東京都杉並区高円寺北4-35-5","lat":35.709583,"lon":139.643056},{"name":"都立善福寺川緑地","province":"東京都","city":"杉並区","address":"東京都杉並区成田西3-14","lat":35.692188,"lon":139.628662},{"name":"杉並浄水所","province":"東京都","city":"杉並区","address":"東京都杉並区善福寺3-28-5","lat":35.715126,"lon":139.588683},{"name":"和泉水圧調整所","province":"東京都","city":"杉並区","address":"東京都杉並区和泉2-5-23","lat":35.671071,"lon":139.652962},{"name":"上井草給水所","province":"東京都","city":"杉並区","address":"東京都杉並区上井草3-22-12","lat":35.7216352,"lon":139.601235},{"name":"都立和田堀公園","province":"東京都","city":"杉並区","address":"東京都杉並区大宮2-26","lat":35.6849095,"lon":139.6415107},{"name":"区立蚕糸の森公園","province":"東京都","city":"杉並区","address":"東京都杉並区和田3-55","lat":35.69637,"lon":139.65699},{"name":"区立昭栄公園","province":"東京都","city":"杉並区","address":"東京都杉並区高井戸西1-12","lat":35.680084,"lon":139.6083509},{"name":"区立井草森公園","province":"東京都","city":"杉並区","address":"東京都杉並区井草4-12-1","lat":35.7269509,"lon":139.6117369},{"name":"区立馬橋公園","province":"東京都","city":"杉並区","address":"東京都杉並区高円寺北4-35-5","lat":35.709583,"lon":139.643056},{"name":"都立善福寺川緑地","province":"東京都","city":"杉並区","address":"東京都杉並区成田西3-14","lat":35.692188,"lon":139.628662},{"name":"杉並浄水所","province":"東京都","city":"杉並区","address":"東京都杉並区善福寺3-28-5","lat":35.715126,"lon":139.588683},{"name":"和泉水圧調整所","province":"東京都","city":"杉並区","address":"東京都杉並区和泉2-5-23","lat":35.671071,"lon":139.652962},{"name":"上井草給水所","province":"東京都","city":"杉並区","address":"東京都杉並区上井草3-22-12","lat":35.7216352,"lon":139.601235},{"name":"都立和田堀公園","province":"東京都","city":"杉並区","address":"東京都杉並区大宮2-26","lat":35.6849095,"lon":139.6415107},{"name":"区立蚕糸の森公園","province":"東京都","city":"杉並区","address":"東京都杉並区和田3-55","lat":35.69637,"lon":139.65699},{"name":"区立昭栄公園","province":"東京都","city":"杉並区","address":"東京都杉並区高井戸西1-12","lat":35.680084,"lon":139.6083509},{"name":"区立井草森公園","province":"東京都","city":"杉並区","address":"東京都杉並区井草4-12-1","lat":35.7269509,"lon":139.6117369},{"name":"区立馬橋公園","province":"東京都","city":"杉並区","address":"東京都杉並区高円寺北4-35-5","lat":35.709583,"lon":139.643056},{"name":"都立善福寺川緑地","province":"東京都","city":"杉並区","address":"東京都杉並区成田西3-14","lat":35.692188,"lon":139.628662},{"name":"杉並浄水所","province":"東京都","city":"杉並区","address":"東京都杉並区善福寺3-28-5","lat":35.715126,"lon":139.588683},{"name":"和泉水圧調整所","province":"東京都","city":"杉並区","address":"東京都杉並区和泉2-5-23","lat":35.671071,"lon":139.652962},{"name":"上井草給水所","province":"東京都","city":"杉並区","address":"東京都杉並区上井草3-22-12","lat":35.7216352,"lon":139.601235},{"name":"都立和田堀公園","province":"東京都","city":"杉並区","address":"東京都杉並区大宮2-26","lat":35.6849095,"lon":139.6415107},{"name":"区立蚕糸の森公園","province":"東京都","city":"杉並区","address":"東京都杉並区和田3-55","lat":35.69637,"lon":139.65699},{"name":"区立昭栄公園","province":"東京都","city":"杉並区","address":"東京都杉並区高井戸西1-12","lat":35.680084,"lon":139.6083509},{"name":"区立井草森公園","province":"東京都","city":"杉並区","address":"東京都杉並区井草4-12-1","lat":35.7269509,"lon":139.6117369},{"name":"区立馬橋公園","province":"東京都","city":"杉並区","address":"東京都杉並区高円寺北4-35-5","lat":35.709583,"lon":139.643056},{"name":"都立善福寺川緑地","province":"東京都","city":"杉並区","address":"東京都杉並区成田西3-14","lat":35.692188,"lon":139.628662},{"name":"杉並浄水所","province":"東京都","city":"杉並区","address":"東京都杉並区善福寺3-28-5","lat":35.715126,"lon":139.588683},{"name":"和泉水圧調整所","province":"東京都","city":"杉並区","address":"東京都杉並区和泉2-5-23","lat":35.671071,"lon":139.652962},{"name":"上井草給水所","province":"東京都","city":"杉並区","address":"東京都杉並区上井草3-22-12","lat":35.7216352,"lon":139.601235},{"name":"都立和田堀公園","province":"東京都","city":"杉並区","address":"東京都杉並区大宮2-26","lat":35.6849095,"lon":139.6415107},{"name":"区立蚕糸の森公園","province":"東京都","city":"杉並区","address":"東京都杉並区和田3-55","lat":35.69637,"lon":139.65699},{"name":"区立昭栄公園","province":"東京都","city":"杉並区","address":"東京都杉並区高井戸西1-12","lat":35.680084,"lon":139.6083509},{"name":"区立井草森公園","province":"東京都","city":"杉並区","address":"東京都杉並区井草4-12-1","lat":35.7269509,"lon":139.6117369},{"name":"区立馬橋公園","province":"東京都","city":"杉並区","address":"東京都杉並区高円寺北4-35-5","lat":35.709583,"lon":139.643056},{"name":"都立善福寺川緑地","province":"東京都","city":"杉並区","address":"東京都杉並区成田西3-14","lat":35.692188,"lon":139.628662},{"name":"杉並浄水所","province":"東京都","city":"杉並区","address":"東京都杉並区善福寺3-28-5","lat":35.715126,"lon":139.588683},{"name":"和泉水圧調整所","province":"東京都","city":"杉並区","address":"東京都杉並区和泉2-5-23","lat":35.671071,"lon":139.652962},{"name":"上井草給水所","province":"東京都","city":"杉並区","address":"東京都杉並区上井草3-22-12","lat":35.7216352,"lon":139.601235},{"name":"都立和田堀公園","province":"東京都","city":"杉並区","address":"東京都杉並区大宮2-26","lat":35.6849095,"lon":139.6415107},{"name":"区立蚕糸の森公園","province":"東京都","city":"杉並区","address":"東京都杉並区和田3-55","lat":35.69637,"lon":139.65699},{"name":"区立昭栄公園","province":"東京都","city":"杉並区","address":"東京都杉並区高井戸西1-12","lat":35.680084,"lon":139.6083509},{"name":"区立井草森公園","province":"東京都","city":"杉並区","address":"東京都杉並区井草4-12-1","lat":35.7269509,"lon":139.6117369},{"name":"区立馬橋公園","province":"東京都","city":"杉並区","address":"東京都杉並区高円寺北4-35-5","lat":35.709583,"lon":139.643056},{"name":"都立善福寺川緑地","province":"東京都","city":"杉並区","address":"東京都杉並区成田西3-14","lat":35.692188,"lon":139.628662},{"name":"杉並浄水所","province":"東京都","city":"杉並区","address":"東京都杉並区善福寺3-28-5","lat":35.715126,"lon":139.588683},{"name":"和泉水圧調整所","province":"東京都","city":"杉並区","address":"東京都杉並区和泉2-5-23","lat":35.671071,"lon":139.652962},{"name":"上井草給水所","province":"東京都","city":"杉並区","address":"東京都杉並区上井草3-22-12","lat":35.7216352,"lon":139.601235},{"name":"都立和田堀公園","province":"東京都","city":"杉並区","address":"東京都杉並区大宮2-26","lat":35.6849095,"lon":139.6415107},{"name":"区立蚕糸の森公園","province":"東京都","city":"杉並区","address":"東京都杉並区和田3-55","lat":35.69637,"lon":139.65699},{"name":"区立昭栄公園","province":"東京都","city":"杉並区","address":"東京都杉並区高井戸西1-12","lat":35.680084,"lon":139.6083509},{"name":"区立井草森公園","province":"東京都","city":"杉並区","address":"東京都杉並区井草4-12-1","lat":35.7269509,"lon":139.6117369},{"name":"区立馬橋公園","province":"東京都","city":"杉並区","address":"東京都杉並区高円寺北4-35-5","lat":35.709583,"lon":139.643056},{"name":"都立善福寺川緑地","province":"東京都","city":"杉並区","address":"東京都杉並区成田西3-14","lat":35.692188,"lon":139.628662},{"name":"杉並浄水所","province":"東京都","city":"杉並区","address":"東京都杉並区善福寺3-28-5","lat":35.715126,"lon":139.588683},{"name":"和泉水圧調整所","province":"東京都","city":"杉並区","address":"東京都杉並区和泉2-5-23","lat":35.671071,"lon":139.652962},{"name":"上井草給水所","province":"東京都","city":"杉並区","address":"東京都杉並区上井草3-22-12","lat":35.7216352,"lon":139.601235},{"name":"都立和田堀公園","province":"東京都","city":"杉並区","address":"東京都杉並区大宮2-26","lat":35.6849095,"lon":139.6415107},{"name":"区立蚕糸の森公園","province":"東京都","city":"杉並区","address":"東京都杉並区和田3-55","lat":35.69637,"lon":139.65699},{"name":"区立昭栄公園","province":"東京都","city":"杉並区","address":"東京都杉並区高井戸西1-12","lat":35.680084,"lon":139.6083509},{"name":"区立井草森公園","province":"東京都","city":"杉並区","address":"東京都杉並区井草4-12-1","lat":35.7269509,"lon":139.6117369},{"name":"区立馬橋公園","province":"東京都","city":"杉並区","address":"東京都杉並区高円寺北4-35-5","lat":35.709583,"lon":139.643056},{"name":"都立善福寺川緑地","province":"東京都","city":"杉並区","address":"東京都杉並区成田西3-14","lat":35.692188,"lon":139.628662},{"name":"杉並浄水所","province":"東京都","city":"杉並区","address":"東京都杉並区善福寺3-28-5","lat":35.715126,"lon":139.588683},{"name":"和泉水圧調整所","province":"東京都","city":"杉並区","address":"東京都杉並区和泉2-5-23","lat":35.671071,"lon":139.652962},{"name":"上井草給水所","province":"東京都","city":"杉並区","address":"東京都杉並区上井草3-22-12","lat":35.7216352,"lon":139.601235},{"name":"都立和田堀公園","province":"東京都","city":"杉並区","address":"東京都杉並区大宮2-26","lat":35.6849095,"lon":139.6415107},{"name":"区立蚕糸の森公園","province":"東京都","city":"杉並区","address":"東京都杉並区和田3-55","lat":35.69637,"lon":139.65699},{"name":"区立昭栄公園","province":"東京都","city":"杉並区","address":"東京都杉並区高井戸西1-12","lat":35.680084,"lon":139.6083509},{"name":"区立井草森公園","province":"東京都","city":"杉並区","address":"東京都杉並区井草4-12-1","lat":35.7269509,"lon":139.6117369},{"name":"区立馬橋公園","province":"東京都","city":"杉並区","address":"東京都杉並区高円寺北4-35-5","lat":35.709583,"lon":139.643056},{"name":"都立善福寺川緑地","province":"東京都","city":"杉並区","address":"東京都杉並区成田西3-14","lat":35.692188,"lon":139.628662},{"name":"杉並浄水所","province":"東京都","city":"杉並区","address":"東京都杉並区善福寺3-28-5","lat":35.715126,"lon":139.588683},{"name":"和泉水圧調整所","province":"東京都","city":"杉並区","address":"東京都杉並区和泉2-5-23","lat":35.671071,"lon":139.652962},{"name":"上井草給水所","province":"東京都","city":"杉並区","address":"東京都杉並区上井草3-22-12","lat":35.7216352,"lon":139.601235},{"name":"都立和田堀公園","province":"東京都","city":"杉並区","address":"東京都杉並区大宮2-26","lat":35.6849095,"lon":139.6415107},{"name":"区立蚕糸の森公園","province":"東京都","city":"杉並区","address":"東京都杉並区和田3-55","lat":35.69637,"lon":139.65699},{"name":"区立昭栄公園","province":"東京都","city":"杉並区","address":"東京都杉並区高井戸西1-12","lat":35.680084,"lon":139.6083509},{"name":"区立井草森公園","province":"東京都","city":"杉並区","address":"東京都杉並区井草4-12-1","lat":35.7269509,"lon":139.6117369},{"name":"区立馬橋公園","province":"東京都","city":"杉並区","address":"東京都杉並区高円寺北4-35-5","lat":35.709583,"lon":139.643056},{"name":"都立善福寺川緑地","province":"東京都","city":"杉並区","address":"東京都杉並区成田西3-14","lat":35.692188,"lon":139.628662},{"name":"杉並浄水所","province":"東京都","city":"杉並区","address":"東京都杉並区善福寺3-28-5","lat":35.715126,"lon":139.588683},{"name":"和泉水圧調整所","province":"東京都","city":"杉並区","address":"東京都杉並区和泉2-5-23","lat":35.671071,"lon":139.652962},{"name":"上井草給水所","province":"東京都","city":"杉並区","address":"東京都杉並区上井草3-22-12","lat":35.7216352,"lon":139.601235},{"name":"都立和田堀公園","province":"東京都","city":"杉並区","address":"東京都杉並区大宮2-26","lat":35.6849095,"lon":139.6415107},{"name":"区立蚕糸の森公園","province":"東京都","city":"杉並区","address":"東京都杉並区和田3-55","lat":35.69637,"lon":139.65699},{"name":"区立昭栄公園","province":"東京都","city":"杉並区","address":"東京都杉並区高井戸西1-12","lat":35.680084,"lon":139.6083509},{"name":"区立井草森公園","province":"東京都","city":"杉並区","address":"東京都杉並区井草4-12-1","lat":35.7269509,"lon":139.6117369},{"name":"区立馬橋公園","province":"東京都","city":"杉並区","address":"東京都杉並区高円寺北4-35-5","lat":35.709583,"lon":139.643056},{"name":"都立善福寺川緑地","province":"東京都","city":"杉並区","address":"東京都杉並区成田西3-14","lat":35.692188,"lon":139.628662}]}