{"keyword":"戸数","data":[{"name":"杉並区社会福祉協議会","province":"東京都","city":"杉並区","address":"杉並区天沼3-19-16ウェルファーム杉並2-4階","lat":35.71038,"lon":139.620908},{"name":"杉並区役所","province":"東京都","city":"杉並区","address":"東京都杉並区阿佐谷南1丁目15-1","lat":35.699595,"lon":139.636363},{"name":"東京工芸大学 杉並アニメーションミュージアム","province":"東京都","city":"杉並区","address":"東京都杉並区上荻3丁目29-5杉並会館3階","lat":35.71039,"lon":139.607852},{"name":"荻窪地域区民センター","province":"東京都","city":"杉並区","address":"東京都杉並区荻窪2丁目34-20","lat":35.698638,"lon":139.618996},{"name":"高井戸地域区民センター","province":"東京都","city":"杉並区","address":"東京都杉並区高井戸東3丁目7-5高井戸市民センター","lat":35.683633,"lon":139.616331},{"name":"西荻地域区民センター","province":"東京都","city":"杉並区","address":"東京都杉並区桃井4丁目3-2","lat":35.712616,"lon":139.60207},{"name":"阿佐谷地域区民センター","province":"東京都","city":"杉並区","address":"東京都杉並区阿佐谷北1丁目1-1","lat":35.70545,"lon":139.641003},{"name":"高円寺地域区民センター","province":"東京都","city":"杉並区","address":"東京都杉並区梅里1丁目22番32号セシオン杉並","lat":35.683644,"lon":139.616303},{"name":"永福和泉地域区民センター","province":"東京都","city":"杉並区","address":"東京都杉並区和泉3丁目8-18","lat":35.675722,"lon":139.64589},{"name":"井草地域区民センター","province":"東京都","city":"杉並区","address":"東京都杉並区下井草5丁目7-22","lat":35.720608,"lon":139.616443},{"name":"久我山会館","province":"東京都","city":"杉並区","address":"東京都杉並区久我山3丁目23-20","lat":35.686582,"lon":139.599273},{"name":"杉並会館","province":"東京都","city":"杉並区","address":"東京都杉並区上荻3丁目29-5","lat":35.710433,"lon":139.607833},{"name":"コミュニティふらっと阿佐谷","province":"東京都","city":"杉並区","address":"東京都杉並区阿佐谷北2丁目18-17","lat":35.706116,"lon":139.633669},{"name":"コミュニティふらっと馬橋","province":"東京都","city":"杉並区","address":"東京都杉並区高円寺南3丁目29-5","lat":35.702001,"lon":139.643861},{"name":"コミュニティふらっと東原","province":"東京都","city":"杉並区","address":"東京都杉並区下井草1丁目23-23","lat":35.715743,"lon":139.631444},{"name":"コミュニティふらっと永福","province":"東京都","city":"杉並区","address":"東京都杉並区永福3丁目51-173階","lat":35.678413,"lon":139.638018},{"name":"コミュニティふらっと成田","province":"東京都","city":"杉並区","address":"東京都杉並区成田西1丁目28-18","lat":35.690727,"lon":139.631454},{"name":"中央図書館","province":"東京都","city":"杉並区","address":"東京都杉並区荻窪3丁目40-23","lat":35.701897,"lon":139.626747},{"name":"永福図書館","province":"東京都","city":"杉並区","address":"東京都杉並区永福3丁目51-17","lat":35.678506,"lon":139.637991},{"name":"柿木図書館","province":"東京都","city":"杉並区","address":"東京都杉並区上井草1丁目6-13","lat":35.720278,"lon":139.612113},{"name":"高円寺図書館","province":"東京都","city":"杉並区","address":"東京都杉並区高円寺南2丁目36-25","lat":35.700403,"lon":139.654102},{"name":"宮前図書館","province":"東京都","city":"杉並区","address":"東京都杉並区宮前5丁目5-27","lat":35.693108,"lon":139.598935},{"name":"成田図書館","province":"東京都","city":"杉並区","address":"東京都杉並区成田東3丁目28-5","lat":35.695091,"lon":139.637467},{"name":"西荻図書館","province":"東京都","city":"杉並区","address":"東京都杉並区西荻北2丁目33-9","lat":35.707837,"lon":139.605921},{"name":"阿佐谷図書館","province":"東京都","city":"杉並区","address":"東京都杉並区阿佐谷北3丁目36-14","lat":35.711692,"lon":139.633234},{"name":"南荻窪図書館","province":"東京都","city":"杉並区","address":"東京都杉並区南荻窪1丁目10-2","lat":35.695049,"lon":139.614458},{"name":"下井草図書館","province":"東京都","city":"杉並区","address":"東京都杉並区下井草3丁目26-5","lat":35.720907,"lon":139.623265},{"name":"高井戸図書館","province":"東京都","city":"杉並区","address":"東京都杉並区高井戸東1丁目28-1","lat":35.681597,"lon":139.622938},{"name":"方南図書館","province":"東京都","city":"杉並区","address":"東京都杉並区方南1丁目51-2","lat":35.67908,"lon":139.659913},{"name":"今川図書館","province":"東京都","city":"杉並区","address":"東京都杉並区今川4丁目12-10","lat":35.715598,"lon":139.599856},{"name":"就労支援センター","province":"東京都","city":"杉並区","address":"東京都杉並区天沼3丁目19-16ウェルファーム杉並複合施設棟1階","lat":35.710095,"lon":139.620796},{"name":"太田黒公園","province":"東京都","city":"杉並区","address":"東京都杉並区荻窪3丁目33-12","lat":35.700751,"lon":139.624424},{"name":"角川庭園","province":"東京都","city":"杉並区","address":"東京都杉並区荻窪3丁目14-22","lat":35.698688,"lon":139.624437},{"name":"杉並区","province":"東京都","city":"杉並区","address":"杉並区阿佐谷南1-15-1","lat":35.6998933,"lon":139.6363628},{"name":"（有）アイム","province":"東京都","city":"杉並区","address":"東京都杉並区和田2丁目3-14","lat":35.6885339,"lon":139.66135018},{"name":"有限会社　玉野葬儀社","province":"東京都","city":"杉並区","address":"東京都杉並区阿佐谷南1丁目12-3","lat":35.69890419,"lon":139.63732406},{"name":"有限会社　吉田屋葬儀社","province":"東京都","city":"杉並区","address":"東京都杉並区天沼3丁目11-6","lat":35.70738599,"lon":139.61657259},{"name":"田中商事　株式会社","province":"東京都","city":"杉並区","address":"東京都杉並区井草1丁目5-16","lat":35.72444264,"lon":139.62319625},{"name":"代田橋鈴木葬儀社","province":"東京都","city":"杉並区","address":"東京都杉並区和泉1丁目1-14","lat":35.6730607,"lon":139.66012587},{"name":"株式会社　浅野葬儀社","province":"東京都","city":"杉並区","address":"東京都杉並区永福3丁目47-8","lat":35.67800119,"lon":139.63998022},{"name":"株式会社　オボワール","province":"東京都","city":"杉並区","address":"東京都杉並区久我山3丁目15-7","lat":35.68661557,"lon":139.59551118},{"name":"有限会社　栃木屋祭典","province":"東京都","city":"杉並区","address":"東京都杉並区高円寺南1丁目6-9","lat":35.69846315,"lon":139.6584167},{"name":"\" 田中商事　株式会社　下井草支店\"","province":"東京都","city":"杉並区","address":"東京都杉並区下井草3丁目7-17","lat":35.71748231,"lon":139.62450482},{"name":"株式会社　博典社芹澤葬祭店","province":"東京都","city":"杉並区","address":"東京都杉並区下高井戸1丁目3-11","lat":35.66726079,"lon":139.64066104},{"name":"有限会社　加賀屋葬儀社","province":"東京都","city":"杉並区","address":"東京都杉並区成田東5丁目19-8","lat":35.70118431,"lon":139.63083839},{"name":"株式会社　ゴトウ","province":"東京都","city":"杉並区","address":"東京都杉並区西荻北4丁目1-21","lat":35.70583564,"lon":139.59632704},{"name":"株式会社　西荻祭典","province":"東京都","city":"杉並区","address":"東京都杉並区西荻南2丁目6-21","lat":35.69853095,"lon":139.59815774},{"name":"\" マキノ祭典　株式会社\"","province":"東京都","city":"杉並区","address":"東京都杉並区宮前3丁目5-5","lat":35.6935401,"lon":139.60729332},{"name":"株式会社　博善社","province":"東京都","city":"杉並区","address":"東京都杉並区宮前4丁目17-10","lat":35.69332335,"lon":139.60324643},{"name":"株式会社　渋谷商会","province":"東京都","city":"杉並区","address":"東京都杉並区桃井2丁目4-5","lat":35.71127422,"lon":139.60796756},{"name":"杉並区社会福祉協議会","province":"東京都","city":"杉並区","address":"杉並区天沼3-19-16ウェルファーム杉並2、4階","lat":35.71005,"lon":139.62056},{"name":"ケア24上井草","province":"東京都","city":"杉並区","address":"杉並区上井草3-33-10","lat":35.724243,"lon":139.602463},{"name":"ケア24下井草","province":"東京都","city":"杉並区","address":"杉並区下井草2-44-4","lat":35.723587,"lon":139.625412},{"name":"ケア24善福寺","province":"東京都","city":"杉並区","address":"杉並区西荻北4-31-11","lat":35.709129,"lon":139.592743},{"name":"ケア24上荻","province":"東京都","city":"杉並区","address":"杉並区上荻3-16-6","lat":35.708717,"lon":139.607788},{"name":"ケア24西荻","province":"東京都","city":"杉並区","address":"杉並区西荻南4-2-7","lat":35.699791,"lon":139.604813},{"name":"ケア24清水","province":"東京都","city":"杉並区","address":"杉並区清水2-15-24","lat":35.714237,"lon":139.618286},{"name":"ケア24荻窪","province":"東京都","city":"杉並区","address":"杉並区荻窪5-20-1","lat":35.701988,"lon":139.620255},{"name":"ケア24南荻窪","province":"東京都","city":"杉並区","address":"杉並区南荻窪2-28-13","lat":35.699345,"lon":139.613159},{"name":"ケア24阿佐谷","province":"東京都","city":"杉並区","address":"杉並区阿佐谷北1-3-12","lat":35.705463,"lon":139.63858},{"name":"ケア24成田","province":"東京都","city":"杉並区","address":"杉並区成田西3-7-4","lat":35.693752,"lon":139.631973},{"name":"ケア24松ノ木","province":"東京都","city":"杉並区","address":"杉並区松ノ木3-3-4","lat":35.692619,"lon":139.644409},{"name":"ケア24高円寺","province":"東京都","city":"杉並区","address":"杉並区高円寺南4-26-16","lat":35.704582,"lon":139.649536},{"name":"ケア24梅里","province":"東京都","city":"杉並区","address":"杉並区梅里1-7-17","lat":35.697685,"lon":139.649414},{"name":"ケア24和田","province":"東京都","city":"杉並区","address":"杉並区和田3-52-4","lat":35.696148,"lon":139.654663},{"name":"ケア24久我山","province":"東京都","city":"杉並区","address":"杉並区久我山3-47-16","lat":35.690121,"lon":139.593414},{"name":"ケア24高井戸","province":"東京都","city":"杉並区","address":"杉並区高井戸西1-12-1","lat":35.67963,"lon":139.609787},{"name":"ケア24浜田山","province":"東京都","city":"杉並区","address":"杉並区浜田山1-36-3","lat":35.680233,"lon":139.629898},{"name":"ケア24堀ノ内","province":"東京都","city":"杉並区","address":"杉並区堀ノ内1-6-6","lat":35.683041,"lon":139.653595},{"name":"ケア24永福","province":"東京都","city":"杉並区","address":"杉並区永福3-35-11","lat":35.678196,"lon":139.635666},{"name":"ケア24方南","province":"東京都","city":"杉並区","address":"杉並区方南2-6-28","lat":35.680653,"lon":139.659454},{"name":"杉並区立消費者センター","province":"東京都","city":"杉並区","address":"杉並区天沼3-19-16ウェルファーム杉並3階","lat":35.710388,"lon":139.620667},{"name":"医療法人財団荻窪病院","province":"東京都","city":"杉並区","address":"東京都杉並区今川3丁目1-24","lat":35.71524321,"lon":139.607323},{"name":"堀ノ内斎場","province":"東京都","city":"杉並区","address":"東京都杉並区梅里1丁目2-27","lat":35.69562996,"lon":139.65120635},{"name":"杉並浄水所","province":"東京都","city":"杉並区","address":"東京都杉並区善福寺3丁目28-5","lat":35.71512328,"lon":139.58868285},{"name":"和泉水圧調整所","province":"東京都","city":"杉並区","address":"東京都杉並区和泉2丁目5-23","lat":35.67117459,"lon":139.6530821},{"name":"上井草給水所","province":"東京都","city":"杉並区","address":"東京都杉並区上井草3丁目22-12","lat":35.72163399,"lon":139.60123435},{"name":"区立蚕糸の森公園","province":"東京都","city":"杉並区","address":"東京都杉並区和田3丁目55","lat":35.69724103,"lon":139.65698631},{"name":"区立昭栄公園","province":"東京都","city":"杉並区","address":"東京都杉並区高井戸西1丁目12","lat":35.68102216,"lon":139.60876867},{"name":"区立井草森公園","province":"東京都","city":"杉並区","address":"東京都杉並区下井草4丁目12-14","lat":35.71990697,"lon":139.62165216},{"name":"区立馬橋公園","province":"東京都","city":"杉並区","address":"東京都杉並区高円寺北4丁目35-5","lat":35.7096309,"lon":139.64303976},{"name":"都立和田掘公園陸上競技場","province":"東京都","city":"杉並区","address":"東京都杉並区大宮1丁目6","lat":35.68397002,"lon":139.64332973},{"name":"済美山運動場広場","province":"東京都","city":"杉並区","address":"東京都杉並区堀ノ内1丁目15","lat":35.68507832,"lon":139.64686271},{"name":"ＮＨＫ旧富士見ヶ丘運動場","province":"東京都","city":"杉並区","address":"東京都杉並区久我山2丁目2-1","lat":35.68135258,"lon":139.60559113},{"name":"杉並区立柏の宮公園","province":"東京都","city":"杉並区","address":"東京都杉並区浜田山2丁目5-1","lat":35.67749532,"lon":139.62648411},{"name":"杉並区立井草森公園","province":"東京都","city":"杉並区","address":"東京都杉並区下井草4丁目12-14","lat":35.71990697,"lon":139.62165216},{"name":"杉並区選挙管理委員会","province":"東京都","city":"杉並区","address":"杉並区阿佐谷南1-15-1","lat":35.699661,"lon":139.636188},{"name":"杉並高等学校","province":"東京都","city":"杉並区","address":"東京都杉並区成田西4丁目15-15","lat":35.69697092,"lon":139.6316163},{"name":"荻窪高等学校","province":"東京都","city":"杉並区","address":"東京都杉並区荻窪5丁目7-20","lat":35.7019839,"lon":139.61940594},{"name":"豊多摩高等学校","province":"東京都","city":"杉並区","address":"東京都杉並区成田西2丁目6-18","lat":35.68911344,"lon":139.62882241},{"name":"西高等学校","province":"東京都","city":"杉並区","address":"東京都杉並区宮前4丁目21-32","lat":35.69236797,"lon":139.60574349},{"name":"農芸高等学校","province":"東京都","city":"杉並区","address":"東京都杉並区今川3丁目25-1","lat":35.71812612,"lon":139.6038315},{"name":"杉並工業高等学校","province":"東京都","city":"杉並区","address":"東京都杉並区上井草4丁目13-31","lat":35.7194314,"lon":139.59898463},{"name":"杉並総合高等学校","province":"東京都","city":"杉並区","address":"東京都杉並区下高井戸5丁目17-1","lat":35.67657033,"lon":139.62262609},{"name":"杉並区","province":"東京都","city":"杉並区","address":"杉並区荻窪4-21-17","lat":35.70351,"lon":139.6225},{"name":"（株）千代田","province":"東京都","city":"杉並区","address":"杉並区南荻窪3-29-12","lat":35.7039,"lon":139.6101},{"name":"東日本電信電話（株）杉並ビル","province":"東京都","city":"杉並区","address":"杉並区梅里2-36-11","lat":35.6975,"lon":139.6409},{"name":"杉並区社会福祉協議会","province":"東京都","city":"杉並区","address":"杉並区天沼3-19-16ウェルファーム杉並2-4階","lat":35.71038,"lon":139.620908},{"name":"杉並区役所","province":"東京都","city":"杉並区","address":"東京都杉並区阿佐谷南1丁目15-1","lat":35.699595,"lon":139.636363},{"name":"東京工芸大学 杉並アニメーションミュージアム","province":"東京都","city":"杉並区","address":"東京都杉並区上荻3丁目29-5杉並会館3階","lat":35.71039,"lon":139.607852},{"name":"荻窪地域区民センター","province":"東京都","city":"杉並区","address":"東京都杉並区荻窪2丁目34-20","lat":35.698638,"lon":139.618996},{"name":"高井戸地域区民センター","province":"東京都","city":"杉並区","address":"東京都杉並区高井戸東3丁目7-5高井戸市民センター","lat":35.683633,"lon":139.616331},{"name":"西荻地域区民センター","province":"東京都","city":"杉並区","address":"東京都杉並区桃井4丁目3-2","lat":35.712616,"lon":139.60207},{"name":"阿佐谷地域区民センター","province":"東京都","city":"杉並区","address":"東京都杉並区阿佐谷北1丁目1-1","lat":35.70545,"lon":139.641003},{"name":"高円寺地域区民センター","province":"東京都","city":"杉並区","address":"東京都杉並区梅里1丁目22番32号セシオン杉並","lat":35.683644,"lon":139.616303},{"name":"永福和泉地域区民センター","province":"東京都","city":"杉並区","address":"東京都杉並区和泉3丁目8-18","lat":35.675722,"lon":139.64589},{"name":"井草地域区民センター","province":"東京都","city":"杉並区","address":"東京都杉並区下井草5丁目7-22","lat":35.720608,"lon":139.616443},{"name":"久我山会館","province":"東京都","city":"杉並区","address":"東京都杉並区久我山3丁目23-20","lat":35.686582,"lon":139.599273},{"name":"杉並会館","province":"東京都","city":"杉並区","address":"東京都杉並区上荻3丁目29-5","lat":35.710433,"lon":139.607833},{"name":"コミュニティふらっと阿佐谷","province":"東京都","city":"杉並区","address":"東京都杉並区阿佐谷北2丁目18-17","lat":35.706116,"lon":139.633669},{"name":"コミュニティふらっと馬橋","province":"東京都","city":"杉並区","address":"東京都杉並区高円寺南3丁目29-5","lat":35.702001,"lon":139.643861},{"name":"コミュニティふらっと東原","province":"東京都","city":"杉並区","address":"東京都杉並区下井草1丁目23-23","lat":35.715743,"lon":139.631444},{"name":"コミュニティふらっと永福","province":"東京都","city":"杉並区","address":"東京都杉並区永福3丁目51-173階","lat":35.678413,"lon":139.638018},{"name":"コミュニティふらっと成田","province":"東京都","city":"杉並区","address":"東京都杉並区成田西1丁目28-18","lat":35.690727,"lon":139.631454},{"name":"中央図書館","province":"東京都","city":"杉並区","address":"東京都杉並区荻窪3丁目40-23","lat":35.701897,"lon":139.626747},{"name":"永福図書館","province":"東京都","city":"杉並区","address":"東京都杉並区永福3丁目51-17","lat":35.678506,"lon":139.637991},{"name":"柿木図書館","province":"東京都","city":"杉並区","address":"東京都杉並区上井草1丁目6-13","lat":35.720278,"lon":139.612113},{"name":"高円寺図書館","province":"東京都","city":"杉並区","address":"東京都杉並区高円寺南2丁目36-25","lat":35.700403,"lon":139.654102},{"name":"宮前図書館","province":"東京都","city":"杉並区","address":"東京都杉並区宮前5丁目5-27","lat":35.693108,"lon":139.598935},{"name":"成田図書館","province":"東京都","city":"杉並区","address":"東京都杉並区成田東3丁目28-5","lat":35.695091,"lon":139.637467},{"name":"西荻図書館","province":"東京都","city":"杉並区","address":"東京都杉並区西荻北2丁目33-9","lat":35.707837,"lon":139.605921},{"name":"阿佐谷図書館","province":"東京都","city":"杉並区","address":"東京都杉並区阿佐谷北3丁目36-14","lat":35.711692,"lon":139.633234},{"name":"南荻窪図書館","province":"東京都","city":"杉並区","address":"東京都杉並区南荻窪1丁目10-2","lat":35.695049,"lon":139.614458},{"name":"下井草図書館","province":"東京都","city":"杉並区","address":"東京都杉並区下井草3丁目26-5","lat":35.720907,"lon":139.623265},{"name":"高井戸図書館","province":"東京都","city":"杉並区","address":"東京都杉並区高井戸東1丁目28-1","lat":35.681597,"lon":139.622938},{"name":"方南図書館","province":"東京都","city":"杉並区","address":"東京都杉並区方南1丁目51-2","lat":35.67908,"lon":139.659913},{"name":"今川図書館","province":"東京都","city":"杉並区","address":"東京都杉並区今川4丁目12-10","lat":35.715598,"lon":139.599856},{"name":"就労支援センター","province":"東京都","city":"杉並区","address":"東京都杉並区天沼3丁目19-16ウェルファーム杉並複合施設棟1階","lat":35.710095,"lon":139.620796},{"name":"太田黒公園","province":"東京都","city":"杉並区","address":"東京都杉並区荻窪3丁目33-12","lat":35.700751,"lon":139.624424},{"name":"角川庭園","province":"東京都","city":"杉並区","address":"東京都杉並区荻窪3丁目14-22","lat":35.698688,"lon":139.624437},{"name":"杉並区社会福祉協議会","province":"東京都","city":"杉並区","address":"杉並区天沼3-19-16ウェルファーム杉並2、4階","lat":35.71005,"lon":139.62056},{"name":"ケア24上井草","province":"東京都","city":"杉並区","address":"杉並区上井草3-33-10","lat":35.724243,"lon":139.602463},{"name":"ケア24下井草","province":"東京都","city":"杉並区","address":"杉並区下井草2-44-4","lat":35.723587,"lon":139.625412},{"name":"ケア24善福寺","province":"東京都","city":"杉並区","address":"杉並区西荻北4-31-11","lat":35.709129,"lon":139.592743},{"name":"ケア24上荻","province":"東京都","city":"杉並区","address":"杉並区上荻3-16-6","lat":35.708717,"lon":139.607788},{"name":"ケア24西荻","province":"東京都","city":"杉並区","address":"杉並区西荻南4-2-7","lat":35.699791,"lon":139.604813},{"name":"ケア24清水","province":"東京都","city":"杉並区","address":"杉並区清水2-15-24","lat":35.714237,"lon":139.618286},{"name":"ケア24荻窪","province":"東京都","city":"杉並区","address":"杉並区荻窪5-20-1","lat":35.701988,"lon":139.620255},{"name":"ケア24南荻窪","province":"東京都","city":"杉並区","address":"杉並区南荻窪2-28-13","lat":35.699345,"lon":139.613159},{"name":"ケア24阿佐谷","province":"東京都","city":"杉並区","address":"杉並区阿佐谷北1-3-12","lat":35.705463,"lon":139.63858},{"name":"ケア24成田","province":"東京都","city":"杉並区","address":"杉並区成田西3-7-4","lat":35.693752,"lon":139.631973},{"name":"ケア24松ノ木","province":"東京都","city":"杉並区","address":"杉並区松ノ木3-3-4","lat":35.692619,"lon":139.644409},{"name":"ケア24高円寺","province":"東京都","city":"杉並区","address":"杉並区高円寺南4-26-16","lat":35.704582,"lon":139.649536},{"name":"ケア24梅里","province":"東京都","city":"杉並区","address":"杉並区梅里1-7-17","lat":35.697685,"lon":139.649414},{"name":"ケア24和田","province":"東京都","city":"杉並区","address":"杉並区和田3-52-4","lat":35.696148,"lon":139.654663},{"name":"ケア24久我山","province":"東京都","city":"杉並区","address":"杉並区久我山3-47-16","lat":35.690121,"lon":139.593414},{"name":"ケア24高井戸","province":"東京都","city":"杉並区","address":"杉並区高井戸西1-12-1","lat":35.67963,"lon":139.609787},{"name":"ケア24浜田山","province":"東京都","city":"杉並区","address":"杉並区浜田山1-36-3","lat":35.680233,"lon":139.629898},{"name":"ケア24堀ノ内","province":"東京都","city":"杉並区","address":"杉並区堀ノ内1-6-6","lat":35.683041,"lon":139.653595},{"name":"ケア24永福","province":"東京都","city":"杉並区","address":"杉並区永福3-35-11","lat":35.678196,"lon":139.635666},{"name":"ケア24方南","province":"東京都","city":"杉並区","address":"杉並区方南2-6-28","lat":35.680653,"lon":139.659454},{"name":"杉並区立消費者センター","province":"東京都","city":"杉並区","address":"杉並区天沼3-19-16ウェルファーム杉並3階","lat":35.710388,"lon":139.620667},{"name":"医療法人財団荻窪病院","province":"東京都","city":"杉並区","address":"東京都杉並区今川3丁目1-24","lat":35.71524321,"lon":139.607323},{"name":"堀ノ内斎場","province":"東京都","city":"杉並区","address":"東京都杉並区梅里1丁目2-27","lat":35.69562996,"lon":139.65120635},{"name":"杉並浄水所","province":"東京都","city":"杉並区","address":"東京都杉並区善福寺3丁目28-5","lat":35.71512328,"lon":139.58868285},{"name":"和泉水圧調整所","province":"東京都","city":"杉並区","address":"東京都杉並区和泉2丁目5-23","lat":35.67117459,"lon":139.6530821},{"name":"上井草給水所","province":"東京都","city":"杉並区","address":"東京都杉並区上井草3丁目22-12","lat":35.72163399,"lon":139.60123435},{"name":"区立蚕糸の森公園","province":"東京都","city":"杉並区","address":"東京都杉並区和田3丁目55","lat":35.69724103,"lon":139.65698631},{"name":"区立昭栄公園","province":"東京都","city":"杉並区","address":"東京都杉並区高井戸西1丁目12","lat":35.68102216,"lon":139.60876867},{"name":"区立井草森公園","province":"東京都","city":"杉並区","address":"東京都杉並区下井草4丁目12-14","lat":35.71990697,"lon":139.62165216},{"name":"区立馬橋公園","province":"東京都","city":"杉並区","address":"東京都杉並区高円寺北4丁目35-5","lat":35.7096309,"lon":139.64303976},{"name":"都立和田掘公園陸上競技場","province":"東京都","city":"杉並区","address":"東京都杉並区大宮1丁目6","lat":35.68397002,"lon":139.64332973},{"name":"済美山運動場広場","province":"東京都","city":"杉並区","address":"東京都杉並区堀ノ内1丁目15","lat":35.68507832,"lon":139.64686271},{"name":"ＮＨＫ旧富士見ヶ丘運動場","province":"東京都","city":"杉並区","address":"東京都杉並区久我山2丁目2-1","lat":35.68135258,"lon":139.60559113},{"name":"杉並区立柏の宮公園","province":"東京都","city":"杉並区","address":"東京都杉並区浜田山2丁目5-1","lat":35.67749532,"lon":139.62648411},{"name":"杉並区立井草森公園","province":"東京都","city":"杉並区","address":"東京都杉並区下井草4丁目12-14","lat":35.71990697,"lon":139.62165216},{"name":"杉並高等学校","province":"東京都","city":"杉並区","address":"東京都杉並区成田西4丁目15-15","lat":35.69697092,"lon":139.6316163},{"name":"荻窪高等学校","province":"東京都","city":"杉並区","address":"東京都杉並区荻窪5丁目7-20","lat":35.7019839,"lon":139.61940594},{"name":"豊多摩高等学校","province":"東京都","city":"杉並区","address":"東京都杉並区成田西2丁目6-18","lat":35.68911344,"lon":139.62882241},{"name":"西高等学校","province":"東京都","city":"杉並区","address":"東京都杉並区宮前4丁目21-32","lat":35.69236797,"lon":139.60574349},{"name":"農芸高等学校","province":"東京都","city":"杉並区","address":"東京都杉並区今川3丁目25-1","lat":35.71812612,"lon":139.6038315},{"name":"杉並工業高等学校","province":"東京都","city":"杉並区","address":"東京都杉並区上井草4丁目13-31","lat":35.7194314,"lon":139.59898463},{"name":"杉並総合高等学校","province":"東京都","city":"杉並区","address":"東京都杉並区下高井戸5丁目17-1","lat":35.67657033,"lon":139.62262609},{"name":"杉並区","province":"東京都","city":"杉並区","address":"杉並区荻窪4-21-17","lat":35.70351,"lon":139.6225},{"name":"（株）千代田","province":"東京都","city":"杉並区","address":"杉並区南荻窪3-29-12","lat":35.7039,"lon":139.6101},{"name":"東日本電信電話（株）杉並ビル","province":"東京都","city":"杉並区","address":"杉並区梅里2-36-11","lat":35.6975,"lon":139.6409},{"name":"杉並区役所","province":"東京都","city":"杉並区","address":"東京都杉並区阿佐谷南1丁目15-1","lat":35.699595,"lon":139.636363},{"name":"東京工芸大学 杉並アニメーションミュージアム","province":"東京都","city":"杉並区","address":"東京都杉並区上荻3丁目29-5杉並会館3階","lat":35.71039,"lon":139.607852},{"name":"荻窪地域区民センター","province":"東京都","city":"杉並区","address":"東京都杉並区荻窪2丁目34-20","lat":35.698638,"lon":139.618996},{"name":"高井戸地域区民センター","province":"東京都","city":"杉並区","address":"東京都杉並区高井戸東3丁目7-5高井戸市民センター","lat":35.683633,"lon":139.616331},{"name":"西荻地域区民センター","province":"東京都","city":"杉並区","address":"東京都杉並区桃井4丁目3-2","lat":35.712616,"lon":139.60207},{"name":"阿佐谷地域区民センター","province":"東京都","city":"杉並区","address":"東京都杉並区阿佐谷北1丁目1-1","lat":35.70545,"lon":139.641003},{"name":"高円寺地域区民センター","province":"東京都","city":"杉並区","address":"東京都杉並区梅里1丁目22番32号セシオン杉並","lat":35.683644,"lon":139.616303},{"name":"永福和泉地域区民センター","province":"東京都","city":"杉並区","address":"東京都杉並区和泉3丁目8-18","lat":35.675722,"lon":139.64589},{"name":"井草地域区民センター","province":"東京都","city":"杉並区","address":"東京都杉並区下井草5丁目7-22","lat":35.720608,"lon":139.616443},{"name":"久我山会館","province":"東京都","city":"杉並区","address":"東京都杉並区久我山3丁目23-20","lat":35.686582,"lon":139.599273},{"name":"杉並会館","province":"東京都","city":"杉並区","address":"東京都杉並区上荻3丁目29-5","lat":35.710433,"lon":139.607833},{"name":"コミュニティふらっと阿佐谷","province":"東京都","city":"杉並区","address":"東京都杉並区阿佐谷北2丁目18-17","lat":35.706116,"lon":139.633669},{"name":"コミュニティふらっと馬橋","province":"東京都","city":"杉並区","address":"東京都杉並区高円寺南3丁目29-5","lat":35.702001,"lon":139.643861},{"name":"コミュニティふらっと東原","province":"東京都","city":"杉並区","address":"東京都杉並区下井草1丁目23-23","lat":35.715743,"lon":139.631444},{"name":"コミュニティふらっと永福","province":"東京都","city":"杉並区","address":"東京都杉並区永福3丁目51-173階","lat":35.678413,"lon":139.638018},{"name":"コミュニティふらっと成田","province":"東京都","city":"杉並区","address":"東京都杉並区成田西1丁目28-18","lat":35.690727,"lon":139.631454},{"name":"中央図書館","province":"東京都","city":"杉並区","address":"東京都杉並区荻窪3丁目40-23","lat":35.701897,"lon":139.626747},{"name":"永福図書館","province":"東京都","city":"杉並区","address":"東京都杉並区永福3丁目51-17","lat":35.678506,"lon":139.637991},{"name":"柿木図書館","province":"東京都","city":"杉並区","address":"東京都杉並区上井草1丁目6-13","lat":35.720278,"lon":139.612113},{"name":"高円寺図書館","province":"東京都","city":"杉並区","address":"東京都杉並区高円寺南2丁目36-25","lat":35.700403,"lon":139.654102},{"name":"宮前図書館","province":"東京都","city":"杉並区","address":"東京都杉並区宮前5丁目5-27","lat":35.693108,"lon":139.598935},{"name":"成田図書館","province":"東京都","city":"杉並区","address":"東京都杉並区成田東3丁目28-5","lat":35.695091,"lon":139.637467},{"name":"西荻図書館","province":"東京都","city":"杉並区","address":"東京都杉並区西荻北2丁目33-9","lat":35.707837,"lon":139.605921},{"name":"阿佐谷図書館","province":"東京都","city":"杉並区","address":"東京都杉並区阿佐谷北3丁目36-14","lat":35.711692,"lon":139.633234},{"name":"南荻窪図書館","province":"東京都","city":"杉並区","address":"東京都杉並区南荻窪1丁目10-2","lat":35.695049,"lon":139.614458},{"name":"下井草図書館","province":"東京都","city":"杉並区","address":"東京都杉並区下井草3丁目26-5","lat":35.720907,"lon":139.623265},{"name":"高井戸図書館","province":"東京都","city":"杉並区","address":"東京都杉並区高井戸東1丁目28-1","lat":35.681597,"lon":139.622938},{"name":"方南図書館","province":"東京都","city":"杉並区","address":"東京都杉並区方南1丁目51-2","lat":35.67908,"lon":139.659913},{"name":"今川図書館","province":"東京都","city":"杉並区","address":"東京都杉並区今川4丁目12-10","lat":35.715598,"lon":139.599856},{"name":"就労支援センター","province":"東京都","city":"杉並区","address":"東京都杉並区天沼3丁目19-16ウェルファーム杉並複合施設棟1階","lat":35.710095,"lon":139.620796},{"name":"太田黒公園","province":"東京都","city":"杉並区","address":"東京都杉並区荻窪3丁目33-12","lat":35.700751,"lon":139.624424},{"name":"角川庭園","province":"東京都","city":"杉並区","address":"東京都杉並区荻窪3丁目14-22","lat":35.698688,"lon":139.624437},{"name":"ケア24上井草","province":"東京都","city":"杉並区","address":"杉並区上井草3-33-10","lat":35.724243,"lon":139.602463},{"name":"ケア24下井草","province":"東京都","city":"杉並区","address":"杉並区下井草2-44-4","lat":35.723587,"lon":139.625412},{"name":"ケア24善福寺","province":"東京都","city":"杉並区","address":"杉並区西荻北4-31-11","lat":35.709129,"lon":139.592743},{"name":"ケア24上荻","province":"東京都","city":"杉並区","address":"杉並区上荻3-16-6","lat":35.708717,"lon":139.607788},{"name":"ケア24西荻","province":"東京都","city":"杉並区","address":"杉並区西荻南4-2-7","lat":35.699791,"lon":139.604813},{"name":"ケア24清水","province":"東京都","city":"杉並区","address":"杉並区清水2-15-24","lat":35.714237,"lon":139.618286},{"name":"ケア24荻窪","province":"東京都","city":"杉並区","address":"杉並区荻窪5-20-1","lat":35.701988,"lon":139.620255},{"name":"ケア24南荻窪","province":"東京都","city":"杉並区","address":"杉並区南荻窪2-28-13","lat":35.699345,"lon":139.613159},{"name":"ケア24阿佐谷","province":"東京都","city":"杉並区","address":"杉並区阿佐谷北1-3-12","lat":35.705463,"lon":139.63858},{"name":"ケア24成田","province":"東京都","city":"杉並区","address":"杉並区成田西3-7-4","lat":35.693752,"lon":139.631973},{"name":"ケア24松ノ木","province":"東京都","city":"杉並区","address":"杉並区松ノ木3-3-4","lat":35.692619,"lon":139.644409},{"name":"ケア24高円寺","province":"東京都","city":"杉並区","address":"杉並区高円寺南4-26-16","lat":35.704582,"lon":139.649536},{"name":"ケア24梅里","province":"東京都","city":"杉並区","address":"杉並区梅里1-7-17","lat":35.697685,"lon":139.649414},{"name":"ケア24和田","province":"東京都","city":"杉並区","address":"杉並区和田3-52-4","lat":35.696148,"lon":139.654663},{"name":"ケア24久我山","province":"東京都","city":"杉並区","address":"杉並区久我山3-47-16","lat":35.690121,"lon":139.593414},{"name":"ケア24高井戸","province":"東京都","city":"杉並区","address":"杉並区高井戸西1-12-1","lat":35.67963,"lon":139.609787},{"name":"ケア24浜田山","province":"東京都","city":"杉並区","address":"杉並区浜田山1-36-3","lat":35.680233,"lon":139.629898},{"name":"ケア24堀ノ内","province":"東京都","city":"杉並区","address":"杉並区堀ノ内1-6-6","lat":35.683041,"lon":139.653595},{"name":"ケア24永福","province":"東京都","city":"杉並区","address":"杉並区永福3-35-11","lat":35.678196,"lon":139.635666},{"name":"ケア24方南","province":"東京都","city":"杉並区","address":"杉並区方南2-6-28","lat":35.680653,"lon":139.659454},{"name":"杉並区立消費者センター","province":"東京都","city":"杉並区","address":"杉並区天沼3-19-16ウェルファーム杉並3階","lat":35.710388,"lon":139.620667},{"name":"医療法人財団荻窪病院","province":"東京都","city":"杉並区","address":"東京都杉並区今川3丁目1-24","lat":35.71524321,"lon":139.607323},{"name":"杉並高等学校","province":"東京都","city":"杉並区","address":"東京都杉並区成田西4丁目15-15","lat":35.69697092,"lon":139.6316163},{"name":"荻窪高等学校","province":"東京都","city":"杉並区","address":"東京都杉並区荻窪5丁目7-20","lat":35.7019839,"lon":139.61940594},{"name":"豊多摩高等学校","province":"東京都","city":"杉並区","address":"東京都杉並区成田西2丁目6-18","lat":35.68911344,"lon":139.62882241},{"name":"西高等学校","province":"東京都","city":"杉並区","address":"東京都杉並区宮前4丁目21-32","lat":35.69236797,"lon":139.60574349},{"name":"農芸高等学校","province":"東京都","city":"杉並区","address":"東京都杉並区今川3丁目25-1","lat":35.71812612,"lon":139.6038315},{"name":"杉並工業高等学校","province":"東京都","city":"杉並区","address":"東京都杉並区上井草4丁目13-31","lat":35.7194314,"lon":139.59898463},{"name":"杉並総合高等学校","province":"東京都","city":"杉並区","address":"東京都杉並区下高井戸5丁目17-1","lat":35.67657033,"lon":139.62262609},{"name":"杉並区役所","province":"東京都","city":"杉並区","address":"東京都杉並区阿佐谷南1丁目15-1","lat":35.699595,"lon":139.636363},{"name":"東京工芸大学 杉並アニメーションミュージアム","province":"東京都","city":"杉並区","address":"東京都杉並区上荻3丁目29-5杉並会館3階","lat":35.71039,"lon":139.607852},{"name":"荻窪地域区民センター","province":"東京都","city":"杉並区","address":"東京都杉並区荻窪2丁目34-20","lat":35.698638,"lon":139.618996},{"name":"高井戸地域区民センター","province":"東京都","city":"杉並区","address":"東京都杉並区高井戸東3丁目7-5高井戸市民センター","lat":35.683633,"lon":139.616331},{"name":"西荻地域区民センター","province":"東京都","city":"杉並区","address":"東京都杉並区桃井4丁目3-2","lat":35.712616,"lon":139.60207},{"name":"阿佐谷地域区民センター","province":"東京都","city":"杉並区","address":"東京都杉並区阿佐谷北1丁目1-1","lat":35.70545,"lon":139.641003},{"name":"高円寺地域区民センター","province":"東京都","city":"杉並区","address":"東京都杉並区梅里1丁目22番32号セシオン杉並","lat":35.683644,"lon":139.616303},{"name":"永福和泉地域区民センター","province":"東京都","city":"杉並区","address":"東京都杉並区和泉3丁目8-18","lat":35.675722,"lon":139.64589},{"name":"井草地域区民センター","province":"東京都","city":"杉並区","address":"東京都杉並区下井草5丁目7-22","lat":35.720608,"lon":139.616443},{"name":"久我山会館","province":"東京都","city":"杉並区","address":"東京都杉並区久我山3丁目23-20","lat":35.686582,"lon":139.599273},{"name":"杉並会館","province":"東京都","city":"杉並区","address":"東京都杉並区上荻3丁目29-5","lat":35.710433,"lon":139.607833},{"name":"コミュニティふらっと阿佐谷","province":"東京都","city":"杉並区","address":"東京都杉並区阿佐谷北2丁目18-17","lat":35.706116,"lon":139.633669},{"name":"コミュニティふらっと馬橋","province":"東京都","city":"杉並区","address":"東京都杉並区高円寺南3丁目29-5","lat":35.702001,"lon":139.643861},{"name":"コミュニティふらっと東原","province":"東京都","city":"杉並区","address":"東京都杉並区下井草1丁目23-23","lat":35.715743,"lon":139.631444},{"name":"コミュニティふらっと永福","province":"東京都","city":"杉並区","address":"東京都杉並区永福3丁目51-173階","lat":35.678413,"lon":139.638018},{"name":"コミュニティふらっと成田","province":"東京都","city":"杉並区","address":"東京都杉並区成田西1丁目28-18","lat":35.690727,"lon":139.631454},{"name":"中央図書館","province":"東京都","city":"杉並区","address":"東京都杉並区荻窪3丁目40-23","lat":35.701897,"lon":139.626747},{"name":"永福図書館","province":"東京都","city":"杉並区","address":"東京都杉並区永福3丁目51-17","lat":35.678506,"lon":139.637991},{"name":"柿木図書館","province":"東京都","city":"杉並区","address":"東京都杉並区上井草1丁目6-13","lat":35.720278,"lon":139.612113},{"name":"高円寺図書館","province":"東京都","city":"杉並区","address":"東京都杉並区高円寺南2丁目36-25","lat":35.700403,"lon":139.654102},{"name":"宮前図書館","province":"東京都","city":"杉並区","address":"東京都杉並区宮前5丁目5-27","lat":35.693108,"lon":139.598935},{"name":"成田図書館","province":"東京都","city":"杉並区","address":"東京都杉並区成田東3丁目28-5","lat":35.695091,"lon":139.637467},{"name":"西荻図書館","province":"東京都","city":"杉並区","address":"東京都杉並区西荻北2丁目33-9","lat":35.707837,"lon":139.605921},{"name":"阿佐谷図書館","province":"東京都","city":"杉並区","address":"東京都杉並区阿佐谷北3丁目36-14","lat":35.711692,"lon":139.633234},{"name":"南荻窪図書館","province":"東京都","city":"杉並区","address":"東京都杉並区南荻窪1丁目10-2","lat":35.695049,"lon":139.614458},{"name":"下井草図書館","province":"東京都","city":"杉並区","address":"東京都杉並区下井草3丁目26-5","lat":35.720907,"lon":139.623265},{"name":"高井戸図書館","province":"東京都","city":"杉並区","address":"東京都杉並区高井戸東1丁目28-1","lat":35.681597,"lon":139.622938},{"name":"方南図書館","province":"東京都","city":"杉並区","address":"東京都杉並区方南1丁目51-2","lat":35.67908,"lon":139.659913},{"name":"今川図書館","province":"東京都","city":"杉並区","address":"東京都杉並区今川4丁目12-10","lat":35.715598,"lon":139.599856},{"name":"就労支援センター","province":"東京都","city":"杉並区","address":"東京都杉並区天沼3丁目19-16ウェルファーム杉並複合施設棟1階","lat":35.710095,"lon":139.620796},{"name":"太田黒公園","province":"東京都","city":"杉並区","address":"東京都杉並区荻窪3丁目33-12","lat":35.700751,"lon":139.624424},{"name":"角川庭園","province":"東京都","city":"杉並区","address":"東京都杉並区荻窪3丁目14-22","lat":35.698688,"lon":139.624437},{"name":"ケア24上井草","province":"東京都","city":"杉並区","address":"杉並区上井草3-33-10","lat":35.724243,"lon":139.602463},{"name":"ケア24下井草","province":"東京都","city":"杉並区","address":"杉並区下井草2-44-4","lat":35.723587,"lon":139.625412},{"name":"ケア24善福寺","province":"東京都","city":"杉並区","address":"杉並区西荻北4-31-11","lat":35.709129,"lon":139.592743},{"name":"ケア24上荻","province":"東京都","city":"杉並区","address":"杉並区上荻3-16-6","lat":35.708717,"lon":139.607788},{"name":"ケア24西荻","province":"東京都","city":"杉並区","address":"杉並区西荻南4-2-7","lat":35.699791,"lon":139.604813},{"name":"ケア24清水","province":"東京都","city":"杉並区","address":"杉並区清水2-15-24","lat":35.714237,"lon":139.618286},{"name":"ケア24荻窪","province":"東京都","city":"杉並区","address":"杉並区荻窪5-20-1","lat":35.701988,"lon":139.620255},{"name":"ケア24南荻窪","province":"東京都","city":"杉並区","address":"杉並区南荻窪2-28-13","lat":35.699345,"lon":139.613159},{"name":"ケア24阿佐谷","province":"東京都","city":"杉並区","address":"杉並区阿佐谷北1-3-12","lat":35.705463,"lon":139.63858},{"name":"ケア24成田","province":"東京都","city":"杉並区","address":"杉並区成田西3-7-4","lat":35.693752,"lon":139.631973},{"name":"ケア24松ノ木","province":"東京都","city":"杉並区","address":"杉並区松ノ木3-3-4","lat":35.692619,"lon":139.644409},{"name":"ケア24高円寺","province":"東京都","city":"杉並区","address":"杉並区高円寺南4-26-16","lat":35.704582,"lon":139.649536},{"name":"ケア24梅里","province":"東京都","city":"杉並区","address":"杉並区梅里1-7-17","lat":35.697685,"lon":139.649414},{"name":"ケア24和田","province":"東京都","city":"杉並区","address":"杉並区和田3-52-4","lat":35.696148,"lon":139.654663},{"name":"ケア24久我山","province":"東京都","city":"杉並区","address":"杉並区久我山3-47-16","lat":35.690121,"lon":139.593414},{"name":"ケア24高井戸","province":"東京都","city":"杉並区","address":"杉並区高井戸西1-12-1","lat":35.67963,"lon":139.609787},{"name":"ケア24浜田山","province":"東京都","city":"杉並区","address":"杉並区浜田山1-36-3","lat":35.680233,"lon":139.629898},{"name":"ケア24堀ノ内","province":"東京都","city":"杉並区","address":"杉並区堀ノ内1-6-6","lat":35.683041,"lon":139.653595},{"name":"ケア24永福","province":"東京都","city":"杉並区","address":"杉並区永福3-35-11","lat":35.678196,"lon":139.635666},{"name":"ケア24方南","province":"東京都","city":"杉並区","address":"杉並区方南2-6-28","lat":35.680653,"lon":139.659454},{"name":"杉並区立消費者センター","province":"東京都","city":"杉並区","address":"杉並区天沼3-19-16ウェルファーム杉並3階","lat":35.710388,"lon":139.620667},{"name":"医療法人財団荻窪病院","province":"東京都","city":"杉並区","address":"東京都杉並区今川3丁目1-24","lat":35.71524321,"lon":139.607323},{"name":"杉並高等学校","province":"東京都","city":"杉並区","address":"東京都杉並区成田西4丁目15-15","lat":35.69697092,"lon":139.6316163},{"name":"荻窪高等学校","province":"東京都","city":"杉並区","address":"東京都杉並区荻窪5丁目7-20","lat":35.7019839,"lon":139.61940594},{"name":"豊多摩高等学校","province":"東京都","city":"杉並区","address":"東京都杉並区成田西2丁目6-18","lat":35.68911344,"lon":139.62882241},{"name":"西高等学校","province":"東京都","city":"杉並区","address":"東京都杉並区宮前4丁目21-32","lat":35.69236797,"lon":139.60574349},{"name":"農芸高等学校","province":"東京都","city":"杉並区","address":"東京都杉並区今川3丁目25-1","lat":35.71812612,"lon":139.6038315},{"name":"杉並工業高等学校","province":"東京都","city":"杉並区","address":"東京都杉並区上井草4丁目13-31","lat":35.7194314,"lon":139.59898463},{"name":"杉並総合高等学校","province":"東京都","city":"杉並区","address":"東京都杉並区下高井戸5丁目17-1","lat":35.67657033,"lon":139.62262609},{"name":"杉並区役所","province":"東京都","city":"杉並区","address":"東京都杉並区阿佐谷南1丁目15-1","lat":35.699595,"lon":139.636363},{"name":"東京工芸大学 杉並アニメーションミュージアム","province":"東京都","city":"杉並区","address":"東京都杉並区上荻3丁目29-5杉並会館3階","lat":35.71039,"lon":139.607852},{"name":"荻窪地域区民センター","province":"東京都","city":"杉並区","address":"東京都杉並区荻窪2丁目34-20","lat":35.698638,"lon":139.618996},{"name":"高井戸地域区民センター","province":"東京都","city":"杉並区","address":"東京都杉並区高井戸東3丁目7-5高井戸市民センター","lat":35.683633,"lon":139.616331},{"name":"西荻地域区民センター","province":"東京都","city":"杉並区","address":"東京都杉並区桃井4丁目3-2","lat":35.712616,"lon":139.60207},{"name":"阿佐谷地域区民センター","province":"東京都","city":"杉並区","address":"東京都杉並区阿佐谷北1丁目1-1","lat":35.70545,"lon":139.641003},{"name":"高円寺地域区民センター","province":"東京都","city":"杉並区","address":"東京都杉並区梅里1丁目22番32号セシオン杉並","lat":35.683644,"lon":139.616303},{"name":"永福和泉地域区民センター","province":"東京都","city":"杉並区","address":"東京都杉並区和泉3丁目8-18","lat":35.675722,"lon":139.64589},{"name":"井草地域区民センター","province":"東京都","city":"杉並区","address":"東京都杉並区下井草5丁目7-22","lat":35.720608,"lon":139.616443},{"name":"久我山会館","province":"東京都","city":"杉並区","address":"東京都杉並区久我山3丁目23-20","lat":35.686582,"lon":139.599273},{"name":"杉並会館","province":"東京都","city":"杉並区","address":"東京都杉並区上荻3丁目29-5","lat":35.710433,"lon":139.607833},{"name":"コミュニティふらっと阿佐谷","province":"東京都","city":"杉並区","address":"東京都杉並区阿佐谷北2丁目18-17","lat":35.706116,"lon":139.633669},{"name":"コミュニティふらっと馬橋","province":"東京都","city":"杉並区","address":"東京都杉並区高円寺南3丁目29-5","lat":35.702001,"lon":139.643861},{"name":"コミュニティふらっと東原","province":"東京都","city":"杉並区","address":"東京都杉並区下井草1丁目23-23","lat":35.715743,"lon":139.631444},{"name":"コミュニティふらっと永福","province":"東京都","city":"杉並区","address":"東京都杉並区永福3丁目51-173階","lat":35.678413,"lon":139.638018},{"name":"コミュニティふらっと成田","province":"東京都","city":"杉並区","address":"東京都杉並区成田西1丁目28-18","lat":35.690727,"lon":139.631454},{"name":"中央図書館","province":"東京都","city":"杉並区","address":"東京都杉並区荻窪3丁目40-23","lat":35.701897,"lon":139.626747},{"name":"永福図書館","province":"東京都","city":"杉並区","address":"東京都杉並区永福3丁目51-17","lat":35.678506,"lon":139.637991},{"name":"柿木図書館","province":"東京都","city":"杉並区","address":"東京都杉並区上井草1丁目6-13","lat":35.720278,"lon":139.612113},{"name":"高円寺図書館","province":"東京都","city":"杉並区","address":"東京都杉並区高円寺南2丁目36-25","lat":35.700403,"lon":139.654102},{"name":"宮前図書館","province":"東京都","city":"杉並区","address":"東京都杉並区宮前5丁目5-27","lat":35.693108,"lon":139.598935},{"name":"成田図書館","province":"東京都","city":"杉並区","address":"東京都杉並区成田東3丁目28-5","lat":35.695091,"lon":139.637467},{"name":"西荻図書館","province":"東京都","city":"杉並区","address":"東京都杉並区西荻北2丁目33-9","lat":35.707837,"lon":139.605921},{"name":"阿佐谷図書館","province":"東京都","city":"杉並区","address":"東京都杉並区阿佐谷北3丁目36-14","lat":35.711692,"lon":139.633234},{"name":"南荻窪図書館","province":"東京都","city":"杉並区","address":"東京都杉並区南荻窪1丁目10-2","lat":35.695049,"lon":139.614458},{"name":"下井草図書館","province":"東京都","city":"杉並区","address":"東京都杉並区下井草3丁目26-5","lat":35.720907,"lon":139.623265},{"name":"高井戸図書館","province":"東京都","city":"杉並区","address":"東京都杉並区高井戸東1丁目28-1","lat":35.681597,"lon":139.622938},{"name":"方南図書館","province":"東京都","city":"杉並区","address":"東京都杉並区方南1丁目51-2","lat":35.67908,"lon":139.659913},{"name":"今川図書館","province":"東京都","city":"杉並区","address":"東京都杉並区今川4丁目12-10","lat":35.715598,"lon":139.599856},{"name":"就労支援センター","province":"東京都","city":"杉並区","address":"東京都杉並区天沼3丁目19-16ウェルファーム杉並複合施設棟1階","lat":35.710095,"lon":139.620796},{"name":"太田黒公園","province":"東京都","city":"杉並区","address":"東京都杉並区荻窪3丁目33-12","lat":35.700751,"lon":139.624424},{"name":"角川庭園","province":"東京都","city":"杉並区","address":"東京都杉並区荻窪3丁目14-22","lat":35.698688,"lon":139.624437},{"name":"ケア24上井草","province":"東京都","city":"杉並区","address":"杉並区上井草3-33-10","lat":35.724243,"lon":139.602463},{"name":"ケア24下井草","province":"東京都","city":"杉並区","address":"杉並区下井草2-44-4","lat":35.723587,"lon":139.625412},{"name":"ケア24善福寺","province":"東京都","city":"杉並区","address":"杉並区西荻北4-31-11","lat":35.709129,"lon":139.592743},{"name":"ケア24上荻","province":"東京都","city":"杉並区","address":"杉並区上荻3-16-6","lat":35.708717,"lon":139.607788},{"name":"ケア24西荻","province":"東京都","city":"杉並区","address":"杉並区西荻南4-2-7","lat":35.699791,"lon":139.604813},{"name":"ケア24清水","province":"東京都","city":"杉並区","address":"杉並区清水2-15-24","lat":35.714237,"lon":139.618286},{"name":"ケア24荻窪","province":"東京都","city":"杉並区","address":"杉並区荻窪5-20-1","lat":35.701988,"lon":139.620255},{"name":"ケア24南荻窪","province":"東京都","city":"杉並区","address":"杉並区南荻窪2-28-13","lat":35.699345,"lon":139.613159},{"name":"ケア24阿佐谷","province":"東京都","city":"杉並区","address":"杉並区阿佐谷北1-3-12","lat":35.705463,"lon":139.63858},{"name":"ケア24成田","province":"東京都","city":"杉並区","address":"杉並区成田西3-7-4","lat":35.693752,"lon":139.631973},{"name":"ケア24松ノ木","province":"東京都","city":"杉並区","address":"杉並区松ノ木3-3-4","lat":35.692619,"lon":139.644409},{"name":"ケア24高円寺","province":"東京都","city":"杉並区","address":"杉並区高円寺南4-26-16","lat":35.704582,"lon":139.649536},{"name":"ケア24梅里","province":"東京都","city":"杉並区","address":"杉並区梅里1-7-17","lat":35.697685,"lon":139.649414},{"name":"ケア24和田","province":"東京都","city":"杉並区","address":"杉並区和田3-52-4","lat":35.696148,"lon":139.654663},{"name":"ケア24久我山","province":"東京都","city":"杉並区","address":"杉並区久我山3-47-16","lat":35.690121,"lon":139.593414},{"name":"ケア24高井戸","province":"東京都","city":"杉並区","address":"杉並区高井戸西1-12-1","lat":35.67963,"lon":139.609787},{"name":"ケア24浜田山","province":"東京都","city":"杉並区","address":"杉並区浜田山1-36-3","lat":35.680233,"lon":139.629898},{"name":"ケア24堀ノ内","province":"東京都","city":"杉並区","address":"杉並区堀ノ内1-6-6","lat":35.683041,"lon":139.653595},{"name":"ケア24永福","province":"東京都","city":"杉並区","address":"杉並区永福3-35-11","lat":35.678196,"lon":139.635666},{"name":"ケア24方南","province":"東京都","city":"杉並区","address":"杉並区方南2-6-28","lat":35.680653,"lon":139.659454},{"name":"杉並区立消費者センター","province":"東京都","city":"杉並区","address":"杉並区天沼3-19-16ウェルファーム杉並3階","lat":35.710388,"lon":139.620667},{"name":"杉並区役所","province":"東京都","city":"杉並区","address":"東京都杉並区阿佐谷南1丁目15-1","lat":35.699595,"lon":139.636363},{"name":"東京工芸大学 杉並アニメーションミュージアム","province":"東京都","city":"杉並区","address":"東京都杉並区上荻3丁目29-5杉並会館3階","lat":35.71039,"lon":139.607852},{"name":"荻窪地域区民センター","province":"東京都","city":"杉並区","address":"東京都杉並区荻窪2丁目34-20","lat":35.698638,"lon":139.618996},{"name":"高井戸地域区民センター","province":"東京都","city":"杉並区","address":"東京都杉並区高井戸東3丁目7-5高井戸市民センター","lat":35.683633,"lon":139.616331},{"name":"西荻地域区民センター","province":"東京都","city":"杉並区","address":"東京都杉並区桃井4丁目3-2","lat":35.712616,"lon":139.60207},{"name":"阿佐谷地域区民センター","province":"東京都","city":"杉並区","address":"東京都杉並区阿佐谷北1丁目1-1","lat":35.70545,"lon":139.641003},{"name":"高円寺地域区民センター","province":"東京都","city":"杉並区","address":"東京都杉並区梅里1丁目22番32号セシオン杉並","lat":35.683644,"lon":139.616303},{"name":"永福和泉地域区民センター","province":"東京都","city":"杉並区","address":"東京都杉並区和泉3丁目8-18","lat":35.675722,"lon":139.64589},{"name":"井草地域区民センター","province":"東京都","city":"杉並区","address":"東京都杉並区下井草5丁目7-22","lat":35.720608,"lon":139.616443},{"name":"久我山会館","province":"東京都","city":"杉並区","address":"東京都杉並区久我山3丁目23-20","lat":35.686582,"lon":139.599273},{"name":"杉並会館","province":"東京都","city":"杉並区","address":"東京都杉並区上荻3丁目29-5","lat":35.710433,"lon":139.607833},{"name":"コミュニティふらっと阿佐谷","province":"東京都","city":"杉並区","address":"東京都杉並区阿佐谷北2丁目18-17","lat":35.706116,"lon":139.633669},{"name":"コミュニティふらっと馬橋","province":"東京都","city":"杉並区","address":"東京都杉並区高円寺南3丁目29-5","lat":35.702001,"lon":139.643861},{"name":"コミュニティふらっと東原","province":"東京都","city":"杉並区","address":"東京都杉並区下井草1丁目23-23","lat":35.715743,"lon":139.631444},{"name":"コミュニティふらっと永福","province":"東京都","city":"杉並区","address":"東京都杉並区永福3丁目51-173階","lat":35.678413,"lon":139.638018},{"name":"コミュニティふらっと成田","province":"東京都","city":"杉並区","address":"東京都杉並区成田西1丁目28-18","lat":35.690727,"lon":139.631454},{"name":"中央図書館","province":"東京都","city":"杉並区","address":"東京都杉並区荻窪3丁目40-23","lat":35.701897,"lon":139.626747},{"name":"永福図書館","province":"東京都","city":"杉並区","address":"東京都杉並区永福3丁目51-17","lat":35.678506,"lon":139.637991},{"name":"柿木図書館","province":"東京都","city":"杉並区","address":"東京都杉並区上井草1丁目6-13","lat":35.720278,"lon":139.612113},{"name":"高円寺図書館","province":"東京都","city":"杉並区","address":"東京都杉並区高円寺南2丁目36-25","lat":35.700403,"lon":139.654102},{"name":"宮前図書館","province":"東京都","city":"杉並区","address":"東京都杉並区宮前5丁目5-27","lat":35.693108,"lon":139.598935},{"name":"成田図書館","province":"東京都","city":"杉並区","address":"東京都杉並区成田東3丁目28-5","lat":35.695091,"lon":139.637467},{"name":"西荻図書館","province":"東京都","city":"杉並区","address":"東京都杉並区西荻北2丁目33-9","lat":35.707837,"lon":139.605921},{"name":"阿佐谷図書館","province":"東京都","city":"杉並区","address":"東京都杉並区阿佐谷北3丁目36-14","lat":35.711692,"lon":139.633234},{"name":"南荻窪図書館","province":"東京都","city":"杉並区","address":"東京都杉並区南荻窪1丁目10-2","lat":35.695049,"lon":139.614458},{"name":"下井草図書館","province":"東京都","city":"杉並区","address":"東京都杉並区下井草3丁目26-5","lat":35.720907,"lon":139.623265},{"name":"高井戸図書館","province":"東京都","city":"杉並区","address":"東京都杉並区高井戸東1丁目28-1","lat":35.681597,"lon":139.622938},{"name":"方南図書館","province":"東京都","city":"杉並区","address":"東京都杉並区方南1丁目51-2","lat":35.67908,"lon":139.659913},{"name":"今川図書館","province":"東京都","city":"杉並区","address":"東京都杉並区今川4丁目12-10","lat":35.715598,"lon":139.599856},{"name":"就労支援センター","province":"東京都","city":"杉並区","address":"東京都杉並区天沼3丁目19-16ウェルファーム杉並複合施設棟1階","lat":35.710095,"lon":139.620796},{"name":"太田黒公園","province":"東京都","city":"杉並区","address":"東京都杉並区荻窪3丁目33-12","lat":35.700751,"lon":139.624424},{"name":"角川庭園","province":"東京都","city":"杉並区","address":"東京都杉並区荻窪3丁目14-22","lat":35.698688,"lon":139.624437},{"name":"ケア24上井草","province":"東京都","city":"杉並区","address":"杉並区上井草3-33-10","lat":35.724243,"lon":139.602463},{"name":"ケア24下井草","province":"東京都","city":"杉並区","address":"杉並区下井草2-44-4","lat":35.723587,"lon":139.625412},{"name":"ケア24善福寺","province":"東京都","city":"杉並区","address":"杉並区西荻北4-31-11","lat":35.709129,"lon":139.592743},{"name":"ケア24上荻","province":"東京都","city":"杉並区","address":"杉並区上荻3-16-6","lat":35.708717,"lon":139.607788},{"name":"ケア24西荻","province":"東京都","city":"杉並区","address":"杉並区西荻南4-2-7","lat":35.699791,"lon":139.604813},{"name":"ケア24清水","province":"東京都","city":"杉並区","address":"杉並区清水2-15-24","lat":35.714237,"lon":139.618286},{"name":"ケア24荻窪","province":"東京都","city":"杉並区","address":"杉並区荻窪5-20-1","lat":35.701988,"lon":139.620255},{"name":"ケア24南荻窪","province":"東京都","city":"杉並区","address":"杉並区南荻窪2-28-13","lat":35.699345,"lon":139.613159},{"name":"ケア24阿佐谷","province":"東京都","city":"杉並区","address":"杉並区阿佐谷北1-3-12","lat":35.705463,"lon":139.63858},{"name":"ケア24成田","province":"東京都","city":"杉並区","address":"杉並区成田西3-7-4","lat":35.693752,"lon":139.631973},{"name":"ケア24松ノ木","province":"東京都","city":"杉並区","address":"杉並区松ノ木3-3-4","lat":35.692619,"lon":139.644409},{"name":"ケア24高円寺","province":"東京都","city":"杉並区","address":"杉並区高円寺南4-26-16","lat":35.704582,"lon":139.649536},{"name":"ケア24梅里","province":"東京都","city":"杉並区","address":"杉並区梅里1-7-17","lat":35.697685,"lon":139.649414},{"name":"ケア24和田","province":"東京都","city":"杉並区","address":"杉並区和田3-52-4","lat":35.696148,"lon":139.654663},{"name":"ケア24久我山","province":"東京都","city":"杉並区","address":"杉並区久我山3-47-16","lat":35.690121,"lon":139.593414},{"name":"ケア24高井戸","province":"東京都","city":"杉並区","address":"杉並区高井戸西1-12-1","lat":35.67963,"lon":139.609787},{"name":"ケア24浜田山","province":"東京都","city":"杉並区","address":"杉並区浜田山1-36-3","lat":35.680233,"lon":139.629898},{"name":"ケア24堀ノ内","province":"東京都","city":"杉並区","address":"杉並区堀ノ内1-6-6","lat":35.683041,"lon":139.653595},{"name":"ケア24永福","province":"東京都","city":"杉並区","address":"杉並区永福3-35-11","lat":35.678196,"lon":139.635666},{"name":"ケア24方南","province":"東京都","city":"杉並区","address":"杉並区方南2-6-28","lat":35.680653,"lon":139.659454},{"name":"杉並区立消費者センター","province":"東京都","city":"杉並区","address":"杉並区天沼3-19-16ウェルファーム杉並3階","lat":35.710388,"lon":139.620667},{"name":"杉並区役所","province":"東京都","city":"杉並区","address":"東京都杉並区阿佐谷南1丁目15-1","lat":35.699595,"lon":139.636363},{"name":"東京工芸大学 杉並アニメーションミュージアム","province":"東京都","city":"杉並区","address":"東京都杉並区上荻3丁目29-5杉並会館3階","lat":35.71039,"lon":139.607852},{"name":"荻窪地域区民センター","province":"東京都","city":"杉並区","address":"東京都杉並区荻窪2丁目34-20","lat":35.698638,"lon":139.618996},{"name":"高井戸地域区民センター","province":"東京都","city":"杉並区","address":"東京都杉並区高井戸東3丁目7-5高井戸市民センター","lat":35.683633,"lon":139.616331},{"name":"西荻地域区民センター","province":"東京都","city":"杉並区","address":"東京都杉並区桃井4丁目3-2","lat":35.712616,"lon":139.60207},{"name":"阿佐谷地域区民センター","province":"東京都","city":"杉並区","address":"東京都杉並区阿佐谷北1丁目1-1","lat":35.70545,"lon":139.641003},{"name":"高円寺地域区民センター","province":"東京都","city":"杉並区","address":"東京都杉並区梅里1丁目22番32号セシオン杉並","lat":35.683644,"lon":139.616303},{"name":"永福和泉地域区民センター","province":"東京都","city":"杉並区","address":"東京都杉並区和泉3丁目8-18","lat":35.675722,"lon":139.64589},{"name":"井草地域区民センター","province":"東京都","city":"杉並区","address":"東京都杉並区下井草5丁目7-22","lat":35.720608,"lon":139.616443},{"name":"久我山会館","province":"東京都","city":"杉並区","address":"東京都杉並区久我山3丁目23-20","lat":35.686582,"lon":139.599273},{"name":"杉並会館","province":"東京都","city":"杉並区","address":"東京都杉並区上荻3丁目29-5","lat":35.710433,"lon":139.607833},{"name":"コミュニティふらっと阿佐谷","province":"東京都","city":"杉並区","address":"東京都杉並区阿佐谷北2丁目18-17","lat":35.706116,"lon":139.633669},{"name":"コミュニティふらっと馬橋","province":"東京都","city":"杉並区","address":"東京都杉並区高円寺南3丁目29-5","lat":35.702001,"lon":139.643861},{"name":"コミュニティふらっと東原","province":"東京都","city":"杉並区","address":"東京都杉並区下井草1丁目23-23","lat":35.715743,"lon":139.631444},{"name":"コミュニティふらっと永福","province":"東京都","city":"杉並区","address":"東京都杉並区永福3丁目51-173階","lat":35.678413,"lon":139.638018},{"name":"コミュニティふらっと成田","province":"東京都","city":"杉並区","address":"東京都杉並区成田西1丁目28-18","lat":35.690727,"lon":139.631454},{"name":"中央図書館","province":"東京都","city":"杉並区","address":"東京都杉並区荻窪3丁目40-23","lat":35.701897,"lon":139.626747},{"name":"永福図書館","province":"東京都","city":"杉並区","address":"東京都杉並区永福3丁目51-17","lat":35.678506,"lon":139.637991},{"name":"柿木図書館","province":"東京都","city":"杉並区","address":"東京都杉並区上井草1丁目6-13","lat":35.720278,"lon":139.612113},{"name":"高円寺図書館","province":"東京都","city":"杉並区","address":"東京都杉並区高円寺南2丁目36-25","lat":35.700403,"lon":139.654102},{"name":"宮前図書館","province":"東京都","city":"杉並区","address":"東京都杉並区宮前5丁目5-27","lat":35.693108,"lon":139.598935},{"name":"成田図書館","province":"東京都","city":"杉並区","address":"東京都杉並区成田東3丁目28-5","lat":35.695091,"lon":139.637467},{"name":"西荻図書館","province":"東京都","city":"杉並区","address":"東京都杉並区西荻北2丁目33-9","lat":35.707837,"lon":139.605921},{"name":"阿佐谷図書館","province":"東京都","city":"杉並区","address":"東京都杉並区阿佐谷北3丁目36-14","lat":35.711692,"lon":139.633234},{"name":"南荻窪図書館","province":"東京都","city":"杉並区","address":"東京都杉並区南荻窪1丁目10-2","lat":35.695049,"lon":139.614458},{"name":"下井草図書館","province":"東京都","city":"杉並区","address":"東京都杉並区下井草3丁目26-5","lat":35.720907,"lon":139.623265},{"name":"高井戸図書館","province":"東京都","city":"杉並区","address":"東京都杉並区高井戸東1丁目28-1","lat":35.681597,"lon":139.622938},{"name":"方南図書館","province":"東京都","city":"杉並区","address":"東京都杉並区方南1丁目51-2","lat":35.67908,"lon":139.659913},{"name":"今川図書館","province":"東京都","city":"杉並区","address":"東京都杉並区今川4丁目12-10","lat":35.715598,"lon":139.599856},{"name":"就労支援センター","province":"東京都","city":"杉並区","address":"東京都杉並区天沼3丁目19-16ウェルファーム杉並複合施設棟1階","lat":35.710095,"lon":139.620796},{"name":"太田黒公園","province":"東京都","city":"杉並区","address":"東京都杉並区荻窪3丁目33-12","lat":35.700751,"lon":139.624424},{"name":"角川庭園","province":"東京都","city":"杉並区","address":"東京都杉並区荻窪3丁目14-22","lat":35.698688,"lon":139.624437},{"name":"ケア24上井草","province":"東京都","city":"杉並区","address":"杉並区上井草3-33-10","lat":35.724243,"lon":139.602463},{"name":"ケア24下井草","province":"東京都","city":"杉並区","address":"杉並区下井草2-44-4","lat":35.723587,"lon":139.625412},{"name":"ケア24善福寺","province":"東京都","city":"杉並区","address":"杉並区西荻北4-31-11","lat":35.709129,"lon":139.592743},{"name":"ケア24上荻","province":"東京都","city":"杉並区","address":"杉並区上荻3-16-6","lat":35.708717,"lon":139.607788},{"name":"ケア24西荻","province":"東京都","city":"杉並区","address":"杉並区西荻南4-2-7","lat":35.699791,"lon":139.604813},{"name":"ケア24清水","province":"東京都","city":"杉並区","address":"杉並区清水2-15-24","lat":35.714237,"lon":139.618286},{"name":"ケア24荻窪","province":"東京都","city":"杉並区","address":"杉並区荻窪5-20-1","lat":35.701988,"lon":139.620255},{"name":"ケア24南荻窪","province":"東京都","city":"杉並区","address":"杉並区南荻窪2-28-13","lat":35.699345,"lon":139.613159},{"name":"ケア24阿佐谷","province":"東京都","city":"杉並区","address":"杉並区阿佐谷北1-3-12","lat":35.705463,"lon":139.63858},{"name":"ケア24成田","province":"東京都","city":"杉並区","address":"杉並区成田西3-7-4","lat":35.693752,"lon":139.631973},{"name":"ケア24松ノ木","province":"東京都","city":"杉並区","address":"杉並区松ノ木3-3-4","lat":35.692619,"lon":139.644409},{"name":"ケア24高円寺","province":"東京都","city":"杉並区","address":"杉並区高円寺南4-26-16","lat":35.704582,"lon":139.649536},{"name":"ケア24梅里","province":"東京都","city":"杉並区","address":"杉並区梅里1-7-17","lat":35.697685,"lon":139.649414},{"name":"ケア24和田","province":"東京都","city":"杉並区","address":"杉並区和田3-52-4","lat":35.696148,"lon":139.654663},{"name":"ケア24久我山","province":"東京都","city":"杉並区","address":"杉並区久我山3-47-16","lat":35.690121,"lon":139.593414},{"name":"ケア24高井戸","province":"東京都","city":"杉並区","address":"杉並区高井戸西1-12-1","lat":35.67963,"lon":139.609787},{"name":"ケア24浜田山","province":"東京都","city":"杉並区","address":"杉並区浜田山1-36-3","lat":35.680233,"lon":139.629898},{"name":"ケア24堀ノ内","province":"東京都","city":"杉並区","address":"杉並区堀ノ内1-6-6","lat":35.683041,"lon":139.653595},{"name":"ケア24永福","province":"東京都","city":"杉並区","address":"杉並区永福3-35-11","lat":35.678196,"lon":139.635666},{"name":"ケア24方南","province":"東京都","city":"杉並区","address":"杉並区方南2-6-28","lat":35.680653,"lon":139.659454},{"name":"杉並区立消費者センター","province":"東京都","city":"杉並区","address":"杉並区天沼3-19-16ウェルファーム杉並3階","lat":35.710388,"lon":139.620667},{"name":"杉並区役所","province":"東京都","city":"杉並区","address":"東京都杉並区阿佐谷南1丁目15-1","lat":35.699595,"lon":139.636363},{"name":"東京工芸大学 杉並アニメーションミュージアム","province":"東京都","city":"杉並区","address":"東京都杉並区上荻3丁目29-5杉並会館3階","lat":35.71039,"lon":139.607852},{"name":"荻窪地域区民センター","province":"東京都","city":"杉並区","address":"東京都杉並区荻窪2丁目34-20","lat":35.698638,"lon":139.618996},{"name":"高井戸地域区民センター","province":"東京都","city":"杉並区","address":"東京都杉並区高井戸東3丁目7-5高井戸市民センター","lat":35.683633,"lon":139.616331},{"name":"西荻地域区民センター","province":"東京都","city":"杉並区","address":"東京都杉並区桃井4丁目3-2","lat":35.712616,"lon":139.60207},{"name":"阿佐谷地域区民センター","province":"東京都","city":"杉並区","address":"東京都杉並区阿佐谷北1丁目1-1","lat":35.70545,"lon":139.641003},{"name":"高円寺地域区民センター","province":"東京都","city":"杉並区","address":"東京都杉並区梅里1丁目22番32号セシオン杉並","lat":35.683644,"lon":139.616303},{"name":"永福和泉地域区民センター","province":"東京都","city":"杉並区","address":"東京都杉並区和泉3丁目8-18","lat":35.675722,"lon":139.64589},{"name":"井草地域区民センター","province":"東京都","city":"杉並区","address":"東京都杉並区下井草5丁目7-22","lat":35.720608,"lon":139.616443},{"name":"久我山会館","province":"東京都","city":"杉並区","address":"東京都杉並区久我山3丁目23-20","lat":35.686582,"lon":139.599273},{"name":"杉並会館","province":"東京都","city":"杉並区","address":"東京都杉並区上荻3丁目29-5","lat":35.710433,"lon":139.607833},{"name":"コミュニティふらっと阿佐谷","province":"東京都","city":"杉並区","address":"東京都杉並区阿佐谷北2丁目18-17","lat":35.706116,"lon":139.633669},{"name":"コミュニティふらっと馬橋","province":"東京都","city":"杉並区","address":"東京都杉並区高円寺南3丁目29-5","lat":35.702001,"lon":139.643861},{"name":"コミュニティふらっと東原","province":"東京都","city":"杉並区","address":"東京都杉並区下井草1丁目23-23","lat":35.715743,"lon":139.631444},{"name":"コミュニティふらっと永福","province":"東京都","city":"杉並区","address":"東京都杉並区永福3丁目51-173階","lat":35.678413,"lon":139.638018},{"name":"コミュニティふらっと成田","province":"東京都","city":"杉並区","address":"東京都杉並区成田西1丁目28-18","lat":35.690727,"lon":139.631454},{"name":"中央図書館","province":"東京都","city":"杉並区","address":"東京都杉並区荻窪3丁目40-23","lat":35.701897,"lon":139.626747},{"name":"永福図書館","province":"東京都","city":"杉並区","address":"東京都杉並区永福3丁目51-17","lat":35.678506,"lon":139.637991},{"name":"柿木図書館","province":"東京都","city":"杉並区","address":"東京都杉並区上井草1丁目6-13","lat":35.720278,"lon":139.612113},{"name":"高円寺図書館","province":"東京都","city":"杉並区","address":"東京都杉並区高円寺南2丁目36-25","lat":35.700403,"lon":139.654102},{"name":"宮前図書館","province":"東京都","city":"杉並区","address":"東京都杉並区宮前5丁目5-27","lat":35.693108,"lon":139.598935},{"name":"成田図書館","province":"東京都","city":"杉並区","address":"東京都杉並区成田東3丁目28-5","lat":35.695091,"lon":139.637467},{"name":"西荻図書館","province":"東京都","city":"杉並区","address":"東京都杉並区西荻北2丁目33-9","lat":35.707837,"lon":139.605921},{"name":"阿佐谷図書館","province":"東京都","city":"杉並区","address":"東京都杉並区阿佐谷北3丁目36-14","lat":35.711692,"lon":139.633234},{"name":"南荻窪図書館","province":"東京都","city":"杉並区","address":"東京都杉並区南荻窪1丁目10-2","lat":35.695049,"lon":139.614458},{"name":"下井草図書館","province":"東京都","city":"杉並区","address":"東京都杉並区下井草3丁目26-5","lat":35.720907,"lon":139.623265},{"name":"高井戸図書館","province":"東京都","city":"杉並区","address":"東京都杉並区高井戸東1丁目28-1","lat":35.681597,"lon":139.622938},{"name":"方南図書館","province":"東京都","city":"杉並区","address":"東京都杉並区方南1丁目51-2","lat":35.67908,"lon":139.659913},{"name":"今川図書館","province":"東京都","city":"杉並区","address":"東京都杉並区今川4丁目12-10","lat":35.715598,"lon":139.599856},{"name":"就労支援センター","province":"東京都","city":"杉並区","address":"東京都杉並区天沼3丁目19-16ウェルファーム杉並複合施設棟1階","lat":35.710095,"lon":139.620796},{"name":"太田黒公園","province":"東京都","city":"杉並区","address":"東京都杉並区荻窪3丁目33-12","lat":35.700751,"lon":139.624424},{"name":"角川庭園","province":"東京都","city":"杉並区","address":"東京都杉並区荻窪3丁目14-22","lat":35.698688,"lon":139.624437},{"name":"ケア24上井草","province":"東京都","city":"杉並区","address":"杉並区上井草3-33-10","lat":35.724243,"lon":139.602463},{"name":"ケア24下井草","province":"東京都","city":"杉並区","address":"杉並区下井草2-44-4","lat":35.723587,"lon":139.625412},{"name":"ケア24善福寺","province":"東京都","city":"杉並区","address":"杉並区西荻北4-31-11","lat":35.709129,"lon":139.592743},{"name":"ケア24上荻","province":"東京都","city":"杉並区","address":"杉並区上荻3-16-6","lat":35.708717,"lon":139.607788},{"name":"ケア24西荻","province":"東京都","city":"杉並区","address":"杉並区西荻南4-2-7","lat":35.699791,"lon":139.604813},{"name":"ケア24清水","province":"東京都","city":"杉並区","address":"杉並区清水2-15-24","lat":35.714237,"lon":139.618286},{"name":"ケア24荻窪","province":"東京都","city":"杉並区","address":"杉並区荻窪5-20-1","lat":35.701988,"lon":139.620255},{"name":"ケア24南荻窪","province":"東京都","city":"杉並区","address":"杉並区南荻窪2-28-13","lat":35.699345,"lon":139.613159},{"name":"ケア24阿佐谷","province":"東京都","city":"杉並区","address":"杉並区阿佐谷北1-3-12","lat":35.705463,"lon":139.63858},{"name":"ケア24成田","province":"東京都","city":"杉並区","address":"杉並区成田西3-7-4","lat":35.693752,"lon":139.631973},{"name":"ケア24松ノ木","province":"東京都","city":"杉並区","address":"杉並区松ノ木3-3-4","lat":35.692619,"lon":139.644409},{"name":"ケア24高円寺","province":"東京都","city":"杉並区","address":"杉並区高円寺南4-26-16","lat":35.704582,"lon":139.649536},{"name":"ケア24梅里","province":"東京都","city":"杉並区","address":"杉並区梅里1-7-17","lat":35.697685,"lon":139.649414},{"name":"ケア24和田","province":"東京都","city":"杉並区","address":"杉並区和田3-52-4","lat":35.696148,"lon":139.654663},{"name":"ケア24久我山","province":"東京都","city":"杉並区","address":"杉並区久我山3-47-16","lat":35.690121,"lon":139.593414},{"name":"ケア24高井戸","province":"東京都","city":"杉並区","address":"杉並区高井戸西1-12-1","lat":35.67963,"lon":139.609787},{"name":"ケア24浜田山","province":"東京都","city":"杉並区","address":"杉並区浜田山1-36-3","lat":35.680233,"lon":139.629898},{"name":"ケア24堀ノ内","province":"東京都","city":"杉並区","address":"杉並区堀ノ内1-6-6","lat":35.683041,"lon":139.653595},{"name":"ケア24永福","province":"東京都","city":"杉並区","address":"杉並区永福3-35-11","lat":35.678196,"lon":139.635666},{"name":"ケア24方南","province":"東京都","city":"杉並区","address":"杉並区方南2-6-28","lat":35.680653,"lon":139.659454},{"name":"杉並区立消費者センター","province":"東京都","city":"杉並区","address":"杉並区天沼3-19-16ウェルファーム杉並3階","lat":35.710388,"lon":139.620667},{"name":"ケア24上井草","province":"東京都","city":"杉並区","address":"杉並区上井草3-33-10","lat":35.724243,"lon":139.602463},{"name":"ケア24下井草","province":"東京都","city":"杉並区","address":"杉並区下井草2-44-4","lat":35.723587,"lon":139.625412},{"name":"ケア24善福寺","province":"東京都","city":"杉並区","address":"杉並区西荻北4-31-11","lat":35.709129,"lon":139.592743},{"name":"ケア24上荻","province":"東京都","city":"杉並区","address":"杉並区上荻3-16-6","lat":35.708717,"lon":139.607788},{"name":"ケア24西荻","province":"東京都","city":"杉並区","address":"杉並区西荻南4-2-7","lat":35.699791,"lon":139.604813},{"name":"ケア24清水","province":"東京都","city":"杉並区","address":"杉並区清水2-15-24","lat":35.714237,"lon":139.618286},{"name":"ケア24荻窪","province":"東京都","city":"杉並区","address":"杉並区荻窪5-20-1","lat":35.701988,"lon":139.620255},{"name":"ケア24南荻窪","province":"東京都","city":"杉並区","address":"杉並区南荻窪2-28-13","lat":35.699345,"lon":139.613159},{"name":"ケア24阿佐谷","province":"東京都","city":"杉並区","address":"杉並区阿佐谷北1-3-12","lat":35.705463,"lon":139.63858},{"name":"ケア24成田","province":"東京都","city":"杉並区","address":"杉並区成田西3-7-4","lat":35.693752,"lon":139.631973},{"name":"ケア24松ノ木","province":"東京都","city":"杉並区","address":"杉並区松ノ木3-3-4","lat":35.692619,"lon":139.644409},{"name":"ケア24高円寺","province":"東京都","city":"杉並区","address":"杉並区高円寺南4-26-16","lat":35.704582,"lon":139.649536},{"name":"ケア24梅里","province":"東京都","city":"杉並区","address":"杉並区梅里1-7-17","lat":35.697685,"lon":139.649414},{"name":"ケア24和田","province":"東京都","city":"杉並区","address":"杉並区和田3-52-4","lat":35.696148,"lon":139.654663},{"name":"ケア24久我山","province":"東京都","city":"杉並区","address":"杉並区久我山3-47-16","lat":35.690121,"lon":139.593414},{"name":"ケア24高井戸","province":"東京都","city":"杉並区","address":"杉並区高井戸西1-12-1","lat":35.67963,"lon":139.609787},{"name":"ケア24浜田山","province":"東京都","city":"杉並区","address":"杉並区浜田山1-36-3","lat":35.680233,"lon":139.629898},{"name":"ケア24堀ノ内","province":"東京都","city":"杉並区","address":"杉並区堀ノ内1-6-6","lat":35.683041,"lon":139.653595},{"name":"ケア24永福","province":"東京都","city":"杉並区","address":"杉並区永福3-35-11","lat":35.678196,"lon":139.635666},{"name":"ケア24方南","province":"東京都","city":"杉並区","address":"杉並区方南2-6-28","lat":35.680653,"lon":139.659454},{"name":"杉並区立消費者センター","province":"東京都","city":"杉並区","address":"杉並区天沼3-19-16ウェルファーム杉並3階","lat":35.710388,"lon":139.620667},{"name":"ケア24上井草","province":"東京都","city":"杉並区","address":"杉並区上井草3-33-10","lat":35.724243,"lon":139.602463},{"name":"ケア24下井草","province":"東京都","city":"杉並区","address":"杉並区下井草2-44-4","lat":35.723587,"lon":139.625412},{"name":"ケア24善福寺","province":"東京都","city":"杉並区","address":"杉並区西荻北4-31-11","lat":35.709129,"lon":139.592743},{"name":"ケア24上荻","province":"東京都","city":"杉並区","address":"杉並区上荻3-16-6","lat":35.708717,"lon":139.607788},{"name":"ケア24西荻","province":"東京都","city":"杉並区","address":"杉並区西荻南4-2-7","lat":35.699791,"lon":139.604813},{"name":"ケア24清水","province":"東京都","city":"杉並区","address":"杉並区清水2-15-24","lat":35.714237,"lon":139.618286},{"name":"ケア24荻窪","province":"東京都","city":"杉並区","address":"杉並区荻窪5-20-1","lat":35.701988,"lon":139.620255},{"name":"ケア24南荻窪","province":"東京都","city":"杉並区","address":"杉並区南荻窪2-28-13","lat":35.699345,"lon":139.613159},{"name":"ケア24阿佐谷","province":"東京都","city":"杉並区","address":"杉並区阿佐谷北1-3-12","lat":35.705463,"lon":139.63858},{"name":"ケア24成田","province":"東京都","city":"杉並区","address":"杉並区成田西3-7-4","lat":35.693752,"lon":139.631973},{"name":"ケア24松ノ木","province":"東京都","city":"杉並区","address":"杉並区松ノ木3-3-4","lat":35.692619,"lon":139.644409},{"name":"ケア24高円寺","province":"東京都","city":"杉並区","address":"杉並区高円寺南4-26-16","lat":35.704582,"lon":139.649536},{"name":"ケア24梅里","province":"東京都","city":"杉並区","address":"杉並区梅里1-7-17","lat":35.697685,"lon":139.649414},{"name":"ケア24和田","province":"東京都","city":"杉並区","address":"杉並区和田3-52-4","lat":35.696148,"lon":139.654663},{"name":"ケア24久我山","province":"東京都","city":"杉並区","address":"杉並区久我山3-47-16","lat":35.690121,"lon":139.593414},{"name":"ケア24高井戸","province":"東京都","city":"杉並区","address":"杉並区高井戸西1-12-1","lat":35.67963,"lon":139.609787},{"name":"ケア24浜田山","province":"東京都","city":"杉並区","address":"杉並区浜田山1-36-3","lat":35.680233,"lon":139.629898},{"name":"ケア24堀ノ内","province":"東京都","city":"杉並区","address":"杉並区堀ノ内1-6-6","lat":35.683041,"lon":139.653595},{"name":"ケア24永福","province":"東京都","city":"杉並区","address":"杉並区永福3-35-11","lat":35.678196,"lon":139.635666},{"name":"ケア24方南","province":"東京都","city":"杉並区","address":"杉並区方南2-6-28","lat":35.680653,"lon":139.659454},{"name":"杉並区立消費者センター","province":"東京都","city":"杉並区","address":"杉並区天沼3-19-16ウェルファーム杉並3階","lat":35.710388,"lon":139.620667},{"name":"ケア24上井草","province":"東京都","city":"杉並区","address":"杉並区上井草3-33-10","lat":35.724243,"lon":139.602463},{"name":"ケア24下井草","province":"東京都","city":"杉並区","address":"杉並区下井草2-44-4","lat":35.723587,"lon":139.625412},{"name":"ケア24善福寺","province":"東京都","city":"杉並区","address":"杉並区西荻北4-31-11","lat":35.709129,"lon":139.592743},{"name":"ケア24上荻","province":"東京都","city":"杉並区","address":"杉並区上荻3-16-6","lat":35.708717,"lon":139.607788},{"name":"ケア24西荻","province":"東京都","city":"杉並区","address":"杉並区西荻南4-2-7","lat":35.699791,"lon":139.604813},{"name":"ケア24清水","province":"東京都","city":"杉並区","address":"杉並区清水2-15-24","lat":35.714237,"lon":139.618286},{"name":"ケア24荻窪","province":"東京都","city":"杉並区","address":"杉並区荻窪5-20-1","lat":35.701988,"lon":139.620255},{"name":"ケア24南荻窪","province":"東京都","city":"杉並区","address":"杉並区南荻窪2-28-13","lat":35.699345,"lon":139.613159},{"name":"ケア24阿佐谷","province":"東京都","city":"杉並区","address":"杉並区阿佐谷北1-3-12","lat":35.705463,"lon":139.63858},{"name":"ケア24成田","province":"東京都","city":"杉並区","address":"杉並区成田西3-7-4","lat":35.693752,"lon":139.631973},{"name":"ケア24松ノ木","province":"東京都","city":"杉並区","address":"杉並区松ノ木3-3-4","lat":35.692619,"lon":139.644409},{"name":"ケア24高円寺","province":"東京都","city":"杉並区","address":"杉並区高円寺南4-26-16","lat":35.704582,"lon":139.649536},{"name":"ケア24梅里","province":"東京都","city":"杉並区","address":"杉並区梅里1-7-17","lat":35.697685,"lon":139.649414},{"name":"ケア24和田","province":"東京都","city":"杉並区","address":"杉並区和田3-52-4","lat":35.696148,"lon":139.654663},{"name":"ケア24久我山","province":"東京都","city":"杉並区","address":"杉並区久我山3-47-16","lat":35.690121,"lon":139.593414},{"name":"ケア24高井戸","province":"東京都","city":"杉並区","address":"杉並区高井戸西1-12-1","lat":35.67963,"lon":139.609787},{"name":"ケア24浜田山","province":"東京都","city":"杉並区","address":"杉並区浜田山1-36-3","lat":35.680233,"lon":139.629898},{"name":"ケア24堀ノ内","province":"東京都","city":"杉並区","address":"杉並区堀ノ内1-6-6","lat":35.683041,"lon":139.653595},{"name":"ケア24永福","province":"東京都","city":"杉並区","address":"杉並区永福3-35-11","lat":35.678196,"lon":139.635666},{"name":"ケア24方南","province":"東京都","city":"杉並区","address":"杉並区方南2-6-28","lat":35.680653,"lon":139.659454},{"name":"杉並区立消費者センター","province":"東京都","city":"杉並区","address":"杉並区天沼3-19-16ウェルファーム杉並3階","lat":35.710388,"lon":139.620667},{"name":"ケア24上井草","province":"東京都","city":"杉並区","address":"杉並区上井草3-33-10","lat":35.724243,"lon":139.602463},{"name":"ケア24下井草","province":"東京都","city":"杉並区","address":"杉並区下井草2-44-4","lat":35.723587,"lon":139.625412},{"name":"ケア24善福寺","province":"東京都","city":"杉並区","address":"杉並区西荻北4-31-11","lat":35.709129,"lon":139.592743},{"name":"ケア24上荻","province":"東京都","city":"杉並区","address":"杉並区上荻3-16-6","lat":35.708717,"lon":139.607788},{"name":"ケア24西荻","province":"東京都","city":"杉並区","address":"杉並区西荻南4-2-7","lat":35.699791,"lon":139.604813},{"name":"ケア24清水","province":"東京都","city":"杉並区","address":"杉並区清水2-15-24","lat":35.714237,"lon":139.618286},{"name":"ケア24荻窪","province":"東京都","city":"杉並区","address":"杉並区荻窪5-20-1","lat":35.701988,"lon":139.620255},{"name":"ケア24南荻窪","province":"東京都","city":"杉並区","address":"杉並区南荻窪2-28-13","lat":35.699345,"lon":139.613159},{"name":"ケア24阿佐谷","province":"東京都","city":"杉並区","address":"杉並区阿佐谷北1-3-12","lat":35.705463,"lon":139.63858},{"name":"ケア24成田","province":"東京都","city":"杉並区","address":"杉並区成田西3-7-4","lat":35.693752,"lon":139.631973},{"name":"ケア24松ノ木","province":"東京都","city":"杉並区","address":"杉並区松ノ木3-3-4","lat":35.692619,"lon":139.644409},{"name":"ケア24高円寺","province":"東京都","city":"杉並区","address":"杉並区高円寺南4-26-16","lat":35.704582,"lon":139.649536},{"name":"ケア24梅里","province":"東京都","city":"杉並区","address":"杉並区梅里1-7-17","lat":35.697685,"lon":139.649414},{"name":"ケア24和田","province":"東京都","city":"杉並区","address":"杉並区和田3-52-4","lat":35.696148,"lon":139.654663},{"name":"ケア24久我山","province":"東京都","city":"杉並区","address":"杉並区久我山3-47-16","lat":35.690121,"lon":139.593414},{"name":"ケア24高井戸","province":"東京都","city":"杉並区","address":"杉並区高井戸西1-12-1","lat":35.67963,"lon":139.609787},{"name":"ケア24浜田山","province":"東京都","city":"杉並区","address":"杉並区浜田山1-36-3","lat":35.680233,"lon":139.629898},{"name":"ケア24堀ノ内","province":"東京都","city":"杉並区","address":"杉並区堀ノ内1-6-6","lat":35.683041,"lon":139.653595},{"name":"ケア24永福","province":"東京都","city":"杉並区","address":"杉並区永福3-35-11","lat":35.678196,"lon":139.635666},{"name":"ケア24方南","province":"東京都","city":"杉並区","address":"杉並区方南2-6-28","lat":35.680653,"lon":139.659454},{"name":"杉並区立消費者センター","province":"東京都","city":"杉並区","address":"杉並区天沼3-19-16ウェルファーム杉並3階","lat":35.710388,"lon":139.620667},{"name":"ケア24上井草","province":"東京都","city":"杉並区","address":"杉並区上井草3-33-10","lat":35.724243,"lon":139.602463},{"name":"ケア24下井草","province":"東京都","city":"杉並区","address":"杉並区下井草2-44-4","lat":35.723587,"lon":139.625412},{"name":"ケア24善福寺","province":"東京都","city":"杉並区","address":"杉並区西荻北4-31-11","lat":35.709129,"lon":139.592743},{"name":"ケア24上荻","province":"東京都","city":"杉並区","address":"杉並区上荻3-16-6","lat":35.708717,"lon":139.607788},{"name":"ケア24西荻","province":"東京都","city":"杉並区","address":"杉並区西荻南4-2-7","lat":35.699791,"lon":139.604813},{"name":"ケア24清水","province":"東京都","city":"杉並区","address":"杉並区清水2-15-24","lat":35.714237,"lon":139.618286},{"name":"ケア24荻窪","province":"東京都","city":"杉並区","address":"杉並区荻窪5-20-1","lat":35.701988,"lon":139.620255},{"name":"ケア24南荻窪","province":"東京都","city":"杉並区","address":"杉並区南荻窪2-28-13","lat":35.699345,"lon":139.613159},{"name":"ケア24阿佐谷","province":"東京都","city":"杉並区","address":"杉並区阿佐谷北1-3-12","lat":35.705463,"lon":139.63858},{"name":"ケア24成田","province":"東京都","city":"杉並区","address":"杉並区成田西3-7-4","lat":35.693752,"lon":139.631973},{"name":"ケア24松ノ木","province":"東京都","city":"杉並区","address":"杉並区松ノ木3-3-4","lat":35.692619,"lon":139.644409},{"name":"ケア24高円寺","province":"東京都","city":"杉並区","address":"杉並区高円寺南4-26-16","lat":35.704582,"lon":139.649536},{"name":"ケア24梅里","province":"東京都","city":"杉並区","address":"杉並区梅里1-7-17","lat":35.697685,"lon":139.649414},{"name":"ケア24和田","province":"東京都","city":"杉並区","address":"杉並区和田3-52-4","lat":35.696148,"lon":139.654663},{"name":"ケア24久我山","province":"東京都","city":"杉並区","address":"杉並区久我山3-47-16","lat":35.690121,"lon":139.593414},{"name":"ケア24高井戸","province":"東京都","city":"杉並区","address":"杉並区高井戸西1-12-1","lat":35.67963,"lon":139.609787},{"name":"ケア24浜田山","province":"東京都","city":"杉並区","address":"杉並区浜田山1-36-3","lat":35.680233,"lon":139.629898},{"name":"ケア24堀ノ内","province":"東京都","city":"杉並区","address":"杉並区堀ノ内1-6-6","lat":35.683041,"lon":139.653595},{"name":"ケア24永福","province":"東京都","city":"杉並区","address":"杉並区永福3-35-11","lat":35.678196,"lon":139.635666},{"name":"ケア24方南","province":"東京都","city":"杉並区","address":"杉並区方南2-6-28","lat":35.680653,"lon":139.659454},{"name":"杉並区立消費者センター","province":"東京都","city":"杉並区","address":"杉並区天沼3-19-16ウェルファーム杉並3階","lat":35.710388,"lon":139.620667},{"name":"ケア24上井草","province":"東京都","city":"杉並区","address":"杉並区上井草3-33-10","lat":35.724243,"lon":139.602463},{"name":"ケア24下井草","province":"東京都","city":"杉並区","address":"杉並区下井草2-44-4","lat":35.723587,"lon":139.625412},{"name":"ケア24善福寺","province":"東京都","city":"杉並区","address":"杉並区西荻北4-31-11","lat":35.709129,"lon":139.592743},{"name":"ケア24上荻","province":"東京都","city":"杉並区","address":"杉並区上荻3-16-6","lat":35.708717,"lon":139.607788},{"name":"ケア24西荻","province":"東京都","city":"杉並区","address":"杉並区西荻南4-2-7","lat":35.699791,"lon":139.604813},{"name":"ケア24清水","province":"東京都","city":"杉並区","address":"杉並区清水2-15-24","lat":35.714237,"lon":139.618286},{"name":"ケア24荻窪","province":"東京都","city":"杉並区","address":"杉並区荻窪5-20-1","lat":35.701988,"lon":139.620255},{"name":"ケア24南荻窪","province":"東京都","city":"杉並区","address":"杉並区南荻窪2-28-13","lat":35.699345,"lon":139.613159},{"name":"ケア24阿佐谷","province":"東京都","city":"杉並区","address":"杉並区阿佐谷北1-3-12","lat":35.705463,"lon":139.63858},{"name":"ケア24成田","province":"東京都","city":"杉並区","address":"杉並区成田西3-7-4","lat":35.693752,"lon":139.631973},{"name":"ケア24松ノ木","province":"東京都","city":"杉並区","address":"杉並区松ノ木3-3-4","lat":35.692619,"lon":139.644409},{"name":"ケア24高円寺","province":"東京都","city":"杉並区","address":"杉並区高円寺南4-26-16","lat":35.704582,"lon":139.649536},{"name":"ケア24梅里","province":"東京都","city":"杉並区","address":"杉並区梅里1-7-17","lat":35.697685,"lon":139.649414},{"name":"ケア24和田","province":"東京都","city":"杉並区","address":"杉並区和田3-52-4","lat":35.696148,"lon":139.654663},{"name":"ケア24久我山","province":"東京都","city":"杉並区","address":"杉並区久我山3-47-16","lat":35.690121,"lon":139.593414},{"name":"ケア24高井戸","province":"東京都","city":"杉並区","address":"杉並区高井戸西1-12-1","lat":35.67963,"lon":139.609787},{"name":"ケア24浜田山","province":"東京都","city":"杉並区","address":"杉並区浜田山1-36-3","lat":35.680233,"lon":139.629898},{"name":"ケア24堀ノ内","province":"東京都","city":"杉並区","address":"杉並区堀ノ内1-6-6","lat":35.683041,"lon":139.653595},{"name":"ケア24永福","province":"東京都","city":"杉並区","address":"杉並区永福3-35-11","lat":35.678196,"lon":139.635666},{"name":"ケア24方南","province":"東京都","city":"杉並区","address":"杉並区方南2-6-28","lat":35.680653,"lon":139.659454},{"name":"杉並区立消費者センター","province":"東京都","city":"杉並区","address":"杉並区天沼3-19-16ウェルファーム杉並3階","lat":35.710388,"lon":139.620667},{"name":"ケア24上井草","province":"東京都","city":"杉並区","address":"杉並区上井草3-33-10","lat":35.724243,"lon":139.602463},{"name":"ケア24下井草","province":"東京都","city":"杉並区","address":"杉並区下井草2-44-4","lat":35.723587,"lon":139.625412},{"name":"ケア24善福寺","province":"東京都","city":"杉並区","address":"杉並区西荻北4-31-11","lat":35.709129,"lon":139.592743},{"name":"ケア24上荻","province":"東京都","city":"杉並区","address":"杉並区上荻3-16-6","lat":35.708717,"lon":139.607788},{"name":"ケア24西荻","province":"東京都","city":"杉並区","address":"杉並区西荻南4-2-7","lat":35.699791,"lon":139.604813},{"name":"ケア24清水","province":"東京都","city":"杉並区","address":"杉並区清水2-15-24","lat":35.714237,"lon":139.618286},{"name":"ケア24荻窪","province":"東京都","city":"杉並区","address":"杉並区荻窪5-20-1","lat":35.701988,"lon":139.620255},{"name":"ケア24南荻窪","province":"東京都","city":"杉並区","address":"杉並区南荻窪2-28-13","lat":35.699345,"lon":139.613159},{"name":"ケア24阿佐谷","province":"東京都","city":"杉並区","address":"杉並区阿佐谷北1-3-12","lat":35.705463,"lon":139.63858},{"name":"ケア24成田","province":"東京都","city":"杉並区","address":"杉並区成田西3-7-4","lat":35.693752,"lon":139.631973},{"name":"ケア24松ノ木","province":"東京都","city":"杉並区","address":"杉並区松ノ木3-3-4","lat":35.692619,"lon":139.644409},{"name":"ケア24高円寺","province":"東京都","city":"杉並区","address":"杉並区高円寺南4-26-16","lat":35.704582,"lon":139.649536},{"name":"ケア24梅里","province":"東京都","city":"杉並区","address":"杉並区梅里1-7-17","lat":35.697685,"lon":139.649414},{"name":"ケア24和田","province":"東京都","city":"杉並区","address":"杉並区和田3-52-4","lat":35.696148,"lon":139.654663},{"name":"ケア24久我山","province":"東京都","city":"杉並区","address":"杉並区久我山3-47-16","lat":35.690121,"lon":139.593414},{"name":"ケア24高井戸","province":"東京都","city":"杉並区","address":"杉並区高井戸西1-12-1","lat":35.67963,"lon":139.609787},{"name":"ケア24浜田山","province":"東京都","city":"杉並区","address":"杉並区浜田山1-36-3","lat":35.680233,"lon":139.629898},{"name":"ケア24堀ノ内","province":"東京都","city":"杉並区","address":"杉並区堀ノ内1-6-6","lat":35.683041,"lon":139.653595},{"name":"ケア24永福","province":"東京都","city":"杉並区","address":"杉並区永福3-35-11","lat":35.678196,"lon":139.635666},{"name":"ケア24方南","province":"東京都","city":"杉並区","address":"杉並区方南2-6-28","lat":35.680653,"lon":139.659454},{"name":"杉並区立消費者センター","province":"東京都","city":"杉並区","address":"杉並区天沼3-19-16ウェルファーム杉並3階","lat":35.710388,"lon":139.620667},{"name":"ケア24上井草","province":"東京都","city":"杉並区","address":"杉並区上井草3-33-10","lat":35.724243,"lon":139.602463},{"name":"ケア24下井草","province":"東京都","city":"杉並区","address":"杉並区下井草2-44-4","lat":35.723587,"lon":139.625412},{"name":"ケア24善福寺","province":"東京都","city":"杉並区","address":"杉並区西荻北4-31-11","lat":35.709129,"lon":139.592743},{"name":"ケア24上荻","province":"東京都","city":"杉並区","address":"杉並区上荻3-16-6","lat":35.708717,"lon":139.607788},{"name":"ケア24西荻","province":"東京都","city":"杉並区","address":"杉並区西荻南4-2-7","lat":35.699791,"lon":139.604813},{"name":"ケア24清水","province":"東京都","city":"杉並区","address":"杉並区清水2-15-24","lat":35.714237,"lon":139.618286},{"name":"ケア24荻窪","province":"東京都","city":"杉並区","address":"杉並区荻窪5-20-1","lat":35.701988,"lon":139.620255},{"name":"ケア24南荻窪","province":"東京都","city":"杉並区","address":"杉並区南荻窪2-28-13","lat":35.699345,"lon":139.613159},{"name":"ケア24阿佐谷","province":"東京都","city":"杉並区","address":"杉並区阿佐谷北1-3-12","lat":35.705463,"lon":139.63858},{"name":"ケア24成田","province":"東京都","city":"杉並区","address":"杉並区成田西3-7-4","lat":35.693752,"lon":139.631973},{"name":"ケア24松ノ木","province":"東京都","city":"杉並区","address":"杉並区松ノ木3-3-4","lat":35.692619,"lon":139.644409},{"name":"ケア24高円寺","province":"東京都","city":"杉並区","address":"杉並区高円寺南4-26-16","lat":35.704582,"lon":139.649536},{"name":"ケア24梅里","province":"東京都","city":"杉並区","address":"杉並区梅里1-7-17","lat":35.697685,"lon":139.649414},{"name":"ケア24和田","province":"東京都","city":"杉並区","address":"杉並区和田3-52-4","lat":35.696148,"lon":139.654663},{"name":"ケア24久我山","province":"東京都","city":"杉並区","address":"杉並区久我山3-47-16","lat":35.690121,"lon":139.593414},{"name":"ケア24高井戸","province":"東京都","city":"杉並区","address":"杉並区高井戸西1-12-1","lat":35.67963,"lon":139.609787},{"name":"ケア24浜田山","province":"東京都","city":"杉並区","address":"杉並区浜田山1-36-3","lat":35.680233,"lon":139.629898},{"name":"ケア24堀ノ内","province":"東京都","city":"杉並区","address":"杉並区堀ノ内1-6-6","lat":35.683041,"lon":139.653595},{"name":"ケア24永福","province":"東京都","city":"杉並区","address":"杉並区永福3-35-11","lat":35.678196,"lon":139.635666},{"name":"ケア24方南","province":"東京都","city":"杉並区","address":"杉並区方南2-6-28","lat":35.680653,"lon":139.659454},{"name":"杉並区立消費者センター","province":"東京都","city":"杉並区","address":"杉並区天沼3-19-16ウェルファーム杉並3階","lat":35.710388,"lon":139.620667},{"name":"ケア24上井草","province":"東京都","city":"杉並区","address":"杉並区上井草3-33-10","lat":35.724243,"lon":139.602463},{"name":"ケア24下井草","province":"東京都","city":"杉並区","address":"杉並区下井草2-44-4","lat":35.723587,"lon":139.625412},{"name":"ケア24善福寺","province":"東京都","city":"杉並区","address":"杉並区西荻北4-31-11","lat":35.709129,"lon":139.592743},{"name":"ケア24上荻","province":"東京都","city":"杉並区","address":"杉並区上荻3-16-6","lat":35.708717,"lon":139.607788},{"name":"ケア24西荻","province":"東京都","city":"杉並区","address":"杉並区西荻南4-2-7","lat":35.699791,"lon":139.604813},{"name":"ケア24清水","province":"東京都","city":"杉並区","address":"杉並区清水2-15-24","lat":35.714237,"lon":139.618286},{"name":"ケア24荻窪","province":"東京都","city":"杉並区","address":"杉並区荻窪5-20-1","lat":35.701988,"lon":139.620255},{"name":"ケア24南荻窪","province":"東京都","city":"杉並区","address":"杉並区南荻窪2-28-13","lat":35.699345,"lon":139.613159},{"name":"ケア24阿佐谷","province":"東京都","city":"杉並区","address":"杉並区阿佐谷北1-3-12","lat":35.705463,"lon":139.63858},{"name":"ケア24成田","province":"東京都","city":"杉並区","address":"杉並区成田西3-7-4","lat":35.693752,"lon":139.631973},{"name":"ケア24松ノ木","province":"東京都","city":"杉並区","address":"杉並区松ノ木3-3-4","lat":35.692619,"lon":139.644409},{"name":"ケア24高円寺","province":"東京都","city":"杉並区","address":"杉並区高円寺南4-26-16","lat":35.704582,"lon":139.649536},{"name":"ケア24梅里","province":"東京都","city":"杉並区","address":"杉並区梅里1-7-17","lat":35.697685,"lon":139.649414},{"name":"ケア24和田","province":"東京都","city":"杉並区","address":"杉並区和田3-52-4","lat":35.696148,"lon":139.654663},{"name":"ケア24久我山","province":"東京都","city":"杉並区","address":"杉並区久我山3-47-16","lat":35.690121,"lon":139.593414},{"name":"ケア24高井戸","province":"東京都","city":"杉並区","address":"杉並区高井戸西1-12-1","lat":35.67963,"lon":139.609787},{"name":"ケア24浜田山","province":"東京都","city":"杉並区","address":"杉並区浜田山1-36-3","lat":35.680233,"lon":139.629898},{"name":"ケア24堀ノ内","province":"東京都","city":"杉並区","address":"杉並区堀ノ内1-6-6","lat":35.683041,"lon":139.653595},{"name":"ケア24永福","province":"東京都","city":"杉並区","address":"杉並区永福3-35-11","lat":35.678196,"lon":139.635666},{"name":"ケア24方南","province":"東京都","city":"杉並区","address":"杉並区方南2-6-28","lat":35.680653,"lon":139.659454},{"name":"杉並区立消費者センター","province":"東京都","city":"杉並区","address":"杉並区天沼3-19-16ウェルファーム杉並3階","lat":35.710388,"lon":139.620667},{"name":"ケア24上井草","province":"東京都","city":"杉並区","address":"杉並区上井草3-33-10","lat":35.724243,"lon":139.602463},{"name":"ケア24下井草","province":"東京都","city":"杉並区","address":"杉並区下井草2-44-4","lat":35.723587,"lon":139.625412},{"name":"ケア24善福寺","province":"東京都","city":"杉並区","address":"杉並区西荻北4-31-11","lat":35.709129,"lon":139.592743},{"name":"ケア24上荻","province":"東京都","city":"杉並区","address":"杉並区上荻3-16-6","lat":35.708717,"lon":139.607788},{"name":"ケア24西荻","province":"東京都","city":"杉並区","address":"杉並区西荻南4-2-7","lat":35.699791,"lon":139.604813},{"name":"ケア24清水","province":"東京都","city":"杉並区","address":"杉並区清水2-15-24","lat":35.714237,"lon":139.618286},{"name":"ケア24荻窪","province":"東京都","city":"杉並区","address":"杉並区荻窪5-20-1","lat":35.701988,"lon":139.620255},{"name":"ケア24南荻窪","province":"東京都","city":"杉並区","address":"杉並区南荻窪2-28-13","lat":35.699345,"lon":139.613159},{"name":"ケア24阿佐谷","province":"東京都","city":"杉並区","address":"杉並区阿佐谷北1-3-12","lat":35.705463,"lon":139.63858},{"name":"ケア24成田","province":"東京都","city":"杉並区","address":"杉並区成田西3-7-4","lat":35.693752,"lon":139.631973},{"name":"ケア24松ノ木","province":"東京都","city":"杉並区","address":"杉並区松ノ木3-3-4","lat":35.692619,"lon":139.644409},{"name":"ケア24高円寺","province":"東京都","city":"杉並区","address":"杉並区高円寺南4-26-16","lat":35.704582,"lon":139.649536},{"name":"ケア24梅里","province":"東京都","city":"杉並区","address":"杉並区梅里1-7-17","lat":35.697685,"lon":139.649414},{"name":"ケア24和田","province":"東京都","city":"杉並区","address":"杉並区和田3-52-4","lat":35.696148,"lon":139.654663},{"name":"ケア24久我山","province":"東京都","city":"杉並区","address":"杉並区久我山3-47-16","lat":35.690121,"lon":139.593414},{"name":"ケア24高井戸","province":"東京都","city":"杉並区","address":"杉並区高井戸西1-12-1","lat":35.67963,"lon":139.609787},{"name":"ケア24浜田山","province":"東京都","city":"杉並区","address":"杉並区浜田山1-36-3","lat":35.680233,"lon":139.629898},{"name":"ケア24堀ノ内","province":"東京都","city":"杉並区","address":"杉並区堀ノ内1-6-6","lat":35.683041,"lon":139.653595},{"name":"ケア24永福","province":"東京都","city":"杉並区","address":"杉並区永福3-35-11","lat":35.678196,"lon":139.635666},{"name":"ケア24方南","province":"東京都","city":"杉並区","address":"杉並区方南2-6-28","lat":35.680653,"lon":139.659454},{"name":"杉並区立消費者センター","province":"東京都","city":"杉並区","address":"杉並区天沼3-19-16ウェルファーム杉並3階","lat":35.710388,"lon":139.620667},{"name":"ケア24上井草","province":"東京都","city":"杉並区","address":"杉並区上井草3-33-10","lat":35.724243,"lon":139.602463},{"name":"ケア24下井草","province":"東京都","city":"杉並区","address":"杉並区下井草2-44-4","lat":35.723587,"lon":139.625412},{"name":"ケア24善福寺","province":"東京都","city":"杉並区","address":"杉並区西荻北4-31-11","lat":35.709129,"lon":139.592743},{"name":"ケア24上荻","province":"東京都","city":"杉並区","address":"杉並区上荻3-16-6","lat":35.708717,"lon":139.607788},{"name":"ケア24西荻","province":"東京都","city":"杉並区","address":"杉並区西荻南4-2-7","lat":35.699791,"lon":139.604813},{"name":"ケア24清水","province":"東京都","city":"杉並区","address":"杉並区清水2-15-24","lat":35.714237,"lon":139.618286},{"name":"ケア24荻窪","province":"東京都","city":"杉並区","address":"杉並区荻窪5-20-1","lat":35.701988,"lon":139.620255},{"name":"ケア24南荻窪","province":"東京都","city":"杉並区","address":"杉並区南荻窪2-28-13","lat":35.699345,"lon":139.613159},{"name":"ケア24阿佐谷","province":"東京都","city":"杉並区","address":"杉並区阿佐谷北1-3-12","lat":35.705463,"lon":139.63858},{"name":"ケア24成田","province":"東京都","city":"杉並区","address":"杉並区成田西3-7-4","lat":35.693752,"lon":139.631973},{"name":"ケア24松ノ木","province":"東京都","city":"杉並区","address":"杉並区松ノ木3-3-4","lat":35.692619,"lon":139.644409},{"name":"ケア24高円寺","province":"東京都","city":"杉並区","address":"杉並区高円寺南4-26-16","lat":35.704582,"lon":139.649536},{"name":"ケア24梅里","province":"東京都","city":"杉並区","address":"杉並区梅里1-7-17","lat":35.697685,"lon":139.649414},{"name":"ケア24和田","province":"東京都","city":"杉並区","address":"杉並区和田3-52-4","lat":35.696148,"lon":139.654663},{"name":"ケア24久我山","province":"東京都","city":"杉並区","address":"杉並区久我山3-47-16","lat":35.690121,"lon":139.593414},{"name":"ケア24高井戸","province":"東京都","city":"杉並区","address":"杉並区高井戸西1-12-1","lat":35.67963,"lon":139.609787},{"name":"ケア24浜田山","province":"東京都","city":"杉並区","address":"杉並区浜田山1-36-3","lat":35.680233,"lon":139.629898},{"name":"ケア24堀ノ内","province":"東京都","city":"杉並区","address":"杉並区堀ノ内1-6-6","lat":35.683041,"lon":139.653595},{"name":"ケア24永福","province":"東京都","city":"杉並区","address":"杉並区永福3-35-11","lat":35.678196,"lon":139.635666},{"name":"ケア24方南","province":"東京都","city":"杉並区","address":"杉並区方南2-6-28","lat":35.680653,"lon":139.659454},{"name":"杉並区立消費者センター","province":"東京都","city":"杉並区","address":"杉並区天沼3-19-16ウェルファーム杉並3階","lat":35.710388,"lon":139.620667},{"name":"ケア24上井草","province":"東京都","city":"杉並区","address":"杉並区上井草3-33-10","lat":35.724243,"lon":139.602463},{"name":"ケア24下井草","province":"東京都","city":"杉並区","address":"杉並区下井草2-44-4","lat":35.723587,"lon":139.625412},{"name":"ケア24善福寺","province":"東京都","city":"杉並区","address":"杉並区西荻北4-31-11","lat":35.709129,"lon":139.592743},{"name":"ケア24上荻","province":"東京都","city":"杉並区","address":"杉並区上荻3-16-6","lat":35.708717,"lon":139.607788},{"name":"ケア24西荻","province":"東京都","city":"杉並区","address":"杉並区西荻南4-2-7","lat":35.699791,"lon":139.604813},{"name":"ケア24清水","province":"東京都","city":"杉並区","address":"杉並区清水2-15-24","lat":35.714237,"lon":139.618286},{"name":"ケア24荻窪","province":"東京都","city":"杉並区","address":"杉並区荻窪5-20-1","lat":35.701988,"lon":139.620255},{"name":"ケア24南荻窪","province":"東京都","city":"杉並区","address":"杉並区南荻窪2-28-13","lat":35.699345,"lon":139.613159},{"name":"ケア24阿佐谷","province":"東京都","city":"杉並区","address":"杉並区阿佐谷北1-3-12","lat":35.705463,"lon":139.63858},{"name":"ケア24成田","province":"東京都","city":"杉並区","address":"杉並区成田西3-7-4","lat":35.693752,"lon":139.631973},{"name":"ケア24松ノ木","province":"東京都","city":"杉並区","address":"杉並区松ノ木3-3-4","lat":35.692619,"lon":139.644409},{"name":"ケア24高円寺","province":"東京都","city":"杉並区","address":"杉並区高円寺南4-26-16","lat":35.704582,"lon":139.649536},{"name":"ケア24梅里","province":"東京都","city":"杉並区","address":"杉並区梅里1-7-17","lat":35.697685,"lon":139.649414},{"name":"ケア24和田","province":"東京都","city":"杉並区","address":"杉並区和田3-52-4","lat":35.696148,"lon":139.654663},{"name":"ケア24久我山","province":"東京都","city":"杉並区","address":"杉並区久我山3-47-16","lat":35.690121,"lon":139.593414},{"name":"ケア24高井戸","province":"東京都","city":"杉並区","address":"杉並区高井戸西1-12-1","lat":35.67963,"lon":139.609787},{"name":"ケア24浜田山","province":"東京都","city":"杉並区","address":"杉並区浜田山1-36-3","lat":35.680233,"lon":139.629898},{"name":"ケア24堀ノ内","province":"東京都","city":"杉並区","address":"杉並区堀ノ内1-6-6","lat":35.683041,"lon":139.653595},{"name":"ケア24永福","province":"東京都","city":"杉並区","address":"杉並区永福3-35-11","lat":35.678196,"lon":139.635666},{"name":"ケア24方南","province":"東京都","city":"杉並区","address":"杉並区方南2-6-28","lat":35.680653,"lon":139.659454},{"name":"杉並区立消費者センター","province":"東京都","city":"杉並区","address":"杉並区天沼3-19-16ウェルファーム杉並3階","lat":35.710388,"lon":139.620667},{"name":"ケア24上井草","province":"東京都","city":"杉並区","address":"杉並区上井草3-33-10","lat":35.724243,"lon":139.602463},{"name":"ケア24下井草","province":"東京都","city":"杉並区","address":"杉並区下井草2-44-4","lat":35.723587,"lon":139.625412},{"name":"ケア24善福寺","province":"東京都","city":"杉並区","address":"杉並区西荻北4-31-11","lat":35.709129,"lon":139.592743},{"name":"ケア24上荻","province":"東京都","city":"杉並区","address":"杉並区上荻3-16-6","lat":35.708717,"lon":139.607788},{"name":"ケア24西荻","province":"東京都","city":"杉並区","address":"杉並区西荻南4-2-7","lat":35.699791,"lon":139.604813},{"name":"ケア24清水","province":"東京都","city":"杉並区","address":"杉並区清水2-15-24","lat":35.714237,"lon":139.618286},{"name":"ケア24荻窪","province":"東京都","city":"杉並区","address":"杉並区荻窪5-20-1","lat":35.701988,"lon":139.620255},{"name":"ケア24南荻窪","province":"東京都","city":"杉並区","address":"杉並区南荻窪2-28-13","lat":35.699345,"lon":139.613159},{"name":"ケア24阿佐谷","province":"東京都","city":"杉並区","address":"杉並区阿佐谷北1-3-12","lat":35.705463,"lon":139.63858},{"name":"ケア24成田","province":"東京都","city":"杉並区","address":"杉並区成田西3-7-4","lat":35.693752,"lon":139.631973},{"name":"ケア24松ノ木","province":"東京都","city":"杉並区","address":"杉並区松ノ木3-3-4","lat":35.692619,"lon":139.644409},{"name":"ケア24高円寺","province":"東京都","city":"杉並区","address":"杉並区高円寺南4-26-16","lat":35.704582,"lon":139.649536},{"name":"ケア24梅里","province":"東京都","city":"杉並区","address":"杉並区梅里1-7-17","lat":35.697685,"lon":139.649414},{"name":"ケア24和田","province":"東京都","city":"杉並区","address":"杉並区和田3-52-4","lat":35.696148,"lon":139.654663},{"name":"ケア24久我山","province":"東京都","city":"杉並区","address":"杉並区久我山3-47-16","lat":35.690121,"lon":139.593414},{"name":"ケア24高井戸","province":"東京都","city":"杉並区","address":"杉並区高井戸西1-12-1","lat":35.67963,"lon":139.609787},{"name":"ケア24浜田山","province":"東京都","city":"杉並区","address":"杉並区浜田山1-36-3","lat":35.680233,"lon":139.629898},{"name":"ケア24堀ノ内","province":"東京都","city":"杉並区","address":"杉並区堀ノ内1-6-6","lat":35.683041,"lon":139.653595},{"name":"ケア24永福","province":"東京都","city":"杉並区","address":"杉並区永福3-35-11","lat":35.678196,"lon":139.635666},{"name":"ケア24方南","province":"東京都","city":"杉並区","address":"杉並区方南2-6-28","lat":35.680653,"lon":139.659454},{"name":"杉並区立消費者センター","province":"東京都","city":"杉並区","address":"杉並区天沼3-19-16ウェルファーム杉並3階","lat":35.710388,"lon":139.620667}]}