{"keyword":"放課後","data":[{"name":"発達支援ルーム　にこっと","province":"東京都","city":"杉並区","address":"杉並区高円寺北3-40-13BIGVALLEY2階","lat":35.710514,"lon":139.64657},{"name":"スタジオあいだっく","province":"東京都","city":"杉並区","address":"杉並区高円寺南3-1-4キングスコートII4階","lat":35.697955,"lon":139.646929},{"name":"アンソレイユ","province":"東京都","city":"杉並区","address":"杉並区高円寺南2-35-15花月第一ビル2階","lat":35.699241,"lon":139.65442},{"name":"カノン","province":"東京都","city":"杉並区","address":"杉並区高円寺南3-16-20","lat":35.700299,"lon":139.645509},{"name":"プレミア･ケア･ジュニア阿佐ヶ谷店","province":"東京都","city":"杉並区","address":"杉並区阿佐谷南2-32-9-1階","lat":35.704443,"lon":139.644173},{"name":"ハッピーテラス荻窪教室","province":"東京都","city":"杉並区","address":"杉並区阿佐谷南3-12-4","lat":35.702762,"lon":139.628675},{"name":"バンブーワァオ阿佐ヶ谷校","province":"東京都","city":"杉並区","address":"杉並区阿佐谷南1-15-18伊藤ビル201-B号室","lat":35.699937,"lon":139.636905},{"name":"フェイト","province":"東京都","city":"杉並区","address":"杉並区梅里2-40-15-301","lat":35.697946,"lon":139.639313},{"name":"フォスター","province":"東京都","city":"杉並区","address":"杉並区和田2-41-7","lat":35.691728,"lon":139.655017},{"name":"よりみちくらぶ　ネコのトランク","province":"東京都","city":"杉並区","address":"杉並区成田東4-1-26-2階","lat":35.695118,"lon":139.63363},{"name":"ドルフィンキッズ","province":"東京都","city":"杉並区","address":"杉並区天沼2-4-1井上ビル203","lat":35.705323,"lon":139.623386},{"name":"よりみちくらぶ　トラのながぐつ","province":"東京都","city":"杉並区","address":"杉並区清水1-23-23","lat":35.710822,"lon":139.617953},{"name":"コロロ杉並少年隊","province":"東京都","city":"杉並区","address":"杉並区西荻北3-33-9","lat":35.706547,"lon":139.600343},{"name":"プレミア・ケア・ジュニア西荻窪店","province":"東京都","city":"杉並区","address":"杉並区上荻3-5-41階","lat":35.706864,"lon":139.607918},{"name":"みかんの木","province":"東京都","city":"杉並区","address":"杉並区南荻窪1-5-111階","lat":35.694962,"lon":139.617259},{"name":"放課後等デイサービスくじら","province":"東京都","city":"杉並区","address":"杉並区和泉3-22-15グランヴェール和泉101","lat":35.677813,"lon":139.647741},{"name":"プレミア・ケア・ジュニア代田橋店","province":"東京都","city":"杉並区","address":"杉並区和泉1-19-13","lat":35.674624,"lon":139.65859},{"name":"まぁぶる高井戸","province":"東京都","city":"杉並区","address":"杉並区高井戸東3-28-40小向高井戸ビル2階","lat":35.686774,"lon":139.616573},{"name":"くるみの木","province":"東京都","city":"杉並区","address":"杉並区上高井戸3-11-9","lat":35.676506,"lon":139.614629},{"name":"よりみちくらぶ　ヤギのサンダル","province":"東京都","city":"杉並区","address":"杉並区宮前2-10-42宮前ヴィレッジA棟104","lat":35.692521,"lon":139.612157}]}