{"keyword":"月間","data":[{"name":"発達支援ルーム　にこっと","province":"東京都","city":"杉並区","address":"杉並区高円寺北3-40-13BIGVALLEY2階","lat":35.710514,"lon":139.64657},{"name":"スタジオあいだっく","province":"東京都","city":"杉並区","address":"杉並区高円寺南3-1-4キングスコートII4階","lat":35.697955,"lon":139.646929},{"name":"アンソレイユ","province":"東京都","city":"杉並区","address":"杉並区高円寺南2-35-15花月第一ビル2階","lat":35.699241,"lon":139.65442},{"name":"カノン","province":"東京都","city":"杉並区","address":"杉並区高円寺南3-16-20","lat":35.700299,"lon":139.645509},{"name":"プレミア･ケア･ジュニア阿佐ヶ谷店","province":"東京都","city":"杉並区","address":"杉並区阿佐谷南2-32-9-1階","lat":35.704443,"lon":139.644173},{"name":"ハッピーテラス荻窪教室","province":"東京都","city":"杉並区","address":"杉並区阿佐谷南3-12-4","lat":35.702762,"lon":139.628675},{"name":"バンブーワァオ阿佐ヶ谷校","province":"東京都","city":"杉並区","address":"杉並区阿佐谷南1-15-18伊藤ビル201-B号室","lat":35.699937,"lon":139.636905},{"name":"フェイト","province":"東京都","city":"杉並区","address":"杉並区梅里2-40-15-301","lat":35.697946,"lon":139.639313},{"name":"フォスター","province":"東京都","city":"杉並区","address":"杉並区和田2-41-7","lat":35.691728,"lon":139.655017},{"name":"よりみちくらぶ　ネコのトランク","province":"東京都","city":"杉並区","address":"杉並区成田東4-1-26-2階","lat":35.695118,"lon":139.63363},{"name":"ドルフィンキッズ","province":"東京都","city":"杉並区","address":"杉並区天沼2-4-1井上ビル203","lat":35.705323,"lon":139.623386},{"name":"よりみちくらぶ　トラのながぐつ","province":"東京都","city":"杉並区","address":"杉並区清水1-23-23","lat":35.710822,"lon":139.617953},{"name":"コロロ杉並少年隊","province":"東京都","city":"杉並区","address":"杉並区西荻北3-33-9","lat":35.706547,"lon":139.600343},{"name":"プレミア・ケア・ジュニア西荻窪店","province":"東京都","city":"杉並区","address":"杉並区上荻3-5-41階","lat":35.706864,"lon":139.607918},{"name":"みかんの木","province":"東京都","city":"杉並区","address":"杉並区南荻窪1-5-111階","lat":35.694962,"lon":139.617259},{"name":"放課後等デイサービスくじら","province":"東京都","city":"杉並区","address":"杉並区和泉3-22-15グランヴェール和泉101","lat":35.677813,"lon":139.647741},{"name":"プレミア・ケア・ジュニア代田橋店","province":"東京都","city":"杉並区","address":"杉並区和泉1-19-13","lat":35.674624,"lon":139.65859},{"name":"まぁぶる高井戸","province":"東京都","city":"杉並区","address":"杉並区高井戸東3-28-40小向高井戸ビル2階","lat":35.686774,"lon":139.616573},{"name":"くるみの木","province":"東京都","city":"杉並区","address":"杉並区上高井戸3-11-9","lat":35.676506,"lon":139.614629},{"name":"よりみちくらぶ　ヤギのサンダル","province":"東京都","city":"杉並区","address":"杉並区宮前2-10-42宮前ヴィレッジA棟104","lat":35.692521,"lon":139.612157},{"name":"杉並区子ども家庭支援センター","province":"東京都","city":"杉並区","address":"杉並区阿佐谷南1-14-8","lat":35.699774,"lon":139.63711},{"name":"杉並子ども家庭支援センター","province":"東京都","city":"杉並区","address":"杉並区阿佐谷南1-14-8","lat":35.69917,"lon":139.63687},{"name":"杉並子ども家庭支援センター","province":"東京都","city":"杉並区","address":"杉並区阿佐谷南1-14-8","lat":35.699774,"lon":139.63711},{"name":"八幡山駅入口","province":"東京都","city":"杉並区","address":"東京都杉並区上高井戸1丁目9-1","lat":35.67181238,"lon":139.61649061},{"name":"新高円寺駅前","province":"東京都","city":"杉並区","address":"東京都杉並区高円寺南2丁目20-1","lat":35.69794071,"lon":139.64807596},{"name":"高円寺南五丁目","province":"東京都","city":"杉並区","address":"東京都杉並区高円寺南4丁目13-2","lat":35.70255699,"lon":139.65433077},{"name":"大聖堂入口","province":"東京都","city":"杉並区","address":"東京都杉並区堀ノ内2丁目11-32","lat":35.68712833,"lon":139.65504802},{"name":"杉並区役所前","province":"東京都","city":"杉並区","address":"東京都杉並区成田東5丁目42-14","lat":35.69930409,"lon":139.63534089},{"name":"東高円寺駅前","province":"東京都","city":"杉並区","address":"東京都杉並区和田3丁目56-11","lat":35.69762991,"lon":139.6582223},{"name":"成田東五丁目","province":"東京都","city":"杉並区","address":"東京都杉並区阿佐谷南3丁目10-19","lat":35.70225917,"lon":139.63055225},{"name":"高円寺陸橋下","province":"東京都","city":"杉並区","address":"東京都杉並区和田3丁目54-8","lat":35.69779369,"lon":139.65498647},{"name":"大久保通り入口","province":"東京都","city":"杉並区","address":"東京都杉並区高円寺南2丁目54-9","lat":35.70153489,"lon":139.65439747},{"name":"高円寺駅入口","province":"東京都","city":"杉並区","address":"東京都杉並区高円寺北2丁目1-24","lat":35.70571774,"lon":139.65426119},{"name":"都バス杉並営業所前","province":"東京都","city":"杉並区","address":"東京都杉並区梅里1丁目14-22","lat":35.69767694,"lon":139.65125902},{"name":"阿佐谷南一丁目","province":"東京都","city":"杉並区","address":"東京都杉並区阿佐谷南1丁目34-9","lat":35.70174828,"lon":139.63628791},{"name":"高円寺南四丁目","province":"東京都","city":"杉並区","address":"東京都杉並区高円寺南4丁目7-1","lat":35.70323736,"lon":139.64981724},{"name":"五日市街道入口","province":"東京都","city":"杉並区","address":"東京都杉並区高円寺南2丁目16-2","lat":35.69806296,"lon":139.64927307},{"name":"高円寺駅北ガード下","province":"東京都","city":"杉並区","address":"東京都杉並区高円寺南4丁目47","lat":35.70534266,"lon":139.6494894},{"name":"高円寺駅南口","province":"東京都","city":"杉並区","address":"東京都杉並区高円寺南4丁目26-15","lat":35.70479272,"lon":139.64945332},{"name":"杉並第八小学校北","province":"東京都","city":"杉並区","address":"東京都杉並区高円寺南4丁目5-7","lat":35.70266522,"lon":139.65069219},{"name":"高円寺駅北口","province":"東京都","city":"杉並区","address":"東京都杉並区高円寺北2丁目4-4","lat":35.70586208,"lon":139.6505365},{"name":"杉並八小入口","province":"東京都","city":"杉並区","address":"東京都杉並区高円寺南2丁目15-15","lat":35.69972664,"lon":139.6491369},{"name":"高円寺駅交番前","province":"東京都","city":"杉並区","address":"東京都杉並区高円寺北2丁目5-1","lat":35.70555098,"lon":139.65008378},{"name":"杉並警察署前","province":"東京都","city":"杉並区","address":"東京都杉並区阿佐谷南1丁目12-3","lat":35.69890419,"lon":139.63732406},{"name":"杉並第八小学校入口北","province":"東京都","city":"杉並区","address":"東京都杉並区高円寺南2丁目43-9","lat":35.7011876,"lon":139.64972567},{"name":"高円寺南四丁目第二","province":"東京都","city":"杉並区","address":"東京都杉並区高円寺南2丁目50-2","lat":35.70244299,"lon":139.64944786},{"name":"杏林大杉並病院前","province":"東京都","city":"杉並区","address":"東京都杉並区和田2丁目8-36","lat":35.68840598,"lon":139.65590345},{"name":"環七堀ノ内","province":"東京都","city":"杉並区","address":"東京都杉並区堀ノ内3丁目52-22","lat":35.69361917,"lon":139.65395896},{"name":"高円寺前","province":"東京都","city":"杉並区","address":"東京都杉並区高円寺南4丁目12-10","lat":35.70268192,"lon":139.65234482},{"name":"高円寺南四丁目北","province":"東京都","city":"杉並区","address":"東京都杉並区高円寺南4丁目26","lat":35.70413446,"lon":139.64940057},{"name":"柳窪","province":"東京都","city":"杉並区","address":"東京都杉並区高井戸東4丁目12-43","lat":35.69003806,"lon":139.61880647},{"name":"方南町","province":"東京都","city":"杉並区","address":"東京都杉並区和泉4丁目51-11","lat":35.6830761,"lon":139.65661193},{"name":"浜田山駅入口","province":"東京都","city":"杉並区","address":"東京都杉並区浜田山3丁目35-38","lat":35.6843223,"lon":139.62733659},{"name":"和泉二丁目","province":"東京都","city":"杉並区","address":"東京都杉並区和泉2丁目21-36","lat":35.67260216,"lon":139.65139886},{"name":"西高等学校入口","province":"東京都","city":"杉並区","address":"東京都杉並区宮前4丁目31-1","lat":35.69315952,"lon":139.60460188},{"name":"宮前三丁目","province":"東京都","city":"杉並区","address":"東京都杉並区宮前3丁目8-6","lat":35.69448716,"lon":139.60519345},{"name":"久我山駅前","province":"東京都","city":"杉並区","address":"東京都杉並区久我山3丁目24-17","lat":35.6873906,"lon":139.59956638},{"name":"高井戸駅南","province":"東京都","city":"杉並区","address":"東京都杉並区高井戸東2丁目25-13","lat":35.68224722,"lon":139.61545979},{"name":"方南町地下鉄入口","province":"東京都","city":"杉並区","address":"東京都杉並区方南2丁目19-2","lat":35.68378996,"lon":139.65829231},{"name":"西永福第二","province":"東京都","city":"杉並区","address":"東京都杉並区永福4丁目19-7","lat":35.67993975,"lon":139.63670544},{"name":"上北沢駅東","province":"東京都","city":"杉並区","address":"東京都杉並区下高井戸4丁目8-6","lat":35.6706878,"lon":139.62579548},{"name":"環八五日市街道","province":"東京都","city":"杉並区","address":"東京都杉並区高井戸東4丁目11-5","lat":35.69044628,"lon":139.61680938},{"name":"永福体育館","province":"東京都","city":"杉並区","address":"東京都杉並区永福1丁目7","lat":35.66985782,"lon":139.6445773},{"name":"下高井戸公園前","province":"東京都","city":"杉並区","address":"東京都杉並区下高井戸3丁目12-12","lat":35.67052415,"lon":139.63490309},{"name":"方南小学校前","province":"東京都","city":"杉並区","address":"東京都杉並区和泉1丁目38-7","lat":35.67867944,"lon":139.65730649},{"name":"宮前五丁目第三","province":"東京都","city":"杉並区","address":"東京都杉並区宮前4丁目34-2","lat":35.69372052,"lon":139.60300754},{"name":"岩崎橋北詰","province":"東京都","city":"杉並区","address":"東京都杉並区久我山2丁目11-6","lat":35.68424926,"lon":139.59838325},{"name":"荻窪駅前","province":"東京都","city":"杉並区","address":"東京都杉並区上荻1丁目26-1","lat":35.70521967,"lon":139.62046961},{"name":"荻窪駅前西","province":"東京都","city":"杉並区","address":"東京都杉並区天沼3丁目3-7","lat":35.70564183,"lon":139.62018072},{"name":"桃井四丁目","province":"東京都","city":"杉並区","address":"東京都杉並区桃井4丁目3-4","lat":35.71236561,"lon":139.60198467},{"name":"八丁","province":"東京都","city":"杉並区","address":"東京都杉並区桃井1丁目5-4","lat":35.71023831,"lon":139.61146177},{"name":"四面道東","province":"東京都","city":"杉並区","address":"東京都杉並区上荻1丁目25-1","lat":35.70753039,"lon":139.61550601},{"name":"四面道西","province":"東京都","city":"杉並区","address":"東京都杉並区上荻1丁目25-1","lat":35.70753039,"lon":139.61550601},{"name":"天沼八幡","province":"東京都","city":"杉並区","address":"東京都杉並区天沼2丁目4-4","lat":35.7054086,"lon":139.62296106},{"name":"善福寺","province":"東京都","city":"杉並区","address":"東京都杉並区善福寺1丁目34-19","lat":35.71680663,"lon":139.59662381},{"name":"上井草出張所前","province":"東京都","city":"杉並区","address":"東京都杉並区善福寺1丁目16-14","lat":35.7142292,"lon":139.59866541},{"name":"西荻窪駅前","province":"東京都","city":"杉並区","address":"東京都杉並区西荻北2丁目2-1","lat":35.7040304,"lon":139.60078509},{"name":"西荻窪駅南","province":"東京都","city":"杉並区","address":"東京都杉並区西荻南3丁目14-7","lat":35.70345269,"lon":139.60094343},{"name":"荻窪変電所前","province":"東京都","city":"杉並区","address":"東京都杉並区南荻窪4丁目40-11","lat":35.70311423,"lon":139.61603393},{"name":"桃井一丁目","province":"東京都","city":"杉並区","address":"東京都杉並区上荻2丁目39-13","lat":35.70898294,"lon":139.61299504},{"name":"川南五差路","province":"東京都","city":"杉並区","address":"東京都杉並区南荻窪1丁目21-5","lat":35.69625951,"lon":139.61746466},{"name":"関根橋","province":"東京都","city":"杉並区","address":"東京都杉並区西荻北5丁目8-22","lat":35.70916874,"lon":139.60159038},{"name":"桃井児童館東","province":"東京都","city":"杉並区","address":"東京都杉並区桃井1丁目39-1","lat":35.71364634,"lon":139.61433084},{"name":"中瀬中学校西","province":"東京都","city":"杉並区","address":"東京都杉並区下井草4丁目3-9","lat":35.71907088,"lon":139.61909685},{"name":"天沼陸橋南","province":"東京都","city":"杉並区","address":"東京都杉並区荻窪4丁目33-5","lat":35.70384496,"lon":139.62559981},{"name":"井荻駅前","province":"東京都","city":"杉並区","address":"東京都杉並区下井草5丁目18-12","lat":35.72429796,"lon":139.61453866},{"name":"医療法人財団荻窪病院","province":"東京都","city":"杉並区","address":"東京都杉並区今川3丁目1-24","lat":35.71524321,"lon":139.607323},{"name":"堀ノ内斎場","province":"東京都","city":"杉並区","address":"東京都杉並区梅里1丁目2-27","lat":35.69562996,"lon":139.65120635},{"name":"杉並浄水所","province":"東京都","city":"杉並区","address":"東京都杉並区善福寺3丁目28-5","lat":35.71512328,"lon":139.58868285},{"name":"和泉水圧調整所","province":"東京都","city":"杉並区","address":"東京都杉並区和泉2丁目5-23","lat":35.67117459,"lon":139.6530821},{"name":"上井草給水所","province":"東京都","city":"杉並区","address":"東京都杉並区上井草3丁目22-12","lat":35.72163399,"lon":139.60123435},{"name":"区立蚕糸の森公園","province":"東京都","city":"杉並区","address":"東京都杉並区和田3丁目55","lat":35.69724103,"lon":139.65698631},{"name":"区立昭栄公園","province":"東京都","city":"杉並区","address":"東京都杉並区高井戸西1丁目12","lat":35.68102216,"lon":139.60876867},{"name":"区立井草森公園","province":"東京都","city":"杉並区","address":"東京都杉並区下井草4丁目12-14","lat":35.71990697,"lon":139.62165216},{"name":"区立馬橋公園","province":"東京都","city":"杉並区","address":"東京都杉並区高円寺北4丁目35-5","lat":35.7096309,"lon":139.64303976},{"name":"荻窪病院","province":"東京都","city":"杉並区","address":"東京都杉並区今川3丁目1-24","lat":35.71524321,"lon":139.607323},{"name":"都立和田掘公園陸上競技場","province":"東京都","city":"杉並区","address":"東京都杉並区大宮1丁目6","lat":35.68397002,"lon":139.64332973},{"name":"済美山運動場広場","province":"東京都","city":"杉並区","address":"東京都杉並区堀ノ内1丁目15","lat":35.68507832,"lon":139.64686271},{"name":"ＮＨＫ旧富士見ヶ丘運動場","province":"東京都","city":"杉並区","address":"東京都杉並区久我山2丁目2-1","lat":35.68135258,"lon":139.60559113},{"name":"杉並区立柏の宮公園","province":"東京都","city":"杉並区","address":"東京都杉並区浜田山2丁目5-1","lat":35.67749532,"lon":139.62648411},{"name":"杉並区立井草森公園","province":"東京都","city":"杉並区","address":"東京都杉並区下井草4丁目12-14","lat":35.71990697,"lon":139.62165216},{"name":"東京都公立高等学校ＰＴＡ連合会","province":"東京都","city":"杉並区","address":"東京都杉並区南荻窪4丁目29-10","lat":35.70262263,"lon":139.61618671},{"name":"日本ボーイスカウト東京連盟","province":"東京都","city":"杉並区","address":"東京都杉並区下井草4丁目4-3","lat":35.71935694,"lon":139.61846078},{"name":"＊?杉並区男女平等推進センター","province":"東京都","city":"杉並区","address":"杉並区荻窪1-56-3","lat":35.694542,"lon":139.62751},{"name":"杉並保健所","province":"東京都","city":"杉並区","address":"東京都杉並区荻窪5丁目20-1","lat":35.70215612,"lon":139.62026419},{"name":"杉並高等学校","province":"東京都","city":"杉並区","address":"東京都杉並区成田西4丁目15-15","lat":35.69697092,"lon":139.6316163},{"name":"荻窪高等学校","province":"東京都","city":"杉並区","address":"東京都杉並区荻窪5丁目7-20","lat":35.7019839,"lon":139.61940594},{"name":"豊多摩高等学校","province":"東京都","city":"杉並区","address":"東京都杉並区成田西2丁目6-18","lat":35.68911344,"lon":139.62882241},{"name":"西高等学校","province":"東京都","city":"杉並区","address":"東京都杉並区宮前4丁目21-32","lat":35.69236797,"lon":139.60574349},{"name":"農芸高等学校","province":"東京都","city":"杉並区","address":"東京都杉並区今川3丁目25-1","lat":35.71812612,"lon":139.6038315},{"name":"杉並工業高等学校","province":"東京都","city":"杉並区","address":"東京都杉並区上井草4丁目13-31","lat":35.7194314,"lon":139.59898463},{"name":"杉並総合高等学校","province":"東京都","city":"杉並区","address":"東京都杉並区下高井戸5丁目17-1","lat":35.67657033,"lon":139.62262609},{"name":"杉並区立永福体育館","province":"東京都","city":"杉並区","address":"東京都杉並区永福3丁目51-17","lat":35.67845941,"lon":139.63804426},{"name":"杉並区立上井草スポーツセンター","province":"東京都","city":"杉並区","address":"東京都杉並区上井草3丁目34-1","lat":35.72411984,"lon":139.60178143},{"name":"杉並区立高円寺体育館","province":"東京都","city":"杉並区","address":"東京都杉並区高円寺南2丁目36-31","lat":35.69969344,"lon":139.65411702},{"name":"杉並区本庁舎","province":"東京都","city":"杉並区","address":"杉並区阿佐谷南1-15-1","lat":35.699893,"lon":139.636363},{"name":"荻窪警察署","province":"東京都","city":"杉並区","address":"杉並区桃井3-1-3","lat":35.71154,"lon":139.6075},{"name":"杉並警察署","province":"東京都","city":"杉並区","address":"杉並区成田東4-38-16","lat":35.69886,"lon":139.6363},{"name":"高井戸警察署","province":"東京都","city":"杉並区","address":"杉並区宮前1-16-1","lat":35.69101,"lon":139.6115},{"name":"荻窪消防署","province":"東京都","city":"杉並区","address":"杉並区桃井3-4-1","lat":35.71158,"lon":139.6062},{"name":"杉並消防署","province":"東京都","city":"杉並区","address":"杉並区阿佐谷南3-4-3","lat":35.7005,"lon":139.6336},{"name":"杉並区","province":"東京都","city":"杉並区","address":"杉並区荻窪4-21-17","lat":35.70351,"lon":139.6225},{"name":"（株）千代田","province":"東京都","city":"杉並区","address":"杉並区南荻窪3-29-12","lat":35.7039,"lon":139.6101},{"name":"都立和田堀公園","province":"東京都","city":"杉並区","address":"杉並区大宮1-6","lat":35.68397,"lon":139.6433},{"name":"杉並清掃工場","province":"東京都","city":"杉並区","address":"杉並区高井戸東3-7-6","lat":35.68361,"lon":139.6179},{"name":"杉並区立桃井原っぱ公園","province":"東京都","city":"杉並区","address":"杉並区桃井3-8-1","lat":35.71278,"lon":139.6073},{"name":"東日本電信電話（株）杉並ビル","province":"東京都","city":"杉並区","address":"杉並区梅里2-36-11","lat":35.6975,"lon":139.6409},{"name":"東京電力（株）荻窪支社","province":"東京都","city":"杉並区","address":"杉並区南荻窪4-40-11","lat":35.70312,"lon":139.616},{"name":"東京ガス（株）西荻窪ビル","province":"東京都","city":"杉並区","address":"杉並区西荻北5-8-22","lat":35.70908,"lon":139.6017},{"name":"水道局西部支所","province":"東京都","city":"杉並区","address":"杉並区和泉3-8-10","lat":35.67536,"lon":139.6461},{"name":"永福ＰＡ","province":"東京都","city":"杉並区","address":"東京都杉並区","lat":35.69957353,"lon":139.63638522},{"name":"堀之内斎場","province":"東京都","city":"杉並区","address":"東京都杉並区梅里1丁目2-27","lat":35.69562996,"lon":139.65120635},{"name":"発達支援ルーム　にこっと","province":"東京都","city":"杉並区","address":"杉並区高円寺北3-40-13BIGVALLEY2階","lat":35.710514,"lon":139.64657},{"name":"スタジオあいだっく","province":"東京都","city":"杉並区","address":"杉並区高円寺南3-1-4キングスコートII4階","lat":35.697955,"lon":139.646929},{"name":"アンソレイユ","province":"東京都","city":"杉並区","address":"杉並区高円寺南2-35-15花月第一ビル2階","lat":35.699241,"lon":139.65442},{"name":"カノン","province":"東京都","city":"杉並区","address":"杉並区高円寺南3-16-20","lat":35.700299,"lon":139.645509},{"name":"プレミア･ケア･ジュニア阿佐ヶ谷店","province":"東京都","city":"杉並区","address":"杉並区阿佐谷南2-32-9-1階","lat":35.704443,"lon":139.644173},{"name":"ハッピーテラス荻窪教室","province":"東京都","city":"杉並区","address":"杉並区阿佐谷南3-12-4","lat":35.702762,"lon":139.628675},{"name":"バンブーワァオ阿佐ヶ谷校","province":"東京都","city":"杉並区","address":"杉並区阿佐谷南1-15-18伊藤ビル201-B号室","lat":35.699937,"lon":139.636905},{"name":"フェイト","province":"東京都","city":"杉並区","address":"杉並区梅里2-40-15-301","lat":35.697946,"lon":139.639313},{"name":"フォスター","province":"東京都","city":"杉並区","address":"杉並区和田2-41-7","lat":35.691728,"lon":139.655017},{"name":"よりみちくらぶ　ネコのトランク","province":"東京都","city":"杉並区","address":"杉並区成田東4-1-26-2階","lat":35.695118,"lon":139.63363},{"name":"ドルフィンキッズ","province":"東京都","city":"杉並区","address":"杉並区天沼2-4-1井上ビル203","lat":35.705323,"lon":139.623386},{"name":"よりみちくらぶ　トラのながぐつ","province":"東京都","city":"杉並区","address":"杉並区清水1-23-23","lat":35.710822,"lon":139.617953},{"name":"コロロ杉並少年隊","province":"東京都","city":"杉並区","address":"杉並区西荻北3-33-9","lat":35.706547,"lon":139.600343},{"name":"プレミア・ケア・ジュニア西荻窪店","province":"東京都","city":"杉並区","address":"杉並区上荻3-5-41階","lat":35.706864,"lon":139.607918},{"name":"みかんの木","province":"東京都","city":"杉並区","address":"杉並区南荻窪1-5-111階","lat":35.694962,"lon":139.617259},{"name":"放課後等デイサービスくじら","province":"東京都","city":"杉並区","address":"杉並区和泉3-22-15グランヴェール和泉101","lat":35.677813,"lon":139.647741},{"name":"プレミア・ケア・ジュニア代田橋店","province":"東京都","city":"杉並区","address":"杉並区和泉1-19-13","lat":35.674624,"lon":139.65859},{"name":"まぁぶる高井戸","province":"東京都","city":"杉並区","address":"杉並区高井戸東3-28-40小向高井戸ビル2階","lat":35.686774,"lon":139.616573},{"name":"くるみの木","province":"東京都","city":"杉並区","address":"杉並区上高井戸3-11-9","lat":35.676506,"lon":139.614629},{"name":"よりみちくらぶ　ヤギのサンダル","province":"東京都","city":"杉並区","address":"杉並区宮前2-10-42宮前ヴィレッジA棟104","lat":35.692521,"lon":139.612157},{"name":"杉並区子ども家庭支援センター","province":"東京都","city":"杉並区","address":"杉並区阿佐谷南1-14-8","lat":35.699774,"lon":139.63711},{"name":"杉並子ども家庭支援センター","province":"東京都","city":"杉並区","address":"杉並区阿佐谷南1-14-8","lat":35.69917,"lon":139.63687},{"name":"杉並子ども家庭支援センター","province":"東京都","city":"杉並区","address":"杉並区阿佐谷南1-14-8","lat":35.699774,"lon":139.63711},{"name":"八幡山駅入口","province":"東京都","city":"杉並区","address":"東京都杉並区上高井戸1丁目9-1","lat":35.67181238,"lon":139.61649061},{"name":"新高円寺駅前","province":"東京都","city":"杉並区","address":"東京都杉並区高円寺南2丁目20-1","lat":35.69794071,"lon":139.64807596},{"name":"高円寺南五丁目","province":"東京都","city":"杉並区","address":"東京都杉並区高円寺南4丁目13-2","lat":35.70255699,"lon":139.65433077},{"name":"大聖堂入口","province":"東京都","city":"杉並区","address":"東京都杉並区堀ノ内2丁目11-32","lat":35.68712833,"lon":139.65504802},{"name":"杉並区役所前","province":"東京都","city":"杉並区","address":"東京都杉並区成田東5丁目42-14","lat":35.69930409,"lon":139.63534089},{"name":"東高円寺駅前","province":"東京都","city":"杉並区","address":"東京都杉並区和田3丁目56-11","lat":35.69762991,"lon":139.6582223},{"name":"成田東五丁目","province":"東京都","city":"杉並区","address":"東京都杉並区阿佐谷南3丁目10-19","lat":35.70225917,"lon":139.63055225},{"name":"高円寺陸橋下","province":"東京都","city":"杉並区","address":"東京都杉並区和田3丁目54-8","lat":35.69779369,"lon":139.65498647},{"name":"大久保通り入口","province":"東京都","city":"杉並区","address":"東京都杉並区高円寺南2丁目54-9","lat":35.70153489,"lon":139.65439747},{"name":"高円寺駅入口","province":"東京都","city":"杉並区","address":"東京都杉並区高円寺北2丁目1-24","lat":35.70571774,"lon":139.65426119},{"name":"都バス杉並営業所前","province":"東京都","city":"杉並区","address":"東京都杉並区梅里1丁目14-22","lat":35.69767694,"lon":139.65125902},{"name":"阿佐谷南一丁目","province":"東京都","city":"杉並区","address":"東京都杉並区阿佐谷南1丁目34-9","lat":35.70174828,"lon":139.63628791},{"name":"高円寺南四丁目","province":"東京都","city":"杉並区","address":"東京都杉並区高円寺南4丁目7-1","lat":35.70323736,"lon":139.64981724},{"name":"五日市街道入口","province":"東京都","city":"杉並区","address":"東京都杉並区高円寺南2丁目16-2","lat":35.69806296,"lon":139.64927307},{"name":"高円寺駅北ガード下","province":"東京都","city":"杉並区","address":"東京都杉並区高円寺南4丁目47","lat":35.70534266,"lon":139.6494894},{"name":"高円寺駅南口","province":"東京都","city":"杉並区","address":"東京都杉並区高円寺南4丁目26-15","lat":35.70479272,"lon":139.64945332},{"name":"杉並第八小学校北","province":"東京都","city":"杉並区","address":"東京都杉並区高円寺南4丁目5-7","lat":35.70266522,"lon":139.65069219},{"name":"高円寺駅北口","province":"東京都","city":"杉並区","address":"東京都杉並区高円寺北2丁目4-4","lat":35.70586208,"lon":139.6505365},{"name":"杉並八小入口","province":"東京都","city":"杉並区","address":"東京都杉並区高円寺南2丁目15-15","lat":35.69972664,"lon":139.6491369},{"name":"高円寺駅交番前","province":"東京都","city":"杉並区","address":"東京都杉並区高円寺北2丁目5-1","lat":35.70555098,"lon":139.65008378},{"name":"杉並警察署前","province":"東京都","city":"杉並区","address":"東京都杉並区阿佐谷南1丁目12-3","lat":35.69890419,"lon":139.63732406},{"name":"杉並第八小学校入口北","province":"東京都","city":"杉並区","address":"東京都杉並区高円寺南2丁目43-9","lat":35.7011876,"lon":139.64972567},{"name":"高円寺南四丁目第二","province":"東京都","city":"杉並区","address":"東京都杉並区高円寺南2丁目50-2","lat":35.70244299,"lon":139.64944786},{"name":"杏林大杉並病院前","province":"東京都","city":"杉並区","address":"東京都杉並区和田2丁目8-36","lat":35.68840598,"lon":139.65590345},{"name":"環七堀ノ内","province":"東京都","city":"杉並区","address":"東京都杉並区堀ノ内3丁目52-22","lat":35.69361917,"lon":139.65395896},{"name":"高円寺前","province":"東京都","city":"杉並区","address":"東京都杉並区高円寺南4丁目12-10","lat":35.70268192,"lon":139.65234482},{"name":"高円寺南四丁目北","province":"東京都","city":"杉並区","address":"東京都杉並区高円寺南4丁目26","lat":35.70413446,"lon":139.64940057},{"name":"柳窪","province":"東京都","city":"杉並区","address":"東京都杉並区高井戸東4丁目12-43","lat":35.69003806,"lon":139.61880647},{"name":"方南町","province":"東京都","city":"杉並区","address":"東京都杉並区和泉4丁目51-11","lat":35.6830761,"lon":139.65661193},{"name":"浜田山駅入口","province":"東京都","city":"杉並区","address":"東京都杉並区浜田山3丁目35-38","lat":35.6843223,"lon":139.62733659},{"name":"和泉二丁目","province":"東京都","city":"杉並区","address":"東京都杉並区和泉2丁目21-36","lat":35.67260216,"lon":139.65139886},{"name":"西高等学校入口","province":"東京都","city":"杉並区","address":"東京都杉並区宮前4丁目31-1","lat":35.69315952,"lon":139.60460188},{"name":"宮前三丁目","province":"東京都","city":"杉並区","address":"東京都杉並区宮前3丁目8-6","lat":35.69448716,"lon":139.60519345},{"name":"久我山駅前","province":"東京都","city":"杉並区","address":"東京都杉並区久我山3丁目24-17","lat":35.6873906,"lon":139.59956638},{"name":"高井戸駅南","province":"東京都","city":"杉並区","address":"東京都杉並区高井戸東2丁目25-13","lat":35.68224722,"lon":139.61545979},{"name":"方南町地下鉄入口","province":"東京都","city":"杉並区","address":"東京都杉並区方南2丁目19-2","lat":35.68378996,"lon":139.65829231},{"name":"西永福第二","province":"東京都","city":"杉並区","address":"東京都杉並区永福4丁目19-7","lat":35.67993975,"lon":139.63670544},{"name":"上北沢駅東","province":"東京都","city":"杉並区","address":"東京都杉並区下高井戸4丁目8-6","lat":35.6706878,"lon":139.62579548},{"name":"環八五日市街道","province":"東京都","city":"杉並区","address":"東京都杉並区高井戸東4丁目11-5","lat":35.69044628,"lon":139.61680938},{"name":"永福体育館","province":"東京都","city":"杉並区","address":"東京都杉並区永福1丁目7","lat":35.66985782,"lon":139.6445773},{"name":"下高井戸公園前","province":"東京都","city":"杉並区","address":"東京都杉並区下高井戸3丁目12-12","lat":35.67052415,"lon":139.63490309},{"name":"方南小学校前","province":"東京都","city":"杉並区","address":"東京都杉並区和泉1丁目38-7","lat":35.67867944,"lon":139.65730649},{"name":"宮前五丁目第三","province":"東京都","city":"杉並区","address":"東京都杉並区宮前4丁目34-2","lat":35.69372052,"lon":139.60300754},{"name":"岩崎橋北詰","province":"東京都","city":"杉並区","address":"東京都杉並区久我山2丁目11-6","lat":35.68424926,"lon":139.59838325},{"name":"荻窪駅前","province":"東京都","city":"杉並区","address":"東京都杉並区上荻1丁目26-1","lat":35.70521967,"lon":139.62046961},{"name":"荻窪駅前西","province":"東京都","city":"杉並区","address":"東京都杉並区天沼3丁目3-7","lat":35.70564183,"lon":139.62018072},{"name":"桃井四丁目","province":"東京都","city":"杉並区","address":"東京都杉並区桃井4丁目3-4","lat":35.71236561,"lon":139.60198467},{"name":"八丁","province":"東京都","city":"杉並区","address":"東京都杉並区桃井1丁目5-4","lat":35.71023831,"lon":139.61146177},{"name":"四面道東","province":"東京都","city":"杉並区","address":"東京都杉並区上荻1丁目25-1","lat":35.70753039,"lon":139.61550601},{"name":"四面道西","province":"東京都","city":"杉並区","address":"東京都杉並区上荻1丁目25-1","lat":35.70753039,"lon":139.61550601},{"name":"天沼八幡","province":"東京都","city":"杉並区","address":"東京都杉並区天沼2丁目4-4","lat":35.7054086,"lon":139.62296106},{"name":"善福寺","province":"東京都","city":"杉並区","address":"東京都杉並区善福寺1丁目34-19","lat":35.71680663,"lon":139.59662381},{"name":"上井草出張所前","province":"東京都","city":"杉並区","address":"東京都杉並区善福寺1丁目16-14","lat":35.7142292,"lon":139.59866541},{"name":"西荻窪駅前","province":"東京都","city":"杉並区","address":"東京都杉並区西荻北2丁目2-1","lat":35.7040304,"lon":139.60078509},{"name":"西荻窪駅南","province":"東京都","city":"杉並区","address":"東京都杉並区西荻南3丁目14-7","lat":35.70345269,"lon":139.60094343},{"name":"荻窪変電所前","province":"東京都","city":"杉並区","address":"東京都杉並区南荻窪4丁目40-11","lat":35.70311423,"lon":139.61603393},{"name":"桃井一丁目","province":"東京都","city":"杉並区","address":"東京都杉並区上荻2丁目39-13","lat":35.70898294,"lon":139.61299504},{"name":"川南五差路","province":"東京都","city":"杉並区","address":"東京都杉並区南荻窪1丁目21-5","lat":35.69625951,"lon":139.61746466},{"name":"関根橋","province":"東京都","city":"杉並区","address":"東京都杉並区西荻北5丁目8-22","lat":35.70916874,"lon":139.60159038},{"name":"桃井児童館東","province":"東京都","city":"杉並区","address":"東京都杉並区桃井1丁目39-1","lat":35.71364634,"lon":139.61433084},{"name":"中瀬中学校西","province":"東京都","city":"杉並区","address":"東京都杉並区下井草4丁目3-9","lat":35.71907088,"lon":139.61909685},{"name":"天沼陸橋南","province":"東京都","city":"杉並区","address":"東京都杉並区荻窪4丁目33-5","lat":35.70384496,"lon":139.62559981},{"name":"井荻駅前","province":"東京都","city":"杉並区","address":"東京都杉並区下井草5丁目18-12","lat":35.72429796,"lon":139.61453866},{"name":"医療法人財団荻窪病院","province":"東京都","city":"杉並区","address":"東京都杉並区今川3丁目1-24","lat":35.71524321,"lon":139.607323},{"name":"堀ノ内斎場","province":"東京都","city":"杉並区","address":"東京都杉並区梅里1丁目2-27","lat":35.69562996,"lon":139.65120635},{"name":"杉並浄水所","province":"東京都","city":"杉並区","address":"東京都杉並区善福寺3丁目28-5","lat":35.71512328,"lon":139.58868285},{"name":"和泉水圧調整所","province":"東京都","city":"杉並区","address":"東京都杉並区和泉2丁目5-23","lat":35.67117459,"lon":139.6530821},{"name":"上井草給水所","province":"東京都","city":"杉並区","address":"東京都杉並区上井草3丁目22-12","lat":35.72163399,"lon":139.60123435},{"name":"区立蚕糸の森公園","province":"東京都","city":"杉並区","address":"東京都杉並区和田3丁目55","lat":35.69724103,"lon":139.65698631},{"name":"区立昭栄公園","province":"東京都","city":"杉並区","address":"東京都杉並区高井戸西1丁目12","lat":35.68102216,"lon":139.60876867},{"name":"区立井草森公園","province":"東京都","city":"杉並区","address":"東京都杉並区下井草4丁目12-14","lat":35.71990697,"lon":139.62165216},{"name":"区立馬橋公園","province":"東京都","city":"杉並区","address":"東京都杉並区高円寺北4丁目35-5","lat":35.7096309,"lon":139.64303976},{"name":"荻窪病院","province":"東京都","city":"杉並区","address":"東京都杉並区今川3丁目1-24","lat":35.71524321,"lon":139.607323},{"name":"都立和田掘公園陸上競技場","province":"東京都","city":"杉並区","address":"東京都杉並区大宮1丁目6","lat":35.68397002,"lon":139.64332973},{"name":"済美山運動場広場","province":"東京都","city":"杉並区","address":"東京都杉並区堀ノ内1丁目15","lat":35.68507832,"lon":139.64686271},{"name":"ＮＨＫ旧富士見ヶ丘運動場","province":"東京都","city":"杉並区","address":"東京都杉並区久我山2丁目2-1","lat":35.68135258,"lon":139.60559113},{"name":"杉並区立柏の宮公園","province":"東京都","city":"杉並区","address":"東京都杉並区浜田山2丁目5-1","lat":35.67749532,"lon":139.62648411},{"name":"杉並区立井草森公園","province":"東京都","city":"杉並区","address":"東京都杉並区下井草4丁目12-14","lat":35.71990697,"lon":139.62165216},{"name":"東京都公立高等学校ＰＴＡ連合会","province":"東京都","city":"杉並区","address":"東京都杉並区南荻窪4丁目29-10","lat":35.70262263,"lon":139.61618671},{"name":"日本ボーイスカウト東京連盟","province":"東京都","city":"杉並区","address":"東京都杉並区下井草4丁目4-3","lat":35.71935694,"lon":139.61846078},{"name":"＊?杉並区男女平等推進センター","province":"東京都","city":"杉並区","address":"杉並区荻窪1-56-3","lat":35.694542,"lon":139.62751},{"name":"杉並高等学校","province":"東京都","city":"杉並区","address":"東京都杉並区成田西4丁目15-15","lat":35.69697092,"lon":139.6316163},{"name":"荻窪高等学校","province":"東京都","city":"杉並区","address":"東京都杉並区荻窪5丁目7-20","lat":35.7019839,"lon":139.61940594},{"name":"豊多摩高等学校","province":"東京都","city":"杉並区","address":"東京都杉並区成田西2丁目6-18","lat":35.68911344,"lon":139.62882241},{"name":"西高等学校","province":"東京都","city":"杉並区","address":"東京都杉並区宮前4丁目21-32","lat":35.69236797,"lon":139.60574349},{"name":"農芸高等学校","province":"東京都","city":"杉並区","address":"東京都杉並区今川3丁目25-1","lat":35.71812612,"lon":139.6038315},{"name":"杉並工業高等学校","province":"東京都","city":"杉並区","address":"東京都杉並区上井草4丁目13-31","lat":35.7194314,"lon":139.59898463},{"name":"杉並総合高等学校","province":"東京都","city":"杉並区","address":"東京都杉並区下高井戸5丁目17-1","lat":35.67657033,"lon":139.62262609},{"name":"発達支援ルーム　にこっと","province":"東京都","city":"杉並区","address":"杉並区高円寺北3-40-13BIGVALLEY2階","lat":35.710514,"lon":139.64657},{"name":"スタジオあいだっく","province":"東京都","city":"杉並区","address":"杉並区高円寺南3-1-4キングスコートII4階","lat":35.697955,"lon":139.646929},{"name":"アンソレイユ","province":"東京都","city":"杉並区","address":"杉並区高円寺南2-35-15花月第一ビル2階","lat":35.699241,"lon":139.65442},{"name":"カノン","province":"東京都","city":"杉並区","address":"杉並区高円寺南3-16-20","lat":35.700299,"lon":139.645509},{"name":"プレミア･ケア･ジュニア阿佐ヶ谷店","province":"東京都","city":"杉並区","address":"杉並区阿佐谷南2-32-9-1階","lat":35.704443,"lon":139.644173},{"name":"ハッピーテラス荻窪教室","province":"東京都","city":"杉並区","address":"杉並区阿佐谷南3-12-4","lat":35.702762,"lon":139.628675},{"name":"バンブーワァオ阿佐ヶ谷校","province":"東京都","city":"杉並区","address":"杉並区阿佐谷南1-15-18伊藤ビル201-B号室","lat":35.699937,"lon":139.636905},{"name":"フェイト","province":"東京都","city":"杉並区","address":"杉並区梅里2-40-15-301","lat":35.697946,"lon":139.639313},{"name":"フォスター","province":"東京都","city":"杉並区","address":"杉並区和田2-41-7","lat":35.691728,"lon":139.655017},{"name":"よりみちくらぶ　ネコのトランク","province":"東京都","city":"杉並区","address":"杉並区成田東4-1-26-2階","lat":35.695118,"lon":139.63363},{"name":"ドルフィンキッズ","province":"東京都","city":"杉並区","address":"杉並区天沼2-4-1井上ビル203","lat":35.705323,"lon":139.623386},{"name":"よりみちくらぶ　トラのながぐつ","province":"東京都","city":"杉並区","address":"杉並区清水1-23-23","lat":35.710822,"lon":139.617953},{"name":"コロロ杉並少年隊","province":"東京都","city":"杉並区","address":"杉並区西荻北3-33-9","lat":35.706547,"lon":139.600343},{"name":"プレミア・ケア・ジュニア西荻窪店","province":"東京都","city":"杉並区","address":"杉並区上荻3-5-41階","lat":35.706864,"lon":139.607918},{"name":"みかんの木","province":"東京都","city":"杉並区","address":"杉並区南荻窪1-5-111階","lat":35.694962,"lon":139.617259},{"name":"放課後等デイサービスくじら","province":"東京都","city":"杉並区","address":"杉並区和泉3-22-15グランヴェール和泉101","lat":35.677813,"lon":139.647741},{"name":"プレミア・ケア・ジュニア代田橋店","province":"東京都","city":"杉並区","address":"杉並区和泉1-19-13","lat":35.674624,"lon":139.65859},{"name":"まぁぶる高井戸","province":"東京都","city":"杉並区","address":"杉並区高井戸東3-28-40小向高井戸ビル2階","lat":35.686774,"lon":139.616573},{"name":"くるみの木","province":"東京都","city":"杉並区","address":"杉並区上高井戸3-11-9","lat":35.676506,"lon":139.614629},{"name":"よりみちくらぶ　ヤギのサンダル","province":"東京都","city":"杉並区","address":"杉並区宮前2-10-42宮前ヴィレッジA棟104","lat":35.692521,"lon":139.612157},{"name":"杉並区子ども家庭支援センター","province":"東京都","city":"杉並区","address":"杉並区阿佐谷南1-14-8","lat":35.699774,"lon":139.63711},{"name":"杉並子ども家庭支援センター","province":"東京都","city":"杉並区","address":"杉並区阿佐谷南1-14-8","lat":35.69917,"lon":139.63687},{"name":"杉並子ども家庭支援センター","province":"東京都","city":"杉並区","address":"杉並区阿佐谷南1-14-8","lat":35.699774,"lon":139.63711},{"name":"八幡山駅入口","province":"東京都","city":"杉並区","address":"東京都杉並区上高井戸1丁目9-1","lat":35.67181238,"lon":139.61649061},{"name":"新高円寺駅前","province":"東京都","city":"杉並区","address":"東京都杉並区高円寺南2丁目20-1","lat":35.69794071,"lon":139.64807596},{"name":"高円寺南五丁目","province":"東京都","city":"杉並区","address":"東京都杉並区高円寺南4丁目13-2","lat":35.70255699,"lon":139.65433077},{"name":"大聖堂入口","province":"東京都","city":"杉並区","address":"東京都杉並区堀ノ内2丁目11-32","lat":35.68712833,"lon":139.65504802},{"name":"杉並区役所前","province":"東京都","city":"杉並区","address":"東京都杉並区成田東5丁目42-14","lat":35.69930409,"lon":139.63534089},{"name":"東高円寺駅前","province":"東京都","city":"杉並区","address":"東京都杉並区和田3丁目56-11","lat":35.69762991,"lon":139.6582223},{"name":"成田東五丁目","province":"東京都","city":"杉並区","address":"東京都杉並区阿佐谷南3丁目10-19","lat":35.70225917,"lon":139.63055225},{"name":"高円寺陸橋下","province":"東京都","city":"杉並区","address":"東京都杉並区和田3丁目54-8","lat":35.69779369,"lon":139.65498647},{"name":"大久保通り入口","province":"東京都","city":"杉並区","address":"東京都杉並区高円寺南2丁目54-9","lat":35.70153489,"lon":139.65439747},{"name":"高円寺駅入口","province":"東京都","city":"杉並区","address":"東京都杉並区高円寺北2丁目1-24","lat":35.70571774,"lon":139.65426119},{"name":"都バス杉並営業所前","province":"東京都","city":"杉並区","address":"東京都杉並区梅里1丁目14-22","lat":35.69767694,"lon":139.65125902},{"name":"阿佐谷南一丁目","province":"東京都","city":"杉並区","address":"東京都杉並区阿佐谷南1丁目34-9","lat":35.70174828,"lon":139.63628791},{"name":"高円寺南四丁目","province":"東京都","city":"杉並区","address":"東京都杉並区高円寺南4丁目7-1","lat":35.70323736,"lon":139.64981724},{"name":"五日市街道入口","province":"東京都","city":"杉並区","address":"東京都杉並区高円寺南2丁目16-2","lat":35.69806296,"lon":139.64927307},{"name":"高円寺駅北ガード下","province":"東京都","city":"杉並区","address":"東京都杉並区高円寺南4丁目47","lat":35.70534266,"lon":139.6494894},{"name":"高円寺駅南口","province":"東京都","city":"杉並区","address":"東京都杉並区高円寺南4丁目26-15","lat":35.70479272,"lon":139.64945332},{"name":"杉並第八小学校北","province":"東京都","city":"杉並区","address":"東京都杉並区高円寺南4丁目5-7","lat":35.70266522,"lon":139.65069219},{"name":"高円寺駅北口","province":"東京都","city":"杉並区","address":"東京都杉並区高円寺北2丁目4-4","lat":35.70586208,"lon":139.6505365},{"name":"杉並八小入口","province":"東京都","city":"杉並区","address":"東京都杉並区高円寺南2丁目15-15","lat":35.69972664,"lon":139.6491369},{"name":"高円寺駅交番前","province":"東京都","city":"杉並区","address":"東京都杉並区高円寺北2丁目5-1","lat":35.70555098,"lon":139.65008378},{"name":"杉並警察署前","province":"東京都","city":"杉並区","address":"東京都杉並区阿佐谷南1丁目12-3","lat":35.69890419,"lon":139.63732406},{"name":"杉並第八小学校入口北","province":"東京都","city":"杉並区","address":"東京都杉並区高円寺南2丁目43-9","lat":35.7011876,"lon":139.64972567},{"name":"高円寺南四丁目第二","province":"東京都","city":"杉並区","address":"東京都杉並区高円寺南2丁目50-2","lat":35.70244299,"lon":139.64944786},{"name":"杏林大杉並病院前","province":"東京都","city":"杉並区","address":"東京都杉並区和田2丁目8-36","lat":35.68840598,"lon":139.65590345},{"name":"環七堀ノ内","province":"東京都","city":"杉並区","address":"東京都杉並区堀ノ内3丁目52-22","lat":35.69361917,"lon":139.65395896},{"name":"高円寺前","province":"東京都","city":"杉並区","address":"東京都杉並区高円寺南4丁目12-10","lat":35.70268192,"lon":139.65234482},{"name":"高円寺南四丁目北","province":"東京都","city":"杉並区","address":"東京都杉並区高円寺南4丁目26","lat":35.70413446,"lon":139.64940057},{"name":"柳窪","province":"東京都","city":"杉並区","address":"東京都杉並区高井戸東4丁目12-43","lat":35.69003806,"lon":139.61880647},{"name":"方南町","province":"東京都","city":"杉並区","address":"東京都杉並区和泉4丁目51-11","lat":35.6830761,"lon":139.65661193},{"name":"浜田山駅入口","province":"東京都","city":"杉並区","address":"東京都杉並区浜田山3丁目35-38","lat":35.6843223,"lon":139.62733659},{"name":"和泉二丁目","province":"東京都","city":"杉並区","address":"東京都杉並区和泉2丁目21-36","lat":35.67260216,"lon":139.65139886},{"name":"西高等学校入口","province":"東京都","city":"杉並区","address":"東京都杉並区宮前4丁目31-1","lat":35.69315952,"lon":139.60460188},{"name":"宮前三丁目","province":"東京都","city":"杉並区","address":"東京都杉並区宮前3丁目8-6","lat":35.69448716,"lon":139.60519345},{"name":"久我山駅前","province":"東京都","city":"杉並区","address":"東京都杉並区久我山3丁目24-17","lat":35.6873906,"lon":139.59956638},{"name":"高井戸駅南","province":"東京都","city":"杉並区","address":"東京都杉並区高井戸東2丁目25-13","lat":35.68224722,"lon":139.61545979},{"name":"方南町地下鉄入口","province":"東京都","city":"杉並区","address":"東京都杉並区方南2丁目19-2","lat":35.68378996,"lon":139.65829231},{"name":"西永福第二","province":"東京都","city":"杉並区","address":"東京都杉並区永福4丁目19-7","lat":35.67993975,"lon":139.63670544},{"name":"上北沢駅東","province":"東京都","city":"杉並区","address":"東京都杉並区下高井戸4丁目8-6","lat":35.6706878,"lon":139.62579548},{"name":"環八五日市街道","province":"東京都","city":"杉並区","address":"東京都杉並区高井戸東4丁目11-5","lat":35.69044628,"lon":139.61680938},{"name":"永福体育館","province":"東京都","city":"杉並区","address":"東京都杉並区永福1丁目7","lat":35.66985782,"lon":139.6445773},{"name":"下高井戸公園前","province":"東京都","city":"杉並区","address":"東京都杉並区下高井戸3丁目12-12","lat":35.67052415,"lon":139.63490309},{"name":"方南小学校前","province":"東京都","city":"杉並区","address":"東京都杉並区和泉1丁目38-7","lat":35.67867944,"lon":139.65730649},{"name":"宮前五丁目第三","province":"東京都","city":"杉並区","address":"東京都杉並区宮前4丁目34-2","lat":35.69372052,"lon":139.60300754},{"name":"岩崎橋北詰","province":"東京都","city":"杉並区","address":"東京都杉並区久我山2丁目11-6","lat":35.68424926,"lon":139.59838325},{"name":"荻窪駅前","province":"東京都","city":"杉並区","address":"東京都杉並区上荻1丁目26-1","lat":35.70521967,"lon":139.62046961},{"name":"荻窪駅前西","province":"東京都","city":"杉並区","address":"東京都杉並区天沼3丁目3-7","lat":35.70564183,"lon":139.62018072},{"name":"桃井四丁目","province":"東京都","city":"杉並区","address":"東京都杉並区桃井4丁目3-4","lat":35.71236561,"lon":139.60198467},{"name":"八丁","province":"東京都","city":"杉並区","address":"東京都杉並区桃井1丁目5-4","lat":35.71023831,"lon":139.61146177},{"name":"四面道東","province":"東京都","city":"杉並区","address":"東京都杉並区上荻1丁目25-1","lat":35.70753039,"lon":139.61550601},{"name":"四面道西","province":"東京都","city":"杉並区","address":"東京都杉並区上荻1丁目25-1","lat":35.70753039,"lon":139.61550601},{"name":"天沼八幡","province":"東京都","city":"杉並区","address":"東京都杉並区天沼2丁目4-4","lat":35.7054086,"lon":139.62296106},{"name":"善福寺","province":"東京都","city":"杉並区","address":"東京都杉並区善福寺1丁目34-19","lat":35.71680663,"lon":139.59662381},{"name":"上井草出張所前","province":"東京都","city":"杉並区","address":"東京都杉並区善福寺1丁目16-14","lat":35.7142292,"lon":139.59866541},{"name":"西荻窪駅前","province":"東京都","city":"杉並区","address":"東京都杉並区西荻北2丁目2-1","lat":35.7040304,"lon":139.60078509},{"name":"西荻窪駅南","province":"東京都","city":"杉並区","address":"東京都杉並区西荻南3丁目14-7","lat":35.70345269,"lon":139.60094343},{"name":"荻窪変電所前","province":"東京都","city":"杉並区","address":"東京都杉並区南荻窪4丁目40-11","lat":35.70311423,"lon":139.61603393},{"name":"桃井一丁目","province":"東京都","city":"杉並区","address":"東京都杉並区上荻2丁目39-13","lat":35.70898294,"lon":139.61299504},{"name":"川南五差路","province":"東京都","city":"杉並区","address":"東京都杉並区南荻窪1丁目21-5","lat":35.69625951,"lon":139.61746466},{"name":"関根橋","province":"東京都","city":"杉並区","address":"東京都杉並区西荻北5丁目8-22","lat":35.70916874,"lon":139.60159038},{"name":"桃井児童館東","province":"東京都","city":"杉並区","address":"東京都杉並区桃井1丁目39-1","lat":35.71364634,"lon":139.61433084},{"name":"中瀬中学校西","province":"東京都","city":"杉並区","address":"東京都杉並区下井草4丁目3-9","lat":35.71907088,"lon":139.61909685},{"name":"天沼陸橋南","province":"東京都","city":"杉並区","address":"東京都杉並区荻窪4丁目33-5","lat":35.70384496,"lon":139.62559981},{"name":"井荻駅前","province":"東京都","city":"杉並区","address":"東京都杉並区下井草5丁目18-12","lat":35.72429796,"lon":139.61453866},{"name":"医療法人財団荻窪病院","province":"東京都","city":"杉並区","address":"東京都杉並区今川3丁目1-24","lat":35.71524321,"lon":139.607323},{"name":"堀ノ内斎場","province":"東京都","city":"杉並区","address":"東京都杉並区梅里1丁目2-27","lat":35.69562996,"lon":139.65120635},{"name":"杉並浄水所","province":"東京都","city":"杉並区","address":"東京都杉並区善福寺3丁目28-5","lat":35.71512328,"lon":139.58868285},{"name":"和泉水圧調整所","province":"東京都","city":"杉並区","address":"東京都杉並区和泉2丁目5-23","lat":35.67117459,"lon":139.6530821},{"name":"上井草給水所","province":"東京都","city":"杉並区","address":"東京都杉並区上井草3丁目22-12","lat":35.72163399,"lon":139.60123435},{"name":"区立蚕糸の森公園","province":"東京都","city":"杉並区","address":"東京都杉並区和田3丁目55","lat":35.69724103,"lon":139.65698631},{"name":"区立昭栄公園","province":"東京都","city":"杉並区","address":"東京都杉並区高井戸西1丁目12","lat":35.68102216,"lon":139.60876867},{"name":"区立井草森公園","province":"東京都","city":"杉並区","address":"東京都杉並区下井草4丁目12-14","lat":35.71990697,"lon":139.62165216},{"name":"区立馬橋公園","province":"東京都","city":"杉並区","address":"東京都杉並区高円寺北4丁目35-5","lat":35.7096309,"lon":139.64303976},{"name":"荻窪病院","province":"東京都","city":"杉並区","address":"東京都杉並区今川3丁目1-24","lat":35.71524321,"lon":139.607323},{"name":"都立和田掘公園陸上競技場","province":"東京都","city":"杉並区","address":"東京都杉並区大宮1丁目6","lat":35.68397002,"lon":139.64332973},{"name":"済美山運動場広場","province":"東京都","city":"杉並区","address":"東京都杉並区堀ノ内1丁目15","lat":35.68507832,"lon":139.64686271},{"name":"ＮＨＫ旧富士見ヶ丘運動場","province":"東京都","city":"杉並区","address":"東京都杉並区久我山2丁目2-1","lat":35.68135258,"lon":139.60559113},{"name":"杉並区立柏の宮公園","province":"東京都","city":"杉並区","address":"東京都杉並区浜田山2丁目5-1","lat":35.67749532,"lon":139.62648411},{"name":"杉並区立井草森公園","province":"東京都","city":"杉並区","address":"東京都杉並区下井草4丁目12-14","lat":35.71990697,"lon":139.62165216},{"name":"東京都公立高等学校ＰＴＡ連合会","province":"東京都","city":"杉並区","address":"東京都杉並区南荻窪4丁目29-10","lat":35.70262263,"lon":139.61618671},{"name":"日本ボーイスカウト東京連盟","province":"東京都","city":"杉並区","address":"東京都杉並区下井草4丁目4-3","lat":35.71935694,"lon":139.61846078},{"name":"＊?杉並区男女平等推進センター","province":"東京都","city":"杉並区","address":"杉並区荻窪1-56-3","lat":35.694542,"lon":139.62751},{"name":"杉並高等学校","province":"東京都","city":"杉並区","address":"東京都杉並区成田西4丁目15-15","lat":35.69697092,"lon":139.6316163},{"name":"荻窪高等学校","province":"東京都","city":"杉並区","address":"東京都杉並区荻窪5丁目7-20","lat":35.7019839,"lon":139.61940594},{"name":"豊多摩高等学校","province":"東京都","city":"杉並区","address":"東京都杉並区成田西2丁目6-18","lat":35.68911344,"lon":139.62882241},{"name":"西高等学校","province":"東京都","city":"杉並区","address":"東京都杉並区宮前4丁目21-32","lat":35.69236797,"lon":139.60574349},{"name":"農芸高等学校","province":"東京都","city":"杉並区","address":"東京都杉並区今川3丁目25-1","lat":35.71812612,"lon":139.6038315},{"name":"杉並工業高等学校","province":"東京都","city":"杉並区","address":"東京都杉並区上井草4丁目13-31","lat":35.7194314,"lon":139.59898463},{"name":"杉並総合高等学校","province":"東京都","city":"杉並区","address":"東京都杉並区下高井戸5丁目17-1","lat":35.67657033,"lon":139.62262609},{"name":"発達支援ルーム　にこっと","province":"東京都","city":"杉並区","address":"杉並区高円寺北3-40-13BIGVALLEY2階","lat":35.710514,"lon":139.64657},{"name":"スタジオあいだっく","province":"東京都","city":"杉並区","address":"杉並区高円寺南3-1-4キングスコートII4階","lat":35.697955,"lon":139.646929},{"name":"アンソレイユ","province":"東京都","city":"杉並区","address":"杉並区高円寺南2-35-15花月第一ビル2階","lat":35.699241,"lon":139.65442},{"name":"カノン","province":"東京都","city":"杉並区","address":"杉並区高円寺南3-16-20","lat":35.700299,"lon":139.645509},{"name":"プレミア･ケア･ジュニア阿佐ヶ谷店","province":"東京都","city":"杉並区","address":"杉並区阿佐谷南2-32-9-1階","lat":35.704443,"lon":139.644173},{"name":"ハッピーテラス荻窪教室","province":"東京都","city":"杉並区","address":"杉並区阿佐谷南3-12-4","lat":35.702762,"lon":139.628675},{"name":"バンブーワァオ阿佐ヶ谷校","province":"東京都","city":"杉並区","address":"杉並区阿佐谷南1-15-18伊藤ビル201-B号室","lat":35.699937,"lon":139.636905},{"name":"フェイト","province":"東京都","city":"杉並区","address":"杉並区梅里2-40-15-301","lat":35.697946,"lon":139.639313},{"name":"フォスター","province":"東京都","city":"杉並区","address":"杉並区和田2-41-7","lat":35.691728,"lon":139.655017},{"name":"よりみちくらぶ　ネコのトランク","province":"東京都","city":"杉並区","address":"杉並区成田東4-1-26-2階","lat":35.695118,"lon":139.63363},{"name":"ドルフィンキッズ","province":"東京都","city":"杉並区","address":"杉並区天沼2-4-1井上ビル203","lat":35.705323,"lon":139.623386},{"name":"よりみちくらぶ　トラのながぐつ","province":"東京都","city":"杉並区","address":"杉並区清水1-23-23","lat":35.710822,"lon":139.617953},{"name":"コロロ杉並少年隊","province":"東京都","city":"杉並区","address":"杉並区西荻北3-33-9","lat":35.706547,"lon":139.600343},{"name":"プレミア・ケア・ジュニア西荻窪店","province":"東京都","city":"杉並区","address":"杉並区上荻3-5-41階","lat":35.706864,"lon":139.607918},{"name":"みかんの木","province":"東京都","city":"杉並区","address":"杉並区南荻窪1-5-111階","lat":35.694962,"lon":139.617259},{"name":"放課後等デイサービスくじら","province":"東京都","city":"杉並区","address":"杉並区和泉3-22-15グランヴェール和泉101","lat":35.677813,"lon":139.647741},{"name":"プレミア・ケア・ジュニア代田橋店","province":"東京都","city":"杉並区","address":"杉並区和泉1-19-13","lat":35.674624,"lon":139.65859},{"name":"まぁぶる高井戸","province":"東京都","city":"杉並区","address":"杉並区高井戸東3-28-40小向高井戸ビル2階","lat":35.686774,"lon":139.616573},{"name":"くるみの木","province":"東京都","city":"杉並区","address":"杉並区上高井戸3-11-9","lat":35.676506,"lon":139.614629},{"name":"よりみちくらぶ　ヤギのサンダル","province":"東京都","city":"杉並区","address":"杉並区宮前2-10-42宮前ヴィレッジA棟104","lat":35.692521,"lon":139.612157},{"name":"杉並区子ども家庭支援センター","province":"東京都","city":"杉並区","address":"杉並区阿佐谷南1-14-8","lat":35.699774,"lon":139.63711},{"name":"杉並子ども家庭支援センター","province":"東京都","city":"杉並区","address":"杉並区阿佐谷南1-14-8","lat":35.69917,"lon":139.63687},{"name":"杉並子ども家庭支援センター","province":"東京都","city":"杉並区","address":"杉並区阿佐谷南1-14-8","lat":35.699774,"lon":139.63711},{"name":"堀ノ内斎場","province":"東京都","city":"杉並区","address":"東京都杉並区梅里1丁目2-27","lat":35.69562996,"lon":139.65120635},{"name":"都立和田掘公園陸上競技場","province":"東京都","city":"杉並区","address":"東京都杉並区大宮1丁目6","lat":35.68397002,"lon":139.64332973},{"name":"済美山運動場広場","province":"東京都","city":"杉並区","address":"東京都杉並区堀ノ内1丁目15","lat":35.68507832,"lon":139.64686271},{"name":"ＮＨＫ旧富士見ヶ丘運動場","province":"東京都","city":"杉並区","address":"東京都杉並区久我山2丁目2-1","lat":35.68135258,"lon":139.60559113},{"name":"杉並区立柏の宮公園","province":"東京都","city":"杉並区","address":"東京都杉並区浜田山2丁目5-1","lat":35.67749532,"lon":139.62648411},{"name":"杉並区立井草森公園","province":"東京都","city":"杉並区","address":"東京都杉並区下井草4丁目12-14","lat":35.71990697,"lon":139.62165216},{"name":"東京都公立高等学校ＰＴＡ連合会","province":"東京都","city":"杉並区","address":"東京都杉並区南荻窪4丁目29-10","lat":35.70262263,"lon":139.61618671},{"name":"日本ボーイスカウト東京連盟","province":"東京都","city":"杉並区","address":"東京都杉並区下井草4丁目4-3","lat":35.71935694,"lon":139.61846078},{"name":"＊?杉並区男女平等推進センター","province":"東京都","city":"杉並区","address":"杉並区荻窪1-56-3","lat":35.694542,"lon":139.62751},{"name":"杉並高等学校","province":"東京都","city":"杉並区","address":"東京都杉並区成田西4丁目15-15","lat":35.69697092,"lon":139.6316163},{"name":"荻窪高等学校","province":"東京都","city":"杉並区","address":"東京都杉並区荻窪5丁目7-20","lat":35.7019839,"lon":139.61940594},{"name":"豊多摩高等学校","province":"東京都","city":"杉並区","address":"東京都杉並区成田西2丁目6-18","lat":35.68911344,"lon":139.62882241},{"name":"西高等学校","province":"東京都","city":"杉並区","address":"東京都杉並区宮前4丁目21-32","lat":35.69236797,"lon":139.60574349},{"name":"農芸高等学校","province":"東京都","city":"杉並区","address":"東京都杉並区今川3丁目25-1","lat":35.71812612,"lon":139.6038315},{"name":"杉並工業高等学校","province":"東京都","city":"杉並区","address":"東京都杉並区上井草4丁目13-31","lat":35.7194314,"lon":139.59898463},{"name":"杉並総合高等学校","province":"東京都","city":"杉並区","address":"東京都杉並区下高井戸5丁目17-1","lat":35.67657033,"lon":139.62262609},{"name":"発達支援ルーム　にこっと","province":"東京都","city":"杉並区","address":"杉並区高円寺北3-40-13BIGVALLEY2階","lat":35.710514,"lon":139.64657},{"name":"スタジオあいだっく","province":"東京都","city":"杉並区","address":"杉並区高円寺南3-1-4キングスコートII4階","lat":35.697955,"lon":139.646929},{"name":"アンソレイユ","province":"東京都","city":"杉並区","address":"杉並区高円寺南2-35-15花月第一ビル2階","lat":35.699241,"lon":139.65442},{"name":"カノン","province":"東京都","city":"杉並区","address":"杉並区高円寺南3-16-20","lat":35.700299,"lon":139.645509},{"name":"プレミア･ケア･ジュニア阿佐ヶ谷店","province":"東京都","city":"杉並区","address":"杉並区阿佐谷南2-32-9-1階","lat":35.704443,"lon":139.644173},{"name":"ハッピーテラス荻窪教室","province":"東京都","city":"杉並区","address":"杉並区阿佐谷南3-12-4","lat":35.702762,"lon":139.628675},{"name":"バンブーワァオ阿佐ヶ谷校","province":"東京都","city":"杉並区","address":"杉並区阿佐谷南1-15-18伊藤ビル201-B号室","lat":35.699937,"lon":139.636905},{"name":"フェイト","province":"東京都","city":"杉並区","address":"杉並区梅里2-40-15-301","lat":35.697946,"lon":139.639313},{"name":"フォスター","province":"東京都","city":"杉並区","address":"杉並区和田2-41-7","lat":35.691728,"lon":139.655017},{"name":"よりみちくらぶ　ネコのトランク","province":"東京都","city":"杉並区","address":"杉並区成田東4-1-26-2階","lat":35.695118,"lon":139.63363},{"name":"ドルフィンキッズ","province":"東京都","city":"杉並区","address":"杉並区天沼2-4-1井上ビル203","lat":35.705323,"lon":139.623386},{"name":"よりみちくらぶ　トラのながぐつ","province":"東京都","city":"杉並区","address":"杉並区清水1-23-23","lat":35.710822,"lon":139.617953},{"name":"コロロ杉並少年隊","province":"東京都","city":"杉並区","address":"杉並区西荻北3-33-9","lat":35.706547,"lon":139.600343},{"name":"プレミア・ケア・ジュニア西荻窪店","province":"東京都","city":"杉並区","address":"杉並区上荻3-5-41階","lat":35.706864,"lon":139.607918},{"name":"みかんの木","province":"東京都","city":"杉並区","address":"杉並区南荻窪1-5-111階","lat":35.694962,"lon":139.617259},{"name":"放課後等デイサービスくじら","province":"東京都","city":"杉並区","address":"杉並区和泉3-22-15グランヴェール和泉101","lat":35.677813,"lon":139.647741},{"name":"プレミア・ケア・ジュニア代田橋店","province":"東京都","city":"杉並区","address":"杉並区和泉1-19-13","lat":35.674624,"lon":139.65859},{"name":"まぁぶる高井戸","province":"東京都","city":"杉並区","address":"杉並区高井戸東3-28-40小向高井戸ビル2階","lat":35.686774,"lon":139.616573},{"name":"くるみの木","province":"東京都","city":"杉並区","address":"杉並区上高井戸3-11-9","lat":35.676506,"lon":139.614629},{"name":"よりみちくらぶ　ヤギのサンダル","province":"東京都","city":"杉並区","address":"杉並区宮前2-10-42宮前ヴィレッジA棟104","lat":35.692521,"lon":139.612157},{"name":"杉並区子ども家庭支援センター","province":"東京都","city":"杉並区","address":"杉並区阿佐谷南1-14-8","lat":35.699774,"lon":139.63711},{"name":"杉並子ども家庭支援センター","province":"東京都","city":"杉並区","address":"杉並区阿佐谷南1-14-8","lat":35.69917,"lon":139.63687},{"name":"杉並子ども家庭支援センター","province":"東京都","city":"杉並区","address":"杉並区阿佐谷南1-14-8","lat":35.699774,"lon":139.63711},{"name":"堀ノ内斎場","province":"東京都","city":"杉並区","address":"東京都杉並区梅里1丁目2-27","lat":35.69562996,"lon":139.65120635},{"name":"東京都公立高等学校ＰＴＡ連合会","province":"東京都","city":"杉並区","address":"東京都杉並区南荻窪4丁目29-10","lat":35.70262263,"lon":139.61618671},{"name":"日本ボーイスカウト東京連盟","province":"東京都","city":"杉並区","address":"東京都杉並区下井草4丁目4-3","lat":35.71935694,"lon":139.61846078},{"name":"＊?杉並区男女平等推進センター","province":"東京都","city":"杉並区","address":"杉並区荻窪1-56-3","lat":35.694542,"lon":139.62751},{"name":"杉並高等学校","province":"東京都","city":"杉並区","address":"東京都杉並区成田西4丁目15-15","lat":35.69697092,"lon":139.6316163},{"name":"荻窪高等学校","province":"東京都","city":"杉並区","address":"東京都杉並区荻窪5丁目7-20","lat":35.7019839,"lon":139.61940594},{"name":"豊多摩高等学校","province":"東京都","city":"杉並区","address":"東京都杉並区成田西2丁目6-18","lat":35.68911344,"lon":139.62882241},{"name":"西高等学校","province":"東京都","city":"杉並区","address":"東京都杉並区宮前4丁目21-32","lat":35.69236797,"lon":139.60574349},{"name":"農芸高等学校","province":"東京都","city":"杉並区","address":"東京都杉並区今川3丁目25-1","lat":35.71812612,"lon":139.6038315},{"name":"杉並工業高等学校","province":"東京都","city":"杉並区","address":"東京都杉並区上井草4丁目13-31","lat":35.7194314,"lon":139.59898463},{"name":"杉並総合高等学校","province":"東京都","city":"杉並区","address":"東京都杉並区下高井戸5丁目17-1","lat":35.67657033,"lon":139.62262609},{"name":"発達支援ルーム　にこっと","province":"東京都","city":"杉並区","address":"杉並区高円寺北3-40-13BIGVALLEY2階","lat":35.710514,"lon":139.64657},{"name":"スタジオあいだっく","province":"東京都","city":"杉並区","address":"杉並区高円寺南3-1-4キングスコートII4階","lat":35.697955,"lon":139.646929},{"name":"アンソレイユ","province":"東京都","city":"杉並区","address":"杉並区高円寺南2-35-15花月第一ビル2階","lat":35.699241,"lon":139.65442},{"name":"カノン","province":"東京都","city":"杉並区","address":"杉並区高円寺南3-16-20","lat":35.700299,"lon":139.645509},{"name":"プレミア･ケア･ジュニア阿佐ヶ谷店","province":"東京都","city":"杉並区","address":"杉並区阿佐谷南2-32-9-1階","lat":35.704443,"lon":139.644173},{"name":"ハッピーテラス荻窪教室","province":"東京都","city":"杉並区","address":"杉並区阿佐谷南3-12-4","lat":35.702762,"lon":139.628675},{"name":"バンブーワァオ阿佐ヶ谷校","province":"東京都","city":"杉並区","address":"杉並区阿佐谷南1-15-18伊藤ビル201-B号室","lat":35.699937,"lon":139.636905},{"name":"フェイト","province":"東京都","city":"杉並区","address":"杉並区梅里2-40-15-301","lat":35.697946,"lon":139.639313},{"name":"フォスター","province":"東京都","city":"杉並区","address":"杉並区和田2-41-7","lat":35.691728,"lon":139.655017},{"name":"よりみちくらぶ　ネコのトランク","province":"東京都","city":"杉並区","address":"杉並区成田東4-1-26-2階","lat":35.695118,"lon":139.63363},{"name":"ドルフィンキッズ","province":"東京都","city":"杉並区","address":"杉並区天沼2-4-1井上ビル203","lat":35.705323,"lon":139.623386},{"name":"よりみちくらぶ　トラのながぐつ","province":"東京都","city":"杉並区","address":"杉並区清水1-23-23","lat":35.710822,"lon":139.617953},{"name":"コロロ杉並少年隊","province":"東京都","city":"杉並区","address":"杉並区西荻北3-33-9","lat":35.706547,"lon":139.600343},{"name":"プレミア・ケア・ジュニア西荻窪店","province":"東京都","city":"杉並区","address":"杉並区上荻3-5-41階","lat":35.706864,"lon":139.607918},{"name":"みかんの木","province":"東京都","city":"杉並区","address":"杉並区南荻窪1-5-111階","lat":35.694962,"lon":139.617259},{"name":"放課後等デイサービスくじら","province":"東京都","city":"杉並区","address":"杉並区和泉3-22-15グランヴェール和泉101","lat":35.677813,"lon":139.647741},{"name":"プレミア・ケア・ジュニア代田橋店","province":"東京都","city":"杉並区","address":"杉並区和泉1-19-13","lat":35.674624,"lon":139.65859},{"name":"まぁぶる高井戸","province":"東京都","city":"杉並区","address":"杉並区高井戸東3-28-40小向高井戸ビル2階","lat":35.686774,"lon":139.616573},{"name":"くるみの木","province":"東京都","city":"杉並区","address":"杉並区上高井戸3-11-9","lat":35.676506,"lon":139.614629},{"name":"よりみちくらぶ　ヤギのサンダル","province":"東京都","city":"杉並区","address":"杉並区宮前2-10-42宮前ヴィレッジA棟104","lat":35.692521,"lon":139.612157},{"name":"杉並区子ども家庭支援センター","province":"東京都","city":"杉並区","address":"杉並区阿佐谷南1-14-8","lat":35.699774,"lon":139.63711},{"name":"杉並子ども家庭支援センター","province":"東京都","city":"杉並区","address":"杉並区阿佐谷南1-14-8","lat":35.69917,"lon":139.63687},{"name":"杉並子ども家庭支援センター","province":"東京都","city":"杉並区","address":"杉並区阿佐谷南1-14-8","lat":35.699774,"lon":139.63711},{"name":"堀ノ内斎場","province":"東京都","city":"杉並区","address":"東京都杉並区梅里1丁目2-27","lat":35.69562996,"lon":139.65120635},{"name":"東京都公立高等学校ＰＴＡ連合会","province":"東京都","city":"杉並区","address":"東京都杉並区南荻窪4丁目29-10","lat":35.70262263,"lon":139.61618671},{"name":"日本ボーイスカウト東京連盟","province":"東京都","city":"杉並区","address":"東京都杉並区下井草4丁目4-3","lat":35.71935694,"lon":139.61846078},{"name":"＊?杉並区男女平等推進センター","province":"東京都","city":"杉並区","address":"杉並区荻窪1-56-3","lat":35.694542,"lon":139.62751},{"name":"杉並高等学校","province":"東京都","city":"杉並区","address":"東京都杉並区成田西4丁目15-15","lat":35.69697092,"lon":139.6316163},{"name":"荻窪高等学校","province":"東京都","city":"杉並区","address":"東京都杉並区荻窪5丁目7-20","lat":35.7019839,"lon":139.61940594},{"name":"豊多摩高等学校","province":"東京都","city":"杉並区","address":"東京都杉並区成田西2丁目6-18","lat":35.68911344,"lon":139.62882241},{"name":"西高等学校","province":"東京都","city":"杉並区","address":"東京都杉並区宮前4丁目21-32","lat":35.69236797,"lon":139.60574349},{"name":"農芸高等学校","province":"東京都","city":"杉並区","address":"東京都杉並区今川3丁目25-1","lat":35.71812612,"lon":139.6038315},{"name":"杉並工業高等学校","province":"東京都","city":"杉並区","address":"東京都杉並区上井草4丁目13-31","lat":35.7194314,"lon":139.59898463},{"name":"杉並総合高等学校","province":"東京都","city":"杉並区","address":"東京都杉並区下高井戸5丁目17-1","lat":35.67657033,"lon":139.62262609},{"name":"発達支援ルーム　にこっと","province":"東京都","city":"杉並区","address":"杉並区高円寺北3-40-13BIGVALLEY2階","lat":35.710514,"lon":139.64657},{"name":"スタジオあいだっく","province":"東京都","city":"杉並区","address":"杉並区高円寺南3-1-4キングスコートII4階","lat":35.697955,"lon":139.646929},{"name":"アンソレイユ","province":"東京都","city":"杉並区","address":"杉並区高円寺南2-35-15花月第一ビル2階","lat":35.699241,"lon":139.65442},{"name":"カノン","province":"東京都","city":"杉並区","address":"杉並区高円寺南3-16-20","lat":35.700299,"lon":139.645509},{"name":"プレミア･ケア･ジュニア阿佐ヶ谷店","province":"東京都","city":"杉並区","address":"杉並区阿佐谷南2-32-9-1階","lat":35.704443,"lon":139.644173},{"name":"ハッピーテラス荻窪教室","province":"東京都","city":"杉並区","address":"杉並区阿佐谷南3-12-4","lat":35.702762,"lon":139.628675},{"name":"バンブーワァオ阿佐ヶ谷校","province":"東京都","city":"杉並区","address":"杉並区阿佐谷南1-15-18伊藤ビル201-B号室","lat":35.699937,"lon":139.636905},{"name":"フェイト","province":"東京都","city":"杉並区","address":"杉並区梅里2-40-15-301","lat":35.697946,"lon":139.639313},{"name":"フォスター","province":"東京都","city":"杉並区","address":"杉並区和田2-41-7","lat":35.691728,"lon":139.655017},{"name":"よりみちくらぶ　ネコのトランク","province":"東京都","city":"杉並区","address":"杉並区成田東4-1-26-2階","lat":35.695118,"lon":139.63363},{"name":"ドルフィンキッズ","province":"東京都","city":"杉並区","address":"杉並区天沼2-4-1井上ビル203","lat":35.705323,"lon":139.623386},{"name":"よりみちくらぶ　トラのながぐつ","province":"東京都","city":"杉並区","address":"杉並区清水1-23-23","lat":35.710822,"lon":139.617953},{"name":"コロロ杉並少年隊","province":"東京都","city":"杉並区","address":"杉並区西荻北3-33-9","lat":35.706547,"lon":139.600343},{"name":"プレミア・ケア・ジュニア西荻窪店","province":"東京都","city":"杉並区","address":"杉並区上荻3-5-41階","lat":35.706864,"lon":139.607918},{"name":"みかんの木","province":"東京都","city":"杉並区","address":"杉並区南荻窪1-5-111階","lat":35.694962,"lon":139.617259},{"name":"放課後等デイサービスくじら","province":"東京都","city":"杉並区","address":"杉並区和泉3-22-15グランヴェール和泉101","lat":35.677813,"lon":139.647741},{"name":"プレミア・ケア・ジュニア代田橋店","province":"東京都","city":"杉並区","address":"杉並区和泉1-19-13","lat":35.674624,"lon":139.65859},{"name":"まぁぶる高井戸","province":"東京都","city":"杉並区","address":"杉並区高井戸東3-28-40小向高井戸ビル2階","lat":35.686774,"lon":139.616573},{"name":"くるみの木","province":"東京都","city":"杉並区","address":"杉並区上高井戸3-11-9","lat":35.676506,"lon":139.614629},{"name":"よりみちくらぶ　ヤギのサンダル","province":"東京都","city":"杉並区","address":"杉並区宮前2-10-42宮前ヴィレッジA棟104","lat":35.692521,"lon":139.612157},{"name":"杉並区子ども家庭支援センター","province":"東京都","city":"杉並区","address":"杉並区阿佐谷南1-14-8","lat":35.699774,"lon":139.63711},{"name":"杉並子ども家庭支援センター","province":"東京都","city":"杉並区","address":"杉並区阿佐谷南1-14-8","lat":35.69917,"lon":139.63687},{"name":"杉並子ども家庭支援センター","province":"東京都","city":"杉並区","address":"杉並区阿佐谷南1-14-8","lat":35.699774,"lon":139.63711},{"name":"堀ノ内斎場","province":"東京都","city":"杉並区","address":"東京都杉並区梅里1丁目2-27","lat":35.69562996,"lon":139.65120635},{"name":"＊?杉並区男女平等推進センター","province":"東京都","city":"杉並区","address":"杉並区荻窪1-56-3","lat":35.694542,"lon":139.62751},{"name":"杉並高等学校","province":"東京都","city":"杉並区","address":"東京都杉並区成田西4丁目15-15","lat":35.69697092,"lon":139.6316163},{"name":"荻窪高等学校","province":"東京都","city":"杉並区","address":"東京都杉並区荻窪5丁目7-20","lat":35.7019839,"lon":139.61940594},{"name":"豊多摩高等学校","province":"東京都","city":"杉並区","address":"東京都杉並区成田西2丁目6-18","lat":35.68911344,"lon":139.62882241},{"name":"西高等学校","province":"東京都","city":"杉並区","address":"東京都杉並区宮前4丁目21-32","lat":35.69236797,"lon":139.60574349},{"name":"農芸高等学校","province":"東京都","city":"杉並区","address":"東京都杉並区今川3丁目25-1","lat":35.71812612,"lon":139.6038315},{"name":"杉並工業高等学校","province":"東京都","city":"杉並区","address":"東京都杉並区上井草4丁目13-31","lat":35.7194314,"lon":139.59898463},{"name":"杉並総合高等学校","province":"東京都","city":"杉並区","address":"東京都杉並区下高井戸5丁目17-1","lat":35.67657033,"lon":139.62262609},{"name":"発達支援ルーム　にこっと","province":"東京都","city":"杉並区","address":"杉並区高円寺北3-40-13BIGVALLEY2階","lat":35.710514,"lon":139.64657},{"name":"スタジオあいだっく","province":"東京都","city":"杉並区","address":"杉並区高円寺南3-1-4キングスコートII4階","lat":35.697955,"lon":139.646929},{"name":"アンソレイユ","province":"東京都","city":"杉並区","address":"杉並区高円寺南2-35-15花月第一ビル2階","lat":35.699241,"lon":139.65442},{"name":"カノン","province":"東京都","city":"杉並区","address":"杉並区高円寺南3-16-20","lat":35.700299,"lon":139.645509},{"name":"プレミア･ケア･ジュニア阿佐ヶ谷店","province":"東京都","city":"杉並区","address":"杉並区阿佐谷南2-32-9-1階","lat":35.704443,"lon":139.644173},{"name":"ハッピーテラス荻窪教室","province":"東京都","city":"杉並区","address":"杉並区阿佐谷南3-12-4","lat":35.702762,"lon":139.628675},{"name":"バンブーワァオ阿佐ヶ谷校","province":"東京都","city":"杉並区","address":"杉並区阿佐谷南1-15-18伊藤ビル201-B号室","lat":35.699937,"lon":139.636905},{"name":"フェイト","province":"東京都","city":"杉並区","address":"杉並区梅里2-40-15-301","lat":35.697946,"lon":139.639313},{"name":"フォスター","province":"東京都","city":"杉並区","address":"杉並区和田2-41-7","lat":35.691728,"lon":139.655017},{"name":"よりみちくらぶ　ネコのトランク","province":"東京都","city":"杉並区","address":"杉並区成田東4-1-26-2階","lat":35.695118,"lon":139.63363},{"name":"ドルフィンキッズ","province":"東京都","city":"杉並区","address":"杉並区天沼2-4-1井上ビル203","lat":35.705323,"lon":139.623386},{"name":"よりみちくらぶ　トラのながぐつ","province":"東京都","city":"杉並区","address":"杉並区清水1-23-23","lat":35.710822,"lon":139.617953},{"name":"コロロ杉並少年隊","province":"東京都","city":"杉並区","address":"杉並区西荻北3-33-9","lat":35.706547,"lon":139.600343},{"name":"プレミア・ケア・ジュニア西荻窪店","province":"東京都","city":"杉並区","address":"杉並区上荻3-5-41階","lat":35.706864,"lon":139.607918},{"name":"みかんの木","province":"東京都","city":"杉並区","address":"杉並区南荻窪1-5-111階","lat":35.694962,"lon":139.617259},{"name":"放課後等デイサービスくじら","province":"東京都","city":"杉並区","address":"杉並区和泉3-22-15グランヴェール和泉101","lat":35.677813,"lon":139.647741},{"name":"プレミア・ケア・ジュニア代田橋店","province":"東京都","city":"杉並区","address":"杉並区和泉1-19-13","lat":35.674624,"lon":139.65859},{"name":"まぁぶる高井戸","province":"東京都","city":"杉並区","address":"杉並区高井戸東3-28-40小向高井戸ビル2階","lat":35.686774,"lon":139.616573},{"name":"くるみの木","province":"東京都","city":"杉並区","address":"杉並区上高井戸3-11-9","lat":35.676506,"lon":139.614629},{"name":"よりみちくらぶ　ヤギのサンダル","province":"東京都","city":"杉並区","address":"杉並区宮前2-10-42宮前ヴィレッジA棟104","lat":35.692521,"lon":139.612157},{"name":"杉並区子ども家庭支援センター","province":"東京都","city":"杉並区","address":"杉並区阿佐谷南1-14-8","lat":35.699774,"lon":139.63711},{"name":"杉並子ども家庭支援センター","province":"東京都","city":"杉並区","address":"杉並区阿佐谷南1-14-8","lat":35.69917,"lon":139.63687},{"name":"杉並子ども家庭支援センター","province":"東京都","city":"杉並区","address":"杉並区阿佐谷南1-14-8","lat":35.699774,"lon":139.63711},{"name":"堀ノ内斎場","province":"東京都","city":"杉並区","address":"東京都杉並区梅里1丁目2-27","lat":35.69562996,"lon":139.65120635},{"name":"＊?杉並区男女平等推進センター","province":"東京都","city":"杉並区","address":"杉並区荻窪1-56-3","lat":35.694542,"lon":139.62751},{"name":"杉並高等学校","province":"東京都","city":"杉並区","address":"東京都杉並区成田西4丁目15-15","lat":35.69697092,"lon":139.6316163},{"name":"荻窪高等学校","province":"東京都","city":"杉並区","address":"東京都杉並区荻窪5丁目7-20","lat":35.7019839,"lon":139.61940594},{"name":"豊多摩高等学校","province":"東京都","city":"杉並区","address":"東京都杉並区成田西2丁目6-18","lat":35.68911344,"lon":139.62882241},{"name":"西高等学校","province":"東京都","city":"杉並区","address":"東京都杉並区宮前4丁目21-32","lat":35.69236797,"lon":139.60574349},{"name":"農芸高等学校","province":"東京都","city":"杉並区","address":"東京都杉並区今川3丁目25-1","lat":35.71812612,"lon":139.6038315},{"name":"杉並工業高等学校","province":"東京都","city":"杉並区","address":"東京都杉並区上井草4丁目13-31","lat":35.7194314,"lon":139.59898463},{"name":"杉並総合高等学校","province":"東京都","city":"杉並区","address":"東京都杉並区下高井戸5丁目17-1","lat":35.67657033,"lon":139.62262609},{"name":"発達支援ルーム　にこっと","province":"東京都","city":"杉並区","address":"杉並区高円寺北3-40-13BIGVALLEY2階","lat":35.710514,"lon":139.64657},{"name":"スタジオあいだっく","province":"東京都","city":"杉並区","address":"杉並区高円寺南3-1-4キングスコートII4階","lat":35.697955,"lon":139.646929},{"name":"アンソレイユ","province":"東京都","city":"杉並区","address":"杉並区高円寺南2-35-15花月第一ビル2階","lat":35.699241,"lon":139.65442},{"name":"カノン","province":"東京都","city":"杉並区","address":"杉並区高円寺南3-16-20","lat":35.700299,"lon":139.645509},{"name":"プレミア･ケア･ジュニア阿佐ヶ谷店","province":"東京都","city":"杉並区","address":"杉並区阿佐谷南2-32-9-1階","lat":35.704443,"lon":139.644173},{"name":"ハッピーテラス荻窪教室","province":"東京都","city":"杉並区","address":"杉並区阿佐谷南3-12-4","lat":35.702762,"lon":139.628675},{"name":"バンブーワァオ阿佐ヶ谷校","province":"東京都","city":"杉並区","address":"杉並区阿佐谷南1-15-18伊藤ビル201-B号室","lat":35.699937,"lon":139.636905},{"name":"フェイト","province":"東京都","city":"杉並区","address":"杉並区梅里2-40-15-301","lat":35.697946,"lon":139.639313},{"name":"フォスター","province":"東京都","city":"杉並区","address":"杉並区和田2-41-7","lat":35.691728,"lon":139.655017},{"name":"よりみちくらぶ　ネコのトランク","province":"東京都","city":"杉並区","address":"杉並区成田東4-1-26-2階","lat":35.695118,"lon":139.63363},{"name":"ドルフィンキッズ","province":"東京都","city":"杉並区","address":"杉並区天沼2-4-1井上ビル203","lat":35.705323,"lon":139.623386},{"name":"よりみちくらぶ　トラのながぐつ","province":"東京都","city":"杉並区","address":"杉並区清水1-23-23","lat":35.710822,"lon":139.617953},{"name":"コロロ杉並少年隊","province":"東京都","city":"杉並区","address":"杉並区西荻北3-33-9","lat":35.706547,"lon":139.600343},{"name":"プレミア・ケア・ジュニア西荻窪店","province":"東京都","city":"杉並区","address":"杉並区上荻3-5-41階","lat":35.706864,"lon":139.607918},{"name":"みかんの木","province":"東京都","city":"杉並区","address":"杉並区南荻窪1-5-111階","lat":35.694962,"lon":139.617259},{"name":"放課後等デイサービスくじら","province":"東京都","city":"杉並区","address":"杉並区和泉3-22-15グランヴェール和泉101","lat":35.677813,"lon":139.647741},{"name":"プレミア・ケア・ジュニア代田橋店","province":"東京都","city":"杉並区","address":"杉並区和泉1-19-13","lat":35.674624,"lon":139.65859},{"name":"まぁぶる高井戸","province":"東京都","city":"杉並区","address":"杉並区高井戸東3-28-40小向高井戸ビル2階","lat":35.686774,"lon":139.616573},{"name":"くるみの木","province":"東京都","city":"杉並区","address":"杉並区上高井戸3-11-9","lat":35.676506,"lon":139.614629},{"name":"よりみちくらぶ　ヤギのサンダル","province":"東京都","city":"杉並区","address":"杉並区宮前2-10-42宮前ヴィレッジA棟104","lat":35.692521,"lon":139.612157},{"name":"杉並区子ども家庭支援センター","province":"東京都","city":"杉並区","address":"杉並区阿佐谷南1-14-8","lat":35.699774,"lon":139.63711},{"name":"杉並子ども家庭支援センター","province":"東京都","city":"杉並区","address":"杉並区阿佐谷南1-14-8","lat":35.69917,"lon":139.63687},{"name":"杉並子ども家庭支援センター","province":"東京都","city":"杉並区","address":"杉並区阿佐谷南1-14-8","lat":35.699774,"lon":139.63711},{"name":"堀ノ内斎場","province":"東京都","city":"杉並区","address":"東京都杉並区梅里1丁目2-27","lat":35.69562996,"lon":139.65120635},{"name":"＊?杉並区男女平等推進センター","province":"東京都","city":"杉並区","address":"杉並区荻窪1-56-3","lat":35.694542,"lon":139.62751},{"name":"杉並高等学校","province":"東京都","city":"杉並区","address":"東京都杉並区成田西4丁目15-15","lat":35.69697092,"lon":139.6316163},{"name":"荻窪高等学校","province":"東京都","city":"杉並区","address":"東京都杉並区荻窪5丁目7-20","lat":35.7019839,"lon":139.61940594},{"name":"豊多摩高等学校","province":"東京都","city":"杉並区","address":"東京都杉並区成田西2丁目6-18","lat":35.68911344,"lon":139.62882241},{"name":"西高等学校","province":"東京都","city":"杉並区","address":"東京都杉並区宮前4丁目21-32","lat":35.69236797,"lon":139.60574349},{"name":"農芸高等学校","province":"東京都","city":"杉並区","address":"東京都杉並区今川3丁目25-1","lat":35.71812612,"lon":139.6038315},{"name":"杉並工業高等学校","province":"東京都","city":"杉並区","address":"東京都杉並区上井草4丁目13-31","lat":35.7194314,"lon":139.59898463},{"name":"杉並総合高等学校","province":"東京都","city":"杉並区","address":"東京都杉並区下高井戸5丁目17-1","lat":35.67657033,"lon":139.62262609},{"name":"発達支援ルーム　にこっと","province":"東京都","city":"杉並区","address":"杉並区高円寺北3-40-13BIGVALLEY2階","lat":35.710514,"lon":139.64657},{"name":"スタジオあいだっく","province":"東京都","city":"杉並区","address":"杉並区高円寺南3-1-4キングスコートII4階","lat":35.697955,"lon":139.646929},{"name":"アンソレイユ","province":"東京都","city":"杉並区","address":"杉並区高円寺南2-35-15花月第一ビル2階","lat":35.699241,"lon":139.65442},{"name":"カノン","province":"東京都","city":"杉並区","address":"杉並区高円寺南3-16-20","lat":35.700299,"lon":139.645509},{"name":"プレミア･ケア･ジュニア阿佐ヶ谷店","province":"東京都","city":"杉並区","address":"杉並区阿佐谷南2-32-9-1階","lat":35.704443,"lon":139.644173},{"name":"ハッピーテラス荻窪教室","province":"東京都","city":"杉並区","address":"杉並区阿佐谷南3-12-4","lat":35.702762,"lon":139.628675},{"name":"バンブーワァオ阿佐ヶ谷校","province":"東京都","city":"杉並区","address":"杉並区阿佐谷南1-15-18伊藤ビル201-B号室","lat":35.699937,"lon":139.636905},{"name":"フェイト","province":"東京都","city":"杉並区","address":"杉並区梅里2-40-15-301","lat":35.697946,"lon":139.639313},{"name":"フォスター","province":"東京都","city":"杉並区","address":"杉並区和田2-41-7","lat":35.691728,"lon":139.655017},{"name":"よりみちくらぶ　ネコのトランク","province":"東京都","city":"杉並区","address":"杉並区成田東4-1-26-2階","lat":35.695118,"lon":139.63363},{"name":"ドルフィンキッズ","province":"東京都","city":"杉並区","address":"杉並区天沼2-4-1井上ビル203","lat":35.705323,"lon":139.623386},{"name":"よりみちくらぶ　トラのながぐつ","province":"東京都","city":"杉並区","address":"杉並区清水1-23-23","lat":35.710822,"lon":139.617953},{"name":"コロロ杉並少年隊","province":"東京都","city":"杉並区","address":"杉並区西荻北3-33-9","lat":35.706547,"lon":139.600343},{"name":"プレミア・ケア・ジュニア西荻窪店","province":"東京都","city":"杉並区","address":"杉並区上荻3-5-41階","lat":35.706864,"lon":139.607918},{"name":"みかんの木","province":"東京都","city":"杉並区","address":"杉並区南荻窪1-5-111階","lat":35.694962,"lon":139.617259},{"name":"放課後等デイサービスくじら","province":"東京都","city":"杉並区","address":"杉並区和泉3-22-15グランヴェール和泉101","lat":35.677813,"lon":139.647741},{"name":"プレミア・ケア・ジュニア代田橋店","province":"東京都","city":"杉並区","address":"杉並区和泉1-19-13","lat":35.674624,"lon":139.65859},{"name":"まぁぶる高井戸","province":"東京都","city":"杉並区","address":"杉並区高井戸東3-28-40小向高井戸ビル2階","lat":35.686774,"lon":139.616573},{"name":"くるみの木","province":"東京都","city":"杉並区","address":"杉並区上高井戸3-11-9","lat":35.676506,"lon":139.614629},{"name":"よりみちくらぶ　ヤギのサンダル","province":"東京都","city":"杉並区","address":"杉並区宮前2-10-42宮前ヴィレッジA棟104","lat":35.692521,"lon":139.612157},{"name":"杉並区子ども家庭支援センター","province":"東京都","city":"杉並区","address":"杉並区阿佐谷南1-14-8","lat":35.699774,"lon":139.63711},{"name":"杉並子ども家庭支援センター","province":"東京都","city":"杉並区","address":"杉並区阿佐谷南1-14-8","lat":35.69917,"lon":139.63687},{"name":"杉並子ども家庭支援センター","province":"東京都","city":"杉並区","address":"杉並区阿佐谷南1-14-8","lat":35.699774,"lon":139.63711},{"name":"堀ノ内斎場","province":"東京都","city":"杉並区","address":"東京都杉並区梅里1丁目2-27","lat":35.69562996,"lon":139.65120635},{"name":"＊?杉並区男女平等推進センター","province":"東京都","city":"杉並区","address":"杉並区荻窪1-56-3","lat":35.694542,"lon":139.62751},{"name":"杉並高等学校","province":"東京都","city":"杉並区","address":"東京都杉並区成田西4丁目15-15","lat":35.69697092,"lon":139.6316163},{"name":"荻窪高等学校","province":"東京都","city":"杉並区","address":"東京都杉並区荻窪5丁目7-20","lat":35.7019839,"lon":139.61940594},{"name":"豊多摩高等学校","province":"東京都","city":"杉並区","address":"東京都杉並区成田西2丁目6-18","lat":35.68911344,"lon":139.62882241},{"name":"西高等学校","province":"東京都","city":"杉並区","address":"東京都杉並区宮前4丁目21-32","lat":35.69236797,"lon":139.60574349},{"name":"農芸高等学校","province":"東京都","city":"杉並区","address":"東京都杉並区今川3丁目25-1","lat":35.71812612,"lon":139.6038315},{"name":"杉並工業高等学校","province":"東京都","city":"杉並区","address":"東京都杉並区上井草4丁目13-31","lat":35.7194314,"lon":139.59898463},{"name":"杉並総合高等学校","province":"東京都","city":"杉並区","address":"東京都杉並区下高井戸5丁目17-1","lat":35.67657033,"lon":139.62262609},{"name":"発達支援ルーム　にこっと","province":"東京都","city":"杉並区","address":"杉並区高円寺北3-40-13BIGVALLEY2階","lat":35.710514,"lon":139.64657},{"name":"スタジオあいだっく","province":"東京都","city":"杉並区","address":"杉並区高円寺南3-1-4キングスコートII4階","lat":35.697955,"lon":139.646929},{"name":"アンソレイユ","province":"東京都","city":"杉並区","address":"杉並区高円寺南2-35-15花月第一ビル2階","lat":35.699241,"lon":139.65442},{"name":"カノン","province":"東京都","city":"杉並区","address":"杉並区高円寺南3-16-20","lat":35.700299,"lon":139.645509},{"name":"プレミア･ケア･ジュニア阿佐ヶ谷店","province":"東京都","city":"杉並区","address":"杉並区阿佐谷南2-32-9-1階","lat":35.704443,"lon":139.644173},{"name":"ハッピーテラス荻窪教室","province":"東京都","city":"杉並区","address":"杉並区阿佐谷南3-12-4","lat":35.702762,"lon":139.628675},{"name":"バンブーワァオ阿佐ヶ谷校","province":"東京都","city":"杉並区","address":"杉並区阿佐谷南1-15-18伊藤ビル201-B号室","lat":35.699937,"lon":139.636905},{"name":"フェイト","province":"東京都","city":"杉並区","address":"杉並区梅里2-40-15-301","lat":35.697946,"lon":139.639313},{"name":"フォスター","province":"東京都","city":"杉並区","address":"杉並区和田2-41-7","lat":35.691728,"lon":139.655017},{"name":"よりみちくらぶ　ネコのトランク","province":"東京都","city":"杉並区","address":"杉並区成田東4-1-26-2階","lat":35.695118,"lon":139.63363},{"name":"ドルフィンキッズ","province":"東京都","city":"杉並区","address":"杉並区天沼2-4-1井上ビル203","lat":35.705323,"lon":139.623386},{"name":"よりみちくらぶ　トラのながぐつ","province":"東京都","city":"杉並区","address":"杉並区清水1-23-23","lat":35.710822,"lon":139.617953},{"name":"コロロ杉並少年隊","province":"東京都","city":"杉並区","address":"杉並区西荻北3-33-9","lat":35.706547,"lon":139.600343},{"name":"プレミア・ケア・ジュニア西荻窪店","province":"東京都","city":"杉並区","address":"杉並区上荻3-5-41階","lat":35.706864,"lon":139.607918},{"name":"みかんの木","province":"東京都","city":"杉並区","address":"杉並区南荻窪1-5-111階","lat":35.694962,"lon":139.617259},{"name":"放課後等デイサービスくじら","province":"東京都","city":"杉並区","address":"杉並区和泉3-22-15グランヴェール和泉101","lat":35.677813,"lon":139.647741},{"name":"プレミア・ケア・ジュニア代田橋店","province":"東京都","city":"杉並区","address":"杉並区和泉1-19-13","lat":35.674624,"lon":139.65859},{"name":"まぁぶる高井戸","province":"東京都","city":"杉並区","address":"杉並区高井戸東3-28-40小向高井戸ビル2階","lat":35.686774,"lon":139.616573},{"name":"くるみの木","province":"東京都","city":"杉並区","address":"杉並区上高井戸3-11-9","lat":35.676506,"lon":139.614629},{"name":"よりみちくらぶ　ヤギのサンダル","province":"東京都","city":"杉並区","address":"杉並区宮前2-10-42宮前ヴィレッジA棟104","lat":35.692521,"lon":139.612157},{"name":"杉並区子ども家庭支援センター","province":"東京都","city":"杉並区","address":"杉並区阿佐谷南1-14-8","lat":35.699774,"lon":139.63711},{"name":"杉並子ども家庭支援センター","province":"東京都","city":"杉並区","address":"杉並区阿佐谷南1-14-8","lat":35.69917,"lon":139.63687},{"name":"杉並子ども家庭支援センター","province":"東京都","city":"杉並区","address":"杉並区阿佐谷南1-14-8","lat":35.699774,"lon":139.63711},{"name":"堀ノ内斎場","province":"東京都","city":"杉並区","address":"東京都杉並区梅里1丁目2-27","lat":35.69562996,"lon":139.65120635},{"name":"＊?杉並区男女平等推進センター","province":"東京都","city":"杉並区","address":"杉並区荻窪1-56-3","lat":35.694542,"lon":139.62751},{"name":"杉並高等学校","province":"東京都","city":"杉並区","address":"東京都杉並区成田西4丁目15-15","lat":35.69697092,"lon":139.6316163},{"name":"荻窪高等学校","province":"東京都","city":"杉並区","address":"東京都杉並区荻窪5丁目7-20","lat":35.7019839,"lon":139.61940594},{"name":"豊多摩高等学校","province":"東京都","city":"杉並区","address":"東京都杉並区成田西2丁目6-18","lat":35.68911344,"lon":139.62882241},{"name":"西高等学校","province":"東京都","city":"杉並区","address":"東京都杉並区宮前4丁目21-32","lat":35.69236797,"lon":139.60574349},{"name":"農芸高等学校","province":"東京都","city":"杉並区","address":"東京都杉並区今川3丁目25-1","lat":35.71812612,"lon":139.6038315},{"name":"杉並工業高等学校","province":"東京都","city":"杉並区","address":"東京都杉並区上井草4丁目13-31","lat":35.7194314,"lon":139.59898463},{"name":"杉並総合高等学校","province":"東京都","city":"杉並区","address":"東京都杉並区下高井戸5丁目17-1","lat":35.67657033,"lon":139.62262609},{"name":"発達支援ルーム　にこっと","province":"東京都","city":"杉並区","address":"杉並区高円寺北3-40-13BIGVALLEY2階","lat":35.710514,"lon":139.64657},{"name":"スタジオあいだっく","province":"東京都","city":"杉並区","address":"杉並区高円寺南3-1-4キングスコートII4階","lat":35.697955,"lon":139.646929},{"name":"アンソレイユ","province":"東京都","city":"杉並区","address":"杉並区高円寺南2-35-15花月第一ビル2階","lat":35.699241,"lon":139.65442},{"name":"カノン","province":"東京都","city":"杉並区","address":"杉並区高円寺南3-16-20","lat":35.700299,"lon":139.645509},{"name":"プレミア･ケア･ジュニア阿佐ヶ谷店","province":"東京都","city":"杉並区","address":"杉並区阿佐谷南2-32-9-1階","lat":35.704443,"lon":139.644173},{"name":"ハッピーテラス荻窪教室","province":"東京都","city":"杉並区","address":"杉並区阿佐谷南3-12-4","lat":35.702762,"lon":139.628675},{"name":"バンブーワァオ阿佐ヶ谷校","province":"東京都","city":"杉並区","address":"杉並区阿佐谷南1-15-18伊藤ビル201-B号室","lat":35.699937,"lon":139.636905},{"name":"フェイト","province":"東京都","city":"杉並区","address":"杉並区梅里2-40-15-301","lat":35.697946,"lon":139.639313},{"name":"フォスター","province":"東京都","city":"杉並区","address":"杉並区和田2-41-7","lat":35.691728,"lon":139.655017},{"name":"よりみちくらぶ　ネコのトランク","province":"東京都","city":"杉並区","address":"杉並区成田東4-1-26-2階","lat":35.695118,"lon":139.63363},{"name":"ドルフィンキッズ","province":"東京都","city":"杉並区","address":"杉並区天沼2-4-1井上ビル203","lat":35.705323,"lon":139.623386},{"name":"よりみちくらぶ　トラのながぐつ","province":"東京都","city":"杉並区","address":"杉並区清水1-23-23","lat":35.710822,"lon":139.617953},{"name":"コロロ杉並少年隊","province":"東京都","city":"杉並区","address":"杉並区西荻北3-33-9","lat":35.706547,"lon":139.600343},{"name":"プレミア・ケア・ジュニア西荻窪店","province":"東京都","city":"杉並区","address":"杉並区上荻3-5-41階","lat":35.706864,"lon":139.607918},{"name":"みかんの木","province":"東京都","city":"杉並区","address":"杉並区南荻窪1-5-111階","lat":35.694962,"lon":139.617259},{"name":"放課後等デイサービスくじら","province":"東京都","city":"杉並区","address":"杉並区和泉3-22-15グランヴェール和泉101","lat":35.677813,"lon":139.647741},{"name":"プレミア・ケア・ジュニア代田橋店","province":"東京都","city":"杉並区","address":"杉並区和泉1-19-13","lat":35.674624,"lon":139.65859},{"name":"まぁぶる高井戸","province":"東京都","city":"杉並区","address":"杉並区高井戸東3-28-40小向高井戸ビル2階","lat":35.686774,"lon":139.616573},{"name":"くるみの木","province":"東京都","city":"杉並区","address":"杉並区上高井戸3-11-9","lat":35.676506,"lon":139.614629},{"name":"よりみちくらぶ　ヤギのサンダル","province":"東京都","city":"杉並区","address":"杉並区宮前2-10-42宮前ヴィレッジA棟104","lat":35.692521,"lon":139.612157},{"name":"杉並区子ども家庭支援センター","province":"東京都","city":"杉並区","address":"杉並区阿佐谷南1-14-8","lat":35.699774,"lon":139.63711},{"name":"杉並子ども家庭支援センター","province":"東京都","city":"杉並区","address":"杉並区阿佐谷南1-14-8","lat":35.69917,"lon":139.63687},{"name":"杉並子ども家庭支援センター","province":"東京都","city":"杉並区","address":"杉並区阿佐谷南1-14-8","lat":35.699774,"lon":139.63711},{"name":"堀ノ内斎場","province":"東京都","city":"杉並区","address":"東京都杉並区梅里1丁目2-27","lat":35.69562996,"lon":139.65120635},{"name":"＊?杉並区男女平等推進センター","province":"東京都","city":"杉並区","address":"杉並区荻窪1-56-3","lat":35.694542,"lon":139.62751},{"name":"杉並高等学校","province":"東京都","city":"杉並区","address":"東京都杉並区成田西4丁目15-15","lat":35.69697092,"lon":139.6316163},{"name":"荻窪高等学校","province":"東京都","city":"杉並区","address":"東京都杉並区荻窪5丁目7-20","lat":35.7019839,"lon":139.61940594},{"name":"豊多摩高等学校","province":"東京都","city":"杉並区","address":"東京都杉並区成田西2丁目6-18","lat":35.68911344,"lon":139.62882241},{"name":"西高等学校","province":"東京都","city":"杉並区","address":"東京都杉並区宮前4丁目21-32","lat":35.69236797,"lon":139.60574349},{"name":"農芸高等学校","province":"東京都","city":"杉並区","address":"東京都杉並区今川3丁目25-1","lat":35.71812612,"lon":139.6038315},{"name":"杉並工業高等学校","province":"東京都","city":"杉並区","address":"東京都杉並区上井草4丁目13-31","lat":35.7194314,"lon":139.59898463},{"name":"杉並総合高等学校","province":"東京都","city":"杉並区","address":"東京都杉並区下高井戸5丁目17-1","lat":35.67657033,"lon":139.62262609},{"name":"発達支援ルーム　にこっと","province":"東京都","city":"杉並区","address":"杉並区高円寺北3-40-13BIGVALLEY2階","lat":35.710514,"lon":139.64657},{"name":"スタジオあいだっく","province":"東京都","city":"杉並区","address":"杉並区高円寺南3-1-4キングスコートII4階","lat":35.697955,"lon":139.646929},{"name":"アンソレイユ","province":"東京都","city":"杉並区","address":"杉並区高円寺南2-35-15花月第一ビル2階","lat":35.699241,"lon":139.65442},{"name":"カノン","province":"東京都","city":"杉並区","address":"杉並区高円寺南3-16-20","lat":35.700299,"lon":139.645509},{"name":"プレミア･ケア･ジュニア阿佐ヶ谷店","province":"東京都","city":"杉並区","address":"杉並区阿佐谷南2-32-9-1階","lat":35.704443,"lon":139.644173},{"name":"ハッピーテラス荻窪教室","province":"東京都","city":"杉並区","address":"杉並区阿佐谷南3-12-4","lat":35.702762,"lon":139.628675},{"name":"バンブーワァオ阿佐ヶ谷校","province":"東京都","city":"杉並区","address":"杉並区阿佐谷南1-15-18伊藤ビル201-B号室","lat":35.699937,"lon":139.636905},{"name":"フェイト","province":"東京都","city":"杉並区","address":"杉並区梅里2-40-15-301","lat":35.697946,"lon":139.639313},{"name":"フォスター","province":"東京都","city":"杉並区","address":"杉並区和田2-41-7","lat":35.691728,"lon":139.655017},{"name":"よりみちくらぶ　ネコのトランク","province":"東京都","city":"杉並区","address":"杉並区成田東4-1-26-2階","lat":35.695118,"lon":139.63363},{"name":"ドルフィンキッズ","province":"東京都","city":"杉並区","address":"杉並区天沼2-4-1井上ビル203","lat":35.705323,"lon":139.623386},{"name":"よりみちくらぶ　トラのながぐつ","province":"東京都","city":"杉並区","address":"杉並区清水1-23-23","lat":35.710822,"lon":139.617953},{"name":"コロロ杉並少年隊","province":"東京都","city":"杉並区","address":"杉並区西荻北3-33-9","lat":35.706547,"lon":139.600343},{"name":"プレミア・ケア・ジュニア西荻窪店","province":"東京都","city":"杉並区","address":"杉並区上荻3-5-41階","lat":35.706864,"lon":139.607918},{"name":"みかんの木","province":"東京都","city":"杉並区","address":"杉並区南荻窪1-5-111階","lat":35.694962,"lon":139.617259},{"name":"放課後等デイサービスくじら","province":"東京都","city":"杉並区","address":"杉並区和泉3-22-15グランヴェール和泉101","lat":35.677813,"lon":139.647741},{"name":"プレミア・ケア・ジュニア代田橋店","province":"東京都","city":"杉並区","address":"杉並区和泉1-19-13","lat":35.674624,"lon":139.65859},{"name":"まぁぶる高井戸","province":"東京都","city":"杉並区","address":"杉並区高井戸東3-28-40小向高井戸ビル2階","lat":35.686774,"lon":139.616573},{"name":"くるみの木","province":"東京都","city":"杉並区","address":"杉並区上高井戸3-11-9","lat":35.676506,"lon":139.614629},{"name":"よりみちくらぶ　ヤギのサンダル","province":"東京都","city":"杉並区","address":"杉並区宮前2-10-42宮前ヴィレッジA棟104","lat":35.692521,"lon":139.612157},{"name":"杉並区子ども家庭支援センター","province":"東京都","city":"杉並区","address":"杉並区阿佐谷南1-14-8","lat":35.699774,"lon":139.63711},{"name":"杉並子ども家庭支援センター","province":"東京都","city":"杉並区","address":"杉並区阿佐谷南1-14-8","lat":35.69917,"lon":139.63687},{"name":"杉並子ども家庭支援センター","province":"東京都","city":"杉並区","address":"杉並区阿佐谷南1-14-8","lat":35.699774,"lon":139.63711},{"name":"堀ノ内斎場","province":"東京都","city":"杉並区","address":"東京都杉並区梅里1丁目2-27","lat":35.69562996,"lon":139.65120635},{"name":"＊?杉並区男女平等推進センター","province":"東京都","city":"杉並区","address":"杉並区荻窪1-56-3","lat":35.694542,"lon":139.62751},{"name":"杉並高等学校","province":"東京都","city":"杉並区","address":"東京都杉並区成田西4丁目15-15","lat":35.69697092,"lon":139.6316163},{"name":"荻窪高等学校","province":"東京都","city":"杉並区","address":"東京都杉並区荻窪5丁目7-20","lat":35.7019839,"lon":139.61940594},{"name":"豊多摩高等学校","province":"東京都","city":"杉並区","address":"東京都杉並区成田西2丁目6-18","lat":35.68911344,"lon":139.62882241},{"name":"西高等学校","province":"東京都","city":"杉並区","address":"東京都杉並区宮前4丁目21-32","lat":35.69236797,"lon":139.60574349},{"name":"農芸高等学校","province":"東京都","city":"杉並区","address":"東京都杉並区今川3丁目25-1","lat":35.71812612,"lon":139.6038315},{"name":"杉並工業高等学校","province":"東京都","city":"杉並区","address":"東京都杉並区上井草4丁目13-31","lat":35.7194314,"lon":139.59898463},{"name":"杉並総合高等学校","province":"東京都","city":"杉並区","address":"東京都杉並区下高井戸5丁目17-1","lat":35.67657033,"lon":139.62262609},{"name":"発達支援ルーム　にこっと","province":"東京都","city":"杉並区","address":"杉並区高円寺北3-40-13BIGVALLEY2階","lat":35.710514,"lon":139.64657},{"name":"スタジオあいだっく","province":"東京都","city":"杉並区","address":"杉並区高円寺南3-1-4キングスコートII4階","lat":35.697955,"lon":139.646929},{"name":"アンソレイユ","province":"東京都","city":"杉並区","address":"杉並区高円寺南2-35-15花月第一ビル2階","lat":35.699241,"lon":139.65442},{"name":"カノン","province":"東京都","city":"杉並区","address":"杉並区高円寺南3-16-20","lat":35.700299,"lon":139.645509},{"name":"プレミア･ケア･ジュニア阿佐ヶ谷店","province":"東京都","city":"杉並区","address":"杉並区阿佐谷南2-32-9-1階","lat":35.704443,"lon":139.644173},{"name":"ハッピーテラス荻窪教室","province":"東京都","city":"杉並区","address":"杉並区阿佐谷南3-12-4","lat":35.702762,"lon":139.628675},{"name":"バンブーワァオ阿佐ヶ谷校","province":"東京都","city":"杉並区","address":"杉並区阿佐谷南1-15-18伊藤ビル201-B号室","lat":35.699937,"lon":139.636905},{"name":"フェイト","province":"東京都","city":"杉並区","address":"杉並区梅里2-40-15-301","lat":35.697946,"lon":139.639313},{"name":"フォスター","province":"東京都","city":"杉並区","address":"杉並区和田2-41-7","lat":35.691728,"lon":139.655017},{"name":"よりみちくらぶ　ネコのトランク","province":"東京都","city":"杉並区","address":"杉並区成田東4-1-26-2階","lat":35.695118,"lon":139.63363},{"name":"ドルフィンキッズ","province":"東京都","city":"杉並区","address":"杉並区天沼2-4-1井上ビル203","lat":35.705323,"lon":139.623386},{"name":"よりみちくらぶ　トラのながぐつ","province":"東京都","city":"杉並区","address":"杉並区清水1-23-23","lat":35.710822,"lon":139.617953},{"name":"コロロ杉並少年隊","province":"東京都","city":"杉並区","address":"杉並区西荻北3-33-9","lat":35.706547,"lon":139.600343},{"name":"プレミア・ケア・ジュニア西荻窪店","province":"東京都","city":"杉並区","address":"杉並区上荻3-5-41階","lat":35.706864,"lon":139.607918},{"name":"みかんの木","province":"東京都","city":"杉並区","address":"杉並区南荻窪1-5-111階","lat":35.694962,"lon":139.617259},{"name":"放課後等デイサービスくじら","province":"東京都","city":"杉並区","address":"杉並区和泉3-22-15グランヴェール和泉101","lat":35.677813,"lon":139.647741},{"name":"プレミア・ケア・ジュニア代田橋店","province":"東京都","city":"杉並区","address":"杉並区和泉1-19-13","lat":35.674624,"lon":139.65859},{"name":"まぁぶる高井戸","province":"東京都","city":"杉並区","address":"杉並区高井戸東3-28-40小向高井戸ビル2階","lat":35.686774,"lon":139.616573},{"name":"くるみの木","province":"東京都","city":"杉並区","address":"杉並区上高井戸3-11-9","lat":35.676506,"lon":139.614629},{"name":"よりみちくらぶ　ヤギのサンダル","province":"東京都","city":"杉並区","address":"杉並区宮前2-10-42宮前ヴィレッジA棟104","lat":35.692521,"lon":139.612157},{"name":"杉並区子ども家庭支援センター","province":"東京都","city":"杉並区","address":"杉並区阿佐谷南1-14-8","lat":35.699774,"lon":139.63711},{"name":"杉並子ども家庭支援センター","province":"東京都","city":"杉並区","address":"杉並区阿佐谷南1-14-8","lat":35.69917,"lon":139.63687},{"name":"杉並子ども家庭支援センター","province":"東京都","city":"杉並区","address":"杉並区阿佐谷南1-14-8","lat":35.699774,"lon":139.63711},{"name":"堀ノ内斎場","province":"東京都","city":"杉並区","address":"東京都杉並区梅里1丁目2-27","lat":35.69562996,"lon":139.65120635},{"name":"＊?杉並区男女平等推進センター","province":"東京都","city":"杉並区","address":"杉並区荻窪1-56-3","lat":35.694542,"lon":139.62751},{"name":"杉並高等学校","province":"東京都","city":"杉並区","address":"東京都杉並区成田西4丁目15-15","lat":35.69697092,"lon":139.6316163},{"name":"荻窪高等学校","province":"東京都","city":"杉並区","address":"東京都杉並区荻窪5丁目7-20","lat":35.7019839,"lon":139.61940594},{"name":"豊多摩高等学校","province":"東京都","city":"杉並区","address":"東京都杉並区成田西2丁目6-18","lat":35.68911344,"lon":139.62882241},{"name":"西高等学校","province":"東京都","city":"杉並区","address":"東京都杉並区宮前4丁目21-32","lat":35.69236797,"lon":139.60574349},{"name":"農芸高等学校","province":"東京都","city":"杉並区","address":"東京都杉並区今川3丁目25-1","lat":35.71812612,"lon":139.6038315},{"name":"杉並工業高等学校","province":"東京都","city":"杉並区","address":"東京都杉並区上井草4丁目13-31","lat":35.7194314,"lon":139.59898463},{"name":"杉並総合高等学校","province":"東京都","city":"杉並区","address":"東京都杉並区下高井戸5丁目17-1","lat":35.67657033,"lon":139.62262609},{"name":"発達支援ルーム　にこっと","province":"東京都","city":"杉並区","address":"杉並区高円寺北3-40-13BIGVALLEY2階","lat":35.710514,"lon":139.64657},{"name":"スタジオあいだっく","province":"東京都","city":"杉並区","address":"杉並区高円寺南3-1-4キングスコートII4階","lat":35.697955,"lon":139.646929},{"name":"アンソレイユ","province":"東京都","city":"杉並区","address":"杉並区高円寺南2-35-15花月第一ビル2階","lat":35.699241,"lon":139.65442},{"name":"カノン","province":"東京都","city":"杉並区","address":"杉並区高円寺南3-16-20","lat":35.700299,"lon":139.645509},{"name":"プレミア･ケア･ジュニア阿佐ヶ谷店","province":"東京都","city":"杉並区","address":"杉並区阿佐谷南2-32-9-1階","lat":35.704443,"lon":139.644173},{"name":"ハッピーテラス荻窪教室","province":"東京都","city":"杉並区","address":"杉並区阿佐谷南3-12-4","lat":35.702762,"lon":139.628675},{"name":"バンブーワァオ阿佐ヶ谷校","province":"東京都","city":"杉並区","address":"杉並区阿佐谷南1-15-18伊藤ビル201-B号室","lat":35.699937,"lon":139.636905},{"name":"フェイト","province":"東京都","city":"杉並区","address":"杉並区梅里2-40-15-301","lat":35.697946,"lon":139.639313},{"name":"フォスター","province":"東京都","city":"杉並区","address":"杉並区和田2-41-7","lat":35.691728,"lon":139.655017},{"name":"よりみちくらぶ　ネコのトランク","province":"東京都","city":"杉並区","address":"杉並区成田東4-1-26-2階","lat":35.695118,"lon":139.63363},{"name":"ドルフィンキッズ","province":"東京都","city":"杉並区","address":"杉並区天沼2-4-1井上ビル203","lat":35.705323,"lon":139.623386},{"name":"よりみちくらぶ　トラのながぐつ","province":"東京都","city":"杉並区","address":"杉並区清水1-23-23","lat":35.710822,"lon":139.617953},{"name":"コロロ杉並少年隊","province":"東京都","city":"杉並区","address":"杉並区西荻北3-33-9","lat":35.706547,"lon":139.600343},{"name":"プレミア・ケア・ジュニア西荻窪店","province":"東京都","city":"杉並区","address":"杉並区上荻3-5-41階","lat":35.706864,"lon":139.607918},{"name":"みかんの木","province":"東京都","city":"杉並区","address":"杉並区南荻窪1-5-111階","lat":35.694962,"lon":139.617259},{"name":"放課後等デイサービスくじら","province":"東京都","city":"杉並区","address":"杉並区和泉3-22-15グランヴェール和泉101","lat":35.677813,"lon":139.647741},{"name":"プレミア・ケア・ジュニア代田橋店","province":"東京都","city":"杉並区","address":"杉並区和泉1-19-13","lat":35.674624,"lon":139.65859},{"name":"まぁぶる高井戸","province":"東京都","city":"杉並区","address":"杉並区高井戸東3-28-40小向高井戸ビル2階","lat":35.686774,"lon":139.616573},{"name":"くるみの木","province":"東京都","city":"杉並区","address":"杉並区上高井戸3-11-9","lat":35.676506,"lon":139.614629},{"name":"よりみちくらぶ　ヤギのサンダル","province":"東京都","city":"杉並区","address":"杉並区宮前2-10-42宮前ヴィレッジA棟104","lat":35.692521,"lon":139.612157},{"name":"杉並区子ども家庭支援センター","province":"東京都","city":"杉並区","address":"杉並区阿佐谷南1-14-8","lat":35.699774,"lon":139.63711},{"name":"杉並子ども家庭支援センター","province":"東京都","city":"杉並区","address":"杉並区阿佐谷南1-14-8","lat":35.69917,"lon":139.63687},{"name":"杉並子ども家庭支援センター","province":"東京都","city":"杉並区","address":"杉並区阿佐谷南1-14-8","lat":35.699774,"lon":139.63711},{"name":"堀ノ内斎場","province":"東京都","city":"杉並区","address":"東京都杉並区梅里1丁目2-27","lat":35.69562996,"lon":139.65120635},{"name":"＊?杉並区男女平等推進センター","province":"東京都","city":"杉並区","address":"杉並区荻窪1-56-3","lat":35.694542,"lon":139.62751},{"name":"杉並高等学校","province":"東京都","city":"杉並区","address":"東京都杉並区成田西4丁目15-15","lat":35.69697092,"lon":139.6316163},{"name":"荻窪高等学校","province":"東京都","city":"杉並区","address":"東京都杉並区荻窪5丁目7-20","lat":35.7019839,"lon":139.61940594},{"name":"豊多摩高等学校","province":"東京都","city":"杉並区","address":"東京都杉並区成田西2丁目6-18","lat":35.68911344,"lon":139.62882241},{"name":"西高等学校","province":"東京都","city":"杉並区","address":"東京都杉並区宮前4丁目21-32","lat":35.69236797,"lon":139.60574349},{"name":"農芸高等学校","province":"東京都","city":"杉並区","address":"東京都杉並区今川3丁目25-1","lat":35.71812612,"lon":139.6038315},{"name":"杉並工業高等学校","province":"東京都","city":"杉並区","address":"東京都杉並区上井草4丁目13-31","lat":35.7194314,"lon":139.59898463},{"name":"杉並総合高等学校","province":"東京都","city":"杉並区","address":"東京都杉並区下高井戸5丁目17-1","lat":35.67657033,"lon":139.62262609},{"name":"発達支援ルーム　にこっと","province":"東京都","city":"杉並区","address":"杉並区高円寺北3-40-13BIGVALLEY2階","lat":35.710514,"lon":139.64657},{"name":"スタジオあいだっく","province":"東京都","city":"杉並区","address":"杉並区高円寺南3-1-4キングスコートII4階","lat":35.697955,"lon":139.646929},{"name":"アンソレイユ","province":"東京都","city":"杉並区","address":"杉並区高円寺南2-35-15花月第一ビル2階","lat":35.699241,"lon":139.65442},{"name":"カノン","province":"東京都","city":"杉並区","address":"杉並区高円寺南3-16-20","lat":35.700299,"lon":139.645509},{"name":"プレミア･ケア･ジュニア阿佐ヶ谷店","province":"東京都","city":"杉並区","address":"杉並区阿佐谷南2-32-9-1階","lat":35.704443,"lon":139.644173},{"name":"ハッピーテラス荻窪教室","province":"東京都","city":"杉並区","address":"杉並区阿佐谷南3-12-4","lat":35.702762,"lon":139.628675},{"name":"バンブーワァオ阿佐ヶ谷校","province":"東京都","city":"杉並区","address":"杉並区阿佐谷南1-15-18伊藤ビル201-B号室","lat":35.699937,"lon":139.636905},{"name":"フェイト","province":"東京都","city":"杉並区","address":"杉並区梅里2-40-15-301","lat":35.697946,"lon":139.639313},{"name":"フォスター","province":"東京都","city":"杉並区","address":"杉並区和田2-41-7","lat":35.691728,"lon":139.655017},{"name":"よりみちくらぶ　ネコのトランク","province":"東京都","city":"杉並区","address":"杉並区成田東4-1-26-2階","lat":35.695118,"lon":139.63363},{"name":"ドルフィンキッズ","province":"東京都","city":"杉並区","address":"杉並区天沼2-4-1井上ビル203","lat":35.705323,"lon":139.623386},{"name":"よりみちくらぶ　トラのながぐつ","province":"東京都","city":"杉並区","address":"杉並区清水1-23-23","lat":35.710822,"lon":139.617953},{"name":"コロロ杉並少年隊","province":"東京都","city":"杉並区","address":"杉並区西荻北3-33-9","lat":35.706547,"lon":139.600343},{"name":"プレミア・ケア・ジュニア西荻窪店","province":"東京都","city":"杉並区","address":"杉並区上荻3-5-41階","lat":35.706864,"lon":139.607918},{"name":"みかんの木","province":"東京都","city":"杉並区","address":"杉並区南荻窪1-5-111階","lat":35.694962,"lon":139.617259},{"name":"放課後等デイサービスくじら","province":"東京都","city":"杉並区","address":"杉並区和泉3-22-15グランヴェール和泉101","lat":35.677813,"lon":139.647741},{"name":"プレミア・ケア・ジュニア代田橋店","province":"東京都","city":"杉並区","address":"杉並区和泉1-19-13","lat":35.674624,"lon":139.65859},{"name":"まぁぶる高井戸","province":"東京都","city":"杉並区","address":"杉並区高井戸東3-28-40小向高井戸ビル2階","lat":35.686774,"lon":139.616573},{"name":"くるみの木","province":"東京都","city":"杉並区","address":"杉並区上高井戸3-11-9","lat":35.676506,"lon":139.614629},{"name":"よりみちくらぶ　ヤギのサンダル","province":"東京都","city":"杉並区","address":"杉並区宮前2-10-42宮前ヴィレッジA棟104","lat":35.692521,"lon":139.612157},{"name":"杉並区子ども家庭支援センター","province":"東京都","city":"杉並区","address":"杉並区阿佐谷南1-14-8","lat":35.699774,"lon":139.63711},{"name":"杉並子ども家庭支援センター","province":"東京都","city":"杉並区","address":"杉並区阿佐谷南1-14-8","lat":35.69917,"lon":139.63687},{"name":"杉並子ども家庭支援センター","province":"東京都","city":"杉並区","address":"杉並区阿佐谷南1-14-8","lat":35.699774,"lon":139.63711},{"name":"堀ノ内斎場","province":"東京都","city":"杉並区","address":"東京都杉並区梅里1丁目2-27","lat":35.69562996,"lon":139.65120635},{"name":"＊?杉並区男女平等推進センター","province":"東京都","city":"杉並区","address":"杉並区荻窪1-56-3","lat":35.694542,"lon":139.62751},{"name":"杉並高等学校","province":"東京都","city":"杉並区","address":"東京都杉並区成田西4丁目15-15","lat":35.69697092,"lon":139.6316163},{"name":"荻窪高等学校","province":"東京都","city":"杉並区","address":"東京都杉並区荻窪5丁目7-20","lat":35.7019839,"lon":139.61940594},{"name":"豊多摩高等学校","province":"東京都","city":"杉並区","address":"東京都杉並区成田西2丁目6-18","lat":35.68911344,"lon":139.62882241},{"name":"西高等学校","province":"東京都","city":"杉並区","address":"東京都杉並区宮前4丁目21-32","lat":35.69236797,"lon":139.60574349},{"name":"農芸高等学校","province":"東京都","city":"杉並区","address":"東京都杉並区今川3丁目25-1","lat":35.71812612,"lon":139.6038315},{"name":"杉並工業高等学校","province":"東京都","city":"杉並区","address":"東京都杉並区上井草4丁目13-31","lat":35.7194314,"lon":139.59898463},{"name":"杉並総合高等学校","province":"東京都","city":"杉並区","address":"東京都杉並区下高井戸5丁目17-1","lat":35.67657033,"lon":139.62262609},{"name":"発達支援ルーム　にこっと","province":"東京都","city":"杉並区","address":"杉並区高円寺北3-40-13BIGVALLEY2階","lat":35.710514,"lon":139.64657},{"name":"スタジオあいだっく","province":"東京都","city":"杉並区","address":"杉並区高円寺南3-1-4キングスコートII4階","lat":35.697955,"lon":139.646929},{"name":"アンソレイユ","province":"東京都","city":"杉並区","address":"杉並区高円寺南2-35-15花月第一ビル2階","lat":35.699241,"lon":139.65442},{"name":"カノン","province":"東京都","city":"杉並区","address":"杉並区高円寺南3-16-20","lat":35.700299,"lon":139.645509},{"name":"プレミア･ケア･ジュニア阿佐ヶ谷店","province":"東京都","city":"杉並区","address":"杉並区阿佐谷南2-32-9-1階","lat":35.704443,"lon":139.644173},{"name":"ハッピーテラス荻窪教室","province":"東京都","city":"杉並区","address":"杉並区阿佐谷南3-12-4","lat":35.702762,"lon":139.628675},{"name":"バンブーワァオ阿佐ヶ谷校","province":"東京都","city":"杉並区","address":"杉並区阿佐谷南1-15-18伊藤ビル201-B号室","lat":35.699937,"lon":139.636905},{"name":"フェイト","province":"東京都","city":"杉並区","address":"杉並区梅里2-40-15-301","lat":35.697946,"lon":139.639313},{"name":"フォスター","province":"東京都","city":"杉並区","address":"杉並区和田2-41-7","lat":35.691728,"lon":139.655017},{"name":"よりみちくらぶ　ネコのトランク","province":"東京都","city":"杉並区","address":"杉並区成田東4-1-26-2階","lat":35.695118,"lon":139.63363},{"name":"ドルフィンキッズ","province":"東京都","city":"杉並区","address":"杉並区天沼2-4-1井上ビル203","lat":35.705323,"lon":139.623386},{"name":"よりみちくらぶ　トラのながぐつ","province":"東京都","city":"杉並区","address":"杉並区清水1-23-23","lat":35.710822,"lon":139.617953},{"name":"コロロ杉並少年隊","province":"東京都","city":"杉並区","address":"杉並区西荻北3-33-9","lat":35.706547,"lon":139.600343},{"name":"プレミア・ケア・ジュニア西荻窪店","province":"東京都","city":"杉並区","address":"杉並区上荻3-5-41階","lat":35.706864,"lon":139.607918},{"name":"みかんの木","province":"東京都","city":"杉並区","address":"杉並区南荻窪1-5-111階","lat":35.694962,"lon":139.617259},{"name":"放課後等デイサービスくじら","province":"東京都","city":"杉並区","address":"杉並区和泉3-22-15グランヴェール和泉101","lat":35.677813,"lon":139.647741},{"name":"プレミア・ケア・ジュニア代田橋店","province":"東京都","city":"杉並区","address":"杉並区和泉1-19-13","lat":35.674624,"lon":139.65859},{"name":"まぁぶる高井戸","province":"東京都","city":"杉並区","address":"杉並区高井戸東3-28-40小向高井戸ビル2階","lat":35.686774,"lon":139.616573},{"name":"くるみの木","province":"東京都","city":"杉並区","address":"杉並区上高井戸3-11-9","lat":35.676506,"lon":139.614629},{"name":"よりみちくらぶ　ヤギのサンダル","province":"東京都","city":"杉並区","address":"杉並区宮前2-10-42宮前ヴィレッジA棟104","lat":35.692521,"lon":139.612157},{"name":"杉並区子ども家庭支援センター","province":"東京都","city":"杉並区","address":"杉並区阿佐谷南1-14-8","lat":35.699774,"lon":139.63711},{"name":"杉並子ども家庭支援センター","province":"東京都","city":"杉並区","address":"杉並区阿佐谷南1-14-8","lat":35.69917,"lon":139.63687},{"name":"杉並子ども家庭支援センター","province":"東京都","city":"杉並区","address":"杉並区阿佐谷南1-14-8","lat":35.699774,"lon":139.63711},{"name":"堀ノ内斎場","province":"東京都","city":"杉並区","address":"東京都杉並区梅里1丁目2-27","lat":35.69562996,"lon":139.65120635},{"name":"＊?杉並区男女平等推進センター","province":"東京都","city":"杉並区","address":"杉並区荻窪1-56-3","lat":35.694542,"lon":139.62751},{"name":"杉並高等学校","province":"東京都","city":"杉並区","address":"東京都杉並区成田西4丁目15-15","lat":35.69697092,"lon":139.6316163},{"name":"荻窪高等学校","province":"東京都","city":"杉並区","address":"東京都杉並区荻窪5丁目7-20","lat":35.7019839,"lon":139.61940594},{"name":"豊多摩高等学校","province":"東京都","city":"杉並区","address":"東京都杉並区成田西2丁目6-18","lat":35.68911344,"lon":139.62882241},{"name":"西高等学校","province":"東京都","city":"杉並区","address":"東京都杉並区宮前4丁目21-32","lat":35.69236797,"lon":139.60574349},{"name":"農芸高等学校","province":"東京都","city":"杉並区","address":"東京都杉並区今川3丁目25-1","lat":35.71812612,"lon":139.6038315},{"name":"杉並工業高等学校","province":"東京都","city":"杉並区","address":"東京都杉並区上井草4丁目13-31","lat":35.7194314,"lon":139.59898463},{"name":"杉並総合高等学校","province":"東京都","city":"杉並区","address":"東京都杉並区下高井戸5丁目17-1","lat":35.67657033,"lon":139.62262609},{"name":"発達支援ルーム　にこっと","province":"東京都","city":"杉並区","address":"杉並区高円寺北3-40-13BIGVALLEY2階","lat":35.710514,"lon":139.64657},{"name":"スタジオあいだっく","province":"東京都","city":"杉並区","address":"杉並区高円寺南3-1-4キングスコートII4階","lat":35.697955,"lon":139.646929},{"name":"アンソレイユ","province":"東京都","city":"杉並区","address":"杉並区高円寺南2-35-15花月第一ビル2階","lat":35.699241,"lon":139.65442},{"name":"カノン","province":"東京都","city":"杉並区","address":"杉並区高円寺南3-16-20","lat":35.700299,"lon":139.645509},{"name":"プレミア･ケア･ジュニア阿佐ヶ谷店","province":"東京都","city":"杉並区","address":"杉並区阿佐谷南2-32-9-1階","lat":35.704443,"lon":139.644173},{"name":"ハッピーテラス荻窪教室","province":"東京都","city":"杉並区","address":"杉並区阿佐谷南3-12-4","lat":35.702762,"lon":139.628675},{"name":"バンブーワァオ阿佐ヶ谷校","province":"東京都","city":"杉並区","address":"杉並区阿佐谷南1-15-18伊藤ビル201-B号室","lat":35.699937,"lon":139.636905},{"name":"フェイト","province":"東京都","city":"杉並区","address":"杉並区梅里2-40-15-301","lat":35.697946,"lon":139.639313},{"name":"フォスター","province":"東京都","city":"杉並区","address":"杉並区和田2-41-7","lat":35.691728,"lon":139.655017},{"name":"よりみちくらぶ　ネコのトランク","province":"東京都","city":"杉並区","address":"杉並区成田東4-1-26-2階","lat":35.695118,"lon":139.63363},{"name":"ドルフィンキッズ","province":"東京都","city":"杉並区","address":"杉並区天沼2-4-1井上ビル203","lat":35.705323,"lon":139.623386},{"name":"よりみちくらぶ　トラのながぐつ","province":"東京都","city":"杉並区","address":"杉並区清水1-23-23","lat":35.710822,"lon":139.617953},{"name":"コロロ杉並少年隊","province":"東京都","city":"杉並区","address":"杉並区西荻北3-33-9","lat":35.706547,"lon":139.600343},{"name":"プレミア・ケア・ジュニア西荻窪店","province":"東京都","city":"杉並区","address":"杉並区上荻3-5-41階","lat":35.706864,"lon":139.607918},{"name":"みかんの木","province":"東京都","city":"杉並区","address":"杉並区南荻窪1-5-111階","lat":35.694962,"lon":139.617259},{"name":"放課後等デイサービスくじら","province":"東京都","city":"杉並区","address":"杉並区和泉3-22-15グランヴェール和泉101","lat":35.677813,"lon":139.647741},{"name":"プレミア・ケア・ジュニア代田橋店","province":"東京都","city":"杉並区","address":"杉並区和泉1-19-13","lat":35.674624,"lon":139.65859},{"name":"まぁぶる高井戸","province":"東京都","city":"杉並区","address":"杉並区高井戸東3-28-40小向高井戸ビル2階","lat":35.686774,"lon":139.616573},{"name":"くるみの木","province":"東京都","city":"杉並区","address":"杉並区上高井戸3-11-9","lat":35.676506,"lon":139.614629},{"name":"よりみちくらぶ　ヤギのサンダル","province":"東京都","city":"杉並区","address":"杉並区宮前2-10-42宮前ヴィレッジA棟104","lat":35.692521,"lon":139.612157},{"name":"杉並区子ども家庭支援センター","province":"東京都","city":"杉並区","address":"杉並区阿佐谷南1-14-8","lat":35.699774,"lon":139.63711},{"name":"杉並子ども家庭支援センター","province":"東京都","city":"杉並区","address":"杉並区阿佐谷南1-14-8","lat":35.69917,"lon":139.63687},{"name":"杉並子ども家庭支援センター","province":"東京都","city":"杉並区","address":"杉並区阿佐谷南1-14-8","lat":35.699774,"lon":139.63711},{"name":"堀ノ内斎場","province":"東京都","city":"杉並区","address":"東京都杉並区梅里1丁目2-27","lat":35.69562996,"lon":139.65120635},{"name":"＊?杉並区男女平等推進センター","province":"東京都","city":"杉並区","address":"杉並区荻窪1-56-3","lat":35.694542,"lon":139.62751},{"name":"杉並高等学校","province":"東京都","city":"杉並区","address":"東京都杉並区成田西4丁目15-15","lat":35.69697092,"lon":139.6316163},{"name":"荻窪高等学校","province":"東京都","city":"杉並区","address":"東京都杉並区荻窪5丁目7-20","lat":35.7019839,"lon":139.61940594},{"name":"豊多摩高等学校","province":"東京都","city":"杉並区","address":"東京都杉並区成田西2丁目6-18","lat":35.68911344,"lon":139.62882241},{"name":"西高等学校","province":"東京都","city":"杉並区","address":"東京都杉並区宮前4丁目21-32","lat":35.69236797,"lon":139.60574349},{"name":"農芸高等学校","province":"東京都","city":"杉並区","address":"東京都杉並区今川3丁目25-1","lat":35.71812612,"lon":139.6038315},{"name":"杉並工業高等学校","province":"東京都","city":"杉並区","address":"東京都杉並区上井草4丁目13-31","lat":35.7194314,"lon":139.59898463},{"name":"杉並総合高等学校","province":"東京都","city":"杉並区","address":"東京都杉並区下高井戸5丁目17-1","lat":35.67657033,"lon":139.62262609},{"name":"発達支援ルーム　にこっと","province":"東京都","city":"杉並区","address":"杉並区高円寺北3-40-13BIGVALLEY2階","lat":35.710514,"lon":139.64657},{"name":"スタジオあいだっく","province":"東京都","city":"杉並区","address":"杉並区高円寺南3-1-4キングスコートII4階","lat":35.697955,"lon":139.646929},{"name":"アンソレイユ","province":"東京都","city":"杉並区","address":"杉並区高円寺南2-35-15花月第一ビル2階","lat":35.699241,"lon":139.65442},{"name":"カノン","province":"東京都","city":"杉並区","address":"杉並区高円寺南3-16-20","lat":35.700299,"lon":139.645509},{"name":"プレミア･ケア･ジュニア阿佐ヶ谷店","province":"東京都","city":"杉並区","address":"杉並区阿佐谷南2-32-9-1階","lat":35.704443,"lon":139.644173},{"name":"ハッピーテラス荻窪教室","province":"東京都","city":"杉並区","address":"杉並区阿佐谷南3-12-4","lat":35.702762,"lon":139.628675},{"name":"バンブーワァオ阿佐ヶ谷校","province":"東京都","city":"杉並区","address":"杉並区阿佐谷南1-15-18伊藤ビル201-B号室","lat":35.699937,"lon":139.636905},{"name":"フェイト","province":"東京都","city":"杉並区","address":"杉並区梅里2-40-15-301","lat":35.697946,"lon":139.639313},{"name":"フォスター","province":"東京都","city":"杉並区","address":"杉並区和田2-41-7","lat":35.691728,"lon":139.655017},{"name":"よりみちくらぶ　ネコのトランク","province":"東京都","city":"杉並区","address":"杉並区成田東4-1-26-2階","lat":35.695118,"lon":139.63363},{"name":"ドルフィンキッズ","province":"東京都","city":"杉並区","address":"杉並区天沼2-4-1井上ビル203","lat":35.705323,"lon":139.623386},{"name":"よりみちくらぶ　トラのながぐつ","province":"東京都","city":"杉並区","address":"杉並区清水1-23-23","lat":35.710822,"lon":139.617953},{"name":"コロロ杉並少年隊","province":"東京都","city":"杉並区","address":"杉並区西荻北3-33-9","lat":35.706547,"lon":139.600343},{"name":"プレミア・ケア・ジュニア西荻窪店","province":"東京都","city":"杉並区","address":"杉並区上荻3-5-41階","lat":35.706864,"lon":139.607918},{"name":"みかんの木","province":"東京都","city":"杉並区","address":"杉並区南荻窪1-5-111階","lat":35.694962,"lon":139.617259},{"name":"放課後等デイサービスくじら","province":"東京都","city":"杉並区","address":"杉並区和泉3-22-15グランヴェール和泉101","lat":35.677813,"lon":139.647741},{"name":"プレミア・ケア・ジュニア代田橋店","province":"東京都","city":"杉並区","address":"杉並区和泉1-19-13","lat":35.674624,"lon":139.65859},{"name":"まぁぶる高井戸","province":"東京都","city":"杉並区","address":"杉並区高井戸東3-28-40小向高井戸ビル2階","lat":35.686774,"lon":139.616573},{"name":"くるみの木","province":"東京都","city":"杉並区","address":"杉並区上高井戸3-11-9","lat":35.676506,"lon":139.614629},{"name":"よりみちくらぶ　ヤギのサンダル","province":"東京都","city":"杉並区","address":"杉並区宮前2-10-42宮前ヴィレッジA棟104","lat":35.692521,"lon":139.612157},{"name":"杉並区子ども家庭支援センター","province":"東京都","city":"杉並区","address":"杉並区阿佐谷南1-14-8","lat":35.699774,"lon":139.63711},{"name":"杉並子ども家庭支援センター","province":"東京都","city":"杉並区","address":"杉並区阿佐谷南1-14-8","lat":35.69917,"lon":139.63687},{"name":"杉並子ども家庭支援センター","province":"東京都","city":"杉並区","address":"杉並区阿佐谷南1-14-8","lat":35.699774,"lon":139.63711},{"name":"堀ノ内斎場","province":"東京都","city":"杉並区","address":"東京都杉並区梅里1丁目2-27","lat":35.69562996,"lon":139.65120635},{"name":"＊?杉並区男女平等推進センター","province":"東京都","city":"杉並区","address":"杉並区荻窪1-56-3","lat":35.694542,"lon":139.62751},{"name":"発達支援ルーム　にこっと","province":"東京都","city":"杉並区","address":"杉並区高円寺北3-40-13BIGVALLEY2階","lat":35.710514,"lon":139.64657},{"name":"スタジオあいだっく","province":"東京都","city":"杉並区","address":"杉並区高円寺南3-1-4キングスコートII4階","lat":35.697955,"lon":139.646929},{"name":"アンソレイユ","province":"東京都","city":"杉並区","address":"杉並区高円寺南2-35-15花月第一ビル2階","lat":35.699241,"lon":139.65442},{"name":"カノン","province":"東京都","city":"杉並区","address":"杉並区高円寺南3-16-20","lat":35.700299,"lon":139.645509},{"name":"プレミア･ケア･ジュニア阿佐ヶ谷店","province":"東京都","city":"杉並区","address":"杉並区阿佐谷南2-32-9-1階","lat":35.704443,"lon":139.644173},{"name":"ハッピーテラス荻窪教室","province":"東京都","city":"杉並区","address":"杉並区阿佐谷南3-12-4","lat":35.702762,"lon":139.628675},{"name":"バンブーワァオ阿佐ヶ谷校","province":"東京都","city":"杉並区","address":"杉並区阿佐谷南1-15-18伊藤ビル201-B号室","lat":35.699937,"lon":139.636905},{"name":"フェイト","province":"東京都","city":"杉並区","address":"杉並区梅里2-40-15-301","lat":35.697946,"lon":139.639313},{"name":"フォスター","province":"東京都","city":"杉並区","address":"杉並区和田2-41-7","lat":35.691728,"lon":139.655017},{"name":"よりみちくらぶ　ネコのトランク","province":"東京都","city":"杉並区","address":"杉並区成田東4-1-26-2階","lat":35.695118,"lon":139.63363},{"name":"ドルフィンキッズ","province":"東京都","city":"杉並区","address":"杉並区天沼2-4-1井上ビル203","lat":35.705323,"lon":139.623386},{"name":"よりみちくらぶ　トラのながぐつ","province":"東京都","city":"杉並区","address":"杉並区清水1-23-23","lat":35.710822,"lon":139.617953},{"name":"コロロ杉並少年隊","province":"東京都","city":"杉並区","address":"杉並区西荻北3-33-9","lat":35.706547,"lon":139.600343},{"name":"プレミア・ケア・ジュニア西荻窪店","province":"東京都","city":"杉並区","address":"杉並区上荻3-5-41階","lat":35.706864,"lon":139.607918},{"name":"みかんの木","province":"東京都","city":"杉並区","address":"杉並区南荻窪1-5-111階","lat":35.694962,"lon":139.617259},{"name":"放課後等デイサービスくじら","province":"東京都","city":"杉並区","address":"杉並区和泉3-22-15グランヴェール和泉101","lat":35.677813,"lon":139.647741},{"name":"プレミア・ケア・ジュニア代田橋店","province":"東京都","city":"杉並区","address":"杉並区和泉1-19-13","lat":35.674624,"lon":139.65859},{"name":"まぁぶる高井戸","province":"東京都","city":"杉並区","address":"杉並区高井戸東3-28-40小向高井戸ビル2階","lat":35.686774,"lon":139.616573},{"name":"くるみの木","province":"東京都","city":"杉並区","address":"杉並区上高井戸3-11-9","lat":35.676506,"lon":139.614629},{"name":"よりみちくらぶ　ヤギのサンダル","province":"東京都","city":"杉並区","address":"杉並区宮前2-10-42宮前ヴィレッジA棟104","lat":35.692521,"lon":139.612157},{"name":"杉並区子ども家庭支援センター","province":"東京都","city":"杉並区","address":"杉並区阿佐谷南1-14-8","lat":35.699774,"lon":139.63711},{"name":"杉並子ども家庭支援センター","province":"東京都","city":"杉並区","address":"杉並区阿佐谷南1-14-8","lat":35.69917,"lon":139.63687},{"name":"杉並子ども家庭支援センター","province":"東京都","city":"杉並区","address":"杉並区阿佐谷南1-14-8","lat":35.699774,"lon":139.63711},{"name":"堀ノ内斎場","province":"東京都","city":"杉並区","address":"東京都杉並区梅里1丁目2-27","lat":35.69562996,"lon":139.65120635},{"name":"＊?杉並区男女平等推進センター","province":"東京都","city":"杉並区","address":"杉並区荻窪1-56-3","lat":35.694542,"lon":139.62751},{"name":"発達支援ルーム　にこっと","province":"東京都","city":"杉並区","address":"杉並区高円寺北3-40-13BIGVALLEY2階","lat":35.710514,"lon":139.64657},{"name":"スタジオあいだっく","province":"東京都","city":"杉並区","address":"杉並区高円寺南3-1-4キングスコートII4階","lat":35.697955,"lon":139.646929},{"name":"アンソレイユ","province":"東京都","city":"杉並区","address":"杉並区高円寺南2-35-15花月第一ビル2階","lat":35.699241,"lon":139.65442},{"name":"カノン","province":"東京都","city":"杉並区","address":"杉並区高円寺南3-16-20","lat":35.700299,"lon":139.645509},{"name":"プレミア･ケア･ジュニア阿佐ヶ谷店","province":"東京都","city":"杉並区","address":"杉並区阿佐谷南2-32-9-1階","lat":35.704443,"lon":139.644173},{"name":"ハッピーテラス荻窪教室","province":"東京都","city":"杉並区","address":"杉並区阿佐谷南3-12-4","lat":35.702762,"lon":139.628675},{"name":"バンブーワァオ阿佐ヶ谷校","province":"東京都","city":"杉並区","address":"杉並区阿佐谷南1-15-18伊藤ビル201-B号室","lat":35.699937,"lon":139.636905},{"name":"フェイト","province":"東京都","city":"杉並区","address":"杉並区梅里2-40-15-301","lat":35.697946,"lon":139.639313},{"name":"フォスター","province":"東京都","city":"杉並区","address":"杉並区和田2-41-7","lat":35.691728,"lon":139.655017},{"name":"よりみちくらぶ　ネコのトランク","province":"東京都","city":"杉並区","address":"杉並区成田東4-1-26-2階","lat":35.695118,"lon":139.63363},{"name":"ドルフィンキッズ","province":"東京都","city":"杉並区","address":"杉並区天沼2-4-1井上ビル203","lat":35.705323,"lon":139.623386},{"name":"よりみちくらぶ　トラのながぐつ","province":"東京都","city":"杉並区","address":"杉並区清水1-23-23","lat":35.710822,"lon":139.617953},{"name":"コロロ杉並少年隊","province":"東京都","city":"杉並区","address":"杉並区西荻北3-33-9","lat":35.706547,"lon":139.600343},{"name":"プレミア・ケア・ジュニア西荻窪店","province":"東京都","city":"杉並区","address":"杉並区上荻3-5-41階","lat":35.706864,"lon":139.607918},{"name":"みかんの木","province":"東京都","city":"杉並区","address":"杉並区南荻窪1-5-111階","lat":35.694962,"lon":139.617259},{"name":"放課後等デイサービスくじら","province":"東京都","city":"杉並区","address":"杉並区和泉3-22-15グランヴェール和泉101","lat":35.677813,"lon":139.647741},{"name":"プレミア・ケア・ジュニア代田橋店","province":"東京都","city":"杉並区","address":"杉並区和泉1-19-13","lat":35.674624,"lon":139.65859},{"name":"まぁぶる高井戸","province":"東京都","city":"杉並区","address":"杉並区高井戸東3-28-40小向高井戸ビル2階","lat":35.686774,"lon":139.616573},{"name":"くるみの木","province":"東京都","city":"杉並区","address":"杉並区上高井戸3-11-9","lat":35.676506,"lon":139.614629},{"name":"よりみちくらぶ　ヤギのサンダル","province":"東京都","city":"杉並区","address":"杉並区宮前2-10-42宮前ヴィレッジA棟104","lat":35.692521,"lon":139.612157},{"name":"杉並区子ども家庭支援センター","province":"東京都","city":"杉並区","address":"杉並区阿佐谷南1-14-8","lat":35.699774,"lon":139.63711},{"name":"杉並子ども家庭支援センター","province":"東京都","city":"杉並区","address":"杉並区阿佐谷南1-14-8","lat":35.69917,"lon":139.63687},{"name":"杉並子ども家庭支援センター","province":"東京都","city":"杉並区","address":"杉並区阿佐谷南1-14-8","lat":35.699774,"lon":139.63711},{"name":"堀ノ内斎場","province":"東京都","city":"杉並区","address":"東京都杉並区梅里1丁目2-27","lat":35.69562996,"lon":139.65120635},{"name":"＊?杉並区男女平等推進センター","province":"東京都","city":"杉並区","address":"杉並区荻窪1-56-3","lat":35.694542,"lon":139.62751},{"name":"発達支援ルーム　にこっと","province":"東京都","city":"杉並区","address":"杉並区高円寺北3-40-13BIGVALLEY2階","lat":35.710514,"lon":139.64657},{"name":"スタジオあいだっく","province":"東京都","city":"杉並区","address":"杉並区高円寺南3-1-4キングスコートII4階","lat":35.697955,"lon":139.646929},{"name":"アンソレイユ","province":"東京都","city":"杉並区","address":"杉並区高円寺南2-35-15花月第一ビル2階","lat":35.699241,"lon":139.65442},{"name":"カノン","province":"東京都","city":"杉並区","address":"杉並区高円寺南3-16-20","lat":35.700299,"lon":139.645509},{"name":"プレミア･ケア･ジュニア阿佐ヶ谷店","province":"東京都","city":"杉並区","address":"杉並区阿佐谷南2-32-9-1階","lat":35.704443,"lon":139.644173},{"name":"ハッピーテラス荻窪教室","province":"東京都","city":"杉並区","address":"杉並区阿佐谷南3-12-4","lat":35.702762,"lon":139.628675},{"name":"バンブーワァオ阿佐ヶ谷校","province":"東京都","city":"杉並区","address":"杉並区阿佐谷南1-15-18伊藤ビル201-B号室","lat":35.699937,"lon":139.636905},{"name":"フェイト","province":"東京都","city":"杉並区","address":"杉並区梅里2-40-15-301","lat":35.697946,"lon":139.639313},{"name":"フォスター","province":"東京都","city":"杉並区","address":"杉並区和田2-41-7","lat":35.691728,"lon":139.655017},{"name":"よりみちくらぶ　ネコのトランク","province":"東京都","city":"杉並区","address":"杉並区成田東4-1-26-2階","lat":35.695118,"lon":139.63363},{"name":"ドルフィンキッズ","province":"東京都","city":"杉並区","address":"杉並区天沼2-4-1井上ビル203","lat":35.705323,"lon":139.623386},{"name":"よりみちくらぶ　トラのながぐつ","province":"東京都","city":"杉並区","address":"杉並区清水1-23-23","lat":35.710822,"lon":139.617953},{"name":"コロロ杉並少年隊","province":"東京都","city":"杉並区","address":"杉並区西荻北3-33-9","lat":35.706547,"lon":139.600343},{"name":"プレミア・ケア・ジュニア西荻窪店","province":"東京都","city":"杉並区","address":"杉並区上荻3-5-41階","lat":35.706864,"lon":139.607918},{"name":"みかんの木","province":"東京都","city":"杉並区","address":"杉並区南荻窪1-5-111階","lat":35.694962,"lon":139.617259},{"name":"放課後等デイサービスくじら","province":"東京都","city":"杉並区","address":"杉並区和泉3-22-15グランヴェール和泉101","lat":35.677813,"lon":139.647741},{"name":"プレミア・ケア・ジュニア代田橋店","province":"東京都","city":"杉並区","address":"杉並区和泉1-19-13","lat":35.674624,"lon":139.65859},{"name":"まぁぶる高井戸","province":"東京都","city":"杉並区","address":"杉並区高井戸東3-28-40小向高井戸ビル2階","lat":35.686774,"lon":139.616573},{"name":"くるみの木","province":"東京都","city":"杉並区","address":"杉並区上高井戸3-11-9","lat":35.676506,"lon":139.614629},{"name":"よりみちくらぶ　ヤギのサンダル","province":"東京都","city":"杉並区","address":"杉並区宮前2-10-42宮前ヴィレッジA棟104","lat":35.692521,"lon":139.612157},{"name":"杉並区子ども家庭支援センター","province":"東京都","city":"杉並区","address":"杉並区阿佐谷南1-14-8","lat":35.699774,"lon":139.63711},{"name":"杉並子ども家庭支援センター","province":"東京都","city":"杉並区","address":"杉並区阿佐谷南1-14-8","lat":35.69917,"lon":139.63687},{"name":"杉並子ども家庭支援センター","province":"東京都","city":"杉並区","address":"杉並区阿佐谷南1-14-8","lat":35.699774,"lon":139.63711},{"name":"堀ノ内斎場","province":"東京都","city":"杉並区","address":"東京都杉並区梅里1丁目2-27","lat":35.69562996,"lon":139.65120635},{"name":"＊?杉並区男女平等推進センター","province":"東京都","city":"杉並区","address":"杉並区荻窪1-56-3","lat":35.694542,"lon":139.62751},{"name":"発達支援ルーム　にこっと","province":"東京都","city":"杉並区","address":"杉並区高円寺北3-40-13BIGVALLEY2階","lat":35.710514,"lon":139.64657},{"name":"スタジオあいだっく","province":"東京都","city":"杉並区","address":"杉並区高円寺南3-1-4キングスコートII4階","lat":35.697955,"lon":139.646929},{"name":"アンソレイユ","province":"東京都","city":"杉並区","address":"杉並区高円寺南2-35-15花月第一ビル2階","lat":35.699241,"lon":139.65442},{"name":"カノン","province":"東京都","city":"杉並区","address":"杉並区高円寺南3-16-20","lat":35.700299,"lon":139.645509},{"name":"プレミア･ケア･ジュニア阿佐ヶ谷店","province":"東京都","city":"杉並区","address":"杉並区阿佐谷南2-32-9-1階","lat":35.704443,"lon":139.644173},{"name":"ハッピーテラス荻窪教室","province":"東京都","city":"杉並区","address":"杉並区阿佐谷南3-12-4","lat":35.702762,"lon":139.628675},{"name":"バンブーワァオ阿佐ヶ谷校","province":"東京都","city":"杉並区","address":"杉並区阿佐谷南1-15-18伊藤ビル201-B号室","lat":35.699937,"lon":139.636905},{"name":"フェイト","province":"東京都","city":"杉並区","address":"杉並区梅里2-40-15-301","lat":35.697946,"lon":139.639313},{"name":"フォスター","province":"東京都","city":"杉並区","address":"杉並区和田2-41-7","lat":35.691728,"lon":139.655017},{"name":"よりみちくらぶ　ネコのトランク","province":"東京都","city":"杉並区","address":"杉並区成田東4-1-26-2階","lat":35.695118,"lon":139.63363},{"name":"ドルフィンキッズ","province":"東京都","city":"杉並区","address":"杉並区天沼2-4-1井上ビル203","lat":35.705323,"lon":139.623386},{"name":"よりみちくらぶ　トラのながぐつ","province":"東京都","city":"杉並区","address":"杉並区清水1-23-23","lat":35.710822,"lon":139.617953},{"name":"コロロ杉並少年隊","province":"東京都","city":"杉並区","address":"杉並区西荻北3-33-9","lat":35.706547,"lon":139.600343},{"name":"プレミア・ケア・ジュニア西荻窪店","province":"東京都","city":"杉並区","address":"杉並区上荻3-5-41階","lat":35.706864,"lon":139.607918},{"name":"みかんの木","province":"東京都","city":"杉並区","address":"杉並区南荻窪1-5-111階","lat":35.694962,"lon":139.617259},{"name":"放課後等デイサービスくじら","province":"東京都","city":"杉並区","address":"杉並区和泉3-22-15グランヴェール和泉101","lat":35.677813,"lon":139.647741},{"name":"プレミア・ケア・ジュニア代田橋店","province":"東京都","city":"杉並区","address":"杉並区和泉1-19-13","lat":35.674624,"lon":139.65859},{"name":"まぁぶる高井戸","province":"東京都","city":"杉並区","address":"杉並区高井戸東3-28-40小向高井戸ビル2階","lat":35.686774,"lon":139.616573},{"name":"くるみの木","province":"東京都","city":"杉並区","address":"杉並区上高井戸3-11-9","lat":35.676506,"lon":139.614629},{"name":"よりみちくらぶ　ヤギのサンダル","province":"東京都","city":"杉並区","address":"杉並区宮前2-10-42宮前ヴィレッジA棟104","lat":35.692521,"lon":139.612157},{"name":"杉並区子ども家庭支援センター","province":"東京都","city":"杉並区","address":"杉並区阿佐谷南1-14-8","lat":35.699774,"lon":139.63711},{"name":"杉並子ども家庭支援センター","province":"東京都","city":"杉並区","address":"杉並区阿佐谷南1-14-8","lat":35.69917,"lon":139.63687},{"name":"杉並子ども家庭支援センター","province":"東京都","city":"杉並区","address":"杉並区阿佐谷南1-14-8","lat":35.699774,"lon":139.63711},{"name":"堀ノ内斎場","province":"東京都","city":"杉並区","address":"東京都杉並区梅里1丁目2-27","lat":35.69562996,"lon":139.65120635},{"name":"＊?杉並区男女平等推進センター","province":"東京都","city":"杉並区","address":"杉並区荻窪1-56-3","lat":35.694542,"lon":139.62751},{"name":"発達支援ルーム　にこっと","province":"東京都","city":"杉並区","address":"杉並区高円寺北3-40-13BIGVALLEY2階","lat":35.710514,"lon":139.64657},{"name":"スタジオあいだっく","province":"東京都","city":"杉並区","address":"杉並区高円寺南3-1-4キングスコートII4階","lat":35.697955,"lon":139.646929},{"name":"アンソレイユ","province":"東京都","city":"杉並区","address":"杉並区高円寺南2-35-15花月第一ビル2階","lat":35.699241,"lon":139.65442},{"name":"カノン","province":"東京都","city":"杉並区","address":"杉並区高円寺南3-16-20","lat":35.700299,"lon":139.645509},{"name":"プレミア･ケア･ジュニア阿佐ヶ谷店","province":"東京都","city":"杉並区","address":"杉並区阿佐谷南2-32-9-1階","lat":35.704443,"lon":139.644173},{"name":"ハッピーテラス荻窪教室","province":"東京都","city":"杉並区","address":"杉並区阿佐谷南3-12-4","lat":35.702762,"lon":139.628675},{"name":"バンブーワァオ阿佐ヶ谷校","province":"東京都","city":"杉並区","address":"杉並区阿佐谷南1-15-18伊藤ビル201-B号室","lat":35.699937,"lon":139.636905},{"name":"フェイト","province":"東京都","city":"杉並区","address":"杉並区梅里2-40-15-301","lat":35.697946,"lon":139.639313},{"name":"フォスター","province":"東京都","city":"杉並区","address":"杉並区和田2-41-7","lat":35.691728,"lon":139.655017},{"name":"よりみちくらぶ　ネコのトランク","province":"東京都","city":"杉並区","address":"杉並区成田東4-1-26-2階","lat":35.695118,"lon":139.63363},{"name":"ドルフィンキッズ","province":"東京都","city":"杉並区","address":"杉並区天沼2-4-1井上ビル203","lat":35.705323,"lon":139.623386},{"name":"よりみちくらぶ　トラのながぐつ","province":"東京都","city":"杉並区","address":"杉並区清水1-23-23","lat":35.710822,"lon":139.617953},{"name":"コロロ杉並少年隊","province":"東京都","city":"杉並区","address":"杉並区西荻北3-33-9","lat":35.706547,"lon":139.600343},{"name":"プレミア・ケア・ジュニア西荻窪店","province":"東京都","city":"杉並区","address":"杉並区上荻3-5-41階","lat":35.706864,"lon":139.607918},{"name":"みかんの木","province":"東京都","city":"杉並区","address":"杉並区南荻窪1-5-111階","lat":35.694962,"lon":139.617259},{"name":"放課後等デイサービスくじら","province":"東京都","city":"杉並区","address":"杉並区和泉3-22-15グランヴェール和泉101","lat":35.677813,"lon":139.647741},{"name":"プレミア・ケア・ジュニア代田橋店","province":"東京都","city":"杉並区","address":"杉並区和泉1-19-13","lat":35.674624,"lon":139.65859},{"name":"まぁぶる高井戸","province":"東京都","city":"杉並区","address":"杉並区高井戸東3-28-40小向高井戸ビル2階","lat":35.686774,"lon":139.616573},{"name":"くるみの木","province":"東京都","city":"杉並区","address":"杉並区上高井戸3-11-9","lat":35.676506,"lon":139.614629},{"name":"よりみちくらぶ　ヤギのサンダル","province":"東京都","city":"杉並区","address":"杉並区宮前2-10-42宮前ヴィレッジA棟104","lat":35.692521,"lon":139.612157},{"name":"杉並区子ども家庭支援センター","province":"東京都","city":"杉並区","address":"杉並区阿佐谷南1-14-8","lat":35.699774,"lon":139.63711},{"name":"杉並子ども家庭支援センター","province":"東京都","city":"杉並区","address":"杉並区阿佐谷南1-14-8","lat":35.69917,"lon":139.63687},{"name":"杉並子ども家庭支援センター","province":"東京都","city":"杉並区","address":"杉並区阿佐谷南1-14-8","lat":35.699774,"lon":139.63711},{"name":"堀ノ内斎場","province":"東京都","city":"杉並区","address":"東京都杉並区梅里1丁目2-27","lat":35.69562996,"lon":139.65120635},{"name":"＊?杉並区男女平等推進センター","province":"東京都","city":"杉並区","address":"杉並区荻窪1-56-3","lat":35.694542,"lon":139.62751},{"name":"発達支援ルーム　にこっと","province":"東京都","city":"杉並区","address":"杉並区高円寺北3-40-13BIGVALLEY2階","lat":35.710514,"lon":139.64657},{"name":"スタジオあいだっく","province":"東京都","city":"杉並区","address":"杉並区高円寺南3-1-4キングスコートII4階","lat":35.697955,"lon":139.646929},{"name":"アンソレイユ","province":"東京都","city":"杉並区","address":"杉並区高円寺南2-35-15花月第一ビル2階","lat":35.699241,"lon":139.65442},{"name":"カノン","province":"東京都","city":"杉並区","address":"杉並区高円寺南3-16-20","lat":35.700299,"lon":139.645509},{"name":"プレミア･ケア･ジュニア阿佐ヶ谷店","province":"東京都","city":"杉並区","address":"杉並区阿佐谷南2-32-9-1階","lat":35.704443,"lon":139.644173},{"name":"ハッピーテラス荻窪教室","province":"東京都","city":"杉並区","address":"杉並区阿佐谷南3-12-4","lat":35.702762,"lon":139.628675},{"name":"バンブーワァオ阿佐ヶ谷校","province":"東京都","city":"杉並区","address":"杉並区阿佐谷南1-15-18伊藤ビル201-B号室","lat":35.699937,"lon":139.636905},{"name":"フェイト","province":"東京都","city":"杉並区","address":"杉並区梅里2-40-15-301","lat":35.697946,"lon":139.639313},{"name":"フォスター","province":"東京都","city":"杉並区","address":"杉並区和田2-41-7","lat":35.691728,"lon":139.655017},{"name":"よりみちくらぶ　ネコのトランク","province":"東京都","city":"杉並区","address":"杉並区成田東4-1-26-2階","lat":35.695118,"lon":139.63363},{"name":"ドルフィンキッズ","province":"東京都","city":"杉並区","address":"杉並区天沼2-4-1井上ビル203","lat":35.705323,"lon":139.623386},{"name":"よりみちくらぶ　トラのながぐつ","province":"東京都","city":"杉並区","address":"杉並区清水1-23-23","lat":35.710822,"lon":139.617953},{"name":"コロロ杉並少年隊","province":"東京都","city":"杉並区","address":"杉並区西荻北3-33-9","lat":35.706547,"lon":139.600343},{"name":"プレミア・ケア・ジュニア西荻窪店","province":"東京都","city":"杉並区","address":"杉並区上荻3-5-41階","lat":35.706864,"lon":139.607918},{"name":"みかんの木","province":"東京都","city":"杉並区","address":"杉並区南荻窪1-5-111階","lat":35.694962,"lon":139.617259},{"name":"放課後等デイサービスくじら","province":"東京都","city":"杉並区","address":"杉並区和泉3-22-15グランヴェール和泉101","lat":35.677813,"lon":139.647741},{"name":"プレミア・ケア・ジュニア代田橋店","province":"東京都","city":"杉並区","address":"杉並区和泉1-19-13","lat":35.674624,"lon":139.65859},{"name":"まぁぶる高井戸","province":"東京都","city":"杉並区","address":"杉並区高井戸東3-28-40小向高井戸ビル2階","lat":35.686774,"lon":139.616573},{"name":"くるみの木","province":"東京都","city":"杉並区","address":"杉並区上高井戸3-11-9","lat":35.676506,"lon":139.614629},{"name":"よりみちくらぶ　ヤギのサンダル","province":"東京都","city":"杉並区","address":"杉並区宮前2-10-42宮前ヴィレッジA棟104","lat":35.692521,"lon":139.612157},{"name":"杉並区子ども家庭支援センター","province":"東京都","city":"杉並区","address":"杉並区阿佐谷南1-14-8","lat":35.699774,"lon":139.63711},{"name":"杉並子ども家庭支援センター","province":"東京都","city":"杉並区","address":"杉並区阿佐谷南1-14-8","lat":35.69917,"lon":139.63687},{"name":"杉並子ども家庭支援センター","province":"東京都","city":"杉並区","address":"杉並区阿佐谷南1-14-8","lat":35.699774,"lon":139.63711},{"name":"堀ノ内斎場","province":"東京都","city":"杉並区","address":"東京都杉並区梅里1丁目2-27","lat":35.69562996,"lon":139.65120635},{"name":"＊?杉並区男女平等推進センター","province":"東京都","city":"杉並区","address":"杉並区荻窪1-56-3","lat":35.694542,"lon":139.62751},{"name":"発達支援ルーム　にこっと","province":"東京都","city":"杉並区","address":"杉並区高円寺北3-40-13BIGVALLEY2階","lat":35.710514,"lon":139.64657},{"name":"スタジオあいだっく","province":"東京都","city":"杉並区","address":"杉並区高円寺南3-1-4キングスコートII4階","lat":35.697955,"lon":139.646929},{"name":"アンソレイユ","province":"東京都","city":"杉並区","address":"杉並区高円寺南2-35-15花月第一ビル2階","lat":35.699241,"lon":139.65442},{"name":"カノン","province":"東京都","city":"杉並区","address":"杉並区高円寺南3-16-20","lat":35.700299,"lon":139.645509},{"name":"プレミア･ケア･ジュニア阿佐ヶ谷店","province":"東京都","city":"杉並区","address":"杉並区阿佐谷南2-32-9-1階","lat":35.704443,"lon":139.644173},{"name":"ハッピーテラス荻窪教室","province":"東京都","city":"杉並区","address":"杉並区阿佐谷南3-12-4","lat":35.702762,"lon":139.628675},{"name":"バンブーワァオ阿佐ヶ谷校","province":"東京都","city":"杉並区","address":"杉並区阿佐谷南1-15-18伊藤ビル201-B号室","lat":35.699937,"lon":139.636905},{"name":"フェイト","province":"東京都","city":"杉並区","address":"杉並区梅里2-40-15-301","lat":35.697946,"lon":139.639313},{"name":"フォスター","province":"東京都","city":"杉並区","address":"杉並区和田2-41-7","lat":35.691728,"lon":139.655017},{"name":"よりみちくらぶ　ネコのトランク","province":"東京都","city":"杉並区","address":"杉並区成田東4-1-26-2階","lat":35.695118,"lon":139.63363},{"name":"ドルフィンキッズ","province":"東京都","city":"杉並区","address":"杉並区天沼2-4-1井上ビル203","lat":35.705323,"lon":139.623386},{"name":"よりみちくらぶ　トラのながぐつ","province":"東京都","city":"杉並区","address":"杉並区清水1-23-23","lat":35.710822,"lon":139.617953},{"name":"コロロ杉並少年隊","province":"東京都","city":"杉並区","address":"杉並区西荻北3-33-9","lat":35.706547,"lon":139.600343},{"name":"プレミア・ケア・ジュニア西荻窪店","province":"東京都","city":"杉並区","address":"杉並区上荻3-5-41階","lat":35.706864,"lon":139.607918},{"name":"みかんの木","province":"東京都","city":"杉並区","address":"杉並区南荻窪1-5-111階","lat":35.694962,"lon":139.617259},{"name":"放課後等デイサービスくじら","province":"東京都","city":"杉並区","address":"杉並区和泉3-22-15グランヴェール和泉101","lat":35.677813,"lon":139.647741},{"name":"プレミア・ケア・ジュニア代田橋店","province":"東京都","city":"杉並区","address":"杉並区和泉1-19-13","lat":35.674624,"lon":139.65859},{"name":"まぁぶる高井戸","province":"東京都","city":"杉並区","address":"杉並区高井戸東3-28-40小向高井戸ビル2階","lat":35.686774,"lon":139.616573},{"name":"くるみの木","province":"東京都","city":"杉並区","address":"杉並区上高井戸3-11-9","lat":35.676506,"lon":139.614629},{"name":"よりみちくらぶ　ヤギのサンダル","province":"東京都","city":"杉並区","address":"杉並区宮前2-10-42宮前ヴィレッジA棟104","lat":35.692521,"lon":139.612157},{"name":"杉並区子ども家庭支援センター","province":"東京都","city":"杉並区","address":"杉並区阿佐谷南1-14-8","lat":35.699774,"lon":139.63711},{"name":"杉並子ども家庭支援センター","province":"東京都","city":"杉並区","address":"杉並区阿佐谷南1-14-8","lat":35.69917,"lon":139.63687},{"name":"杉並子ども家庭支援センター","province":"東京都","city":"杉並区","address":"杉並区阿佐谷南1-14-8","lat":35.699774,"lon":139.63711},{"name":"＊?杉並区男女平等推進センター","province":"東京都","city":"杉並区","address":"杉並区荻窪1-56-3","lat":35.694542,"lon":139.62751},{"name":"発達支援ルーム　にこっと","province":"東京都","city":"杉並区","address":"杉並区高円寺北3-40-13BIGVALLEY2階","lat":35.710514,"lon":139.64657},{"name":"スタジオあいだっく","province":"東京都","city":"杉並区","address":"杉並区高円寺南3-1-4キングスコートII4階","lat":35.697955,"lon":139.646929},{"name":"アンソレイユ","province":"東京都","city":"杉並区","address":"杉並区高円寺南2-35-15花月第一ビル2階","lat":35.699241,"lon":139.65442},{"name":"カノン","province":"東京都","city":"杉並区","address":"杉並区高円寺南3-16-20","lat":35.700299,"lon":139.645509},{"name":"プレミア･ケア･ジュニア阿佐ヶ谷店","province":"東京都","city":"杉並区","address":"杉並区阿佐谷南2-32-9-1階","lat":35.704443,"lon":139.644173},{"name":"ハッピーテラス荻窪教室","province":"東京都","city":"杉並区","address":"杉並区阿佐谷南3-12-4","lat":35.702762,"lon":139.628675},{"name":"バンブーワァオ阿佐ヶ谷校","province":"東京都","city":"杉並区","address":"杉並区阿佐谷南1-15-18伊藤ビル201-B号室","lat":35.699937,"lon":139.636905},{"name":"フェイト","province":"東京都","city":"杉並区","address":"杉並区梅里2-40-15-301","lat":35.697946,"lon":139.639313},{"name":"フォスター","province":"東京都","city":"杉並区","address":"杉並区和田2-41-7","lat":35.691728,"lon":139.655017},{"name":"よりみちくらぶ　ネコのトランク","province":"東京都","city":"杉並区","address":"杉並区成田東4-1-26-2階","lat":35.695118,"lon":139.63363},{"name":"ドルフィンキッズ","province":"東京都","city":"杉並区","address":"杉並区天沼2-4-1井上ビル203","lat":35.705323,"lon":139.623386},{"name":"よりみちくらぶ　トラのながぐつ","province":"東京都","city":"杉並区","address":"杉並区清水1-23-23","lat":35.710822,"lon":139.617953},{"name":"コロロ杉並少年隊","province":"東京都","city":"杉並区","address":"杉並区西荻北3-33-9","lat":35.706547,"lon":139.600343},{"name":"プレミア・ケア・ジュニア西荻窪店","province":"東京都","city":"杉並区","address":"杉並区上荻3-5-41階","lat":35.706864,"lon":139.607918},{"name":"みかんの木","province":"東京都","city":"杉並区","address":"杉並区南荻窪1-5-111階","lat":35.694962,"lon":139.617259},{"name":"放課後等デイサービスくじら","province":"東京都","city":"杉並区","address":"杉並区和泉3-22-15グランヴェール和泉101","lat":35.677813,"lon":139.647741},{"name":"プレミア・ケア・ジュニア代田橋店","province":"東京都","city":"杉並区","address":"杉並区和泉1-19-13","lat":35.674624,"lon":139.65859},{"name":"まぁぶる高井戸","province":"東京都","city":"杉並区","address":"杉並区高井戸東3-28-40小向高井戸ビル2階","lat":35.686774,"lon":139.616573},{"name":"くるみの木","province":"東京都","city":"杉並区","address":"杉並区上高井戸3-11-9","lat":35.676506,"lon":139.614629},{"name":"よりみちくらぶ　ヤギのサンダル","province":"東京都","city":"杉並区","address":"杉並区宮前2-10-42宮前ヴィレッジA棟104","lat":35.692521,"lon":139.612157},{"name":"杉並区子ども家庭支援センター","province":"東京都","city":"杉並区","address":"杉並区阿佐谷南1-14-8","lat":35.699774,"lon":139.63711},{"name":"杉並子ども家庭支援センター","province":"東京都","city":"杉並区","address":"杉並区阿佐谷南1-14-8","lat":35.69917,"lon":139.63687},{"name":"杉並子ども家庭支援センター","province":"東京都","city":"杉並区","address":"杉並区阿佐谷南1-14-8","lat":35.699774,"lon":139.63711},{"name":"＊?杉並区男女平等推進センター","province":"東京都","city":"杉並区","address":"杉並区荻窪1-56-3","lat":35.694542,"lon":139.62751},{"name":"発達支援ルーム　にこっと","province":"東京都","city":"杉並区","address":"杉並区高円寺北3-40-13BIGVALLEY2階","lat":35.710514,"lon":139.64657},{"name":"スタジオあいだっく","province":"東京都","city":"杉並区","address":"杉並区高円寺南3-1-4キングスコートII4階","lat":35.697955,"lon":139.646929},{"name":"アンソレイユ","province":"東京都","city":"杉並区","address":"杉並区高円寺南2-35-15花月第一ビル2階","lat":35.699241,"lon":139.65442},{"name":"カノン","province":"東京都","city":"杉並区","address":"杉並区高円寺南3-16-20","lat":35.700299,"lon":139.645509},{"name":"プレミア･ケア･ジュニア阿佐ヶ谷店","province":"東京都","city":"杉並区","address":"杉並区阿佐谷南2-32-9-1階","lat":35.704443,"lon":139.644173},{"name":"ハッピーテラス荻窪教室","province":"東京都","city":"杉並区","address":"杉並区阿佐谷南3-12-4","lat":35.702762,"lon":139.628675},{"name":"バンブーワァオ阿佐ヶ谷校","province":"東京都","city":"杉並区","address":"杉並区阿佐谷南1-15-18伊藤ビル201-B号室","lat":35.699937,"lon":139.636905},{"name":"フェイト","province":"東京都","city":"杉並区","address":"杉並区梅里2-40-15-301","lat":35.697946,"lon":139.639313},{"name":"フォスター","province":"東京都","city":"杉並区","address":"杉並区和田2-41-7","lat":35.691728,"lon":139.655017},{"name":"よりみちくらぶ　ネコのトランク","province":"東京都","city":"杉並区","address":"杉並区成田東4-1-26-2階","lat":35.695118,"lon":139.63363},{"name":"ドルフィンキッズ","province":"東京都","city":"杉並区","address":"杉並区天沼2-4-1井上ビル203","lat":35.705323,"lon":139.623386},{"name":"よりみちくらぶ　トラのながぐつ","province":"東京都","city":"杉並区","address":"杉並区清水1-23-23","lat":35.710822,"lon":139.617953},{"name":"コロロ杉並少年隊","province":"東京都","city":"杉並区","address":"杉並区西荻北3-33-9","lat":35.706547,"lon":139.600343},{"name":"プレミア・ケア・ジュニア西荻窪店","province":"東京都","city":"杉並区","address":"杉並区上荻3-5-41階","lat":35.706864,"lon":139.607918},{"name":"みかんの木","province":"東京都","city":"杉並区","address":"杉並区南荻窪1-5-111階","lat":35.694962,"lon":139.617259},{"name":"放課後等デイサービスくじら","province":"東京都","city":"杉並区","address":"杉並区和泉3-22-15グランヴェール和泉101","lat":35.677813,"lon":139.647741},{"name":"プレミア・ケア・ジュニア代田橋店","province":"東京都","city":"杉並区","address":"杉並区和泉1-19-13","lat":35.674624,"lon":139.65859},{"name":"まぁぶる高井戸","province":"東京都","city":"杉並区","address":"杉並区高井戸東3-28-40小向高井戸ビル2階","lat":35.686774,"lon":139.616573},{"name":"くるみの木","province":"東京都","city":"杉並区","address":"杉並区上高井戸3-11-9","lat":35.676506,"lon":139.614629},{"name":"よりみちくらぶ　ヤギのサンダル","province":"東京都","city":"杉並区","address":"杉並区宮前2-10-42宮前ヴィレッジA棟104","lat":35.692521,"lon":139.612157},{"name":"杉並区子ども家庭支援センター","province":"東京都","city":"杉並区","address":"杉並区阿佐谷南1-14-8","lat":35.699774,"lon":139.63711},{"name":"杉並子ども家庭支援センター","province":"東京都","city":"杉並区","address":"杉並区阿佐谷南1-14-8","lat":35.69917,"lon":139.63687},{"name":"杉並子ども家庭支援センター","province":"東京都","city":"杉並区","address":"杉並区阿佐谷南1-14-8","lat":35.699774,"lon":139.63711},{"name":"＊?杉並区男女平等推進センター","province":"東京都","city":"杉並区","address":"杉並区荻窪1-56-3","lat":35.694542,"lon":139.62751},{"name":"発達支援ルーム　にこっと","province":"東京都","city":"杉並区","address":"杉並区高円寺北3-40-13BIGVALLEY2階","lat":35.710514,"lon":139.64657},{"name":"スタジオあいだっく","province":"東京都","city":"杉並区","address":"杉並区高円寺南3-1-4キングスコートII4階","lat":35.697955,"lon":139.646929},{"name":"アンソレイユ","province":"東京都","city":"杉並区","address":"杉並区高円寺南2-35-15花月第一ビル2階","lat":35.699241,"lon":139.65442},{"name":"カノン","province":"東京都","city":"杉並区","address":"杉並区高円寺南3-16-20","lat":35.700299,"lon":139.645509},{"name":"プレミア･ケア･ジュニア阿佐ヶ谷店","province":"東京都","city":"杉並区","address":"杉並区阿佐谷南2-32-9-1階","lat":35.704443,"lon":139.644173},{"name":"ハッピーテラス荻窪教室","province":"東京都","city":"杉並区","address":"杉並区阿佐谷南3-12-4","lat":35.702762,"lon":139.628675},{"name":"バンブーワァオ阿佐ヶ谷校","province":"東京都","city":"杉並区","address":"杉並区阿佐谷南1-15-18伊藤ビル201-B号室","lat":35.699937,"lon":139.636905},{"name":"フェイト","province":"東京都","city":"杉並区","address":"杉並区梅里2-40-15-301","lat":35.697946,"lon":139.639313},{"name":"フォスター","province":"東京都","city":"杉並区","address":"杉並区和田2-41-7","lat":35.691728,"lon":139.655017},{"name":"よりみちくらぶ　ネコのトランク","province":"東京都","city":"杉並区","address":"杉並区成田東4-1-26-2階","lat":35.695118,"lon":139.63363},{"name":"ドルフィンキッズ","province":"東京都","city":"杉並区","address":"杉並区天沼2-4-1井上ビル203","lat":35.705323,"lon":139.623386},{"name":"よりみちくらぶ　トラのながぐつ","province":"東京都","city":"杉並区","address":"杉並区清水1-23-23","lat":35.710822,"lon":139.617953},{"name":"コロロ杉並少年隊","province":"東京都","city":"杉並区","address":"杉並区西荻北3-33-9","lat":35.706547,"lon":139.600343},{"name":"プレミア・ケア・ジュニア西荻窪店","province":"東京都","city":"杉並区","address":"杉並区上荻3-5-41階","lat":35.706864,"lon":139.607918},{"name":"みかんの木","province":"東京都","city":"杉並区","address":"杉並区南荻窪1-5-111階","lat":35.694962,"lon":139.617259},{"name":"放課後等デイサービスくじら","province":"東京都","city":"杉並区","address":"杉並区和泉3-22-15グランヴェール和泉101","lat":35.677813,"lon":139.647741},{"name":"プレミア・ケア・ジュニア代田橋店","province":"東京都","city":"杉並区","address":"杉並区和泉1-19-13","lat":35.674624,"lon":139.65859},{"name":"まぁぶる高井戸","province":"東京都","city":"杉並区","address":"杉並区高井戸東3-28-40小向高井戸ビル2階","lat":35.686774,"lon":139.616573},{"name":"くるみの木","province":"東京都","city":"杉並区","address":"杉並区上高井戸3-11-9","lat":35.676506,"lon":139.614629},{"name":"よりみちくらぶ　ヤギのサンダル","province":"東京都","city":"杉並区","address":"杉並区宮前2-10-42宮前ヴィレッジA棟104","lat":35.692521,"lon":139.612157},{"name":"杉並区子ども家庭支援センター","province":"東京都","city":"杉並区","address":"杉並区阿佐谷南1-14-8","lat":35.699774,"lon":139.63711},{"name":"杉並子ども家庭支援センター","province":"東京都","city":"杉並区","address":"杉並区阿佐谷南1-14-8","lat":35.69917,"lon":139.63687},{"name":"杉並子ども家庭支援センター","province":"東京都","city":"杉並区","address":"杉並区阿佐谷南1-14-8","lat":35.699774,"lon":139.63711},{"name":"＊?杉並区男女平等推進センター","province":"東京都","city":"杉並区","address":"杉並区荻窪1-56-3","lat":35.694542,"lon":139.62751},{"name":"発達支援ルーム　にこっと","province":"東京都","city":"杉並区","address":"杉並区高円寺北3-40-13BIGVALLEY2階","lat":35.710514,"lon":139.64657},{"name":"スタジオあいだっく","province":"東京都","city":"杉並区","address":"杉並区高円寺南3-1-4キングスコートII4階","lat":35.697955,"lon":139.646929},{"name":"アンソレイユ","province":"東京都","city":"杉並区","address":"杉並区高円寺南2-35-15花月第一ビル2階","lat":35.699241,"lon":139.65442},{"name":"カノン","province":"東京都","city":"杉並区","address":"杉並区高円寺南3-16-20","lat":35.700299,"lon":139.645509},{"name":"プレミア･ケア･ジュニア阿佐ヶ谷店","province":"東京都","city":"杉並区","address":"杉並区阿佐谷南2-32-9-1階","lat":35.704443,"lon":139.644173},{"name":"ハッピーテラス荻窪教室","province":"東京都","city":"杉並区","address":"杉並区阿佐谷南3-12-4","lat":35.702762,"lon":139.628675},{"name":"バンブーワァオ阿佐ヶ谷校","province":"東京都","city":"杉並区","address":"杉並区阿佐谷南1-15-18伊藤ビル201-B号室","lat":35.699937,"lon":139.636905},{"name":"フェイト","province":"東京都","city":"杉並区","address":"杉並区梅里2-40-15-301","lat":35.697946,"lon":139.639313},{"name":"フォスター","province":"東京都","city":"杉並区","address":"杉並区和田2-41-7","lat":35.691728,"lon":139.655017},{"name":"よりみちくらぶ　ネコのトランク","province":"東京都","city":"杉並区","address":"杉並区成田東4-1-26-2階","lat":35.695118,"lon":139.63363},{"name":"ドルフィンキッズ","province":"東京都","city":"杉並区","address":"杉並区天沼2-4-1井上ビル203","lat":35.705323,"lon":139.623386},{"name":"よりみちくらぶ　トラのながぐつ","province":"東京都","city":"杉並区","address":"杉並区清水1-23-23","lat":35.710822,"lon":139.617953},{"name":"コロロ杉並少年隊","province":"東京都","city":"杉並区","address":"杉並区西荻北3-33-9","lat":35.706547,"lon":139.600343},{"name":"プレミア・ケア・ジュニア西荻窪店","province":"東京都","city":"杉並区","address":"杉並区上荻3-5-41階","lat":35.706864,"lon":139.607918},{"name":"みかんの木","province":"東京都","city":"杉並区","address":"杉並区南荻窪1-5-111階","lat":35.694962,"lon":139.617259},{"name":"放課後等デイサービスくじら","province":"東京都","city":"杉並区","address":"杉並区和泉3-22-15グランヴェール和泉101","lat":35.677813,"lon":139.647741},{"name":"プレミア・ケア・ジュニア代田橋店","province":"東京都","city":"杉並区","address":"杉並区和泉1-19-13","lat":35.674624,"lon":139.65859},{"name":"まぁぶる高井戸","province":"東京都","city":"杉並区","address":"杉並区高井戸東3-28-40小向高井戸ビル2階","lat":35.686774,"lon":139.616573},{"name":"くるみの木","province":"東京都","city":"杉並区","address":"杉並区上高井戸3-11-9","lat":35.676506,"lon":139.614629},{"name":"よりみちくらぶ　ヤギのサンダル","province":"東京都","city":"杉並区","address":"杉並区宮前2-10-42宮前ヴィレッジA棟104","lat":35.692521,"lon":139.612157},{"name":"杉並区子ども家庭支援センター","province":"東京都","city":"杉並区","address":"杉並区阿佐谷南1-14-8","lat":35.699774,"lon":139.63711},{"name":"杉並子ども家庭支援センター","province":"東京都","city":"杉並区","address":"杉並区阿佐谷南1-14-8","lat":35.69917,"lon":139.63687},{"name":"杉並子ども家庭支援センター","province":"東京都","city":"杉並区","address":"杉並区阿佐谷南1-14-8","lat":35.699774,"lon":139.63711},{"name":"＊?杉並区男女平等推進センター","province":"東京都","city":"杉並区","address":"杉並区荻窪1-56-3","lat":35.694542,"lon":139.62751},{"name":"発達支援ルーム　にこっと","province":"東京都","city":"杉並区","address":"杉並区高円寺北3-40-13BIGVALLEY2階","lat":35.710514,"lon":139.64657},{"name":"スタジオあいだっく","province":"東京都","city":"杉並区","address":"杉並区高円寺南3-1-4キングスコートII4階","lat":35.697955,"lon":139.646929},{"name":"アンソレイユ","province":"東京都","city":"杉並区","address":"杉並区高円寺南2-35-15花月第一ビル2階","lat":35.699241,"lon":139.65442},{"name":"カノン","province":"東京都","city":"杉並区","address":"杉並区高円寺南3-16-20","lat":35.700299,"lon":139.645509},{"name":"プレミア･ケア･ジュニア阿佐ヶ谷店","province":"東京都","city":"杉並区","address":"杉並区阿佐谷南2-32-9-1階","lat":35.704443,"lon":139.644173},{"name":"ハッピーテラス荻窪教室","province":"東京都","city":"杉並区","address":"杉並区阿佐谷南3-12-4","lat":35.702762,"lon":139.628675},{"name":"バンブーワァオ阿佐ヶ谷校","province":"東京都","city":"杉並区","address":"杉並区阿佐谷南1-15-18伊藤ビル201-B号室","lat":35.699937,"lon":139.636905},{"name":"フェイト","province":"東京都","city":"杉並区","address":"杉並区梅里2-40-15-301","lat":35.697946,"lon":139.639313},{"name":"フォスター","province":"東京都","city":"杉並区","address":"杉並区和田2-41-7","lat":35.691728,"lon":139.655017},{"name":"よりみちくらぶ　ネコのトランク","province":"東京都","city":"杉並区","address":"杉並区成田東4-1-26-2階","lat":35.695118,"lon":139.63363},{"name":"ドルフィンキッズ","province":"東京都","city":"杉並区","address":"杉並区天沼2-4-1井上ビル203","lat":35.705323,"lon":139.623386},{"name":"よりみちくらぶ　トラのながぐつ","province":"東京都","city":"杉並区","address":"杉並区清水1-23-23","lat":35.710822,"lon":139.617953},{"name":"コロロ杉並少年隊","province":"東京都","city":"杉並区","address":"杉並区西荻北3-33-9","lat":35.706547,"lon":139.600343},{"name":"プレミア・ケア・ジュニア西荻窪店","province":"東京都","city":"杉並区","address":"杉並区上荻3-5-41階","lat":35.706864,"lon":139.607918},{"name":"みかんの木","province":"東京都","city":"杉並区","address":"杉並区南荻窪1-5-111階","lat":35.694962,"lon":139.617259},{"name":"放課後等デイサービスくじら","province":"東京都","city":"杉並区","address":"杉並区和泉3-22-15グランヴェール和泉101","lat":35.677813,"lon":139.647741},{"name":"プレミア・ケア・ジュニア代田橋店","province":"東京都","city":"杉並区","address":"杉並区和泉1-19-13","lat":35.674624,"lon":139.65859},{"name":"まぁぶる高井戸","province":"東京都","city":"杉並区","address":"杉並区高井戸東3-28-40小向高井戸ビル2階","lat":35.686774,"lon":139.616573},{"name":"くるみの木","province":"東京都","city":"杉並区","address":"杉並区上高井戸3-11-9","lat":35.676506,"lon":139.614629},{"name":"よりみちくらぶ　ヤギのサンダル","province":"東京都","city":"杉並区","address":"杉並区宮前2-10-42宮前ヴィレッジA棟104","lat":35.692521,"lon":139.612157},{"name":"杉並区子ども家庭支援センター","province":"東京都","city":"杉並区","address":"杉並区阿佐谷南1-14-8","lat":35.699774,"lon":139.63711},{"name":"杉並子ども家庭支援センター","province":"東京都","city":"杉並区","address":"杉並区阿佐谷南1-14-8","lat":35.69917,"lon":139.63687},{"name":"杉並子ども家庭支援センター","province":"東京都","city":"杉並区","address":"杉並区阿佐谷南1-14-8","lat":35.699774,"lon":139.63711},{"name":"＊?杉並区男女平等推進センター","province":"東京都","city":"杉並区","address":"杉並区荻窪1-56-3","lat":35.694542,"lon":139.62751},{"name":"発達支援ルーム　にこっと","province":"東京都","city":"杉並区","address":"杉並区高円寺北3-40-13BIGVALLEY2階","lat":35.710514,"lon":139.64657},{"name":"スタジオあいだっく","province":"東京都","city":"杉並区","address":"杉並区高円寺南3-1-4キングスコートII4階","lat":35.697955,"lon":139.646929},{"name":"アンソレイユ","province":"東京都","city":"杉並区","address":"杉並区高円寺南2-35-15花月第一ビル2階","lat":35.699241,"lon":139.65442},{"name":"カノン","province":"東京都","city":"杉並区","address":"杉並区高円寺南3-16-20","lat":35.700299,"lon":139.645509},{"name":"プレミア･ケア･ジュニア阿佐ヶ谷店","province":"東京都","city":"杉並区","address":"杉並区阿佐谷南2-32-9-1階","lat":35.704443,"lon":139.644173},{"name":"ハッピーテラス荻窪教室","province":"東京都","city":"杉並区","address":"杉並区阿佐谷南3-12-4","lat":35.702762,"lon":139.628675},{"name":"バンブーワァオ阿佐ヶ谷校","province":"東京都","city":"杉並区","address":"杉並区阿佐谷南1-15-18伊藤ビル201-B号室","lat":35.699937,"lon":139.636905},{"name":"フェイト","province":"東京都","city":"杉並区","address":"杉並区梅里2-40-15-301","lat":35.697946,"lon":139.639313},{"name":"フォスター","province":"東京都","city":"杉並区","address":"杉並区和田2-41-7","lat":35.691728,"lon":139.655017},{"name":"よりみちくらぶ　ネコのトランク","province":"東京都","city":"杉並区","address":"杉並区成田東4-1-26-2階","lat":35.695118,"lon":139.63363},{"name":"ドルフィンキッズ","province":"東京都","city":"杉並区","address":"杉並区天沼2-4-1井上ビル203","lat":35.705323,"lon":139.623386},{"name":"よりみちくらぶ　トラのながぐつ","province":"東京都","city":"杉並区","address":"杉並区清水1-23-23","lat":35.710822,"lon":139.617953},{"name":"コロロ杉並少年隊","province":"東京都","city":"杉並区","address":"杉並区西荻北3-33-9","lat":35.706547,"lon":139.600343},{"name":"プレミア・ケア・ジュニア西荻窪店","province":"東京都","city":"杉並区","address":"杉並区上荻3-5-41階","lat":35.706864,"lon":139.607918},{"name":"みかんの木","province":"東京都","city":"杉並区","address":"杉並区南荻窪1-5-111階","lat":35.694962,"lon":139.617259},{"name":"放課後等デイサービスくじら","province":"東京都","city":"杉並区","address":"杉並区和泉3-22-15グランヴェール和泉101","lat":35.677813,"lon":139.647741},{"name":"プレミア・ケア・ジュニア代田橋店","province":"東京都","city":"杉並区","address":"杉並区和泉1-19-13","lat":35.674624,"lon":139.65859},{"name":"まぁぶる高井戸","province":"東京都","city":"杉並区","address":"杉並区高井戸東3-28-40小向高井戸ビル2階","lat":35.686774,"lon":139.616573},{"name":"くるみの木","province":"東京都","city":"杉並区","address":"杉並区上高井戸3-11-9","lat":35.676506,"lon":139.614629},{"name":"よりみちくらぶ　ヤギのサンダル","province":"東京都","city":"杉並区","address":"杉並区宮前2-10-42宮前ヴィレッジA棟104","lat":35.692521,"lon":139.612157},{"name":"杉並区子ども家庭支援センター","province":"東京都","city":"杉並区","address":"杉並区阿佐谷南1-14-8","lat":35.699774,"lon":139.63711},{"name":"杉並子ども家庭支援センター","province":"東京都","city":"杉並区","address":"杉並区阿佐谷南1-14-8","lat":35.69917,"lon":139.63687},{"name":"杉並子ども家庭支援センター","province":"東京都","city":"杉並区","address":"杉並区阿佐谷南1-14-8","lat":35.699774,"lon":139.63711},{"name":"＊?杉並区男女平等推進センター","province":"東京都","city":"杉並区","address":"杉並区荻窪1-56-3","lat":35.694542,"lon":139.62751},{"name":"発達支援ルーム　にこっと","province":"東京都","city":"杉並区","address":"杉並区高円寺北3-40-13BIGVALLEY2階","lat":35.710514,"lon":139.64657},{"name":"スタジオあいだっく","province":"東京都","city":"杉並区","address":"杉並区高円寺南3-1-4キングスコートII4階","lat":35.697955,"lon":139.646929},{"name":"アンソレイユ","province":"東京都","city":"杉並区","address":"杉並区高円寺南2-35-15花月第一ビル2階","lat":35.699241,"lon":139.65442},{"name":"カノン","province":"東京都","city":"杉並区","address":"杉並区高円寺南3-16-20","lat":35.700299,"lon":139.645509},{"name":"プレミア･ケア･ジュニア阿佐ヶ谷店","province":"東京都","city":"杉並区","address":"杉並区阿佐谷南2-32-9-1階","lat":35.704443,"lon":139.644173},{"name":"ハッピーテラス荻窪教室","province":"東京都","city":"杉並区","address":"杉並区阿佐谷南3-12-4","lat":35.702762,"lon":139.628675},{"name":"バンブーワァオ阿佐ヶ谷校","province":"東京都","city":"杉並区","address":"杉並区阿佐谷南1-15-18伊藤ビル201-B号室","lat":35.699937,"lon":139.636905},{"name":"フェイト","province":"東京都","city":"杉並区","address":"杉並区梅里2-40-15-301","lat":35.697946,"lon":139.639313},{"name":"フォスター","province":"東京都","city":"杉並区","address":"杉並区和田2-41-7","lat":35.691728,"lon":139.655017},{"name":"よりみちくらぶ　ネコのトランク","province":"東京都","city":"杉並区","address":"杉並区成田東4-1-26-2階","lat":35.695118,"lon":139.63363},{"name":"ドルフィンキッズ","province":"東京都","city":"杉並区","address":"杉並区天沼2-4-1井上ビル203","lat":35.705323,"lon":139.623386},{"name":"よりみちくらぶ　トラのながぐつ","province":"東京都","city":"杉並区","address":"杉並区清水1-23-23","lat":35.710822,"lon":139.617953},{"name":"コロロ杉並少年隊","province":"東京都","city":"杉並区","address":"杉並区西荻北3-33-9","lat":35.706547,"lon":139.600343},{"name":"プレミア・ケア・ジュニア西荻窪店","province":"東京都","city":"杉並区","address":"杉並区上荻3-5-41階","lat":35.706864,"lon":139.607918},{"name":"みかんの木","province":"東京都","city":"杉並区","address":"杉並区南荻窪1-5-111階","lat":35.694962,"lon":139.617259},{"name":"放課後等デイサービスくじら","province":"東京都","city":"杉並区","address":"杉並区和泉3-22-15グランヴェール和泉101","lat":35.677813,"lon":139.647741},{"name":"プレミア・ケア・ジュニア代田橋店","province":"東京都","city":"杉並区","address":"杉並区和泉1-19-13","lat":35.674624,"lon":139.65859},{"name":"まぁぶる高井戸","province":"東京都","city":"杉並区","address":"杉並区高井戸東3-28-40小向高井戸ビル2階","lat":35.686774,"lon":139.616573},{"name":"くるみの木","province":"東京都","city":"杉並区","address":"杉並区上高井戸3-11-9","lat":35.676506,"lon":139.614629},{"name":"よりみちくらぶ　ヤギのサンダル","province":"東京都","city":"杉並区","address":"杉並区宮前2-10-42宮前ヴィレッジA棟104","lat":35.692521,"lon":139.612157},{"name":"杉並区子ども家庭支援センター","province":"東京都","city":"杉並区","address":"杉並区阿佐谷南1-14-8","lat":35.699774,"lon":139.63711},{"name":"杉並子ども家庭支援センター","province":"東京都","city":"杉並区","address":"杉並区阿佐谷南1-14-8","lat":35.69917,"lon":139.63687},{"name":"杉並子ども家庭支援センター","province":"東京都","city":"杉並区","address":"杉並区阿佐谷南1-14-8","lat":35.699774,"lon":139.63711},{"name":"＊?杉並区男女平等推進センター","province":"東京都","city":"杉並区","address":"杉並区荻窪1-56-3","lat":35.694542,"lon":139.62751},{"name":"発達支援ルーム　にこっと","province":"東京都","city":"杉並区","address":"杉並区高円寺北3-40-13BIGVALLEY2階","lat":35.710514,"lon":139.64657},{"name":"スタジオあいだっく","province":"東京都","city":"杉並区","address":"杉並区高円寺南3-1-4キングスコートII4階","lat":35.697955,"lon":139.646929},{"name":"アンソレイユ","province":"東京都","city":"杉並区","address":"杉並区高円寺南2-35-15花月第一ビル2階","lat":35.699241,"lon":139.65442},{"name":"カノン","province":"東京都","city":"杉並区","address":"杉並区高円寺南3-16-20","lat":35.700299,"lon":139.645509},{"name":"プレミア･ケア･ジュニア阿佐ヶ谷店","province":"東京都","city":"杉並区","address":"杉並区阿佐谷南2-32-9-1階","lat":35.704443,"lon":139.644173},{"name":"ハッピーテラス荻窪教室","province":"東京都","city":"杉並区","address":"杉並区阿佐谷南3-12-4","lat":35.702762,"lon":139.628675},{"name":"バンブーワァオ阿佐ヶ谷校","province":"東京都","city":"杉並区","address":"杉並区阿佐谷南1-15-18伊藤ビル201-B号室","lat":35.699937,"lon":139.636905},{"name":"フェイト","province":"東京都","city":"杉並区","address":"杉並区梅里2-40-15-301","lat":35.697946,"lon":139.639313},{"name":"フォスター","province":"東京都","city":"杉並区","address":"杉並区和田2-41-7","lat":35.691728,"lon":139.655017},{"name":"よりみちくらぶ　ネコのトランク","province":"東京都","city":"杉並区","address":"杉並区成田東4-1-26-2階","lat":35.695118,"lon":139.63363},{"name":"ドルフィンキッズ","province":"東京都","city":"杉並区","address":"杉並区天沼2-4-1井上ビル203","lat":35.705323,"lon":139.623386},{"name":"よりみちくらぶ　トラのながぐつ","province":"東京都","city":"杉並区","address":"杉並区清水1-23-23","lat":35.710822,"lon":139.617953},{"name":"コロロ杉並少年隊","province":"東京都","city":"杉並区","address":"杉並区西荻北3-33-9","lat":35.706547,"lon":139.600343},{"name":"プレミア・ケア・ジュニア西荻窪店","province":"東京都","city":"杉並区","address":"杉並区上荻3-5-41階","lat":35.706864,"lon":139.607918},{"name":"みかんの木","province":"東京都","city":"杉並区","address":"杉並区南荻窪1-5-111階","lat":35.694962,"lon":139.617259},{"name":"放課後等デイサービスくじら","province":"東京都","city":"杉並区","address":"杉並区和泉3-22-15グランヴェール和泉101","lat":35.677813,"lon":139.647741},{"name":"プレミア・ケア・ジュニア代田橋店","province":"東京都","city":"杉並区","address":"杉並区和泉1-19-13","lat":35.674624,"lon":139.65859},{"name":"まぁぶる高井戸","province":"東京都","city":"杉並区","address":"杉並区高井戸東3-28-40小向高井戸ビル2階","lat":35.686774,"lon":139.616573},{"name":"くるみの木","province":"東京都","city":"杉並区","address":"杉並区上高井戸3-11-9","lat":35.676506,"lon":139.614629},{"name":"よりみちくらぶ　ヤギのサンダル","province":"東京都","city":"杉並区","address":"杉並区宮前2-10-42宮前ヴィレッジA棟104","lat":35.692521,"lon":139.612157},{"name":"杉並区子ども家庭支援センター","province":"東京都","city":"杉並区","address":"杉並区阿佐谷南1-14-8","lat":35.699774,"lon":139.63711},{"name":"杉並子ども家庭支援センター","province":"東京都","city":"杉並区","address":"杉並区阿佐谷南1-14-8","lat":35.69917,"lon":139.63687},{"name":"杉並子ども家庭支援センター","province":"東京都","city":"杉並区","address":"杉並区阿佐谷南1-14-8","lat":35.699774,"lon":139.63711},{"name":"＊?杉並区男女平等推進センター","province":"東京都","city":"杉並区","address":"杉並区荻窪1-56-3","lat":35.694542,"lon":139.62751},{"name":"発達支援ルーム　にこっと","province":"東京都","city":"杉並区","address":"杉並区高円寺北3-40-13BIGVALLEY2階","lat":35.710514,"lon":139.64657},{"name":"スタジオあいだっく","province":"東京都","city":"杉並区","address":"杉並区高円寺南3-1-4キングスコートII4階","lat":35.697955,"lon":139.646929},{"name":"アンソレイユ","province":"東京都","city":"杉並区","address":"杉並区高円寺南2-35-15花月第一ビル2階","lat":35.699241,"lon":139.65442},{"name":"カノン","province":"東京都","city":"杉並区","address":"杉並区高円寺南3-16-20","lat":35.700299,"lon":139.645509},{"name":"プレミア･ケア･ジュニア阿佐ヶ谷店","province":"東京都","city":"杉並区","address":"杉並区阿佐谷南2-32-9-1階","lat":35.704443,"lon":139.644173},{"name":"ハッピーテラス荻窪教室","province":"東京都","city":"杉並区","address":"杉並区阿佐谷南3-12-4","lat":35.702762,"lon":139.628675},{"name":"バンブーワァオ阿佐ヶ谷校","province":"東京都","city":"杉並区","address":"杉並区阿佐谷南1-15-18伊藤ビル201-B号室","lat":35.699937,"lon":139.636905},{"name":"フェイト","province":"東京都","city":"杉並区","address":"杉並区梅里2-40-15-301","lat":35.697946,"lon":139.639313},{"name":"フォスター","province":"東京都","city":"杉並区","address":"杉並区和田2-41-7","lat":35.691728,"lon":139.655017},{"name":"よりみちくらぶ　ネコのトランク","province":"東京都","city":"杉並区","address":"杉並区成田東4-1-26-2階","lat":35.695118,"lon":139.63363},{"name":"ドルフィンキッズ","province":"東京都","city":"杉並区","address":"杉並区天沼2-4-1井上ビル203","lat":35.705323,"lon":139.623386},{"name":"よりみちくらぶ　トラのながぐつ","province":"東京都","city":"杉並区","address":"杉並区清水1-23-23","lat":35.710822,"lon":139.617953},{"name":"コロロ杉並少年隊","province":"東京都","city":"杉並区","address":"杉並区西荻北3-33-9","lat":35.706547,"lon":139.600343},{"name":"プレミア・ケア・ジュニア西荻窪店","province":"東京都","city":"杉並区","address":"杉並区上荻3-5-41階","lat":35.706864,"lon":139.607918},{"name":"みかんの木","province":"東京都","city":"杉並区","address":"杉並区南荻窪1-5-111階","lat":35.694962,"lon":139.617259},{"name":"放課後等デイサービスくじら","province":"東京都","city":"杉並区","address":"杉並区和泉3-22-15グランヴェール和泉101","lat":35.677813,"lon":139.647741},{"name":"プレミア・ケア・ジュニア代田橋店","province":"東京都","city":"杉並区","address":"杉並区和泉1-19-13","lat":35.674624,"lon":139.65859},{"name":"まぁぶる高井戸","province":"東京都","city":"杉並区","address":"杉並区高井戸東3-28-40小向高井戸ビル2階","lat":35.686774,"lon":139.616573},{"name":"くるみの木","province":"東京都","city":"杉並区","address":"杉並区上高井戸3-11-9","lat":35.676506,"lon":139.614629},{"name":"よりみちくらぶ　ヤギのサンダル","province":"東京都","city":"杉並区","address":"杉並区宮前2-10-42宮前ヴィレッジA棟104","lat":35.692521,"lon":139.612157},{"name":"杉並区子ども家庭支援センター","province":"東京都","city":"杉並区","address":"杉並区阿佐谷南1-14-8","lat":35.699774,"lon":139.63711},{"name":"杉並子ども家庭支援センター","province":"東京都","city":"杉並区","address":"杉並区阿佐谷南1-14-8","lat":35.69917,"lon":139.63687},{"name":"杉並子ども家庭支援センター","province":"東京都","city":"杉並区","address":"杉並区阿佐谷南1-14-8","lat":35.699774,"lon":139.63711},{"name":"＊?杉並区男女平等推進センター","province":"東京都","city":"杉並区","address":"杉並区荻窪1-56-3","lat":35.694542,"lon":139.62751},{"name":"発達支援ルーム　にこっと","province":"東京都","city":"杉並区","address":"杉並区高円寺北3-40-13BIGVALLEY2階","lat":35.710514,"lon":139.64657},{"name":"スタジオあいだっく","province":"東京都","city":"杉並区","address":"杉並区高円寺南3-1-4キングスコートII4階","lat":35.697955,"lon":139.646929},{"name":"アンソレイユ","province":"東京都","city":"杉並区","address":"杉並区高円寺南2-35-15花月第一ビル2階","lat":35.699241,"lon":139.65442},{"name":"カノン","province":"東京都","city":"杉並区","address":"杉並区高円寺南3-16-20","lat":35.700299,"lon":139.645509},{"name":"プレミア･ケア･ジュニア阿佐ヶ谷店","province":"東京都","city":"杉並区","address":"杉並区阿佐谷南2-32-9-1階","lat":35.704443,"lon":139.644173},{"name":"ハッピーテラス荻窪教室","province":"東京都","city":"杉並区","address":"杉並区阿佐谷南3-12-4","lat":35.702762,"lon":139.628675},{"name":"バンブーワァオ阿佐ヶ谷校","province":"東京都","city":"杉並区","address":"杉並区阿佐谷南1-15-18伊藤ビル201-B号室","lat":35.699937,"lon":139.636905},{"name":"フェイト","province":"東京都","city":"杉並区","address":"杉並区梅里2-40-15-301","lat":35.697946,"lon":139.639313},{"name":"フォスター","province":"東京都","city":"杉並区","address":"杉並区和田2-41-7","lat":35.691728,"lon":139.655017},{"name":"よりみちくらぶ　ネコのトランク","province":"東京都","city":"杉並区","address":"杉並区成田東4-1-26-2階","lat":35.695118,"lon":139.63363},{"name":"ドルフィンキッズ","province":"東京都","city":"杉並区","address":"杉並区天沼2-4-1井上ビル203","lat":35.705323,"lon":139.623386},{"name":"よりみちくらぶ　トラのながぐつ","province":"東京都","city":"杉並区","address":"杉並区清水1-23-23","lat":35.710822,"lon":139.617953},{"name":"コロロ杉並少年隊","province":"東京都","city":"杉並区","address":"杉並区西荻北3-33-9","lat":35.706547,"lon":139.600343},{"name":"プレミア・ケア・ジュニア西荻窪店","province":"東京都","city":"杉並区","address":"杉並区上荻3-5-41階","lat":35.706864,"lon":139.607918},{"name":"みかんの木","province":"東京都","city":"杉並区","address":"杉並区南荻窪1-5-111階","lat":35.694962,"lon":139.617259},{"name":"放課後等デイサービスくじら","province":"東京都","city":"杉並区","address":"杉並区和泉3-22-15グランヴェール和泉101","lat":35.677813,"lon":139.647741},{"name":"プレミア・ケア・ジュニア代田橋店","province":"東京都","city":"杉並区","address":"杉並区和泉1-19-13","lat":35.674624,"lon":139.65859},{"name":"まぁぶる高井戸","province":"東京都","city":"杉並区","address":"杉並区高井戸東3-28-40小向高井戸ビル2階","lat":35.686774,"lon":139.616573},{"name":"くるみの木","province":"東京都","city":"杉並区","address":"杉並区上高井戸3-11-9","lat":35.676506,"lon":139.614629},{"name":"よりみちくらぶ　ヤギのサンダル","province":"東京都","city":"杉並区","address":"杉並区宮前2-10-42宮前ヴィレッジA棟104","lat":35.692521,"lon":139.612157},{"name":"杉並区子ども家庭支援センター","province":"東京都","city":"杉並区","address":"杉並区阿佐谷南1-14-8","lat":35.699774,"lon":139.63711},{"name":"杉並子ども家庭支援センター","province":"東京都","city":"杉並区","address":"杉並区阿佐谷南1-14-8","lat":35.69917,"lon":139.63687},{"name":"杉並子ども家庭支援センター","province":"東京都","city":"杉並区","address":"杉並区阿佐谷南1-14-8","lat":35.699774,"lon":139.63711},{"name":"＊?杉並区男女平等推進センター","province":"東京都","city":"杉並区","address":"杉並区荻窪1-56-3","lat":35.694542,"lon":139.62751},{"name":"発達支援ルーム　にこっと","province":"東京都","city":"杉並区","address":"杉並区高円寺北3-40-13BIGVALLEY2階","lat":35.710514,"lon":139.64657},{"name":"スタジオあいだっく","province":"東京都","city":"杉並区","address":"杉並区高円寺南3-1-4キングスコートII4階","lat":35.697955,"lon":139.646929},{"name":"アンソレイユ","province":"東京都","city":"杉並区","address":"杉並区高円寺南2-35-15花月第一ビル2階","lat":35.699241,"lon":139.65442},{"name":"カノン","province":"東京都","city":"杉並区","address":"杉並区高円寺南3-16-20","lat":35.700299,"lon":139.645509},{"name":"プレミア･ケア･ジュニア阿佐ヶ谷店","province":"東京都","city":"杉並区","address":"杉並区阿佐谷南2-32-9-1階","lat":35.704443,"lon":139.644173},{"name":"ハッピーテラス荻窪教室","province":"東京都","city":"杉並区","address":"杉並区阿佐谷南3-12-4","lat":35.702762,"lon":139.628675},{"name":"バンブーワァオ阿佐ヶ谷校","province":"東京都","city":"杉並区","address":"杉並区阿佐谷南1-15-18伊藤ビル201-B号室","lat":35.699937,"lon":139.636905},{"name":"フェイト","province":"東京都","city":"杉並区","address":"杉並区梅里2-40-15-301","lat":35.697946,"lon":139.639313},{"name":"フォスター","province":"東京都","city":"杉並区","address":"杉並区和田2-41-7","lat":35.691728,"lon":139.655017},{"name":"よりみちくらぶ　ネコのトランク","province":"東京都","city":"杉並区","address":"杉並区成田東4-1-26-2階","lat":35.695118,"lon":139.63363},{"name":"ドルフィンキッズ","province":"東京都","city":"杉並区","address":"杉並区天沼2-4-1井上ビル203","lat":35.705323,"lon":139.623386},{"name":"よりみちくらぶ　トラのながぐつ","province":"東京都","city":"杉並区","address":"杉並区清水1-23-23","lat":35.710822,"lon":139.617953},{"name":"コロロ杉並少年隊","province":"東京都","city":"杉並区","address":"杉並区西荻北3-33-9","lat":35.706547,"lon":139.600343},{"name":"プレミア・ケア・ジュニア西荻窪店","province":"東京都","city":"杉並区","address":"杉並区上荻3-5-41階","lat":35.706864,"lon":139.607918},{"name":"みかんの木","province":"東京都","city":"杉並区","address":"杉並区南荻窪1-5-111階","lat":35.694962,"lon":139.617259},{"name":"放課後等デイサービスくじら","province":"東京都","city":"杉並区","address":"杉並区和泉3-22-15グランヴェール和泉101","lat":35.677813,"lon":139.647741},{"name":"プレミア・ケア・ジュニア代田橋店","province":"東京都","city":"杉並区","address":"杉並区和泉1-19-13","lat":35.674624,"lon":139.65859},{"name":"まぁぶる高井戸","province":"東京都","city":"杉並区","address":"杉並区高井戸東3-28-40小向高井戸ビル2階","lat":35.686774,"lon":139.616573},{"name":"くるみの木","province":"東京都","city":"杉並区","address":"杉並区上高井戸3-11-9","lat":35.676506,"lon":139.614629},{"name":"よりみちくらぶ　ヤギのサンダル","province":"東京都","city":"杉並区","address":"杉並区宮前2-10-42宮前ヴィレッジA棟104","lat":35.692521,"lon":139.612157},{"name":"杉並区子ども家庭支援センター","province":"東京都","city":"杉並区","address":"杉並区阿佐谷南1-14-8","lat":35.699774,"lon":139.63711},{"name":"杉並子ども家庭支援センター","province":"東京都","city":"杉並区","address":"杉並区阿佐谷南1-14-8","lat":35.69917,"lon":139.63687},{"name":"杉並子ども家庭支援センター","province":"東京都","city":"杉並区","address":"杉並区阿佐谷南1-14-8","lat":35.699774,"lon":139.63711},{"name":"＊?杉並区男女平等推進センター","province":"東京都","city":"杉並区","address":"杉並区荻窪1-56-3","lat":35.694542,"lon":139.62751},{"name":"発達支援ルーム　にこっと","province":"東京都","city":"杉並区","address":"杉並区高円寺北3-40-13BIGVALLEY2階","lat":35.710514,"lon":139.64657},{"name":"スタジオあいだっく","province":"東京都","city":"杉並区","address":"杉並区高円寺南3-1-4キングスコートII4階","lat":35.697955,"lon":139.646929},{"name":"アンソレイユ","province":"東京都","city":"杉並区","address":"杉並区高円寺南2-35-15花月第一ビル2階","lat":35.699241,"lon":139.65442},{"name":"カノン","province":"東京都","city":"杉並区","address":"杉並区高円寺南3-16-20","lat":35.700299,"lon":139.645509},{"name":"プレミア･ケア･ジュニア阿佐ヶ谷店","province":"東京都","city":"杉並区","address":"杉並区阿佐谷南2-32-9-1階","lat":35.704443,"lon":139.644173},{"name":"ハッピーテラス荻窪教室","province":"東京都","city":"杉並区","address":"杉並区阿佐谷南3-12-4","lat":35.702762,"lon":139.628675},{"name":"バンブーワァオ阿佐ヶ谷校","province":"東京都","city":"杉並区","address":"杉並区阿佐谷南1-15-18伊藤ビル201-B号室","lat":35.699937,"lon":139.636905},{"name":"フェイト","province":"東京都","city":"杉並区","address":"杉並区梅里2-40-15-301","lat":35.697946,"lon":139.639313},{"name":"フォスター","province":"東京都","city":"杉並区","address":"杉並区和田2-41-7","lat":35.691728,"lon":139.655017},{"name":"よりみちくらぶ　ネコのトランク","province":"東京都","city":"杉並区","address":"杉並区成田東4-1-26-2階","lat":35.695118,"lon":139.63363},{"name":"ドルフィンキッズ","province":"東京都","city":"杉並区","address":"杉並区天沼2-4-1井上ビル203","lat":35.705323,"lon":139.623386},{"name":"よりみちくらぶ　トラのながぐつ","province":"東京都","city":"杉並区","address":"杉並区清水1-23-23","lat":35.710822,"lon":139.617953},{"name":"コロロ杉並少年隊","province":"東京都","city":"杉並区","address":"杉並区西荻北3-33-9","lat":35.706547,"lon":139.600343},{"name":"プレミア・ケア・ジュニア西荻窪店","province":"東京都","city":"杉並区","address":"杉並区上荻3-5-41階","lat":35.706864,"lon":139.607918},{"name":"みかんの木","province":"東京都","city":"杉並区","address":"杉並区南荻窪1-5-111階","lat":35.694962,"lon":139.617259},{"name":"放課後等デイサービスくじら","province":"東京都","city":"杉並区","address":"杉並区和泉3-22-15グランヴェール和泉101","lat":35.677813,"lon":139.647741},{"name":"プレミア・ケア・ジュニア代田橋店","province":"東京都","city":"杉並区","address":"杉並区和泉1-19-13","lat":35.674624,"lon":139.65859},{"name":"まぁぶる高井戸","province":"東京都","city":"杉並区","address":"杉並区高井戸東3-28-40小向高井戸ビル2階","lat":35.686774,"lon":139.616573},{"name":"くるみの木","province":"東京都","city":"杉並区","address":"杉並区上高井戸3-11-9","lat":35.676506,"lon":139.614629},{"name":"よりみちくらぶ　ヤギのサンダル","province":"東京都","city":"杉並区","address":"杉並区宮前2-10-42宮前ヴィレッジA棟104","lat":35.692521,"lon":139.612157},{"name":"杉並区子ども家庭支援センター","province":"東京都","city":"杉並区","address":"杉並区阿佐谷南1-14-8","lat":35.699774,"lon":139.63711},{"name":"杉並子ども家庭支援センター","province":"東京都","city":"杉並区","address":"杉並区阿佐谷南1-14-8","lat":35.69917,"lon":139.63687},{"name":"杉並子ども家庭支援センター","province":"東京都","city":"杉並区","address":"杉並区阿佐谷南1-14-8","lat":35.699774,"lon":139.63711},{"name":"＊?杉並区男女平等推進センター","province":"東京都","city":"杉並区","address":"杉並区荻窪1-56-3","lat":35.694542,"lon":139.62751},{"name":"発達支援ルーム　にこっと","province":"東京都","city":"杉並区","address":"杉並区高円寺北3-40-13BIGVALLEY2階","lat":35.710514,"lon":139.64657},{"name":"スタジオあいだっく","province":"東京都","city":"杉並区","address":"杉並区高円寺南3-1-4キングスコートII4階","lat":35.697955,"lon":139.646929},{"name":"アンソレイユ","province":"東京都","city":"杉並区","address":"杉並区高円寺南2-35-15花月第一ビル2階","lat":35.699241,"lon":139.65442},{"name":"カノン","province":"東京都","city":"杉並区","address":"杉並区高円寺南3-16-20","lat":35.700299,"lon":139.645509},{"name":"プレミア･ケア･ジュニア阿佐ヶ谷店","province":"東京都","city":"杉並区","address":"杉並区阿佐谷南2-32-9-1階","lat":35.704443,"lon":139.644173},{"name":"ハッピーテラス荻窪教室","province":"東京都","city":"杉並区","address":"杉並区阿佐谷南3-12-4","lat":35.702762,"lon":139.628675},{"name":"バンブーワァオ阿佐ヶ谷校","province":"東京都","city":"杉並区","address":"杉並区阿佐谷南1-15-18伊藤ビル201-B号室","lat":35.699937,"lon":139.636905},{"name":"フェイト","province":"東京都","city":"杉並区","address":"杉並区梅里2-40-15-301","lat":35.697946,"lon":139.639313},{"name":"フォスター","province":"東京都","city":"杉並区","address":"杉並区和田2-41-7","lat":35.691728,"lon":139.655017},{"name":"よりみちくらぶ　ネコのトランク","province":"東京都","city":"杉並区","address":"杉並区成田東4-1-26-2階","lat":35.695118,"lon":139.63363},{"name":"ドルフィンキッズ","province":"東京都","city":"杉並区","address":"杉並区天沼2-4-1井上ビル203","lat":35.705323,"lon":139.623386},{"name":"よりみちくらぶ　トラのながぐつ","province":"東京都","city":"杉並区","address":"杉並区清水1-23-23","lat":35.710822,"lon":139.617953},{"name":"コロロ杉並少年隊","province":"東京都","city":"杉並区","address":"杉並区西荻北3-33-9","lat":35.706547,"lon":139.600343},{"name":"プレミア・ケア・ジュニア西荻窪店","province":"東京都","city":"杉並区","address":"杉並区上荻3-5-41階","lat":35.706864,"lon":139.607918},{"name":"みかんの木","province":"東京都","city":"杉並区","address":"杉並区南荻窪1-5-111階","lat":35.694962,"lon":139.617259},{"name":"放課後等デイサービスくじら","province":"東京都","city":"杉並区","address":"杉並区和泉3-22-15グランヴェール和泉101","lat":35.677813,"lon":139.647741},{"name":"プレミア・ケア・ジュニア代田橋店","province":"東京都","city":"杉並区","address":"杉並区和泉1-19-13","lat":35.674624,"lon":139.65859},{"name":"まぁぶる高井戸","province":"東京都","city":"杉並区","address":"杉並区高井戸東3-28-40小向高井戸ビル2階","lat":35.686774,"lon":139.616573},{"name":"くるみの木","province":"東京都","city":"杉並区","address":"杉並区上高井戸3-11-9","lat":35.676506,"lon":139.614629},{"name":"よりみちくらぶ　ヤギのサンダル","province":"東京都","city":"杉並区","address":"杉並区宮前2-10-42宮前ヴィレッジA棟104","lat":35.692521,"lon":139.612157},{"name":"杉並区子ども家庭支援センター","province":"東京都","city":"杉並区","address":"杉並区阿佐谷南1-14-8","lat":35.699774,"lon":139.63711},{"name":"杉並子ども家庭支援センター","province":"東京都","city":"杉並区","address":"杉並区阿佐谷南1-14-8","lat":35.69917,"lon":139.63687},{"name":"杉並子ども家庭支援センター","province":"東京都","city":"杉並区","address":"杉並区阿佐谷南1-14-8","lat":35.699774,"lon":139.63711},{"name":"＊?杉並区男女平等推進センター","province":"東京都","city":"杉並区","address":"杉並区荻窪1-56-3","lat":35.694542,"lon":139.62751},{"name":"発達支援ルーム　にこっと","province":"東京都","city":"杉並区","address":"杉並区高円寺北3-40-13BIGVALLEY2階","lat":35.710514,"lon":139.64657},{"name":"スタジオあいだっく","province":"東京都","city":"杉並区","address":"杉並区高円寺南3-1-4キングスコートII4階","lat":35.697955,"lon":139.646929},{"name":"アンソレイユ","province":"東京都","city":"杉並区","address":"杉並区高円寺南2-35-15花月第一ビル2階","lat":35.699241,"lon":139.65442},{"name":"カノン","province":"東京都","city":"杉並区","address":"杉並区高円寺南3-16-20","lat":35.700299,"lon":139.645509},{"name":"プレミア･ケア･ジュニア阿佐ヶ谷店","province":"東京都","city":"杉並区","address":"杉並区阿佐谷南2-32-9-1階","lat":35.704443,"lon":139.644173},{"name":"ハッピーテラス荻窪教室","province":"東京都","city":"杉並区","address":"杉並区阿佐谷南3-12-4","lat":35.702762,"lon":139.628675},{"name":"バンブーワァオ阿佐ヶ谷校","province":"東京都","city":"杉並区","address":"杉並区阿佐谷南1-15-18伊藤ビル201-B号室","lat":35.699937,"lon":139.636905},{"name":"フェイト","province":"東京都","city":"杉並区","address":"杉並区梅里2-40-15-301","lat":35.697946,"lon":139.639313},{"name":"フォスター","province":"東京都","city":"杉並区","address":"杉並区和田2-41-7","lat":35.691728,"lon":139.655017},{"name":"よりみちくらぶ　ネコのトランク","province":"東京都","city":"杉並区","address":"杉並区成田東4-1-26-2階","lat":35.695118,"lon":139.63363},{"name":"ドルフィンキッズ","province":"東京都","city":"杉並区","address":"杉並区天沼2-4-1井上ビル203","lat":35.705323,"lon":139.623386},{"name":"よりみちくらぶ　トラのながぐつ","province":"東京都","city":"杉並区","address":"杉並区清水1-23-23","lat":35.710822,"lon":139.617953},{"name":"コロロ杉並少年隊","province":"東京都","city":"杉並区","address":"杉並区西荻北3-33-9","lat":35.706547,"lon":139.600343},{"name":"プレミア・ケア・ジュニア西荻窪店","province":"東京都","city":"杉並区","address":"杉並区上荻3-5-41階","lat":35.706864,"lon":139.607918},{"name":"みかんの木","province":"東京都","city":"杉並区","address":"杉並区南荻窪1-5-111階","lat":35.694962,"lon":139.617259},{"name":"放課後等デイサービスくじら","province":"東京都","city":"杉並区","address":"杉並区和泉3-22-15グランヴェール和泉101","lat":35.677813,"lon":139.647741},{"name":"プレミア・ケア・ジュニア代田橋店","province":"東京都","city":"杉並区","address":"杉並区和泉1-19-13","lat":35.674624,"lon":139.65859},{"name":"まぁぶる高井戸","province":"東京都","city":"杉並区","address":"杉並区高井戸東3-28-40小向高井戸ビル2階","lat":35.686774,"lon":139.616573},{"name":"くるみの木","province":"東京都","city":"杉並区","address":"杉並区上高井戸3-11-9","lat":35.676506,"lon":139.614629},{"name":"よりみちくらぶ　ヤギのサンダル","province":"東京都","city":"杉並区","address":"杉並区宮前2-10-42宮前ヴィレッジA棟104","lat":35.692521,"lon":139.612157},{"name":"杉並区子ども家庭支援センター","province":"東京都","city":"杉並区","address":"杉並区阿佐谷南1-14-8","lat":35.699774,"lon":139.63711},{"name":"杉並子ども家庭支援センター","province":"東京都","city":"杉並区","address":"杉並区阿佐谷南1-14-8","lat":35.69917,"lon":139.63687},{"name":"杉並子ども家庭支援センター","province":"東京都","city":"杉並区","address":"杉並区阿佐谷南1-14-8","lat":35.699774,"lon":139.63711},{"name":"＊?杉並区男女平等推進センター","province":"東京都","city":"杉並区","address":"杉並区荻窪1-56-3","lat":35.694542,"lon":139.62751},{"name":"発達支援ルーム　にこっと","province":"東京都","city":"杉並区","address":"杉並区高円寺北3-40-13BIGVALLEY2階","lat":35.710514,"lon":139.64657},{"name":"スタジオあいだっく","province":"東京都","city":"杉並区","address":"杉並区高円寺南3-1-4キングスコートII4階","lat":35.697955,"lon":139.646929},{"name":"アンソレイユ","province":"東京都","city":"杉並区","address":"杉並区高円寺南2-35-15花月第一ビル2階","lat":35.699241,"lon":139.65442},{"name":"カノン","province":"東京都","city":"杉並区","address":"杉並区高円寺南3-16-20","lat":35.700299,"lon":139.645509},{"name":"プレミア･ケア･ジュニア阿佐ヶ谷店","province":"東京都","city":"杉並区","address":"杉並区阿佐谷南2-32-9-1階","lat":35.704443,"lon":139.644173},{"name":"ハッピーテラス荻窪教室","province":"東京都","city":"杉並区","address":"杉並区阿佐谷南3-12-4","lat":35.702762,"lon":139.628675},{"name":"バンブーワァオ阿佐ヶ谷校","province":"東京都","city":"杉並区","address":"杉並区阿佐谷南1-15-18伊藤ビル201-B号室","lat":35.699937,"lon":139.636905},{"name":"フェイト","province":"東京都","city":"杉並区","address":"杉並区梅里2-40-15-301","lat":35.697946,"lon":139.639313},{"name":"フォスター","province":"東京都","city":"杉並区","address":"杉並区和田2-41-7","lat":35.691728,"lon":139.655017},{"name":"よりみちくらぶ　ネコのトランク","province":"東京都","city":"杉並区","address":"杉並区成田東4-1-26-2階","lat":35.695118,"lon":139.63363},{"name":"ドルフィンキッズ","province":"東京都","city":"杉並区","address":"杉並区天沼2-4-1井上ビル203","lat":35.705323,"lon":139.623386},{"name":"よりみちくらぶ　トラのながぐつ","province":"東京都","city":"杉並区","address":"杉並区清水1-23-23","lat":35.710822,"lon":139.617953},{"name":"コロロ杉並少年隊","province":"東京都","city":"杉並区","address":"杉並区西荻北3-33-9","lat":35.706547,"lon":139.600343},{"name":"プレミア・ケア・ジュニア西荻窪店","province":"東京都","city":"杉並区","address":"杉並区上荻3-5-41階","lat":35.706864,"lon":139.607918},{"name":"みかんの木","province":"東京都","city":"杉並区","address":"杉並区南荻窪1-5-111階","lat":35.694962,"lon":139.617259},{"name":"放課後等デイサービスくじら","province":"東京都","city":"杉並区","address":"杉並区和泉3-22-15グランヴェール和泉101","lat":35.677813,"lon":139.647741},{"name":"プレミア・ケア・ジュニア代田橋店","province":"東京都","city":"杉並区","address":"杉並区和泉1-19-13","lat":35.674624,"lon":139.65859},{"name":"まぁぶる高井戸","province":"東京都","city":"杉並区","address":"杉並区高井戸東3-28-40小向高井戸ビル2階","lat":35.686774,"lon":139.616573},{"name":"くるみの木","province":"東京都","city":"杉並区","address":"杉並区上高井戸3-11-9","lat":35.676506,"lon":139.614629},{"name":"よりみちくらぶ　ヤギのサンダル","province":"東京都","city":"杉並区","address":"杉並区宮前2-10-42宮前ヴィレッジA棟104","lat":35.692521,"lon":139.612157},{"name":"杉並区子ども家庭支援センター","province":"東京都","city":"杉並区","address":"杉並区阿佐谷南1-14-8","lat":35.699774,"lon":139.63711},{"name":"杉並子ども家庭支援センター","province":"東京都","city":"杉並区","address":"杉並区阿佐谷南1-14-8","lat":35.69917,"lon":139.63687},{"name":"杉並子ども家庭支援センター","province":"東京都","city":"杉並区","address":"杉並区阿佐谷南1-14-8","lat":35.699774,"lon":139.63711},{"name":"＊?杉並区男女平等推進センター","province":"東京都","city":"杉並区","address":"杉並区荻窪1-56-3","lat":35.694542,"lon":139.62751},{"name":"発達支援ルーム　にこっと","province":"東京都","city":"杉並区","address":"杉並区高円寺北3-40-13BIGVALLEY2階","lat":35.710514,"lon":139.64657},{"name":"スタジオあいだっく","province":"東京都","city":"杉並区","address":"杉並区高円寺南3-1-4キングスコートII4階","lat":35.697955,"lon":139.646929},{"name":"アンソレイユ","province":"東京都","city":"杉並区","address":"杉並区高円寺南2-35-15花月第一ビル2階","lat":35.699241,"lon":139.65442},{"name":"カノン","province":"東京都","city":"杉並区","address":"杉並区高円寺南3-16-20","lat":35.700299,"lon":139.645509},{"name":"プレミア･ケア･ジュニア阿佐ヶ谷店","province":"東京都","city":"杉並区","address":"杉並区阿佐谷南2-32-9-1階","lat":35.704443,"lon":139.644173},{"name":"ハッピーテラス荻窪教室","province":"東京都","city":"杉並区","address":"杉並区阿佐谷南3-12-4","lat":35.702762,"lon":139.628675},{"name":"バンブーワァオ阿佐ヶ谷校","province":"東京都","city":"杉並区","address":"杉並区阿佐谷南1-15-18伊藤ビル201-B号室","lat":35.699937,"lon":139.636905},{"name":"フェイト","province":"東京都","city":"杉並区","address":"杉並区梅里2-40-15-301","lat":35.697946,"lon":139.639313},{"name":"フォスター","province":"東京都","city":"杉並区","address":"杉並区和田2-41-7","lat":35.691728,"lon":139.655017},{"name":"よりみちくらぶ　ネコのトランク","province":"東京都","city":"杉並区","address":"杉並区成田東4-1-26-2階","lat":35.695118,"lon":139.63363},{"name":"ドルフィンキッズ","province":"東京都","city":"杉並区","address":"杉並区天沼2-4-1井上ビル203","lat":35.705323,"lon":139.623386},{"name":"よりみちくらぶ　トラのながぐつ","province":"東京都","city":"杉並区","address":"杉並区清水1-23-23","lat":35.710822,"lon":139.617953},{"name":"コロロ杉並少年隊","province":"東京都","city":"杉並区","address":"杉並区西荻北3-33-9","lat":35.706547,"lon":139.600343},{"name":"プレミア・ケア・ジュニア西荻窪店","province":"東京都","city":"杉並区","address":"杉並区上荻3-5-41階","lat":35.706864,"lon":139.607918},{"name":"みかんの木","province":"東京都","city":"杉並区","address":"杉並区南荻窪1-5-111階","lat":35.694962,"lon":139.617259},{"name":"放課後等デイサービスくじら","province":"東京都","city":"杉並区","address":"杉並区和泉3-22-15グランヴェール和泉101","lat":35.677813,"lon":139.647741},{"name":"プレミア・ケア・ジュニア代田橋店","province":"東京都","city":"杉並区","address":"杉並区和泉1-19-13","lat":35.674624,"lon":139.65859},{"name":"まぁぶる高井戸","province":"東京都","city":"杉並区","address":"杉並区高井戸東3-28-40小向高井戸ビル2階","lat":35.686774,"lon":139.616573},{"name":"くるみの木","province":"東京都","city":"杉並区","address":"杉並区上高井戸3-11-9","lat":35.676506,"lon":139.614629},{"name":"よりみちくらぶ　ヤギのサンダル","province":"東京都","city":"杉並区","address":"杉並区宮前2-10-42宮前ヴィレッジA棟104","lat":35.692521,"lon":139.612157},{"name":"杉並区子ども家庭支援センター","province":"東京都","city":"杉並区","address":"杉並区阿佐谷南1-14-8","lat":35.699774,"lon":139.63711},{"name":"杉並子ども家庭支援センター","province":"東京都","city":"杉並区","address":"杉並区阿佐谷南1-14-8","lat":35.69917,"lon":139.63687},{"name":"杉並子ども家庭支援センター","province":"東京都","city":"杉並区","address":"杉並区阿佐谷南1-14-8","lat":35.699774,"lon":139.63711},{"name":"＊?杉並区男女平等推進センター","province":"東京都","city":"杉並区","address":"杉並区荻窪1-56-3","lat":35.694542,"lon":139.62751},{"name":"発達支援ルーム　にこっと","province":"東京都","city":"杉並区","address":"杉並区高円寺北3-40-13BIGVALLEY2階","lat":35.710514,"lon":139.64657},{"name":"スタジオあいだっく","province":"東京都","city":"杉並区","address":"杉並区高円寺南3-1-4キングスコートII4階","lat":35.697955,"lon":139.646929},{"name":"アンソレイユ","province":"東京都","city":"杉並区","address":"杉並区高円寺南2-35-15花月第一ビル2階","lat":35.699241,"lon":139.65442},{"name":"カノン","province":"東京都","city":"杉並区","address":"杉並区高円寺南3-16-20","lat":35.700299,"lon":139.645509},{"name":"プレミア･ケア･ジュニア阿佐ヶ谷店","province":"東京都","city":"杉並区","address":"杉並区阿佐谷南2-32-9-1階","lat":35.704443,"lon":139.644173},{"name":"ハッピーテラス荻窪教室","province":"東京都","city":"杉並区","address":"杉並区阿佐谷南3-12-4","lat":35.702762,"lon":139.628675},{"name":"バンブーワァオ阿佐ヶ谷校","province":"東京都","city":"杉並区","address":"杉並区阿佐谷南1-15-18伊藤ビル201-B号室","lat":35.699937,"lon":139.636905},{"name":"フェイト","province":"東京都","city":"杉並区","address":"杉並区梅里2-40-15-301","lat":35.697946,"lon":139.639313},{"name":"フォスター","province":"東京都","city":"杉並区","address":"杉並区和田2-41-7","lat":35.691728,"lon":139.655017},{"name":"よりみちくらぶ　ネコのトランク","province":"東京都","city":"杉並区","address":"杉並区成田東4-1-26-2階","lat":35.695118,"lon":139.63363},{"name":"ドルフィンキッズ","province":"東京都","city":"杉並区","address":"杉並区天沼2-4-1井上ビル203","lat":35.705323,"lon":139.623386},{"name":"よりみちくらぶ　トラのながぐつ","province":"東京都","city":"杉並区","address":"杉並区清水1-23-23","lat":35.710822,"lon":139.617953},{"name":"コロロ杉並少年隊","province":"東京都","city":"杉並区","address":"杉並区西荻北3-33-9","lat":35.706547,"lon":139.600343},{"name":"プレミア・ケア・ジュニア西荻窪店","province":"東京都","city":"杉並区","address":"杉並区上荻3-5-41階","lat":35.706864,"lon":139.607918},{"name":"みかんの木","province":"東京都","city":"杉並区","address":"杉並区南荻窪1-5-111階","lat":35.694962,"lon":139.617259},{"name":"放課後等デイサービスくじら","province":"東京都","city":"杉並区","address":"杉並区和泉3-22-15グランヴェール和泉101","lat":35.677813,"lon":139.647741},{"name":"プレミア・ケア・ジュニア代田橋店","province":"東京都","city":"杉並区","address":"杉並区和泉1-19-13","lat":35.674624,"lon":139.65859},{"name":"まぁぶる高井戸","province":"東京都","city":"杉並区","address":"杉並区高井戸東3-28-40小向高井戸ビル2階","lat":35.686774,"lon":139.616573},{"name":"くるみの木","province":"東京都","city":"杉並区","address":"杉並区上高井戸3-11-9","lat":35.676506,"lon":139.614629},{"name":"よりみちくらぶ　ヤギのサンダル","province":"東京都","city":"杉並区","address":"杉並区宮前2-10-42宮前ヴィレッジA棟104","lat":35.692521,"lon":139.612157},{"name":"杉並区子ども家庭支援センター","province":"東京都","city":"杉並区","address":"杉並区阿佐谷南1-14-8","lat":35.699774,"lon":139.63711},{"name":"杉並子ども家庭支援センター","province":"東京都","city":"杉並区","address":"杉並区阿佐谷南1-14-8","lat":35.69917,"lon":139.63687},{"name":"杉並子ども家庭支援センター","province":"東京都","city":"杉並区","address":"杉並区阿佐谷南1-14-8","lat":35.699774,"lon":139.63711},{"name":"＊?杉並区男女平等推進センター","province":"東京都","city":"杉並区","address":"杉並区荻窪1-56-3","lat":35.694542,"lon":139.62751},{"name":"発達支援ルーム　にこっと","province":"東京都","city":"杉並区","address":"杉並区高円寺北3-40-13BIGVALLEY2階","lat":35.710514,"lon":139.64657},{"name":"スタジオあいだっく","province":"東京都","city":"杉並区","address":"杉並区高円寺南3-1-4キングスコートII4階","lat":35.697955,"lon":139.646929},{"name":"アンソレイユ","province":"東京都","city":"杉並区","address":"杉並区高円寺南2-35-15花月第一ビル2階","lat":35.699241,"lon":139.65442},{"name":"カノン","province":"東京都","city":"杉並区","address":"杉並区高円寺南3-16-20","lat":35.700299,"lon":139.645509},{"name":"プレミア･ケア･ジュニア阿佐ヶ谷店","province":"東京都","city":"杉並区","address":"杉並区阿佐谷南2-32-9-1階","lat":35.704443,"lon":139.644173},{"name":"ハッピーテラス荻窪教室","province":"東京都","city":"杉並区","address":"杉並区阿佐谷南3-12-4","lat":35.702762,"lon":139.628675},{"name":"バンブーワァオ阿佐ヶ谷校","province":"東京都","city":"杉並区","address":"杉並区阿佐谷南1-15-18伊藤ビル201-B号室","lat":35.699937,"lon":139.636905},{"name":"フェイト","province":"東京都","city":"杉並区","address":"杉並区梅里2-40-15-301","lat":35.697946,"lon":139.639313},{"name":"フォスター","province":"東京都","city":"杉並区","address":"杉並区和田2-41-7","lat":35.691728,"lon":139.655017},{"name":"よりみちくらぶ　ネコのトランク","province":"東京都","city":"杉並区","address":"杉並区成田東4-1-26-2階","lat":35.695118,"lon":139.63363},{"name":"ドルフィンキッズ","province":"東京都","city":"杉並区","address":"杉並区天沼2-4-1井上ビル203","lat":35.705323,"lon":139.623386},{"name":"よりみちくらぶ　トラのながぐつ","province":"東京都","city":"杉並区","address":"杉並区清水1-23-23","lat":35.710822,"lon":139.617953},{"name":"コロロ杉並少年隊","province":"東京都","city":"杉並区","address":"杉並区西荻北3-33-9","lat":35.706547,"lon":139.600343},{"name":"プレミア・ケア・ジュニア西荻窪店","province":"東京都","city":"杉並区","address":"杉並区上荻3-5-41階","lat":35.706864,"lon":139.607918},{"name":"みかんの木","province":"東京都","city":"杉並区","address":"杉並区南荻窪1-5-111階","lat":35.694962,"lon":139.617259},{"name":"放課後等デイサービスくじら","province":"東京都","city":"杉並区","address":"杉並区和泉3-22-15グランヴェール和泉101","lat":35.677813,"lon":139.647741},{"name":"プレミア・ケア・ジュニア代田橋店","province":"東京都","city":"杉並区","address":"杉並区和泉1-19-13","lat":35.674624,"lon":139.65859},{"name":"まぁぶる高井戸","province":"東京都","city":"杉並区","address":"杉並区高井戸東3-28-40小向高井戸ビル2階","lat":35.686774,"lon":139.616573},{"name":"くるみの木","province":"東京都","city":"杉並区","address":"杉並区上高井戸3-11-9","lat":35.676506,"lon":139.614629},{"name":"よりみちくらぶ　ヤギのサンダル","province":"東京都","city":"杉並区","address":"杉並区宮前2-10-42宮前ヴィレッジA棟104","lat":35.692521,"lon":139.612157},{"name":"杉並区子ども家庭支援センター","province":"東京都","city":"杉並区","address":"杉並区阿佐谷南1-14-8","lat":35.699774,"lon":139.63711},{"name":"杉並子ども家庭支援センター","province":"東京都","city":"杉並区","address":"杉並区阿佐谷南1-14-8","lat":35.69917,"lon":139.63687},{"name":"杉並子ども家庭支援センター","province":"東京都","city":"杉並区","address":"杉並区阿佐谷南1-14-8","lat":35.699774,"lon":139.63711},{"name":"＊?杉並区男女平等推進センター","province":"東京都","city":"杉並区","address":"杉並区荻窪1-56-3","lat":35.694542,"lon":139.62751},{"name":"発達支援ルーム　にこっと","province":"東京都","city":"杉並区","address":"杉並区高円寺北3-40-13BIGVALLEY2階","lat":35.710514,"lon":139.64657},{"name":"スタジオあいだっく","province":"東京都","city":"杉並区","address":"杉並区高円寺南3-1-4キングスコートII4階","lat":35.697955,"lon":139.646929},{"name":"アンソレイユ","province":"東京都","city":"杉並区","address":"杉並区高円寺南2-35-15花月第一ビル2階","lat":35.699241,"lon":139.65442},{"name":"カノン","province":"東京都","city":"杉並区","address":"杉並区高円寺南3-16-20","lat":35.700299,"lon":139.645509},{"name":"プレミア･ケア･ジュニア阿佐ヶ谷店","province":"東京都","city":"杉並区","address":"杉並区阿佐谷南2-32-9-1階","lat":35.704443,"lon":139.644173},{"name":"ハッピーテラス荻窪教室","province":"東京都","city":"杉並区","address":"杉並区阿佐谷南3-12-4","lat":35.702762,"lon":139.628675},{"name":"バンブーワァオ阿佐ヶ谷校","province":"東京都","city":"杉並区","address":"杉並区阿佐谷南1-15-18伊藤ビル201-B号室","lat":35.699937,"lon":139.636905},{"name":"フェイト","province":"東京都","city":"杉並区","address":"杉並区梅里2-40-15-301","lat":35.697946,"lon":139.639313},{"name":"フォスター","province":"東京都","city":"杉並区","address":"杉並区和田2-41-7","lat":35.691728,"lon":139.655017},{"name":"よりみちくらぶ　ネコのトランク","province":"東京都","city":"杉並区","address":"杉並区成田東4-1-26-2階","lat":35.695118,"lon":139.63363},{"name":"ドルフィンキッズ","province":"東京都","city":"杉並区","address":"杉並区天沼2-4-1井上ビル203","lat":35.705323,"lon":139.623386},{"name":"よりみちくらぶ　トラのながぐつ","province":"東京都","city":"杉並区","address":"杉並区清水1-23-23","lat":35.710822,"lon":139.617953},{"name":"コロロ杉並少年隊","province":"東京都","city":"杉並区","address":"杉並区西荻北3-33-9","lat":35.706547,"lon":139.600343},{"name":"プレミア・ケア・ジュニア西荻窪店","province":"東京都","city":"杉並区","address":"杉並区上荻3-5-41階","lat":35.706864,"lon":139.607918},{"name":"みかんの木","province":"東京都","city":"杉並区","address":"杉並区南荻窪1-5-111階","lat":35.694962,"lon":139.617259},{"name":"放課後等デイサービスくじら","province":"東京都","city":"杉並区","address":"杉並区和泉3-22-15グランヴェール和泉101","lat":35.677813,"lon":139.647741},{"name":"プレミア・ケア・ジュニア代田橋店","province":"東京都","city":"杉並区","address":"杉並区和泉1-19-13","lat":35.674624,"lon":139.65859},{"name":"まぁぶる高井戸","province":"東京都","city":"杉並区","address":"杉並区高井戸東3-28-40小向高井戸ビル2階","lat":35.686774,"lon":139.616573},{"name":"くるみの木","province":"東京都","city":"杉並区","address":"杉並区上高井戸3-11-9","lat":35.676506,"lon":139.614629},{"name":"よりみちくらぶ　ヤギのサンダル","province":"東京都","city":"杉並区","address":"杉並区宮前2-10-42宮前ヴィレッジA棟104","lat":35.692521,"lon":139.612157},{"name":"杉並区子ども家庭支援センター","province":"東京都","city":"杉並区","address":"杉並区阿佐谷南1-14-8","lat":35.699774,"lon":139.63711},{"name":"杉並子ども家庭支援センター","province":"東京都","city":"杉並区","address":"杉並区阿佐谷南1-14-8","lat":35.69917,"lon":139.63687},{"name":"杉並子ども家庭支援センター","province":"東京都","city":"杉並区","address":"杉並区阿佐谷南1-14-8","lat":35.699774,"lon":139.63711},{"name":"＊?杉並区男女平等推進センター","province":"東京都","city":"杉並区","address":"杉並区荻窪1-56-3","lat":35.694542,"lon":139.62751},{"name":"発達支援ルーム　にこっと","province":"東京都","city":"杉並区","address":"杉並区高円寺北3-40-13BIGVALLEY2階","lat":35.710514,"lon":139.64657},{"name":"スタジオあいだっく","province":"東京都","city":"杉並区","address":"杉並区高円寺南3-1-4キングスコートII4階","lat":35.697955,"lon":139.646929},{"name":"アンソレイユ","province":"東京都","city":"杉並区","address":"杉並区高円寺南2-35-15花月第一ビル2階","lat":35.699241,"lon":139.65442},{"name":"カノン","province":"東京都","city":"杉並区","address":"杉並区高円寺南3-16-20","lat":35.700299,"lon":139.645509},{"name":"プレミア･ケア･ジュニア阿佐ヶ谷店","province":"東京都","city":"杉並区","address":"杉並区阿佐谷南2-32-9-1階","lat":35.704443,"lon":139.644173},{"name":"ハッピーテラス荻窪教室","province":"東京都","city":"杉並区","address":"杉並区阿佐谷南3-12-4","lat":35.702762,"lon":139.628675},{"name":"バンブーワァオ阿佐ヶ谷校","province":"東京都","city":"杉並区","address":"杉並区阿佐谷南1-15-18伊藤ビル201-B号室","lat":35.699937,"lon":139.636905},{"name":"フェイト","province":"東京都","city":"杉並区","address":"杉並区梅里2-40-15-301","lat":35.697946,"lon":139.639313},{"name":"フォスター","province":"東京都","city":"杉並区","address":"杉並区和田2-41-7","lat":35.691728,"lon":139.655017},{"name":"よりみちくらぶ　ネコのトランク","province":"東京都","city":"杉並区","address":"杉並区成田東4-1-26-2階","lat":35.695118,"lon":139.63363},{"name":"ドルフィンキッズ","province":"東京都","city":"杉並区","address":"杉並区天沼2-4-1井上ビル203","lat":35.705323,"lon":139.623386},{"name":"よりみちくらぶ　トラのながぐつ","province":"東京都","city":"杉並区","address":"杉並区清水1-23-23","lat":35.710822,"lon":139.617953},{"name":"コロロ杉並少年隊","province":"東京都","city":"杉並区","address":"杉並区西荻北3-33-9","lat":35.706547,"lon":139.600343},{"name":"プレミア・ケア・ジュニア西荻窪店","province":"東京都","city":"杉並区","address":"杉並区上荻3-5-41階","lat":35.706864,"lon":139.607918},{"name":"みかんの木","province":"東京都","city":"杉並区","address":"杉並区南荻窪1-5-111階","lat":35.694962,"lon":139.617259},{"name":"放課後等デイサービスくじら","province":"東京都","city":"杉並区","address":"杉並区和泉3-22-15グランヴェール和泉101","lat":35.677813,"lon":139.647741},{"name":"プレミア・ケア・ジュニア代田橋店","province":"東京都","city":"杉並区","address":"杉並区和泉1-19-13","lat":35.674624,"lon":139.65859},{"name":"まぁぶる高井戸","province":"東京都","city":"杉並区","address":"杉並区高井戸東3-28-40小向高井戸ビル2階","lat":35.686774,"lon":139.616573},{"name":"くるみの木","province":"東京都","city":"杉並区","address":"杉並区上高井戸3-11-9","lat":35.676506,"lon":139.614629},{"name":"よりみちくらぶ　ヤギのサンダル","province":"東京都","city":"杉並区","address":"杉並区宮前2-10-42宮前ヴィレッジA棟104","lat":35.692521,"lon":139.612157},{"name":"杉並区子ども家庭支援センター","province":"東京都","city":"杉並区","address":"杉並区阿佐谷南1-14-8","lat":35.699774,"lon":139.63711},{"name":"杉並子ども家庭支援センター","province":"東京都","city":"杉並区","address":"杉並区阿佐谷南1-14-8","lat":35.69917,"lon":139.63687},{"name":"杉並子ども家庭支援センター","province":"東京都","city":"杉並区","address":"杉並区阿佐谷南1-14-8","lat":35.699774,"lon":139.63711},{"name":"＊?杉並区男女平等推進センター","province":"東京都","city":"杉並区","address":"杉並区荻窪1-56-3","lat":35.694542,"lon":139.62751},{"name":"発達支援ルーム　にこっと","province":"東京都","city":"杉並区","address":"杉並区高円寺北3-40-13BIGVALLEY2階","lat":35.710514,"lon":139.64657},{"name":"スタジオあいだっく","province":"東京都","city":"杉並区","address":"杉並区高円寺南3-1-4キングスコートII4階","lat":35.697955,"lon":139.646929},{"name":"アンソレイユ","province":"東京都","city":"杉並区","address":"杉並区高円寺南2-35-15花月第一ビル2階","lat":35.699241,"lon":139.65442},{"name":"カノン","province":"東京都","city":"杉並区","address":"杉並区高円寺南3-16-20","lat":35.700299,"lon":139.645509},{"name":"プレミア･ケア･ジュニア阿佐ヶ谷店","province":"東京都","city":"杉並区","address":"杉並区阿佐谷南2-32-9-1階","lat":35.704443,"lon":139.644173},{"name":"ハッピーテラス荻窪教室","province":"東京都","city":"杉並区","address":"杉並区阿佐谷南3-12-4","lat":35.702762,"lon":139.628675},{"name":"バンブーワァオ阿佐ヶ谷校","province":"東京都","city":"杉並区","address":"杉並区阿佐谷南1-15-18伊藤ビル201-B号室","lat":35.699937,"lon":139.636905},{"name":"フェイト","province":"東京都","city":"杉並区","address":"杉並区梅里2-40-15-301","lat":35.697946,"lon":139.639313},{"name":"フォスター","province":"東京都","city":"杉並区","address":"杉並区和田2-41-7","lat":35.691728,"lon":139.655017},{"name":"よりみちくらぶ　ネコのトランク","province":"東京都","city":"杉並区","address":"杉並区成田東4-1-26-2階","lat":35.695118,"lon":139.63363},{"name":"ドルフィンキッズ","province":"東京都","city":"杉並区","address":"杉並区天沼2-4-1井上ビル203","lat":35.705323,"lon":139.623386},{"name":"よりみちくらぶ　トラのながぐつ","province":"東京都","city":"杉並区","address":"杉並区清水1-23-23","lat":35.710822,"lon":139.617953},{"name":"コロロ杉並少年隊","province":"東京都","city":"杉並区","address":"杉並区西荻北3-33-9","lat":35.706547,"lon":139.600343},{"name":"プレミア・ケア・ジュニア西荻窪店","province":"東京都","city":"杉並区","address":"杉並区上荻3-5-41階","lat":35.706864,"lon":139.607918},{"name":"みかんの木","province":"東京都","city":"杉並区","address":"杉並区南荻窪1-5-111階","lat":35.694962,"lon":139.617259},{"name":"放課後等デイサービスくじら","province":"東京都","city":"杉並区","address":"杉並区和泉3-22-15グランヴェール和泉101","lat":35.677813,"lon":139.647741},{"name":"プレミア・ケア・ジュニア代田橋店","province":"東京都","city":"杉並区","address":"杉並区和泉1-19-13","lat":35.674624,"lon":139.65859},{"name":"まぁぶる高井戸","province":"東京都","city":"杉並区","address":"杉並区高井戸東3-28-40小向高井戸ビル2階","lat":35.686774,"lon":139.616573},{"name":"くるみの木","province":"東京都","city":"杉並区","address":"杉並区上高井戸3-11-9","lat":35.676506,"lon":139.614629},{"name":"よりみちくらぶ　ヤギのサンダル","province":"東京都","city":"杉並区","address":"杉並区宮前2-10-42宮前ヴィレッジA棟104","lat":35.692521,"lon":139.612157},{"name":"杉並区子ども家庭支援センター","province":"東京都","city":"杉並区","address":"杉並区阿佐谷南1-14-8","lat":35.699774,"lon":139.63711},{"name":"杉並子ども家庭支援センター","province":"東京都","city":"杉並区","address":"杉並区阿佐谷南1-14-8","lat":35.69917,"lon":139.63687},{"name":"杉並子ども家庭支援センター","province":"東京都","city":"杉並区","address":"杉並区阿佐谷南1-14-8","lat":35.699774,"lon":139.63711},{"name":"＊?杉並区男女平等推進センター","province":"東京都","city":"杉並区","address":"杉並区荻窪1-56-3","lat":35.694542,"lon":139.62751},{"name":"発達支援ルーム　にこっと","province":"東京都","city":"杉並区","address":"杉並区高円寺北3-40-13BIGVALLEY2階","lat":35.710514,"lon":139.64657},{"name":"スタジオあいだっく","province":"東京都","city":"杉並区","address":"杉並区高円寺南3-1-4キングスコートII4階","lat":35.697955,"lon":139.646929},{"name":"アンソレイユ","province":"東京都","city":"杉並区","address":"杉並区高円寺南2-35-15花月第一ビル2階","lat":35.699241,"lon":139.65442},{"name":"カノン","province":"東京都","city":"杉並区","address":"杉並区高円寺南3-16-20","lat":35.700299,"lon":139.645509},{"name":"プレミア･ケア･ジュニア阿佐ヶ谷店","province":"東京都","city":"杉並区","address":"杉並区阿佐谷南2-32-9-1階","lat":35.704443,"lon":139.644173},{"name":"ハッピーテラス荻窪教室","province":"東京都","city":"杉並区","address":"杉並区阿佐谷南3-12-4","lat":35.702762,"lon":139.628675},{"name":"バンブーワァオ阿佐ヶ谷校","province":"東京都","city":"杉並区","address":"杉並区阿佐谷南1-15-18伊藤ビル201-B号室","lat":35.699937,"lon":139.636905},{"name":"フェイト","province":"東京都","city":"杉並区","address":"杉並区梅里2-40-15-301","lat":35.697946,"lon":139.639313},{"name":"フォスター","province":"東京都","city":"杉並区","address":"杉並区和田2-41-7","lat":35.691728,"lon":139.655017},{"name":"よりみちくらぶ　ネコのトランク","province":"東京都","city":"杉並区","address":"杉並区成田東4-1-26-2階","lat":35.695118,"lon":139.63363},{"name":"ドルフィンキッズ","province":"東京都","city":"杉並区","address":"杉並区天沼2-4-1井上ビル203","lat":35.705323,"lon":139.623386},{"name":"よりみちくらぶ　トラのながぐつ","province":"東京都","city":"杉並区","address":"杉並区清水1-23-23","lat":35.710822,"lon":139.617953},{"name":"コロロ杉並少年隊","province":"東京都","city":"杉並区","address":"杉並区西荻北3-33-9","lat":35.706547,"lon":139.600343},{"name":"プレミア・ケア・ジュニア西荻窪店","province":"東京都","city":"杉並区","address":"杉並区上荻3-5-41階","lat":35.706864,"lon":139.607918},{"name":"みかんの木","province":"東京都","city":"杉並区","address":"杉並区南荻窪1-5-111階","lat":35.694962,"lon":139.617259},{"name":"放課後等デイサービスくじら","province":"東京都","city":"杉並区","address":"杉並区和泉3-22-15グランヴェール和泉101","lat":35.677813,"lon":139.647741},{"name":"プレミア・ケア・ジュニア代田橋店","province":"東京都","city":"杉並区","address":"杉並区和泉1-19-13","lat":35.674624,"lon":139.65859},{"name":"まぁぶる高井戸","province":"東京都","city":"杉並区","address":"杉並区高井戸東3-28-40小向高井戸ビル2階","lat":35.686774,"lon":139.616573},{"name":"くるみの木","province":"東京都","city":"杉並区","address":"杉並区上高井戸3-11-9","lat":35.676506,"lon":139.614629},{"name":"よりみちくらぶ　ヤギのサンダル","province":"東京都","city":"杉並区","address":"杉並区宮前2-10-42宮前ヴィレッジA棟104","lat":35.692521,"lon":139.612157},{"name":"杉並区子ども家庭支援センター","province":"東京都","city":"杉並区","address":"杉並区阿佐谷南1-14-8","lat":35.699774,"lon":139.63711},{"name":"杉並子ども家庭支援センター","province":"東京都","city":"杉並区","address":"杉並区阿佐谷南1-14-8","lat":35.69917,"lon":139.63687},{"name":"杉並子ども家庭支援センター","province":"東京都","city":"杉並区","address":"杉並区阿佐谷南1-14-8","lat":35.699774,"lon":139.63711},{"name":"＊?杉並区男女平等推進センター","province":"東京都","city":"杉並区","address":"杉並区荻窪1-56-3","lat":35.694542,"lon":139.62751},{"name":"発達支援ルーム　にこっと","province":"東京都","city":"杉並区","address":"杉並区高円寺北3-40-13BIGVALLEY2階","lat":35.710514,"lon":139.64657},{"name":"スタジオあいだっく","province":"東京都","city":"杉並区","address":"杉並区高円寺南3-1-4キングスコートII4階","lat":35.697955,"lon":139.646929},{"name":"アンソレイユ","province":"東京都","city":"杉並区","address":"杉並区高円寺南2-35-15花月第一ビル2階","lat":35.699241,"lon":139.65442},{"name":"カノン","province":"東京都","city":"杉並区","address":"杉並区高円寺南3-16-20","lat":35.700299,"lon":139.645509},{"name":"プレミア･ケア･ジュニア阿佐ヶ谷店","province":"東京都","city":"杉並区","address":"杉並区阿佐谷南2-32-9-1階","lat":35.704443,"lon":139.644173},{"name":"ハッピーテラス荻窪教室","province":"東京都","city":"杉並区","address":"杉並区阿佐谷南3-12-4","lat":35.702762,"lon":139.628675},{"name":"バンブーワァオ阿佐ヶ谷校","province":"東京都","city":"杉並区","address":"杉並区阿佐谷南1-15-18伊藤ビル201-B号室","lat":35.699937,"lon":139.636905},{"name":"フェイト","province":"東京都","city":"杉並区","address":"杉並区梅里2-40-15-301","lat":35.697946,"lon":139.639313},{"name":"フォスター","province":"東京都","city":"杉並区","address":"杉並区和田2-41-7","lat":35.691728,"lon":139.655017},{"name":"よりみちくらぶ　ネコのトランク","province":"東京都","city":"杉並区","address":"杉並区成田東4-1-26-2階","lat":35.695118,"lon":139.63363},{"name":"ドルフィンキッズ","province":"東京都","city":"杉並区","address":"杉並区天沼2-4-1井上ビル203","lat":35.705323,"lon":139.623386},{"name":"よりみちくらぶ　トラのながぐつ","province":"東京都","city":"杉並区","address":"杉並区清水1-23-23","lat":35.710822,"lon":139.617953},{"name":"コロロ杉並少年隊","province":"東京都","city":"杉並区","address":"杉並区西荻北3-33-9","lat":35.706547,"lon":139.600343},{"name":"プレミア・ケア・ジュニア西荻窪店","province":"東京都","city":"杉並区","address":"杉並区上荻3-5-41階","lat":35.706864,"lon":139.607918},{"name":"みかんの木","province":"東京都","city":"杉並区","address":"杉並区南荻窪1-5-111階","lat":35.694962,"lon":139.617259},{"name":"放課後等デイサービスくじら","province":"東京都","city":"杉並区","address":"杉並区和泉3-22-15グランヴェール和泉101","lat":35.677813,"lon":139.647741},{"name":"プレミア・ケア・ジュニア代田橋店","province":"東京都","city":"杉並区","address":"杉並区和泉1-19-13","lat":35.674624,"lon":139.65859},{"name":"まぁぶる高井戸","province":"東京都","city":"杉並区","address":"杉並区高井戸東3-28-40小向高井戸ビル2階","lat":35.686774,"lon":139.616573},{"name":"くるみの木","province":"東京都","city":"杉並区","address":"杉並区上高井戸3-11-9","lat":35.676506,"lon":139.614629},{"name":"よりみちくらぶ　ヤギのサンダル","province":"東京都","city":"杉並区","address":"杉並区宮前2-10-42宮前ヴィレッジA棟104","lat":35.692521,"lon":139.612157},{"name":"杉並区子ども家庭支援センター","province":"東京都","city":"杉並区","address":"杉並区阿佐谷南1-14-8","lat":35.699774,"lon":139.63711},{"name":"杉並子ども家庭支援センター","province":"東京都","city":"杉並区","address":"杉並区阿佐谷南1-14-8","lat":35.69917,"lon":139.63687},{"name":"杉並子ども家庭支援センター","province":"東京都","city":"杉並区","address":"杉並区阿佐谷南1-14-8","lat":35.699774,"lon":139.63711},{"name":"＊?杉並区男女平等推進センター","province":"東京都","city":"杉並区","address":"杉並区荻窪1-56-3","lat":35.694542,"lon":139.62751},{"name":"発達支援ルーム　にこっと","province":"東京都","city":"杉並区","address":"杉並区高円寺北3-40-13BIGVALLEY2階","lat":35.710514,"lon":139.64657},{"name":"スタジオあいだっく","province":"東京都","city":"杉並区","address":"杉並区高円寺南3-1-4キングスコートII4階","lat":35.697955,"lon":139.646929},{"name":"アンソレイユ","province":"東京都","city":"杉並区","address":"杉並区高円寺南2-35-15花月第一ビル2階","lat":35.699241,"lon":139.65442},{"name":"カノン","province":"東京都","city":"杉並区","address":"杉並区高円寺南3-16-20","lat":35.700299,"lon":139.645509},{"name":"プレミア･ケア･ジュニア阿佐ヶ谷店","province":"東京都","city":"杉並区","address":"杉並区阿佐谷南2-32-9-1階","lat":35.704443,"lon":139.644173},{"name":"ハッピーテラス荻窪教室","province":"東京都","city":"杉並区","address":"杉並区阿佐谷南3-12-4","lat":35.702762,"lon":139.628675},{"name":"バンブーワァオ阿佐ヶ谷校","province":"東京都","city":"杉並区","address":"杉並区阿佐谷南1-15-18伊藤ビル201-B号室","lat":35.699937,"lon":139.636905},{"name":"フェイト","province":"東京都","city":"杉並区","address":"杉並区梅里2-40-15-301","lat":35.697946,"lon":139.639313},{"name":"フォスター","province":"東京都","city":"杉並区","address":"杉並区和田2-41-7","lat":35.691728,"lon":139.655017},{"name":"よりみちくらぶ　ネコのトランク","province":"東京都","city":"杉並区","address":"杉並区成田東4-1-26-2階","lat":35.695118,"lon":139.63363},{"name":"ドルフィンキッズ","province":"東京都","city":"杉並区","address":"杉並区天沼2-4-1井上ビル203","lat":35.705323,"lon":139.623386},{"name":"よりみちくらぶ　トラのながぐつ","province":"東京都","city":"杉並区","address":"杉並区清水1-23-23","lat":35.710822,"lon":139.617953},{"name":"コロロ杉並少年隊","province":"東京都","city":"杉並区","address":"杉並区西荻北3-33-9","lat":35.706547,"lon":139.600343},{"name":"プレミア・ケア・ジュニア西荻窪店","province":"東京都","city":"杉並区","address":"杉並区上荻3-5-41階","lat":35.706864,"lon":139.607918},{"name":"みかんの木","province":"東京都","city":"杉並区","address":"杉並区南荻窪1-5-111階","lat":35.694962,"lon":139.617259},{"name":"放課後等デイサービスくじら","province":"東京都","city":"杉並区","address":"杉並区和泉3-22-15グランヴェール和泉101","lat":35.677813,"lon":139.647741},{"name":"プレミア・ケア・ジュニア代田橋店","province":"東京都","city":"杉並区","address":"杉並区和泉1-19-13","lat":35.674624,"lon":139.65859},{"name":"まぁぶる高井戸","province":"東京都","city":"杉並区","address":"杉並区高井戸東3-28-40小向高井戸ビル2階","lat":35.686774,"lon":139.616573},{"name":"くるみの木","province":"東京都","city":"杉並区","address":"杉並区上高井戸3-11-9","lat":35.676506,"lon":139.614629},{"name":"よりみちくらぶ　ヤギのサンダル","province":"東京都","city":"杉並区","address":"杉並区宮前2-10-42宮前ヴィレッジA棟104","lat":35.692521,"lon":139.612157},{"name":"杉並区子ども家庭支援センター","province":"東京都","city":"杉並区","address":"杉並区阿佐谷南1-14-8","lat":35.699774,"lon":139.63711},{"name":"杉並子ども家庭支援センター","province":"東京都","city":"杉並区","address":"杉並区阿佐谷南1-14-8","lat":35.69917,"lon":139.63687},{"name":"杉並子ども家庭支援センター","province":"東京都","city":"杉並区","address":"杉並区阿佐谷南1-14-8","lat":35.699774,"lon":139.63711},{"name":"＊?杉並区男女平等推進センター","province":"東京都","city":"杉並区","address":"杉並区荻窪1-56-3","lat":35.694542,"lon":139.62751}]}