{"keyword":"椅子","data":[{"name":"杉並都税事務所","province":"東京都","city":"杉並区","address":"東京都杉並区成田東5丁目39-11","lat":35.6997545,"lon":139.6343111},{"name":"玉川上水緑道","province":"東京都","city":"杉並区","address":"東京都杉並区久我山1丁目6","lat":35.683177,"lon":139.598738},{"name":"和田堀公園","province":"東京都","city":"杉並区","address":"東京都杉並区松ノ木1丁目1","lat":35.686177,"lon":139.644324},{"name":"和田堀公園","province":"東京都","city":"杉並区","address":"東京都杉並区堀ノ内1丁目16","lat":35.68647,"lon":139.647528},{"name":"和田堀公園","province":"東京都","city":"杉並区","address":"東京都杉並区大宮2丁目23","lat":35.683919,"lon":139.640202},{"name":"和田堀公園","province":"東京都","city":"杉並区","address":"東京都杉並区大宮2丁目26","lat":35.685016,"lon":139.642044},{"name":"和田堀公園","province":"東京都","city":"杉並区","address":"東京都杉並区堀ノ内1丁目15","lat":35.685231,"lon":139.647239},{"name":"和田堀公園","province":"東京都","city":"杉並区","address":"東京都杉並区堀ノ内1丁目15","lat":35.68456,"lon":139.648777},{"name":"善福寺公園","province":"東京都","city":"杉並区","address":"東京都杉並区善福寺3丁目18","lat":35.715095,"lon":139.591038},{"name":"善福寺公園","province":"東京都","city":"杉並区","address":"東京都杉並区善福寺2丁目31","lat":35.713782,"lon":139.591559},{"name":"善福寺川緑地","province":"東京都","city":"杉並区","address":"東京都杉並区成田西3丁目14","lat":35.692867,"lon":139.629848},{"name":"善福寺川緑地","province":"東京都","city":"杉並区","address":"東京都杉並区成田西1丁目30","lat":35.690553,"lon":139.632223},{"name":"善福寺川緑地","province":"東京都","city":"杉並区","address":"東京都杉並区成田東2丁目7","lat":35.687682,"lon":139.632694},{"name":"善福寺川緑地","province":"東京都","city":"杉並区","address":"東京都杉並区成田東2丁目7","lat":35.686292,"lon":139.635009},{"name":"善福寺川緑地","province":"東京都","city":"杉並区","address":"東京都杉並区成田西3丁目1","lat":35.692532,"lon":139.633296},{"name":"高井戸公園","province":"東京都","city":"杉並区","address":"東京都杉並区久我山2丁目19","lat":35.684703,"lon":139.603839},{"name":"高井戸公園","province":"東京都","city":"杉並区","address":"東京都杉並区久我山2丁目19","lat":35.68467,"lon":139.60379},{"name":"高井戸公園","province":"東京都","city":"杉並区","address":"東京都杉並区久我山2丁目2","lat":35.681746,"lon":139.603575},{"name":"高井戸公園","province":"東京都","city":"杉並区","address":"東京都杉並区久我山2丁目2","lat":35.682333,"lon":139.605266},{"name":"東京都水道局和泉庁舎（西部支所）","province":"東京都","city":"杉並区","address":"東京都杉並区和泉3丁目8-10","lat":35.675394,"lon":139.646118},{"name":"杉並消防署永福出張所","province":"東京都","city":"杉並区","address":"東京都杉並区下高井戸2丁目21-37","lat":35.669038,"lon":139.641531},{"name":"荻窪消防署下井草出張所","province":"東京都","city":"杉並区","address":"東京都杉並区下井草3丁目30-10","lat":35.722496,"lon":139.624086},{"name":"杉並消防署　高円寺出張所","province":"東京都","city":"杉並区","address":"東京都杉並区高円寺南5丁目33-8","lat":35.705284,"lon":139.655129},{"name":"杉並区立井草地域区民センター","province":"東京都","city":"杉並区","address":"東京都杉並区下井草5丁目7-22","lat":35.720601,"lon":139.616497},{"name":"杉並区役所本庁舎","province":"東京都","city":"杉並区","address":"東京都杉並区阿佐谷南1丁目15-1","lat":35.699742,"lon":139.63618},{"name":"杉並区役所本庁舎","province":"東京都","city":"杉並区","address":"東京都杉並区阿佐谷南1丁目15-1","lat":35.699865,"lon":139.636207},{"name":"杉並区役所分庁舎","province":"東京都","city":"杉並区","address":"東京都杉並区成田東4丁目36-13","lat":35.69849,"lon":139.637514},{"name":"井草区民事務所","province":"東京都","city":"杉並区","address":"東京都杉並区下井草4丁目30-2","lat":35.723391,"lon":139.618898},{"name":"杉並区立井草地域区民センター","province":"東京都","city":"杉並区","address":"東京都杉並区下井草5丁目7-22","lat":35.720559,"lon":139.616484},{"name":"西荻地域区民センター","province":"東京都","city":"杉並区","address":"東京都杉並区桃井4丁目3-2","lat":35.712566,"lon":139.602083},{"name":"杉並区立四宮区民集会所","province":"東京都","city":"杉並区","address":"東京都杉並区上井草2丁目28-13","lat":35.72287,"lon":139.608675},{"name":"杉並区立八成区民集会所","province":"東京都","city":"杉並区","address":"東京都杉並区井草1丁目3-2","lat":35.724397,"lon":139.621799},{"name":"荻窪地域区民センター","province":"東京都","city":"杉並区","address":"東京都杉並区荻窪2丁目34-20","lat":35.698583,"lon":139.618972},{"name":"荻窪地域区民センター","province":"東京都","city":"杉並区","address":"東京都杉並区荻窪2丁目34-20","lat":35.698517,"lon":139.618979},{"name":"本天沼区民集会所","province":"東京都","city":"杉並区","address":"東京都杉並区本天沼2丁目12-10","lat":35.712585,"lon":139.624282},{"name":"杉並区立梅里区民集会所","province":"東京都","city":"杉並区","address":"東京都杉並区梅里2丁目34-20","lat":35.69635,"lon":139.641493},{"name":"杉並区立馬橋区民集会所","province":"東京都","city":"杉並区","address":"東京都杉並区高円寺南3丁目29-5","lat":35.701983,"lon":139.64391},{"name":"高円寺北区民集会所","province":"東京都","city":"杉並区","address":"東京都杉並区高円寺北3丁目25-9","lat":35.707648,"lon":139.648395},{"name":"高井戸市民センター","province":"東京都","city":"杉並区","address":"東京都杉並区高井戸東3丁目7-5","lat":35.683622,"lon":139.616663},{"name":"高井戸市民センター","province":"東京都","city":"杉並区","address":"東京都杉並区高井戸東3丁目7-5","lat":35.683862,"lon":139.616687},{"name":"上高井戸区民集会所","province":"東京都","city":"杉並区","address":"東京都杉並区上高井戸1丁目15-5","lat":35.671111,"lon":139.612538},{"name":"久我山会館","province":"東京都","city":"杉並区","address":"東京都杉並区久我山3丁目23-20","lat":35.686645,"lon":139.599444},{"name":"浜田山会館","province":"東京都","city":"杉並区","address":"東京都杉並区浜田山1丁目36-3","lat":35.680502,"lon":139.630101},{"name":"永福和泉地域区民センター","province":"東京都","city":"杉並区","address":"東京都杉並区和泉3丁目8-18","lat":35.675696,"lon":139.645909},{"name":"コミュニティふらっと方南","province":"東京都","city":"杉並区","address":"東京都杉並区方南1丁目27","lat":35.67666,"lon":139.658833},{"name":"下高井戸区民集会所","province":"東京都","city":"杉並区","address":"東京都杉並区下高井戸3丁目26-1","lat":35.672319,"lon":139.636027},{"name":"方南会館","province":"東京都","city":"杉並区","address":"東京都杉並区和泉4丁目42-5","lat":35.68099,"lon":139.656028},{"name":"ゆうゆう荻窪館","province":"東京都","city":"杉並区","address":"東京都杉並区南荻窪2丁目25-17","lat":35.698765,"lon":139.612592},{"name":"ゆうゆう天沼館","province":"東京都","city":"杉並区","address":"東京都杉並区天沼2丁目42-9","lat":35.710834,"lon":139.626296},{"name":"ゆうゆう高円寺南館","province":"東京都","city":"杉並区","address":"東京都杉並区高円寺南4丁目44-11","lat":35.70498,"lon":139.651186},{"name":"ゆうゆう梅里堀ノ内館","province":"東京都","city":"杉並区","address":"東京都杉並区堀ノ内3丁目37-4","lat":35.693246,"lon":139.649793},{"name":"ゆうゆう久我山館","province":"東京都","city":"杉並区","address":"東京都杉並区久我山5丁目8-8","lat":35.688484,"lon":139.60154},{"name":"ゆうゆう上荻窪館","province":"東京都","city":"杉並区","address":"東京都杉並区上荻3丁目16","lat":35.708699,"lon":139.607857},{"name":"ゆうゆう下高井戸館","province":"東京都","city":"杉並区","address":"東京都杉並区下高井戸4丁目19-6","lat":35.673153,"lon":139.630435},{"name":"ゆうゆう堀ノ内松ノ木館","province":"東京都","city":"杉並区","address":"東京都杉並区松ノ木2丁目38-6","lat":35.69207,"lon":139.642696},{"name":"コミュニティふらっと阿佐谷","province":"東京都","city":"杉並区","address":"東京都杉並区阿佐谷北2丁目18-17","lat":35.706018,"lon":139.633824},{"name":"ゆうゆう方南館","province":"東京都","city":"杉並区","address":"東京都杉並区方南1丁目51-7","lat":35.679088,"lon":139.658986},{"name":"ゆうゆう四宮館","province":"東京都","city":"杉並区","address":"東京都杉並区上井草2丁目28-3","lat":35.72274,"lon":139.608797},{"name":"ゆうゆう今川館","province":"東京都","city":"杉並区","address":"東京都杉並区今川4丁目12-10","lat":35.715679,"lon":139.599698},{"name":"西荻地域区民センター","province":"東京都","city":"杉並区","address":"東京都杉並区桃井4丁目3-2","lat":35.712522,"lon":139.602123},{"name":"西荻地域区民センター","province":"東京都","city":"杉並区","address":"東京都杉並区桃井4丁目3-2","lat":35.712501,"lon":139.602073},{"name":"西荻地域区民センター","province":"東京都","city":"杉並区","address":"東京都杉並区桃井4丁目3-2","lat":35.712538,"lon":139.602144},{"name":"西荻地域区民センター","province":"東京都","city":"杉並区","address":"東京都杉並区桃井4丁目3-2","lat":35.712531,"lon":139.602188},{"name":"コミュニティふらっと永福","province":"東京都","city":"杉並区","address":"東京都杉並区永福3丁目51-17","lat":35.678388,"lon":139.637966},{"name":"ゆうゆう西田館","province":"東京都","city":"杉並区","address":"東京都杉並区荻窪1丁目57-3","lat":35.695049,"lon":139.626919},{"name":"ゆうゆう西田館","province":"東京都","city":"杉並区","address":"東京都杉並区荻窪1丁目57-3","lat":35.695049,"lon":139.62692},{"name":"児童青少年センター","province":"東京都","city":"杉並区","address":"東京都杉並区荻窪1丁目56-3","lat":35.694545,"lon":139.627551},{"name":"天沼児童館","province":"東京都","city":"杉並区","address":"東京都杉並区天沼1丁目6-25","lat":35.705703,"lon":139.627155},{"name":"上高井戸児童館","province":"東京都","city":"杉並区","address":"東京都杉並区高井戸東1丁目18-5","lat":35.682707,"lon":139.619563},{"name":"荻窪児童館","province":"東京都","city":"杉並区","address":"東京都杉並区荻窪2丁目40-2","lat":35.697751,"lon":139.622221},{"name":"桃井児童館","province":"東京都","city":"杉並区","address":"東京都杉並区桃井2丁目10-9","lat":35.712021,"lon":139.610794},{"name":"堀ノ内東児童館","province":"東京都","city":"杉並区","address":"東京都杉並区堀ノ内3丁目49-19","lat":35.692428,"lon":139.654003},{"name":"阿佐谷児童館","province":"東京都","city":"杉並区","address":"東京都杉並区阿佐谷北1丁目1-1","lat":35.705347,"lon":139.641279},{"name":"下高井戸児童館","province":"東京都","city":"杉並区","address":"東京都杉並区下高井戸4丁目19-6","lat":35.673171,"lon":139.630378},{"name":"子ども・子育てプラザ下井草","province":"東京都","city":"杉並区","address":"東京都杉並区下井草3丁目13-9","lat":35.719411,"lon":139.624615},{"name":"高井戸児童館","province":"東京都","city":"杉並区","address":"東京都杉並区高井戸西2丁目5-10","lat":35.68398,"lon":139.611754},{"name":"子ども・子育てプラザ和泉","province":"東京都","city":"杉並区","address":"東京都杉並区和泉2丁目36","lat":35.67516,"lon":139.651225},{"name":"子ども・子育てプラザ成田西","province":"東京都","city":"杉並区","address":"東京都杉並区成田西3丁目10-38","lat":35.691206,"lon":139.630665},{"name":"四宮森児童館","province":"東京都","city":"杉並区","address":"東京都杉並区上井草2丁目41-11","lat":35.724309,"lon":139.608237},{"name":"子ども・子育てプラザ高円寺","province":"東京都","city":"杉並区","address":"東京都杉並区高円寺南2丁目52-2","lat":35.702099,"lon":139.651742},{"name":"和田中央児童館","province":"東京都","city":"杉並区","address":"東京都杉並区和田1丁目38-18","lat":35.692445,"lon":139.661142},{"name":"西荻南児童館","province":"東京都","city":"杉並区","address":"東京都杉並区西荻南3丁目5-23","lat":35.701505,"lon":139.601832},{"name":"馬橋児童館","province":"東京都","city":"杉並区","address":"東京都杉並区高円寺北4丁目2-17","lat":35.705866,"lon":139.643467},{"name":"コミュニティふらっと東原","province":"東京都","city":"杉並区","address":"東京都杉並区下井草1丁目23-23","lat":35.715742,"lon":139.631718},{"name":"セシオン杉並","province":"東京都","city":"杉並区","address":"東京都杉並区梅里1丁目22","lat":35.696671,"lon":139.653553},{"name":"阿佐谷けやき公園","province":"東京都","city":"杉並区","address":"東京都杉並区阿佐谷北1丁目1","lat":35.705484,"lon":139.641064},{"name":"杉並保健所","province":"東京都","city":"杉並区","address":"東京都杉並区荻窪5丁目20","lat":35.702353,"lon":139.620081},{"name":"杉並保健所","province":"東京都","city":"杉並区","address":"東京都杉並区荻窪5丁目20-1","lat":35.702239,"lon":139.620272},{"name":"和泉保健センター","province":"東京都","city":"杉並区","address":"東京都杉並区和泉4丁目50-6","lat":35.682669,"lon":139.655862},{"name":"杉並区立高円寺図書館","province":"東京都","city":"杉並区","address":"東京都杉並区高円寺南2丁目36-25","lat":35.700484,"lon":139.65415},{"name":"杉並区立宮前図書館","province":"東京都","city":"杉並区","address":"東京都杉並区宮前5丁目5-27","lat":35.693294,"lon":139.599076},{"name":"杉並区立成田図書館","province":"東京都","city":"杉並区","address":"東京都杉並区成田東3丁目28","lat":35.694991,"lon":139.637375},{"name":"杉並区立西荻図書館","province":"東京都","city":"杉並区","address":"東京都杉並区西荻北2丁目33-9","lat":35.707723,"lon":139.605864},{"name":"杉並区立阿佐谷図書館","province":"東京都","city":"杉並区","address":"東京都杉並区阿佐谷北3丁目36-14","lat":35.71171,"lon":139.63333},{"name":"杉並区立南荻窪図書館","province":"東京都","city":"杉並区","address":"東京都杉並区南荻窪1丁目10","lat":35.695114,"lon":139.614609},{"name":"杉並区立下井草図書館","province":"東京都","city":"杉並区","address":"東京都杉並区下井草3丁目26-5","lat":35.720816,"lon":139.623236},{"name":"荻窪公園","province":"東京都","city":"杉並区","address":"東京都杉並区荻窪2丁目27","lat":35.697717,"lon":139.620089},{"name":"荻窪区民事務所・産業振興センター","province":"東京都","city":"杉並区","address":"東京都杉並区上荻1丁目2-1","lat":35.704742,"lon":139.622993},{"name":"杉並公会堂","province":"東京都","city":"杉並区","address":"東京都杉並区上荻1丁目23-15","lat":35.706632,"lon":139.616435},{"name":"杉並公会堂","province":"東京都","city":"杉並区","address":"東京都杉並区上荻1丁目23-15","lat":35.706498,"lon":139.616455},{"name":"梅里公園","province":"東京都","city":"杉並区","address":"東京都杉並区梅里1丁目1","lat":35.695662,"lon":139.653998},{"name":"梅里公園","province":"東京都","city":"杉並区","address":"東京都杉並区梅里1丁目1","lat":35.694842,"lon":139.654079},{"name":"梅里公園","province":"東京都","city":"杉並区","address":"東京都杉並区梅里1丁目1","lat":35.694864,"lon":139.654038},{"name":"済美公園","province":"東京都","city":"杉並区","address":"東京都杉並区堀ノ内1丁目27","lat":35.688079,"lon":139.6491},{"name":"桃園川緑道","province":"東京都","city":"杉並区","address":"東京都杉並区高円寺南2丁目50","lat":35.702931,"lon":139.648575},{"name":"本天沼南公園","province":"東京都","city":"杉並区","address":"東京都杉並区本天沼2丁目3","lat":35.712389,"lon":139.62776},{"name":"松渓公園","province":"東京都","city":"杉並区","address":"東京都杉並区荻窪1丁目39","lat":35.694985,"lon":139.621974},{"name":"成宗公園","province":"東京都","city":"杉並区","address":"東京都杉並区成田東5丁目15","lat":35.702132,"lon":139.628303},{"name":"大田黒公園","province":"東京都","city":"杉並区","address":"東京都杉並区荻窪3丁目33","lat":35.700814,"lon":139.624553},{"name":"与謝野公園","province":"東京都","city":"杉並区","address":"東京都杉並区南荻窪4丁目3","lat":35.698797,"lon":139.615712},{"name":"馬橋公園","province":"東京都","city":"杉並区","address":"東京都杉並区高円寺北4丁目35","lat":35.709574,"lon":139.643046},{"name":"蚕糸の森公園","province":"東京都","city":"杉並区","address":"東京都杉並区和田3丁目55","lat":35.697684,"lon":139.656034},{"name":"塚山公園","province":"東京都","city":"杉並区","address":"東京都杉並区下高井戸5丁目23","lat":35.675022,"lon":139.624696},{"name":"兵庫橋公園","province":"東京都","city":"杉並区","address":"東京都杉並区久我山3丁目5","lat":35.685441,"lon":139.59396},{"name":"井草森公園","province":"東京都","city":"杉並区","address":"東京都杉並区井草4丁目13","lat":35.726707,"lon":139.612321},{"name":"柏の宮公園","province":"東京都","city":"杉並区","address":"東京都杉並区浜田山2丁目5","lat":35.678921,"lon":139.625627},{"name":"柏の宮公園","province":"東京都","city":"杉並区","address":"東京都杉並区浜田山2丁目5","lat":35.677565,"lon":139.626387},{"name":"銀杏稲荷公園","province":"東京都","city":"杉並区","address":"東京都杉並区下井草2丁目15","lat":35.71929,"lon":139.626439},{"name":"天沼弁天池公園","province":"東京都","city":"杉並区","address":"東京都杉並区天沼3丁目23","lat":35.708726,"lon":139.621582},{"name":"定塚橋公園","province":"東京都","city":"杉並区","address":"東京都杉並区堀ノ内2丁目1","lat":35.685363,"lon":139.653914},{"name":"新町鳥居先公園","province":"東京都","city":"杉並区","address":"東京都杉並区今川4丁目11","lat":35.715766,"lon":139.599448},{"name":"角川庭園・幻戯山房","province":"東京都","city":"杉並区","address":"東京都杉並区荻窪3丁目14","lat":35.698873,"lon":139.624569},{"name":"松渓橋公園","province":"東京都","city":"杉並区","address":"東京都杉並区荻窪2丁目40","lat":35.69711,"lon":139.622911},{"name":"三井の森公園","province":"東京都","city":"杉並区","address":"東京都杉並区高井戸東1丁目28","lat":35.679864,"lon":139.623148},{"name":"Aさんの庭","province":"東京都","city":"杉並区","address":"東京都杉並区阿佐谷北5丁目45","lat":35.711288,"lon":139.640567},{"name":"やなぎ橋公園","province":"東京都","city":"杉並区","address":"東京都杉並区高井戸西1丁目31","lat":35.682545,"lon":139.613655},{"name":"桃井原っぱ公園","province":"東京都","city":"杉並区","address":"東京都杉並区桃井3丁目9","lat":35.714419,"lon":139.607199},{"name":"桃井原っぱ公園","province":"東京都","city":"杉並区","address":"東京都杉並区桃井3丁目9","lat":35.713467,"lon":139.608063},{"name":"高円寺北一みどり公園","province":"東京都","city":"杉並区","address":"東京都杉並区高円寺北1丁目28","lat":35.708303,"lon":139.657963},{"name":"和田さくらの坂公園","province":"東京都","city":"杉並区","address":"東京都杉並区和田1丁目54","lat":35.694244,"lon":139.66485},{"name":"大谷戸けやき緑地","province":"東京都","city":"杉並区","address":"東京都杉並区荻窪3丁目7","lat":35.696835,"lon":139.626554},{"name":"成田西ふれあい農業公園","province":"東京都","city":"杉並区","address":"東京都杉並区成田西3丁目18","lat":35.691454,"lon":139.623662},{"name":"下高井戸おおぞら公園","province":"東京都","city":"杉並区","address":"東京都杉並区下高井戸2丁目28","lat":35.670762,"lon":139.637116},{"name":"下高井戸おおぞら公園","province":"東京都","city":"杉並区","address":"東京都杉並区下高井戸2丁目28-23","lat":35.670813,"lon":139.636928},{"name":"荻窪つどい公園","province":"東京都","city":"杉並区","address":"東京都杉並区荻窪4丁目15","lat":35.700114,"lon":139.62233},{"name":"高円寺北公園","province":"東京都","city":"杉並区","address":"東京都杉並区高円寺北3丁目20","lat":35.707367,"lon":139.649017},{"name":"山葉名いこいの森","province":"東京都","city":"杉並区","address":"東京都杉並区上井草4丁目6","lat":35.718452,"lon":139.594262},{"name":"下井草どかん公園","province":"東京都","city":"杉並区","address":"東京都杉並区下井草3丁目13","lat":35.719399,"lon":139.624969},{"name":"和田中央公園","province":"東京都","city":"杉並区","address":"東京都杉並区和田1丁目38","lat":35.692238,"lon":139.66148},{"name":"べんてんばし公園","province":"東京都","city":"杉並区","address":"東京都杉並区和泉4丁目17","lat":35.680909,"lon":139.652761},{"name":"たかはら公園","province":"東京都","city":"杉並区","address":"東京都杉並区高円寺北1丁目10","lat":35.705963,"lon":139.658039},{"name":"和泉二丁目公園","province":"東京都","city":"杉並区","address":"東京都杉並区和泉2丁目45","lat":35.677117,"lon":139.649549},{"name":"今川一丁目公園","province":"東京都","city":"杉並区","address":"東京都杉並区今川1丁目19","lat":35.718445,"lon":139.61371},{"name":"久我山丘のある公園","province":"東京都","city":"杉並区","address":"東京都杉並区久我山1丁目8","lat":35.684301,"lon":139.595699},{"name":"杉並障害者福祉会館","province":"東京都","city":"杉並区","address":"東京都杉並区高井戸東4丁目10-26","lat":35.689619,"lon":139.617823},{"name":"東高円寺公衆便所","province":"東京都","city":"杉並区","address":"東京都杉並区高円寺南1丁目13","lat":35.699661,"lon":139.65498},{"name":"桃井公園","province":"東京都","city":"杉並区","address":"東京都杉並区桃井1丁目19","lat":35.71147,"lon":139.612153},{"name":"高円寺中央公園","province":"東京都","city":"杉並区","address":"東京都杉並区高円寺南4丁目31","lat":35.703711,"lon":139.651725},{"name":"妙正寺公園","province":"東京都","city":"杉並区","address":"東京都杉並区清水3丁目21","lat":35.716912,"lon":139.618897},{"name":"阿佐ヶ谷駅南口公衆便所","province":"東京都","city":"杉並区","address":"東京都杉並区阿佐谷南3丁目36","lat":35.704277,"lon":139.636224},{"name":"西永福公衆便所","province":"東京都","city":"杉並区","address":"東京都杉並区永福3丁目36","lat":35.678574,"lon":139.63573},{"name":"松庵梅林公園","province":"東京都","city":"杉並区","address":"東京都杉並区松庵2丁目23","lat":35.699309,"lon":139.59296},{"name":"切通し公園","province":"東京都","city":"杉並区","address":"東京都杉並区上井草4丁目3","lat":35.717603,"lon":139.597047},{"name":"大宮前公園","province":"東京都","city":"杉並区","address":"東京都杉並区宮前3丁目15","lat":35.696807,"lon":139.606013},{"name":"杉並障害者福祉会館","province":"東京都","city":"杉並区","address":"東京都杉並区高井戸東4丁目10-26","lat":35.68964,"lon":139.617818},{"name":"杉並障害者福祉会館","province":"東京都","city":"杉並区","address":"東京都杉並区高井戸東4丁目10-26","lat":35.68961,"lon":139.617847},{"name":"和田障害者交流館・和田区民集会所併設施設","province":"東京都","city":"杉並区","address":"東京都杉並区和田2丁目31-21","lat":35.691082,"lon":139.657651},{"name":"和田障害者交流館・和田区民集会所併設施設","province":"東京都","city":"杉並区","address":"東京都杉並区和田2丁目31-21","lat":35.691077,"lon":139.657629},{"name":"和田障害者交流館・和田区民集会所併設施設","province":"東京都","city":"杉並区","address":"東京都杉並区和田2丁目31-21","lat":35.69116,"lon":139.658031},{"name":"杉並福祉事務所高円寺事務所・高円寺障害者交流館","province":"東京都","city":"杉並区","address":"東京都杉並区高円寺南2丁目24-18","lat":35.700589,"lon":139.649164},{"name":"杉並福祉事務所高円寺事務所・高円寺障害者交流館","province":"東京都","city":"杉並区","address":"東京都杉並区高円寺南2丁目24-18","lat":35.700548,"lon":139.649157},{"name":"杉並福祉事務所高円寺事務所・高円寺障害者交流館","province":"東京都","city":"杉並区","address":"東京都杉並区高円寺南2丁目24-18","lat":35.700545,"lon":139.649174},{"name":"杉並福祉事務所高円寺事務所・高円寺障害者交流館","province":"東京都","city":"杉並区","address":"東京都杉並区高円寺南2丁目24-18","lat":35.700586,"lon":139.649181},{"name":"高井戸福祉事務所","province":"東京都","city":"杉並区","address":"東京都杉並区高井戸東3丁目26-10","lat":35.685749,"lon":139.616283},{"name":"ウェルファーム杉並複合施設棟","province":"東京都","city":"杉並区","address":"東京都杉並区天沼3丁目19-16","lat":35.710242,"lon":139.620935},{"name":"ウェルファーム杉並複合施設棟","province":"東京都","city":"杉並区","address":"東京都杉並区天沼3丁目19","lat":35.710189,"lon":139.620495},{"name":"ウェルファーム杉並複合施設棟","province":"東京都","city":"杉並区","address":"東京都杉並区天沼3丁目19","lat":35.709895,"lon":139.62067},{"name":"高井戸福祉事務所","province":"東京都","city":"杉並区","address":"東京都杉並区高井戸東3丁目26-10","lat":35.685724,"lon":139.61615},{"name":"杉並区農福連携農園（管理棟）","province":"東京都","city":"杉並区","address":"東京都杉並区井草3丁目19","lat":35.727318,"lon":139.61711},{"name":"産業商工会館","province":"東京都","city":"杉並区","address":"東京都杉並区阿佐谷南3丁目2-19","lat":35.701774,"lon":139.635357},{"name":"上井草スポーツセンター","province":"東京都","city":"杉並区","address":"東京都杉並区上井草3丁目34-1","lat":35.724002,"lon":139.602232},{"name":"上井草スポーツセンター","province":"東京都","city":"杉並区","address":"東京都杉並区上井草3丁目34-1","lat":35.723535,"lon":139.602412},{"name":"上井草スポーツセンター","province":"東京都","city":"杉並区","address":"東京都杉並区上井草3丁目34-1","lat":35.724093,"lon":139.60226},{"name":"荻窪体育館","province":"東京都","city":"杉並区","address":"東京都杉並区荻窪3丁目47-2","lat":35.702689,"lon":139.626753},{"name":"荻窪体育館","province":"東京都","city":"杉並区","address":"東京都杉並区荻窪3丁目47-2","lat":35.702614,"lon":139.627155},{"name":"高円寺体育館","province":"東京都","city":"杉並区","address":"東京都杉並区高円寺南2丁目36-31","lat":35.699863,"lon":139.65418},{"name":"妙正寺体育館","province":"東京都","city":"杉並区","address":"東京都杉並区清水3丁目20-12","lat":35.718439,"lon":139.617717},{"name":"妙正寺体育館","province":"東京都","city":"杉並区","address":"東京都杉並区清水3丁目20-12","lat":35.71848,"lon":139.617744},{"name":"永福体育館","province":"東京都","city":"杉並区","address":"東京都杉並区永福1丁目7-6","lat":35.669665,"lon":139.643223},{"name":"大宮前体育館","province":"東京都","city":"杉並区","address":"東京都杉並区南荻窪2丁目1-1","lat":35.696667,"lon":139.610757},{"name":"大宮前体育館","province":"東京都","city":"杉並区","address":"東京都杉並区南荻窪2丁目1-1","lat":35.697117,"lon":139.610664},{"name":"大宮前体育館","province":"東京都","city":"杉並区","address":"東京都杉並区南荻窪2丁目1","lat":35.696978,"lon":139.610526},{"name":"和田堀公園プール","province":"東京都","city":"杉並区","address":"東京都杉並区大宮2丁目2-10","lat":35.681911,"lon":139.641456},{"name":"和田堀公園野球場","province":"東京都","city":"杉並区","address":"東京都杉並区大宮1丁目6","lat":35.683462,"lon":139.642681},{"name":"杉並区農福連携農園（倉庫棟）","province":"東京都","city":"杉並区","address":"東京都杉並区井草3丁目19","lat":35.727318,"lon":139.61711}]}