{"keyword":"給水","data":[{"name":"杉並浄水所","province":"東京都","city":"杉並区","address":"東京都杉並区善福寺3-28-5","lat":35.715126,"lon":139.588683},{"name":"和泉水圧調整所","province":"東京都","city":"杉並区","address":"東京都杉並区和泉2-5-23","lat":35.671071,"lon":139.652962},{"name":"上井草給水所","province":"東京都","city":"杉並区","address":"東京都杉並区上井草3-22-12","lat":35.7216352,"lon":139.601235},{"name":"都立和田堀公園","province":"東京都","city":"杉並区","address":"東京都杉並区大宮2-26","lat":35.6849095,"lon":139.6415107},{"name":"区立蚕糸の森公園","province":"東京都","city":"杉並区","address":"東京都杉並区和田3-55","lat":35.69637,"lon":139.65699},{"name":"区立昭栄公園","province":"東京都","city":"杉並区","address":"東京都杉並区高井戸西1-12","lat":35.680084,"lon":139.6083509},{"name":"区立井草森公園","province":"東京都","city":"杉並区","address":"東京都杉並区井草4-12-1","lat":35.7269509,"lon":139.6117369},{"name":"区立馬橋公園","province":"東京都","city":"杉並区","address":"東京都杉並区高円寺北4-35-5","lat":35.709583,"lon":139.643056},{"name":"都立善福寺川緑地","province":"東京都","city":"杉並区","address":"東京都杉並区成田西3-14","lat":35.692188,"lon":139.628662}]}