{"keyword":"自転車","data":[{"name":"下井草南自転車駐車場","province":"東京都","city":"杉並区","address":"東京都杉並区下井草2丁目36-16","lat":35.72327898,"lon":139.62733209},{"name":"下井草北第一自転車駐車場","province":"東京都","city":"杉並区","address":"東京都杉並区井草1丁目10-17","lat":35.72447051,"lon":139.62675708},{"name":"下井草北第二自転車駐車場","province":"東京都","city":"杉並区","address":"東京都杉並区下井草1丁目2-4","lat":35.71520506,"lon":139.63483463},{"name":"井荻南地下自転車駐車場","province":"東京都","city":"杉並区","address":"東京都杉並区上井草1丁目24-16","lat":35.7242674,"lon":139.61412759},{"name":"井荻北地下自転車駐車場","province":"東京都","city":"杉並区","address":"東京都杉並区井草3丁目3-10","lat":35.7250451,"lon":139.61416644},{"name":"上井草北自転車駐車場","province":"東京都","city":"杉並区","address":"東京都杉並区井草5丁目5-2","lat":35.72556695,"lon":139.60365621},{"name":"高円寺北自転車駐車場","province":"東京都","city":"杉並区","address":"東京都杉並区高円寺北3丁目20-23","lat":35.7066925,"lon":139.64902827},{"name":"高円寺東高架下自転車駐車場","province":"東京都","city":"杉並区","address":"東京都杉並区高円寺南4丁目50-2","lat":35.70534829,"lon":139.65214195},{"name":"阿佐ヶ谷東自転車駐車場","province":"東京都","city":"杉並区","address":"東京都杉並区阿佐谷南2丁目41-1","lat":35.70509519,"lon":139.63903475},{"name":"阿佐ヶ谷西高架下自転車駐車場","province":"東京都","city":"杉並区","address":"東京都杉並区阿佐谷南3丁目58-1","lat":35.70483679,"lon":139.63512398},{"name":"荻窪東地下自転車駐車場","province":"東京都","city":"杉並区","address":"東京都杉並区上荻1丁目2-1","lat":35.70485588,"lon":139.62282221},{"name":"荻窪北第一自転車駐車場","province":"東京都","city":"杉並区","address":"東京都杉並区天沼3丁目3-19","lat":35.70576129,"lon":139.62118342},{"name":"荻窪北第二自転車駐車場","province":"東京都","city":"杉並区","address":"東京都杉並区天沼3丁目2-13","lat":35.70567242,"lon":139.62144451},{"name":"荻窪北第三自転車駐車場","province":"東京都","city":"杉並区","address":"東京都杉並区天沼3丁目30-40","lat":35.70646402,"lon":139.62271104},{"name":"荻窪西第一自転車駐車場","province":"東京都","city":"杉並区","address":"東京都杉並区上荻1丁目20-3","lat":35.70554455,"lon":139.6174476},{"name":"荻窪西第二自転車駐車場","province":"東京都","city":"杉並区","address":"東京都杉並区上荻1丁目21-25","lat":35.7053279,"lon":139.61715319},{"name":"荻窪南第一自転車駐車場","province":"東京都","city":"杉並区","address":"東京都杉並区荻窪4丁目21-16","lat":35.70343936,"lon":139.62242508},{"name":"荻窪南第二自転車駐車場","province":"東京都","city":"杉並区","address":"東京都杉並区荻窪5丁目15-13","lat":35.70386139,"lon":139.61643109},{"name":"西荻窪西自転車駐車場","province":"東京都","city":"杉並区","address":"東京都杉並区松庵3丁目41-1","lat":35.70374144,"lon":139.5968243},{"name":"南阿佐ヶ谷第一自転車駐車場","province":"東京都","city":"杉並区","address":"東京都杉並区成田東4丁目37-6","lat":35.69836813,"lon":139.63686024},{"name":"南阿佐ヶ谷第二自転車駐車場","province":"東京都","city":"杉並区","address":"東京都杉並区阿佐谷南1丁目15-19","lat":35.69984017,"lon":139.63679907},{"name":"中野富士見町自転車駐車場","province":"東京都","city":"杉並区","address":"東京都杉並区和田1丁目1-9","lat":35.69031712,"lon":139.66554974},{"name":"方南町東自転車駐車場","province":"東京都","city":"杉並区","address":"東京都杉並区方南2丁目20-2","lat":35.68387051,"lon":139.6584784},{"name":"方南町西自転車駐車場","province":"東京都","city":"杉並区","address":"東京都杉並区和泉4丁目51-7","lat":35.68309275,"lon":139.6563564},{"name":"永福町北第一自転車駐車場","province":"東京都","city":"杉並区","address":"東京都杉並区永福4丁目7-8","lat":35.6776902,"lon":139.64285499},{"name":"永福町北第二自転車駐車場","province":"東京都","city":"杉並区","address":"東京都杉並区和泉3丁目12-15","lat":35.67692923,"lon":139.64483539},{"name":"永福町北第三自転車駐車場","province":"東京都","city":"杉並区","address":"東京都杉並区和泉3丁目7-3","lat":35.67579326,"lon":139.64505486},{"name":"浜田山北第一自転車駐車場","province":"東京都","city":"杉並区","address":"東京都杉並区浜田山3丁目24-13","lat":35.68193929,"lon":139.62882544},{"name":"浜田山北第二自転車駐車場","province":"東京都","city":"杉並区","address":"東京都杉並区浜田山3丁目27-21","lat":35.68352519,"lon":139.62814212},{"name":"高井戸東自転車駐車場","province":"東京都","city":"杉並区","address":"東京都杉並区高井戸東2丁目30-25","lat":35.68329155,"lon":139.61599026},{"name":"高井戸北自転車駐車場","province":"東京都","city":"杉並区","address":"東京都杉並区高井戸西2丁目2-1","lat":35.68393866,"lon":139.61468756},{"name":"久我山西自転車駐車場","province":"東京都","city":"杉並区","address":"東京都杉並区久我山3丁目35-29","lat":35.68809606,"lon":139.59898862},{"name":"久我山南自転車駐車場","province":"東京都","city":"杉並区","address":"東京都杉並区久我山3丁目25-6","lat":35.68751279,"lon":139.59894698},{"name":"久我山北自転車駐車場","province":"東京都","city":"杉並区","address":"東京都杉並区久我山5丁目38-10","lat":35.68943761,"lon":139.6004218},{"name":"甲州街道自転車置場","province":"東京都","city":"杉並区","address":"東京都杉並区下高井戸4丁目8","lat":35.67063503,"lon":139.62617322},{"name":"桜上水北自転車駐車場","province":"東京都","city":"杉並区","address":"東京都杉並区下高井戸1丁目24-15","lat":35.66832156,"lon":139.6323728},{"name":"下井草北口駅前駐輪場","province":"東京都","city":"杉並区","address":"東京都杉並区下井草1丁目6-2","lat":35.71480505,"lon":139.63285704},{"name":"バイパーク東高円寺自転車駐輪場","province":"東京都","city":"杉並区","address":"東京都杉並区和田3丁目55-40","lat":35.69778543,"lon":139.65733626},{"name":"代田橋バイク自転車駐車場","province":"東京都","city":"杉並区","address":"東京都杉並区和泉1丁目3","lat":35.67231072,"lon":139.6581594},{"name":"サイカパーク南阿佐ヶ谷駐輪場","province":"東京都","city":"杉並区","address":"東京都杉並区成田東5丁目36-15","lat":35.69964565,"lon":139.63292162},{"name":"富士見ヶ丘南自転車駐車場","province":"東京都","city":"杉並区","address":"東京都杉並区高井戸西1丁目32","lat":35.68315801,"lon":139.60835752},{"name":"富士見ヶ丘北自転車駐車場","province":"東京都","city":"杉並区","address":"東京都杉並区久我山5丁目1-24","lat":35.68492166,"lon":139.60706866},{"name":"アップルパーク西荻窪駅前駐輪場第２","province":"東京都","city":"杉並区","address":"東京都杉並区西荻北3丁目22-16","lat":35.70523856,"lon":139.59962125},{"name":"タイムパーキング下井草駐輪場","province":"東京都","city":"杉並区","address":"東京都杉並区下井草3丁目41-2","lat":35.72391493,"lon":139.6237629},{"name":"サイクルプラザ西荻窪２","province":"東京都","city":"杉並区","address":"東京都杉並区西荻北3丁目3-6","lat":35.70436919,"lon":139.59847414},{"name":"上荻一丁目駐輪場","province":"東京都","city":"杉並区","address":"東京都杉並区上荻1丁目18-12","lat":35.70619449,"lon":139.61783088},{"name":"SKYパーク","province":"東京都","city":"杉並区","address":"東京都杉並区阿佐谷北1丁目8-2","lat":35.7056368,"lon":139.6389514},{"name":"三井のリパーク久我山駅前駐輪場","province":"東京都","city":"杉並区","address":"東京都杉並区久我山2丁目16-25","lat":35.68697399,"lon":139.59981637},{"name":"サイクルプラザ西荻窪３","province":"東京都","city":"杉並区","address":"東京都杉並区松庵3丁目35-15","lat":35.70331651,"lon":139.59767148},{"name":"三井のリパーク阿佐谷南３丁目","province":"東京都","city":"杉並区","address":"東京都杉並区阿佐谷南3丁目2-32","lat":35.70059005,"lon":139.63544637},{"name":"三井のリパーク南阿佐ヶ谷駅前駐輪場","province":"東京都","city":"杉並区","address":"東京都杉並区阿佐谷南1丁目17","lat":35.70067896,"lon":139.63668238},{"name":"アップルパーク西荻窪駅前駐輪場第1","province":"東京都","city":"杉並区","address":"東京都杉並区西荻北3丁目4-11","lat":35.70414143,"lon":139.5981103},{"name":"アップルパーク西荻窪駅北駐輪場","province":"東京都","city":"杉並区","address":"東京都杉並区西荻北3丁目22-8","lat":35.70502747,"lon":139.59925184},{"name":"西永福南第二自転車駐車場","province":"東京都","city":"杉並区","address":"東京都杉並区浜田山1丁目33-30","lat":35.67865093,"lon":139.63360018},{"name":"三井のリパーク久我山駅前第２駐輪場","province":"東京都","city":"杉並区","address":"東京都杉並区久我山2丁目16","lat":35.6863963,"lon":139.60077743},{"name":"三井のリパーク阿佐ヶ谷","province":"東京都","city":"杉並区","address":"東京都杉並区阿佐谷南2丁目14-9","lat":35.70438966,"lon":139.63728493},{"name":"南阿佐ヶ谷第三自転車駐車場","province":"東京都","city":"杉並区","address":"東京都杉並区阿佐谷南3丁目2-32","lat":35.70059005,"lon":139.63544637},{"name":"三井のリパーク久我山駅前第４駐輪場","province":"東京都","city":"杉並区","address":"東京都杉並区久我山5丁目7-12","lat":35.68766559,"lon":139.60047463},{"name":"三井のリパーク久我山駅前第５駐輪場","province":"東京都","city":"杉並区","address":"東京都杉並区久我山3丁目24-18","lat":35.68721561,"lon":139.59953861},{"name":"キプト阿佐谷南駐輪場","province":"東京都","city":"杉並区","address":"東京都杉並区阿佐谷南1丁目47-8","lat":35.70359809,"lon":139.63718497},{"name":"明大前北駐車指定箇所","province":"東京都","city":"杉並区","address":"東京都杉並区永福1丁目1","lat":35.67039957,"lon":139.64971852},{"name":"エコステーション21西友下井草店駐輪場","province":"東京都","city":"杉並区","address":"東京都杉並区下井草2丁目41-8","lat":35.7233956,"lon":139.62582109},{"name":"ティップネス下井草駐輪場A","province":"東京都","city":"杉並区","address":"東京都杉並区下井草2丁目40-17","lat":35.72344557,"lon":139.62474062},{"name":"ティップネス下井草駐輪場B","province":"東京都","city":"杉並区","address":"東京都杉並区下井草2丁目40-17","lat":35.72344557,"lon":139.62474062},{"name":"ネットパーク井荻駅前自転車駐車場２","province":"東京都","city":"杉並区","address":"東京都杉並区井草3丁目4","lat":35.72575612,"lon":139.61375533},{"name":"ピーコックストア井荻店駐輪場","province":"東京都","city":"杉並区","address":"東京都杉並区下井草5丁目18-22","lat":35.72346751,"lon":139.614872},{"name":"システムパーク上井草駅前　自転車エリア","province":"東京都","city":"杉並区","address":"東京都杉並区井草5丁目19-3","lat":35.72611134,"lon":139.60395617},{"name":"サイクルポート杉並上井草２","province":"東京都","city":"杉並区","address":"東京都杉並区上井草2丁目45-7","lat":35.72516144,"lon":139.60395898},{"name":"ジャンジャンマールゴット南阿佐ヶ谷駅前店駐輪場","province":"東京都","city":"杉並区","address":"東京都杉並区成田東5丁目42-20","lat":35.6987847,"lon":139.6352687},{"name":"ピーコックストア阿佐谷店自転車駐車場","province":"東京都","city":"杉並区","address":"東京都杉並区阿佐谷南1丁目32-10","lat":35.70098173,"lon":139.63744896},{"name":"Parking in 西荻窪駅前第２駐輪場","province":"東京都","city":"杉並区","address":"東京都杉並区松庵3丁目41-1","lat":35.70374144,"lon":139.5968243},{"name":"Parking in 西荻窪駅前駐輪場","province":"東京都","city":"杉並区","address":"東京都杉並区西荻南3丁目24-1","lat":35.70388599,"lon":139.6012545},{"name":"エコステーション21 タウンセブン指定駐輪場","province":"東京都","city":"杉並区","address":"東京都杉並区上荻1丁目9-1","lat":35.70509744,"lon":139.61961134},{"name":"パートナー天沼３丁目駐輪場","province":"東京都","city":"杉並区","address":"東京都杉並区天沼3丁目2","lat":35.70558909,"lon":139.62160562},{"name":"Nちゃりパーク","province":"東京都","city":"杉並区","address":"東京都杉並区荻窪5丁目18-11","lat":35.70377812,"lon":139.6187698},{"name":"エコステーション21 荻窪駅南口駐輪場","province":"東京都","city":"杉並区","address":"東京都杉並区荻窪5丁目30","lat":35.70400039,"lon":139.62187788},{"name":"Parking in 阿佐ヶ谷駅東駐輪場","province":"東京都","city":"杉並区","address":"東京都杉並区阿佐谷南2丁目41-1","lat":35.70509519,"lon":139.63903475},{"name":"Parking in 阿佐ヶ谷駅西駐輪場","province":"東京都","city":"杉並区","address":"東京都杉並区阿佐谷南3丁目56-1","lat":35.7047701,"lon":139.63441016},{"name":"サイクルパーク阿佐谷南第４駐輪場","province":"東京都","city":"杉並区","address":"東京都杉並区阿佐谷南3丁目32-17","lat":35.70295369,"lon":139.63617954},{"name":"阿佐谷北口駅前ビル駐輪場","province":"東京都","city":"杉並区","address":"東京都杉並区阿佐谷北2丁目13-2","lat":35.70569505,"lon":139.63616274},{"name":"サイクルパーク阿佐谷南第２駐輪場","province":"東京都","city":"杉並区","address":"東京都杉並区阿佐谷南3丁目37","lat":35.70438961,"lon":139.63517956},{"name":"エコステーション21 西友阿佐ヶ谷店駐輪場","province":"東京都","city":"杉並区","address":"東京都杉並区阿佐谷北1丁目5-6","lat":35.70559786,"lon":139.63688214},{"name":"エコステーション21 パークハウス阿佐ヶ谷レジデンス駐輪場","province":"東京都","city":"杉並区","address":"東京都杉並区阿佐谷南3丁目35-8","lat":35.70395913,"lon":139.63601562},{"name":"サイクルパーク阿佐ヶ谷南第３駐輪場","province":"東京都","city":"杉並区","address":"東京都杉並区阿佐谷南3丁目32-14","lat":35.70316477,"lon":139.63617397},{"name":"ユアーズ阿佐ヶ谷駅前駐輪場第１","province":"東京都","city":"杉並区","address":"東京都杉並区阿佐谷北2丁目11-17","lat":35.70509507,"lon":139.63439348},{"name":"Parking in 阿佐ヶ谷南２丁目駐輪場","province":"東京都","city":"杉並区","address":"東京都杉並区阿佐谷南2丁目40-1","lat":35.70512022,"lon":139.64022909},{"name":"Parking in 高円寺南３丁目駐輪場","province":"東京都","city":"杉並区","address":"東京都杉並区高円寺南3丁目65","lat":35.70511759,"lon":139.6459175},{"name":"TACY サイクルパーク高円寺駐輪場","province":"東京都","city":"杉並区","address":"東京都杉並区高円寺南4丁目48","lat":35.70537324,"lon":139.65032543},{"name":"エコプール高円寺北口駐輪場","province":"東京都","city":"杉並区","address":"東京都杉並区高円寺北2丁目3-18","lat":35.70592598,"lon":139.65175584},{"name":"TOBUPARK 高円寺駅南口時間貸駐輪場","province":"東京都","city":"杉並区","address":"東京都杉並区高円寺南3丁目58-18","lat":35.70498157,"lon":139.64883947},{"name":"京王サイクルパーク永福町","province":"東京都","city":"杉並区","address":"東京都杉並区永福2丁目60-23","lat":35.67651534,"lon":139.64284114},{"name":"サイクルタイムズ西永福","province":"東京都","city":"杉並区","address":"東京都杉並区永福3丁目31","lat":35.67791771,"lon":139.6348501},{"name":"パーク浜田山駅前 BC","province":"東京都","city":"杉並区","address":"東京都杉並区浜田山3丁目34-5","lat":35.68227252,"lon":139.62642007},{"name":"西友浜田山店駐輪場","province":"東京都","city":"杉並区","address":"東京都杉並区浜田山3丁目29-6","lat":35.6828197,"lon":139.62746997},{"name":"アップルパーク成城石井浜田山店駐輪場","province":"東京都","city":"杉並区","address":"東京都杉並区浜田山3丁目34-26","lat":35.68257805,"lon":139.62705334},{"name":"京王サイクルパーク高井戸","province":"東京都","city":"杉並区","address":"東京都杉並区高井戸西1丁目30","lat":35.68318599,"lon":139.61549863},{"name":"エコステーション21 西友富士見ヶ丘店駐輪場","province":"東京都","city":"杉並区","address":"東京都杉並区高井戸西2丁目10-13","lat":35.68620765,"lon":139.60836296},{"name":"久我山駅店舗駐輪場","province":"東京都","city":"杉並区","address":"東京都杉並区久我山4丁目1-11","lat":35.68793777,"lon":139.59969968},{"name":"アップルパークピーコックストア久我山駐輪場","province":"東京都","city":"杉並区","address":"東京都杉並区久我山4丁目2-6","lat":35.68878487,"lon":139.59919968},{"name":"三井のリパーク久我山駅前第３駐輪場","province":"東京都","city":"杉並区","address":"東京都杉並区久我山2丁目16","lat":35.6863963,"lon":139.60077743}]}