{"keyword":"葬儀","data":[{"name":"（有）アイム","province":"東京都","city":"杉並区","address":"東京都杉並区和田2丁目3-14","lat":35.6885339,"lon":139.66135018},{"name":"有限会社　玉野葬儀社","province":"東京都","city":"杉並区","address":"東京都杉並区阿佐谷南1丁目12-3","lat":35.69890419,"lon":139.63732406},{"name":"有限会社　吉田屋葬儀社","province":"東京都","city":"杉並区","address":"東京都杉並区天沼3丁目11-6","lat":35.70738599,"lon":139.61657259},{"name":"田中商事　株式会社","province":"東京都","city":"杉並区","address":"東京都杉並区井草1丁目5-16","lat":35.72444264,"lon":139.62319625},{"name":"代田橋鈴木葬儀社","province":"東京都","city":"杉並区","address":"東京都杉並区和泉1丁目1-14","lat":35.6730607,"lon":139.66012587},{"name":"株式会社　浅野葬儀社","province":"東京都","city":"杉並区","address":"東京都杉並区永福3丁目47-8","lat":35.67800119,"lon":139.63998022},{"name":"株式会社　オボワール","province":"東京都","city":"杉並区","address":"東京都杉並区久我山3丁目15-7","lat":35.68661557,"lon":139.59551118},{"name":"有限会社　栃木屋祭典","province":"東京都","city":"杉並区","address":"東京都杉並区高円寺南1丁目6-9","lat":35.69846315,"lon":139.6584167},{"name":"\" 田中商事　株式会社　下井草支店\"","province":"東京都","city":"杉並区","address":"東京都杉並区下井草3丁目7-17","lat":35.71748231,"lon":139.62450482},{"name":"株式会社　博典社芹澤葬祭店","province":"東京都","city":"杉並区","address":"東京都杉並区下高井戸1丁目3-11","lat":35.66726079,"lon":139.64066104},{"name":"有限会社　加賀屋葬儀社","province":"東京都","city":"杉並区","address":"東京都杉並区成田東5丁目19-8","lat":35.70118431,"lon":139.63083839},{"name":"株式会社　ゴトウ","province":"東京都","city":"杉並区","address":"東京都杉並区西荻北4丁目1-21","lat":35.70583564,"lon":139.59632704},{"name":"株式会社　西荻祭典","province":"東京都","city":"杉並区","address":"東京都杉並区西荻南2丁目6-21","lat":35.69853095,"lon":139.59815774},{"name":"\" マキノ祭典　株式会社\"","province":"東京都","city":"杉並区","address":"東京都杉並区宮前3丁目5-5","lat":35.6935401,"lon":139.60729332},{"name":"株式会社　博善社","province":"東京都","city":"杉並区","address":"東京都杉並区宮前4丁目17-10","lat":35.69332335,"lon":139.60324643},{"name":"株式会社　渋谷商会","province":"東京都","city":"杉並区","address":"東京都杉並区桃井2丁目4-5","lat":35.71127422,"lon":139.60796756}]}