{"keyword":"認可","data":[{"name":"京進のほいくえんビーフェア阿佐谷南","province":"東京都","city":"杉並区","address":"杉並区阿佐谷南1-9-81階","lat":35.69911,"lon":139.63843},{"name":"成田保育園","province":"東京都","city":"杉並区","address":"杉並区成田東2-16-5","lat":35.68923,"lon":139.63403},{"name":"Ａｇａｐｅ井草保育園","province":"東京都","city":"杉並区","address":"杉並区井草1-31-9","lat":35.72699,"lon":139.6223},{"name":"あい保育園下井草","province":"東京都","city":"杉並区","address":"杉並区下井草3-13-5","lat":35.71944,"lon":139.62474},{"name":"Gakken ほいくえん　桃井","province":"東京都","city":"杉並区","address":"杉並区桃井4-7-17","lat":35.71438,"lon":139.60028},{"name":"ベネッセ 西荻窪保育園","province":"東京都","city":"杉並区","address":"杉並区西荻北1-5-7","lat":35.70457,"lon":139.60562},{"name":"AIAI NURSERY　荻窪","province":"東京都","city":"杉並区","address":"杉並区荻窪5-15-21トライアード2階","lat":35.70366,"lon":139.61659},{"name":"AIAI NURSERY　西荻窪","province":"東京都","city":"杉並区","address":"杉並区松庵3-15-3","lat":35.70126,"lon":139.59386},{"name":"大宮保育園","province":"東京都","city":"杉並区","address":"杉並区永福3-51-17","lat":35.67857,"lon":139.63792},{"name":"Gakken ほいくえん　浜田山","province":"東京都","city":"杉並区","address":"杉並区浜田山3-18-8ケイワンビル1階","lat":35.68251,"lon":139.63042},{"name":"久我山東保育園","province":"東京都","city":"杉並区","address":"杉並区久我山5-24-19","lat":35.68682,"lon":139.60718},{"name":"あい保育園久我山","province":"東京都","city":"杉並区","address":"杉並区久我山5-28-13","lat":35.68851,"lon":139.6062},{"name":"Ｇａｋｋｅｎほいくえん　桃井","province":"東京都","city":"杉並区","address":"杉並区桃井4-7-17","lat":35.71438,"lon":139.60028},{"name":"Ｇａｋｋｅｎほいくえん　浜田山","province":"東京都","city":"杉並区","address":"杉並区浜田山3-18-8ケイワンビル1階","lat":35.68251,"lon":139.63042},{"name":"高円寺北保育園","province":"東京都","city":"杉並区","address":"杉並区高円寺北2-32-7","lat":35.70815,"lon":139.65302},{"name":"ココファン・ナーサリー桃井","province":"東京都","city":"杉並区","address":"杉並区桃井4-7-17","lat":35.71438,"lon":139.60028},{"name":"あい・あい保育園荻窪園","province":"東京都","city":"杉並区","address":"杉並区荻窪5-15-21トライアード2階","lat":35.70366,"lon":139.61659},{"name":"あい・あい保育園　西荻窪園","province":"東京都","city":"杉並区","address":"杉並区松庵3-15-3","lat":35.70126,"lon":139.59386},{"name":"日生永福町駅前保育園ひびき","province":"東京都","city":"杉並区","address":"杉並区永福2-54-8","lat":35.67597,"lon":139.64177},{"name":"ココファン・ナーサリー浜田山","province":"東京都","city":"杉並区","address":"杉並区浜田山3-18-8ケイワンビル1階","lat":35.68251,"lon":139.63042},{"name":"アウル宮前保育園","province":"東京都","city":"杉並区","address":"杉並区宮前2-11-11","lat":35.692796,"lon":139.610251},{"name":"上高井戸保育園","province":"東京都","city":"杉並区","address":"杉並区久我山1-4-15","lat":35.68256,"lon":139.59962},{"name":"Ｐｉｃｏナーサリ玉川上水公園","province":"東京都","city":"杉並区","address":"杉並区久我山1-6-12","lat":35.68336,"lon":139.59882},{"name":"えがおの森保育園・あさがや","province":"東京都","city":"杉並区","address":"杉並区阿佐谷北4-21-9","lat":35.7124,"lon":139.63429},{"name":"ピノキオ幼児舎阿佐谷北保育園","province":"東京都","city":"杉並区","address":"杉並区阿佐谷北6-26-13","lat":35.71451,"lon":139.63854},{"name":"高円寺りとるぱんぷきんず","province":"東京都","city":"杉並区","address":"杉並区高円寺北1-27-3","lat":35.70886,"lon":139.65718},{"name":"高円寺南保育園","province":"東京都","city":"杉並区","address":"杉並区高円寺南4-44-11","lat":35.7048,"lon":139.65122},{"name":"大空と大地のなーさりぃ高円寺南園","province":"東京都","city":"杉並区","address":"杉並区高円寺南4-37-23","lat":35.70445,"lon":139.6536},{"name":"エンジェル高円寺保育園","province":"東京都","city":"杉並区","address":"杉並区高円寺南3-38-14","lat":35.70281,"lon":139.64552},{"name":"和田ここわ保育園","province":"東京都","city":"杉並区","address":"杉並区和田1-5-7","lat":35.68918,"lon":139.66295},{"name":"キッズガーデン杉並堀ノ内","province":"東京都","city":"杉並区","address":"杉並区堀ノ内3-16-1","lat":35.69259,"lon":139.64845},{"name":"成田コスモ保育園","province":"東京都","city":"杉並区","address":"杉並区成田西3-8-12","lat":35.69412,"lon":139.6311},{"name":"四宮保育園","province":"東京都","city":"杉並区","address":"杉並区上井草2-28-3","lat":35.72281,"lon":139.60877},{"name":"天沼保育園","province":"東京都","city":"杉並区","address":"杉並区天沼2-42-9","lat":35.71055,"lon":139.62598},{"name":"聖心保育園","province":"東京都","city":"杉並区","address":"杉並区桃井2-24-18","lat":35.71446,"lon":139.61075},{"name":"コンビプラザ桃井保育園","province":"東京都","city":"杉並区","address":"杉並区桃井3-7-3プロムナード荻窪3号棟1階","lat":35.71272,"lon":139.60613},{"name":"頌栄しらゆり保育園","province":"東京都","city":"杉並区","address":"杉並区桃井2-19-2","lat":35.71426,"lon":139.60848},{"name":"杉並井荻雲母保育園","province":"東京都","city":"杉並区","address":"杉並区今川1-15-16","lat":35.71764,"lon":139.61144},{"name":"善福寺保育園","province":"東京都","city":"杉並区","address":"杉並区善福寺2-26-18","lat":35.71285,"lon":139.58902},{"name":"杉並西荻窪雲母保育園","province":"東京都","city":"杉並区","address":"杉並区西荻南1-1-27","lat":35.69597,"lon":139.60352},{"name":"グローバルキッズ松庵園","province":"東京都","city":"杉並区","address":"杉並区松庵2-23-6","lat":35.69964,"lon":139.59293},{"name":"松庵保育園","province":"東京都","city":"杉並区","address":"杉並区松庵2-23-34","lat":35.69964,"lon":139.59293},{"name":"ポピンズナーサリースクール方南町","province":"東京都","city":"杉並区","address":"杉並区方南2-14-1","lat":35.68345,"lon":139.6592},{"name":"まなびの森保育園永福町","province":"東京都","city":"杉並区","address":"杉並区和泉4-13-2","lat":35.67781,"lon":139.65093},{"name":"永福北保育園","province":"東京都","city":"杉並区","address":"杉並区永福4-25-4","lat":35.68097,"lon":139.64121},{"name":"下高井戸保育園","province":"東京都","city":"杉並区","address":"杉並区下高井戸3-31-11","lat":35.67442,"lon":139.63178},{"name":"宮前おおぞら保育園","province":"東京都","city":"杉並区","address":"杉並区宮前2-24-22","lat":35.69282,"lon":139.61437},{"name":"宮前保育園","province":"東京都","city":"杉並区","address":"杉並区宮前2-24-38","lat":35.69282,"lon":139.61437},{"name":"Ｐｉｃｏナーサリ久我山駅前","province":"東京都","city":"杉並区","address":"杉並区久我山4-2-15","lat":35.68873,"lon":139.59935},{"name":"あい保育園久我山","province":"東京都","city":"杉並区","address":"杉並区久我山5-28-13","lat":35.68852,"lon":139.6062},{"name":"久我山東保育園","province":"東京都","city":"杉並区","address":"杉並区久我山5-24-19","lat":35.68683,"lon":139.60718},{"name":"荻窪コスモ保育園","province":"東京都","city":"杉並区","address":"杉並区荻窪5-6-5ガーデニア荻窪1階","lat":35.70037,"lon":139.61755},{"name":"アウル宮前保育園","province":"東京都","city":"杉並区","address":"杉並区宮前2-11-11","lat":35.69055,"lon":139.61612}]}