{"keyword":"谷沢","data":[{"name":"杉並区保健福祉部障害者生活支援課地域生活支援担当（生活リハビリ・ふれあい広場）","province":"東京都","city":"杉並区","address":"東京都杉並区高井戸東4丁目10-5","lat":35.68943532,"lon":139.61778435},{"name":"特定非営利活動法人ゆずりはコミュニケーションズパソコン工房ゆずりは","province":"東京都","city":"杉並区","address":"東京都杉並区荻窪1丁目20-15","lat":35.69292385,"lon":139.61953685},{"name":"社会福祉法人虹旗社杉並・あしたの会福祉作業所","province":"東京都","city":"杉並区","address":"東京都杉並区阿佐谷南3丁目12-1","lat":35.70247855,"lon":139.62913014},{"name":"特定非営利活動法人杉並福助会地球儀","province":"東京都","city":"杉並区","address":"東京都杉並区永福2丁目23-7","lat":35.67286298,"lon":139.64254127},{"name":"特定非営利活動法人TRY福祉会ゆい企画","province":"東京都","city":"杉並区","address":"東京都杉並区成田東5丁目15-21","lat":35.70208693,"lon":139.6288274},{"name":"特定非営利活動法人けやき精神保健福祉会けやき亭","province":"東京都","city":"杉並区","address":"東京都杉並区成田東3丁目1-3","lat":35.69454647,"lon":139.64087118},{"name":"ＮＰＯ法人障害者就労支援センターどんまい福祉工房","province":"東京都","city":"杉並区","address":"東京都杉並区本天沼1丁目24-9","lat":35.7138968,"lon":139.63209881},{"name":"すぎなみ1５1","province":"東京都","city":"杉並区","address":"東京都杉並区永福4丁目19-4","lat":35.67978978,"lon":139.63709985},{"name":"一般社団法人クレオソーレ・ｋｏｅｎ ｔhｅ ＴＡＯ","province":"東京都","city":"杉並区","address":"東京都杉並区高円寺北3丁目6-2","lat":35.70532866,"lon":139.64515644},{"name":"特定非営利活動法人まどかアゲイン","province":"東京都","city":"杉並区","address":"東京都杉並区永福1丁目27-31","lat":35.67226032,"lon":139.64465222},{"name":"特定非営利活動法人ラルゴ工房ラルゴ","province":"東京都","city":"杉並区","address":"東京都杉並区上荻4丁目29-22","lat":35.71118242,"lon":139.60242912},{"name":"社会福祉法人いたるセンター阿佐谷福祉工房","province":"東京都","city":"杉並区","address":"東京都杉並区天沼1丁目15-18","lat":35.70769465,"lon":139.63002427},{"name":"社会福祉法人いたるセンターあけぼの作業所","province":"東京都","city":"杉並区","address":"東京都杉並区上井草4丁目3-11","lat":35.71811483,"lon":139.59709039},{"name":"社会福祉法人済美会ひまわり作業所","province":"東京都","city":"杉並区","address":"東京都杉並区松庵2丁目22-22","lat":35.69832806,"lon":139.59277207},{"name":"社会福祉法人視覚障害者支援総合センターチャレンジ","province":"東京都","city":"杉並区","address":"東京都杉並区桃井4丁目4-3","lat":35.71259613,"lon":139.60146525},{"name":"社会福祉法人かたつむり会ワークショップ・かたつむり","province":"東京都","city":"杉並区","address":"東京都杉並区和田1丁目5-18","lat":35.68903666,"lon":139.66319167},{"name":"一般社団法人ワークみらいワークみらい","province":"東京都","city":"杉並区","address":"東京都杉並区天沼3丁目6-6","lat":35.70638338,"lon":139.61857248},{"name":"言語生活サポートセンター","province":"東京都","city":"杉並区","address":"東京都杉並区荻窪5丁目20-17","lat":35.70217835,"lon":139.62068638},{"name":"杉並区保健福祉部障害者生活支援課地域生活支援担当（生活リハビリ・ふれあい広場）","province":"東京都","city":"杉並区","address":"東京都杉並区高井戸東4丁目10-5","lat":35.68943532,"lon":139.61778435},{"name":"特定非営利活動法人ゆずりはコミュニケーションズパソコン工房ゆずりは","province":"東京都","city":"杉並区","address":"東京都杉並区荻窪1丁目20-15","lat":35.69292385,"lon":139.61953685},{"name":"社会福祉法人虹旗社杉並・あしたの会福祉作業所","province":"東京都","city":"杉並区","address":"東京都杉並区阿佐谷南3丁目12-1","lat":35.70247855,"lon":139.62913014},{"name":"特定非営利活動法人杉並福助会地球儀","province":"東京都","city":"杉並区","address":"東京都杉並区永福2丁目23-7","lat":35.67286298,"lon":139.64254127},{"name":"特定非営利活動法人TRY福祉会ゆい企画","province":"東京都","city":"杉並区","address":"東京都杉並区成田東5丁目15-21","lat":35.70208693,"lon":139.6288274},{"name":"特定非営利活動法人けやき精神保健福祉会けやき亭","province":"東京都","city":"杉並区","address":"東京都杉並区成田東3丁目1-3","lat":35.69454647,"lon":139.64087118},{"name":"ＮＰＯ法人障害者就労支援センターどんまい福祉工房","province":"東京都","city":"杉並区","address":"東京都杉並区本天沼1丁目24-9","lat":35.7138968,"lon":139.63209881},{"name":"すぎなみ1５1","province":"東京都","city":"杉並区","address":"東京都杉並区永福4丁目19-4","lat":35.67978978,"lon":139.63709985},{"name":"一般社団法人クレオソーレ・ｋｏｅｎ ｔhｅ ＴＡＯ","province":"東京都","city":"杉並区","address":"東京都杉並区高円寺北3丁目6-2","lat":35.70532866,"lon":139.64515644},{"name":"特定非営利活動法人まどかアゲイン","province":"東京都","city":"杉並区","address":"東京都杉並区永福1丁目27-31","lat":35.67226032,"lon":139.64465222},{"name":"特定非営利活動法人ラルゴ工房ラルゴ","province":"東京都","city":"杉並区","address":"東京都杉並区上荻4丁目29-22","lat":35.71118242,"lon":139.60242912},{"name":"社会福祉法人いたるセンター阿佐谷福祉工房","province":"東京都","city":"杉並区","address":"東京都杉並区天沼1丁目15-18","lat":35.70769465,"lon":139.63002427},{"name":"社会福祉法人いたるセンターあけぼの作業所","province":"東京都","city":"杉並区","address":"東京都杉並区上井草4丁目3-11","lat":35.71811483,"lon":139.59709039},{"name":"社会福祉法人済美会ひまわり作業所","province":"東京都","city":"杉並区","address":"東京都杉並区松庵2丁目22-22","lat":35.69832806,"lon":139.59277207},{"name":"社会福祉法人視覚障害者支援総合センターチャレンジ","province":"東京都","city":"杉並区","address":"東京都杉並区桃井4丁目4-3","lat":35.71259613,"lon":139.60146525},{"name":"社会福祉法人かたつむり会ワークショップ・かたつむり","province":"東京都","city":"杉並区","address":"東京都杉並区和田1丁目5-18","lat":35.68903666,"lon":139.66319167},{"name":"一般社団法人ワークみらいワークみらい","province":"東京都","city":"杉並区","address":"東京都杉並区天沼3丁目6-6","lat":35.70638338,"lon":139.61857248},{"name":"言語生活サポートセンター","province":"東京都","city":"杉並区","address":"東京都杉並区荻窪5丁目20-17","lat":35.70217835,"lon":139.62068638},{"name":"杉並区保健福祉部障害者生活支援課地域生活支援担当（生活リハビリ・ふれあい広場）","province":"東京都","city":"杉並区","address":"東京都杉並区高井戸東4丁目10-5","lat":35.68943532,"lon":139.61778435},{"name":"特定非営利活動法人ゆずりはコミュニケーションズパソコン工房ゆずりは","province":"東京都","city":"杉並区","address":"東京都杉並区荻窪1丁目20-15","lat":35.69292385,"lon":139.61953685},{"name":"社会福祉法人虹旗社杉並・あしたの会福祉作業所","province":"東京都","city":"杉並区","address":"東京都杉並区阿佐谷南3丁目12-1","lat":35.70247855,"lon":139.62913014},{"name":"特定非営利活動法人杉並福助会地球儀","province":"東京都","city":"杉並区","address":"東京都杉並区永福2丁目23-7","lat":35.67286298,"lon":139.64254127},{"name":"特定非営利活動法人TRY福祉会ゆい企画","province":"東京都","city":"杉並区","address":"東京都杉並区成田東5丁目15-21","lat":35.70208693,"lon":139.6288274},{"name":"特定非営利活動法人けやき精神保健福祉会けやき亭","province":"東京都","city":"杉並区","address":"東京都杉並区成田東3丁目1-3","lat":35.69454647,"lon":139.64087118},{"name":"ＮＰＯ法人障害者就労支援センターどんまい福祉工房","province":"東京都","city":"杉並区","address":"東京都杉並区本天沼1丁目24-9","lat":35.7138968,"lon":139.63209881},{"name":"すぎなみ1５1","province":"東京都","city":"杉並区","address":"東京都杉並区永福4丁目19-4","lat":35.67978978,"lon":139.63709985},{"name":"一般社団法人クレオソーレ・ｋｏｅｎ ｔhｅ ＴＡＯ","province":"東京都","city":"杉並区","address":"東京都杉並区高円寺北3丁目6-2","lat":35.70532866,"lon":139.64515644},{"name":"特定非営利活動法人まどかアゲイン","province":"東京都","city":"杉並区","address":"東京都杉並区永福1丁目27-31","lat":35.67226032,"lon":139.64465222},{"name":"特定非営利活動法人ラルゴ工房ラルゴ","province":"東京都","city":"杉並区","address":"東京都杉並区上荻4丁目29-22","lat":35.71118242,"lon":139.60242912},{"name":"社会福祉法人いたるセンター阿佐谷福祉工房","province":"東京都","city":"杉並区","address":"東京都杉並区天沼1丁目15-18","lat":35.70769465,"lon":139.63002427},{"name":"社会福祉法人いたるセンターあけぼの作業所","province":"東京都","city":"杉並区","address":"東京都杉並区上井草4丁目3-11","lat":35.71811483,"lon":139.59709039},{"name":"社会福祉法人済美会ひまわり作業所","province":"東京都","city":"杉並区","address":"東京都杉並区松庵2丁目22-22","lat":35.69832806,"lon":139.59277207},{"name":"社会福祉法人視覚障害者支援総合センターチャレンジ","province":"東京都","city":"杉並区","address":"東京都杉並区桃井4丁目4-3","lat":35.71259613,"lon":139.60146525},{"name":"社会福祉法人かたつむり会ワークショップ・かたつむり","province":"東京都","city":"杉並区","address":"東京都杉並区和田1丁目5-18","lat":35.68903666,"lon":139.66319167},{"name":"一般社団法人ワークみらいワークみらい","province":"東京都","city":"杉並区","address":"東京都杉並区天沼3丁目6-6","lat":35.70638338,"lon":139.61857248},{"name":"言語生活サポートセンター","province":"東京都","city":"杉並区","address":"東京都杉並区荻窪5丁目20-17","lat":35.70217835,"lon":139.62068638},{"name":"杉並区保健福祉部障害者生活支援課地域生活支援担当（生活リハビリ・ふれあい広場）","province":"東京都","city":"杉並区","address":"東京都杉並区高井戸東4丁目10-5","lat":35.68943532,"lon":139.61778435},{"name":"特定非営利活動法人ゆずりはコミュニケーションズパソコン工房ゆずりは","province":"東京都","city":"杉並区","address":"東京都杉並区荻窪1丁目20-15","lat":35.69292385,"lon":139.61953685},{"name":"社会福祉法人虹旗社杉並・あしたの会福祉作業所","province":"東京都","city":"杉並区","address":"東京都杉並区阿佐谷南3丁目12-1","lat":35.70247855,"lon":139.62913014},{"name":"特定非営利活動法人杉並福助会地球儀","province":"東京都","city":"杉並区","address":"東京都杉並区永福2丁目23-7","lat":35.67286298,"lon":139.64254127},{"name":"特定非営利活動法人TRY福祉会ゆい企画","province":"東京都","city":"杉並区","address":"東京都杉並区成田東5丁目15-21","lat":35.70208693,"lon":139.6288274},{"name":"特定非営利活動法人けやき精神保健福祉会けやき亭","province":"東京都","city":"杉並区","address":"東京都杉並区成田東3丁目1-3","lat":35.69454647,"lon":139.64087118},{"name":"ＮＰＯ法人障害者就労支援センターどんまい福祉工房","province":"東京都","city":"杉並区","address":"東京都杉並区本天沼1丁目24-9","lat":35.7138968,"lon":139.63209881},{"name":"すぎなみ1５1","province":"東京都","city":"杉並区","address":"東京都杉並区永福4丁目19-4","lat":35.67978978,"lon":139.63709985},{"name":"一般社団法人クレオソーレ・ｋｏｅｎ ｔhｅ ＴＡＯ","province":"東京都","city":"杉並区","address":"東京都杉並区高円寺北3丁目6-2","lat":35.70532866,"lon":139.64515644},{"name":"特定非営利活動法人まどかアゲイン","province":"東京都","city":"杉並区","address":"東京都杉並区永福1丁目27-31","lat":35.67226032,"lon":139.64465222},{"name":"特定非営利活動法人ラルゴ工房ラルゴ","province":"東京都","city":"杉並区","address":"東京都杉並区上荻4丁目29-22","lat":35.71118242,"lon":139.60242912},{"name":"社会福祉法人いたるセンター阿佐谷福祉工房","province":"東京都","city":"杉並区","address":"東京都杉並区天沼1丁目15-18","lat":35.70769465,"lon":139.63002427},{"name":"社会福祉法人いたるセンターあけぼの作業所","province":"東京都","city":"杉並区","address":"東京都杉並区上井草4丁目3-11","lat":35.71811483,"lon":139.59709039},{"name":"社会福祉法人済美会ひまわり作業所","province":"東京都","city":"杉並区","address":"東京都杉並区松庵2丁目22-22","lat":35.69832806,"lon":139.59277207},{"name":"社会福祉法人視覚障害者支援総合センターチャレンジ","province":"東京都","city":"杉並区","address":"東京都杉並区桃井4丁目4-3","lat":35.71259613,"lon":139.60146525},{"name":"社会福祉法人かたつむり会ワークショップ・かたつむり","province":"東京都","city":"杉並区","address":"東京都杉並区和田1丁目5-18","lat":35.68903666,"lon":139.66319167},{"name":"一般社団法人ワークみらいワークみらい","province":"東京都","city":"杉並区","address":"東京都杉並区天沼3丁目6-6","lat":35.70638338,"lon":139.61857248},{"name":"言語生活サポートセンター","province":"東京都","city":"杉並区","address":"東京都杉並区荻窪5丁目20-17","lat":35.70217835,"lon":139.62068638},{"name":"杉並区保健福祉部障害者生活支援課地域生活支援担当（生活リハビリ・ふれあい広場）","province":"東京都","city":"杉並区","address":"東京都杉並区高井戸東4丁目10-5","lat":35.68943532,"lon":139.61778435},{"name":"特定非営利活動法人ゆずりはコミュニケーションズパソコン工房ゆずりは","province":"東京都","city":"杉並区","address":"東京都杉並区荻窪1丁目20-15","lat":35.69292385,"lon":139.61953685},{"name":"社会福祉法人虹旗社杉並・あしたの会福祉作業所","province":"東京都","city":"杉並区","address":"東京都杉並区阿佐谷南3丁目12-1","lat":35.70247855,"lon":139.62913014},{"name":"特定非営利活動法人杉並福助会地球儀","province":"東京都","city":"杉並区","address":"東京都杉並区永福2丁目23-7","lat":35.67286298,"lon":139.64254127},{"name":"特定非営利活動法人TRY福祉会ゆい企画","province":"東京都","city":"杉並区","address":"東京都杉並区成田東5丁目15-21","lat":35.70208693,"lon":139.6288274},{"name":"特定非営利活動法人けやき精神保健福祉会けやき亭","province":"東京都","city":"杉並区","address":"東京都杉並区成田東3丁目1-3","lat":35.69454647,"lon":139.64087118},{"name":"ＮＰＯ法人障害者就労支援センターどんまい福祉工房","province":"東京都","city":"杉並区","address":"東京都杉並区本天沼1丁目24-9","lat":35.7138968,"lon":139.63209881},{"name":"すぎなみ1５1","province":"東京都","city":"杉並区","address":"東京都杉並区永福4丁目19-4","lat":35.67978978,"lon":139.63709985},{"name":"一般社団法人クレオソーレ・ｋｏｅｎ ｔhｅ ＴＡＯ","province":"東京都","city":"杉並区","address":"東京都杉並区高円寺北3丁目6-2","lat":35.70532866,"lon":139.64515644},{"name":"特定非営利活動法人まどかアゲイン","province":"東京都","city":"杉並区","address":"東京都杉並区永福1丁目27-31","lat":35.67226032,"lon":139.64465222},{"name":"特定非営利活動法人ラルゴ工房ラルゴ","province":"東京都","city":"杉並区","address":"東京都杉並区上荻4丁目29-22","lat":35.71118242,"lon":139.60242912},{"name":"社会福祉法人いたるセンター阿佐谷福祉工房","province":"東京都","city":"杉並区","address":"東京都杉並区天沼1丁目15-18","lat":35.70769465,"lon":139.63002427},{"name":"社会福祉法人いたるセンターあけぼの作業所","province":"東京都","city":"杉並区","address":"東京都杉並区上井草4丁目3-11","lat":35.71811483,"lon":139.59709039},{"name":"社会福祉法人済美会ひまわり作業所","province":"東京都","city":"杉並区","address":"東京都杉並区松庵2丁目22-22","lat":35.69832806,"lon":139.59277207},{"name":"社会福祉法人視覚障害者支援総合センターチャレンジ","province":"東京都","city":"杉並区","address":"東京都杉並区桃井4丁目4-3","lat":35.71259613,"lon":139.60146525},{"name":"社会福祉法人かたつむり会ワークショップ・かたつむり","province":"東京都","city":"杉並区","address":"東京都杉並区和田1丁目5-18","lat":35.68903666,"lon":139.66319167},{"name":"一般社団法人ワークみらいワークみらい","province":"東京都","city":"杉並区","address":"東京都杉並区天沼3丁目6-6","lat":35.70638338,"lon":139.61857248},{"name":"言語生活サポートセンター","province":"東京都","city":"杉並区","address":"東京都杉並区荻窪5丁目20-17","lat":35.70217835,"lon":139.62068638},{"name":"杉並区保健福祉部障害者生活支援課地域生活支援担当（生活リハビリ・ふれあい広場）","province":"東京都","city":"杉並区","address":"東京都杉並区高井戸東4丁目10-5","lat":35.68943532,"lon":139.61778435},{"name":"特定非営利活動法人ゆずりはコミュニケーションズパソコン工房ゆずりは","province":"東京都","city":"杉並区","address":"東京都杉並区荻窪1丁目20-15","lat":35.69292385,"lon":139.61953685},{"name":"社会福祉法人虹旗社杉並・あしたの会福祉作業所","province":"東京都","city":"杉並区","address":"東京都杉並区阿佐谷南3丁目12-1","lat":35.70247855,"lon":139.62913014},{"name":"特定非営利活動法人杉並福助会地球儀","province":"東京都","city":"杉並区","address":"東京都杉並区永福2丁目23-7","lat":35.67286298,"lon":139.64254127},{"name":"特定非営利活動法人TRY福祉会ゆい企画","province":"東京都","city":"杉並区","address":"東京都杉並区成田東5丁目15-21","lat":35.70208693,"lon":139.6288274},{"name":"特定非営利活動法人けやき精神保健福祉会けやき亭","province":"東京都","city":"杉並区","address":"東京都杉並区成田東3丁目1-3","lat":35.69454647,"lon":139.64087118},{"name":"ＮＰＯ法人障害者就労支援センターどんまい福祉工房","province":"東京都","city":"杉並区","address":"東京都杉並区本天沼1丁目24-9","lat":35.7138968,"lon":139.63209881},{"name":"すぎなみ1５1","province":"東京都","city":"杉並区","address":"東京都杉並区永福4丁目19-4","lat":35.67978978,"lon":139.63709985},{"name":"一般社団法人クレオソーレ・ｋｏｅｎ ｔhｅ ＴＡＯ","province":"東京都","city":"杉並区","address":"東京都杉並区高円寺北3丁目6-2","lat":35.70532866,"lon":139.64515644},{"name":"特定非営利活動法人まどかアゲイン","province":"東京都","city":"杉並区","address":"東京都杉並区永福1丁目27-31","lat":35.67226032,"lon":139.64465222},{"name":"特定非営利活動法人ラルゴ工房ラルゴ","province":"東京都","city":"杉並区","address":"東京都杉並区上荻4丁目29-22","lat":35.71118242,"lon":139.60242912},{"name":"社会福祉法人いたるセンター阿佐谷福祉工房","province":"東京都","city":"杉並区","address":"東京都杉並区天沼1丁目15-18","lat":35.70769465,"lon":139.63002427},{"name":"社会福祉法人いたるセンターあけぼの作業所","province":"東京都","city":"杉並区","address":"東京都杉並区上井草4丁目3-11","lat":35.71811483,"lon":139.59709039},{"name":"社会福祉法人済美会ひまわり作業所","province":"東京都","city":"杉並区","address":"東京都杉並区松庵2丁目22-22","lat":35.69832806,"lon":139.59277207},{"name":"社会福祉法人視覚障害者支援総合センターチャレンジ","province":"東京都","city":"杉並区","address":"東京都杉並区桃井4丁目4-3","lat":35.71259613,"lon":139.60146525},{"name":"社会福祉法人かたつむり会ワークショップ・かたつむり","province":"東京都","city":"杉並区","address":"東京都杉並区和田1丁目5-18","lat":35.68903666,"lon":139.66319167},{"name":"一般社団法人ワークみらいワークみらい","province":"東京都","city":"杉並区","address":"東京都杉並区天沼3丁目6-6","lat":35.70638338,"lon":139.61857248},{"name":"言語生活サポートセンター","province":"東京都","city":"杉並区","address":"東京都杉並区荻窪5丁目20-17","lat":35.70217835,"lon":139.62068638},{"name":"杉並区保健福祉部障害者生活支援課地域生活支援担当（生活リハビリ・ふれあい広場）","province":"東京都","city":"杉並区","address":"東京都杉並区高井戸東4丁目10-5","lat":35.68943532,"lon":139.61778435},{"name":"特定非営利活動法人ゆずりはコミュニケーションズパソコン工房ゆずりは","province":"東京都","city":"杉並区","address":"東京都杉並区荻窪1丁目20-15","lat":35.69292385,"lon":139.61953685},{"name":"社会福祉法人虹旗社杉並・あしたの会福祉作業所","province":"東京都","city":"杉並区","address":"東京都杉並区阿佐谷南3丁目12-1","lat":35.70247855,"lon":139.62913014},{"name":"特定非営利活動法人杉並福助会地球儀","province":"東京都","city":"杉並区","address":"東京都杉並区永福2丁目23-7","lat":35.67286298,"lon":139.64254127},{"name":"特定非営利活動法人TRY福祉会ゆい企画","province":"東京都","city":"杉並区","address":"東京都杉並区成田東5丁目15-21","lat":35.70208693,"lon":139.6288274},{"name":"特定非営利活動法人けやき精神保健福祉会けやき亭","province":"東京都","city":"杉並区","address":"東京都杉並区成田東3丁目1-3","lat":35.69454647,"lon":139.64087118},{"name":"ＮＰＯ法人障害者就労支援センターどんまい福祉工房","province":"東京都","city":"杉並区","address":"東京都杉並区本天沼1丁目24-9","lat":35.7138968,"lon":139.63209881},{"name":"すぎなみ1５1","province":"東京都","city":"杉並区","address":"東京都杉並区永福4丁目19-4","lat":35.67978978,"lon":139.63709985},{"name":"一般社団法人クレオソーレ・ｋｏｅｎ ｔhｅ ＴＡＯ","province":"東京都","city":"杉並区","address":"東京都杉並区高円寺北3丁目6-2","lat":35.70532866,"lon":139.64515644},{"name":"特定非営利活動法人まどかアゲイン","province":"東京都","city":"杉並区","address":"東京都杉並区永福1丁目27-31","lat":35.67226032,"lon":139.64465222},{"name":"特定非営利活動法人ラルゴ工房ラルゴ","province":"東京都","city":"杉並区","address":"東京都杉並区上荻4丁目29-22","lat":35.71118242,"lon":139.60242912},{"name":"社会福祉法人いたるセンター阿佐谷福祉工房","province":"東京都","city":"杉並区","address":"東京都杉並区天沼1丁目15-18","lat":35.70769465,"lon":139.63002427},{"name":"社会福祉法人いたるセンターあけぼの作業所","province":"東京都","city":"杉並区","address":"東京都杉並区上井草4丁目3-11","lat":35.71811483,"lon":139.59709039},{"name":"社会福祉法人済美会ひまわり作業所","province":"東京都","city":"杉並区","address":"東京都杉並区松庵2丁目22-22","lat":35.69832806,"lon":139.59277207},{"name":"社会福祉法人視覚障害者支援総合センターチャレンジ","province":"東京都","city":"杉並区","address":"東京都杉並区桃井4丁目4-3","lat":35.71259613,"lon":139.60146525},{"name":"社会福祉法人かたつむり会ワークショップ・かたつむり","province":"東京都","city":"杉並区","address":"東京都杉並区和田1丁目5-18","lat":35.68903666,"lon":139.66319167},{"name":"一般社団法人ワークみらいワークみらい","province":"東京都","city":"杉並区","address":"東京都杉並区天沼3丁目6-6","lat":35.70638338,"lon":139.61857248},{"name":"言語生活サポートセンター","province":"東京都","city":"杉並区","address":"東京都杉並区荻窪5丁目20-17","lat":35.70217835,"lon":139.62068638},{"name":"杉並区保健福祉部障害者生活支援課地域生活支援担当（生活リハビリ・ふれあい広場）","province":"東京都","city":"杉並区","address":"東京都杉並区高井戸東4丁目10-5","lat":35.68943532,"lon":139.61778435},{"name":"特定非営利活動法人ゆずりはコミュニケーションズパソコン工房ゆずりは","province":"東京都","city":"杉並区","address":"東京都杉並区荻窪1丁目20-15","lat":35.69292385,"lon":139.61953685},{"name":"社会福祉法人虹旗社杉並・あしたの会福祉作業所","province":"東京都","city":"杉並区","address":"東京都杉並区阿佐谷南3丁目12-1","lat":35.70247855,"lon":139.62913014},{"name":"特定非営利活動法人杉並福助会地球儀","province":"東京都","city":"杉並区","address":"東京都杉並区永福2丁目23-7","lat":35.67286298,"lon":139.64254127},{"name":"特定非営利活動法人TRY福祉会ゆい企画","province":"東京都","city":"杉並区","address":"東京都杉並区成田東5丁目15-21","lat":35.70208693,"lon":139.6288274},{"name":"特定非営利活動法人けやき精神保健福祉会けやき亭","province":"東京都","city":"杉並区","address":"東京都杉並区成田東3丁目1-3","lat":35.69454647,"lon":139.64087118},{"name":"ＮＰＯ法人障害者就労支援センターどんまい福祉工房","province":"東京都","city":"杉並区","address":"東京都杉並区本天沼1丁目24-9","lat":35.7138968,"lon":139.63209881},{"name":"すぎなみ1５1","province":"東京都","city":"杉並区","address":"東京都杉並区永福4丁目19-4","lat":35.67978978,"lon":139.63709985},{"name":"一般社団法人クレオソーレ・ｋｏｅｎ ｔhｅ ＴＡＯ","province":"東京都","city":"杉並区","address":"東京都杉並区高円寺北3丁目6-2","lat":35.70532866,"lon":139.64515644},{"name":"特定非営利活動法人まどかアゲイン","province":"東京都","city":"杉並区","address":"東京都杉並区永福1丁目27-31","lat":35.67226032,"lon":139.64465222},{"name":"特定非営利活動法人ラルゴ工房ラルゴ","province":"東京都","city":"杉並区","address":"東京都杉並区上荻4丁目29-22","lat":35.71118242,"lon":139.60242912},{"name":"社会福祉法人いたるセンター阿佐谷福祉工房","province":"東京都","city":"杉並区","address":"東京都杉並区天沼1丁目15-18","lat":35.70769465,"lon":139.63002427},{"name":"社会福祉法人いたるセンターあけぼの作業所","province":"東京都","city":"杉並区","address":"東京都杉並区上井草4丁目3-11","lat":35.71811483,"lon":139.59709039},{"name":"社会福祉法人済美会ひまわり作業所","province":"東京都","city":"杉並区","address":"東京都杉並区松庵2丁目22-22","lat":35.69832806,"lon":139.59277207},{"name":"社会福祉法人視覚障害者支援総合センターチャレンジ","province":"東京都","city":"杉並区","address":"東京都杉並区桃井4丁目4-3","lat":35.71259613,"lon":139.60146525},{"name":"社会福祉法人かたつむり会ワークショップ・かたつむり","province":"東京都","city":"杉並区","address":"東京都杉並区和田1丁目5-18","lat":35.68903666,"lon":139.66319167},{"name":"一般社団法人ワークみらいワークみらい","province":"東京都","city":"杉並区","address":"東京都杉並区天沼3丁目6-6","lat":35.70638338,"lon":139.61857248},{"name":"言語生活サポートセンター","province":"東京都","city":"杉並区","address":"東京都杉並区荻窪5丁目20-17","lat":35.70217835,"lon":139.62068638},{"name":"杉並区保健福祉部障害者生活支援課地域生活支援担当（生活リハビリ・ふれあい広場）","province":"東京都","city":"杉並区","address":"東京都杉並区高井戸東4丁目10-5","lat":35.68943532,"lon":139.61778435},{"name":"特定非営利活動法人ゆずりはコミュニケーションズパソコン工房ゆずりは","province":"東京都","city":"杉並区","address":"東京都杉並区荻窪1丁目20-15","lat":35.69292385,"lon":139.61953685},{"name":"社会福祉法人虹旗社杉並・あしたの会福祉作業所","province":"東京都","city":"杉並区","address":"東京都杉並区阿佐谷南3丁目12-1","lat":35.70247855,"lon":139.62913014},{"name":"特定非営利活動法人杉並福助会地球儀","province":"東京都","city":"杉並区","address":"東京都杉並区永福2丁目23-7","lat":35.67286298,"lon":139.64254127},{"name":"特定非営利活動法人TRY福祉会ゆい企画","province":"東京都","city":"杉並区","address":"東京都杉並区成田東5丁目15-21","lat":35.70208693,"lon":139.6288274},{"name":"特定非営利活動法人けやき精神保健福祉会けやき亭","province":"東京都","city":"杉並区","address":"東京都杉並区成田東3丁目1-3","lat":35.69454647,"lon":139.64087118},{"name":"ＮＰＯ法人障害者就労支援センターどんまい福祉工房","province":"東京都","city":"杉並区","address":"東京都杉並区本天沼1丁目24-9","lat":35.7138968,"lon":139.63209881},{"name":"すぎなみ1５1","province":"東京都","city":"杉並区","address":"東京都杉並区永福4丁目19-4","lat":35.67978978,"lon":139.63709985},{"name":"一般社団法人クレオソーレ・ｋｏｅｎ ｔhｅ ＴＡＯ","province":"東京都","city":"杉並区","address":"東京都杉並区高円寺北3丁目6-2","lat":35.70532866,"lon":139.64515644},{"name":"特定非営利活動法人まどかアゲイン","province":"東京都","city":"杉並区","address":"東京都杉並区永福1丁目27-31","lat":35.67226032,"lon":139.64465222},{"name":"特定非営利活動法人ラルゴ工房ラルゴ","province":"東京都","city":"杉並区","address":"東京都杉並区上荻4丁目29-22","lat":35.71118242,"lon":139.60242912},{"name":"社会福祉法人いたるセンター阿佐谷福祉工房","province":"東京都","city":"杉並区","address":"東京都杉並区天沼1丁目15-18","lat":35.70769465,"lon":139.63002427},{"name":"社会福祉法人いたるセンターあけぼの作業所","province":"東京都","city":"杉並区","address":"東京都杉並区上井草4丁目3-11","lat":35.71811483,"lon":139.59709039},{"name":"社会福祉法人済美会ひまわり作業所","province":"東京都","city":"杉並区","address":"東京都杉並区松庵2丁目22-22","lat":35.69832806,"lon":139.59277207},{"name":"社会福祉法人視覚障害者支援総合センターチャレンジ","province":"東京都","city":"杉並区","address":"東京都杉並区桃井4丁目4-3","lat":35.71259613,"lon":139.60146525},{"name":"社会福祉法人かたつむり会ワークショップ・かたつむり","province":"東京都","city":"杉並区","address":"東京都杉並区和田1丁目5-18","lat":35.68903666,"lon":139.66319167},{"name":"一般社団法人ワークみらいワークみらい","province":"東京都","city":"杉並区","address":"東京都杉並区天沼3丁目6-6","lat":35.70638338,"lon":139.61857248},{"name":"言語生活サポートセンター","province":"東京都","city":"杉並区","address":"東京都杉並区荻窪5丁目20-17","lat":35.70217835,"lon":139.62068638},{"name":"杉並区保健福祉部障害者生活支援課地域生活支援担当（生活リハビリ・ふれあい広場）","province":"東京都","city":"杉並区","address":"東京都杉並区高井戸東4丁目10-5","lat":35.68943532,"lon":139.61778435},{"name":"特定非営利活動法人ゆずりはコミュニケーションズパソコン工房ゆずりは","province":"東京都","city":"杉並区","address":"東京都杉並区荻窪1丁目20-15","lat":35.69292385,"lon":139.61953685},{"name":"社会福祉法人虹旗社杉並・あしたの会福祉作業所","province":"東京都","city":"杉並区","address":"東京都杉並区阿佐谷南3丁目12-1","lat":35.70247855,"lon":139.62913014},{"name":"特定非営利活動法人杉並福助会地球儀","province":"東京都","city":"杉並区","address":"東京都杉並区永福2丁目23-7","lat":35.67286298,"lon":139.64254127},{"name":"特定非営利活動法人TRY福祉会ゆい企画","province":"東京都","city":"杉並区","address":"東京都杉並区成田東5丁目15-21","lat":35.70208693,"lon":139.6288274},{"name":"特定非営利活動法人けやき精神保健福祉会けやき亭","province":"東京都","city":"杉並区","address":"東京都杉並区成田東3丁目1-3","lat":35.69454647,"lon":139.64087118},{"name":"ＮＰＯ法人障害者就労支援センターどんまい福祉工房","province":"東京都","city":"杉並区","address":"東京都杉並区本天沼1丁目24-9","lat":35.7138968,"lon":139.63209881},{"name":"すぎなみ1５1","province":"東京都","city":"杉並区","address":"東京都杉並区永福4丁目19-4","lat":35.67978978,"lon":139.63709985},{"name":"一般社団法人クレオソーレ・ｋｏｅｎ ｔhｅ ＴＡＯ","province":"東京都","city":"杉並区","address":"東京都杉並区高円寺北3丁目6-2","lat":35.70532866,"lon":139.64515644},{"name":"特定非営利活動法人まどかアゲイン","province":"東京都","city":"杉並区","address":"東京都杉並区永福1丁目27-31","lat":35.67226032,"lon":139.64465222},{"name":"特定非営利活動法人ラルゴ工房ラルゴ","province":"東京都","city":"杉並区","address":"東京都杉並区上荻4丁目29-22","lat":35.71118242,"lon":139.60242912},{"name":"社会福祉法人いたるセンター阿佐谷福祉工房","province":"東京都","city":"杉並区","address":"東京都杉並区天沼1丁目15-18","lat":35.70769465,"lon":139.63002427},{"name":"社会福祉法人いたるセンターあけぼの作業所","province":"東京都","city":"杉並区","address":"東京都杉並区上井草4丁目3-11","lat":35.71811483,"lon":139.59709039},{"name":"社会福祉法人済美会ひまわり作業所","province":"東京都","city":"杉並区","address":"東京都杉並区松庵2丁目22-22","lat":35.69832806,"lon":139.59277207},{"name":"社会福祉法人視覚障害者支援総合センターチャレンジ","province":"東京都","city":"杉並区","address":"東京都杉並区桃井4丁目4-3","lat":35.71259613,"lon":139.60146525},{"name":"社会福祉法人かたつむり会ワークショップ・かたつむり","province":"東京都","city":"杉並区","address":"東京都杉並区和田1丁目5-18","lat":35.68903666,"lon":139.66319167},{"name":"一般社団法人ワークみらいワークみらい","province":"東京都","city":"杉並区","address":"東京都杉並区天沼3丁目6-6","lat":35.70638338,"lon":139.61857248},{"name":"言語生活サポートセンター","province":"東京都","city":"杉並区","address":"東京都杉並区荻窪5丁目20-17","lat":35.70217835,"lon":139.62068638},{"name":"杉並区保健福祉部障害者生活支援課地域生活支援担当（生活リハビリ・ふれあい広場）","province":"東京都","city":"杉並区","address":"東京都杉並区高井戸東4丁目10-5","lat":35.68943532,"lon":139.61778435},{"name":"特定非営利活動法人ゆずりはコミュニケーションズパソコン工房ゆずりは","province":"東京都","city":"杉並区","address":"東京都杉並区荻窪1丁目20-15","lat":35.69292385,"lon":139.61953685},{"name":"社会福祉法人虹旗社杉並・あしたの会福祉作業所","province":"東京都","city":"杉並区","address":"東京都杉並区阿佐谷南3丁目12-1","lat":35.70247855,"lon":139.62913014},{"name":"特定非営利活動法人杉並福助会地球儀","province":"東京都","city":"杉並区","address":"東京都杉並区永福2丁目23-7","lat":35.67286298,"lon":139.64254127},{"name":"特定非営利活動法人TRY福祉会ゆい企画","province":"東京都","city":"杉並区","address":"東京都杉並区成田東5丁目15-21","lat":35.70208693,"lon":139.6288274},{"name":"特定非営利活動法人けやき精神保健福祉会けやき亭","province":"東京都","city":"杉並区","address":"東京都杉並区成田東3丁目1-3","lat":35.69454647,"lon":139.64087118},{"name":"ＮＰＯ法人障害者就労支援センターどんまい福祉工房","province":"東京都","city":"杉並区","address":"東京都杉並区本天沼1丁目24-9","lat":35.7138968,"lon":139.63209881},{"name":"すぎなみ1５1","province":"東京都","city":"杉並区","address":"東京都杉並区永福4丁目19-4","lat":35.67978978,"lon":139.63709985},{"name":"一般社団法人クレオソーレ・ｋｏｅｎ ｔhｅ ＴＡＯ","province":"東京都","city":"杉並区","address":"東京都杉並区高円寺北3丁目6-2","lat":35.70532866,"lon":139.64515644},{"name":"特定非営利活動法人まどかアゲイン","province":"東京都","city":"杉並区","address":"東京都杉並区永福1丁目27-31","lat":35.67226032,"lon":139.64465222},{"name":"特定非営利活動法人ラルゴ工房ラルゴ","province":"東京都","city":"杉並区","address":"東京都杉並区上荻4丁目29-22","lat":35.71118242,"lon":139.60242912},{"name":"社会福祉法人いたるセンター阿佐谷福祉工房","province":"東京都","city":"杉並区","address":"東京都杉並区天沼1丁目15-18","lat":35.70769465,"lon":139.63002427},{"name":"社会福祉法人いたるセンターあけぼの作業所","province":"東京都","city":"杉並区","address":"東京都杉並区上井草4丁目3-11","lat":35.71811483,"lon":139.59709039},{"name":"社会福祉法人済美会ひまわり作業所","province":"東京都","city":"杉並区","address":"東京都杉並区松庵2丁目22-22","lat":35.69832806,"lon":139.59277207},{"name":"社会福祉法人視覚障害者支援総合センターチャレンジ","province":"東京都","city":"杉並区","address":"東京都杉並区桃井4丁目4-3","lat":35.71259613,"lon":139.60146525},{"name":"社会福祉法人かたつむり会ワークショップ・かたつむり","province":"東京都","city":"杉並区","address":"東京都杉並区和田1丁目5-18","lat":35.68903666,"lon":139.66319167},{"name":"一般社団法人ワークみらいワークみらい","province":"東京都","city":"杉並区","address":"東京都杉並区天沼3丁目6-6","lat":35.70638338,"lon":139.61857248},{"name":"言語生活サポートセンター","province":"東京都","city":"杉並区","address":"東京都杉並区荻窪5丁目20-17","lat":35.70217835,"lon":139.62068638},{"name":"杉並区保健福祉部障害者生活支援課地域生活支援担当（生活リハビリ・ふれあい広場）","province":"東京都","city":"杉並区","address":"東京都杉並区高井戸東4丁目10-5","lat":35.68943532,"lon":139.61778435},{"name":"特定非営利活動法人ゆずりはコミュニケーションズパソコン工房ゆずりは","province":"東京都","city":"杉並区","address":"東京都杉並区荻窪1丁目20-15","lat":35.69292385,"lon":139.61953685},{"name":"社会福祉法人虹旗社杉並・あしたの会福祉作業所","province":"東京都","city":"杉並区","address":"東京都杉並区阿佐谷南3丁目12-1","lat":35.70247855,"lon":139.62913014},{"name":"特定非営利活動法人杉並福助会地球儀","province":"東京都","city":"杉並区","address":"東京都杉並区永福2丁目23-7","lat":35.67286298,"lon":139.64254127},{"name":"特定非営利活動法人TRY福祉会ゆい企画","province":"東京都","city":"杉並区","address":"東京都杉並区成田東5丁目15-21","lat":35.70208693,"lon":139.6288274},{"name":"特定非営利活動法人けやき精神保健福祉会けやき亭","province":"東京都","city":"杉並区","address":"東京都杉並区成田東3丁目1-3","lat":35.69454647,"lon":139.64087118},{"name":"ＮＰＯ法人障害者就労支援センターどんまい福祉工房","province":"東京都","city":"杉並区","address":"東京都杉並区本天沼1丁目24-9","lat":35.7138968,"lon":139.63209881},{"name":"すぎなみ1５1","province":"東京都","city":"杉並区","address":"東京都杉並区永福4丁目19-4","lat":35.67978978,"lon":139.63709985},{"name":"一般社団法人クレオソーレ・ｋｏｅｎ ｔhｅ ＴＡＯ","province":"東京都","city":"杉並区","address":"東京都杉並区高円寺北3丁目6-2","lat":35.70532866,"lon":139.64515644},{"name":"特定非営利活動法人まどかアゲイン","province":"東京都","city":"杉並区","address":"東京都杉並区永福1丁目27-31","lat":35.67226032,"lon":139.64465222},{"name":"特定非営利活動法人ラルゴ工房ラルゴ","province":"東京都","city":"杉並区","address":"東京都杉並区上荻4丁目29-22","lat":35.71118242,"lon":139.60242912},{"name":"社会福祉法人いたるセンター阿佐谷福祉工房","province":"東京都","city":"杉並区","address":"東京都杉並区天沼1丁目15-18","lat":35.70769465,"lon":139.63002427},{"name":"社会福祉法人いたるセンターあけぼの作業所","province":"東京都","city":"杉並区","address":"東京都杉並区上井草4丁目3-11","lat":35.71811483,"lon":139.59709039},{"name":"社会福祉法人済美会ひまわり作業所","province":"東京都","city":"杉並区","address":"東京都杉並区松庵2丁目22-22","lat":35.69832806,"lon":139.59277207},{"name":"社会福祉法人視覚障害者支援総合センターチャレンジ","province":"東京都","city":"杉並区","address":"東京都杉並区桃井4丁目4-3","lat":35.71259613,"lon":139.60146525},{"name":"社会福祉法人かたつむり会ワークショップ・かたつむり","province":"東京都","city":"杉並区","address":"東京都杉並区和田1丁目5-18","lat":35.68903666,"lon":139.66319167},{"name":"一般社団法人ワークみらいワークみらい","province":"東京都","city":"杉並区","address":"東京都杉並区天沼3丁目6-6","lat":35.70638338,"lon":139.61857248},{"name":"言語生活サポートセンター","province":"東京都","city":"杉並区","address":"東京都杉並区荻窪5丁目20-17","lat":35.70217835,"lon":139.62068638},{"name":"杉並区保健福祉部障害者生活支援課地域生活支援担当（生活リハビリ・ふれあい広場）","province":"東京都","city":"杉並区","address":"東京都杉並区高井戸東4丁目10-5","lat":35.68943532,"lon":139.61778435},{"name":"特定非営利活動法人ゆずりはコミュニケーションズパソコン工房ゆずりは","province":"東京都","city":"杉並区","address":"東京都杉並区荻窪1丁目20-15","lat":35.69292385,"lon":139.61953685},{"name":"社会福祉法人虹旗社杉並・あしたの会福祉作業所","province":"東京都","city":"杉並区","address":"東京都杉並区阿佐谷南3丁目12-1","lat":35.70247855,"lon":139.62913014},{"name":"特定非営利活動法人杉並福助会地球儀","province":"東京都","city":"杉並区","address":"東京都杉並区永福2丁目23-7","lat":35.67286298,"lon":139.64254127},{"name":"特定非営利活動法人TRY福祉会ゆい企画","province":"東京都","city":"杉並区","address":"東京都杉並区成田東5丁目15-21","lat":35.70208693,"lon":139.6288274},{"name":"特定非営利活動法人けやき精神保健福祉会けやき亭","province":"東京都","city":"杉並区","address":"東京都杉並区成田東3丁目1-3","lat":35.69454647,"lon":139.64087118},{"name":"ＮＰＯ法人障害者就労支援センターどんまい福祉工房","province":"東京都","city":"杉並区","address":"東京都杉並区本天沼1丁目24-9","lat":35.7138968,"lon":139.63209881},{"name":"すぎなみ1５1","province":"東京都","city":"杉並区","address":"東京都杉並区永福4丁目19-4","lat":35.67978978,"lon":139.63709985},{"name":"一般社団法人クレオソーレ・ｋｏｅｎ ｔhｅ ＴＡＯ","province":"東京都","city":"杉並区","address":"東京都杉並区高円寺北3丁目6-2","lat":35.70532866,"lon":139.64515644},{"name":"特定非営利活動法人まどかアゲイン","province":"東京都","city":"杉並区","address":"東京都杉並区永福1丁目27-31","lat":35.67226032,"lon":139.64465222},{"name":"特定非営利活動法人ラルゴ工房ラルゴ","province":"東京都","city":"杉並区","address":"東京都杉並区上荻4丁目29-22","lat":35.71118242,"lon":139.60242912},{"name":"社会福祉法人いたるセンター阿佐谷福祉工房","province":"東京都","city":"杉並区","address":"東京都杉並区天沼1丁目15-18","lat":35.70769465,"lon":139.63002427},{"name":"社会福祉法人いたるセンターあけぼの作業所","province":"東京都","city":"杉並区","address":"東京都杉並区上井草4丁目3-11","lat":35.71811483,"lon":139.59709039},{"name":"社会福祉法人済美会ひまわり作業所","province":"東京都","city":"杉並区","address":"東京都杉並区松庵2丁目22-22","lat":35.69832806,"lon":139.59277207},{"name":"社会福祉法人視覚障害者支援総合センターチャレンジ","province":"東京都","city":"杉並区","address":"東京都杉並区桃井4丁目4-3","lat":35.71259613,"lon":139.60146525},{"name":"社会福祉法人かたつむり会ワークショップ・かたつむり","province":"東京都","city":"杉並区","address":"東京都杉並区和田1丁目5-18","lat":35.68903666,"lon":139.66319167},{"name":"一般社団法人ワークみらいワークみらい","province":"東京都","city":"杉並区","address":"東京都杉並区天沼3丁目6-6","lat":35.70638338,"lon":139.61857248},{"name":"言語生活サポートセンター","province":"東京都","city":"杉並区","address":"東京都杉並区荻窪5丁目20-17","lat":35.70217835,"lon":139.62068638},{"name":"杉並区保健福祉部障害者生活支援課地域生活支援担当（生活リハビリ・ふれあい広場）","province":"東京都","city":"杉並区","address":"東京都杉並区高井戸東4丁目10-5","lat":35.68943532,"lon":139.61778435},{"name":"特定非営利活動法人ゆずりはコミュニケーションズパソコン工房ゆずりは","province":"東京都","city":"杉並区","address":"東京都杉並区荻窪1丁目20-15","lat":35.69292385,"lon":139.61953685},{"name":"社会福祉法人虹旗社杉並・あしたの会福祉作業所","province":"東京都","city":"杉並区","address":"東京都杉並区阿佐谷南3丁目12-1","lat":35.70247855,"lon":139.62913014},{"name":"特定非営利活動法人杉並福助会地球儀","province":"東京都","city":"杉並区","address":"東京都杉並区永福2丁目23-7","lat":35.67286298,"lon":139.64254127},{"name":"特定非営利活動法人TRY福祉会ゆい企画","province":"東京都","city":"杉並区","address":"東京都杉並区成田東5丁目15-21","lat":35.70208693,"lon":139.6288274},{"name":"特定非営利活動法人けやき精神保健福祉会けやき亭","province":"東京都","city":"杉並区","address":"東京都杉並区成田東3丁目1-3","lat":35.69454647,"lon":139.64087118},{"name":"ＮＰＯ法人障害者就労支援センターどんまい福祉工房","province":"東京都","city":"杉並区","address":"東京都杉並区本天沼1丁目24-9","lat":35.7138968,"lon":139.63209881},{"name":"すぎなみ1５1","province":"東京都","city":"杉並区","address":"東京都杉並区永福4丁目19-4","lat":35.67978978,"lon":139.63709985},{"name":"一般社団法人クレオソーレ・ｋｏｅｎ ｔhｅ ＴＡＯ","province":"東京都","city":"杉並区","address":"東京都杉並区高円寺北3丁目6-2","lat":35.70532866,"lon":139.64515644},{"name":"特定非営利活動法人まどかアゲイン","province":"東京都","city":"杉並区","address":"東京都杉並区永福1丁目27-31","lat":35.67226032,"lon":139.64465222},{"name":"特定非営利活動法人ラルゴ工房ラルゴ","province":"東京都","city":"杉並区","address":"東京都杉並区上荻4丁目29-22","lat":35.71118242,"lon":139.60242912},{"name":"社会福祉法人いたるセンター阿佐谷福祉工房","province":"東京都","city":"杉並区","address":"東京都杉並区天沼1丁目15-18","lat":35.70769465,"lon":139.63002427},{"name":"社会福祉法人いたるセンターあけぼの作業所","province":"東京都","city":"杉並区","address":"東京都杉並区上井草4丁目3-11","lat":35.71811483,"lon":139.59709039},{"name":"社会福祉法人済美会ひまわり作業所","province":"東京都","city":"杉並区","address":"東京都杉並区松庵2丁目22-22","lat":35.69832806,"lon":139.59277207},{"name":"社会福祉法人視覚障害者支援総合センターチャレンジ","province":"東京都","city":"杉並区","address":"東京都杉並区桃井4丁目4-3","lat":35.71259613,"lon":139.60146525},{"name":"社会福祉法人かたつむり会ワークショップ・かたつむり","province":"東京都","city":"杉並区","address":"東京都杉並区和田1丁目5-18","lat":35.68903666,"lon":139.66319167},{"name":"一般社団法人ワークみらいワークみらい","province":"東京都","city":"杉並区","address":"東京都杉並区天沼3丁目6-6","lat":35.70638338,"lon":139.61857248},{"name":"言語生活サポートセンター","province":"東京都","city":"杉並区","address":"東京都杉並区荻窪5丁目20-17","lat":35.70217835,"lon":139.62068638},{"name":"杉並区保健福祉部障害者生活支援課地域生活支援担当（生活リハビリ・ふれあい広場）","province":"東京都","city":"杉並区","address":"東京都杉並区高井戸東4丁目10-5","lat":35.68943532,"lon":139.61778435},{"name":"特定非営利活動法人ゆずりはコミュニケーションズパソコン工房ゆずりは","province":"東京都","city":"杉並区","address":"東京都杉並区荻窪1丁目20-15","lat":35.69292385,"lon":139.61953685},{"name":"社会福祉法人虹旗社杉並・あしたの会福祉作業所","province":"東京都","city":"杉並区","address":"東京都杉並区阿佐谷南3丁目12-1","lat":35.70247855,"lon":139.62913014},{"name":"特定非営利活動法人杉並福助会地球儀","province":"東京都","city":"杉並区","address":"東京都杉並区永福2丁目23-7","lat":35.67286298,"lon":139.64254127},{"name":"特定非営利活動法人TRY福祉会ゆい企画","province":"東京都","city":"杉並区","address":"東京都杉並区成田東5丁目15-21","lat":35.70208693,"lon":139.6288274},{"name":"特定非営利活動法人けやき精神保健福祉会けやき亭","province":"東京都","city":"杉並区","address":"東京都杉並区成田東3丁目1-3","lat":35.69454647,"lon":139.64087118},{"name":"ＮＰＯ法人障害者就労支援センターどんまい福祉工房","province":"東京都","city":"杉並区","address":"東京都杉並区本天沼1丁目24-9","lat":35.7138968,"lon":139.63209881},{"name":"すぎなみ1５1","province":"東京都","city":"杉並区","address":"東京都杉並区永福4丁目19-4","lat":35.67978978,"lon":139.63709985},{"name":"一般社団法人クレオソーレ・ｋｏｅｎ ｔhｅ ＴＡＯ","province":"東京都","city":"杉並区","address":"東京都杉並区高円寺北3丁目6-2","lat":35.70532866,"lon":139.64515644},{"name":"特定非営利活動法人まどかアゲイン","province":"東京都","city":"杉並区","address":"東京都杉並区永福1丁目27-31","lat":35.67226032,"lon":139.64465222},{"name":"特定非営利活動法人ラルゴ工房ラルゴ","province":"東京都","city":"杉並区","address":"東京都杉並区上荻4丁目29-22","lat":35.71118242,"lon":139.60242912},{"name":"社会福祉法人いたるセンター阿佐谷福祉工房","province":"東京都","city":"杉並区","address":"東京都杉並区天沼1丁目15-18","lat":35.70769465,"lon":139.63002427},{"name":"社会福祉法人いたるセンターあけぼの作業所","province":"東京都","city":"杉並区","address":"東京都杉並区上井草4丁目3-11","lat":35.71811483,"lon":139.59709039},{"name":"社会福祉法人済美会ひまわり作業所","province":"東京都","city":"杉並区","address":"東京都杉並区松庵2丁目22-22","lat":35.69832806,"lon":139.59277207},{"name":"社会福祉法人視覚障害者支援総合センターチャレンジ","province":"東京都","city":"杉並区","address":"東京都杉並区桃井4丁目4-3","lat":35.71259613,"lon":139.60146525},{"name":"社会福祉法人かたつむり会ワークショップ・かたつむり","province":"東京都","city":"杉並区","address":"東京都杉並区和田1丁目5-18","lat":35.68903666,"lon":139.66319167},{"name":"一般社団法人ワークみらいワークみらい","province":"東京都","city":"杉並区","address":"東京都杉並区天沼3丁目6-6","lat":35.70638338,"lon":139.61857248},{"name":"言語生活サポートセンター","province":"東京都","city":"杉並区","address":"東京都杉並区荻窪5丁目20-17","lat":35.70217835,"lon":139.62068638},{"name":"杉並区保健福祉部障害者生活支援課地域生活支援担当（生活リハビリ・ふれあい広場）","province":"東京都","city":"杉並区","address":"東京都杉並区高井戸東4丁目10-5","lat":35.68943532,"lon":139.61778435},{"name":"特定非営利活動法人ゆずりはコミュニケーションズパソコン工房ゆずりは","province":"東京都","city":"杉並区","address":"東京都杉並区荻窪1丁目20-15","lat":35.69292385,"lon":139.61953685},{"name":"社会福祉法人虹旗社杉並・あしたの会福祉作業所","province":"東京都","city":"杉並区","address":"東京都杉並区阿佐谷南3丁目12-1","lat":35.70247855,"lon":139.62913014},{"name":"特定非営利活動法人杉並福助会地球儀","province":"東京都","city":"杉並区","address":"東京都杉並区永福2丁目23-7","lat":35.67286298,"lon":139.64254127},{"name":"特定非営利活動法人TRY福祉会ゆい企画","province":"東京都","city":"杉並区","address":"東京都杉並区成田東5丁目15-21","lat":35.70208693,"lon":139.6288274},{"name":"特定非営利活動法人けやき精神保健福祉会けやき亭","province":"東京都","city":"杉並区","address":"東京都杉並区成田東3丁目1-3","lat":35.69454647,"lon":139.64087118},{"name":"ＮＰＯ法人障害者就労支援センターどんまい福祉工房","province":"東京都","city":"杉並区","address":"東京都杉並区本天沼1丁目24-9","lat":35.7138968,"lon":139.63209881},{"name":"すぎなみ1５1","province":"東京都","city":"杉並区","address":"東京都杉並区永福4丁目19-4","lat":35.67978978,"lon":139.63709985},{"name":"一般社団法人クレオソーレ・ｋｏｅｎ ｔhｅ ＴＡＯ","province":"東京都","city":"杉並区","address":"東京都杉並区高円寺北3丁目6-2","lat":35.70532866,"lon":139.64515644},{"name":"特定非営利活動法人まどかアゲイン","province":"東京都","city":"杉並区","address":"東京都杉並区永福1丁目27-31","lat":35.67226032,"lon":139.64465222},{"name":"特定非営利活動法人ラルゴ工房ラルゴ","province":"東京都","city":"杉並区","address":"東京都杉並区上荻4丁目29-22","lat":35.71118242,"lon":139.60242912},{"name":"社会福祉法人いたるセンター阿佐谷福祉工房","province":"東京都","city":"杉並区","address":"東京都杉並区天沼1丁目15-18","lat":35.70769465,"lon":139.63002427},{"name":"社会福祉法人いたるセンターあけぼの作業所","province":"東京都","city":"杉並区","address":"東京都杉並区上井草4丁目3-11","lat":35.71811483,"lon":139.59709039},{"name":"社会福祉法人済美会ひまわり作業所","province":"東京都","city":"杉並区","address":"東京都杉並区松庵2丁目22-22","lat":35.69832806,"lon":139.59277207},{"name":"社会福祉法人視覚障害者支援総合センターチャレンジ","province":"東京都","city":"杉並区","address":"東京都杉並区桃井4丁目4-3","lat":35.71259613,"lon":139.60146525},{"name":"社会福祉法人かたつむり会ワークショップ・かたつむり","province":"東京都","city":"杉並区","address":"東京都杉並区和田1丁目5-18","lat":35.68903666,"lon":139.66319167},{"name":"一般社団法人ワークみらいワークみらい","province":"東京都","city":"杉並区","address":"東京都杉並区天沼3丁目6-6","lat":35.70638338,"lon":139.61857248},{"name":"言語生活サポートセンター","province":"東京都","city":"杉並区","address":"東京都杉並区荻窪5丁目20-17","lat":35.70217835,"lon":139.62068638},{"name":"杉並区保健福祉部障害者生活支援課地域生活支援担当（生活リハビリ・ふれあい広場）","province":"東京都","city":"杉並区","address":"東京都杉並区高井戸東4丁目10-5","lat":35.68943532,"lon":139.61778435},{"name":"特定非営利活動法人ゆずりはコミュニケーションズパソコン工房ゆずりは","province":"東京都","city":"杉並区","address":"東京都杉並区荻窪1丁目20-15","lat":35.69292385,"lon":139.61953685},{"name":"社会福祉法人虹旗社杉並・あしたの会福祉作業所","province":"東京都","city":"杉並区","address":"東京都杉並区阿佐谷南3丁目12-1","lat":35.70247855,"lon":139.62913014},{"name":"特定非営利活動法人杉並福助会地球儀","province":"東京都","city":"杉並区","address":"東京都杉並区永福2丁目23-7","lat":35.67286298,"lon":139.64254127},{"name":"特定非営利活動法人TRY福祉会ゆい企画","province":"東京都","city":"杉並区","address":"東京都杉並区成田東5丁目15-21","lat":35.70208693,"lon":139.6288274},{"name":"特定非営利活動法人けやき精神保健福祉会けやき亭","province":"東京都","city":"杉並区","address":"東京都杉並区成田東3丁目1-3","lat":35.69454647,"lon":139.64087118},{"name":"ＮＰＯ法人障害者就労支援センターどんまい福祉工房","province":"東京都","city":"杉並区","address":"東京都杉並区本天沼1丁目24-9","lat":35.7138968,"lon":139.63209881},{"name":"すぎなみ1５1","province":"東京都","city":"杉並区","address":"東京都杉並区永福4丁目19-4","lat":35.67978978,"lon":139.63709985},{"name":"一般社団法人クレオソーレ・ｋｏｅｎ ｔhｅ ＴＡＯ","province":"東京都","city":"杉並区","address":"東京都杉並区高円寺北3丁目6-2","lat":35.70532866,"lon":139.64515644},{"name":"特定非営利活動法人まどかアゲイン","province":"東京都","city":"杉並区","address":"東京都杉並区永福1丁目27-31","lat":35.67226032,"lon":139.64465222},{"name":"特定非営利活動法人ラルゴ工房ラルゴ","province":"東京都","city":"杉並区","address":"東京都杉並区上荻4丁目29-22","lat":35.71118242,"lon":139.60242912},{"name":"社会福祉法人いたるセンター阿佐谷福祉工房","province":"東京都","city":"杉並区","address":"東京都杉並区天沼1丁目15-18","lat":35.70769465,"lon":139.63002427},{"name":"社会福祉法人いたるセンターあけぼの作業所","province":"東京都","city":"杉並区","address":"東京都杉並区上井草4丁目3-11","lat":35.71811483,"lon":139.59709039},{"name":"社会福祉法人済美会ひまわり作業所","province":"東京都","city":"杉並区","address":"東京都杉並区松庵2丁目22-22","lat":35.69832806,"lon":139.59277207},{"name":"社会福祉法人視覚障害者支援総合センターチャレンジ","province":"東京都","city":"杉並区","address":"東京都杉並区桃井4丁目4-3","lat":35.71259613,"lon":139.60146525},{"name":"社会福祉法人かたつむり会ワークショップ・かたつむり","province":"東京都","city":"杉並区","address":"東京都杉並区和田1丁目5-18","lat":35.68903666,"lon":139.66319167},{"name":"一般社団法人ワークみらいワークみらい","province":"東京都","city":"杉並区","address":"東京都杉並区天沼3丁目6-6","lat":35.70638338,"lon":139.61857248},{"name":"言語生活サポートセンター","province":"東京都","city":"杉並区","address":"東京都杉並区荻窪5丁目20-17","lat":35.70217835,"lon":139.62068638},{"name":"杉並区保健福祉部障害者生活支援課地域生活支援担当（生活リハビリ・ふれあい広場）","province":"東京都","city":"杉並区","address":"東京都杉並区高井戸東4丁目10-5","lat":35.68943532,"lon":139.61778435},{"name":"特定非営利活動法人ゆずりはコミュニケーションズパソコン工房ゆずりは","province":"東京都","city":"杉並区","address":"東京都杉並区荻窪1丁目20-15","lat":35.69292385,"lon":139.61953685},{"name":"社会福祉法人虹旗社杉並・あしたの会福祉作業所","province":"東京都","city":"杉並区","address":"東京都杉並区阿佐谷南3丁目12-1","lat":35.70247855,"lon":139.62913014},{"name":"特定非営利活動法人杉並福助会地球儀","province":"東京都","city":"杉並区","address":"東京都杉並区永福2丁目23-7","lat":35.67286298,"lon":139.64254127},{"name":"特定非営利活動法人TRY福祉会ゆい企画","province":"東京都","city":"杉並区","address":"東京都杉並区成田東5丁目15-21","lat":35.70208693,"lon":139.6288274},{"name":"特定非営利活動法人けやき精神保健福祉会けやき亭","province":"東京都","city":"杉並区","address":"東京都杉並区成田東3丁目1-3","lat":35.69454647,"lon":139.64087118},{"name":"ＮＰＯ法人障害者就労支援センターどんまい福祉工房","province":"東京都","city":"杉並区","address":"東京都杉並区本天沼1丁目24-9","lat":35.7138968,"lon":139.63209881},{"name":"すぎなみ1５1","province":"東京都","city":"杉並区","address":"東京都杉並区永福4丁目19-4","lat":35.67978978,"lon":139.63709985},{"name":"一般社団法人クレオソーレ・ｋｏｅｎ ｔhｅ ＴＡＯ","province":"東京都","city":"杉並区","address":"東京都杉並区高円寺北3丁目6-2","lat":35.70532866,"lon":139.64515644},{"name":"特定非営利活動法人まどかアゲイン","province":"東京都","city":"杉並区","address":"東京都杉並区永福1丁目27-31","lat":35.67226032,"lon":139.64465222},{"name":"特定非営利活動法人ラルゴ工房ラルゴ","province":"東京都","city":"杉並区","address":"東京都杉並区上荻4丁目29-22","lat":35.71118242,"lon":139.60242912},{"name":"社会福祉法人いたるセンター阿佐谷福祉工房","province":"東京都","city":"杉並区","address":"東京都杉並区天沼1丁目15-18","lat":35.70769465,"lon":139.63002427},{"name":"社会福祉法人いたるセンターあけぼの作業所","province":"東京都","city":"杉並区","address":"東京都杉並区上井草4丁目3-11","lat":35.71811483,"lon":139.59709039},{"name":"社会福祉法人済美会ひまわり作業所","province":"東京都","city":"杉並区","address":"東京都杉並区松庵2丁目22-22","lat":35.69832806,"lon":139.59277207},{"name":"社会福祉法人視覚障害者支援総合センターチャレンジ","province":"東京都","city":"杉並区","address":"東京都杉並区桃井4丁目4-3","lat":35.71259613,"lon":139.60146525},{"name":"社会福祉法人かたつむり会ワークショップ・かたつむり","province":"東京都","city":"杉並区","address":"東京都杉並区和田1丁目5-18","lat":35.68903666,"lon":139.66319167},{"name":"一般社団法人ワークみらいワークみらい","province":"東京都","city":"杉並区","address":"東京都杉並区天沼3丁目6-6","lat":35.70638338,"lon":139.61857248},{"name":"言語生活サポートセンター","province":"東京都","city":"杉並区","address":"東京都杉並区荻窪5丁目20-17","lat":35.70217835,"lon":139.62068638},{"name":"杉並区保健福祉部障害者生活支援課地域生活支援担当（生活リハビリ・ふれあい広場）","province":"東京都","city":"杉並区","address":"東京都杉並区高井戸東4丁目10-5","lat":35.68943532,"lon":139.61778435},{"name":"特定非営利活動法人ゆずりはコミュニケーションズパソコン工房ゆずりは","province":"東京都","city":"杉並区","address":"東京都杉並区荻窪1丁目20-15","lat":35.69292385,"lon":139.61953685},{"name":"社会福祉法人虹旗社杉並・あしたの会福祉作業所","province":"東京都","city":"杉並区","address":"東京都杉並区阿佐谷南3丁目12-1","lat":35.70247855,"lon":139.62913014},{"name":"特定非営利活動法人杉並福助会地球儀","province":"東京都","city":"杉並区","address":"東京都杉並区永福2丁目23-7","lat":35.67286298,"lon":139.64254127},{"name":"特定非営利活動法人TRY福祉会ゆい企画","province":"東京都","city":"杉並区","address":"東京都杉並区成田東5丁目15-21","lat":35.70208693,"lon":139.6288274},{"name":"特定非営利活動法人けやき精神保健福祉会けやき亭","province":"東京都","city":"杉並区","address":"東京都杉並区成田東3丁目1-3","lat":35.69454647,"lon":139.64087118},{"name":"ＮＰＯ法人障害者就労支援センターどんまい福祉工房","province":"東京都","city":"杉並区","address":"東京都杉並区本天沼1丁目24-9","lat":35.7138968,"lon":139.63209881},{"name":"すぎなみ1５1","province":"東京都","city":"杉並区","address":"東京都杉並区永福4丁目19-4","lat":35.67978978,"lon":139.63709985},{"name":"一般社団法人クレオソーレ・ｋｏｅｎ ｔhｅ ＴＡＯ","province":"東京都","city":"杉並区","address":"東京都杉並区高円寺北3丁目6-2","lat":35.70532866,"lon":139.64515644},{"name":"特定非営利活動法人まどかアゲイン","province":"東京都","city":"杉並区","address":"東京都杉並区永福1丁目27-31","lat":35.67226032,"lon":139.64465222},{"name":"特定非営利活動法人ラルゴ工房ラルゴ","province":"東京都","city":"杉並区","address":"東京都杉並区上荻4丁目29-22","lat":35.71118242,"lon":139.60242912},{"name":"社会福祉法人いたるセンター阿佐谷福祉工房","province":"東京都","city":"杉並区","address":"東京都杉並区天沼1丁目15-18","lat":35.70769465,"lon":139.63002427},{"name":"社会福祉法人いたるセンターあけぼの作業所","province":"東京都","city":"杉並区","address":"東京都杉並区上井草4丁目3-11","lat":35.71811483,"lon":139.59709039},{"name":"社会福祉法人済美会ひまわり作業所","province":"東京都","city":"杉並区","address":"東京都杉並区松庵2丁目22-22","lat":35.69832806,"lon":139.59277207},{"name":"社会福祉法人視覚障害者支援総合センターチャレンジ","province":"東京都","city":"杉並区","address":"東京都杉並区桃井4丁目4-3","lat":35.71259613,"lon":139.60146525},{"name":"社会福祉法人かたつむり会ワークショップ・かたつむり","province":"東京都","city":"杉並区","address":"東京都杉並区和田1丁目5-18","lat":35.68903666,"lon":139.66319167},{"name":"一般社団法人ワークみらいワークみらい","province":"東京都","city":"杉並区","address":"東京都杉並区天沼3丁目6-6","lat":35.70638338,"lon":139.61857248},{"name":"言語生活サポートセンター","province":"東京都","city":"杉並区","address":"東京都杉並区荻窪5丁目20-17","lat":35.70217835,"lon":139.62068638},{"name":"杉並区保健福祉部障害者生活支援課地域生活支援担当（生活リハビリ・ふれあい広場）","province":"東京都","city":"杉並区","address":"東京都杉並区高井戸東4丁目10-5","lat":35.68943532,"lon":139.61778435},{"name":"特定非営利活動法人ゆずりはコミュニケーションズパソコン工房ゆずりは","province":"東京都","city":"杉並区","address":"東京都杉並区荻窪1丁目20-15","lat":35.69292385,"lon":139.61953685},{"name":"社会福祉法人虹旗社杉並・あしたの会福祉作業所","province":"東京都","city":"杉並区","address":"東京都杉並区阿佐谷南3丁目12-1","lat":35.70247855,"lon":139.62913014},{"name":"特定非営利活動法人杉並福助会地球儀","province":"東京都","city":"杉並区","address":"東京都杉並区永福2丁目23-7","lat":35.67286298,"lon":139.64254127},{"name":"特定非営利活動法人TRY福祉会ゆい企画","province":"東京都","city":"杉並区","address":"東京都杉並区成田東5丁目15-21","lat":35.70208693,"lon":139.6288274},{"name":"特定非営利活動法人けやき精神保健福祉会けやき亭","province":"東京都","city":"杉並区","address":"東京都杉並区成田東3丁目1-3","lat":35.69454647,"lon":139.64087118},{"name":"ＮＰＯ法人障害者就労支援センターどんまい福祉工房","province":"東京都","city":"杉並区","address":"東京都杉並区本天沼1丁目24-9","lat":35.7138968,"lon":139.63209881},{"name":"すぎなみ1５1","province":"東京都","city":"杉並区","address":"東京都杉並区永福4丁目19-4","lat":35.67978978,"lon":139.63709985},{"name":"一般社団法人クレオソーレ・ｋｏｅｎ ｔhｅ ＴＡＯ","province":"東京都","city":"杉並区","address":"東京都杉並区高円寺北3丁目6-2","lat":35.70532866,"lon":139.64515644},{"name":"特定非営利活動法人まどかアゲイン","province":"東京都","city":"杉並区","address":"東京都杉並区永福1丁目27-31","lat":35.67226032,"lon":139.64465222},{"name":"特定非営利活動法人ラルゴ工房ラルゴ","province":"東京都","city":"杉並区","address":"東京都杉並区上荻4丁目29-22","lat":35.71118242,"lon":139.60242912},{"name":"社会福祉法人いたるセンター阿佐谷福祉工房","province":"東京都","city":"杉並区","address":"東京都杉並区天沼1丁目15-18","lat":35.70769465,"lon":139.63002427},{"name":"社会福祉法人いたるセンターあけぼの作業所","province":"東京都","city":"杉並区","address":"東京都杉並区上井草4丁目3-11","lat":35.71811483,"lon":139.59709039},{"name":"社会福祉法人済美会ひまわり作業所","province":"東京都","city":"杉並区","address":"東京都杉並区松庵2丁目22-22","lat":35.69832806,"lon":139.59277207},{"name":"社会福祉法人視覚障害者支援総合センターチャレンジ","province":"東京都","city":"杉並区","address":"東京都杉並区桃井4丁目4-3","lat":35.71259613,"lon":139.60146525},{"name":"社会福祉法人かたつむり会ワークショップ・かたつむり","province":"東京都","city":"杉並区","address":"東京都杉並区和田1丁目5-18","lat":35.68903666,"lon":139.66319167},{"name":"一般社団法人ワークみらいワークみらい","province":"東京都","city":"杉並区","address":"東京都杉並区天沼3丁目6-6","lat":35.70638338,"lon":139.61857248},{"name":"言語生活サポートセンター","province":"東京都","city":"杉並区","address":"東京都杉並区荻窪5丁目20-17","lat":35.70217835,"lon":139.62068638}]}