{"keyword":"財団","data":[{"name":"東京電力（株）荻窪支社","province":"東京都","city":"杉並区","address":"杉並区南荻窪4-40-11","lat":35.70312,"lon":139.616},{"name":"東京電力（株）荻窪支社","province":"東京都","city":"杉並区","address":"杉並区南荻窪4-40-11","lat":35.70312,"lon":139.616},{"name":"東京電力（株）荻窪支社","province":"東京都","city":"杉並区","address":"杉並区南荻窪4-40-11","lat":35.70312,"lon":139.616},{"name":"東京電力（株）荻窪支社","province":"東京都","city":"杉並区","address":"杉並区南荻窪4-40-11","lat":35.70312,"lon":139.616},{"name":"東京電力（株）荻窪支社","province":"東京都","city":"杉並区","address":"杉並区南荻窪4-40-11","lat":35.70312,"lon":139.616},{"name":"東京電力（株）荻窪支社","province":"東京都","city":"杉並区","address":"杉並区南荻窪4-40-11","lat":35.70312,"lon":139.616},{"name":"東京電力（株）荻窪支社","province":"東京都","city":"杉並区","address":"杉並区南荻窪4-40-11","lat":35.70312,"lon":139.616},{"name":"東京電力（株）荻窪支社","province":"東京都","city":"杉並区","address":"杉並区南荻窪4-40-11","lat":35.70312,"lon":139.616},{"name":"東京電力（株）荻窪支社","province":"東京都","city":"杉並区","address":"杉並区南荻窪4-40-11","lat":35.70312,"lon":139.616},{"name":"東京電力（株）荻窪支社","province":"東京都","city":"杉並区","address":"杉並区南荻窪4-40-11","lat":35.70312,"lon":139.616},{"name":"東京電力（株）荻窪支社","province":"東京都","city":"杉並区","address":"杉並区南荻窪4-40-11","lat":35.70312,"lon":139.616},{"name":"東京電力（株）荻窪支社","province":"東京都","city":"杉並区","address":"杉並区南荻窪4-40-11","lat":35.70312,"lon":139.616},{"name":"東京電力（株）荻窪支社","province":"東京都","city":"杉並区","address":"杉並区南荻窪4-40-11","lat":35.70312,"lon":139.616},{"name":"東京電力（株）荻窪支社","province":"東京都","city":"杉並区","address":"杉並区南荻窪4-40-11","lat":35.70312,"lon":139.616},{"name":"東京電力（株）荻窪支社","province":"東京都","city":"杉並区","address":"杉並区南荻窪4-40-11","lat":35.70312,"lon":139.616},{"name":"東京電力（株）荻窪支社","province":"東京都","city":"杉並区","address":"杉並区南荻窪4-40-11","lat":35.70312,"lon":139.616},{"name":"東京電力（株）荻窪支社","province":"東京都","city":"杉並区","address":"杉並区南荻窪4-40-11","lat":35.70312,"lon":139.616},{"name":"東京電力（株）荻窪支社","province":"東京都","city":"杉並区","address":"杉並区南荻窪4-40-11","lat":35.70312,"lon":139.616},{"name":"東京電力（株）荻窪支社","province":"東京都","city":"杉並区","address":"杉並区南荻窪4-40-11","lat":35.70312,"lon":139.616},{"name":"東京電力（株）荻窪支社","province":"東京都","city":"杉並区","address":"杉並区南荻窪4-40-11","lat":35.70312,"lon":139.616},{"name":"東京電力（株）荻窪支社","province":"東京都","city":"杉並区","address":"杉並区南荻窪4-40-11","lat":35.70312,"lon":139.616},{"name":"東京電力（株）荻窪支社","province":"東京都","city":"杉並区","address":"杉並区南荻窪4-40-11","lat":35.70312,"lon":139.616},{"name":"東京電力（株）荻窪支社","province":"東京都","city":"杉並区","address":"杉並区南荻窪4-40-11","lat":35.70312,"lon":139.616},{"name":"東京電力（株）荻窪支社","province":"東京都","city":"杉並区","address":"杉並区南荻窪4-40-11","lat":35.70312,"lon":139.616},{"name":"東京電力（株）荻窪支社","province":"東京都","city":"杉並区","address":"杉並区南荻窪4-40-11","lat":35.70312,"lon":139.616},{"name":"東京電力（株）荻窪支社","province":"東京都","city":"杉並区","address":"杉並区南荻窪4-40-11","lat":35.70312,"lon":139.616},{"name":"東京電力（株）荻窪支社","province":"東京都","city":"杉並区","address":"杉並区南荻窪4-40-11","lat":35.70312,"lon":139.616},{"name":"東京電力（株）荻窪支社","province":"東京都","city":"杉並区","address":"杉並区南荻窪4-40-11","lat":35.70312,"lon":139.616},{"name":"東京電力（株）荻窪支社","province":"東京都","city":"杉並区","address":"杉並区南荻窪4-40-11","lat":35.70312,"lon":139.616},{"name":"東京電力（株）荻窪支社","province":"東京都","city":"杉並区","address":"杉並区南荻窪4-40-11","lat":35.70312,"lon":139.616},{"name":"東京電力（株）荻窪支社","province":"東京都","city":"杉並区","address":"杉並区南荻窪4-40-11","lat":35.70312,"lon":139.616}]}