{"keyword":"連絡","data":[{"name":"ケア24上井草","province":"東京都","city":"杉並区","address":"杉並区上井草3-33-10","lat":35.724243,"lon":139.602463},{"name":"ケア24下井草","province":"東京都","city":"杉並区","address":"杉並区下井草2-44-4","lat":35.723587,"lon":139.625412},{"name":"ケア24善福寺","province":"東京都","city":"杉並区","address":"杉並区西荻北4-31-11","lat":35.709129,"lon":139.592743},{"name":"ケア24上荻","province":"東京都","city":"杉並区","address":"杉並区上荻3-16-6","lat":35.708717,"lon":139.607788},{"name":"ケア24西荻","province":"東京都","city":"杉並区","address":"杉並区西荻南4-2-7","lat":35.699791,"lon":139.604813},{"name":"ケア24清水","province":"東京都","city":"杉並区","address":"杉並区清水2-15-24","lat":35.714237,"lon":139.618286},{"name":"ケア24荻窪","province":"東京都","city":"杉並区","address":"杉並区荻窪5-20-1","lat":35.701988,"lon":139.620255},{"name":"ケア24南荻窪","province":"東京都","city":"杉並区","address":"杉並区南荻窪2-28-13","lat":35.699345,"lon":139.613159},{"name":"ケア24阿佐谷","province":"東京都","city":"杉並区","address":"杉並区阿佐谷北1-3-12","lat":35.705463,"lon":139.63858},{"name":"ケア24成田","province":"東京都","city":"杉並区","address":"杉並区成田西3-7-4","lat":35.693752,"lon":139.631973},{"name":"ケア24松ノ木","province":"東京都","city":"杉並区","address":"杉並区松ノ木3-3-4","lat":35.692619,"lon":139.644409},{"name":"ケア24高円寺","province":"東京都","city":"杉並区","address":"杉並区高円寺南4-26-16","lat":35.704582,"lon":139.649536},{"name":"ケア24梅里","province":"東京都","city":"杉並区","address":"杉並区梅里1-7-17","lat":35.697685,"lon":139.649414},{"name":"ケア24和田","province":"東京都","city":"杉並区","address":"杉並区和田3-52-4","lat":35.696148,"lon":139.654663},{"name":"ケア24久我山","province":"東京都","city":"杉並区","address":"杉並区久我山3-47-16","lat":35.690121,"lon":139.593414},{"name":"ケア24高井戸","province":"東京都","city":"杉並区","address":"杉並区高井戸西1-12-1","lat":35.67963,"lon":139.609787},{"name":"ケア24浜田山","province":"東京都","city":"杉並区","address":"杉並区浜田山1-36-3","lat":35.680233,"lon":139.629898},{"name":"ケア24堀ノ内","province":"東京都","city":"杉並区","address":"杉並区堀ノ内1-6-6","lat":35.683041,"lon":139.653595},{"name":"ケア24永福","province":"東京都","city":"杉並区","address":"杉並区永福3-35-11","lat":35.678196,"lon":139.635666},{"name":"ケア24方南","province":"東京都","city":"杉並区","address":"杉並区方南2-6-28","lat":35.680653,"lon":139.659454},{"name":"杉並区立消費者センター","province":"東京都","city":"杉並区","address":"杉並区天沼3-19-16ウェルファーム杉並3階","lat":35.710388,"lon":139.620667}]}