{"keyword":"食堂","data":[{"name":"井草・ゆうゆう見守り隊～ふれあい食堂","province":"東京都","city":"杉並区","address":"東京都杉並区井草2丁目15-15","lat":35.72703116,"lon":139.61952977},{"name":"こども食堂ホルモン良ちゃん","province":"東京都","city":"杉並区","address":"東京都杉並区下井草1丁目6-3","lat":35.71485782,"lon":139.63274871},{"name":"四宮ごはん","province":"東京都","city":"杉並区","address":"東京都杉並区上井草2丁目28-3","lat":35.72265909,"lon":139.60876701},{"name":"OHANA食堂","province":"東京都","city":"杉並区","address":"東京都杉並区井草2丁目15-15","lat":35.72703116,"lon":139.61952977},{"name":"子ども食堂ほーぷ","province":"東京都","city":"杉並区","address":"東京都杉並区上井草3丁目19-23","lat":35.72188404,"lon":139.60392856},{"name":"西荻・寺子屋食堂","province":"東京都","city":"杉並区","address":"東京都杉並区西荻北4丁目4-4","lat":35.7066772,"lon":139.59599092},{"name":"ワイワイ食堂コーナー中高生タイムスペシャル","province":"東京都","city":"杉並区","address":"東京都杉並区善福寺1丁目18-9","lat":35.7129821,"lon":139.59761},{"name":"kosatenパントリー","province":"東京都","city":"杉並区","address":"東京都杉並区善福寺3丁目2-14","lat":35.71750927,"lon":139.59424897},{"name":"みんなの食堂@kosaten","province":"東京都","city":"杉並区","address":"東京都杉並区善福寺3丁目2-14","lat":35.71750927,"lon":139.59424897},{"name":"みんなの食堂ルンルン","province":"東京都","city":"杉並区","address":"東京都杉並区善福寺2丁目24-8","lat":35.71182361,"lon":139.58705533},{"name":"西荻クリキンディのひとしずく","province":"東京都","city":"杉並区","address":"東京都杉並区西荻北3丁目14-5","lat":35.70512463,"lon":139.59748808},{"name":"桃井・みんなde食堂(みんしょく)","province":"東京都","city":"杉並区","address":"東京都杉並区桃井1丁目35-2","lat":35.71366297,"lon":139.61316704},{"name":"にんじんキッズカフェ・荻窪ふれあいの家","province":"東京都","city":"杉並区","address":"東京都杉並区荻窪2丁目29-3","lat":35.69660394,"lon":139.61838402},{"name":"フードパントリーしょうけい","province":"東京都","city":"杉並区","address":"東京都杉並区荻窪3丁目41-24","lat":35.70058149,"lon":139.62682207},{"name":"ほたるパントリー","province":"東京都","city":"杉並区","address":"東京都杉並区南荻窪4丁目6-11","lat":35.69938407,"lon":139.6142481},{"name":"子ども食堂おぎよん","province":"東京都","city":"杉並区","address":"東京都杉並区荻窪4丁目11-15","lat":35.70132288,"lon":139.61980316},{"name":"しょうけいこども食堂","province":"東京都","city":"杉並区","address":"東京都杉並区荻窪3丁目41-24","lat":35.70058149,"lon":139.62682207},{"name":"子ども食堂まんぷく","province":"東京都","city":"杉並区","address":"東京都杉並区荻窪5丁目10-22","lat":35.70147282,"lon":139.61833104},{"name":"キッチンあまぬま","province":"東京都","city":"杉並区","address":"東京都杉並区天沼3丁目19-16","lat":35.71011356,"lon":139.62080827},{"name":"阿佐ヶ谷ガヤガヤ食堂","province":"東京都","city":"杉並区","address":"東京都杉並区阿佐谷北2丁目25-8","lat":35.70590041,"lon":139.63021879},{"name":"リベルタこども食堂","province":"東京都","city":"杉並区","address":"東京都杉並区阿佐谷北2丁目5-7","lat":35.70490615,"lon":139.63281306},{"name":"みんなのお家 エルガーハウス","province":"東京都","city":"杉並区","address":"東京都杉並区高円寺北2丁目14-13","lat":35.70662318,"lon":139.65348066},{"name":"JAまごころ食堂","province":"東京都","city":"杉並区","address":"東京都杉並区成田東5丁目18-7","lat":35.70132317,"lon":139.63041064},{"name":"こども食堂あまてらす","province":"東京都","city":"杉並区","address":"東京都杉並区阿佐谷南3丁目10-8","lat":35.70206473,"lon":139.62996898},{"name":"おひさま食堂@南阿佐谷","province":"東京都","city":"杉並区","address":"東京都杉並区阿佐谷南1丁目16-8","lat":35.70057896,"lon":139.63595189},{"name":"トリドリ子ども食堂","province":"東京都","city":"杉並区","address":"東京都杉並区阿佐谷南3丁目1-21","lat":35.70165661,"lon":139.63586295},{"name":"高円寺わくわく食堂","province":"東京都","city":"杉並区","address":"東京都杉並区高円寺北2丁目14-13","lat":35.70662318,"lon":139.65348066},{"name":"高円寺子ども食堂","province":"東京都","city":"杉並区","address":"東京都杉並区高円寺南2丁目33-32","lat":35.69965175,"lon":139.65315044},{"name":"バードバス子ども食堂","province":"東京都","city":"杉並区","address":"東京都杉並区和田3丁目6-7","lat":35.69376928,"lon":139.65861132},{"name":"はっぴー食堂","province":"東京都","city":"杉並区","address":"東京都杉並区和田1丁目41-10","lat":35.69157514,"lon":139.65951966},{"name":"寺子屋in妙法寺","province":"東京都","city":"杉並区","address":"東京都杉並区堀ノ内3丁目48-8","lat":35.69254146,"lon":139.65177865},{"name":"杉並みんなの食堂","province":"東京都","city":"杉並区","address":"東京都杉並区和田2丁目21-39","lat":35.6900531,"lon":139.65961138},{"name":"ふくぷくひろば","province":"東京都","city":"杉並区","address":"東京都杉並区永福2丁目6-12","lat":35.67171024,"lon":139.63939712},{"name":"八十八ちいき食堂","province":"東京都","city":"杉並区","address":"東京都杉並区方南2丁目16-6","lat":35.68454824,"lon":139.66003657},{"name":"方南にこにこパントリー","province":"東京都","city":"杉並区","address":"東京都杉並区方南1丁目51-7","lat":35.67914611,"lon":139.6589591},{"name":"子ども未来食堂","province":"東京都","city":"杉並区","address":"東京都杉並区和泉4丁目48-15","lat":35.68300107,"lon":139.65523427},{"name":"ころころ食堂☆高井戸","province":"東京都","city":"杉並区","address":"東京都杉並区下高井戸5丁目4-42","lat":35.67197091,"lon":139.62334008},{"name":"こども食堂アランチーニ","province":"東京都","city":"杉並区","address":"東京都杉並区下高井戸3丁目1-4","lat":35.66936591,"lon":139.63344491},{"name":"四丁目子ども食堂","province":"東京都","city":"杉並区","address":"東京都杉並区高円寺南4丁目28-2","lat":35.70387896,"lon":139.65036717}]}