{"keyword":"館","data":[{"name":"杉並区立子ども・子育てプラザ高円寺","province":"東京都","city":"杉並区","address":"杉並区高円寺南2丁目52番2号","lat":35.70226,"lon":139.65114},{"name":"杉並区立子ども・子育てプラザ成田西","province":"東京都","city":"杉並区","address":"杉並区成田西3-10-38","lat":35.69208,"lon":139.63077},{"name":"杉並区立子ども・子育てプラザ下井草","province":"東京都","city":"杉並区","address":"杉並区下井草3-13-9","lat":35.71944,"lon":139.62474},{"name":"杉並区立子ども・子育てプラザ天沼","province":"東京都","city":"杉並区","address":"杉並区天沼3-19-16","lat":35.71005,"lon":139.62056},{"name":"杉並区立子ども・子育てプラザ善福寺","province":"東京都","city":"杉並区","address":"杉並区善福寺1-18-9","lat":35.71328,"lon":139.59775},{"name":"善福寺児童館","province":"東京都","city":"杉並区","address":"杉並区善福寺1-18-9","lat":35.71328,"lon":139.59775},{"name":"杉並区立子ども・子育てプラザ成田西","province":"東京都","city":"杉並区","address":"杉並区成田西3-10-38","lat":35.691183,"lon":139.630706},{"name":"杉並区立子ども・子育てプラザ下井草","province":"東京都","city":"杉並区","address":"杉並区下井草3-13-9","lat":35.719396,"lon":139.624571},{"name":"阿佐谷児童館","province":"東京都","city":"杉並区","address":"杉並区阿佐谷北1-6-14","lat":35.70658,"lon":139.6376},{"name":"西荻北児童館","province":"東京都","city":"杉並区","address":"杉並区西荻北1-9-5","lat":35.70479,"lon":139.60913},{"name":"和田中央児童館","province":"東京都","city":"杉並区","address":"杉並区和田1-38-18","lat":35.69204,"lon":139.66097},{"name":"四宮森児童館","province":"東京都","city":"杉並区","address":"杉並区上井草2-41-11","lat":35.72463,"lon":139.60822},{"name":"松庵児童館","province":"東京都","city":"杉並区","address":"杉並区松庵2-23-34","lat":35.69964,"lon":139.59293},{"name":"上高井戸児童館","province":"東京都","city":"杉並区","address":"杉並区高井戸東1-18-5","lat":35.68255,"lon":139.6199},{"name":"宮前北児童館","province":"東京都","city":"杉並区","address":"杉並区宮前3-29-6","lat":35.69684,"lon":139.60841},{"name":"堀ノ内東児童館","province":"東京都","city":"杉並区","address":"杉並区堀ノ内3-49-19-101","lat":35.69122,"lon":139.65062},{"name":"成田児童館","province":"東京都","city":"杉並区","address":"杉並区成田東2-16-5","lat":35.68923,"lon":139.63403},{"name":"大宮児童館","province":"東京都","city":"杉並区","address":"杉並区大宮2-16-16","lat":35.68323,"lon":139.63626},{"name":"永福南児童館","province":"東京都","city":"杉並区","address":"杉並区永福2-6-12","lat":35.67127,"lon":139.63922},{"name":"＊?高井戸図書館","province":"東京都","city":"杉並区","address":"杉並区高井戸東1-28-1","lat":35.681266,"lon":139.622321},{"name":"＊?西荻図書館","province":"東京都","city":"杉並区","address":"杉並区西荻北2-33-9","lat":35.707809,"lon":139.605958},{"name":"＊?高円寺図書館","province":"東京都","city":"杉並区","address":"杉並区高円寺南2-36-25","lat":35.700401,"lon":139.654107},{"name":"＊?成田図書館","province":"東京都","city":"杉並区","address":"杉並区成田東3-28-5","lat":35.695071,"lon":139.637513},{"name":"＊?永福図書館","province":"東京都","city":"杉並区","address":"杉並区永福4-25-7","lat":35.680747,"lon":139.640793},{"name":"＊?宮前図書館","province":"東京都","city":"杉並区","address":"杉並区宮前5-5-27","lat":35.693197,"lon":139.598933},{"name":"＊?南荻窪図書館","province":"東京都","city":"杉並区","address":"杉並区南荻窪1-10-2","lat":35.695031,"lon":139.61454},{"name":"＊?中央図書館","province":"東京都","city":"杉並区","address":"杉並区荻窪3-40-23","lat":35.70189,"lon":139.626793},{"name":"＊?柿木図書館","province":"東京都","city":"杉並区","address":"杉並区上井草1-6-13","lat":35.720275,"lon":139.612121},{"name":"＊?下井草図書館","province":"東京都","city":"杉並区","address":"杉並区下井草3-26-5","lat":35.720941,"lon":139.623257},{"name":"＊?阿佐谷図書館","province":"東京都","city":"杉並区","address":"杉並区阿佐谷北3-36-14","lat":35.711697,"lon":139.633258},{"name":"＊?方南図書館","province":"東京都","city":"杉並区","address":"杉並区方南1-51-2","lat":35.678993,"lon":139.660059},{"name":"＊?今川図書館","province":"東京都","city":"杉並区","address":"杉並区今川4-12-10","lat":35.715612,"lon":139.599825}]}