{"keyword":"不在","data":[{"name":"東京慈恵会医科大学附属病院","province":"東京都","city":"港区","address":"東京都港区西新橋三丁目19番18号","lat":35.6635563,"lon":139.751238},{"name":"国際医療福祉大学三田病院","province":"東京都","city":"港区","address":"東京都港区三田一丁目4番3号","lat":35.6537683,"lon":139.7424196},{"name":"東京都済生会中央病院","province":"東京都","city":"港区","address":"東京都港区三田一丁目4番17号","lat":35.6534434,"lon":139.7442611},{"name":"国家公務員共済組合連合会 虎の門病院","province":"東京都","city":"港区","address":"東京都港区虎ノ門二丁目2番2号","lat":35.6688611,"lon":139.7465188},{"name":"医療法人財団 厚生会 古川橋病院","province":"東京都","city":"港区","address":"東京都港区南麻布二丁目10番21号","lat":35.6479605,"lon":139.735226},{"name":"社会福祉法人恩賜財団母子愛育会総合母子保健センター 愛育病院","province":"東京都","city":"港区","address":"東京都港区芝浦一丁目16番10号","lat":35.6459585,"lon":139.7524023},{"name":"医療法人社団友仁会 赤坂見附前田病院","province":"東京都","city":"港区","address":"東京都港区元赤坂一丁目1番5号","lat":35.6782901,"lon":139.7339056},{"name":"医療法人財団 順和会 山王病院","province":"東京都","city":"港区","address":"東京都港区赤坂八丁目10番16号","lat":35.6700659,"lon":139.727101},{"name":"独立行政法人 地域医療機能推進機構 東京高輪病院","province":"東京都","city":"港区","address":"東京都港区高輪三丁目10番11号","lat":35.6311346,"lon":139.7315796},{"name":"北里研究所病院","province":"東京都","city":"港区","address":"東京都港区白金五丁目9番1号","lat":35.6455938,"lon":139.7254492},{"name":"東京大学医科学研究所附属病院","province":"東京都","city":"港区","address":"東京都港区白金台四丁目6番1号","lat":35.6398361,"lon":139.7249049},{"name":"公益財団法人 心臓血管研究所付属病院","province":"東京都","city":"港区","address":"東京都港区西麻布三丁目2番19号","lat":35.6659692,"lon":139.7281316},{"name":"医療法人財団 厚生会介護老人保健施設 ルネサンス麻布","province":"東京都","city":"港区","address":"東京都港区南麻布二丁目10番21号","lat":35.6479605,"lon":139.735226},{"name":"港区立 特別養護老人ホーム 白金の森","province":"東京都","city":"港区","address":"東京都港区白金台五丁目20番5号","lat":35.6370753,"lon":139.7219914},{"name":"社会福祉法人 恩賜財団 慶福育児会 特別養護老人ホーム 麻布慶福苑","province":"東京都","city":"港区","address":"東京都港区南麻布五丁目1番20号","lat":35.6537122,"lon":139.7218381},{"name":"港区立 特別養護老人ホーム 港南の郷","province":"東京都","city":"港区","address":"東京都港区港南三丁目3番23号","lat":35.6332877,"lon":139.7492114},{"name":"社会福祉法人葵新生会特別養護老人ホーム ベル","province":"東京都","city":"港区","address":"東京都港区西麻布四丁目7番2号","lat":35.6561258,"lon":139.7222713},{"name":"港区立ケアハウス 港南の郷","province":"東京都","city":"港区","address":"東京都港区港南三丁目3番23号","lat":35.6332877,"lon":139.7492114},{"name":"港区立 特別養護老人ホーム サン・サン赤坂","province":"東京都","city":"港区","address":"東京都港区赤坂六丁目6番14号","lat":35.6699662,"lon":139.7376307},{"name":"社会福祉法人 長岡福祉協会 特別養護老人ホーム 新橋さくらの園","province":"東京都","city":"港区","address":"東京都港区新橋六丁目19番2号","lat":35.6611817,"lon":139.7537878},{"name":"社会福祉法人 長岡福祉協会 介護老人保健施設 新橋ばらの園","province":"東京都","city":"港区","address":"東京都港区新橋六丁目19番2号","lat":35.6611817,"lon":139.7537878},{"name":"グッドタイムリビング芝浦アイランド","province":"東京都","city":"港区","address":"東京都港区芝浦四丁目20番4号","lat":35.6389537,"lon":139.7518525},{"name":"特別養護老人ホームありすの杜きのこ南麻布","province":"東京都","city":"港区","address":"東京都港区南麻布四丁目6番1号南棟","lat":35.6502766,"lon":139.7266795},{"name":"特別養護老人ホーム  洛和ヴィラ南麻布","province":"東京都","city":"港区","address":"東京都港区南麻布四丁目6番1号北棟","lat":35.6502766,"lon":139.7266795},{"name":"介護老人保健施設  洛和ヴィラサラサ","province":"東京都","city":"港区","address":"東京都港区南麻布四丁目6番1号北棟","lat":35.6502766,"lon":139.7266795},{"name":"ケアハウス ありすの杜 きのこ南麻布","province":"東京都","city":"港区","address":"東京都港区南麻布四丁目6番1号南棟","lat":35.6502766,"lon":139.7266795},{"name":"アリア高輪","province":"東京都","city":"港区","address":"東京都港区高輪四丁目6番23号","lat":35.6276545,"lon":139.7322658},{"name":"特別養護老人ホーム 南麻布シニアガーデンアリス","province":"東京都","city":"港区","address":"東京都港区南麻布四丁目6番13号","lat":35.650549,"lon":139.727514},{"name":"港区立障害者支援ホーム南麻布","province":"東京都","city":"港区","address":"東京都港区南麻布四丁目6番13号","lat":35.650549,"lon":139.727514},{"name":"グランクレール芝浦ケアレジデンス","province":"東京都","city":"港区","address":"東京都港区芝浦四丁目18番25号","lat":35.637459,"lon":139.749117}]}