{"keyword":"産","data":[{"name":"（公財）都保健医療公社荏原病院","province":"東京都","city":"大田区","address":"大田区東雪谷4-5-10","lat":35.59362,"lon":139.69292},{"name":"（公財）都保健医療公社豊島病院","province":"東京都","city":"板橋区","address":"板橋区栄町33-1","lat":35.7529,"lon":139.70078},{"name":"（公財）東京都保健医療公社荏原病院","province":"東京都","city":"大田区","address":"大田区東雪谷4-5-10","lat":35.594607,"lon":139.693676},{"name":"（公財）東京都保健医療公社豊島病院","province":"東京都","city":"板橋区","address":"板橋区栄町33-1","lat":35.752705,"lon":139.700914},{"name":"東海大学医学部付属八王子病院","province":"東京都","city":"八王子市","address":"八王子市石川町1838","lat":35.673775,"lon":139.357079},{"name":"葛飾赤十字産院","province":"東京都","city":"葛飾区","address":"葛飾区立石5-11-12","lat":35.74238,"lon":139.84628},{"name":"まつしま病院","province":"東京都","city":"江戸川区","address":"江戸川区松島1-41-29","lat":35.70688,"lon":139.86736},{"name":"町田市民病院","province":"東京都","city":"町田市","address":"町田市旭町2-15-41","lat":35.55734,"lon":139.43691},{"name":"稲城市立病院","province":"東京都","city":"稲城市","address":"稲城市大丸1171","lat":35.64156,"lon":139.482}]}