{"keyword":"し尿","data":[{"name":"狛江市子ども家庭支援センター","province":"東京都","city":"狛江市","address":"狛江市岩戸南3-15-1岩戸児童センター2階","lat":35.629103,"lon":139.587948},{"name":"狛江市保健センター（あいとぴあセンター）","province":"東京都","city":"狛江市","address":"狛江市元和泉2-35-1","lat":35.6333,"lon":139.567777},{"name":"狛江市子ども家庭支援センター","province":"東京都","city":"狛江市","address":"狛江市元和泉2-35-1","lat":35.6334,"lon":139.567413},{"name":"狛江市","province":"東京都","city":"狛江市","address":"狛江市和泉本町1-1-5","lat":35.6349142,"lon":139.5787353},{"name":"西河原公民館","province":"東京都","city":"狛江市","address":"東京都狛江市元和泉2丁目35-1","lat":35.633456,"lon":139.566834},{"name":"狛江市庁舎","province":"東京都","city":"狛江市","address":"東京都狛江市和泉本町1丁目1-5","lat":35.634746,"lon":139.578776},{"name":"狛江市庁舎","province":"東京都","city":"狛江市","address":"東京都狛江市和泉本町1丁目1-5","lat":35.635005,"lon":139.578615},{"name":"狛江市庁舎","province":"東京都","city":"狛江市","address":"東京都狛江市和泉本町1丁目1-5","lat":35.63463,"lon":139.578749},{"name":"狛江市庁舎","province":"東京都","city":"狛江市","address":"東京都狛江市和泉本町1丁目1-5","lat":35.634875,"lon":139.578742},{"name":"狛江市防災センター","province":"東京都","city":"狛江市","address":"東京都狛江市和泉本町1丁目1-5","lat":35.634718,"lon":139.578234},{"name":"狛江市ビン・缶リサイクルセンター","province":"東京都","city":"狛江市","address":"東京都狛江市岩戸北1丁目1-11","lat":35.635704,"lon":139.580209},{"name":"中央公民館","province":"東京都","city":"狛江市","address":"東京都狛江市和泉本町1丁目1-5","lat":35.635147,"lon":139.578153},{"name":"西河原公民館","province":"東京都","city":"狛江市","address":"東京都狛江市元和泉2丁目35-1","lat":35.633421,"lon":139.567061},{"name":"エコルマホール","province":"東京都","city":"狛江市","address":"東京都狛江市元和泉1丁目2-1","lat":35.633073,"lon":139.577864},{"name":"西河原公民館","province":"東京都","city":"狛江市","address":"東京都狛江市元和泉2丁目35-1","lat":35.633435,"lon":139.566789},{"name":"西河原公民館","province":"東京都","city":"狛江市","address":"東京都狛江市元和泉2丁目35-1","lat":35.633457,"lon":139.566824},{"name":"野川地域センター","province":"東京都","city":"狛江市","address":"東京都狛江市西野川1丁目6-9","lat":35.646111,"lon":139.575493},{"name":"岩戸地域センター","province":"東京都","city":"狛江市","address":"東京都狛江市岩戸南2丁目2-5","lat":35.632129,"lon":139.586087},{"name":"上和泉地域センター","province":"東京都","city":"狛江市","address":"東京都狛江市和泉本町4丁目7-51","lat":35.645162,"lon":139.567931},{"name":"上和泉地域センター","province":"東京都","city":"狛江市","address":"東京都狛江市和泉本町4丁目7-51","lat":35.64517,"lon":139.5679},{"name":"南部地域センター","province":"東京都","city":"狛江市","address":"東京都狛江市猪方4丁目11","lat":35.623387,"lon":139.579702},{"name":"根川地区センター","province":"東京都","city":"狛江市","address":"東京都狛江市中和泉4丁目16-3","lat":35.63557,"lon":139.564173},{"name":"駄倉地区センター","province":"東京都","city":"狛江市","address":"東京都狛江市東和泉1丁目3-17","lat":35.632904,"lon":139.580609},{"name":"和泉多摩川地区センター","province":"東京都","city":"狛江市","address":"東京都狛江市猪方4丁目1-1","lat":35.624687,"lon":139.574068},{"name":"和泉多摩川地区センター","province":"東京都","city":"狛江市","address":"東京都狛江市猪方4丁目1-1","lat":35.624667,"lon":139.574026},{"name":"谷戸橋地区センター","province":"東京都","city":"狛江市","address":"東京都狛江市東野川4丁目30-1","lat":35.645767,"lon":139.58667},{"name":"狛江市あいとぴあセンター","province":"東京都","city":"狛江市","address":"東京都狛江市元和泉2丁目35-1","lat":35.633385,"lon":139.56751},{"name":"狛江市あいとぴあセンター","province":"東京都","city":"狛江市","address":"東京都狛江市元和泉2丁目35-1","lat":35.633354,"lon":139.567721},{"name":"狛江市あいとぴあセンター","province":"東京都","city":"狛江市","address":"東京都狛江市元和泉2丁目35-1","lat":35.633367,"lon":139.567563},{"name":"狛江市あいとぴあセンター","province":"東京都","city":"狛江市","address":"東京都狛江市元和泉2丁目35-1","lat":35.633372,"lon":139.567507},{"name":"狛江市あいとぴあセンター","province":"東京都","city":"狛江市","address":"東京都狛江市元和泉2丁目35-1","lat":35.633317,"lon":139.567902},{"name":"エコルマホール","province":"東京都","city":"狛江市","address":"東京都狛江市元和泉1丁目2-1","lat":35.633033,"lon":139.577859},{"name":"前原公園","province":"東京都","city":"狛江市","address":"東京都狛江市西野川3丁目11","lat":35.644532,"lon":139.57014},{"name":"西河原自然公園","province":"東京都","city":"狛江市","address":"東京都狛江市元和泉2丁目34","lat":35.63313,"lon":139.570309},{"name":"西河原公園","province":"東京都","city":"狛江市","address":"東京都狛江市元和泉2丁目38","lat":35.632747,"lon":139.567627},{"name":"狛江市立和泉児童館","province":"東京都","city":"狛江市","address":"東京都狛江市中和泉3丁目12-6","lat":35.636909,"lon":139.570529},{"name":"狛江市立駒井学童保育所","province":"東京都","city":"狛江市","address":"東京都狛江市駒井町1丁目21-6","lat":35.62494,"lon":139.585234},{"name":"元和泉市民テニスコート","province":"東京都","city":"狛江市","address":"東京都狛江市元和泉2丁目8","lat":35.630171,"lon":139.571586},{"name":"市民グランド","province":"東京都","city":"狛江市","address":"東京都狛江市和泉本町2丁目15-2","lat":35.640449,"lon":139.579285},{"name":"市民総合体育館","province":"東京都","city":"狛江市","address":"東京都狛江市和泉本町3丁目25-1","lat":35.64217,"lon":139.573177},{"name":"市民総合体育館","province":"東京都","city":"狛江市","address":"東京都狛江市和泉本町3丁目25-1","lat":35.64217,"lon":139.573178},{"name":"市民総合体育館","province":"東京都","city":"狛江市","address":"東京都狛江市和泉本町3丁目25-1","lat":35.64217,"lon":139.573174},{"name":"狛江市子育て・教育支援複合施設","province":"東京都","city":"狛江市","address":"東京都狛江市元和泉1丁目11-11","lat":35.631381,"lon":139.57609},{"name":"寺前小学生クラブ","province":"東京都","city":"狛江市","address":"東京都狛江市元和泉1丁目23-3","lat":35.630207,"lon":139.575552},{"name":"株式会社沖田ダイイチ","province":"東京都","city":"狛江市","address":"東京都狛江市東和泉1丁目10-3","lat":35.63258862,"lon":139.58019263},{"name":"株式会社有山葬儀社","province":"東京都","city":"狛江市","address":"東京都狛江市岩戸北3丁目1-10","lat":35.63426333,"lon":139.58114792},{"name":"有限会社まこと式典東京支店","province":"東京都","city":"狛江市","address":"東京都狛江市東和泉1丁目12-6","lat":35.63261082,"lon":139.57945659},{"name":"いしかわ葬儀社","province":"東京都","city":"狛江市","address":"東京都狛江市東和泉3丁目5-8","lat":35.6268508,"lon":139.57448556},{"name":"狛江市保健センター（あいとぴあセンター）","province":"東京都","city":"狛江市","address":"東京都狛江市元和泉2丁目35-1","lat":35.6333052,"lon":139.56761624},{"name":"狛江市保健センター（あいとぴあセンター）","province":"東京都","city":"狛江市","address":"狛江市元和泉2-35-1","lat":35.6334,"lon":139.56741},{"name":"狛江市子ども家庭支援センター","province":"東京都","city":"狛江市","address":"狛江市元和泉1-11-11ひだまりセンター1階","lat":35.63123,"lon":139.57588},{"name":"狛江市役所","province":"東京都","city":"狛江市","address":"東京都狛江市和泉本町1丁目1番5号","lat":35.63494013,"lon":139.5787757},{"name":"狛江市役所","province":"東京都","city":"狛江市","address":"東京都狛江市和泉本町1丁目1番5号","lat":35.63466216,"lon":139.5781963},{"name":"狛江市立狛江第一小学校","province":"東京都","city":"狛江市","address":"東京都狛江市和泉本町1丁目37番1号","lat":35.63733,"lon":139.57809},{"name":"狛江市立狛江第三小学校","province":"東京都","city":"狛江市","address":"東京都狛江市猪方1丁目11番1号","lat":35.62810934,"lon":139.585056},{"name":"狛江市立狛江第五小学校","province":"東京都","city":"狛江市","address":"東京都狛江市東野川1丁目35番13号","lat":35.64393576,"lon":139.5816416},{"name":"狛江市立狛江第六小学校","province":"東京都","city":"狛江市","address":"東京都狛江市駒井町1丁目21番1号","lat":35.62460954,"lon":139.5852024},{"name":"狛江市立和泉小学校","province":"東京都","city":"狛江市","address":"東京都狛江市中和泉3丁目33丁目1番","lat":35.63473697,"lon":139.5683215},{"name":"狛江市立緑野小学校","province":"東京都","city":"狛江市","address":"東京都狛江市和泉本町4丁目3番1号","lat":35.64171,"lon":139.57103},{"name":"狛江市立狛江第一中学校","province":"東京都","city":"狛江市","address":"東京都狛江市和泉本町2丁目15番1号","lat":35.64082622,"lon":139.5776589},{"name":"狛江市立狛江第二中学校","province":"東京都","city":"狛江市","address":"東京都狛江市猪方2丁目7番1号","lat":35.62727,"lon":139.58314},{"name":"狛江市立狛江第三中学校","province":"東京都","city":"狛江市","address":"東京都狛江市元和泉1丁目23番1号","lat":35.62995,"lon":139.57463},{"name":"狛江市立狛江第四中学校","province":"東京都","city":"狛江市","address":"東京都狛江市狛氏東野川4丁目1番1号","lat":35.64523,"lon":139.58167},{"name":"狛江市立狛江第一小学校体育館","province":"東京都","city":"狛江市","address":"東京都狛江市和泉本町1丁目37番1号","lat":35.63745,"lon":139.57815},{"name":"狛江市立狛江第三小学校体育館","province":"東京都","city":"狛江市","address":"東京都狛江市猪方1丁目11番1号","lat":35.62778,"lon":139.58448},{"name":"狛江市立狛江第五小学校体育館","province":"東京都","city":"狛江市","address":"東京都狛江市東野川1丁目35番13号","lat":35.64383,"lon":139.58096},{"name":"狛江市立狛江第六小学校体育館","province":"東京都","city":"狛江市","address":"東京都狛江市駒井町1丁目21丁目1号","lat":35.62478,"lon":139.5849},{"name":"狛江市立和泉小学校体育館","province":"東京都","city":"狛江市","address":"東京都狛江市中和泉3丁目33丁目1号","lat":35.63485,"lon":139.56861},{"name":"狛江市立緑野小学校体育館","province":"東京都","city":"狛江市","address":"東京都狛江市和泉本町4丁目3番1号","lat":35.64138,"lon":139.57017},{"name":"狛江市立狛江第一中学校体育館","province":"東京都","city":"狛江市","address":"東京都狛江市和泉本町2丁目15番1号","lat":35.6404518,"lon":139.5774335},{"name":"狛江市立狛江第二中学校体育館","province":"東京都","city":"狛江市","address":"東京都狛江市猪方2丁目7番1号","lat":35.62698,"lon":139.58317},{"name":"狛江市立狛江第三中学校体育館","province":"東京都","city":"狛江市","address":"東京都狛江市元和泉1丁目23番1号","lat":35.63017,"lon":139.57445},{"name":"狛江市立狛江第四中学校体育館","province":"東京都","city":"狛江市","address":"東京都狛江市東野川4丁目1番1号","lat":35.64543,"lon":139.58198},{"name":"中央公民館","province":"東京都","city":"狛江市","address":"東京都狛江市和泉本町1丁目1番5号","lat":35.63506,"lon":139.57815},{"name":"西河原公民館","province":"東京都","city":"狛江市","address":"東京都狛江市元和泉2丁目35番1号","lat":35.63338,"lon":139.56706},{"name":"狛江市民総合体育館","province":"東京都","city":"狛江市","address":"東京都狛江市和泉本町3丁目25番1号","lat":35.64236,"lon":139.57323},{"name":"狛江市民グランド","province":"東京都","city":"狛江市","address":"東京都狛江市和泉本町2丁目15番2号","lat":35.63988,"lon":139.57898},{"name":"西和泉体育館","province":"東京都","city":"狛江市","address":"東京都狛江市西和泉1丁目16番1号","lat":35.64027,"lon":139.56512},{"name":"元和泉市民テニスコート","province":"東京都","city":"狛江市","address":"東京都狛江市元和泉2丁目8番1号","lat":35.63018294,"lon":139.5716077},{"name":"東野川市民テニスコート","province":"東京都","city":"狛江市","address":"東京都狛江市東野川3丁目14番10号","lat":35.64707,"lon":139.58233},{"name":"古民家園","province":"東京都","city":"狛江市","address":"東京都狛江市元和泉2丁目15番5号","lat":35.63297,"lon":139.57095},{"name":"あいとぴあセンター","province":"東京都","city":"狛江市","address":"東京都狛江市元和泉2丁目35番1号","lat":35.63331,"lon":139.56778},{"name":"狛江市子育て・教育支援複合施設（ひだまりセンター）","province":"東京都","city":"狛江市","address":"東京都狛江市元和泉1丁目11番11号","lat":35.6314,"lon":139.57617},{"name":"駒井学童保育所・六小KoKoA","province":"東京都","city":"狛江市","address":"東京都狛江市駒井町1丁目21番6号","lat":35.62494,"lon":139.5853},{"name":"猪方学童保育所","province":"東京都","city":"狛江市","address":"東京都狛江市猪方1丁目11番2号","lat":35.62736,"lon":139.58567},{"name":"東野川学童保育所","province":"東京都","city":"狛江市","address":"東京都狛江市東野川1丁目6番3号","lat":35.64332,"lon":139.58086},{"name":"松原学童保育所","province":"東京都","city":"狛江市","address":"東京都狛江市和泉本町1丁目14番3号","lat":35.63896,"lon":139.5779},{"name":"上和泉学童保育所","province":"東京都","city":"狛江市","address":"東京都狛江市和泉本町4丁目7番51号","lat":35.64509,"lon":139.56798},{"name":"第五小学校放課後クラブ","province":"東京都","city":"狛江市","address":"東京都狛江市東野川1丁目36番13号","lat":35.64458,"lon":139.58173},{"name":"藤塚保育園","province":"東京都","city":"狛江市","address":"東京都狛江市和泉本町4丁目7番35号","lat":35.64219,"lon":139.56986},{"name":"駒井保育園","province":"東京都","city":"狛江市","address":"東京都狛江市駒井町2丁目28番6号","lat":35.62443767,"lon":139.5875633},{"name":"駄倉保育園","province":"東京都","city":"狛江市","address":"東京都狛江市岩戸北3丁目20番2号","lat":35.63291,"lon":139.58162},{"name":"三島保育園","province":"東京都","city":"狛江市","address":"東京都狛江市東野川1丁目32番2号","lat":35.64188,"lon":139.58283},{"name":"岩戸児童センター","province":"東京都","city":"狛江市","address":"東京都狛江市岩戸南3丁目15番1号","lat":35.62917099,"lon":139.587911},{"name":"和泉児童館","province":"東京都","city":"狛江市","address":"東京都狛江市中和泉3丁目12番6号","lat":35.63685,"lon":139.57062},{"name":"こまっこ児童館","province":"東京都","city":"狛江市","address":"東京都狛江市和泉本町3丁目31番19号","lat":35.64204402,"lon":139.575466},{"name":"駄倉小学生クラブ","province":"東京都","city":"狛江市","address":"東京都狛江市東和泉1丁目3番17号","lat":35.63291,"lon":139.58058},{"name":"市民活動支援センター（こまえくぼ1234）","province":"東京都","city":"狛江市","address":"東京都狛江市和泉本町1丁目2番34号","lat":35.63432,"lon":139.58038},{"name":"野川地域センター","province":"東京都","city":"狛江市","address":"東京都狛江市西野川1丁目6番9号","lat":35.64612,"lon":139.57566},{"name":"上和泉地域センター","province":"東京都","city":"狛江市","address":"東京都狛江市和泉本町4丁目7番51号","lat":35.64511409,"lon":139.5678151},{"name":"岩戸地域センター","province":"東京都","city":"狛江市","address":"東京都狛江市岩戸南2丁目2丁目5号","lat":35.63214,"lon":139.58608},{"name":"南部地域センター","province":"東京都","city":"狛江市","address":"東京都狛江市猪方4丁目11番1号","lat":35.62337497,"lon":139.5798098},{"name":"和泉多摩川地区センター","province":"東京都","city":"狛江市","address":"東京都狛江市猪方4丁目1番1号","lat":35.62467,"lon":139.57405},{"name":"狛江市民ホール","province":"東京都","city":"狛江市","address":"東京都狛江市元和泉1丁目2番1号","lat":35.63309,"lon":139.5778},{"name":"狛江市選挙管理委員会","province":"東京都","city":"狛江市","address":"狛江市和泉本町1-1-5","lat":35.634901,"lon":139.578772},{"name":"狛江市本庁舎","province":"東京都","city":"狛江市","address":"狛江市和泉本町1-1-5","lat":35.634914,"lon":139.578735},{"name":"狛江消防署","province":"東京都","city":"狛江市","address":"狛江市和泉本町1-23-10","lat":35.6405,"lon":139.5765},{"name":"狛江市子ども家庭支援センター","province":"東京都","city":"狛江市","address":"狛江市岩戸南3-15-1岩戸児童センター2階","lat":35.629103,"lon":139.587948},{"name":"狛江市保健センター（あいとぴあセンター）","province":"東京都","city":"狛江市","address":"狛江市元和泉2-35-1","lat":35.6333,"lon":139.567777},{"name":"狛江市子ども家庭支援センター","province":"東京都","city":"狛江市","address":"狛江市元和泉2-35-1","lat":35.6334,"lon":139.567413},{"name":"狛江市","province":"東京都","city":"狛江市","address":"狛江市和泉本町1-1-5","lat":35.6349142,"lon":139.5787353},{"name":"西河原公民館","province":"東京都","city":"狛江市","address":"東京都狛江市元和泉2丁目35-1","lat":35.633456,"lon":139.566834},{"name":"狛江市庁舎","province":"東京都","city":"狛江市","address":"東京都狛江市和泉本町1丁目1-5","lat":35.634746,"lon":139.578776},{"name":"狛江市庁舎","province":"東京都","city":"狛江市","address":"東京都狛江市和泉本町1丁目1-5","lat":35.635005,"lon":139.578615},{"name":"狛江市庁舎","province":"東京都","city":"狛江市","address":"東京都狛江市和泉本町1丁目1-5","lat":35.63463,"lon":139.578749},{"name":"狛江市庁舎","province":"東京都","city":"狛江市","address":"東京都狛江市和泉本町1丁目1-5","lat":35.634875,"lon":139.578742},{"name":"狛江市防災センター","province":"東京都","city":"狛江市","address":"東京都狛江市和泉本町1丁目1-5","lat":35.634718,"lon":139.578234},{"name":"狛江市ビン・缶リサイクルセンター","province":"東京都","city":"狛江市","address":"東京都狛江市岩戸北1丁目1-11","lat":35.635704,"lon":139.580209},{"name":"中央公民館","province":"東京都","city":"狛江市","address":"東京都狛江市和泉本町1丁目1-5","lat":35.635147,"lon":139.578153},{"name":"西河原公民館","province":"東京都","city":"狛江市","address":"東京都狛江市元和泉2丁目35-1","lat":35.633421,"lon":139.567061},{"name":"エコルマホール","province":"東京都","city":"狛江市","address":"東京都狛江市元和泉1丁目2-1","lat":35.633073,"lon":139.577864},{"name":"西河原公民館","province":"東京都","city":"狛江市","address":"東京都狛江市元和泉2丁目35-1","lat":35.633435,"lon":139.566789},{"name":"西河原公民館","province":"東京都","city":"狛江市","address":"東京都狛江市元和泉2丁目35-1","lat":35.633457,"lon":139.566824},{"name":"野川地域センター","province":"東京都","city":"狛江市","address":"東京都狛江市西野川1丁目6-9","lat":35.646111,"lon":139.575493},{"name":"岩戸地域センター","province":"東京都","city":"狛江市","address":"東京都狛江市岩戸南2丁目2-5","lat":35.632129,"lon":139.586087},{"name":"上和泉地域センター","province":"東京都","city":"狛江市","address":"東京都狛江市和泉本町4丁目7-51","lat":35.645162,"lon":139.567931},{"name":"上和泉地域センター","province":"東京都","city":"狛江市","address":"東京都狛江市和泉本町4丁目7-51","lat":35.64517,"lon":139.5679},{"name":"南部地域センター","province":"東京都","city":"狛江市","address":"東京都狛江市猪方4丁目11","lat":35.623387,"lon":139.579702},{"name":"根川地区センター","province":"東京都","city":"狛江市","address":"東京都狛江市中和泉4丁目16-3","lat":35.63557,"lon":139.564173},{"name":"駄倉地区センター","province":"東京都","city":"狛江市","address":"東京都狛江市東和泉1丁目3-17","lat":35.632904,"lon":139.580609},{"name":"和泉多摩川地区センター","province":"東京都","city":"狛江市","address":"東京都狛江市猪方4丁目1-1","lat":35.624687,"lon":139.574068},{"name":"和泉多摩川地区センター","province":"東京都","city":"狛江市","address":"東京都狛江市猪方4丁目1-1","lat":35.624667,"lon":139.574026},{"name":"谷戸橋地区センター","province":"東京都","city":"狛江市","address":"東京都狛江市東野川4丁目30-1","lat":35.645767,"lon":139.58667},{"name":"狛江市あいとぴあセンター","province":"東京都","city":"狛江市","address":"東京都狛江市元和泉2丁目35-1","lat":35.633385,"lon":139.56751},{"name":"狛江市あいとぴあセンター","province":"東京都","city":"狛江市","address":"東京都狛江市元和泉2丁目35-1","lat":35.633354,"lon":139.567721},{"name":"狛江市あいとぴあセンター","province":"東京都","city":"狛江市","address":"東京都狛江市元和泉2丁目35-1","lat":35.633367,"lon":139.567563},{"name":"狛江市あいとぴあセンター","province":"東京都","city":"狛江市","address":"東京都狛江市元和泉2丁目35-1","lat":35.633372,"lon":139.567507},{"name":"狛江市あいとぴあセンター","province":"東京都","city":"狛江市","address":"東京都狛江市元和泉2丁目35-1","lat":35.633317,"lon":139.567902},{"name":"エコルマホール","province":"東京都","city":"狛江市","address":"東京都狛江市元和泉1丁目2-1","lat":35.633033,"lon":139.577859},{"name":"前原公園","province":"東京都","city":"狛江市","address":"東京都狛江市西野川3丁目11","lat":35.644532,"lon":139.57014},{"name":"西河原自然公園","province":"東京都","city":"狛江市","address":"東京都狛江市元和泉2丁目34","lat":35.63313,"lon":139.570309},{"name":"西河原公園","province":"東京都","city":"狛江市","address":"東京都狛江市元和泉2丁目38","lat":35.632747,"lon":139.567627},{"name":"狛江市立和泉児童館","province":"東京都","city":"狛江市","address":"東京都狛江市中和泉3丁目12-6","lat":35.636909,"lon":139.570529},{"name":"狛江市立駒井学童保育所","province":"東京都","city":"狛江市","address":"東京都狛江市駒井町1丁目21-6","lat":35.62494,"lon":139.585234},{"name":"元和泉市民テニスコート","province":"東京都","city":"狛江市","address":"東京都狛江市元和泉2丁目8","lat":35.630171,"lon":139.571586},{"name":"市民グランド","province":"東京都","city":"狛江市","address":"東京都狛江市和泉本町2丁目15-2","lat":35.640449,"lon":139.579285},{"name":"市民総合体育館","province":"東京都","city":"狛江市","address":"東京都狛江市和泉本町3丁目25-1","lat":35.64217,"lon":139.573177},{"name":"市民総合体育館","province":"東京都","city":"狛江市","address":"東京都狛江市和泉本町3丁目25-1","lat":35.64217,"lon":139.573178},{"name":"市民総合体育館","province":"東京都","city":"狛江市","address":"東京都狛江市和泉本町3丁目25-1","lat":35.64217,"lon":139.573174},{"name":"狛江市子育て・教育支援複合施設","province":"東京都","city":"狛江市","address":"東京都狛江市元和泉1丁目11-11","lat":35.631381,"lon":139.57609},{"name":"寺前小学生クラブ","province":"東京都","city":"狛江市","address":"東京都狛江市元和泉1丁目23-3","lat":35.630207,"lon":139.575552},{"name":"株式会社沖田ダイイチ","province":"東京都","city":"狛江市","address":"東京都狛江市東和泉1丁目10-3","lat":35.63258862,"lon":139.58019263},{"name":"株式会社有山葬儀社","province":"東京都","city":"狛江市","address":"東京都狛江市岩戸北3丁目1-10","lat":35.63426333,"lon":139.58114792},{"name":"有限会社まこと式典東京支店","province":"東京都","city":"狛江市","address":"東京都狛江市東和泉1丁目12-6","lat":35.63261082,"lon":139.57945659},{"name":"いしかわ葬儀社","province":"東京都","city":"狛江市","address":"東京都狛江市東和泉3丁目5-8","lat":35.6268508,"lon":139.57448556},{"name":"狛江市保健センター（あいとぴあセンター）","province":"東京都","city":"狛江市","address":"東京都狛江市元和泉2丁目35-1","lat":35.6333052,"lon":139.56761624},{"name":"狛江市保健センター（あいとぴあセンター）","province":"東京都","city":"狛江市","address":"狛江市元和泉2-35-1","lat":35.6334,"lon":139.56741},{"name":"狛江市子ども家庭支援センター","province":"東京都","city":"狛江市","address":"狛江市元和泉1-11-11ひだまりセンター1階","lat":35.63123,"lon":139.57588},{"name":"狛江市役所","province":"東京都","city":"狛江市","address":"東京都狛江市和泉本町1丁目1番5号","lat":35.63494013,"lon":139.5787757},{"name":"狛江市役所","province":"東京都","city":"狛江市","address":"東京都狛江市和泉本町1丁目1番5号","lat":35.63466216,"lon":139.5781963},{"name":"狛江市立狛江第一小学校","province":"東京都","city":"狛江市","address":"東京都狛江市和泉本町1丁目37番1号","lat":35.63733,"lon":139.57809},{"name":"狛江市立狛江第三小学校","province":"東京都","city":"狛江市","address":"東京都狛江市猪方1丁目11番1号","lat":35.62810934,"lon":139.585056},{"name":"狛江市立狛江第五小学校","province":"東京都","city":"狛江市","address":"東京都狛江市東野川1丁目35番13号","lat":35.64393576,"lon":139.5816416},{"name":"狛江市立狛江第六小学校","province":"東京都","city":"狛江市","address":"東京都狛江市駒井町1丁目21番1号","lat":35.62460954,"lon":139.5852024},{"name":"狛江市立和泉小学校","province":"東京都","city":"狛江市","address":"東京都狛江市中和泉3丁目33丁目1番","lat":35.63473697,"lon":139.5683215},{"name":"狛江市立緑野小学校","province":"東京都","city":"狛江市","address":"東京都狛江市和泉本町4丁目3番1号","lat":35.64171,"lon":139.57103},{"name":"狛江市立狛江第一中学校","province":"東京都","city":"狛江市","address":"東京都狛江市和泉本町2丁目15番1号","lat":35.64082622,"lon":139.5776589},{"name":"狛江市立狛江第二中学校","province":"東京都","city":"狛江市","address":"東京都狛江市猪方2丁目7番1号","lat":35.62727,"lon":139.58314},{"name":"狛江市立狛江第三中学校","province":"東京都","city":"狛江市","address":"東京都狛江市元和泉1丁目23番1号","lat":35.62995,"lon":139.57463},{"name":"狛江市立狛江第四中学校","province":"東京都","city":"狛江市","address":"東京都狛江市狛氏東野川4丁目1番1号","lat":35.64523,"lon":139.58167},{"name":"狛江市立狛江第一小学校体育館","province":"東京都","city":"狛江市","address":"東京都狛江市和泉本町1丁目37番1号","lat":35.63745,"lon":139.57815},{"name":"狛江市立狛江第三小学校体育館","province":"東京都","city":"狛江市","address":"東京都狛江市猪方1丁目11番1号","lat":35.62778,"lon":139.58448},{"name":"狛江市立狛江第五小学校体育館","province":"東京都","city":"狛江市","address":"東京都狛江市東野川1丁目35番13号","lat":35.64383,"lon":139.58096},{"name":"狛江市立狛江第六小学校体育館","province":"東京都","city":"狛江市","address":"東京都狛江市駒井町1丁目21丁目1号","lat":35.62478,"lon":139.5849},{"name":"狛江市立和泉小学校体育館","province":"東京都","city":"狛江市","address":"東京都狛江市中和泉3丁目33丁目1号","lat":35.63485,"lon":139.56861},{"name":"狛江市立緑野小学校体育館","province":"東京都","city":"狛江市","address":"東京都狛江市和泉本町4丁目3番1号","lat":35.64138,"lon":139.57017},{"name":"狛江市立狛江第一中学校体育館","province":"東京都","city":"狛江市","address":"東京都狛江市和泉本町2丁目15番1号","lat":35.6404518,"lon":139.5774335},{"name":"狛江市立狛江第二中学校体育館","province":"東京都","city":"狛江市","address":"東京都狛江市猪方2丁目7番1号","lat":35.62698,"lon":139.58317},{"name":"狛江市立狛江第三中学校体育館","province":"東京都","city":"狛江市","address":"東京都狛江市元和泉1丁目23番1号","lat":35.63017,"lon":139.57445},{"name":"狛江市立狛江第四中学校体育館","province":"東京都","city":"狛江市","address":"東京都狛江市東野川4丁目1番1号","lat":35.64543,"lon":139.58198},{"name":"中央公民館","province":"東京都","city":"狛江市","address":"東京都狛江市和泉本町1丁目1番5号","lat":35.63506,"lon":139.57815},{"name":"西河原公民館","province":"東京都","city":"狛江市","address":"東京都狛江市元和泉2丁目35番1号","lat":35.63338,"lon":139.56706},{"name":"狛江市民総合体育館","province":"東京都","city":"狛江市","address":"東京都狛江市和泉本町3丁目25番1号","lat":35.64236,"lon":139.57323},{"name":"狛江市民グランド","province":"東京都","city":"狛江市","address":"東京都狛江市和泉本町2丁目15番2号","lat":35.63988,"lon":139.57898},{"name":"西和泉体育館","province":"東京都","city":"狛江市","address":"東京都狛江市西和泉1丁目16番1号","lat":35.64027,"lon":139.56512},{"name":"元和泉市民テニスコート","province":"東京都","city":"狛江市","address":"東京都狛江市元和泉2丁目8番1号","lat":35.63018294,"lon":139.5716077},{"name":"東野川市民テニスコート","province":"東京都","city":"狛江市","address":"東京都狛江市東野川3丁目14番10号","lat":35.64707,"lon":139.58233},{"name":"古民家園","province":"東京都","city":"狛江市","address":"東京都狛江市元和泉2丁目15番5号","lat":35.63297,"lon":139.57095},{"name":"あいとぴあセンター","province":"東京都","city":"狛江市","address":"東京都狛江市元和泉2丁目35番1号","lat":35.63331,"lon":139.56778},{"name":"狛江市子育て・教育支援複合施設（ひだまりセンター）","province":"東京都","city":"狛江市","address":"東京都狛江市元和泉1丁目11番11号","lat":35.6314,"lon":139.57617},{"name":"駒井学童保育所・六小KoKoA","province":"東京都","city":"狛江市","address":"東京都狛江市駒井町1丁目21番6号","lat":35.62494,"lon":139.5853},{"name":"猪方学童保育所","province":"東京都","city":"狛江市","address":"東京都狛江市猪方1丁目11番2号","lat":35.62736,"lon":139.58567},{"name":"東野川学童保育所","province":"東京都","city":"狛江市","address":"東京都狛江市東野川1丁目6番3号","lat":35.64332,"lon":139.58086},{"name":"松原学童保育所","province":"東京都","city":"狛江市","address":"東京都狛江市和泉本町1丁目14番3号","lat":35.63896,"lon":139.5779},{"name":"上和泉学童保育所","province":"東京都","city":"狛江市","address":"東京都狛江市和泉本町4丁目7番51号","lat":35.64509,"lon":139.56798},{"name":"第五小学校放課後クラブ","province":"東京都","city":"狛江市","address":"東京都狛江市東野川1丁目36番13号","lat":35.64458,"lon":139.58173},{"name":"藤塚保育園","province":"東京都","city":"狛江市","address":"東京都狛江市和泉本町4丁目7番35号","lat":35.64219,"lon":139.56986},{"name":"駒井保育園","province":"東京都","city":"狛江市","address":"東京都狛江市駒井町2丁目28番6号","lat":35.62443767,"lon":139.5875633},{"name":"駄倉保育園","province":"東京都","city":"狛江市","address":"東京都狛江市岩戸北3丁目20番2号","lat":35.63291,"lon":139.58162},{"name":"三島保育園","province":"東京都","city":"狛江市","address":"東京都狛江市東野川1丁目32番2号","lat":35.64188,"lon":139.58283},{"name":"岩戸児童センター","province":"東京都","city":"狛江市","address":"東京都狛江市岩戸南3丁目15番1号","lat":35.62917099,"lon":139.587911},{"name":"和泉児童館","province":"東京都","city":"狛江市","address":"東京都狛江市中和泉3丁目12番6号","lat":35.63685,"lon":139.57062},{"name":"こまっこ児童館","province":"東京都","city":"狛江市","address":"東京都狛江市和泉本町3丁目31番19号","lat":35.64204402,"lon":139.575466},{"name":"駄倉小学生クラブ","province":"東京都","city":"狛江市","address":"東京都狛江市東和泉1丁目3番17号","lat":35.63291,"lon":139.58058},{"name":"市民活動支援センター（こまえくぼ1234）","province":"東京都","city":"狛江市","address":"東京都狛江市和泉本町1丁目2番34号","lat":35.63432,"lon":139.58038},{"name":"野川地域センター","province":"東京都","city":"狛江市","address":"東京都狛江市西野川1丁目6番9号","lat":35.64612,"lon":139.57566},{"name":"上和泉地域センター","province":"東京都","city":"狛江市","address":"東京都狛江市和泉本町4丁目7番51号","lat":35.64511409,"lon":139.5678151},{"name":"岩戸地域センター","province":"東京都","city":"狛江市","address":"東京都狛江市岩戸南2丁目2丁目5号","lat":35.63214,"lon":139.58608},{"name":"南部地域センター","province":"東京都","city":"狛江市","address":"東京都狛江市猪方4丁目11番1号","lat":35.62337497,"lon":139.5798098},{"name":"和泉多摩川地区センター","province":"東京都","city":"狛江市","address":"東京都狛江市猪方4丁目1番1号","lat":35.62467,"lon":139.57405},{"name":"狛江市民ホール","province":"東京都","city":"狛江市","address":"東京都狛江市元和泉1丁目2番1号","lat":35.63309,"lon":139.5778},{"name":"狛江市選挙管理委員会","province":"東京都","city":"狛江市","address":"狛江市和泉本町1-1-5","lat":35.634901,"lon":139.578772},{"name":"狛江市子ども家庭支援センター","province":"東京都","city":"狛江市","address":"狛江市岩戸南3-15-1岩戸児童センター2階","lat":35.629103,"lon":139.587948},{"name":"狛江市保健センター（あいとぴあセンター）","province":"東京都","city":"狛江市","address":"狛江市元和泉2-35-1","lat":35.6333,"lon":139.567777},{"name":"狛江市子ども家庭支援センター","province":"東京都","city":"狛江市","address":"狛江市元和泉2-35-1","lat":35.6334,"lon":139.567413},{"name":"狛江市","province":"東京都","city":"狛江市","address":"狛江市和泉本町1-1-5","lat":35.6349142,"lon":139.5787353},{"name":"株式会社沖田ダイイチ","province":"東京都","city":"狛江市","address":"東京都狛江市東和泉1丁目10-3","lat":35.63258862,"lon":139.58019263},{"name":"株式会社有山葬儀社","province":"東京都","city":"狛江市","address":"東京都狛江市岩戸北3丁目1-10","lat":35.63426333,"lon":139.58114792},{"name":"有限会社まこと式典東京支店","province":"東京都","city":"狛江市","address":"東京都狛江市東和泉1丁目12-6","lat":35.63261082,"lon":139.57945659},{"name":"いしかわ葬儀社","province":"東京都","city":"狛江市","address":"東京都狛江市東和泉3丁目5-8","lat":35.6268508,"lon":139.57448556},{"name":"狛江市保健センター（あいとぴあセンター）","province":"東京都","city":"狛江市","address":"東京都狛江市元和泉2丁目35-1","lat":35.6333052,"lon":139.56761624},{"name":"狛江市保健センター（あいとぴあセンター）","province":"東京都","city":"狛江市","address":"狛江市元和泉2-35-1","lat":35.6334,"lon":139.56741},{"name":"狛江市子ども家庭支援センター","province":"東京都","city":"狛江市","address":"狛江市元和泉1-11-11ひだまりセンター1階","lat":35.63123,"lon":139.57588},{"name":"狛江市役所","province":"東京都","city":"狛江市","address":"東京都狛江市和泉本町1丁目1番5号","lat":35.63494013,"lon":139.5787757},{"name":"狛江市役所","province":"東京都","city":"狛江市","address":"東京都狛江市和泉本町1丁目1番5号","lat":35.63466216,"lon":139.5781963},{"name":"狛江市立狛江第一小学校","province":"東京都","city":"狛江市","address":"東京都狛江市和泉本町1丁目37番1号","lat":35.63733,"lon":139.57809},{"name":"狛江市立狛江第三小学校","province":"東京都","city":"狛江市","address":"東京都狛江市猪方1丁目11番1号","lat":35.62810934,"lon":139.585056},{"name":"狛江市立狛江第五小学校","province":"東京都","city":"狛江市","address":"東京都狛江市東野川1丁目35番13号","lat":35.64393576,"lon":139.5816416},{"name":"狛江市立狛江第六小学校","province":"東京都","city":"狛江市","address":"東京都狛江市駒井町1丁目21番1号","lat":35.62460954,"lon":139.5852024},{"name":"狛江市立和泉小学校","province":"東京都","city":"狛江市","address":"東京都狛江市中和泉3丁目33丁目1番","lat":35.63473697,"lon":139.5683215},{"name":"狛江市立緑野小学校","province":"東京都","city":"狛江市","address":"東京都狛江市和泉本町4丁目3番1号","lat":35.64171,"lon":139.57103},{"name":"狛江市立狛江第一中学校","province":"東京都","city":"狛江市","address":"東京都狛江市和泉本町2丁目15番1号","lat":35.64082622,"lon":139.5776589},{"name":"狛江市立狛江第二中学校","province":"東京都","city":"狛江市","address":"東京都狛江市猪方2丁目7番1号","lat":35.62727,"lon":139.58314},{"name":"狛江市立狛江第三中学校","province":"東京都","city":"狛江市","address":"東京都狛江市元和泉1丁目23番1号","lat":35.62995,"lon":139.57463},{"name":"狛江市立狛江第四中学校","province":"東京都","city":"狛江市","address":"東京都狛江市狛氏東野川4丁目1番1号","lat":35.64523,"lon":139.58167},{"name":"狛江市立狛江第一小学校体育館","province":"東京都","city":"狛江市","address":"東京都狛江市和泉本町1丁目37番1号","lat":35.63745,"lon":139.57815},{"name":"狛江市立狛江第三小学校体育館","province":"東京都","city":"狛江市","address":"東京都狛江市猪方1丁目11番1号","lat":35.62778,"lon":139.58448},{"name":"狛江市立狛江第五小学校体育館","province":"東京都","city":"狛江市","address":"東京都狛江市東野川1丁目35番13号","lat":35.64383,"lon":139.58096},{"name":"狛江市立狛江第六小学校体育館","province":"東京都","city":"狛江市","address":"東京都狛江市駒井町1丁目21丁目1号","lat":35.62478,"lon":139.5849},{"name":"狛江市立和泉小学校体育館","province":"東京都","city":"狛江市","address":"東京都狛江市中和泉3丁目33丁目1号","lat":35.63485,"lon":139.56861},{"name":"狛江市立緑野小学校体育館","province":"東京都","city":"狛江市","address":"東京都狛江市和泉本町4丁目3番1号","lat":35.64138,"lon":139.57017},{"name":"狛江市立狛江第一中学校体育館","province":"東京都","city":"狛江市","address":"東京都狛江市和泉本町2丁目15番1号","lat":35.6404518,"lon":139.5774335},{"name":"狛江市立狛江第二中学校体育館","province":"東京都","city":"狛江市","address":"東京都狛江市猪方2丁目7番1号","lat":35.62698,"lon":139.58317},{"name":"狛江市立狛江第三中学校体育館","province":"東京都","city":"狛江市","address":"東京都狛江市元和泉1丁目23番1号","lat":35.63017,"lon":139.57445},{"name":"狛江市立狛江第四中学校体育館","province":"東京都","city":"狛江市","address":"東京都狛江市東野川4丁目1番1号","lat":35.64543,"lon":139.58198},{"name":"中央公民館","province":"東京都","city":"狛江市","address":"東京都狛江市和泉本町1丁目1番5号","lat":35.63506,"lon":139.57815},{"name":"西河原公民館","province":"東京都","city":"狛江市","address":"東京都狛江市元和泉2丁目35番1号","lat":35.63338,"lon":139.56706},{"name":"狛江市民総合体育館","province":"東京都","city":"狛江市","address":"東京都狛江市和泉本町3丁目25番1号","lat":35.64236,"lon":139.57323},{"name":"狛江市民グランド","province":"東京都","city":"狛江市","address":"東京都狛江市和泉本町2丁目15番2号","lat":35.63988,"lon":139.57898},{"name":"西和泉体育館","province":"東京都","city":"狛江市","address":"東京都狛江市西和泉1丁目16番1号","lat":35.64027,"lon":139.56512},{"name":"元和泉市民テニスコート","province":"東京都","city":"狛江市","address":"東京都狛江市元和泉2丁目8番1号","lat":35.63018294,"lon":139.5716077},{"name":"東野川市民テニスコート","province":"東京都","city":"狛江市","address":"東京都狛江市東野川3丁目14番10号","lat":35.64707,"lon":139.58233},{"name":"古民家園","province":"東京都","city":"狛江市","address":"東京都狛江市元和泉2丁目15番5号","lat":35.63297,"lon":139.57095},{"name":"あいとぴあセンター","province":"東京都","city":"狛江市","address":"東京都狛江市元和泉2丁目35番1号","lat":35.63331,"lon":139.56778},{"name":"狛江市子育て・教育支援複合施設（ひだまりセンター）","province":"東京都","city":"狛江市","address":"東京都狛江市元和泉1丁目11番11号","lat":35.6314,"lon":139.57617},{"name":"駒井学童保育所・六小KoKoA","province":"東京都","city":"狛江市","address":"東京都狛江市駒井町1丁目21番6号","lat":35.62494,"lon":139.5853},{"name":"猪方学童保育所","province":"東京都","city":"狛江市","address":"東京都狛江市猪方1丁目11番2号","lat":35.62736,"lon":139.58567},{"name":"東野川学童保育所","province":"東京都","city":"狛江市","address":"東京都狛江市東野川1丁目6番3号","lat":35.64332,"lon":139.58086},{"name":"松原学童保育所","province":"東京都","city":"狛江市","address":"東京都狛江市和泉本町1丁目14番3号","lat":35.63896,"lon":139.5779},{"name":"上和泉学童保育所","province":"東京都","city":"狛江市","address":"東京都狛江市和泉本町4丁目7番51号","lat":35.64509,"lon":139.56798},{"name":"第五小学校放課後クラブ","province":"東京都","city":"狛江市","address":"東京都狛江市東野川1丁目36番13号","lat":35.64458,"lon":139.58173},{"name":"藤塚保育園","province":"東京都","city":"狛江市","address":"東京都狛江市和泉本町4丁目7番35号","lat":35.64219,"lon":139.56986},{"name":"駒井保育園","province":"東京都","city":"狛江市","address":"東京都狛江市駒井町2丁目28番6号","lat":35.62443767,"lon":139.5875633},{"name":"駄倉保育園","province":"東京都","city":"狛江市","address":"東京都狛江市岩戸北3丁目20番2号","lat":35.63291,"lon":139.58162},{"name":"三島保育園","province":"東京都","city":"狛江市","address":"東京都狛江市東野川1丁目32番2号","lat":35.64188,"lon":139.58283},{"name":"岩戸児童センター","province":"東京都","city":"狛江市","address":"東京都狛江市岩戸南3丁目15番1号","lat":35.62917099,"lon":139.587911},{"name":"和泉児童館","province":"東京都","city":"狛江市","address":"東京都狛江市中和泉3丁目12番6号","lat":35.63685,"lon":139.57062},{"name":"こまっこ児童館","province":"東京都","city":"狛江市","address":"東京都狛江市和泉本町3丁目31番19号","lat":35.64204402,"lon":139.575466},{"name":"駄倉小学生クラブ","province":"東京都","city":"狛江市","address":"東京都狛江市東和泉1丁目3番17号","lat":35.63291,"lon":139.58058},{"name":"市民活動支援センター（こまえくぼ1234）","province":"東京都","city":"狛江市","address":"東京都狛江市和泉本町1丁目2番34号","lat":35.63432,"lon":139.58038},{"name":"野川地域センター","province":"東京都","city":"狛江市","address":"東京都狛江市西野川1丁目6番9号","lat":35.64612,"lon":139.57566},{"name":"上和泉地域センター","province":"東京都","city":"狛江市","address":"東京都狛江市和泉本町4丁目7番51号","lat":35.64511409,"lon":139.5678151},{"name":"岩戸地域センター","province":"東京都","city":"狛江市","address":"東京都狛江市岩戸南2丁目2丁目5号","lat":35.63214,"lon":139.58608},{"name":"南部地域センター","province":"東京都","city":"狛江市","address":"東京都狛江市猪方4丁目11番1号","lat":35.62337497,"lon":139.5798098},{"name":"和泉多摩川地区センター","province":"東京都","city":"狛江市","address":"東京都狛江市猪方4丁目1番1号","lat":35.62467,"lon":139.57405},{"name":"狛江市民ホール","province":"東京都","city":"狛江市","address":"東京都狛江市元和泉1丁目2番1号","lat":35.63309,"lon":139.5778},{"name":"狛江市選挙管理委員会","province":"東京都","city":"狛江市","address":"狛江市和泉本町1-1-5","lat":35.634901,"lon":139.578772},{"name":"狛江市保健センター（あいとぴあセンター）","province":"東京都","city":"狛江市","address":"狛江市元和泉2-35-1","lat":35.6333,"lon":139.567777},{"name":"狛江市","province":"東京都","city":"狛江市","address":"狛江市和泉本町1-1-5","lat":35.6349142,"lon":139.5787353},{"name":"株式会社沖田ダイイチ","province":"東京都","city":"狛江市","address":"東京都狛江市東和泉1丁目10-3","lat":35.63258862,"lon":139.58019263},{"name":"株式会社有山葬儀社","province":"東京都","city":"狛江市","address":"東京都狛江市岩戸北3丁目1-10","lat":35.63426333,"lon":139.58114792},{"name":"有限会社まこと式典東京支店","province":"東京都","city":"狛江市","address":"東京都狛江市東和泉1丁目12-6","lat":35.63261082,"lon":139.57945659},{"name":"いしかわ葬儀社","province":"東京都","city":"狛江市","address":"東京都狛江市東和泉3丁目5-8","lat":35.6268508,"lon":139.57448556},{"name":"狛江市保健センター（あいとぴあセンター）","province":"東京都","city":"狛江市","address":"東京都狛江市元和泉2丁目35-1","lat":35.6333052,"lon":139.56761624},{"name":"狛江市保健センター（あいとぴあセンター）","province":"東京都","city":"狛江市","address":"狛江市元和泉2-35-1","lat":35.6334,"lon":139.56741},{"name":"狛江市役所","province":"東京都","city":"狛江市","address":"東京都狛江市和泉本町1丁目1番5号","lat":35.63494013,"lon":139.5787757},{"name":"狛江市役所","province":"東京都","city":"狛江市","address":"東京都狛江市和泉本町1丁目1番5号","lat":35.63466216,"lon":139.5781963},{"name":"狛江市立狛江第一小学校","province":"東京都","city":"狛江市","address":"東京都狛江市和泉本町1丁目37番1号","lat":35.63733,"lon":139.57809},{"name":"狛江市立狛江第三小学校","province":"東京都","city":"狛江市","address":"東京都狛江市猪方1丁目11番1号","lat":35.62810934,"lon":139.585056},{"name":"狛江市立狛江第五小学校","province":"東京都","city":"狛江市","address":"東京都狛江市東野川1丁目35番13号","lat":35.64393576,"lon":139.5816416},{"name":"狛江市立狛江第六小学校","province":"東京都","city":"狛江市","address":"東京都狛江市駒井町1丁目21番1号","lat":35.62460954,"lon":139.5852024},{"name":"狛江市立和泉小学校","province":"東京都","city":"狛江市","address":"東京都狛江市中和泉3丁目33丁目1番","lat":35.63473697,"lon":139.5683215},{"name":"狛江市立緑野小学校","province":"東京都","city":"狛江市","address":"東京都狛江市和泉本町4丁目3番1号","lat":35.64171,"lon":139.57103},{"name":"狛江市立狛江第一中学校","province":"東京都","city":"狛江市","address":"東京都狛江市和泉本町2丁目15番1号","lat":35.64082622,"lon":139.5776589},{"name":"狛江市立狛江第二中学校","province":"東京都","city":"狛江市","address":"東京都狛江市猪方2丁目7番1号","lat":35.62727,"lon":139.58314},{"name":"狛江市立狛江第三中学校","province":"東京都","city":"狛江市","address":"東京都狛江市元和泉1丁目23番1号","lat":35.62995,"lon":139.57463},{"name":"狛江市立狛江第四中学校","province":"東京都","city":"狛江市","address":"東京都狛江市狛氏東野川4丁目1番1号","lat":35.64523,"lon":139.58167},{"name":"狛江市立狛江第一小学校体育館","province":"東京都","city":"狛江市","address":"東京都狛江市和泉本町1丁目37番1号","lat":35.63745,"lon":139.57815},{"name":"狛江市立狛江第三小学校体育館","province":"東京都","city":"狛江市","address":"東京都狛江市猪方1丁目11番1号","lat":35.62778,"lon":139.58448},{"name":"狛江市立狛江第五小学校体育館","province":"東京都","city":"狛江市","address":"東京都狛江市東野川1丁目35番13号","lat":35.64383,"lon":139.58096},{"name":"狛江市立狛江第六小学校体育館","province":"東京都","city":"狛江市","address":"東京都狛江市駒井町1丁目21丁目1号","lat":35.62478,"lon":139.5849},{"name":"狛江市立和泉小学校体育館","province":"東京都","city":"狛江市","address":"東京都狛江市中和泉3丁目33丁目1号","lat":35.63485,"lon":139.56861},{"name":"狛江市立緑野小学校体育館","province":"東京都","city":"狛江市","address":"東京都狛江市和泉本町4丁目3番1号","lat":35.64138,"lon":139.57017},{"name":"狛江市立狛江第一中学校体育館","province":"東京都","city":"狛江市","address":"東京都狛江市和泉本町2丁目15番1号","lat":35.6404518,"lon":139.5774335},{"name":"狛江市立狛江第二中学校体育館","province":"東京都","city":"狛江市","address":"東京都狛江市猪方2丁目7番1号","lat":35.62698,"lon":139.58317},{"name":"狛江市立狛江第三中学校体育館","province":"東京都","city":"狛江市","address":"東京都狛江市元和泉1丁目23番1号","lat":35.63017,"lon":139.57445},{"name":"狛江市立狛江第四中学校体育館","province":"東京都","city":"狛江市","address":"東京都狛江市東野川4丁目1番1号","lat":35.64543,"lon":139.58198},{"name":"中央公民館","province":"東京都","city":"狛江市","address":"東京都狛江市和泉本町1丁目1番5号","lat":35.63506,"lon":139.57815},{"name":"西河原公民館","province":"東京都","city":"狛江市","address":"東京都狛江市元和泉2丁目35番1号","lat":35.63338,"lon":139.56706},{"name":"狛江市民総合体育館","province":"東京都","city":"狛江市","address":"東京都狛江市和泉本町3丁目25番1号","lat":35.64236,"lon":139.57323},{"name":"狛江市民グランド","province":"東京都","city":"狛江市","address":"東京都狛江市和泉本町2丁目15番2号","lat":35.63988,"lon":139.57898},{"name":"西和泉体育館","province":"東京都","city":"狛江市","address":"東京都狛江市西和泉1丁目16番1号","lat":35.64027,"lon":139.56512},{"name":"元和泉市民テニスコート","province":"東京都","city":"狛江市","address":"東京都狛江市元和泉2丁目8番1号","lat":35.63018294,"lon":139.5716077},{"name":"東野川市民テニスコート","province":"東京都","city":"狛江市","address":"東京都狛江市東野川3丁目14番10号","lat":35.64707,"lon":139.58233},{"name":"古民家園","province":"東京都","city":"狛江市","address":"東京都狛江市元和泉2丁目15番5号","lat":35.63297,"lon":139.57095},{"name":"あいとぴあセンター","province":"東京都","city":"狛江市","address":"東京都狛江市元和泉2丁目35番1号","lat":35.63331,"lon":139.56778},{"name":"狛江市子育て・教育支援複合施設（ひだまりセンター）","province":"東京都","city":"狛江市","address":"東京都狛江市元和泉1丁目11番11号","lat":35.6314,"lon":139.57617},{"name":"駒井学童保育所・六小KoKoA","province":"東京都","city":"狛江市","address":"東京都狛江市駒井町1丁目21番6号","lat":35.62494,"lon":139.5853},{"name":"猪方学童保育所","province":"東京都","city":"狛江市","address":"東京都狛江市猪方1丁目11番2号","lat":35.62736,"lon":139.58567},{"name":"東野川学童保育所","province":"東京都","city":"狛江市","address":"東京都狛江市東野川1丁目6番3号","lat":35.64332,"lon":139.58086},{"name":"松原学童保育所","province":"東京都","city":"狛江市","address":"東京都狛江市和泉本町1丁目14番3号","lat":35.63896,"lon":139.5779},{"name":"上和泉学童保育所","province":"東京都","city":"狛江市","address":"東京都狛江市和泉本町4丁目7番51号","lat":35.64509,"lon":139.56798},{"name":"第五小学校放課後クラブ","province":"東京都","city":"狛江市","address":"東京都狛江市東野川1丁目36番13号","lat":35.64458,"lon":139.58173},{"name":"藤塚保育園","province":"東京都","city":"狛江市","address":"東京都狛江市和泉本町4丁目7番35号","lat":35.64219,"lon":139.56986},{"name":"駒井保育園","province":"東京都","city":"狛江市","address":"東京都狛江市駒井町2丁目28番6号","lat":35.62443767,"lon":139.5875633},{"name":"駄倉保育園","province":"東京都","city":"狛江市","address":"東京都狛江市岩戸北3丁目20番2号","lat":35.63291,"lon":139.58162},{"name":"三島保育園","province":"東京都","city":"狛江市","address":"東京都狛江市東野川1丁目32番2号","lat":35.64188,"lon":139.58283},{"name":"岩戸児童センター","province":"東京都","city":"狛江市","address":"東京都狛江市岩戸南3丁目15番1号","lat":35.62917099,"lon":139.587911},{"name":"和泉児童館","province":"東京都","city":"狛江市","address":"東京都狛江市中和泉3丁目12番6号","lat":35.63685,"lon":139.57062},{"name":"こまっこ児童館","province":"東京都","city":"狛江市","address":"東京都狛江市和泉本町3丁目31番19号","lat":35.64204402,"lon":139.575466},{"name":"駄倉小学生クラブ","province":"東京都","city":"狛江市","address":"東京都狛江市東和泉1丁目3番17号","lat":35.63291,"lon":139.58058},{"name":"市民活動支援センター（こまえくぼ1234）","province":"東京都","city":"狛江市","address":"東京都狛江市和泉本町1丁目2番34号","lat":35.63432,"lon":139.58038},{"name":"野川地域センター","province":"東京都","city":"狛江市","address":"東京都狛江市西野川1丁目6番9号","lat":35.64612,"lon":139.57566},{"name":"上和泉地域センター","province":"東京都","city":"狛江市","address":"東京都狛江市和泉本町4丁目7番51号","lat":35.64511409,"lon":139.5678151},{"name":"岩戸地域センター","province":"東京都","city":"狛江市","address":"東京都狛江市岩戸南2丁目2丁目5号","lat":35.63214,"lon":139.58608},{"name":"南部地域センター","province":"東京都","city":"狛江市","address":"東京都狛江市猪方4丁目11番1号","lat":35.62337497,"lon":139.5798098},{"name":"和泉多摩川地区センター","province":"東京都","city":"狛江市","address":"東京都狛江市猪方4丁目1番1号","lat":35.62467,"lon":139.57405},{"name":"狛江市民ホール","province":"東京都","city":"狛江市","address":"東京都狛江市元和泉1丁目2番1号","lat":35.63309,"lon":139.5778},{"name":"狛江市選挙管理委員会","province":"東京都","city":"狛江市","address":"狛江市和泉本町1-1-5","lat":35.634901,"lon":139.578772},{"name":"狛江市保健センター（あいとぴあセンター）","province":"東京都","city":"狛江市","address":"狛江市元和泉2-35-1","lat":35.6333,"lon":139.567777},{"name":"狛江市","province":"東京都","city":"狛江市","address":"狛江市和泉本町1-1-5","lat":35.6349142,"lon":139.5787353},{"name":"株式会社沖田ダイイチ","province":"東京都","city":"狛江市","address":"東京都狛江市東和泉1丁目10-3","lat":35.63258862,"lon":139.58019263},{"name":"株式会社有山葬儀社","province":"東京都","city":"狛江市","address":"東京都狛江市岩戸北3丁目1-10","lat":35.63426333,"lon":139.58114792},{"name":"有限会社まこと式典東京支店","province":"東京都","city":"狛江市","address":"東京都狛江市東和泉1丁目12-6","lat":35.63261082,"lon":139.57945659},{"name":"いしかわ葬儀社","province":"東京都","city":"狛江市","address":"東京都狛江市東和泉3丁目5-8","lat":35.6268508,"lon":139.57448556},{"name":"狛江市保健センター（あいとぴあセンター）","province":"東京都","city":"狛江市","address":"東京都狛江市元和泉2丁目35-1","lat":35.6333052,"lon":139.56761624},{"name":"狛江市保健センター（あいとぴあセンター）","province":"東京都","city":"狛江市","address":"狛江市元和泉2-35-1","lat":35.6334,"lon":139.56741},{"name":"狛江市役所","province":"東京都","city":"狛江市","address":"東京都狛江市和泉本町1丁目1番5号","lat":35.63494013,"lon":139.5787757},{"name":"狛江市役所","province":"東京都","city":"狛江市","address":"東京都狛江市和泉本町1丁目1番5号","lat":35.63466216,"lon":139.5781963},{"name":"狛江市立狛江第一小学校","province":"東京都","city":"狛江市","address":"東京都狛江市和泉本町1丁目37番1号","lat":35.63733,"lon":139.57809},{"name":"狛江市立狛江第三小学校","province":"東京都","city":"狛江市","address":"東京都狛江市猪方1丁目11番1号","lat":35.62810934,"lon":139.585056},{"name":"狛江市立狛江第五小学校","province":"東京都","city":"狛江市","address":"東京都狛江市東野川1丁目35番13号","lat":35.64393576,"lon":139.5816416},{"name":"狛江市立狛江第六小学校","province":"東京都","city":"狛江市","address":"東京都狛江市駒井町1丁目21番1号","lat":35.62460954,"lon":139.5852024},{"name":"狛江市立和泉小学校","province":"東京都","city":"狛江市","address":"東京都狛江市中和泉3丁目33丁目1番","lat":35.63473697,"lon":139.5683215},{"name":"狛江市立緑野小学校","province":"東京都","city":"狛江市","address":"東京都狛江市和泉本町4丁目3番1号","lat":35.64171,"lon":139.57103},{"name":"狛江市立狛江第一中学校","province":"東京都","city":"狛江市","address":"東京都狛江市和泉本町2丁目15番1号","lat":35.64082622,"lon":139.5776589},{"name":"狛江市立狛江第二中学校","province":"東京都","city":"狛江市","address":"東京都狛江市猪方2丁目7番1号","lat":35.62727,"lon":139.58314},{"name":"狛江市立狛江第三中学校","province":"東京都","city":"狛江市","address":"東京都狛江市元和泉1丁目23番1号","lat":35.62995,"lon":139.57463},{"name":"狛江市立狛江第四中学校","province":"東京都","city":"狛江市","address":"東京都狛江市狛氏東野川4丁目1番1号","lat":35.64523,"lon":139.58167},{"name":"狛江市立狛江第一小学校体育館","province":"東京都","city":"狛江市","address":"東京都狛江市和泉本町1丁目37番1号","lat":35.63745,"lon":139.57815},{"name":"狛江市立狛江第三小学校体育館","province":"東京都","city":"狛江市","address":"東京都狛江市猪方1丁目11番1号","lat":35.62778,"lon":139.58448},{"name":"狛江市立狛江第五小学校体育館","province":"東京都","city":"狛江市","address":"東京都狛江市東野川1丁目35番13号","lat":35.64383,"lon":139.58096},{"name":"狛江市立狛江第六小学校体育館","province":"東京都","city":"狛江市","address":"東京都狛江市駒井町1丁目21丁目1号","lat":35.62478,"lon":139.5849},{"name":"狛江市立和泉小学校体育館","province":"東京都","city":"狛江市","address":"東京都狛江市中和泉3丁目33丁目1号","lat":35.63485,"lon":139.56861},{"name":"狛江市立緑野小学校体育館","province":"東京都","city":"狛江市","address":"東京都狛江市和泉本町4丁目3番1号","lat":35.64138,"lon":139.57017},{"name":"狛江市立狛江第一中学校体育館","province":"東京都","city":"狛江市","address":"東京都狛江市和泉本町2丁目15番1号","lat":35.6404518,"lon":139.5774335},{"name":"狛江市立狛江第二中学校体育館","province":"東京都","city":"狛江市","address":"東京都狛江市猪方2丁目7番1号","lat":35.62698,"lon":139.58317},{"name":"狛江市立狛江第三中学校体育館","province":"東京都","city":"狛江市","address":"東京都狛江市元和泉1丁目23番1号","lat":35.63017,"lon":139.57445},{"name":"狛江市立狛江第四中学校体育館","province":"東京都","city":"狛江市","address":"東京都狛江市東野川4丁目1番1号","lat":35.64543,"lon":139.58198},{"name":"中央公民館","province":"東京都","city":"狛江市","address":"東京都狛江市和泉本町1丁目1番5号","lat":35.63506,"lon":139.57815},{"name":"西河原公民館","province":"東京都","city":"狛江市","address":"東京都狛江市元和泉2丁目35番1号","lat":35.63338,"lon":139.56706},{"name":"狛江市民総合体育館","province":"東京都","city":"狛江市","address":"東京都狛江市和泉本町3丁目25番1号","lat":35.64236,"lon":139.57323},{"name":"狛江市民グランド","province":"東京都","city":"狛江市","address":"東京都狛江市和泉本町2丁目15番2号","lat":35.63988,"lon":139.57898},{"name":"西和泉体育館","province":"東京都","city":"狛江市","address":"東京都狛江市西和泉1丁目16番1号","lat":35.64027,"lon":139.56512},{"name":"元和泉市民テニスコート","province":"東京都","city":"狛江市","address":"東京都狛江市元和泉2丁目8番1号","lat":35.63018294,"lon":139.5716077},{"name":"東野川市民テニスコート","province":"東京都","city":"狛江市","address":"東京都狛江市東野川3丁目14番10号","lat":35.64707,"lon":139.58233},{"name":"古民家園","province":"東京都","city":"狛江市","address":"東京都狛江市元和泉2丁目15番5号","lat":35.63297,"lon":139.57095},{"name":"あいとぴあセンター","province":"東京都","city":"狛江市","address":"東京都狛江市元和泉2丁目35番1号","lat":35.63331,"lon":139.56778},{"name":"狛江市子育て・教育支援複合施設（ひだまりセンター）","province":"東京都","city":"狛江市","address":"東京都狛江市元和泉1丁目11番11号","lat":35.6314,"lon":139.57617},{"name":"駒井学童保育所・六小KoKoA","province":"東京都","city":"狛江市","address":"東京都狛江市駒井町1丁目21番6号","lat":35.62494,"lon":139.5853},{"name":"猪方学童保育所","province":"東京都","city":"狛江市","address":"東京都狛江市猪方1丁目11番2号","lat":35.62736,"lon":139.58567},{"name":"東野川学童保育所","province":"東京都","city":"狛江市","address":"東京都狛江市東野川1丁目6番3号","lat":35.64332,"lon":139.58086},{"name":"松原学童保育所","province":"東京都","city":"狛江市","address":"東京都狛江市和泉本町1丁目14番3号","lat":35.63896,"lon":139.5779},{"name":"上和泉学童保育所","province":"東京都","city":"狛江市","address":"東京都狛江市和泉本町4丁目7番51号","lat":35.64509,"lon":139.56798},{"name":"第五小学校放課後クラブ","province":"東京都","city":"狛江市","address":"東京都狛江市東野川1丁目36番13号","lat":35.64458,"lon":139.58173},{"name":"藤塚保育園","province":"東京都","city":"狛江市","address":"東京都狛江市和泉本町4丁目7番35号","lat":35.64219,"lon":139.56986},{"name":"駒井保育園","province":"東京都","city":"狛江市","address":"東京都狛江市駒井町2丁目28番6号","lat":35.62443767,"lon":139.5875633},{"name":"駄倉保育園","province":"東京都","city":"狛江市","address":"東京都狛江市岩戸北3丁目20番2号","lat":35.63291,"lon":139.58162},{"name":"三島保育園","province":"東京都","city":"狛江市","address":"東京都狛江市東野川1丁目32番2号","lat":35.64188,"lon":139.58283},{"name":"岩戸児童センター","province":"東京都","city":"狛江市","address":"東京都狛江市岩戸南3丁目15番1号","lat":35.62917099,"lon":139.587911},{"name":"和泉児童館","province":"東京都","city":"狛江市","address":"東京都狛江市中和泉3丁目12番6号","lat":35.63685,"lon":139.57062},{"name":"こまっこ児童館","province":"東京都","city":"狛江市","address":"東京都狛江市和泉本町3丁目31番19号","lat":35.64204402,"lon":139.575466},{"name":"駄倉小学生クラブ","province":"東京都","city":"狛江市","address":"東京都狛江市東和泉1丁目3番17号","lat":35.63291,"lon":139.58058},{"name":"市民活動支援センター（こまえくぼ1234）","province":"東京都","city":"狛江市","address":"東京都狛江市和泉本町1丁目2番34号","lat":35.63432,"lon":139.58038},{"name":"野川地域センター","province":"東京都","city":"狛江市","address":"東京都狛江市西野川1丁目6番9号","lat":35.64612,"lon":139.57566},{"name":"上和泉地域センター","province":"東京都","city":"狛江市","address":"東京都狛江市和泉本町4丁目7番51号","lat":35.64511409,"lon":139.5678151},{"name":"岩戸地域センター","province":"東京都","city":"狛江市","address":"東京都狛江市岩戸南2丁目2丁目5号","lat":35.63214,"lon":139.58608},{"name":"南部地域センター","province":"東京都","city":"狛江市","address":"東京都狛江市猪方4丁目11番1号","lat":35.62337497,"lon":139.5798098},{"name":"和泉多摩川地区センター","province":"東京都","city":"狛江市","address":"東京都狛江市猪方4丁目1番1号","lat":35.62467,"lon":139.57405},{"name":"狛江市民ホール","province":"東京都","city":"狛江市","address":"東京都狛江市元和泉1丁目2番1号","lat":35.63309,"lon":139.5778},{"name":"狛江市選挙管理委員会","province":"東京都","city":"狛江市","address":"狛江市和泉本町1-1-5","lat":35.634901,"lon":139.578772},{"name":"狛江市保健センター（あいとぴあセンター）","province":"東京都","city":"狛江市","address":"狛江市元和泉2-35-1","lat":35.6333,"lon":139.567777},{"name":"狛江市","province":"東京都","city":"狛江市","address":"狛江市和泉本町1-1-5","lat":35.6349142,"lon":139.5787353},{"name":"狛江市保健センター（あいとぴあセンター）","province":"東京都","city":"狛江市","address":"東京都狛江市元和泉2丁目35-1","lat":35.6333052,"lon":139.56761624},{"name":"狛江市保健センター（あいとぴあセンター）","province":"東京都","city":"狛江市","address":"狛江市元和泉2-35-1","lat":35.6334,"lon":139.56741},{"name":"狛江市役所","province":"東京都","city":"狛江市","address":"東京都狛江市和泉本町1丁目1番5号","lat":35.63494013,"lon":139.5787757},{"name":"狛江市役所","province":"東京都","city":"狛江市","address":"東京都狛江市和泉本町1丁目1番5号","lat":35.63466216,"lon":139.5781963},{"name":"狛江市立狛江第一小学校","province":"東京都","city":"狛江市","address":"東京都狛江市和泉本町1丁目37番1号","lat":35.63733,"lon":139.57809},{"name":"狛江市立狛江第三小学校","province":"東京都","city":"狛江市","address":"東京都狛江市猪方1丁目11番1号","lat":35.62810934,"lon":139.585056},{"name":"狛江市立狛江第五小学校","province":"東京都","city":"狛江市","address":"東京都狛江市東野川1丁目35番13号","lat":35.64393576,"lon":139.5816416},{"name":"狛江市立狛江第六小学校","province":"東京都","city":"狛江市","address":"東京都狛江市駒井町1丁目21番1号","lat":35.62460954,"lon":139.5852024},{"name":"狛江市立和泉小学校","province":"東京都","city":"狛江市","address":"東京都狛江市中和泉3丁目33丁目1番","lat":35.63473697,"lon":139.5683215},{"name":"狛江市立緑野小学校","province":"東京都","city":"狛江市","address":"東京都狛江市和泉本町4丁目3番1号","lat":35.64171,"lon":139.57103},{"name":"狛江市立狛江第一中学校","province":"東京都","city":"狛江市","address":"東京都狛江市和泉本町2丁目15番1号","lat":35.64082622,"lon":139.5776589},{"name":"狛江市立狛江第二中学校","province":"東京都","city":"狛江市","address":"東京都狛江市猪方2丁目7番1号","lat":35.62727,"lon":139.58314},{"name":"狛江市立狛江第三中学校","province":"東京都","city":"狛江市","address":"東京都狛江市元和泉1丁目23番1号","lat":35.62995,"lon":139.57463},{"name":"狛江市立狛江第四中学校","province":"東京都","city":"狛江市","address":"東京都狛江市狛氏東野川4丁目1番1号","lat":35.64523,"lon":139.58167},{"name":"狛江市立狛江第一小学校体育館","province":"東京都","city":"狛江市","address":"東京都狛江市和泉本町1丁目37番1号","lat":35.63745,"lon":139.57815},{"name":"狛江市立狛江第三小学校体育館","province":"東京都","city":"狛江市","address":"東京都狛江市猪方1丁目11番1号","lat":35.62778,"lon":139.58448},{"name":"狛江市立狛江第五小学校体育館","province":"東京都","city":"狛江市","address":"東京都狛江市東野川1丁目35番13号","lat":35.64383,"lon":139.58096},{"name":"狛江市立狛江第六小学校体育館","province":"東京都","city":"狛江市","address":"東京都狛江市駒井町1丁目21丁目1号","lat":35.62478,"lon":139.5849},{"name":"狛江市立和泉小学校体育館","province":"東京都","city":"狛江市","address":"東京都狛江市中和泉3丁目33丁目1号","lat":35.63485,"lon":139.56861},{"name":"狛江市立緑野小学校体育館","province":"東京都","city":"狛江市","address":"東京都狛江市和泉本町4丁目3番1号","lat":35.64138,"lon":139.57017},{"name":"狛江市立狛江第一中学校体育館","province":"東京都","city":"狛江市","address":"東京都狛江市和泉本町2丁目15番1号","lat":35.6404518,"lon":139.5774335},{"name":"狛江市立狛江第二中学校体育館","province":"東京都","city":"狛江市","address":"東京都狛江市猪方2丁目7番1号","lat":35.62698,"lon":139.58317},{"name":"狛江市立狛江第三中学校体育館","province":"東京都","city":"狛江市","address":"東京都狛江市元和泉1丁目23番1号","lat":35.63017,"lon":139.57445},{"name":"狛江市立狛江第四中学校体育館","province":"東京都","city":"狛江市","address":"東京都狛江市東野川4丁目1番1号","lat":35.64543,"lon":139.58198},{"name":"中央公民館","province":"東京都","city":"狛江市","address":"東京都狛江市和泉本町1丁目1番5号","lat":35.63506,"lon":139.57815},{"name":"西河原公民館","province":"東京都","city":"狛江市","address":"東京都狛江市元和泉2丁目35番1号","lat":35.63338,"lon":139.56706},{"name":"狛江市民総合体育館","province":"東京都","city":"狛江市","address":"東京都狛江市和泉本町3丁目25番1号","lat":35.64236,"lon":139.57323},{"name":"狛江市民グランド","province":"東京都","city":"狛江市","address":"東京都狛江市和泉本町2丁目15番2号","lat":35.63988,"lon":139.57898},{"name":"西和泉体育館","province":"東京都","city":"狛江市","address":"東京都狛江市西和泉1丁目16番1号","lat":35.64027,"lon":139.56512},{"name":"元和泉市民テニスコート","province":"東京都","city":"狛江市","address":"東京都狛江市元和泉2丁目8番1号","lat":35.63018294,"lon":139.5716077},{"name":"東野川市民テニスコート","province":"東京都","city":"狛江市","address":"東京都狛江市東野川3丁目14番10号","lat":35.64707,"lon":139.58233},{"name":"古民家園","province":"東京都","city":"狛江市","address":"東京都狛江市元和泉2丁目15番5号","lat":35.63297,"lon":139.57095},{"name":"あいとぴあセンター","province":"東京都","city":"狛江市","address":"東京都狛江市元和泉2丁目35番1号","lat":35.63331,"lon":139.56778},{"name":"狛江市子育て・教育支援複合施設（ひだまりセンター）","province":"東京都","city":"狛江市","address":"東京都狛江市元和泉1丁目11番11号","lat":35.6314,"lon":139.57617},{"name":"駒井学童保育所・六小KoKoA","province":"東京都","city":"狛江市","address":"東京都狛江市駒井町1丁目21番6号","lat":35.62494,"lon":139.5853},{"name":"猪方学童保育所","province":"東京都","city":"狛江市","address":"東京都狛江市猪方1丁目11番2号","lat":35.62736,"lon":139.58567},{"name":"東野川学童保育所","province":"東京都","city":"狛江市","address":"東京都狛江市東野川1丁目6番3号","lat":35.64332,"lon":139.58086},{"name":"松原学童保育所","province":"東京都","city":"狛江市","address":"東京都狛江市和泉本町1丁目14番3号","lat":35.63896,"lon":139.5779},{"name":"上和泉学童保育所","province":"東京都","city":"狛江市","address":"東京都狛江市和泉本町4丁目7番51号","lat":35.64509,"lon":139.56798},{"name":"第五小学校放課後クラブ","province":"東京都","city":"狛江市","address":"東京都狛江市東野川1丁目36番13号","lat":35.64458,"lon":139.58173},{"name":"藤塚保育園","province":"東京都","city":"狛江市","address":"東京都狛江市和泉本町4丁目7番35号","lat":35.64219,"lon":139.56986},{"name":"駒井保育園","province":"東京都","city":"狛江市","address":"東京都狛江市駒井町2丁目28番6号","lat":35.62443767,"lon":139.5875633},{"name":"駄倉保育園","province":"東京都","city":"狛江市","address":"東京都狛江市岩戸北3丁目20番2号","lat":35.63291,"lon":139.58162},{"name":"三島保育園","province":"東京都","city":"狛江市","address":"東京都狛江市東野川1丁目32番2号","lat":35.64188,"lon":139.58283},{"name":"岩戸児童センター","province":"東京都","city":"狛江市","address":"東京都狛江市岩戸南3丁目15番1号","lat":35.62917099,"lon":139.587911},{"name":"和泉児童館","province":"東京都","city":"狛江市","address":"東京都狛江市中和泉3丁目12番6号","lat":35.63685,"lon":139.57062},{"name":"こまっこ児童館","province":"東京都","city":"狛江市","address":"東京都狛江市和泉本町3丁目31番19号","lat":35.64204402,"lon":139.575466},{"name":"駄倉小学生クラブ","province":"東京都","city":"狛江市","address":"東京都狛江市東和泉1丁目3番17号","lat":35.63291,"lon":139.58058},{"name":"市民活動支援センター（こまえくぼ1234）","province":"東京都","city":"狛江市","address":"東京都狛江市和泉本町1丁目2番34号","lat":35.63432,"lon":139.58038},{"name":"野川地域センター","province":"東京都","city":"狛江市","address":"東京都狛江市西野川1丁目6番9号","lat":35.64612,"lon":139.57566},{"name":"上和泉地域センター","province":"東京都","city":"狛江市","address":"東京都狛江市和泉本町4丁目7番51号","lat":35.64511409,"lon":139.5678151},{"name":"岩戸地域センター","province":"東京都","city":"狛江市","address":"東京都狛江市岩戸南2丁目2丁目5号","lat":35.63214,"lon":139.58608},{"name":"南部地域センター","province":"東京都","city":"狛江市","address":"東京都狛江市猪方4丁目11番1号","lat":35.62337497,"lon":139.5798098},{"name":"和泉多摩川地区センター","province":"東京都","city":"狛江市","address":"東京都狛江市猪方4丁目1番1号","lat":35.62467,"lon":139.57405},{"name":"狛江市民ホール","province":"東京都","city":"狛江市","address":"東京都狛江市元和泉1丁目2番1号","lat":35.63309,"lon":139.5778},{"name":"狛江市選挙管理委員会","province":"東京都","city":"狛江市","address":"狛江市和泉本町1-1-5","lat":35.634901,"lon":139.578772},{"name":"狛江市保健センター（あいとぴあセンター）","province":"東京都","city":"狛江市","address":"狛江市元和泉2-35-1","lat":35.6333,"lon":139.567777},{"name":"狛江市保健センター（あいとぴあセンター）","province":"東京都","city":"狛江市","address":"東京都狛江市元和泉2丁目35-1","lat":35.6333052,"lon":139.56761624},{"name":"狛江市保健センター（あいとぴあセンター）","province":"東京都","city":"狛江市","address":"狛江市元和泉2-35-1","lat":35.6334,"lon":139.56741},{"name":"狛江市選挙管理委員会","province":"東京都","city":"狛江市","address":"狛江市和泉本町1-1-5","lat":35.634901,"lon":139.578772},{"name":"狛江市保健センター（あいとぴあセンター）","province":"東京都","city":"狛江市","address":"狛江市元和泉2-35-1","lat":35.6333,"lon":139.567777},{"name":"狛江市保健センター（あいとぴあセンター）","province":"東京都","city":"狛江市","address":"東京都狛江市元和泉2丁目35-1","lat":35.6333052,"lon":139.56761624},{"name":"狛江市保健センター（あいとぴあセンター）","province":"東京都","city":"狛江市","address":"狛江市元和泉2-35-1","lat":35.6334,"lon":139.56741},{"name":"狛江市選挙管理委員会","province":"東京都","city":"狛江市","address":"狛江市和泉本町1-1-5","lat":35.634901,"lon":139.578772},{"name":"狛江市保健センター（あいとぴあセンター）","province":"東京都","city":"狛江市","address":"狛江市元和泉2-35-1","lat":35.6333,"lon":139.567777},{"name":"狛江市保健センター（あいとぴあセンター）","province":"東京都","city":"狛江市","address":"東京都狛江市元和泉2丁目35-1","lat":35.6333052,"lon":139.56761624},{"name":"狛江市保健センター（あいとぴあセンター）","province":"東京都","city":"狛江市","address":"狛江市元和泉2-35-1","lat":35.6334,"lon":139.56741},{"name":"狛江市選挙管理委員会","province":"東京都","city":"狛江市","address":"狛江市和泉本町1-1-5","lat":35.634901,"lon":139.578772},{"name":"狛江市保健センター（あいとぴあセンター）","province":"東京都","city":"狛江市","address":"狛江市元和泉2-35-1","lat":35.6333,"lon":139.567777},{"name":"狛江市保健センター（あいとぴあセンター）","province":"東京都","city":"狛江市","address":"東京都狛江市元和泉2丁目35-1","lat":35.6333052,"lon":139.56761624},{"name":"狛江市保健センター（あいとぴあセンター）","province":"東京都","city":"狛江市","address":"狛江市元和泉2-35-1","lat":35.6334,"lon":139.56741},{"name":"狛江市選挙管理委員会","province":"東京都","city":"狛江市","address":"狛江市和泉本町1-1-5","lat":35.634901,"lon":139.578772},{"name":"狛江市保健センター（あいとぴあセンター）","province":"東京都","city":"狛江市","address":"狛江市元和泉2-35-1","lat":35.6333,"lon":139.567777},{"name":"狛江市保健センター（あいとぴあセンター）","province":"東京都","city":"狛江市","address":"東京都狛江市元和泉2丁目35-1","lat":35.6333052,"lon":139.56761624},{"name":"狛江市保健センター（あいとぴあセンター）","province":"東京都","city":"狛江市","address":"狛江市元和泉2-35-1","lat":35.6334,"lon":139.56741},{"name":"狛江市選挙管理委員会","province":"東京都","city":"狛江市","address":"狛江市和泉本町1-1-5","lat":35.634901,"lon":139.578772},{"name":"狛江市保健センター（あいとぴあセンター）","province":"東京都","city":"狛江市","address":"狛江市元和泉2-35-1","lat":35.6333,"lon":139.567777},{"name":"狛江市保健センター（あいとぴあセンター）","province":"東京都","city":"狛江市","address":"東京都狛江市元和泉2丁目35-1","lat":35.6333052,"lon":139.56761624},{"name":"狛江市保健センター（あいとぴあセンター）","province":"東京都","city":"狛江市","address":"狛江市元和泉2-35-1","lat":35.6334,"lon":139.56741},{"name":"狛江市選挙管理委員会","province":"東京都","city":"狛江市","address":"狛江市和泉本町1-1-5","lat":35.634901,"lon":139.578772},{"name":"狛江市保健センター（あいとぴあセンター）","province":"東京都","city":"狛江市","address":"狛江市元和泉2-35-1","lat":35.6333,"lon":139.567777},{"name":"狛江市保健センター（あいとぴあセンター）","province":"東京都","city":"狛江市","address":"東京都狛江市元和泉2丁目35-1","lat":35.6333052,"lon":139.56761624},{"name":"狛江市保健センター（あいとぴあセンター）","province":"東京都","city":"狛江市","address":"狛江市元和泉2-35-1","lat":35.6334,"lon":139.56741},{"name":"狛江市選挙管理委員会","province":"東京都","city":"狛江市","address":"狛江市和泉本町1-1-5","lat":35.634901,"lon":139.578772},{"name":"狛江市保健センター（あいとぴあセンター）","province":"東京都","city":"狛江市","address":"狛江市元和泉2-35-1","lat":35.6333,"lon":139.567777},{"name":"狛江市保健センター（あいとぴあセンター）","province":"東京都","city":"狛江市","address":"東京都狛江市元和泉2丁目35-1","lat":35.6333052,"lon":139.56761624},{"name":"狛江市保健センター（あいとぴあセンター）","province":"東京都","city":"狛江市","address":"狛江市元和泉2-35-1","lat":35.6334,"lon":139.56741},{"name":"狛江市選挙管理委員会","province":"東京都","city":"狛江市","address":"狛江市和泉本町1-1-5","lat":35.634901,"lon":139.578772},{"name":"狛江市保健センター（あいとぴあセンター）","province":"東京都","city":"狛江市","address":"狛江市元和泉2-35-1","lat":35.6333,"lon":139.567777},{"name":"狛江市保健センター（あいとぴあセンター）","province":"東京都","city":"狛江市","address":"東京都狛江市元和泉2丁目35-1","lat":35.6333052,"lon":139.56761624},{"name":"狛江市保健センター（あいとぴあセンター）","province":"東京都","city":"狛江市","address":"狛江市元和泉2-35-1","lat":35.6334,"lon":139.56741},{"name":"狛江市選挙管理委員会","province":"東京都","city":"狛江市","address":"狛江市和泉本町1-1-5","lat":35.634901,"lon":139.578772},{"name":"狛江市保健センター（あいとぴあセンター）","province":"東京都","city":"狛江市","address":"狛江市元和泉2-35-1","lat":35.6333,"lon":139.567777},{"name":"狛江市保健センター（あいとぴあセンター）","province":"東京都","city":"狛江市","address":"東京都狛江市元和泉2丁目35-1","lat":35.6333052,"lon":139.56761624},{"name":"狛江市保健センター（あいとぴあセンター）","province":"東京都","city":"狛江市","address":"狛江市元和泉2-35-1","lat":35.6334,"lon":139.56741},{"name":"狛江市選挙管理委員会","province":"東京都","city":"狛江市","address":"狛江市和泉本町1-1-5","lat":35.634901,"lon":139.578772},{"name":"狛江市保健センター（あいとぴあセンター）","province":"東京都","city":"狛江市","address":"狛江市元和泉2-35-1","lat":35.6333,"lon":139.567777},{"name":"狛江市保健センター（あいとぴあセンター）","province":"東京都","city":"狛江市","address":"東京都狛江市元和泉2丁目35-1","lat":35.6333052,"lon":139.56761624},{"name":"狛江市保健センター（あいとぴあセンター）","province":"東京都","city":"狛江市","address":"狛江市元和泉2-35-1","lat":35.6334,"lon":139.56741},{"name":"狛江市選挙管理委員会","province":"東京都","city":"狛江市","address":"狛江市和泉本町1-1-5","lat":35.634901,"lon":139.578772},{"name":"狛江市保健センター（あいとぴあセンター）","province":"東京都","city":"狛江市","address":"狛江市元和泉2-35-1","lat":35.6333,"lon":139.567777},{"name":"狛江市保健センター（あいとぴあセンター）","province":"東京都","city":"狛江市","address":"東京都狛江市元和泉2丁目35-1","lat":35.6333052,"lon":139.56761624},{"name":"狛江市保健センター（あいとぴあセンター）","province":"東京都","city":"狛江市","address":"狛江市元和泉2-35-1","lat":35.6334,"lon":139.56741},{"name":"狛江市選挙管理委員会","province":"東京都","city":"狛江市","address":"狛江市和泉本町1-1-5","lat":35.634901,"lon":139.578772},{"name":"狛江市保健センター（あいとぴあセンター）","province":"東京都","city":"狛江市","address":"狛江市元和泉2-35-1","lat":35.6333,"lon":139.567777},{"name":"狛江市保健センター（あいとぴあセンター）","province":"東京都","city":"狛江市","address":"東京都狛江市元和泉2丁目35-1","lat":35.6333052,"lon":139.56761624},{"name":"狛江市保健センター（あいとぴあセンター）","province":"東京都","city":"狛江市","address":"狛江市元和泉2-35-1","lat":35.6334,"lon":139.56741},{"name":"狛江市選挙管理委員会","province":"東京都","city":"狛江市","address":"狛江市和泉本町1-1-5","lat":35.634901,"lon":139.578772},{"name":"狛江市保健センター（あいとぴあセンター）","province":"東京都","city":"狛江市","address":"狛江市元和泉2-35-1","lat":35.6333,"lon":139.567777},{"name":"狛江市保健センター（あいとぴあセンター）","province":"東京都","city":"狛江市","address":"東京都狛江市元和泉2丁目35-1","lat":35.6333052,"lon":139.56761624},{"name":"狛江市保健センター（あいとぴあセンター）","province":"東京都","city":"狛江市","address":"狛江市元和泉2-35-1","lat":35.6334,"lon":139.56741},{"name":"狛江市選挙管理委員会","province":"東京都","city":"狛江市","address":"狛江市和泉本町1-1-5","lat":35.634901,"lon":139.578772},{"name":"狛江市保健センター（あいとぴあセンター）","province":"東京都","city":"狛江市","address":"狛江市元和泉2-35-1","lat":35.6333,"lon":139.567777},{"name":"狛江市保健センター（あいとぴあセンター）","province":"東京都","city":"狛江市","address":"東京都狛江市元和泉2丁目35-1","lat":35.6333052,"lon":139.56761624},{"name":"狛江市保健センター（あいとぴあセンター）","province":"東京都","city":"狛江市","address":"狛江市元和泉2-35-1","lat":35.6334,"lon":139.56741},{"name":"狛江市選挙管理委員会","province":"東京都","city":"狛江市","address":"狛江市和泉本町1-1-5","lat":35.634901,"lon":139.578772},{"name":"狛江市保健センター（あいとぴあセンター）","province":"東京都","city":"狛江市","address":"狛江市元和泉2-35-1","lat":35.6333,"lon":139.567777},{"name":"狛江市保健センター（あいとぴあセンター）","province":"東京都","city":"狛江市","address":"東京都狛江市元和泉2丁目35-1","lat":35.6333052,"lon":139.56761624},{"name":"狛江市保健センター（あいとぴあセンター）","province":"東京都","city":"狛江市","address":"狛江市元和泉2-35-1","lat":35.6334,"lon":139.56741},{"name":"狛江市選挙管理委員会","province":"東京都","city":"狛江市","address":"狛江市和泉本町1-1-5","lat":35.634901,"lon":139.578772},{"name":"狛江市保健センター（あいとぴあセンター）","province":"東京都","city":"狛江市","address":"狛江市元和泉2-35-1","lat":35.6333,"lon":139.567777},{"name":"狛江市保健センター（あいとぴあセンター）","province":"東京都","city":"狛江市","address":"東京都狛江市元和泉2丁目35-1","lat":35.6333052,"lon":139.56761624},{"name":"狛江市保健センター（あいとぴあセンター）","province":"東京都","city":"狛江市","address":"狛江市元和泉2-35-1","lat":35.6334,"lon":139.56741},{"name":"狛江市選挙管理委員会","province":"東京都","city":"狛江市","address":"狛江市和泉本町1-1-5","lat":35.634901,"lon":139.578772},{"name":"狛江市保健センター（あいとぴあセンター）","province":"東京都","city":"狛江市","address":"狛江市元和泉2-35-1","lat":35.6333,"lon":139.567777},{"name":"狛江市保健センター（あいとぴあセンター）","province":"東京都","city":"狛江市","address":"東京都狛江市元和泉2丁目35-1","lat":35.6333052,"lon":139.56761624},{"name":"狛江市保健センター（あいとぴあセンター）","province":"東京都","city":"狛江市","address":"狛江市元和泉2-35-1","lat":35.6334,"lon":139.56741},{"name":"狛江市選挙管理委員会","province":"東京都","city":"狛江市","address":"狛江市和泉本町1-1-5","lat":35.634901,"lon":139.578772},{"name":"狛江市保健センター（あいとぴあセンター）","province":"東京都","city":"狛江市","address":"狛江市元和泉2-35-1","lat":35.6333,"lon":139.567777},{"name":"狛江市保健センター（あいとぴあセンター）","province":"東京都","city":"狛江市","address":"東京都狛江市元和泉2丁目35-1","lat":35.6333052,"lon":139.56761624},{"name":"狛江市保健センター（あいとぴあセンター）","province":"東京都","city":"狛江市","address":"狛江市元和泉2-35-1","lat":35.6334,"lon":139.56741},{"name":"狛江市選挙管理委員会","province":"東京都","city":"狛江市","address":"狛江市和泉本町1-1-5","lat":35.634901,"lon":139.578772},{"name":"狛江市保健センター（あいとぴあセンター）","province":"東京都","city":"狛江市","address":"狛江市元和泉2-35-1","lat":35.6333,"lon":139.567777},{"name":"狛江市保健センター（あいとぴあセンター）","province":"東京都","city":"狛江市","address":"東京都狛江市元和泉2丁目35-1","lat":35.6333052,"lon":139.56761624},{"name":"狛江市保健センター（あいとぴあセンター）","province":"東京都","city":"狛江市","address":"狛江市元和泉2-35-1","lat":35.6334,"lon":139.56741},{"name":"狛江市選挙管理委員会","province":"東京都","city":"狛江市","address":"狛江市和泉本町1-1-5","lat":35.634901,"lon":139.578772},{"name":"狛江市保健センター（あいとぴあセンター）","province":"東京都","city":"狛江市","address":"狛江市元和泉2-35-1","lat":35.6333,"lon":139.567777},{"name":"狛江市保健センター（あいとぴあセンター）","province":"東京都","city":"狛江市","address":"東京都狛江市元和泉2丁目35-1","lat":35.6333052,"lon":139.56761624},{"name":"狛江市保健センター（あいとぴあセンター）","province":"東京都","city":"狛江市","address":"狛江市元和泉2-35-1","lat":35.6334,"lon":139.56741},{"name":"狛江市選挙管理委員会","province":"東京都","city":"狛江市","address":"狛江市和泉本町1-1-5","lat":35.634901,"lon":139.578772},{"name":"狛江市保健センター（あいとぴあセンター）","province":"東京都","city":"狛江市","address":"狛江市元和泉2-35-1","lat":35.6333,"lon":139.567777},{"name":"狛江市保健センター（あいとぴあセンター）","province":"東京都","city":"狛江市","address":"東京都狛江市元和泉2丁目35-1","lat":35.6333052,"lon":139.56761624},{"name":"狛江市保健センター（あいとぴあセンター）","province":"東京都","city":"狛江市","address":"狛江市元和泉2-35-1","lat":35.6334,"lon":139.56741},{"name":"狛江市選挙管理委員会","province":"東京都","city":"狛江市","address":"狛江市和泉本町1-1-5","lat":35.634901,"lon":139.578772},{"name":"狛江市保健センター（あいとぴあセンター）","province":"東京都","city":"狛江市","address":"狛江市元和泉2-35-1","lat":35.6333,"lon":139.567777},{"name":"狛江市保健センター（あいとぴあセンター）","province":"東京都","city":"狛江市","address":"東京都狛江市元和泉2丁目35-1","lat":35.6333052,"lon":139.56761624},{"name":"狛江市保健センター（あいとぴあセンター）","province":"東京都","city":"狛江市","address":"狛江市元和泉2-35-1","lat":35.6334,"lon":139.56741},{"name":"狛江市選挙管理委員会","province":"東京都","city":"狛江市","address":"狛江市和泉本町1-1-5","lat":35.634901,"lon":139.578772},{"name":"狛江市保健センター（あいとぴあセンター）","province":"東京都","city":"狛江市","address":"狛江市元和泉2-35-1","lat":35.6333,"lon":139.567777},{"name":"狛江市保健センター（あいとぴあセンター）","province":"東京都","city":"狛江市","address":"東京都狛江市元和泉2丁目35-1","lat":35.6333052,"lon":139.56761624},{"name":"狛江市保健センター（あいとぴあセンター）","province":"東京都","city":"狛江市","address":"狛江市元和泉2-35-1","lat":35.6334,"lon":139.56741},{"name":"狛江市選挙管理委員会","province":"東京都","city":"狛江市","address":"狛江市和泉本町1-1-5","lat":35.634901,"lon":139.578772},{"name":"狛江市保健センター（あいとぴあセンター）","province":"東京都","city":"狛江市","address":"狛江市元和泉2-35-1","lat":35.6333,"lon":139.567777},{"name":"狛江市保健センター（あいとぴあセンター）","province":"東京都","city":"狛江市","address":"東京都狛江市元和泉2丁目35-1","lat":35.6333052,"lon":139.56761624},{"name":"狛江市保健センター（あいとぴあセンター）","province":"東京都","city":"狛江市","address":"狛江市元和泉2-35-1","lat":35.6334,"lon":139.56741},{"name":"狛江市選挙管理委員会","province":"東京都","city":"狛江市","address":"狛江市和泉本町1-1-5","lat":35.634901,"lon":139.578772},{"name":"狛江市保健センター（あいとぴあセンター）","province":"東京都","city":"狛江市","address":"狛江市元和泉2-35-1","lat":35.6333,"lon":139.567777},{"name":"狛江市保健センター（あいとぴあセンター）","province":"東京都","city":"狛江市","address":"東京都狛江市元和泉2丁目35-1","lat":35.6333052,"lon":139.56761624},{"name":"狛江市保健センター（あいとぴあセンター）","province":"東京都","city":"狛江市","address":"狛江市元和泉2-35-1","lat":35.6334,"lon":139.56741},{"name":"狛江市選挙管理委員会","province":"東京都","city":"狛江市","address":"狛江市和泉本町1-1-5","lat":35.634901,"lon":139.578772},{"name":"狛江市保健センター（あいとぴあセンター）","province":"東京都","city":"狛江市","address":"狛江市元和泉2-35-1","lat":35.6333,"lon":139.567777},{"name":"狛江市保健センター（あいとぴあセンター）","province":"東京都","city":"狛江市","address":"東京都狛江市元和泉2丁目35-1","lat":35.6333052,"lon":139.56761624},{"name":"狛江市保健センター（あいとぴあセンター）","province":"東京都","city":"狛江市","address":"狛江市元和泉2-35-1","lat":35.6334,"lon":139.56741},{"name":"狛江市選挙管理委員会","province":"東京都","city":"狛江市","address":"狛江市和泉本町1-1-5","lat":35.634901,"lon":139.578772},{"name":"狛江市保健センター（あいとぴあセンター）","province":"東京都","city":"狛江市","address":"狛江市元和泉2-35-1","lat":35.6333,"lon":139.567777},{"name":"狛江市保健センター（あいとぴあセンター）","province":"東京都","city":"狛江市","address":"東京都狛江市元和泉2丁目35-1","lat":35.6333052,"lon":139.56761624},{"name":"狛江市保健センター（あいとぴあセンター）","province":"東京都","city":"狛江市","address":"狛江市元和泉2-35-1","lat":35.6334,"lon":139.56741},{"name":"狛江市選挙管理委員会","province":"東京都","city":"狛江市","address":"狛江市和泉本町1-1-5","lat":35.634901,"lon":139.578772},{"name":"狛江市保健センター（あいとぴあセンター）","province":"東京都","city":"狛江市","address":"狛江市元和泉2-35-1","lat":35.6333,"lon":139.567777},{"name":"狛江市保健センター（あいとぴあセンター）","province":"東京都","city":"狛江市","address":"東京都狛江市元和泉2丁目35-1","lat":35.6333052,"lon":139.56761624},{"name":"狛江市保健センター（あいとぴあセンター）","province":"東京都","city":"狛江市","address":"狛江市元和泉2-35-1","lat":35.6334,"lon":139.56741},{"name":"狛江市選挙管理委員会","province":"東京都","city":"狛江市","address":"狛江市和泉本町1-1-5","lat":35.634901,"lon":139.578772},{"name":"狛江市保健センター（あいとぴあセンター）","province":"東京都","city":"狛江市","address":"狛江市元和泉2-35-1","lat":35.6333,"lon":139.567777},{"name":"狛江市保健センター（あいとぴあセンター）","province":"東京都","city":"狛江市","address":"東京都狛江市元和泉2丁目35-1","lat":35.6333052,"lon":139.56761624},{"name":"狛江市保健センター（あいとぴあセンター）","province":"東京都","city":"狛江市","address":"狛江市元和泉2-35-1","lat":35.6334,"lon":139.56741},{"name":"狛江市選挙管理委員会","province":"東京都","city":"狛江市","address":"狛江市和泉本町1-1-5","lat":35.634901,"lon":139.578772},{"name":"狛江市保健センター（あいとぴあセンター）","province":"東京都","city":"狛江市","address":"狛江市元和泉2-35-1","lat":35.6333,"lon":139.567777},{"name":"狛江市保健センター（あいとぴあセンター）","province":"東京都","city":"狛江市","address":"東京都狛江市元和泉2丁目35-1","lat":35.6333052,"lon":139.56761624},{"name":"狛江市保健センター（あいとぴあセンター）","province":"東京都","city":"狛江市","address":"狛江市元和泉2-35-1","lat":35.6334,"lon":139.56741},{"name":"狛江市選挙管理委員会","province":"東京都","city":"狛江市","address":"狛江市和泉本町1-1-5","lat":35.634901,"lon":139.578772},{"name":"狛江市保健センター（あいとぴあセンター）","province":"東京都","city":"狛江市","address":"狛江市元和泉2-35-1","lat":35.6333,"lon":139.567777},{"name":"狛江市保健センター（あいとぴあセンター）","province":"東京都","city":"狛江市","address":"東京都狛江市元和泉2丁目35-1","lat":35.6333052,"lon":139.56761624},{"name":"狛江市保健センター（あいとぴあセンター）","province":"東京都","city":"狛江市","address":"狛江市元和泉2-35-1","lat":35.6334,"lon":139.56741},{"name":"狛江市選挙管理委員会","province":"東京都","city":"狛江市","address":"狛江市和泉本町1-1-5","lat":35.634901,"lon":139.578772},{"name":"狛江市保健センター（あいとぴあセンター）","province":"東京都","city":"狛江市","address":"狛江市元和泉2-35-1","lat":35.6333,"lon":139.567777},{"name":"狛江市保健センター（あいとぴあセンター）","province":"東京都","city":"狛江市","address":"東京都狛江市元和泉2丁目35-1","lat":35.6333052,"lon":139.56761624},{"name":"狛江市保健センター（あいとぴあセンター）","province":"東京都","city":"狛江市","address":"狛江市元和泉2-35-1","lat":35.6334,"lon":139.56741},{"name":"狛江市選挙管理委員会","province":"東京都","city":"狛江市","address":"狛江市和泉本町1-1-5","lat":35.634901,"lon":139.578772},{"name":"狛江市保健センター（あいとぴあセンター）","province":"東京都","city":"狛江市","address":"狛江市元和泉2-35-1","lat":35.6333,"lon":139.567777},{"name":"狛江市保健センター（あいとぴあセンター）","province":"東京都","city":"狛江市","address":"東京都狛江市元和泉2丁目35-1","lat":35.6333052,"lon":139.56761624},{"name":"狛江市保健センター（あいとぴあセンター）","province":"東京都","city":"狛江市","address":"狛江市元和泉2-35-1","lat":35.6334,"lon":139.56741},{"name":"狛江市選挙管理委員会","province":"東京都","city":"狛江市","address":"狛江市和泉本町1-1-5","lat":35.634901,"lon":139.578772},{"name":"狛江市保健センター（あいとぴあセンター）","province":"東京都","city":"狛江市","address":"狛江市元和泉2-35-1","lat":35.6333,"lon":139.567777},{"name":"狛江市保健センター（あいとぴあセンター）","province":"東京都","city":"狛江市","address":"東京都狛江市元和泉2丁目35-1","lat":35.6333052,"lon":139.56761624},{"name":"狛江市保健センター（あいとぴあセンター）","province":"東京都","city":"狛江市","address":"狛江市元和泉2-35-1","lat":35.6334,"lon":139.56741},{"name":"狛江市選挙管理委員会","province":"東京都","city":"狛江市","address":"狛江市和泉本町1-1-5","lat":35.634901,"lon":139.578772},{"name":"狛江市保健センター（あいとぴあセンター）","province":"東京都","city":"狛江市","address":"狛江市元和泉2-35-1","lat":35.6333,"lon":139.567777},{"name":"狛江市保健センター（あいとぴあセンター）","province":"東京都","city":"狛江市","address":"東京都狛江市元和泉2丁目35-1","lat":35.6333052,"lon":139.56761624},{"name":"狛江市保健センター（あいとぴあセンター）","province":"東京都","city":"狛江市","address":"狛江市元和泉2-35-1","lat":35.6334,"lon":139.56741},{"name":"狛江市選挙管理委員会","province":"東京都","city":"狛江市","address":"狛江市和泉本町1-1-5","lat":35.634901,"lon":139.578772},{"name":"狛江市保健センター（あいとぴあセンター）","province":"東京都","city":"狛江市","address":"狛江市元和泉2-35-1","lat":35.6333,"lon":139.567777},{"name":"狛江市保健センター（あいとぴあセンター）","province":"東京都","city":"狛江市","address":"東京都狛江市元和泉2丁目35-1","lat":35.6333052,"lon":139.56761624},{"name":"狛江市保健センター（あいとぴあセンター）","province":"東京都","city":"狛江市","address":"狛江市元和泉2-35-1","lat":35.6334,"lon":139.56741},{"name":"狛江市選挙管理委員会","province":"東京都","city":"狛江市","address":"狛江市和泉本町1-1-5","lat":35.634901,"lon":139.578772},{"name":"狛江市保健センター（あいとぴあセンター）","province":"東京都","city":"狛江市","address":"狛江市元和泉2-35-1","lat":35.6333,"lon":139.567777},{"name":"狛江市保健センター（あいとぴあセンター）","province":"東京都","city":"狛江市","address":"東京都狛江市元和泉2丁目35-1","lat":35.6333052,"lon":139.56761624},{"name":"狛江市保健センター（あいとぴあセンター）","province":"東京都","city":"狛江市","address":"狛江市元和泉2-35-1","lat":35.6334,"lon":139.56741},{"name":"狛江市選挙管理委員会","province":"東京都","city":"狛江市","address":"狛江市和泉本町1-1-5","lat":35.634901,"lon":139.578772},{"name":"狛江市保健センター（あいとぴあセンター）","province":"東京都","city":"狛江市","address":"狛江市元和泉2-35-1","lat":35.6333,"lon":139.567777},{"name":"狛江市保健センター（あいとぴあセンター）","province":"東京都","city":"狛江市","address":"東京都狛江市元和泉2丁目35-1","lat":35.6333052,"lon":139.56761624},{"name":"狛江市保健センター（あいとぴあセンター）","province":"東京都","city":"狛江市","address":"狛江市元和泉2-35-1","lat":35.6334,"lon":139.56741},{"name":"狛江市選挙管理委員会","province":"東京都","city":"狛江市","address":"狛江市和泉本町1-1-5","lat":35.634901,"lon":139.578772},{"name":"狛江市保健センター（あいとぴあセンター）","province":"東京都","city":"狛江市","address":"狛江市元和泉2-35-1","lat":35.6333,"lon":139.567777},{"name":"狛江市保健センター（あいとぴあセンター）","province":"東京都","city":"狛江市","address":"東京都狛江市元和泉2丁目35-1","lat":35.6333052,"lon":139.56761624},{"name":"狛江市保健センター（あいとぴあセンター）","province":"東京都","city":"狛江市","address":"狛江市元和泉2-35-1","lat":35.6334,"lon":139.56741},{"name":"狛江市選挙管理委員会","province":"東京都","city":"狛江市","address":"狛江市和泉本町1-1-5","lat":35.634901,"lon":139.578772},{"name":"狛江市保健センター（あいとぴあセンター）","province":"東京都","city":"狛江市","address":"狛江市元和泉2-35-1","lat":35.6333,"lon":139.567777},{"name":"狛江市保健センター（あいとぴあセンター）","province":"東京都","city":"狛江市","address":"東京都狛江市元和泉2丁目35-1","lat":35.6333052,"lon":139.56761624},{"name":"狛江市保健センター（あいとぴあセンター）","province":"東京都","city":"狛江市","address":"狛江市元和泉2-35-1","lat":35.6334,"lon":139.56741},{"name":"狛江市選挙管理委員会","province":"東京都","city":"狛江市","address":"狛江市和泉本町1-1-5","lat":35.634901,"lon":139.578772},{"name":"狛江市保健センター（あいとぴあセンター）","province":"東京都","city":"狛江市","address":"狛江市元和泉2-35-1","lat":35.6333,"lon":139.567777},{"name":"狛江市保健センター（あいとぴあセンター）","province":"東京都","city":"狛江市","address":"東京都狛江市元和泉2丁目35-1","lat":35.6333052,"lon":139.56761624},{"name":"狛江市保健センター（あいとぴあセンター）","province":"東京都","city":"狛江市","address":"狛江市元和泉2-35-1","lat":35.6334,"lon":139.56741},{"name":"狛江市選挙管理委員会","province":"東京都","city":"狛江市","address":"狛江市和泉本町1-1-5","lat":35.634901,"lon":139.578772},{"name":"狛江市保健センター（あいとぴあセンター）","province":"東京都","city":"狛江市","address":"狛江市元和泉2-35-1","lat":35.6333,"lon":139.567777},{"name":"狛江市保健センター（あいとぴあセンター）","province":"東京都","city":"狛江市","address":"東京都狛江市元和泉2丁目35-1","lat":35.6333052,"lon":139.56761624},{"name":"狛江市保健センター（あいとぴあセンター）","province":"東京都","city":"狛江市","address":"狛江市元和泉2-35-1","lat":35.6334,"lon":139.56741},{"name":"狛江市選挙管理委員会","province":"東京都","city":"狛江市","address":"狛江市和泉本町1-1-5","lat":35.634901,"lon":139.578772},{"name":"狛江市保健センター（あいとぴあセンター）","province":"東京都","city":"狛江市","address":"狛江市元和泉2-35-1","lat":35.6333,"lon":139.567777},{"name":"狛江市保健センター（あいとぴあセンター）","province":"東京都","city":"狛江市","address":"東京都狛江市元和泉2丁目35-1","lat":35.6333052,"lon":139.56761624},{"name":"狛江市保健センター（あいとぴあセンター）","province":"東京都","city":"狛江市","address":"狛江市元和泉2-35-1","lat":35.6334,"lon":139.56741},{"name":"狛江市保健センター（あいとぴあセンター）","province":"東京都","city":"狛江市","address":"狛江市元和泉2-35-1","lat":35.6333,"lon":139.567777},{"name":"狛江市保健センター（あいとぴあセンター）","province":"東京都","city":"狛江市","address":"東京都狛江市元和泉2丁目35-1","lat":35.6333052,"lon":139.56761624},{"name":"狛江市保健センター（あいとぴあセンター）","province":"東京都","city":"狛江市","address":"狛江市元和泉2-35-1","lat":35.6334,"lon":139.56741},{"name":"狛江市保健センター（あいとぴあセンター）","province":"東京都","city":"狛江市","address":"狛江市元和泉2-35-1","lat":35.6333,"lon":139.567777},{"name":"狛江市保健センター（あいとぴあセンター）","province":"東京都","city":"狛江市","address":"東京都狛江市元和泉2丁目35-1","lat":35.6333052,"lon":139.56761624},{"name":"狛江市保健センター（あいとぴあセンター）","province":"東京都","city":"狛江市","address":"狛江市元和泉2-35-1","lat":35.6334,"lon":139.56741},{"name":"狛江市保健センター（あいとぴあセンター）","province":"東京都","city":"狛江市","address":"狛江市元和泉2-35-1","lat":35.6333,"lon":139.567777},{"name":"狛江市保健センター（あいとぴあセンター）","province":"東京都","city":"狛江市","address":"東京都狛江市元和泉2丁目35-1","lat":35.6333052,"lon":139.56761624},{"name":"狛江市保健センター（あいとぴあセンター）","province":"東京都","city":"狛江市","address":"狛江市元和泉2-35-1","lat":35.6334,"lon":139.56741}]}