{"keyword":"保健","data":[{"name":"パイオニアキッズ西野川園","province":"東京都","city":"狛江市","address":"狛江市西野川2-4-15","lat":35.644009,"lon":139.575034},{"name":"狛江保育園","province":"東京都","city":"狛江市","address":"狛江市西野川4-12-1","lat":35.647061,"lon":139.572648},{"name":"三島保育園","province":"東京都","city":"狛江市","address":"狛江市東野川1-32-2","lat":35.64189,"lon":139.582914},{"name":"東野川保育園みんなの家","province":"東京都","city":"狛江市","address":"狛江市東野川4-9-7","lat":35.644812,"lon":139.583536},{"name":"藤塚保育園","province":"東京都","city":"狛江市","address":"狛江市和泉本町4-7-35","lat":35.642112,"lon":139.56984},{"name":"狛江子どもの家","province":"東京都","city":"狛江市","address":"狛江市和泉本町1-36-4","lat":35.636205,"lon":139.577915},{"name":"いずみ保育園","province":"東京都","city":"狛江市","address":"狛江市岩戸北1-1-12","lat":35.635774,"lon":139.579845},{"name":"アスク岩戸北保育園","province":"東京都","city":"狛江市","address":"狛江市岩戸北3-3-23","lat":35.634341,"lon":139.582651},{"name":"駄倉保育園","province":"東京都","city":"狛江市","address":"狛江市岩戸北3-20-2","lat":35.632894,"lon":139.58164},{"name":"ベネッセ狛江南保育園","province":"東京都","city":"狛江市","address":"狛江市岩戸北3-23-8","lat":35.63228,"lon":139.582851},{"name":"多摩川保育園","province":"東京都","city":"狛江市","address":"狛江市西和泉1-5-1","lat":35.640415,"lon":139.563477},{"name":"グローバルキッズ狛江園","province":"東京都","city":"狛江市","address":"狛江市中和泉3-19-14","lat":35.63551,"lon":139.567263},{"name":"めぐみの森保育園","province":"東京都","city":"狛江市","address":"狛江市中和泉3-12-6","lat":35.636863,"lon":139.570504},{"name":"狛江ちとせ保育園","province":"東京都","city":"狛江市","address":"狛江市東和泉1-35-10","lat":35.629517,"lon":139.575646},{"name":"虹のひかり保育園","province":"東京都","city":"狛江市","address":"狛江市東和泉1-32-18","lat":35.630397,"lon":139.576365},{"name":"ぎんきょう保育園","province":"東京都","city":"狛江市","address":"狛江市東和泉1-34-25","lat":35.629603,"lon":139.576971},{"name":"駒井保育園","province":"東京都","city":"狛江市","address":"狛江市駒井町2-28-6","lat":35.62441,"lon":139.587573},{"name":"駒井町みんなの家","province":"東京都","city":"狛江市","address":"狛江市駒井町3-36-1","lat":35.623085,"lon":139.589087},{"name":"狛江市保健センター（あいとぴあセンター）","province":"東京都","city":"狛江市","address":"狛江市元和泉2-35-1","lat":35.6333,"lon":139.567777},{"name":"西河原公民館","province":"東京都","city":"狛江市","address":"東京都狛江市元和泉2丁目35-1","lat":35.633456,"lon":139.566834},{"name":"狛江市庁舎","province":"東京都","city":"狛江市","address":"東京都狛江市和泉本町1丁目1-5","lat":35.634746,"lon":139.578776},{"name":"狛江市庁舎","province":"東京都","city":"狛江市","address":"東京都狛江市和泉本町1丁目1-5","lat":35.635005,"lon":139.578615},{"name":"狛江市庁舎","province":"東京都","city":"狛江市","address":"東京都狛江市和泉本町1丁目1-5","lat":35.63463,"lon":139.578749},{"name":"狛江市庁舎","province":"東京都","city":"狛江市","address":"東京都狛江市和泉本町1丁目1-5","lat":35.634875,"lon":139.578742},{"name":"狛江市防災センター","province":"東京都","city":"狛江市","address":"東京都狛江市和泉本町1丁目1-5","lat":35.634718,"lon":139.578234},{"name":"狛江市ビン・缶リサイクルセンター","province":"東京都","city":"狛江市","address":"東京都狛江市岩戸北1丁目1-11","lat":35.635704,"lon":139.580209},{"name":"中央公民館","province":"東京都","city":"狛江市","address":"東京都狛江市和泉本町1丁目1-5","lat":35.635147,"lon":139.578153},{"name":"西河原公民館","province":"東京都","city":"狛江市","address":"東京都狛江市元和泉2丁目35-1","lat":35.633421,"lon":139.567061},{"name":"エコルマホール","province":"東京都","city":"狛江市","address":"東京都狛江市元和泉1丁目2-1","lat":35.633073,"lon":139.577864},{"name":"西河原公民館","province":"東京都","city":"狛江市","address":"東京都狛江市元和泉2丁目35-1","lat":35.633435,"lon":139.566789},{"name":"西河原公民館","province":"東京都","city":"狛江市","address":"東京都狛江市元和泉2丁目35-1","lat":35.633457,"lon":139.566824},{"name":"野川地域センター","province":"東京都","city":"狛江市","address":"東京都狛江市西野川1丁目6-9","lat":35.646111,"lon":139.575493},{"name":"岩戸地域センター","province":"東京都","city":"狛江市","address":"東京都狛江市岩戸南2丁目2-5","lat":35.632129,"lon":139.586087},{"name":"上和泉地域センター","province":"東京都","city":"狛江市","address":"東京都狛江市和泉本町4丁目7-51","lat":35.645162,"lon":139.567931},{"name":"上和泉地域センター","province":"東京都","city":"狛江市","address":"東京都狛江市和泉本町4丁目7-51","lat":35.64517,"lon":139.5679},{"name":"南部地域センター","province":"東京都","city":"狛江市","address":"東京都狛江市猪方4丁目11","lat":35.623387,"lon":139.579702},{"name":"根川地区センター","province":"東京都","city":"狛江市","address":"東京都狛江市中和泉4丁目16-3","lat":35.63557,"lon":139.564173},{"name":"駄倉地区センター","province":"東京都","city":"狛江市","address":"東京都狛江市東和泉1丁目3-17","lat":35.632904,"lon":139.580609},{"name":"和泉多摩川地区センター","province":"東京都","city":"狛江市","address":"東京都狛江市猪方4丁目1-1","lat":35.624687,"lon":139.574068},{"name":"和泉多摩川地区センター","province":"東京都","city":"狛江市","address":"東京都狛江市猪方4丁目1-1","lat":35.624667,"lon":139.574026},{"name":"谷戸橋地区センター","province":"東京都","city":"狛江市","address":"東京都狛江市東野川4丁目30-1","lat":35.645767,"lon":139.58667},{"name":"狛江市あいとぴあセンター","province":"東京都","city":"狛江市","address":"東京都狛江市元和泉2丁目35-1","lat":35.633385,"lon":139.56751},{"name":"狛江市あいとぴあセンター","province":"東京都","city":"狛江市","address":"東京都狛江市元和泉2丁目35-1","lat":35.633354,"lon":139.567721},{"name":"狛江市あいとぴあセンター","province":"東京都","city":"狛江市","address":"東京都狛江市元和泉2丁目35-1","lat":35.633367,"lon":139.567563},{"name":"狛江市あいとぴあセンター","province":"東京都","city":"狛江市","address":"東京都狛江市元和泉2丁目35-1","lat":35.633372,"lon":139.567507},{"name":"狛江市あいとぴあセンター","province":"東京都","city":"狛江市","address":"東京都狛江市元和泉2丁目35-1","lat":35.633317,"lon":139.567902},{"name":"エコルマホール","province":"東京都","city":"狛江市","address":"東京都狛江市元和泉1丁目2-1","lat":35.633033,"lon":139.577859},{"name":"前原公園","province":"東京都","city":"狛江市","address":"東京都狛江市西野川3丁目11","lat":35.644532,"lon":139.57014},{"name":"西河原自然公園","province":"東京都","city":"狛江市","address":"東京都狛江市元和泉2丁目34","lat":35.63313,"lon":139.570309},{"name":"西河原公園","province":"東京都","city":"狛江市","address":"東京都狛江市元和泉2丁目38","lat":35.632747,"lon":139.567627},{"name":"狛江市立和泉児童館","province":"東京都","city":"狛江市","address":"東京都狛江市中和泉3丁目12-6","lat":35.636909,"lon":139.570529},{"name":"狛江市立駒井学童保育所","province":"東京都","city":"狛江市","address":"東京都狛江市駒井町1丁目21-6","lat":35.62494,"lon":139.585234},{"name":"元和泉市民テニスコート","province":"東京都","city":"狛江市","address":"東京都狛江市元和泉2丁目8","lat":35.630171,"lon":139.571586},{"name":"市民グランド","province":"東京都","city":"狛江市","address":"東京都狛江市和泉本町2丁目15-2","lat":35.640449,"lon":139.579285},{"name":"市民総合体育館","province":"東京都","city":"狛江市","address":"東京都狛江市和泉本町3丁目25-1","lat":35.64217,"lon":139.573177},{"name":"市民総合体育館","province":"東京都","city":"狛江市","address":"東京都狛江市和泉本町3丁目25-1","lat":35.64217,"lon":139.573178},{"name":"市民総合体育館","province":"東京都","city":"狛江市","address":"東京都狛江市和泉本町3丁目25-1","lat":35.64217,"lon":139.573174},{"name":"狛江市子育て・教育支援複合施設","province":"東京都","city":"狛江市","address":"東京都狛江市元和泉1丁目11-11","lat":35.631381,"lon":139.57609},{"name":"寺前小学生クラブ","province":"東京都","city":"狛江市","address":"東京都狛江市元和泉1丁目23-3","lat":35.630207,"lon":139.575552},{"name":"狛江市保健センター（あいとぴあセンター）","province":"東京都","city":"狛江市","address":"東京都狛江市元和泉2丁目35-1","lat":35.6333052,"lon":139.56761624},{"name":"パイオニアキッズ西野川園","province":"東京都","city":"狛江市","address":"狛江市西野川2-4-15","lat":35.6440155,"lon":139.5749907},{"name":"狛江保育園","province":"東京都","city":"狛江市","address":"狛江市西野川4-12-1","lat":35.64687,"lon":139.57288},{"name":"三島保育園","province":"東京都","city":"狛江市","address":"狛江市東野川1-32-2","lat":35.64243,"lon":139.5831},{"name":"東野川保育園みんなの家","province":"東京都","city":"狛江市","address":"狛江市東野川4丁目9番7号","lat":35.6446,"lon":139.58388},{"name":"狛江子どもの家","province":"東京都","city":"狛江市","address":"狛江市和泉本町1-36-4","lat":35.6362,"lon":139.57793},{"name":"藤塚保育園","province":"東京都","city":"狛江市","address":"狛江市和泉本町4-7-35","lat":35.64428,"lon":139.56754},{"name":"いずみ保育園","province":"東京都","city":"狛江市","address":"狛江市岩戸北1-1-12","lat":35.63538,"lon":139.57996},{"name":"駄倉保育園","province":"東京都","city":"狛江市","address":"狛江市岩戸北3-20-2","lat":35.6328,"lon":139.58191},{"name":"ベネッセ狛江南保育園","province":"東京都","city":"狛江市","address":"狛江市岩戸北3-23-8","lat":35.63226,"lon":139.58269},{"name":"アスク岩戸北保育園","province":"東京都","city":"狛江市","address":"狛江市岩戸北3-3-23","lat":35.63461,"lon":139.58246},{"name":"木下の保育園　岩戸北","province":"東京都","city":"狛江市","address":"狛江市岩戸北3丁目1番19号","lat":35.6347,"lon":139.58116},{"name":"多摩川保育園","province":"東京都","city":"狛江市","address":"狛江市西和泉1-5-1","lat":35.64032,"lon":139.56439},{"name":"めぐみの森保育園","province":"東京都","city":"狛江市","address":"狛江市中和泉3-12-6","lat":35.63688,"lon":139.57047},{"name":"グローバルキッズ狛江園","province":"東京都","city":"狛江市","address":"狛江市中和泉3-19-14","lat":35.63549,"lon":139.5676},{"name":"いずみの森保育園","province":"東京都","city":"狛江市","address":"狛江市元和泉1-10-10","lat":35.63189,"lon":139.57593},{"name":"木下の保育園　元和泉","province":"東京都","city":"狛江市","address":"狛江市元和泉1丁目19番4号","lat":35.63077,"lon":139.5744},{"name":"虹のひかり保育園","province":"東京都","city":"狛江市","address":"狛江市東和泉1-32-18","lat":35.63037,"lon":139.5768},{"name":"ぎんきょう保育園","province":"東京都","city":"狛江市","address":"狛江市東和泉1-34-25","lat":35.62965,"lon":139.57663},{"name":"狛江ちとせ保育園","province":"東京都","city":"狛江市","address":"狛江市東和泉1-35-10","lat":35.6295,"lon":139.57567},{"name":"駒井保育園","province":"東京都","city":"狛江市","address":"狛江市駒井町2-28-6","lat":35.62431,"lon":139.58742},{"name":"駒井町みんなの家","province":"東京都","city":"狛江市","address":"狛江市駒井町3丁目36番1号","lat":35.62307,"lon":139.58911},{"name":"狛江市保健センター（あいとぴあセンター）","province":"東京都","city":"狛江市","address":"狛江市元和泉2-35-1","lat":35.6334,"lon":139.56741},{"name":"地域生活支援センターリヒト","province":"東京都","city":"狛江市","address":"東京都狛江市元和泉2丁目35-1","lat":35.6333052,"lon":139.56761624},{"name":"社会福祉法人足立邦栄会ポンテ","province":"東京都","city":"狛江市","address":"東京都狛江市元和泉2丁目35-1","lat":35.6333052,"lon":139.56761624},{"name":"社会福祉法人光友会ひかり作業所","province":"東京都","city":"狛江市","address":"東京都狛江市岩戸南3丁目11-9","lat":35.63010038,"lon":139.59175843},{"name":"一般社団法人GGサポート多機能事業所パザパ","province":"東京都","city":"狛江市","address":"東京都狛江市和泉本町1丁目9-4","lat":35.63684337,"lon":139.57960891},{"name":"虹のひかり保育園","province":"東京都","city":"狛江市","address":"狛江市東和泉1-32-18","lat":35.63038,"lon":139.5768},{"name":"和泉本町浄水所","province":"東京都","city":"狛江市","address":"東京都狛江市和泉本町4丁目6-1","lat":35.64293402,"lon":139.57119546},{"name":"狛江市立多摩川緑地公園グラウンド","province":"東京都","city":"狛江市","address":"東京都狛江市猪方4丁目","lat":35.62390138,"lon":139.57723281},{"name":"防衛省共済組合狛江スポーツセンター","province":"東京都","city":"狛江市","address":"東京都狛江市元和泉2丁目30","lat":35.63228871,"lon":139.5684829},{"name":"狛江市選挙管理委員会","province":"東京都","city":"狛江市","address":"狛江市和泉本町1-1-5","lat":35.634901,"lon":139.578772},{"name":"泉龍寺弁財天池","province":"東京都","city":"狛江市","address":"東京都狛江市元和泉1-8","lat":35.632292,"lon":139.576168},{"name":"伊豆美神社鳥居","province":"東京都","city":"狛江市","address":"東京都狛江市中伊豆美3-21-8","lat":35.634736,"lon":139.569012},{"name":"木造石谷貞清坐像","province":"東京都","city":"狛江市","address":"東京都狛江市元和泉1-6-1","lat":35.63314,"lon":139.576404},{"name":"石川丈山撰文「宗淳居士晩詞并序」の扁額","province":"東京都","city":"狛江市","address":"東京都狛江市元和泉1-6-1","lat":35.63314,"lon":139.576404},{"name":"玉泉寺のボダイジュ","province":"東京都","city":"狛江市","address":"東京都狛江市東和泉3-10-23","lat":35.626988,"lon":139.573948},{"name":"慶長十五年（1610）の雲版","province":"東京都","city":"狛江市","address":"東京都狛江市元和泉1-6-1","lat":35.63314,"lon":139.576404},{"name":"絹本著色石谷貞清画像","province":"東京都","city":"狛江市","address":"東京都狛江市元和泉1-6-1","lat":35.63314,"lon":139.576404},{"name":"石井家文書　附　荒井家・大久保家・谷田部家旧蔵文書","province":"東京都","city":"狛江市","address":"東京都狛江市和泉本町1-1-5","lat":35.634967,"lon":139.578738},{"name":"栗山家文書","province":"東京都","city":"狛江市","address":"東京都狛江市和泉本町1-1-5","lat":35.634967,"lon":139.578738},{"name":"土屋塚古墳","province":"東京都","city":"狛江市","address":"東京都狛江市岩戸南1-4","lat":35.63229,"lon":139.585148},{"name":"旧荒井家住宅主屋","province":"東京都","city":"狛江市","address":"東京都狛江市元和泉2-15-5","lat":35.632911,"lon":139.571155},{"name":"土屋塚古墳出土遺物","province":"東京都","city":"狛江市","address":"東京都狛江市和泉本町1-1-5","lat":35.634967,"lon":139.578738},{"name":"弁財天池遺跡１号方形周溝墓出土遺物","province":"東京都","city":"狛江市","address":"東京都狛江市和泉本町1-1-5","lat":35.634967,"lon":139.578738},{"name":"旧?木家長屋門　附　棟札１枚","province":"東京都","city":"狛江市","address":"東京都狛江市元和泉2-15-5","lat":35.632911,"lon":139.571155},{"name":"泉龍寺本堂、開山堂、鐘楼門、山門　附　棟札３枚","province":"東京都","city":"狛江市","address":"東京都狛江市元和泉1-6-1","lat":35.633101,"lon":139.575696},{"name":"猪方小川塚古墳","province":"東京都","city":"狛江市","address":"東京都狛江市猪方3-21","lat":35.625593,"lon":139.577011},{"name":"猪方小川塚古墳出土遺物","province":"東京都","city":"狛江市","address":"東京都狛江市和泉本町1-1-5","lat":35.634967,"lon":139.578738},{"name":"井伊直弼公敬慕碑","province":"東京都","city":"狛江市","address":"東京都狛江市中伊豆美3-21-8","lat":35.634736,"lon":139.569012},{"name":"狛江市あいとぴあセンター","province":"東京都","city":"狛江市","address":"東京都狛江市元和泉2丁目35-1","lat":35.6333052,"lon":139.56761624},{"name":"狛江高等学校","province":"東京都","city":"狛江市","address":"東京都狛江市元和泉3丁目9-1","lat":35.62743131,"lon":139.57056099},{"name":"狛江市民総合体育館","province":"東京都","city":"狛江市","address":"東京都狛江市和泉本町3丁目25-1","lat":35.64199804,"lon":139.57305642},{"name":"狛江市本庁舎","province":"東京都","city":"狛江市","address":"狛江市和泉本町1-1-5","lat":35.634914,"lon":139.578735},{"name":"※狛江市役所","province":"東京都","city":"狛江市","address":"東京都狛江市和泉本町1丁目1-5","lat":35.63491314,"lon":139.57873418},{"name":"パイオニアキッズ西野川園","province":"東京都","city":"狛江市","address":"狛江市西野川2-4-15","lat":35.644009,"lon":139.575034},{"name":"狛江保育園","province":"東京都","city":"狛江市","address":"狛江市西野川4-12-1","lat":35.647061,"lon":139.572648},{"name":"三島保育園","province":"東京都","city":"狛江市","address":"狛江市東野川1-32-2","lat":35.64189,"lon":139.582914},{"name":"東野川保育園みんなの家","province":"東京都","city":"狛江市","address":"狛江市東野川4-9-7","lat":35.644812,"lon":139.583536},{"name":"藤塚保育園","province":"東京都","city":"狛江市","address":"狛江市和泉本町4-7-35","lat":35.642112,"lon":139.56984},{"name":"狛江子どもの家","province":"東京都","city":"狛江市","address":"狛江市和泉本町1-36-4","lat":35.636205,"lon":139.577915},{"name":"いずみ保育園","province":"東京都","city":"狛江市","address":"狛江市岩戸北1-1-12","lat":35.635774,"lon":139.579845},{"name":"アスク岩戸北保育園","province":"東京都","city":"狛江市","address":"狛江市岩戸北3-3-23","lat":35.634341,"lon":139.582651},{"name":"駄倉保育園","province":"東京都","city":"狛江市","address":"狛江市岩戸北3-20-2","lat":35.632894,"lon":139.58164},{"name":"ベネッセ狛江南保育園","province":"東京都","city":"狛江市","address":"狛江市岩戸北3-23-8","lat":35.63228,"lon":139.582851},{"name":"多摩川保育園","province":"東京都","city":"狛江市","address":"狛江市西和泉1-5-1","lat":35.640415,"lon":139.563477},{"name":"グローバルキッズ狛江園","province":"東京都","city":"狛江市","address":"狛江市中和泉3-19-14","lat":35.63551,"lon":139.567263},{"name":"めぐみの森保育園","province":"東京都","city":"狛江市","address":"狛江市中和泉3-12-6","lat":35.636863,"lon":139.570504},{"name":"狛江ちとせ保育園","province":"東京都","city":"狛江市","address":"狛江市東和泉1-35-10","lat":35.629517,"lon":139.575646},{"name":"虹のひかり保育園","province":"東京都","city":"狛江市","address":"狛江市東和泉1-32-18","lat":35.630397,"lon":139.576365},{"name":"ぎんきょう保育園","province":"東京都","city":"狛江市","address":"狛江市東和泉1-34-25","lat":35.629603,"lon":139.576971},{"name":"駒井保育園","province":"東京都","city":"狛江市","address":"狛江市駒井町2-28-6","lat":35.62441,"lon":139.587573},{"name":"駒井町みんなの家","province":"東京都","city":"狛江市","address":"狛江市駒井町3-36-1","lat":35.623085,"lon":139.589087},{"name":"パイオニアキッズ西野川園","province":"東京都","city":"狛江市","address":"狛江市西野川2-4-15","lat":35.6440155,"lon":139.5749907},{"name":"狛江保育園","province":"東京都","city":"狛江市","address":"狛江市西野川4-12-1","lat":35.64687,"lon":139.57288},{"name":"三島保育園","province":"東京都","city":"狛江市","address":"狛江市東野川1-32-2","lat":35.64243,"lon":139.5831},{"name":"東野川保育園みんなの家","province":"東京都","city":"狛江市","address":"狛江市東野川4丁目9番7号","lat":35.6446,"lon":139.58388},{"name":"狛江子どもの家","province":"東京都","city":"狛江市","address":"狛江市和泉本町1-36-4","lat":35.6362,"lon":139.57793},{"name":"藤塚保育園","province":"東京都","city":"狛江市","address":"狛江市和泉本町4-7-35","lat":35.64428,"lon":139.56754},{"name":"いずみ保育園","province":"東京都","city":"狛江市","address":"狛江市岩戸北1-1-12","lat":35.63538,"lon":139.57996},{"name":"駄倉保育園","province":"東京都","city":"狛江市","address":"狛江市岩戸北3-20-2","lat":35.6328,"lon":139.58191},{"name":"ベネッセ狛江南保育園","province":"東京都","city":"狛江市","address":"狛江市岩戸北3-23-8","lat":35.63226,"lon":139.58269},{"name":"アスク岩戸北保育園","province":"東京都","city":"狛江市","address":"狛江市岩戸北3-3-23","lat":35.63461,"lon":139.58246},{"name":"木下の保育園　岩戸北","province":"東京都","city":"狛江市","address":"狛江市岩戸北3丁目1番19号","lat":35.6347,"lon":139.58116},{"name":"多摩川保育園","province":"東京都","city":"狛江市","address":"狛江市西和泉1-5-1","lat":35.64032,"lon":139.56439},{"name":"めぐみの森保育園","province":"東京都","city":"狛江市","address":"狛江市中和泉3-12-6","lat":35.63688,"lon":139.57047},{"name":"グローバルキッズ狛江園","province":"東京都","city":"狛江市","address":"狛江市中和泉3-19-14","lat":35.63549,"lon":139.5676},{"name":"いずみの森保育園","province":"東京都","city":"狛江市","address":"狛江市元和泉1-10-10","lat":35.63189,"lon":139.57593},{"name":"木下の保育園　元和泉","province":"東京都","city":"狛江市","address":"狛江市元和泉1丁目19番4号","lat":35.63077,"lon":139.5744},{"name":"虹のひかり保育園","province":"東京都","city":"狛江市","address":"狛江市東和泉1-32-18","lat":35.63037,"lon":139.5768},{"name":"ぎんきょう保育園","province":"東京都","city":"狛江市","address":"狛江市東和泉1-34-25","lat":35.62965,"lon":139.57663},{"name":"狛江ちとせ保育園","province":"東京都","city":"狛江市","address":"狛江市東和泉1-35-10","lat":35.6295,"lon":139.57567},{"name":"駒井保育園","province":"東京都","city":"狛江市","address":"狛江市駒井町2-28-6","lat":35.62431,"lon":139.58742},{"name":"駒井町みんなの家","province":"東京都","city":"狛江市","address":"狛江市駒井町3丁目36番1号","lat":35.62307,"lon":139.58911},{"name":"地域生活支援センターリヒト","province":"東京都","city":"狛江市","address":"東京都狛江市元和泉2丁目35-1","lat":35.6333052,"lon":139.56761624},{"name":"社会福祉法人足立邦栄会ポンテ","province":"東京都","city":"狛江市","address":"東京都狛江市元和泉2丁目35-1","lat":35.6333052,"lon":139.56761624},{"name":"社会福祉法人光友会ひかり作業所","province":"東京都","city":"狛江市","address":"東京都狛江市岩戸南3丁目11-9","lat":35.63010038,"lon":139.59175843},{"name":"一般社団法人GGサポート多機能事業所パザパ","province":"東京都","city":"狛江市","address":"東京都狛江市和泉本町1丁目9-4","lat":35.63684337,"lon":139.57960891},{"name":"虹のひかり保育園","province":"東京都","city":"狛江市","address":"狛江市東和泉1-32-18","lat":35.63038,"lon":139.5768},{"name":"和泉本町浄水所","province":"東京都","city":"狛江市","address":"東京都狛江市和泉本町4丁目6-1","lat":35.64293402,"lon":139.57119546},{"name":"狛江市立多摩川緑地公園グラウンド","province":"東京都","city":"狛江市","address":"東京都狛江市猪方4丁目","lat":35.62390138,"lon":139.57723281},{"name":"防衛省共済組合狛江スポーツセンター","province":"東京都","city":"狛江市","address":"東京都狛江市元和泉2丁目30","lat":35.63228871,"lon":139.5684829},{"name":"狛江市選挙管理委員会","province":"東京都","city":"狛江市","address":"狛江市和泉本町1-1-5","lat":35.634901,"lon":139.578772},{"name":"泉龍寺弁財天池","province":"東京都","city":"狛江市","address":"東京都狛江市元和泉1-8","lat":35.632292,"lon":139.576168},{"name":"伊豆美神社鳥居","province":"東京都","city":"狛江市","address":"東京都狛江市中伊豆美3-21-8","lat":35.634736,"lon":139.569012},{"name":"木造石谷貞清坐像","province":"東京都","city":"狛江市","address":"東京都狛江市元和泉1-6-1","lat":35.63314,"lon":139.576404},{"name":"石川丈山撰文「宗淳居士晩詞并序」の扁額","province":"東京都","city":"狛江市","address":"東京都狛江市元和泉1-6-1","lat":35.63314,"lon":139.576404},{"name":"玉泉寺のボダイジュ","province":"東京都","city":"狛江市","address":"東京都狛江市東和泉3-10-23","lat":35.626988,"lon":139.573948},{"name":"慶長十五年（1610）の雲版","province":"東京都","city":"狛江市","address":"東京都狛江市元和泉1-6-1","lat":35.63314,"lon":139.576404},{"name":"絹本著色石谷貞清画像","province":"東京都","city":"狛江市","address":"東京都狛江市元和泉1-6-1","lat":35.63314,"lon":139.576404},{"name":"石井家文書　附　荒井家・大久保家・谷田部家旧蔵文書","province":"東京都","city":"狛江市","address":"東京都狛江市和泉本町1-1-5","lat":35.634967,"lon":139.578738},{"name":"栗山家文書","province":"東京都","city":"狛江市","address":"東京都狛江市和泉本町1-1-5","lat":35.634967,"lon":139.578738},{"name":"土屋塚古墳","province":"東京都","city":"狛江市","address":"東京都狛江市岩戸南1-4","lat":35.63229,"lon":139.585148},{"name":"旧荒井家住宅主屋","province":"東京都","city":"狛江市","address":"東京都狛江市元和泉2-15-5","lat":35.632911,"lon":139.571155},{"name":"土屋塚古墳出土遺物","province":"東京都","city":"狛江市","address":"東京都狛江市和泉本町1-1-5","lat":35.634967,"lon":139.578738},{"name":"弁財天池遺跡１号方形周溝墓出土遺物","province":"東京都","city":"狛江市","address":"東京都狛江市和泉本町1-1-5","lat":35.634967,"lon":139.578738},{"name":"旧?木家長屋門　附　棟札１枚","province":"東京都","city":"狛江市","address":"東京都狛江市元和泉2-15-5","lat":35.632911,"lon":139.571155},{"name":"泉龍寺本堂、開山堂、鐘楼門、山門　附　棟札３枚","province":"東京都","city":"狛江市","address":"東京都狛江市元和泉1-6-1","lat":35.633101,"lon":139.575696},{"name":"猪方小川塚古墳","province":"東京都","city":"狛江市","address":"東京都狛江市猪方3-21","lat":35.625593,"lon":139.577011},{"name":"猪方小川塚古墳出土遺物","province":"東京都","city":"狛江市","address":"東京都狛江市和泉本町1-1-5","lat":35.634967,"lon":139.578738},{"name":"井伊直弼公敬慕碑","province":"東京都","city":"狛江市","address":"東京都狛江市中伊豆美3-21-8","lat":35.634736,"lon":139.569012},{"name":"狛江高等学校","province":"東京都","city":"狛江市","address":"東京都狛江市元和泉3丁目9-1","lat":35.62743131,"lon":139.57056099},{"name":"狛江市民総合体育館","province":"東京都","city":"狛江市","address":"東京都狛江市和泉本町3丁目25-1","lat":35.64199804,"lon":139.57305642},{"name":"狛江市本庁舎","province":"東京都","city":"狛江市","address":"狛江市和泉本町1-1-5","lat":35.634914,"lon":139.578735},{"name":"※狛江市役所","province":"東京都","city":"狛江市","address":"東京都狛江市和泉本町1丁目1-5","lat":35.63491314,"lon":139.57873418},{"name":"パイオニアキッズ西野川園","province":"東京都","city":"狛江市","address":"狛江市西野川2-4-15","lat":35.644009,"lon":139.575034},{"name":"狛江保育園","province":"東京都","city":"狛江市","address":"狛江市西野川4-12-1","lat":35.647061,"lon":139.572648},{"name":"三島保育園","province":"東京都","city":"狛江市","address":"狛江市東野川1-32-2","lat":35.64189,"lon":139.582914},{"name":"東野川保育園みんなの家","province":"東京都","city":"狛江市","address":"狛江市東野川4-9-7","lat":35.644812,"lon":139.583536},{"name":"藤塚保育園","province":"東京都","city":"狛江市","address":"狛江市和泉本町4-7-35","lat":35.642112,"lon":139.56984},{"name":"狛江子どもの家","province":"東京都","city":"狛江市","address":"狛江市和泉本町1-36-4","lat":35.636205,"lon":139.577915},{"name":"いずみ保育園","province":"東京都","city":"狛江市","address":"狛江市岩戸北1-1-12","lat":35.635774,"lon":139.579845},{"name":"アスク岩戸北保育園","province":"東京都","city":"狛江市","address":"狛江市岩戸北3-3-23","lat":35.634341,"lon":139.582651},{"name":"駄倉保育園","province":"東京都","city":"狛江市","address":"狛江市岩戸北3-20-2","lat":35.632894,"lon":139.58164},{"name":"ベネッセ狛江南保育園","province":"東京都","city":"狛江市","address":"狛江市岩戸北3-23-8","lat":35.63228,"lon":139.582851},{"name":"多摩川保育園","province":"東京都","city":"狛江市","address":"狛江市西和泉1-5-1","lat":35.640415,"lon":139.563477},{"name":"グローバルキッズ狛江園","province":"東京都","city":"狛江市","address":"狛江市中和泉3-19-14","lat":35.63551,"lon":139.567263},{"name":"めぐみの森保育園","province":"東京都","city":"狛江市","address":"狛江市中和泉3-12-6","lat":35.636863,"lon":139.570504},{"name":"狛江ちとせ保育園","province":"東京都","city":"狛江市","address":"狛江市東和泉1-35-10","lat":35.629517,"lon":139.575646},{"name":"虹のひかり保育園","province":"東京都","city":"狛江市","address":"狛江市東和泉1-32-18","lat":35.630397,"lon":139.576365},{"name":"ぎんきょう保育園","province":"東京都","city":"狛江市","address":"狛江市東和泉1-34-25","lat":35.629603,"lon":139.576971},{"name":"駒井保育園","province":"東京都","city":"狛江市","address":"狛江市駒井町2-28-6","lat":35.62441,"lon":139.587573},{"name":"駒井町みんなの家","province":"東京都","city":"狛江市","address":"狛江市駒井町3-36-1","lat":35.623085,"lon":139.589087},{"name":"パイオニアキッズ西野川園","province":"東京都","city":"狛江市","address":"狛江市西野川2-4-15","lat":35.6440155,"lon":139.5749907},{"name":"狛江保育園","province":"東京都","city":"狛江市","address":"狛江市西野川4-12-1","lat":35.64687,"lon":139.57288},{"name":"三島保育園","province":"東京都","city":"狛江市","address":"狛江市東野川1-32-2","lat":35.64243,"lon":139.5831},{"name":"東野川保育園みんなの家","province":"東京都","city":"狛江市","address":"狛江市東野川4丁目9番7号","lat":35.6446,"lon":139.58388},{"name":"狛江子どもの家","province":"東京都","city":"狛江市","address":"狛江市和泉本町1-36-4","lat":35.6362,"lon":139.57793},{"name":"藤塚保育園","province":"東京都","city":"狛江市","address":"狛江市和泉本町4-7-35","lat":35.64428,"lon":139.56754},{"name":"いずみ保育園","province":"東京都","city":"狛江市","address":"狛江市岩戸北1-1-12","lat":35.63538,"lon":139.57996},{"name":"駄倉保育園","province":"東京都","city":"狛江市","address":"狛江市岩戸北3-20-2","lat":35.6328,"lon":139.58191},{"name":"ベネッセ狛江南保育園","province":"東京都","city":"狛江市","address":"狛江市岩戸北3-23-8","lat":35.63226,"lon":139.58269},{"name":"アスク岩戸北保育園","province":"東京都","city":"狛江市","address":"狛江市岩戸北3-3-23","lat":35.63461,"lon":139.58246},{"name":"木下の保育園　岩戸北","province":"東京都","city":"狛江市","address":"狛江市岩戸北3丁目1番19号","lat":35.6347,"lon":139.58116},{"name":"多摩川保育園","province":"東京都","city":"狛江市","address":"狛江市西和泉1-5-1","lat":35.64032,"lon":139.56439},{"name":"めぐみの森保育園","province":"東京都","city":"狛江市","address":"狛江市中和泉3-12-6","lat":35.63688,"lon":139.57047},{"name":"グローバルキッズ狛江園","province":"東京都","city":"狛江市","address":"狛江市中和泉3-19-14","lat":35.63549,"lon":139.5676},{"name":"いずみの森保育園","province":"東京都","city":"狛江市","address":"狛江市元和泉1-10-10","lat":35.63189,"lon":139.57593},{"name":"木下の保育園　元和泉","province":"東京都","city":"狛江市","address":"狛江市元和泉1丁目19番4号","lat":35.63077,"lon":139.5744},{"name":"虹のひかり保育園","province":"東京都","city":"狛江市","address":"狛江市東和泉1-32-18","lat":35.63037,"lon":139.5768},{"name":"ぎんきょう保育園","province":"東京都","city":"狛江市","address":"狛江市東和泉1-34-25","lat":35.62965,"lon":139.57663},{"name":"狛江ちとせ保育園","province":"東京都","city":"狛江市","address":"狛江市東和泉1-35-10","lat":35.6295,"lon":139.57567},{"name":"駒井保育園","province":"東京都","city":"狛江市","address":"狛江市駒井町2-28-6","lat":35.62431,"lon":139.58742},{"name":"駒井町みんなの家","province":"東京都","city":"狛江市","address":"狛江市駒井町3丁目36番1号","lat":35.62307,"lon":139.58911},{"name":"地域生活支援センターリヒト","province":"東京都","city":"狛江市","address":"東京都狛江市元和泉2丁目35-1","lat":35.6333052,"lon":139.56761624},{"name":"社会福祉法人足立邦栄会ポンテ","province":"東京都","city":"狛江市","address":"東京都狛江市元和泉2丁目35-1","lat":35.6333052,"lon":139.56761624},{"name":"社会福祉法人光友会ひかり作業所","province":"東京都","city":"狛江市","address":"東京都狛江市岩戸南3丁目11-9","lat":35.63010038,"lon":139.59175843},{"name":"一般社団法人GGサポート多機能事業所パザパ","province":"東京都","city":"狛江市","address":"東京都狛江市和泉本町1丁目9-4","lat":35.63684337,"lon":139.57960891},{"name":"虹のひかり保育園","province":"東京都","city":"狛江市","address":"狛江市東和泉1-32-18","lat":35.63038,"lon":139.5768},{"name":"泉龍寺弁財天池","province":"東京都","city":"狛江市","address":"東京都狛江市元和泉1-8","lat":35.632292,"lon":139.576168},{"name":"伊豆美神社鳥居","province":"東京都","city":"狛江市","address":"東京都狛江市中伊豆美3-21-8","lat":35.634736,"lon":139.569012},{"name":"木造石谷貞清坐像","province":"東京都","city":"狛江市","address":"東京都狛江市元和泉1-6-1","lat":35.63314,"lon":139.576404},{"name":"石川丈山撰文「宗淳居士晩詞并序」の扁額","province":"東京都","city":"狛江市","address":"東京都狛江市元和泉1-6-1","lat":35.63314,"lon":139.576404},{"name":"玉泉寺のボダイジュ","province":"東京都","city":"狛江市","address":"東京都狛江市東和泉3-10-23","lat":35.626988,"lon":139.573948},{"name":"慶長十五年（1610）の雲版","province":"東京都","city":"狛江市","address":"東京都狛江市元和泉1-6-1","lat":35.63314,"lon":139.576404},{"name":"絹本著色石谷貞清画像","province":"東京都","city":"狛江市","address":"東京都狛江市元和泉1-6-1","lat":35.63314,"lon":139.576404},{"name":"石井家文書　附　荒井家・大久保家・谷田部家旧蔵文書","province":"東京都","city":"狛江市","address":"東京都狛江市和泉本町1-1-5","lat":35.634967,"lon":139.578738},{"name":"栗山家文書","province":"東京都","city":"狛江市","address":"東京都狛江市和泉本町1-1-5","lat":35.634967,"lon":139.578738},{"name":"土屋塚古墳","province":"東京都","city":"狛江市","address":"東京都狛江市岩戸南1-4","lat":35.63229,"lon":139.585148},{"name":"旧荒井家住宅主屋","province":"東京都","city":"狛江市","address":"東京都狛江市元和泉2-15-5","lat":35.632911,"lon":139.571155},{"name":"土屋塚古墳出土遺物","province":"東京都","city":"狛江市","address":"東京都狛江市和泉本町1-1-5","lat":35.634967,"lon":139.578738},{"name":"弁財天池遺跡１号方形周溝墓出土遺物","province":"東京都","city":"狛江市","address":"東京都狛江市和泉本町1-1-5","lat":35.634967,"lon":139.578738},{"name":"旧?木家長屋門　附　棟札１枚","province":"東京都","city":"狛江市","address":"東京都狛江市元和泉2-15-5","lat":35.632911,"lon":139.571155},{"name":"泉龍寺本堂、開山堂、鐘楼門、山門　附　棟札３枚","province":"東京都","city":"狛江市","address":"東京都狛江市元和泉1-6-1","lat":35.633101,"lon":139.575696},{"name":"猪方小川塚古墳","province":"東京都","city":"狛江市","address":"東京都狛江市猪方3-21","lat":35.625593,"lon":139.577011},{"name":"猪方小川塚古墳出土遺物","province":"東京都","city":"狛江市","address":"東京都狛江市和泉本町1-1-5","lat":35.634967,"lon":139.578738},{"name":"井伊直弼公敬慕碑","province":"東京都","city":"狛江市","address":"東京都狛江市中伊豆美3-21-8","lat":35.634736,"lon":139.569012},{"name":"狛江市民総合体育館","province":"東京都","city":"狛江市","address":"東京都狛江市和泉本町3丁目25-1","lat":35.64199804,"lon":139.57305642},{"name":"狛江市本庁舎","province":"東京都","city":"狛江市","address":"狛江市和泉本町1-1-5","lat":35.634914,"lon":139.578735},{"name":"※狛江市役所","province":"東京都","city":"狛江市","address":"東京都狛江市和泉本町1丁目1-5","lat":35.63491314,"lon":139.57873418},{"name":"パイオニアキッズ西野川園","province":"東京都","city":"狛江市","address":"狛江市西野川2-4-15","lat":35.644009,"lon":139.575034},{"name":"狛江保育園","province":"東京都","city":"狛江市","address":"狛江市西野川4-12-1","lat":35.647061,"lon":139.572648},{"name":"三島保育園","province":"東京都","city":"狛江市","address":"狛江市東野川1-32-2","lat":35.64189,"lon":139.582914},{"name":"東野川保育園みんなの家","province":"東京都","city":"狛江市","address":"狛江市東野川4-9-7","lat":35.644812,"lon":139.583536},{"name":"藤塚保育園","province":"東京都","city":"狛江市","address":"狛江市和泉本町4-7-35","lat":35.642112,"lon":139.56984},{"name":"狛江子どもの家","province":"東京都","city":"狛江市","address":"狛江市和泉本町1-36-4","lat":35.636205,"lon":139.577915},{"name":"いずみ保育園","province":"東京都","city":"狛江市","address":"狛江市岩戸北1-1-12","lat":35.635774,"lon":139.579845},{"name":"アスク岩戸北保育園","province":"東京都","city":"狛江市","address":"狛江市岩戸北3-3-23","lat":35.634341,"lon":139.582651},{"name":"駄倉保育園","province":"東京都","city":"狛江市","address":"狛江市岩戸北3-20-2","lat":35.632894,"lon":139.58164},{"name":"ベネッセ狛江南保育園","province":"東京都","city":"狛江市","address":"狛江市岩戸北3-23-8","lat":35.63228,"lon":139.582851},{"name":"多摩川保育園","province":"東京都","city":"狛江市","address":"狛江市西和泉1-5-1","lat":35.640415,"lon":139.563477},{"name":"グローバルキッズ狛江園","province":"東京都","city":"狛江市","address":"狛江市中和泉3-19-14","lat":35.63551,"lon":139.567263},{"name":"めぐみの森保育園","province":"東京都","city":"狛江市","address":"狛江市中和泉3-12-6","lat":35.636863,"lon":139.570504},{"name":"狛江ちとせ保育園","province":"東京都","city":"狛江市","address":"狛江市東和泉1-35-10","lat":35.629517,"lon":139.575646},{"name":"虹のひかり保育園","province":"東京都","city":"狛江市","address":"狛江市東和泉1-32-18","lat":35.630397,"lon":139.576365},{"name":"ぎんきょう保育園","province":"東京都","city":"狛江市","address":"狛江市東和泉1-34-25","lat":35.629603,"lon":139.576971},{"name":"駒井保育園","province":"東京都","city":"狛江市","address":"狛江市駒井町2-28-6","lat":35.62441,"lon":139.587573},{"name":"駒井町みんなの家","province":"東京都","city":"狛江市","address":"狛江市駒井町3-36-1","lat":35.623085,"lon":139.589087},{"name":"パイオニアキッズ西野川園","province":"東京都","city":"狛江市","address":"狛江市西野川2-4-15","lat":35.6440155,"lon":139.5749907},{"name":"狛江保育園","province":"東京都","city":"狛江市","address":"狛江市西野川4-12-1","lat":35.64687,"lon":139.57288},{"name":"三島保育園","province":"東京都","city":"狛江市","address":"狛江市東野川1-32-2","lat":35.64243,"lon":139.5831},{"name":"東野川保育園みんなの家","province":"東京都","city":"狛江市","address":"狛江市東野川4丁目9番7号","lat":35.6446,"lon":139.58388},{"name":"狛江子どもの家","province":"東京都","city":"狛江市","address":"狛江市和泉本町1-36-4","lat":35.6362,"lon":139.57793},{"name":"藤塚保育園","province":"東京都","city":"狛江市","address":"狛江市和泉本町4-7-35","lat":35.64428,"lon":139.56754},{"name":"いずみ保育園","province":"東京都","city":"狛江市","address":"狛江市岩戸北1-1-12","lat":35.63538,"lon":139.57996},{"name":"駄倉保育園","province":"東京都","city":"狛江市","address":"狛江市岩戸北3-20-2","lat":35.6328,"lon":139.58191},{"name":"ベネッセ狛江南保育園","province":"東京都","city":"狛江市","address":"狛江市岩戸北3-23-8","lat":35.63226,"lon":139.58269},{"name":"アスク岩戸北保育園","province":"東京都","city":"狛江市","address":"狛江市岩戸北3-3-23","lat":35.63461,"lon":139.58246},{"name":"木下の保育園　岩戸北","province":"東京都","city":"狛江市","address":"狛江市岩戸北3丁目1番19号","lat":35.6347,"lon":139.58116},{"name":"多摩川保育園","province":"東京都","city":"狛江市","address":"狛江市西和泉1-5-1","lat":35.64032,"lon":139.56439},{"name":"めぐみの森保育園","province":"東京都","city":"狛江市","address":"狛江市中和泉3-12-6","lat":35.63688,"lon":139.57047},{"name":"グローバルキッズ狛江園","province":"東京都","city":"狛江市","address":"狛江市中和泉3-19-14","lat":35.63549,"lon":139.5676},{"name":"いずみの森保育園","province":"東京都","city":"狛江市","address":"狛江市元和泉1-10-10","lat":35.63189,"lon":139.57593},{"name":"木下の保育園　元和泉","province":"東京都","city":"狛江市","address":"狛江市元和泉1丁目19番4号","lat":35.63077,"lon":139.5744},{"name":"虹のひかり保育園","province":"東京都","city":"狛江市","address":"狛江市東和泉1-32-18","lat":35.63037,"lon":139.5768},{"name":"ぎんきょう保育園","province":"東京都","city":"狛江市","address":"狛江市東和泉1-34-25","lat":35.62965,"lon":139.57663},{"name":"狛江ちとせ保育園","province":"東京都","city":"狛江市","address":"狛江市東和泉1-35-10","lat":35.6295,"lon":139.57567},{"name":"駒井保育園","province":"東京都","city":"狛江市","address":"狛江市駒井町2-28-6","lat":35.62431,"lon":139.58742},{"name":"駒井町みんなの家","province":"東京都","city":"狛江市","address":"狛江市駒井町3丁目36番1号","lat":35.62307,"lon":139.58911},{"name":"地域生活支援センターリヒト","province":"東京都","city":"狛江市","address":"東京都狛江市元和泉2丁目35-1","lat":35.6333052,"lon":139.56761624},{"name":"社会福祉法人足立邦栄会ポンテ","province":"東京都","city":"狛江市","address":"東京都狛江市元和泉2丁目35-1","lat":35.6333052,"lon":139.56761624},{"name":"社会福祉法人光友会ひかり作業所","province":"東京都","city":"狛江市","address":"東京都狛江市岩戸南3丁目11-9","lat":35.63010038,"lon":139.59175843},{"name":"一般社団法人GGサポート多機能事業所パザパ","province":"東京都","city":"狛江市","address":"東京都狛江市和泉本町1丁目9-4","lat":35.63684337,"lon":139.57960891},{"name":"虹のひかり保育園","province":"東京都","city":"狛江市","address":"狛江市東和泉1-32-18","lat":35.63038,"lon":139.5768},{"name":"泉龍寺弁財天池","province":"東京都","city":"狛江市","address":"東京都狛江市元和泉1-8","lat":35.632292,"lon":139.576168},{"name":"伊豆美神社鳥居","province":"東京都","city":"狛江市","address":"東京都狛江市中伊豆美3-21-8","lat":35.634736,"lon":139.569012},{"name":"木造石谷貞清坐像","province":"東京都","city":"狛江市","address":"東京都狛江市元和泉1-6-1","lat":35.63314,"lon":139.576404},{"name":"石川丈山撰文「宗淳居士晩詞并序」の扁額","province":"東京都","city":"狛江市","address":"東京都狛江市元和泉1-6-1","lat":35.63314,"lon":139.576404},{"name":"玉泉寺のボダイジュ","province":"東京都","city":"狛江市","address":"東京都狛江市東和泉3-10-23","lat":35.626988,"lon":139.573948},{"name":"慶長十五年（1610）の雲版","province":"東京都","city":"狛江市","address":"東京都狛江市元和泉1-6-1","lat":35.63314,"lon":139.576404},{"name":"絹本著色石谷貞清画像","province":"東京都","city":"狛江市","address":"東京都狛江市元和泉1-6-1","lat":35.63314,"lon":139.576404},{"name":"石井家文書　附　荒井家・大久保家・谷田部家旧蔵文書","province":"東京都","city":"狛江市","address":"東京都狛江市和泉本町1-1-5","lat":35.634967,"lon":139.578738},{"name":"栗山家文書","province":"東京都","city":"狛江市","address":"東京都狛江市和泉本町1-1-5","lat":35.634967,"lon":139.578738},{"name":"土屋塚古墳","province":"東京都","city":"狛江市","address":"東京都狛江市岩戸南1-4","lat":35.63229,"lon":139.585148},{"name":"旧荒井家住宅主屋","province":"東京都","city":"狛江市","address":"東京都狛江市元和泉2-15-5","lat":35.632911,"lon":139.571155},{"name":"土屋塚古墳出土遺物","province":"東京都","city":"狛江市","address":"東京都狛江市和泉本町1-1-5","lat":35.634967,"lon":139.578738},{"name":"弁財天池遺跡１号方形周溝墓出土遺物","province":"東京都","city":"狛江市","address":"東京都狛江市和泉本町1-1-5","lat":35.634967,"lon":139.578738},{"name":"旧?木家長屋門　附　棟札１枚","province":"東京都","city":"狛江市","address":"東京都狛江市元和泉2-15-5","lat":35.632911,"lon":139.571155},{"name":"泉龍寺本堂、開山堂、鐘楼門、山門　附　棟札３枚","province":"東京都","city":"狛江市","address":"東京都狛江市元和泉1-6-1","lat":35.633101,"lon":139.575696},{"name":"猪方小川塚古墳","province":"東京都","city":"狛江市","address":"東京都狛江市猪方3-21","lat":35.625593,"lon":139.577011},{"name":"猪方小川塚古墳出土遺物","province":"東京都","city":"狛江市","address":"東京都狛江市和泉本町1-1-5","lat":35.634967,"lon":139.578738},{"name":"井伊直弼公敬慕碑","province":"東京都","city":"狛江市","address":"東京都狛江市中伊豆美3-21-8","lat":35.634736,"lon":139.569012},{"name":"狛江市民総合体育館","province":"東京都","city":"狛江市","address":"東京都狛江市和泉本町3丁目25-1","lat":35.64199804,"lon":139.57305642},{"name":"※狛江市役所","province":"東京都","city":"狛江市","address":"東京都狛江市和泉本町1丁目1-5","lat":35.63491314,"lon":139.57873418},{"name":"パイオニアキッズ西野川園","province":"東京都","city":"狛江市","address":"狛江市西野川2-4-15","lat":35.644009,"lon":139.575034},{"name":"狛江保育園","province":"東京都","city":"狛江市","address":"狛江市西野川4-12-1","lat":35.647061,"lon":139.572648},{"name":"三島保育園","province":"東京都","city":"狛江市","address":"狛江市東野川1-32-2","lat":35.64189,"lon":139.582914},{"name":"東野川保育園みんなの家","province":"東京都","city":"狛江市","address":"狛江市東野川4-9-7","lat":35.644812,"lon":139.583536},{"name":"藤塚保育園","province":"東京都","city":"狛江市","address":"狛江市和泉本町4-7-35","lat":35.642112,"lon":139.56984},{"name":"狛江子どもの家","province":"東京都","city":"狛江市","address":"狛江市和泉本町1-36-4","lat":35.636205,"lon":139.577915},{"name":"いずみ保育園","province":"東京都","city":"狛江市","address":"狛江市岩戸北1-1-12","lat":35.635774,"lon":139.579845},{"name":"アスク岩戸北保育園","province":"東京都","city":"狛江市","address":"狛江市岩戸北3-3-23","lat":35.634341,"lon":139.582651},{"name":"駄倉保育園","province":"東京都","city":"狛江市","address":"狛江市岩戸北3-20-2","lat":35.632894,"lon":139.58164},{"name":"ベネッセ狛江南保育園","province":"東京都","city":"狛江市","address":"狛江市岩戸北3-23-8","lat":35.63228,"lon":139.582851},{"name":"多摩川保育園","province":"東京都","city":"狛江市","address":"狛江市西和泉1-5-1","lat":35.640415,"lon":139.563477},{"name":"グローバルキッズ狛江園","province":"東京都","city":"狛江市","address":"狛江市中和泉3-19-14","lat":35.63551,"lon":139.567263},{"name":"めぐみの森保育園","province":"東京都","city":"狛江市","address":"狛江市中和泉3-12-6","lat":35.636863,"lon":139.570504},{"name":"狛江ちとせ保育園","province":"東京都","city":"狛江市","address":"狛江市東和泉1-35-10","lat":35.629517,"lon":139.575646},{"name":"虹のひかり保育園","province":"東京都","city":"狛江市","address":"狛江市東和泉1-32-18","lat":35.630397,"lon":139.576365},{"name":"ぎんきょう保育園","province":"東京都","city":"狛江市","address":"狛江市東和泉1-34-25","lat":35.629603,"lon":139.576971},{"name":"駒井保育園","province":"東京都","city":"狛江市","address":"狛江市駒井町2-28-6","lat":35.62441,"lon":139.587573},{"name":"駒井町みんなの家","province":"東京都","city":"狛江市","address":"狛江市駒井町3-36-1","lat":35.623085,"lon":139.589087},{"name":"パイオニアキッズ西野川園","province":"東京都","city":"狛江市","address":"狛江市西野川2-4-15","lat":35.6440155,"lon":139.5749907},{"name":"狛江保育園","province":"東京都","city":"狛江市","address":"狛江市西野川4-12-1","lat":35.64687,"lon":139.57288},{"name":"三島保育園","province":"東京都","city":"狛江市","address":"狛江市東野川1-32-2","lat":35.64243,"lon":139.5831},{"name":"東野川保育園みんなの家","province":"東京都","city":"狛江市","address":"狛江市東野川4丁目9番7号","lat":35.6446,"lon":139.58388},{"name":"狛江子どもの家","province":"東京都","city":"狛江市","address":"狛江市和泉本町1-36-4","lat":35.6362,"lon":139.57793},{"name":"藤塚保育園","province":"東京都","city":"狛江市","address":"狛江市和泉本町4-7-35","lat":35.64428,"lon":139.56754},{"name":"いずみ保育園","province":"東京都","city":"狛江市","address":"狛江市岩戸北1-1-12","lat":35.63538,"lon":139.57996},{"name":"駄倉保育園","province":"東京都","city":"狛江市","address":"狛江市岩戸北3-20-2","lat":35.6328,"lon":139.58191},{"name":"ベネッセ狛江南保育園","province":"東京都","city":"狛江市","address":"狛江市岩戸北3-23-8","lat":35.63226,"lon":139.58269},{"name":"アスク岩戸北保育園","province":"東京都","city":"狛江市","address":"狛江市岩戸北3-3-23","lat":35.63461,"lon":139.58246},{"name":"木下の保育園　岩戸北","province":"東京都","city":"狛江市","address":"狛江市岩戸北3丁目1番19号","lat":35.6347,"lon":139.58116},{"name":"多摩川保育園","province":"東京都","city":"狛江市","address":"狛江市西和泉1-5-1","lat":35.64032,"lon":139.56439},{"name":"めぐみの森保育園","province":"東京都","city":"狛江市","address":"狛江市中和泉3-12-6","lat":35.63688,"lon":139.57047},{"name":"グローバルキッズ狛江園","province":"東京都","city":"狛江市","address":"狛江市中和泉3-19-14","lat":35.63549,"lon":139.5676},{"name":"いずみの森保育園","province":"東京都","city":"狛江市","address":"狛江市元和泉1-10-10","lat":35.63189,"lon":139.57593},{"name":"木下の保育園　元和泉","province":"東京都","city":"狛江市","address":"狛江市元和泉1丁目19番4号","lat":35.63077,"lon":139.5744},{"name":"虹のひかり保育園","province":"東京都","city":"狛江市","address":"狛江市東和泉1-32-18","lat":35.63037,"lon":139.5768},{"name":"ぎんきょう保育園","province":"東京都","city":"狛江市","address":"狛江市東和泉1-34-25","lat":35.62965,"lon":139.57663},{"name":"狛江ちとせ保育園","province":"東京都","city":"狛江市","address":"狛江市東和泉1-35-10","lat":35.6295,"lon":139.57567},{"name":"駒井保育園","province":"東京都","city":"狛江市","address":"狛江市駒井町2-28-6","lat":35.62431,"lon":139.58742},{"name":"駒井町みんなの家","province":"東京都","city":"狛江市","address":"狛江市駒井町3丁目36番1号","lat":35.62307,"lon":139.58911},{"name":"地域生活支援センターリヒト","province":"東京都","city":"狛江市","address":"東京都狛江市元和泉2丁目35-1","lat":35.6333052,"lon":139.56761624},{"name":"社会福祉法人足立邦栄会ポンテ","province":"東京都","city":"狛江市","address":"東京都狛江市元和泉2丁目35-1","lat":35.6333052,"lon":139.56761624},{"name":"社会福祉法人光友会ひかり作業所","province":"東京都","city":"狛江市","address":"東京都狛江市岩戸南3丁目11-9","lat":35.63010038,"lon":139.59175843},{"name":"一般社団法人GGサポート多機能事業所パザパ","province":"東京都","city":"狛江市","address":"東京都狛江市和泉本町1丁目9-4","lat":35.63684337,"lon":139.57960891},{"name":"虹のひかり保育園","province":"東京都","city":"狛江市","address":"狛江市東和泉1-32-18","lat":35.63038,"lon":139.5768},{"name":"狛江市民総合体育館","province":"東京都","city":"狛江市","address":"東京都狛江市和泉本町3丁目25-1","lat":35.64199804,"lon":139.57305642},{"name":"パイオニアキッズ西野川園","province":"東京都","city":"狛江市","address":"狛江市西野川2-4-15","lat":35.644009,"lon":139.575034},{"name":"狛江保育園","province":"東京都","city":"狛江市","address":"狛江市西野川4-12-1","lat":35.647061,"lon":139.572648},{"name":"三島保育園","province":"東京都","city":"狛江市","address":"狛江市東野川1-32-2","lat":35.64189,"lon":139.582914},{"name":"東野川保育園みんなの家","province":"東京都","city":"狛江市","address":"狛江市東野川4-9-7","lat":35.644812,"lon":139.583536},{"name":"藤塚保育園","province":"東京都","city":"狛江市","address":"狛江市和泉本町4-7-35","lat":35.642112,"lon":139.56984},{"name":"狛江子どもの家","province":"東京都","city":"狛江市","address":"狛江市和泉本町1-36-4","lat":35.636205,"lon":139.577915},{"name":"いずみ保育園","province":"東京都","city":"狛江市","address":"狛江市岩戸北1-1-12","lat":35.635774,"lon":139.579845},{"name":"アスク岩戸北保育園","province":"東京都","city":"狛江市","address":"狛江市岩戸北3-3-23","lat":35.634341,"lon":139.582651},{"name":"駄倉保育園","province":"東京都","city":"狛江市","address":"狛江市岩戸北3-20-2","lat":35.632894,"lon":139.58164},{"name":"ベネッセ狛江南保育園","province":"東京都","city":"狛江市","address":"狛江市岩戸北3-23-8","lat":35.63228,"lon":139.582851},{"name":"多摩川保育園","province":"東京都","city":"狛江市","address":"狛江市西和泉1-5-1","lat":35.640415,"lon":139.563477},{"name":"グローバルキッズ狛江園","province":"東京都","city":"狛江市","address":"狛江市中和泉3-19-14","lat":35.63551,"lon":139.567263},{"name":"めぐみの森保育園","province":"東京都","city":"狛江市","address":"狛江市中和泉3-12-6","lat":35.636863,"lon":139.570504},{"name":"狛江ちとせ保育園","province":"東京都","city":"狛江市","address":"狛江市東和泉1-35-10","lat":35.629517,"lon":139.575646},{"name":"虹のひかり保育園","province":"東京都","city":"狛江市","address":"狛江市東和泉1-32-18","lat":35.630397,"lon":139.576365},{"name":"ぎんきょう保育園","province":"東京都","city":"狛江市","address":"狛江市東和泉1-34-25","lat":35.629603,"lon":139.576971},{"name":"駒井保育園","province":"東京都","city":"狛江市","address":"狛江市駒井町2-28-6","lat":35.62441,"lon":139.587573},{"name":"駒井町みんなの家","province":"東京都","city":"狛江市","address":"狛江市駒井町3-36-1","lat":35.623085,"lon":139.589087},{"name":"パイオニアキッズ西野川園","province":"東京都","city":"狛江市","address":"狛江市西野川2-4-15","lat":35.6440155,"lon":139.5749907},{"name":"狛江保育園","province":"東京都","city":"狛江市","address":"狛江市西野川4-12-1","lat":35.64687,"lon":139.57288},{"name":"三島保育園","province":"東京都","city":"狛江市","address":"狛江市東野川1-32-2","lat":35.64243,"lon":139.5831},{"name":"東野川保育園みんなの家","province":"東京都","city":"狛江市","address":"狛江市東野川4丁目9番7号","lat":35.6446,"lon":139.58388},{"name":"狛江子どもの家","province":"東京都","city":"狛江市","address":"狛江市和泉本町1-36-4","lat":35.6362,"lon":139.57793},{"name":"藤塚保育園","province":"東京都","city":"狛江市","address":"狛江市和泉本町4-7-35","lat":35.64428,"lon":139.56754},{"name":"いずみ保育園","province":"東京都","city":"狛江市","address":"狛江市岩戸北1-1-12","lat":35.63538,"lon":139.57996},{"name":"駄倉保育園","province":"東京都","city":"狛江市","address":"狛江市岩戸北3-20-2","lat":35.6328,"lon":139.58191},{"name":"ベネッセ狛江南保育園","province":"東京都","city":"狛江市","address":"狛江市岩戸北3-23-8","lat":35.63226,"lon":139.58269},{"name":"アスク岩戸北保育園","province":"東京都","city":"狛江市","address":"狛江市岩戸北3-3-23","lat":35.63461,"lon":139.58246},{"name":"木下の保育園　岩戸北","province":"東京都","city":"狛江市","address":"狛江市岩戸北3丁目1番19号","lat":35.6347,"lon":139.58116},{"name":"多摩川保育園","province":"東京都","city":"狛江市","address":"狛江市西和泉1-5-1","lat":35.64032,"lon":139.56439},{"name":"めぐみの森保育園","province":"東京都","city":"狛江市","address":"狛江市中和泉3-12-6","lat":35.63688,"lon":139.57047},{"name":"グローバルキッズ狛江園","province":"東京都","city":"狛江市","address":"狛江市中和泉3-19-14","lat":35.63549,"lon":139.5676},{"name":"いずみの森保育園","province":"東京都","city":"狛江市","address":"狛江市元和泉1-10-10","lat":35.63189,"lon":139.57593},{"name":"木下の保育園　元和泉","province":"東京都","city":"狛江市","address":"狛江市元和泉1丁目19番4号","lat":35.63077,"lon":139.5744},{"name":"虹のひかり保育園","province":"東京都","city":"狛江市","address":"狛江市東和泉1-32-18","lat":35.63037,"lon":139.5768},{"name":"ぎんきょう保育園","province":"東京都","city":"狛江市","address":"狛江市東和泉1-34-25","lat":35.62965,"lon":139.57663},{"name":"狛江ちとせ保育園","province":"東京都","city":"狛江市","address":"狛江市東和泉1-35-10","lat":35.6295,"lon":139.57567},{"name":"駒井保育園","province":"東京都","city":"狛江市","address":"狛江市駒井町2-28-6","lat":35.62431,"lon":139.58742},{"name":"駒井町みんなの家","province":"東京都","city":"狛江市","address":"狛江市駒井町3丁目36番1号","lat":35.62307,"lon":139.58911},{"name":"地域生活支援センターリヒト","province":"東京都","city":"狛江市","address":"東京都狛江市元和泉2丁目35-1","lat":35.6333052,"lon":139.56761624},{"name":"社会福祉法人足立邦栄会ポンテ","province":"東京都","city":"狛江市","address":"東京都狛江市元和泉2丁目35-1","lat":35.6333052,"lon":139.56761624},{"name":"社会福祉法人光友会ひかり作業所","province":"東京都","city":"狛江市","address":"東京都狛江市岩戸南3丁目11-9","lat":35.63010038,"lon":139.59175843},{"name":"一般社団法人GGサポート多機能事業所パザパ","province":"東京都","city":"狛江市","address":"東京都狛江市和泉本町1丁目9-4","lat":35.63684337,"lon":139.57960891},{"name":"虹のひかり保育園","province":"東京都","city":"狛江市","address":"狛江市東和泉1-32-18","lat":35.63038,"lon":139.5768},{"name":"パイオニアキッズ西野川園","province":"東京都","city":"狛江市","address":"狛江市西野川2-4-15","lat":35.644009,"lon":139.575034},{"name":"狛江保育園","province":"東京都","city":"狛江市","address":"狛江市西野川4-12-1","lat":35.647061,"lon":139.572648},{"name":"三島保育園","province":"東京都","city":"狛江市","address":"狛江市東野川1-32-2","lat":35.64189,"lon":139.582914},{"name":"東野川保育園みんなの家","province":"東京都","city":"狛江市","address":"狛江市東野川4-9-7","lat":35.644812,"lon":139.583536},{"name":"藤塚保育園","province":"東京都","city":"狛江市","address":"狛江市和泉本町4-7-35","lat":35.642112,"lon":139.56984},{"name":"狛江子どもの家","province":"東京都","city":"狛江市","address":"狛江市和泉本町1-36-4","lat":35.636205,"lon":139.577915},{"name":"いずみ保育園","province":"東京都","city":"狛江市","address":"狛江市岩戸北1-1-12","lat":35.635774,"lon":139.579845},{"name":"アスク岩戸北保育園","province":"東京都","city":"狛江市","address":"狛江市岩戸北3-3-23","lat":35.634341,"lon":139.582651},{"name":"駄倉保育園","province":"東京都","city":"狛江市","address":"狛江市岩戸北3-20-2","lat":35.632894,"lon":139.58164},{"name":"ベネッセ狛江南保育園","province":"東京都","city":"狛江市","address":"狛江市岩戸北3-23-8","lat":35.63228,"lon":139.582851},{"name":"多摩川保育園","province":"東京都","city":"狛江市","address":"狛江市西和泉1-5-1","lat":35.640415,"lon":139.563477},{"name":"グローバルキッズ狛江園","province":"東京都","city":"狛江市","address":"狛江市中和泉3-19-14","lat":35.63551,"lon":139.567263},{"name":"めぐみの森保育園","province":"東京都","city":"狛江市","address":"狛江市中和泉3-12-6","lat":35.636863,"lon":139.570504},{"name":"狛江ちとせ保育園","province":"東京都","city":"狛江市","address":"狛江市東和泉1-35-10","lat":35.629517,"lon":139.575646},{"name":"虹のひかり保育園","province":"東京都","city":"狛江市","address":"狛江市東和泉1-32-18","lat":35.630397,"lon":139.576365},{"name":"ぎんきょう保育園","province":"東京都","city":"狛江市","address":"狛江市東和泉1-34-25","lat":35.629603,"lon":139.576971},{"name":"駒井保育園","province":"東京都","city":"狛江市","address":"狛江市駒井町2-28-6","lat":35.62441,"lon":139.587573},{"name":"駒井町みんなの家","province":"東京都","city":"狛江市","address":"狛江市駒井町3-36-1","lat":35.623085,"lon":139.589087},{"name":"パイオニアキッズ西野川園","province":"東京都","city":"狛江市","address":"狛江市西野川2-4-15","lat":35.6440155,"lon":139.5749907},{"name":"狛江保育園","province":"東京都","city":"狛江市","address":"狛江市西野川4-12-1","lat":35.64687,"lon":139.57288},{"name":"三島保育園","province":"東京都","city":"狛江市","address":"狛江市東野川1-32-2","lat":35.64243,"lon":139.5831},{"name":"東野川保育園みんなの家","province":"東京都","city":"狛江市","address":"狛江市東野川4丁目9番7号","lat":35.6446,"lon":139.58388},{"name":"狛江子どもの家","province":"東京都","city":"狛江市","address":"狛江市和泉本町1-36-4","lat":35.6362,"lon":139.57793},{"name":"藤塚保育園","province":"東京都","city":"狛江市","address":"狛江市和泉本町4-7-35","lat":35.64428,"lon":139.56754},{"name":"いずみ保育園","province":"東京都","city":"狛江市","address":"狛江市岩戸北1-1-12","lat":35.63538,"lon":139.57996},{"name":"駄倉保育園","province":"東京都","city":"狛江市","address":"狛江市岩戸北3-20-2","lat":35.6328,"lon":139.58191},{"name":"ベネッセ狛江南保育園","province":"東京都","city":"狛江市","address":"狛江市岩戸北3-23-8","lat":35.63226,"lon":139.58269},{"name":"アスク岩戸北保育園","province":"東京都","city":"狛江市","address":"狛江市岩戸北3-3-23","lat":35.63461,"lon":139.58246},{"name":"木下の保育園　岩戸北","province":"東京都","city":"狛江市","address":"狛江市岩戸北3丁目1番19号","lat":35.6347,"lon":139.58116},{"name":"多摩川保育園","province":"東京都","city":"狛江市","address":"狛江市西和泉1-5-1","lat":35.64032,"lon":139.56439},{"name":"めぐみの森保育園","province":"東京都","city":"狛江市","address":"狛江市中和泉3-12-6","lat":35.63688,"lon":139.57047},{"name":"グローバルキッズ狛江園","province":"東京都","city":"狛江市","address":"狛江市中和泉3-19-14","lat":35.63549,"lon":139.5676},{"name":"いずみの森保育園","province":"東京都","city":"狛江市","address":"狛江市元和泉1-10-10","lat":35.63189,"lon":139.57593},{"name":"木下の保育園　元和泉","province":"東京都","city":"狛江市","address":"狛江市元和泉1丁目19番4号","lat":35.63077,"lon":139.5744},{"name":"虹のひかり保育園","province":"東京都","city":"狛江市","address":"狛江市東和泉1-32-18","lat":35.63037,"lon":139.5768},{"name":"ぎんきょう保育園","province":"東京都","city":"狛江市","address":"狛江市東和泉1-34-25","lat":35.62965,"lon":139.57663},{"name":"狛江ちとせ保育園","province":"東京都","city":"狛江市","address":"狛江市東和泉1-35-10","lat":35.6295,"lon":139.57567},{"name":"駒井保育園","province":"東京都","city":"狛江市","address":"狛江市駒井町2-28-6","lat":35.62431,"lon":139.58742},{"name":"駒井町みんなの家","province":"東京都","city":"狛江市","address":"狛江市駒井町3丁目36番1号","lat":35.62307,"lon":139.58911},{"name":"地域生活支援センターリヒト","province":"東京都","city":"狛江市","address":"東京都狛江市元和泉2丁目35-1","lat":35.6333052,"lon":139.56761624},{"name":"社会福祉法人足立邦栄会ポンテ","province":"東京都","city":"狛江市","address":"東京都狛江市元和泉2丁目35-1","lat":35.6333052,"lon":139.56761624},{"name":"社会福祉法人光友会ひかり作業所","province":"東京都","city":"狛江市","address":"東京都狛江市岩戸南3丁目11-9","lat":35.63010038,"lon":139.59175843},{"name":"一般社団法人GGサポート多機能事業所パザパ","province":"東京都","city":"狛江市","address":"東京都狛江市和泉本町1丁目9-4","lat":35.63684337,"lon":139.57960891},{"name":"虹のひかり保育園","province":"東京都","city":"狛江市","address":"狛江市東和泉1-32-18","lat":35.63038,"lon":139.5768},{"name":"パイオニアキッズ西野川園","province":"東京都","city":"狛江市","address":"狛江市西野川2-4-15","lat":35.644009,"lon":139.575034},{"name":"狛江保育園","province":"東京都","city":"狛江市","address":"狛江市西野川4-12-1","lat":35.647061,"lon":139.572648},{"name":"三島保育園","province":"東京都","city":"狛江市","address":"狛江市東野川1-32-2","lat":35.64189,"lon":139.582914},{"name":"東野川保育園みんなの家","province":"東京都","city":"狛江市","address":"狛江市東野川4-9-7","lat":35.644812,"lon":139.583536},{"name":"藤塚保育園","province":"東京都","city":"狛江市","address":"狛江市和泉本町4-7-35","lat":35.642112,"lon":139.56984},{"name":"狛江子どもの家","province":"東京都","city":"狛江市","address":"狛江市和泉本町1-36-4","lat":35.636205,"lon":139.577915},{"name":"いずみ保育園","province":"東京都","city":"狛江市","address":"狛江市岩戸北1-1-12","lat":35.635774,"lon":139.579845},{"name":"アスク岩戸北保育園","province":"東京都","city":"狛江市","address":"狛江市岩戸北3-3-23","lat":35.634341,"lon":139.582651},{"name":"駄倉保育園","province":"東京都","city":"狛江市","address":"狛江市岩戸北3-20-2","lat":35.632894,"lon":139.58164},{"name":"ベネッセ狛江南保育園","province":"東京都","city":"狛江市","address":"狛江市岩戸北3-23-8","lat":35.63228,"lon":139.582851},{"name":"多摩川保育園","province":"東京都","city":"狛江市","address":"狛江市西和泉1-5-1","lat":35.640415,"lon":139.563477},{"name":"グローバルキッズ狛江園","province":"東京都","city":"狛江市","address":"狛江市中和泉3-19-14","lat":35.63551,"lon":139.567263},{"name":"めぐみの森保育園","province":"東京都","city":"狛江市","address":"狛江市中和泉3-12-6","lat":35.636863,"lon":139.570504},{"name":"狛江ちとせ保育園","province":"東京都","city":"狛江市","address":"狛江市東和泉1-35-10","lat":35.629517,"lon":139.575646},{"name":"虹のひかり保育園","province":"東京都","city":"狛江市","address":"狛江市東和泉1-32-18","lat":35.630397,"lon":139.576365},{"name":"ぎんきょう保育園","province":"東京都","city":"狛江市","address":"狛江市東和泉1-34-25","lat":35.629603,"lon":139.576971},{"name":"駒井保育園","province":"東京都","city":"狛江市","address":"狛江市駒井町2-28-6","lat":35.62441,"lon":139.587573},{"name":"駒井町みんなの家","province":"東京都","city":"狛江市","address":"狛江市駒井町3-36-1","lat":35.623085,"lon":139.589087},{"name":"地域生活支援センターリヒト","province":"東京都","city":"狛江市","address":"東京都狛江市元和泉2丁目35-1","lat":35.6333052,"lon":139.56761624},{"name":"社会福祉法人足立邦栄会ポンテ","province":"東京都","city":"狛江市","address":"東京都狛江市元和泉2丁目35-1","lat":35.6333052,"lon":139.56761624},{"name":"社会福祉法人光友会ひかり作業所","province":"東京都","city":"狛江市","address":"東京都狛江市岩戸南3丁目11-9","lat":35.63010038,"lon":139.59175843},{"name":"一般社団法人GGサポート多機能事業所パザパ","province":"東京都","city":"狛江市","address":"東京都狛江市和泉本町1丁目9-4","lat":35.63684337,"lon":139.57960891},{"name":"パイオニアキッズ西野川園","province":"東京都","city":"狛江市","address":"狛江市西野川2-4-15","lat":35.644009,"lon":139.575034},{"name":"狛江保育園","province":"東京都","city":"狛江市","address":"狛江市西野川4-12-1","lat":35.647061,"lon":139.572648},{"name":"三島保育園","province":"東京都","city":"狛江市","address":"狛江市東野川1-32-2","lat":35.64189,"lon":139.582914},{"name":"東野川保育園みんなの家","province":"東京都","city":"狛江市","address":"狛江市東野川4-9-7","lat":35.644812,"lon":139.583536},{"name":"藤塚保育園","province":"東京都","city":"狛江市","address":"狛江市和泉本町4-7-35","lat":35.642112,"lon":139.56984},{"name":"狛江子どもの家","province":"東京都","city":"狛江市","address":"狛江市和泉本町1-36-4","lat":35.636205,"lon":139.577915},{"name":"いずみ保育園","province":"東京都","city":"狛江市","address":"狛江市岩戸北1-1-12","lat":35.635774,"lon":139.579845},{"name":"アスク岩戸北保育園","province":"東京都","city":"狛江市","address":"狛江市岩戸北3-3-23","lat":35.634341,"lon":139.582651},{"name":"駄倉保育園","province":"東京都","city":"狛江市","address":"狛江市岩戸北3-20-2","lat":35.632894,"lon":139.58164},{"name":"ベネッセ狛江南保育園","province":"東京都","city":"狛江市","address":"狛江市岩戸北3-23-8","lat":35.63228,"lon":139.582851},{"name":"多摩川保育園","province":"東京都","city":"狛江市","address":"狛江市西和泉1-5-1","lat":35.640415,"lon":139.563477},{"name":"グローバルキッズ狛江園","province":"東京都","city":"狛江市","address":"狛江市中和泉3-19-14","lat":35.63551,"lon":139.567263},{"name":"めぐみの森保育園","province":"東京都","city":"狛江市","address":"狛江市中和泉3-12-6","lat":35.636863,"lon":139.570504},{"name":"狛江ちとせ保育園","province":"東京都","city":"狛江市","address":"狛江市東和泉1-35-10","lat":35.629517,"lon":139.575646},{"name":"虹のひかり保育園","province":"東京都","city":"狛江市","address":"狛江市東和泉1-32-18","lat":35.630397,"lon":139.576365},{"name":"ぎんきょう保育園","province":"東京都","city":"狛江市","address":"狛江市東和泉1-34-25","lat":35.629603,"lon":139.576971},{"name":"駒井保育園","province":"東京都","city":"狛江市","address":"狛江市駒井町2-28-6","lat":35.62441,"lon":139.587573},{"name":"駒井町みんなの家","province":"東京都","city":"狛江市","address":"狛江市駒井町3-36-1","lat":35.623085,"lon":139.589087},{"name":"パイオニアキッズ西野川園","province":"東京都","city":"狛江市","address":"狛江市西野川2-4-15","lat":35.644009,"lon":139.575034},{"name":"狛江保育園","province":"東京都","city":"狛江市","address":"狛江市西野川4-12-1","lat":35.647061,"lon":139.572648},{"name":"三島保育園","province":"東京都","city":"狛江市","address":"狛江市東野川1-32-2","lat":35.64189,"lon":139.582914},{"name":"東野川保育園みんなの家","province":"東京都","city":"狛江市","address":"狛江市東野川4-9-7","lat":35.644812,"lon":139.583536},{"name":"藤塚保育園","province":"東京都","city":"狛江市","address":"狛江市和泉本町4-7-35","lat":35.642112,"lon":139.56984},{"name":"狛江子どもの家","province":"東京都","city":"狛江市","address":"狛江市和泉本町1-36-4","lat":35.636205,"lon":139.577915},{"name":"いずみ保育園","province":"東京都","city":"狛江市","address":"狛江市岩戸北1-1-12","lat":35.635774,"lon":139.579845},{"name":"アスク岩戸北保育園","province":"東京都","city":"狛江市","address":"狛江市岩戸北3-3-23","lat":35.634341,"lon":139.582651},{"name":"駄倉保育園","province":"東京都","city":"狛江市","address":"狛江市岩戸北3-20-2","lat":35.632894,"lon":139.58164},{"name":"ベネッセ狛江南保育園","province":"東京都","city":"狛江市","address":"狛江市岩戸北3-23-8","lat":35.63228,"lon":139.582851},{"name":"多摩川保育園","province":"東京都","city":"狛江市","address":"狛江市西和泉1-5-1","lat":35.640415,"lon":139.563477},{"name":"グローバルキッズ狛江園","province":"東京都","city":"狛江市","address":"狛江市中和泉3-19-14","lat":35.63551,"lon":139.567263},{"name":"めぐみの森保育園","province":"東京都","city":"狛江市","address":"狛江市中和泉3-12-6","lat":35.636863,"lon":139.570504},{"name":"狛江ちとせ保育園","province":"東京都","city":"狛江市","address":"狛江市東和泉1-35-10","lat":35.629517,"lon":139.575646},{"name":"虹のひかり保育園","province":"東京都","city":"狛江市","address":"狛江市東和泉1-32-18","lat":35.630397,"lon":139.576365},{"name":"ぎんきょう保育園","province":"東京都","city":"狛江市","address":"狛江市東和泉1-34-25","lat":35.629603,"lon":139.576971},{"name":"駒井保育園","province":"東京都","city":"狛江市","address":"狛江市駒井町2-28-6","lat":35.62441,"lon":139.587573},{"name":"駒井町みんなの家","province":"東京都","city":"狛江市","address":"狛江市駒井町3-36-1","lat":35.623085,"lon":139.589087},{"name":"パイオニアキッズ西野川園","province":"東京都","city":"狛江市","address":"狛江市西野川2-4-15","lat":35.644009,"lon":139.575034},{"name":"狛江保育園","province":"東京都","city":"狛江市","address":"狛江市西野川4-12-1","lat":35.647061,"lon":139.572648},{"name":"三島保育園","province":"東京都","city":"狛江市","address":"狛江市東野川1-32-2","lat":35.64189,"lon":139.582914},{"name":"東野川保育園みんなの家","province":"東京都","city":"狛江市","address":"狛江市東野川4-9-7","lat":35.644812,"lon":139.583536},{"name":"藤塚保育園","province":"東京都","city":"狛江市","address":"狛江市和泉本町4-7-35","lat":35.642112,"lon":139.56984},{"name":"狛江子どもの家","province":"東京都","city":"狛江市","address":"狛江市和泉本町1-36-4","lat":35.636205,"lon":139.577915},{"name":"いずみ保育園","province":"東京都","city":"狛江市","address":"狛江市岩戸北1-1-12","lat":35.635774,"lon":139.579845},{"name":"アスク岩戸北保育園","province":"東京都","city":"狛江市","address":"狛江市岩戸北3-3-23","lat":35.634341,"lon":139.582651},{"name":"駄倉保育園","province":"東京都","city":"狛江市","address":"狛江市岩戸北3-20-2","lat":35.632894,"lon":139.58164},{"name":"ベネッセ狛江南保育園","province":"東京都","city":"狛江市","address":"狛江市岩戸北3-23-8","lat":35.63228,"lon":139.582851},{"name":"多摩川保育園","province":"東京都","city":"狛江市","address":"狛江市西和泉1-5-1","lat":35.640415,"lon":139.563477},{"name":"グローバルキッズ狛江園","province":"東京都","city":"狛江市","address":"狛江市中和泉3-19-14","lat":35.63551,"lon":139.567263},{"name":"めぐみの森保育園","province":"東京都","city":"狛江市","address":"狛江市中和泉3-12-6","lat":35.636863,"lon":139.570504},{"name":"狛江ちとせ保育園","province":"東京都","city":"狛江市","address":"狛江市東和泉1-35-10","lat":35.629517,"lon":139.575646},{"name":"虹のひかり保育園","province":"東京都","city":"狛江市","address":"狛江市東和泉1-32-18","lat":35.630397,"lon":139.576365},{"name":"ぎんきょう保育園","province":"東京都","city":"狛江市","address":"狛江市東和泉1-34-25","lat":35.629603,"lon":139.576971},{"name":"駒井保育園","province":"東京都","city":"狛江市","address":"狛江市駒井町2-28-6","lat":35.62441,"lon":139.587573},{"name":"駒井町みんなの家","province":"東京都","city":"狛江市","address":"狛江市駒井町3-36-1","lat":35.623085,"lon":139.589087},{"name":"パイオニアキッズ西野川園","province":"東京都","city":"狛江市","address":"狛江市西野川2-4-15","lat":35.644009,"lon":139.575034},{"name":"狛江保育園","province":"東京都","city":"狛江市","address":"狛江市西野川4-12-1","lat":35.647061,"lon":139.572648},{"name":"三島保育園","province":"東京都","city":"狛江市","address":"狛江市東野川1-32-2","lat":35.64189,"lon":139.582914},{"name":"東野川保育園みんなの家","province":"東京都","city":"狛江市","address":"狛江市東野川4-9-7","lat":35.644812,"lon":139.583536},{"name":"藤塚保育園","province":"東京都","city":"狛江市","address":"狛江市和泉本町4-7-35","lat":35.642112,"lon":139.56984},{"name":"狛江子どもの家","province":"東京都","city":"狛江市","address":"狛江市和泉本町1-36-4","lat":35.636205,"lon":139.577915},{"name":"いずみ保育園","province":"東京都","city":"狛江市","address":"狛江市岩戸北1-1-12","lat":35.635774,"lon":139.579845},{"name":"アスク岩戸北保育園","province":"東京都","city":"狛江市","address":"狛江市岩戸北3-3-23","lat":35.634341,"lon":139.582651},{"name":"駄倉保育園","province":"東京都","city":"狛江市","address":"狛江市岩戸北3-20-2","lat":35.632894,"lon":139.58164},{"name":"ベネッセ狛江南保育園","province":"東京都","city":"狛江市","address":"狛江市岩戸北3-23-8","lat":35.63228,"lon":139.582851},{"name":"多摩川保育園","province":"東京都","city":"狛江市","address":"狛江市西和泉1-5-1","lat":35.640415,"lon":139.563477},{"name":"グローバルキッズ狛江園","province":"東京都","city":"狛江市","address":"狛江市中和泉3-19-14","lat":35.63551,"lon":139.567263},{"name":"めぐみの森保育園","province":"東京都","city":"狛江市","address":"狛江市中和泉3-12-6","lat":35.636863,"lon":139.570504},{"name":"狛江ちとせ保育園","province":"東京都","city":"狛江市","address":"狛江市東和泉1-35-10","lat":35.629517,"lon":139.575646},{"name":"虹のひかり保育園","province":"東京都","city":"狛江市","address":"狛江市東和泉1-32-18","lat":35.630397,"lon":139.576365},{"name":"ぎんきょう保育園","province":"東京都","city":"狛江市","address":"狛江市東和泉1-34-25","lat":35.629603,"lon":139.576971},{"name":"駒井保育園","province":"東京都","city":"狛江市","address":"狛江市駒井町2-28-6","lat":35.62441,"lon":139.587573},{"name":"駒井町みんなの家","province":"東京都","city":"狛江市","address":"狛江市駒井町3-36-1","lat":35.623085,"lon":139.589087},{"name":"パイオニアキッズ西野川園","province":"東京都","city":"狛江市","address":"狛江市西野川2-4-15","lat":35.644009,"lon":139.575034},{"name":"狛江保育園","province":"東京都","city":"狛江市","address":"狛江市西野川4-12-1","lat":35.647061,"lon":139.572648},{"name":"三島保育園","province":"東京都","city":"狛江市","address":"狛江市東野川1-32-2","lat":35.64189,"lon":139.582914},{"name":"東野川保育園みんなの家","province":"東京都","city":"狛江市","address":"狛江市東野川4-9-7","lat":35.644812,"lon":139.583536},{"name":"藤塚保育園","province":"東京都","city":"狛江市","address":"狛江市和泉本町4-7-35","lat":35.642112,"lon":139.56984},{"name":"狛江子どもの家","province":"東京都","city":"狛江市","address":"狛江市和泉本町1-36-4","lat":35.636205,"lon":139.577915},{"name":"いずみ保育園","province":"東京都","city":"狛江市","address":"狛江市岩戸北1-1-12","lat":35.635774,"lon":139.579845},{"name":"アスク岩戸北保育園","province":"東京都","city":"狛江市","address":"狛江市岩戸北3-3-23","lat":35.634341,"lon":139.582651},{"name":"駄倉保育園","province":"東京都","city":"狛江市","address":"狛江市岩戸北3-20-2","lat":35.632894,"lon":139.58164},{"name":"ベネッセ狛江南保育園","province":"東京都","city":"狛江市","address":"狛江市岩戸北3-23-8","lat":35.63228,"lon":139.582851},{"name":"多摩川保育園","province":"東京都","city":"狛江市","address":"狛江市西和泉1-5-1","lat":35.640415,"lon":139.563477},{"name":"グローバルキッズ狛江園","province":"東京都","city":"狛江市","address":"狛江市中和泉3-19-14","lat":35.63551,"lon":139.567263},{"name":"めぐみの森保育園","province":"東京都","city":"狛江市","address":"狛江市中和泉3-12-6","lat":35.636863,"lon":139.570504},{"name":"狛江ちとせ保育園","province":"東京都","city":"狛江市","address":"狛江市東和泉1-35-10","lat":35.629517,"lon":139.575646},{"name":"虹のひかり保育園","province":"東京都","city":"狛江市","address":"狛江市東和泉1-32-18","lat":35.630397,"lon":139.576365},{"name":"ぎんきょう保育園","province":"東京都","city":"狛江市","address":"狛江市東和泉1-34-25","lat":35.629603,"lon":139.576971},{"name":"駒井保育園","province":"東京都","city":"狛江市","address":"狛江市駒井町2-28-6","lat":35.62441,"lon":139.587573},{"name":"駒井町みんなの家","province":"東京都","city":"狛江市","address":"狛江市駒井町3-36-1","lat":35.623085,"lon":139.589087},{"name":"パイオニアキッズ西野川園","province":"東京都","city":"狛江市","address":"狛江市西野川2-4-15","lat":35.644009,"lon":139.575034},{"name":"狛江保育園","province":"東京都","city":"狛江市","address":"狛江市西野川4-12-1","lat":35.647061,"lon":139.572648},{"name":"三島保育園","province":"東京都","city":"狛江市","address":"狛江市東野川1-32-2","lat":35.64189,"lon":139.582914},{"name":"東野川保育園みんなの家","province":"東京都","city":"狛江市","address":"狛江市東野川4-9-7","lat":35.644812,"lon":139.583536},{"name":"藤塚保育園","province":"東京都","city":"狛江市","address":"狛江市和泉本町4-7-35","lat":35.642112,"lon":139.56984},{"name":"狛江子どもの家","province":"東京都","city":"狛江市","address":"狛江市和泉本町1-36-4","lat":35.636205,"lon":139.577915},{"name":"いずみ保育園","province":"東京都","city":"狛江市","address":"狛江市岩戸北1-1-12","lat":35.635774,"lon":139.579845},{"name":"アスク岩戸北保育園","province":"東京都","city":"狛江市","address":"狛江市岩戸北3-3-23","lat":35.634341,"lon":139.582651},{"name":"駄倉保育園","province":"東京都","city":"狛江市","address":"狛江市岩戸北3-20-2","lat":35.632894,"lon":139.58164},{"name":"ベネッセ狛江南保育園","province":"東京都","city":"狛江市","address":"狛江市岩戸北3-23-8","lat":35.63228,"lon":139.582851},{"name":"多摩川保育園","province":"東京都","city":"狛江市","address":"狛江市西和泉1-5-1","lat":35.640415,"lon":139.563477},{"name":"グローバルキッズ狛江園","province":"東京都","city":"狛江市","address":"狛江市中和泉3-19-14","lat":35.63551,"lon":139.567263},{"name":"めぐみの森保育園","province":"東京都","city":"狛江市","address":"狛江市中和泉3-12-6","lat":35.636863,"lon":139.570504},{"name":"狛江ちとせ保育園","province":"東京都","city":"狛江市","address":"狛江市東和泉1-35-10","lat":35.629517,"lon":139.575646},{"name":"虹のひかり保育園","province":"東京都","city":"狛江市","address":"狛江市東和泉1-32-18","lat":35.630397,"lon":139.576365},{"name":"ぎんきょう保育園","province":"東京都","city":"狛江市","address":"狛江市東和泉1-34-25","lat":35.629603,"lon":139.576971},{"name":"駒井保育園","province":"東京都","city":"狛江市","address":"狛江市駒井町2-28-6","lat":35.62441,"lon":139.587573},{"name":"駒井町みんなの家","province":"東京都","city":"狛江市","address":"狛江市駒井町3-36-1","lat":35.623085,"lon":139.589087},{"name":"パイオニアキッズ西野川園","province":"東京都","city":"狛江市","address":"狛江市西野川2-4-15","lat":35.644009,"lon":139.575034},{"name":"狛江保育園","province":"東京都","city":"狛江市","address":"狛江市西野川4-12-1","lat":35.647061,"lon":139.572648},{"name":"三島保育園","province":"東京都","city":"狛江市","address":"狛江市東野川1-32-2","lat":35.64189,"lon":139.582914},{"name":"東野川保育園みんなの家","province":"東京都","city":"狛江市","address":"狛江市東野川4-9-7","lat":35.644812,"lon":139.583536},{"name":"藤塚保育園","province":"東京都","city":"狛江市","address":"狛江市和泉本町4-7-35","lat":35.642112,"lon":139.56984},{"name":"狛江子どもの家","province":"東京都","city":"狛江市","address":"狛江市和泉本町1-36-4","lat":35.636205,"lon":139.577915},{"name":"いずみ保育園","province":"東京都","city":"狛江市","address":"狛江市岩戸北1-1-12","lat":35.635774,"lon":139.579845},{"name":"アスク岩戸北保育園","province":"東京都","city":"狛江市","address":"狛江市岩戸北3-3-23","lat":35.634341,"lon":139.582651},{"name":"駄倉保育園","province":"東京都","city":"狛江市","address":"狛江市岩戸北3-20-2","lat":35.632894,"lon":139.58164},{"name":"ベネッセ狛江南保育園","province":"東京都","city":"狛江市","address":"狛江市岩戸北3-23-8","lat":35.63228,"lon":139.582851},{"name":"多摩川保育園","province":"東京都","city":"狛江市","address":"狛江市西和泉1-5-1","lat":35.640415,"lon":139.563477},{"name":"グローバルキッズ狛江園","province":"東京都","city":"狛江市","address":"狛江市中和泉3-19-14","lat":35.63551,"lon":139.567263},{"name":"めぐみの森保育園","province":"東京都","city":"狛江市","address":"狛江市中和泉3-12-6","lat":35.636863,"lon":139.570504},{"name":"狛江ちとせ保育園","province":"東京都","city":"狛江市","address":"狛江市東和泉1-35-10","lat":35.629517,"lon":139.575646},{"name":"虹のひかり保育園","province":"東京都","city":"狛江市","address":"狛江市東和泉1-32-18","lat":35.630397,"lon":139.576365},{"name":"ぎんきょう保育園","province":"東京都","city":"狛江市","address":"狛江市東和泉1-34-25","lat":35.629603,"lon":139.576971},{"name":"駒井保育園","province":"東京都","city":"狛江市","address":"狛江市駒井町2-28-6","lat":35.62441,"lon":139.587573},{"name":"駒井町みんなの家","province":"東京都","city":"狛江市","address":"狛江市駒井町3-36-1","lat":35.623085,"lon":139.589087},{"name":"パイオニアキッズ西野川園","province":"東京都","city":"狛江市","address":"狛江市西野川2-4-15","lat":35.644009,"lon":139.575034},{"name":"狛江保育園","province":"東京都","city":"狛江市","address":"狛江市西野川4-12-1","lat":35.647061,"lon":139.572648},{"name":"三島保育園","province":"東京都","city":"狛江市","address":"狛江市東野川1-32-2","lat":35.64189,"lon":139.582914},{"name":"東野川保育園みんなの家","province":"東京都","city":"狛江市","address":"狛江市東野川4-9-7","lat":35.644812,"lon":139.583536},{"name":"藤塚保育園","province":"東京都","city":"狛江市","address":"狛江市和泉本町4-7-35","lat":35.642112,"lon":139.56984},{"name":"狛江子どもの家","province":"東京都","city":"狛江市","address":"狛江市和泉本町1-36-4","lat":35.636205,"lon":139.577915},{"name":"いずみ保育園","province":"東京都","city":"狛江市","address":"狛江市岩戸北1-1-12","lat":35.635774,"lon":139.579845},{"name":"アスク岩戸北保育園","province":"東京都","city":"狛江市","address":"狛江市岩戸北3-3-23","lat":35.634341,"lon":139.582651},{"name":"駄倉保育園","province":"東京都","city":"狛江市","address":"狛江市岩戸北3-20-2","lat":35.632894,"lon":139.58164},{"name":"ベネッセ狛江南保育園","province":"東京都","city":"狛江市","address":"狛江市岩戸北3-23-8","lat":35.63228,"lon":139.582851},{"name":"多摩川保育園","province":"東京都","city":"狛江市","address":"狛江市西和泉1-5-1","lat":35.640415,"lon":139.563477},{"name":"グローバルキッズ狛江園","province":"東京都","city":"狛江市","address":"狛江市中和泉3-19-14","lat":35.63551,"lon":139.567263},{"name":"めぐみの森保育園","province":"東京都","city":"狛江市","address":"狛江市中和泉3-12-6","lat":35.636863,"lon":139.570504},{"name":"狛江ちとせ保育園","province":"東京都","city":"狛江市","address":"狛江市東和泉1-35-10","lat":35.629517,"lon":139.575646},{"name":"虹のひかり保育園","province":"東京都","city":"狛江市","address":"狛江市東和泉1-32-18","lat":35.630397,"lon":139.576365},{"name":"ぎんきょう保育園","province":"東京都","city":"狛江市","address":"狛江市東和泉1-34-25","lat":35.629603,"lon":139.576971},{"name":"駒井保育園","province":"東京都","city":"狛江市","address":"狛江市駒井町2-28-6","lat":35.62441,"lon":139.587573},{"name":"駒井町みんなの家","province":"東京都","city":"狛江市","address":"狛江市駒井町3-36-1","lat":35.623085,"lon":139.589087},{"name":"パイオニアキッズ西野川園","province":"東京都","city":"狛江市","address":"狛江市西野川2-4-15","lat":35.644009,"lon":139.575034},{"name":"狛江保育園","province":"東京都","city":"狛江市","address":"狛江市西野川4-12-1","lat":35.647061,"lon":139.572648},{"name":"三島保育園","province":"東京都","city":"狛江市","address":"狛江市東野川1-32-2","lat":35.64189,"lon":139.582914},{"name":"東野川保育園みんなの家","province":"東京都","city":"狛江市","address":"狛江市東野川4-9-7","lat":35.644812,"lon":139.583536},{"name":"藤塚保育園","province":"東京都","city":"狛江市","address":"狛江市和泉本町4-7-35","lat":35.642112,"lon":139.56984},{"name":"狛江子どもの家","province":"東京都","city":"狛江市","address":"狛江市和泉本町1-36-4","lat":35.636205,"lon":139.577915},{"name":"いずみ保育園","province":"東京都","city":"狛江市","address":"狛江市岩戸北1-1-12","lat":35.635774,"lon":139.579845},{"name":"アスク岩戸北保育園","province":"東京都","city":"狛江市","address":"狛江市岩戸北3-3-23","lat":35.634341,"lon":139.582651},{"name":"駄倉保育園","province":"東京都","city":"狛江市","address":"狛江市岩戸北3-20-2","lat":35.632894,"lon":139.58164},{"name":"ベネッセ狛江南保育園","province":"東京都","city":"狛江市","address":"狛江市岩戸北3-23-8","lat":35.63228,"lon":139.582851},{"name":"多摩川保育園","province":"東京都","city":"狛江市","address":"狛江市西和泉1-5-1","lat":35.640415,"lon":139.563477},{"name":"グローバルキッズ狛江園","province":"東京都","city":"狛江市","address":"狛江市中和泉3-19-14","lat":35.63551,"lon":139.567263},{"name":"めぐみの森保育園","province":"東京都","city":"狛江市","address":"狛江市中和泉3-12-6","lat":35.636863,"lon":139.570504},{"name":"狛江ちとせ保育園","province":"東京都","city":"狛江市","address":"狛江市東和泉1-35-10","lat":35.629517,"lon":139.575646},{"name":"虹のひかり保育園","province":"東京都","city":"狛江市","address":"狛江市東和泉1-32-18","lat":35.630397,"lon":139.576365},{"name":"ぎんきょう保育園","province":"東京都","city":"狛江市","address":"狛江市東和泉1-34-25","lat":35.629603,"lon":139.576971},{"name":"駒井保育園","province":"東京都","city":"狛江市","address":"狛江市駒井町2-28-6","lat":35.62441,"lon":139.587573},{"name":"駒井町みんなの家","province":"東京都","city":"狛江市","address":"狛江市駒井町3-36-1","lat":35.623085,"lon":139.589087},{"name":"パイオニアキッズ西野川園","province":"東京都","city":"狛江市","address":"狛江市西野川2-4-15","lat":35.644009,"lon":139.575034},{"name":"狛江保育園","province":"東京都","city":"狛江市","address":"狛江市西野川4-12-1","lat":35.647061,"lon":139.572648},{"name":"三島保育園","province":"東京都","city":"狛江市","address":"狛江市東野川1-32-2","lat":35.64189,"lon":139.582914},{"name":"東野川保育園みんなの家","province":"東京都","city":"狛江市","address":"狛江市東野川4-9-7","lat":35.644812,"lon":139.583536},{"name":"藤塚保育園","province":"東京都","city":"狛江市","address":"狛江市和泉本町4-7-35","lat":35.642112,"lon":139.56984},{"name":"狛江子どもの家","province":"東京都","city":"狛江市","address":"狛江市和泉本町1-36-4","lat":35.636205,"lon":139.577915},{"name":"いずみ保育園","province":"東京都","city":"狛江市","address":"狛江市岩戸北1-1-12","lat":35.635774,"lon":139.579845},{"name":"アスク岩戸北保育園","province":"東京都","city":"狛江市","address":"狛江市岩戸北3-3-23","lat":35.634341,"lon":139.582651},{"name":"駄倉保育園","province":"東京都","city":"狛江市","address":"狛江市岩戸北3-20-2","lat":35.632894,"lon":139.58164},{"name":"ベネッセ狛江南保育園","province":"東京都","city":"狛江市","address":"狛江市岩戸北3-23-8","lat":35.63228,"lon":139.582851},{"name":"多摩川保育園","province":"東京都","city":"狛江市","address":"狛江市西和泉1-5-1","lat":35.640415,"lon":139.563477},{"name":"グローバルキッズ狛江園","province":"東京都","city":"狛江市","address":"狛江市中和泉3-19-14","lat":35.63551,"lon":139.567263},{"name":"めぐみの森保育園","province":"東京都","city":"狛江市","address":"狛江市中和泉3-12-6","lat":35.636863,"lon":139.570504},{"name":"狛江ちとせ保育園","province":"東京都","city":"狛江市","address":"狛江市東和泉1-35-10","lat":35.629517,"lon":139.575646},{"name":"虹のひかり保育園","province":"東京都","city":"狛江市","address":"狛江市東和泉1-32-18","lat":35.630397,"lon":139.576365},{"name":"ぎんきょう保育園","province":"東京都","city":"狛江市","address":"狛江市東和泉1-34-25","lat":35.629603,"lon":139.576971},{"name":"駒井保育園","province":"東京都","city":"狛江市","address":"狛江市駒井町2-28-6","lat":35.62441,"lon":139.587573},{"name":"駒井町みんなの家","province":"東京都","city":"狛江市","address":"狛江市駒井町3-36-1","lat":35.623085,"lon":139.589087},{"name":"パイオニアキッズ西野川園","province":"東京都","city":"狛江市","address":"狛江市西野川2-4-15","lat":35.644009,"lon":139.575034},{"name":"狛江保育園","province":"東京都","city":"狛江市","address":"狛江市西野川4-12-1","lat":35.647061,"lon":139.572648},{"name":"三島保育園","province":"東京都","city":"狛江市","address":"狛江市東野川1-32-2","lat":35.64189,"lon":139.582914},{"name":"東野川保育園みんなの家","province":"東京都","city":"狛江市","address":"狛江市東野川4-9-7","lat":35.644812,"lon":139.583536},{"name":"藤塚保育園","province":"東京都","city":"狛江市","address":"狛江市和泉本町4-7-35","lat":35.642112,"lon":139.56984},{"name":"狛江子どもの家","province":"東京都","city":"狛江市","address":"狛江市和泉本町1-36-4","lat":35.636205,"lon":139.577915},{"name":"いずみ保育園","province":"東京都","city":"狛江市","address":"狛江市岩戸北1-1-12","lat":35.635774,"lon":139.579845},{"name":"アスク岩戸北保育園","province":"東京都","city":"狛江市","address":"狛江市岩戸北3-3-23","lat":35.634341,"lon":139.582651},{"name":"駄倉保育園","province":"東京都","city":"狛江市","address":"狛江市岩戸北3-20-2","lat":35.632894,"lon":139.58164},{"name":"ベネッセ狛江南保育園","province":"東京都","city":"狛江市","address":"狛江市岩戸北3-23-8","lat":35.63228,"lon":139.582851},{"name":"多摩川保育園","province":"東京都","city":"狛江市","address":"狛江市西和泉1-5-1","lat":35.640415,"lon":139.563477},{"name":"グローバルキッズ狛江園","province":"東京都","city":"狛江市","address":"狛江市中和泉3-19-14","lat":35.63551,"lon":139.567263},{"name":"めぐみの森保育園","province":"東京都","city":"狛江市","address":"狛江市中和泉3-12-6","lat":35.636863,"lon":139.570504},{"name":"狛江ちとせ保育園","province":"東京都","city":"狛江市","address":"狛江市東和泉1-35-10","lat":35.629517,"lon":139.575646},{"name":"虹のひかり保育園","province":"東京都","city":"狛江市","address":"狛江市東和泉1-32-18","lat":35.630397,"lon":139.576365},{"name":"ぎんきょう保育園","province":"東京都","city":"狛江市","address":"狛江市東和泉1-34-25","lat":35.629603,"lon":139.576971},{"name":"駒井保育園","province":"東京都","city":"狛江市","address":"狛江市駒井町2-28-6","lat":35.62441,"lon":139.587573},{"name":"駒井町みんなの家","province":"東京都","city":"狛江市","address":"狛江市駒井町3-36-1","lat":35.623085,"lon":139.589087},{"name":"パイオニアキッズ西野川園","province":"東京都","city":"狛江市","address":"狛江市西野川2-4-15","lat":35.644009,"lon":139.575034},{"name":"狛江保育園","province":"東京都","city":"狛江市","address":"狛江市西野川4-12-1","lat":35.647061,"lon":139.572648},{"name":"三島保育園","province":"東京都","city":"狛江市","address":"狛江市東野川1-32-2","lat":35.64189,"lon":139.582914},{"name":"東野川保育園みんなの家","province":"東京都","city":"狛江市","address":"狛江市東野川4-9-7","lat":35.644812,"lon":139.583536},{"name":"藤塚保育園","province":"東京都","city":"狛江市","address":"狛江市和泉本町4-7-35","lat":35.642112,"lon":139.56984},{"name":"狛江子どもの家","province":"東京都","city":"狛江市","address":"狛江市和泉本町1-36-4","lat":35.636205,"lon":139.577915},{"name":"いずみ保育園","province":"東京都","city":"狛江市","address":"狛江市岩戸北1-1-12","lat":35.635774,"lon":139.579845},{"name":"アスク岩戸北保育園","province":"東京都","city":"狛江市","address":"狛江市岩戸北3-3-23","lat":35.634341,"lon":139.582651},{"name":"駄倉保育園","province":"東京都","city":"狛江市","address":"狛江市岩戸北3-20-2","lat":35.632894,"lon":139.58164},{"name":"ベネッセ狛江南保育園","province":"東京都","city":"狛江市","address":"狛江市岩戸北3-23-8","lat":35.63228,"lon":139.582851},{"name":"多摩川保育園","province":"東京都","city":"狛江市","address":"狛江市西和泉1-5-1","lat":35.640415,"lon":139.563477},{"name":"グローバルキッズ狛江園","province":"東京都","city":"狛江市","address":"狛江市中和泉3-19-14","lat":35.63551,"lon":139.567263},{"name":"めぐみの森保育園","province":"東京都","city":"狛江市","address":"狛江市中和泉3-12-6","lat":35.636863,"lon":139.570504},{"name":"狛江ちとせ保育園","province":"東京都","city":"狛江市","address":"狛江市東和泉1-35-10","lat":35.629517,"lon":139.575646},{"name":"虹のひかり保育園","province":"東京都","city":"狛江市","address":"狛江市東和泉1-32-18","lat":35.630397,"lon":139.576365},{"name":"ぎんきょう保育園","province":"東京都","city":"狛江市","address":"狛江市東和泉1-34-25","lat":35.629603,"lon":139.576971},{"name":"駒井保育園","province":"東京都","city":"狛江市","address":"狛江市駒井町2-28-6","lat":35.62441,"lon":139.587573},{"name":"駒井町みんなの家","province":"東京都","city":"狛江市","address":"狛江市駒井町3-36-1","lat":35.623085,"lon":139.589087},{"name":"パイオニアキッズ西野川園","province":"東京都","city":"狛江市","address":"狛江市西野川2-4-15","lat":35.644009,"lon":139.575034},{"name":"狛江保育園","province":"東京都","city":"狛江市","address":"狛江市西野川4-12-1","lat":35.647061,"lon":139.572648},{"name":"三島保育園","province":"東京都","city":"狛江市","address":"狛江市東野川1-32-2","lat":35.64189,"lon":139.582914},{"name":"東野川保育園みんなの家","province":"東京都","city":"狛江市","address":"狛江市東野川4-9-7","lat":35.644812,"lon":139.583536},{"name":"藤塚保育園","province":"東京都","city":"狛江市","address":"狛江市和泉本町4-7-35","lat":35.642112,"lon":139.56984},{"name":"狛江子どもの家","province":"東京都","city":"狛江市","address":"狛江市和泉本町1-36-4","lat":35.636205,"lon":139.577915},{"name":"いずみ保育園","province":"東京都","city":"狛江市","address":"狛江市岩戸北1-1-12","lat":35.635774,"lon":139.579845},{"name":"アスク岩戸北保育園","province":"東京都","city":"狛江市","address":"狛江市岩戸北3-3-23","lat":35.634341,"lon":139.582651},{"name":"駄倉保育園","province":"東京都","city":"狛江市","address":"狛江市岩戸北3-20-2","lat":35.632894,"lon":139.58164},{"name":"ベネッセ狛江南保育園","province":"東京都","city":"狛江市","address":"狛江市岩戸北3-23-8","lat":35.63228,"lon":139.582851},{"name":"多摩川保育園","province":"東京都","city":"狛江市","address":"狛江市西和泉1-5-1","lat":35.640415,"lon":139.563477},{"name":"グローバルキッズ狛江園","province":"東京都","city":"狛江市","address":"狛江市中和泉3-19-14","lat":35.63551,"lon":139.567263},{"name":"めぐみの森保育園","province":"東京都","city":"狛江市","address":"狛江市中和泉3-12-6","lat":35.636863,"lon":139.570504},{"name":"狛江ちとせ保育園","province":"東京都","city":"狛江市","address":"狛江市東和泉1-35-10","lat":35.629517,"lon":139.575646},{"name":"虹のひかり保育園","province":"東京都","city":"狛江市","address":"狛江市東和泉1-32-18","lat":35.630397,"lon":139.576365},{"name":"ぎんきょう保育園","province":"東京都","city":"狛江市","address":"狛江市東和泉1-34-25","lat":35.629603,"lon":139.576971},{"name":"駒井保育園","province":"東京都","city":"狛江市","address":"狛江市駒井町2-28-6","lat":35.62441,"lon":139.587573},{"name":"駒井町みんなの家","province":"東京都","city":"狛江市","address":"狛江市駒井町3-36-1","lat":35.623085,"lon":139.589087},{"name":"パイオニアキッズ西野川園","province":"東京都","city":"狛江市","address":"狛江市西野川2-4-15","lat":35.644009,"lon":139.575034},{"name":"狛江保育園","province":"東京都","city":"狛江市","address":"狛江市西野川4-12-1","lat":35.647061,"lon":139.572648},{"name":"三島保育園","province":"東京都","city":"狛江市","address":"狛江市東野川1-32-2","lat":35.64189,"lon":139.582914},{"name":"東野川保育園みんなの家","province":"東京都","city":"狛江市","address":"狛江市東野川4-9-7","lat":35.644812,"lon":139.583536},{"name":"藤塚保育園","province":"東京都","city":"狛江市","address":"狛江市和泉本町4-7-35","lat":35.642112,"lon":139.56984},{"name":"狛江子どもの家","province":"東京都","city":"狛江市","address":"狛江市和泉本町1-36-4","lat":35.636205,"lon":139.577915},{"name":"いずみ保育園","province":"東京都","city":"狛江市","address":"狛江市岩戸北1-1-12","lat":35.635774,"lon":139.579845},{"name":"アスク岩戸北保育園","province":"東京都","city":"狛江市","address":"狛江市岩戸北3-3-23","lat":35.634341,"lon":139.582651},{"name":"駄倉保育園","province":"東京都","city":"狛江市","address":"狛江市岩戸北3-20-2","lat":35.632894,"lon":139.58164},{"name":"ベネッセ狛江南保育園","province":"東京都","city":"狛江市","address":"狛江市岩戸北3-23-8","lat":35.63228,"lon":139.582851},{"name":"多摩川保育園","province":"東京都","city":"狛江市","address":"狛江市西和泉1-5-1","lat":35.640415,"lon":139.563477},{"name":"グローバルキッズ狛江園","province":"東京都","city":"狛江市","address":"狛江市中和泉3-19-14","lat":35.63551,"lon":139.567263},{"name":"めぐみの森保育園","province":"東京都","city":"狛江市","address":"狛江市中和泉3-12-6","lat":35.636863,"lon":139.570504},{"name":"狛江ちとせ保育園","province":"東京都","city":"狛江市","address":"狛江市東和泉1-35-10","lat":35.629517,"lon":139.575646},{"name":"虹のひかり保育園","province":"東京都","city":"狛江市","address":"狛江市東和泉1-32-18","lat":35.630397,"lon":139.576365},{"name":"ぎんきょう保育園","province":"東京都","city":"狛江市","address":"狛江市東和泉1-34-25","lat":35.629603,"lon":139.576971},{"name":"駒井保育園","province":"東京都","city":"狛江市","address":"狛江市駒井町2-28-6","lat":35.62441,"lon":139.587573},{"name":"駒井町みんなの家","province":"東京都","city":"狛江市","address":"狛江市駒井町3-36-1","lat":35.623085,"lon":139.589087},{"name":"パイオニアキッズ西野川園","province":"東京都","city":"狛江市","address":"狛江市西野川2-4-15","lat":35.644009,"lon":139.575034},{"name":"狛江保育園","province":"東京都","city":"狛江市","address":"狛江市西野川4-12-1","lat":35.647061,"lon":139.572648},{"name":"三島保育園","province":"東京都","city":"狛江市","address":"狛江市東野川1-32-2","lat":35.64189,"lon":139.582914},{"name":"東野川保育園みんなの家","province":"東京都","city":"狛江市","address":"狛江市東野川4-9-7","lat":35.644812,"lon":139.583536},{"name":"藤塚保育園","province":"東京都","city":"狛江市","address":"狛江市和泉本町4-7-35","lat":35.642112,"lon":139.56984},{"name":"狛江子どもの家","province":"東京都","city":"狛江市","address":"狛江市和泉本町1-36-4","lat":35.636205,"lon":139.577915},{"name":"いずみ保育園","province":"東京都","city":"狛江市","address":"狛江市岩戸北1-1-12","lat":35.635774,"lon":139.579845},{"name":"アスク岩戸北保育園","province":"東京都","city":"狛江市","address":"狛江市岩戸北3-3-23","lat":35.634341,"lon":139.582651},{"name":"駄倉保育園","province":"東京都","city":"狛江市","address":"狛江市岩戸北3-20-2","lat":35.632894,"lon":139.58164},{"name":"ベネッセ狛江南保育園","province":"東京都","city":"狛江市","address":"狛江市岩戸北3-23-8","lat":35.63228,"lon":139.582851},{"name":"多摩川保育園","province":"東京都","city":"狛江市","address":"狛江市西和泉1-5-1","lat":35.640415,"lon":139.563477},{"name":"グローバルキッズ狛江園","province":"東京都","city":"狛江市","address":"狛江市中和泉3-19-14","lat":35.63551,"lon":139.567263},{"name":"めぐみの森保育園","province":"東京都","city":"狛江市","address":"狛江市中和泉3-12-6","lat":35.636863,"lon":139.570504},{"name":"狛江ちとせ保育園","province":"東京都","city":"狛江市","address":"狛江市東和泉1-35-10","lat":35.629517,"lon":139.575646},{"name":"虹のひかり保育園","province":"東京都","city":"狛江市","address":"狛江市東和泉1-32-18","lat":35.630397,"lon":139.576365},{"name":"ぎんきょう保育園","province":"東京都","city":"狛江市","address":"狛江市東和泉1-34-25","lat":35.629603,"lon":139.576971},{"name":"駒井保育園","province":"東京都","city":"狛江市","address":"狛江市駒井町2-28-6","lat":35.62441,"lon":139.587573},{"name":"駒井町みんなの家","province":"東京都","city":"狛江市","address":"狛江市駒井町3-36-1","lat":35.623085,"lon":139.589087},{"name":"パイオニアキッズ西野川園","province":"東京都","city":"狛江市","address":"狛江市西野川2-4-15","lat":35.644009,"lon":139.575034},{"name":"狛江保育園","province":"東京都","city":"狛江市","address":"狛江市西野川4-12-1","lat":35.647061,"lon":139.572648},{"name":"三島保育園","province":"東京都","city":"狛江市","address":"狛江市東野川1-32-2","lat":35.64189,"lon":139.582914},{"name":"東野川保育園みんなの家","province":"東京都","city":"狛江市","address":"狛江市東野川4-9-7","lat":35.644812,"lon":139.583536},{"name":"藤塚保育園","province":"東京都","city":"狛江市","address":"狛江市和泉本町4-7-35","lat":35.642112,"lon":139.56984},{"name":"狛江子どもの家","province":"東京都","city":"狛江市","address":"狛江市和泉本町1-36-4","lat":35.636205,"lon":139.577915},{"name":"いずみ保育園","province":"東京都","city":"狛江市","address":"狛江市岩戸北1-1-12","lat":35.635774,"lon":139.579845},{"name":"アスク岩戸北保育園","province":"東京都","city":"狛江市","address":"狛江市岩戸北3-3-23","lat":35.634341,"lon":139.582651},{"name":"駄倉保育園","province":"東京都","city":"狛江市","address":"狛江市岩戸北3-20-2","lat":35.632894,"lon":139.58164},{"name":"ベネッセ狛江南保育園","province":"東京都","city":"狛江市","address":"狛江市岩戸北3-23-8","lat":35.63228,"lon":139.582851},{"name":"多摩川保育園","province":"東京都","city":"狛江市","address":"狛江市西和泉1-5-1","lat":35.640415,"lon":139.563477},{"name":"グローバルキッズ狛江園","province":"東京都","city":"狛江市","address":"狛江市中和泉3-19-14","lat":35.63551,"lon":139.567263},{"name":"めぐみの森保育園","province":"東京都","city":"狛江市","address":"狛江市中和泉3-12-6","lat":35.636863,"lon":139.570504},{"name":"狛江ちとせ保育園","province":"東京都","city":"狛江市","address":"狛江市東和泉1-35-10","lat":35.629517,"lon":139.575646},{"name":"虹のひかり保育園","province":"東京都","city":"狛江市","address":"狛江市東和泉1-32-18","lat":35.630397,"lon":139.576365},{"name":"ぎんきょう保育園","province":"東京都","city":"狛江市","address":"狛江市東和泉1-34-25","lat":35.629603,"lon":139.576971},{"name":"駒井保育園","province":"東京都","city":"狛江市","address":"狛江市駒井町2-28-6","lat":35.62441,"lon":139.587573},{"name":"駒井町みんなの家","province":"東京都","city":"狛江市","address":"狛江市駒井町3-36-1","lat":35.623085,"lon":139.589087},{"name":"パイオニアキッズ西野川園","province":"東京都","city":"狛江市","address":"狛江市西野川2-4-15","lat":35.644009,"lon":139.575034},{"name":"狛江保育園","province":"東京都","city":"狛江市","address":"狛江市西野川4-12-1","lat":35.647061,"lon":139.572648},{"name":"三島保育園","province":"東京都","city":"狛江市","address":"狛江市東野川1-32-2","lat":35.64189,"lon":139.582914},{"name":"東野川保育園みんなの家","province":"東京都","city":"狛江市","address":"狛江市東野川4-9-7","lat":35.644812,"lon":139.583536},{"name":"藤塚保育園","province":"東京都","city":"狛江市","address":"狛江市和泉本町4-7-35","lat":35.642112,"lon":139.56984},{"name":"狛江子どもの家","province":"東京都","city":"狛江市","address":"狛江市和泉本町1-36-4","lat":35.636205,"lon":139.577915},{"name":"いずみ保育園","province":"東京都","city":"狛江市","address":"狛江市岩戸北1-1-12","lat":35.635774,"lon":139.579845},{"name":"アスク岩戸北保育園","province":"東京都","city":"狛江市","address":"狛江市岩戸北3-3-23","lat":35.634341,"lon":139.582651},{"name":"駄倉保育園","province":"東京都","city":"狛江市","address":"狛江市岩戸北3-20-2","lat":35.632894,"lon":139.58164},{"name":"ベネッセ狛江南保育園","province":"東京都","city":"狛江市","address":"狛江市岩戸北3-23-8","lat":35.63228,"lon":139.582851},{"name":"多摩川保育園","province":"東京都","city":"狛江市","address":"狛江市西和泉1-5-1","lat":35.640415,"lon":139.563477},{"name":"グローバルキッズ狛江園","province":"東京都","city":"狛江市","address":"狛江市中和泉3-19-14","lat":35.63551,"lon":139.567263},{"name":"めぐみの森保育園","province":"東京都","city":"狛江市","address":"狛江市中和泉3-12-6","lat":35.636863,"lon":139.570504},{"name":"狛江ちとせ保育園","province":"東京都","city":"狛江市","address":"狛江市東和泉1-35-10","lat":35.629517,"lon":139.575646},{"name":"虹のひかり保育園","province":"東京都","city":"狛江市","address":"狛江市東和泉1-32-18","lat":35.630397,"lon":139.576365},{"name":"ぎんきょう保育園","province":"東京都","city":"狛江市","address":"狛江市東和泉1-34-25","lat":35.629603,"lon":139.576971},{"name":"駒井保育園","province":"東京都","city":"狛江市","address":"狛江市駒井町2-28-6","lat":35.62441,"lon":139.587573},{"name":"駒井町みんなの家","province":"東京都","city":"狛江市","address":"狛江市駒井町3-36-1","lat":35.623085,"lon":139.589087},{"name":"パイオニアキッズ西野川園","province":"東京都","city":"狛江市","address":"狛江市西野川2-4-15","lat":35.644009,"lon":139.575034},{"name":"狛江保育園","province":"東京都","city":"狛江市","address":"狛江市西野川4-12-1","lat":35.647061,"lon":139.572648},{"name":"三島保育園","province":"東京都","city":"狛江市","address":"狛江市東野川1-32-2","lat":35.64189,"lon":139.582914},{"name":"東野川保育園みんなの家","province":"東京都","city":"狛江市","address":"狛江市東野川4-9-7","lat":35.644812,"lon":139.583536},{"name":"藤塚保育園","province":"東京都","city":"狛江市","address":"狛江市和泉本町4-7-35","lat":35.642112,"lon":139.56984},{"name":"狛江子どもの家","province":"東京都","city":"狛江市","address":"狛江市和泉本町1-36-4","lat":35.636205,"lon":139.577915},{"name":"いずみ保育園","province":"東京都","city":"狛江市","address":"狛江市岩戸北1-1-12","lat":35.635774,"lon":139.579845},{"name":"アスク岩戸北保育園","province":"東京都","city":"狛江市","address":"狛江市岩戸北3-3-23","lat":35.634341,"lon":139.582651},{"name":"駄倉保育園","province":"東京都","city":"狛江市","address":"狛江市岩戸北3-20-2","lat":35.632894,"lon":139.58164},{"name":"ベネッセ狛江南保育園","province":"東京都","city":"狛江市","address":"狛江市岩戸北3-23-8","lat":35.63228,"lon":139.582851},{"name":"多摩川保育園","province":"東京都","city":"狛江市","address":"狛江市西和泉1-5-1","lat":35.640415,"lon":139.563477},{"name":"グローバルキッズ狛江園","province":"東京都","city":"狛江市","address":"狛江市中和泉3-19-14","lat":35.63551,"lon":139.567263},{"name":"めぐみの森保育園","province":"東京都","city":"狛江市","address":"狛江市中和泉3-12-6","lat":35.636863,"lon":139.570504},{"name":"狛江ちとせ保育園","province":"東京都","city":"狛江市","address":"狛江市東和泉1-35-10","lat":35.629517,"lon":139.575646},{"name":"虹のひかり保育園","province":"東京都","city":"狛江市","address":"狛江市東和泉1-32-18","lat":35.630397,"lon":139.576365},{"name":"ぎんきょう保育園","province":"東京都","city":"狛江市","address":"狛江市東和泉1-34-25","lat":35.629603,"lon":139.576971},{"name":"駒井保育園","province":"東京都","city":"狛江市","address":"狛江市駒井町2-28-6","lat":35.62441,"lon":139.587573},{"name":"駒井町みんなの家","province":"東京都","city":"狛江市","address":"狛江市駒井町3-36-1","lat":35.623085,"lon":139.589087},{"name":"パイオニアキッズ西野川園","province":"東京都","city":"狛江市","address":"狛江市西野川2-4-15","lat":35.644009,"lon":139.575034},{"name":"狛江保育園","province":"東京都","city":"狛江市","address":"狛江市西野川4-12-1","lat":35.647061,"lon":139.572648},{"name":"三島保育園","province":"東京都","city":"狛江市","address":"狛江市東野川1-32-2","lat":35.64189,"lon":139.582914},{"name":"東野川保育園みんなの家","province":"東京都","city":"狛江市","address":"狛江市東野川4-9-7","lat":35.644812,"lon":139.583536},{"name":"藤塚保育園","province":"東京都","city":"狛江市","address":"狛江市和泉本町4-7-35","lat":35.642112,"lon":139.56984},{"name":"狛江子どもの家","province":"東京都","city":"狛江市","address":"狛江市和泉本町1-36-4","lat":35.636205,"lon":139.577915},{"name":"いずみ保育園","province":"東京都","city":"狛江市","address":"狛江市岩戸北1-1-12","lat":35.635774,"lon":139.579845},{"name":"アスク岩戸北保育園","province":"東京都","city":"狛江市","address":"狛江市岩戸北3-3-23","lat":35.634341,"lon":139.582651},{"name":"駄倉保育園","province":"東京都","city":"狛江市","address":"狛江市岩戸北3-20-2","lat":35.632894,"lon":139.58164},{"name":"ベネッセ狛江南保育園","province":"東京都","city":"狛江市","address":"狛江市岩戸北3-23-8","lat":35.63228,"lon":139.582851},{"name":"多摩川保育園","province":"東京都","city":"狛江市","address":"狛江市西和泉1-5-1","lat":35.640415,"lon":139.563477},{"name":"グローバルキッズ狛江園","province":"東京都","city":"狛江市","address":"狛江市中和泉3-19-14","lat":35.63551,"lon":139.567263},{"name":"めぐみの森保育園","province":"東京都","city":"狛江市","address":"狛江市中和泉3-12-6","lat":35.636863,"lon":139.570504},{"name":"狛江ちとせ保育園","province":"東京都","city":"狛江市","address":"狛江市東和泉1-35-10","lat":35.629517,"lon":139.575646},{"name":"虹のひかり保育園","province":"東京都","city":"狛江市","address":"狛江市東和泉1-32-18","lat":35.630397,"lon":139.576365},{"name":"ぎんきょう保育園","province":"東京都","city":"狛江市","address":"狛江市東和泉1-34-25","lat":35.629603,"lon":139.576971},{"name":"駒井保育園","province":"東京都","city":"狛江市","address":"狛江市駒井町2-28-6","lat":35.62441,"lon":139.587573},{"name":"駒井町みんなの家","province":"東京都","city":"狛江市","address":"狛江市駒井町3-36-1","lat":35.623085,"lon":139.589087},{"name":"パイオニアキッズ西野川園","province":"東京都","city":"狛江市","address":"狛江市西野川2-4-15","lat":35.644009,"lon":139.575034},{"name":"狛江保育園","province":"東京都","city":"狛江市","address":"狛江市西野川4-12-1","lat":35.647061,"lon":139.572648},{"name":"三島保育園","province":"東京都","city":"狛江市","address":"狛江市東野川1-32-2","lat":35.64189,"lon":139.582914},{"name":"東野川保育園みんなの家","province":"東京都","city":"狛江市","address":"狛江市東野川4-9-7","lat":35.644812,"lon":139.583536},{"name":"藤塚保育園","province":"東京都","city":"狛江市","address":"狛江市和泉本町4-7-35","lat":35.642112,"lon":139.56984},{"name":"狛江子どもの家","province":"東京都","city":"狛江市","address":"狛江市和泉本町1-36-4","lat":35.636205,"lon":139.577915},{"name":"いずみ保育園","province":"東京都","city":"狛江市","address":"狛江市岩戸北1-1-12","lat":35.635774,"lon":139.579845},{"name":"アスク岩戸北保育園","province":"東京都","city":"狛江市","address":"狛江市岩戸北3-3-23","lat":35.634341,"lon":139.582651},{"name":"駄倉保育園","province":"東京都","city":"狛江市","address":"狛江市岩戸北3-20-2","lat":35.632894,"lon":139.58164},{"name":"ベネッセ狛江南保育園","province":"東京都","city":"狛江市","address":"狛江市岩戸北3-23-8","lat":35.63228,"lon":139.582851},{"name":"多摩川保育園","province":"東京都","city":"狛江市","address":"狛江市西和泉1-5-1","lat":35.640415,"lon":139.563477},{"name":"グローバルキッズ狛江園","province":"東京都","city":"狛江市","address":"狛江市中和泉3-19-14","lat":35.63551,"lon":139.567263},{"name":"めぐみの森保育園","province":"東京都","city":"狛江市","address":"狛江市中和泉3-12-6","lat":35.636863,"lon":139.570504},{"name":"狛江ちとせ保育園","province":"東京都","city":"狛江市","address":"狛江市東和泉1-35-10","lat":35.629517,"lon":139.575646},{"name":"虹のひかり保育園","province":"東京都","city":"狛江市","address":"狛江市東和泉1-32-18","lat":35.630397,"lon":139.576365},{"name":"ぎんきょう保育園","province":"東京都","city":"狛江市","address":"狛江市東和泉1-34-25","lat":35.629603,"lon":139.576971},{"name":"駒井保育園","province":"東京都","city":"狛江市","address":"狛江市駒井町2-28-6","lat":35.62441,"lon":139.587573},{"name":"駒井町みんなの家","province":"東京都","city":"狛江市","address":"狛江市駒井町3-36-1","lat":35.623085,"lon":139.589087},{"name":"パイオニアキッズ西野川園","province":"東京都","city":"狛江市","address":"狛江市西野川2-4-15","lat":35.644009,"lon":139.575034},{"name":"狛江保育園","province":"東京都","city":"狛江市","address":"狛江市西野川4-12-1","lat":35.647061,"lon":139.572648},{"name":"三島保育園","province":"東京都","city":"狛江市","address":"狛江市東野川1-32-2","lat":35.64189,"lon":139.582914},{"name":"東野川保育園みんなの家","province":"東京都","city":"狛江市","address":"狛江市東野川4-9-7","lat":35.644812,"lon":139.583536},{"name":"藤塚保育園","province":"東京都","city":"狛江市","address":"狛江市和泉本町4-7-35","lat":35.642112,"lon":139.56984},{"name":"狛江子どもの家","province":"東京都","city":"狛江市","address":"狛江市和泉本町1-36-4","lat":35.636205,"lon":139.577915},{"name":"いずみ保育園","province":"東京都","city":"狛江市","address":"狛江市岩戸北1-1-12","lat":35.635774,"lon":139.579845},{"name":"アスク岩戸北保育園","province":"東京都","city":"狛江市","address":"狛江市岩戸北3-3-23","lat":35.634341,"lon":139.582651},{"name":"駄倉保育園","province":"東京都","city":"狛江市","address":"狛江市岩戸北3-20-2","lat":35.632894,"lon":139.58164},{"name":"ベネッセ狛江南保育園","province":"東京都","city":"狛江市","address":"狛江市岩戸北3-23-8","lat":35.63228,"lon":139.582851},{"name":"多摩川保育園","province":"東京都","city":"狛江市","address":"狛江市西和泉1-5-1","lat":35.640415,"lon":139.563477},{"name":"グローバルキッズ狛江園","province":"東京都","city":"狛江市","address":"狛江市中和泉3-19-14","lat":35.63551,"lon":139.567263},{"name":"めぐみの森保育園","province":"東京都","city":"狛江市","address":"狛江市中和泉3-12-6","lat":35.636863,"lon":139.570504},{"name":"狛江ちとせ保育園","province":"東京都","city":"狛江市","address":"狛江市東和泉1-35-10","lat":35.629517,"lon":139.575646},{"name":"虹のひかり保育園","province":"東京都","city":"狛江市","address":"狛江市東和泉1-32-18","lat":35.630397,"lon":139.576365},{"name":"ぎんきょう保育園","province":"東京都","city":"狛江市","address":"狛江市東和泉1-34-25","lat":35.629603,"lon":139.576971},{"name":"駒井保育園","province":"東京都","city":"狛江市","address":"狛江市駒井町2-28-6","lat":35.62441,"lon":139.587573},{"name":"駒井町みんなの家","province":"東京都","city":"狛江市","address":"狛江市駒井町3-36-1","lat":35.623085,"lon":139.589087},{"name":"パイオニアキッズ西野川園","province":"東京都","city":"狛江市","address":"狛江市西野川2-4-15","lat":35.644009,"lon":139.575034},{"name":"狛江保育園","province":"東京都","city":"狛江市","address":"狛江市西野川4-12-1","lat":35.647061,"lon":139.572648},{"name":"三島保育園","province":"東京都","city":"狛江市","address":"狛江市東野川1-32-2","lat":35.64189,"lon":139.582914},{"name":"東野川保育園みんなの家","province":"東京都","city":"狛江市","address":"狛江市東野川4-9-7","lat":35.644812,"lon":139.583536},{"name":"藤塚保育園","province":"東京都","city":"狛江市","address":"狛江市和泉本町4-7-35","lat":35.642112,"lon":139.56984},{"name":"狛江子どもの家","province":"東京都","city":"狛江市","address":"狛江市和泉本町1-36-4","lat":35.636205,"lon":139.577915},{"name":"いずみ保育園","province":"東京都","city":"狛江市","address":"狛江市岩戸北1-1-12","lat":35.635774,"lon":139.579845},{"name":"アスク岩戸北保育園","province":"東京都","city":"狛江市","address":"狛江市岩戸北3-3-23","lat":35.634341,"lon":139.582651},{"name":"駄倉保育園","province":"東京都","city":"狛江市","address":"狛江市岩戸北3-20-2","lat":35.632894,"lon":139.58164},{"name":"ベネッセ狛江南保育園","province":"東京都","city":"狛江市","address":"狛江市岩戸北3-23-8","lat":35.63228,"lon":139.582851},{"name":"多摩川保育園","province":"東京都","city":"狛江市","address":"狛江市西和泉1-5-1","lat":35.640415,"lon":139.563477},{"name":"グローバルキッズ狛江園","province":"東京都","city":"狛江市","address":"狛江市中和泉3-19-14","lat":35.63551,"lon":139.567263},{"name":"めぐみの森保育園","province":"東京都","city":"狛江市","address":"狛江市中和泉3-12-6","lat":35.636863,"lon":139.570504},{"name":"狛江ちとせ保育園","province":"東京都","city":"狛江市","address":"狛江市東和泉1-35-10","lat":35.629517,"lon":139.575646},{"name":"虹のひかり保育園","province":"東京都","city":"狛江市","address":"狛江市東和泉1-32-18","lat":35.630397,"lon":139.576365},{"name":"ぎんきょう保育園","province":"東京都","city":"狛江市","address":"狛江市東和泉1-34-25","lat":35.629603,"lon":139.576971},{"name":"駒井保育園","province":"東京都","city":"狛江市","address":"狛江市駒井町2-28-6","lat":35.62441,"lon":139.587573},{"name":"駒井町みんなの家","province":"東京都","city":"狛江市","address":"狛江市駒井町3-36-1","lat":35.623085,"lon":139.589087},{"name":"パイオニアキッズ西野川園","province":"東京都","city":"狛江市","address":"狛江市西野川2-4-15","lat":35.644009,"lon":139.575034},{"name":"狛江保育園","province":"東京都","city":"狛江市","address":"狛江市西野川4-12-1","lat":35.647061,"lon":139.572648},{"name":"三島保育園","province":"東京都","city":"狛江市","address":"狛江市東野川1-32-2","lat":35.64189,"lon":139.582914},{"name":"東野川保育園みんなの家","province":"東京都","city":"狛江市","address":"狛江市東野川4-9-7","lat":35.644812,"lon":139.583536},{"name":"藤塚保育園","province":"東京都","city":"狛江市","address":"狛江市和泉本町4-7-35","lat":35.642112,"lon":139.56984},{"name":"狛江子どもの家","province":"東京都","city":"狛江市","address":"狛江市和泉本町1-36-4","lat":35.636205,"lon":139.577915},{"name":"いずみ保育園","province":"東京都","city":"狛江市","address":"狛江市岩戸北1-1-12","lat":35.635774,"lon":139.579845},{"name":"アスク岩戸北保育園","province":"東京都","city":"狛江市","address":"狛江市岩戸北3-3-23","lat":35.634341,"lon":139.582651},{"name":"駄倉保育園","province":"東京都","city":"狛江市","address":"狛江市岩戸北3-20-2","lat":35.632894,"lon":139.58164},{"name":"ベネッセ狛江南保育園","province":"東京都","city":"狛江市","address":"狛江市岩戸北3-23-8","lat":35.63228,"lon":139.582851},{"name":"多摩川保育園","province":"東京都","city":"狛江市","address":"狛江市西和泉1-5-1","lat":35.640415,"lon":139.563477},{"name":"グローバルキッズ狛江園","province":"東京都","city":"狛江市","address":"狛江市中和泉3-19-14","lat":35.63551,"lon":139.567263},{"name":"めぐみの森保育園","province":"東京都","city":"狛江市","address":"狛江市中和泉3-12-6","lat":35.636863,"lon":139.570504},{"name":"狛江ちとせ保育園","province":"東京都","city":"狛江市","address":"狛江市東和泉1-35-10","lat":35.629517,"lon":139.575646},{"name":"虹のひかり保育園","province":"東京都","city":"狛江市","address":"狛江市東和泉1-32-18","lat":35.630397,"lon":139.576365},{"name":"ぎんきょう保育園","province":"東京都","city":"狛江市","address":"狛江市東和泉1-34-25","lat":35.629603,"lon":139.576971},{"name":"駒井保育園","province":"東京都","city":"狛江市","address":"狛江市駒井町2-28-6","lat":35.62441,"lon":139.587573},{"name":"駒井町みんなの家","province":"東京都","city":"狛江市","address":"狛江市駒井町3-36-1","lat":35.623085,"lon":139.589087},{"name":"パイオニアキッズ西野川園","province":"東京都","city":"狛江市","address":"狛江市西野川2-4-15","lat":35.644009,"lon":139.575034},{"name":"狛江保育園","province":"東京都","city":"狛江市","address":"狛江市西野川4-12-1","lat":35.647061,"lon":139.572648},{"name":"三島保育園","province":"東京都","city":"狛江市","address":"狛江市東野川1-32-2","lat":35.64189,"lon":139.582914},{"name":"東野川保育園みんなの家","province":"東京都","city":"狛江市","address":"狛江市東野川4-9-7","lat":35.644812,"lon":139.583536},{"name":"藤塚保育園","province":"東京都","city":"狛江市","address":"狛江市和泉本町4-7-35","lat":35.642112,"lon":139.56984},{"name":"狛江子どもの家","province":"東京都","city":"狛江市","address":"狛江市和泉本町1-36-4","lat":35.636205,"lon":139.577915},{"name":"いずみ保育園","province":"東京都","city":"狛江市","address":"狛江市岩戸北1-1-12","lat":35.635774,"lon":139.579845},{"name":"アスク岩戸北保育園","province":"東京都","city":"狛江市","address":"狛江市岩戸北3-3-23","lat":35.634341,"lon":139.582651},{"name":"駄倉保育園","province":"東京都","city":"狛江市","address":"狛江市岩戸北3-20-2","lat":35.632894,"lon":139.58164},{"name":"ベネッセ狛江南保育園","province":"東京都","city":"狛江市","address":"狛江市岩戸北3-23-8","lat":35.63228,"lon":139.582851},{"name":"多摩川保育園","province":"東京都","city":"狛江市","address":"狛江市西和泉1-5-1","lat":35.640415,"lon":139.563477},{"name":"グローバルキッズ狛江園","province":"東京都","city":"狛江市","address":"狛江市中和泉3-19-14","lat":35.63551,"lon":139.567263},{"name":"めぐみの森保育園","province":"東京都","city":"狛江市","address":"狛江市中和泉3-12-6","lat":35.636863,"lon":139.570504},{"name":"狛江ちとせ保育園","province":"東京都","city":"狛江市","address":"狛江市東和泉1-35-10","lat":35.629517,"lon":139.575646},{"name":"虹のひかり保育園","province":"東京都","city":"狛江市","address":"狛江市東和泉1-32-18","lat":35.630397,"lon":139.576365},{"name":"ぎんきょう保育園","province":"東京都","city":"狛江市","address":"狛江市東和泉1-34-25","lat":35.629603,"lon":139.576971},{"name":"駒井保育園","province":"東京都","city":"狛江市","address":"狛江市駒井町2-28-6","lat":35.62441,"lon":139.587573},{"name":"駒井町みんなの家","province":"東京都","city":"狛江市","address":"狛江市駒井町3-36-1","lat":35.623085,"lon":139.589087},{"name":"パイオニアキッズ西野川園","province":"東京都","city":"狛江市","address":"狛江市西野川2-4-15","lat":35.644009,"lon":139.575034},{"name":"狛江保育園","province":"東京都","city":"狛江市","address":"狛江市西野川4-12-1","lat":35.647061,"lon":139.572648},{"name":"三島保育園","province":"東京都","city":"狛江市","address":"狛江市東野川1-32-2","lat":35.64189,"lon":139.582914},{"name":"東野川保育園みんなの家","province":"東京都","city":"狛江市","address":"狛江市東野川4-9-7","lat":35.644812,"lon":139.583536},{"name":"藤塚保育園","province":"東京都","city":"狛江市","address":"狛江市和泉本町4-7-35","lat":35.642112,"lon":139.56984},{"name":"狛江子どもの家","province":"東京都","city":"狛江市","address":"狛江市和泉本町1-36-4","lat":35.636205,"lon":139.577915},{"name":"いずみ保育園","province":"東京都","city":"狛江市","address":"狛江市岩戸北1-1-12","lat":35.635774,"lon":139.579845},{"name":"アスク岩戸北保育園","province":"東京都","city":"狛江市","address":"狛江市岩戸北3-3-23","lat":35.634341,"lon":139.582651},{"name":"駄倉保育園","province":"東京都","city":"狛江市","address":"狛江市岩戸北3-20-2","lat":35.632894,"lon":139.58164},{"name":"ベネッセ狛江南保育園","province":"東京都","city":"狛江市","address":"狛江市岩戸北3-23-8","lat":35.63228,"lon":139.582851},{"name":"多摩川保育園","province":"東京都","city":"狛江市","address":"狛江市西和泉1-5-1","lat":35.640415,"lon":139.563477},{"name":"グローバルキッズ狛江園","province":"東京都","city":"狛江市","address":"狛江市中和泉3-19-14","lat":35.63551,"lon":139.567263},{"name":"めぐみの森保育園","province":"東京都","city":"狛江市","address":"狛江市中和泉3-12-6","lat":35.636863,"lon":139.570504},{"name":"狛江ちとせ保育園","province":"東京都","city":"狛江市","address":"狛江市東和泉1-35-10","lat":35.629517,"lon":139.575646},{"name":"虹のひかり保育園","province":"東京都","city":"狛江市","address":"狛江市東和泉1-32-18","lat":35.630397,"lon":139.576365},{"name":"ぎんきょう保育園","province":"東京都","city":"狛江市","address":"狛江市東和泉1-34-25","lat":35.629603,"lon":139.576971},{"name":"駒井保育園","province":"東京都","city":"狛江市","address":"狛江市駒井町2-28-6","lat":35.62441,"lon":139.587573},{"name":"駒井町みんなの家","province":"東京都","city":"狛江市","address":"狛江市駒井町3-36-1","lat":35.623085,"lon":139.589087},{"name":"パイオニアキッズ西野川園","province":"東京都","city":"狛江市","address":"狛江市西野川2-4-15","lat":35.644009,"lon":139.575034},{"name":"狛江保育園","province":"東京都","city":"狛江市","address":"狛江市西野川4-12-1","lat":35.647061,"lon":139.572648},{"name":"三島保育園","province":"東京都","city":"狛江市","address":"狛江市東野川1-32-2","lat":35.64189,"lon":139.582914},{"name":"東野川保育園みんなの家","province":"東京都","city":"狛江市","address":"狛江市東野川4-9-7","lat":35.644812,"lon":139.583536},{"name":"藤塚保育園","province":"東京都","city":"狛江市","address":"狛江市和泉本町4-7-35","lat":35.642112,"lon":139.56984},{"name":"狛江子どもの家","province":"東京都","city":"狛江市","address":"狛江市和泉本町1-36-4","lat":35.636205,"lon":139.577915},{"name":"いずみ保育園","province":"東京都","city":"狛江市","address":"狛江市岩戸北1-1-12","lat":35.635774,"lon":139.579845},{"name":"アスク岩戸北保育園","province":"東京都","city":"狛江市","address":"狛江市岩戸北3-3-23","lat":35.634341,"lon":139.582651},{"name":"駄倉保育園","province":"東京都","city":"狛江市","address":"狛江市岩戸北3-20-2","lat":35.632894,"lon":139.58164},{"name":"ベネッセ狛江南保育園","province":"東京都","city":"狛江市","address":"狛江市岩戸北3-23-8","lat":35.63228,"lon":139.582851},{"name":"多摩川保育園","province":"東京都","city":"狛江市","address":"狛江市西和泉1-5-1","lat":35.640415,"lon":139.563477},{"name":"グローバルキッズ狛江園","province":"東京都","city":"狛江市","address":"狛江市中和泉3-19-14","lat":35.63551,"lon":139.567263},{"name":"めぐみの森保育園","province":"東京都","city":"狛江市","address":"狛江市中和泉3-12-6","lat":35.636863,"lon":139.570504},{"name":"狛江ちとせ保育園","province":"東京都","city":"狛江市","address":"狛江市東和泉1-35-10","lat":35.629517,"lon":139.575646},{"name":"虹のひかり保育園","province":"東京都","city":"狛江市","address":"狛江市東和泉1-32-18","lat":35.630397,"lon":139.576365},{"name":"ぎんきょう保育園","province":"東京都","city":"狛江市","address":"狛江市東和泉1-34-25","lat":35.629603,"lon":139.576971},{"name":"駒井保育園","province":"東京都","city":"狛江市","address":"狛江市駒井町2-28-6","lat":35.62441,"lon":139.587573},{"name":"駒井町みんなの家","province":"東京都","city":"狛江市","address":"狛江市駒井町3-36-1","lat":35.623085,"lon":139.589087},{"name":"パイオニアキッズ西野川園","province":"東京都","city":"狛江市","address":"狛江市西野川2-4-15","lat":35.644009,"lon":139.575034},{"name":"狛江保育園","province":"東京都","city":"狛江市","address":"狛江市西野川4-12-1","lat":35.647061,"lon":139.572648},{"name":"三島保育園","province":"東京都","city":"狛江市","address":"狛江市東野川1-32-2","lat":35.64189,"lon":139.582914},{"name":"東野川保育園みんなの家","province":"東京都","city":"狛江市","address":"狛江市東野川4-9-7","lat":35.644812,"lon":139.583536},{"name":"藤塚保育園","province":"東京都","city":"狛江市","address":"狛江市和泉本町4-7-35","lat":35.642112,"lon":139.56984},{"name":"狛江子どもの家","province":"東京都","city":"狛江市","address":"狛江市和泉本町1-36-4","lat":35.636205,"lon":139.577915},{"name":"いずみ保育園","province":"東京都","city":"狛江市","address":"狛江市岩戸北1-1-12","lat":35.635774,"lon":139.579845},{"name":"アスク岩戸北保育園","province":"東京都","city":"狛江市","address":"狛江市岩戸北3-3-23","lat":35.634341,"lon":139.582651},{"name":"駄倉保育園","province":"東京都","city":"狛江市","address":"狛江市岩戸北3-20-2","lat":35.632894,"lon":139.58164},{"name":"ベネッセ狛江南保育園","province":"東京都","city":"狛江市","address":"狛江市岩戸北3-23-8","lat":35.63228,"lon":139.582851},{"name":"多摩川保育園","province":"東京都","city":"狛江市","address":"狛江市西和泉1-5-1","lat":35.640415,"lon":139.563477},{"name":"グローバルキッズ狛江園","province":"東京都","city":"狛江市","address":"狛江市中和泉3-19-14","lat":35.63551,"lon":139.567263},{"name":"めぐみの森保育園","province":"東京都","city":"狛江市","address":"狛江市中和泉3-12-6","lat":35.636863,"lon":139.570504},{"name":"狛江ちとせ保育園","province":"東京都","city":"狛江市","address":"狛江市東和泉1-35-10","lat":35.629517,"lon":139.575646},{"name":"虹のひかり保育園","province":"東京都","city":"狛江市","address":"狛江市東和泉1-32-18","lat":35.630397,"lon":139.576365},{"name":"ぎんきょう保育園","province":"東京都","city":"狛江市","address":"狛江市東和泉1-34-25","lat":35.629603,"lon":139.576971},{"name":"駒井保育園","province":"東京都","city":"狛江市","address":"狛江市駒井町2-28-6","lat":35.62441,"lon":139.587573},{"name":"駒井町みんなの家","province":"東京都","city":"狛江市","address":"狛江市駒井町3-36-1","lat":35.623085,"lon":139.589087},{"name":"パイオニアキッズ西野川園","province":"東京都","city":"狛江市","address":"狛江市西野川2-4-15","lat":35.644009,"lon":139.575034},{"name":"狛江保育園","province":"東京都","city":"狛江市","address":"狛江市西野川4-12-1","lat":35.647061,"lon":139.572648},{"name":"三島保育園","province":"東京都","city":"狛江市","address":"狛江市東野川1-32-2","lat":35.64189,"lon":139.582914},{"name":"東野川保育園みんなの家","province":"東京都","city":"狛江市","address":"狛江市東野川4-9-7","lat":35.644812,"lon":139.583536},{"name":"藤塚保育園","province":"東京都","city":"狛江市","address":"狛江市和泉本町4-7-35","lat":35.642112,"lon":139.56984},{"name":"狛江子どもの家","province":"東京都","city":"狛江市","address":"狛江市和泉本町1-36-4","lat":35.636205,"lon":139.577915},{"name":"いずみ保育園","province":"東京都","city":"狛江市","address":"狛江市岩戸北1-1-12","lat":35.635774,"lon":139.579845},{"name":"アスク岩戸北保育園","province":"東京都","city":"狛江市","address":"狛江市岩戸北3-3-23","lat":35.634341,"lon":139.582651},{"name":"駄倉保育園","province":"東京都","city":"狛江市","address":"狛江市岩戸北3-20-2","lat":35.632894,"lon":139.58164},{"name":"ベネッセ狛江南保育園","province":"東京都","city":"狛江市","address":"狛江市岩戸北3-23-8","lat":35.63228,"lon":139.582851},{"name":"多摩川保育園","province":"東京都","city":"狛江市","address":"狛江市西和泉1-5-1","lat":35.640415,"lon":139.563477},{"name":"グローバルキッズ狛江園","province":"東京都","city":"狛江市","address":"狛江市中和泉3-19-14","lat":35.63551,"lon":139.567263},{"name":"めぐみの森保育園","province":"東京都","city":"狛江市","address":"狛江市中和泉3-12-6","lat":35.636863,"lon":139.570504},{"name":"狛江ちとせ保育園","province":"東京都","city":"狛江市","address":"狛江市東和泉1-35-10","lat":35.629517,"lon":139.575646},{"name":"虹のひかり保育園","province":"東京都","city":"狛江市","address":"狛江市東和泉1-32-18","lat":35.630397,"lon":139.576365},{"name":"ぎんきょう保育園","province":"東京都","city":"狛江市","address":"狛江市東和泉1-34-25","lat":35.629603,"lon":139.576971},{"name":"駒井保育園","province":"東京都","city":"狛江市","address":"狛江市駒井町2-28-6","lat":35.62441,"lon":139.587573},{"name":"駒井町みんなの家","province":"東京都","city":"狛江市","address":"狛江市駒井町3-36-1","lat":35.623085,"lon":139.589087},{"name":"パイオニアキッズ西野川園","province":"東京都","city":"狛江市","address":"狛江市西野川2-4-15","lat":35.644009,"lon":139.575034},{"name":"狛江保育園","province":"東京都","city":"狛江市","address":"狛江市西野川4-12-1","lat":35.647061,"lon":139.572648},{"name":"三島保育園","province":"東京都","city":"狛江市","address":"狛江市東野川1-32-2","lat":35.64189,"lon":139.582914},{"name":"東野川保育園みんなの家","province":"東京都","city":"狛江市","address":"狛江市東野川4-9-7","lat":35.644812,"lon":139.583536},{"name":"藤塚保育園","province":"東京都","city":"狛江市","address":"狛江市和泉本町4-7-35","lat":35.642112,"lon":139.56984},{"name":"狛江子どもの家","province":"東京都","city":"狛江市","address":"狛江市和泉本町1-36-4","lat":35.636205,"lon":139.577915},{"name":"いずみ保育園","province":"東京都","city":"狛江市","address":"狛江市岩戸北1-1-12","lat":35.635774,"lon":139.579845},{"name":"アスク岩戸北保育園","province":"東京都","city":"狛江市","address":"狛江市岩戸北3-3-23","lat":35.634341,"lon":139.582651},{"name":"駄倉保育園","province":"東京都","city":"狛江市","address":"狛江市岩戸北3-20-2","lat":35.632894,"lon":139.58164},{"name":"ベネッセ狛江南保育園","province":"東京都","city":"狛江市","address":"狛江市岩戸北3-23-8","lat":35.63228,"lon":139.582851},{"name":"多摩川保育園","province":"東京都","city":"狛江市","address":"狛江市西和泉1-5-1","lat":35.640415,"lon":139.563477},{"name":"グローバルキッズ狛江園","province":"東京都","city":"狛江市","address":"狛江市中和泉3-19-14","lat":35.63551,"lon":139.567263},{"name":"めぐみの森保育園","province":"東京都","city":"狛江市","address":"狛江市中和泉3-12-6","lat":35.636863,"lon":139.570504},{"name":"狛江ちとせ保育園","province":"東京都","city":"狛江市","address":"狛江市東和泉1-35-10","lat":35.629517,"lon":139.575646},{"name":"虹のひかり保育園","province":"東京都","city":"狛江市","address":"狛江市東和泉1-32-18","lat":35.630397,"lon":139.576365},{"name":"ぎんきょう保育園","province":"東京都","city":"狛江市","address":"狛江市東和泉1-34-25","lat":35.629603,"lon":139.576971},{"name":"駒井保育園","province":"東京都","city":"狛江市","address":"狛江市駒井町2-28-6","lat":35.62441,"lon":139.587573},{"name":"駒井町みんなの家","province":"東京都","city":"狛江市","address":"狛江市駒井町3-36-1","lat":35.623085,"lon":139.589087},{"name":"パイオニアキッズ西野川園","province":"東京都","city":"狛江市","address":"狛江市西野川2-4-15","lat":35.644009,"lon":139.575034},{"name":"狛江保育園","province":"東京都","city":"狛江市","address":"狛江市西野川4-12-1","lat":35.647061,"lon":139.572648},{"name":"三島保育園","province":"東京都","city":"狛江市","address":"狛江市東野川1-32-2","lat":35.64189,"lon":139.582914},{"name":"東野川保育園みんなの家","province":"東京都","city":"狛江市","address":"狛江市東野川4-9-7","lat":35.644812,"lon":139.583536},{"name":"藤塚保育園","province":"東京都","city":"狛江市","address":"狛江市和泉本町4-7-35","lat":35.642112,"lon":139.56984},{"name":"狛江子どもの家","province":"東京都","city":"狛江市","address":"狛江市和泉本町1-36-4","lat":35.636205,"lon":139.577915},{"name":"いずみ保育園","province":"東京都","city":"狛江市","address":"狛江市岩戸北1-1-12","lat":35.635774,"lon":139.579845},{"name":"アスク岩戸北保育園","province":"東京都","city":"狛江市","address":"狛江市岩戸北3-3-23","lat":35.634341,"lon":139.582651},{"name":"駄倉保育園","province":"東京都","city":"狛江市","address":"狛江市岩戸北3-20-2","lat":35.632894,"lon":139.58164},{"name":"ベネッセ狛江南保育園","province":"東京都","city":"狛江市","address":"狛江市岩戸北3-23-8","lat":35.63228,"lon":139.582851},{"name":"多摩川保育園","province":"東京都","city":"狛江市","address":"狛江市西和泉1-5-1","lat":35.640415,"lon":139.563477},{"name":"グローバルキッズ狛江園","province":"東京都","city":"狛江市","address":"狛江市中和泉3-19-14","lat":35.63551,"lon":139.567263},{"name":"めぐみの森保育園","province":"東京都","city":"狛江市","address":"狛江市中和泉3-12-6","lat":35.636863,"lon":139.570504},{"name":"狛江ちとせ保育園","province":"東京都","city":"狛江市","address":"狛江市東和泉1-35-10","lat":35.629517,"lon":139.575646},{"name":"虹のひかり保育園","province":"東京都","city":"狛江市","address":"狛江市東和泉1-32-18","lat":35.630397,"lon":139.576365},{"name":"ぎんきょう保育園","province":"東京都","city":"狛江市","address":"狛江市東和泉1-34-25","lat":35.629603,"lon":139.576971},{"name":"駒井保育園","province":"東京都","city":"狛江市","address":"狛江市駒井町2-28-6","lat":35.62441,"lon":139.587573},{"name":"駒井町みんなの家","province":"東京都","city":"狛江市","address":"狛江市駒井町3-36-1","lat":35.623085,"lon":139.589087},{"name":"パイオニアキッズ西野川園","province":"東京都","city":"狛江市","address":"狛江市西野川2-4-15","lat":35.644009,"lon":139.575034},{"name":"狛江保育園","province":"東京都","city":"狛江市","address":"狛江市西野川4-12-1","lat":35.647061,"lon":139.572648},{"name":"三島保育園","province":"東京都","city":"狛江市","address":"狛江市東野川1-32-2","lat":35.64189,"lon":139.582914},{"name":"東野川保育園みんなの家","province":"東京都","city":"狛江市","address":"狛江市東野川4-9-7","lat":35.644812,"lon":139.583536},{"name":"藤塚保育園","province":"東京都","city":"狛江市","address":"狛江市和泉本町4-7-35","lat":35.642112,"lon":139.56984},{"name":"狛江子どもの家","province":"東京都","city":"狛江市","address":"狛江市和泉本町1-36-4","lat":35.636205,"lon":139.577915},{"name":"いずみ保育園","province":"東京都","city":"狛江市","address":"狛江市岩戸北1-1-12","lat":35.635774,"lon":139.579845},{"name":"アスク岩戸北保育園","province":"東京都","city":"狛江市","address":"狛江市岩戸北3-3-23","lat":35.634341,"lon":139.582651},{"name":"駄倉保育園","province":"東京都","city":"狛江市","address":"狛江市岩戸北3-20-2","lat":35.632894,"lon":139.58164},{"name":"ベネッセ狛江南保育園","province":"東京都","city":"狛江市","address":"狛江市岩戸北3-23-8","lat":35.63228,"lon":139.582851},{"name":"多摩川保育園","province":"東京都","city":"狛江市","address":"狛江市西和泉1-5-1","lat":35.640415,"lon":139.563477},{"name":"グローバルキッズ狛江園","province":"東京都","city":"狛江市","address":"狛江市中和泉3-19-14","lat":35.63551,"lon":139.567263},{"name":"めぐみの森保育園","province":"東京都","city":"狛江市","address":"狛江市中和泉3-12-6","lat":35.636863,"lon":139.570504},{"name":"狛江ちとせ保育園","province":"東京都","city":"狛江市","address":"狛江市東和泉1-35-10","lat":35.629517,"lon":139.575646},{"name":"虹のひかり保育園","province":"東京都","city":"狛江市","address":"狛江市東和泉1-32-18","lat":35.630397,"lon":139.576365},{"name":"ぎんきょう保育園","province":"東京都","city":"狛江市","address":"狛江市東和泉1-34-25","lat":35.629603,"lon":139.576971},{"name":"駒井保育園","province":"東京都","city":"狛江市","address":"狛江市駒井町2-28-6","lat":35.62441,"lon":139.587573},{"name":"駒井町みんなの家","province":"東京都","city":"狛江市","address":"狛江市駒井町3-36-1","lat":35.623085,"lon":139.589087},{"name":"パイオニアキッズ西野川園","province":"東京都","city":"狛江市","address":"狛江市西野川2-4-15","lat":35.644009,"lon":139.575034},{"name":"狛江保育園","province":"東京都","city":"狛江市","address":"狛江市西野川4-12-1","lat":35.647061,"lon":139.572648},{"name":"三島保育園","province":"東京都","city":"狛江市","address":"狛江市東野川1-32-2","lat":35.64189,"lon":139.582914},{"name":"東野川保育園みんなの家","province":"東京都","city":"狛江市","address":"狛江市東野川4-9-7","lat":35.644812,"lon":139.583536},{"name":"藤塚保育園","province":"東京都","city":"狛江市","address":"狛江市和泉本町4-7-35","lat":35.642112,"lon":139.56984},{"name":"狛江子どもの家","province":"東京都","city":"狛江市","address":"狛江市和泉本町1-36-4","lat":35.636205,"lon":139.577915},{"name":"いずみ保育園","province":"東京都","city":"狛江市","address":"狛江市岩戸北1-1-12","lat":35.635774,"lon":139.579845},{"name":"アスク岩戸北保育園","province":"東京都","city":"狛江市","address":"狛江市岩戸北3-3-23","lat":35.634341,"lon":139.582651},{"name":"駄倉保育園","province":"東京都","city":"狛江市","address":"狛江市岩戸北3-20-2","lat":35.632894,"lon":139.58164},{"name":"ベネッセ狛江南保育園","province":"東京都","city":"狛江市","address":"狛江市岩戸北3-23-8","lat":35.63228,"lon":139.582851},{"name":"多摩川保育園","province":"東京都","city":"狛江市","address":"狛江市西和泉1-5-1","lat":35.640415,"lon":139.563477},{"name":"グローバルキッズ狛江園","province":"東京都","city":"狛江市","address":"狛江市中和泉3-19-14","lat":35.63551,"lon":139.567263},{"name":"めぐみの森保育園","province":"東京都","city":"狛江市","address":"狛江市中和泉3-12-6","lat":35.636863,"lon":139.570504},{"name":"狛江ちとせ保育園","province":"東京都","city":"狛江市","address":"狛江市東和泉1-35-10","lat":35.629517,"lon":139.575646},{"name":"虹のひかり保育園","province":"東京都","city":"狛江市","address":"狛江市東和泉1-32-18","lat":35.630397,"lon":139.576365},{"name":"ぎんきょう保育園","province":"東京都","city":"狛江市","address":"狛江市東和泉1-34-25","lat":35.629603,"lon":139.576971},{"name":"駒井保育園","province":"東京都","city":"狛江市","address":"狛江市駒井町2-28-6","lat":35.62441,"lon":139.587573},{"name":"駒井町みんなの家","province":"東京都","city":"狛江市","address":"狛江市駒井町3-36-1","lat":35.623085,"lon":139.589087},{"name":"パイオニアキッズ西野川園","province":"東京都","city":"狛江市","address":"狛江市西野川2-4-15","lat":35.644009,"lon":139.575034},{"name":"狛江保育園","province":"東京都","city":"狛江市","address":"狛江市西野川4-12-1","lat":35.647061,"lon":139.572648},{"name":"三島保育園","province":"東京都","city":"狛江市","address":"狛江市東野川1-32-2","lat":35.64189,"lon":139.582914},{"name":"東野川保育園みんなの家","province":"東京都","city":"狛江市","address":"狛江市東野川4-9-7","lat":35.644812,"lon":139.583536},{"name":"藤塚保育園","province":"東京都","city":"狛江市","address":"狛江市和泉本町4-7-35","lat":35.642112,"lon":139.56984},{"name":"狛江子どもの家","province":"東京都","city":"狛江市","address":"狛江市和泉本町1-36-4","lat":35.636205,"lon":139.577915},{"name":"いずみ保育園","province":"東京都","city":"狛江市","address":"狛江市岩戸北1-1-12","lat":35.635774,"lon":139.579845},{"name":"アスク岩戸北保育園","province":"東京都","city":"狛江市","address":"狛江市岩戸北3-3-23","lat":35.634341,"lon":139.582651},{"name":"駄倉保育園","province":"東京都","city":"狛江市","address":"狛江市岩戸北3-20-2","lat":35.632894,"lon":139.58164},{"name":"ベネッセ狛江南保育園","province":"東京都","city":"狛江市","address":"狛江市岩戸北3-23-8","lat":35.63228,"lon":139.582851},{"name":"多摩川保育園","province":"東京都","city":"狛江市","address":"狛江市西和泉1-5-1","lat":35.640415,"lon":139.563477},{"name":"グローバルキッズ狛江園","province":"東京都","city":"狛江市","address":"狛江市中和泉3-19-14","lat":35.63551,"lon":139.567263},{"name":"めぐみの森保育園","province":"東京都","city":"狛江市","address":"狛江市中和泉3-12-6","lat":35.636863,"lon":139.570504},{"name":"狛江ちとせ保育園","province":"東京都","city":"狛江市","address":"狛江市東和泉1-35-10","lat":35.629517,"lon":139.575646},{"name":"虹のひかり保育園","province":"東京都","city":"狛江市","address":"狛江市東和泉1-32-18","lat":35.630397,"lon":139.576365},{"name":"ぎんきょう保育園","province":"東京都","city":"狛江市","address":"狛江市東和泉1-34-25","lat":35.629603,"lon":139.576971},{"name":"駒井保育園","province":"東京都","city":"狛江市","address":"狛江市駒井町2-28-6","lat":35.62441,"lon":139.587573},{"name":"駒井町みんなの家","province":"東京都","city":"狛江市","address":"狛江市駒井町3-36-1","lat":35.623085,"lon":139.589087},{"name":"パイオニアキッズ西野川園","province":"東京都","city":"狛江市","address":"狛江市西野川2-4-15","lat":35.644009,"lon":139.575034},{"name":"狛江保育園","province":"東京都","city":"狛江市","address":"狛江市西野川4-12-1","lat":35.647061,"lon":139.572648},{"name":"三島保育園","province":"東京都","city":"狛江市","address":"狛江市東野川1-32-2","lat":35.64189,"lon":139.582914},{"name":"東野川保育園みんなの家","province":"東京都","city":"狛江市","address":"狛江市東野川4-9-7","lat":35.644812,"lon":139.583536},{"name":"藤塚保育園","province":"東京都","city":"狛江市","address":"狛江市和泉本町4-7-35","lat":35.642112,"lon":139.56984},{"name":"狛江子どもの家","province":"東京都","city":"狛江市","address":"狛江市和泉本町1-36-4","lat":35.636205,"lon":139.577915},{"name":"いずみ保育園","province":"東京都","city":"狛江市","address":"狛江市岩戸北1-1-12","lat":35.635774,"lon":139.579845},{"name":"アスク岩戸北保育園","province":"東京都","city":"狛江市","address":"狛江市岩戸北3-3-23","lat":35.634341,"lon":139.582651},{"name":"駄倉保育園","province":"東京都","city":"狛江市","address":"狛江市岩戸北3-20-2","lat":35.632894,"lon":139.58164},{"name":"ベネッセ狛江南保育園","province":"東京都","city":"狛江市","address":"狛江市岩戸北3-23-8","lat":35.63228,"lon":139.582851},{"name":"多摩川保育園","province":"東京都","city":"狛江市","address":"狛江市西和泉1-5-1","lat":35.640415,"lon":139.563477},{"name":"グローバルキッズ狛江園","province":"東京都","city":"狛江市","address":"狛江市中和泉3-19-14","lat":35.63551,"lon":139.567263},{"name":"めぐみの森保育園","province":"東京都","city":"狛江市","address":"狛江市中和泉3-12-6","lat":35.636863,"lon":139.570504},{"name":"狛江ちとせ保育園","province":"東京都","city":"狛江市","address":"狛江市東和泉1-35-10","lat":35.629517,"lon":139.575646},{"name":"虹のひかり保育園","province":"東京都","city":"狛江市","address":"狛江市東和泉1-32-18","lat":35.630397,"lon":139.576365},{"name":"ぎんきょう保育園","province":"東京都","city":"狛江市","address":"狛江市東和泉1-34-25","lat":35.629603,"lon":139.576971},{"name":"駒井保育園","province":"東京都","city":"狛江市","address":"狛江市駒井町2-28-6","lat":35.62441,"lon":139.587573},{"name":"駒井町みんなの家","province":"東京都","city":"狛江市","address":"狛江市駒井町3-36-1","lat":35.623085,"lon":139.589087},{"name":"パイオニアキッズ西野川園","province":"東京都","city":"狛江市","address":"狛江市西野川2-4-15","lat":35.644009,"lon":139.575034},{"name":"狛江保育園","province":"東京都","city":"狛江市","address":"狛江市西野川4-12-1","lat":35.647061,"lon":139.572648},{"name":"三島保育園","province":"東京都","city":"狛江市","address":"狛江市東野川1-32-2","lat":35.64189,"lon":139.582914},{"name":"東野川保育園みんなの家","province":"東京都","city":"狛江市","address":"狛江市東野川4-9-7","lat":35.644812,"lon":139.583536},{"name":"藤塚保育園","province":"東京都","city":"狛江市","address":"狛江市和泉本町4-7-35","lat":35.642112,"lon":139.56984},{"name":"狛江子どもの家","province":"東京都","city":"狛江市","address":"狛江市和泉本町1-36-4","lat":35.636205,"lon":139.577915},{"name":"いずみ保育園","province":"東京都","city":"狛江市","address":"狛江市岩戸北1-1-12","lat":35.635774,"lon":139.579845},{"name":"アスク岩戸北保育園","province":"東京都","city":"狛江市","address":"狛江市岩戸北3-3-23","lat":35.634341,"lon":139.582651},{"name":"駄倉保育園","province":"東京都","city":"狛江市","address":"狛江市岩戸北3-20-2","lat":35.632894,"lon":139.58164},{"name":"ベネッセ狛江南保育園","province":"東京都","city":"狛江市","address":"狛江市岩戸北3-23-8","lat":35.63228,"lon":139.582851},{"name":"多摩川保育園","province":"東京都","city":"狛江市","address":"狛江市西和泉1-5-1","lat":35.640415,"lon":139.563477},{"name":"グローバルキッズ狛江園","province":"東京都","city":"狛江市","address":"狛江市中和泉3-19-14","lat":35.63551,"lon":139.567263},{"name":"めぐみの森保育園","province":"東京都","city":"狛江市","address":"狛江市中和泉3-12-6","lat":35.636863,"lon":139.570504},{"name":"狛江ちとせ保育園","province":"東京都","city":"狛江市","address":"狛江市東和泉1-35-10","lat":35.629517,"lon":139.575646},{"name":"虹のひかり保育園","province":"東京都","city":"狛江市","address":"狛江市東和泉1-32-18","lat":35.630397,"lon":139.576365},{"name":"ぎんきょう保育園","province":"東京都","city":"狛江市","address":"狛江市東和泉1-34-25","lat":35.629603,"lon":139.576971},{"name":"駒井保育園","province":"東京都","city":"狛江市","address":"狛江市駒井町2-28-6","lat":35.62441,"lon":139.587573},{"name":"駒井町みんなの家","province":"東京都","city":"狛江市","address":"狛江市駒井町3-36-1","lat":35.623085,"lon":139.589087},{"name":"パイオニアキッズ西野川園","province":"東京都","city":"狛江市","address":"狛江市西野川2-4-15","lat":35.644009,"lon":139.575034},{"name":"狛江保育園","province":"東京都","city":"狛江市","address":"狛江市西野川4-12-1","lat":35.647061,"lon":139.572648},{"name":"三島保育園","province":"東京都","city":"狛江市","address":"狛江市東野川1-32-2","lat":35.64189,"lon":139.582914},{"name":"東野川保育園みんなの家","province":"東京都","city":"狛江市","address":"狛江市東野川4-9-7","lat":35.644812,"lon":139.583536},{"name":"藤塚保育園","province":"東京都","city":"狛江市","address":"狛江市和泉本町4-7-35","lat":35.642112,"lon":139.56984},{"name":"狛江子どもの家","province":"東京都","city":"狛江市","address":"狛江市和泉本町1-36-4","lat":35.636205,"lon":139.577915},{"name":"いずみ保育園","province":"東京都","city":"狛江市","address":"狛江市岩戸北1-1-12","lat":35.635774,"lon":139.579845},{"name":"アスク岩戸北保育園","province":"東京都","city":"狛江市","address":"狛江市岩戸北3-3-23","lat":35.634341,"lon":139.582651},{"name":"駄倉保育園","province":"東京都","city":"狛江市","address":"狛江市岩戸北3-20-2","lat":35.632894,"lon":139.58164},{"name":"ベネッセ狛江南保育園","province":"東京都","city":"狛江市","address":"狛江市岩戸北3-23-8","lat":35.63228,"lon":139.582851},{"name":"多摩川保育園","province":"東京都","city":"狛江市","address":"狛江市西和泉1-5-1","lat":35.640415,"lon":139.563477},{"name":"グローバルキッズ狛江園","province":"東京都","city":"狛江市","address":"狛江市中和泉3-19-14","lat":35.63551,"lon":139.567263},{"name":"めぐみの森保育園","province":"東京都","city":"狛江市","address":"狛江市中和泉3-12-6","lat":35.636863,"lon":139.570504},{"name":"狛江ちとせ保育園","province":"東京都","city":"狛江市","address":"狛江市東和泉1-35-10","lat":35.629517,"lon":139.575646},{"name":"虹のひかり保育園","province":"東京都","city":"狛江市","address":"狛江市東和泉1-32-18","lat":35.630397,"lon":139.576365},{"name":"ぎんきょう保育園","province":"東京都","city":"狛江市","address":"狛江市東和泉1-34-25","lat":35.629603,"lon":139.576971},{"name":"駒井保育園","province":"東京都","city":"狛江市","address":"狛江市駒井町2-28-6","lat":35.62441,"lon":139.587573},{"name":"駒井町みんなの家","province":"東京都","city":"狛江市","address":"狛江市駒井町3-36-1","lat":35.623085,"lon":139.589087},{"name":"パイオニアキッズ西野川園","province":"東京都","city":"狛江市","address":"狛江市西野川2-4-15","lat":35.644009,"lon":139.575034},{"name":"狛江保育園","province":"東京都","city":"狛江市","address":"狛江市西野川4-12-1","lat":35.647061,"lon":139.572648},{"name":"三島保育園","province":"東京都","city":"狛江市","address":"狛江市東野川1-32-2","lat":35.64189,"lon":139.582914},{"name":"東野川保育園みんなの家","province":"東京都","city":"狛江市","address":"狛江市東野川4-9-7","lat":35.644812,"lon":139.583536},{"name":"藤塚保育園","province":"東京都","city":"狛江市","address":"狛江市和泉本町4-7-35","lat":35.642112,"lon":139.56984},{"name":"狛江子どもの家","province":"東京都","city":"狛江市","address":"狛江市和泉本町1-36-4","lat":35.636205,"lon":139.577915},{"name":"いずみ保育園","province":"東京都","city":"狛江市","address":"狛江市岩戸北1-1-12","lat":35.635774,"lon":139.579845},{"name":"アスク岩戸北保育園","province":"東京都","city":"狛江市","address":"狛江市岩戸北3-3-23","lat":35.634341,"lon":139.582651},{"name":"駄倉保育園","province":"東京都","city":"狛江市","address":"狛江市岩戸北3-20-2","lat":35.632894,"lon":139.58164},{"name":"ベネッセ狛江南保育園","province":"東京都","city":"狛江市","address":"狛江市岩戸北3-23-8","lat":35.63228,"lon":139.582851},{"name":"多摩川保育園","province":"東京都","city":"狛江市","address":"狛江市西和泉1-5-1","lat":35.640415,"lon":139.563477},{"name":"グローバルキッズ狛江園","province":"東京都","city":"狛江市","address":"狛江市中和泉3-19-14","lat":35.63551,"lon":139.567263},{"name":"めぐみの森保育園","province":"東京都","city":"狛江市","address":"狛江市中和泉3-12-6","lat":35.636863,"lon":139.570504},{"name":"狛江ちとせ保育園","province":"東京都","city":"狛江市","address":"狛江市東和泉1-35-10","lat":35.629517,"lon":139.575646},{"name":"虹のひかり保育園","province":"東京都","city":"狛江市","address":"狛江市東和泉1-32-18","lat":35.630397,"lon":139.576365},{"name":"ぎんきょう保育園","province":"東京都","city":"狛江市","address":"狛江市東和泉1-34-25","lat":35.629603,"lon":139.576971},{"name":"駒井保育園","province":"東京都","city":"狛江市","address":"狛江市駒井町2-28-6","lat":35.62441,"lon":139.587573},{"name":"駒井町みんなの家","province":"東京都","city":"狛江市","address":"狛江市駒井町3-36-1","lat":35.623085,"lon":139.589087},{"name":"パイオニアキッズ西野川園","province":"東京都","city":"狛江市","address":"狛江市西野川2-4-15","lat":35.644009,"lon":139.575034},{"name":"狛江保育園","province":"東京都","city":"狛江市","address":"狛江市西野川4-12-1","lat":35.647061,"lon":139.572648},{"name":"三島保育園","province":"東京都","city":"狛江市","address":"狛江市東野川1-32-2","lat":35.64189,"lon":139.582914},{"name":"東野川保育園みんなの家","province":"東京都","city":"狛江市","address":"狛江市東野川4-9-7","lat":35.644812,"lon":139.583536},{"name":"藤塚保育園","province":"東京都","city":"狛江市","address":"狛江市和泉本町4-7-35","lat":35.642112,"lon":139.56984},{"name":"狛江子どもの家","province":"東京都","city":"狛江市","address":"狛江市和泉本町1-36-4","lat":35.636205,"lon":139.577915},{"name":"いずみ保育園","province":"東京都","city":"狛江市","address":"狛江市岩戸北1-1-12","lat":35.635774,"lon":139.579845},{"name":"アスク岩戸北保育園","province":"東京都","city":"狛江市","address":"狛江市岩戸北3-3-23","lat":35.634341,"lon":139.582651},{"name":"駄倉保育園","province":"東京都","city":"狛江市","address":"狛江市岩戸北3-20-2","lat":35.632894,"lon":139.58164},{"name":"ベネッセ狛江南保育園","province":"東京都","city":"狛江市","address":"狛江市岩戸北3-23-8","lat":35.63228,"lon":139.582851},{"name":"多摩川保育園","province":"東京都","city":"狛江市","address":"狛江市西和泉1-5-1","lat":35.640415,"lon":139.563477},{"name":"グローバルキッズ狛江園","province":"東京都","city":"狛江市","address":"狛江市中和泉3-19-14","lat":35.63551,"lon":139.567263},{"name":"めぐみの森保育園","province":"東京都","city":"狛江市","address":"狛江市中和泉3-12-6","lat":35.636863,"lon":139.570504},{"name":"狛江ちとせ保育園","province":"東京都","city":"狛江市","address":"狛江市東和泉1-35-10","lat":35.629517,"lon":139.575646},{"name":"虹のひかり保育園","province":"東京都","city":"狛江市","address":"狛江市東和泉1-32-18","lat":35.630397,"lon":139.576365},{"name":"ぎんきょう保育園","province":"東京都","city":"狛江市","address":"狛江市東和泉1-34-25","lat":35.629603,"lon":139.576971},{"name":"駒井保育園","province":"東京都","city":"狛江市","address":"狛江市駒井町2-28-6","lat":35.62441,"lon":139.587573},{"name":"駒井町みんなの家","province":"東京都","city":"狛江市","address":"狛江市駒井町3-36-1","lat":35.623085,"lon":139.589087},{"name":"パイオニアキッズ西野川園","province":"東京都","city":"狛江市","address":"狛江市西野川2-4-15","lat":35.644009,"lon":139.575034},{"name":"狛江保育園","province":"東京都","city":"狛江市","address":"狛江市西野川4-12-1","lat":35.647061,"lon":139.572648},{"name":"三島保育園","province":"東京都","city":"狛江市","address":"狛江市東野川1-32-2","lat":35.64189,"lon":139.582914},{"name":"東野川保育園みんなの家","province":"東京都","city":"狛江市","address":"狛江市東野川4-9-7","lat":35.644812,"lon":139.583536},{"name":"藤塚保育園","province":"東京都","city":"狛江市","address":"狛江市和泉本町4-7-35","lat":35.642112,"lon":139.56984},{"name":"狛江子どもの家","province":"東京都","city":"狛江市","address":"狛江市和泉本町1-36-4","lat":35.636205,"lon":139.577915},{"name":"いずみ保育園","province":"東京都","city":"狛江市","address":"狛江市岩戸北1-1-12","lat":35.635774,"lon":139.579845},{"name":"アスク岩戸北保育園","province":"東京都","city":"狛江市","address":"狛江市岩戸北3-3-23","lat":35.634341,"lon":139.582651},{"name":"駄倉保育園","province":"東京都","city":"狛江市","address":"狛江市岩戸北3-20-2","lat":35.632894,"lon":139.58164},{"name":"ベネッセ狛江南保育園","province":"東京都","city":"狛江市","address":"狛江市岩戸北3-23-8","lat":35.63228,"lon":139.582851},{"name":"多摩川保育園","province":"東京都","city":"狛江市","address":"狛江市西和泉1-5-1","lat":35.640415,"lon":139.563477},{"name":"グローバルキッズ狛江園","province":"東京都","city":"狛江市","address":"狛江市中和泉3-19-14","lat":35.63551,"lon":139.567263},{"name":"めぐみの森保育園","province":"東京都","city":"狛江市","address":"狛江市中和泉3-12-6","lat":35.636863,"lon":139.570504},{"name":"狛江ちとせ保育園","province":"東京都","city":"狛江市","address":"狛江市東和泉1-35-10","lat":35.629517,"lon":139.575646},{"name":"虹のひかり保育園","province":"東京都","city":"狛江市","address":"狛江市東和泉1-32-18","lat":35.630397,"lon":139.576365},{"name":"ぎんきょう保育園","province":"東京都","city":"狛江市","address":"狛江市東和泉1-34-25","lat":35.629603,"lon":139.576971},{"name":"駒井保育園","province":"東京都","city":"狛江市","address":"狛江市駒井町2-28-6","lat":35.62441,"lon":139.587573},{"name":"駒井町みんなの家","province":"東京都","city":"狛江市","address":"狛江市駒井町3-36-1","lat":35.623085,"lon":139.589087},{"name":"パイオニアキッズ西野川園","province":"東京都","city":"狛江市","address":"狛江市西野川2-4-15","lat":35.644009,"lon":139.575034},{"name":"狛江保育園","province":"東京都","city":"狛江市","address":"狛江市西野川4-12-1","lat":35.647061,"lon":139.572648},{"name":"三島保育園","province":"東京都","city":"狛江市","address":"狛江市東野川1-32-2","lat":35.64189,"lon":139.582914},{"name":"東野川保育園みんなの家","province":"東京都","city":"狛江市","address":"狛江市東野川4-9-7","lat":35.644812,"lon":139.583536},{"name":"藤塚保育園","province":"東京都","city":"狛江市","address":"狛江市和泉本町4-7-35","lat":35.642112,"lon":139.56984},{"name":"狛江子どもの家","province":"東京都","city":"狛江市","address":"狛江市和泉本町1-36-4","lat":35.636205,"lon":139.577915},{"name":"いずみ保育園","province":"東京都","city":"狛江市","address":"狛江市岩戸北1-1-12","lat":35.635774,"lon":139.579845},{"name":"アスク岩戸北保育園","province":"東京都","city":"狛江市","address":"狛江市岩戸北3-3-23","lat":35.634341,"lon":139.582651},{"name":"駄倉保育園","province":"東京都","city":"狛江市","address":"狛江市岩戸北3-20-2","lat":35.632894,"lon":139.58164},{"name":"ベネッセ狛江南保育園","province":"東京都","city":"狛江市","address":"狛江市岩戸北3-23-8","lat":35.63228,"lon":139.582851},{"name":"多摩川保育園","province":"東京都","city":"狛江市","address":"狛江市西和泉1-5-1","lat":35.640415,"lon":139.563477},{"name":"グローバルキッズ狛江園","province":"東京都","city":"狛江市","address":"狛江市中和泉3-19-14","lat":35.63551,"lon":139.567263},{"name":"めぐみの森保育園","province":"東京都","city":"狛江市","address":"狛江市中和泉3-12-6","lat":35.636863,"lon":139.570504},{"name":"狛江ちとせ保育園","province":"東京都","city":"狛江市","address":"狛江市東和泉1-35-10","lat":35.629517,"lon":139.575646},{"name":"虹のひかり保育園","province":"東京都","city":"狛江市","address":"狛江市東和泉1-32-18","lat":35.630397,"lon":139.576365},{"name":"ぎんきょう保育園","province":"東京都","city":"狛江市","address":"狛江市東和泉1-34-25","lat":35.629603,"lon":139.576971},{"name":"駒井保育園","province":"東京都","city":"狛江市","address":"狛江市駒井町2-28-6","lat":35.62441,"lon":139.587573},{"name":"駒井町みんなの家","province":"東京都","city":"狛江市","address":"狛江市駒井町3-36-1","lat":35.623085,"lon":139.589087},{"name":"パイオニアキッズ西野川園","province":"東京都","city":"狛江市","address":"狛江市西野川2-4-15","lat":35.644009,"lon":139.575034},{"name":"狛江保育園","province":"東京都","city":"狛江市","address":"狛江市西野川4-12-1","lat":35.647061,"lon":139.572648},{"name":"三島保育園","province":"東京都","city":"狛江市","address":"狛江市東野川1-32-2","lat":35.64189,"lon":139.582914},{"name":"東野川保育園みんなの家","province":"東京都","city":"狛江市","address":"狛江市東野川4-9-7","lat":35.644812,"lon":139.583536},{"name":"藤塚保育園","province":"東京都","city":"狛江市","address":"狛江市和泉本町4-7-35","lat":35.642112,"lon":139.56984},{"name":"狛江子どもの家","province":"東京都","city":"狛江市","address":"狛江市和泉本町1-36-4","lat":35.636205,"lon":139.577915},{"name":"いずみ保育園","province":"東京都","city":"狛江市","address":"狛江市岩戸北1-1-12","lat":35.635774,"lon":139.579845},{"name":"アスク岩戸北保育園","province":"東京都","city":"狛江市","address":"狛江市岩戸北3-3-23","lat":35.634341,"lon":139.582651},{"name":"駄倉保育園","province":"東京都","city":"狛江市","address":"狛江市岩戸北3-20-2","lat":35.632894,"lon":139.58164},{"name":"ベネッセ狛江南保育園","province":"東京都","city":"狛江市","address":"狛江市岩戸北3-23-8","lat":35.63228,"lon":139.582851},{"name":"多摩川保育園","province":"東京都","city":"狛江市","address":"狛江市西和泉1-5-1","lat":35.640415,"lon":139.563477},{"name":"グローバルキッズ狛江園","province":"東京都","city":"狛江市","address":"狛江市中和泉3-19-14","lat":35.63551,"lon":139.567263},{"name":"めぐみの森保育園","province":"東京都","city":"狛江市","address":"狛江市中和泉3-12-6","lat":35.636863,"lon":139.570504},{"name":"狛江ちとせ保育園","province":"東京都","city":"狛江市","address":"狛江市東和泉1-35-10","lat":35.629517,"lon":139.575646},{"name":"虹のひかり保育園","province":"東京都","city":"狛江市","address":"狛江市東和泉1-32-18","lat":35.630397,"lon":139.576365},{"name":"ぎんきょう保育園","province":"東京都","city":"狛江市","address":"狛江市東和泉1-34-25","lat":35.629603,"lon":139.576971},{"name":"駒井保育園","province":"東京都","city":"狛江市","address":"狛江市駒井町2-28-6","lat":35.62441,"lon":139.587573},{"name":"駒井町みんなの家","province":"東京都","city":"狛江市","address":"狛江市駒井町3-36-1","lat":35.623085,"lon":139.589087},{"name":"パイオニアキッズ西野川園","province":"東京都","city":"狛江市","address":"狛江市西野川2-4-15","lat":35.644009,"lon":139.575034},{"name":"狛江保育園","province":"東京都","city":"狛江市","address":"狛江市西野川4-12-1","lat":35.647061,"lon":139.572648},{"name":"三島保育園","province":"東京都","city":"狛江市","address":"狛江市東野川1-32-2","lat":35.64189,"lon":139.582914},{"name":"東野川保育園みんなの家","province":"東京都","city":"狛江市","address":"狛江市東野川4-9-7","lat":35.644812,"lon":139.583536},{"name":"藤塚保育園","province":"東京都","city":"狛江市","address":"狛江市和泉本町4-7-35","lat":35.642112,"lon":139.56984},{"name":"狛江子どもの家","province":"東京都","city":"狛江市","address":"狛江市和泉本町1-36-4","lat":35.636205,"lon":139.577915},{"name":"いずみ保育園","province":"東京都","city":"狛江市","address":"狛江市岩戸北1-1-12","lat":35.635774,"lon":139.579845},{"name":"アスク岩戸北保育園","province":"東京都","city":"狛江市","address":"狛江市岩戸北3-3-23","lat":35.634341,"lon":139.582651},{"name":"駄倉保育園","province":"東京都","city":"狛江市","address":"狛江市岩戸北3-20-2","lat":35.632894,"lon":139.58164},{"name":"ベネッセ狛江南保育園","province":"東京都","city":"狛江市","address":"狛江市岩戸北3-23-8","lat":35.63228,"lon":139.582851},{"name":"多摩川保育園","province":"東京都","city":"狛江市","address":"狛江市西和泉1-5-1","lat":35.640415,"lon":139.563477},{"name":"グローバルキッズ狛江園","province":"東京都","city":"狛江市","address":"狛江市中和泉3-19-14","lat":35.63551,"lon":139.567263},{"name":"めぐみの森保育園","province":"東京都","city":"狛江市","address":"狛江市中和泉3-12-6","lat":35.636863,"lon":139.570504},{"name":"狛江ちとせ保育園","province":"東京都","city":"狛江市","address":"狛江市東和泉1-35-10","lat":35.629517,"lon":139.575646},{"name":"虹のひかり保育園","province":"東京都","city":"狛江市","address":"狛江市東和泉1-32-18","lat":35.630397,"lon":139.576365},{"name":"ぎんきょう保育園","province":"東京都","city":"狛江市","address":"狛江市東和泉1-34-25","lat":35.629603,"lon":139.576971},{"name":"駒井保育園","province":"東京都","city":"狛江市","address":"狛江市駒井町2-28-6","lat":35.62441,"lon":139.587573},{"name":"駒井町みんなの家","province":"東京都","city":"狛江市","address":"狛江市駒井町3-36-1","lat":35.623085,"lon":139.589087},{"name":"パイオニアキッズ西野川園","province":"東京都","city":"狛江市","address":"狛江市西野川2-4-15","lat":35.644009,"lon":139.575034},{"name":"狛江保育園","province":"東京都","city":"狛江市","address":"狛江市西野川4-12-1","lat":35.647061,"lon":139.572648},{"name":"三島保育園","province":"東京都","city":"狛江市","address":"狛江市東野川1-32-2","lat":35.64189,"lon":139.582914},{"name":"東野川保育園みんなの家","province":"東京都","city":"狛江市","address":"狛江市東野川4-9-7","lat":35.644812,"lon":139.583536},{"name":"藤塚保育園","province":"東京都","city":"狛江市","address":"狛江市和泉本町4-7-35","lat":35.642112,"lon":139.56984},{"name":"狛江子どもの家","province":"東京都","city":"狛江市","address":"狛江市和泉本町1-36-4","lat":35.636205,"lon":139.577915},{"name":"いずみ保育園","province":"東京都","city":"狛江市","address":"狛江市岩戸北1-1-12","lat":35.635774,"lon":139.579845},{"name":"アスク岩戸北保育園","province":"東京都","city":"狛江市","address":"狛江市岩戸北3-3-23","lat":35.634341,"lon":139.582651},{"name":"駄倉保育園","province":"東京都","city":"狛江市","address":"狛江市岩戸北3-20-2","lat":35.632894,"lon":139.58164},{"name":"ベネッセ狛江南保育園","province":"東京都","city":"狛江市","address":"狛江市岩戸北3-23-8","lat":35.63228,"lon":139.582851},{"name":"多摩川保育園","province":"東京都","city":"狛江市","address":"狛江市西和泉1-5-1","lat":35.640415,"lon":139.563477},{"name":"グローバルキッズ狛江園","province":"東京都","city":"狛江市","address":"狛江市中和泉3-19-14","lat":35.63551,"lon":139.567263},{"name":"めぐみの森保育園","province":"東京都","city":"狛江市","address":"狛江市中和泉3-12-6","lat":35.636863,"lon":139.570504},{"name":"狛江ちとせ保育園","province":"東京都","city":"狛江市","address":"狛江市東和泉1-35-10","lat":35.629517,"lon":139.575646},{"name":"虹のひかり保育園","province":"東京都","city":"狛江市","address":"狛江市東和泉1-32-18","lat":35.630397,"lon":139.576365},{"name":"ぎんきょう保育園","province":"東京都","city":"狛江市","address":"狛江市東和泉1-34-25","lat":35.629603,"lon":139.576971},{"name":"駒井保育園","province":"東京都","city":"狛江市","address":"狛江市駒井町2-28-6","lat":35.62441,"lon":139.587573},{"name":"駒井町みんなの家","province":"東京都","city":"狛江市","address":"狛江市駒井町3-36-1","lat":35.623085,"lon":139.589087},{"name":"パイオニアキッズ西野川園","province":"東京都","city":"狛江市","address":"狛江市西野川2-4-15","lat":35.644009,"lon":139.575034},{"name":"狛江保育園","province":"東京都","city":"狛江市","address":"狛江市西野川4-12-1","lat":35.647061,"lon":139.572648},{"name":"三島保育園","province":"東京都","city":"狛江市","address":"狛江市東野川1-32-2","lat":35.64189,"lon":139.582914},{"name":"東野川保育園みんなの家","province":"東京都","city":"狛江市","address":"狛江市東野川4-9-7","lat":35.644812,"lon":139.583536},{"name":"藤塚保育園","province":"東京都","city":"狛江市","address":"狛江市和泉本町4-7-35","lat":35.642112,"lon":139.56984},{"name":"狛江子どもの家","province":"東京都","city":"狛江市","address":"狛江市和泉本町1-36-4","lat":35.636205,"lon":139.577915},{"name":"いずみ保育園","province":"東京都","city":"狛江市","address":"狛江市岩戸北1-1-12","lat":35.635774,"lon":139.579845},{"name":"アスク岩戸北保育園","province":"東京都","city":"狛江市","address":"狛江市岩戸北3-3-23","lat":35.634341,"lon":139.582651},{"name":"駄倉保育園","province":"東京都","city":"狛江市","address":"狛江市岩戸北3-20-2","lat":35.632894,"lon":139.58164},{"name":"ベネッセ狛江南保育園","province":"東京都","city":"狛江市","address":"狛江市岩戸北3-23-8","lat":35.63228,"lon":139.582851},{"name":"多摩川保育園","province":"東京都","city":"狛江市","address":"狛江市西和泉1-5-1","lat":35.640415,"lon":139.563477},{"name":"グローバルキッズ狛江園","province":"東京都","city":"狛江市","address":"狛江市中和泉3-19-14","lat":35.63551,"lon":139.567263},{"name":"めぐみの森保育園","province":"東京都","city":"狛江市","address":"狛江市中和泉3-12-6","lat":35.636863,"lon":139.570504},{"name":"狛江ちとせ保育園","province":"東京都","city":"狛江市","address":"狛江市東和泉1-35-10","lat":35.629517,"lon":139.575646},{"name":"虹のひかり保育園","province":"東京都","city":"狛江市","address":"狛江市東和泉1-32-18","lat":35.630397,"lon":139.576365},{"name":"ぎんきょう保育園","province":"東京都","city":"狛江市","address":"狛江市東和泉1-34-25","lat":35.629603,"lon":139.576971},{"name":"駒井保育園","province":"東京都","city":"狛江市","address":"狛江市駒井町2-28-6","lat":35.62441,"lon":139.587573},{"name":"駒井町みんなの家","province":"東京都","city":"狛江市","address":"狛江市駒井町3-36-1","lat":35.623085,"lon":139.589087},{"name":"パイオニアキッズ西野川園","province":"東京都","city":"狛江市","address":"狛江市西野川2-4-15","lat":35.644009,"lon":139.575034},{"name":"狛江保育園","province":"東京都","city":"狛江市","address":"狛江市西野川4-12-1","lat":35.647061,"lon":139.572648},{"name":"三島保育園","province":"東京都","city":"狛江市","address":"狛江市東野川1-32-2","lat":35.64189,"lon":139.582914},{"name":"東野川保育園みんなの家","province":"東京都","city":"狛江市","address":"狛江市東野川4-9-7","lat":35.644812,"lon":139.583536},{"name":"藤塚保育園","province":"東京都","city":"狛江市","address":"狛江市和泉本町4-7-35","lat":35.642112,"lon":139.56984},{"name":"狛江子どもの家","province":"東京都","city":"狛江市","address":"狛江市和泉本町1-36-4","lat":35.636205,"lon":139.577915},{"name":"いずみ保育園","province":"東京都","city":"狛江市","address":"狛江市岩戸北1-1-12","lat":35.635774,"lon":139.579845},{"name":"アスク岩戸北保育園","province":"東京都","city":"狛江市","address":"狛江市岩戸北3-3-23","lat":35.634341,"lon":139.582651},{"name":"駄倉保育園","province":"東京都","city":"狛江市","address":"狛江市岩戸北3-20-2","lat":35.632894,"lon":139.58164},{"name":"ベネッセ狛江南保育園","province":"東京都","city":"狛江市","address":"狛江市岩戸北3-23-8","lat":35.63228,"lon":139.582851},{"name":"多摩川保育園","province":"東京都","city":"狛江市","address":"狛江市西和泉1-5-1","lat":35.640415,"lon":139.563477},{"name":"グローバルキッズ狛江園","province":"東京都","city":"狛江市","address":"狛江市中和泉3-19-14","lat":35.63551,"lon":139.567263},{"name":"めぐみの森保育園","province":"東京都","city":"狛江市","address":"狛江市中和泉3-12-6","lat":35.636863,"lon":139.570504},{"name":"狛江ちとせ保育園","province":"東京都","city":"狛江市","address":"狛江市東和泉1-35-10","lat":35.629517,"lon":139.575646},{"name":"虹のひかり保育園","province":"東京都","city":"狛江市","address":"狛江市東和泉1-32-18","lat":35.630397,"lon":139.576365},{"name":"ぎんきょう保育園","province":"東京都","city":"狛江市","address":"狛江市東和泉1-34-25","lat":35.629603,"lon":139.576971},{"name":"駒井保育園","province":"東京都","city":"狛江市","address":"狛江市駒井町2-28-6","lat":35.62441,"lon":139.587573},{"name":"駒井町みんなの家","province":"東京都","city":"狛江市","address":"狛江市駒井町3-36-1","lat":35.623085,"lon":139.589087},{"name":"パイオニアキッズ西野川園","province":"東京都","city":"狛江市","address":"狛江市西野川2-4-15","lat":35.644009,"lon":139.575034},{"name":"狛江保育園","province":"東京都","city":"狛江市","address":"狛江市西野川4-12-1","lat":35.647061,"lon":139.572648},{"name":"三島保育園","province":"東京都","city":"狛江市","address":"狛江市東野川1-32-2","lat":35.64189,"lon":139.582914},{"name":"東野川保育園みんなの家","province":"東京都","city":"狛江市","address":"狛江市東野川4-9-7","lat":35.644812,"lon":139.583536},{"name":"藤塚保育園","province":"東京都","city":"狛江市","address":"狛江市和泉本町4-7-35","lat":35.642112,"lon":139.56984},{"name":"狛江子どもの家","province":"東京都","city":"狛江市","address":"狛江市和泉本町1-36-4","lat":35.636205,"lon":139.577915},{"name":"いずみ保育園","province":"東京都","city":"狛江市","address":"狛江市岩戸北1-1-12","lat":35.635774,"lon":139.579845},{"name":"アスク岩戸北保育園","province":"東京都","city":"狛江市","address":"狛江市岩戸北3-3-23","lat":35.634341,"lon":139.582651},{"name":"駄倉保育園","province":"東京都","city":"狛江市","address":"狛江市岩戸北3-20-2","lat":35.632894,"lon":139.58164},{"name":"ベネッセ狛江南保育園","province":"東京都","city":"狛江市","address":"狛江市岩戸北3-23-8","lat":35.63228,"lon":139.582851},{"name":"多摩川保育園","province":"東京都","city":"狛江市","address":"狛江市西和泉1-5-1","lat":35.640415,"lon":139.563477},{"name":"グローバルキッズ狛江園","province":"東京都","city":"狛江市","address":"狛江市中和泉3-19-14","lat":35.63551,"lon":139.567263},{"name":"めぐみの森保育園","province":"東京都","city":"狛江市","address":"狛江市中和泉3-12-6","lat":35.636863,"lon":139.570504},{"name":"狛江ちとせ保育園","province":"東京都","city":"狛江市","address":"狛江市東和泉1-35-10","lat":35.629517,"lon":139.575646},{"name":"虹のひかり保育園","province":"東京都","city":"狛江市","address":"狛江市東和泉1-32-18","lat":35.630397,"lon":139.576365},{"name":"ぎんきょう保育園","province":"東京都","city":"狛江市","address":"狛江市東和泉1-34-25","lat":35.629603,"lon":139.576971},{"name":"駒井保育園","province":"東京都","city":"狛江市","address":"狛江市駒井町2-28-6","lat":35.62441,"lon":139.587573},{"name":"駒井町みんなの家","province":"東京都","city":"狛江市","address":"狛江市駒井町3-36-1","lat":35.623085,"lon":139.589087},{"name":"パイオニアキッズ西野川園","province":"東京都","city":"狛江市","address":"狛江市西野川2-4-15","lat":35.644009,"lon":139.575034},{"name":"狛江保育園","province":"東京都","city":"狛江市","address":"狛江市西野川4-12-1","lat":35.647061,"lon":139.572648},{"name":"三島保育園","province":"東京都","city":"狛江市","address":"狛江市東野川1-32-2","lat":35.64189,"lon":139.582914},{"name":"東野川保育園みんなの家","province":"東京都","city":"狛江市","address":"狛江市東野川4-9-7","lat":35.644812,"lon":139.583536},{"name":"藤塚保育園","province":"東京都","city":"狛江市","address":"狛江市和泉本町4-7-35","lat":35.642112,"lon":139.56984},{"name":"狛江子どもの家","province":"東京都","city":"狛江市","address":"狛江市和泉本町1-36-4","lat":35.636205,"lon":139.577915},{"name":"いずみ保育園","province":"東京都","city":"狛江市","address":"狛江市岩戸北1-1-12","lat":35.635774,"lon":139.579845},{"name":"アスク岩戸北保育園","province":"東京都","city":"狛江市","address":"狛江市岩戸北3-3-23","lat":35.634341,"lon":139.582651},{"name":"駄倉保育園","province":"東京都","city":"狛江市","address":"狛江市岩戸北3-20-2","lat":35.632894,"lon":139.58164},{"name":"ベネッセ狛江南保育園","province":"東京都","city":"狛江市","address":"狛江市岩戸北3-23-8","lat":35.63228,"lon":139.582851},{"name":"多摩川保育園","province":"東京都","city":"狛江市","address":"狛江市西和泉1-5-1","lat":35.640415,"lon":139.563477},{"name":"グローバルキッズ狛江園","province":"東京都","city":"狛江市","address":"狛江市中和泉3-19-14","lat":35.63551,"lon":139.567263},{"name":"めぐみの森保育園","province":"東京都","city":"狛江市","address":"狛江市中和泉3-12-6","lat":35.636863,"lon":139.570504},{"name":"狛江ちとせ保育園","province":"東京都","city":"狛江市","address":"狛江市東和泉1-35-10","lat":35.629517,"lon":139.575646},{"name":"虹のひかり保育園","province":"東京都","city":"狛江市","address":"狛江市東和泉1-32-18","lat":35.630397,"lon":139.576365},{"name":"ぎんきょう保育園","province":"東京都","city":"狛江市","address":"狛江市東和泉1-34-25","lat":35.629603,"lon":139.576971},{"name":"駒井保育園","province":"東京都","city":"狛江市","address":"狛江市駒井町2-28-6","lat":35.62441,"lon":139.587573},{"name":"駒井町みんなの家","province":"東京都","city":"狛江市","address":"狛江市駒井町3-36-1","lat":35.623085,"lon":139.589087},{"name":"パイオニアキッズ西野川園","province":"東京都","city":"狛江市","address":"狛江市西野川2-4-15","lat":35.644009,"lon":139.575034},{"name":"狛江保育園","province":"東京都","city":"狛江市","address":"狛江市西野川4-12-1","lat":35.647061,"lon":139.572648},{"name":"三島保育園","province":"東京都","city":"狛江市","address":"狛江市東野川1-32-2","lat":35.64189,"lon":139.582914},{"name":"東野川保育園みんなの家","province":"東京都","city":"狛江市","address":"狛江市東野川4-9-7","lat":35.644812,"lon":139.583536},{"name":"藤塚保育園","province":"東京都","city":"狛江市","address":"狛江市和泉本町4-7-35","lat":35.642112,"lon":139.56984},{"name":"狛江子どもの家","province":"東京都","city":"狛江市","address":"狛江市和泉本町1-36-4","lat":35.636205,"lon":139.577915},{"name":"いずみ保育園","province":"東京都","city":"狛江市","address":"狛江市岩戸北1-1-12","lat":35.635774,"lon":139.579845},{"name":"アスク岩戸北保育園","province":"東京都","city":"狛江市","address":"狛江市岩戸北3-3-23","lat":35.634341,"lon":139.582651},{"name":"駄倉保育園","province":"東京都","city":"狛江市","address":"狛江市岩戸北3-20-2","lat":35.632894,"lon":139.58164},{"name":"ベネッセ狛江南保育園","province":"東京都","city":"狛江市","address":"狛江市岩戸北3-23-8","lat":35.63228,"lon":139.582851},{"name":"多摩川保育園","province":"東京都","city":"狛江市","address":"狛江市西和泉1-5-1","lat":35.640415,"lon":139.563477},{"name":"グローバルキッズ狛江園","province":"東京都","city":"狛江市","address":"狛江市中和泉3-19-14","lat":35.63551,"lon":139.567263},{"name":"めぐみの森保育園","province":"東京都","city":"狛江市","address":"狛江市中和泉3-12-6","lat":35.636863,"lon":139.570504},{"name":"狛江ちとせ保育園","province":"東京都","city":"狛江市","address":"狛江市東和泉1-35-10","lat":35.629517,"lon":139.575646},{"name":"虹のひかり保育園","province":"東京都","city":"狛江市","address":"狛江市東和泉1-32-18","lat":35.630397,"lon":139.576365},{"name":"ぎんきょう保育園","province":"東京都","city":"狛江市","address":"狛江市東和泉1-34-25","lat":35.629603,"lon":139.576971},{"name":"駒井保育園","province":"東京都","city":"狛江市","address":"狛江市駒井町2-28-6","lat":35.62441,"lon":139.587573},{"name":"駒井町みんなの家","province":"東京都","city":"狛江市","address":"狛江市駒井町3-36-1","lat":35.623085,"lon":139.589087}]}