{"keyword":"保育","data":[{"name":"パイオニアキッズ西野川園","province":"東京都","city":"狛江市","address":"狛江市西野川2-4-15","lat":35.644009,"lon":139.575034},{"name":"狛江保育園","province":"東京都","city":"狛江市","address":"狛江市西野川4-12-1","lat":35.647061,"lon":139.572648},{"name":"三島保育園","province":"東京都","city":"狛江市","address":"狛江市東野川1-32-2","lat":35.64189,"lon":139.582914},{"name":"東野川保育園みんなの家","province":"東京都","city":"狛江市","address":"狛江市東野川4-9-7","lat":35.644812,"lon":139.583536},{"name":"藤塚保育園","province":"東京都","city":"狛江市","address":"狛江市和泉本町4-7-35","lat":35.642112,"lon":139.56984},{"name":"狛江子どもの家","province":"東京都","city":"狛江市","address":"狛江市和泉本町1-36-4","lat":35.636205,"lon":139.577915},{"name":"いずみ保育園","province":"東京都","city":"狛江市","address":"狛江市岩戸北1-1-12","lat":35.635774,"lon":139.579845},{"name":"アスク岩戸北保育園","province":"東京都","city":"狛江市","address":"狛江市岩戸北3-3-23","lat":35.634341,"lon":139.582651},{"name":"駄倉保育園","province":"東京都","city":"狛江市","address":"狛江市岩戸北3-20-2","lat":35.632894,"lon":139.58164},{"name":"ベネッセ狛江南保育園","province":"東京都","city":"狛江市","address":"狛江市岩戸北3-23-8","lat":35.63228,"lon":139.582851},{"name":"多摩川保育園","province":"東京都","city":"狛江市","address":"狛江市西和泉1-5-1","lat":35.640415,"lon":139.563477},{"name":"グローバルキッズ狛江園","province":"東京都","city":"狛江市","address":"狛江市中和泉3-19-14","lat":35.63551,"lon":139.567263},{"name":"めぐみの森保育園","province":"東京都","city":"狛江市","address":"狛江市中和泉3-12-6","lat":35.636863,"lon":139.570504},{"name":"狛江ちとせ保育園","province":"東京都","city":"狛江市","address":"狛江市東和泉1-35-10","lat":35.629517,"lon":139.575646},{"name":"虹のひかり保育園","province":"東京都","city":"狛江市","address":"狛江市東和泉1-32-18","lat":35.630397,"lon":139.576365},{"name":"ぎんきょう保育園","province":"東京都","city":"狛江市","address":"狛江市東和泉1-34-25","lat":35.629603,"lon":139.576971},{"name":"駒井保育園","province":"東京都","city":"狛江市","address":"狛江市駒井町2-28-6","lat":35.62441,"lon":139.587573},{"name":"駒井町みんなの家","province":"東京都","city":"狛江市","address":"狛江市駒井町3-36-1","lat":35.623085,"lon":139.589087}]}