{"keyword":"公共","data":[{"name":"狛江市子ども家庭支援センター","province":"東京都","city":"狛江市","address":"東京都狛江市元和泉2-35-1","lat":35.6333,"lon":139.567778},{"name":"南部地域センター","province":"東京都","city":"狛江市","address":"東京都狛江市猪方4-11-1","lat":35.623377,"lon":139.579809},{"name":"上和泉地域センター","province":"東京都","city":"狛江市","address":"東京都狛江市和泉本町4-7-51","lat":35.645149,"lon":139.568014},{"name":"岩戸地域センター","province":"東京都","city":"狛江市","address":"東京都狛江市岩戸南2-2-5","lat":35.632071,"lon":139.586045},{"name":"野川地域センター","province":"東京都","city":"狛江市","address":"東京都狛江市西野川1-6-9","lat":35.646093,"lon":139.575503},{"name":"狛江市中央公民館","province":"東京都","city":"狛江市","address":"東京都狛江市和泉本町1-1-5","lat":35.635208,"lon":139.578171},{"name":"狛江市あいとぴあセンター","province":"東京都","city":"狛江市","address":"東京都狛江市元和泉2-35-1","lat":35.633349,"lon":139.56768},{"name":"狛江市西河原公民館","province":"東京都","city":"狛江市","address":"東京都狛江市元和泉2-35-1","lat":35.63344,"lon":139.567029},{"name":"狛江市立古民家園","province":"東京都","city":"狛江市","address":"東京都狛江市元和泉2-15-5","lat":35.632911,"lon":139.571155},{"name":"中村児童公園","province":"東京都","city":"狛江市","address":"東京都狛江市東野川2-16-10","lat":35.645554,"lon":139.579756},{"name":"丸山児童公園","province":"東京都","city":"狛江市","address":"東京都狛江市和泉本町2-15-3","lat":35.640334,"lon":139.579484},{"name":"供養塚児童公園","province":"東京都","city":"狛江市","address":"東京都狛江市駒井町3-3-1","lat":35.623597,"lon":139.581942},{"name":"田中の池児童公園","province":"東京都","city":"狛江市","address":"東京都狛江市元和泉2-17-1","lat":35.631247,"lon":139.572177},{"name":"多摩川緑地公園","province":"東京都","city":"狛江市","address":"東京都狛江市猪方4-923","lat":35.624292,"lon":139.573484},{"name":"藤塚第一児童公園","province":"東京都","city":"狛江市","address":"東京都狛江市和泉本町4-7-14","lat":35.644954,"lon":139.567907},{"name":"藤塚第二児童公園","province":"東京都","city":"狛江市","address":"東京都狛江市和泉本町4-7-12","lat":35.644405,"lon":139.568019},{"name":"藤塚第三児童公園","province":"東京都","city":"狛江市","address":"東京都狛江市和泉本町4-7-25","lat":35.643747,"lon":139.568703},{"name":"藤塚第四児童公園","province":"東京都","city":"狛江市","address":"東京都狛江市和泉本町4-7-39","lat":35.642764,"lon":139.569631},{"name":"西河原公園","province":"東京都","city":"狛江市","address":"東京都狛江市元和泉2-38-1","lat":35.632862,"lon":139.567111},{"name":"野川緑地公園","province":"東京都","city":"狛江市","address":"東京都狛江市和泉本町、岩戸北、東野川、西野川地内","lat":35.642924,"lon":139.578609},{"name":"みつおさ児童公園","province":"東京都","city":"狛江市","address":"東京都狛江市東野川3-16-4","lat":35.646008,"lon":139.5841},{"name":"水道橋児童公園","province":"東京都","city":"狛江市","address":"東京都狛江市東和泉4-9-1","lat":35.626327,"lon":139.570912},{"name":"岩戸川緑地公園","province":"東京都","city":"狛江市","address":"東京都狛江市岩戸南、猪方地内","lat":35.629286,"lon":139.587096},{"name":"野川北公園","province":"東京都","city":"狛江市","address":"東京都狛江市西野川1-19-10","lat":35.648544,"lon":139.576102},{"name":"元和泉公園","province":"東京都","city":"狛江市","address":"東京都狛江市元和泉2-12-7","lat":35.631988,"lon":139.57233},{"name":"西河原自然公園","province":"東京都","city":"狛江市","address":"東京都狛江市元和泉2-34-20","lat":35.633246,"lon":139.570163},{"name":"和泉多摩川児童公園","province":"東京都","city":"狛江市","address":"東京都狛江市元和泉3-6-11","lat":35.628261,"lon":139.571899},{"name":"小足立のびのび公園","province":"東京都","city":"狛江市","address":"東京都狛江市西野川4-14-1","lat":35.647587,"lon":139.572822},{"name":"前原公園","province":"東京都","city":"狛江市","address":"東京都狛江市西野川3-11-1","lat":35.64497,"lon":139.570204},{"name":"駒井・上村中ひだまり公園","province":"東京都","city":"狛江市","address":"東京都狛江市駒井町1-12-1","lat":35.625837,"lon":139.585665},{"name":"谷戸橋南広場","province":"東京都","city":"狛江市","address":"東京都狛江市東野川4-23","lat":35.644114,"lon":139.586957},{"name":"北久保公園","province":"東京都","city":"狛江市","address":"東京都狛江市和泉本町2-23-9","lat":35.643085,"lon":139.578234},{"name":"岩戸川南公園","province":"東京都","city":"狛江市","address":"東京都狛江市岩戸南4-17-28","lat":35.626667,"lon":139.593378},{"name":"清水川公園","province":"東京都","city":"狛江市","address":"東京都狛江市東和泉2-9","lat":35.630053,"lon":139.580833},{"name":"根川公園","province":"東京都","city":"狛江市","address":"東京都狛江市中和泉4-15-41","lat":35.63447,"lon":139.56471},{"name":"狛江弁財天池特別緑地保全地区","province":"東京都","city":"狛江市","address":"東京都狛江市元和泉1-7","lat":35.632292,"lon":139.576168}]}