{"keyword":"収蔵","data":[{"name":"和泉本町給水所","province":"東京都","city":"狛江市","address":"東京都狛江市和泉本町4-6-1","lat":35.6429908,"lon":139.571116},{"name":"和泉本町浄水所","province":"東京都","city":"狛江市","address":"東京都狛江市和泉本町4丁目6-1","lat":35.64293402,"lon":139.57119546},{"name":"狛江市立多摩川緑地公園グラウンド","province":"東京都","city":"狛江市","address":"東京都狛江市猪方4丁目","lat":35.62390138,"lon":139.57723281},{"name":"防衛省共済組合狛江スポーツセンター","province":"東京都","city":"狛江市","address":"東京都狛江市元和泉2丁目30","lat":35.63228871,"lon":139.5684829},{"name":"＊?狛江市立西河原公民館","province":"東京都","city":"狛江市","address":"狛江市元和泉2-35-1","lat":35.633318,"lon":139.567745},{"name":"＊?狛江市立中央公民館","province":"東京都","city":"狛江市","address":"狛江市和泉本町1-1-5","lat":35.634887,"lon":139.578748},{"name":"和泉本町給水所","province":"東京都","city":"狛江市","address":"東京都狛江市和泉本町4-6-1","lat":35.6429908,"lon":139.571116},{"name":"和泉本町浄水所","province":"東京都","city":"狛江市","address":"東京都狛江市和泉本町4丁目6-1","lat":35.64293402,"lon":139.57119546},{"name":"狛江市立多摩川緑地公園グラウンド","province":"東京都","city":"狛江市","address":"東京都狛江市猪方4丁目","lat":35.62390138,"lon":139.57723281},{"name":"防衛省共済組合狛江スポーツセンター","province":"東京都","city":"狛江市","address":"東京都狛江市元和泉2丁目30","lat":35.63228871,"lon":139.5684829},{"name":"＊?狛江市立西河原公民館","province":"東京都","city":"狛江市","address":"狛江市元和泉2-35-1","lat":35.633318,"lon":139.567745},{"name":"＊?狛江市立中央公民館","province":"東京都","city":"狛江市","address":"狛江市和泉本町1-1-5","lat":35.634887,"lon":139.578748},{"name":"和泉本町給水所","province":"東京都","city":"狛江市","address":"東京都狛江市和泉本町4-6-1","lat":35.6429908,"lon":139.571116},{"name":"和泉本町浄水所","province":"東京都","city":"狛江市","address":"東京都狛江市和泉本町4丁目6-1","lat":35.64293402,"lon":139.57119546},{"name":"狛江市立多摩川緑地公園グラウンド","province":"東京都","city":"狛江市","address":"東京都狛江市猪方4丁目","lat":35.62390138,"lon":139.57723281},{"name":"防衛省共済組合狛江スポーツセンター","province":"東京都","city":"狛江市","address":"東京都狛江市元和泉2丁目30","lat":35.63228871,"lon":139.5684829},{"name":"＊?狛江市立西河原公民館","province":"東京都","city":"狛江市","address":"狛江市元和泉2-35-1","lat":35.633318,"lon":139.567745},{"name":"＊?狛江市立中央公民館","province":"東京都","city":"狛江市","address":"狛江市和泉本町1-1-5","lat":35.634887,"lon":139.578748},{"name":"和泉本町給水所","province":"東京都","city":"狛江市","address":"東京都狛江市和泉本町4-6-1","lat":35.6429908,"lon":139.571116},{"name":"狛江市立多摩川緑地公園グラウンド","province":"東京都","city":"狛江市","address":"東京都狛江市猪方4丁目","lat":35.62390138,"lon":139.57723281},{"name":"防衛省共済組合狛江スポーツセンター","province":"東京都","city":"狛江市","address":"東京都狛江市元和泉2丁目30","lat":35.63228871,"lon":139.5684829},{"name":"＊?狛江市立西河原公民館","province":"東京都","city":"狛江市","address":"狛江市元和泉2-35-1","lat":35.633318,"lon":139.567745},{"name":"＊?狛江市立中央公民館","province":"東京都","city":"狛江市","address":"狛江市和泉本町1-1-5","lat":35.634887,"lon":139.578748},{"name":"和泉本町給水所","province":"東京都","city":"狛江市","address":"東京都狛江市和泉本町4-6-1","lat":35.6429908,"lon":139.571116},{"name":"＊?狛江市立西河原公民館","province":"東京都","city":"狛江市","address":"狛江市元和泉2-35-1","lat":35.633318,"lon":139.567745},{"name":"＊?狛江市立中央公民館","province":"東京都","city":"狛江市","address":"狛江市和泉本町1-1-5","lat":35.634887,"lon":139.578748},{"name":"和泉本町給水所","province":"東京都","city":"狛江市","address":"東京都狛江市和泉本町4-6-1","lat":35.6429908,"lon":139.571116},{"name":"＊?狛江市立西河原公民館","province":"東京都","city":"狛江市","address":"狛江市元和泉2-35-1","lat":35.633318,"lon":139.567745},{"name":"＊?狛江市立中央公民館","province":"東京都","city":"狛江市","address":"狛江市和泉本町1-1-5","lat":35.634887,"lon":139.578748},{"name":"和泉本町給水所","province":"東京都","city":"狛江市","address":"東京都狛江市和泉本町4-6-1","lat":35.6429908,"lon":139.571116},{"name":"＊?狛江市立西河原公民館","province":"東京都","city":"狛江市","address":"狛江市元和泉2-35-1","lat":35.633318,"lon":139.567745},{"name":"＊?狛江市立中央公民館","province":"東京都","city":"狛江市","address":"狛江市和泉本町1-1-5","lat":35.634887,"lon":139.578748},{"name":"和泉本町給水所","province":"東京都","city":"狛江市","address":"東京都狛江市和泉本町4-6-1","lat":35.6429908,"lon":139.571116},{"name":"＊?狛江市立西河原公民館","province":"東京都","city":"狛江市","address":"狛江市元和泉2-35-1","lat":35.633318,"lon":139.567745},{"name":"＊?狛江市立中央公民館","province":"東京都","city":"狛江市","address":"狛江市和泉本町1-1-5","lat":35.634887,"lon":139.578748},{"name":"和泉本町給水所","province":"東京都","city":"狛江市","address":"東京都狛江市和泉本町4-6-1","lat":35.6429908,"lon":139.571116},{"name":"＊?狛江市立西河原公民館","province":"東京都","city":"狛江市","address":"狛江市元和泉2-35-1","lat":35.633318,"lon":139.567745},{"name":"＊?狛江市立中央公民館","province":"東京都","city":"狛江市","address":"狛江市和泉本町1-1-5","lat":35.634887,"lon":139.578748},{"name":"和泉本町給水所","province":"東京都","city":"狛江市","address":"東京都狛江市和泉本町4-6-1","lat":35.6429908,"lon":139.571116},{"name":"＊?狛江市立西河原公民館","province":"東京都","city":"狛江市","address":"狛江市元和泉2-35-1","lat":35.633318,"lon":139.567745},{"name":"＊?狛江市立中央公民館","province":"東京都","city":"狛江市","address":"狛江市和泉本町1-1-5","lat":35.634887,"lon":139.578748},{"name":"和泉本町給水所","province":"東京都","city":"狛江市","address":"東京都狛江市和泉本町4-6-1","lat":35.6429908,"lon":139.571116},{"name":"＊?狛江市立西河原公民館","province":"東京都","city":"狛江市","address":"狛江市元和泉2-35-1","lat":35.633318,"lon":139.567745},{"name":"＊?狛江市立中央公民館","province":"東京都","city":"狛江市","address":"狛江市和泉本町1-1-5","lat":35.634887,"lon":139.578748},{"name":"和泉本町給水所","province":"東京都","city":"狛江市","address":"東京都狛江市和泉本町4-6-1","lat":35.6429908,"lon":139.571116},{"name":"＊?狛江市立西河原公民館","province":"東京都","city":"狛江市","address":"狛江市元和泉2-35-1","lat":35.633318,"lon":139.567745},{"name":"＊?狛江市立中央公民館","province":"東京都","city":"狛江市","address":"狛江市和泉本町1-1-5","lat":35.634887,"lon":139.578748},{"name":"和泉本町給水所","province":"東京都","city":"狛江市","address":"東京都狛江市和泉本町4-6-1","lat":35.6429908,"lon":139.571116},{"name":"＊?狛江市立西河原公民館","province":"東京都","city":"狛江市","address":"狛江市元和泉2-35-1","lat":35.633318,"lon":139.567745},{"name":"＊?狛江市立中央公民館","province":"東京都","city":"狛江市","address":"狛江市和泉本町1-1-5","lat":35.634887,"lon":139.578748},{"name":"和泉本町給水所","province":"東京都","city":"狛江市","address":"東京都狛江市和泉本町4-6-1","lat":35.6429908,"lon":139.571116},{"name":"＊?狛江市立西河原公民館","province":"東京都","city":"狛江市","address":"狛江市元和泉2-35-1","lat":35.633318,"lon":139.567745},{"name":"＊?狛江市立中央公民館","province":"東京都","city":"狛江市","address":"狛江市和泉本町1-1-5","lat":35.634887,"lon":139.578748},{"name":"和泉本町給水所","province":"東京都","city":"狛江市","address":"東京都狛江市和泉本町4-6-1","lat":35.6429908,"lon":139.571116},{"name":"＊?狛江市立西河原公民館","province":"東京都","city":"狛江市","address":"狛江市元和泉2-35-1","lat":35.633318,"lon":139.567745},{"name":"＊?狛江市立中央公民館","province":"東京都","city":"狛江市","address":"狛江市和泉本町1-1-5","lat":35.634887,"lon":139.578748},{"name":"和泉本町給水所","province":"東京都","city":"狛江市","address":"東京都狛江市和泉本町4-6-1","lat":35.6429908,"lon":139.571116},{"name":"＊?狛江市立西河原公民館","province":"東京都","city":"狛江市","address":"狛江市元和泉2-35-1","lat":35.633318,"lon":139.567745},{"name":"＊?狛江市立中央公民館","province":"東京都","city":"狛江市","address":"狛江市和泉本町1-1-5","lat":35.634887,"lon":139.578748},{"name":"和泉本町給水所","province":"東京都","city":"狛江市","address":"東京都狛江市和泉本町4-6-1","lat":35.6429908,"lon":139.571116},{"name":"＊?狛江市立西河原公民館","province":"東京都","city":"狛江市","address":"狛江市元和泉2-35-1","lat":35.633318,"lon":139.567745},{"name":"＊?狛江市立中央公民館","province":"東京都","city":"狛江市","address":"狛江市和泉本町1-1-5","lat":35.634887,"lon":139.578748},{"name":"和泉本町給水所","province":"東京都","city":"狛江市","address":"東京都狛江市和泉本町4-6-1","lat":35.6429908,"lon":139.571116},{"name":"＊?狛江市立西河原公民館","province":"東京都","city":"狛江市","address":"狛江市元和泉2-35-1","lat":35.633318,"lon":139.567745},{"name":"＊?狛江市立中央公民館","province":"東京都","city":"狛江市","address":"狛江市和泉本町1-1-5","lat":35.634887,"lon":139.578748},{"name":"和泉本町給水所","province":"東京都","city":"狛江市","address":"東京都狛江市和泉本町4-6-1","lat":35.6429908,"lon":139.571116},{"name":"＊?狛江市立西河原公民館","province":"東京都","city":"狛江市","address":"狛江市元和泉2-35-1","lat":35.633318,"lon":139.567745},{"name":"＊?狛江市立中央公民館","province":"東京都","city":"狛江市","address":"狛江市和泉本町1-1-5","lat":35.634887,"lon":139.578748},{"name":"和泉本町給水所","province":"東京都","city":"狛江市","address":"東京都狛江市和泉本町4-6-1","lat":35.6429908,"lon":139.571116},{"name":"＊?狛江市立西河原公民館","province":"東京都","city":"狛江市","address":"狛江市元和泉2-35-1","lat":35.633318,"lon":139.567745},{"name":"＊?狛江市立中央公民館","province":"東京都","city":"狛江市","address":"狛江市和泉本町1-1-5","lat":35.634887,"lon":139.578748},{"name":"和泉本町給水所","province":"東京都","city":"狛江市","address":"東京都狛江市和泉本町4-6-1","lat":35.6429908,"lon":139.571116},{"name":"＊?狛江市立西河原公民館","province":"東京都","city":"狛江市","address":"狛江市元和泉2-35-1","lat":35.633318,"lon":139.567745},{"name":"＊?狛江市立中央公民館","province":"東京都","city":"狛江市","address":"狛江市和泉本町1-1-5","lat":35.634887,"lon":139.578748},{"name":"和泉本町給水所","province":"東京都","city":"狛江市","address":"東京都狛江市和泉本町4-6-1","lat":35.6429908,"lon":139.571116},{"name":"＊?狛江市立西河原公民館","province":"東京都","city":"狛江市","address":"狛江市元和泉2-35-1","lat":35.633318,"lon":139.567745},{"name":"＊?狛江市立中央公民館","province":"東京都","city":"狛江市","address":"狛江市和泉本町1-1-5","lat":35.634887,"lon":139.578748},{"name":"和泉本町給水所","province":"東京都","city":"狛江市","address":"東京都狛江市和泉本町4-6-1","lat":35.6429908,"lon":139.571116},{"name":"＊?狛江市立西河原公民館","province":"東京都","city":"狛江市","address":"狛江市元和泉2-35-1","lat":35.633318,"lon":139.567745},{"name":"＊?狛江市立中央公民館","province":"東京都","city":"狛江市","address":"狛江市和泉本町1-1-5","lat":35.634887,"lon":139.578748},{"name":"和泉本町給水所","province":"東京都","city":"狛江市","address":"東京都狛江市和泉本町4-6-1","lat":35.6429908,"lon":139.571116},{"name":"＊?狛江市立西河原公民館","province":"東京都","city":"狛江市","address":"狛江市元和泉2-35-1","lat":35.633318,"lon":139.567745},{"name":"＊?狛江市立中央公民館","province":"東京都","city":"狛江市","address":"狛江市和泉本町1-1-5","lat":35.634887,"lon":139.578748},{"name":"和泉本町給水所","province":"東京都","city":"狛江市","address":"東京都狛江市和泉本町4-6-1","lat":35.6429908,"lon":139.571116},{"name":"＊?狛江市立西河原公民館","province":"東京都","city":"狛江市","address":"狛江市元和泉2-35-1","lat":35.633318,"lon":139.567745},{"name":"＊?狛江市立中央公民館","province":"東京都","city":"狛江市","address":"狛江市和泉本町1-1-5","lat":35.634887,"lon":139.578748},{"name":"和泉本町給水所","province":"東京都","city":"狛江市","address":"東京都狛江市和泉本町4-6-1","lat":35.6429908,"lon":139.571116},{"name":"＊?狛江市立西河原公民館","province":"東京都","city":"狛江市","address":"狛江市元和泉2-35-1","lat":35.633318,"lon":139.567745},{"name":"＊?狛江市立中央公民館","province":"東京都","city":"狛江市","address":"狛江市和泉本町1-1-5","lat":35.634887,"lon":139.578748},{"name":"和泉本町給水所","province":"東京都","city":"狛江市","address":"東京都狛江市和泉本町4-6-1","lat":35.6429908,"lon":139.571116},{"name":"＊?狛江市立西河原公民館","province":"東京都","city":"狛江市","address":"狛江市元和泉2-35-1","lat":35.633318,"lon":139.567745},{"name":"＊?狛江市立中央公民館","province":"東京都","city":"狛江市","address":"狛江市和泉本町1-1-5","lat":35.634887,"lon":139.578748},{"name":"和泉本町給水所","province":"東京都","city":"狛江市","address":"東京都狛江市和泉本町4-6-1","lat":35.6429908,"lon":139.571116},{"name":"＊?狛江市立西河原公民館","province":"東京都","city":"狛江市","address":"狛江市元和泉2-35-1","lat":35.633318,"lon":139.567745},{"name":"＊?狛江市立中央公民館","province":"東京都","city":"狛江市","address":"狛江市和泉本町1-1-5","lat":35.634887,"lon":139.578748},{"name":"和泉本町給水所","province":"東京都","city":"狛江市","address":"東京都狛江市和泉本町4-6-1","lat":35.6429908,"lon":139.571116},{"name":"＊?狛江市立西河原公民館","province":"東京都","city":"狛江市","address":"狛江市元和泉2-35-1","lat":35.633318,"lon":139.567745},{"name":"＊?狛江市立中央公民館","province":"東京都","city":"狛江市","address":"狛江市和泉本町1-1-5","lat":35.634887,"lon":139.578748},{"name":"和泉本町給水所","province":"東京都","city":"狛江市","address":"東京都狛江市和泉本町4-6-1","lat":35.6429908,"lon":139.571116},{"name":"＊?狛江市立西河原公民館","province":"東京都","city":"狛江市","address":"狛江市元和泉2-35-1","lat":35.633318,"lon":139.567745},{"name":"＊?狛江市立中央公民館","province":"東京都","city":"狛江市","address":"狛江市和泉本町1-1-5","lat":35.634887,"lon":139.578748},{"name":"和泉本町給水所","province":"東京都","city":"狛江市","address":"東京都狛江市和泉本町4-6-1","lat":35.6429908,"lon":139.571116},{"name":"＊?狛江市立西河原公民館","province":"東京都","city":"狛江市","address":"狛江市元和泉2-35-1","lat":35.633318,"lon":139.567745},{"name":"＊?狛江市立中央公民館","province":"東京都","city":"狛江市","address":"狛江市和泉本町1-1-5","lat":35.634887,"lon":139.578748},{"name":"和泉本町給水所","province":"東京都","city":"狛江市","address":"東京都狛江市和泉本町4-6-1","lat":35.6429908,"lon":139.571116},{"name":"＊?狛江市立西河原公民館","province":"東京都","city":"狛江市","address":"狛江市元和泉2-35-1","lat":35.633318,"lon":139.567745},{"name":"＊?狛江市立中央公民館","province":"東京都","city":"狛江市","address":"狛江市和泉本町1-1-5","lat":35.634887,"lon":139.578748},{"name":"和泉本町給水所","province":"東京都","city":"狛江市","address":"東京都狛江市和泉本町4-6-1","lat":35.6429908,"lon":139.571116},{"name":"＊?狛江市立西河原公民館","province":"東京都","city":"狛江市","address":"狛江市元和泉2-35-1","lat":35.633318,"lon":139.567745},{"name":"＊?狛江市立中央公民館","province":"東京都","city":"狛江市","address":"狛江市和泉本町1-1-5","lat":35.634887,"lon":139.578748},{"name":"和泉本町給水所","province":"東京都","city":"狛江市","address":"東京都狛江市和泉本町4-6-1","lat":35.6429908,"lon":139.571116},{"name":"＊?狛江市立西河原公民館","province":"東京都","city":"狛江市","address":"狛江市元和泉2-35-1","lat":35.633318,"lon":139.567745},{"name":"＊?狛江市立中央公民館","province":"東京都","city":"狛江市","address":"狛江市和泉本町1-1-5","lat":35.634887,"lon":139.578748},{"name":"和泉本町給水所","province":"東京都","city":"狛江市","address":"東京都狛江市和泉本町4-6-1","lat":35.6429908,"lon":139.571116},{"name":"＊?狛江市立西河原公民館","province":"東京都","city":"狛江市","address":"狛江市元和泉2-35-1","lat":35.633318,"lon":139.567745},{"name":"＊?狛江市立中央公民館","province":"東京都","city":"狛江市","address":"狛江市和泉本町1-1-5","lat":35.634887,"lon":139.578748},{"name":"和泉本町給水所","province":"東京都","city":"狛江市","address":"東京都狛江市和泉本町4-6-1","lat":35.6429908,"lon":139.571116},{"name":"＊?狛江市立西河原公民館","province":"東京都","city":"狛江市","address":"狛江市元和泉2-35-1","lat":35.633318,"lon":139.567745},{"name":"＊?狛江市立中央公民館","province":"東京都","city":"狛江市","address":"狛江市和泉本町1-1-5","lat":35.634887,"lon":139.578748},{"name":"和泉本町給水所","province":"東京都","city":"狛江市","address":"東京都狛江市和泉本町4-6-1","lat":35.6429908,"lon":139.571116},{"name":"＊?狛江市立西河原公民館","province":"東京都","city":"狛江市","address":"狛江市元和泉2-35-1","lat":35.633318,"lon":139.567745},{"name":"＊?狛江市立中央公民館","province":"東京都","city":"狛江市","address":"狛江市和泉本町1-1-5","lat":35.634887,"lon":139.578748},{"name":"和泉本町給水所","province":"東京都","city":"狛江市","address":"東京都狛江市和泉本町4-6-1","lat":35.6429908,"lon":139.571116},{"name":"＊?狛江市立西河原公民館","province":"東京都","city":"狛江市","address":"狛江市元和泉2-35-1","lat":35.633318,"lon":139.567745},{"name":"＊?狛江市立中央公民館","province":"東京都","city":"狛江市","address":"狛江市和泉本町1-1-5","lat":35.634887,"lon":139.578748},{"name":"和泉本町給水所","province":"東京都","city":"狛江市","address":"東京都狛江市和泉本町4-6-1","lat":35.6429908,"lon":139.571116},{"name":"＊?狛江市立西河原公民館","province":"東京都","city":"狛江市","address":"狛江市元和泉2-35-1","lat":35.633318,"lon":139.567745},{"name":"＊?狛江市立中央公民館","province":"東京都","city":"狛江市","address":"狛江市和泉本町1-1-5","lat":35.634887,"lon":139.578748},{"name":"和泉本町給水所","province":"東京都","city":"狛江市","address":"東京都狛江市和泉本町4-6-1","lat":35.6429908,"lon":139.571116},{"name":"＊?狛江市立西河原公民館","province":"東京都","city":"狛江市","address":"狛江市元和泉2-35-1","lat":35.633318,"lon":139.567745},{"name":"＊?狛江市立中央公民館","province":"東京都","city":"狛江市","address":"狛江市和泉本町1-1-5","lat":35.634887,"lon":139.578748},{"name":"和泉本町給水所","province":"東京都","city":"狛江市","address":"東京都狛江市和泉本町4-6-1","lat":35.6429908,"lon":139.571116},{"name":"＊?狛江市立西河原公民館","province":"東京都","city":"狛江市","address":"狛江市元和泉2-35-1","lat":35.633318,"lon":139.567745},{"name":"＊?狛江市立中央公民館","province":"東京都","city":"狛江市","address":"狛江市和泉本町1-1-5","lat":35.634887,"lon":139.578748},{"name":"和泉本町給水所","province":"東京都","city":"狛江市","address":"東京都狛江市和泉本町4-6-1","lat":35.6429908,"lon":139.571116},{"name":"＊?狛江市立西河原公民館","province":"東京都","city":"狛江市","address":"狛江市元和泉2-35-1","lat":35.633318,"lon":139.567745},{"name":"＊?狛江市立中央公民館","province":"東京都","city":"狛江市","address":"狛江市和泉本町1-1-5","lat":35.634887,"lon":139.578748},{"name":"和泉本町給水所","province":"東京都","city":"狛江市","address":"東京都狛江市和泉本町4-6-1","lat":35.6429908,"lon":139.571116},{"name":"＊?狛江市立西河原公民館","province":"東京都","city":"狛江市","address":"狛江市元和泉2-35-1","lat":35.633318,"lon":139.567745},{"name":"＊?狛江市立中央公民館","province":"東京都","city":"狛江市","address":"狛江市和泉本町1-1-5","lat":35.634887,"lon":139.578748},{"name":"和泉本町給水所","province":"東京都","city":"狛江市","address":"東京都狛江市和泉本町4-6-1","lat":35.6429908,"lon":139.571116},{"name":"＊?狛江市立西河原公民館","province":"東京都","city":"狛江市","address":"狛江市元和泉2-35-1","lat":35.633318,"lon":139.567745},{"name":"＊?狛江市立中央公民館","province":"東京都","city":"狛江市","address":"狛江市和泉本町1-1-5","lat":35.634887,"lon":139.578748},{"name":"和泉本町給水所","province":"東京都","city":"狛江市","address":"東京都狛江市和泉本町4-6-1","lat":35.6429908,"lon":139.571116},{"name":"＊?狛江市立西河原公民館","province":"東京都","city":"狛江市","address":"狛江市元和泉2-35-1","lat":35.633318,"lon":139.567745},{"name":"＊?狛江市立中央公民館","province":"東京都","city":"狛江市","address":"狛江市和泉本町1-1-5","lat":35.634887,"lon":139.578748}]}