{"keyword":"命令","data":[{"name":"パイオニアキッズ西野川園","province":"東京都","city":"狛江市","address":"狛江市西野川2-4-15","lat":35.6440155,"lon":139.5749907},{"name":"狛江保育園","province":"東京都","city":"狛江市","address":"狛江市西野川4-12-1","lat":35.64687,"lon":139.57288},{"name":"三島保育園","province":"東京都","city":"狛江市","address":"狛江市東野川1-32-2","lat":35.64243,"lon":139.5831},{"name":"東野川保育園みんなの家","province":"東京都","city":"狛江市","address":"狛江市東野川4丁目9番7号","lat":35.6446,"lon":139.58388},{"name":"狛江子どもの家","province":"東京都","city":"狛江市","address":"狛江市和泉本町1-36-4","lat":35.6362,"lon":139.57793},{"name":"藤塚保育園","province":"東京都","city":"狛江市","address":"狛江市和泉本町4-7-35","lat":35.64428,"lon":139.56754},{"name":"いずみ保育園","province":"東京都","city":"狛江市","address":"狛江市岩戸北1-1-12","lat":35.63538,"lon":139.57996},{"name":"駄倉保育園","province":"東京都","city":"狛江市","address":"狛江市岩戸北3-20-2","lat":35.6328,"lon":139.58191},{"name":"ベネッセ狛江南保育園","province":"東京都","city":"狛江市","address":"狛江市岩戸北3-23-8","lat":35.63226,"lon":139.58269},{"name":"アスク岩戸北保育園","province":"東京都","city":"狛江市","address":"狛江市岩戸北3-3-23","lat":35.63461,"lon":139.58246},{"name":"木下の保育園　岩戸北","province":"東京都","city":"狛江市","address":"狛江市岩戸北3丁目1番19号","lat":35.6347,"lon":139.58116},{"name":"多摩川保育園","province":"東京都","city":"狛江市","address":"狛江市西和泉1-5-1","lat":35.64032,"lon":139.56439},{"name":"めぐみの森保育園","province":"東京都","city":"狛江市","address":"狛江市中和泉3-12-6","lat":35.63688,"lon":139.57047},{"name":"グローバルキッズ狛江園","province":"東京都","city":"狛江市","address":"狛江市中和泉3-19-14","lat":35.63549,"lon":139.5676},{"name":"いずみの森保育園","province":"東京都","city":"狛江市","address":"狛江市元和泉1-10-10","lat":35.63189,"lon":139.57593},{"name":"木下の保育園　元和泉","province":"東京都","city":"狛江市","address":"狛江市元和泉1丁目19番4号","lat":35.63077,"lon":139.5744},{"name":"虹のひかり保育園","province":"東京都","city":"狛江市","address":"狛江市東和泉1-32-18","lat":35.63037,"lon":139.5768},{"name":"ぎんきょう保育園","province":"東京都","city":"狛江市","address":"狛江市東和泉1-34-25","lat":35.62965,"lon":139.57663},{"name":"狛江ちとせ保育園","province":"東京都","city":"狛江市","address":"狛江市東和泉1-35-10","lat":35.6295,"lon":139.57567},{"name":"駒井保育園","province":"東京都","city":"狛江市","address":"狛江市駒井町2-28-6","lat":35.62431,"lon":139.58742},{"name":"駒井町みんなの家","province":"東京都","city":"狛江市","address":"狛江市駒井町3丁目36番1号","lat":35.62307,"lon":139.58911},{"name":"虹のひかり保育園","province":"東京都","city":"狛江市","address":"狛江市東和泉1-32-18","lat":35.63038,"lon":139.5768},{"name":"狛江市あいとぴあセンター","province":"東京都","city":"狛江市","address":"東京都狛江市元和泉2丁目35-1","lat":35.6333052,"lon":139.56761624},{"name":"狛江市民総合体育館","province":"東京都","city":"狛江市","address":"東京都狛江市和泉本町3丁目25-1","lat":35.64199804,"lon":139.57305642},{"name":"狛江市本庁舎","province":"東京都","city":"狛江市","address":"狛江市和泉本町1-1-5","lat":35.634914,"lon":139.578735},{"name":"狛江消防署","province":"東京都","city":"狛江市","address":"狛江市和泉本町1-23-10","lat":35.6405,"lon":139.5765},{"name":"※狛江市役所","province":"東京都","city":"狛江市","address":"東京都狛江市和泉本町1丁目1-5","lat":35.63491314,"lon":139.57873418},{"name":"パイオニアキッズ西野川園","province":"東京都","city":"狛江市","address":"狛江市西野川2-4-15","lat":35.6440155,"lon":139.5749907},{"name":"狛江保育園","province":"東京都","city":"狛江市","address":"狛江市西野川4-12-1","lat":35.64687,"lon":139.57288},{"name":"三島保育園","province":"東京都","city":"狛江市","address":"狛江市東野川1-32-2","lat":35.64243,"lon":139.5831},{"name":"東野川保育園みんなの家","province":"東京都","city":"狛江市","address":"狛江市東野川4丁目9番7号","lat":35.6446,"lon":139.58388},{"name":"狛江子どもの家","province":"東京都","city":"狛江市","address":"狛江市和泉本町1-36-4","lat":35.6362,"lon":139.57793},{"name":"藤塚保育園","province":"東京都","city":"狛江市","address":"狛江市和泉本町4-7-35","lat":35.64428,"lon":139.56754},{"name":"いずみ保育園","province":"東京都","city":"狛江市","address":"狛江市岩戸北1-1-12","lat":35.63538,"lon":139.57996},{"name":"駄倉保育園","province":"東京都","city":"狛江市","address":"狛江市岩戸北3-20-2","lat":35.6328,"lon":139.58191},{"name":"ベネッセ狛江南保育園","province":"東京都","city":"狛江市","address":"狛江市岩戸北3-23-8","lat":35.63226,"lon":139.58269},{"name":"アスク岩戸北保育園","province":"東京都","city":"狛江市","address":"狛江市岩戸北3-3-23","lat":35.63461,"lon":139.58246},{"name":"木下の保育園　岩戸北","province":"東京都","city":"狛江市","address":"狛江市岩戸北3丁目1番19号","lat":35.6347,"lon":139.58116},{"name":"多摩川保育園","province":"東京都","city":"狛江市","address":"狛江市西和泉1-5-1","lat":35.64032,"lon":139.56439},{"name":"めぐみの森保育園","province":"東京都","city":"狛江市","address":"狛江市中和泉3-12-6","lat":35.63688,"lon":139.57047},{"name":"グローバルキッズ狛江園","province":"東京都","city":"狛江市","address":"狛江市中和泉3-19-14","lat":35.63549,"lon":139.5676},{"name":"いずみの森保育園","province":"東京都","city":"狛江市","address":"狛江市元和泉1-10-10","lat":35.63189,"lon":139.57593},{"name":"木下の保育園　元和泉","province":"東京都","city":"狛江市","address":"狛江市元和泉1丁目19番4号","lat":35.63077,"lon":139.5744},{"name":"虹のひかり保育園","province":"東京都","city":"狛江市","address":"狛江市東和泉1-32-18","lat":35.63037,"lon":139.5768},{"name":"ぎんきょう保育園","province":"東京都","city":"狛江市","address":"狛江市東和泉1-34-25","lat":35.62965,"lon":139.57663},{"name":"狛江ちとせ保育園","province":"東京都","city":"狛江市","address":"狛江市東和泉1-35-10","lat":35.6295,"lon":139.57567},{"name":"駒井保育園","province":"東京都","city":"狛江市","address":"狛江市駒井町2-28-6","lat":35.62431,"lon":139.58742},{"name":"駒井町みんなの家","province":"東京都","city":"狛江市","address":"狛江市駒井町3丁目36番1号","lat":35.62307,"lon":139.58911},{"name":"虹のひかり保育園","province":"東京都","city":"狛江市","address":"狛江市東和泉1-32-18","lat":35.63038,"lon":139.5768},{"name":"狛江市あいとぴあセンター","province":"東京都","city":"狛江市","address":"東京都狛江市元和泉2丁目35-1","lat":35.6333052,"lon":139.56761624},{"name":"狛江市民総合体育館","province":"東京都","city":"狛江市","address":"東京都狛江市和泉本町3丁目25-1","lat":35.64199804,"lon":139.57305642},{"name":"狛江市本庁舎","province":"東京都","city":"狛江市","address":"狛江市和泉本町1-1-5","lat":35.634914,"lon":139.578735},{"name":"狛江消防署","province":"東京都","city":"狛江市","address":"狛江市和泉本町1-23-10","lat":35.6405,"lon":139.5765},{"name":"※狛江市役所","province":"東京都","city":"狛江市","address":"東京都狛江市和泉本町1丁目1-5","lat":35.63491314,"lon":139.57873418},{"name":"パイオニアキッズ西野川園","province":"東京都","city":"狛江市","address":"狛江市西野川2-4-15","lat":35.6440155,"lon":139.5749907},{"name":"狛江保育園","province":"東京都","city":"狛江市","address":"狛江市西野川4-12-1","lat":35.64687,"lon":139.57288},{"name":"三島保育園","province":"東京都","city":"狛江市","address":"狛江市東野川1-32-2","lat":35.64243,"lon":139.5831},{"name":"東野川保育園みんなの家","province":"東京都","city":"狛江市","address":"狛江市東野川4丁目9番7号","lat":35.6446,"lon":139.58388},{"name":"狛江子どもの家","province":"東京都","city":"狛江市","address":"狛江市和泉本町1-36-4","lat":35.6362,"lon":139.57793},{"name":"藤塚保育園","province":"東京都","city":"狛江市","address":"狛江市和泉本町4-7-35","lat":35.64428,"lon":139.56754},{"name":"いずみ保育園","province":"東京都","city":"狛江市","address":"狛江市岩戸北1-1-12","lat":35.63538,"lon":139.57996},{"name":"駄倉保育園","province":"東京都","city":"狛江市","address":"狛江市岩戸北3-20-2","lat":35.6328,"lon":139.58191},{"name":"ベネッセ狛江南保育園","province":"東京都","city":"狛江市","address":"狛江市岩戸北3-23-8","lat":35.63226,"lon":139.58269},{"name":"アスク岩戸北保育園","province":"東京都","city":"狛江市","address":"狛江市岩戸北3-3-23","lat":35.63461,"lon":139.58246},{"name":"木下の保育園　岩戸北","province":"東京都","city":"狛江市","address":"狛江市岩戸北3丁目1番19号","lat":35.6347,"lon":139.58116},{"name":"多摩川保育園","province":"東京都","city":"狛江市","address":"狛江市西和泉1-5-1","lat":35.64032,"lon":139.56439},{"name":"めぐみの森保育園","province":"東京都","city":"狛江市","address":"狛江市中和泉3-12-6","lat":35.63688,"lon":139.57047},{"name":"グローバルキッズ狛江園","province":"東京都","city":"狛江市","address":"狛江市中和泉3-19-14","lat":35.63549,"lon":139.5676},{"name":"いずみの森保育園","province":"東京都","city":"狛江市","address":"狛江市元和泉1-10-10","lat":35.63189,"lon":139.57593},{"name":"木下の保育園　元和泉","province":"東京都","city":"狛江市","address":"狛江市元和泉1丁目19番4号","lat":35.63077,"lon":139.5744},{"name":"虹のひかり保育園","province":"東京都","city":"狛江市","address":"狛江市東和泉1-32-18","lat":35.63037,"lon":139.5768},{"name":"ぎんきょう保育園","province":"東京都","city":"狛江市","address":"狛江市東和泉1-34-25","lat":35.62965,"lon":139.57663},{"name":"狛江ちとせ保育園","province":"東京都","city":"狛江市","address":"狛江市東和泉1-35-10","lat":35.6295,"lon":139.57567},{"name":"駒井保育園","province":"東京都","city":"狛江市","address":"狛江市駒井町2-28-6","lat":35.62431,"lon":139.58742},{"name":"駒井町みんなの家","province":"東京都","city":"狛江市","address":"狛江市駒井町3丁目36番1号","lat":35.62307,"lon":139.58911},{"name":"虹のひかり保育園","province":"東京都","city":"狛江市","address":"狛江市東和泉1-32-18","lat":35.63038,"lon":139.5768},{"name":"パイオニアキッズ西野川園","province":"東京都","city":"狛江市","address":"狛江市西野川2-4-15","lat":35.6440155,"lon":139.5749907},{"name":"狛江保育園","province":"東京都","city":"狛江市","address":"狛江市西野川4-12-1","lat":35.64687,"lon":139.57288},{"name":"三島保育園","province":"東京都","city":"狛江市","address":"狛江市東野川1-32-2","lat":35.64243,"lon":139.5831},{"name":"東野川保育園みんなの家","province":"東京都","city":"狛江市","address":"狛江市東野川4丁目9番7号","lat":35.6446,"lon":139.58388},{"name":"狛江子どもの家","province":"東京都","city":"狛江市","address":"狛江市和泉本町1-36-4","lat":35.6362,"lon":139.57793},{"name":"藤塚保育園","province":"東京都","city":"狛江市","address":"狛江市和泉本町4-7-35","lat":35.64428,"lon":139.56754},{"name":"いずみ保育園","province":"東京都","city":"狛江市","address":"狛江市岩戸北1-1-12","lat":35.63538,"lon":139.57996},{"name":"駄倉保育園","province":"東京都","city":"狛江市","address":"狛江市岩戸北3-20-2","lat":35.6328,"lon":139.58191},{"name":"ベネッセ狛江南保育園","province":"東京都","city":"狛江市","address":"狛江市岩戸北3-23-8","lat":35.63226,"lon":139.58269},{"name":"アスク岩戸北保育園","province":"東京都","city":"狛江市","address":"狛江市岩戸北3-3-23","lat":35.63461,"lon":139.58246},{"name":"木下の保育園　岩戸北","province":"東京都","city":"狛江市","address":"狛江市岩戸北3丁目1番19号","lat":35.6347,"lon":139.58116},{"name":"多摩川保育園","province":"東京都","city":"狛江市","address":"狛江市西和泉1-5-1","lat":35.64032,"lon":139.56439},{"name":"めぐみの森保育園","province":"東京都","city":"狛江市","address":"狛江市中和泉3-12-6","lat":35.63688,"lon":139.57047},{"name":"グローバルキッズ狛江園","province":"東京都","city":"狛江市","address":"狛江市中和泉3-19-14","lat":35.63549,"lon":139.5676},{"name":"いずみの森保育園","province":"東京都","city":"狛江市","address":"狛江市元和泉1-10-10","lat":35.63189,"lon":139.57593},{"name":"木下の保育園　元和泉","province":"東京都","city":"狛江市","address":"狛江市元和泉1丁目19番4号","lat":35.63077,"lon":139.5744},{"name":"虹のひかり保育園","province":"東京都","city":"狛江市","address":"狛江市東和泉1-32-18","lat":35.63037,"lon":139.5768},{"name":"ぎんきょう保育園","province":"東京都","city":"狛江市","address":"狛江市東和泉1-34-25","lat":35.62965,"lon":139.57663},{"name":"狛江ちとせ保育園","province":"東京都","city":"狛江市","address":"狛江市東和泉1-35-10","lat":35.6295,"lon":139.57567},{"name":"駒井保育園","province":"東京都","city":"狛江市","address":"狛江市駒井町2-28-6","lat":35.62431,"lon":139.58742},{"name":"駒井町みんなの家","province":"東京都","city":"狛江市","address":"狛江市駒井町3丁目36番1号","lat":35.62307,"lon":139.58911},{"name":"虹のひかり保育園","province":"東京都","city":"狛江市","address":"狛江市東和泉1-32-18","lat":35.63038,"lon":139.5768},{"name":"パイオニアキッズ西野川園","province":"東京都","city":"狛江市","address":"狛江市西野川2-4-15","lat":35.6440155,"lon":139.5749907},{"name":"狛江保育園","province":"東京都","city":"狛江市","address":"狛江市西野川4-12-1","lat":35.64687,"lon":139.57288},{"name":"三島保育園","province":"東京都","city":"狛江市","address":"狛江市東野川1-32-2","lat":35.64243,"lon":139.5831},{"name":"東野川保育園みんなの家","province":"東京都","city":"狛江市","address":"狛江市東野川4丁目9番7号","lat":35.6446,"lon":139.58388},{"name":"狛江子どもの家","province":"東京都","city":"狛江市","address":"狛江市和泉本町1-36-4","lat":35.6362,"lon":139.57793},{"name":"藤塚保育園","province":"東京都","city":"狛江市","address":"狛江市和泉本町4-7-35","lat":35.64428,"lon":139.56754},{"name":"いずみ保育園","province":"東京都","city":"狛江市","address":"狛江市岩戸北1-1-12","lat":35.63538,"lon":139.57996},{"name":"駄倉保育園","province":"東京都","city":"狛江市","address":"狛江市岩戸北3-20-2","lat":35.6328,"lon":139.58191},{"name":"ベネッセ狛江南保育園","province":"東京都","city":"狛江市","address":"狛江市岩戸北3-23-8","lat":35.63226,"lon":139.58269},{"name":"アスク岩戸北保育園","province":"東京都","city":"狛江市","address":"狛江市岩戸北3-3-23","lat":35.63461,"lon":139.58246},{"name":"木下の保育園　岩戸北","province":"東京都","city":"狛江市","address":"狛江市岩戸北3丁目1番19号","lat":35.6347,"lon":139.58116},{"name":"多摩川保育園","province":"東京都","city":"狛江市","address":"狛江市西和泉1-5-1","lat":35.64032,"lon":139.56439},{"name":"めぐみの森保育園","province":"東京都","city":"狛江市","address":"狛江市中和泉3-12-6","lat":35.63688,"lon":139.57047},{"name":"グローバルキッズ狛江園","province":"東京都","city":"狛江市","address":"狛江市中和泉3-19-14","lat":35.63549,"lon":139.5676},{"name":"いずみの森保育園","province":"東京都","city":"狛江市","address":"狛江市元和泉1-10-10","lat":35.63189,"lon":139.57593},{"name":"木下の保育園　元和泉","province":"東京都","city":"狛江市","address":"狛江市元和泉1丁目19番4号","lat":35.63077,"lon":139.5744},{"name":"虹のひかり保育園","province":"東京都","city":"狛江市","address":"狛江市東和泉1-32-18","lat":35.63037,"lon":139.5768},{"name":"ぎんきょう保育園","province":"東京都","city":"狛江市","address":"狛江市東和泉1-34-25","lat":35.62965,"lon":139.57663},{"name":"狛江ちとせ保育園","province":"東京都","city":"狛江市","address":"狛江市東和泉1-35-10","lat":35.6295,"lon":139.57567},{"name":"駒井保育園","province":"東京都","city":"狛江市","address":"狛江市駒井町2-28-6","lat":35.62431,"lon":139.58742},{"name":"駒井町みんなの家","province":"東京都","city":"狛江市","address":"狛江市駒井町3丁目36番1号","lat":35.62307,"lon":139.58911},{"name":"虹のひかり保育園","province":"東京都","city":"狛江市","address":"狛江市東和泉1-32-18","lat":35.63038,"lon":139.5768},{"name":"パイオニアキッズ西野川園","province":"東京都","city":"狛江市","address":"狛江市西野川2-4-15","lat":35.6440155,"lon":139.5749907},{"name":"狛江保育園","province":"東京都","city":"狛江市","address":"狛江市西野川4-12-1","lat":35.64687,"lon":139.57288},{"name":"三島保育園","province":"東京都","city":"狛江市","address":"狛江市東野川1-32-2","lat":35.64243,"lon":139.5831},{"name":"東野川保育園みんなの家","province":"東京都","city":"狛江市","address":"狛江市東野川4丁目9番7号","lat":35.6446,"lon":139.58388},{"name":"狛江子どもの家","province":"東京都","city":"狛江市","address":"狛江市和泉本町1-36-4","lat":35.6362,"lon":139.57793},{"name":"藤塚保育園","province":"東京都","city":"狛江市","address":"狛江市和泉本町4-7-35","lat":35.64428,"lon":139.56754},{"name":"いずみ保育園","province":"東京都","city":"狛江市","address":"狛江市岩戸北1-1-12","lat":35.63538,"lon":139.57996},{"name":"駄倉保育園","province":"東京都","city":"狛江市","address":"狛江市岩戸北3-20-2","lat":35.6328,"lon":139.58191},{"name":"ベネッセ狛江南保育園","province":"東京都","city":"狛江市","address":"狛江市岩戸北3-23-8","lat":35.63226,"lon":139.58269},{"name":"アスク岩戸北保育園","province":"東京都","city":"狛江市","address":"狛江市岩戸北3-3-23","lat":35.63461,"lon":139.58246},{"name":"木下の保育園　岩戸北","province":"東京都","city":"狛江市","address":"狛江市岩戸北3丁目1番19号","lat":35.6347,"lon":139.58116},{"name":"多摩川保育園","province":"東京都","city":"狛江市","address":"狛江市西和泉1-5-1","lat":35.64032,"lon":139.56439},{"name":"めぐみの森保育園","province":"東京都","city":"狛江市","address":"狛江市中和泉3-12-6","lat":35.63688,"lon":139.57047},{"name":"グローバルキッズ狛江園","province":"東京都","city":"狛江市","address":"狛江市中和泉3-19-14","lat":35.63549,"lon":139.5676},{"name":"いずみの森保育園","province":"東京都","city":"狛江市","address":"狛江市元和泉1-10-10","lat":35.63189,"lon":139.57593},{"name":"木下の保育園　元和泉","province":"東京都","city":"狛江市","address":"狛江市元和泉1丁目19番4号","lat":35.63077,"lon":139.5744},{"name":"虹のひかり保育園","province":"東京都","city":"狛江市","address":"狛江市東和泉1-32-18","lat":35.63037,"lon":139.5768},{"name":"ぎんきょう保育園","province":"東京都","city":"狛江市","address":"狛江市東和泉1-34-25","lat":35.62965,"lon":139.57663},{"name":"狛江ちとせ保育園","province":"東京都","city":"狛江市","address":"狛江市東和泉1-35-10","lat":35.6295,"lon":139.57567},{"name":"駒井保育園","province":"東京都","city":"狛江市","address":"狛江市駒井町2-28-6","lat":35.62431,"lon":139.58742},{"name":"駒井町みんなの家","province":"東京都","city":"狛江市","address":"狛江市駒井町3丁目36番1号","lat":35.62307,"lon":139.58911},{"name":"虹のひかり保育園","province":"東京都","city":"狛江市","address":"狛江市東和泉1-32-18","lat":35.63038,"lon":139.5768},{"name":"パイオニアキッズ西野川園","province":"東京都","city":"狛江市","address":"狛江市西野川2-4-15","lat":35.6440155,"lon":139.5749907},{"name":"狛江保育園","province":"東京都","city":"狛江市","address":"狛江市西野川4-12-1","lat":35.64687,"lon":139.57288},{"name":"三島保育園","province":"東京都","city":"狛江市","address":"狛江市東野川1-32-2","lat":35.64243,"lon":139.5831},{"name":"東野川保育園みんなの家","province":"東京都","city":"狛江市","address":"狛江市東野川4丁目9番7号","lat":35.6446,"lon":139.58388},{"name":"狛江子どもの家","province":"東京都","city":"狛江市","address":"狛江市和泉本町1-36-4","lat":35.6362,"lon":139.57793},{"name":"藤塚保育園","province":"東京都","city":"狛江市","address":"狛江市和泉本町4-7-35","lat":35.64428,"lon":139.56754},{"name":"いずみ保育園","province":"東京都","city":"狛江市","address":"狛江市岩戸北1-1-12","lat":35.63538,"lon":139.57996},{"name":"駄倉保育園","province":"東京都","city":"狛江市","address":"狛江市岩戸北3-20-2","lat":35.6328,"lon":139.58191},{"name":"ベネッセ狛江南保育園","province":"東京都","city":"狛江市","address":"狛江市岩戸北3-23-8","lat":35.63226,"lon":139.58269},{"name":"アスク岩戸北保育園","province":"東京都","city":"狛江市","address":"狛江市岩戸北3-3-23","lat":35.63461,"lon":139.58246},{"name":"木下の保育園　岩戸北","province":"東京都","city":"狛江市","address":"狛江市岩戸北3丁目1番19号","lat":35.6347,"lon":139.58116},{"name":"多摩川保育園","province":"東京都","city":"狛江市","address":"狛江市西和泉1-5-1","lat":35.64032,"lon":139.56439},{"name":"めぐみの森保育園","province":"東京都","city":"狛江市","address":"狛江市中和泉3-12-6","lat":35.63688,"lon":139.57047},{"name":"グローバルキッズ狛江園","province":"東京都","city":"狛江市","address":"狛江市中和泉3-19-14","lat":35.63549,"lon":139.5676},{"name":"いずみの森保育園","province":"東京都","city":"狛江市","address":"狛江市元和泉1-10-10","lat":35.63189,"lon":139.57593},{"name":"木下の保育園　元和泉","province":"東京都","city":"狛江市","address":"狛江市元和泉1丁目19番4号","lat":35.63077,"lon":139.5744},{"name":"虹のひかり保育園","province":"東京都","city":"狛江市","address":"狛江市東和泉1-32-18","lat":35.63037,"lon":139.5768},{"name":"ぎんきょう保育園","province":"東京都","city":"狛江市","address":"狛江市東和泉1-34-25","lat":35.62965,"lon":139.57663},{"name":"狛江ちとせ保育園","province":"東京都","city":"狛江市","address":"狛江市東和泉1-35-10","lat":35.6295,"lon":139.57567},{"name":"駒井保育園","province":"東京都","city":"狛江市","address":"狛江市駒井町2-28-6","lat":35.62431,"lon":139.58742},{"name":"駒井町みんなの家","province":"東京都","city":"狛江市","address":"狛江市駒井町3丁目36番1号","lat":35.62307,"lon":139.58911},{"name":"虹のひかり保育園","province":"東京都","city":"狛江市","address":"狛江市東和泉1-32-18","lat":35.63038,"lon":139.5768},{"name":"パイオニアキッズ西野川園","province":"東京都","city":"狛江市","address":"狛江市西野川2-4-15","lat":35.6440155,"lon":139.5749907},{"name":"狛江保育園","province":"東京都","city":"狛江市","address":"狛江市西野川4-12-1","lat":35.64687,"lon":139.57288},{"name":"三島保育園","province":"東京都","city":"狛江市","address":"狛江市東野川1-32-2","lat":35.64243,"lon":139.5831},{"name":"東野川保育園みんなの家","province":"東京都","city":"狛江市","address":"狛江市東野川4丁目9番7号","lat":35.6446,"lon":139.58388},{"name":"狛江子どもの家","province":"東京都","city":"狛江市","address":"狛江市和泉本町1-36-4","lat":35.6362,"lon":139.57793},{"name":"藤塚保育園","province":"東京都","city":"狛江市","address":"狛江市和泉本町4-7-35","lat":35.64428,"lon":139.56754},{"name":"いずみ保育園","province":"東京都","city":"狛江市","address":"狛江市岩戸北1-1-12","lat":35.63538,"lon":139.57996},{"name":"駄倉保育園","province":"東京都","city":"狛江市","address":"狛江市岩戸北3-20-2","lat":35.6328,"lon":139.58191},{"name":"ベネッセ狛江南保育園","province":"東京都","city":"狛江市","address":"狛江市岩戸北3-23-8","lat":35.63226,"lon":139.58269},{"name":"アスク岩戸北保育園","province":"東京都","city":"狛江市","address":"狛江市岩戸北3-3-23","lat":35.63461,"lon":139.58246},{"name":"木下の保育園　岩戸北","province":"東京都","city":"狛江市","address":"狛江市岩戸北3丁目1番19号","lat":35.6347,"lon":139.58116},{"name":"多摩川保育園","province":"東京都","city":"狛江市","address":"狛江市西和泉1-5-1","lat":35.64032,"lon":139.56439},{"name":"めぐみの森保育園","province":"東京都","city":"狛江市","address":"狛江市中和泉3-12-6","lat":35.63688,"lon":139.57047},{"name":"グローバルキッズ狛江園","province":"東京都","city":"狛江市","address":"狛江市中和泉3-19-14","lat":35.63549,"lon":139.5676},{"name":"いずみの森保育園","province":"東京都","city":"狛江市","address":"狛江市元和泉1-10-10","lat":35.63189,"lon":139.57593},{"name":"木下の保育園　元和泉","province":"東京都","city":"狛江市","address":"狛江市元和泉1丁目19番4号","lat":35.63077,"lon":139.5744},{"name":"虹のひかり保育園","province":"東京都","city":"狛江市","address":"狛江市東和泉1-32-18","lat":35.63037,"lon":139.5768},{"name":"ぎんきょう保育園","province":"東京都","city":"狛江市","address":"狛江市東和泉1-34-25","lat":35.62965,"lon":139.57663},{"name":"狛江ちとせ保育園","province":"東京都","city":"狛江市","address":"狛江市東和泉1-35-10","lat":35.6295,"lon":139.57567},{"name":"駒井保育園","province":"東京都","city":"狛江市","address":"狛江市駒井町2-28-6","lat":35.62431,"lon":139.58742},{"name":"駒井町みんなの家","province":"東京都","city":"狛江市","address":"狛江市駒井町3丁目36番1号","lat":35.62307,"lon":139.58911},{"name":"虹のひかり保育園","province":"東京都","city":"狛江市","address":"狛江市東和泉1-32-18","lat":35.63038,"lon":139.5768},{"name":"パイオニアキッズ西野川園","province":"東京都","city":"狛江市","address":"狛江市西野川2-4-15","lat":35.6440155,"lon":139.5749907},{"name":"狛江保育園","province":"東京都","city":"狛江市","address":"狛江市西野川4-12-1","lat":35.64687,"lon":139.57288},{"name":"三島保育園","province":"東京都","city":"狛江市","address":"狛江市東野川1-32-2","lat":35.64243,"lon":139.5831},{"name":"東野川保育園みんなの家","province":"東京都","city":"狛江市","address":"狛江市東野川4丁目9番7号","lat":35.6446,"lon":139.58388},{"name":"狛江子どもの家","province":"東京都","city":"狛江市","address":"狛江市和泉本町1-36-4","lat":35.6362,"lon":139.57793},{"name":"藤塚保育園","province":"東京都","city":"狛江市","address":"狛江市和泉本町4-7-35","lat":35.64428,"lon":139.56754},{"name":"いずみ保育園","province":"東京都","city":"狛江市","address":"狛江市岩戸北1-1-12","lat":35.63538,"lon":139.57996},{"name":"駄倉保育園","province":"東京都","city":"狛江市","address":"狛江市岩戸北3-20-2","lat":35.6328,"lon":139.58191},{"name":"ベネッセ狛江南保育園","province":"東京都","city":"狛江市","address":"狛江市岩戸北3-23-8","lat":35.63226,"lon":139.58269},{"name":"アスク岩戸北保育園","province":"東京都","city":"狛江市","address":"狛江市岩戸北3-3-23","lat":35.63461,"lon":139.58246},{"name":"木下の保育園　岩戸北","province":"東京都","city":"狛江市","address":"狛江市岩戸北3丁目1番19号","lat":35.6347,"lon":139.58116},{"name":"多摩川保育園","province":"東京都","city":"狛江市","address":"狛江市西和泉1-5-1","lat":35.64032,"lon":139.56439},{"name":"めぐみの森保育園","province":"東京都","city":"狛江市","address":"狛江市中和泉3-12-6","lat":35.63688,"lon":139.57047},{"name":"グローバルキッズ狛江園","province":"東京都","city":"狛江市","address":"狛江市中和泉3-19-14","lat":35.63549,"lon":139.5676},{"name":"いずみの森保育園","province":"東京都","city":"狛江市","address":"狛江市元和泉1-10-10","lat":35.63189,"lon":139.57593},{"name":"木下の保育園　元和泉","province":"東京都","city":"狛江市","address":"狛江市元和泉1丁目19番4号","lat":35.63077,"lon":139.5744},{"name":"虹のひかり保育園","province":"東京都","city":"狛江市","address":"狛江市東和泉1-32-18","lat":35.63037,"lon":139.5768},{"name":"ぎんきょう保育園","province":"東京都","city":"狛江市","address":"狛江市東和泉1-34-25","lat":35.62965,"lon":139.57663},{"name":"狛江ちとせ保育園","province":"東京都","city":"狛江市","address":"狛江市東和泉1-35-10","lat":35.6295,"lon":139.57567},{"name":"駒井保育園","province":"東京都","city":"狛江市","address":"狛江市駒井町2-28-6","lat":35.62431,"lon":139.58742},{"name":"駒井町みんなの家","province":"東京都","city":"狛江市","address":"狛江市駒井町3丁目36番1号","lat":35.62307,"lon":139.58911},{"name":"虹のひかり保育園","province":"東京都","city":"狛江市","address":"狛江市東和泉1-32-18","lat":35.63038,"lon":139.5768},{"name":"パイオニアキッズ西野川園","province":"東京都","city":"狛江市","address":"狛江市西野川2-4-15","lat":35.6440155,"lon":139.5749907},{"name":"狛江保育園","province":"東京都","city":"狛江市","address":"狛江市西野川4-12-1","lat":35.64687,"lon":139.57288},{"name":"三島保育園","province":"東京都","city":"狛江市","address":"狛江市東野川1-32-2","lat":35.64243,"lon":139.5831},{"name":"東野川保育園みんなの家","province":"東京都","city":"狛江市","address":"狛江市東野川4丁目9番7号","lat":35.6446,"lon":139.58388},{"name":"狛江子どもの家","province":"東京都","city":"狛江市","address":"狛江市和泉本町1-36-4","lat":35.6362,"lon":139.57793},{"name":"藤塚保育園","province":"東京都","city":"狛江市","address":"狛江市和泉本町4-7-35","lat":35.64428,"lon":139.56754},{"name":"いずみ保育園","province":"東京都","city":"狛江市","address":"狛江市岩戸北1-1-12","lat":35.63538,"lon":139.57996},{"name":"駄倉保育園","province":"東京都","city":"狛江市","address":"狛江市岩戸北3-20-2","lat":35.6328,"lon":139.58191},{"name":"ベネッセ狛江南保育園","province":"東京都","city":"狛江市","address":"狛江市岩戸北3-23-8","lat":35.63226,"lon":139.58269},{"name":"アスク岩戸北保育園","province":"東京都","city":"狛江市","address":"狛江市岩戸北3-3-23","lat":35.63461,"lon":139.58246},{"name":"木下の保育園　岩戸北","province":"東京都","city":"狛江市","address":"狛江市岩戸北3丁目1番19号","lat":35.6347,"lon":139.58116},{"name":"多摩川保育園","province":"東京都","city":"狛江市","address":"狛江市西和泉1-5-1","lat":35.64032,"lon":139.56439},{"name":"めぐみの森保育園","province":"東京都","city":"狛江市","address":"狛江市中和泉3-12-6","lat":35.63688,"lon":139.57047},{"name":"グローバルキッズ狛江園","province":"東京都","city":"狛江市","address":"狛江市中和泉3-19-14","lat":35.63549,"lon":139.5676},{"name":"いずみの森保育園","province":"東京都","city":"狛江市","address":"狛江市元和泉1-10-10","lat":35.63189,"lon":139.57593},{"name":"木下の保育園　元和泉","province":"東京都","city":"狛江市","address":"狛江市元和泉1丁目19番4号","lat":35.63077,"lon":139.5744},{"name":"虹のひかり保育園","province":"東京都","city":"狛江市","address":"狛江市東和泉1-32-18","lat":35.63037,"lon":139.5768},{"name":"ぎんきょう保育園","province":"東京都","city":"狛江市","address":"狛江市東和泉1-34-25","lat":35.62965,"lon":139.57663},{"name":"狛江ちとせ保育園","province":"東京都","city":"狛江市","address":"狛江市東和泉1-35-10","lat":35.6295,"lon":139.57567},{"name":"駒井保育園","province":"東京都","city":"狛江市","address":"狛江市駒井町2-28-6","lat":35.62431,"lon":139.58742},{"name":"駒井町みんなの家","province":"東京都","city":"狛江市","address":"狛江市駒井町3丁目36番1号","lat":35.62307,"lon":139.58911},{"name":"虹のひかり保育園","province":"東京都","city":"狛江市","address":"狛江市東和泉1-32-18","lat":35.63038,"lon":139.5768},{"name":"パイオニアキッズ西野川園","province":"東京都","city":"狛江市","address":"狛江市西野川2-4-15","lat":35.6440155,"lon":139.5749907},{"name":"狛江保育園","province":"東京都","city":"狛江市","address":"狛江市西野川4-12-1","lat":35.64687,"lon":139.57288},{"name":"三島保育園","province":"東京都","city":"狛江市","address":"狛江市東野川1-32-2","lat":35.64243,"lon":139.5831},{"name":"東野川保育園みんなの家","province":"東京都","city":"狛江市","address":"狛江市東野川4丁目9番7号","lat":35.6446,"lon":139.58388},{"name":"狛江子どもの家","province":"東京都","city":"狛江市","address":"狛江市和泉本町1-36-4","lat":35.6362,"lon":139.57793},{"name":"藤塚保育園","province":"東京都","city":"狛江市","address":"狛江市和泉本町4-7-35","lat":35.64428,"lon":139.56754},{"name":"いずみ保育園","province":"東京都","city":"狛江市","address":"狛江市岩戸北1-1-12","lat":35.63538,"lon":139.57996},{"name":"駄倉保育園","province":"東京都","city":"狛江市","address":"狛江市岩戸北3-20-2","lat":35.6328,"lon":139.58191},{"name":"ベネッセ狛江南保育園","province":"東京都","city":"狛江市","address":"狛江市岩戸北3-23-8","lat":35.63226,"lon":139.58269},{"name":"アスク岩戸北保育園","province":"東京都","city":"狛江市","address":"狛江市岩戸北3-3-23","lat":35.63461,"lon":139.58246},{"name":"木下の保育園　岩戸北","province":"東京都","city":"狛江市","address":"狛江市岩戸北3丁目1番19号","lat":35.6347,"lon":139.58116},{"name":"多摩川保育園","province":"東京都","city":"狛江市","address":"狛江市西和泉1-5-1","lat":35.64032,"lon":139.56439},{"name":"めぐみの森保育園","province":"東京都","city":"狛江市","address":"狛江市中和泉3-12-6","lat":35.63688,"lon":139.57047},{"name":"グローバルキッズ狛江園","province":"東京都","city":"狛江市","address":"狛江市中和泉3-19-14","lat":35.63549,"lon":139.5676},{"name":"いずみの森保育園","province":"東京都","city":"狛江市","address":"狛江市元和泉1-10-10","lat":35.63189,"lon":139.57593},{"name":"木下の保育園　元和泉","province":"東京都","city":"狛江市","address":"狛江市元和泉1丁目19番4号","lat":35.63077,"lon":139.5744},{"name":"虹のひかり保育園","province":"東京都","city":"狛江市","address":"狛江市東和泉1-32-18","lat":35.63037,"lon":139.5768},{"name":"ぎんきょう保育園","province":"東京都","city":"狛江市","address":"狛江市東和泉1-34-25","lat":35.62965,"lon":139.57663},{"name":"狛江ちとせ保育園","province":"東京都","city":"狛江市","address":"狛江市東和泉1-35-10","lat":35.6295,"lon":139.57567},{"name":"駒井保育園","province":"東京都","city":"狛江市","address":"狛江市駒井町2-28-6","lat":35.62431,"lon":139.58742},{"name":"駒井町みんなの家","province":"東京都","city":"狛江市","address":"狛江市駒井町3丁目36番1号","lat":35.62307,"lon":139.58911},{"name":"虹のひかり保育園","province":"東京都","city":"狛江市","address":"狛江市東和泉1-32-18","lat":35.63038,"lon":139.5768},{"name":"パイオニアキッズ西野川園","province":"東京都","city":"狛江市","address":"狛江市西野川2-4-15","lat":35.6440155,"lon":139.5749907},{"name":"狛江保育園","province":"東京都","city":"狛江市","address":"狛江市西野川4-12-1","lat":35.64687,"lon":139.57288},{"name":"三島保育園","province":"東京都","city":"狛江市","address":"狛江市東野川1-32-2","lat":35.64243,"lon":139.5831},{"name":"東野川保育園みんなの家","province":"東京都","city":"狛江市","address":"狛江市東野川4丁目9番7号","lat":35.6446,"lon":139.58388},{"name":"狛江子どもの家","province":"東京都","city":"狛江市","address":"狛江市和泉本町1-36-4","lat":35.6362,"lon":139.57793},{"name":"藤塚保育園","province":"東京都","city":"狛江市","address":"狛江市和泉本町4-7-35","lat":35.64428,"lon":139.56754},{"name":"いずみ保育園","province":"東京都","city":"狛江市","address":"狛江市岩戸北1-1-12","lat":35.63538,"lon":139.57996},{"name":"駄倉保育園","province":"東京都","city":"狛江市","address":"狛江市岩戸北3-20-2","lat":35.6328,"lon":139.58191},{"name":"ベネッセ狛江南保育園","province":"東京都","city":"狛江市","address":"狛江市岩戸北3-23-8","lat":35.63226,"lon":139.58269},{"name":"アスク岩戸北保育園","province":"東京都","city":"狛江市","address":"狛江市岩戸北3-3-23","lat":35.63461,"lon":139.58246},{"name":"木下の保育園　岩戸北","province":"東京都","city":"狛江市","address":"狛江市岩戸北3丁目1番19号","lat":35.6347,"lon":139.58116},{"name":"多摩川保育園","province":"東京都","city":"狛江市","address":"狛江市西和泉1-5-1","lat":35.64032,"lon":139.56439},{"name":"めぐみの森保育園","province":"東京都","city":"狛江市","address":"狛江市中和泉3-12-6","lat":35.63688,"lon":139.57047},{"name":"グローバルキッズ狛江園","province":"東京都","city":"狛江市","address":"狛江市中和泉3-19-14","lat":35.63549,"lon":139.5676},{"name":"いずみの森保育園","province":"東京都","city":"狛江市","address":"狛江市元和泉1-10-10","lat":35.63189,"lon":139.57593},{"name":"木下の保育園　元和泉","province":"東京都","city":"狛江市","address":"狛江市元和泉1丁目19番4号","lat":35.63077,"lon":139.5744},{"name":"虹のひかり保育園","province":"東京都","city":"狛江市","address":"狛江市東和泉1-32-18","lat":35.63037,"lon":139.5768},{"name":"ぎんきょう保育園","province":"東京都","city":"狛江市","address":"狛江市東和泉1-34-25","lat":35.62965,"lon":139.57663},{"name":"狛江ちとせ保育園","province":"東京都","city":"狛江市","address":"狛江市東和泉1-35-10","lat":35.6295,"lon":139.57567},{"name":"駒井保育園","province":"東京都","city":"狛江市","address":"狛江市駒井町2-28-6","lat":35.62431,"lon":139.58742},{"name":"駒井町みんなの家","province":"東京都","city":"狛江市","address":"狛江市駒井町3丁目36番1号","lat":35.62307,"lon":139.58911},{"name":"虹のひかり保育園","province":"東京都","city":"狛江市","address":"狛江市東和泉1-32-18","lat":35.63038,"lon":139.5768},{"name":"パイオニアキッズ西野川園","province":"東京都","city":"狛江市","address":"狛江市西野川2-4-15","lat":35.6440155,"lon":139.5749907},{"name":"狛江保育園","province":"東京都","city":"狛江市","address":"狛江市西野川4-12-1","lat":35.64687,"lon":139.57288},{"name":"三島保育園","province":"東京都","city":"狛江市","address":"狛江市東野川1-32-2","lat":35.64243,"lon":139.5831},{"name":"東野川保育園みんなの家","province":"東京都","city":"狛江市","address":"狛江市東野川4丁目9番7号","lat":35.6446,"lon":139.58388},{"name":"狛江子どもの家","province":"東京都","city":"狛江市","address":"狛江市和泉本町1-36-4","lat":35.6362,"lon":139.57793},{"name":"藤塚保育園","province":"東京都","city":"狛江市","address":"狛江市和泉本町4-7-35","lat":35.64428,"lon":139.56754},{"name":"いずみ保育園","province":"東京都","city":"狛江市","address":"狛江市岩戸北1-1-12","lat":35.63538,"lon":139.57996},{"name":"駄倉保育園","province":"東京都","city":"狛江市","address":"狛江市岩戸北3-20-2","lat":35.6328,"lon":139.58191},{"name":"ベネッセ狛江南保育園","province":"東京都","city":"狛江市","address":"狛江市岩戸北3-23-8","lat":35.63226,"lon":139.58269},{"name":"アスク岩戸北保育園","province":"東京都","city":"狛江市","address":"狛江市岩戸北3-3-23","lat":35.63461,"lon":139.58246},{"name":"木下の保育園　岩戸北","province":"東京都","city":"狛江市","address":"狛江市岩戸北3丁目1番19号","lat":35.6347,"lon":139.58116},{"name":"多摩川保育園","province":"東京都","city":"狛江市","address":"狛江市西和泉1-5-1","lat":35.64032,"lon":139.56439},{"name":"めぐみの森保育園","province":"東京都","city":"狛江市","address":"狛江市中和泉3-12-6","lat":35.63688,"lon":139.57047},{"name":"グローバルキッズ狛江園","province":"東京都","city":"狛江市","address":"狛江市中和泉3-19-14","lat":35.63549,"lon":139.5676},{"name":"いずみの森保育園","province":"東京都","city":"狛江市","address":"狛江市元和泉1-10-10","lat":35.63189,"lon":139.57593},{"name":"木下の保育園　元和泉","province":"東京都","city":"狛江市","address":"狛江市元和泉1丁目19番4号","lat":35.63077,"lon":139.5744},{"name":"虹のひかり保育園","province":"東京都","city":"狛江市","address":"狛江市東和泉1-32-18","lat":35.63037,"lon":139.5768},{"name":"ぎんきょう保育園","province":"東京都","city":"狛江市","address":"狛江市東和泉1-34-25","lat":35.62965,"lon":139.57663},{"name":"狛江ちとせ保育園","province":"東京都","city":"狛江市","address":"狛江市東和泉1-35-10","lat":35.6295,"lon":139.57567},{"name":"駒井保育園","province":"東京都","city":"狛江市","address":"狛江市駒井町2-28-6","lat":35.62431,"lon":139.58742},{"name":"駒井町みんなの家","province":"東京都","city":"狛江市","address":"狛江市駒井町3丁目36番1号","lat":35.62307,"lon":139.58911},{"name":"虹のひかり保育園","province":"東京都","city":"狛江市","address":"狛江市東和泉1-32-18","lat":35.63038,"lon":139.5768},{"name":"パイオニアキッズ西野川園","province":"東京都","city":"狛江市","address":"狛江市西野川2-4-15","lat":35.6440155,"lon":139.5749907},{"name":"狛江保育園","province":"東京都","city":"狛江市","address":"狛江市西野川4-12-1","lat":35.64687,"lon":139.57288},{"name":"三島保育園","province":"東京都","city":"狛江市","address":"狛江市東野川1-32-2","lat":35.64243,"lon":139.5831},{"name":"東野川保育園みんなの家","province":"東京都","city":"狛江市","address":"狛江市東野川4丁目9番7号","lat":35.6446,"lon":139.58388},{"name":"狛江子どもの家","province":"東京都","city":"狛江市","address":"狛江市和泉本町1-36-4","lat":35.6362,"lon":139.57793},{"name":"藤塚保育園","province":"東京都","city":"狛江市","address":"狛江市和泉本町4-7-35","lat":35.64428,"lon":139.56754},{"name":"いずみ保育園","province":"東京都","city":"狛江市","address":"狛江市岩戸北1-1-12","lat":35.63538,"lon":139.57996},{"name":"駄倉保育園","province":"東京都","city":"狛江市","address":"狛江市岩戸北3-20-2","lat":35.6328,"lon":139.58191},{"name":"ベネッセ狛江南保育園","province":"東京都","city":"狛江市","address":"狛江市岩戸北3-23-8","lat":35.63226,"lon":139.58269},{"name":"アスク岩戸北保育園","province":"東京都","city":"狛江市","address":"狛江市岩戸北3-3-23","lat":35.63461,"lon":139.58246},{"name":"木下の保育園　岩戸北","province":"東京都","city":"狛江市","address":"狛江市岩戸北3丁目1番19号","lat":35.6347,"lon":139.58116},{"name":"多摩川保育園","province":"東京都","city":"狛江市","address":"狛江市西和泉1-5-1","lat":35.64032,"lon":139.56439},{"name":"めぐみの森保育園","province":"東京都","city":"狛江市","address":"狛江市中和泉3-12-6","lat":35.63688,"lon":139.57047},{"name":"グローバルキッズ狛江園","province":"東京都","city":"狛江市","address":"狛江市中和泉3-19-14","lat":35.63549,"lon":139.5676},{"name":"いずみの森保育園","province":"東京都","city":"狛江市","address":"狛江市元和泉1-10-10","lat":35.63189,"lon":139.57593},{"name":"木下の保育園　元和泉","province":"東京都","city":"狛江市","address":"狛江市元和泉1丁目19番4号","lat":35.63077,"lon":139.5744},{"name":"虹のひかり保育園","province":"東京都","city":"狛江市","address":"狛江市東和泉1-32-18","lat":35.63037,"lon":139.5768},{"name":"ぎんきょう保育園","province":"東京都","city":"狛江市","address":"狛江市東和泉1-34-25","lat":35.62965,"lon":139.57663},{"name":"狛江ちとせ保育園","province":"東京都","city":"狛江市","address":"狛江市東和泉1-35-10","lat":35.6295,"lon":139.57567},{"name":"駒井保育園","province":"東京都","city":"狛江市","address":"狛江市駒井町2-28-6","lat":35.62431,"lon":139.58742},{"name":"駒井町みんなの家","province":"東京都","city":"狛江市","address":"狛江市駒井町3丁目36番1号","lat":35.62307,"lon":139.58911},{"name":"虹のひかり保育園","province":"東京都","city":"狛江市","address":"狛江市東和泉1-32-18","lat":35.63038,"lon":139.5768},{"name":"パイオニアキッズ西野川園","province":"東京都","city":"狛江市","address":"狛江市西野川2-4-15","lat":35.6440155,"lon":139.5749907},{"name":"狛江保育園","province":"東京都","city":"狛江市","address":"狛江市西野川4-12-1","lat":35.64687,"lon":139.57288},{"name":"三島保育園","province":"東京都","city":"狛江市","address":"狛江市東野川1-32-2","lat":35.64243,"lon":139.5831},{"name":"東野川保育園みんなの家","province":"東京都","city":"狛江市","address":"狛江市東野川4丁目9番7号","lat":35.6446,"lon":139.58388},{"name":"狛江子どもの家","province":"東京都","city":"狛江市","address":"狛江市和泉本町1-36-4","lat":35.6362,"lon":139.57793},{"name":"藤塚保育園","province":"東京都","city":"狛江市","address":"狛江市和泉本町4-7-35","lat":35.64428,"lon":139.56754},{"name":"いずみ保育園","province":"東京都","city":"狛江市","address":"狛江市岩戸北1-1-12","lat":35.63538,"lon":139.57996},{"name":"駄倉保育園","province":"東京都","city":"狛江市","address":"狛江市岩戸北3-20-2","lat":35.6328,"lon":139.58191},{"name":"ベネッセ狛江南保育園","province":"東京都","city":"狛江市","address":"狛江市岩戸北3-23-8","lat":35.63226,"lon":139.58269},{"name":"アスク岩戸北保育園","province":"東京都","city":"狛江市","address":"狛江市岩戸北3-3-23","lat":35.63461,"lon":139.58246},{"name":"木下の保育園　岩戸北","province":"東京都","city":"狛江市","address":"狛江市岩戸北3丁目1番19号","lat":35.6347,"lon":139.58116},{"name":"多摩川保育園","province":"東京都","city":"狛江市","address":"狛江市西和泉1-5-1","lat":35.64032,"lon":139.56439},{"name":"めぐみの森保育園","province":"東京都","city":"狛江市","address":"狛江市中和泉3-12-6","lat":35.63688,"lon":139.57047},{"name":"グローバルキッズ狛江園","province":"東京都","city":"狛江市","address":"狛江市中和泉3-19-14","lat":35.63549,"lon":139.5676},{"name":"いずみの森保育園","province":"東京都","city":"狛江市","address":"狛江市元和泉1-10-10","lat":35.63189,"lon":139.57593},{"name":"木下の保育園　元和泉","province":"東京都","city":"狛江市","address":"狛江市元和泉1丁目19番4号","lat":35.63077,"lon":139.5744},{"name":"虹のひかり保育園","province":"東京都","city":"狛江市","address":"狛江市東和泉1-32-18","lat":35.63037,"lon":139.5768},{"name":"ぎんきょう保育園","province":"東京都","city":"狛江市","address":"狛江市東和泉1-34-25","lat":35.62965,"lon":139.57663},{"name":"狛江ちとせ保育園","province":"東京都","city":"狛江市","address":"狛江市東和泉1-35-10","lat":35.6295,"lon":139.57567},{"name":"駒井保育園","province":"東京都","city":"狛江市","address":"狛江市駒井町2-28-6","lat":35.62431,"lon":139.58742},{"name":"駒井町みんなの家","province":"東京都","city":"狛江市","address":"狛江市駒井町3丁目36番1号","lat":35.62307,"lon":139.58911},{"name":"虹のひかり保育園","province":"東京都","city":"狛江市","address":"狛江市東和泉1-32-18","lat":35.63038,"lon":139.5768},{"name":"パイオニアキッズ西野川園","province":"東京都","city":"狛江市","address":"狛江市西野川2-4-15","lat":35.6440155,"lon":139.5749907},{"name":"狛江保育園","province":"東京都","city":"狛江市","address":"狛江市西野川4-12-1","lat":35.64687,"lon":139.57288},{"name":"三島保育園","province":"東京都","city":"狛江市","address":"狛江市東野川1-32-2","lat":35.64243,"lon":139.5831},{"name":"東野川保育園みんなの家","province":"東京都","city":"狛江市","address":"狛江市東野川4丁目9番7号","lat":35.6446,"lon":139.58388},{"name":"狛江子どもの家","province":"東京都","city":"狛江市","address":"狛江市和泉本町1-36-4","lat":35.6362,"lon":139.57793},{"name":"藤塚保育園","province":"東京都","city":"狛江市","address":"狛江市和泉本町4-7-35","lat":35.64428,"lon":139.56754},{"name":"いずみ保育園","province":"東京都","city":"狛江市","address":"狛江市岩戸北1-1-12","lat":35.63538,"lon":139.57996},{"name":"駄倉保育園","province":"東京都","city":"狛江市","address":"狛江市岩戸北3-20-2","lat":35.6328,"lon":139.58191},{"name":"ベネッセ狛江南保育園","province":"東京都","city":"狛江市","address":"狛江市岩戸北3-23-8","lat":35.63226,"lon":139.58269},{"name":"アスク岩戸北保育園","province":"東京都","city":"狛江市","address":"狛江市岩戸北3-3-23","lat":35.63461,"lon":139.58246},{"name":"木下の保育園　岩戸北","province":"東京都","city":"狛江市","address":"狛江市岩戸北3丁目1番19号","lat":35.6347,"lon":139.58116},{"name":"多摩川保育園","province":"東京都","city":"狛江市","address":"狛江市西和泉1-5-1","lat":35.64032,"lon":139.56439},{"name":"めぐみの森保育園","province":"東京都","city":"狛江市","address":"狛江市中和泉3-12-6","lat":35.63688,"lon":139.57047},{"name":"グローバルキッズ狛江園","province":"東京都","city":"狛江市","address":"狛江市中和泉3-19-14","lat":35.63549,"lon":139.5676},{"name":"いずみの森保育園","province":"東京都","city":"狛江市","address":"狛江市元和泉1-10-10","lat":35.63189,"lon":139.57593},{"name":"木下の保育園　元和泉","province":"東京都","city":"狛江市","address":"狛江市元和泉1丁目19番4号","lat":35.63077,"lon":139.5744},{"name":"虹のひかり保育園","province":"東京都","city":"狛江市","address":"狛江市東和泉1-32-18","lat":35.63037,"lon":139.5768},{"name":"ぎんきょう保育園","province":"東京都","city":"狛江市","address":"狛江市東和泉1-34-25","lat":35.62965,"lon":139.57663},{"name":"狛江ちとせ保育園","province":"東京都","city":"狛江市","address":"狛江市東和泉1-35-10","lat":35.6295,"lon":139.57567},{"name":"駒井保育園","province":"東京都","city":"狛江市","address":"狛江市駒井町2-28-6","lat":35.62431,"lon":139.58742},{"name":"駒井町みんなの家","province":"東京都","city":"狛江市","address":"狛江市駒井町3丁目36番1号","lat":35.62307,"lon":139.58911},{"name":"虹のひかり保育園","province":"東京都","city":"狛江市","address":"狛江市東和泉1-32-18","lat":35.63038,"lon":139.5768},{"name":"パイオニアキッズ西野川園","province":"東京都","city":"狛江市","address":"狛江市西野川2-4-15","lat":35.6440155,"lon":139.5749907},{"name":"狛江保育園","province":"東京都","city":"狛江市","address":"狛江市西野川4-12-1","lat":35.64687,"lon":139.57288},{"name":"三島保育園","province":"東京都","city":"狛江市","address":"狛江市東野川1-32-2","lat":35.64243,"lon":139.5831},{"name":"東野川保育園みんなの家","province":"東京都","city":"狛江市","address":"狛江市東野川4丁目9番7号","lat":35.6446,"lon":139.58388},{"name":"狛江子どもの家","province":"東京都","city":"狛江市","address":"狛江市和泉本町1-36-4","lat":35.6362,"lon":139.57793},{"name":"藤塚保育園","province":"東京都","city":"狛江市","address":"狛江市和泉本町4-7-35","lat":35.64428,"lon":139.56754},{"name":"いずみ保育園","province":"東京都","city":"狛江市","address":"狛江市岩戸北1-1-12","lat":35.63538,"lon":139.57996},{"name":"駄倉保育園","province":"東京都","city":"狛江市","address":"狛江市岩戸北3-20-2","lat":35.6328,"lon":139.58191},{"name":"ベネッセ狛江南保育園","province":"東京都","city":"狛江市","address":"狛江市岩戸北3-23-8","lat":35.63226,"lon":139.58269},{"name":"アスク岩戸北保育園","province":"東京都","city":"狛江市","address":"狛江市岩戸北3-3-23","lat":35.63461,"lon":139.58246},{"name":"木下の保育園　岩戸北","province":"東京都","city":"狛江市","address":"狛江市岩戸北3丁目1番19号","lat":35.6347,"lon":139.58116},{"name":"多摩川保育園","province":"東京都","city":"狛江市","address":"狛江市西和泉1-5-1","lat":35.64032,"lon":139.56439},{"name":"めぐみの森保育園","province":"東京都","city":"狛江市","address":"狛江市中和泉3-12-6","lat":35.63688,"lon":139.57047},{"name":"グローバルキッズ狛江園","province":"東京都","city":"狛江市","address":"狛江市中和泉3-19-14","lat":35.63549,"lon":139.5676},{"name":"いずみの森保育園","province":"東京都","city":"狛江市","address":"狛江市元和泉1-10-10","lat":35.63189,"lon":139.57593},{"name":"木下の保育園　元和泉","province":"東京都","city":"狛江市","address":"狛江市元和泉1丁目19番4号","lat":35.63077,"lon":139.5744},{"name":"虹のひかり保育園","province":"東京都","city":"狛江市","address":"狛江市東和泉1-32-18","lat":35.63037,"lon":139.5768},{"name":"ぎんきょう保育園","province":"東京都","city":"狛江市","address":"狛江市東和泉1-34-25","lat":35.62965,"lon":139.57663},{"name":"狛江ちとせ保育園","province":"東京都","city":"狛江市","address":"狛江市東和泉1-35-10","lat":35.6295,"lon":139.57567},{"name":"駒井保育園","province":"東京都","city":"狛江市","address":"狛江市駒井町2-28-6","lat":35.62431,"lon":139.58742},{"name":"駒井町みんなの家","province":"東京都","city":"狛江市","address":"狛江市駒井町3丁目36番1号","lat":35.62307,"lon":139.58911},{"name":"虹のひかり保育園","province":"東京都","city":"狛江市","address":"狛江市東和泉1-32-18","lat":35.63038,"lon":139.5768},{"name":"パイオニアキッズ西野川園","province":"東京都","city":"狛江市","address":"狛江市西野川2-4-15","lat":35.6440155,"lon":139.5749907},{"name":"狛江保育園","province":"東京都","city":"狛江市","address":"狛江市西野川4-12-1","lat":35.64687,"lon":139.57288},{"name":"三島保育園","province":"東京都","city":"狛江市","address":"狛江市東野川1-32-2","lat":35.64243,"lon":139.5831},{"name":"東野川保育園みんなの家","province":"東京都","city":"狛江市","address":"狛江市東野川4丁目9番7号","lat":35.6446,"lon":139.58388},{"name":"狛江子どもの家","province":"東京都","city":"狛江市","address":"狛江市和泉本町1-36-4","lat":35.6362,"lon":139.57793},{"name":"藤塚保育園","province":"東京都","city":"狛江市","address":"狛江市和泉本町4-7-35","lat":35.64428,"lon":139.56754},{"name":"いずみ保育園","province":"東京都","city":"狛江市","address":"狛江市岩戸北1-1-12","lat":35.63538,"lon":139.57996},{"name":"駄倉保育園","province":"東京都","city":"狛江市","address":"狛江市岩戸北3-20-2","lat":35.6328,"lon":139.58191},{"name":"ベネッセ狛江南保育園","province":"東京都","city":"狛江市","address":"狛江市岩戸北3-23-8","lat":35.63226,"lon":139.58269},{"name":"アスク岩戸北保育園","province":"東京都","city":"狛江市","address":"狛江市岩戸北3-3-23","lat":35.63461,"lon":139.58246},{"name":"木下の保育園　岩戸北","province":"東京都","city":"狛江市","address":"狛江市岩戸北3丁目1番19号","lat":35.6347,"lon":139.58116},{"name":"多摩川保育園","province":"東京都","city":"狛江市","address":"狛江市西和泉1-5-1","lat":35.64032,"lon":139.56439},{"name":"めぐみの森保育園","province":"東京都","city":"狛江市","address":"狛江市中和泉3-12-6","lat":35.63688,"lon":139.57047},{"name":"グローバルキッズ狛江園","province":"東京都","city":"狛江市","address":"狛江市中和泉3-19-14","lat":35.63549,"lon":139.5676},{"name":"いずみの森保育園","province":"東京都","city":"狛江市","address":"狛江市元和泉1-10-10","lat":35.63189,"lon":139.57593},{"name":"木下の保育園　元和泉","province":"東京都","city":"狛江市","address":"狛江市元和泉1丁目19番4号","lat":35.63077,"lon":139.5744},{"name":"虹のひかり保育園","province":"東京都","city":"狛江市","address":"狛江市東和泉1-32-18","lat":35.63037,"lon":139.5768},{"name":"ぎんきょう保育園","province":"東京都","city":"狛江市","address":"狛江市東和泉1-34-25","lat":35.62965,"lon":139.57663},{"name":"狛江ちとせ保育園","province":"東京都","city":"狛江市","address":"狛江市東和泉1-35-10","lat":35.6295,"lon":139.57567},{"name":"駒井保育園","province":"東京都","city":"狛江市","address":"狛江市駒井町2-28-6","lat":35.62431,"lon":139.58742},{"name":"駒井町みんなの家","province":"東京都","city":"狛江市","address":"狛江市駒井町3丁目36番1号","lat":35.62307,"lon":139.58911},{"name":"虹のひかり保育園","province":"東京都","city":"狛江市","address":"狛江市東和泉1-32-18","lat":35.63038,"lon":139.5768},{"name":"パイオニアキッズ西野川園","province":"東京都","city":"狛江市","address":"狛江市西野川2-4-15","lat":35.6440155,"lon":139.5749907},{"name":"狛江保育園","province":"東京都","city":"狛江市","address":"狛江市西野川4-12-1","lat":35.64687,"lon":139.57288},{"name":"三島保育園","province":"東京都","city":"狛江市","address":"狛江市東野川1-32-2","lat":35.64243,"lon":139.5831},{"name":"東野川保育園みんなの家","province":"東京都","city":"狛江市","address":"狛江市東野川4丁目9番7号","lat":35.6446,"lon":139.58388},{"name":"狛江子どもの家","province":"東京都","city":"狛江市","address":"狛江市和泉本町1-36-4","lat":35.6362,"lon":139.57793},{"name":"藤塚保育園","province":"東京都","city":"狛江市","address":"狛江市和泉本町4-7-35","lat":35.64428,"lon":139.56754},{"name":"いずみ保育園","province":"東京都","city":"狛江市","address":"狛江市岩戸北1-1-12","lat":35.63538,"lon":139.57996},{"name":"駄倉保育園","province":"東京都","city":"狛江市","address":"狛江市岩戸北3-20-2","lat":35.6328,"lon":139.58191},{"name":"ベネッセ狛江南保育園","province":"東京都","city":"狛江市","address":"狛江市岩戸北3-23-8","lat":35.63226,"lon":139.58269},{"name":"アスク岩戸北保育園","province":"東京都","city":"狛江市","address":"狛江市岩戸北3-3-23","lat":35.63461,"lon":139.58246},{"name":"木下の保育園　岩戸北","province":"東京都","city":"狛江市","address":"狛江市岩戸北3丁目1番19号","lat":35.6347,"lon":139.58116},{"name":"多摩川保育園","province":"東京都","city":"狛江市","address":"狛江市西和泉1-5-1","lat":35.64032,"lon":139.56439},{"name":"めぐみの森保育園","province":"東京都","city":"狛江市","address":"狛江市中和泉3-12-6","lat":35.63688,"lon":139.57047},{"name":"グローバルキッズ狛江園","province":"東京都","city":"狛江市","address":"狛江市中和泉3-19-14","lat":35.63549,"lon":139.5676},{"name":"いずみの森保育園","province":"東京都","city":"狛江市","address":"狛江市元和泉1-10-10","lat":35.63189,"lon":139.57593},{"name":"木下の保育園　元和泉","province":"東京都","city":"狛江市","address":"狛江市元和泉1丁目19番4号","lat":35.63077,"lon":139.5744},{"name":"虹のひかり保育園","province":"東京都","city":"狛江市","address":"狛江市東和泉1-32-18","lat":35.63037,"lon":139.5768},{"name":"ぎんきょう保育園","province":"東京都","city":"狛江市","address":"狛江市東和泉1-34-25","lat":35.62965,"lon":139.57663},{"name":"狛江ちとせ保育園","province":"東京都","city":"狛江市","address":"狛江市東和泉1-35-10","lat":35.6295,"lon":139.57567},{"name":"駒井保育園","province":"東京都","city":"狛江市","address":"狛江市駒井町2-28-6","lat":35.62431,"lon":139.58742},{"name":"駒井町みんなの家","province":"東京都","city":"狛江市","address":"狛江市駒井町3丁目36番1号","lat":35.62307,"lon":139.58911},{"name":"虹のひかり保育園","province":"東京都","city":"狛江市","address":"狛江市東和泉1-32-18","lat":35.63038,"lon":139.5768},{"name":"パイオニアキッズ西野川園","province":"東京都","city":"狛江市","address":"狛江市西野川2-4-15","lat":35.6440155,"lon":139.5749907},{"name":"狛江保育園","province":"東京都","city":"狛江市","address":"狛江市西野川4-12-1","lat":35.64687,"lon":139.57288},{"name":"三島保育園","province":"東京都","city":"狛江市","address":"狛江市東野川1-32-2","lat":35.64243,"lon":139.5831},{"name":"東野川保育園みんなの家","province":"東京都","city":"狛江市","address":"狛江市東野川4丁目9番7号","lat":35.6446,"lon":139.58388},{"name":"狛江子どもの家","province":"東京都","city":"狛江市","address":"狛江市和泉本町1-36-4","lat":35.6362,"lon":139.57793},{"name":"藤塚保育園","province":"東京都","city":"狛江市","address":"狛江市和泉本町4-7-35","lat":35.64428,"lon":139.56754},{"name":"いずみ保育園","province":"東京都","city":"狛江市","address":"狛江市岩戸北1-1-12","lat":35.63538,"lon":139.57996},{"name":"駄倉保育園","province":"東京都","city":"狛江市","address":"狛江市岩戸北3-20-2","lat":35.6328,"lon":139.58191},{"name":"ベネッセ狛江南保育園","province":"東京都","city":"狛江市","address":"狛江市岩戸北3-23-8","lat":35.63226,"lon":139.58269},{"name":"アスク岩戸北保育園","province":"東京都","city":"狛江市","address":"狛江市岩戸北3-3-23","lat":35.63461,"lon":139.58246},{"name":"木下の保育園　岩戸北","province":"東京都","city":"狛江市","address":"狛江市岩戸北3丁目1番19号","lat":35.6347,"lon":139.58116},{"name":"多摩川保育園","province":"東京都","city":"狛江市","address":"狛江市西和泉1-5-1","lat":35.64032,"lon":139.56439},{"name":"めぐみの森保育園","province":"東京都","city":"狛江市","address":"狛江市中和泉3-12-6","lat":35.63688,"lon":139.57047},{"name":"グローバルキッズ狛江園","province":"東京都","city":"狛江市","address":"狛江市中和泉3-19-14","lat":35.63549,"lon":139.5676},{"name":"いずみの森保育園","province":"東京都","city":"狛江市","address":"狛江市元和泉1-10-10","lat":35.63189,"lon":139.57593},{"name":"木下の保育園　元和泉","province":"東京都","city":"狛江市","address":"狛江市元和泉1丁目19番4号","lat":35.63077,"lon":139.5744},{"name":"虹のひかり保育園","province":"東京都","city":"狛江市","address":"狛江市東和泉1-32-18","lat":35.63037,"lon":139.5768},{"name":"ぎんきょう保育園","province":"東京都","city":"狛江市","address":"狛江市東和泉1-34-25","lat":35.62965,"lon":139.57663},{"name":"狛江ちとせ保育園","province":"東京都","city":"狛江市","address":"狛江市東和泉1-35-10","lat":35.6295,"lon":139.57567},{"name":"駒井保育園","province":"東京都","city":"狛江市","address":"狛江市駒井町2-28-6","lat":35.62431,"lon":139.58742},{"name":"駒井町みんなの家","province":"東京都","city":"狛江市","address":"狛江市駒井町3丁目36番1号","lat":35.62307,"lon":139.58911},{"name":"虹のひかり保育園","province":"東京都","city":"狛江市","address":"狛江市東和泉1-32-18","lat":35.63038,"lon":139.5768},{"name":"パイオニアキッズ西野川園","province":"東京都","city":"狛江市","address":"狛江市西野川2-4-15","lat":35.6440155,"lon":139.5749907},{"name":"狛江保育園","province":"東京都","city":"狛江市","address":"狛江市西野川4-12-1","lat":35.64687,"lon":139.57288},{"name":"三島保育園","province":"東京都","city":"狛江市","address":"狛江市東野川1-32-2","lat":35.64243,"lon":139.5831},{"name":"東野川保育園みんなの家","province":"東京都","city":"狛江市","address":"狛江市東野川4丁目9番7号","lat":35.6446,"lon":139.58388},{"name":"狛江子どもの家","province":"東京都","city":"狛江市","address":"狛江市和泉本町1-36-4","lat":35.6362,"lon":139.57793},{"name":"藤塚保育園","province":"東京都","city":"狛江市","address":"狛江市和泉本町4-7-35","lat":35.64428,"lon":139.56754},{"name":"いずみ保育園","province":"東京都","city":"狛江市","address":"狛江市岩戸北1-1-12","lat":35.63538,"lon":139.57996},{"name":"駄倉保育園","province":"東京都","city":"狛江市","address":"狛江市岩戸北3-20-2","lat":35.6328,"lon":139.58191},{"name":"ベネッセ狛江南保育園","province":"東京都","city":"狛江市","address":"狛江市岩戸北3-23-8","lat":35.63226,"lon":139.58269},{"name":"アスク岩戸北保育園","province":"東京都","city":"狛江市","address":"狛江市岩戸北3-3-23","lat":35.63461,"lon":139.58246},{"name":"木下の保育園　岩戸北","province":"東京都","city":"狛江市","address":"狛江市岩戸北3丁目1番19号","lat":35.6347,"lon":139.58116},{"name":"多摩川保育園","province":"東京都","city":"狛江市","address":"狛江市西和泉1-5-1","lat":35.64032,"lon":139.56439},{"name":"めぐみの森保育園","province":"東京都","city":"狛江市","address":"狛江市中和泉3-12-6","lat":35.63688,"lon":139.57047},{"name":"グローバルキッズ狛江園","province":"東京都","city":"狛江市","address":"狛江市中和泉3-19-14","lat":35.63549,"lon":139.5676},{"name":"いずみの森保育園","province":"東京都","city":"狛江市","address":"狛江市元和泉1-10-10","lat":35.63189,"lon":139.57593},{"name":"木下の保育園　元和泉","province":"東京都","city":"狛江市","address":"狛江市元和泉1丁目19番4号","lat":35.63077,"lon":139.5744},{"name":"虹のひかり保育園","province":"東京都","city":"狛江市","address":"狛江市東和泉1-32-18","lat":35.63037,"lon":139.5768},{"name":"ぎんきょう保育園","province":"東京都","city":"狛江市","address":"狛江市東和泉1-34-25","lat":35.62965,"lon":139.57663},{"name":"狛江ちとせ保育園","province":"東京都","city":"狛江市","address":"狛江市東和泉1-35-10","lat":35.6295,"lon":139.57567},{"name":"駒井保育園","province":"東京都","city":"狛江市","address":"狛江市駒井町2-28-6","lat":35.62431,"lon":139.58742},{"name":"駒井町みんなの家","province":"東京都","city":"狛江市","address":"狛江市駒井町3丁目36番1号","lat":35.62307,"lon":139.58911},{"name":"虹のひかり保育園","province":"東京都","city":"狛江市","address":"狛江市東和泉1-32-18","lat":35.63038,"lon":139.5768},{"name":"パイオニアキッズ西野川園","province":"東京都","city":"狛江市","address":"狛江市西野川2-4-15","lat":35.6440155,"lon":139.5749907},{"name":"狛江保育園","province":"東京都","city":"狛江市","address":"狛江市西野川4-12-1","lat":35.64687,"lon":139.57288},{"name":"三島保育園","province":"東京都","city":"狛江市","address":"狛江市東野川1-32-2","lat":35.64243,"lon":139.5831},{"name":"東野川保育園みんなの家","province":"東京都","city":"狛江市","address":"狛江市東野川4丁目9番7号","lat":35.6446,"lon":139.58388},{"name":"狛江子どもの家","province":"東京都","city":"狛江市","address":"狛江市和泉本町1-36-4","lat":35.6362,"lon":139.57793},{"name":"藤塚保育園","province":"東京都","city":"狛江市","address":"狛江市和泉本町4-7-35","lat":35.64428,"lon":139.56754},{"name":"いずみ保育園","province":"東京都","city":"狛江市","address":"狛江市岩戸北1-1-12","lat":35.63538,"lon":139.57996},{"name":"駄倉保育園","province":"東京都","city":"狛江市","address":"狛江市岩戸北3-20-2","lat":35.6328,"lon":139.58191},{"name":"ベネッセ狛江南保育園","province":"東京都","city":"狛江市","address":"狛江市岩戸北3-23-8","lat":35.63226,"lon":139.58269},{"name":"アスク岩戸北保育園","province":"東京都","city":"狛江市","address":"狛江市岩戸北3-3-23","lat":35.63461,"lon":139.58246},{"name":"木下の保育園　岩戸北","province":"東京都","city":"狛江市","address":"狛江市岩戸北3丁目1番19号","lat":35.6347,"lon":139.58116},{"name":"多摩川保育園","province":"東京都","city":"狛江市","address":"狛江市西和泉1-5-1","lat":35.64032,"lon":139.56439},{"name":"めぐみの森保育園","province":"東京都","city":"狛江市","address":"狛江市中和泉3-12-6","lat":35.63688,"lon":139.57047},{"name":"グローバルキッズ狛江園","province":"東京都","city":"狛江市","address":"狛江市中和泉3-19-14","lat":35.63549,"lon":139.5676},{"name":"いずみの森保育園","province":"東京都","city":"狛江市","address":"狛江市元和泉1-10-10","lat":35.63189,"lon":139.57593},{"name":"木下の保育園　元和泉","province":"東京都","city":"狛江市","address":"狛江市元和泉1丁目19番4号","lat":35.63077,"lon":139.5744},{"name":"虹のひかり保育園","province":"東京都","city":"狛江市","address":"狛江市東和泉1-32-18","lat":35.63037,"lon":139.5768},{"name":"ぎんきょう保育園","province":"東京都","city":"狛江市","address":"狛江市東和泉1-34-25","lat":35.62965,"lon":139.57663},{"name":"狛江ちとせ保育園","province":"東京都","city":"狛江市","address":"狛江市東和泉1-35-10","lat":35.6295,"lon":139.57567},{"name":"駒井保育園","province":"東京都","city":"狛江市","address":"狛江市駒井町2-28-6","lat":35.62431,"lon":139.58742},{"name":"駒井町みんなの家","province":"東京都","city":"狛江市","address":"狛江市駒井町3丁目36番1号","lat":35.62307,"lon":139.58911},{"name":"虹のひかり保育園","province":"東京都","city":"狛江市","address":"狛江市東和泉1-32-18","lat":35.63038,"lon":139.5768},{"name":"パイオニアキッズ西野川園","province":"東京都","city":"狛江市","address":"狛江市西野川2-4-15","lat":35.6440155,"lon":139.5749907},{"name":"狛江保育園","province":"東京都","city":"狛江市","address":"狛江市西野川4-12-1","lat":35.64687,"lon":139.57288},{"name":"三島保育園","province":"東京都","city":"狛江市","address":"狛江市東野川1-32-2","lat":35.64243,"lon":139.5831},{"name":"東野川保育園みんなの家","province":"東京都","city":"狛江市","address":"狛江市東野川4丁目9番7号","lat":35.6446,"lon":139.58388},{"name":"狛江子どもの家","province":"東京都","city":"狛江市","address":"狛江市和泉本町1-36-4","lat":35.6362,"lon":139.57793},{"name":"藤塚保育園","province":"東京都","city":"狛江市","address":"狛江市和泉本町4-7-35","lat":35.64428,"lon":139.56754},{"name":"いずみ保育園","province":"東京都","city":"狛江市","address":"狛江市岩戸北1-1-12","lat":35.63538,"lon":139.57996},{"name":"駄倉保育園","province":"東京都","city":"狛江市","address":"狛江市岩戸北3-20-2","lat":35.6328,"lon":139.58191},{"name":"ベネッセ狛江南保育園","province":"東京都","city":"狛江市","address":"狛江市岩戸北3-23-8","lat":35.63226,"lon":139.58269},{"name":"アスク岩戸北保育園","province":"東京都","city":"狛江市","address":"狛江市岩戸北3-3-23","lat":35.63461,"lon":139.58246},{"name":"木下の保育園　岩戸北","province":"東京都","city":"狛江市","address":"狛江市岩戸北3丁目1番19号","lat":35.6347,"lon":139.58116},{"name":"多摩川保育園","province":"東京都","city":"狛江市","address":"狛江市西和泉1-5-1","lat":35.64032,"lon":139.56439},{"name":"めぐみの森保育園","province":"東京都","city":"狛江市","address":"狛江市中和泉3-12-6","lat":35.63688,"lon":139.57047},{"name":"グローバルキッズ狛江園","province":"東京都","city":"狛江市","address":"狛江市中和泉3-19-14","lat":35.63549,"lon":139.5676},{"name":"いずみの森保育園","province":"東京都","city":"狛江市","address":"狛江市元和泉1-10-10","lat":35.63189,"lon":139.57593},{"name":"木下の保育園　元和泉","province":"東京都","city":"狛江市","address":"狛江市元和泉1丁目19番4号","lat":35.63077,"lon":139.5744},{"name":"虹のひかり保育園","province":"東京都","city":"狛江市","address":"狛江市東和泉1-32-18","lat":35.63037,"lon":139.5768},{"name":"ぎんきょう保育園","province":"東京都","city":"狛江市","address":"狛江市東和泉1-34-25","lat":35.62965,"lon":139.57663},{"name":"狛江ちとせ保育園","province":"東京都","city":"狛江市","address":"狛江市東和泉1-35-10","lat":35.6295,"lon":139.57567},{"name":"駒井保育園","province":"東京都","city":"狛江市","address":"狛江市駒井町2-28-6","lat":35.62431,"lon":139.58742},{"name":"駒井町みんなの家","province":"東京都","city":"狛江市","address":"狛江市駒井町3丁目36番1号","lat":35.62307,"lon":139.58911},{"name":"虹のひかり保育園","province":"東京都","city":"狛江市","address":"狛江市東和泉1-32-18","lat":35.63038,"lon":139.5768},{"name":"パイオニアキッズ西野川園","province":"東京都","city":"狛江市","address":"狛江市西野川2-4-15","lat":35.6440155,"lon":139.5749907},{"name":"狛江保育園","province":"東京都","city":"狛江市","address":"狛江市西野川4-12-1","lat":35.64687,"lon":139.57288},{"name":"三島保育園","province":"東京都","city":"狛江市","address":"狛江市東野川1-32-2","lat":35.64243,"lon":139.5831},{"name":"東野川保育園みんなの家","province":"東京都","city":"狛江市","address":"狛江市東野川4丁目9番7号","lat":35.6446,"lon":139.58388},{"name":"狛江子どもの家","province":"東京都","city":"狛江市","address":"狛江市和泉本町1-36-4","lat":35.6362,"lon":139.57793},{"name":"藤塚保育園","province":"東京都","city":"狛江市","address":"狛江市和泉本町4-7-35","lat":35.64428,"lon":139.56754},{"name":"いずみ保育園","province":"東京都","city":"狛江市","address":"狛江市岩戸北1-1-12","lat":35.63538,"lon":139.57996},{"name":"駄倉保育園","province":"東京都","city":"狛江市","address":"狛江市岩戸北3-20-2","lat":35.6328,"lon":139.58191},{"name":"ベネッセ狛江南保育園","province":"東京都","city":"狛江市","address":"狛江市岩戸北3-23-8","lat":35.63226,"lon":139.58269},{"name":"アスク岩戸北保育園","province":"東京都","city":"狛江市","address":"狛江市岩戸北3-3-23","lat":35.63461,"lon":139.58246},{"name":"木下の保育園　岩戸北","province":"東京都","city":"狛江市","address":"狛江市岩戸北3丁目1番19号","lat":35.6347,"lon":139.58116},{"name":"多摩川保育園","province":"東京都","city":"狛江市","address":"狛江市西和泉1-5-1","lat":35.64032,"lon":139.56439},{"name":"めぐみの森保育園","province":"東京都","city":"狛江市","address":"狛江市中和泉3-12-6","lat":35.63688,"lon":139.57047},{"name":"グローバルキッズ狛江園","province":"東京都","city":"狛江市","address":"狛江市中和泉3-19-14","lat":35.63549,"lon":139.5676},{"name":"いずみの森保育園","province":"東京都","city":"狛江市","address":"狛江市元和泉1-10-10","lat":35.63189,"lon":139.57593},{"name":"木下の保育園　元和泉","province":"東京都","city":"狛江市","address":"狛江市元和泉1丁目19番4号","lat":35.63077,"lon":139.5744},{"name":"虹のひかり保育園","province":"東京都","city":"狛江市","address":"狛江市東和泉1-32-18","lat":35.63037,"lon":139.5768},{"name":"ぎんきょう保育園","province":"東京都","city":"狛江市","address":"狛江市東和泉1-34-25","lat":35.62965,"lon":139.57663},{"name":"狛江ちとせ保育園","province":"東京都","city":"狛江市","address":"狛江市東和泉1-35-10","lat":35.6295,"lon":139.57567},{"name":"駒井保育園","province":"東京都","city":"狛江市","address":"狛江市駒井町2-28-6","lat":35.62431,"lon":139.58742},{"name":"駒井町みんなの家","province":"東京都","city":"狛江市","address":"狛江市駒井町3丁目36番1号","lat":35.62307,"lon":139.58911},{"name":"虹のひかり保育園","province":"東京都","city":"狛江市","address":"狛江市東和泉1-32-18","lat":35.63038,"lon":139.5768},{"name":"パイオニアキッズ西野川園","province":"東京都","city":"狛江市","address":"狛江市西野川2-4-15","lat":35.6440155,"lon":139.5749907},{"name":"狛江保育園","province":"東京都","city":"狛江市","address":"狛江市西野川4-12-1","lat":35.64687,"lon":139.57288},{"name":"三島保育園","province":"東京都","city":"狛江市","address":"狛江市東野川1-32-2","lat":35.64243,"lon":139.5831},{"name":"東野川保育園みんなの家","province":"東京都","city":"狛江市","address":"狛江市東野川4丁目9番7号","lat":35.6446,"lon":139.58388},{"name":"狛江子どもの家","province":"東京都","city":"狛江市","address":"狛江市和泉本町1-36-4","lat":35.6362,"lon":139.57793},{"name":"藤塚保育園","province":"東京都","city":"狛江市","address":"狛江市和泉本町4-7-35","lat":35.64428,"lon":139.56754},{"name":"いずみ保育園","province":"東京都","city":"狛江市","address":"狛江市岩戸北1-1-12","lat":35.63538,"lon":139.57996},{"name":"駄倉保育園","province":"東京都","city":"狛江市","address":"狛江市岩戸北3-20-2","lat":35.6328,"lon":139.58191},{"name":"ベネッセ狛江南保育園","province":"東京都","city":"狛江市","address":"狛江市岩戸北3-23-8","lat":35.63226,"lon":139.58269},{"name":"アスク岩戸北保育園","province":"東京都","city":"狛江市","address":"狛江市岩戸北3-3-23","lat":35.63461,"lon":139.58246},{"name":"木下の保育園　岩戸北","province":"東京都","city":"狛江市","address":"狛江市岩戸北3丁目1番19号","lat":35.6347,"lon":139.58116},{"name":"多摩川保育園","province":"東京都","city":"狛江市","address":"狛江市西和泉1-5-1","lat":35.64032,"lon":139.56439},{"name":"めぐみの森保育園","province":"東京都","city":"狛江市","address":"狛江市中和泉3-12-6","lat":35.63688,"lon":139.57047},{"name":"グローバルキッズ狛江園","province":"東京都","city":"狛江市","address":"狛江市中和泉3-19-14","lat":35.63549,"lon":139.5676},{"name":"いずみの森保育園","province":"東京都","city":"狛江市","address":"狛江市元和泉1-10-10","lat":35.63189,"lon":139.57593},{"name":"木下の保育園　元和泉","province":"東京都","city":"狛江市","address":"狛江市元和泉1丁目19番4号","lat":35.63077,"lon":139.5744},{"name":"虹のひかり保育園","province":"東京都","city":"狛江市","address":"狛江市東和泉1-32-18","lat":35.63037,"lon":139.5768},{"name":"ぎんきょう保育園","province":"東京都","city":"狛江市","address":"狛江市東和泉1-34-25","lat":35.62965,"lon":139.57663},{"name":"狛江ちとせ保育園","province":"東京都","city":"狛江市","address":"狛江市東和泉1-35-10","lat":35.6295,"lon":139.57567},{"name":"駒井保育園","province":"東京都","city":"狛江市","address":"狛江市駒井町2-28-6","lat":35.62431,"lon":139.58742},{"name":"駒井町みんなの家","province":"東京都","city":"狛江市","address":"狛江市駒井町3丁目36番1号","lat":35.62307,"lon":139.58911},{"name":"虹のひかり保育園","province":"東京都","city":"狛江市","address":"狛江市東和泉1-32-18","lat":35.63038,"lon":139.5768},{"name":"パイオニアキッズ西野川園","province":"東京都","city":"狛江市","address":"狛江市西野川2-4-15","lat":35.6440155,"lon":139.5749907},{"name":"狛江保育園","province":"東京都","city":"狛江市","address":"狛江市西野川4-12-1","lat":35.64687,"lon":139.57288},{"name":"三島保育園","province":"東京都","city":"狛江市","address":"狛江市東野川1-32-2","lat":35.64243,"lon":139.5831},{"name":"東野川保育園みんなの家","province":"東京都","city":"狛江市","address":"狛江市東野川4丁目9番7号","lat":35.6446,"lon":139.58388},{"name":"狛江子どもの家","province":"東京都","city":"狛江市","address":"狛江市和泉本町1-36-4","lat":35.6362,"lon":139.57793},{"name":"藤塚保育園","province":"東京都","city":"狛江市","address":"狛江市和泉本町4-7-35","lat":35.64428,"lon":139.56754},{"name":"いずみ保育園","province":"東京都","city":"狛江市","address":"狛江市岩戸北1-1-12","lat":35.63538,"lon":139.57996},{"name":"駄倉保育園","province":"東京都","city":"狛江市","address":"狛江市岩戸北3-20-2","lat":35.6328,"lon":139.58191},{"name":"ベネッセ狛江南保育園","province":"東京都","city":"狛江市","address":"狛江市岩戸北3-23-8","lat":35.63226,"lon":139.58269},{"name":"アスク岩戸北保育園","province":"東京都","city":"狛江市","address":"狛江市岩戸北3-3-23","lat":35.63461,"lon":139.58246},{"name":"木下の保育園　岩戸北","province":"東京都","city":"狛江市","address":"狛江市岩戸北3丁目1番19号","lat":35.6347,"lon":139.58116},{"name":"多摩川保育園","province":"東京都","city":"狛江市","address":"狛江市西和泉1-5-1","lat":35.64032,"lon":139.56439},{"name":"めぐみの森保育園","province":"東京都","city":"狛江市","address":"狛江市中和泉3-12-6","lat":35.63688,"lon":139.57047},{"name":"グローバルキッズ狛江園","province":"東京都","city":"狛江市","address":"狛江市中和泉3-19-14","lat":35.63549,"lon":139.5676},{"name":"いずみの森保育園","province":"東京都","city":"狛江市","address":"狛江市元和泉1-10-10","lat":35.63189,"lon":139.57593},{"name":"木下の保育園　元和泉","province":"東京都","city":"狛江市","address":"狛江市元和泉1丁目19番4号","lat":35.63077,"lon":139.5744},{"name":"虹のひかり保育園","province":"東京都","city":"狛江市","address":"狛江市東和泉1-32-18","lat":35.63037,"lon":139.5768},{"name":"ぎんきょう保育園","province":"東京都","city":"狛江市","address":"狛江市東和泉1-34-25","lat":35.62965,"lon":139.57663},{"name":"狛江ちとせ保育園","province":"東京都","city":"狛江市","address":"狛江市東和泉1-35-10","lat":35.6295,"lon":139.57567},{"name":"駒井保育園","province":"東京都","city":"狛江市","address":"狛江市駒井町2-28-6","lat":35.62431,"lon":139.58742},{"name":"駒井町みんなの家","province":"東京都","city":"狛江市","address":"狛江市駒井町3丁目36番1号","lat":35.62307,"lon":139.58911},{"name":"虹のひかり保育園","province":"東京都","city":"狛江市","address":"狛江市東和泉1-32-18","lat":35.63038,"lon":139.5768},{"name":"パイオニアキッズ西野川園","province":"東京都","city":"狛江市","address":"狛江市西野川2-4-15","lat":35.6440155,"lon":139.5749907},{"name":"狛江保育園","province":"東京都","city":"狛江市","address":"狛江市西野川4-12-1","lat":35.64687,"lon":139.57288},{"name":"三島保育園","province":"東京都","city":"狛江市","address":"狛江市東野川1-32-2","lat":35.64243,"lon":139.5831},{"name":"東野川保育園みんなの家","province":"東京都","city":"狛江市","address":"狛江市東野川4丁目9番7号","lat":35.6446,"lon":139.58388},{"name":"狛江子どもの家","province":"東京都","city":"狛江市","address":"狛江市和泉本町1-36-4","lat":35.6362,"lon":139.57793},{"name":"藤塚保育園","province":"東京都","city":"狛江市","address":"狛江市和泉本町4-7-35","lat":35.64428,"lon":139.56754},{"name":"いずみ保育園","province":"東京都","city":"狛江市","address":"狛江市岩戸北1-1-12","lat":35.63538,"lon":139.57996},{"name":"駄倉保育園","province":"東京都","city":"狛江市","address":"狛江市岩戸北3-20-2","lat":35.6328,"lon":139.58191},{"name":"ベネッセ狛江南保育園","province":"東京都","city":"狛江市","address":"狛江市岩戸北3-23-8","lat":35.63226,"lon":139.58269},{"name":"アスク岩戸北保育園","province":"東京都","city":"狛江市","address":"狛江市岩戸北3-3-23","lat":35.63461,"lon":139.58246},{"name":"木下の保育園　岩戸北","province":"東京都","city":"狛江市","address":"狛江市岩戸北3丁目1番19号","lat":35.6347,"lon":139.58116},{"name":"多摩川保育園","province":"東京都","city":"狛江市","address":"狛江市西和泉1-5-1","lat":35.64032,"lon":139.56439},{"name":"めぐみの森保育園","province":"東京都","city":"狛江市","address":"狛江市中和泉3-12-6","lat":35.63688,"lon":139.57047},{"name":"グローバルキッズ狛江園","province":"東京都","city":"狛江市","address":"狛江市中和泉3-19-14","lat":35.63549,"lon":139.5676},{"name":"いずみの森保育園","province":"東京都","city":"狛江市","address":"狛江市元和泉1-10-10","lat":35.63189,"lon":139.57593},{"name":"木下の保育園　元和泉","province":"東京都","city":"狛江市","address":"狛江市元和泉1丁目19番4号","lat":35.63077,"lon":139.5744},{"name":"虹のひかり保育園","province":"東京都","city":"狛江市","address":"狛江市東和泉1-32-18","lat":35.63037,"lon":139.5768},{"name":"ぎんきょう保育園","province":"東京都","city":"狛江市","address":"狛江市東和泉1-34-25","lat":35.62965,"lon":139.57663},{"name":"狛江ちとせ保育園","province":"東京都","city":"狛江市","address":"狛江市東和泉1-35-10","lat":35.6295,"lon":139.57567},{"name":"駒井保育園","province":"東京都","city":"狛江市","address":"狛江市駒井町2-28-6","lat":35.62431,"lon":139.58742},{"name":"駒井町みんなの家","province":"東京都","city":"狛江市","address":"狛江市駒井町3丁目36番1号","lat":35.62307,"lon":139.58911},{"name":"虹のひかり保育園","province":"東京都","city":"狛江市","address":"狛江市東和泉1-32-18","lat":35.63038,"lon":139.5768},{"name":"パイオニアキッズ西野川園","province":"東京都","city":"狛江市","address":"狛江市西野川2-4-15","lat":35.6440155,"lon":139.5749907},{"name":"狛江保育園","province":"東京都","city":"狛江市","address":"狛江市西野川4-12-1","lat":35.64687,"lon":139.57288},{"name":"三島保育園","province":"東京都","city":"狛江市","address":"狛江市東野川1-32-2","lat":35.64243,"lon":139.5831},{"name":"東野川保育園みんなの家","province":"東京都","city":"狛江市","address":"狛江市東野川4丁目9番7号","lat":35.6446,"lon":139.58388},{"name":"狛江子どもの家","province":"東京都","city":"狛江市","address":"狛江市和泉本町1-36-4","lat":35.6362,"lon":139.57793},{"name":"藤塚保育園","province":"東京都","city":"狛江市","address":"狛江市和泉本町4-7-35","lat":35.64428,"lon":139.56754},{"name":"いずみ保育園","province":"東京都","city":"狛江市","address":"狛江市岩戸北1-1-12","lat":35.63538,"lon":139.57996},{"name":"駄倉保育園","province":"東京都","city":"狛江市","address":"狛江市岩戸北3-20-2","lat":35.6328,"lon":139.58191},{"name":"ベネッセ狛江南保育園","province":"東京都","city":"狛江市","address":"狛江市岩戸北3-23-8","lat":35.63226,"lon":139.58269},{"name":"アスク岩戸北保育園","province":"東京都","city":"狛江市","address":"狛江市岩戸北3-3-23","lat":35.63461,"lon":139.58246},{"name":"木下の保育園　岩戸北","province":"東京都","city":"狛江市","address":"狛江市岩戸北3丁目1番19号","lat":35.6347,"lon":139.58116},{"name":"多摩川保育園","province":"東京都","city":"狛江市","address":"狛江市西和泉1-5-1","lat":35.64032,"lon":139.56439},{"name":"めぐみの森保育園","province":"東京都","city":"狛江市","address":"狛江市中和泉3-12-6","lat":35.63688,"lon":139.57047},{"name":"グローバルキッズ狛江園","province":"東京都","city":"狛江市","address":"狛江市中和泉3-19-14","lat":35.63549,"lon":139.5676},{"name":"いずみの森保育園","province":"東京都","city":"狛江市","address":"狛江市元和泉1-10-10","lat":35.63189,"lon":139.57593},{"name":"木下の保育園　元和泉","province":"東京都","city":"狛江市","address":"狛江市元和泉1丁目19番4号","lat":35.63077,"lon":139.5744},{"name":"虹のひかり保育園","province":"東京都","city":"狛江市","address":"狛江市東和泉1-32-18","lat":35.63037,"lon":139.5768},{"name":"ぎんきょう保育園","province":"東京都","city":"狛江市","address":"狛江市東和泉1-34-25","lat":35.62965,"lon":139.57663},{"name":"狛江ちとせ保育園","province":"東京都","city":"狛江市","address":"狛江市東和泉1-35-10","lat":35.6295,"lon":139.57567},{"name":"駒井保育園","province":"東京都","city":"狛江市","address":"狛江市駒井町2-28-6","lat":35.62431,"lon":139.58742},{"name":"駒井町みんなの家","province":"東京都","city":"狛江市","address":"狛江市駒井町3丁目36番1号","lat":35.62307,"lon":139.58911},{"name":"虹のひかり保育園","province":"東京都","city":"狛江市","address":"狛江市東和泉1-32-18","lat":35.63038,"lon":139.5768},{"name":"パイオニアキッズ西野川園","province":"東京都","city":"狛江市","address":"狛江市西野川2-4-15","lat":35.6440155,"lon":139.5749907},{"name":"狛江保育園","province":"東京都","city":"狛江市","address":"狛江市西野川4-12-1","lat":35.64687,"lon":139.57288},{"name":"三島保育園","province":"東京都","city":"狛江市","address":"狛江市東野川1-32-2","lat":35.64243,"lon":139.5831},{"name":"東野川保育園みんなの家","province":"東京都","city":"狛江市","address":"狛江市東野川4丁目9番7号","lat":35.6446,"lon":139.58388},{"name":"狛江子どもの家","province":"東京都","city":"狛江市","address":"狛江市和泉本町1-36-4","lat":35.6362,"lon":139.57793},{"name":"藤塚保育園","province":"東京都","city":"狛江市","address":"狛江市和泉本町4-7-35","lat":35.64428,"lon":139.56754},{"name":"いずみ保育園","province":"東京都","city":"狛江市","address":"狛江市岩戸北1-1-12","lat":35.63538,"lon":139.57996},{"name":"駄倉保育園","province":"東京都","city":"狛江市","address":"狛江市岩戸北3-20-2","lat":35.6328,"lon":139.58191},{"name":"ベネッセ狛江南保育園","province":"東京都","city":"狛江市","address":"狛江市岩戸北3-23-8","lat":35.63226,"lon":139.58269},{"name":"アスク岩戸北保育園","province":"東京都","city":"狛江市","address":"狛江市岩戸北3-3-23","lat":35.63461,"lon":139.58246},{"name":"木下の保育園　岩戸北","province":"東京都","city":"狛江市","address":"狛江市岩戸北3丁目1番19号","lat":35.6347,"lon":139.58116},{"name":"多摩川保育園","province":"東京都","city":"狛江市","address":"狛江市西和泉1-5-1","lat":35.64032,"lon":139.56439},{"name":"めぐみの森保育園","province":"東京都","city":"狛江市","address":"狛江市中和泉3-12-6","lat":35.63688,"lon":139.57047},{"name":"グローバルキッズ狛江園","province":"東京都","city":"狛江市","address":"狛江市中和泉3-19-14","lat":35.63549,"lon":139.5676},{"name":"いずみの森保育園","province":"東京都","city":"狛江市","address":"狛江市元和泉1-10-10","lat":35.63189,"lon":139.57593},{"name":"木下の保育園　元和泉","province":"東京都","city":"狛江市","address":"狛江市元和泉1丁目19番4号","lat":35.63077,"lon":139.5744},{"name":"虹のひかり保育園","province":"東京都","city":"狛江市","address":"狛江市東和泉1-32-18","lat":35.63037,"lon":139.5768},{"name":"ぎんきょう保育園","province":"東京都","city":"狛江市","address":"狛江市東和泉1-34-25","lat":35.62965,"lon":139.57663},{"name":"狛江ちとせ保育園","province":"東京都","city":"狛江市","address":"狛江市東和泉1-35-10","lat":35.6295,"lon":139.57567},{"name":"駒井保育園","province":"東京都","city":"狛江市","address":"狛江市駒井町2-28-6","lat":35.62431,"lon":139.58742},{"name":"駒井町みんなの家","province":"東京都","city":"狛江市","address":"狛江市駒井町3丁目36番1号","lat":35.62307,"lon":139.58911},{"name":"虹のひかり保育園","province":"東京都","city":"狛江市","address":"狛江市東和泉1-32-18","lat":35.63038,"lon":139.5768},{"name":"パイオニアキッズ西野川園","province":"東京都","city":"狛江市","address":"狛江市西野川2-4-15","lat":35.6440155,"lon":139.5749907},{"name":"狛江保育園","province":"東京都","city":"狛江市","address":"狛江市西野川4-12-1","lat":35.64687,"lon":139.57288},{"name":"三島保育園","province":"東京都","city":"狛江市","address":"狛江市東野川1-32-2","lat":35.64243,"lon":139.5831},{"name":"東野川保育園みんなの家","province":"東京都","city":"狛江市","address":"狛江市東野川4丁目9番7号","lat":35.6446,"lon":139.58388},{"name":"狛江子どもの家","province":"東京都","city":"狛江市","address":"狛江市和泉本町1-36-4","lat":35.6362,"lon":139.57793},{"name":"藤塚保育園","province":"東京都","city":"狛江市","address":"狛江市和泉本町4-7-35","lat":35.64428,"lon":139.56754},{"name":"いずみ保育園","province":"東京都","city":"狛江市","address":"狛江市岩戸北1-1-12","lat":35.63538,"lon":139.57996},{"name":"駄倉保育園","province":"東京都","city":"狛江市","address":"狛江市岩戸北3-20-2","lat":35.6328,"lon":139.58191},{"name":"ベネッセ狛江南保育園","province":"東京都","city":"狛江市","address":"狛江市岩戸北3-23-8","lat":35.63226,"lon":139.58269},{"name":"アスク岩戸北保育園","province":"東京都","city":"狛江市","address":"狛江市岩戸北3-3-23","lat":35.63461,"lon":139.58246},{"name":"木下の保育園　岩戸北","province":"東京都","city":"狛江市","address":"狛江市岩戸北3丁目1番19号","lat":35.6347,"lon":139.58116},{"name":"多摩川保育園","province":"東京都","city":"狛江市","address":"狛江市西和泉1-5-1","lat":35.64032,"lon":139.56439},{"name":"めぐみの森保育園","province":"東京都","city":"狛江市","address":"狛江市中和泉3-12-6","lat":35.63688,"lon":139.57047},{"name":"グローバルキッズ狛江園","province":"東京都","city":"狛江市","address":"狛江市中和泉3-19-14","lat":35.63549,"lon":139.5676},{"name":"いずみの森保育園","province":"東京都","city":"狛江市","address":"狛江市元和泉1-10-10","lat":35.63189,"lon":139.57593},{"name":"木下の保育園　元和泉","province":"東京都","city":"狛江市","address":"狛江市元和泉1丁目19番4号","lat":35.63077,"lon":139.5744},{"name":"虹のひかり保育園","province":"東京都","city":"狛江市","address":"狛江市東和泉1-32-18","lat":35.63037,"lon":139.5768},{"name":"ぎんきょう保育園","province":"東京都","city":"狛江市","address":"狛江市東和泉1-34-25","lat":35.62965,"lon":139.57663},{"name":"狛江ちとせ保育園","province":"東京都","city":"狛江市","address":"狛江市東和泉1-35-10","lat":35.6295,"lon":139.57567},{"name":"駒井保育園","province":"東京都","city":"狛江市","address":"狛江市駒井町2-28-6","lat":35.62431,"lon":139.58742},{"name":"駒井町みんなの家","province":"東京都","city":"狛江市","address":"狛江市駒井町3丁目36番1号","lat":35.62307,"lon":139.58911},{"name":"虹のひかり保育園","province":"東京都","city":"狛江市","address":"狛江市東和泉1-32-18","lat":35.63038,"lon":139.5768},{"name":"パイオニアキッズ西野川園","province":"東京都","city":"狛江市","address":"狛江市西野川2-4-15","lat":35.6440155,"lon":139.5749907},{"name":"狛江保育園","province":"東京都","city":"狛江市","address":"狛江市西野川4-12-1","lat":35.64687,"lon":139.57288},{"name":"三島保育園","province":"東京都","city":"狛江市","address":"狛江市東野川1-32-2","lat":35.64243,"lon":139.5831},{"name":"東野川保育園みんなの家","province":"東京都","city":"狛江市","address":"狛江市東野川4丁目9番7号","lat":35.6446,"lon":139.58388},{"name":"狛江子どもの家","province":"東京都","city":"狛江市","address":"狛江市和泉本町1-36-4","lat":35.6362,"lon":139.57793},{"name":"藤塚保育園","province":"東京都","city":"狛江市","address":"狛江市和泉本町4-7-35","lat":35.64428,"lon":139.56754},{"name":"いずみ保育園","province":"東京都","city":"狛江市","address":"狛江市岩戸北1-1-12","lat":35.63538,"lon":139.57996},{"name":"駄倉保育園","province":"東京都","city":"狛江市","address":"狛江市岩戸北3-20-2","lat":35.6328,"lon":139.58191},{"name":"ベネッセ狛江南保育園","province":"東京都","city":"狛江市","address":"狛江市岩戸北3-23-8","lat":35.63226,"lon":139.58269},{"name":"アスク岩戸北保育園","province":"東京都","city":"狛江市","address":"狛江市岩戸北3-3-23","lat":35.63461,"lon":139.58246},{"name":"木下の保育園　岩戸北","province":"東京都","city":"狛江市","address":"狛江市岩戸北3丁目1番19号","lat":35.6347,"lon":139.58116},{"name":"多摩川保育園","province":"東京都","city":"狛江市","address":"狛江市西和泉1-5-1","lat":35.64032,"lon":139.56439},{"name":"めぐみの森保育園","province":"東京都","city":"狛江市","address":"狛江市中和泉3-12-6","lat":35.63688,"lon":139.57047},{"name":"グローバルキッズ狛江園","province":"東京都","city":"狛江市","address":"狛江市中和泉3-19-14","lat":35.63549,"lon":139.5676},{"name":"いずみの森保育園","province":"東京都","city":"狛江市","address":"狛江市元和泉1-10-10","lat":35.63189,"lon":139.57593},{"name":"木下の保育園　元和泉","province":"東京都","city":"狛江市","address":"狛江市元和泉1丁目19番4号","lat":35.63077,"lon":139.5744},{"name":"虹のひかり保育園","province":"東京都","city":"狛江市","address":"狛江市東和泉1-32-18","lat":35.63037,"lon":139.5768},{"name":"ぎんきょう保育園","province":"東京都","city":"狛江市","address":"狛江市東和泉1-34-25","lat":35.62965,"lon":139.57663},{"name":"狛江ちとせ保育園","province":"東京都","city":"狛江市","address":"狛江市東和泉1-35-10","lat":35.6295,"lon":139.57567},{"name":"駒井保育園","province":"東京都","city":"狛江市","address":"狛江市駒井町2-28-6","lat":35.62431,"lon":139.58742},{"name":"駒井町みんなの家","province":"東京都","city":"狛江市","address":"狛江市駒井町3丁目36番1号","lat":35.62307,"lon":139.58911},{"name":"虹のひかり保育園","province":"東京都","city":"狛江市","address":"狛江市東和泉1-32-18","lat":35.63038,"lon":139.5768},{"name":"パイオニアキッズ西野川園","province":"東京都","city":"狛江市","address":"狛江市西野川2-4-15","lat":35.6440155,"lon":139.5749907},{"name":"狛江保育園","province":"東京都","city":"狛江市","address":"狛江市西野川4-12-1","lat":35.64687,"lon":139.57288},{"name":"三島保育園","province":"東京都","city":"狛江市","address":"狛江市東野川1-32-2","lat":35.64243,"lon":139.5831},{"name":"東野川保育園みんなの家","province":"東京都","city":"狛江市","address":"狛江市東野川4丁目9番7号","lat":35.6446,"lon":139.58388},{"name":"狛江子どもの家","province":"東京都","city":"狛江市","address":"狛江市和泉本町1-36-4","lat":35.6362,"lon":139.57793},{"name":"藤塚保育園","province":"東京都","city":"狛江市","address":"狛江市和泉本町4-7-35","lat":35.64428,"lon":139.56754},{"name":"いずみ保育園","province":"東京都","city":"狛江市","address":"狛江市岩戸北1-1-12","lat":35.63538,"lon":139.57996},{"name":"駄倉保育園","province":"東京都","city":"狛江市","address":"狛江市岩戸北3-20-2","lat":35.6328,"lon":139.58191},{"name":"ベネッセ狛江南保育園","province":"東京都","city":"狛江市","address":"狛江市岩戸北3-23-8","lat":35.63226,"lon":139.58269},{"name":"アスク岩戸北保育園","province":"東京都","city":"狛江市","address":"狛江市岩戸北3-3-23","lat":35.63461,"lon":139.58246},{"name":"木下の保育園　岩戸北","province":"東京都","city":"狛江市","address":"狛江市岩戸北3丁目1番19号","lat":35.6347,"lon":139.58116},{"name":"多摩川保育園","province":"東京都","city":"狛江市","address":"狛江市西和泉1-5-1","lat":35.64032,"lon":139.56439},{"name":"めぐみの森保育園","province":"東京都","city":"狛江市","address":"狛江市中和泉3-12-6","lat":35.63688,"lon":139.57047},{"name":"グローバルキッズ狛江園","province":"東京都","city":"狛江市","address":"狛江市中和泉3-19-14","lat":35.63549,"lon":139.5676},{"name":"いずみの森保育園","province":"東京都","city":"狛江市","address":"狛江市元和泉1-10-10","lat":35.63189,"lon":139.57593},{"name":"木下の保育園　元和泉","province":"東京都","city":"狛江市","address":"狛江市元和泉1丁目19番4号","lat":35.63077,"lon":139.5744},{"name":"虹のひかり保育園","province":"東京都","city":"狛江市","address":"狛江市東和泉1-32-18","lat":35.63037,"lon":139.5768},{"name":"ぎんきょう保育園","province":"東京都","city":"狛江市","address":"狛江市東和泉1-34-25","lat":35.62965,"lon":139.57663},{"name":"狛江ちとせ保育園","province":"東京都","city":"狛江市","address":"狛江市東和泉1-35-10","lat":35.6295,"lon":139.57567},{"name":"駒井保育園","province":"東京都","city":"狛江市","address":"狛江市駒井町2-28-6","lat":35.62431,"lon":139.58742},{"name":"駒井町みんなの家","province":"東京都","city":"狛江市","address":"狛江市駒井町3丁目36番1号","lat":35.62307,"lon":139.58911},{"name":"虹のひかり保育園","province":"東京都","city":"狛江市","address":"狛江市東和泉1-32-18","lat":35.63038,"lon":139.5768},{"name":"パイオニアキッズ西野川園","province":"東京都","city":"狛江市","address":"狛江市西野川2-4-15","lat":35.6440155,"lon":139.5749907},{"name":"狛江保育園","province":"東京都","city":"狛江市","address":"狛江市西野川4-12-1","lat":35.64687,"lon":139.57288},{"name":"三島保育園","province":"東京都","city":"狛江市","address":"狛江市東野川1-32-2","lat":35.64243,"lon":139.5831},{"name":"東野川保育園みんなの家","province":"東京都","city":"狛江市","address":"狛江市東野川4丁目9番7号","lat":35.6446,"lon":139.58388},{"name":"狛江子どもの家","province":"東京都","city":"狛江市","address":"狛江市和泉本町1-36-4","lat":35.6362,"lon":139.57793},{"name":"藤塚保育園","province":"東京都","city":"狛江市","address":"狛江市和泉本町4-7-35","lat":35.64428,"lon":139.56754},{"name":"いずみ保育園","province":"東京都","city":"狛江市","address":"狛江市岩戸北1-1-12","lat":35.63538,"lon":139.57996},{"name":"駄倉保育園","province":"東京都","city":"狛江市","address":"狛江市岩戸北3-20-2","lat":35.6328,"lon":139.58191},{"name":"ベネッセ狛江南保育園","province":"東京都","city":"狛江市","address":"狛江市岩戸北3-23-8","lat":35.63226,"lon":139.58269},{"name":"アスク岩戸北保育園","province":"東京都","city":"狛江市","address":"狛江市岩戸北3-3-23","lat":35.63461,"lon":139.58246},{"name":"木下の保育園　岩戸北","province":"東京都","city":"狛江市","address":"狛江市岩戸北3丁目1番19号","lat":35.6347,"lon":139.58116},{"name":"多摩川保育園","province":"東京都","city":"狛江市","address":"狛江市西和泉1-5-1","lat":35.64032,"lon":139.56439},{"name":"めぐみの森保育園","province":"東京都","city":"狛江市","address":"狛江市中和泉3-12-6","lat":35.63688,"lon":139.57047},{"name":"グローバルキッズ狛江園","province":"東京都","city":"狛江市","address":"狛江市中和泉3-19-14","lat":35.63549,"lon":139.5676},{"name":"いずみの森保育園","province":"東京都","city":"狛江市","address":"狛江市元和泉1-10-10","lat":35.63189,"lon":139.57593},{"name":"木下の保育園　元和泉","province":"東京都","city":"狛江市","address":"狛江市元和泉1丁目19番4号","lat":35.63077,"lon":139.5744},{"name":"虹のひかり保育園","province":"東京都","city":"狛江市","address":"狛江市東和泉1-32-18","lat":35.63037,"lon":139.5768},{"name":"ぎんきょう保育園","province":"東京都","city":"狛江市","address":"狛江市東和泉1-34-25","lat":35.62965,"lon":139.57663},{"name":"狛江ちとせ保育園","province":"東京都","city":"狛江市","address":"狛江市東和泉1-35-10","lat":35.6295,"lon":139.57567},{"name":"駒井保育園","province":"東京都","city":"狛江市","address":"狛江市駒井町2-28-6","lat":35.62431,"lon":139.58742},{"name":"駒井町みんなの家","province":"東京都","city":"狛江市","address":"狛江市駒井町3丁目36番1号","lat":35.62307,"lon":139.58911},{"name":"虹のひかり保育園","province":"東京都","city":"狛江市","address":"狛江市東和泉1-32-18","lat":35.63038,"lon":139.5768},{"name":"パイオニアキッズ西野川園","province":"東京都","city":"狛江市","address":"狛江市西野川2-4-15","lat":35.6440155,"lon":139.5749907},{"name":"狛江保育園","province":"東京都","city":"狛江市","address":"狛江市西野川4-12-1","lat":35.64687,"lon":139.57288},{"name":"三島保育園","province":"東京都","city":"狛江市","address":"狛江市東野川1-32-2","lat":35.64243,"lon":139.5831},{"name":"東野川保育園みんなの家","province":"東京都","city":"狛江市","address":"狛江市東野川4丁目9番7号","lat":35.6446,"lon":139.58388},{"name":"狛江子どもの家","province":"東京都","city":"狛江市","address":"狛江市和泉本町1-36-4","lat":35.6362,"lon":139.57793},{"name":"藤塚保育園","province":"東京都","city":"狛江市","address":"狛江市和泉本町4-7-35","lat":35.64428,"lon":139.56754},{"name":"いずみ保育園","province":"東京都","city":"狛江市","address":"狛江市岩戸北1-1-12","lat":35.63538,"lon":139.57996},{"name":"駄倉保育園","province":"東京都","city":"狛江市","address":"狛江市岩戸北3-20-2","lat":35.6328,"lon":139.58191},{"name":"ベネッセ狛江南保育園","province":"東京都","city":"狛江市","address":"狛江市岩戸北3-23-8","lat":35.63226,"lon":139.58269},{"name":"アスク岩戸北保育園","province":"東京都","city":"狛江市","address":"狛江市岩戸北3-3-23","lat":35.63461,"lon":139.58246},{"name":"木下の保育園　岩戸北","province":"東京都","city":"狛江市","address":"狛江市岩戸北3丁目1番19号","lat":35.6347,"lon":139.58116},{"name":"多摩川保育園","province":"東京都","city":"狛江市","address":"狛江市西和泉1-5-1","lat":35.64032,"lon":139.56439},{"name":"めぐみの森保育園","province":"東京都","city":"狛江市","address":"狛江市中和泉3-12-6","lat":35.63688,"lon":139.57047},{"name":"グローバルキッズ狛江園","province":"東京都","city":"狛江市","address":"狛江市中和泉3-19-14","lat":35.63549,"lon":139.5676},{"name":"いずみの森保育園","province":"東京都","city":"狛江市","address":"狛江市元和泉1-10-10","lat":35.63189,"lon":139.57593},{"name":"木下の保育園　元和泉","province":"東京都","city":"狛江市","address":"狛江市元和泉1丁目19番4号","lat":35.63077,"lon":139.5744},{"name":"虹のひかり保育園","province":"東京都","city":"狛江市","address":"狛江市東和泉1-32-18","lat":35.63037,"lon":139.5768},{"name":"ぎんきょう保育園","province":"東京都","city":"狛江市","address":"狛江市東和泉1-34-25","lat":35.62965,"lon":139.57663},{"name":"狛江ちとせ保育園","province":"東京都","city":"狛江市","address":"狛江市東和泉1-35-10","lat":35.6295,"lon":139.57567},{"name":"駒井保育園","province":"東京都","city":"狛江市","address":"狛江市駒井町2-28-6","lat":35.62431,"lon":139.58742},{"name":"駒井町みんなの家","province":"東京都","city":"狛江市","address":"狛江市駒井町3丁目36番1号","lat":35.62307,"lon":139.58911},{"name":"虹のひかり保育園","province":"東京都","city":"狛江市","address":"狛江市東和泉1-32-18","lat":35.63038,"lon":139.5768},{"name":"パイオニアキッズ西野川園","province":"東京都","city":"狛江市","address":"狛江市西野川2-4-15","lat":35.6440155,"lon":139.5749907},{"name":"狛江保育園","province":"東京都","city":"狛江市","address":"狛江市西野川4-12-1","lat":35.64687,"lon":139.57288},{"name":"三島保育園","province":"東京都","city":"狛江市","address":"狛江市東野川1-32-2","lat":35.64243,"lon":139.5831},{"name":"東野川保育園みんなの家","province":"東京都","city":"狛江市","address":"狛江市東野川4丁目9番7号","lat":35.6446,"lon":139.58388},{"name":"狛江子どもの家","province":"東京都","city":"狛江市","address":"狛江市和泉本町1-36-4","lat":35.6362,"lon":139.57793},{"name":"藤塚保育園","province":"東京都","city":"狛江市","address":"狛江市和泉本町4-7-35","lat":35.64428,"lon":139.56754},{"name":"いずみ保育園","province":"東京都","city":"狛江市","address":"狛江市岩戸北1-1-12","lat":35.63538,"lon":139.57996},{"name":"駄倉保育園","province":"東京都","city":"狛江市","address":"狛江市岩戸北3-20-2","lat":35.6328,"lon":139.58191},{"name":"ベネッセ狛江南保育園","province":"東京都","city":"狛江市","address":"狛江市岩戸北3-23-8","lat":35.63226,"lon":139.58269},{"name":"アスク岩戸北保育園","province":"東京都","city":"狛江市","address":"狛江市岩戸北3-3-23","lat":35.63461,"lon":139.58246},{"name":"木下の保育園　岩戸北","province":"東京都","city":"狛江市","address":"狛江市岩戸北3丁目1番19号","lat":35.6347,"lon":139.58116},{"name":"多摩川保育園","province":"東京都","city":"狛江市","address":"狛江市西和泉1-5-1","lat":35.64032,"lon":139.56439},{"name":"めぐみの森保育園","province":"東京都","city":"狛江市","address":"狛江市中和泉3-12-6","lat":35.63688,"lon":139.57047},{"name":"グローバルキッズ狛江園","province":"東京都","city":"狛江市","address":"狛江市中和泉3-19-14","lat":35.63549,"lon":139.5676},{"name":"いずみの森保育園","province":"東京都","city":"狛江市","address":"狛江市元和泉1-10-10","lat":35.63189,"lon":139.57593},{"name":"木下の保育園　元和泉","province":"東京都","city":"狛江市","address":"狛江市元和泉1丁目19番4号","lat":35.63077,"lon":139.5744},{"name":"虹のひかり保育園","province":"東京都","city":"狛江市","address":"狛江市東和泉1-32-18","lat":35.63037,"lon":139.5768},{"name":"ぎんきょう保育園","province":"東京都","city":"狛江市","address":"狛江市東和泉1-34-25","lat":35.62965,"lon":139.57663},{"name":"狛江ちとせ保育園","province":"東京都","city":"狛江市","address":"狛江市東和泉1-35-10","lat":35.6295,"lon":139.57567},{"name":"駒井保育園","province":"東京都","city":"狛江市","address":"狛江市駒井町2-28-6","lat":35.62431,"lon":139.58742},{"name":"駒井町みんなの家","province":"東京都","city":"狛江市","address":"狛江市駒井町3丁目36番1号","lat":35.62307,"lon":139.58911},{"name":"虹のひかり保育園","province":"東京都","city":"狛江市","address":"狛江市東和泉1-32-18","lat":35.63038,"lon":139.5768},{"name":"パイオニアキッズ西野川園","province":"東京都","city":"狛江市","address":"狛江市西野川2-4-15","lat":35.6440155,"lon":139.5749907},{"name":"狛江保育園","province":"東京都","city":"狛江市","address":"狛江市西野川4-12-1","lat":35.64687,"lon":139.57288},{"name":"三島保育園","province":"東京都","city":"狛江市","address":"狛江市東野川1-32-2","lat":35.64243,"lon":139.5831},{"name":"東野川保育園みんなの家","province":"東京都","city":"狛江市","address":"狛江市東野川4丁目9番7号","lat":35.6446,"lon":139.58388},{"name":"狛江子どもの家","province":"東京都","city":"狛江市","address":"狛江市和泉本町1-36-4","lat":35.6362,"lon":139.57793},{"name":"藤塚保育園","province":"東京都","city":"狛江市","address":"狛江市和泉本町4-7-35","lat":35.64428,"lon":139.56754},{"name":"いずみ保育園","province":"東京都","city":"狛江市","address":"狛江市岩戸北1-1-12","lat":35.63538,"lon":139.57996},{"name":"駄倉保育園","province":"東京都","city":"狛江市","address":"狛江市岩戸北3-20-2","lat":35.6328,"lon":139.58191},{"name":"ベネッセ狛江南保育園","province":"東京都","city":"狛江市","address":"狛江市岩戸北3-23-8","lat":35.63226,"lon":139.58269},{"name":"アスク岩戸北保育園","province":"東京都","city":"狛江市","address":"狛江市岩戸北3-3-23","lat":35.63461,"lon":139.58246},{"name":"木下の保育園　岩戸北","province":"東京都","city":"狛江市","address":"狛江市岩戸北3丁目1番19号","lat":35.6347,"lon":139.58116},{"name":"多摩川保育園","province":"東京都","city":"狛江市","address":"狛江市西和泉1-5-1","lat":35.64032,"lon":139.56439},{"name":"めぐみの森保育園","province":"東京都","city":"狛江市","address":"狛江市中和泉3-12-6","lat":35.63688,"lon":139.57047},{"name":"グローバルキッズ狛江園","province":"東京都","city":"狛江市","address":"狛江市中和泉3-19-14","lat":35.63549,"lon":139.5676},{"name":"いずみの森保育園","province":"東京都","city":"狛江市","address":"狛江市元和泉1-10-10","lat":35.63189,"lon":139.57593},{"name":"木下の保育園　元和泉","province":"東京都","city":"狛江市","address":"狛江市元和泉1丁目19番4号","lat":35.63077,"lon":139.5744},{"name":"虹のひかり保育園","province":"東京都","city":"狛江市","address":"狛江市東和泉1-32-18","lat":35.63037,"lon":139.5768},{"name":"ぎんきょう保育園","province":"東京都","city":"狛江市","address":"狛江市東和泉1-34-25","lat":35.62965,"lon":139.57663},{"name":"狛江ちとせ保育園","province":"東京都","city":"狛江市","address":"狛江市東和泉1-35-10","lat":35.6295,"lon":139.57567},{"name":"駒井保育園","province":"東京都","city":"狛江市","address":"狛江市駒井町2-28-6","lat":35.62431,"lon":139.58742},{"name":"駒井町みんなの家","province":"東京都","city":"狛江市","address":"狛江市駒井町3丁目36番1号","lat":35.62307,"lon":139.58911},{"name":"虹のひかり保育園","province":"東京都","city":"狛江市","address":"狛江市東和泉1-32-18","lat":35.63038,"lon":139.5768},{"name":"パイオニアキッズ西野川園","province":"東京都","city":"狛江市","address":"狛江市西野川2-4-15","lat":35.6440155,"lon":139.5749907},{"name":"狛江保育園","province":"東京都","city":"狛江市","address":"狛江市西野川4-12-1","lat":35.64687,"lon":139.57288},{"name":"三島保育園","province":"東京都","city":"狛江市","address":"狛江市東野川1-32-2","lat":35.64243,"lon":139.5831},{"name":"東野川保育園みんなの家","province":"東京都","city":"狛江市","address":"狛江市東野川4丁目9番7号","lat":35.6446,"lon":139.58388},{"name":"狛江子どもの家","province":"東京都","city":"狛江市","address":"狛江市和泉本町1-36-4","lat":35.6362,"lon":139.57793},{"name":"藤塚保育園","province":"東京都","city":"狛江市","address":"狛江市和泉本町4-7-35","lat":35.64428,"lon":139.56754},{"name":"いずみ保育園","province":"東京都","city":"狛江市","address":"狛江市岩戸北1-1-12","lat":35.63538,"lon":139.57996},{"name":"駄倉保育園","province":"東京都","city":"狛江市","address":"狛江市岩戸北3-20-2","lat":35.6328,"lon":139.58191},{"name":"ベネッセ狛江南保育園","province":"東京都","city":"狛江市","address":"狛江市岩戸北3-23-8","lat":35.63226,"lon":139.58269},{"name":"アスク岩戸北保育園","province":"東京都","city":"狛江市","address":"狛江市岩戸北3-3-23","lat":35.63461,"lon":139.58246},{"name":"木下の保育園　岩戸北","province":"東京都","city":"狛江市","address":"狛江市岩戸北3丁目1番19号","lat":35.6347,"lon":139.58116},{"name":"多摩川保育園","province":"東京都","city":"狛江市","address":"狛江市西和泉1-5-1","lat":35.64032,"lon":139.56439},{"name":"めぐみの森保育園","province":"東京都","city":"狛江市","address":"狛江市中和泉3-12-6","lat":35.63688,"lon":139.57047},{"name":"グローバルキッズ狛江園","province":"東京都","city":"狛江市","address":"狛江市中和泉3-19-14","lat":35.63549,"lon":139.5676},{"name":"いずみの森保育園","province":"東京都","city":"狛江市","address":"狛江市元和泉1-10-10","lat":35.63189,"lon":139.57593},{"name":"木下の保育園　元和泉","province":"東京都","city":"狛江市","address":"狛江市元和泉1丁目19番4号","lat":35.63077,"lon":139.5744},{"name":"虹のひかり保育園","province":"東京都","city":"狛江市","address":"狛江市東和泉1-32-18","lat":35.63037,"lon":139.5768},{"name":"ぎんきょう保育園","province":"東京都","city":"狛江市","address":"狛江市東和泉1-34-25","lat":35.62965,"lon":139.57663},{"name":"狛江ちとせ保育園","province":"東京都","city":"狛江市","address":"狛江市東和泉1-35-10","lat":35.6295,"lon":139.57567},{"name":"駒井保育園","province":"東京都","city":"狛江市","address":"狛江市駒井町2-28-6","lat":35.62431,"lon":139.58742},{"name":"駒井町みんなの家","province":"東京都","city":"狛江市","address":"狛江市駒井町3丁目36番1号","lat":35.62307,"lon":139.58911},{"name":"虹のひかり保育園","province":"東京都","city":"狛江市","address":"狛江市東和泉1-32-18","lat":35.63038,"lon":139.5768},{"name":"パイオニアキッズ西野川園","province":"東京都","city":"狛江市","address":"狛江市西野川2-4-15","lat":35.6440155,"lon":139.5749907},{"name":"狛江保育園","province":"東京都","city":"狛江市","address":"狛江市西野川4-12-1","lat":35.64687,"lon":139.57288},{"name":"三島保育園","province":"東京都","city":"狛江市","address":"狛江市東野川1-32-2","lat":35.64243,"lon":139.5831},{"name":"東野川保育園みんなの家","province":"東京都","city":"狛江市","address":"狛江市東野川4丁目9番7号","lat":35.6446,"lon":139.58388},{"name":"狛江子どもの家","province":"東京都","city":"狛江市","address":"狛江市和泉本町1-36-4","lat":35.6362,"lon":139.57793},{"name":"藤塚保育園","province":"東京都","city":"狛江市","address":"狛江市和泉本町4-7-35","lat":35.64428,"lon":139.56754},{"name":"いずみ保育園","province":"東京都","city":"狛江市","address":"狛江市岩戸北1-1-12","lat":35.63538,"lon":139.57996},{"name":"駄倉保育園","province":"東京都","city":"狛江市","address":"狛江市岩戸北3-20-2","lat":35.6328,"lon":139.58191},{"name":"ベネッセ狛江南保育園","province":"東京都","city":"狛江市","address":"狛江市岩戸北3-23-8","lat":35.63226,"lon":139.58269},{"name":"アスク岩戸北保育園","province":"東京都","city":"狛江市","address":"狛江市岩戸北3-3-23","lat":35.63461,"lon":139.58246},{"name":"木下の保育園　岩戸北","province":"東京都","city":"狛江市","address":"狛江市岩戸北3丁目1番19号","lat":35.6347,"lon":139.58116},{"name":"多摩川保育園","province":"東京都","city":"狛江市","address":"狛江市西和泉1-5-1","lat":35.64032,"lon":139.56439},{"name":"めぐみの森保育園","province":"東京都","city":"狛江市","address":"狛江市中和泉3-12-6","lat":35.63688,"lon":139.57047},{"name":"グローバルキッズ狛江園","province":"東京都","city":"狛江市","address":"狛江市中和泉3-19-14","lat":35.63549,"lon":139.5676},{"name":"いずみの森保育園","province":"東京都","city":"狛江市","address":"狛江市元和泉1-10-10","lat":35.63189,"lon":139.57593},{"name":"木下の保育園　元和泉","province":"東京都","city":"狛江市","address":"狛江市元和泉1丁目19番4号","lat":35.63077,"lon":139.5744},{"name":"虹のひかり保育園","province":"東京都","city":"狛江市","address":"狛江市東和泉1-32-18","lat":35.63037,"lon":139.5768},{"name":"ぎんきょう保育園","province":"東京都","city":"狛江市","address":"狛江市東和泉1-34-25","lat":35.62965,"lon":139.57663},{"name":"狛江ちとせ保育園","province":"東京都","city":"狛江市","address":"狛江市東和泉1-35-10","lat":35.6295,"lon":139.57567},{"name":"駒井保育園","province":"東京都","city":"狛江市","address":"狛江市駒井町2-28-6","lat":35.62431,"lon":139.58742},{"name":"駒井町みんなの家","province":"東京都","city":"狛江市","address":"狛江市駒井町3丁目36番1号","lat":35.62307,"lon":139.58911},{"name":"虹のひかり保育園","province":"東京都","city":"狛江市","address":"狛江市東和泉1-32-18","lat":35.63038,"lon":139.5768},{"name":"パイオニアキッズ西野川園","province":"東京都","city":"狛江市","address":"狛江市西野川2-4-15","lat":35.6440155,"lon":139.5749907},{"name":"狛江保育園","province":"東京都","city":"狛江市","address":"狛江市西野川4-12-1","lat":35.64687,"lon":139.57288},{"name":"三島保育園","province":"東京都","city":"狛江市","address":"狛江市東野川1-32-2","lat":35.64243,"lon":139.5831},{"name":"東野川保育園みんなの家","province":"東京都","city":"狛江市","address":"狛江市東野川4丁目9番7号","lat":35.6446,"lon":139.58388},{"name":"狛江子どもの家","province":"東京都","city":"狛江市","address":"狛江市和泉本町1-36-4","lat":35.6362,"lon":139.57793},{"name":"藤塚保育園","province":"東京都","city":"狛江市","address":"狛江市和泉本町4-7-35","lat":35.64428,"lon":139.56754},{"name":"いずみ保育園","province":"東京都","city":"狛江市","address":"狛江市岩戸北1-1-12","lat":35.63538,"lon":139.57996},{"name":"駄倉保育園","province":"東京都","city":"狛江市","address":"狛江市岩戸北3-20-2","lat":35.6328,"lon":139.58191},{"name":"ベネッセ狛江南保育園","province":"東京都","city":"狛江市","address":"狛江市岩戸北3-23-8","lat":35.63226,"lon":139.58269},{"name":"アスク岩戸北保育園","province":"東京都","city":"狛江市","address":"狛江市岩戸北3-3-23","lat":35.63461,"lon":139.58246},{"name":"木下の保育園　岩戸北","province":"東京都","city":"狛江市","address":"狛江市岩戸北3丁目1番19号","lat":35.6347,"lon":139.58116},{"name":"多摩川保育園","province":"東京都","city":"狛江市","address":"狛江市西和泉1-5-1","lat":35.64032,"lon":139.56439},{"name":"めぐみの森保育園","province":"東京都","city":"狛江市","address":"狛江市中和泉3-12-6","lat":35.63688,"lon":139.57047},{"name":"グローバルキッズ狛江園","province":"東京都","city":"狛江市","address":"狛江市中和泉3-19-14","lat":35.63549,"lon":139.5676},{"name":"いずみの森保育園","province":"東京都","city":"狛江市","address":"狛江市元和泉1-10-10","lat":35.63189,"lon":139.57593},{"name":"木下の保育園　元和泉","province":"東京都","city":"狛江市","address":"狛江市元和泉1丁目19番4号","lat":35.63077,"lon":139.5744},{"name":"虹のひかり保育園","province":"東京都","city":"狛江市","address":"狛江市東和泉1-32-18","lat":35.63037,"lon":139.5768},{"name":"ぎんきょう保育園","province":"東京都","city":"狛江市","address":"狛江市東和泉1-34-25","lat":35.62965,"lon":139.57663},{"name":"狛江ちとせ保育園","province":"東京都","city":"狛江市","address":"狛江市東和泉1-35-10","lat":35.6295,"lon":139.57567},{"name":"駒井保育園","province":"東京都","city":"狛江市","address":"狛江市駒井町2-28-6","lat":35.62431,"lon":139.58742},{"name":"駒井町みんなの家","province":"東京都","city":"狛江市","address":"狛江市駒井町3丁目36番1号","lat":35.62307,"lon":139.58911},{"name":"虹のひかり保育園","province":"東京都","city":"狛江市","address":"狛江市東和泉1-32-18","lat":35.63038,"lon":139.5768},{"name":"パイオニアキッズ西野川園","province":"東京都","city":"狛江市","address":"狛江市西野川2-4-15","lat":35.6440155,"lon":139.5749907},{"name":"狛江保育園","province":"東京都","city":"狛江市","address":"狛江市西野川4-12-1","lat":35.64687,"lon":139.57288},{"name":"三島保育園","province":"東京都","city":"狛江市","address":"狛江市東野川1-32-2","lat":35.64243,"lon":139.5831},{"name":"東野川保育園みんなの家","province":"東京都","city":"狛江市","address":"狛江市東野川4丁目9番7号","lat":35.6446,"lon":139.58388},{"name":"狛江子どもの家","province":"東京都","city":"狛江市","address":"狛江市和泉本町1-36-4","lat":35.6362,"lon":139.57793},{"name":"藤塚保育園","province":"東京都","city":"狛江市","address":"狛江市和泉本町4-7-35","lat":35.64428,"lon":139.56754},{"name":"いずみ保育園","province":"東京都","city":"狛江市","address":"狛江市岩戸北1-1-12","lat":35.63538,"lon":139.57996},{"name":"駄倉保育園","province":"東京都","city":"狛江市","address":"狛江市岩戸北3-20-2","lat":35.6328,"lon":139.58191},{"name":"ベネッセ狛江南保育園","province":"東京都","city":"狛江市","address":"狛江市岩戸北3-23-8","lat":35.63226,"lon":139.58269},{"name":"アスク岩戸北保育園","province":"東京都","city":"狛江市","address":"狛江市岩戸北3-3-23","lat":35.63461,"lon":139.58246},{"name":"木下の保育園　岩戸北","province":"東京都","city":"狛江市","address":"狛江市岩戸北3丁目1番19号","lat":35.6347,"lon":139.58116},{"name":"多摩川保育園","province":"東京都","city":"狛江市","address":"狛江市西和泉1-5-1","lat":35.64032,"lon":139.56439},{"name":"めぐみの森保育園","province":"東京都","city":"狛江市","address":"狛江市中和泉3-12-6","lat":35.63688,"lon":139.57047},{"name":"グローバルキッズ狛江園","province":"東京都","city":"狛江市","address":"狛江市中和泉3-19-14","lat":35.63549,"lon":139.5676},{"name":"いずみの森保育園","province":"東京都","city":"狛江市","address":"狛江市元和泉1-10-10","lat":35.63189,"lon":139.57593},{"name":"木下の保育園　元和泉","province":"東京都","city":"狛江市","address":"狛江市元和泉1丁目19番4号","lat":35.63077,"lon":139.5744},{"name":"虹のひかり保育園","province":"東京都","city":"狛江市","address":"狛江市東和泉1-32-18","lat":35.63037,"lon":139.5768},{"name":"ぎんきょう保育園","province":"東京都","city":"狛江市","address":"狛江市東和泉1-34-25","lat":35.62965,"lon":139.57663},{"name":"狛江ちとせ保育園","province":"東京都","city":"狛江市","address":"狛江市東和泉1-35-10","lat":35.6295,"lon":139.57567},{"name":"駒井保育園","province":"東京都","city":"狛江市","address":"狛江市駒井町2-28-6","lat":35.62431,"lon":139.58742},{"name":"駒井町みんなの家","province":"東京都","city":"狛江市","address":"狛江市駒井町3丁目36番1号","lat":35.62307,"lon":139.58911},{"name":"虹のひかり保育園","province":"東京都","city":"狛江市","address":"狛江市東和泉1-32-18","lat":35.63038,"lon":139.5768},{"name":"パイオニアキッズ西野川園","province":"東京都","city":"狛江市","address":"狛江市西野川2-4-15","lat":35.6440155,"lon":139.5749907},{"name":"狛江保育園","province":"東京都","city":"狛江市","address":"狛江市西野川4-12-1","lat":35.64687,"lon":139.57288},{"name":"三島保育園","province":"東京都","city":"狛江市","address":"狛江市東野川1-32-2","lat":35.64243,"lon":139.5831},{"name":"東野川保育園みんなの家","province":"東京都","city":"狛江市","address":"狛江市東野川4丁目9番7号","lat":35.6446,"lon":139.58388},{"name":"狛江子どもの家","province":"東京都","city":"狛江市","address":"狛江市和泉本町1-36-4","lat":35.6362,"lon":139.57793},{"name":"藤塚保育園","province":"東京都","city":"狛江市","address":"狛江市和泉本町4-7-35","lat":35.64428,"lon":139.56754},{"name":"いずみ保育園","province":"東京都","city":"狛江市","address":"狛江市岩戸北1-1-12","lat":35.63538,"lon":139.57996},{"name":"駄倉保育園","province":"東京都","city":"狛江市","address":"狛江市岩戸北3-20-2","lat":35.6328,"lon":139.58191},{"name":"ベネッセ狛江南保育園","province":"東京都","city":"狛江市","address":"狛江市岩戸北3-23-8","lat":35.63226,"lon":139.58269},{"name":"アスク岩戸北保育園","province":"東京都","city":"狛江市","address":"狛江市岩戸北3-3-23","lat":35.63461,"lon":139.58246},{"name":"木下の保育園　岩戸北","province":"東京都","city":"狛江市","address":"狛江市岩戸北3丁目1番19号","lat":35.6347,"lon":139.58116},{"name":"多摩川保育園","province":"東京都","city":"狛江市","address":"狛江市西和泉1-5-1","lat":35.64032,"lon":139.56439},{"name":"めぐみの森保育園","province":"東京都","city":"狛江市","address":"狛江市中和泉3-12-6","lat":35.63688,"lon":139.57047},{"name":"グローバルキッズ狛江園","province":"東京都","city":"狛江市","address":"狛江市中和泉3-19-14","lat":35.63549,"lon":139.5676},{"name":"いずみの森保育園","province":"東京都","city":"狛江市","address":"狛江市元和泉1-10-10","lat":35.63189,"lon":139.57593},{"name":"木下の保育園　元和泉","province":"東京都","city":"狛江市","address":"狛江市元和泉1丁目19番4号","lat":35.63077,"lon":139.5744},{"name":"虹のひかり保育園","province":"東京都","city":"狛江市","address":"狛江市東和泉1-32-18","lat":35.63037,"lon":139.5768},{"name":"ぎんきょう保育園","province":"東京都","city":"狛江市","address":"狛江市東和泉1-34-25","lat":35.62965,"lon":139.57663},{"name":"狛江ちとせ保育園","province":"東京都","city":"狛江市","address":"狛江市東和泉1-35-10","lat":35.6295,"lon":139.57567},{"name":"駒井保育園","province":"東京都","city":"狛江市","address":"狛江市駒井町2-28-6","lat":35.62431,"lon":139.58742},{"name":"駒井町みんなの家","province":"東京都","city":"狛江市","address":"狛江市駒井町3丁目36番1号","lat":35.62307,"lon":139.58911},{"name":"虹のひかり保育園","province":"東京都","city":"狛江市","address":"狛江市東和泉1-32-18","lat":35.63038,"lon":139.5768},{"name":"パイオニアキッズ西野川園","province":"東京都","city":"狛江市","address":"狛江市西野川2-4-15","lat":35.6440155,"lon":139.5749907},{"name":"狛江保育園","province":"東京都","city":"狛江市","address":"狛江市西野川4-12-1","lat":35.64687,"lon":139.57288},{"name":"三島保育園","province":"東京都","city":"狛江市","address":"狛江市東野川1-32-2","lat":35.64243,"lon":139.5831},{"name":"東野川保育園みんなの家","province":"東京都","city":"狛江市","address":"狛江市東野川4丁目9番7号","lat":35.6446,"lon":139.58388},{"name":"狛江子どもの家","province":"東京都","city":"狛江市","address":"狛江市和泉本町1-36-4","lat":35.6362,"lon":139.57793},{"name":"藤塚保育園","province":"東京都","city":"狛江市","address":"狛江市和泉本町4-7-35","lat":35.64428,"lon":139.56754},{"name":"いずみ保育園","province":"東京都","city":"狛江市","address":"狛江市岩戸北1-1-12","lat":35.63538,"lon":139.57996},{"name":"駄倉保育園","province":"東京都","city":"狛江市","address":"狛江市岩戸北3-20-2","lat":35.6328,"lon":139.58191},{"name":"ベネッセ狛江南保育園","province":"東京都","city":"狛江市","address":"狛江市岩戸北3-23-8","lat":35.63226,"lon":139.58269},{"name":"アスク岩戸北保育園","province":"東京都","city":"狛江市","address":"狛江市岩戸北3-3-23","lat":35.63461,"lon":139.58246},{"name":"木下の保育園　岩戸北","province":"東京都","city":"狛江市","address":"狛江市岩戸北3丁目1番19号","lat":35.6347,"lon":139.58116},{"name":"多摩川保育園","province":"東京都","city":"狛江市","address":"狛江市西和泉1-5-1","lat":35.64032,"lon":139.56439},{"name":"めぐみの森保育園","province":"東京都","city":"狛江市","address":"狛江市中和泉3-12-6","lat":35.63688,"lon":139.57047},{"name":"グローバルキッズ狛江園","province":"東京都","city":"狛江市","address":"狛江市中和泉3-19-14","lat":35.63549,"lon":139.5676},{"name":"いずみの森保育園","province":"東京都","city":"狛江市","address":"狛江市元和泉1-10-10","lat":35.63189,"lon":139.57593},{"name":"木下の保育園　元和泉","province":"東京都","city":"狛江市","address":"狛江市元和泉1丁目19番4号","lat":35.63077,"lon":139.5744},{"name":"虹のひかり保育園","province":"東京都","city":"狛江市","address":"狛江市東和泉1-32-18","lat":35.63037,"lon":139.5768},{"name":"ぎんきょう保育園","province":"東京都","city":"狛江市","address":"狛江市東和泉1-34-25","lat":35.62965,"lon":139.57663},{"name":"狛江ちとせ保育園","province":"東京都","city":"狛江市","address":"狛江市東和泉1-35-10","lat":35.6295,"lon":139.57567},{"name":"駒井保育園","province":"東京都","city":"狛江市","address":"狛江市駒井町2-28-6","lat":35.62431,"lon":139.58742},{"name":"駒井町みんなの家","province":"東京都","city":"狛江市","address":"狛江市駒井町3丁目36番1号","lat":35.62307,"lon":139.58911},{"name":"虹のひかり保育園","province":"東京都","city":"狛江市","address":"狛江市東和泉1-32-18","lat":35.63038,"lon":139.5768},{"name":"パイオニアキッズ西野川園","province":"東京都","city":"狛江市","address":"狛江市西野川2-4-15","lat":35.6440155,"lon":139.5749907},{"name":"狛江保育園","province":"東京都","city":"狛江市","address":"狛江市西野川4-12-1","lat":35.64687,"lon":139.57288},{"name":"三島保育園","province":"東京都","city":"狛江市","address":"狛江市東野川1-32-2","lat":35.64243,"lon":139.5831},{"name":"東野川保育園みんなの家","province":"東京都","city":"狛江市","address":"狛江市東野川4丁目9番7号","lat":35.6446,"lon":139.58388},{"name":"狛江子どもの家","province":"東京都","city":"狛江市","address":"狛江市和泉本町1-36-4","lat":35.6362,"lon":139.57793},{"name":"藤塚保育園","province":"東京都","city":"狛江市","address":"狛江市和泉本町4-7-35","lat":35.64428,"lon":139.56754},{"name":"いずみ保育園","province":"東京都","city":"狛江市","address":"狛江市岩戸北1-1-12","lat":35.63538,"lon":139.57996},{"name":"駄倉保育園","province":"東京都","city":"狛江市","address":"狛江市岩戸北3-20-2","lat":35.6328,"lon":139.58191},{"name":"ベネッセ狛江南保育園","province":"東京都","city":"狛江市","address":"狛江市岩戸北3-23-8","lat":35.63226,"lon":139.58269},{"name":"アスク岩戸北保育園","province":"東京都","city":"狛江市","address":"狛江市岩戸北3-3-23","lat":35.63461,"lon":139.58246},{"name":"木下の保育園　岩戸北","province":"東京都","city":"狛江市","address":"狛江市岩戸北3丁目1番19号","lat":35.6347,"lon":139.58116},{"name":"多摩川保育園","province":"東京都","city":"狛江市","address":"狛江市西和泉1-5-1","lat":35.64032,"lon":139.56439},{"name":"めぐみの森保育園","province":"東京都","city":"狛江市","address":"狛江市中和泉3-12-6","lat":35.63688,"lon":139.57047},{"name":"グローバルキッズ狛江園","province":"東京都","city":"狛江市","address":"狛江市中和泉3-19-14","lat":35.63549,"lon":139.5676},{"name":"いずみの森保育園","province":"東京都","city":"狛江市","address":"狛江市元和泉1-10-10","lat":35.63189,"lon":139.57593},{"name":"木下の保育園　元和泉","province":"東京都","city":"狛江市","address":"狛江市元和泉1丁目19番4号","lat":35.63077,"lon":139.5744},{"name":"虹のひかり保育園","province":"東京都","city":"狛江市","address":"狛江市東和泉1-32-18","lat":35.63037,"lon":139.5768},{"name":"ぎんきょう保育園","province":"東京都","city":"狛江市","address":"狛江市東和泉1-34-25","lat":35.62965,"lon":139.57663},{"name":"狛江ちとせ保育園","province":"東京都","city":"狛江市","address":"狛江市東和泉1-35-10","lat":35.6295,"lon":139.57567},{"name":"駒井保育園","province":"東京都","city":"狛江市","address":"狛江市駒井町2-28-6","lat":35.62431,"lon":139.58742},{"name":"駒井町みんなの家","province":"東京都","city":"狛江市","address":"狛江市駒井町3丁目36番1号","lat":35.62307,"lon":139.58911},{"name":"虹のひかり保育園","province":"東京都","city":"狛江市","address":"狛江市東和泉1-32-18","lat":35.63038,"lon":139.5768},{"name":"パイオニアキッズ西野川園","province":"東京都","city":"狛江市","address":"狛江市西野川2-4-15","lat":35.6440155,"lon":139.5749907},{"name":"狛江保育園","province":"東京都","city":"狛江市","address":"狛江市西野川4-12-1","lat":35.64687,"lon":139.57288},{"name":"三島保育園","province":"東京都","city":"狛江市","address":"狛江市東野川1-32-2","lat":35.64243,"lon":139.5831},{"name":"東野川保育園みんなの家","province":"東京都","city":"狛江市","address":"狛江市東野川4丁目9番7号","lat":35.6446,"lon":139.58388},{"name":"狛江子どもの家","province":"東京都","city":"狛江市","address":"狛江市和泉本町1-36-4","lat":35.6362,"lon":139.57793},{"name":"藤塚保育園","province":"東京都","city":"狛江市","address":"狛江市和泉本町4-7-35","lat":35.64428,"lon":139.56754},{"name":"いずみ保育園","province":"東京都","city":"狛江市","address":"狛江市岩戸北1-1-12","lat":35.63538,"lon":139.57996},{"name":"駄倉保育園","province":"東京都","city":"狛江市","address":"狛江市岩戸北3-20-2","lat":35.6328,"lon":139.58191},{"name":"ベネッセ狛江南保育園","province":"東京都","city":"狛江市","address":"狛江市岩戸北3-23-8","lat":35.63226,"lon":139.58269},{"name":"アスク岩戸北保育園","province":"東京都","city":"狛江市","address":"狛江市岩戸北3-3-23","lat":35.63461,"lon":139.58246},{"name":"木下の保育園　岩戸北","province":"東京都","city":"狛江市","address":"狛江市岩戸北3丁目1番19号","lat":35.6347,"lon":139.58116},{"name":"多摩川保育園","province":"東京都","city":"狛江市","address":"狛江市西和泉1-5-1","lat":35.64032,"lon":139.56439},{"name":"めぐみの森保育園","province":"東京都","city":"狛江市","address":"狛江市中和泉3-12-6","lat":35.63688,"lon":139.57047},{"name":"グローバルキッズ狛江園","province":"東京都","city":"狛江市","address":"狛江市中和泉3-19-14","lat":35.63549,"lon":139.5676},{"name":"いずみの森保育園","province":"東京都","city":"狛江市","address":"狛江市元和泉1-10-10","lat":35.63189,"lon":139.57593},{"name":"木下の保育園　元和泉","province":"東京都","city":"狛江市","address":"狛江市元和泉1丁目19番4号","lat":35.63077,"lon":139.5744},{"name":"虹のひかり保育園","province":"東京都","city":"狛江市","address":"狛江市東和泉1-32-18","lat":35.63037,"lon":139.5768},{"name":"ぎんきょう保育園","province":"東京都","city":"狛江市","address":"狛江市東和泉1-34-25","lat":35.62965,"lon":139.57663},{"name":"狛江ちとせ保育園","province":"東京都","city":"狛江市","address":"狛江市東和泉1-35-10","lat":35.6295,"lon":139.57567},{"name":"駒井保育園","province":"東京都","city":"狛江市","address":"狛江市駒井町2-28-6","lat":35.62431,"lon":139.58742},{"name":"駒井町みんなの家","province":"東京都","city":"狛江市","address":"狛江市駒井町3丁目36番1号","lat":35.62307,"lon":139.58911},{"name":"虹のひかり保育園","province":"東京都","city":"狛江市","address":"狛江市東和泉1-32-18","lat":35.63038,"lon":139.5768},{"name":"パイオニアキッズ西野川園","province":"東京都","city":"狛江市","address":"狛江市西野川2-4-15","lat":35.6440155,"lon":139.5749907},{"name":"狛江保育園","province":"東京都","city":"狛江市","address":"狛江市西野川4-12-1","lat":35.64687,"lon":139.57288},{"name":"三島保育園","province":"東京都","city":"狛江市","address":"狛江市東野川1-32-2","lat":35.64243,"lon":139.5831},{"name":"東野川保育園みんなの家","province":"東京都","city":"狛江市","address":"狛江市東野川4丁目9番7号","lat":35.6446,"lon":139.58388},{"name":"狛江子どもの家","province":"東京都","city":"狛江市","address":"狛江市和泉本町1-36-4","lat":35.6362,"lon":139.57793},{"name":"藤塚保育園","province":"東京都","city":"狛江市","address":"狛江市和泉本町4-7-35","lat":35.64428,"lon":139.56754},{"name":"いずみ保育園","province":"東京都","city":"狛江市","address":"狛江市岩戸北1-1-12","lat":35.63538,"lon":139.57996},{"name":"駄倉保育園","province":"東京都","city":"狛江市","address":"狛江市岩戸北3-20-2","lat":35.6328,"lon":139.58191},{"name":"ベネッセ狛江南保育園","province":"東京都","city":"狛江市","address":"狛江市岩戸北3-23-8","lat":35.63226,"lon":139.58269},{"name":"アスク岩戸北保育園","province":"東京都","city":"狛江市","address":"狛江市岩戸北3-3-23","lat":35.63461,"lon":139.58246},{"name":"木下の保育園　岩戸北","province":"東京都","city":"狛江市","address":"狛江市岩戸北3丁目1番19号","lat":35.6347,"lon":139.58116},{"name":"多摩川保育園","province":"東京都","city":"狛江市","address":"狛江市西和泉1-5-1","lat":35.64032,"lon":139.56439},{"name":"めぐみの森保育園","province":"東京都","city":"狛江市","address":"狛江市中和泉3-12-6","lat":35.63688,"lon":139.57047},{"name":"グローバルキッズ狛江園","province":"東京都","city":"狛江市","address":"狛江市中和泉3-19-14","lat":35.63549,"lon":139.5676},{"name":"いずみの森保育園","province":"東京都","city":"狛江市","address":"狛江市元和泉1-10-10","lat":35.63189,"lon":139.57593},{"name":"木下の保育園　元和泉","province":"東京都","city":"狛江市","address":"狛江市元和泉1丁目19番4号","lat":35.63077,"lon":139.5744},{"name":"虹のひかり保育園","province":"東京都","city":"狛江市","address":"狛江市東和泉1-32-18","lat":35.63037,"lon":139.5768},{"name":"ぎんきょう保育園","province":"東京都","city":"狛江市","address":"狛江市東和泉1-34-25","lat":35.62965,"lon":139.57663},{"name":"狛江ちとせ保育園","province":"東京都","city":"狛江市","address":"狛江市東和泉1-35-10","lat":35.6295,"lon":139.57567},{"name":"駒井保育園","province":"東京都","city":"狛江市","address":"狛江市駒井町2-28-6","lat":35.62431,"lon":139.58742},{"name":"駒井町みんなの家","province":"東京都","city":"狛江市","address":"狛江市駒井町3丁目36番1号","lat":35.62307,"lon":139.58911},{"name":"虹のひかり保育園","province":"東京都","city":"狛江市","address":"狛江市東和泉1-32-18","lat":35.63038,"lon":139.5768},{"name":"パイオニアキッズ西野川園","province":"東京都","city":"狛江市","address":"狛江市西野川2-4-15","lat":35.6440155,"lon":139.5749907},{"name":"狛江保育園","province":"東京都","city":"狛江市","address":"狛江市西野川4-12-1","lat":35.64687,"lon":139.57288},{"name":"三島保育園","province":"東京都","city":"狛江市","address":"狛江市東野川1-32-2","lat":35.64243,"lon":139.5831},{"name":"東野川保育園みんなの家","province":"東京都","city":"狛江市","address":"狛江市東野川4丁目9番7号","lat":35.6446,"lon":139.58388},{"name":"狛江子どもの家","province":"東京都","city":"狛江市","address":"狛江市和泉本町1-36-4","lat":35.6362,"lon":139.57793},{"name":"藤塚保育園","province":"東京都","city":"狛江市","address":"狛江市和泉本町4-7-35","lat":35.64428,"lon":139.56754},{"name":"いずみ保育園","province":"東京都","city":"狛江市","address":"狛江市岩戸北1-1-12","lat":35.63538,"lon":139.57996},{"name":"駄倉保育園","province":"東京都","city":"狛江市","address":"狛江市岩戸北3-20-2","lat":35.6328,"lon":139.58191},{"name":"ベネッセ狛江南保育園","province":"東京都","city":"狛江市","address":"狛江市岩戸北3-23-8","lat":35.63226,"lon":139.58269},{"name":"アスク岩戸北保育園","province":"東京都","city":"狛江市","address":"狛江市岩戸北3-3-23","lat":35.63461,"lon":139.58246},{"name":"木下の保育園　岩戸北","province":"東京都","city":"狛江市","address":"狛江市岩戸北3丁目1番19号","lat":35.6347,"lon":139.58116},{"name":"多摩川保育園","province":"東京都","city":"狛江市","address":"狛江市西和泉1-5-1","lat":35.64032,"lon":139.56439},{"name":"めぐみの森保育園","province":"東京都","city":"狛江市","address":"狛江市中和泉3-12-6","lat":35.63688,"lon":139.57047},{"name":"グローバルキッズ狛江園","province":"東京都","city":"狛江市","address":"狛江市中和泉3-19-14","lat":35.63549,"lon":139.5676},{"name":"いずみの森保育園","province":"東京都","city":"狛江市","address":"狛江市元和泉1-10-10","lat":35.63189,"lon":139.57593},{"name":"木下の保育園　元和泉","province":"東京都","city":"狛江市","address":"狛江市元和泉1丁目19番4号","lat":35.63077,"lon":139.5744},{"name":"虹のひかり保育園","province":"東京都","city":"狛江市","address":"狛江市東和泉1-32-18","lat":35.63037,"lon":139.5768},{"name":"ぎんきょう保育園","province":"東京都","city":"狛江市","address":"狛江市東和泉1-34-25","lat":35.62965,"lon":139.57663},{"name":"狛江ちとせ保育園","province":"東京都","city":"狛江市","address":"狛江市東和泉1-35-10","lat":35.6295,"lon":139.57567},{"name":"駒井保育園","province":"東京都","city":"狛江市","address":"狛江市駒井町2-28-6","lat":35.62431,"lon":139.58742},{"name":"駒井町みんなの家","province":"東京都","city":"狛江市","address":"狛江市駒井町3丁目36番1号","lat":35.62307,"lon":139.58911},{"name":"虹のひかり保育園","province":"東京都","city":"狛江市","address":"狛江市東和泉1-32-18","lat":35.63038,"lon":139.5768},{"name":"パイオニアキッズ西野川園","province":"東京都","city":"狛江市","address":"狛江市西野川2-4-15","lat":35.6440155,"lon":139.5749907},{"name":"狛江保育園","province":"東京都","city":"狛江市","address":"狛江市西野川4-12-1","lat":35.64687,"lon":139.57288},{"name":"三島保育園","province":"東京都","city":"狛江市","address":"狛江市東野川1-32-2","lat":35.64243,"lon":139.5831},{"name":"東野川保育園みんなの家","province":"東京都","city":"狛江市","address":"狛江市東野川4丁目9番7号","lat":35.6446,"lon":139.58388},{"name":"狛江子どもの家","province":"東京都","city":"狛江市","address":"狛江市和泉本町1-36-4","lat":35.6362,"lon":139.57793},{"name":"藤塚保育園","province":"東京都","city":"狛江市","address":"狛江市和泉本町4-7-35","lat":35.64428,"lon":139.56754},{"name":"いずみ保育園","province":"東京都","city":"狛江市","address":"狛江市岩戸北1-1-12","lat":35.63538,"lon":139.57996},{"name":"駄倉保育園","province":"東京都","city":"狛江市","address":"狛江市岩戸北3-20-2","lat":35.6328,"lon":139.58191},{"name":"ベネッセ狛江南保育園","province":"東京都","city":"狛江市","address":"狛江市岩戸北3-23-8","lat":35.63226,"lon":139.58269},{"name":"アスク岩戸北保育園","province":"東京都","city":"狛江市","address":"狛江市岩戸北3-3-23","lat":35.63461,"lon":139.58246},{"name":"木下の保育園　岩戸北","province":"東京都","city":"狛江市","address":"狛江市岩戸北3丁目1番19号","lat":35.6347,"lon":139.58116},{"name":"多摩川保育園","province":"東京都","city":"狛江市","address":"狛江市西和泉1-5-1","lat":35.64032,"lon":139.56439},{"name":"めぐみの森保育園","province":"東京都","city":"狛江市","address":"狛江市中和泉3-12-6","lat":35.63688,"lon":139.57047},{"name":"グローバルキッズ狛江園","province":"東京都","city":"狛江市","address":"狛江市中和泉3-19-14","lat":35.63549,"lon":139.5676},{"name":"いずみの森保育園","province":"東京都","city":"狛江市","address":"狛江市元和泉1-10-10","lat":35.63189,"lon":139.57593},{"name":"木下の保育園　元和泉","province":"東京都","city":"狛江市","address":"狛江市元和泉1丁目19番4号","lat":35.63077,"lon":139.5744},{"name":"虹のひかり保育園","province":"東京都","city":"狛江市","address":"狛江市東和泉1-32-18","lat":35.63037,"lon":139.5768},{"name":"ぎんきょう保育園","province":"東京都","city":"狛江市","address":"狛江市東和泉1-34-25","lat":35.62965,"lon":139.57663},{"name":"狛江ちとせ保育園","province":"東京都","city":"狛江市","address":"狛江市東和泉1-35-10","lat":35.6295,"lon":139.57567},{"name":"駒井保育園","province":"東京都","city":"狛江市","address":"狛江市駒井町2-28-6","lat":35.62431,"lon":139.58742},{"name":"駒井町みんなの家","province":"東京都","city":"狛江市","address":"狛江市駒井町3丁目36番1号","lat":35.62307,"lon":139.58911},{"name":"虹のひかり保育園","province":"東京都","city":"狛江市","address":"狛江市東和泉1-32-18","lat":35.63038,"lon":139.5768},{"name":"パイオニアキッズ西野川園","province":"東京都","city":"狛江市","address":"狛江市西野川2-4-15","lat":35.6440155,"lon":139.5749907},{"name":"狛江保育園","province":"東京都","city":"狛江市","address":"狛江市西野川4-12-1","lat":35.64687,"lon":139.57288},{"name":"三島保育園","province":"東京都","city":"狛江市","address":"狛江市東野川1-32-2","lat":35.64243,"lon":139.5831},{"name":"東野川保育園みんなの家","province":"東京都","city":"狛江市","address":"狛江市東野川4丁目9番7号","lat":35.6446,"lon":139.58388},{"name":"狛江子どもの家","province":"東京都","city":"狛江市","address":"狛江市和泉本町1-36-4","lat":35.6362,"lon":139.57793},{"name":"藤塚保育園","province":"東京都","city":"狛江市","address":"狛江市和泉本町4-7-35","lat":35.64428,"lon":139.56754},{"name":"いずみ保育園","province":"東京都","city":"狛江市","address":"狛江市岩戸北1-1-12","lat":35.63538,"lon":139.57996},{"name":"駄倉保育園","province":"東京都","city":"狛江市","address":"狛江市岩戸北3-20-2","lat":35.6328,"lon":139.58191},{"name":"ベネッセ狛江南保育園","province":"東京都","city":"狛江市","address":"狛江市岩戸北3-23-8","lat":35.63226,"lon":139.58269},{"name":"アスク岩戸北保育園","province":"東京都","city":"狛江市","address":"狛江市岩戸北3-3-23","lat":35.63461,"lon":139.58246},{"name":"木下の保育園　岩戸北","province":"東京都","city":"狛江市","address":"狛江市岩戸北3丁目1番19号","lat":35.6347,"lon":139.58116},{"name":"多摩川保育園","province":"東京都","city":"狛江市","address":"狛江市西和泉1-5-1","lat":35.64032,"lon":139.56439},{"name":"めぐみの森保育園","province":"東京都","city":"狛江市","address":"狛江市中和泉3-12-6","lat":35.63688,"lon":139.57047},{"name":"グローバルキッズ狛江園","province":"東京都","city":"狛江市","address":"狛江市中和泉3-19-14","lat":35.63549,"lon":139.5676},{"name":"いずみの森保育園","province":"東京都","city":"狛江市","address":"狛江市元和泉1-10-10","lat":35.63189,"lon":139.57593},{"name":"木下の保育園　元和泉","province":"東京都","city":"狛江市","address":"狛江市元和泉1丁目19番4号","lat":35.63077,"lon":139.5744},{"name":"虹のひかり保育園","province":"東京都","city":"狛江市","address":"狛江市東和泉1-32-18","lat":35.63037,"lon":139.5768},{"name":"ぎんきょう保育園","province":"東京都","city":"狛江市","address":"狛江市東和泉1-34-25","lat":35.62965,"lon":139.57663},{"name":"狛江ちとせ保育園","province":"東京都","city":"狛江市","address":"狛江市東和泉1-35-10","lat":35.6295,"lon":139.57567},{"name":"駒井保育園","province":"東京都","city":"狛江市","address":"狛江市駒井町2-28-6","lat":35.62431,"lon":139.58742},{"name":"駒井町みんなの家","province":"東京都","city":"狛江市","address":"狛江市駒井町3丁目36番1号","lat":35.62307,"lon":139.58911},{"name":"虹のひかり保育園","province":"東京都","city":"狛江市","address":"狛江市東和泉1-32-18","lat":35.63038,"lon":139.5768},{"name":"パイオニアキッズ西野川園","province":"東京都","city":"狛江市","address":"狛江市西野川2-4-15","lat":35.6440155,"lon":139.5749907},{"name":"狛江保育園","province":"東京都","city":"狛江市","address":"狛江市西野川4-12-1","lat":35.64687,"lon":139.57288},{"name":"三島保育園","province":"東京都","city":"狛江市","address":"狛江市東野川1-32-2","lat":35.64243,"lon":139.5831},{"name":"東野川保育園みんなの家","province":"東京都","city":"狛江市","address":"狛江市東野川4丁目9番7号","lat":35.6446,"lon":139.58388},{"name":"狛江子どもの家","province":"東京都","city":"狛江市","address":"狛江市和泉本町1-36-4","lat":35.6362,"lon":139.57793},{"name":"藤塚保育園","province":"東京都","city":"狛江市","address":"狛江市和泉本町4-7-35","lat":35.64428,"lon":139.56754},{"name":"いずみ保育園","province":"東京都","city":"狛江市","address":"狛江市岩戸北1-1-12","lat":35.63538,"lon":139.57996},{"name":"駄倉保育園","province":"東京都","city":"狛江市","address":"狛江市岩戸北3-20-2","lat":35.6328,"lon":139.58191},{"name":"ベネッセ狛江南保育園","province":"東京都","city":"狛江市","address":"狛江市岩戸北3-23-8","lat":35.63226,"lon":139.58269},{"name":"アスク岩戸北保育園","province":"東京都","city":"狛江市","address":"狛江市岩戸北3-3-23","lat":35.63461,"lon":139.58246},{"name":"木下の保育園　岩戸北","province":"東京都","city":"狛江市","address":"狛江市岩戸北3丁目1番19号","lat":35.6347,"lon":139.58116},{"name":"多摩川保育園","province":"東京都","city":"狛江市","address":"狛江市西和泉1-5-1","lat":35.64032,"lon":139.56439},{"name":"めぐみの森保育園","province":"東京都","city":"狛江市","address":"狛江市中和泉3-12-6","lat":35.63688,"lon":139.57047},{"name":"グローバルキッズ狛江園","province":"東京都","city":"狛江市","address":"狛江市中和泉3-19-14","lat":35.63549,"lon":139.5676},{"name":"いずみの森保育園","province":"東京都","city":"狛江市","address":"狛江市元和泉1-10-10","lat":35.63189,"lon":139.57593},{"name":"木下の保育園　元和泉","province":"東京都","city":"狛江市","address":"狛江市元和泉1丁目19番4号","lat":35.63077,"lon":139.5744},{"name":"虹のひかり保育園","province":"東京都","city":"狛江市","address":"狛江市東和泉1-32-18","lat":35.63037,"lon":139.5768},{"name":"ぎんきょう保育園","province":"東京都","city":"狛江市","address":"狛江市東和泉1-34-25","lat":35.62965,"lon":139.57663},{"name":"狛江ちとせ保育園","province":"東京都","city":"狛江市","address":"狛江市東和泉1-35-10","lat":35.6295,"lon":139.57567},{"name":"駒井保育園","province":"東京都","city":"狛江市","address":"狛江市駒井町2-28-6","lat":35.62431,"lon":139.58742},{"name":"駒井町みんなの家","province":"東京都","city":"狛江市","address":"狛江市駒井町3丁目36番1号","lat":35.62307,"lon":139.58911},{"name":"虹のひかり保育園","province":"東京都","city":"狛江市","address":"狛江市東和泉1-32-18","lat":35.63038,"lon":139.5768}]}