{"keyword":"商品","data":[{"name":"岩戸児童センター","province":"東京都","city":"狛江市","address":"狛江市岩戸南3-15-1","lat":35.629103,"lon":139.587948},{"name":"和泉児童館","province":"東京都","city":"狛江市","address":"狛江市中和泉3-12-6","lat":35.636863,"lon":139.570504},{"name":"狛江市社会福祉協議会","province":"東京都","city":"狛江市","address":"狛江市元和泉2-35-1あいとぴあセンター内","lat":35.6333,"lon":139.567777},{"name":"狛江市子ども家庭支援センター","province":"東京都","city":"狛江市","address":"狛江市岩戸南3-15-1岩戸児童センター2階","lat":35.629103,"lon":139.587948},{"name":"狛江市保健センター（あいとぴあセンター）","province":"東京都","city":"狛江市","address":"狛江市元和泉2-35-1","lat":35.6333,"lon":139.567777},{"name":"狛江市子ども家庭支援センター","province":"東京都","city":"狛江市","address":"狛江市元和泉2-35-1","lat":35.6334,"lon":139.567413},{"name":"西河原公民館","province":"東京都","city":"狛江市","address":"東京都狛江市元和泉2丁目35-1","lat":35.633456,"lon":139.566834},{"name":"狛江市庁舎","province":"東京都","city":"狛江市","address":"東京都狛江市和泉本町1丁目1-5","lat":35.634746,"lon":139.578776},{"name":"狛江市庁舎","province":"東京都","city":"狛江市","address":"東京都狛江市和泉本町1丁目1-5","lat":35.635005,"lon":139.578615},{"name":"狛江市庁舎","province":"東京都","city":"狛江市","address":"東京都狛江市和泉本町1丁目1-5","lat":35.63463,"lon":139.578749},{"name":"狛江市庁舎","province":"東京都","city":"狛江市","address":"東京都狛江市和泉本町1丁目1-5","lat":35.634875,"lon":139.578742},{"name":"狛江市防災センター","province":"東京都","city":"狛江市","address":"東京都狛江市和泉本町1丁目1-5","lat":35.634718,"lon":139.578234},{"name":"狛江市ビン・缶リサイクルセンター","province":"東京都","city":"狛江市","address":"東京都狛江市岩戸北1丁目1-11","lat":35.635704,"lon":139.580209},{"name":"中央公民館","province":"東京都","city":"狛江市","address":"東京都狛江市和泉本町1丁目1-5","lat":35.635147,"lon":139.578153},{"name":"西河原公民館","province":"東京都","city":"狛江市","address":"東京都狛江市元和泉2丁目35-1","lat":35.633421,"lon":139.567061},{"name":"エコルマホール","province":"東京都","city":"狛江市","address":"東京都狛江市元和泉1丁目2-1","lat":35.633073,"lon":139.577864},{"name":"西河原公民館","province":"東京都","city":"狛江市","address":"東京都狛江市元和泉2丁目35-1","lat":35.633435,"lon":139.566789},{"name":"西河原公民館","province":"東京都","city":"狛江市","address":"東京都狛江市元和泉2丁目35-1","lat":35.633457,"lon":139.566824},{"name":"野川地域センター","province":"東京都","city":"狛江市","address":"東京都狛江市西野川1丁目6-9","lat":35.646111,"lon":139.575493},{"name":"岩戸地域センター","province":"東京都","city":"狛江市","address":"東京都狛江市岩戸南2丁目2-5","lat":35.632129,"lon":139.586087},{"name":"上和泉地域センター","province":"東京都","city":"狛江市","address":"東京都狛江市和泉本町4丁目7-51","lat":35.645162,"lon":139.567931},{"name":"上和泉地域センター","province":"東京都","city":"狛江市","address":"東京都狛江市和泉本町4丁目7-51","lat":35.64517,"lon":139.5679},{"name":"南部地域センター","province":"東京都","city":"狛江市","address":"東京都狛江市猪方4丁目11","lat":35.623387,"lon":139.579702},{"name":"根川地区センター","province":"東京都","city":"狛江市","address":"東京都狛江市中和泉4丁目16-3","lat":35.63557,"lon":139.564173},{"name":"駄倉地区センター","province":"東京都","city":"狛江市","address":"東京都狛江市東和泉1丁目3-17","lat":35.632904,"lon":139.580609},{"name":"和泉多摩川地区センター","province":"東京都","city":"狛江市","address":"東京都狛江市猪方4丁目1-1","lat":35.624687,"lon":139.574068},{"name":"和泉多摩川地区センター","province":"東京都","city":"狛江市","address":"東京都狛江市猪方4丁目1-1","lat":35.624667,"lon":139.574026},{"name":"谷戸橋地区センター","province":"東京都","city":"狛江市","address":"東京都狛江市東野川4丁目30-1","lat":35.645767,"lon":139.58667},{"name":"狛江市あいとぴあセンター","province":"東京都","city":"狛江市","address":"東京都狛江市元和泉2丁目35-1","lat":35.633385,"lon":139.56751},{"name":"狛江市あいとぴあセンター","province":"東京都","city":"狛江市","address":"東京都狛江市元和泉2丁目35-1","lat":35.633354,"lon":139.567721},{"name":"狛江市あいとぴあセンター","province":"東京都","city":"狛江市","address":"東京都狛江市元和泉2丁目35-1","lat":35.633367,"lon":139.567563},{"name":"狛江市あいとぴあセンター","province":"東京都","city":"狛江市","address":"東京都狛江市元和泉2丁目35-1","lat":35.633372,"lon":139.567507},{"name":"狛江市あいとぴあセンター","province":"東京都","city":"狛江市","address":"東京都狛江市元和泉2丁目35-1","lat":35.633317,"lon":139.567902},{"name":"エコルマホール","province":"東京都","city":"狛江市","address":"東京都狛江市元和泉1丁目2-1","lat":35.633033,"lon":139.577859},{"name":"前原公園","province":"東京都","city":"狛江市","address":"東京都狛江市西野川3丁目11","lat":35.644532,"lon":139.57014},{"name":"西河原自然公園","province":"東京都","city":"狛江市","address":"東京都狛江市元和泉2丁目34","lat":35.63313,"lon":139.570309},{"name":"西河原公園","province":"東京都","city":"狛江市","address":"東京都狛江市元和泉2丁目38","lat":35.632747,"lon":139.567627},{"name":"狛江市立和泉児童館","province":"東京都","city":"狛江市","address":"東京都狛江市中和泉3丁目12-6","lat":35.636909,"lon":139.570529},{"name":"狛江市立駒井学童保育所","province":"東京都","city":"狛江市","address":"東京都狛江市駒井町1丁目21-6","lat":35.62494,"lon":139.585234},{"name":"元和泉市民テニスコート","province":"東京都","city":"狛江市","address":"東京都狛江市元和泉2丁目8","lat":35.630171,"lon":139.571586},{"name":"市民グランド","province":"東京都","city":"狛江市","address":"東京都狛江市和泉本町2丁目15-2","lat":35.640449,"lon":139.579285},{"name":"市民総合体育館","province":"東京都","city":"狛江市","address":"東京都狛江市和泉本町3丁目25-1","lat":35.64217,"lon":139.573177},{"name":"市民総合体育館","province":"東京都","city":"狛江市","address":"東京都狛江市和泉本町3丁目25-1","lat":35.64217,"lon":139.573178},{"name":"市民総合体育館","province":"東京都","city":"狛江市","address":"東京都狛江市和泉本町3丁目25-1","lat":35.64217,"lon":139.573174},{"name":"狛江市子育て・教育支援複合施設","province":"東京都","city":"狛江市","address":"東京都狛江市元和泉1丁目11-11","lat":35.631381,"lon":139.57609},{"name":"寺前小学生クラブ","province":"東京都","city":"狛江市","address":"東京都狛江市元和泉1丁目23-3","lat":35.630207,"lon":139.575552},{"name":"狛江市保健センター（あいとぴあセンター）","province":"東京都","city":"狛江市","address":"東京都狛江市元和泉2丁目35-1","lat":35.6333052,"lon":139.56761624},{"name":"狛江市老人福祉センター","province":"東京都","city":"狛江市","address":"狛江市元和泉2-35-1","lat":35.6334,"lon":139.56741},{"name":"北部児童館","province":"東京都","city":"狛江市","address":"狛江市和泉本町3-31-19","lat":35.64188,"lon":139.57559},{"name":"岩戸児童センター","province":"東京都","city":"狛江市","address":"狛江市岩戸南3-15-1","lat":35.62909,"lon":139.58789},{"name":"和泉児童館","province":"東京都","city":"狛江市","address":"狛江市中和泉3-12-6","lat":35.63688,"lon":139.57047},{"name":"狛江市社会福祉協議会","province":"東京都","city":"狛江市","address":"狛江市元和泉2-35-1あいとぴあセンター内","lat":35.6334,"lon":139.56741},{"name":"狛江市","province":"東京都","city":"狛江市","address":"狛江市和泉本町1-1-5","lat":35.63494,"lon":139.57837},{"name":"狛江市保健センター（あいとぴあセンター）","province":"東京都","city":"狛江市","address":"狛江市元和泉2-35-1","lat":35.6334,"lon":139.56741},{"name":"狛江市子ども家庭支援センター","province":"東京都","city":"狛江市","address":"狛江市元和泉1-11-11ひだまりセンター1階","lat":35.63123,"lon":139.57588},{"name":"狛江市立北部児童館","province":"東京都","city":"狛江市","address":"狛江市和泉本町3-31-19","lat":35.64188,"lon":139.57559},{"name":"狛江市老人福祉センター","province":"東京都","city":"狛江市","address":"狛江市元和泉2-35-1","lat":35.6333,"lon":139.567777},{"name":"狛江市立北部児童館","province":"東京都","city":"狛江市","address":"狛江市和泉本町3-31-19","lat":35.642016,"lon":139.575277},{"name":"狛江市","province":"東京都","city":"狛江市","address":"狛江市和泉本町1-1-5","lat":35.634913,"lon":139.578734},{"name":"狛江市","province":"東京都","city":"狛江市","address":"狛江市和泉本町1-1-5","lat":35.63495,"lon":139.57837},{"name":"狛江市あいとぴあセンター","province":"東京都","city":"狛江市","address":"東京都狛江市元和泉2丁目35-1","lat":35.6333052,"lon":139.56761624},{"name":"狛江消防署","province":"東京都","city":"狛江市","address":"狛江市和泉本町1-23-10","lat":35.6405,"lon":139.5765},{"name":"岩戸児童センター","province":"東京都","city":"狛江市","address":"狛江市岩戸南3-15-1","lat":35.629103,"lon":139.587948},{"name":"和泉児童館","province":"東京都","city":"狛江市","address":"狛江市中和泉3-12-6","lat":35.636863,"lon":139.570504},{"name":"狛江市子ども家庭支援センター","province":"東京都","city":"狛江市","address":"狛江市岩戸南3-15-1岩戸児童センター2階","lat":35.629103,"lon":139.587948},{"name":"狛江市保健センター（あいとぴあセンター）","province":"東京都","city":"狛江市","address":"狛江市元和泉2-35-1","lat":35.6333,"lon":139.567777},{"name":"狛江市子ども家庭支援センター","province":"東京都","city":"狛江市","address":"狛江市元和泉2-35-1","lat":35.6334,"lon":139.567413},{"name":"西河原公民館","province":"東京都","city":"狛江市","address":"東京都狛江市元和泉2丁目35-1","lat":35.633456,"lon":139.566834},{"name":"狛江市庁舎","province":"東京都","city":"狛江市","address":"東京都狛江市和泉本町1丁目1-5","lat":35.634746,"lon":139.578776},{"name":"狛江市庁舎","province":"東京都","city":"狛江市","address":"東京都狛江市和泉本町1丁目1-5","lat":35.635005,"lon":139.578615},{"name":"狛江市庁舎","province":"東京都","city":"狛江市","address":"東京都狛江市和泉本町1丁目1-5","lat":35.63463,"lon":139.578749},{"name":"狛江市庁舎","province":"東京都","city":"狛江市","address":"東京都狛江市和泉本町1丁目1-5","lat":35.634875,"lon":139.578742},{"name":"狛江市防災センター","province":"東京都","city":"狛江市","address":"東京都狛江市和泉本町1丁目1-5","lat":35.634718,"lon":139.578234},{"name":"狛江市ビン・缶リサイクルセンター","province":"東京都","city":"狛江市","address":"東京都狛江市岩戸北1丁目1-11","lat":35.635704,"lon":139.580209},{"name":"中央公民館","province":"東京都","city":"狛江市","address":"東京都狛江市和泉本町1丁目1-5","lat":35.635147,"lon":139.578153},{"name":"西河原公民館","province":"東京都","city":"狛江市","address":"東京都狛江市元和泉2丁目35-1","lat":35.633421,"lon":139.567061},{"name":"エコルマホール","province":"東京都","city":"狛江市","address":"東京都狛江市元和泉1丁目2-1","lat":35.633073,"lon":139.577864},{"name":"西河原公民館","province":"東京都","city":"狛江市","address":"東京都狛江市元和泉2丁目35-1","lat":35.633435,"lon":139.566789},{"name":"西河原公民館","province":"東京都","city":"狛江市","address":"東京都狛江市元和泉2丁目35-1","lat":35.633457,"lon":139.566824},{"name":"野川地域センター","province":"東京都","city":"狛江市","address":"東京都狛江市西野川1丁目6-9","lat":35.646111,"lon":139.575493},{"name":"岩戸地域センター","province":"東京都","city":"狛江市","address":"東京都狛江市岩戸南2丁目2-5","lat":35.632129,"lon":139.586087},{"name":"上和泉地域センター","province":"東京都","city":"狛江市","address":"東京都狛江市和泉本町4丁目7-51","lat":35.645162,"lon":139.567931},{"name":"上和泉地域センター","province":"東京都","city":"狛江市","address":"東京都狛江市和泉本町4丁目7-51","lat":35.64517,"lon":139.5679},{"name":"南部地域センター","province":"東京都","city":"狛江市","address":"東京都狛江市猪方4丁目11","lat":35.623387,"lon":139.579702},{"name":"根川地区センター","province":"東京都","city":"狛江市","address":"東京都狛江市中和泉4丁目16-3","lat":35.63557,"lon":139.564173},{"name":"駄倉地区センター","province":"東京都","city":"狛江市","address":"東京都狛江市東和泉1丁目3-17","lat":35.632904,"lon":139.580609},{"name":"和泉多摩川地区センター","province":"東京都","city":"狛江市","address":"東京都狛江市猪方4丁目1-1","lat":35.624687,"lon":139.574068},{"name":"和泉多摩川地区センター","province":"東京都","city":"狛江市","address":"東京都狛江市猪方4丁目1-1","lat":35.624667,"lon":139.574026},{"name":"谷戸橋地区センター","province":"東京都","city":"狛江市","address":"東京都狛江市東野川4丁目30-1","lat":35.645767,"lon":139.58667},{"name":"狛江市あいとぴあセンター","province":"東京都","city":"狛江市","address":"東京都狛江市元和泉2丁目35-1","lat":35.633385,"lon":139.56751},{"name":"狛江市あいとぴあセンター","province":"東京都","city":"狛江市","address":"東京都狛江市元和泉2丁目35-1","lat":35.633354,"lon":139.567721},{"name":"狛江市あいとぴあセンター","province":"東京都","city":"狛江市","address":"東京都狛江市元和泉2丁目35-1","lat":35.633367,"lon":139.567563},{"name":"狛江市あいとぴあセンター","province":"東京都","city":"狛江市","address":"東京都狛江市元和泉2丁目35-1","lat":35.633372,"lon":139.567507},{"name":"狛江市あいとぴあセンター","province":"東京都","city":"狛江市","address":"東京都狛江市元和泉2丁目35-1","lat":35.633317,"lon":139.567902},{"name":"エコルマホール","province":"東京都","city":"狛江市","address":"東京都狛江市元和泉1丁目2-1","lat":35.633033,"lon":139.577859},{"name":"前原公園","province":"東京都","city":"狛江市","address":"東京都狛江市西野川3丁目11","lat":35.644532,"lon":139.57014},{"name":"西河原自然公園","province":"東京都","city":"狛江市","address":"東京都狛江市元和泉2丁目34","lat":35.63313,"lon":139.570309},{"name":"西河原公園","province":"東京都","city":"狛江市","address":"東京都狛江市元和泉2丁目38","lat":35.632747,"lon":139.567627},{"name":"狛江市立和泉児童館","province":"東京都","city":"狛江市","address":"東京都狛江市中和泉3丁目12-6","lat":35.636909,"lon":139.570529},{"name":"狛江市立駒井学童保育所","province":"東京都","city":"狛江市","address":"東京都狛江市駒井町1丁目21-6","lat":35.62494,"lon":139.585234},{"name":"元和泉市民テニスコート","province":"東京都","city":"狛江市","address":"東京都狛江市元和泉2丁目8","lat":35.630171,"lon":139.571586},{"name":"市民グランド","province":"東京都","city":"狛江市","address":"東京都狛江市和泉本町2丁目15-2","lat":35.640449,"lon":139.579285},{"name":"市民総合体育館","province":"東京都","city":"狛江市","address":"東京都狛江市和泉本町3丁目25-1","lat":35.64217,"lon":139.573177},{"name":"市民総合体育館","province":"東京都","city":"狛江市","address":"東京都狛江市和泉本町3丁目25-1","lat":35.64217,"lon":139.573178},{"name":"市民総合体育館","province":"東京都","city":"狛江市","address":"東京都狛江市和泉本町3丁目25-1","lat":35.64217,"lon":139.573174},{"name":"狛江市子育て・教育支援複合施設","province":"東京都","city":"狛江市","address":"東京都狛江市元和泉1丁目11-11","lat":35.631381,"lon":139.57609},{"name":"寺前小学生クラブ","province":"東京都","city":"狛江市","address":"東京都狛江市元和泉1丁目23-3","lat":35.630207,"lon":139.575552},{"name":"狛江市保健センター（あいとぴあセンター）","province":"東京都","city":"狛江市","address":"東京都狛江市元和泉2丁目35-1","lat":35.6333052,"lon":139.56761624},{"name":"狛江市老人福祉センター","province":"東京都","city":"狛江市","address":"狛江市元和泉2-35-1","lat":35.6334,"lon":139.56741},{"name":"北部児童館","province":"東京都","city":"狛江市","address":"狛江市和泉本町3-31-19","lat":35.64188,"lon":139.57559},{"name":"岩戸児童センター","province":"東京都","city":"狛江市","address":"狛江市岩戸南3-15-1","lat":35.62909,"lon":139.58789},{"name":"和泉児童館","province":"東京都","city":"狛江市","address":"狛江市中和泉3-12-6","lat":35.63688,"lon":139.57047},{"name":"狛江市","province":"東京都","city":"狛江市","address":"狛江市和泉本町1-1-5","lat":35.63494,"lon":139.57837},{"name":"狛江市保健センター（あいとぴあセンター）","province":"東京都","city":"狛江市","address":"狛江市元和泉2-35-1","lat":35.6334,"lon":139.56741},{"name":"狛江市子ども家庭支援センター","province":"東京都","city":"狛江市","address":"狛江市元和泉1-11-11ひだまりセンター1階","lat":35.63123,"lon":139.57588},{"name":"狛江市立北部児童館","province":"東京都","city":"狛江市","address":"狛江市和泉本町3-31-19","lat":35.64188,"lon":139.57559},{"name":"狛江市老人福祉センター","province":"東京都","city":"狛江市","address":"狛江市元和泉2-35-1","lat":35.6333,"lon":139.567777},{"name":"狛江市立北部児童館","province":"東京都","city":"狛江市","address":"狛江市和泉本町3-31-19","lat":35.642016,"lon":139.575277},{"name":"狛江市","province":"東京都","city":"狛江市","address":"狛江市和泉本町1-1-5","lat":35.634913,"lon":139.578734},{"name":"狛江市","province":"東京都","city":"狛江市","address":"狛江市和泉本町1-1-5","lat":35.63495,"lon":139.57837},{"name":"狛江市あいとぴあセンター","province":"東京都","city":"狛江市","address":"東京都狛江市元和泉2丁目35-1","lat":35.6333052,"lon":139.56761624},{"name":"狛江消防署","province":"東京都","city":"狛江市","address":"狛江市和泉本町1-23-10","lat":35.6405,"lon":139.5765},{"name":"岩戸児童センター","province":"東京都","city":"狛江市","address":"狛江市岩戸南3-15-1","lat":35.629103,"lon":139.587948},{"name":"和泉児童館","province":"東京都","city":"狛江市","address":"狛江市中和泉3-12-6","lat":35.636863,"lon":139.570504},{"name":"狛江市老人福祉センター","province":"東京都","city":"狛江市","address":"狛江市元和泉2-35-1","lat":35.6334,"lon":139.56741},{"name":"北部児童館","province":"東京都","city":"狛江市","address":"狛江市和泉本町3-31-19","lat":35.64188,"lon":139.57559},{"name":"岩戸児童センター","province":"東京都","city":"狛江市","address":"狛江市岩戸南3-15-1","lat":35.62909,"lon":139.58789},{"name":"和泉児童館","province":"東京都","city":"狛江市","address":"狛江市中和泉3-12-6","lat":35.63688,"lon":139.57047},{"name":"狛江市","province":"東京都","city":"狛江市","address":"狛江市和泉本町1-1-5","lat":35.63494,"lon":139.57837},{"name":"狛江市立北部児童館","province":"東京都","city":"狛江市","address":"狛江市和泉本町3-31-19","lat":35.64188,"lon":139.57559},{"name":"狛江市老人福祉センター","province":"東京都","city":"狛江市","address":"狛江市元和泉2-35-1","lat":35.6333,"lon":139.567777},{"name":"狛江市立北部児童館","province":"東京都","city":"狛江市","address":"狛江市和泉本町3-31-19","lat":35.642016,"lon":139.575277},{"name":"狛江市","province":"東京都","city":"狛江市","address":"狛江市和泉本町1-1-5","lat":35.634913,"lon":139.578734},{"name":"狛江市","province":"東京都","city":"狛江市","address":"狛江市和泉本町1-1-5","lat":35.63495,"lon":139.57837},{"name":"狛江市あいとぴあセンター","province":"東京都","city":"狛江市","address":"東京都狛江市元和泉2丁目35-1","lat":35.6333052,"lon":139.56761624},{"name":"狛江市老人福祉センター","province":"東京都","city":"狛江市","address":"狛江市元和泉2-35-1","lat":35.6334,"lon":139.56741},{"name":"狛江市","province":"東京都","city":"狛江市","address":"狛江市和泉本町1-1-5","lat":35.63494,"lon":139.57837},{"name":"狛江市老人福祉センター","province":"東京都","city":"狛江市","address":"狛江市元和泉2-35-1","lat":35.6333,"lon":139.567777},{"name":"狛江市","province":"東京都","city":"狛江市","address":"狛江市和泉本町1-1-5","lat":35.634913,"lon":139.578734},{"name":"狛江市","province":"東京都","city":"狛江市","address":"狛江市和泉本町1-1-5","lat":35.63495,"lon":139.57837},{"name":"狛江市老人福祉センター","province":"東京都","city":"狛江市","address":"狛江市元和泉2-35-1","lat":35.6334,"lon":139.56741},{"name":"狛江市","province":"東京都","city":"狛江市","address":"狛江市和泉本町1-1-5","lat":35.63494,"lon":139.57837},{"name":"狛江市老人福祉センター","province":"東京都","city":"狛江市","address":"狛江市元和泉2-35-1","lat":35.6333,"lon":139.567777},{"name":"狛江市","province":"東京都","city":"狛江市","address":"狛江市和泉本町1-1-5","lat":35.634913,"lon":139.578734},{"name":"狛江市","province":"東京都","city":"狛江市","address":"狛江市和泉本町1-1-5","lat":35.63495,"lon":139.57837},{"name":"狛江市老人福祉センター","province":"東京都","city":"狛江市","address":"狛江市元和泉2-35-1","lat":35.6334,"lon":139.56741},{"name":"狛江市","province":"東京都","city":"狛江市","address":"狛江市和泉本町1-1-5","lat":35.63494,"lon":139.57837},{"name":"狛江市老人福祉センター","province":"東京都","city":"狛江市","address":"狛江市元和泉2-35-1","lat":35.6333,"lon":139.567777},{"name":"狛江市","province":"東京都","city":"狛江市","address":"狛江市和泉本町1-1-5","lat":35.634913,"lon":139.578734},{"name":"狛江市","province":"東京都","city":"狛江市","address":"狛江市和泉本町1-1-5","lat":35.63495,"lon":139.57837},{"name":"狛江市老人福祉センター","province":"東京都","city":"狛江市","address":"狛江市元和泉2-35-1","lat":35.6334,"lon":139.56741},{"name":"狛江市","province":"東京都","city":"狛江市","address":"狛江市和泉本町1-1-5","lat":35.63494,"lon":139.57837},{"name":"狛江市老人福祉センター","province":"東京都","city":"狛江市","address":"狛江市元和泉2-35-1","lat":35.6333,"lon":139.567777},{"name":"狛江市","province":"東京都","city":"狛江市","address":"狛江市和泉本町1-1-5","lat":35.634913,"lon":139.578734},{"name":"狛江市","province":"東京都","city":"狛江市","address":"狛江市和泉本町1-1-5","lat":35.63495,"lon":139.57837},{"name":"狛江市老人福祉センター","province":"東京都","city":"狛江市","address":"狛江市元和泉2-35-1","lat":35.6334,"lon":139.56741},{"name":"狛江市","province":"東京都","city":"狛江市","address":"狛江市和泉本町1-1-5","lat":35.63494,"lon":139.57837},{"name":"狛江市老人福祉センター","province":"東京都","city":"狛江市","address":"狛江市元和泉2-35-1","lat":35.6333,"lon":139.567777},{"name":"狛江市","province":"東京都","city":"狛江市","address":"狛江市和泉本町1-1-5","lat":35.634913,"lon":139.578734},{"name":"狛江市","province":"東京都","city":"狛江市","address":"狛江市和泉本町1-1-5","lat":35.63495,"lon":139.57837},{"name":"狛江市老人福祉センター","province":"東京都","city":"狛江市","address":"狛江市元和泉2-35-1","lat":35.6334,"lon":139.56741},{"name":"狛江市","province":"東京都","city":"狛江市","address":"狛江市和泉本町1-1-5","lat":35.63494,"lon":139.57837},{"name":"狛江市老人福祉センター","province":"東京都","city":"狛江市","address":"狛江市元和泉2-35-1","lat":35.6333,"lon":139.567777},{"name":"狛江市","province":"東京都","city":"狛江市","address":"狛江市和泉本町1-1-5","lat":35.634913,"lon":139.578734},{"name":"狛江市","province":"東京都","city":"狛江市","address":"狛江市和泉本町1-1-5","lat":35.63495,"lon":139.57837},{"name":"狛江市老人福祉センター","province":"東京都","city":"狛江市","address":"狛江市元和泉2-35-1","lat":35.6334,"lon":139.56741},{"name":"狛江市","province":"東京都","city":"狛江市","address":"狛江市和泉本町1-1-5","lat":35.63494,"lon":139.57837},{"name":"狛江市老人福祉センター","province":"東京都","city":"狛江市","address":"狛江市元和泉2-35-1","lat":35.6333,"lon":139.567777},{"name":"狛江市","province":"東京都","city":"狛江市","address":"狛江市和泉本町1-1-5","lat":35.634913,"lon":139.578734},{"name":"狛江市","province":"東京都","city":"狛江市","address":"狛江市和泉本町1-1-5","lat":35.63495,"lon":139.57837},{"name":"狛江市老人福祉センター","province":"東京都","city":"狛江市","address":"狛江市元和泉2-35-1","lat":35.6334,"lon":139.56741},{"name":"狛江市","province":"東京都","city":"狛江市","address":"狛江市和泉本町1-1-5","lat":35.63494,"lon":139.57837},{"name":"狛江市老人福祉センター","province":"東京都","city":"狛江市","address":"狛江市元和泉2-35-1","lat":35.6333,"lon":139.567777},{"name":"狛江市","province":"東京都","city":"狛江市","address":"狛江市和泉本町1-1-5","lat":35.634913,"lon":139.578734},{"name":"狛江市","province":"東京都","city":"狛江市","address":"狛江市和泉本町1-1-5","lat":35.63495,"lon":139.57837},{"name":"狛江市老人福祉センター","province":"東京都","city":"狛江市","address":"狛江市元和泉2-35-1","lat":35.6334,"lon":139.56741},{"name":"狛江市","province":"東京都","city":"狛江市","address":"狛江市和泉本町1-1-5","lat":35.63494,"lon":139.57837},{"name":"狛江市老人福祉センター","province":"東京都","city":"狛江市","address":"狛江市元和泉2-35-1","lat":35.6333,"lon":139.567777},{"name":"狛江市","province":"東京都","city":"狛江市","address":"狛江市和泉本町1-1-5","lat":35.634913,"lon":139.578734},{"name":"狛江市","province":"東京都","city":"狛江市","address":"狛江市和泉本町1-1-5","lat":35.63495,"lon":139.57837},{"name":"狛江市老人福祉センター","province":"東京都","city":"狛江市","address":"狛江市元和泉2-35-1","lat":35.6334,"lon":139.56741},{"name":"狛江市","province":"東京都","city":"狛江市","address":"狛江市和泉本町1-1-5","lat":35.63494,"lon":139.57837},{"name":"狛江市老人福祉センター","province":"東京都","city":"狛江市","address":"狛江市元和泉2-35-1","lat":35.6333,"lon":139.567777},{"name":"狛江市","province":"東京都","city":"狛江市","address":"狛江市和泉本町1-1-5","lat":35.634913,"lon":139.578734},{"name":"狛江市","province":"東京都","city":"狛江市","address":"狛江市和泉本町1-1-5","lat":35.63495,"lon":139.57837},{"name":"狛江市老人福祉センター","province":"東京都","city":"狛江市","address":"狛江市元和泉2-35-1","lat":35.6334,"lon":139.56741},{"name":"狛江市","province":"東京都","city":"狛江市","address":"狛江市和泉本町1-1-5","lat":35.63494,"lon":139.57837},{"name":"狛江市老人福祉センター","province":"東京都","city":"狛江市","address":"狛江市元和泉2-35-1","lat":35.6333,"lon":139.567777},{"name":"狛江市","province":"東京都","city":"狛江市","address":"狛江市和泉本町1-1-5","lat":35.634913,"lon":139.578734},{"name":"狛江市","province":"東京都","city":"狛江市","address":"狛江市和泉本町1-1-5","lat":35.63495,"lon":139.57837},{"name":"狛江市老人福祉センター","province":"東京都","city":"狛江市","address":"狛江市元和泉2-35-1","lat":35.6334,"lon":139.56741},{"name":"狛江市","province":"東京都","city":"狛江市","address":"狛江市和泉本町1-1-5","lat":35.63494,"lon":139.57837},{"name":"狛江市老人福祉センター","province":"東京都","city":"狛江市","address":"狛江市元和泉2-35-1","lat":35.6333,"lon":139.567777},{"name":"狛江市","province":"東京都","city":"狛江市","address":"狛江市和泉本町1-1-5","lat":35.634913,"lon":139.578734},{"name":"狛江市","province":"東京都","city":"狛江市","address":"狛江市和泉本町1-1-5","lat":35.63495,"lon":139.57837},{"name":"狛江市老人福祉センター","province":"東京都","city":"狛江市","address":"狛江市元和泉2-35-1","lat":35.6334,"lon":139.56741},{"name":"狛江市","province":"東京都","city":"狛江市","address":"狛江市和泉本町1-1-5","lat":35.63494,"lon":139.57837},{"name":"狛江市老人福祉センター","province":"東京都","city":"狛江市","address":"狛江市元和泉2-35-1","lat":35.6333,"lon":139.567777},{"name":"狛江市","province":"東京都","city":"狛江市","address":"狛江市和泉本町1-1-5","lat":35.634913,"lon":139.578734},{"name":"狛江市","province":"東京都","city":"狛江市","address":"狛江市和泉本町1-1-5","lat":35.63495,"lon":139.57837},{"name":"狛江市老人福祉センター","province":"東京都","city":"狛江市","address":"狛江市元和泉2-35-1","lat":35.6334,"lon":139.56741},{"name":"狛江市","province":"東京都","city":"狛江市","address":"狛江市和泉本町1-1-5","lat":35.63494,"lon":139.57837},{"name":"狛江市老人福祉センター","province":"東京都","city":"狛江市","address":"狛江市元和泉2-35-1","lat":35.6333,"lon":139.567777},{"name":"狛江市","province":"東京都","city":"狛江市","address":"狛江市和泉本町1-1-5","lat":35.634913,"lon":139.578734},{"name":"狛江市","province":"東京都","city":"狛江市","address":"狛江市和泉本町1-1-5","lat":35.63495,"lon":139.57837},{"name":"狛江市老人福祉センター","province":"東京都","city":"狛江市","address":"狛江市元和泉2-35-1","lat":35.6334,"lon":139.56741},{"name":"狛江市","province":"東京都","city":"狛江市","address":"狛江市和泉本町1-1-5","lat":35.63494,"lon":139.57837},{"name":"狛江市老人福祉センター","province":"東京都","city":"狛江市","address":"狛江市元和泉2-35-1","lat":35.6333,"lon":139.567777},{"name":"狛江市","province":"東京都","city":"狛江市","address":"狛江市和泉本町1-1-5","lat":35.634913,"lon":139.578734},{"name":"狛江市","province":"東京都","city":"狛江市","address":"狛江市和泉本町1-1-5","lat":35.63495,"lon":139.57837},{"name":"狛江市老人福祉センター","province":"東京都","city":"狛江市","address":"狛江市元和泉2-35-1","lat":35.6334,"lon":139.56741},{"name":"狛江市","province":"東京都","city":"狛江市","address":"狛江市和泉本町1-1-5","lat":35.63494,"lon":139.57837},{"name":"狛江市老人福祉センター","province":"東京都","city":"狛江市","address":"狛江市元和泉2-35-1","lat":35.6333,"lon":139.567777},{"name":"狛江市","province":"東京都","city":"狛江市","address":"狛江市和泉本町1-1-5","lat":35.634913,"lon":139.578734},{"name":"狛江市","province":"東京都","city":"狛江市","address":"狛江市和泉本町1-1-5","lat":35.63495,"lon":139.57837},{"name":"狛江市老人福祉センター","province":"東京都","city":"狛江市","address":"狛江市元和泉2-35-1","lat":35.6334,"lon":139.56741},{"name":"狛江市","province":"東京都","city":"狛江市","address":"狛江市和泉本町1-1-5","lat":35.63494,"lon":139.57837},{"name":"狛江市老人福祉センター","province":"東京都","city":"狛江市","address":"狛江市元和泉2-35-1","lat":35.6333,"lon":139.567777},{"name":"狛江市","province":"東京都","city":"狛江市","address":"狛江市和泉本町1-1-5","lat":35.634913,"lon":139.578734},{"name":"狛江市","province":"東京都","city":"狛江市","address":"狛江市和泉本町1-1-5","lat":35.63495,"lon":139.57837},{"name":"狛江市老人福祉センター","province":"東京都","city":"狛江市","address":"狛江市元和泉2-35-1","lat":35.6334,"lon":139.56741},{"name":"狛江市","province":"東京都","city":"狛江市","address":"狛江市和泉本町1-1-5","lat":35.63494,"lon":139.57837},{"name":"狛江市老人福祉センター","province":"東京都","city":"狛江市","address":"狛江市元和泉2-35-1","lat":35.6333,"lon":139.567777},{"name":"狛江市","province":"東京都","city":"狛江市","address":"狛江市和泉本町1-1-5","lat":35.634913,"lon":139.578734},{"name":"狛江市","province":"東京都","city":"狛江市","address":"狛江市和泉本町1-1-5","lat":35.63495,"lon":139.57837},{"name":"狛江市老人福祉センター","province":"東京都","city":"狛江市","address":"狛江市元和泉2-35-1","lat":35.6334,"lon":139.56741},{"name":"狛江市","province":"東京都","city":"狛江市","address":"狛江市和泉本町1-1-5","lat":35.63494,"lon":139.57837},{"name":"狛江市老人福祉センター","province":"東京都","city":"狛江市","address":"狛江市元和泉2-35-1","lat":35.6333,"lon":139.567777},{"name":"狛江市","province":"東京都","city":"狛江市","address":"狛江市和泉本町1-1-5","lat":35.634913,"lon":139.578734},{"name":"狛江市","province":"東京都","city":"狛江市","address":"狛江市和泉本町1-1-5","lat":35.63495,"lon":139.57837},{"name":"狛江市老人福祉センター","province":"東京都","city":"狛江市","address":"狛江市元和泉2-35-1","lat":35.6334,"lon":139.56741},{"name":"狛江市","province":"東京都","city":"狛江市","address":"狛江市和泉本町1-1-5","lat":35.63494,"lon":139.57837},{"name":"狛江市老人福祉センター","province":"東京都","city":"狛江市","address":"狛江市元和泉2-35-1","lat":35.6333,"lon":139.567777},{"name":"狛江市","province":"東京都","city":"狛江市","address":"狛江市和泉本町1-1-5","lat":35.634913,"lon":139.578734},{"name":"狛江市","province":"東京都","city":"狛江市","address":"狛江市和泉本町1-1-5","lat":35.63495,"lon":139.57837},{"name":"狛江市老人福祉センター","province":"東京都","city":"狛江市","address":"狛江市元和泉2-35-1","lat":35.6334,"lon":139.56741},{"name":"狛江市","province":"東京都","city":"狛江市","address":"狛江市和泉本町1-1-5","lat":35.63494,"lon":139.57837},{"name":"狛江市老人福祉センター","province":"東京都","city":"狛江市","address":"狛江市元和泉2-35-1","lat":35.6333,"lon":139.567777},{"name":"狛江市","province":"東京都","city":"狛江市","address":"狛江市和泉本町1-1-5","lat":35.634913,"lon":139.578734},{"name":"狛江市","province":"東京都","city":"狛江市","address":"狛江市和泉本町1-1-5","lat":35.63495,"lon":139.57837},{"name":"狛江市老人福祉センター","province":"東京都","city":"狛江市","address":"狛江市元和泉2-35-1","lat":35.6334,"lon":139.56741},{"name":"狛江市","province":"東京都","city":"狛江市","address":"狛江市和泉本町1-1-5","lat":35.63494,"lon":139.57837},{"name":"狛江市老人福祉センター","province":"東京都","city":"狛江市","address":"狛江市元和泉2-35-1","lat":35.6333,"lon":139.567777},{"name":"狛江市","province":"東京都","city":"狛江市","address":"狛江市和泉本町1-1-5","lat":35.634913,"lon":139.578734},{"name":"狛江市","province":"東京都","city":"狛江市","address":"狛江市和泉本町1-1-5","lat":35.63495,"lon":139.57837},{"name":"狛江市老人福祉センター","province":"東京都","city":"狛江市","address":"狛江市元和泉2-35-1","lat":35.6334,"lon":139.56741},{"name":"狛江市","province":"東京都","city":"狛江市","address":"狛江市和泉本町1-1-5","lat":35.63494,"lon":139.57837},{"name":"狛江市老人福祉センター","province":"東京都","city":"狛江市","address":"狛江市元和泉2-35-1","lat":35.6333,"lon":139.567777},{"name":"狛江市","province":"東京都","city":"狛江市","address":"狛江市和泉本町1-1-5","lat":35.634913,"lon":139.578734},{"name":"狛江市","province":"東京都","city":"狛江市","address":"狛江市和泉本町1-1-5","lat":35.63495,"lon":139.57837},{"name":"狛江市老人福祉センター","province":"東京都","city":"狛江市","address":"狛江市元和泉2-35-1","lat":35.6334,"lon":139.56741},{"name":"狛江市","province":"東京都","city":"狛江市","address":"狛江市和泉本町1-1-5","lat":35.63494,"lon":139.57837},{"name":"狛江市老人福祉センター","province":"東京都","city":"狛江市","address":"狛江市元和泉2-35-1","lat":35.6333,"lon":139.567777},{"name":"狛江市","province":"東京都","city":"狛江市","address":"狛江市和泉本町1-1-5","lat":35.634913,"lon":139.578734},{"name":"狛江市","province":"東京都","city":"狛江市","address":"狛江市和泉本町1-1-5","lat":35.63495,"lon":139.57837},{"name":"狛江市老人福祉センター","province":"東京都","city":"狛江市","address":"狛江市元和泉2-35-1","lat":35.6334,"lon":139.56741},{"name":"狛江市","province":"東京都","city":"狛江市","address":"狛江市和泉本町1-1-5","lat":35.63494,"lon":139.57837},{"name":"狛江市老人福祉センター","province":"東京都","city":"狛江市","address":"狛江市元和泉2-35-1","lat":35.6333,"lon":139.567777},{"name":"狛江市","province":"東京都","city":"狛江市","address":"狛江市和泉本町1-1-5","lat":35.634913,"lon":139.578734},{"name":"狛江市","province":"東京都","city":"狛江市","address":"狛江市和泉本町1-1-5","lat":35.63495,"lon":139.57837},{"name":"狛江市老人福祉センター","province":"東京都","city":"狛江市","address":"狛江市元和泉2-35-1","lat":35.6334,"lon":139.56741},{"name":"狛江市","province":"東京都","city":"狛江市","address":"狛江市和泉本町1-1-5","lat":35.63494,"lon":139.57837},{"name":"狛江市老人福祉センター","province":"東京都","city":"狛江市","address":"狛江市元和泉2-35-1","lat":35.6333,"lon":139.567777},{"name":"狛江市","province":"東京都","city":"狛江市","address":"狛江市和泉本町1-1-5","lat":35.634913,"lon":139.578734},{"name":"狛江市","province":"東京都","city":"狛江市","address":"狛江市和泉本町1-1-5","lat":35.63495,"lon":139.57837},{"name":"狛江市老人福祉センター","province":"東京都","city":"狛江市","address":"狛江市元和泉2-35-1","lat":35.6334,"lon":139.56741},{"name":"狛江市","province":"東京都","city":"狛江市","address":"狛江市和泉本町1-1-5","lat":35.63494,"lon":139.57837},{"name":"狛江市老人福祉センター","province":"東京都","city":"狛江市","address":"狛江市元和泉2-35-1","lat":35.6333,"lon":139.567777},{"name":"狛江市","province":"東京都","city":"狛江市","address":"狛江市和泉本町1-1-5","lat":35.634913,"lon":139.578734},{"name":"狛江市","province":"東京都","city":"狛江市","address":"狛江市和泉本町1-1-5","lat":35.63495,"lon":139.57837},{"name":"狛江市老人福祉センター","province":"東京都","city":"狛江市","address":"狛江市元和泉2-35-1","lat":35.6334,"lon":139.56741},{"name":"狛江市","province":"東京都","city":"狛江市","address":"狛江市和泉本町1-1-5","lat":35.63494,"lon":139.57837},{"name":"狛江市老人福祉センター","province":"東京都","city":"狛江市","address":"狛江市元和泉2-35-1","lat":35.6333,"lon":139.567777},{"name":"狛江市","province":"東京都","city":"狛江市","address":"狛江市和泉本町1-1-5","lat":35.634913,"lon":139.578734},{"name":"狛江市","province":"東京都","city":"狛江市","address":"狛江市和泉本町1-1-5","lat":35.63495,"lon":139.57837},{"name":"狛江市老人福祉センター","province":"東京都","city":"狛江市","address":"狛江市元和泉2-35-1","lat":35.6334,"lon":139.56741},{"name":"狛江市","province":"東京都","city":"狛江市","address":"狛江市和泉本町1-1-5","lat":35.63494,"lon":139.57837},{"name":"狛江市老人福祉センター","province":"東京都","city":"狛江市","address":"狛江市元和泉2-35-1","lat":35.6333,"lon":139.567777},{"name":"狛江市","province":"東京都","city":"狛江市","address":"狛江市和泉本町1-1-5","lat":35.634913,"lon":139.578734},{"name":"狛江市","province":"東京都","city":"狛江市","address":"狛江市和泉本町1-1-5","lat":35.63495,"lon":139.57837},{"name":"狛江市老人福祉センター","province":"東京都","city":"狛江市","address":"狛江市元和泉2-35-1","lat":35.6334,"lon":139.56741},{"name":"狛江市","province":"東京都","city":"狛江市","address":"狛江市和泉本町1-1-5","lat":35.63494,"lon":139.57837},{"name":"狛江市老人福祉センター","province":"東京都","city":"狛江市","address":"狛江市元和泉2-35-1","lat":35.6333,"lon":139.567777},{"name":"狛江市","province":"東京都","city":"狛江市","address":"狛江市和泉本町1-1-5","lat":35.634913,"lon":139.578734},{"name":"狛江市","province":"東京都","city":"狛江市","address":"狛江市和泉本町1-1-5","lat":35.63495,"lon":139.57837},{"name":"狛江市老人福祉センター","province":"東京都","city":"狛江市","address":"狛江市元和泉2-35-1","lat":35.6334,"lon":139.56741},{"name":"狛江市","province":"東京都","city":"狛江市","address":"狛江市和泉本町1-1-5","lat":35.63494,"lon":139.57837},{"name":"狛江市老人福祉センター","province":"東京都","city":"狛江市","address":"狛江市元和泉2-35-1","lat":35.6333,"lon":139.567777},{"name":"狛江市","province":"東京都","city":"狛江市","address":"狛江市和泉本町1-1-5","lat":35.634913,"lon":139.578734},{"name":"狛江市","province":"東京都","city":"狛江市","address":"狛江市和泉本町1-1-5","lat":35.63495,"lon":139.57837},{"name":"狛江市老人福祉センター","province":"東京都","city":"狛江市","address":"狛江市元和泉2-35-1","lat":35.6334,"lon":139.56741},{"name":"狛江市","province":"東京都","city":"狛江市","address":"狛江市和泉本町1-1-5","lat":35.63494,"lon":139.57837},{"name":"狛江市老人福祉センター","province":"東京都","city":"狛江市","address":"狛江市元和泉2-35-1","lat":35.6333,"lon":139.567777},{"name":"狛江市","province":"東京都","city":"狛江市","address":"狛江市和泉本町1-1-5","lat":35.634913,"lon":139.578734},{"name":"狛江市","province":"東京都","city":"狛江市","address":"狛江市和泉本町1-1-5","lat":35.63495,"lon":139.57837},{"name":"狛江市老人福祉センター","province":"東京都","city":"狛江市","address":"狛江市元和泉2-35-1","lat":35.6334,"lon":139.56741},{"name":"狛江市","province":"東京都","city":"狛江市","address":"狛江市和泉本町1-1-5","lat":35.63494,"lon":139.57837},{"name":"狛江市老人福祉センター","province":"東京都","city":"狛江市","address":"狛江市元和泉2-35-1","lat":35.6333,"lon":139.567777},{"name":"狛江市","province":"東京都","city":"狛江市","address":"狛江市和泉本町1-1-5","lat":35.634913,"lon":139.578734},{"name":"狛江市","province":"東京都","city":"狛江市","address":"狛江市和泉本町1-1-5","lat":35.63495,"lon":139.57837},{"name":"狛江市老人福祉センター","province":"東京都","city":"狛江市","address":"狛江市元和泉2-35-1","lat":35.6334,"lon":139.56741},{"name":"狛江市","province":"東京都","city":"狛江市","address":"狛江市和泉本町1-1-5","lat":35.63494,"lon":139.57837},{"name":"狛江市老人福祉センター","province":"東京都","city":"狛江市","address":"狛江市元和泉2-35-1","lat":35.6333,"lon":139.567777},{"name":"狛江市","province":"東京都","city":"狛江市","address":"狛江市和泉本町1-1-5","lat":35.634913,"lon":139.578734},{"name":"狛江市","province":"東京都","city":"狛江市","address":"狛江市和泉本町1-1-5","lat":35.63495,"lon":139.57837},{"name":"狛江市老人福祉センター","province":"東京都","city":"狛江市","address":"狛江市元和泉2-35-1","lat":35.6334,"lon":139.56741},{"name":"狛江市","province":"東京都","city":"狛江市","address":"狛江市和泉本町1-1-5","lat":35.63494,"lon":139.57837},{"name":"狛江市老人福祉センター","province":"東京都","city":"狛江市","address":"狛江市元和泉2-35-1","lat":35.6333,"lon":139.567777},{"name":"狛江市","province":"東京都","city":"狛江市","address":"狛江市和泉本町1-1-5","lat":35.634913,"lon":139.578734},{"name":"狛江市","province":"東京都","city":"狛江市","address":"狛江市和泉本町1-1-5","lat":35.63495,"lon":139.57837},{"name":"狛江市老人福祉センター","province":"東京都","city":"狛江市","address":"狛江市元和泉2-35-1","lat":35.6334,"lon":139.56741},{"name":"狛江市","province":"東京都","city":"狛江市","address":"狛江市和泉本町1-1-5","lat":35.63494,"lon":139.57837},{"name":"狛江市老人福祉センター","province":"東京都","city":"狛江市","address":"狛江市元和泉2-35-1","lat":35.6333,"lon":139.567777},{"name":"狛江市","province":"東京都","city":"狛江市","address":"狛江市和泉本町1-1-5","lat":35.634913,"lon":139.578734},{"name":"狛江市","province":"東京都","city":"狛江市","address":"狛江市和泉本町1-1-5","lat":35.63495,"lon":139.57837},{"name":"狛江市老人福祉センター","province":"東京都","city":"狛江市","address":"狛江市元和泉2-35-1","lat":35.6334,"lon":139.56741},{"name":"狛江市","province":"東京都","city":"狛江市","address":"狛江市和泉本町1-1-5","lat":35.63494,"lon":139.57837},{"name":"狛江市老人福祉センター","province":"東京都","city":"狛江市","address":"狛江市元和泉2-35-1","lat":35.6333,"lon":139.567777},{"name":"狛江市","province":"東京都","city":"狛江市","address":"狛江市和泉本町1-1-5","lat":35.634913,"lon":139.578734},{"name":"狛江市","province":"東京都","city":"狛江市","address":"狛江市和泉本町1-1-5","lat":35.63495,"lon":139.57837},{"name":"狛江市老人福祉センター","province":"東京都","city":"狛江市","address":"狛江市元和泉2-35-1","lat":35.6334,"lon":139.56741},{"name":"狛江市","province":"東京都","city":"狛江市","address":"狛江市和泉本町1-1-5","lat":35.63494,"lon":139.57837},{"name":"狛江市老人福祉センター","province":"東京都","city":"狛江市","address":"狛江市元和泉2-35-1","lat":35.6333,"lon":139.567777},{"name":"狛江市","province":"東京都","city":"狛江市","address":"狛江市和泉本町1-1-5","lat":35.634913,"lon":139.578734},{"name":"狛江市","province":"東京都","city":"狛江市","address":"狛江市和泉本町1-1-5","lat":35.63495,"lon":139.57837},{"name":"狛江市老人福祉センター","province":"東京都","city":"狛江市","address":"狛江市元和泉2-35-1","lat":35.6334,"lon":139.56741},{"name":"狛江市","province":"東京都","city":"狛江市","address":"狛江市和泉本町1-1-5","lat":35.63494,"lon":139.57837},{"name":"狛江市老人福祉センター","province":"東京都","city":"狛江市","address":"狛江市元和泉2-35-1","lat":35.6333,"lon":139.567777},{"name":"狛江市","province":"東京都","city":"狛江市","address":"狛江市和泉本町1-1-5","lat":35.634913,"lon":139.578734},{"name":"狛江市","province":"東京都","city":"狛江市","address":"狛江市和泉本町1-1-5","lat":35.63495,"lon":139.57837},{"name":"狛江市老人福祉センター","province":"東京都","city":"狛江市","address":"狛江市元和泉2-35-1","lat":35.6334,"lon":139.56741},{"name":"狛江市","province":"東京都","city":"狛江市","address":"狛江市和泉本町1-1-5","lat":35.63494,"lon":139.57837},{"name":"狛江市老人福祉センター","province":"東京都","city":"狛江市","address":"狛江市元和泉2-35-1","lat":35.6333,"lon":139.567777},{"name":"狛江市","province":"東京都","city":"狛江市","address":"狛江市和泉本町1-1-5","lat":35.634913,"lon":139.578734},{"name":"狛江市","province":"東京都","city":"狛江市","address":"狛江市和泉本町1-1-5","lat":35.63495,"lon":139.57837},{"name":"狛江市老人福祉センター","province":"東京都","city":"狛江市","address":"狛江市元和泉2-35-1","lat":35.6334,"lon":139.56741},{"name":"狛江市","province":"東京都","city":"狛江市","address":"狛江市和泉本町1-1-5","lat":35.63494,"lon":139.57837},{"name":"狛江市老人福祉センター","province":"東京都","city":"狛江市","address":"狛江市元和泉2-35-1","lat":35.6333,"lon":139.567777},{"name":"狛江市","province":"東京都","city":"狛江市","address":"狛江市和泉本町1-1-5","lat":35.634913,"lon":139.578734},{"name":"狛江市","province":"東京都","city":"狛江市","address":"狛江市和泉本町1-1-5","lat":35.63495,"lon":139.57837},{"name":"狛江市老人福祉センター","province":"東京都","city":"狛江市","address":"狛江市元和泉2-35-1","lat":35.6334,"lon":139.56741},{"name":"狛江市","province":"東京都","city":"狛江市","address":"狛江市和泉本町1-1-5","lat":35.63494,"lon":139.57837},{"name":"狛江市老人福祉センター","province":"東京都","city":"狛江市","address":"狛江市元和泉2-35-1","lat":35.6333,"lon":139.567777},{"name":"狛江市","province":"東京都","city":"狛江市","address":"狛江市和泉本町1-1-5","lat":35.634913,"lon":139.578734},{"name":"狛江市","province":"東京都","city":"狛江市","address":"狛江市和泉本町1-1-5","lat":35.63495,"lon":139.57837},{"name":"狛江市老人福祉センター","province":"東京都","city":"狛江市","address":"狛江市元和泉2-35-1","lat":35.6334,"lon":139.56741},{"name":"狛江市","province":"東京都","city":"狛江市","address":"狛江市和泉本町1-1-5","lat":35.63494,"lon":139.57837},{"name":"狛江市老人福祉センター","province":"東京都","city":"狛江市","address":"狛江市元和泉2-35-1","lat":35.6333,"lon":139.567777},{"name":"狛江市","province":"東京都","city":"狛江市","address":"狛江市和泉本町1-1-5","lat":35.634913,"lon":139.578734},{"name":"狛江市","province":"東京都","city":"狛江市","address":"狛江市和泉本町1-1-5","lat":35.63495,"lon":139.57837},{"name":"狛江市老人福祉センター","province":"東京都","city":"狛江市","address":"狛江市元和泉2-35-1","lat":35.6334,"lon":139.56741},{"name":"狛江市","province":"東京都","city":"狛江市","address":"狛江市和泉本町1-1-5","lat":35.63494,"lon":139.57837},{"name":"狛江市老人福祉センター","province":"東京都","city":"狛江市","address":"狛江市元和泉2-35-1","lat":35.6333,"lon":139.567777},{"name":"狛江市","province":"東京都","city":"狛江市","address":"狛江市和泉本町1-1-5","lat":35.634913,"lon":139.578734},{"name":"狛江市","province":"東京都","city":"狛江市","address":"狛江市和泉本町1-1-5","lat":35.63495,"lon":139.57837},{"name":"狛江市老人福祉センター","province":"東京都","city":"狛江市","address":"狛江市元和泉2-35-1","lat":35.6334,"lon":139.56741},{"name":"狛江市","province":"東京都","city":"狛江市","address":"狛江市和泉本町1-1-5","lat":35.63494,"lon":139.57837},{"name":"狛江市老人福祉センター","province":"東京都","city":"狛江市","address":"狛江市元和泉2-35-1","lat":35.6333,"lon":139.567777},{"name":"狛江市","province":"東京都","city":"狛江市","address":"狛江市和泉本町1-1-5","lat":35.634913,"lon":139.578734},{"name":"狛江市","province":"東京都","city":"狛江市","address":"狛江市和泉本町1-1-5","lat":35.63495,"lon":139.57837},{"name":"狛江市老人福祉センター","province":"東京都","city":"狛江市","address":"狛江市元和泉2-35-1","lat":35.6334,"lon":139.56741},{"name":"狛江市","province":"東京都","city":"狛江市","address":"狛江市和泉本町1-1-5","lat":35.63494,"lon":139.57837},{"name":"狛江市老人福祉センター","province":"東京都","city":"狛江市","address":"狛江市元和泉2-35-1","lat":35.6333,"lon":139.567777},{"name":"狛江市","province":"東京都","city":"狛江市","address":"狛江市和泉本町1-1-5","lat":35.634913,"lon":139.578734},{"name":"狛江市","province":"東京都","city":"狛江市","address":"狛江市和泉本町1-1-5","lat":35.63495,"lon":139.57837},{"name":"狛江市老人福祉センター","province":"東京都","city":"狛江市","address":"狛江市元和泉2-35-1","lat":35.6334,"lon":139.56741},{"name":"狛江市","province":"東京都","city":"狛江市","address":"狛江市和泉本町1-1-5","lat":35.63494,"lon":139.57837},{"name":"狛江市老人福祉センター","province":"東京都","city":"狛江市","address":"狛江市元和泉2-35-1","lat":35.6333,"lon":139.567777},{"name":"狛江市","province":"東京都","city":"狛江市","address":"狛江市和泉本町1-1-5","lat":35.634913,"lon":139.578734},{"name":"狛江市","province":"東京都","city":"狛江市","address":"狛江市和泉本町1-1-5","lat":35.63495,"lon":139.57837},{"name":"狛江市老人福祉センター","province":"東京都","city":"狛江市","address":"狛江市元和泉2-35-1","lat":35.6334,"lon":139.56741},{"name":"狛江市","province":"東京都","city":"狛江市","address":"狛江市和泉本町1-1-5","lat":35.63494,"lon":139.57837},{"name":"狛江市老人福祉センター","province":"東京都","city":"狛江市","address":"狛江市元和泉2-35-1","lat":35.6333,"lon":139.567777},{"name":"狛江市","province":"東京都","city":"狛江市","address":"狛江市和泉本町1-1-5","lat":35.634913,"lon":139.578734},{"name":"狛江市","province":"東京都","city":"狛江市","address":"狛江市和泉本町1-1-5","lat":35.63495,"lon":139.57837},{"name":"狛江市老人福祉センター","province":"東京都","city":"狛江市","address":"狛江市元和泉2-35-1","lat":35.6334,"lon":139.56741},{"name":"狛江市","province":"東京都","city":"狛江市","address":"狛江市和泉本町1-1-5","lat":35.63494,"lon":139.57837},{"name":"狛江市老人福祉センター","province":"東京都","city":"狛江市","address":"狛江市元和泉2-35-1","lat":35.6333,"lon":139.567777},{"name":"狛江市","province":"東京都","city":"狛江市","address":"狛江市和泉本町1-1-5","lat":35.634913,"lon":139.578734},{"name":"狛江市","province":"東京都","city":"狛江市","address":"狛江市和泉本町1-1-5","lat":35.63495,"lon":139.57837},{"name":"狛江市老人福祉センター","province":"東京都","city":"狛江市","address":"狛江市元和泉2-35-1","lat":35.6334,"lon":139.56741},{"name":"狛江市","province":"東京都","city":"狛江市","address":"狛江市和泉本町1-1-5","lat":35.63494,"lon":139.57837},{"name":"狛江市老人福祉センター","province":"東京都","city":"狛江市","address":"狛江市元和泉2-35-1","lat":35.6333,"lon":139.567777},{"name":"狛江市","province":"東京都","city":"狛江市","address":"狛江市和泉本町1-1-5","lat":35.634913,"lon":139.578734},{"name":"狛江市","province":"東京都","city":"狛江市","address":"狛江市和泉本町1-1-5","lat":35.63495,"lon":139.57837},{"name":"狛江市老人福祉センター","province":"東京都","city":"狛江市","address":"狛江市元和泉2-35-1","lat":35.6334,"lon":139.56741},{"name":"狛江市","province":"東京都","city":"狛江市","address":"狛江市和泉本町1-1-5","lat":35.63494,"lon":139.57837},{"name":"狛江市老人福祉センター","province":"東京都","city":"狛江市","address":"狛江市元和泉2-35-1","lat":35.6333,"lon":139.567777},{"name":"狛江市","province":"東京都","city":"狛江市","address":"狛江市和泉本町1-1-5","lat":35.634913,"lon":139.578734},{"name":"狛江市","province":"東京都","city":"狛江市","address":"狛江市和泉本町1-1-5","lat":35.63495,"lon":139.57837},{"name":"狛江市老人福祉センター","province":"東京都","city":"狛江市","address":"狛江市元和泉2-35-1","lat":35.6334,"lon":139.56741},{"name":"狛江市","province":"東京都","city":"狛江市","address":"狛江市和泉本町1-1-5","lat":35.63494,"lon":139.57837},{"name":"狛江市老人福祉センター","province":"東京都","city":"狛江市","address":"狛江市元和泉2-35-1","lat":35.6333,"lon":139.567777},{"name":"狛江市","province":"東京都","city":"狛江市","address":"狛江市和泉本町1-1-5","lat":35.634913,"lon":139.578734},{"name":"狛江市","province":"東京都","city":"狛江市","address":"狛江市和泉本町1-1-5","lat":35.63495,"lon":139.57837}]}