{"keyword":"戸数","data":[{"name":"狛江市社会福祉協議会","province":"東京都","city":"狛江市","address":"狛江市元和泉2-35-1あいとぴあセンター内","lat":35.6333,"lon":139.567777},{"name":"狛江市","province":"東京都","city":"狛江市","address":"狛江市和泉本町1-1-5","lat":35.6349142,"lon":139.5787353},{"name":"株式会社沖田ダイイチ","province":"東京都","city":"狛江市","address":"東京都狛江市東和泉1丁目10-3","lat":35.63258862,"lon":139.58019263},{"name":"株式会社有山葬儀社","province":"東京都","city":"狛江市","address":"東京都狛江市岩戸北3丁目1-10","lat":35.63426333,"lon":139.58114792},{"name":"有限会社まこと式典東京支店","province":"東京都","city":"狛江市","address":"東京都狛江市東和泉1丁目12-6","lat":35.63261082,"lon":139.57945659},{"name":"いしかわ葬儀社","province":"東京都","city":"狛江市","address":"東京都狛江市東和泉3丁目5-8","lat":35.6268508,"lon":139.57448556},{"name":"狛江市社会福祉協議会","province":"東京都","city":"狛江市","address":"狛江市元和泉2-35-1あいとぴあセンター内","lat":35.6334,"lon":139.56741},{"name":"福祉保健部福祉相談課","province":"東京都","city":"狛江市","address":"狛江市和泉本町1-1-5","lat":35.634491,"lon":139.577927},{"name":"あいとぴあ地域包括支援センター","province":"東京都","city":"狛江市","address":"狛江市元和泉2-35-1","lat":35.6334,"lon":139.567413},{"name":"地域包括支援センターこまえ正吉苑","province":"東京都","city":"狛江市","address":"狛江市西野川2-27-23","lat":35.645802,"lon":139.573868},{"name":"地域包括支援センターこまえ苑","province":"東京都","city":"狛江市","address":"狛江市岩戸南4-17-17","lat":35.626041,"lon":139.592285},{"name":"和泉本町浄水所","province":"東京都","city":"狛江市","address":"東京都狛江市和泉本町4丁目6-1","lat":35.64293402,"lon":139.57119546},{"name":"狛江市立多摩川緑地公園グラウンド","province":"東京都","city":"狛江市","address":"東京都狛江市猪方4丁目","lat":35.62390138,"lon":139.57723281},{"name":"防衛省共済組合狛江スポーツセンター","province":"東京都","city":"狛江市","address":"東京都狛江市元和泉2丁目30","lat":35.63228871,"lon":139.5684829},{"name":"狛江市選挙管理委員会","province":"東京都","city":"狛江市","address":"狛江市和泉本町1-1-5","lat":35.634901,"lon":139.578772},{"name":"狛江高等学校","province":"東京都","city":"狛江市","address":"東京都狛江市元和泉3丁目9-1","lat":35.62743131,"lon":139.57056099},{"name":"狛江市社会福祉協議会","province":"東京都","city":"狛江市","address":"狛江市元和泉2-35-1あいとぴあセンター内","lat":35.6333,"lon":139.567777},{"name":"狛江市社会福祉協議会","province":"東京都","city":"狛江市","address":"狛江市元和泉2-35-1あいとぴあセンター内","lat":35.6334,"lon":139.56741},{"name":"福祉保健部福祉相談課","province":"東京都","city":"狛江市","address":"狛江市和泉本町1-1-5","lat":35.634491,"lon":139.577927},{"name":"あいとぴあ地域包括支援センター","province":"東京都","city":"狛江市","address":"狛江市元和泉2-35-1","lat":35.6334,"lon":139.567413},{"name":"地域包括支援センターこまえ正吉苑","province":"東京都","city":"狛江市","address":"狛江市西野川2-27-23","lat":35.645802,"lon":139.573868},{"name":"地域包括支援センターこまえ苑","province":"東京都","city":"狛江市","address":"狛江市岩戸南4-17-17","lat":35.626041,"lon":139.592285},{"name":"和泉本町浄水所","province":"東京都","city":"狛江市","address":"東京都狛江市和泉本町4丁目6-1","lat":35.64293402,"lon":139.57119546},{"name":"狛江市立多摩川緑地公園グラウンド","province":"東京都","city":"狛江市","address":"東京都狛江市猪方4丁目","lat":35.62390138,"lon":139.57723281},{"name":"防衛省共済組合狛江スポーツセンター","province":"東京都","city":"狛江市","address":"東京都狛江市元和泉2丁目30","lat":35.63228871,"lon":139.5684829},{"name":"狛江高等学校","province":"東京都","city":"狛江市","address":"東京都狛江市元和泉3丁目9-1","lat":35.62743131,"lon":139.57056099},{"name":"福祉保健部福祉相談課","province":"東京都","city":"狛江市","address":"狛江市和泉本町1-1-5","lat":35.634491,"lon":139.577927},{"name":"あいとぴあ地域包括支援センター","province":"東京都","city":"狛江市","address":"狛江市元和泉2-35-1","lat":35.6334,"lon":139.567413},{"name":"地域包括支援センターこまえ正吉苑","province":"東京都","city":"狛江市","address":"狛江市西野川2-27-23","lat":35.645802,"lon":139.573868},{"name":"地域包括支援センターこまえ苑","province":"東京都","city":"狛江市","address":"狛江市岩戸南4-17-17","lat":35.626041,"lon":139.592285},{"name":"狛江高等学校","province":"東京都","city":"狛江市","address":"東京都狛江市元和泉3丁目9-1","lat":35.62743131,"lon":139.57056099},{"name":"福祉保健部福祉相談課","province":"東京都","city":"狛江市","address":"狛江市和泉本町1-1-5","lat":35.634491,"lon":139.577927},{"name":"あいとぴあ地域包括支援センター","province":"東京都","city":"狛江市","address":"狛江市元和泉2-35-1","lat":35.6334,"lon":139.567413},{"name":"地域包括支援センターこまえ正吉苑","province":"東京都","city":"狛江市","address":"狛江市西野川2-27-23","lat":35.645802,"lon":139.573868},{"name":"地域包括支援センターこまえ苑","province":"東京都","city":"狛江市","address":"狛江市岩戸南4-17-17","lat":35.626041,"lon":139.592285},{"name":"狛江高等学校","province":"東京都","city":"狛江市","address":"東京都狛江市元和泉3丁目9-1","lat":35.62743131,"lon":139.57056099},{"name":"福祉保健部福祉相談課","province":"東京都","city":"狛江市","address":"狛江市和泉本町1-1-5","lat":35.634491,"lon":139.577927},{"name":"あいとぴあ地域包括支援センター","province":"東京都","city":"狛江市","address":"狛江市元和泉2-35-1","lat":35.6334,"lon":139.567413},{"name":"地域包括支援センターこまえ正吉苑","province":"東京都","city":"狛江市","address":"狛江市西野川2-27-23","lat":35.645802,"lon":139.573868},{"name":"地域包括支援センターこまえ苑","province":"東京都","city":"狛江市","address":"狛江市岩戸南4-17-17","lat":35.626041,"lon":139.592285},{"name":"福祉保健部福祉相談課","province":"東京都","city":"狛江市","address":"狛江市和泉本町1-1-5","lat":35.634491,"lon":139.577927},{"name":"あいとぴあ地域包括支援センター","province":"東京都","city":"狛江市","address":"狛江市元和泉2-35-1","lat":35.6334,"lon":139.567413},{"name":"地域包括支援センターこまえ正吉苑","province":"東京都","city":"狛江市","address":"狛江市西野川2-27-23","lat":35.645802,"lon":139.573868},{"name":"地域包括支援センターこまえ苑","province":"東京都","city":"狛江市","address":"狛江市岩戸南4-17-17","lat":35.626041,"lon":139.592285},{"name":"福祉保健部福祉相談課","province":"東京都","city":"狛江市","address":"狛江市和泉本町1-1-5","lat":35.634491,"lon":139.577927},{"name":"あいとぴあ地域包括支援センター","province":"東京都","city":"狛江市","address":"狛江市元和泉2-35-1","lat":35.6334,"lon":139.567413},{"name":"地域包括支援センターこまえ正吉苑","province":"東京都","city":"狛江市","address":"狛江市西野川2-27-23","lat":35.645802,"lon":139.573868},{"name":"地域包括支援センターこまえ苑","province":"東京都","city":"狛江市","address":"狛江市岩戸南4-17-17","lat":35.626041,"lon":139.592285},{"name":"福祉保健部福祉相談課","province":"東京都","city":"狛江市","address":"狛江市和泉本町1-1-5","lat":35.634491,"lon":139.577927},{"name":"あいとぴあ地域包括支援センター","province":"東京都","city":"狛江市","address":"狛江市元和泉2-35-1","lat":35.6334,"lon":139.567413},{"name":"地域包括支援センターこまえ正吉苑","province":"東京都","city":"狛江市","address":"狛江市西野川2-27-23","lat":35.645802,"lon":139.573868},{"name":"地域包括支援センターこまえ苑","province":"東京都","city":"狛江市","address":"狛江市岩戸南4-17-17","lat":35.626041,"lon":139.592285},{"name":"福祉保健部福祉相談課","province":"東京都","city":"狛江市","address":"狛江市和泉本町1-1-5","lat":35.634491,"lon":139.577927},{"name":"あいとぴあ地域包括支援センター","province":"東京都","city":"狛江市","address":"狛江市元和泉2-35-1","lat":35.6334,"lon":139.567413},{"name":"地域包括支援センターこまえ正吉苑","province":"東京都","city":"狛江市","address":"狛江市西野川2-27-23","lat":35.645802,"lon":139.573868},{"name":"地域包括支援センターこまえ苑","province":"東京都","city":"狛江市","address":"狛江市岩戸南4-17-17","lat":35.626041,"lon":139.592285},{"name":"福祉保健部福祉相談課","province":"東京都","city":"狛江市","address":"狛江市和泉本町1-1-5","lat":35.634491,"lon":139.577927},{"name":"あいとぴあ地域包括支援センター","province":"東京都","city":"狛江市","address":"狛江市元和泉2-35-1","lat":35.6334,"lon":139.567413},{"name":"地域包括支援センターこまえ正吉苑","province":"東京都","city":"狛江市","address":"狛江市西野川2-27-23","lat":35.645802,"lon":139.573868},{"name":"地域包括支援センターこまえ苑","province":"東京都","city":"狛江市","address":"狛江市岩戸南4-17-17","lat":35.626041,"lon":139.592285},{"name":"福祉保健部福祉相談課","province":"東京都","city":"狛江市","address":"狛江市和泉本町1-1-5","lat":35.634491,"lon":139.577927},{"name":"あいとぴあ地域包括支援センター","province":"東京都","city":"狛江市","address":"狛江市元和泉2-35-1","lat":35.6334,"lon":139.567413},{"name":"地域包括支援センターこまえ正吉苑","province":"東京都","city":"狛江市","address":"狛江市西野川2-27-23","lat":35.645802,"lon":139.573868},{"name":"地域包括支援センターこまえ苑","province":"東京都","city":"狛江市","address":"狛江市岩戸南4-17-17","lat":35.626041,"lon":139.592285},{"name":"福祉保健部福祉相談課","province":"東京都","city":"狛江市","address":"狛江市和泉本町1-1-5","lat":35.634491,"lon":139.577927},{"name":"あいとぴあ地域包括支援センター","province":"東京都","city":"狛江市","address":"狛江市元和泉2-35-1","lat":35.6334,"lon":139.567413},{"name":"地域包括支援センターこまえ正吉苑","province":"東京都","city":"狛江市","address":"狛江市西野川2-27-23","lat":35.645802,"lon":139.573868},{"name":"地域包括支援センターこまえ苑","province":"東京都","city":"狛江市","address":"狛江市岩戸南4-17-17","lat":35.626041,"lon":139.592285},{"name":"福祉保健部福祉相談課","province":"東京都","city":"狛江市","address":"狛江市和泉本町1-1-5","lat":35.634491,"lon":139.577927},{"name":"あいとぴあ地域包括支援センター","province":"東京都","city":"狛江市","address":"狛江市元和泉2-35-1","lat":35.6334,"lon":139.567413},{"name":"地域包括支援センターこまえ正吉苑","province":"東京都","city":"狛江市","address":"狛江市西野川2-27-23","lat":35.645802,"lon":139.573868},{"name":"地域包括支援センターこまえ苑","province":"東京都","city":"狛江市","address":"狛江市岩戸南4-17-17","lat":35.626041,"lon":139.592285},{"name":"福祉保健部福祉相談課","province":"東京都","city":"狛江市","address":"狛江市和泉本町1-1-5","lat":35.634491,"lon":139.577927},{"name":"あいとぴあ地域包括支援センター","province":"東京都","city":"狛江市","address":"狛江市元和泉2-35-1","lat":35.6334,"lon":139.567413},{"name":"地域包括支援センターこまえ正吉苑","province":"東京都","city":"狛江市","address":"狛江市西野川2-27-23","lat":35.645802,"lon":139.573868},{"name":"地域包括支援センターこまえ苑","province":"東京都","city":"狛江市","address":"狛江市岩戸南4-17-17","lat":35.626041,"lon":139.592285},{"name":"福祉保健部福祉相談課","province":"東京都","city":"狛江市","address":"狛江市和泉本町1-1-5","lat":35.634491,"lon":139.577927},{"name":"あいとぴあ地域包括支援センター","province":"東京都","city":"狛江市","address":"狛江市元和泉2-35-1","lat":35.6334,"lon":139.567413},{"name":"地域包括支援センターこまえ正吉苑","province":"東京都","city":"狛江市","address":"狛江市西野川2-27-23","lat":35.645802,"lon":139.573868},{"name":"地域包括支援センターこまえ苑","province":"東京都","city":"狛江市","address":"狛江市岩戸南4-17-17","lat":35.626041,"lon":139.592285},{"name":"福祉保健部福祉相談課","province":"東京都","city":"狛江市","address":"狛江市和泉本町1-1-5","lat":35.634491,"lon":139.577927},{"name":"あいとぴあ地域包括支援センター","province":"東京都","city":"狛江市","address":"狛江市元和泉2-35-1","lat":35.6334,"lon":139.567413},{"name":"地域包括支援センターこまえ正吉苑","province":"東京都","city":"狛江市","address":"狛江市西野川2-27-23","lat":35.645802,"lon":139.573868},{"name":"地域包括支援センターこまえ苑","province":"東京都","city":"狛江市","address":"狛江市岩戸南4-17-17","lat":35.626041,"lon":139.592285},{"name":"福祉保健部福祉相談課","province":"東京都","city":"狛江市","address":"狛江市和泉本町1-1-5","lat":35.634491,"lon":139.577927},{"name":"あいとぴあ地域包括支援センター","province":"東京都","city":"狛江市","address":"狛江市元和泉2-35-1","lat":35.6334,"lon":139.567413},{"name":"地域包括支援センターこまえ正吉苑","province":"東京都","city":"狛江市","address":"狛江市西野川2-27-23","lat":35.645802,"lon":139.573868},{"name":"地域包括支援センターこまえ苑","province":"東京都","city":"狛江市","address":"狛江市岩戸南4-17-17","lat":35.626041,"lon":139.592285},{"name":"福祉保健部福祉相談課","province":"東京都","city":"狛江市","address":"狛江市和泉本町1-1-5","lat":35.634491,"lon":139.577927},{"name":"あいとぴあ地域包括支援センター","province":"東京都","city":"狛江市","address":"狛江市元和泉2-35-1","lat":35.6334,"lon":139.567413},{"name":"地域包括支援センターこまえ正吉苑","province":"東京都","city":"狛江市","address":"狛江市西野川2-27-23","lat":35.645802,"lon":139.573868},{"name":"地域包括支援センターこまえ苑","province":"東京都","city":"狛江市","address":"狛江市岩戸南4-17-17","lat":35.626041,"lon":139.592285},{"name":"福祉保健部福祉相談課","province":"東京都","city":"狛江市","address":"狛江市和泉本町1-1-5","lat":35.634491,"lon":139.577927},{"name":"あいとぴあ地域包括支援センター","province":"東京都","city":"狛江市","address":"狛江市元和泉2-35-1","lat":35.6334,"lon":139.567413},{"name":"地域包括支援センターこまえ正吉苑","province":"東京都","city":"狛江市","address":"狛江市西野川2-27-23","lat":35.645802,"lon":139.573868},{"name":"地域包括支援センターこまえ苑","province":"東京都","city":"狛江市","address":"狛江市岩戸南4-17-17","lat":35.626041,"lon":139.592285},{"name":"福祉保健部福祉相談課","province":"東京都","city":"狛江市","address":"狛江市和泉本町1-1-5","lat":35.634491,"lon":139.577927},{"name":"あいとぴあ地域包括支援センター","province":"東京都","city":"狛江市","address":"狛江市元和泉2-35-1","lat":35.6334,"lon":139.567413},{"name":"地域包括支援センターこまえ正吉苑","province":"東京都","city":"狛江市","address":"狛江市西野川2-27-23","lat":35.645802,"lon":139.573868},{"name":"地域包括支援センターこまえ苑","province":"東京都","city":"狛江市","address":"狛江市岩戸南4-17-17","lat":35.626041,"lon":139.592285},{"name":"福祉保健部福祉相談課","province":"東京都","city":"狛江市","address":"狛江市和泉本町1-1-5","lat":35.634491,"lon":139.577927},{"name":"あいとぴあ地域包括支援センター","province":"東京都","city":"狛江市","address":"狛江市元和泉2-35-1","lat":35.6334,"lon":139.567413},{"name":"地域包括支援センターこまえ正吉苑","province":"東京都","city":"狛江市","address":"狛江市西野川2-27-23","lat":35.645802,"lon":139.573868},{"name":"地域包括支援センターこまえ苑","province":"東京都","city":"狛江市","address":"狛江市岩戸南4-17-17","lat":35.626041,"lon":139.592285}]}