{"keyword":"文化","data":[{"name":"泉龍寺弁財天池","province":"東京都","city":"狛江市","address":"東京都狛江市元和泉1-8","lat":35.632292,"lon":139.576168},{"name":"伊豆美神社鳥居","province":"東京都","city":"狛江市","address":"東京都狛江市中伊豆美3-21-8","lat":35.634736,"lon":139.569012},{"name":"木造石谷貞清坐像","province":"東京都","city":"狛江市","address":"東京都狛江市元和泉1-6-1","lat":35.63314,"lon":139.576404},{"name":"石川丈山撰文「宗淳居士晩詞并序」の扁額","province":"東京都","city":"狛江市","address":"東京都狛江市元和泉1-6-1","lat":35.63314,"lon":139.576404},{"name":"玉泉寺のボダイジュ","province":"東京都","city":"狛江市","address":"東京都狛江市東和泉3-10-23","lat":35.626988,"lon":139.573948},{"name":"慶長十五年（1610）の雲版","province":"東京都","city":"狛江市","address":"東京都狛江市元和泉1-6-1","lat":35.63314,"lon":139.576404},{"name":"絹本著色石谷貞清画像","province":"東京都","city":"狛江市","address":"東京都狛江市元和泉1-6-1","lat":35.63314,"lon":139.576404},{"name":"石井家文書　附　荒井家・大久保家・谷田部家旧蔵文書","province":"東京都","city":"狛江市","address":"東京都狛江市和泉本町1-1-5","lat":35.634967,"lon":139.578738},{"name":"栗山家文書","province":"東京都","city":"狛江市","address":"東京都狛江市和泉本町1-1-5","lat":35.634967,"lon":139.578738},{"name":"土屋塚古墳","province":"東京都","city":"狛江市","address":"東京都狛江市岩戸南1-4","lat":35.63229,"lon":139.585148},{"name":"旧荒井家住宅主屋","province":"東京都","city":"狛江市","address":"東京都狛江市元和泉2-15-5","lat":35.632911,"lon":139.571155},{"name":"土屋塚古墳出土遺物","province":"東京都","city":"狛江市","address":"東京都狛江市和泉本町1-1-5","lat":35.634967,"lon":139.578738},{"name":"弁財天池遺跡１号方形周溝墓出土遺物","province":"東京都","city":"狛江市","address":"東京都狛江市和泉本町1-1-5","lat":35.634967,"lon":139.578738},{"name":"旧?木家長屋門　附　棟札１枚","province":"東京都","city":"狛江市","address":"東京都狛江市元和泉2-15-5","lat":35.632911,"lon":139.571155},{"name":"泉龍寺本堂、開山堂、鐘楼門、山門　附　棟札３枚","province":"東京都","city":"狛江市","address":"東京都狛江市元和泉1-6-1","lat":35.633101,"lon":139.575696},{"name":"猪方小川塚古墳","province":"東京都","city":"狛江市","address":"東京都狛江市猪方3-21","lat":35.625593,"lon":139.577011},{"name":"猪方小川塚古墳出土遺物","province":"東京都","city":"狛江市","address":"東京都狛江市和泉本町1-1-5","lat":35.634967,"lon":139.578738},{"name":"井伊直弼公敬慕碑","province":"東京都","city":"狛江市","address":"東京都狛江市中伊豆美3-21-8","lat":35.634736,"lon":139.569012}]}