{"keyword":"月間","data":[{"name":"こども教室えるぶ","province":"東京都","city":"狛江市","address":"狛江市東野川2-1-10-102.103","lat":35.642234,"lon":139.580042},{"name":"はっぴぃハウス","province":"東京都","city":"狛江市","address":"狛江市和泉本町4-7-27-103","lat":35.643051,"lon":139.568946},{"name":"こどもデイサービスほっぷ","province":"東京都","city":"狛江市","address":"狛江市和泉本町4-2-13SANTESAKAE202","lat":35.641318,"lon":139.569443},{"name":"こどもデイサービス　すてっぷ","province":"東京都","city":"狛江市","address":"狛江市和泉本町4-2-13","lat":35.641318,"lon":139.569443},{"name":"ウイングこまえ","province":"東京都","city":"狛江市","address":"狛江市岩戸北三丁目22番13号","lat":35.632275,"lon":139.583237},{"name":"ゆめぽっと","province":"東京都","city":"狛江市","address":"狛江市中和泉2-10-1","lat":35.638782,"lon":139.572912},{"name":"狛江市子ども家庭支援センター","province":"東京都","city":"狛江市","address":"狛江市岩戸南3-15-1岩戸児童センター2階","lat":35.629103,"lon":139.587948},{"name":"狛江市子ども家庭支援センター","province":"東京都","city":"狛江市","address":"狛江市元和泉2-35-1","lat":35.6334,"lon":139.567413},{"name":"狛江市子ども家庭支援センター","province":"東京都","city":"狛江市","address":"狛江市元和泉1-11-11ひだまりセンター1階","lat":35.63123,"lon":139.57588},{"name":"狛江三差路","province":"東京都","city":"狛江市","address":"東京都狛江市東和泉1丁目5-13","lat":35.63171937,"lon":139.58209254},{"name":"狛江二の橋","province":"東京都","city":"狛江市","address":"東京都狛江市岩戸南2丁目5-5","lat":35.63282486,"lon":139.58888901},{"name":"狛江市役所前","province":"東京都","city":"狛江市","address":"東京都狛江市中和泉1丁目1-1","lat":35.63391331,"lon":139.57796492},{"name":"狛江駅入口","province":"東京都","city":"狛江市","address":"東京都狛江市東和泉1丁目33-2","lat":35.63022516,"lon":139.57860972},{"name":"狛江福祉会館前","province":"東京都","city":"狛江市","address":"東京都狛江市元和泉2丁目35-1","lat":35.6333052,"lon":139.56761624},{"name":"狛江市役所前第二","province":"東京都","city":"狛江市","address":"東京都狛江市和泉本町1丁目1-10","lat":35.6350242,"lon":139.57773147},{"name":"狛江水神東","province":"東京都","city":"狛江市","address":"東京都狛江市元和泉2丁目36","lat":35.63369411,"lon":139.56580536},{"name":"狛江駅北口","province":"東京都","city":"狛江市","address":"東京都狛江市元和泉1丁目3","lat":35.6328524,"lon":139.57728177},{"name":"和泉本町浄水所","province":"東京都","city":"狛江市","address":"東京都狛江市和泉本町4丁目6-1","lat":35.64293402,"lon":139.57119546},{"name":"狛江市立多摩川緑地公園グラウンド","province":"東京都","city":"狛江市","address":"東京都狛江市猪方4丁目","lat":35.62390138,"lon":139.57723281},{"name":"防衛省共済組合狛江スポーツセンター","province":"東京都","city":"狛江市","address":"東京都狛江市元和泉2丁目30","lat":35.63228871,"lon":139.5684829},{"name":"狛江市あいとぴあセンター","province":"東京都","city":"狛江市","address":"東京都狛江市元和泉2丁目35-1","lat":35.6333052,"lon":139.56761624},{"name":"狛江高等学校","province":"東京都","city":"狛江市","address":"東京都狛江市元和泉3丁目9-1","lat":35.62743131,"lon":139.57056099},{"name":"狛江市民総合体育館","province":"東京都","city":"狛江市","address":"東京都狛江市和泉本町3丁目25-1","lat":35.64199804,"lon":139.57305642},{"name":"狛江市本庁舎","province":"東京都","city":"狛江市","address":"狛江市和泉本町1-1-5","lat":35.634914,"lon":139.578735},{"name":"狛江消防署","province":"東京都","city":"狛江市","address":"狛江市和泉本町1-23-10","lat":35.6405,"lon":139.5765},{"name":"※狛江市役所","province":"東京都","city":"狛江市","address":"東京都狛江市和泉本町1丁目1-5","lat":35.63491314,"lon":139.57873418},{"name":"こども教室えるぶ","province":"東京都","city":"狛江市","address":"狛江市東野川2-1-10-102.103","lat":35.642234,"lon":139.580042},{"name":"はっぴぃハウス","province":"東京都","city":"狛江市","address":"狛江市和泉本町4-7-27-103","lat":35.643051,"lon":139.568946},{"name":"こどもデイサービスほっぷ","province":"東京都","city":"狛江市","address":"狛江市和泉本町4-2-13SANTESAKAE202","lat":35.641318,"lon":139.569443},{"name":"こどもデイサービス　すてっぷ","province":"東京都","city":"狛江市","address":"狛江市和泉本町4-2-13","lat":35.641318,"lon":139.569443},{"name":"ウイングこまえ","province":"東京都","city":"狛江市","address":"狛江市岩戸北三丁目22番13号","lat":35.632275,"lon":139.583237},{"name":"ゆめぽっと","province":"東京都","city":"狛江市","address":"狛江市中和泉2-10-1","lat":35.638782,"lon":139.572912},{"name":"狛江市子ども家庭支援センター","province":"東京都","city":"狛江市","address":"狛江市岩戸南3-15-1岩戸児童センター2階","lat":35.629103,"lon":139.587948},{"name":"狛江市子ども家庭支援センター","province":"東京都","city":"狛江市","address":"狛江市元和泉2-35-1","lat":35.6334,"lon":139.567413},{"name":"狛江市子ども家庭支援センター","province":"東京都","city":"狛江市","address":"狛江市元和泉1-11-11ひだまりセンター1階","lat":35.63123,"lon":139.57588},{"name":"狛江三差路","province":"東京都","city":"狛江市","address":"東京都狛江市東和泉1丁目5-13","lat":35.63171937,"lon":139.58209254},{"name":"狛江二の橋","province":"東京都","city":"狛江市","address":"東京都狛江市岩戸南2丁目5-5","lat":35.63282486,"lon":139.58888901},{"name":"狛江市役所前","province":"東京都","city":"狛江市","address":"東京都狛江市中和泉1丁目1-1","lat":35.63391331,"lon":139.57796492},{"name":"狛江駅入口","province":"東京都","city":"狛江市","address":"東京都狛江市東和泉1丁目33-2","lat":35.63022516,"lon":139.57860972},{"name":"狛江福祉会館前","province":"東京都","city":"狛江市","address":"東京都狛江市元和泉2丁目35-1","lat":35.6333052,"lon":139.56761624},{"name":"狛江市役所前第二","province":"東京都","city":"狛江市","address":"東京都狛江市和泉本町1丁目1-10","lat":35.6350242,"lon":139.57773147},{"name":"狛江水神東","province":"東京都","city":"狛江市","address":"東京都狛江市元和泉2丁目36","lat":35.63369411,"lon":139.56580536},{"name":"狛江駅北口","province":"東京都","city":"狛江市","address":"東京都狛江市元和泉1丁目3","lat":35.6328524,"lon":139.57728177},{"name":"和泉本町浄水所","province":"東京都","city":"狛江市","address":"東京都狛江市和泉本町4丁目6-1","lat":35.64293402,"lon":139.57119546},{"name":"狛江市立多摩川緑地公園グラウンド","province":"東京都","city":"狛江市","address":"東京都狛江市猪方4丁目","lat":35.62390138,"lon":139.57723281},{"name":"防衛省共済組合狛江スポーツセンター","province":"東京都","city":"狛江市","address":"東京都狛江市元和泉2丁目30","lat":35.63228871,"lon":139.5684829},{"name":"狛江高等学校","province":"東京都","city":"狛江市","address":"東京都狛江市元和泉3丁目9-1","lat":35.62743131,"lon":139.57056099},{"name":"こども教室えるぶ","province":"東京都","city":"狛江市","address":"狛江市東野川2-1-10-102.103","lat":35.642234,"lon":139.580042},{"name":"はっぴぃハウス","province":"東京都","city":"狛江市","address":"狛江市和泉本町4-7-27-103","lat":35.643051,"lon":139.568946},{"name":"こどもデイサービスほっぷ","province":"東京都","city":"狛江市","address":"狛江市和泉本町4-2-13SANTESAKAE202","lat":35.641318,"lon":139.569443},{"name":"こどもデイサービス　すてっぷ","province":"東京都","city":"狛江市","address":"狛江市和泉本町4-2-13","lat":35.641318,"lon":139.569443},{"name":"ウイングこまえ","province":"東京都","city":"狛江市","address":"狛江市岩戸北三丁目22番13号","lat":35.632275,"lon":139.583237},{"name":"ゆめぽっと","province":"東京都","city":"狛江市","address":"狛江市中和泉2-10-1","lat":35.638782,"lon":139.572912},{"name":"狛江市子ども家庭支援センター","province":"東京都","city":"狛江市","address":"狛江市岩戸南3-15-1岩戸児童センター2階","lat":35.629103,"lon":139.587948},{"name":"狛江市子ども家庭支援センター","province":"東京都","city":"狛江市","address":"狛江市元和泉2-35-1","lat":35.6334,"lon":139.567413},{"name":"狛江市子ども家庭支援センター","province":"東京都","city":"狛江市","address":"狛江市元和泉1-11-11ひだまりセンター1階","lat":35.63123,"lon":139.57588},{"name":"狛江三差路","province":"東京都","city":"狛江市","address":"東京都狛江市東和泉1丁目5-13","lat":35.63171937,"lon":139.58209254},{"name":"狛江二の橋","province":"東京都","city":"狛江市","address":"東京都狛江市岩戸南2丁目5-5","lat":35.63282486,"lon":139.58888901},{"name":"狛江市役所前","province":"東京都","city":"狛江市","address":"東京都狛江市中和泉1丁目1-1","lat":35.63391331,"lon":139.57796492},{"name":"狛江駅入口","province":"東京都","city":"狛江市","address":"東京都狛江市東和泉1丁目33-2","lat":35.63022516,"lon":139.57860972},{"name":"狛江福祉会館前","province":"東京都","city":"狛江市","address":"東京都狛江市元和泉2丁目35-1","lat":35.6333052,"lon":139.56761624},{"name":"狛江市役所前第二","province":"東京都","city":"狛江市","address":"東京都狛江市和泉本町1丁目1-10","lat":35.6350242,"lon":139.57773147},{"name":"狛江水神東","province":"東京都","city":"狛江市","address":"東京都狛江市元和泉2丁目36","lat":35.63369411,"lon":139.56580536},{"name":"狛江駅北口","province":"東京都","city":"狛江市","address":"東京都狛江市元和泉1丁目3","lat":35.6328524,"lon":139.57728177},{"name":"和泉本町浄水所","province":"東京都","city":"狛江市","address":"東京都狛江市和泉本町4丁目6-1","lat":35.64293402,"lon":139.57119546},{"name":"狛江市立多摩川緑地公園グラウンド","province":"東京都","city":"狛江市","address":"東京都狛江市猪方4丁目","lat":35.62390138,"lon":139.57723281},{"name":"防衛省共済組合狛江スポーツセンター","province":"東京都","city":"狛江市","address":"東京都狛江市元和泉2丁目30","lat":35.63228871,"lon":139.5684829},{"name":"狛江高等学校","province":"東京都","city":"狛江市","address":"東京都狛江市元和泉3丁目9-1","lat":35.62743131,"lon":139.57056099},{"name":"こども教室えるぶ","province":"東京都","city":"狛江市","address":"狛江市東野川2-1-10-102.103","lat":35.642234,"lon":139.580042},{"name":"はっぴぃハウス","province":"東京都","city":"狛江市","address":"狛江市和泉本町4-7-27-103","lat":35.643051,"lon":139.568946},{"name":"こどもデイサービスほっぷ","province":"東京都","city":"狛江市","address":"狛江市和泉本町4-2-13SANTESAKAE202","lat":35.641318,"lon":139.569443},{"name":"こどもデイサービス　すてっぷ","province":"東京都","city":"狛江市","address":"狛江市和泉本町4-2-13","lat":35.641318,"lon":139.569443},{"name":"ウイングこまえ","province":"東京都","city":"狛江市","address":"狛江市岩戸北三丁目22番13号","lat":35.632275,"lon":139.583237},{"name":"ゆめぽっと","province":"東京都","city":"狛江市","address":"狛江市中和泉2-10-1","lat":35.638782,"lon":139.572912},{"name":"狛江市子ども家庭支援センター","province":"東京都","city":"狛江市","address":"狛江市岩戸南3-15-1岩戸児童センター2階","lat":35.629103,"lon":139.587948},{"name":"狛江市子ども家庭支援センター","province":"東京都","city":"狛江市","address":"狛江市元和泉2-35-1","lat":35.6334,"lon":139.567413},{"name":"狛江市子ども家庭支援センター","province":"東京都","city":"狛江市","address":"狛江市元和泉1-11-11ひだまりセンター1階","lat":35.63123,"lon":139.57588},{"name":"狛江市立多摩川緑地公園グラウンド","province":"東京都","city":"狛江市","address":"東京都狛江市猪方4丁目","lat":35.62390138,"lon":139.57723281},{"name":"防衛省共済組合狛江スポーツセンター","province":"東京都","city":"狛江市","address":"東京都狛江市元和泉2丁目30","lat":35.63228871,"lon":139.5684829},{"name":"狛江高等学校","province":"東京都","city":"狛江市","address":"東京都狛江市元和泉3丁目9-1","lat":35.62743131,"lon":139.57056099},{"name":"こども教室えるぶ","province":"東京都","city":"狛江市","address":"狛江市東野川2-1-10-102.103","lat":35.642234,"lon":139.580042},{"name":"はっぴぃハウス","province":"東京都","city":"狛江市","address":"狛江市和泉本町4-7-27-103","lat":35.643051,"lon":139.568946},{"name":"こどもデイサービスほっぷ","province":"東京都","city":"狛江市","address":"狛江市和泉本町4-2-13SANTESAKAE202","lat":35.641318,"lon":139.569443},{"name":"こどもデイサービス　すてっぷ","province":"東京都","city":"狛江市","address":"狛江市和泉本町4-2-13","lat":35.641318,"lon":139.569443},{"name":"ウイングこまえ","province":"東京都","city":"狛江市","address":"狛江市岩戸北三丁目22番13号","lat":35.632275,"lon":139.583237},{"name":"ゆめぽっと","province":"東京都","city":"狛江市","address":"狛江市中和泉2-10-1","lat":35.638782,"lon":139.572912},{"name":"狛江市子ども家庭支援センター","province":"東京都","city":"狛江市","address":"狛江市岩戸南3-15-1岩戸児童センター2階","lat":35.629103,"lon":139.587948},{"name":"狛江市子ども家庭支援センター","province":"東京都","city":"狛江市","address":"狛江市元和泉2-35-1","lat":35.6334,"lon":139.567413},{"name":"狛江市子ども家庭支援センター","province":"東京都","city":"狛江市","address":"狛江市元和泉1-11-11ひだまりセンター1階","lat":35.63123,"lon":139.57588},{"name":"狛江高等学校","province":"東京都","city":"狛江市","address":"東京都狛江市元和泉3丁目9-1","lat":35.62743131,"lon":139.57056099},{"name":"こども教室えるぶ","province":"東京都","city":"狛江市","address":"狛江市東野川2-1-10-102.103","lat":35.642234,"lon":139.580042},{"name":"はっぴぃハウス","province":"東京都","city":"狛江市","address":"狛江市和泉本町4-7-27-103","lat":35.643051,"lon":139.568946},{"name":"こどもデイサービスほっぷ","province":"東京都","city":"狛江市","address":"狛江市和泉本町4-2-13SANTESAKAE202","lat":35.641318,"lon":139.569443},{"name":"こどもデイサービス　すてっぷ","province":"東京都","city":"狛江市","address":"狛江市和泉本町4-2-13","lat":35.641318,"lon":139.569443},{"name":"ウイングこまえ","province":"東京都","city":"狛江市","address":"狛江市岩戸北三丁目22番13号","lat":35.632275,"lon":139.583237},{"name":"ゆめぽっと","province":"東京都","city":"狛江市","address":"狛江市中和泉2-10-1","lat":35.638782,"lon":139.572912},{"name":"狛江市子ども家庭支援センター","province":"東京都","city":"狛江市","address":"狛江市岩戸南3-15-1岩戸児童センター2階","lat":35.629103,"lon":139.587948},{"name":"狛江市子ども家庭支援センター","province":"東京都","city":"狛江市","address":"狛江市元和泉2-35-1","lat":35.6334,"lon":139.567413},{"name":"狛江市子ども家庭支援センター","province":"東京都","city":"狛江市","address":"狛江市元和泉1-11-11ひだまりセンター1階","lat":35.63123,"lon":139.57588},{"name":"狛江高等学校","province":"東京都","city":"狛江市","address":"東京都狛江市元和泉3丁目9-1","lat":35.62743131,"lon":139.57056099},{"name":"こども教室えるぶ","province":"東京都","city":"狛江市","address":"狛江市東野川2-1-10-102.103","lat":35.642234,"lon":139.580042},{"name":"はっぴぃハウス","province":"東京都","city":"狛江市","address":"狛江市和泉本町4-7-27-103","lat":35.643051,"lon":139.568946},{"name":"こどもデイサービスほっぷ","province":"東京都","city":"狛江市","address":"狛江市和泉本町4-2-13SANTESAKAE202","lat":35.641318,"lon":139.569443},{"name":"こどもデイサービス　すてっぷ","province":"東京都","city":"狛江市","address":"狛江市和泉本町4-2-13","lat":35.641318,"lon":139.569443},{"name":"ウイングこまえ","province":"東京都","city":"狛江市","address":"狛江市岩戸北三丁目22番13号","lat":35.632275,"lon":139.583237},{"name":"ゆめぽっと","province":"東京都","city":"狛江市","address":"狛江市中和泉2-10-1","lat":35.638782,"lon":139.572912},{"name":"狛江市子ども家庭支援センター","province":"東京都","city":"狛江市","address":"狛江市岩戸南3-15-1岩戸児童センター2階","lat":35.629103,"lon":139.587948},{"name":"狛江市子ども家庭支援センター","province":"東京都","city":"狛江市","address":"狛江市元和泉2-35-1","lat":35.6334,"lon":139.567413},{"name":"狛江市子ども家庭支援センター","province":"東京都","city":"狛江市","address":"狛江市元和泉1-11-11ひだまりセンター1階","lat":35.63123,"lon":139.57588},{"name":"狛江高等学校","province":"東京都","city":"狛江市","address":"東京都狛江市元和泉3丁目9-1","lat":35.62743131,"lon":139.57056099},{"name":"こども教室えるぶ","province":"東京都","city":"狛江市","address":"狛江市東野川2-1-10-102.103","lat":35.642234,"lon":139.580042},{"name":"はっぴぃハウス","province":"東京都","city":"狛江市","address":"狛江市和泉本町4-7-27-103","lat":35.643051,"lon":139.568946},{"name":"こどもデイサービスほっぷ","province":"東京都","city":"狛江市","address":"狛江市和泉本町4-2-13SANTESAKAE202","lat":35.641318,"lon":139.569443},{"name":"こどもデイサービス　すてっぷ","province":"東京都","city":"狛江市","address":"狛江市和泉本町4-2-13","lat":35.641318,"lon":139.569443},{"name":"ウイングこまえ","province":"東京都","city":"狛江市","address":"狛江市岩戸北三丁目22番13号","lat":35.632275,"lon":139.583237},{"name":"ゆめぽっと","province":"東京都","city":"狛江市","address":"狛江市中和泉2-10-1","lat":35.638782,"lon":139.572912},{"name":"狛江市子ども家庭支援センター","province":"東京都","city":"狛江市","address":"狛江市岩戸南3-15-1岩戸児童センター2階","lat":35.629103,"lon":139.587948},{"name":"狛江市子ども家庭支援センター","province":"東京都","city":"狛江市","address":"狛江市元和泉2-35-1","lat":35.6334,"lon":139.567413},{"name":"狛江市子ども家庭支援センター","province":"東京都","city":"狛江市","address":"狛江市元和泉1-11-11ひだまりセンター1階","lat":35.63123,"lon":139.57588},{"name":"狛江高等学校","province":"東京都","city":"狛江市","address":"東京都狛江市元和泉3丁目9-1","lat":35.62743131,"lon":139.57056099},{"name":"こども教室えるぶ","province":"東京都","city":"狛江市","address":"狛江市東野川2-1-10-102.103","lat":35.642234,"lon":139.580042},{"name":"はっぴぃハウス","province":"東京都","city":"狛江市","address":"狛江市和泉本町4-7-27-103","lat":35.643051,"lon":139.568946},{"name":"こどもデイサービスほっぷ","province":"東京都","city":"狛江市","address":"狛江市和泉本町4-2-13SANTESAKAE202","lat":35.641318,"lon":139.569443},{"name":"こどもデイサービス　すてっぷ","province":"東京都","city":"狛江市","address":"狛江市和泉本町4-2-13","lat":35.641318,"lon":139.569443},{"name":"ウイングこまえ","province":"東京都","city":"狛江市","address":"狛江市岩戸北三丁目22番13号","lat":35.632275,"lon":139.583237},{"name":"ゆめぽっと","province":"東京都","city":"狛江市","address":"狛江市中和泉2-10-1","lat":35.638782,"lon":139.572912},{"name":"狛江市子ども家庭支援センター","province":"東京都","city":"狛江市","address":"狛江市岩戸南3-15-1岩戸児童センター2階","lat":35.629103,"lon":139.587948},{"name":"狛江市子ども家庭支援センター","province":"東京都","city":"狛江市","address":"狛江市元和泉2-35-1","lat":35.6334,"lon":139.567413},{"name":"狛江市子ども家庭支援センター","province":"東京都","city":"狛江市","address":"狛江市元和泉1-11-11ひだまりセンター1階","lat":35.63123,"lon":139.57588},{"name":"狛江高等学校","province":"東京都","city":"狛江市","address":"東京都狛江市元和泉3丁目9-1","lat":35.62743131,"lon":139.57056099},{"name":"こども教室えるぶ","province":"東京都","city":"狛江市","address":"狛江市東野川2-1-10-102.103","lat":35.642234,"lon":139.580042},{"name":"はっぴぃハウス","province":"東京都","city":"狛江市","address":"狛江市和泉本町4-7-27-103","lat":35.643051,"lon":139.568946},{"name":"こどもデイサービスほっぷ","province":"東京都","city":"狛江市","address":"狛江市和泉本町4-2-13SANTESAKAE202","lat":35.641318,"lon":139.569443},{"name":"こどもデイサービス　すてっぷ","province":"東京都","city":"狛江市","address":"狛江市和泉本町4-2-13","lat":35.641318,"lon":139.569443},{"name":"ウイングこまえ","province":"東京都","city":"狛江市","address":"狛江市岩戸北三丁目22番13号","lat":35.632275,"lon":139.583237},{"name":"ゆめぽっと","province":"東京都","city":"狛江市","address":"狛江市中和泉2-10-1","lat":35.638782,"lon":139.572912},{"name":"狛江市子ども家庭支援センター","province":"東京都","city":"狛江市","address":"狛江市岩戸南3-15-1岩戸児童センター2階","lat":35.629103,"lon":139.587948},{"name":"狛江市子ども家庭支援センター","province":"東京都","city":"狛江市","address":"狛江市元和泉2-35-1","lat":35.6334,"lon":139.567413},{"name":"狛江市子ども家庭支援センター","province":"東京都","city":"狛江市","address":"狛江市元和泉1-11-11ひだまりセンター1階","lat":35.63123,"lon":139.57588},{"name":"狛江高等学校","province":"東京都","city":"狛江市","address":"東京都狛江市元和泉3丁目9-1","lat":35.62743131,"lon":139.57056099},{"name":"こども教室えるぶ","province":"東京都","city":"狛江市","address":"狛江市東野川2-1-10-102.103","lat":35.642234,"lon":139.580042},{"name":"はっぴぃハウス","province":"東京都","city":"狛江市","address":"狛江市和泉本町4-7-27-103","lat":35.643051,"lon":139.568946},{"name":"こどもデイサービスほっぷ","province":"東京都","city":"狛江市","address":"狛江市和泉本町4-2-13SANTESAKAE202","lat":35.641318,"lon":139.569443},{"name":"こどもデイサービス　すてっぷ","province":"東京都","city":"狛江市","address":"狛江市和泉本町4-2-13","lat":35.641318,"lon":139.569443},{"name":"ウイングこまえ","province":"東京都","city":"狛江市","address":"狛江市岩戸北三丁目22番13号","lat":35.632275,"lon":139.583237},{"name":"ゆめぽっと","province":"東京都","city":"狛江市","address":"狛江市中和泉2-10-1","lat":35.638782,"lon":139.572912},{"name":"狛江市子ども家庭支援センター","province":"東京都","city":"狛江市","address":"狛江市岩戸南3-15-1岩戸児童センター2階","lat":35.629103,"lon":139.587948},{"name":"狛江市子ども家庭支援センター","province":"東京都","city":"狛江市","address":"狛江市元和泉2-35-1","lat":35.6334,"lon":139.567413},{"name":"狛江市子ども家庭支援センター","province":"東京都","city":"狛江市","address":"狛江市元和泉1-11-11ひだまりセンター1階","lat":35.63123,"lon":139.57588},{"name":"狛江高等学校","province":"東京都","city":"狛江市","address":"東京都狛江市元和泉3丁目9-1","lat":35.62743131,"lon":139.57056099},{"name":"こども教室えるぶ","province":"東京都","city":"狛江市","address":"狛江市東野川2-1-10-102.103","lat":35.642234,"lon":139.580042},{"name":"はっぴぃハウス","province":"東京都","city":"狛江市","address":"狛江市和泉本町4-7-27-103","lat":35.643051,"lon":139.568946},{"name":"こどもデイサービスほっぷ","province":"東京都","city":"狛江市","address":"狛江市和泉本町4-2-13SANTESAKAE202","lat":35.641318,"lon":139.569443},{"name":"こどもデイサービス　すてっぷ","province":"東京都","city":"狛江市","address":"狛江市和泉本町4-2-13","lat":35.641318,"lon":139.569443},{"name":"ウイングこまえ","province":"東京都","city":"狛江市","address":"狛江市岩戸北三丁目22番13号","lat":35.632275,"lon":139.583237},{"name":"ゆめぽっと","province":"東京都","city":"狛江市","address":"狛江市中和泉2-10-1","lat":35.638782,"lon":139.572912},{"name":"狛江市子ども家庭支援センター","province":"東京都","city":"狛江市","address":"狛江市岩戸南3-15-1岩戸児童センター2階","lat":35.629103,"lon":139.587948},{"name":"狛江市子ども家庭支援センター","province":"東京都","city":"狛江市","address":"狛江市元和泉2-35-1","lat":35.6334,"lon":139.567413},{"name":"狛江市子ども家庭支援センター","province":"東京都","city":"狛江市","address":"狛江市元和泉1-11-11ひだまりセンター1階","lat":35.63123,"lon":139.57588},{"name":"狛江高等学校","province":"東京都","city":"狛江市","address":"東京都狛江市元和泉3丁目9-1","lat":35.62743131,"lon":139.57056099},{"name":"こども教室えるぶ","province":"東京都","city":"狛江市","address":"狛江市東野川2-1-10-102.103","lat":35.642234,"lon":139.580042},{"name":"はっぴぃハウス","province":"東京都","city":"狛江市","address":"狛江市和泉本町4-7-27-103","lat":35.643051,"lon":139.568946},{"name":"こどもデイサービスほっぷ","province":"東京都","city":"狛江市","address":"狛江市和泉本町4-2-13SANTESAKAE202","lat":35.641318,"lon":139.569443},{"name":"こどもデイサービス　すてっぷ","province":"東京都","city":"狛江市","address":"狛江市和泉本町4-2-13","lat":35.641318,"lon":139.569443},{"name":"ウイングこまえ","province":"東京都","city":"狛江市","address":"狛江市岩戸北三丁目22番13号","lat":35.632275,"lon":139.583237},{"name":"ゆめぽっと","province":"東京都","city":"狛江市","address":"狛江市中和泉2-10-1","lat":35.638782,"lon":139.572912},{"name":"狛江市子ども家庭支援センター","province":"東京都","city":"狛江市","address":"狛江市岩戸南3-15-1岩戸児童センター2階","lat":35.629103,"lon":139.587948},{"name":"狛江市子ども家庭支援センター","province":"東京都","city":"狛江市","address":"狛江市元和泉2-35-1","lat":35.6334,"lon":139.567413},{"name":"狛江市子ども家庭支援センター","province":"東京都","city":"狛江市","address":"狛江市元和泉1-11-11ひだまりセンター1階","lat":35.63123,"lon":139.57588},{"name":"狛江高等学校","province":"東京都","city":"狛江市","address":"東京都狛江市元和泉3丁目9-1","lat":35.62743131,"lon":139.57056099},{"name":"こども教室えるぶ","province":"東京都","city":"狛江市","address":"狛江市東野川2-1-10-102.103","lat":35.642234,"lon":139.580042},{"name":"はっぴぃハウス","province":"東京都","city":"狛江市","address":"狛江市和泉本町4-7-27-103","lat":35.643051,"lon":139.568946},{"name":"こどもデイサービスほっぷ","province":"東京都","city":"狛江市","address":"狛江市和泉本町4-2-13SANTESAKAE202","lat":35.641318,"lon":139.569443},{"name":"こどもデイサービス　すてっぷ","province":"東京都","city":"狛江市","address":"狛江市和泉本町4-2-13","lat":35.641318,"lon":139.569443},{"name":"ウイングこまえ","province":"東京都","city":"狛江市","address":"狛江市岩戸北三丁目22番13号","lat":35.632275,"lon":139.583237},{"name":"ゆめぽっと","province":"東京都","city":"狛江市","address":"狛江市中和泉2-10-1","lat":35.638782,"lon":139.572912},{"name":"狛江市子ども家庭支援センター","province":"東京都","city":"狛江市","address":"狛江市岩戸南3-15-1岩戸児童センター2階","lat":35.629103,"lon":139.587948},{"name":"狛江市子ども家庭支援センター","province":"東京都","city":"狛江市","address":"狛江市元和泉2-35-1","lat":35.6334,"lon":139.567413},{"name":"狛江市子ども家庭支援センター","province":"東京都","city":"狛江市","address":"狛江市元和泉1-11-11ひだまりセンター1階","lat":35.63123,"lon":139.57588},{"name":"狛江高等学校","province":"東京都","city":"狛江市","address":"東京都狛江市元和泉3丁目9-1","lat":35.62743131,"lon":139.57056099},{"name":"こども教室えるぶ","province":"東京都","city":"狛江市","address":"狛江市東野川2-1-10-102.103","lat":35.642234,"lon":139.580042},{"name":"はっぴぃハウス","province":"東京都","city":"狛江市","address":"狛江市和泉本町4-7-27-103","lat":35.643051,"lon":139.568946},{"name":"こどもデイサービスほっぷ","province":"東京都","city":"狛江市","address":"狛江市和泉本町4-2-13SANTESAKAE202","lat":35.641318,"lon":139.569443},{"name":"こどもデイサービス　すてっぷ","province":"東京都","city":"狛江市","address":"狛江市和泉本町4-2-13","lat":35.641318,"lon":139.569443},{"name":"ウイングこまえ","province":"東京都","city":"狛江市","address":"狛江市岩戸北三丁目22番13号","lat":35.632275,"lon":139.583237},{"name":"ゆめぽっと","province":"東京都","city":"狛江市","address":"狛江市中和泉2-10-1","lat":35.638782,"lon":139.572912},{"name":"狛江市子ども家庭支援センター","province":"東京都","city":"狛江市","address":"狛江市岩戸南3-15-1岩戸児童センター2階","lat":35.629103,"lon":139.587948},{"name":"狛江市子ども家庭支援センター","province":"東京都","city":"狛江市","address":"狛江市元和泉2-35-1","lat":35.6334,"lon":139.567413},{"name":"狛江市子ども家庭支援センター","province":"東京都","city":"狛江市","address":"狛江市元和泉1-11-11ひだまりセンター1階","lat":35.63123,"lon":139.57588},{"name":"狛江高等学校","province":"東京都","city":"狛江市","address":"東京都狛江市元和泉3丁目9-1","lat":35.62743131,"lon":139.57056099},{"name":"こども教室えるぶ","province":"東京都","city":"狛江市","address":"狛江市東野川2-1-10-102.103","lat":35.642234,"lon":139.580042},{"name":"はっぴぃハウス","province":"東京都","city":"狛江市","address":"狛江市和泉本町4-7-27-103","lat":35.643051,"lon":139.568946},{"name":"こどもデイサービスほっぷ","province":"東京都","city":"狛江市","address":"狛江市和泉本町4-2-13SANTESAKAE202","lat":35.641318,"lon":139.569443},{"name":"こどもデイサービス　すてっぷ","province":"東京都","city":"狛江市","address":"狛江市和泉本町4-2-13","lat":35.641318,"lon":139.569443},{"name":"ウイングこまえ","province":"東京都","city":"狛江市","address":"狛江市岩戸北三丁目22番13号","lat":35.632275,"lon":139.583237},{"name":"ゆめぽっと","province":"東京都","city":"狛江市","address":"狛江市中和泉2-10-1","lat":35.638782,"lon":139.572912},{"name":"狛江市子ども家庭支援センター","province":"東京都","city":"狛江市","address":"狛江市岩戸南3-15-1岩戸児童センター2階","lat":35.629103,"lon":139.587948},{"name":"狛江市子ども家庭支援センター","province":"東京都","city":"狛江市","address":"狛江市元和泉2-35-1","lat":35.6334,"lon":139.567413},{"name":"狛江市子ども家庭支援センター","province":"東京都","city":"狛江市","address":"狛江市元和泉1-11-11ひだまりセンター1階","lat":35.63123,"lon":139.57588},{"name":"狛江高等学校","province":"東京都","city":"狛江市","address":"東京都狛江市元和泉3丁目9-1","lat":35.62743131,"lon":139.57056099},{"name":"こども教室えるぶ","province":"東京都","city":"狛江市","address":"狛江市東野川2-1-10-102.103","lat":35.642234,"lon":139.580042},{"name":"はっぴぃハウス","province":"東京都","city":"狛江市","address":"狛江市和泉本町4-7-27-103","lat":35.643051,"lon":139.568946},{"name":"こどもデイサービスほっぷ","province":"東京都","city":"狛江市","address":"狛江市和泉本町4-2-13SANTESAKAE202","lat":35.641318,"lon":139.569443},{"name":"こどもデイサービス　すてっぷ","province":"東京都","city":"狛江市","address":"狛江市和泉本町4-2-13","lat":35.641318,"lon":139.569443},{"name":"ウイングこまえ","province":"東京都","city":"狛江市","address":"狛江市岩戸北三丁目22番13号","lat":35.632275,"lon":139.583237},{"name":"ゆめぽっと","province":"東京都","city":"狛江市","address":"狛江市中和泉2-10-1","lat":35.638782,"lon":139.572912},{"name":"狛江市子ども家庭支援センター","province":"東京都","city":"狛江市","address":"狛江市岩戸南3-15-1岩戸児童センター2階","lat":35.629103,"lon":139.587948},{"name":"狛江市子ども家庭支援センター","province":"東京都","city":"狛江市","address":"狛江市元和泉2-35-1","lat":35.6334,"lon":139.567413},{"name":"狛江市子ども家庭支援センター","province":"東京都","city":"狛江市","address":"狛江市元和泉1-11-11ひだまりセンター1階","lat":35.63123,"lon":139.57588},{"name":"狛江高等学校","province":"東京都","city":"狛江市","address":"東京都狛江市元和泉3丁目9-1","lat":35.62743131,"lon":139.57056099},{"name":"こども教室えるぶ","province":"東京都","city":"狛江市","address":"狛江市東野川2-1-10-102.103","lat":35.642234,"lon":139.580042},{"name":"はっぴぃハウス","province":"東京都","city":"狛江市","address":"狛江市和泉本町4-7-27-103","lat":35.643051,"lon":139.568946},{"name":"こどもデイサービスほっぷ","province":"東京都","city":"狛江市","address":"狛江市和泉本町4-2-13SANTESAKAE202","lat":35.641318,"lon":139.569443},{"name":"こどもデイサービス　すてっぷ","province":"東京都","city":"狛江市","address":"狛江市和泉本町4-2-13","lat":35.641318,"lon":139.569443},{"name":"ウイングこまえ","province":"東京都","city":"狛江市","address":"狛江市岩戸北三丁目22番13号","lat":35.632275,"lon":139.583237},{"name":"ゆめぽっと","province":"東京都","city":"狛江市","address":"狛江市中和泉2-10-1","lat":35.638782,"lon":139.572912},{"name":"狛江市子ども家庭支援センター","province":"東京都","city":"狛江市","address":"狛江市岩戸南3-15-1岩戸児童センター2階","lat":35.629103,"lon":139.587948},{"name":"狛江市子ども家庭支援センター","province":"東京都","city":"狛江市","address":"狛江市元和泉2-35-1","lat":35.6334,"lon":139.567413},{"name":"狛江市子ども家庭支援センター","province":"東京都","city":"狛江市","address":"狛江市元和泉1-11-11ひだまりセンター1階","lat":35.63123,"lon":139.57588},{"name":"狛江高等学校","province":"東京都","city":"狛江市","address":"東京都狛江市元和泉3丁目9-1","lat":35.62743131,"lon":139.57056099},{"name":"こども教室えるぶ","province":"東京都","city":"狛江市","address":"狛江市東野川2-1-10-102.103","lat":35.642234,"lon":139.580042},{"name":"はっぴぃハウス","province":"東京都","city":"狛江市","address":"狛江市和泉本町4-7-27-103","lat":35.643051,"lon":139.568946},{"name":"こどもデイサービスほっぷ","province":"東京都","city":"狛江市","address":"狛江市和泉本町4-2-13SANTESAKAE202","lat":35.641318,"lon":139.569443},{"name":"こどもデイサービス　すてっぷ","province":"東京都","city":"狛江市","address":"狛江市和泉本町4-2-13","lat":35.641318,"lon":139.569443},{"name":"ウイングこまえ","province":"東京都","city":"狛江市","address":"狛江市岩戸北三丁目22番13号","lat":35.632275,"lon":139.583237},{"name":"ゆめぽっと","province":"東京都","city":"狛江市","address":"狛江市中和泉2-10-1","lat":35.638782,"lon":139.572912},{"name":"狛江市子ども家庭支援センター","province":"東京都","city":"狛江市","address":"狛江市岩戸南3-15-1岩戸児童センター2階","lat":35.629103,"lon":139.587948},{"name":"狛江市子ども家庭支援センター","province":"東京都","city":"狛江市","address":"狛江市元和泉2-35-1","lat":35.6334,"lon":139.567413},{"name":"狛江市子ども家庭支援センター","province":"東京都","city":"狛江市","address":"狛江市元和泉1-11-11ひだまりセンター1階","lat":35.63123,"lon":139.57588},{"name":"こども教室えるぶ","province":"東京都","city":"狛江市","address":"狛江市東野川2-1-10-102.103","lat":35.642234,"lon":139.580042},{"name":"はっぴぃハウス","province":"東京都","city":"狛江市","address":"狛江市和泉本町4-7-27-103","lat":35.643051,"lon":139.568946},{"name":"こどもデイサービスほっぷ","province":"東京都","city":"狛江市","address":"狛江市和泉本町4-2-13SANTESAKAE202","lat":35.641318,"lon":139.569443},{"name":"こどもデイサービス　すてっぷ","province":"東京都","city":"狛江市","address":"狛江市和泉本町4-2-13","lat":35.641318,"lon":139.569443},{"name":"ウイングこまえ","province":"東京都","city":"狛江市","address":"狛江市岩戸北三丁目22番13号","lat":35.632275,"lon":139.583237},{"name":"ゆめぽっと","province":"東京都","city":"狛江市","address":"狛江市中和泉2-10-1","lat":35.638782,"lon":139.572912},{"name":"狛江市子ども家庭支援センター","province":"東京都","city":"狛江市","address":"狛江市岩戸南3-15-1岩戸児童センター2階","lat":35.629103,"lon":139.587948},{"name":"狛江市子ども家庭支援センター","province":"東京都","city":"狛江市","address":"狛江市元和泉2-35-1","lat":35.6334,"lon":139.567413},{"name":"狛江市子ども家庭支援センター","province":"東京都","city":"狛江市","address":"狛江市元和泉1-11-11ひだまりセンター1階","lat":35.63123,"lon":139.57588},{"name":"こども教室えるぶ","province":"東京都","city":"狛江市","address":"狛江市東野川2-1-10-102.103","lat":35.642234,"lon":139.580042},{"name":"はっぴぃハウス","province":"東京都","city":"狛江市","address":"狛江市和泉本町4-7-27-103","lat":35.643051,"lon":139.568946},{"name":"こどもデイサービスほっぷ","province":"東京都","city":"狛江市","address":"狛江市和泉本町4-2-13SANTESAKAE202","lat":35.641318,"lon":139.569443},{"name":"こどもデイサービス　すてっぷ","province":"東京都","city":"狛江市","address":"狛江市和泉本町4-2-13","lat":35.641318,"lon":139.569443},{"name":"ウイングこまえ","province":"東京都","city":"狛江市","address":"狛江市岩戸北三丁目22番13号","lat":35.632275,"lon":139.583237},{"name":"ゆめぽっと","province":"東京都","city":"狛江市","address":"狛江市中和泉2-10-1","lat":35.638782,"lon":139.572912},{"name":"狛江市子ども家庭支援センター","province":"東京都","city":"狛江市","address":"狛江市岩戸南3-15-1岩戸児童センター2階","lat":35.629103,"lon":139.587948},{"name":"狛江市子ども家庭支援センター","province":"東京都","city":"狛江市","address":"狛江市元和泉2-35-1","lat":35.6334,"lon":139.567413},{"name":"狛江市子ども家庭支援センター","province":"東京都","city":"狛江市","address":"狛江市元和泉1-11-11ひだまりセンター1階","lat":35.63123,"lon":139.57588},{"name":"こども教室えるぶ","province":"東京都","city":"狛江市","address":"狛江市東野川2-1-10-102.103","lat":35.642234,"lon":139.580042},{"name":"はっぴぃハウス","province":"東京都","city":"狛江市","address":"狛江市和泉本町4-7-27-103","lat":35.643051,"lon":139.568946},{"name":"こどもデイサービスほっぷ","province":"東京都","city":"狛江市","address":"狛江市和泉本町4-2-13SANTESAKAE202","lat":35.641318,"lon":139.569443},{"name":"こどもデイサービス　すてっぷ","province":"東京都","city":"狛江市","address":"狛江市和泉本町4-2-13","lat":35.641318,"lon":139.569443},{"name":"ウイングこまえ","province":"東京都","city":"狛江市","address":"狛江市岩戸北三丁目22番13号","lat":35.632275,"lon":139.583237},{"name":"ゆめぽっと","province":"東京都","city":"狛江市","address":"狛江市中和泉2-10-1","lat":35.638782,"lon":139.572912},{"name":"狛江市子ども家庭支援センター","province":"東京都","city":"狛江市","address":"狛江市岩戸南3-15-1岩戸児童センター2階","lat":35.629103,"lon":139.587948},{"name":"狛江市子ども家庭支援センター","province":"東京都","city":"狛江市","address":"狛江市元和泉2-35-1","lat":35.6334,"lon":139.567413},{"name":"狛江市子ども家庭支援センター","province":"東京都","city":"狛江市","address":"狛江市元和泉1-11-11ひだまりセンター1階","lat":35.63123,"lon":139.57588},{"name":"こども教室えるぶ","province":"東京都","city":"狛江市","address":"狛江市東野川2-1-10-102.103","lat":35.642234,"lon":139.580042},{"name":"はっぴぃハウス","province":"東京都","city":"狛江市","address":"狛江市和泉本町4-7-27-103","lat":35.643051,"lon":139.568946},{"name":"こどもデイサービスほっぷ","province":"東京都","city":"狛江市","address":"狛江市和泉本町4-2-13SANTESAKAE202","lat":35.641318,"lon":139.569443},{"name":"こどもデイサービス　すてっぷ","province":"東京都","city":"狛江市","address":"狛江市和泉本町4-2-13","lat":35.641318,"lon":139.569443},{"name":"ウイングこまえ","province":"東京都","city":"狛江市","address":"狛江市岩戸北三丁目22番13号","lat":35.632275,"lon":139.583237},{"name":"ゆめぽっと","province":"東京都","city":"狛江市","address":"狛江市中和泉2-10-1","lat":35.638782,"lon":139.572912},{"name":"狛江市子ども家庭支援センター","province":"東京都","city":"狛江市","address":"狛江市岩戸南3-15-1岩戸児童センター2階","lat":35.629103,"lon":139.587948},{"name":"狛江市子ども家庭支援センター","province":"東京都","city":"狛江市","address":"狛江市元和泉2-35-1","lat":35.6334,"lon":139.567413},{"name":"狛江市子ども家庭支援センター","province":"東京都","city":"狛江市","address":"狛江市元和泉1-11-11ひだまりセンター1階","lat":35.63123,"lon":139.57588},{"name":"こども教室えるぶ","province":"東京都","city":"狛江市","address":"狛江市東野川2-1-10-102.103","lat":35.642234,"lon":139.580042},{"name":"はっぴぃハウス","province":"東京都","city":"狛江市","address":"狛江市和泉本町4-7-27-103","lat":35.643051,"lon":139.568946},{"name":"こどもデイサービスほっぷ","province":"東京都","city":"狛江市","address":"狛江市和泉本町4-2-13SANTESAKAE202","lat":35.641318,"lon":139.569443},{"name":"こどもデイサービス　すてっぷ","province":"東京都","city":"狛江市","address":"狛江市和泉本町4-2-13","lat":35.641318,"lon":139.569443},{"name":"ウイングこまえ","province":"東京都","city":"狛江市","address":"狛江市岩戸北三丁目22番13号","lat":35.632275,"lon":139.583237},{"name":"ゆめぽっと","province":"東京都","city":"狛江市","address":"狛江市中和泉2-10-1","lat":35.638782,"lon":139.572912},{"name":"狛江市子ども家庭支援センター","province":"東京都","city":"狛江市","address":"狛江市岩戸南3-15-1岩戸児童センター2階","lat":35.629103,"lon":139.587948},{"name":"狛江市子ども家庭支援センター","province":"東京都","city":"狛江市","address":"狛江市元和泉2-35-1","lat":35.6334,"lon":139.567413},{"name":"狛江市子ども家庭支援センター","province":"東京都","city":"狛江市","address":"狛江市元和泉1-11-11ひだまりセンター1階","lat":35.63123,"lon":139.57588},{"name":"こども教室えるぶ","province":"東京都","city":"狛江市","address":"狛江市東野川2-1-10-102.103","lat":35.642234,"lon":139.580042},{"name":"はっぴぃハウス","province":"東京都","city":"狛江市","address":"狛江市和泉本町4-7-27-103","lat":35.643051,"lon":139.568946},{"name":"こどもデイサービスほっぷ","province":"東京都","city":"狛江市","address":"狛江市和泉本町4-2-13SANTESAKAE202","lat":35.641318,"lon":139.569443},{"name":"こどもデイサービス　すてっぷ","province":"東京都","city":"狛江市","address":"狛江市和泉本町4-2-13","lat":35.641318,"lon":139.569443},{"name":"ウイングこまえ","province":"東京都","city":"狛江市","address":"狛江市岩戸北三丁目22番13号","lat":35.632275,"lon":139.583237},{"name":"ゆめぽっと","province":"東京都","city":"狛江市","address":"狛江市中和泉2-10-1","lat":35.638782,"lon":139.572912},{"name":"狛江市子ども家庭支援センター","province":"東京都","city":"狛江市","address":"狛江市岩戸南3-15-1岩戸児童センター2階","lat":35.629103,"lon":139.587948},{"name":"狛江市子ども家庭支援センター","province":"東京都","city":"狛江市","address":"狛江市元和泉2-35-1","lat":35.6334,"lon":139.567413},{"name":"狛江市子ども家庭支援センター","province":"東京都","city":"狛江市","address":"狛江市元和泉1-11-11ひだまりセンター1階","lat":35.63123,"lon":139.57588},{"name":"こども教室えるぶ","province":"東京都","city":"狛江市","address":"狛江市東野川2-1-10-102.103","lat":35.642234,"lon":139.580042},{"name":"はっぴぃハウス","province":"東京都","city":"狛江市","address":"狛江市和泉本町4-7-27-103","lat":35.643051,"lon":139.568946},{"name":"こどもデイサービスほっぷ","province":"東京都","city":"狛江市","address":"狛江市和泉本町4-2-13SANTESAKAE202","lat":35.641318,"lon":139.569443},{"name":"こどもデイサービス　すてっぷ","province":"東京都","city":"狛江市","address":"狛江市和泉本町4-2-13","lat":35.641318,"lon":139.569443},{"name":"ウイングこまえ","province":"東京都","city":"狛江市","address":"狛江市岩戸北三丁目22番13号","lat":35.632275,"lon":139.583237},{"name":"ゆめぽっと","province":"東京都","city":"狛江市","address":"狛江市中和泉2-10-1","lat":35.638782,"lon":139.572912},{"name":"狛江市子ども家庭支援センター","province":"東京都","city":"狛江市","address":"狛江市岩戸南3-15-1岩戸児童センター2階","lat":35.629103,"lon":139.587948},{"name":"狛江市子ども家庭支援センター","province":"東京都","city":"狛江市","address":"狛江市元和泉2-35-1","lat":35.6334,"lon":139.567413},{"name":"狛江市子ども家庭支援センター","province":"東京都","city":"狛江市","address":"狛江市元和泉1-11-11ひだまりセンター1階","lat":35.63123,"lon":139.57588},{"name":"こども教室えるぶ","province":"東京都","city":"狛江市","address":"狛江市東野川2-1-10-102.103","lat":35.642234,"lon":139.580042},{"name":"はっぴぃハウス","province":"東京都","city":"狛江市","address":"狛江市和泉本町4-7-27-103","lat":35.643051,"lon":139.568946},{"name":"こどもデイサービスほっぷ","province":"東京都","city":"狛江市","address":"狛江市和泉本町4-2-13SANTESAKAE202","lat":35.641318,"lon":139.569443},{"name":"こどもデイサービス　すてっぷ","province":"東京都","city":"狛江市","address":"狛江市和泉本町4-2-13","lat":35.641318,"lon":139.569443},{"name":"ウイングこまえ","province":"東京都","city":"狛江市","address":"狛江市岩戸北三丁目22番13号","lat":35.632275,"lon":139.583237},{"name":"ゆめぽっと","province":"東京都","city":"狛江市","address":"狛江市中和泉2-10-1","lat":35.638782,"lon":139.572912},{"name":"狛江市子ども家庭支援センター","province":"東京都","city":"狛江市","address":"狛江市岩戸南3-15-1岩戸児童センター2階","lat":35.629103,"lon":139.587948},{"name":"狛江市子ども家庭支援センター","province":"東京都","city":"狛江市","address":"狛江市元和泉2-35-1","lat":35.6334,"lon":139.567413},{"name":"狛江市子ども家庭支援センター","province":"東京都","city":"狛江市","address":"狛江市元和泉1-11-11ひだまりセンター1階","lat":35.63123,"lon":139.57588},{"name":"こども教室えるぶ","province":"東京都","city":"狛江市","address":"狛江市東野川2-1-10-102.103","lat":35.642234,"lon":139.580042},{"name":"はっぴぃハウス","province":"東京都","city":"狛江市","address":"狛江市和泉本町4-7-27-103","lat":35.643051,"lon":139.568946},{"name":"こどもデイサービスほっぷ","province":"東京都","city":"狛江市","address":"狛江市和泉本町4-2-13SANTESAKAE202","lat":35.641318,"lon":139.569443},{"name":"こどもデイサービス　すてっぷ","province":"東京都","city":"狛江市","address":"狛江市和泉本町4-2-13","lat":35.641318,"lon":139.569443},{"name":"ウイングこまえ","province":"東京都","city":"狛江市","address":"狛江市岩戸北三丁目22番13号","lat":35.632275,"lon":139.583237},{"name":"ゆめぽっと","province":"東京都","city":"狛江市","address":"狛江市中和泉2-10-1","lat":35.638782,"lon":139.572912},{"name":"狛江市子ども家庭支援センター","province":"東京都","city":"狛江市","address":"狛江市岩戸南3-15-1岩戸児童センター2階","lat":35.629103,"lon":139.587948},{"name":"狛江市子ども家庭支援センター","province":"東京都","city":"狛江市","address":"狛江市元和泉2-35-1","lat":35.6334,"lon":139.567413},{"name":"狛江市子ども家庭支援センター","province":"東京都","city":"狛江市","address":"狛江市元和泉1-11-11ひだまりセンター1階","lat":35.63123,"lon":139.57588},{"name":"こども教室えるぶ","province":"東京都","city":"狛江市","address":"狛江市東野川2-1-10-102.103","lat":35.642234,"lon":139.580042},{"name":"はっぴぃハウス","province":"東京都","city":"狛江市","address":"狛江市和泉本町4-7-27-103","lat":35.643051,"lon":139.568946},{"name":"こどもデイサービスほっぷ","province":"東京都","city":"狛江市","address":"狛江市和泉本町4-2-13SANTESAKAE202","lat":35.641318,"lon":139.569443},{"name":"こどもデイサービス　すてっぷ","province":"東京都","city":"狛江市","address":"狛江市和泉本町4-2-13","lat":35.641318,"lon":139.569443},{"name":"ウイングこまえ","province":"東京都","city":"狛江市","address":"狛江市岩戸北三丁目22番13号","lat":35.632275,"lon":139.583237},{"name":"ゆめぽっと","province":"東京都","city":"狛江市","address":"狛江市中和泉2-10-1","lat":35.638782,"lon":139.572912},{"name":"狛江市子ども家庭支援センター","province":"東京都","city":"狛江市","address":"狛江市岩戸南3-15-1岩戸児童センター2階","lat":35.629103,"lon":139.587948},{"name":"狛江市子ども家庭支援センター","province":"東京都","city":"狛江市","address":"狛江市元和泉2-35-1","lat":35.6334,"lon":139.567413},{"name":"狛江市子ども家庭支援センター","province":"東京都","city":"狛江市","address":"狛江市元和泉1-11-11ひだまりセンター1階","lat":35.63123,"lon":139.57588},{"name":"こども教室えるぶ","province":"東京都","city":"狛江市","address":"狛江市東野川2-1-10-102.103","lat":35.642234,"lon":139.580042},{"name":"はっぴぃハウス","province":"東京都","city":"狛江市","address":"狛江市和泉本町4-7-27-103","lat":35.643051,"lon":139.568946},{"name":"こどもデイサービスほっぷ","province":"東京都","city":"狛江市","address":"狛江市和泉本町4-2-13SANTESAKAE202","lat":35.641318,"lon":139.569443},{"name":"こどもデイサービス　すてっぷ","province":"東京都","city":"狛江市","address":"狛江市和泉本町4-2-13","lat":35.641318,"lon":139.569443},{"name":"ウイングこまえ","province":"東京都","city":"狛江市","address":"狛江市岩戸北三丁目22番13号","lat":35.632275,"lon":139.583237},{"name":"ゆめぽっと","province":"東京都","city":"狛江市","address":"狛江市中和泉2-10-1","lat":35.638782,"lon":139.572912},{"name":"狛江市子ども家庭支援センター","province":"東京都","city":"狛江市","address":"狛江市岩戸南3-15-1岩戸児童センター2階","lat":35.629103,"lon":139.587948},{"name":"狛江市子ども家庭支援センター","province":"東京都","city":"狛江市","address":"狛江市元和泉2-35-1","lat":35.6334,"lon":139.567413},{"name":"狛江市子ども家庭支援センター","province":"東京都","city":"狛江市","address":"狛江市元和泉1-11-11ひだまりセンター1階","lat":35.63123,"lon":139.57588},{"name":"こども教室えるぶ","province":"東京都","city":"狛江市","address":"狛江市東野川2-1-10-102.103","lat":35.642234,"lon":139.580042},{"name":"はっぴぃハウス","province":"東京都","city":"狛江市","address":"狛江市和泉本町4-7-27-103","lat":35.643051,"lon":139.568946},{"name":"こどもデイサービスほっぷ","province":"東京都","city":"狛江市","address":"狛江市和泉本町4-2-13SANTESAKAE202","lat":35.641318,"lon":139.569443},{"name":"こどもデイサービス　すてっぷ","province":"東京都","city":"狛江市","address":"狛江市和泉本町4-2-13","lat":35.641318,"lon":139.569443},{"name":"ウイングこまえ","province":"東京都","city":"狛江市","address":"狛江市岩戸北三丁目22番13号","lat":35.632275,"lon":139.583237},{"name":"ゆめぽっと","province":"東京都","city":"狛江市","address":"狛江市中和泉2-10-1","lat":35.638782,"lon":139.572912},{"name":"狛江市子ども家庭支援センター","province":"東京都","city":"狛江市","address":"狛江市岩戸南3-15-1岩戸児童センター2階","lat":35.629103,"lon":139.587948},{"name":"狛江市子ども家庭支援センター","province":"東京都","city":"狛江市","address":"狛江市元和泉2-35-1","lat":35.6334,"lon":139.567413},{"name":"狛江市子ども家庭支援センター","province":"東京都","city":"狛江市","address":"狛江市元和泉1-11-11ひだまりセンター1階","lat":35.63123,"lon":139.57588},{"name":"こども教室えるぶ","province":"東京都","city":"狛江市","address":"狛江市東野川2-1-10-102.103","lat":35.642234,"lon":139.580042},{"name":"はっぴぃハウス","province":"東京都","city":"狛江市","address":"狛江市和泉本町4-7-27-103","lat":35.643051,"lon":139.568946},{"name":"こどもデイサービスほっぷ","province":"東京都","city":"狛江市","address":"狛江市和泉本町4-2-13SANTESAKAE202","lat":35.641318,"lon":139.569443},{"name":"こどもデイサービス　すてっぷ","province":"東京都","city":"狛江市","address":"狛江市和泉本町4-2-13","lat":35.641318,"lon":139.569443},{"name":"ウイングこまえ","province":"東京都","city":"狛江市","address":"狛江市岩戸北三丁目22番13号","lat":35.632275,"lon":139.583237},{"name":"ゆめぽっと","province":"東京都","city":"狛江市","address":"狛江市中和泉2-10-1","lat":35.638782,"lon":139.572912},{"name":"狛江市子ども家庭支援センター","province":"東京都","city":"狛江市","address":"狛江市岩戸南3-15-1岩戸児童センター2階","lat":35.629103,"lon":139.587948},{"name":"狛江市子ども家庭支援センター","province":"東京都","city":"狛江市","address":"狛江市元和泉2-35-1","lat":35.6334,"lon":139.567413},{"name":"狛江市子ども家庭支援センター","province":"東京都","city":"狛江市","address":"狛江市元和泉1-11-11ひだまりセンター1階","lat":35.63123,"lon":139.57588},{"name":"こども教室えるぶ","province":"東京都","city":"狛江市","address":"狛江市東野川2-1-10-102.103","lat":35.642234,"lon":139.580042},{"name":"はっぴぃハウス","province":"東京都","city":"狛江市","address":"狛江市和泉本町4-7-27-103","lat":35.643051,"lon":139.568946},{"name":"こどもデイサービスほっぷ","province":"東京都","city":"狛江市","address":"狛江市和泉本町4-2-13SANTESAKAE202","lat":35.641318,"lon":139.569443},{"name":"こどもデイサービス　すてっぷ","province":"東京都","city":"狛江市","address":"狛江市和泉本町4-2-13","lat":35.641318,"lon":139.569443},{"name":"ウイングこまえ","province":"東京都","city":"狛江市","address":"狛江市岩戸北三丁目22番13号","lat":35.632275,"lon":139.583237},{"name":"ゆめぽっと","province":"東京都","city":"狛江市","address":"狛江市中和泉2-10-1","lat":35.638782,"lon":139.572912},{"name":"狛江市子ども家庭支援センター","province":"東京都","city":"狛江市","address":"狛江市岩戸南3-15-1岩戸児童センター2階","lat":35.629103,"lon":139.587948},{"name":"狛江市子ども家庭支援センター","province":"東京都","city":"狛江市","address":"狛江市元和泉2-35-1","lat":35.6334,"lon":139.567413},{"name":"狛江市子ども家庭支援センター","province":"東京都","city":"狛江市","address":"狛江市元和泉1-11-11ひだまりセンター1階","lat":35.63123,"lon":139.57588},{"name":"こども教室えるぶ","province":"東京都","city":"狛江市","address":"狛江市東野川2-1-10-102.103","lat":35.642234,"lon":139.580042},{"name":"はっぴぃハウス","province":"東京都","city":"狛江市","address":"狛江市和泉本町4-7-27-103","lat":35.643051,"lon":139.568946},{"name":"こどもデイサービスほっぷ","province":"東京都","city":"狛江市","address":"狛江市和泉本町4-2-13SANTESAKAE202","lat":35.641318,"lon":139.569443},{"name":"こどもデイサービス　すてっぷ","province":"東京都","city":"狛江市","address":"狛江市和泉本町4-2-13","lat":35.641318,"lon":139.569443},{"name":"ウイングこまえ","province":"東京都","city":"狛江市","address":"狛江市岩戸北三丁目22番13号","lat":35.632275,"lon":139.583237},{"name":"ゆめぽっと","province":"東京都","city":"狛江市","address":"狛江市中和泉2-10-1","lat":35.638782,"lon":139.572912},{"name":"狛江市子ども家庭支援センター","province":"東京都","city":"狛江市","address":"狛江市岩戸南3-15-1岩戸児童センター2階","lat":35.629103,"lon":139.587948},{"name":"狛江市子ども家庭支援センター","province":"東京都","city":"狛江市","address":"狛江市元和泉2-35-1","lat":35.6334,"lon":139.567413},{"name":"狛江市子ども家庭支援センター","province":"東京都","city":"狛江市","address":"狛江市元和泉1-11-11ひだまりセンター1階","lat":35.63123,"lon":139.57588},{"name":"こども教室えるぶ","province":"東京都","city":"狛江市","address":"狛江市東野川2-1-10-102.103","lat":35.642234,"lon":139.580042},{"name":"はっぴぃハウス","province":"東京都","city":"狛江市","address":"狛江市和泉本町4-7-27-103","lat":35.643051,"lon":139.568946},{"name":"こどもデイサービスほっぷ","province":"東京都","city":"狛江市","address":"狛江市和泉本町4-2-13SANTESAKAE202","lat":35.641318,"lon":139.569443},{"name":"こどもデイサービス　すてっぷ","province":"東京都","city":"狛江市","address":"狛江市和泉本町4-2-13","lat":35.641318,"lon":139.569443},{"name":"ウイングこまえ","province":"東京都","city":"狛江市","address":"狛江市岩戸北三丁目22番13号","lat":35.632275,"lon":139.583237},{"name":"ゆめぽっと","province":"東京都","city":"狛江市","address":"狛江市中和泉2-10-1","lat":35.638782,"lon":139.572912},{"name":"狛江市子ども家庭支援センター","province":"東京都","city":"狛江市","address":"狛江市岩戸南3-15-1岩戸児童センター2階","lat":35.629103,"lon":139.587948},{"name":"狛江市子ども家庭支援センター","province":"東京都","city":"狛江市","address":"狛江市元和泉2-35-1","lat":35.6334,"lon":139.567413},{"name":"狛江市子ども家庭支援センター","province":"東京都","city":"狛江市","address":"狛江市元和泉1-11-11ひだまりセンター1階","lat":35.63123,"lon":139.57588},{"name":"こども教室えるぶ","province":"東京都","city":"狛江市","address":"狛江市東野川2-1-10-102.103","lat":35.642234,"lon":139.580042},{"name":"はっぴぃハウス","province":"東京都","city":"狛江市","address":"狛江市和泉本町4-7-27-103","lat":35.643051,"lon":139.568946},{"name":"こどもデイサービスほっぷ","province":"東京都","city":"狛江市","address":"狛江市和泉本町4-2-13SANTESAKAE202","lat":35.641318,"lon":139.569443},{"name":"こどもデイサービス　すてっぷ","province":"東京都","city":"狛江市","address":"狛江市和泉本町4-2-13","lat":35.641318,"lon":139.569443},{"name":"ウイングこまえ","province":"東京都","city":"狛江市","address":"狛江市岩戸北三丁目22番13号","lat":35.632275,"lon":139.583237},{"name":"ゆめぽっと","province":"東京都","city":"狛江市","address":"狛江市中和泉2-10-1","lat":35.638782,"lon":139.572912},{"name":"狛江市子ども家庭支援センター","province":"東京都","city":"狛江市","address":"狛江市岩戸南3-15-1岩戸児童センター2階","lat":35.629103,"lon":139.587948},{"name":"狛江市子ども家庭支援センター","province":"東京都","city":"狛江市","address":"狛江市元和泉2-35-1","lat":35.6334,"lon":139.567413},{"name":"狛江市子ども家庭支援センター","province":"東京都","city":"狛江市","address":"狛江市元和泉1-11-11ひだまりセンター1階","lat":35.63123,"lon":139.57588},{"name":"こども教室えるぶ","province":"東京都","city":"狛江市","address":"狛江市東野川2-1-10-102.103","lat":35.642234,"lon":139.580042},{"name":"はっぴぃハウス","province":"東京都","city":"狛江市","address":"狛江市和泉本町4-7-27-103","lat":35.643051,"lon":139.568946},{"name":"こどもデイサービスほっぷ","province":"東京都","city":"狛江市","address":"狛江市和泉本町4-2-13SANTESAKAE202","lat":35.641318,"lon":139.569443},{"name":"こどもデイサービス　すてっぷ","province":"東京都","city":"狛江市","address":"狛江市和泉本町4-2-13","lat":35.641318,"lon":139.569443},{"name":"ウイングこまえ","province":"東京都","city":"狛江市","address":"狛江市岩戸北三丁目22番13号","lat":35.632275,"lon":139.583237},{"name":"ゆめぽっと","province":"東京都","city":"狛江市","address":"狛江市中和泉2-10-1","lat":35.638782,"lon":139.572912},{"name":"狛江市子ども家庭支援センター","province":"東京都","city":"狛江市","address":"狛江市岩戸南3-15-1岩戸児童センター2階","lat":35.629103,"lon":139.587948},{"name":"狛江市子ども家庭支援センター","province":"東京都","city":"狛江市","address":"狛江市元和泉2-35-1","lat":35.6334,"lon":139.567413},{"name":"狛江市子ども家庭支援センター","province":"東京都","city":"狛江市","address":"狛江市元和泉1-11-11ひだまりセンター1階","lat":35.63123,"lon":139.57588},{"name":"こども教室えるぶ","province":"東京都","city":"狛江市","address":"狛江市東野川2-1-10-102.103","lat":35.642234,"lon":139.580042},{"name":"はっぴぃハウス","province":"東京都","city":"狛江市","address":"狛江市和泉本町4-7-27-103","lat":35.643051,"lon":139.568946},{"name":"こどもデイサービスほっぷ","province":"東京都","city":"狛江市","address":"狛江市和泉本町4-2-13SANTESAKAE202","lat":35.641318,"lon":139.569443},{"name":"こどもデイサービス　すてっぷ","province":"東京都","city":"狛江市","address":"狛江市和泉本町4-2-13","lat":35.641318,"lon":139.569443},{"name":"ウイングこまえ","province":"東京都","city":"狛江市","address":"狛江市岩戸北三丁目22番13号","lat":35.632275,"lon":139.583237},{"name":"ゆめぽっと","province":"東京都","city":"狛江市","address":"狛江市中和泉2-10-1","lat":35.638782,"lon":139.572912},{"name":"狛江市子ども家庭支援センター","province":"東京都","city":"狛江市","address":"狛江市岩戸南3-15-1岩戸児童センター2階","lat":35.629103,"lon":139.587948},{"name":"狛江市子ども家庭支援センター","province":"東京都","city":"狛江市","address":"狛江市元和泉2-35-1","lat":35.6334,"lon":139.567413},{"name":"狛江市子ども家庭支援センター","province":"東京都","city":"狛江市","address":"狛江市元和泉1-11-11ひだまりセンター1階","lat":35.63123,"lon":139.57588},{"name":"こども教室えるぶ","province":"東京都","city":"狛江市","address":"狛江市東野川2-1-10-102.103","lat":35.642234,"lon":139.580042},{"name":"はっぴぃハウス","province":"東京都","city":"狛江市","address":"狛江市和泉本町4-7-27-103","lat":35.643051,"lon":139.568946},{"name":"こどもデイサービスほっぷ","province":"東京都","city":"狛江市","address":"狛江市和泉本町4-2-13SANTESAKAE202","lat":35.641318,"lon":139.569443},{"name":"こどもデイサービス　すてっぷ","province":"東京都","city":"狛江市","address":"狛江市和泉本町4-2-13","lat":35.641318,"lon":139.569443},{"name":"ウイングこまえ","province":"東京都","city":"狛江市","address":"狛江市岩戸北三丁目22番13号","lat":35.632275,"lon":139.583237},{"name":"ゆめぽっと","province":"東京都","city":"狛江市","address":"狛江市中和泉2-10-1","lat":35.638782,"lon":139.572912},{"name":"狛江市子ども家庭支援センター","province":"東京都","city":"狛江市","address":"狛江市岩戸南3-15-1岩戸児童センター2階","lat":35.629103,"lon":139.587948},{"name":"狛江市子ども家庭支援センター","province":"東京都","city":"狛江市","address":"狛江市元和泉2-35-1","lat":35.6334,"lon":139.567413},{"name":"狛江市子ども家庭支援センター","province":"東京都","city":"狛江市","address":"狛江市元和泉1-11-11ひだまりセンター1階","lat":35.63123,"lon":139.57588},{"name":"こども教室えるぶ","province":"東京都","city":"狛江市","address":"狛江市東野川2-1-10-102.103","lat":35.642234,"lon":139.580042},{"name":"はっぴぃハウス","province":"東京都","city":"狛江市","address":"狛江市和泉本町4-7-27-103","lat":35.643051,"lon":139.568946},{"name":"こどもデイサービスほっぷ","province":"東京都","city":"狛江市","address":"狛江市和泉本町4-2-13SANTESAKAE202","lat":35.641318,"lon":139.569443},{"name":"こどもデイサービス　すてっぷ","province":"東京都","city":"狛江市","address":"狛江市和泉本町4-2-13","lat":35.641318,"lon":139.569443},{"name":"ウイングこまえ","province":"東京都","city":"狛江市","address":"狛江市岩戸北三丁目22番13号","lat":35.632275,"lon":139.583237},{"name":"ゆめぽっと","province":"東京都","city":"狛江市","address":"狛江市中和泉2-10-1","lat":35.638782,"lon":139.572912},{"name":"狛江市子ども家庭支援センター","province":"東京都","city":"狛江市","address":"狛江市岩戸南3-15-1岩戸児童センター2階","lat":35.629103,"lon":139.587948},{"name":"狛江市子ども家庭支援センター","province":"東京都","city":"狛江市","address":"狛江市元和泉2-35-1","lat":35.6334,"lon":139.567413},{"name":"狛江市子ども家庭支援センター","province":"東京都","city":"狛江市","address":"狛江市元和泉1-11-11ひだまりセンター1階","lat":35.63123,"lon":139.57588},{"name":"こども教室えるぶ","province":"東京都","city":"狛江市","address":"狛江市東野川2-1-10-102.103","lat":35.642234,"lon":139.580042},{"name":"はっぴぃハウス","province":"東京都","city":"狛江市","address":"狛江市和泉本町4-7-27-103","lat":35.643051,"lon":139.568946},{"name":"こどもデイサービスほっぷ","province":"東京都","city":"狛江市","address":"狛江市和泉本町4-2-13SANTESAKAE202","lat":35.641318,"lon":139.569443},{"name":"こどもデイサービス　すてっぷ","province":"東京都","city":"狛江市","address":"狛江市和泉本町4-2-13","lat":35.641318,"lon":139.569443},{"name":"ウイングこまえ","province":"東京都","city":"狛江市","address":"狛江市岩戸北三丁目22番13号","lat":35.632275,"lon":139.583237},{"name":"ゆめぽっと","province":"東京都","city":"狛江市","address":"狛江市中和泉2-10-1","lat":35.638782,"lon":139.572912},{"name":"狛江市子ども家庭支援センター","province":"東京都","city":"狛江市","address":"狛江市岩戸南3-15-1岩戸児童センター2階","lat":35.629103,"lon":139.587948},{"name":"狛江市子ども家庭支援センター","province":"東京都","city":"狛江市","address":"狛江市元和泉2-35-1","lat":35.6334,"lon":139.567413},{"name":"狛江市子ども家庭支援センター","province":"東京都","city":"狛江市","address":"狛江市元和泉1-11-11ひだまりセンター1階","lat":35.63123,"lon":139.57588},{"name":"こども教室えるぶ","province":"東京都","city":"狛江市","address":"狛江市東野川2-1-10-102.103","lat":35.642234,"lon":139.580042},{"name":"はっぴぃハウス","province":"東京都","city":"狛江市","address":"狛江市和泉本町4-7-27-103","lat":35.643051,"lon":139.568946},{"name":"こどもデイサービスほっぷ","province":"東京都","city":"狛江市","address":"狛江市和泉本町4-2-13SANTESAKAE202","lat":35.641318,"lon":139.569443},{"name":"こどもデイサービス　すてっぷ","province":"東京都","city":"狛江市","address":"狛江市和泉本町4-2-13","lat":35.641318,"lon":139.569443},{"name":"ウイングこまえ","province":"東京都","city":"狛江市","address":"狛江市岩戸北三丁目22番13号","lat":35.632275,"lon":139.583237},{"name":"ゆめぽっと","province":"東京都","city":"狛江市","address":"狛江市中和泉2-10-1","lat":35.638782,"lon":139.572912},{"name":"狛江市子ども家庭支援センター","province":"東京都","city":"狛江市","address":"狛江市岩戸南3-15-1岩戸児童センター2階","lat":35.629103,"lon":139.587948},{"name":"狛江市子ども家庭支援センター","province":"東京都","city":"狛江市","address":"狛江市元和泉2-35-1","lat":35.6334,"lon":139.567413},{"name":"狛江市子ども家庭支援センター","province":"東京都","city":"狛江市","address":"狛江市元和泉1-11-11ひだまりセンター1階","lat":35.63123,"lon":139.57588},{"name":"こども教室えるぶ","province":"東京都","city":"狛江市","address":"狛江市東野川2-1-10-102.103","lat":35.642234,"lon":139.580042},{"name":"はっぴぃハウス","province":"東京都","city":"狛江市","address":"狛江市和泉本町4-7-27-103","lat":35.643051,"lon":139.568946},{"name":"こどもデイサービスほっぷ","province":"東京都","city":"狛江市","address":"狛江市和泉本町4-2-13SANTESAKAE202","lat":35.641318,"lon":139.569443},{"name":"こどもデイサービス　すてっぷ","province":"東京都","city":"狛江市","address":"狛江市和泉本町4-2-13","lat":35.641318,"lon":139.569443},{"name":"ウイングこまえ","province":"東京都","city":"狛江市","address":"狛江市岩戸北三丁目22番13号","lat":35.632275,"lon":139.583237},{"name":"ゆめぽっと","province":"東京都","city":"狛江市","address":"狛江市中和泉2-10-1","lat":35.638782,"lon":139.572912},{"name":"狛江市子ども家庭支援センター","province":"東京都","city":"狛江市","address":"狛江市岩戸南3-15-1岩戸児童センター2階","lat":35.629103,"lon":139.587948},{"name":"狛江市子ども家庭支援センター","province":"東京都","city":"狛江市","address":"狛江市元和泉2-35-1","lat":35.6334,"lon":139.567413},{"name":"狛江市子ども家庭支援センター","province":"東京都","city":"狛江市","address":"狛江市元和泉1-11-11ひだまりセンター1階","lat":35.63123,"lon":139.57588},{"name":"こども教室えるぶ","province":"東京都","city":"狛江市","address":"狛江市東野川2-1-10-102.103","lat":35.642234,"lon":139.580042},{"name":"はっぴぃハウス","province":"東京都","city":"狛江市","address":"狛江市和泉本町4-7-27-103","lat":35.643051,"lon":139.568946},{"name":"こどもデイサービスほっぷ","province":"東京都","city":"狛江市","address":"狛江市和泉本町4-2-13SANTESAKAE202","lat":35.641318,"lon":139.569443},{"name":"こどもデイサービス　すてっぷ","province":"東京都","city":"狛江市","address":"狛江市和泉本町4-2-13","lat":35.641318,"lon":139.569443},{"name":"ウイングこまえ","province":"東京都","city":"狛江市","address":"狛江市岩戸北三丁目22番13号","lat":35.632275,"lon":139.583237},{"name":"ゆめぽっと","province":"東京都","city":"狛江市","address":"狛江市中和泉2-10-1","lat":35.638782,"lon":139.572912},{"name":"狛江市子ども家庭支援センター","province":"東京都","city":"狛江市","address":"狛江市岩戸南3-15-1岩戸児童センター2階","lat":35.629103,"lon":139.587948},{"name":"狛江市子ども家庭支援センター","province":"東京都","city":"狛江市","address":"狛江市元和泉2-35-1","lat":35.6334,"lon":139.567413},{"name":"狛江市子ども家庭支援センター","province":"東京都","city":"狛江市","address":"狛江市元和泉1-11-11ひだまりセンター1階","lat":35.63123,"lon":139.57588},{"name":"こども教室えるぶ","province":"東京都","city":"狛江市","address":"狛江市東野川2-1-10-102.103","lat":35.642234,"lon":139.580042},{"name":"はっぴぃハウス","province":"東京都","city":"狛江市","address":"狛江市和泉本町4-7-27-103","lat":35.643051,"lon":139.568946},{"name":"こどもデイサービスほっぷ","province":"東京都","city":"狛江市","address":"狛江市和泉本町4-2-13SANTESAKAE202","lat":35.641318,"lon":139.569443},{"name":"こどもデイサービス　すてっぷ","province":"東京都","city":"狛江市","address":"狛江市和泉本町4-2-13","lat":35.641318,"lon":139.569443},{"name":"ウイングこまえ","province":"東京都","city":"狛江市","address":"狛江市岩戸北三丁目22番13号","lat":35.632275,"lon":139.583237},{"name":"ゆめぽっと","province":"東京都","city":"狛江市","address":"狛江市中和泉2-10-1","lat":35.638782,"lon":139.572912},{"name":"狛江市子ども家庭支援センター","province":"東京都","city":"狛江市","address":"狛江市岩戸南3-15-1岩戸児童センター2階","lat":35.629103,"lon":139.587948},{"name":"狛江市子ども家庭支援センター","province":"東京都","city":"狛江市","address":"狛江市元和泉2-35-1","lat":35.6334,"lon":139.567413},{"name":"狛江市子ども家庭支援センター","province":"東京都","city":"狛江市","address":"狛江市元和泉1-11-11ひだまりセンター1階","lat":35.63123,"lon":139.57588},{"name":"こども教室えるぶ","province":"東京都","city":"狛江市","address":"狛江市東野川2-1-10-102.103","lat":35.642234,"lon":139.580042},{"name":"はっぴぃハウス","province":"東京都","city":"狛江市","address":"狛江市和泉本町4-7-27-103","lat":35.643051,"lon":139.568946},{"name":"こどもデイサービスほっぷ","province":"東京都","city":"狛江市","address":"狛江市和泉本町4-2-13SANTESAKAE202","lat":35.641318,"lon":139.569443},{"name":"こどもデイサービス　すてっぷ","province":"東京都","city":"狛江市","address":"狛江市和泉本町4-2-13","lat":35.641318,"lon":139.569443},{"name":"ウイングこまえ","province":"東京都","city":"狛江市","address":"狛江市岩戸北三丁目22番13号","lat":35.632275,"lon":139.583237},{"name":"ゆめぽっと","province":"東京都","city":"狛江市","address":"狛江市中和泉2-10-1","lat":35.638782,"lon":139.572912},{"name":"狛江市子ども家庭支援センター","province":"東京都","city":"狛江市","address":"狛江市岩戸南3-15-1岩戸児童センター2階","lat":35.629103,"lon":139.587948},{"name":"狛江市子ども家庭支援センター","province":"東京都","city":"狛江市","address":"狛江市元和泉2-35-1","lat":35.6334,"lon":139.567413},{"name":"狛江市子ども家庭支援センター","province":"東京都","city":"狛江市","address":"狛江市元和泉1-11-11ひだまりセンター1階","lat":35.63123,"lon":139.57588},{"name":"こども教室えるぶ","province":"東京都","city":"狛江市","address":"狛江市東野川2-1-10-102.103","lat":35.642234,"lon":139.580042},{"name":"はっぴぃハウス","province":"東京都","city":"狛江市","address":"狛江市和泉本町4-7-27-103","lat":35.643051,"lon":139.568946},{"name":"こどもデイサービスほっぷ","province":"東京都","city":"狛江市","address":"狛江市和泉本町4-2-13SANTESAKAE202","lat":35.641318,"lon":139.569443},{"name":"こどもデイサービス　すてっぷ","province":"東京都","city":"狛江市","address":"狛江市和泉本町4-2-13","lat":35.641318,"lon":139.569443},{"name":"ウイングこまえ","province":"東京都","city":"狛江市","address":"狛江市岩戸北三丁目22番13号","lat":35.632275,"lon":139.583237},{"name":"ゆめぽっと","province":"東京都","city":"狛江市","address":"狛江市中和泉2-10-1","lat":35.638782,"lon":139.572912},{"name":"狛江市子ども家庭支援センター","province":"東京都","city":"狛江市","address":"狛江市岩戸南3-15-1岩戸児童センター2階","lat":35.629103,"lon":139.587948},{"name":"狛江市子ども家庭支援センター","province":"東京都","city":"狛江市","address":"狛江市元和泉2-35-1","lat":35.6334,"lon":139.567413},{"name":"狛江市子ども家庭支援センター","province":"東京都","city":"狛江市","address":"狛江市元和泉1-11-11ひだまりセンター1階","lat":35.63123,"lon":139.57588},{"name":"こども教室えるぶ","province":"東京都","city":"狛江市","address":"狛江市東野川2-1-10-102.103","lat":35.642234,"lon":139.580042},{"name":"はっぴぃハウス","province":"東京都","city":"狛江市","address":"狛江市和泉本町4-7-27-103","lat":35.643051,"lon":139.568946},{"name":"こどもデイサービスほっぷ","province":"東京都","city":"狛江市","address":"狛江市和泉本町4-2-13SANTESAKAE202","lat":35.641318,"lon":139.569443},{"name":"こどもデイサービス　すてっぷ","province":"東京都","city":"狛江市","address":"狛江市和泉本町4-2-13","lat":35.641318,"lon":139.569443},{"name":"ウイングこまえ","province":"東京都","city":"狛江市","address":"狛江市岩戸北三丁目22番13号","lat":35.632275,"lon":139.583237},{"name":"ゆめぽっと","province":"東京都","city":"狛江市","address":"狛江市中和泉2-10-1","lat":35.638782,"lon":139.572912},{"name":"狛江市子ども家庭支援センター","province":"東京都","city":"狛江市","address":"狛江市岩戸南3-15-1岩戸児童センター2階","lat":35.629103,"lon":139.587948},{"name":"狛江市子ども家庭支援センター","province":"東京都","city":"狛江市","address":"狛江市元和泉2-35-1","lat":35.6334,"lon":139.567413},{"name":"狛江市子ども家庭支援センター","province":"東京都","city":"狛江市","address":"狛江市元和泉1-11-11ひだまりセンター1階","lat":35.63123,"lon":139.57588},{"name":"こども教室えるぶ","province":"東京都","city":"狛江市","address":"狛江市東野川2-1-10-102.103","lat":35.642234,"lon":139.580042},{"name":"はっぴぃハウス","province":"東京都","city":"狛江市","address":"狛江市和泉本町4-7-27-103","lat":35.643051,"lon":139.568946},{"name":"こどもデイサービスほっぷ","province":"東京都","city":"狛江市","address":"狛江市和泉本町4-2-13SANTESAKAE202","lat":35.641318,"lon":139.569443},{"name":"こどもデイサービス　すてっぷ","province":"東京都","city":"狛江市","address":"狛江市和泉本町4-2-13","lat":35.641318,"lon":139.569443},{"name":"ウイングこまえ","province":"東京都","city":"狛江市","address":"狛江市岩戸北三丁目22番13号","lat":35.632275,"lon":139.583237},{"name":"ゆめぽっと","province":"東京都","city":"狛江市","address":"狛江市中和泉2-10-1","lat":35.638782,"lon":139.572912},{"name":"狛江市子ども家庭支援センター","province":"東京都","city":"狛江市","address":"狛江市岩戸南3-15-1岩戸児童センター2階","lat":35.629103,"lon":139.587948},{"name":"狛江市子ども家庭支援センター","province":"東京都","city":"狛江市","address":"狛江市元和泉2-35-1","lat":35.6334,"lon":139.567413},{"name":"狛江市子ども家庭支援センター","province":"東京都","city":"狛江市","address":"狛江市元和泉1-11-11ひだまりセンター1階","lat":35.63123,"lon":139.57588},{"name":"こども教室えるぶ","province":"東京都","city":"狛江市","address":"狛江市東野川2-1-10-102.103","lat":35.642234,"lon":139.580042},{"name":"はっぴぃハウス","province":"東京都","city":"狛江市","address":"狛江市和泉本町4-7-27-103","lat":35.643051,"lon":139.568946},{"name":"こどもデイサービスほっぷ","province":"東京都","city":"狛江市","address":"狛江市和泉本町4-2-13SANTESAKAE202","lat":35.641318,"lon":139.569443},{"name":"こどもデイサービス　すてっぷ","province":"東京都","city":"狛江市","address":"狛江市和泉本町4-2-13","lat":35.641318,"lon":139.569443},{"name":"ウイングこまえ","province":"東京都","city":"狛江市","address":"狛江市岩戸北三丁目22番13号","lat":35.632275,"lon":139.583237},{"name":"ゆめぽっと","province":"東京都","city":"狛江市","address":"狛江市中和泉2-10-1","lat":35.638782,"lon":139.572912},{"name":"狛江市子ども家庭支援センター","province":"東京都","city":"狛江市","address":"狛江市岩戸南3-15-1岩戸児童センター2階","lat":35.629103,"lon":139.587948},{"name":"狛江市子ども家庭支援センター","province":"東京都","city":"狛江市","address":"狛江市元和泉2-35-1","lat":35.6334,"lon":139.567413},{"name":"狛江市子ども家庭支援センター","province":"東京都","city":"狛江市","address":"狛江市元和泉1-11-11ひだまりセンター1階","lat":35.63123,"lon":139.57588}]}