{"keyword":"男女","data":[{"name":"東京慈恵会医科大学附属第三病院","province":"東京都","city":"狛江市","address":"東京都狛江市和泉本町4丁目11-1","lat":35.64548376,"lon":139.56598762},{"name":"パイオニアキッズ西野川園","province":"東京都","city":"狛江市","address":"狛江市西野川2-4-15","lat":35.644009,"lon":139.575034},{"name":"狛江保育園","province":"東京都","city":"狛江市","address":"狛江市西野川4-12-1","lat":35.647061,"lon":139.572648},{"name":"三島保育園","province":"東京都","city":"狛江市","address":"狛江市東野川1-32-2","lat":35.64189,"lon":139.582914},{"name":"東野川保育園みんなの家","province":"東京都","city":"狛江市","address":"狛江市東野川4-9-7","lat":35.644812,"lon":139.583536},{"name":"藤塚保育園","province":"東京都","city":"狛江市","address":"狛江市和泉本町4-7-35","lat":35.642112,"lon":139.56984},{"name":"狛江子どもの家","province":"東京都","city":"狛江市","address":"狛江市和泉本町1-36-4","lat":35.636205,"lon":139.577915},{"name":"いずみ保育園","province":"東京都","city":"狛江市","address":"狛江市岩戸北1-1-12","lat":35.635774,"lon":139.579845},{"name":"アスク岩戸北保育園","province":"東京都","city":"狛江市","address":"狛江市岩戸北3-3-23","lat":35.634341,"lon":139.582651},{"name":"駄倉保育園","province":"東京都","city":"狛江市","address":"狛江市岩戸北3-20-2","lat":35.632894,"lon":139.58164},{"name":"ベネッセ狛江南保育園","province":"東京都","city":"狛江市","address":"狛江市岩戸北3-23-8","lat":35.63228,"lon":139.582851},{"name":"多摩川保育園","province":"東京都","city":"狛江市","address":"狛江市西和泉1-5-1","lat":35.640415,"lon":139.563477},{"name":"グローバルキッズ狛江園","province":"東京都","city":"狛江市","address":"狛江市中和泉3-19-14","lat":35.63551,"lon":139.567263},{"name":"めぐみの森保育園","province":"東京都","city":"狛江市","address":"狛江市中和泉3-12-6","lat":35.636863,"lon":139.570504},{"name":"狛江ちとせ保育園","province":"東京都","city":"狛江市","address":"狛江市東和泉1-35-10","lat":35.629517,"lon":139.575646},{"name":"虹のひかり保育園","province":"東京都","city":"狛江市","address":"狛江市東和泉1-32-18","lat":35.630397,"lon":139.576365},{"name":"ぎんきょう保育園","province":"東京都","city":"狛江市","address":"狛江市東和泉1-34-25","lat":35.629603,"lon":139.576971},{"name":"駒井保育園","province":"東京都","city":"狛江市","address":"狛江市駒井町2-28-6","lat":35.62441,"lon":139.587573},{"name":"駒井町みんなの家","province":"東京都","city":"狛江市","address":"狛江市駒井町3-36-1","lat":35.623085,"lon":139.589087},{"name":"こども教室えるぶ","province":"東京都","city":"狛江市","address":"狛江市東野川2-1-10-102.103","lat":35.642234,"lon":139.580042},{"name":"はっぴぃハウス","province":"東京都","city":"狛江市","address":"狛江市和泉本町4-7-27-103","lat":35.643051,"lon":139.568946},{"name":"こどもデイサービスほっぷ","province":"東京都","city":"狛江市","address":"狛江市和泉本町4-2-13SANTESAKAE202","lat":35.641318,"lon":139.569443},{"name":"こどもデイサービス　すてっぷ","province":"東京都","city":"狛江市","address":"狛江市和泉本町4-2-13","lat":35.641318,"lon":139.569443},{"name":"ウイングこまえ","province":"東京都","city":"狛江市","address":"狛江市岩戸北三丁目22番13号","lat":35.632275,"lon":139.583237},{"name":"ゆめぽっと","province":"東京都","city":"狛江市","address":"狛江市中和泉2-10-1","lat":35.638782,"lon":139.572912},{"name":"狛江市保健センター（あいとぴあセンター）","province":"東京都","city":"狛江市","address":"狛江市元和泉2-35-1","lat":35.6333,"lon":139.567777},{"name":"西河原公民館","province":"東京都","city":"狛江市","address":"東京都狛江市元和泉2丁目35-1","lat":35.633456,"lon":139.566834},{"name":"狛江市庁舎","province":"東京都","city":"狛江市","address":"東京都狛江市和泉本町1丁目1-5","lat":35.634746,"lon":139.578776},{"name":"狛江市庁舎","province":"東京都","city":"狛江市","address":"東京都狛江市和泉本町1丁目1-5","lat":35.635005,"lon":139.578615},{"name":"狛江市庁舎","province":"東京都","city":"狛江市","address":"東京都狛江市和泉本町1丁目1-5","lat":35.63463,"lon":139.578749},{"name":"狛江市庁舎","province":"東京都","city":"狛江市","address":"東京都狛江市和泉本町1丁目1-5","lat":35.634875,"lon":139.578742},{"name":"狛江市防災センター","province":"東京都","city":"狛江市","address":"東京都狛江市和泉本町1丁目1-5","lat":35.634718,"lon":139.578234},{"name":"狛江市ビン・缶リサイクルセンター","province":"東京都","city":"狛江市","address":"東京都狛江市岩戸北1丁目1-11","lat":35.635704,"lon":139.580209},{"name":"中央公民館","province":"東京都","city":"狛江市","address":"東京都狛江市和泉本町1丁目1-5","lat":35.635147,"lon":139.578153},{"name":"西河原公民館","province":"東京都","city":"狛江市","address":"東京都狛江市元和泉2丁目35-1","lat":35.633421,"lon":139.567061},{"name":"エコルマホール","province":"東京都","city":"狛江市","address":"東京都狛江市元和泉1丁目2-1","lat":35.633073,"lon":139.577864},{"name":"西河原公民館","province":"東京都","city":"狛江市","address":"東京都狛江市元和泉2丁目35-1","lat":35.633435,"lon":139.566789},{"name":"西河原公民館","province":"東京都","city":"狛江市","address":"東京都狛江市元和泉2丁目35-1","lat":35.633457,"lon":139.566824},{"name":"野川地域センター","province":"東京都","city":"狛江市","address":"東京都狛江市西野川1丁目6-9","lat":35.646111,"lon":139.575493},{"name":"岩戸地域センター","province":"東京都","city":"狛江市","address":"東京都狛江市岩戸南2丁目2-5","lat":35.632129,"lon":139.586087},{"name":"上和泉地域センター","province":"東京都","city":"狛江市","address":"東京都狛江市和泉本町4丁目7-51","lat":35.645162,"lon":139.567931},{"name":"上和泉地域センター","province":"東京都","city":"狛江市","address":"東京都狛江市和泉本町4丁目7-51","lat":35.64517,"lon":139.5679},{"name":"南部地域センター","province":"東京都","city":"狛江市","address":"東京都狛江市猪方4丁目11","lat":35.623387,"lon":139.579702},{"name":"根川地区センター","province":"東京都","city":"狛江市","address":"東京都狛江市中和泉4丁目16-3","lat":35.63557,"lon":139.564173},{"name":"駄倉地区センター","province":"東京都","city":"狛江市","address":"東京都狛江市東和泉1丁目3-17","lat":35.632904,"lon":139.580609},{"name":"和泉多摩川地区センター","province":"東京都","city":"狛江市","address":"東京都狛江市猪方4丁目1-1","lat":35.624687,"lon":139.574068},{"name":"和泉多摩川地区センター","province":"東京都","city":"狛江市","address":"東京都狛江市猪方4丁目1-1","lat":35.624667,"lon":139.574026},{"name":"谷戸橋地区センター","province":"東京都","city":"狛江市","address":"東京都狛江市東野川4丁目30-1","lat":35.645767,"lon":139.58667},{"name":"狛江市あいとぴあセンター","province":"東京都","city":"狛江市","address":"東京都狛江市元和泉2丁目35-1","lat":35.633385,"lon":139.56751},{"name":"狛江市あいとぴあセンター","province":"東京都","city":"狛江市","address":"東京都狛江市元和泉2丁目35-1","lat":35.633354,"lon":139.567721},{"name":"狛江市あいとぴあセンター","province":"東京都","city":"狛江市","address":"東京都狛江市元和泉2丁目35-1","lat":35.633367,"lon":139.567563},{"name":"狛江市あいとぴあセンター","province":"東京都","city":"狛江市","address":"東京都狛江市元和泉2丁目35-1","lat":35.633372,"lon":139.567507},{"name":"狛江市あいとぴあセンター","province":"東京都","city":"狛江市","address":"東京都狛江市元和泉2丁目35-1","lat":35.633317,"lon":139.567902},{"name":"エコルマホール","province":"東京都","city":"狛江市","address":"東京都狛江市元和泉1丁目2-1","lat":35.633033,"lon":139.577859},{"name":"前原公園","province":"東京都","city":"狛江市","address":"東京都狛江市西野川3丁目11","lat":35.644532,"lon":139.57014},{"name":"西河原自然公園","province":"東京都","city":"狛江市","address":"東京都狛江市元和泉2丁目34","lat":35.63313,"lon":139.570309},{"name":"西河原公園","province":"東京都","city":"狛江市","address":"東京都狛江市元和泉2丁目38","lat":35.632747,"lon":139.567627},{"name":"狛江市立和泉児童館","province":"東京都","city":"狛江市","address":"東京都狛江市中和泉3丁目12-6","lat":35.636909,"lon":139.570529},{"name":"狛江市立駒井学童保育所","province":"東京都","city":"狛江市","address":"東京都狛江市駒井町1丁目21-6","lat":35.62494,"lon":139.585234},{"name":"元和泉市民テニスコート","province":"東京都","city":"狛江市","address":"東京都狛江市元和泉2丁目8","lat":35.630171,"lon":139.571586},{"name":"市民グランド","province":"東京都","city":"狛江市","address":"東京都狛江市和泉本町2丁目15-2","lat":35.640449,"lon":139.579285},{"name":"市民総合体育館","province":"東京都","city":"狛江市","address":"東京都狛江市和泉本町3丁目25-1","lat":35.64217,"lon":139.573177},{"name":"市民総合体育館","province":"東京都","city":"狛江市","address":"東京都狛江市和泉本町3丁目25-1","lat":35.64217,"lon":139.573178},{"name":"市民総合体育館","province":"東京都","city":"狛江市","address":"東京都狛江市和泉本町3丁目25-1","lat":35.64217,"lon":139.573174},{"name":"狛江市子育て・教育支援複合施設","province":"東京都","city":"狛江市","address":"東京都狛江市元和泉1丁目11-11","lat":35.631381,"lon":139.57609},{"name":"寺前小学生クラブ","province":"東京都","city":"狛江市","address":"東京都狛江市元和泉1丁目23-3","lat":35.630207,"lon":139.575552},{"name":"中央図書館","province":"東京都","city":"狛江市","address":"東京都狛江市和泉本町1丁目1-5","lat":35.63491314,"lon":139.57873418},{"name":"西河原公民館図書館","province":"東京都","city":"狛江市","address":"東京都狛江市元和泉2丁目35-1","lat":35.6333052,"lon":139.56761624},{"name":"野川地域センター図書館","province":"東京都","city":"狛江市","address":"東京都狛江市西野川1丁目6-9","lat":35.64608091,"lon":139.57550046},{"name":"上和泉地域センター図書館","province":"東京都","city":"狛江市","address":"東京都狛江市和泉本町4丁目7-51","lat":35.64522822,"lon":139.5679874},{"name":"岩戸地域センター図書室","province":"東京都","city":"狛江市","address":"東京都狛江市岩戸南2丁目2-5","lat":35.63215548,"lon":139.58610878},{"name":"南部地域センター図書室","province":"東京都","city":"狛江市","address":"東京都狛江市猪方4丁目11-1","lat":35.6233737,"lon":139.57983535},{"name":"市民プール","province":"東京都","city":"狛江市","address":"東京都狛江市和泉本町3丁目25-1","lat":35.64199804,"lon":139.57305642},{"name":"元和泉市民運動広場","province":"東京都","city":"狛江市","address":"東京都狛江市元和泉3丁目10","lat":35.62947806,"lon":139.57118841},{"name":"NPO法人 狛江子ども食堂","province":"東京都","city":"狛江市","address":"東京都狛江市和泉本町4-7-51","lat":35.64514,"lon":139.568013},{"name":"みんなの居場所","province":"東京都","city":"狛江市","address":"東京都狛江市元和泉2-35-1","lat":35.633377,"lon":139.567064},{"name":"こどもの多摩里食堂","province":"東京都","city":"狛江市","address":"東京都狛江市東和泉2-9-11","lat":35.630515,"lon":139.580245},{"name":"ごはん＋居場所 おかえり","province":"東京都","city":"狛江市","address":"東京都狛江市東和泉2-20-12-1F","lat":35.628329,"lon":139.575847},{"name":"月末食堂","province":"東京都","city":"狛江市","address":"東京都狛江市東和泉1-32-3-102","lat":35.630338,"lon":139.577365},{"name":"コスモスこども・おとな食堂","province":"東京都","city":"狛江市","address":"東京都狛江市岩戸南2-2-5","lat":35.632142,"lon":139.586058},{"name":"和泉本町給水所","province":"東京都","city":"狛江市","address":"東京都狛江市和泉本町4-6-1","lat":35.6429908,"lon":139.571116},{"name":"パイオニアキッズ西野川園","province":"東京都","city":"狛江市","address":"狛江市西野川2-4-15","lat":35.6440155,"lon":139.5749907},{"name":"狛江保育園","province":"東京都","city":"狛江市","address":"狛江市西野川4-12-1","lat":35.64687,"lon":139.57288},{"name":"三島保育園","province":"東京都","city":"狛江市","address":"狛江市東野川1-32-2","lat":35.64243,"lon":139.5831},{"name":"東野川保育園みんなの家","province":"東京都","city":"狛江市","address":"狛江市東野川4丁目9番7号","lat":35.6446,"lon":139.58388},{"name":"狛江子どもの家","province":"東京都","city":"狛江市","address":"狛江市和泉本町1-36-4","lat":35.6362,"lon":139.57793},{"name":"藤塚保育園","province":"東京都","city":"狛江市","address":"狛江市和泉本町4-7-35","lat":35.64428,"lon":139.56754},{"name":"いずみ保育園","province":"東京都","city":"狛江市","address":"狛江市岩戸北1-1-12","lat":35.63538,"lon":139.57996},{"name":"駄倉保育園","province":"東京都","city":"狛江市","address":"狛江市岩戸北3-20-2","lat":35.6328,"lon":139.58191},{"name":"ベネッセ狛江南保育園","province":"東京都","city":"狛江市","address":"狛江市岩戸北3-23-8","lat":35.63226,"lon":139.58269},{"name":"アスク岩戸北保育園","province":"東京都","city":"狛江市","address":"狛江市岩戸北3-3-23","lat":35.63461,"lon":139.58246},{"name":"木下の保育園　岩戸北","province":"東京都","city":"狛江市","address":"狛江市岩戸北3丁目1番19号","lat":35.6347,"lon":139.58116},{"name":"多摩川保育園","province":"東京都","city":"狛江市","address":"狛江市西和泉1-5-1","lat":35.64032,"lon":139.56439},{"name":"めぐみの森保育園","province":"東京都","city":"狛江市","address":"狛江市中和泉3-12-6","lat":35.63688,"lon":139.57047},{"name":"グローバルキッズ狛江園","province":"東京都","city":"狛江市","address":"狛江市中和泉3-19-14","lat":35.63549,"lon":139.5676},{"name":"いずみの森保育園","province":"東京都","city":"狛江市","address":"狛江市元和泉1-10-10","lat":35.63189,"lon":139.57593},{"name":"木下の保育園　元和泉","province":"東京都","city":"狛江市","address":"狛江市元和泉1丁目19番4号","lat":35.63077,"lon":139.5744},{"name":"虹のひかり保育園","province":"東京都","city":"狛江市","address":"狛江市東和泉1-32-18","lat":35.63037,"lon":139.5768},{"name":"ぎんきょう保育園","province":"東京都","city":"狛江市","address":"狛江市東和泉1-34-25","lat":35.62965,"lon":139.57663},{"name":"狛江ちとせ保育園","province":"東京都","city":"狛江市","address":"狛江市東和泉1-35-10","lat":35.6295,"lon":139.57567},{"name":"駒井保育園","province":"東京都","city":"狛江市","address":"狛江市駒井町2-28-6","lat":35.62431,"lon":139.58742},{"name":"駒井町みんなの家","province":"東京都","city":"狛江市","address":"狛江市駒井町3丁目36番1号","lat":35.62307,"lon":139.58911},{"name":"狛江市","province":"東京都","city":"狛江市","address":"狛江市和泉本町1-1-5","lat":35.63494,"lon":139.57837},{"name":"狛江市役所","province":"東京都","city":"狛江市","address":"東京都狛江市和泉本町1丁目1番5号","lat":35.63494013,"lon":139.5787757},{"name":"狛江市役所","province":"東京都","city":"狛江市","address":"東京都狛江市和泉本町1丁目1番5号","lat":35.63466216,"lon":139.5781963},{"name":"狛江市立狛江第一小学校","province":"東京都","city":"狛江市","address":"東京都狛江市和泉本町1丁目37番1号","lat":35.63733,"lon":139.57809},{"name":"狛江市立狛江第三小学校","province":"東京都","city":"狛江市","address":"東京都狛江市猪方1丁目11番1号","lat":35.62810934,"lon":139.585056},{"name":"狛江市立狛江第五小学校","province":"東京都","city":"狛江市","address":"東京都狛江市東野川1丁目35番13号","lat":35.64393576,"lon":139.5816416},{"name":"狛江市立狛江第六小学校","province":"東京都","city":"狛江市","address":"東京都狛江市駒井町1丁目21番1号","lat":35.62460954,"lon":139.5852024},{"name":"狛江市立和泉小学校","province":"東京都","city":"狛江市","address":"東京都狛江市中和泉3丁目33丁目1番","lat":35.63473697,"lon":139.5683215},{"name":"狛江市立緑野小学校","province":"東京都","city":"狛江市","address":"東京都狛江市和泉本町4丁目3番1号","lat":35.64171,"lon":139.57103},{"name":"狛江市立狛江第一中学校","province":"東京都","city":"狛江市","address":"東京都狛江市和泉本町2丁目15番1号","lat":35.64082622,"lon":139.5776589},{"name":"狛江市立狛江第二中学校","province":"東京都","city":"狛江市","address":"東京都狛江市猪方2丁目7番1号","lat":35.62727,"lon":139.58314},{"name":"狛江市立狛江第三中学校","province":"東京都","city":"狛江市","address":"東京都狛江市元和泉1丁目23番1号","lat":35.62995,"lon":139.57463},{"name":"狛江市立狛江第四中学校","province":"東京都","city":"狛江市","address":"東京都狛江市狛氏東野川4丁目1番1号","lat":35.64523,"lon":139.58167},{"name":"狛江市立狛江第一小学校体育館","province":"東京都","city":"狛江市","address":"東京都狛江市和泉本町1丁目37番1号","lat":35.63745,"lon":139.57815},{"name":"狛江市立狛江第三小学校体育館","province":"東京都","city":"狛江市","address":"東京都狛江市猪方1丁目11番1号","lat":35.62778,"lon":139.58448},{"name":"狛江市立狛江第五小学校体育館","province":"東京都","city":"狛江市","address":"東京都狛江市東野川1丁目35番13号","lat":35.64383,"lon":139.58096},{"name":"狛江市立狛江第六小学校体育館","province":"東京都","city":"狛江市","address":"東京都狛江市駒井町1丁目21丁目1号","lat":35.62478,"lon":139.5849},{"name":"狛江市立和泉小学校体育館","province":"東京都","city":"狛江市","address":"東京都狛江市中和泉3丁目33丁目1号","lat":35.63485,"lon":139.56861},{"name":"狛江市立緑野小学校体育館","province":"東京都","city":"狛江市","address":"東京都狛江市和泉本町4丁目3番1号","lat":35.64138,"lon":139.57017},{"name":"狛江市立狛江第一中学校体育館","province":"東京都","city":"狛江市","address":"東京都狛江市和泉本町2丁目15番1号","lat":35.6404518,"lon":139.5774335},{"name":"狛江市立狛江第二中学校体育館","province":"東京都","city":"狛江市","address":"東京都狛江市猪方2丁目7番1号","lat":35.62698,"lon":139.58317},{"name":"狛江市立狛江第三中学校体育館","province":"東京都","city":"狛江市","address":"東京都狛江市元和泉1丁目23番1号","lat":35.63017,"lon":139.57445},{"name":"狛江市立狛江第四中学校体育館","province":"東京都","city":"狛江市","address":"東京都狛江市東野川4丁目1番1号","lat":35.64543,"lon":139.58198},{"name":"中央公民館","province":"東京都","city":"狛江市","address":"東京都狛江市和泉本町1丁目1番5号","lat":35.63506,"lon":139.57815},{"name":"西河原公民館","province":"東京都","city":"狛江市","address":"東京都狛江市元和泉2丁目35番1号","lat":35.63338,"lon":139.56706},{"name":"狛江市民総合体育館","province":"東京都","city":"狛江市","address":"東京都狛江市和泉本町3丁目25番1号","lat":35.64236,"lon":139.57323},{"name":"狛江市民グランド","province":"東京都","city":"狛江市","address":"東京都狛江市和泉本町2丁目15番2号","lat":35.63988,"lon":139.57898},{"name":"西和泉体育館","province":"東京都","city":"狛江市","address":"東京都狛江市西和泉1丁目16番1号","lat":35.64027,"lon":139.56512},{"name":"元和泉市民テニスコート","province":"東京都","city":"狛江市","address":"東京都狛江市元和泉2丁目8番1号","lat":35.63018294,"lon":139.5716077},{"name":"東野川市民テニスコート","province":"東京都","city":"狛江市","address":"東京都狛江市東野川3丁目14番10号","lat":35.64707,"lon":139.58233},{"name":"古民家園","province":"東京都","city":"狛江市","address":"東京都狛江市元和泉2丁目15番5号","lat":35.63297,"lon":139.57095},{"name":"あいとぴあセンター","province":"東京都","city":"狛江市","address":"東京都狛江市元和泉2丁目35番1号","lat":35.63331,"lon":139.56778},{"name":"狛江市子育て・教育支援複合施設（ひだまりセンター）","province":"東京都","city":"狛江市","address":"東京都狛江市元和泉1丁目11番11号","lat":35.6314,"lon":139.57617},{"name":"駒井学童保育所・六小KoKoA","province":"東京都","city":"狛江市","address":"東京都狛江市駒井町1丁目21番6号","lat":35.62494,"lon":139.5853},{"name":"猪方学童保育所","province":"東京都","city":"狛江市","address":"東京都狛江市猪方1丁目11番2号","lat":35.62736,"lon":139.58567},{"name":"東野川学童保育所","province":"東京都","city":"狛江市","address":"東京都狛江市東野川1丁目6番3号","lat":35.64332,"lon":139.58086},{"name":"松原学童保育所","province":"東京都","city":"狛江市","address":"東京都狛江市和泉本町1丁目14番3号","lat":35.63896,"lon":139.5779},{"name":"上和泉学童保育所","province":"東京都","city":"狛江市","address":"東京都狛江市和泉本町4丁目7番51号","lat":35.64509,"lon":139.56798},{"name":"第五小学校放課後クラブ","province":"東京都","city":"狛江市","address":"東京都狛江市東野川1丁目36番13号","lat":35.64458,"lon":139.58173},{"name":"藤塚保育園","province":"東京都","city":"狛江市","address":"東京都狛江市和泉本町4丁目7番35号","lat":35.64219,"lon":139.56986},{"name":"駒井保育園","province":"東京都","city":"狛江市","address":"東京都狛江市駒井町2丁目28番6号","lat":35.62443767,"lon":139.5875633},{"name":"駄倉保育園","province":"東京都","city":"狛江市","address":"東京都狛江市岩戸北3丁目20番2号","lat":35.63291,"lon":139.58162},{"name":"三島保育園","province":"東京都","city":"狛江市","address":"東京都狛江市東野川1丁目32番2号","lat":35.64188,"lon":139.58283},{"name":"岩戸児童センター","province":"東京都","city":"狛江市","address":"東京都狛江市岩戸南3丁目15番1号","lat":35.62917099,"lon":139.587911},{"name":"和泉児童館","province":"東京都","city":"狛江市","address":"東京都狛江市中和泉3丁目12番6号","lat":35.63685,"lon":139.57062},{"name":"こまっこ児童館","province":"東京都","city":"狛江市","address":"東京都狛江市和泉本町3丁目31番19号","lat":35.64204402,"lon":139.575466},{"name":"駄倉小学生クラブ","province":"東京都","city":"狛江市","address":"東京都狛江市東和泉1丁目3番17号","lat":35.63291,"lon":139.58058},{"name":"市民活動支援センター（こまえくぼ1234）","province":"東京都","city":"狛江市","address":"東京都狛江市和泉本町1丁目2番34号","lat":35.63432,"lon":139.58038},{"name":"野川地域センター","province":"東京都","city":"狛江市","address":"東京都狛江市西野川1丁目6番9号","lat":35.64612,"lon":139.57566},{"name":"上和泉地域センター","province":"東京都","city":"狛江市","address":"東京都狛江市和泉本町4丁目7番51号","lat":35.64511409,"lon":139.5678151},{"name":"岩戸地域センター","province":"東京都","city":"狛江市","address":"東京都狛江市岩戸南2丁目2丁目5号","lat":35.63214,"lon":139.58608},{"name":"南部地域センター","province":"東京都","city":"狛江市","address":"東京都狛江市猪方4丁目11番1号","lat":35.62337497,"lon":139.5798098},{"name":"和泉多摩川地区センター","province":"東京都","city":"狛江市","address":"東京都狛江市猪方4丁目1番1号","lat":35.62467,"lon":139.57405},{"name":"狛江市民ホール","province":"東京都","city":"狛江市","address":"東京都狛江市元和泉1丁目2番1号","lat":35.63309,"lon":139.5778},{"name":"オダクル狛江第1","province":"東京都","city":"狛江市","address":"東京都狛江市和泉本町1丁目2","lat":35.63414941,"lon":139.57939809},{"name":"オダクル狛江第2","province":"東京都","city":"狛江市","address":"東京都狛江市元和泉1丁目11","lat":35.63119715,"lon":139.5759071},{"name":"オダクルマルシェ狛江","province":"東京都","city":"狛江市","address":"東京都狛江市元和泉1丁目1","lat":35.63360228,"lon":139.5785899},{"name":"狛江駅北口自転車駐車場","province":"東京都","city":"狛江市","address":"東京都狛江市元和泉1丁目3","lat":35.6328524,"lon":139.57728177},{"name":"狛江駅南口第１自転車等駐車場","province":"東京都","city":"狛江市","address":"東京都狛江市東和泉1丁目17","lat":35.63206089,"lon":139.57744019},{"name":"オダクル喜多見店舗","province":"東京都","city":"狛江市","address":"東京都狛江市岩戸北2丁目20","lat":35.63603812,"lon":139.58530293},{"name":"オダクル喜多見第2","province":"東京都","city":"狛江市","address":"東京都狛江市岩戸北1丁目24","lat":35.63600755,"lon":139.58455857},{"name":"東都サイクルパーク喜多見第１","province":"東京都","city":"狛江市","address":"東京都狛江市岩戸北4丁目6","lat":35.6359937,"lon":139.58585012},{"name":"小川園宝島駐輪場","province":"東京都","city":"狛江市","address":"東京都狛江市岩戸北4丁目2","lat":35.63457449,"lon":139.5856697},{"name":"オダクル和泉多摩川第1","province":"東京都","city":"狛江市","address":"東京都狛江市東和泉4丁目1","lat":35.62800613,"lon":139.57366052},{"name":"オダクル和泉多摩川第2","province":"東京都","city":"狛江市","address":"東京都狛江市東和泉4丁目6","lat":35.62651476,"lon":139.57243861},{"name":"中和泉一丁目自転車置場","province":"東京都","city":"狛江市","address":"東京都狛江市中和泉1丁目25","lat":35.63396875,"lon":139.57337644},{"name":"和泉多摩川自転車置場（高架下）","province":"東京都","city":"狛江市","address":"東京都狛江市東和泉4丁目8","lat":35.62664253,"lon":139.57138318},{"name":"オダクル和泉多摩川東口","province":"東京都","city":"狛江市","address":"東京都狛江市東和泉4丁目2","lat":35.62754789,"lon":139.57372724},{"name":"狛江駅南口第2自転車駐車場","province":"東京都","city":"狛江市","address":"東京都狛江市東和泉1丁目20","lat":35.63166375,"lon":139.57751522},{"name":"東都サイクルパーク狛江駅前","province":"東京都","city":"狛江市","address":"東京都狛江市東和泉1丁目14","lat":35.63284132,"lon":139.57858999},{"name":"東都サイクルパーク和泉多摩川","province":"東京都","city":"狛江市","address":"東京都狛江市東和泉3丁目1","lat":35.62838383,"lon":139.57500476},{"name":"福祉保健部福祉相談課","province":"東京都","city":"狛江市","address":"狛江市和泉本町1-1-5","lat":35.634491,"lon":139.577927},{"name":"あいとぴあ地域包括支援センター","province":"東京都","city":"狛江市","address":"狛江市元和泉2-35-1","lat":35.6334,"lon":139.567413},{"name":"地域包括支援センターこまえ正吉苑","province":"東京都","city":"狛江市","address":"狛江市西野川2-27-23","lat":35.645802,"lon":139.573868},{"name":"地域包括支援センターこまえ苑","province":"東京都","city":"狛江市","address":"狛江市岩戸南4-17-17","lat":35.626041,"lon":139.592285},{"name":"地域生活支援センターリヒト","province":"東京都","city":"狛江市","address":"東京都狛江市元和泉2丁目35-1","lat":35.6333052,"lon":139.56761624},{"name":"社会福祉法人足立邦栄会ポンテ","province":"東京都","city":"狛江市","address":"東京都狛江市元和泉2丁目35-1","lat":35.6333052,"lon":139.56761624},{"name":"社会福祉法人光友会ひかり作業所","province":"東京都","city":"狛江市","address":"東京都狛江市岩戸南3丁目11-9","lat":35.63010038,"lon":139.59175843},{"name":"一般社団法人GGサポート多機能事業所パザパ","province":"東京都","city":"狛江市","address":"東京都狛江市和泉本町1丁目9-4","lat":35.63684337,"lon":139.57960891},{"name":"虹のひかり保育園","province":"東京都","city":"狛江市","address":"狛江市東和泉1-32-18","lat":35.63038,"lon":139.5768},{"name":"狛江三差路","province":"東京都","city":"狛江市","address":"東京都狛江市東和泉1丁目5-13","lat":35.63171937,"lon":139.58209254},{"name":"狛江二の橋","province":"東京都","city":"狛江市","address":"東京都狛江市岩戸南2丁目5-5","lat":35.63282486,"lon":139.58888901},{"name":"狛江市役所前","province":"東京都","city":"狛江市","address":"東京都狛江市中和泉1丁目1-1","lat":35.63391331,"lon":139.57796492},{"name":"狛江駅入口","province":"東京都","city":"狛江市","address":"東京都狛江市東和泉1丁目33-2","lat":35.63022516,"lon":139.57860972},{"name":"狛江福祉会館前","province":"東京都","city":"狛江市","address":"東京都狛江市元和泉2丁目35-1","lat":35.6333052,"lon":139.56761624},{"name":"狛江市役所前第二","province":"東京都","city":"狛江市","address":"東京都狛江市和泉本町1丁目1-10","lat":35.6350242,"lon":139.57773147},{"name":"狛江水神東","province":"東京都","city":"狛江市","address":"東京都狛江市元和泉2丁目36","lat":35.63369411,"lon":139.56580536},{"name":"狛江駅北口","province":"東京都","city":"狛江市","address":"東京都狛江市元和泉1丁目3","lat":35.6328524,"lon":139.57728177},{"name":"和泉本町浄水所","province":"東京都","city":"狛江市","address":"東京都狛江市和泉本町4丁目6-1","lat":35.64293402,"lon":139.57119546},{"name":"狛江市立多摩川緑地公園グラウンド","province":"東京都","city":"狛江市","address":"東京都狛江市猪方4丁目","lat":35.62390138,"lon":139.57723281},{"name":"防衛省共済組合狛江スポーツセンター","province":"東京都","city":"狛江市","address":"東京都狛江市元和泉2丁目30","lat":35.63228871,"lon":139.5684829},{"name":"＊?狛江市民ホール（エコルマ）","province":"東京都","city":"狛江市","address":"狛江市元和泉1-2-1","lat":35.633279,"lon":139.577995},{"name":"多摩川五本松","province":"東京都","city":"狛江市","address":"東京都狛江市元和泉三丁目地先","lat":35.632433,"lon":139.33579},{"name":"狛江エコルマホール","province":"東京都","city":"狛江市","address":"東京都狛江市元和泉1-2-1","lat":35.633278,"lon":139.578031},{"name":"巨大絵手紙","province":"東京都","city":"狛江市","address":"東京都狛江市元和泉1丁目","lat":35.632978,"lon":139.577494},{"name":"絵手紙表示板","province":"東京都","city":"狛江市","address":"東京都狛江市元和泉1丁目","lat":35.633321,"lon":139.577728},{"name":"泉龍寺","province":"東京都","city":"狛江市","address":"東京都狛江市元和泉1-6-1","lat":35.63313,"lon":139.575696},{"name":"玉泉寺","province":"東京都","city":"狛江市","address":"東京都狛江市東和泉3-10-23","lat":35.626955,"lon":139.573943},{"name":"伊豆美神社","province":"東京都","city":"狛江市","address":"東京都狛江市中和泉3-21-8","lat":35.635205,"lon":139.569083},{"name":"多摩川","province":"東京都","city":"狛江市","address":"東京都狛江市猪方4-3","lat":35.623493,"lon":139.576259},{"name":"泉龍寺弁財天池","province":"東京都","city":"狛江市","address":"東京都狛江市元和泉1-8","lat":35.632292,"lon":139.576168},{"name":"伊豆美神社鳥居","province":"東京都","city":"狛江市","address":"東京都狛江市中伊豆美3-21-8","lat":35.634736,"lon":139.569012},{"name":"木造石谷貞清坐像","province":"東京都","city":"狛江市","address":"東京都狛江市元和泉1-6-1","lat":35.63314,"lon":139.576404},{"name":"石川丈山撰文「宗淳居士晩詞并序」の扁額","province":"東京都","city":"狛江市","address":"東京都狛江市元和泉1-6-1","lat":35.63314,"lon":139.576404},{"name":"玉泉寺のボダイジュ","province":"東京都","city":"狛江市","address":"東京都狛江市東和泉3-10-23","lat":35.626988,"lon":139.573948},{"name":"慶長十五年（1610）の雲版","province":"東京都","city":"狛江市","address":"東京都狛江市元和泉1-6-1","lat":35.63314,"lon":139.576404},{"name":"絹本著色石谷貞清画像","province":"東京都","city":"狛江市","address":"東京都狛江市元和泉1-6-1","lat":35.63314,"lon":139.576404},{"name":"石井家文書　附　荒井家・大久保家・谷田部家旧蔵文書","province":"東京都","city":"狛江市","address":"東京都狛江市和泉本町1-1-5","lat":35.634967,"lon":139.578738},{"name":"栗山家文書","province":"東京都","city":"狛江市","address":"東京都狛江市和泉本町1-1-5","lat":35.634967,"lon":139.578738},{"name":"土屋塚古墳","province":"東京都","city":"狛江市","address":"東京都狛江市岩戸南1-4","lat":35.63229,"lon":139.585148},{"name":"旧荒井家住宅主屋","province":"東京都","city":"狛江市","address":"東京都狛江市元和泉2-15-5","lat":35.632911,"lon":139.571155},{"name":"土屋塚古墳出土遺物","province":"東京都","city":"狛江市","address":"東京都狛江市和泉本町1-1-5","lat":35.634967,"lon":139.578738},{"name":"弁財天池遺跡１号方形周溝墓出土遺物","province":"東京都","city":"狛江市","address":"東京都狛江市和泉本町1-1-5","lat":35.634967,"lon":139.578738},{"name":"旧?木家長屋門　附　棟札１枚","province":"東京都","city":"狛江市","address":"東京都狛江市元和泉2-15-5","lat":35.632911,"lon":139.571155},{"name":"泉龍寺本堂、開山堂、鐘楼門、山門　附　棟札３枚","province":"東京都","city":"狛江市","address":"東京都狛江市元和泉1-6-1","lat":35.633101,"lon":139.575696},{"name":"猪方小川塚古墳","province":"東京都","city":"狛江市","address":"東京都狛江市猪方3-21","lat":35.625593,"lon":139.577011},{"name":"猪方小川塚古墳出土遺物","province":"東京都","city":"狛江市","address":"東京都狛江市和泉本町1-1-5","lat":35.634967,"lon":139.578738},{"name":"井伊直弼公敬慕碑","province":"東京都","city":"狛江市","address":"東京都狛江市中伊豆美3-21-8","lat":35.634736,"lon":139.569012},{"name":"狛江市子ども家庭支援センター","province":"東京都","city":"狛江市","address":"東京都狛江市元和泉2-35-1","lat":35.6333,"lon":139.567778},{"name":"南部地域センター","province":"東京都","city":"狛江市","address":"東京都狛江市猪方4-11-1","lat":35.623377,"lon":139.579809},{"name":"上和泉地域センター","province":"東京都","city":"狛江市","address":"東京都狛江市和泉本町4-7-51","lat":35.645149,"lon":139.568014},{"name":"岩戸地域センター","province":"東京都","city":"狛江市","address":"東京都狛江市岩戸南2-2-5","lat":35.632071,"lon":139.586045},{"name":"野川地域センター","province":"東京都","city":"狛江市","address":"東京都狛江市西野川1-6-9","lat":35.646093,"lon":139.575503},{"name":"狛江市中央公民館","province":"東京都","city":"狛江市","address":"東京都狛江市和泉本町1-1-5","lat":35.635208,"lon":139.578171},{"name":"狛江市あいとぴあセンター","province":"東京都","city":"狛江市","address":"東京都狛江市元和泉2-35-1","lat":35.633349,"lon":139.56768},{"name":"狛江市西河原公民館","province":"東京都","city":"狛江市","address":"東京都狛江市元和泉2-35-1","lat":35.63344,"lon":139.567029},{"name":"狛江市立古民家園","province":"東京都","city":"狛江市","address":"東京都狛江市元和泉2-15-5","lat":35.632911,"lon":139.571155},{"name":"中村児童公園","province":"東京都","city":"狛江市","address":"東京都狛江市東野川2-16-10","lat":35.645554,"lon":139.579756},{"name":"丸山児童公園","province":"東京都","city":"狛江市","address":"東京都狛江市和泉本町2-15-3","lat":35.640334,"lon":139.579484},{"name":"供養塚児童公園","province":"東京都","city":"狛江市","address":"東京都狛江市駒井町3-3-1","lat":35.623597,"lon":139.581942},{"name":"田中の池児童公園","province":"東京都","city":"狛江市","address":"東京都狛江市元和泉2-17-1","lat":35.631247,"lon":139.572177},{"name":"多摩川緑地公園","province":"東京都","city":"狛江市","address":"東京都狛江市猪方4-923","lat":35.624292,"lon":139.573484},{"name":"藤塚第一児童公園","province":"東京都","city":"狛江市","address":"東京都狛江市和泉本町4-7-14","lat":35.644954,"lon":139.567907},{"name":"藤塚第二児童公園","province":"東京都","city":"狛江市","address":"東京都狛江市和泉本町4-7-12","lat":35.644405,"lon":139.568019},{"name":"藤塚第三児童公園","province":"東京都","city":"狛江市","address":"東京都狛江市和泉本町4-7-25","lat":35.643747,"lon":139.568703},{"name":"藤塚第四児童公園","province":"東京都","city":"狛江市","address":"東京都狛江市和泉本町4-7-39","lat":35.642764,"lon":139.569631},{"name":"西河原公園","province":"東京都","city":"狛江市","address":"東京都狛江市元和泉2-38-1","lat":35.632862,"lon":139.567111},{"name":"野川緑地公園","province":"東京都","city":"狛江市","address":"東京都狛江市和泉本町、岩戸北、東野川、西野川地内","lat":35.642924,"lon":139.578609},{"name":"みつおさ児童公園","province":"東京都","city":"狛江市","address":"東京都狛江市東野川3-16-4","lat":35.646008,"lon":139.5841},{"name":"水道橋児童公園","province":"東京都","city":"狛江市","address":"東京都狛江市東和泉4-9-1","lat":35.626327,"lon":139.570912},{"name":"岩戸川緑地公園","province":"東京都","city":"狛江市","address":"東京都狛江市岩戸南、猪方地内","lat":35.629286,"lon":139.587096},{"name":"野川北公園","province":"東京都","city":"狛江市","address":"東京都狛江市西野川1-19-10","lat":35.648544,"lon":139.576102},{"name":"元和泉公園","province":"東京都","city":"狛江市","address":"東京都狛江市元和泉2-12-7","lat":35.631988,"lon":139.57233},{"name":"西河原自然公園","province":"東京都","city":"狛江市","address":"東京都狛江市元和泉2-34-20","lat":35.633246,"lon":139.570163},{"name":"和泉多摩川児童公園","province":"東京都","city":"狛江市","address":"東京都狛江市元和泉3-6-11","lat":35.628261,"lon":139.571899},{"name":"小足立のびのび公園","province":"東京都","city":"狛江市","address":"東京都狛江市西野川4-14-1","lat":35.647587,"lon":139.572822},{"name":"前原公園","province":"東京都","city":"狛江市","address":"東京都狛江市西野川3-11-1","lat":35.64497,"lon":139.570204},{"name":"駒井・上村中ひだまり公園","province":"東京都","city":"狛江市","address":"東京都狛江市駒井町1-12-1","lat":35.625837,"lon":139.585665},{"name":"谷戸橋南広場","province":"東京都","city":"狛江市","address":"東京都狛江市東野川4-23","lat":35.644114,"lon":139.586957},{"name":"北久保公園","province":"東京都","city":"狛江市","address":"東京都狛江市和泉本町2-23-9","lat":35.643085,"lon":139.578234},{"name":"岩戸川南公園","province":"東京都","city":"狛江市","address":"東京都狛江市岩戸南4-17-28","lat":35.626667,"lon":139.593378},{"name":"清水川公園","province":"東京都","city":"狛江市","address":"東京都狛江市東和泉2-9","lat":35.630053,"lon":139.580833},{"name":"根川公園","province":"東京都","city":"狛江市","address":"東京都狛江市中和泉4-15-41","lat":35.63447,"lon":139.56471},{"name":"狛江弁財天池特別緑地保全地区","province":"東京都","city":"狛江市","address":"東京都狛江市元和泉1-7","lat":35.632292,"lon":139.576168},{"name":"狛江市","province":"東京都","city":"狛江市","address":"狛江市和泉本町1-1-5","lat":35.634913,"lon":139.578734},{"name":"狛江市役所","province":"東京都","city":"狛江市","address":"東京都狛江市和泉本町1丁目1-5","lat":35.63491314,"lon":139.57873418},{"name":"上和泉地域センター","province":"東京都","city":"狛江市","address":"東京都狛江市和泉本町4丁目7-51","lat":35.64522822,"lon":139.5679874},{"name":"南部地域センター","province":"東京都","city":"狛江市","address":"東京都狛江市猪方4丁目11-1","lat":35.6233737,"lon":139.57983535},{"name":"岩戸地域センター","province":"東京都","city":"狛江市","address":"東京都狛江市岩戸南2丁目2-5","lat":35.63215548,"lon":139.58610878},{"name":"野川地域センター","province":"東京都","city":"狛江市","address":"東京都狛江市西野川1丁目6-9","lat":35.64608091,"lon":139.57550046},{"name":"狛江市","province":"東京都","city":"狛江市","address":"狛江市和泉本町1-1-5","lat":35.63495,"lon":139.57837},{"name":"狛江市あいとぴあセンター","province":"東京都","city":"狛江市","address":"東京都狛江市元和泉2丁目35-1","lat":35.6333052,"lon":139.56761624},{"name":"狛江高等学校","province":"東京都","city":"狛江市","address":"東京都狛江市元和泉3丁目9-1","lat":35.62743131,"lon":139.57056099},{"name":"狛江市民総合体育館","province":"東京都","city":"狛江市","address":"東京都狛江市和泉本町3丁目25-1","lat":35.64199804,"lon":139.57305642},{"name":"狛江市本庁舎","province":"東京都","city":"狛江市","address":"狛江市和泉本町1-1-5","lat":35.634914,"lon":139.578735},{"name":"狛江消防署","province":"東京都","city":"狛江市","address":"狛江市和泉本町1-23-10","lat":35.6405,"lon":139.5765},{"name":"※狛江市役所","province":"東京都","city":"狛江市","address":"東京都狛江市和泉本町1丁目1-5","lat":35.63491314,"lon":139.57873418},{"name":"東京慈恵会医科大学附属第三病院","province":"東京都","city":"狛江市","address":"東京都狛江市和泉本町4丁目11-1","lat":35.64548376,"lon":139.56598762},{"name":"こども教室えるぶ","province":"東京都","city":"狛江市","address":"狛江市東野川2-1-10-102.103","lat":35.642234,"lon":139.580042},{"name":"はっぴぃハウス","province":"東京都","city":"狛江市","address":"狛江市和泉本町4-7-27-103","lat":35.643051,"lon":139.568946},{"name":"こどもデイサービスほっぷ","province":"東京都","city":"狛江市","address":"狛江市和泉本町4-2-13SANTESAKAE202","lat":35.641318,"lon":139.569443},{"name":"こどもデイサービス　すてっぷ","province":"東京都","city":"狛江市","address":"狛江市和泉本町4-2-13","lat":35.641318,"lon":139.569443},{"name":"ウイングこまえ","province":"東京都","city":"狛江市","address":"狛江市岩戸北三丁目22番13号","lat":35.632275,"lon":139.583237},{"name":"ゆめぽっと","province":"東京都","city":"狛江市","address":"狛江市中和泉2-10-1","lat":35.638782,"lon":139.572912},{"name":"中央図書館","province":"東京都","city":"狛江市","address":"東京都狛江市和泉本町1丁目1-5","lat":35.63491314,"lon":139.57873418},{"name":"西河原公民館図書館","province":"東京都","city":"狛江市","address":"東京都狛江市元和泉2丁目35-1","lat":35.6333052,"lon":139.56761624},{"name":"野川地域センター図書館","province":"東京都","city":"狛江市","address":"東京都狛江市西野川1丁目6-9","lat":35.64608091,"lon":139.57550046},{"name":"上和泉地域センター図書館","province":"東京都","city":"狛江市","address":"東京都狛江市和泉本町4丁目7-51","lat":35.64522822,"lon":139.5679874},{"name":"岩戸地域センター図書室","province":"東京都","city":"狛江市","address":"東京都狛江市岩戸南2丁目2-5","lat":35.63215548,"lon":139.58610878},{"name":"南部地域センター図書室","province":"東京都","city":"狛江市","address":"東京都狛江市猪方4丁目11-1","lat":35.6233737,"lon":139.57983535},{"name":"市民プール","province":"東京都","city":"狛江市","address":"東京都狛江市和泉本町3丁目25-1","lat":35.64199804,"lon":139.57305642},{"name":"元和泉市民運動広場","province":"東京都","city":"狛江市","address":"東京都狛江市元和泉3丁目10","lat":35.62947806,"lon":139.57118841},{"name":"NPO法人 狛江子ども食堂","province":"東京都","city":"狛江市","address":"東京都狛江市和泉本町4-7-51","lat":35.64514,"lon":139.568013},{"name":"みんなの居場所","province":"東京都","city":"狛江市","address":"東京都狛江市元和泉2-35-1","lat":35.633377,"lon":139.567064},{"name":"こどもの多摩里食堂","province":"東京都","city":"狛江市","address":"東京都狛江市東和泉2-9-11","lat":35.630515,"lon":139.580245},{"name":"ごはん＋居場所 おかえり","province":"東京都","city":"狛江市","address":"東京都狛江市東和泉2-20-12-1F","lat":35.628329,"lon":139.575847},{"name":"月末食堂","province":"東京都","city":"狛江市","address":"東京都狛江市東和泉1-32-3-102","lat":35.630338,"lon":139.577365},{"name":"コスモスこども・おとな食堂","province":"東京都","city":"狛江市","address":"東京都狛江市岩戸南2-2-5","lat":35.632142,"lon":139.586058},{"name":"和泉本町給水所","province":"東京都","city":"狛江市","address":"東京都狛江市和泉本町4-6-1","lat":35.6429908,"lon":139.571116},{"name":"狛江市","province":"東京都","city":"狛江市","address":"狛江市和泉本町1-1-5","lat":35.63494,"lon":139.57837},{"name":"狛江市役所","province":"東京都","city":"狛江市","address":"東京都狛江市和泉本町1丁目1番5号","lat":35.63494013,"lon":139.5787757},{"name":"狛江市役所","province":"東京都","city":"狛江市","address":"東京都狛江市和泉本町1丁目1番5号","lat":35.63466216,"lon":139.5781963},{"name":"狛江市立狛江第一小学校","province":"東京都","city":"狛江市","address":"東京都狛江市和泉本町1丁目37番1号","lat":35.63733,"lon":139.57809},{"name":"狛江市立狛江第三小学校","province":"東京都","city":"狛江市","address":"東京都狛江市猪方1丁目11番1号","lat":35.62810934,"lon":139.585056},{"name":"狛江市立狛江第五小学校","province":"東京都","city":"狛江市","address":"東京都狛江市東野川1丁目35番13号","lat":35.64393576,"lon":139.5816416},{"name":"狛江市立狛江第六小学校","province":"東京都","city":"狛江市","address":"東京都狛江市駒井町1丁目21番1号","lat":35.62460954,"lon":139.5852024},{"name":"狛江市立和泉小学校","province":"東京都","city":"狛江市","address":"東京都狛江市中和泉3丁目33丁目1番","lat":35.63473697,"lon":139.5683215},{"name":"狛江市立緑野小学校","province":"東京都","city":"狛江市","address":"東京都狛江市和泉本町4丁目3番1号","lat":35.64171,"lon":139.57103},{"name":"狛江市立狛江第一中学校","province":"東京都","city":"狛江市","address":"東京都狛江市和泉本町2丁目15番1号","lat":35.64082622,"lon":139.5776589},{"name":"狛江市立狛江第二中学校","province":"東京都","city":"狛江市","address":"東京都狛江市猪方2丁目7番1号","lat":35.62727,"lon":139.58314},{"name":"狛江市立狛江第三中学校","province":"東京都","city":"狛江市","address":"東京都狛江市元和泉1丁目23番1号","lat":35.62995,"lon":139.57463},{"name":"狛江市立狛江第四中学校","province":"東京都","city":"狛江市","address":"東京都狛江市狛氏東野川4丁目1番1号","lat":35.64523,"lon":139.58167},{"name":"狛江市立狛江第一小学校体育館","province":"東京都","city":"狛江市","address":"東京都狛江市和泉本町1丁目37番1号","lat":35.63745,"lon":139.57815},{"name":"狛江市立狛江第三小学校体育館","province":"東京都","city":"狛江市","address":"東京都狛江市猪方1丁目11番1号","lat":35.62778,"lon":139.58448},{"name":"狛江市立狛江第五小学校体育館","province":"東京都","city":"狛江市","address":"東京都狛江市東野川1丁目35番13号","lat":35.64383,"lon":139.58096},{"name":"狛江市立狛江第六小学校体育館","province":"東京都","city":"狛江市","address":"東京都狛江市駒井町1丁目21丁目1号","lat":35.62478,"lon":139.5849},{"name":"狛江市立和泉小学校体育館","province":"東京都","city":"狛江市","address":"東京都狛江市中和泉3丁目33丁目1号","lat":35.63485,"lon":139.56861},{"name":"狛江市立緑野小学校体育館","province":"東京都","city":"狛江市","address":"東京都狛江市和泉本町4丁目3番1号","lat":35.64138,"lon":139.57017},{"name":"狛江市立狛江第一中学校体育館","province":"東京都","city":"狛江市","address":"東京都狛江市和泉本町2丁目15番1号","lat":35.6404518,"lon":139.5774335},{"name":"狛江市立狛江第二中学校体育館","province":"東京都","city":"狛江市","address":"東京都狛江市猪方2丁目7番1号","lat":35.62698,"lon":139.58317},{"name":"狛江市立狛江第三中学校体育館","province":"東京都","city":"狛江市","address":"東京都狛江市元和泉1丁目23番1号","lat":35.63017,"lon":139.57445},{"name":"狛江市立狛江第四中学校体育館","province":"東京都","city":"狛江市","address":"東京都狛江市東野川4丁目1番1号","lat":35.64543,"lon":139.58198},{"name":"中央公民館","province":"東京都","city":"狛江市","address":"東京都狛江市和泉本町1丁目1番5号","lat":35.63506,"lon":139.57815},{"name":"西河原公民館","province":"東京都","city":"狛江市","address":"東京都狛江市元和泉2丁目35番1号","lat":35.63338,"lon":139.56706},{"name":"狛江市民総合体育館","province":"東京都","city":"狛江市","address":"東京都狛江市和泉本町3丁目25番1号","lat":35.64236,"lon":139.57323},{"name":"狛江市民グランド","province":"東京都","city":"狛江市","address":"東京都狛江市和泉本町2丁目15番2号","lat":35.63988,"lon":139.57898},{"name":"西和泉体育館","province":"東京都","city":"狛江市","address":"東京都狛江市西和泉1丁目16番1号","lat":35.64027,"lon":139.56512},{"name":"元和泉市民テニスコート","province":"東京都","city":"狛江市","address":"東京都狛江市元和泉2丁目8番1号","lat":35.63018294,"lon":139.5716077},{"name":"東野川市民テニスコート","province":"東京都","city":"狛江市","address":"東京都狛江市東野川3丁目14番10号","lat":35.64707,"lon":139.58233},{"name":"古民家園","province":"東京都","city":"狛江市","address":"東京都狛江市元和泉2丁目15番5号","lat":35.63297,"lon":139.57095},{"name":"あいとぴあセンター","province":"東京都","city":"狛江市","address":"東京都狛江市元和泉2丁目35番1号","lat":35.63331,"lon":139.56778},{"name":"狛江市子育て・教育支援複合施設（ひだまりセンター）","province":"東京都","city":"狛江市","address":"東京都狛江市元和泉1丁目11番11号","lat":35.6314,"lon":139.57617},{"name":"駒井学童保育所・六小KoKoA","province":"東京都","city":"狛江市","address":"東京都狛江市駒井町1丁目21番6号","lat":35.62494,"lon":139.5853},{"name":"猪方学童保育所","province":"東京都","city":"狛江市","address":"東京都狛江市猪方1丁目11番2号","lat":35.62736,"lon":139.58567},{"name":"東野川学童保育所","province":"東京都","city":"狛江市","address":"東京都狛江市東野川1丁目6番3号","lat":35.64332,"lon":139.58086},{"name":"松原学童保育所","province":"東京都","city":"狛江市","address":"東京都狛江市和泉本町1丁目14番3号","lat":35.63896,"lon":139.5779},{"name":"上和泉学童保育所","province":"東京都","city":"狛江市","address":"東京都狛江市和泉本町4丁目7番51号","lat":35.64509,"lon":139.56798},{"name":"第五小学校放課後クラブ","province":"東京都","city":"狛江市","address":"東京都狛江市東野川1丁目36番13号","lat":35.64458,"lon":139.58173},{"name":"藤塚保育園","province":"東京都","city":"狛江市","address":"東京都狛江市和泉本町4丁目7番35号","lat":35.64219,"lon":139.56986},{"name":"駒井保育園","province":"東京都","city":"狛江市","address":"東京都狛江市駒井町2丁目28番6号","lat":35.62443767,"lon":139.5875633},{"name":"駄倉保育園","province":"東京都","city":"狛江市","address":"東京都狛江市岩戸北3丁目20番2号","lat":35.63291,"lon":139.58162},{"name":"三島保育園","province":"東京都","city":"狛江市","address":"東京都狛江市東野川1丁目32番2号","lat":35.64188,"lon":139.58283},{"name":"岩戸児童センター","province":"東京都","city":"狛江市","address":"東京都狛江市岩戸南3丁目15番1号","lat":35.62917099,"lon":139.587911},{"name":"和泉児童館","province":"東京都","city":"狛江市","address":"東京都狛江市中和泉3丁目12番6号","lat":35.63685,"lon":139.57062},{"name":"こまっこ児童館","province":"東京都","city":"狛江市","address":"東京都狛江市和泉本町3丁目31番19号","lat":35.64204402,"lon":139.575466},{"name":"駄倉小学生クラブ","province":"東京都","city":"狛江市","address":"東京都狛江市東和泉1丁目3番17号","lat":35.63291,"lon":139.58058},{"name":"市民活動支援センター（こまえくぼ1234）","province":"東京都","city":"狛江市","address":"東京都狛江市和泉本町1丁目2番34号","lat":35.63432,"lon":139.58038},{"name":"野川地域センター","province":"東京都","city":"狛江市","address":"東京都狛江市西野川1丁目6番9号","lat":35.64612,"lon":139.57566},{"name":"上和泉地域センター","province":"東京都","city":"狛江市","address":"東京都狛江市和泉本町4丁目7番51号","lat":35.64511409,"lon":139.5678151},{"name":"岩戸地域センター","province":"東京都","city":"狛江市","address":"東京都狛江市岩戸南2丁目2丁目5号","lat":35.63214,"lon":139.58608},{"name":"南部地域センター","province":"東京都","city":"狛江市","address":"東京都狛江市猪方4丁目11番1号","lat":35.62337497,"lon":139.5798098},{"name":"和泉多摩川地区センター","province":"東京都","city":"狛江市","address":"東京都狛江市猪方4丁目1番1号","lat":35.62467,"lon":139.57405},{"name":"狛江市民ホール","province":"東京都","city":"狛江市","address":"東京都狛江市元和泉1丁目2番1号","lat":35.63309,"lon":139.5778},{"name":"オダクル狛江第1","province":"東京都","city":"狛江市","address":"東京都狛江市和泉本町1丁目2","lat":35.63414941,"lon":139.57939809},{"name":"オダクル狛江第2","province":"東京都","city":"狛江市","address":"東京都狛江市元和泉1丁目11","lat":35.63119715,"lon":139.5759071},{"name":"オダクルマルシェ狛江","province":"東京都","city":"狛江市","address":"東京都狛江市元和泉1丁目1","lat":35.63360228,"lon":139.5785899},{"name":"狛江駅北口自転車駐車場","province":"東京都","city":"狛江市","address":"東京都狛江市元和泉1丁目3","lat":35.6328524,"lon":139.57728177},{"name":"狛江駅南口第１自転車等駐車場","province":"東京都","city":"狛江市","address":"東京都狛江市東和泉1丁目17","lat":35.63206089,"lon":139.57744019},{"name":"オダクル喜多見店舗","province":"東京都","city":"狛江市","address":"東京都狛江市岩戸北2丁目20","lat":35.63603812,"lon":139.58530293},{"name":"オダクル喜多見第2","province":"東京都","city":"狛江市","address":"東京都狛江市岩戸北1丁目24","lat":35.63600755,"lon":139.58455857},{"name":"東都サイクルパーク喜多見第１","province":"東京都","city":"狛江市","address":"東京都狛江市岩戸北4丁目6","lat":35.6359937,"lon":139.58585012},{"name":"小川園宝島駐輪場","province":"東京都","city":"狛江市","address":"東京都狛江市岩戸北4丁目2","lat":35.63457449,"lon":139.5856697},{"name":"オダクル和泉多摩川第1","province":"東京都","city":"狛江市","address":"東京都狛江市東和泉4丁目1","lat":35.62800613,"lon":139.57366052},{"name":"オダクル和泉多摩川第2","province":"東京都","city":"狛江市","address":"東京都狛江市東和泉4丁目6","lat":35.62651476,"lon":139.57243861},{"name":"中和泉一丁目自転車置場","province":"東京都","city":"狛江市","address":"東京都狛江市中和泉1丁目25","lat":35.63396875,"lon":139.57337644},{"name":"和泉多摩川自転車置場（高架下）","province":"東京都","city":"狛江市","address":"東京都狛江市東和泉4丁目8","lat":35.62664253,"lon":139.57138318},{"name":"オダクル和泉多摩川東口","province":"東京都","city":"狛江市","address":"東京都狛江市東和泉4丁目2","lat":35.62754789,"lon":139.57372724},{"name":"狛江駅南口第2自転車駐車場","province":"東京都","city":"狛江市","address":"東京都狛江市東和泉1丁目20","lat":35.63166375,"lon":139.57751522},{"name":"東都サイクルパーク狛江駅前","province":"東京都","city":"狛江市","address":"東京都狛江市東和泉1丁目14","lat":35.63284132,"lon":139.57858999},{"name":"東都サイクルパーク和泉多摩川","province":"東京都","city":"狛江市","address":"東京都狛江市東和泉3丁目1","lat":35.62838383,"lon":139.57500476},{"name":"福祉保健部福祉相談課","province":"東京都","city":"狛江市","address":"狛江市和泉本町1-1-5","lat":35.634491,"lon":139.577927},{"name":"あいとぴあ地域包括支援センター","province":"東京都","city":"狛江市","address":"狛江市元和泉2-35-1","lat":35.6334,"lon":139.567413},{"name":"地域包括支援センターこまえ正吉苑","province":"東京都","city":"狛江市","address":"狛江市西野川2-27-23","lat":35.645802,"lon":139.573868},{"name":"地域包括支援センターこまえ苑","province":"東京都","city":"狛江市","address":"狛江市岩戸南4-17-17","lat":35.626041,"lon":139.592285},{"name":"狛江三差路","province":"東京都","city":"狛江市","address":"東京都狛江市東和泉1丁目5-13","lat":35.63171937,"lon":139.58209254},{"name":"狛江二の橋","province":"東京都","city":"狛江市","address":"東京都狛江市岩戸南2丁目5-5","lat":35.63282486,"lon":139.58888901},{"name":"狛江市役所前","province":"東京都","city":"狛江市","address":"東京都狛江市中和泉1丁目1-1","lat":35.63391331,"lon":139.57796492},{"name":"狛江駅入口","province":"東京都","city":"狛江市","address":"東京都狛江市東和泉1丁目33-2","lat":35.63022516,"lon":139.57860972},{"name":"狛江福祉会館前","province":"東京都","city":"狛江市","address":"東京都狛江市元和泉2丁目35-1","lat":35.6333052,"lon":139.56761624},{"name":"狛江市役所前第二","province":"東京都","city":"狛江市","address":"東京都狛江市和泉本町1丁目1-10","lat":35.6350242,"lon":139.57773147},{"name":"狛江水神東","province":"東京都","city":"狛江市","address":"東京都狛江市元和泉2丁目36","lat":35.63369411,"lon":139.56580536},{"name":"狛江駅北口","province":"東京都","city":"狛江市","address":"東京都狛江市元和泉1丁目3","lat":35.6328524,"lon":139.57728177},{"name":"＊?狛江市民ホール（エコルマ）","province":"東京都","city":"狛江市","address":"狛江市元和泉1-2-1","lat":35.633279,"lon":139.577995},{"name":"多摩川五本松","province":"東京都","city":"狛江市","address":"東京都狛江市元和泉三丁目地先","lat":35.632433,"lon":139.33579},{"name":"狛江エコルマホール","province":"東京都","city":"狛江市","address":"東京都狛江市元和泉1-2-1","lat":35.633278,"lon":139.578031},{"name":"巨大絵手紙","province":"東京都","city":"狛江市","address":"東京都狛江市元和泉1丁目","lat":35.632978,"lon":139.577494},{"name":"絵手紙表示板","province":"東京都","city":"狛江市","address":"東京都狛江市元和泉1丁目","lat":35.633321,"lon":139.577728},{"name":"泉龍寺","province":"東京都","city":"狛江市","address":"東京都狛江市元和泉1-6-1","lat":35.63313,"lon":139.575696},{"name":"玉泉寺","province":"東京都","city":"狛江市","address":"東京都狛江市東和泉3-10-23","lat":35.626955,"lon":139.573943},{"name":"伊豆美神社","province":"東京都","city":"狛江市","address":"東京都狛江市中和泉3-21-8","lat":35.635205,"lon":139.569083},{"name":"多摩川","province":"東京都","city":"狛江市","address":"東京都狛江市猪方4-3","lat":35.623493,"lon":139.576259},{"name":"狛江市子ども家庭支援センター","province":"東京都","city":"狛江市","address":"東京都狛江市元和泉2-35-1","lat":35.6333,"lon":139.567778},{"name":"南部地域センター","province":"東京都","city":"狛江市","address":"東京都狛江市猪方4-11-1","lat":35.623377,"lon":139.579809},{"name":"上和泉地域センター","province":"東京都","city":"狛江市","address":"東京都狛江市和泉本町4-7-51","lat":35.645149,"lon":139.568014},{"name":"岩戸地域センター","province":"東京都","city":"狛江市","address":"東京都狛江市岩戸南2-2-5","lat":35.632071,"lon":139.586045},{"name":"野川地域センター","province":"東京都","city":"狛江市","address":"東京都狛江市西野川1-6-9","lat":35.646093,"lon":139.575503},{"name":"狛江市中央公民館","province":"東京都","city":"狛江市","address":"東京都狛江市和泉本町1-1-5","lat":35.635208,"lon":139.578171},{"name":"狛江市あいとぴあセンター","province":"東京都","city":"狛江市","address":"東京都狛江市元和泉2-35-1","lat":35.633349,"lon":139.56768},{"name":"狛江市西河原公民館","province":"東京都","city":"狛江市","address":"東京都狛江市元和泉2-35-1","lat":35.63344,"lon":139.567029},{"name":"狛江市立古民家園","province":"東京都","city":"狛江市","address":"東京都狛江市元和泉2-15-5","lat":35.632911,"lon":139.571155},{"name":"中村児童公園","province":"東京都","city":"狛江市","address":"東京都狛江市東野川2-16-10","lat":35.645554,"lon":139.579756},{"name":"丸山児童公園","province":"東京都","city":"狛江市","address":"東京都狛江市和泉本町2-15-3","lat":35.640334,"lon":139.579484},{"name":"供養塚児童公園","province":"東京都","city":"狛江市","address":"東京都狛江市駒井町3-3-1","lat":35.623597,"lon":139.581942},{"name":"田中の池児童公園","province":"東京都","city":"狛江市","address":"東京都狛江市元和泉2-17-1","lat":35.631247,"lon":139.572177},{"name":"多摩川緑地公園","province":"東京都","city":"狛江市","address":"東京都狛江市猪方4-923","lat":35.624292,"lon":139.573484},{"name":"藤塚第一児童公園","province":"東京都","city":"狛江市","address":"東京都狛江市和泉本町4-7-14","lat":35.644954,"lon":139.567907},{"name":"藤塚第二児童公園","province":"東京都","city":"狛江市","address":"東京都狛江市和泉本町4-7-12","lat":35.644405,"lon":139.568019},{"name":"藤塚第三児童公園","province":"東京都","city":"狛江市","address":"東京都狛江市和泉本町4-7-25","lat":35.643747,"lon":139.568703},{"name":"藤塚第四児童公園","province":"東京都","city":"狛江市","address":"東京都狛江市和泉本町4-7-39","lat":35.642764,"lon":139.569631},{"name":"西河原公園","province":"東京都","city":"狛江市","address":"東京都狛江市元和泉2-38-1","lat":35.632862,"lon":139.567111},{"name":"野川緑地公園","province":"東京都","city":"狛江市","address":"東京都狛江市和泉本町、岩戸北、東野川、西野川地内","lat":35.642924,"lon":139.578609},{"name":"みつおさ児童公園","province":"東京都","city":"狛江市","address":"東京都狛江市東野川3-16-4","lat":35.646008,"lon":139.5841},{"name":"水道橋児童公園","province":"東京都","city":"狛江市","address":"東京都狛江市東和泉4-9-1","lat":35.626327,"lon":139.570912},{"name":"岩戸川緑地公園","province":"東京都","city":"狛江市","address":"東京都狛江市岩戸南、猪方地内","lat":35.629286,"lon":139.587096},{"name":"野川北公園","province":"東京都","city":"狛江市","address":"東京都狛江市西野川1-19-10","lat":35.648544,"lon":139.576102},{"name":"元和泉公園","province":"東京都","city":"狛江市","address":"東京都狛江市元和泉2-12-7","lat":35.631988,"lon":139.57233},{"name":"西河原自然公園","province":"東京都","city":"狛江市","address":"東京都狛江市元和泉2-34-20","lat":35.633246,"lon":139.570163},{"name":"和泉多摩川児童公園","province":"東京都","city":"狛江市","address":"東京都狛江市元和泉3-6-11","lat":35.628261,"lon":139.571899},{"name":"小足立のびのび公園","province":"東京都","city":"狛江市","address":"東京都狛江市西野川4-14-1","lat":35.647587,"lon":139.572822},{"name":"前原公園","province":"東京都","city":"狛江市","address":"東京都狛江市西野川3-11-1","lat":35.64497,"lon":139.570204},{"name":"駒井・上村中ひだまり公園","province":"東京都","city":"狛江市","address":"東京都狛江市駒井町1-12-1","lat":35.625837,"lon":139.585665},{"name":"谷戸橋南広場","province":"東京都","city":"狛江市","address":"東京都狛江市東野川4-23","lat":35.644114,"lon":139.586957},{"name":"北久保公園","province":"東京都","city":"狛江市","address":"東京都狛江市和泉本町2-23-9","lat":35.643085,"lon":139.578234},{"name":"岩戸川南公園","province":"東京都","city":"狛江市","address":"東京都狛江市岩戸南4-17-28","lat":35.626667,"lon":139.593378},{"name":"清水川公園","province":"東京都","city":"狛江市","address":"東京都狛江市東和泉2-9","lat":35.630053,"lon":139.580833},{"name":"根川公園","province":"東京都","city":"狛江市","address":"東京都狛江市中和泉4-15-41","lat":35.63447,"lon":139.56471},{"name":"狛江弁財天池特別緑地保全地区","province":"東京都","city":"狛江市","address":"東京都狛江市元和泉1-7","lat":35.632292,"lon":139.576168},{"name":"狛江市","province":"東京都","city":"狛江市","address":"狛江市和泉本町1-1-5","lat":35.634913,"lon":139.578734},{"name":"狛江市役所","province":"東京都","city":"狛江市","address":"東京都狛江市和泉本町1丁目1-5","lat":35.63491314,"lon":139.57873418},{"name":"上和泉地域センター","province":"東京都","city":"狛江市","address":"東京都狛江市和泉本町4丁目7-51","lat":35.64522822,"lon":139.5679874},{"name":"南部地域センター","province":"東京都","city":"狛江市","address":"東京都狛江市猪方4丁目11-1","lat":35.6233737,"lon":139.57983535},{"name":"岩戸地域センター","province":"東京都","city":"狛江市","address":"東京都狛江市岩戸南2丁目2-5","lat":35.63215548,"lon":139.58610878},{"name":"野川地域センター","province":"東京都","city":"狛江市","address":"東京都狛江市西野川1丁目6-9","lat":35.64608091,"lon":139.57550046},{"name":"狛江市","province":"東京都","city":"狛江市","address":"狛江市和泉本町1-1-5","lat":35.63495,"lon":139.57837},{"name":"狛江消防署","province":"東京都","city":"狛江市","address":"狛江市和泉本町1-23-10","lat":35.6405,"lon":139.5765},{"name":"東京慈恵会医科大学附属第三病院","province":"東京都","city":"狛江市","address":"東京都狛江市和泉本町4丁目11-1","lat":35.64548376,"lon":139.56598762},{"name":"こども教室えるぶ","province":"東京都","city":"狛江市","address":"狛江市東野川2-1-10-102.103","lat":35.642234,"lon":139.580042},{"name":"はっぴぃハウス","province":"東京都","city":"狛江市","address":"狛江市和泉本町4-7-27-103","lat":35.643051,"lon":139.568946},{"name":"こどもデイサービスほっぷ","province":"東京都","city":"狛江市","address":"狛江市和泉本町4-2-13SANTESAKAE202","lat":35.641318,"lon":139.569443},{"name":"こどもデイサービス　すてっぷ","province":"東京都","city":"狛江市","address":"狛江市和泉本町4-2-13","lat":35.641318,"lon":139.569443},{"name":"ウイングこまえ","province":"東京都","city":"狛江市","address":"狛江市岩戸北三丁目22番13号","lat":35.632275,"lon":139.583237},{"name":"ゆめぽっと","province":"東京都","city":"狛江市","address":"狛江市中和泉2-10-1","lat":35.638782,"lon":139.572912},{"name":"中央図書館","province":"東京都","city":"狛江市","address":"東京都狛江市和泉本町1丁目1-5","lat":35.63491314,"lon":139.57873418},{"name":"西河原公民館図書館","province":"東京都","city":"狛江市","address":"東京都狛江市元和泉2丁目35-1","lat":35.6333052,"lon":139.56761624},{"name":"野川地域センター図書館","province":"東京都","city":"狛江市","address":"東京都狛江市西野川1丁目6-9","lat":35.64608091,"lon":139.57550046},{"name":"上和泉地域センター図書館","province":"東京都","city":"狛江市","address":"東京都狛江市和泉本町4丁目7-51","lat":35.64522822,"lon":139.5679874},{"name":"岩戸地域センター図書室","province":"東京都","city":"狛江市","address":"東京都狛江市岩戸南2丁目2-5","lat":35.63215548,"lon":139.58610878},{"name":"南部地域センター図書室","province":"東京都","city":"狛江市","address":"東京都狛江市猪方4丁目11-1","lat":35.6233737,"lon":139.57983535},{"name":"市民プール","province":"東京都","city":"狛江市","address":"東京都狛江市和泉本町3丁目25-1","lat":35.64199804,"lon":139.57305642},{"name":"元和泉市民運動広場","province":"東京都","city":"狛江市","address":"東京都狛江市元和泉3丁目10","lat":35.62947806,"lon":139.57118841},{"name":"NPO法人 狛江子ども食堂","province":"東京都","city":"狛江市","address":"東京都狛江市和泉本町4-7-51","lat":35.64514,"lon":139.568013},{"name":"みんなの居場所","province":"東京都","city":"狛江市","address":"東京都狛江市元和泉2-35-1","lat":35.633377,"lon":139.567064},{"name":"こどもの多摩里食堂","province":"東京都","city":"狛江市","address":"東京都狛江市東和泉2-9-11","lat":35.630515,"lon":139.580245},{"name":"ごはん＋居場所 おかえり","province":"東京都","city":"狛江市","address":"東京都狛江市東和泉2-20-12-1F","lat":35.628329,"lon":139.575847},{"name":"月末食堂","province":"東京都","city":"狛江市","address":"東京都狛江市東和泉1-32-3-102","lat":35.630338,"lon":139.577365},{"name":"コスモスこども・おとな食堂","province":"東京都","city":"狛江市","address":"東京都狛江市岩戸南2-2-5","lat":35.632142,"lon":139.586058},{"name":"和泉本町給水所","province":"東京都","city":"狛江市","address":"東京都狛江市和泉本町4-6-1","lat":35.6429908,"lon":139.571116},{"name":"狛江市役所","province":"東京都","city":"狛江市","address":"東京都狛江市和泉本町1丁目1番5号","lat":35.63494013,"lon":139.5787757},{"name":"狛江市役所","province":"東京都","city":"狛江市","address":"東京都狛江市和泉本町1丁目1番5号","lat":35.63466216,"lon":139.5781963},{"name":"狛江市立狛江第一小学校","province":"東京都","city":"狛江市","address":"東京都狛江市和泉本町1丁目37番1号","lat":35.63733,"lon":139.57809},{"name":"狛江市立狛江第三小学校","province":"東京都","city":"狛江市","address":"東京都狛江市猪方1丁目11番1号","lat":35.62810934,"lon":139.585056},{"name":"狛江市立狛江第五小学校","province":"東京都","city":"狛江市","address":"東京都狛江市東野川1丁目35番13号","lat":35.64393576,"lon":139.5816416},{"name":"狛江市立狛江第六小学校","province":"東京都","city":"狛江市","address":"東京都狛江市駒井町1丁目21番1号","lat":35.62460954,"lon":139.5852024},{"name":"狛江市立和泉小学校","province":"東京都","city":"狛江市","address":"東京都狛江市中和泉3丁目33丁目1番","lat":35.63473697,"lon":139.5683215},{"name":"狛江市立緑野小学校","province":"東京都","city":"狛江市","address":"東京都狛江市和泉本町4丁目3番1号","lat":35.64171,"lon":139.57103},{"name":"狛江市立狛江第一中学校","province":"東京都","city":"狛江市","address":"東京都狛江市和泉本町2丁目15番1号","lat":35.64082622,"lon":139.5776589},{"name":"狛江市立狛江第二中学校","province":"東京都","city":"狛江市","address":"東京都狛江市猪方2丁目7番1号","lat":35.62727,"lon":139.58314},{"name":"狛江市立狛江第三中学校","province":"東京都","city":"狛江市","address":"東京都狛江市元和泉1丁目23番1号","lat":35.62995,"lon":139.57463},{"name":"狛江市立狛江第四中学校","province":"東京都","city":"狛江市","address":"東京都狛江市狛氏東野川4丁目1番1号","lat":35.64523,"lon":139.58167},{"name":"狛江市立狛江第一小学校体育館","province":"東京都","city":"狛江市","address":"東京都狛江市和泉本町1丁目37番1号","lat":35.63745,"lon":139.57815},{"name":"狛江市立狛江第三小学校体育館","province":"東京都","city":"狛江市","address":"東京都狛江市猪方1丁目11番1号","lat":35.62778,"lon":139.58448},{"name":"狛江市立狛江第五小学校体育館","province":"東京都","city":"狛江市","address":"東京都狛江市東野川1丁目35番13号","lat":35.64383,"lon":139.58096},{"name":"狛江市立狛江第六小学校体育館","province":"東京都","city":"狛江市","address":"東京都狛江市駒井町1丁目21丁目1号","lat":35.62478,"lon":139.5849},{"name":"狛江市立和泉小学校体育館","province":"東京都","city":"狛江市","address":"東京都狛江市中和泉3丁目33丁目1号","lat":35.63485,"lon":139.56861},{"name":"狛江市立緑野小学校体育館","province":"東京都","city":"狛江市","address":"東京都狛江市和泉本町4丁目3番1号","lat":35.64138,"lon":139.57017},{"name":"狛江市立狛江第一中学校体育館","province":"東京都","city":"狛江市","address":"東京都狛江市和泉本町2丁目15番1号","lat":35.6404518,"lon":139.5774335},{"name":"狛江市立狛江第二中学校体育館","province":"東京都","city":"狛江市","address":"東京都狛江市猪方2丁目7番1号","lat":35.62698,"lon":139.58317},{"name":"狛江市立狛江第三中学校体育館","province":"東京都","city":"狛江市","address":"東京都狛江市元和泉1丁目23番1号","lat":35.63017,"lon":139.57445},{"name":"狛江市立狛江第四中学校体育館","province":"東京都","city":"狛江市","address":"東京都狛江市東野川4丁目1番1号","lat":35.64543,"lon":139.58198},{"name":"中央公民館","province":"東京都","city":"狛江市","address":"東京都狛江市和泉本町1丁目1番5号","lat":35.63506,"lon":139.57815},{"name":"西河原公民館","province":"東京都","city":"狛江市","address":"東京都狛江市元和泉2丁目35番1号","lat":35.63338,"lon":139.56706},{"name":"狛江市民総合体育館","province":"東京都","city":"狛江市","address":"東京都狛江市和泉本町3丁目25番1号","lat":35.64236,"lon":139.57323},{"name":"狛江市民グランド","province":"東京都","city":"狛江市","address":"東京都狛江市和泉本町2丁目15番2号","lat":35.63988,"lon":139.57898},{"name":"西和泉体育館","province":"東京都","city":"狛江市","address":"東京都狛江市西和泉1丁目16番1号","lat":35.64027,"lon":139.56512},{"name":"元和泉市民テニスコート","province":"東京都","city":"狛江市","address":"東京都狛江市元和泉2丁目8番1号","lat":35.63018294,"lon":139.5716077},{"name":"東野川市民テニスコート","province":"東京都","city":"狛江市","address":"東京都狛江市東野川3丁目14番10号","lat":35.64707,"lon":139.58233},{"name":"古民家園","province":"東京都","city":"狛江市","address":"東京都狛江市元和泉2丁目15番5号","lat":35.63297,"lon":139.57095},{"name":"あいとぴあセンター","province":"東京都","city":"狛江市","address":"東京都狛江市元和泉2丁目35番1号","lat":35.63331,"lon":139.56778},{"name":"狛江市子育て・教育支援複合施設（ひだまりセンター）","province":"東京都","city":"狛江市","address":"東京都狛江市元和泉1丁目11番11号","lat":35.6314,"lon":139.57617},{"name":"駒井学童保育所・六小KoKoA","province":"東京都","city":"狛江市","address":"東京都狛江市駒井町1丁目21番6号","lat":35.62494,"lon":139.5853},{"name":"猪方学童保育所","province":"東京都","city":"狛江市","address":"東京都狛江市猪方1丁目11番2号","lat":35.62736,"lon":139.58567},{"name":"東野川学童保育所","province":"東京都","city":"狛江市","address":"東京都狛江市東野川1丁目6番3号","lat":35.64332,"lon":139.58086},{"name":"松原学童保育所","province":"東京都","city":"狛江市","address":"東京都狛江市和泉本町1丁目14番3号","lat":35.63896,"lon":139.5779},{"name":"上和泉学童保育所","province":"東京都","city":"狛江市","address":"東京都狛江市和泉本町4丁目7番51号","lat":35.64509,"lon":139.56798},{"name":"第五小学校放課後クラブ","province":"東京都","city":"狛江市","address":"東京都狛江市東野川1丁目36番13号","lat":35.64458,"lon":139.58173},{"name":"藤塚保育園","province":"東京都","city":"狛江市","address":"東京都狛江市和泉本町4丁目7番35号","lat":35.64219,"lon":139.56986},{"name":"駒井保育園","province":"東京都","city":"狛江市","address":"東京都狛江市駒井町2丁目28番6号","lat":35.62443767,"lon":139.5875633},{"name":"駄倉保育園","province":"東京都","city":"狛江市","address":"東京都狛江市岩戸北3丁目20番2号","lat":35.63291,"lon":139.58162},{"name":"三島保育園","province":"東京都","city":"狛江市","address":"東京都狛江市東野川1丁目32番2号","lat":35.64188,"lon":139.58283},{"name":"岩戸児童センター","province":"東京都","city":"狛江市","address":"東京都狛江市岩戸南3丁目15番1号","lat":35.62917099,"lon":139.587911},{"name":"和泉児童館","province":"東京都","city":"狛江市","address":"東京都狛江市中和泉3丁目12番6号","lat":35.63685,"lon":139.57062},{"name":"こまっこ児童館","province":"東京都","city":"狛江市","address":"東京都狛江市和泉本町3丁目31番19号","lat":35.64204402,"lon":139.575466},{"name":"駄倉小学生クラブ","province":"東京都","city":"狛江市","address":"東京都狛江市東和泉1丁目3番17号","lat":35.63291,"lon":139.58058},{"name":"市民活動支援センター（こまえくぼ1234）","province":"東京都","city":"狛江市","address":"東京都狛江市和泉本町1丁目2番34号","lat":35.63432,"lon":139.58038},{"name":"野川地域センター","province":"東京都","city":"狛江市","address":"東京都狛江市西野川1丁目6番9号","lat":35.64612,"lon":139.57566},{"name":"上和泉地域センター","province":"東京都","city":"狛江市","address":"東京都狛江市和泉本町4丁目7番51号","lat":35.64511409,"lon":139.5678151},{"name":"岩戸地域センター","province":"東京都","city":"狛江市","address":"東京都狛江市岩戸南2丁目2丁目5号","lat":35.63214,"lon":139.58608},{"name":"南部地域センター","province":"東京都","city":"狛江市","address":"東京都狛江市猪方4丁目11番1号","lat":35.62337497,"lon":139.5798098},{"name":"和泉多摩川地区センター","province":"東京都","city":"狛江市","address":"東京都狛江市猪方4丁目1番1号","lat":35.62467,"lon":139.57405},{"name":"狛江市民ホール","province":"東京都","city":"狛江市","address":"東京都狛江市元和泉1丁目2番1号","lat":35.63309,"lon":139.5778},{"name":"オダクル狛江第1","province":"東京都","city":"狛江市","address":"東京都狛江市和泉本町1丁目2","lat":35.63414941,"lon":139.57939809},{"name":"オダクル狛江第2","province":"東京都","city":"狛江市","address":"東京都狛江市元和泉1丁目11","lat":35.63119715,"lon":139.5759071},{"name":"オダクルマルシェ狛江","province":"東京都","city":"狛江市","address":"東京都狛江市元和泉1丁目1","lat":35.63360228,"lon":139.5785899},{"name":"狛江駅北口自転車駐車場","province":"東京都","city":"狛江市","address":"東京都狛江市元和泉1丁目3","lat":35.6328524,"lon":139.57728177},{"name":"狛江駅南口第１自転車等駐車場","province":"東京都","city":"狛江市","address":"東京都狛江市東和泉1丁目17","lat":35.63206089,"lon":139.57744019},{"name":"オダクル喜多見店舗","province":"東京都","city":"狛江市","address":"東京都狛江市岩戸北2丁目20","lat":35.63603812,"lon":139.58530293},{"name":"オダクル喜多見第2","province":"東京都","city":"狛江市","address":"東京都狛江市岩戸北1丁目24","lat":35.63600755,"lon":139.58455857},{"name":"東都サイクルパーク喜多見第１","province":"東京都","city":"狛江市","address":"東京都狛江市岩戸北4丁目6","lat":35.6359937,"lon":139.58585012},{"name":"小川園宝島駐輪場","province":"東京都","city":"狛江市","address":"東京都狛江市岩戸北4丁目2","lat":35.63457449,"lon":139.5856697},{"name":"オダクル和泉多摩川第1","province":"東京都","city":"狛江市","address":"東京都狛江市東和泉4丁目1","lat":35.62800613,"lon":139.57366052},{"name":"オダクル和泉多摩川第2","province":"東京都","city":"狛江市","address":"東京都狛江市東和泉4丁目6","lat":35.62651476,"lon":139.57243861},{"name":"中和泉一丁目自転車置場","province":"東京都","city":"狛江市","address":"東京都狛江市中和泉1丁目25","lat":35.63396875,"lon":139.57337644},{"name":"和泉多摩川自転車置場（高架下）","province":"東京都","city":"狛江市","address":"東京都狛江市東和泉4丁目8","lat":35.62664253,"lon":139.57138318},{"name":"オダクル和泉多摩川東口","province":"東京都","city":"狛江市","address":"東京都狛江市東和泉4丁目2","lat":35.62754789,"lon":139.57372724},{"name":"狛江駅南口第2自転車駐車場","province":"東京都","city":"狛江市","address":"東京都狛江市東和泉1丁目20","lat":35.63166375,"lon":139.57751522},{"name":"東都サイクルパーク狛江駅前","province":"東京都","city":"狛江市","address":"東京都狛江市東和泉1丁目14","lat":35.63284132,"lon":139.57858999},{"name":"東都サイクルパーク和泉多摩川","province":"東京都","city":"狛江市","address":"東京都狛江市東和泉3丁目1","lat":35.62838383,"lon":139.57500476},{"name":"福祉保健部福祉相談課","province":"東京都","city":"狛江市","address":"狛江市和泉本町1-1-5","lat":35.634491,"lon":139.577927},{"name":"あいとぴあ地域包括支援センター","province":"東京都","city":"狛江市","address":"狛江市元和泉2-35-1","lat":35.6334,"lon":139.567413},{"name":"地域包括支援センターこまえ正吉苑","province":"東京都","city":"狛江市","address":"狛江市西野川2-27-23","lat":35.645802,"lon":139.573868},{"name":"地域包括支援センターこまえ苑","province":"東京都","city":"狛江市","address":"狛江市岩戸南4-17-17","lat":35.626041,"lon":139.592285},{"name":"狛江三差路","province":"東京都","city":"狛江市","address":"東京都狛江市東和泉1丁目5-13","lat":35.63171937,"lon":139.58209254},{"name":"狛江二の橋","province":"東京都","city":"狛江市","address":"東京都狛江市岩戸南2丁目5-5","lat":35.63282486,"lon":139.58888901},{"name":"狛江市役所前","province":"東京都","city":"狛江市","address":"東京都狛江市中和泉1丁目1-1","lat":35.63391331,"lon":139.57796492},{"name":"狛江駅入口","province":"東京都","city":"狛江市","address":"東京都狛江市東和泉1丁目33-2","lat":35.63022516,"lon":139.57860972},{"name":"狛江福祉会館前","province":"東京都","city":"狛江市","address":"東京都狛江市元和泉2丁目35-1","lat":35.6333052,"lon":139.56761624},{"name":"狛江市役所前第二","province":"東京都","city":"狛江市","address":"東京都狛江市和泉本町1丁目1-10","lat":35.6350242,"lon":139.57773147},{"name":"狛江水神東","province":"東京都","city":"狛江市","address":"東京都狛江市元和泉2丁目36","lat":35.63369411,"lon":139.56580536},{"name":"狛江駅北口","province":"東京都","city":"狛江市","address":"東京都狛江市元和泉1丁目3","lat":35.6328524,"lon":139.57728177},{"name":"＊?狛江市民ホール（エコルマ）","province":"東京都","city":"狛江市","address":"狛江市元和泉1-2-1","lat":35.633279,"lon":139.577995},{"name":"多摩川五本松","province":"東京都","city":"狛江市","address":"東京都狛江市元和泉三丁目地先","lat":35.632433,"lon":139.33579},{"name":"狛江エコルマホール","province":"東京都","city":"狛江市","address":"東京都狛江市元和泉1-2-1","lat":35.633278,"lon":139.578031},{"name":"巨大絵手紙","province":"東京都","city":"狛江市","address":"東京都狛江市元和泉1丁目","lat":35.632978,"lon":139.577494},{"name":"絵手紙表示板","province":"東京都","city":"狛江市","address":"東京都狛江市元和泉1丁目","lat":35.633321,"lon":139.577728},{"name":"泉龍寺","province":"東京都","city":"狛江市","address":"東京都狛江市元和泉1-6-1","lat":35.63313,"lon":139.575696},{"name":"玉泉寺","province":"東京都","city":"狛江市","address":"東京都狛江市東和泉3-10-23","lat":35.626955,"lon":139.573943},{"name":"伊豆美神社","province":"東京都","city":"狛江市","address":"東京都狛江市中和泉3-21-8","lat":35.635205,"lon":139.569083},{"name":"多摩川","province":"東京都","city":"狛江市","address":"東京都狛江市猪方4-3","lat":35.623493,"lon":139.576259},{"name":"狛江市子ども家庭支援センター","province":"東京都","city":"狛江市","address":"東京都狛江市元和泉2-35-1","lat":35.6333,"lon":139.567778},{"name":"南部地域センター","province":"東京都","city":"狛江市","address":"東京都狛江市猪方4-11-1","lat":35.623377,"lon":139.579809},{"name":"上和泉地域センター","province":"東京都","city":"狛江市","address":"東京都狛江市和泉本町4-7-51","lat":35.645149,"lon":139.568014},{"name":"岩戸地域センター","province":"東京都","city":"狛江市","address":"東京都狛江市岩戸南2-2-5","lat":35.632071,"lon":139.586045},{"name":"野川地域センター","province":"東京都","city":"狛江市","address":"東京都狛江市西野川1-6-9","lat":35.646093,"lon":139.575503},{"name":"狛江市中央公民館","province":"東京都","city":"狛江市","address":"東京都狛江市和泉本町1-1-5","lat":35.635208,"lon":139.578171},{"name":"狛江市あいとぴあセンター","province":"東京都","city":"狛江市","address":"東京都狛江市元和泉2-35-1","lat":35.633349,"lon":139.56768},{"name":"狛江市西河原公民館","province":"東京都","city":"狛江市","address":"東京都狛江市元和泉2-35-1","lat":35.63344,"lon":139.567029},{"name":"狛江市立古民家園","province":"東京都","city":"狛江市","address":"東京都狛江市元和泉2-15-5","lat":35.632911,"lon":139.571155},{"name":"中村児童公園","province":"東京都","city":"狛江市","address":"東京都狛江市東野川2-16-10","lat":35.645554,"lon":139.579756},{"name":"丸山児童公園","province":"東京都","city":"狛江市","address":"東京都狛江市和泉本町2-15-3","lat":35.640334,"lon":139.579484},{"name":"供養塚児童公園","province":"東京都","city":"狛江市","address":"東京都狛江市駒井町3-3-1","lat":35.623597,"lon":139.581942},{"name":"田中の池児童公園","province":"東京都","city":"狛江市","address":"東京都狛江市元和泉2-17-1","lat":35.631247,"lon":139.572177},{"name":"多摩川緑地公園","province":"東京都","city":"狛江市","address":"東京都狛江市猪方4-923","lat":35.624292,"lon":139.573484},{"name":"藤塚第一児童公園","province":"東京都","city":"狛江市","address":"東京都狛江市和泉本町4-7-14","lat":35.644954,"lon":139.567907},{"name":"藤塚第二児童公園","province":"東京都","city":"狛江市","address":"東京都狛江市和泉本町4-7-12","lat":35.644405,"lon":139.568019},{"name":"藤塚第三児童公園","province":"東京都","city":"狛江市","address":"東京都狛江市和泉本町4-7-25","lat":35.643747,"lon":139.568703},{"name":"藤塚第四児童公園","province":"東京都","city":"狛江市","address":"東京都狛江市和泉本町4-7-39","lat":35.642764,"lon":139.569631},{"name":"西河原公園","province":"東京都","city":"狛江市","address":"東京都狛江市元和泉2-38-1","lat":35.632862,"lon":139.567111},{"name":"野川緑地公園","province":"東京都","city":"狛江市","address":"東京都狛江市和泉本町、岩戸北、東野川、西野川地内","lat":35.642924,"lon":139.578609},{"name":"みつおさ児童公園","province":"東京都","city":"狛江市","address":"東京都狛江市東野川3-16-4","lat":35.646008,"lon":139.5841},{"name":"水道橋児童公園","province":"東京都","city":"狛江市","address":"東京都狛江市東和泉4-9-1","lat":35.626327,"lon":139.570912},{"name":"岩戸川緑地公園","province":"東京都","city":"狛江市","address":"東京都狛江市岩戸南、猪方地内","lat":35.629286,"lon":139.587096},{"name":"野川北公園","province":"東京都","city":"狛江市","address":"東京都狛江市西野川1-19-10","lat":35.648544,"lon":139.576102},{"name":"元和泉公園","province":"東京都","city":"狛江市","address":"東京都狛江市元和泉2-12-7","lat":35.631988,"lon":139.57233},{"name":"西河原自然公園","province":"東京都","city":"狛江市","address":"東京都狛江市元和泉2-34-20","lat":35.633246,"lon":139.570163},{"name":"和泉多摩川児童公園","province":"東京都","city":"狛江市","address":"東京都狛江市元和泉3-6-11","lat":35.628261,"lon":139.571899},{"name":"小足立のびのび公園","province":"東京都","city":"狛江市","address":"東京都狛江市西野川4-14-1","lat":35.647587,"lon":139.572822},{"name":"前原公園","province":"東京都","city":"狛江市","address":"東京都狛江市西野川3-11-1","lat":35.64497,"lon":139.570204},{"name":"駒井・上村中ひだまり公園","province":"東京都","city":"狛江市","address":"東京都狛江市駒井町1-12-1","lat":35.625837,"lon":139.585665},{"name":"谷戸橋南広場","province":"東京都","city":"狛江市","address":"東京都狛江市東野川4-23","lat":35.644114,"lon":139.586957},{"name":"北久保公園","province":"東京都","city":"狛江市","address":"東京都狛江市和泉本町2-23-9","lat":35.643085,"lon":139.578234},{"name":"岩戸川南公園","province":"東京都","city":"狛江市","address":"東京都狛江市岩戸南4-17-28","lat":35.626667,"lon":139.593378},{"name":"清水川公園","province":"東京都","city":"狛江市","address":"東京都狛江市東和泉2-9","lat":35.630053,"lon":139.580833},{"name":"根川公園","province":"東京都","city":"狛江市","address":"東京都狛江市中和泉4-15-41","lat":35.63447,"lon":139.56471},{"name":"狛江弁財天池特別緑地保全地区","province":"東京都","city":"狛江市","address":"東京都狛江市元和泉1-7","lat":35.632292,"lon":139.576168},{"name":"狛江市役所","province":"東京都","city":"狛江市","address":"東京都狛江市和泉本町1丁目1-5","lat":35.63491314,"lon":139.57873418},{"name":"上和泉地域センター","province":"東京都","city":"狛江市","address":"東京都狛江市和泉本町4丁目7-51","lat":35.64522822,"lon":139.5679874},{"name":"南部地域センター","province":"東京都","city":"狛江市","address":"東京都狛江市猪方4丁目11-1","lat":35.6233737,"lon":139.57983535},{"name":"岩戸地域センター","province":"東京都","city":"狛江市","address":"東京都狛江市岩戸南2丁目2-5","lat":35.63215548,"lon":139.58610878},{"name":"野川地域センター","province":"東京都","city":"狛江市","address":"東京都狛江市西野川1丁目6-9","lat":35.64608091,"lon":139.57550046},{"name":"東京慈恵会医科大学附属第三病院","province":"東京都","city":"狛江市","address":"東京都狛江市和泉本町4丁目11-1","lat":35.64548376,"lon":139.56598762},{"name":"こども教室えるぶ","province":"東京都","city":"狛江市","address":"狛江市東野川2-1-10-102.103","lat":35.642234,"lon":139.580042},{"name":"はっぴぃハウス","province":"東京都","city":"狛江市","address":"狛江市和泉本町4-7-27-103","lat":35.643051,"lon":139.568946},{"name":"こどもデイサービスほっぷ","province":"東京都","city":"狛江市","address":"狛江市和泉本町4-2-13SANTESAKAE202","lat":35.641318,"lon":139.569443},{"name":"こどもデイサービス　すてっぷ","province":"東京都","city":"狛江市","address":"狛江市和泉本町4-2-13","lat":35.641318,"lon":139.569443},{"name":"ウイングこまえ","province":"東京都","city":"狛江市","address":"狛江市岩戸北三丁目22番13号","lat":35.632275,"lon":139.583237},{"name":"ゆめぽっと","province":"東京都","city":"狛江市","address":"狛江市中和泉2-10-1","lat":35.638782,"lon":139.572912},{"name":"中央図書館","province":"東京都","city":"狛江市","address":"東京都狛江市和泉本町1丁目1-5","lat":35.63491314,"lon":139.57873418},{"name":"西河原公民館図書館","province":"東京都","city":"狛江市","address":"東京都狛江市元和泉2丁目35-1","lat":35.6333052,"lon":139.56761624},{"name":"野川地域センター図書館","province":"東京都","city":"狛江市","address":"東京都狛江市西野川1丁目6-9","lat":35.64608091,"lon":139.57550046},{"name":"上和泉地域センター図書館","province":"東京都","city":"狛江市","address":"東京都狛江市和泉本町4丁目7-51","lat":35.64522822,"lon":139.5679874},{"name":"岩戸地域センター図書室","province":"東京都","city":"狛江市","address":"東京都狛江市岩戸南2丁目2-5","lat":35.63215548,"lon":139.58610878},{"name":"南部地域センター図書室","province":"東京都","city":"狛江市","address":"東京都狛江市猪方4丁目11-1","lat":35.6233737,"lon":139.57983535},{"name":"市民プール","province":"東京都","city":"狛江市","address":"東京都狛江市和泉本町3丁目25-1","lat":35.64199804,"lon":139.57305642},{"name":"元和泉市民運動広場","province":"東京都","city":"狛江市","address":"東京都狛江市元和泉3丁目10","lat":35.62947806,"lon":139.57118841},{"name":"NPO法人 狛江子ども食堂","province":"東京都","city":"狛江市","address":"東京都狛江市和泉本町4-7-51","lat":35.64514,"lon":139.568013},{"name":"みんなの居場所","province":"東京都","city":"狛江市","address":"東京都狛江市元和泉2-35-1","lat":35.633377,"lon":139.567064},{"name":"こどもの多摩里食堂","province":"東京都","city":"狛江市","address":"東京都狛江市東和泉2-9-11","lat":35.630515,"lon":139.580245},{"name":"ごはん＋居場所 おかえり","province":"東京都","city":"狛江市","address":"東京都狛江市東和泉2-20-12-1F","lat":35.628329,"lon":139.575847},{"name":"月末食堂","province":"東京都","city":"狛江市","address":"東京都狛江市東和泉1-32-3-102","lat":35.630338,"lon":139.577365},{"name":"コスモスこども・おとな食堂","province":"東京都","city":"狛江市","address":"東京都狛江市岩戸南2-2-5","lat":35.632142,"lon":139.586058},{"name":"和泉本町給水所","province":"東京都","city":"狛江市","address":"東京都狛江市和泉本町4-6-1","lat":35.6429908,"lon":139.571116},{"name":"狛江市役所","province":"東京都","city":"狛江市","address":"東京都狛江市和泉本町1丁目1番5号","lat":35.63494013,"lon":139.5787757},{"name":"狛江市役所","province":"東京都","city":"狛江市","address":"東京都狛江市和泉本町1丁目1番5号","lat":35.63466216,"lon":139.5781963},{"name":"狛江市立狛江第一小学校","province":"東京都","city":"狛江市","address":"東京都狛江市和泉本町1丁目37番1号","lat":35.63733,"lon":139.57809},{"name":"狛江市立狛江第三小学校","province":"東京都","city":"狛江市","address":"東京都狛江市猪方1丁目11番1号","lat":35.62810934,"lon":139.585056},{"name":"狛江市立狛江第五小学校","province":"東京都","city":"狛江市","address":"東京都狛江市東野川1丁目35番13号","lat":35.64393576,"lon":139.5816416},{"name":"狛江市立狛江第六小学校","province":"東京都","city":"狛江市","address":"東京都狛江市駒井町1丁目21番1号","lat":35.62460954,"lon":139.5852024},{"name":"狛江市立和泉小学校","province":"東京都","city":"狛江市","address":"東京都狛江市中和泉3丁目33丁目1番","lat":35.63473697,"lon":139.5683215},{"name":"狛江市立緑野小学校","province":"東京都","city":"狛江市","address":"東京都狛江市和泉本町4丁目3番1号","lat":35.64171,"lon":139.57103},{"name":"狛江市立狛江第一中学校","province":"東京都","city":"狛江市","address":"東京都狛江市和泉本町2丁目15番1号","lat":35.64082622,"lon":139.5776589},{"name":"狛江市立狛江第二中学校","province":"東京都","city":"狛江市","address":"東京都狛江市猪方2丁目7番1号","lat":35.62727,"lon":139.58314},{"name":"狛江市立狛江第三中学校","province":"東京都","city":"狛江市","address":"東京都狛江市元和泉1丁目23番1号","lat":35.62995,"lon":139.57463},{"name":"狛江市立狛江第四中学校","province":"東京都","city":"狛江市","address":"東京都狛江市狛氏東野川4丁目1番1号","lat":35.64523,"lon":139.58167},{"name":"狛江市立狛江第一小学校体育館","province":"東京都","city":"狛江市","address":"東京都狛江市和泉本町1丁目37番1号","lat":35.63745,"lon":139.57815},{"name":"狛江市立狛江第三小学校体育館","province":"東京都","city":"狛江市","address":"東京都狛江市猪方1丁目11番1号","lat":35.62778,"lon":139.58448},{"name":"狛江市立狛江第五小学校体育館","province":"東京都","city":"狛江市","address":"東京都狛江市東野川1丁目35番13号","lat":35.64383,"lon":139.58096},{"name":"狛江市立狛江第六小学校体育館","province":"東京都","city":"狛江市","address":"東京都狛江市駒井町1丁目21丁目1号","lat":35.62478,"lon":139.5849},{"name":"狛江市立和泉小学校体育館","province":"東京都","city":"狛江市","address":"東京都狛江市中和泉3丁目33丁目1号","lat":35.63485,"lon":139.56861},{"name":"狛江市立緑野小学校体育館","province":"東京都","city":"狛江市","address":"東京都狛江市和泉本町4丁目3番1号","lat":35.64138,"lon":139.57017},{"name":"狛江市立狛江第一中学校体育館","province":"東京都","city":"狛江市","address":"東京都狛江市和泉本町2丁目15番1号","lat":35.6404518,"lon":139.5774335},{"name":"狛江市立狛江第二中学校体育館","province":"東京都","city":"狛江市","address":"東京都狛江市猪方2丁目7番1号","lat":35.62698,"lon":139.58317},{"name":"狛江市立狛江第三中学校体育館","province":"東京都","city":"狛江市","address":"東京都狛江市元和泉1丁目23番1号","lat":35.63017,"lon":139.57445},{"name":"狛江市立狛江第四中学校体育館","province":"東京都","city":"狛江市","address":"東京都狛江市東野川4丁目1番1号","lat":35.64543,"lon":139.58198},{"name":"中央公民館","province":"東京都","city":"狛江市","address":"東京都狛江市和泉本町1丁目1番5号","lat":35.63506,"lon":139.57815},{"name":"西河原公民館","province":"東京都","city":"狛江市","address":"東京都狛江市元和泉2丁目35番1号","lat":35.63338,"lon":139.56706},{"name":"狛江市民総合体育館","province":"東京都","city":"狛江市","address":"東京都狛江市和泉本町3丁目25番1号","lat":35.64236,"lon":139.57323},{"name":"狛江市民グランド","province":"東京都","city":"狛江市","address":"東京都狛江市和泉本町2丁目15番2号","lat":35.63988,"lon":139.57898},{"name":"西和泉体育館","province":"東京都","city":"狛江市","address":"東京都狛江市西和泉1丁目16番1号","lat":35.64027,"lon":139.56512},{"name":"元和泉市民テニスコート","province":"東京都","city":"狛江市","address":"東京都狛江市元和泉2丁目8番1号","lat":35.63018294,"lon":139.5716077},{"name":"東野川市民テニスコート","province":"東京都","city":"狛江市","address":"東京都狛江市東野川3丁目14番10号","lat":35.64707,"lon":139.58233},{"name":"古民家園","province":"東京都","city":"狛江市","address":"東京都狛江市元和泉2丁目15番5号","lat":35.63297,"lon":139.57095},{"name":"あいとぴあセンター","province":"東京都","city":"狛江市","address":"東京都狛江市元和泉2丁目35番1号","lat":35.63331,"lon":139.56778},{"name":"狛江市子育て・教育支援複合施設（ひだまりセンター）","province":"東京都","city":"狛江市","address":"東京都狛江市元和泉1丁目11番11号","lat":35.6314,"lon":139.57617},{"name":"駒井学童保育所・六小KoKoA","province":"東京都","city":"狛江市","address":"東京都狛江市駒井町1丁目21番6号","lat":35.62494,"lon":139.5853},{"name":"猪方学童保育所","province":"東京都","city":"狛江市","address":"東京都狛江市猪方1丁目11番2号","lat":35.62736,"lon":139.58567},{"name":"東野川学童保育所","province":"東京都","city":"狛江市","address":"東京都狛江市東野川1丁目6番3号","lat":35.64332,"lon":139.58086},{"name":"松原学童保育所","province":"東京都","city":"狛江市","address":"東京都狛江市和泉本町1丁目14番3号","lat":35.63896,"lon":139.5779},{"name":"上和泉学童保育所","province":"東京都","city":"狛江市","address":"東京都狛江市和泉本町4丁目7番51号","lat":35.64509,"lon":139.56798},{"name":"第五小学校放課後クラブ","province":"東京都","city":"狛江市","address":"東京都狛江市東野川1丁目36番13号","lat":35.64458,"lon":139.58173},{"name":"藤塚保育園","province":"東京都","city":"狛江市","address":"東京都狛江市和泉本町4丁目7番35号","lat":35.64219,"lon":139.56986},{"name":"駒井保育園","province":"東京都","city":"狛江市","address":"東京都狛江市駒井町2丁目28番6号","lat":35.62443767,"lon":139.5875633},{"name":"駄倉保育園","province":"東京都","city":"狛江市","address":"東京都狛江市岩戸北3丁目20番2号","lat":35.63291,"lon":139.58162},{"name":"三島保育園","province":"東京都","city":"狛江市","address":"東京都狛江市東野川1丁目32番2号","lat":35.64188,"lon":139.58283},{"name":"岩戸児童センター","province":"東京都","city":"狛江市","address":"東京都狛江市岩戸南3丁目15番1号","lat":35.62917099,"lon":139.587911},{"name":"和泉児童館","province":"東京都","city":"狛江市","address":"東京都狛江市中和泉3丁目12番6号","lat":35.63685,"lon":139.57062},{"name":"こまっこ児童館","province":"東京都","city":"狛江市","address":"東京都狛江市和泉本町3丁目31番19号","lat":35.64204402,"lon":139.575466},{"name":"駄倉小学生クラブ","province":"東京都","city":"狛江市","address":"東京都狛江市東和泉1丁目3番17号","lat":35.63291,"lon":139.58058},{"name":"市民活動支援センター（こまえくぼ1234）","province":"東京都","city":"狛江市","address":"東京都狛江市和泉本町1丁目2番34号","lat":35.63432,"lon":139.58038},{"name":"野川地域センター","province":"東京都","city":"狛江市","address":"東京都狛江市西野川1丁目6番9号","lat":35.64612,"lon":139.57566},{"name":"上和泉地域センター","province":"東京都","city":"狛江市","address":"東京都狛江市和泉本町4丁目7番51号","lat":35.64511409,"lon":139.5678151},{"name":"岩戸地域センター","province":"東京都","city":"狛江市","address":"東京都狛江市岩戸南2丁目2丁目5号","lat":35.63214,"lon":139.58608},{"name":"南部地域センター","province":"東京都","city":"狛江市","address":"東京都狛江市猪方4丁目11番1号","lat":35.62337497,"lon":139.5798098},{"name":"和泉多摩川地区センター","province":"東京都","city":"狛江市","address":"東京都狛江市猪方4丁目1番1号","lat":35.62467,"lon":139.57405},{"name":"狛江市民ホール","province":"東京都","city":"狛江市","address":"東京都狛江市元和泉1丁目2番1号","lat":35.63309,"lon":139.5778},{"name":"オダクル狛江第1","province":"東京都","city":"狛江市","address":"東京都狛江市和泉本町1丁目2","lat":35.63414941,"lon":139.57939809},{"name":"オダクル狛江第2","province":"東京都","city":"狛江市","address":"東京都狛江市元和泉1丁目11","lat":35.63119715,"lon":139.5759071},{"name":"オダクルマルシェ狛江","province":"東京都","city":"狛江市","address":"東京都狛江市元和泉1丁目1","lat":35.63360228,"lon":139.5785899},{"name":"狛江駅北口自転車駐車場","province":"東京都","city":"狛江市","address":"東京都狛江市元和泉1丁目3","lat":35.6328524,"lon":139.57728177},{"name":"狛江駅南口第１自転車等駐車場","province":"東京都","city":"狛江市","address":"東京都狛江市東和泉1丁目17","lat":35.63206089,"lon":139.57744019},{"name":"オダクル喜多見店舗","province":"東京都","city":"狛江市","address":"東京都狛江市岩戸北2丁目20","lat":35.63603812,"lon":139.58530293},{"name":"オダクル喜多見第2","province":"東京都","city":"狛江市","address":"東京都狛江市岩戸北1丁目24","lat":35.63600755,"lon":139.58455857},{"name":"東都サイクルパーク喜多見第１","province":"東京都","city":"狛江市","address":"東京都狛江市岩戸北4丁目6","lat":35.6359937,"lon":139.58585012},{"name":"小川園宝島駐輪場","province":"東京都","city":"狛江市","address":"東京都狛江市岩戸北4丁目2","lat":35.63457449,"lon":139.5856697},{"name":"オダクル和泉多摩川第1","province":"東京都","city":"狛江市","address":"東京都狛江市東和泉4丁目1","lat":35.62800613,"lon":139.57366052},{"name":"オダクル和泉多摩川第2","province":"東京都","city":"狛江市","address":"東京都狛江市東和泉4丁目6","lat":35.62651476,"lon":139.57243861},{"name":"中和泉一丁目自転車置場","province":"東京都","city":"狛江市","address":"東京都狛江市中和泉1丁目25","lat":35.63396875,"lon":139.57337644},{"name":"和泉多摩川自転車置場（高架下）","province":"東京都","city":"狛江市","address":"東京都狛江市東和泉4丁目8","lat":35.62664253,"lon":139.57138318},{"name":"オダクル和泉多摩川東口","province":"東京都","city":"狛江市","address":"東京都狛江市東和泉4丁目2","lat":35.62754789,"lon":139.57372724},{"name":"狛江駅南口第2自転車駐車場","province":"東京都","city":"狛江市","address":"東京都狛江市東和泉1丁目20","lat":35.63166375,"lon":139.57751522},{"name":"東都サイクルパーク狛江駅前","province":"東京都","city":"狛江市","address":"東京都狛江市東和泉1丁目14","lat":35.63284132,"lon":139.57858999},{"name":"東都サイクルパーク和泉多摩川","province":"東京都","city":"狛江市","address":"東京都狛江市東和泉3丁目1","lat":35.62838383,"lon":139.57500476},{"name":"狛江三差路","province":"東京都","city":"狛江市","address":"東京都狛江市東和泉1丁目5-13","lat":35.63171937,"lon":139.58209254},{"name":"狛江二の橋","province":"東京都","city":"狛江市","address":"東京都狛江市岩戸南2丁目5-5","lat":35.63282486,"lon":139.58888901},{"name":"狛江市役所前","province":"東京都","city":"狛江市","address":"東京都狛江市中和泉1丁目1-1","lat":35.63391331,"lon":139.57796492},{"name":"狛江駅入口","province":"東京都","city":"狛江市","address":"東京都狛江市東和泉1丁目33-2","lat":35.63022516,"lon":139.57860972},{"name":"狛江福祉会館前","province":"東京都","city":"狛江市","address":"東京都狛江市元和泉2丁目35-1","lat":35.6333052,"lon":139.56761624},{"name":"狛江市役所前第二","province":"東京都","city":"狛江市","address":"東京都狛江市和泉本町1丁目1-10","lat":35.6350242,"lon":139.57773147},{"name":"狛江水神東","province":"東京都","city":"狛江市","address":"東京都狛江市元和泉2丁目36","lat":35.63369411,"lon":139.56580536},{"name":"狛江駅北口","province":"東京都","city":"狛江市","address":"東京都狛江市元和泉1丁目3","lat":35.6328524,"lon":139.57728177},{"name":"＊?狛江市民ホール（エコルマ）","province":"東京都","city":"狛江市","address":"狛江市元和泉1-2-1","lat":35.633279,"lon":139.577995},{"name":"多摩川五本松","province":"東京都","city":"狛江市","address":"東京都狛江市元和泉三丁目地先","lat":35.632433,"lon":139.33579},{"name":"狛江エコルマホール","province":"東京都","city":"狛江市","address":"東京都狛江市元和泉1-2-1","lat":35.633278,"lon":139.578031},{"name":"巨大絵手紙","province":"東京都","city":"狛江市","address":"東京都狛江市元和泉1丁目","lat":35.632978,"lon":139.577494},{"name":"絵手紙表示板","province":"東京都","city":"狛江市","address":"東京都狛江市元和泉1丁目","lat":35.633321,"lon":139.577728},{"name":"泉龍寺","province":"東京都","city":"狛江市","address":"東京都狛江市元和泉1-6-1","lat":35.63313,"lon":139.575696},{"name":"玉泉寺","province":"東京都","city":"狛江市","address":"東京都狛江市東和泉3-10-23","lat":35.626955,"lon":139.573943},{"name":"伊豆美神社","province":"東京都","city":"狛江市","address":"東京都狛江市中和泉3-21-8","lat":35.635205,"lon":139.569083},{"name":"多摩川","province":"東京都","city":"狛江市","address":"東京都狛江市猪方4-3","lat":35.623493,"lon":139.576259},{"name":"狛江市子ども家庭支援センター","province":"東京都","city":"狛江市","address":"東京都狛江市元和泉2-35-1","lat":35.6333,"lon":139.567778},{"name":"南部地域センター","province":"東京都","city":"狛江市","address":"東京都狛江市猪方4-11-1","lat":35.623377,"lon":139.579809},{"name":"上和泉地域センター","province":"東京都","city":"狛江市","address":"東京都狛江市和泉本町4-7-51","lat":35.645149,"lon":139.568014},{"name":"岩戸地域センター","province":"東京都","city":"狛江市","address":"東京都狛江市岩戸南2-2-5","lat":35.632071,"lon":139.586045},{"name":"野川地域センター","province":"東京都","city":"狛江市","address":"東京都狛江市西野川1-6-9","lat":35.646093,"lon":139.575503},{"name":"狛江市中央公民館","province":"東京都","city":"狛江市","address":"東京都狛江市和泉本町1-1-5","lat":35.635208,"lon":139.578171},{"name":"狛江市あいとぴあセンター","province":"東京都","city":"狛江市","address":"東京都狛江市元和泉2-35-1","lat":35.633349,"lon":139.56768},{"name":"狛江市西河原公民館","province":"東京都","city":"狛江市","address":"東京都狛江市元和泉2-35-1","lat":35.63344,"lon":139.567029},{"name":"狛江市立古民家園","province":"東京都","city":"狛江市","address":"東京都狛江市元和泉2-15-5","lat":35.632911,"lon":139.571155},{"name":"中村児童公園","province":"東京都","city":"狛江市","address":"東京都狛江市東野川2-16-10","lat":35.645554,"lon":139.579756},{"name":"丸山児童公園","province":"東京都","city":"狛江市","address":"東京都狛江市和泉本町2-15-3","lat":35.640334,"lon":139.579484},{"name":"供養塚児童公園","province":"東京都","city":"狛江市","address":"東京都狛江市駒井町3-3-1","lat":35.623597,"lon":139.581942},{"name":"田中の池児童公園","province":"東京都","city":"狛江市","address":"東京都狛江市元和泉2-17-1","lat":35.631247,"lon":139.572177},{"name":"多摩川緑地公園","province":"東京都","city":"狛江市","address":"東京都狛江市猪方4-923","lat":35.624292,"lon":139.573484},{"name":"藤塚第一児童公園","province":"東京都","city":"狛江市","address":"東京都狛江市和泉本町4-7-14","lat":35.644954,"lon":139.567907},{"name":"藤塚第二児童公園","province":"東京都","city":"狛江市","address":"東京都狛江市和泉本町4-7-12","lat":35.644405,"lon":139.568019},{"name":"藤塚第三児童公園","province":"東京都","city":"狛江市","address":"東京都狛江市和泉本町4-7-25","lat":35.643747,"lon":139.568703},{"name":"藤塚第四児童公園","province":"東京都","city":"狛江市","address":"東京都狛江市和泉本町4-7-39","lat":35.642764,"lon":139.569631},{"name":"西河原公園","province":"東京都","city":"狛江市","address":"東京都狛江市元和泉2-38-1","lat":35.632862,"lon":139.567111},{"name":"野川緑地公園","province":"東京都","city":"狛江市","address":"東京都狛江市和泉本町、岩戸北、東野川、西野川地内","lat":35.642924,"lon":139.578609},{"name":"みつおさ児童公園","province":"東京都","city":"狛江市","address":"東京都狛江市東野川3-16-4","lat":35.646008,"lon":139.5841},{"name":"水道橋児童公園","province":"東京都","city":"狛江市","address":"東京都狛江市東和泉4-9-1","lat":35.626327,"lon":139.570912},{"name":"岩戸川緑地公園","province":"東京都","city":"狛江市","address":"東京都狛江市岩戸南、猪方地内","lat":35.629286,"lon":139.587096},{"name":"野川北公園","province":"東京都","city":"狛江市","address":"東京都狛江市西野川1-19-10","lat":35.648544,"lon":139.576102},{"name":"元和泉公園","province":"東京都","city":"狛江市","address":"東京都狛江市元和泉2-12-7","lat":35.631988,"lon":139.57233},{"name":"西河原自然公園","province":"東京都","city":"狛江市","address":"東京都狛江市元和泉2-34-20","lat":35.633246,"lon":139.570163},{"name":"和泉多摩川児童公園","province":"東京都","city":"狛江市","address":"東京都狛江市元和泉3-6-11","lat":35.628261,"lon":139.571899},{"name":"小足立のびのび公園","province":"東京都","city":"狛江市","address":"東京都狛江市西野川4-14-1","lat":35.647587,"lon":139.572822},{"name":"前原公園","province":"東京都","city":"狛江市","address":"東京都狛江市西野川3-11-1","lat":35.64497,"lon":139.570204},{"name":"駒井・上村中ひだまり公園","province":"東京都","city":"狛江市","address":"東京都狛江市駒井町1-12-1","lat":35.625837,"lon":139.585665},{"name":"谷戸橋南広場","province":"東京都","city":"狛江市","address":"東京都狛江市東野川4-23","lat":35.644114,"lon":139.586957},{"name":"北久保公園","province":"東京都","city":"狛江市","address":"東京都狛江市和泉本町2-23-9","lat":35.643085,"lon":139.578234},{"name":"岩戸川南公園","province":"東京都","city":"狛江市","address":"東京都狛江市岩戸南4-17-28","lat":35.626667,"lon":139.593378},{"name":"清水川公園","province":"東京都","city":"狛江市","address":"東京都狛江市東和泉2-9","lat":35.630053,"lon":139.580833},{"name":"根川公園","province":"東京都","city":"狛江市","address":"東京都狛江市中和泉4-15-41","lat":35.63447,"lon":139.56471},{"name":"狛江弁財天池特別緑地保全地区","province":"東京都","city":"狛江市","address":"東京都狛江市元和泉1-7","lat":35.632292,"lon":139.576168},{"name":"狛江市役所","province":"東京都","city":"狛江市","address":"東京都狛江市和泉本町1丁目1-5","lat":35.63491314,"lon":139.57873418},{"name":"上和泉地域センター","province":"東京都","city":"狛江市","address":"東京都狛江市和泉本町4丁目7-51","lat":35.64522822,"lon":139.5679874},{"name":"南部地域センター","province":"東京都","city":"狛江市","address":"東京都狛江市猪方4丁目11-1","lat":35.6233737,"lon":139.57983535},{"name":"岩戸地域センター","province":"東京都","city":"狛江市","address":"東京都狛江市岩戸南2丁目2-5","lat":35.63215548,"lon":139.58610878},{"name":"野川地域センター","province":"東京都","city":"狛江市","address":"東京都狛江市西野川1丁目6-9","lat":35.64608091,"lon":139.57550046},{"name":"東京慈恵会医科大学附属第三病院","province":"東京都","city":"狛江市","address":"東京都狛江市和泉本町4丁目11-1","lat":35.64548376,"lon":139.56598762},{"name":"こども教室えるぶ","province":"東京都","city":"狛江市","address":"狛江市東野川2-1-10-102.103","lat":35.642234,"lon":139.580042},{"name":"はっぴぃハウス","province":"東京都","city":"狛江市","address":"狛江市和泉本町4-7-27-103","lat":35.643051,"lon":139.568946},{"name":"こどもデイサービスほっぷ","province":"東京都","city":"狛江市","address":"狛江市和泉本町4-2-13SANTESAKAE202","lat":35.641318,"lon":139.569443},{"name":"こどもデイサービス　すてっぷ","province":"東京都","city":"狛江市","address":"狛江市和泉本町4-2-13","lat":35.641318,"lon":139.569443},{"name":"ウイングこまえ","province":"東京都","city":"狛江市","address":"狛江市岩戸北三丁目22番13号","lat":35.632275,"lon":139.583237},{"name":"ゆめぽっと","province":"東京都","city":"狛江市","address":"狛江市中和泉2-10-1","lat":35.638782,"lon":139.572912},{"name":"中央図書館","province":"東京都","city":"狛江市","address":"東京都狛江市和泉本町1丁目1-5","lat":35.63491314,"lon":139.57873418},{"name":"西河原公民館図書館","province":"東京都","city":"狛江市","address":"東京都狛江市元和泉2丁目35-1","lat":35.6333052,"lon":139.56761624},{"name":"野川地域センター図書館","province":"東京都","city":"狛江市","address":"東京都狛江市西野川1丁目6-9","lat":35.64608091,"lon":139.57550046},{"name":"上和泉地域センター図書館","province":"東京都","city":"狛江市","address":"東京都狛江市和泉本町4丁目7-51","lat":35.64522822,"lon":139.5679874},{"name":"岩戸地域センター図書室","province":"東京都","city":"狛江市","address":"東京都狛江市岩戸南2丁目2-5","lat":35.63215548,"lon":139.58610878},{"name":"南部地域センター図書室","province":"東京都","city":"狛江市","address":"東京都狛江市猪方4丁目11-1","lat":35.6233737,"lon":139.57983535},{"name":"市民プール","province":"東京都","city":"狛江市","address":"東京都狛江市和泉本町3丁目25-1","lat":35.64199804,"lon":139.57305642},{"name":"元和泉市民運動広場","province":"東京都","city":"狛江市","address":"東京都狛江市元和泉3丁目10","lat":35.62947806,"lon":139.57118841},{"name":"NPO法人 狛江子ども食堂","province":"東京都","city":"狛江市","address":"東京都狛江市和泉本町4-7-51","lat":35.64514,"lon":139.568013},{"name":"みんなの居場所","province":"東京都","city":"狛江市","address":"東京都狛江市元和泉2-35-1","lat":35.633377,"lon":139.567064},{"name":"こどもの多摩里食堂","province":"東京都","city":"狛江市","address":"東京都狛江市東和泉2-9-11","lat":35.630515,"lon":139.580245},{"name":"ごはん＋居場所 おかえり","province":"東京都","city":"狛江市","address":"東京都狛江市東和泉2-20-12-1F","lat":35.628329,"lon":139.575847},{"name":"月末食堂","province":"東京都","city":"狛江市","address":"東京都狛江市東和泉1-32-3-102","lat":35.630338,"lon":139.577365},{"name":"コスモスこども・おとな食堂","province":"東京都","city":"狛江市","address":"東京都狛江市岩戸南2-2-5","lat":35.632142,"lon":139.586058},{"name":"和泉本町給水所","province":"東京都","city":"狛江市","address":"東京都狛江市和泉本町4-6-1","lat":35.6429908,"lon":139.571116},{"name":"オダクル狛江第1","province":"東京都","city":"狛江市","address":"東京都狛江市和泉本町1丁目2","lat":35.63414941,"lon":139.57939809},{"name":"オダクル狛江第2","province":"東京都","city":"狛江市","address":"東京都狛江市元和泉1丁目11","lat":35.63119715,"lon":139.5759071},{"name":"オダクルマルシェ狛江","province":"東京都","city":"狛江市","address":"東京都狛江市元和泉1丁目1","lat":35.63360228,"lon":139.5785899},{"name":"狛江駅北口自転車駐車場","province":"東京都","city":"狛江市","address":"東京都狛江市元和泉1丁目3","lat":35.6328524,"lon":139.57728177},{"name":"狛江駅南口第１自転車等駐車場","province":"東京都","city":"狛江市","address":"東京都狛江市東和泉1丁目17","lat":35.63206089,"lon":139.57744019},{"name":"オダクル喜多見店舗","province":"東京都","city":"狛江市","address":"東京都狛江市岩戸北2丁目20","lat":35.63603812,"lon":139.58530293},{"name":"オダクル喜多見第2","province":"東京都","city":"狛江市","address":"東京都狛江市岩戸北1丁目24","lat":35.63600755,"lon":139.58455857},{"name":"東都サイクルパーク喜多見第１","province":"東京都","city":"狛江市","address":"東京都狛江市岩戸北4丁目6","lat":35.6359937,"lon":139.58585012},{"name":"小川園宝島駐輪場","province":"東京都","city":"狛江市","address":"東京都狛江市岩戸北4丁目2","lat":35.63457449,"lon":139.5856697},{"name":"オダクル和泉多摩川第1","province":"東京都","city":"狛江市","address":"東京都狛江市東和泉4丁目1","lat":35.62800613,"lon":139.57366052},{"name":"オダクル和泉多摩川第2","province":"東京都","city":"狛江市","address":"東京都狛江市東和泉4丁目6","lat":35.62651476,"lon":139.57243861},{"name":"中和泉一丁目自転車置場","province":"東京都","city":"狛江市","address":"東京都狛江市中和泉1丁目25","lat":35.63396875,"lon":139.57337644},{"name":"和泉多摩川自転車置場（高架下）","province":"東京都","city":"狛江市","address":"東京都狛江市東和泉4丁目8","lat":35.62664253,"lon":139.57138318},{"name":"オダクル和泉多摩川東口","province":"東京都","city":"狛江市","address":"東京都狛江市東和泉4丁目2","lat":35.62754789,"lon":139.57372724},{"name":"狛江駅南口第2自転車駐車場","province":"東京都","city":"狛江市","address":"東京都狛江市東和泉1丁目20","lat":35.63166375,"lon":139.57751522},{"name":"東都サイクルパーク狛江駅前","province":"東京都","city":"狛江市","address":"東京都狛江市東和泉1丁目14","lat":35.63284132,"lon":139.57858999},{"name":"東都サイクルパーク和泉多摩川","province":"東京都","city":"狛江市","address":"東京都狛江市東和泉3丁目1","lat":35.62838383,"lon":139.57500476},{"name":"狛江三差路","province":"東京都","city":"狛江市","address":"東京都狛江市東和泉1丁目5-13","lat":35.63171937,"lon":139.58209254},{"name":"狛江二の橋","province":"東京都","city":"狛江市","address":"東京都狛江市岩戸南2丁目5-5","lat":35.63282486,"lon":139.58888901},{"name":"狛江市役所前","province":"東京都","city":"狛江市","address":"東京都狛江市中和泉1丁目1-1","lat":35.63391331,"lon":139.57796492},{"name":"狛江駅入口","province":"東京都","city":"狛江市","address":"東京都狛江市東和泉1丁目33-2","lat":35.63022516,"lon":139.57860972},{"name":"狛江福祉会館前","province":"東京都","city":"狛江市","address":"東京都狛江市元和泉2丁目35-1","lat":35.6333052,"lon":139.56761624},{"name":"狛江市役所前第二","province":"東京都","city":"狛江市","address":"東京都狛江市和泉本町1丁目1-10","lat":35.6350242,"lon":139.57773147},{"name":"狛江水神東","province":"東京都","city":"狛江市","address":"東京都狛江市元和泉2丁目36","lat":35.63369411,"lon":139.56580536},{"name":"狛江駅北口","province":"東京都","city":"狛江市","address":"東京都狛江市元和泉1丁目3","lat":35.6328524,"lon":139.57728177},{"name":"＊?狛江市民ホール（エコルマ）","province":"東京都","city":"狛江市","address":"狛江市元和泉1-2-1","lat":35.633279,"lon":139.577995},{"name":"多摩川五本松","province":"東京都","city":"狛江市","address":"東京都狛江市元和泉三丁目地先","lat":35.632433,"lon":139.33579},{"name":"狛江エコルマホール","province":"東京都","city":"狛江市","address":"東京都狛江市元和泉1-2-1","lat":35.633278,"lon":139.578031},{"name":"巨大絵手紙","province":"東京都","city":"狛江市","address":"東京都狛江市元和泉1丁目","lat":35.632978,"lon":139.577494},{"name":"絵手紙表示板","province":"東京都","city":"狛江市","address":"東京都狛江市元和泉1丁目","lat":35.633321,"lon":139.577728},{"name":"泉龍寺","province":"東京都","city":"狛江市","address":"東京都狛江市元和泉1-6-1","lat":35.63313,"lon":139.575696},{"name":"玉泉寺","province":"東京都","city":"狛江市","address":"東京都狛江市東和泉3-10-23","lat":35.626955,"lon":139.573943},{"name":"伊豆美神社","province":"東京都","city":"狛江市","address":"東京都狛江市中和泉3-21-8","lat":35.635205,"lon":139.569083},{"name":"多摩川","province":"東京都","city":"狛江市","address":"東京都狛江市猪方4-3","lat":35.623493,"lon":139.576259},{"name":"狛江市子ども家庭支援センター","province":"東京都","city":"狛江市","address":"東京都狛江市元和泉2-35-1","lat":35.6333,"lon":139.567778},{"name":"南部地域センター","province":"東京都","city":"狛江市","address":"東京都狛江市猪方4-11-1","lat":35.623377,"lon":139.579809},{"name":"上和泉地域センター","province":"東京都","city":"狛江市","address":"東京都狛江市和泉本町4-7-51","lat":35.645149,"lon":139.568014},{"name":"岩戸地域センター","province":"東京都","city":"狛江市","address":"東京都狛江市岩戸南2-2-5","lat":35.632071,"lon":139.586045},{"name":"野川地域センター","province":"東京都","city":"狛江市","address":"東京都狛江市西野川1-6-9","lat":35.646093,"lon":139.575503},{"name":"狛江市中央公民館","province":"東京都","city":"狛江市","address":"東京都狛江市和泉本町1-1-5","lat":35.635208,"lon":139.578171},{"name":"狛江市あいとぴあセンター","province":"東京都","city":"狛江市","address":"東京都狛江市元和泉2-35-1","lat":35.633349,"lon":139.56768},{"name":"狛江市西河原公民館","province":"東京都","city":"狛江市","address":"東京都狛江市元和泉2-35-1","lat":35.63344,"lon":139.567029},{"name":"狛江市立古民家園","province":"東京都","city":"狛江市","address":"東京都狛江市元和泉2-15-5","lat":35.632911,"lon":139.571155},{"name":"中村児童公園","province":"東京都","city":"狛江市","address":"東京都狛江市東野川2-16-10","lat":35.645554,"lon":139.579756},{"name":"丸山児童公園","province":"東京都","city":"狛江市","address":"東京都狛江市和泉本町2-15-3","lat":35.640334,"lon":139.579484},{"name":"供養塚児童公園","province":"東京都","city":"狛江市","address":"東京都狛江市駒井町3-3-1","lat":35.623597,"lon":139.581942},{"name":"田中の池児童公園","province":"東京都","city":"狛江市","address":"東京都狛江市元和泉2-17-1","lat":35.631247,"lon":139.572177},{"name":"多摩川緑地公園","province":"東京都","city":"狛江市","address":"東京都狛江市猪方4-923","lat":35.624292,"lon":139.573484},{"name":"藤塚第一児童公園","province":"東京都","city":"狛江市","address":"東京都狛江市和泉本町4-7-14","lat":35.644954,"lon":139.567907},{"name":"藤塚第二児童公園","province":"東京都","city":"狛江市","address":"東京都狛江市和泉本町4-7-12","lat":35.644405,"lon":139.568019},{"name":"藤塚第三児童公園","province":"東京都","city":"狛江市","address":"東京都狛江市和泉本町4-7-25","lat":35.643747,"lon":139.568703},{"name":"藤塚第四児童公園","province":"東京都","city":"狛江市","address":"東京都狛江市和泉本町4-7-39","lat":35.642764,"lon":139.569631},{"name":"西河原公園","province":"東京都","city":"狛江市","address":"東京都狛江市元和泉2-38-1","lat":35.632862,"lon":139.567111},{"name":"野川緑地公園","province":"東京都","city":"狛江市","address":"東京都狛江市和泉本町、岩戸北、東野川、西野川地内","lat":35.642924,"lon":139.578609},{"name":"みつおさ児童公園","province":"東京都","city":"狛江市","address":"東京都狛江市東野川3-16-4","lat":35.646008,"lon":139.5841},{"name":"水道橋児童公園","province":"東京都","city":"狛江市","address":"東京都狛江市東和泉4-9-1","lat":35.626327,"lon":139.570912},{"name":"岩戸川緑地公園","province":"東京都","city":"狛江市","address":"東京都狛江市岩戸南、猪方地内","lat":35.629286,"lon":139.587096},{"name":"野川北公園","province":"東京都","city":"狛江市","address":"東京都狛江市西野川1-19-10","lat":35.648544,"lon":139.576102},{"name":"元和泉公園","province":"東京都","city":"狛江市","address":"東京都狛江市元和泉2-12-7","lat":35.631988,"lon":139.57233},{"name":"西河原自然公園","province":"東京都","city":"狛江市","address":"東京都狛江市元和泉2-34-20","lat":35.633246,"lon":139.570163},{"name":"和泉多摩川児童公園","province":"東京都","city":"狛江市","address":"東京都狛江市元和泉3-6-11","lat":35.628261,"lon":139.571899},{"name":"小足立のびのび公園","province":"東京都","city":"狛江市","address":"東京都狛江市西野川4-14-1","lat":35.647587,"lon":139.572822},{"name":"前原公園","province":"東京都","city":"狛江市","address":"東京都狛江市西野川3-11-1","lat":35.64497,"lon":139.570204},{"name":"駒井・上村中ひだまり公園","province":"東京都","city":"狛江市","address":"東京都狛江市駒井町1-12-1","lat":35.625837,"lon":139.585665},{"name":"谷戸橋南広場","province":"東京都","city":"狛江市","address":"東京都狛江市東野川4-23","lat":35.644114,"lon":139.586957},{"name":"北久保公園","province":"東京都","city":"狛江市","address":"東京都狛江市和泉本町2-23-9","lat":35.643085,"lon":139.578234},{"name":"岩戸川南公園","province":"東京都","city":"狛江市","address":"東京都狛江市岩戸南4-17-28","lat":35.626667,"lon":139.593378},{"name":"清水川公園","province":"東京都","city":"狛江市","address":"東京都狛江市東和泉2-9","lat":35.630053,"lon":139.580833},{"name":"根川公園","province":"東京都","city":"狛江市","address":"東京都狛江市中和泉4-15-41","lat":35.63447,"lon":139.56471},{"name":"狛江弁財天池特別緑地保全地区","province":"東京都","city":"狛江市","address":"東京都狛江市元和泉1-7","lat":35.632292,"lon":139.576168},{"name":"狛江市役所","province":"東京都","city":"狛江市","address":"東京都狛江市和泉本町1丁目1-5","lat":35.63491314,"lon":139.57873418},{"name":"上和泉地域センター","province":"東京都","city":"狛江市","address":"東京都狛江市和泉本町4丁目7-51","lat":35.64522822,"lon":139.5679874},{"name":"南部地域センター","province":"東京都","city":"狛江市","address":"東京都狛江市猪方4丁目11-1","lat":35.6233737,"lon":139.57983535},{"name":"岩戸地域センター","province":"東京都","city":"狛江市","address":"東京都狛江市岩戸南2丁目2-5","lat":35.63215548,"lon":139.58610878},{"name":"野川地域センター","province":"東京都","city":"狛江市","address":"東京都狛江市西野川1丁目6-9","lat":35.64608091,"lon":139.57550046},{"name":"東京慈恵会医科大学附属第三病院","province":"東京都","city":"狛江市","address":"東京都狛江市和泉本町4丁目11-1","lat":35.64548376,"lon":139.56598762},{"name":"こども教室えるぶ","province":"東京都","city":"狛江市","address":"狛江市東野川2-1-10-102.103","lat":35.642234,"lon":139.580042},{"name":"はっぴぃハウス","province":"東京都","city":"狛江市","address":"狛江市和泉本町4-7-27-103","lat":35.643051,"lon":139.568946},{"name":"こどもデイサービスほっぷ","province":"東京都","city":"狛江市","address":"狛江市和泉本町4-2-13SANTESAKAE202","lat":35.641318,"lon":139.569443},{"name":"こどもデイサービス　すてっぷ","province":"東京都","city":"狛江市","address":"狛江市和泉本町4-2-13","lat":35.641318,"lon":139.569443},{"name":"ウイングこまえ","province":"東京都","city":"狛江市","address":"狛江市岩戸北三丁目22番13号","lat":35.632275,"lon":139.583237},{"name":"ゆめぽっと","province":"東京都","city":"狛江市","address":"狛江市中和泉2-10-1","lat":35.638782,"lon":139.572912},{"name":"NPO法人 狛江子ども食堂","province":"東京都","city":"狛江市","address":"東京都狛江市和泉本町4-7-51","lat":35.64514,"lon":139.568013},{"name":"みんなの居場所","province":"東京都","city":"狛江市","address":"東京都狛江市元和泉2-35-1","lat":35.633377,"lon":139.567064},{"name":"こどもの多摩里食堂","province":"東京都","city":"狛江市","address":"東京都狛江市東和泉2-9-11","lat":35.630515,"lon":139.580245},{"name":"ごはん＋居場所 おかえり","province":"東京都","city":"狛江市","address":"東京都狛江市東和泉2-20-12-1F","lat":35.628329,"lon":139.575847},{"name":"月末食堂","province":"東京都","city":"狛江市","address":"東京都狛江市東和泉1-32-3-102","lat":35.630338,"lon":139.577365},{"name":"コスモスこども・おとな食堂","province":"東京都","city":"狛江市","address":"東京都狛江市岩戸南2-2-5","lat":35.632142,"lon":139.586058},{"name":"和泉本町給水所","province":"東京都","city":"狛江市","address":"東京都狛江市和泉本町4-6-1","lat":35.6429908,"lon":139.571116},{"name":"オダクル狛江第1","province":"東京都","city":"狛江市","address":"東京都狛江市和泉本町1丁目2","lat":35.63414941,"lon":139.57939809},{"name":"オダクル狛江第2","province":"東京都","city":"狛江市","address":"東京都狛江市元和泉1丁目11","lat":35.63119715,"lon":139.5759071},{"name":"オダクルマルシェ狛江","province":"東京都","city":"狛江市","address":"東京都狛江市元和泉1丁目1","lat":35.63360228,"lon":139.5785899},{"name":"狛江駅北口自転車駐車場","province":"東京都","city":"狛江市","address":"東京都狛江市元和泉1丁目3","lat":35.6328524,"lon":139.57728177},{"name":"狛江駅南口第１自転車等駐車場","province":"東京都","city":"狛江市","address":"東京都狛江市東和泉1丁目17","lat":35.63206089,"lon":139.57744019},{"name":"オダクル喜多見店舗","province":"東京都","city":"狛江市","address":"東京都狛江市岩戸北2丁目20","lat":35.63603812,"lon":139.58530293},{"name":"オダクル喜多見第2","province":"東京都","city":"狛江市","address":"東京都狛江市岩戸北1丁目24","lat":35.63600755,"lon":139.58455857},{"name":"東都サイクルパーク喜多見第１","province":"東京都","city":"狛江市","address":"東京都狛江市岩戸北4丁目6","lat":35.6359937,"lon":139.58585012},{"name":"小川園宝島駐輪場","province":"東京都","city":"狛江市","address":"東京都狛江市岩戸北4丁目2","lat":35.63457449,"lon":139.5856697},{"name":"オダクル和泉多摩川第1","province":"東京都","city":"狛江市","address":"東京都狛江市東和泉4丁目1","lat":35.62800613,"lon":139.57366052},{"name":"オダクル和泉多摩川第2","province":"東京都","city":"狛江市","address":"東京都狛江市東和泉4丁目6","lat":35.62651476,"lon":139.57243861},{"name":"中和泉一丁目自転車置場","province":"東京都","city":"狛江市","address":"東京都狛江市中和泉1丁目25","lat":35.63396875,"lon":139.57337644},{"name":"和泉多摩川自転車置場（高架下）","province":"東京都","city":"狛江市","address":"東京都狛江市東和泉4丁目8","lat":35.62664253,"lon":139.57138318},{"name":"オダクル和泉多摩川東口","province":"東京都","city":"狛江市","address":"東京都狛江市東和泉4丁目2","lat":35.62754789,"lon":139.57372724},{"name":"狛江駅南口第2自転車駐車場","province":"東京都","city":"狛江市","address":"東京都狛江市東和泉1丁目20","lat":35.63166375,"lon":139.57751522},{"name":"東都サイクルパーク狛江駅前","province":"東京都","city":"狛江市","address":"東京都狛江市東和泉1丁目14","lat":35.63284132,"lon":139.57858999},{"name":"東都サイクルパーク和泉多摩川","province":"東京都","city":"狛江市","address":"東京都狛江市東和泉3丁目1","lat":35.62838383,"lon":139.57500476},{"name":"狛江三差路","province":"東京都","city":"狛江市","address":"東京都狛江市東和泉1丁目5-13","lat":35.63171937,"lon":139.58209254},{"name":"狛江二の橋","province":"東京都","city":"狛江市","address":"東京都狛江市岩戸南2丁目5-5","lat":35.63282486,"lon":139.58888901},{"name":"狛江市役所前","province":"東京都","city":"狛江市","address":"東京都狛江市中和泉1丁目1-1","lat":35.63391331,"lon":139.57796492},{"name":"狛江駅入口","province":"東京都","city":"狛江市","address":"東京都狛江市東和泉1丁目33-2","lat":35.63022516,"lon":139.57860972},{"name":"狛江福祉会館前","province":"東京都","city":"狛江市","address":"東京都狛江市元和泉2丁目35-1","lat":35.6333052,"lon":139.56761624},{"name":"狛江市役所前第二","province":"東京都","city":"狛江市","address":"東京都狛江市和泉本町1丁目1-10","lat":35.6350242,"lon":139.57773147},{"name":"狛江水神東","province":"東京都","city":"狛江市","address":"東京都狛江市元和泉2丁目36","lat":35.63369411,"lon":139.56580536},{"name":"狛江駅北口","province":"東京都","city":"狛江市","address":"東京都狛江市元和泉1丁目3","lat":35.6328524,"lon":139.57728177},{"name":"＊?狛江市民ホール（エコルマ）","province":"東京都","city":"狛江市","address":"狛江市元和泉1-2-1","lat":35.633279,"lon":139.577995},{"name":"多摩川五本松","province":"東京都","city":"狛江市","address":"東京都狛江市元和泉三丁目地先","lat":35.632433,"lon":139.33579},{"name":"狛江エコルマホール","province":"東京都","city":"狛江市","address":"東京都狛江市元和泉1-2-1","lat":35.633278,"lon":139.578031},{"name":"巨大絵手紙","province":"東京都","city":"狛江市","address":"東京都狛江市元和泉1丁目","lat":35.632978,"lon":139.577494},{"name":"絵手紙表示板","province":"東京都","city":"狛江市","address":"東京都狛江市元和泉1丁目","lat":35.633321,"lon":139.577728},{"name":"泉龍寺","province":"東京都","city":"狛江市","address":"東京都狛江市元和泉1-6-1","lat":35.63313,"lon":139.575696},{"name":"玉泉寺","province":"東京都","city":"狛江市","address":"東京都狛江市東和泉3-10-23","lat":35.626955,"lon":139.573943},{"name":"伊豆美神社","province":"東京都","city":"狛江市","address":"東京都狛江市中和泉3-21-8","lat":35.635205,"lon":139.569083},{"name":"多摩川","province":"東京都","city":"狛江市","address":"東京都狛江市猪方4-3","lat":35.623493,"lon":139.576259},{"name":"狛江市子ども家庭支援センター","province":"東京都","city":"狛江市","address":"東京都狛江市元和泉2-35-1","lat":35.6333,"lon":139.567778},{"name":"南部地域センター","province":"東京都","city":"狛江市","address":"東京都狛江市猪方4-11-1","lat":35.623377,"lon":139.579809},{"name":"上和泉地域センター","province":"東京都","city":"狛江市","address":"東京都狛江市和泉本町4-7-51","lat":35.645149,"lon":139.568014},{"name":"岩戸地域センター","province":"東京都","city":"狛江市","address":"東京都狛江市岩戸南2-2-5","lat":35.632071,"lon":139.586045},{"name":"野川地域センター","province":"東京都","city":"狛江市","address":"東京都狛江市西野川1-6-9","lat":35.646093,"lon":139.575503},{"name":"狛江市中央公民館","province":"東京都","city":"狛江市","address":"東京都狛江市和泉本町1-1-5","lat":35.635208,"lon":139.578171},{"name":"狛江市あいとぴあセンター","province":"東京都","city":"狛江市","address":"東京都狛江市元和泉2-35-1","lat":35.633349,"lon":139.56768},{"name":"狛江市西河原公民館","province":"東京都","city":"狛江市","address":"東京都狛江市元和泉2-35-1","lat":35.63344,"lon":139.567029},{"name":"狛江市立古民家園","province":"東京都","city":"狛江市","address":"東京都狛江市元和泉2-15-5","lat":35.632911,"lon":139.571155},{"name":"中村児童公園","province":"東京都","city":"狛江市","address":"東京都狛江市東野川2-16-10","lat":35.645554,"lon":139.579756},{"name":"丸山児童公園","province":"東京都","city":"狛江市","address":"東京都狛江市和泉本町2-15-3","lat":35.640334,"lon":139.579484},{"name":"供養塚児童公園","province":"東京都","city":"狛江市","address":"東京都狛江市駒井町3-3-1","lat":35.623597,"lon":139.581942},{"name":"田中の池児童公園","province":"東京都","city":"狛江市","address":"東京都狛江市元和泉2-17-1","lat":35.631247,"lon":139.572177},{"name":"多摩川緑地公園","province":"東京都","city":"狛江市","address":"東京都狛江市猪方4-923","lat":35.624292,"lon":139.573484},{"name":"藤塚第一児童公園","province":"東京都","city":"狛江市","address":"東京都狛江市和泉本町4-7-14","lat":35.644954,"lon":139.567907},{"name":"藤塚第二児童公園","province":"東京都","city":"狛江市","address":"東京都狛江市和泉本町4-7-12","lat":35.644405,"lon":139.568019},{"name":"藤塚第三児童公園","province":"東京都","city":"狛江市","address":"東京都狛江市和泉本町4-7-25","lat":35.643747,"lon":139.568703},{"name":"藤塚第四児童公園","province":"東京都","city":"狛江市","address":"東京都狛江市和泉本町4-7-39","lat":35.642764,"lon":139.569631},{"name":"西河原公園","province":"東京都","city":"狛江市","address":"東京都狛江市元和泉2-38-1","lat":35.632862,"lon":139.567111},{"name":"野川緑地公園","province":"東京都","city":"狛江市","address":"東京都狛江市和泉本町、岩戸北、東野川、西野川地内","lat":35.642924,"lon":139.578609},{"name":"みつおさ児童公園","province":"東京都","city":"狛江市","address":"東京都狛江市東野川3-16-4","lat":35.646008,"lon":139.5841},{"name":"水道橋児童公園","province":"東京都","city":"狛江市","address":"東京都狛江市東和泉4-9-1","lat":35.626327,"lon":139.570912},{"name":"岩戸川緑地公園","province":"東京都","city":"狛江市","address":"東京都狛江市岩戸南、猪方地内","lat":35.629286,"lon":139.587096},{"name":"野川北公園","province":"東京都","city":"狛江市","address":"東京都狛江市西野川1-19-10","lat":35.648544,"lon":139.576102},{"name":"元和泉公園","province":"東京都","city":"狛江市","address":"東京都狛江市元和泉2-12-7","lat":35.631988,"lon":139.57233},{"name":"西河原自然公園","province":"東京都","city":"狛江市","address":"東京都狛江市元和泉2-34-20","lat":35.633246,"lon":139.570163},{"name":"和泉多摩川児童公園","province":"東京都","city":"狛江市","address":"東京都狛江市元和泉3-6-11","lat":35.628261,"lon":139.571899},{"name":"小足立のびのび公園","province":"東京都","city":"狛江市","address":"東京都狛江市西野川4-14-1","lat":35.647587,"lon":139.572822},{"name":"前原公園","province":"東京都","city":"狛江市","address":"東京都狛江市西野川3-11-1","lat":35.64497,"lon":139.570204},{"name":"駒井・上村中ひだまり公園","province":"東京都","city":"狛江市","address":"東京都狛江市駒井町1-12-1","lat":35.625837,"lon":139.585665},{"name":"谷戸橋南広場","province":"東京都","city":"狛江市","address":"東京都狛江市東野川4-23","lat":35.644114,"lon":139.586957},{"name":"北久保公園","province":"東京都","city":"狛江市","address":"東京都狛江市和泉本町2-23-9","lat":35.643085,"lon":139.578234},{"name":"岩戸川南公園","province":"東京都","city":"狛江市","address":"東京都狛江市岩戸南4-17-28","lat":35.626667,"lon":139.593378},{"name":"清水川公園","province":"東京都","city":"狛江市","address":"東京都狛江市東和泉2-9","lat":35.630053,"lon":139.580833},{"name":"根川公園","province":"東京都","city":"狛江市","address":"東京都狛江市中和泉4-15-41","lat":35.63447,"lon":139.56471},{"name":"狛江弁財天池特別緑地保全地区","province":"東京都","city":"狛江市","address":"東京都狛江市元和泉1-7","lat":35.632292,"lon":139.576168},{"name":"狛江市役所","province":"東京都","city":"狛江市","address":"東京都狛江市和泉本町1丁目1-5","lat":35.63491314,"lon":139.57873418},{"name":"上和泉地域センター","province":"東京都","city":"狛江市","address":"東京都狛江市和泉本町4丁目7-51","lat":35.64522822,"lon":139.5679874},{"name":"南部地域センター","province":"東京都","city":"狛江市","address":"東京都狛江市猪方4丁目11-1","lat":35.6233737,"lon":139.57983535},{"name":"岩戸地域センター","province":"東京都","city":"狛江市","address":"東京都狛江市岩戸南2丁目2-5","lat":35.63215548,"lon":139.58610878},{"name":"野川地域センター","province":"東京都","city":"狛江市","address":"東京都狛江市西野川1丁目6-9","lat":35.64608091,"lon":139.57550046},{"name":"東京慈恵会医科大学附属第三病院","province":"東京都","city":"狛江市","address":"東京都狛江市和泉本町4丁目11-1","lat":35.64548376,"lon":139.56598762},{"name":"こども教室えるぶ","province":"東京都","city":"狛江市","address":"狛江市東野川2-1-10-102.103","lat":35.642234,"lon":139.580042},{"name":"はっぴぃハウス","province":"東京都","city":"狛江市","address":"狛江市和泉本町4-7-27-103","lat":35.643051,"lon":139.568946},{"name":"こどもデイサービスほっぷ","province":"東京都","city":"狛江市","address":"狛江市和泉本町4-2-13SANTESAKAE202","lat":35.641318,"lon":139.569443},{"name":"こどもデイサービス　すてっぷ","province":"東京都","city":"狛江市","address":"狛江市和泉本町4-2-13","lat":35.641318,"lon":139.569443},{"name":"ウイングこまえ","province":"東京都","city":"狛江市","address":"狛江市岩戸北三丁目22番13号","lat":35.632275,"lon":139.583237},{"name":"ゆめぽっと","province":"東京都","city":"狛江市","address":"狛江市中和泉2-10-1","lat":35.638782,"lon":139.572912},{"name":"和泉本町給水所","province":"東京都","city":"狛江市","address":"東京都狛江市和泉本町4-6-1","lat":35.6429908,"lon":139.571116},{"name":"オダクル狛江第1","province":"東京都","city":"狛江市","address":"東京都狛江市和泉本町1丁目2","lat":35.63414941,"lon":139.57939809},{"name":"オダクル狛江第2","province":"東京都","city":"狛江市","address":"東京都狛江市元和泉1丁目11","lat":35.63119715,"lon":139.5759071},{"name":"オダクルマルシェ狛江","province":"東京都","city":"狛江市","address":"東京都狛江市元和泉1丁目1","lat":35.63360228,"lon":139.5785899},{"name":"狛江駅北口自転車駐車場","province":"東京都","city":"狛江市","address":"東京都狛江市元和泉1丁目3","lat":35.6328524,"lon":139.57728177},{"name":"狛江駅南口第１自転車等駐車場","province":"東京都","city":"狛江市","address":"東京都狛江市東和泉1丁目17","lat":35.63206089,"lon":139.57744019},{"name":"オダクル喜多見店舗","province":"東京都","city":"狛江市","address":"東京都狛江市岩戸北2丁目20","lat":35.63603812,"lon":139.58530293},{"name":"オダクル喜多見第2","province":"東京都","city":"狛江市","address":"東京都狛江市岩戸北1丁目24","lat":35.63600755,"lon":139.58455857},{"name":"東都サイクルパーク喜多見第１","province":"東京都","city":"狛江市","address":"東京都狛江市岩戸北4丁目6","lat":35.6359937,"lon":139.58585012},{"name":"小川園宝島駐輪場","province":"東京都","city":"狛江市","address":"東京都狛江市岩戸北4丁目2","lat":35.63457449,"lon":139.5856697},{"name":"オダクル和泉多摩川第1","province":"東京都","city":"狛江市","address":"東京都狛江市東和泉4丁目1","lat":35.62800613,"lon":139.57366052},{"name":"オダクル和泉多摩川第2","province":"東京都","city":"狛江市","address":"東京都狛江市東和泉4丁目6","lat":35.62651476,"lon":139.57243861},{"name":"中和泉一丁目自転車置場","province":"東京都","city":"狛江市","address":"東京都狛江市中和泉1丁目25","lat":35.63396875,"lon":139.57337644},{"name":"和泉多摩川自転車置場（高架下）","province":"東京都","city":"狛江市","address":"東京都狛江市東和泉4丁目8","lat":35.62664253,"lon":139.57138318},{"name":"オダクル和泉多摩川東口","province":"東京都","city":"狛江市","address":"東京都狛江市東和泉4丁目2","lat":35.62754789,"lon":139.57372724},{"name":"狛江駅南口第2自転車駐車場","province":"東京都","city":"狛江市","address":"東京都狛江市東和泉1丁目20","lat":35.63166375,"lon":139.57751522},{"name":"東都サイクルパーク狛江駅前","province":"東京都","city":"狛江市","address":"東京都狛江市東和泉1丁目14","lat":35.63284132,"lon":139.57858999},{"name":"東都サイクルパーク和泉多摩川","province":"東京都","city":"狛江市","address":"東京都狛江市東和泉3丁目1","lat":35.62838383,"lon":139.57500476},{"name":"狛江三差路","province":"東京都","city":"狛江市","address":"東京都狛江市東和泉1丁目5-13","lat":35.63171937,"lon":139.58209254},{"name":"狛江二の橋","province":"東京都","city":"狛江市","address":"東京都狛江市岩戸南2丁目5-5","lat":35.63282486,"lon":139.58888901},{"name":"狛江市役所前","province":"東京都","city":"狛江市","address":"東京都狛江市中和泉1丁目1-1","lat":35.63391331,"lon":139.57796492},{"name":"狛江駅入口","province":"東京都","city":"狛江市","address":"東京都狛江市東和泉1丁目33-2","lat":35.63022516,"lon":139.57860972},{"name":"狛江福祉会館前","province":"東京都","city":"狛江市","address":"東京都狛江市元和泉2丁目35-1","lat":35.6333052,"lon":139.56761624},{"name":"狛江市役所前第二","province":"東京都","city":"狛江市","address":"東京都狛江市和泉本町1丁目1-10","lat":35.6350242,"lon":139.57773147},{"name":"狛江水神東","province":"東京都","city":"狛江市","address":"東京都狛江市元和泉2丁目36","lat":35.63369411,"lon":139.56580536},{"name":"狛江駅北口","province":"東京都","city":"狛江市","address":"東京都狛江市元和泉1丁目3","lat":35.6328524,"lon":139.57728177},{"name":"多摩川五本松","province":"東京都","city":"狛江市","address":"東京都狛江市元和泉三丁目地先","lat":35.632433,"lon":139.33579},{"name":"狛江エコルマホール","province":"東京都","city":"狛江市","address":"東京都狛江市元和泉1-2-1","lat":35.633278,"lon":139.578031},{"name":"巨大絵手紙","province":"東京都","city":"狛江市","address":"東京都狛江市元和泉1丁目","lat":35.632978,"lon":139.577494},{"name":"絵手紙表示板","province":"東京都","city":"狛江市","address":"東京都狛江市元和泉1丁目","lat":35.633321,"lon":139.577728},{"name":"泉龍寺","province":"東京都","city":"狛江市","address":"東京都狛江市元和泉1-6-1","lat":35.63313,"lon":139.575696},{"name":"玉泉寺","province":"東京都","city":"狛江市","address":"東京都狛江市東和泉3-10-23","lat":35.626955,"lon":139.573943},{"name":"伊豆美神社","province":"東京都","city":"狛江市","address":"東京都狛江市中和泉3-21-8","lat":35.635205,"lon":139.569083},{"name":"多摩川","province":"東京都","city":"狛江市","address":"東京都狛江市猪方4-3","lat":35.623493,"lon":139.576259},{"name":"狛江市子ども家庭支援センター","province":"東京都","city":"狛江市","address":"東京都狛江市元和泉2-35-1","lat":35.6333,"lon":139.567778},{"name":"南部地域センター","province":"東京都","city":"狛江市","address":"東京都狛江市猪方4-11-1","lat":35.623377,"lon":139.579809},{"name":"上和泉地域センター","province":"東京都","city":"狛江市","address":"東京都狛江市和泉本町4-7-51","lat":35.645149,"lon":139.568014},{"name":"岩戸地域センター","province":"東京都","city":"狛江市","address":"東京都狛江市岩戸南2-2-5","lat":35.632071,"lon":139.586045},{"name":"野川地域センター","province":"東京都","city":"狛江市","address":"東京都狛江市西野川1-6-9","lat":35.646093,"lon":139.575503},{"name":"狛江市中央公民館","province":"東京都","city":"狛江市","address":"東京都狛江市和泉本町1-1-5","lat":35.635208,"lon":139.578171},{"name":"狛江市あいとぴあセンター","province":"東京都","city":"狛江市","address":"東京都狛江市元和泉2-35-1","lat":35.633349,"lon":139.56768},{"name":"狛江市西河原公民館","province":"東京都","city":"狛江市","address":"東京都狛江市元和泉2-35-1","lat":35.63344,"lon":139.567029},{"name":"狛江市立古民家園","province":"東京都","city":"狛江市","address":"東京都狛江市元和泉2-15-5","lat":35.632911,"lon":139.571155},{"name":"中村児童公園","province":"東京都","city":"狛江市","address":"東京都狛江市東野川2-16-10","lat":35.645554,"lon":139.579756},{"name":"丸山児童公園","province":"東京都","city":"狛江市","address":"東京都狛江市和泉本町2-15-3","lat":35.640334,"lon":139.579484},{"name":"供養塚児童公園","province":"東京都","city":"狛江市","address":"東京都狛江市駒井町3-3-1","lat":35.623597,"lon":139.581942},{"name":"田中の池児童公園","province":"東京都","city":"狛江市","address":"東京都狛江市元和泉2-17-1","lat":35.631247,"lon":139.572177},{"name":"多摩川緑地公園","province":"東京都","city":"狛江市","address":"東京都狛江市猪方4-923","lat":35.624292,"lon":139.573484},{"name":"藤塚第一児童公園","province":"東京都","city":"狛江市","address":"東京都狛江市和泉本町4-7-14","lat":35.644954,"lon":139.567907},{"name":"藤塚第二児童公園","province":"東京都","city":"狛江市","address":"東京都狛江市和泉本町4-7-12","lat":35.644405,"lon":139.568019},{"name":"藤塚第三児童公園","province":"東京都","city":"狛江市","address":"東京都狛江市和泉本町4-7-25","lat":35.643747,"lon":139.568703},{"name":"藤塚第四児童公園","province":"東京都","city":"狛江市","address":"東京都狛江市和泉本町4-7-39","lat":35.642764,"lon":139.569631},{"name":"西河原公園","province":"東京都","city":"狛江市","address":"東京都狛江市元和泉2-38-1","lat":35.632862,"lon":139.567111},{"name":"野川緑地公園","province":"東京都","city":"狛江市","address":"東京都狛江市和泉本町、岩戸北、東野川、西野川地内","lat":35.642924,"lon":139.578609},{"name":"みつおさ児童公園","province":"東京都","city":"狛江市","address":"東京都狛江市東野川3-16-4","lat":35.646008,"lon":139.5841},{"name":"水道橋児童公園","province":"東京都","city":"狛江市","address":"東京都狛江市東和泉4-9-1","lat":35.626327,"lon":139.570912},{"name":"岩戸川緑地公園","province":"東京都","city":"狛江市","address":"東京都狛江市岩戸南、猪方地内","lat":35.629286,"lon":139.587096},{"name":"野川北公園","province":"東京都","city":"狛江市","address":"東京都狛江市西野川1-19-10","lat":35.648544,"lon":139.576102},{"name":"元和泉公園","province":"東京都","city":"狛江市","address":"東京都狛江市元和泉2-12-7","lat":35.631988,"lon":139.57233},{"name":"西河原自然公園","province":"東京都","city":"狛江市","address":"東京都狛江市元和泉2-34-20","lat":35.633246,"lon":139.570163},{"name":"和泉多摩川児童公園","province":"東京都","city":"狛江市","address":"東京都狛江市元和泉3-6-11","lat":35.628261,"lon":139.571899},{"name":"小足立のびのび公園","province":"東京都","city":"狛江市","address":"東京都狛江市西野川4-14-1","lat":35.647587,"lon":139.572822},{"name":"前原公園","province":"東京都","city":"狛江市","address":"東京都狛江市西野川3-11-1","lat":35.64497,"lon":139.570204},{"name":"駒井・上村中ひだまり公園","province":"東京都","city":"狛江市","address":"東京都狛江市駒井町1-12-1","lat":35.625837,"lon":139.585665},{"name":"谷戸橋南広場","province":"東京都","city":"狛江市","address":"東京都狛江市東野川4-23","lat":35.644114,"lon":139.586957},{"name":"北久保公園","province":"東京都","city":"狛江市","address":"東京都狛江市和泉本町2-23-9","lat":35.643085,"lon":139.578234},{"name":"岩戸川南公園","province":"東京都","city":"狛江市","address":"東京都狛江市岩戸南4-17-28","lat":35.626667,"lon":139.593378},{"name":"清水川公園","province":"東京都","city":"狛江市","address":"東京都狛江市東和泉2-9","lat":35.630053,"lon":139.580833},{"name":"根川公園","province":"東京都","city":"狛江市","address":"東京都狛江市中和泉4-15-41","lat":35.63447,"lon":139.56471},{"name":"狛江弁財天池特別緑地保全地区","province":"東京都","city":"狛江市","address":"東京都狛江市元和泉1-7","lat":35.632292,"lon":139.576168},{"name":"狛江市役所","province":"東京都","city":"狛江市","address":"東京都狛江市和泉本町1丁目1-5","lat":35.63491314,"lon":139.57873418},{"name":"上和泉地域センター","province":"東京都","city":"狛江市","address":"東京都狛江市和泉本町4丁目7-51","lat":35.64522822,"lon":139.5679874},{"name":"南部地域センター","province":"東京都","city":"狛江市","address":"東京都狛江市猪方4丁目11-1","lat":35.6233737,"lon":139.57983535},{"name":"岩戸地域センター","province":"東京都","city":"狛江市","address":"東京都狛江市岩戸南2丁目2-5","lat":35.63215548,"lon":139.58610878},{"name":"野川地域センター","province":"東京都","city":"狛江市","address":"東京都狛江市西野川1丁目6-9","lat":35.64608091,"lon":139.57550046},{"name":"東京慈恵会医科大学附属第三病院","province":"東京都","city":"狛江市","address":"東京都狛江市和泉本町4丁目11-1","lat":35.64548376,"lon":139.56598762},{"name":"和泉本町給水所","province":"東京都","city":"狛江市","address":"東京都狛江市和泉本町4-6-1","lat":35.6429908,"lon":139.571116},{"name":"オダクル狛江第1","province":"東京都","city":"狛江市","address":"東京都狛江市和泉本町1丁目2","lat":35.63414941,"lon":139.57939809},{"name":"オダクル狛江第2","province":"東京都","city":"狛江市","address":"東京都狛江市元和泉1丁目11","lat":35.63119715,"lon":139.5759071},{"name":"オダクルマルシェ狛江","province":"東京都","city":"狛江市","address":"東京都狛江市元和泉1丁目1","lat":35.63360228,"lon":139.5785899},{"name":"狛江駅北口自転車駐車場","province":"東京都","city":"狛江市","address":"東京都狛江市元和泉1丁目3","lat":35.6328524,"lon":139.57728177},{"name":"狛江駅南口第１自転車等駐車場","province":"東京都","city":"狛江市","address":"東京都狛江市東和泉1丁目17","lat":35.63206089,"lon":139.57744019},{"name":"オダクル喜多見店舗","province":"東京都","city":"狛江市","address":"東京都狛江市岩戸北2丁目20","lat":35.63603812,"lon":139.58530293},{"name":"オダクル喜多見第2","province":"東京都","city":"狛江市","address":"東京都狛江市岩戸北1丁目24","lat":35.63600755,"lon":139.58455857},{"name":"東都サイクルパーク喜多見第１","province":"東京都","city":"狛江市","address":"東京都狛江市岩戸北4丁目6","lat":35.6359937,"lon":139.58585012},{"name":"小川園宝島駐輪場","province":"東京都","city":"狛江市","address":"東京都狛江市岩戸北4丁目2","lat":35.63457449,"lon":139.5856697},{"name":"オダクル和泉多摩川第1","province":"東京都","city":"狛江市","address":"東京都狛江市東和泉4丁目1","lat":35.62800613,"lon":139.57366052},{"name":"オダクル和泉多摩川第2","province":"東京都","city":"狛江市","address":"東京都狛江市東和泉4丁目6","lat":35.62651476,"lon":139.57243861},{"name":"中和泉一丁目自転車置場","province":"東京都","city":"狛江市","address":"東京都狛江市中和泉1丁目25","lat":35.63396875,"lon":139.57337644},{"name":"和泉多摩川自転車置場（高架下）","province":"東京都","city":"狛江市","address":"東京都狛江市東和泉4丁目8","lat":35.62664253,"lon":139.57138318},{"name":"オダクル和泉多摩川東口","province":"東京都","city":"狛江市","address":"東京都狛江市東和泉4丁目2","lat":35.62754789,"lon":139.57372724},{"name":"狛江駅南口第2自転車駐車場","province":"東京都","city":"狛江市","address":"東京都狛江市東和泉1丁目20","lat":35.63166375,"lon":139.57751522},{"name":"東都サイクルパーク狛江駅前","province":"東京都","city":"狛江市","address":"東京都狛江市東和泉1丁目14","lat":35.63284132,"lon":139.57858999},{"name":"東都サイクルパーク和泉多摩川","province":"東京都","city":"狛江市","address":"東京都狛江市東和泉3丁目1","lat":35.62838383,"lon":139.57500476},{"name":"多摩川五本松","province":"東京都","city":"狛江市","address":"東京都狛江市元和泉三丁目地先","lat":35.632433,"lon":139.33579},{"name":"狛江エコルマホール","province":"東京都","city":"狛江市","address":"東京都狛江市元和泉1-2-1","lat":35.633278,"lon":139.578031},{"name":"巨大絵手紙","province":"東京都","city":"狛江市","address":"東京都狛江市元和泉1丁目","lat":35.632978,"lon":139.577494},{"name":"絵手紙表示板","province":"東京都","city":"狛江市","address":"東京都狛江市元和泉1丁目","lat":35.633321,"lon":139.577728},{"name":"泉龍寺","province":"東京都","city":"狛江市","address":"東京都狛江市元和泉1-6-1","lat":35.63313,"lon":139.575696},{"name":"玉泉寺","province":"東京都","city":"狛江市","address":"東京都狛江市東和泉3-10-23","lat":35.626955,"lon":139.573943},{"name":"伊豆美神社","province":"東京都","city":"狛江市","address":"東京都狛江市中和泉3-21-8","lat":35.635205,"lon":139.569083},{"name":"多摩川","province":"東京都","city":"狛江市","address":"東京都狛江市猪方4-3","lat":35.623493,"lon":139.576259},{"name":"狛江市子ども家庭支援センター","province":"東京都","city":"狛江市","address":"東京都狛江市元和泉2-35-1","lat":35.6333,"lon":139.567778},{"name":"南部地域センター","province":"東京都","city":"狛江市","address":"東京都狛江市猪方4-11-1","lat":35.623377,"lon":139.579809},{"name":"上和泉地域センター","province":"東京都","city":"狛江市","address":"東京都狛江市和泉本町4-7-51","lat":35.645149,"lon":139.568014},{"name":"岩戸地域センター","province":"東京都","city":"狛江市","address":"東京都狛江市岩戸南2-2-5","lat":35.632071,"lon":139.586045},{"name":"野川地域センター","province":"東京都","city":"狛江市","address":"東京都狛江市西野川1-6-9","lat":35.646093,"lon":139.575503},{"name":"狛江市中央公民館","province":"東京都","city":"狛江市","address":"東京都狛江市和泉本町1-1-5","lat":35.635208,"lon":139.578171},{"name":"狛江市あいとぴあセンター","province":"東京都","city":"狛江市","address":"東京都狛江市元和泉2-35-1","lat":35.633349,"lon":139.56768},{"name":"狛江市西河原公民館","province":"東京都","city":"狛江市","address":"東京都狛江市元和泉2-35-1","lat":35.63344,"lon":139.567029},{"name":"狛江市立古民家園","province":"東京都","city":"狛江市","address":"東京都狛江市元和泉2-15-5","lat":35.632911,"lon":139.571155},{"name":"中村児童公園","province":"東京都","city":"狛江市","address":"東京都狛江市東野川2-16-10","lat":35.645554,"lon":139.579756},{"name":"丸山児童公園","province":"東京都","city":"狛江市","address":"東京都狛江市和泉本町2-15-3","lat":35.640334,"lon":139.579484},{"name":"供養塚児童公園","province":"東京都","city":"狛江市","address":"東京都狛江市駒井町3-3-1","lat":35.623597,"lon":139.581942},{"name":"田中の池児童公園","province":"東京都","city":"狛江市","address":"東京都狛江市元和泉2-17-1","lat":35.631247,"lon":139.572177},{"name":"多摩川緑地公園","province":"東京都","city":"狛江市","address":"東京都狛江市猪方4-923","lat":35.624292,"lon":139.573484},{"name":"藤塚第一児童公園","province":"東京都","city":"狛江市","address":"東京都狛江市和泉本町4-7-14","lat":35.644954,"lon":139.567907},{"name":"藤塚第二児童公園","province":"東京都","city":"狛江市","address":"東京都狛江市和泉本町4-7-12","lat":35.644405,"lon":139.568019},{"name":"藤塚第三児童公園","province":"東京都","city":"狛江市","address":"東京都狛江市和泉本町4-7-25","lat":35.643747,"lon":139.568703},{"name":"藤塚第四児童公園","province":"東京都","city":"狛江市","address":"東京都狛江市和泉本町4-7-39","lat":35.642764,"lon":139.569631},{"name":"西河原公園","province":"東京都","city":"狛江市","address":"東京都狛江市元和泉2-38-1","lat":35.632862,"lon":139.567111},{"name":"野川緑地公園","province":"東京都","city":"狛江市","address":"東京都狛江市和泉本町、岩戸北、東野川、西野川地内","lat":35.642924,"lon":139.578609},{"name":"みつおさ児童公園","province":"東京都","city":"狛江市","address":"東京都狛江市東野川3-16-4","lat":35.646008,"lon":139.5841},{"name":"水道橋児童公園","province":"東京都","city":"狛江市","address":"東京都狛江市東和泉4-9-1","lat":35.626327,"lon":139.570912},{"name":"岩戸川緑地公園","province":"東京都","city":"狛江市","address":"東京都狛江市岩戸南、猪方地内","lat":35.629286,"lon":139.587096},{"name":"野川北公園","province":"東京都","city":"狛江市","address":"東京都狛江市西野川1-19-10","lat":35.648544,"lon":139.576102},{"name":"元和泉公園","province":"東京都","city":"狛江市","address":"東京都狛江市元和泉2-12-7","lat":35.631988,"lon":139.57233},{"name":"西河原自然公園","province":"東京都","city":"狛江市","address":"東京都狛江市元和泉2-34-20","lat":35.633246,"lon":139.570163},{"name":"和泉多摩川児童公園","province":"東京都","city":"狛江市","address":"東京都狛江市元和泉3-6-11","lat":35.628261,"lon":139.571899},{"name":"小足立のびのび公園","province":"東京都","city":"狛江市","address":"東京都狛江市西野川4-14-1","lat":35.647587,"lon":139.572822},{"name":"前原公園","province":"東京都","city":"狛江市","address":"東京都狛江市西野川3-11-1","lat":35.64497,"lon":139.570204},{"name":"駒井・上村中ひだまり公園","province":"東京都","city":"狛江市","address":"東京都狛江市駒井町1-12-1","lat":35.625837,"lon":139.585665},{"name":"谷戸橋南広場","province":"東京都","city":"狛江市","address":"東京都狛江市東野川4-23","lat":35.644114,"lon":139.586957},{"name":"北久保公園","province":"東京都","city":"狛江市","address":"東京都狛江市和泉本町2-23-9","lat":35.643085,"lon":139.578234},{"name":"岩戸川南公園","province":"東京都","city":"狛江市","address":"東京都狛江市岩戸南4-17-28","lat":35.626667,"lon":139.593378},{"name":"清水川公園","province":"東京都","city":"狛江市","address":"東京都狛江市東和泉2-9","lat":35.630053,"lon":139.580833},{"name":"根川公園","province":"東京都","city":"狛江市","address":"東京都狛江市中和泉4-15-41","lat":35.63447,"lon":139.56471},{"name":"狛江弁財天池特別緑地保全地区","province":"東京都","city":"狛江市","address":"東京都狛江市元和泉1-7","lat":35.632292,"lon":139.576168},{"name":"狛江市役所","province":"東京都","city":"狛江市","address":"東京都狛江市和泉本町1丁目1-5","lat":35.63491314,"lon":139.57873418},{"name":"上和泉地域センター","province":"東京都","city":"狛江市","address":"東京都狛江市和泉本町4丁目7-51","lat":35.64522822,"lon":139.5679874},{"name":"南部地域センター","province":"東京都","city":"狛江市","address":"東京都狛江市猪方4丁目11-1","lat":35.6233737,"lon":139.57983535},{"name":"岩戸地域センター","province":"東京都","city":"狛江市","address":"東京都狛江市岩戸南2丁目2-5","lat":35.63215548,"lon":139.58610878},{"name":"野川地域センター","province":"東京都","city":"狛江市","address":"東京都狛江市西野川1丁目6-9","lat":35.64608091,"lon":139.57550046},{"name":"東京慈恵会医科大学附属第三病院","province":"東京都","city":"狛江市","address":"東京都狛江市和泉本町4丁目11-1","lat":35.64548376,"lon":139.56598762},{"name":"和泉本町給水所","province":"東京都","city":"狛江市","address":"東京都狛江市和泉本町4-6-1","lat":35.6429908,"lon":139.571116},{"name":"オダクル狛江第1","province":"東京都","city":"狛江市","address":"東京都狛江市和泉本町1丁目2","lat":35.63414941,"lon":139.57939809},{"name":"オダクル狛江第2","province":"東京都","city":"狛江市","address":"東京都狛江市元和泉1丁目11","lat":35.63119715,"lon":139.5759071},{"name":"オダクルマルシェ狛江","province":"東京都","city":"狛江市","address":"東京都狛江市元和泉1丁目1","lat":35.63360228,"lon":139.5785899},{"name":"狛江駅北口自転車駐車場","province":"東京都","city":"狛江市","address":"東京都狛江市元和泉1丁目3","lat":35.6328524,"lon":139.57728177},{"name":"狛江駅南口第１自転車等駐車場","province":"東京都","city":"狛江市","address":"東京都狛江市東和泉1丁目17","lat":35.63206089,"lon":139.57744019},{"name":"オダクル喜多見店舗","province":"東京都","city":"狛江市","address":"東京都狛江市岩戸北2丁目20","lat":35.63603812,"lon":139.58530293},{"name":"オダクル喜多見第2","province":"東京都","city":"狛江市","address":"東京都狛江市岩戸北1丁目24","lat":35.63600755,"lon":139.58455857},{"name":"東都サイクルパーク喜多見第１","province":"東京都","city":"狛江市","address":"東京都狛江市岩戸北4丁目6","lat":35.6359937,"lon":139.58585012},{"name":"小川園宝島駐輪場","province":"東京都","city":"狛江市","address":"東京都狛江市岩戸北4丁目2","lat":35.63457449,"lon":139.5856697},{"name":"オダクル和泉多摩川第1","province":"東京都","city":"狛江市","address":"東京都狛江市東和泉4丁目1","lat":35.62800613,"lon":139.57366052},{"name":"オダクル和泉多摩川第2","province":"東京都","city":"狛江市","address":"東京都狛江市東和泉4丁目6","lat":35.62651476,"lon":139.57243861},{"name":"中和泉一丁目自転車置場","province":"東京都","city":"狛江市","address":"東京都狛江市中和泉1丁目25","lat":35.63396875,"lon":139.57337644},{"name":"和泉多摩川自転車置場（高架下）","province":"東京都","city":"狛江市","address":"東京都狛江市東和泉4丁目8","lat":35.62664253,"lon":139.57138318},{"name":"オダクル和泉多摩川東口","province":"東京都","city":"狛江市","address":"東京都狛江市東和泉4丁目2","lat":35.62754789,"lon":139.57372724},{"name":"狛江駅南口第2自転車駐車場","province":"東京都","city":"狛江市","address":"東京都狛江市東和泉1丁目20","lat":35.63166375,"lon":139.57751522},{"name":"東都サイクルパーク狛江駅前","province":"東京都","city":"狛江市","address":"東京都狛江市東和泉1丁目14","lat":35.63284132,"lon":139.57858999},{"name":"東都サイクルパーク和泉多摩川","province":"東京都","city":"狛江市","address":"東京都狛江市東和泉3丁目1","lat":35.62838383,"lon":139.57500476},{"name":"多摩川五本松","province":"東京都","city":"狛江市","address":"東京都狛江市元和泉三丁目地先","lat":35.632433,"lon":139.33579},{"name":"狛江エコルマホール","province":"東京都","city":"狛江市","address":"東京都狛江市元和泉1-2-1","lat":35.633278,"lon":139.578031},{"name":"巨大絵手紙","province":"東京都","city":"狛江市","address":"東京都狛江市元和泉1丁目","lat":35.632978,"lon":139.577494},{"name":"絵手紙表示板","province":"東京都","city":"狛江市","address":"東京都狛江市元和泉1丁目","lat":35.633321,"lon":139.577728},{"name":"泉龍寺","province":"東京都","city":"狛江市","address":"東京都狛江市元和泉1-6-1","lat":35.63313,"lon":139.575696},{"name":"玉泉寺","province":"東京都","city":"狛江市","address":"東京都狛江市東和泉3-10-23","lat":35.626955,"lon":139.573943},{"name":"伊豆美神社","province":"東京都","city":"狛江市","address":"東京都狛江市中和泉3-21-8","lat":35.635205,"lon":139.569083},{"name":"多摩川","province":"東京都","city":"狛江市","address":"東京都狛江市猪方4-3","lat":35.623493,"lon":139.576259},{"name":"狛江市子ども家庭支援センター","province":"東京都","city":"狛江市","address":"東京都狛江市元和泉2-35-1","lat":35.6333,"lon":139.567778},{"name":"南部地域センター","province":"東京都","city":"狛江市","address":"東京都狛江市猪方4-11-1","lat":35.623377,"lon":139.579809},{"name":"上和泉地域センター","province":"東京都","city":"狛江市","address":"東京都狛江市和泉本町4-7-51","lat":35.645149,"lon":139.568014},{"name":"岩戸地域センター","province":"東京都","city":"狛江市","address":"東京都狛江市岩戸南2-2-5","lat":35.632071,"lon":139.586045},{"name":"野川地域センター","province":"東京都","city":"狛江市","address":"東京都狛江市西野川1-6-9","lat":35.646093,"lon":139.575503},{"name":"狛江市中央公民館","province":"東京都","city":"狛江市","address":"東京都狛江市和泉本町1-1-5","lat":35.635208,"lon":139.578171},{"name":"狛江市あいとぴあセンター","province":"東京都","city":"狛江市","address":"東京都狛江市元和泉2-35-1","lat":35.633349,"lon":139.56768},{"name":"狛江市西河原公民館","province":"東京都","city":"狛江市","address":"東京都狛江市元和泉2-35-1","lat":35.63344,"lon":139.567029},{"name":"狛江市立古民家園","province":"東京都","city":"狛江市","address":"東京都狛江市元和泉2-15-5","lat":35.632911,"lon":139.571155},{"name":"中村児童公園","province":"東京都","city":"狛江市","address":"東京都狛江市東野川2-16-10","lat":35.645554,"lon":139.579756},{"name":"丸山児童公園","province":"東京都","city":"狛江市","address":"東京都狛江市和泉本町2-15-3","lat":35.640334,"lon":139.579484},{"name":"供養塚児童公園","province":"東京都","city":"狛江市","address":"東京都狛江市駒井町3-3-1","lat":35.623597,"lon":139.581942},{"name":"田中の池児童公園","province":"東京都","city":"狛江市","address":"東京都狛江市元和泉2-17-1","lat":35.631247,"lon":139.572177},{"name":"多摩川緑地公園","province":"東京都","city":"狛江市","address":"東京都狛江市猪方4-923","lat":35.624292,"lon":139.573484},{"name":"藤塚第一児童公園","province":"東京都","city":"狛江市","address":"東京都狛江市和泉本町4-7-14","lat":35.644954,"lon":139.567907},{"name":"藤塚第二児童公園","province":"東京都","city":"狛江市","address":"東京都狛江市和泉本町4-7-12","lat":35.644405,"lon":139.568019},{"name":"藤塚第三児童公園","province":"東京都","city":"狛江市","address":"東京都狛江市和泉本町4-7-25","lat":35.643747,"lon":139.568703},{"name":"藤塚第四児童公園","province":"東京都","city":"狛江市","address":"東京都狛江市和泉本町4-7-39","lat":35.642764,"lon":139.569631},{"name":"西河原公園","province":"東京都","city":"狛江市","address":"東京都狛江市元和泉2-38-1","lat":35.632862,"lon":139.567111},{"name":"野川緑地公園","province":"東京都","city":"狛江市","address":"東京都狛江市和泉本町、岩戸北、東野川、西野川地内","lat":35.642924,"lon":139.578609},{"name":"みつおさ児童公園","province":"東京都","city":"狛江市","address":"東京都狛江市東野川3-16-4","lat":35.646008,"lon":139.5841},{"name":"水道橋児童公園","province":"東京都","city":"狛江市","address":"東京都狛江市東和泉4-9-1","lat":35.626327,"lon":139.570912},{"name":"岩戸川緑地公園","province":"東京都","city":"狛江市","address":"東京都狛江市岩戸南、猪方地内","lat":35.629286,"lon":139.587096},{"name":"野川北公園","province":"東京都","city":"狛江市","address":"東京都狛江市西野川1-19-10","lat":35.648544,"lon":139.576102},{"name":"元和泉公園","province":"東京都","city":"狛江市","address":"東京都狛江市元和泉2-12-7","lat":35.631988,"lon":139.57233},{"name":"西河原自然公園","province":"東京都","city":"狛江市","address":"東京都狛江市元和泉2-34-20","lat":35.633246,"lon":139.570163},{"name":"和泉多摩川児童公園","province":"東京都","city":"狛江市","address":"東京都狛江市元和泉3-6-11","lat":35.628261,"lon":139.571899},{"name":"小足立のびのび公園","province":"東京都","city":"狛江市","address":"東京都狛江市西野川4-14-1","lat":35.647587,"lon":139.572822},{"name":"前原公園","province":"東京都","city":"狛江市","address":"東京都狛江市西野川3-11-1","lat":35.64497,"lon":139.570204},{"name":"駒井・上村中ひだまり公園","province":"東京都","city":"狛江市","address":"東京都狛江市駒井町1-12-1","lat":35.625837,"lon":139.585665},{"name":"谷戸橋南広場","province":"東京都","city":"狛江市","address":"東京都狛江市東野川4-23","lat":35.644114,"lon":139.586957},{"name":"北久保公園","province":"東京都","city":"狛江市","address":"東京都狛江市和泉本町2-23-9","lat":35.643085,"lon":139.578234},{"name":"岩戸川南公園","province":"東京都","city":"狛江市","address":"東京都狛江市岩戸南4-17-28","lat":35.626667,"lon":139.593378},{"name":"清水川公園","province":"東京都","city":"狛江市","address":"東京都狛江市東和泉2-9","lat":35.630053,"lon":139.580833},{"name":"根川公園","province":"東京都","city":"狛江市","address":"東京都狛江市中和泉4-15-41","lat":35.63447,"lon":139.56471},{"name":"狛江弁財天池特別緑地保全地区","province":"東京都","city":"狛江市","address":"東京都狛江市元和泉1-7","lat":35.632292,"lon":139.576168},{"name":"狛江市役所","province":"東京都","city":"狛江市","address":"東京都狛江市和泉本町1丁目1-5","lat":35.63491314,"lon":139.57873418},{"name":"上和泉地域センター","province":"東京都","city":"狛江市","address":"東京都狛江市和泉本町4丁目7-51","lat":35.64522822,"lon":139.5679874},{"name":"南部地域センター","province":"東京都","city":"狛江市","address":"東京都狛江市猪方4丁目11-1","lat":35.6233737,"lon":139.57983535},{"name":"岩戸地域センター","province":"東京都","city":"狛江市","address":"東京都狛江市岩戸南2丁目2-5","lat":35.63215548,"lon":139.58610878},{"name":"野川地域センター","province":"東京都","city":"狛江市","address":"東京都狛江市西野川1丁目6-9","lat":35.64608091,"lon":139.57550046},{"name":"和泉本町給水所","province":"東京都","city":"狛江市","address":"東京都狛江市和泉本町4-6-1","lat":35.6429908,"lon":139.571116},{"name":"オダクル狛江第1","province":"東京都","city":"狛江市","address":"東京都狛江市和泉本町1丁目2","lat":35.63414941,"lon":139.57939809},{"name":"オダクル狛江第2","province":"東京都","city":"狛江市","address":"東京都狛江市元和泉1丁目11","lat":35.63119715,"lon":139.5759071},{"name":"オダクルマルシェ狛江","province":"東京都","city":"狛江市","address":"東京都狛江市元和泉1丁目1","lat":35.63360228,"lon":139.5785899},{"name":"狛江駅北口自転車駐車場","province":"東京都","city":"狛江市","address":"東京都狛江市元和泉1丁目3","lat":35.6328524,"lon":139.57728177},{"name":"狛江駅南口第１自転車等駐車場","province":"東京都","city":"狛江市","address":"東京都狛江市東和泉1丁目17","lat":35.63206089,"lon":139.57744019},{"name":"オダクル喜多見店舗","province":"東京都","city":"狛江市","address":"東京都狛江市岩戸北2丁目20","lat":35.63603812,"lon":139.58530293},{"name":"オダクル喜多見第2","province":"東京都","city":"狛江市","address":"東京都狛江市岩戸北1丁目24","lat":35.63600755,"lon":139.58455857},{"name":"東都サイクルパーク喜多見第１","province":"東京都","city":"狛江市","address":"東京都狛江市岩戸北4丁目6","lat":35.6359937,"lon":139.58585012},{"name":"小川園宝島駐輪場","province":"東京都","city":"狛江市","address":"東京都狛江市岩戸北4丁目2","lat":35.63457449,"lon":139.5856697},{"name":"オダクル和泉多摩川第1","province":"東京都","city":"狛江市","address":"東京都狛江市東和泉4丁目1","lat":35.62800613,"lon":139.57366052},{"name":"オダクル和泉多摩川第2","province":"東京都","city":"狛江市","address":"東京都狛江市東和泉4丁目6","lat":35.62651476,"lon":139.57243861},{"name":"中和泉一丁目自転車置場","province":"東京都","city":"狛江市","address":"東京都狛江市中和泉1丁目25","lat":35.63396875,"lon":139.57337644},{"name":"和泉多摩川自転車置場（高架下）","province":"東京都","city":"狛江市","address":"東京都狛江市東和泉4丁目8","lat":35.62664253,"lon":139.57138318},{"name":"オダクル和泉多摩川東口","province":"東京都","city":"狛江市","address":"東京都狛江市東和泉4丁目2","lat":35.62754789,"lon":139.57372724},{"name":"狛江駅南口第2自転車駐車場","province":"東京都","city":"狛江市","address":"東京都狛江市東和泉1丁目20","lat":35.63166375,"lon":139.57751522},{"name":"東都サイクルパーク狛江駅前","province":"東京都","city":"狛江市","address":"東京都狛江市東和泉1丁目14","lat":35.63284132,"lon":139.57858999},{"name":"東都サイクルパーク和泉多摩川","province":"東京都","city":"狛江市","address":"東京都狛江市東和泉3丁目1","lat":35.62838383,"lon":139.57500476},{"name":"多摩川五本松","province":"東京都","city":"狛江市","address":"東京都狛江市元和泉三丁目地先","lat":35.632433,"lon":139.33579},{"name":"狛江エコルマホール","province":"東京都","city":"狛江市","address":"東京都狛江市元和泉1-2-1","lat":35.633278,"lon":139.578031},{"name":"巨大絵手紙","province":"東京都","city":"狛江市","address":"東京都狛江市元和泉1丁目","lat":35.632978,"lon":139.577494},{"name":"絵手紙表示板","province":"東京都","city":"狛江市","address":"東京都狛江市元和泉1丁目","lat":35.633321,"lon":139.577728},{"name":"泉龍寺","province":"東京都","city":"狛江市","address":"東京都狛江市元和泉1-6-1","lat":35.63313,"lon":139.575696},{"name":"玉泉寺","province":"東京都","city":"狛江市","address":"東京都狛江市東和泉3-10-23","lat":35.626955,"lon":139.573943},{"name":"伊豆美神社","province":"東京都","city":"狛江市","address":"東京都狛江市中和泉3-21-8","lat":35.635205,"lon":139.569083},{"name":"多摩川","province":"東京都","city":"狛江市","address":"東京都狛江市猪方4-3","lat":35.623493,"lon":139.576259},{"name":"狛江市子ども家庭支援センター","province":"東京都","city":"狛江市","address":"東京都狛江市元和泉2-35-1","lat":35.6333,"lon":139.567778},{"name":"南部地域センター","province":"東京都","city":"狛江市","address":"東京都狛江市猪方4-11-1","lat":35.623377,"lon":139.579809},{"name":"上和泉地域センター","province":"東京都","city":"狛江市","address":"東京都狛江市和泉本町4-7-51","lat":35.645149,"lon":139.568014},{"name":"岩戸地域センター","province":"東京都","city":"狛江市","address":"東京都狛江市岩戸南2-2-5","lat":35.632071,"lon":139.586045},{"name":"野川地域センター","province":"東京都","city":"狛江市","address":"東京都狛江市西野川1-6-9","lat":35.646093,"lon":139.575503},{"name":"狛江市中央公民館","province":"東京都","city":"狛江市","address":"東京都狛江市和泉本町1-1-5","lat":35.635208,"lon":139.578171},{"name":"狛江市あいとぴあセンター","province":"東京都","city":"狛江市","address":"東京都狛江市元和泉2-35-1","lat":35.633349,"lon":139.56768},{"name":"狛江市西河原公民館","province":"東京都","city":"狛江市","address":"東京都狛江市元和泉2-35-1","lat":35.63344,"lon":139.567029},{"name":"狛江市立古民家園","province":"東京都","city":"狛江市","address":"東京都狛江市元和泉2-15-5","lat":35.632911,"lon":139.571155},{"name":"中村児童公園","province":"東京都","city":"狛江市","address":"東京都狛江市東野川2-16-10","lat":35.645554,"lon":139.579756},{"name":"丸山児童公園","province":"東京都","city":"狛江市","address":"東京都狛江市和泉本町2-15-3","lat":35.640334,"lon":139.579484},{"name":"供養塚児童公園","province":"東京都","city":"狛江市","address":"東京都狛江市駒井町3-3-1","lat":35.623597,"lon":139.581942},{"name":"田中の池児童公園","province":"東京都","city":"狛江市","address":"東京都狛江市元和泉2-17-1","lat":35.631247,"lon":139.572177},{"name":"多摩川緑地公園","province":"東京都","city":"狛江市","address":"東京都狛江市猪方4-923","lat":35.624292,"lon":139.573484},{"name":"藤塚第一児童公園","province":"東京都","city":"狛江市","address":"東京都狛江市和泉本町4-7-14","lat":35.644954,"lon":139.567907},{"name":"藤塚第二児童公園","province":"東京都","city":"狛江市","address":"東京都狛江市和泉本町4-7-12","lat":35.644405,"lon":139.568019},{"name":"藤塚第三児童公園","province":"東京都","city":"狛江市","address":"東京都狛江市和泉本町4-7-25","lat":35.643747,"lon":139.568703},{"name":"藤塚第四児童公園","province":"東京都","city":"狛江市","address":"東京都狛江市和泉本町4-7-39","lat":35.642764,"lon":139.569631},{"name":"西河原公園","province":"東京都","city":"狛江市","address":"東京都狛江市元和泉2-38-1","lat":35.632862,"lon":139.567111},{"name":"野川緑地公園","province":"東京都","city":"狛江市","address":"東京都狛江市和泉本町、岩戸北、東野川、西野川地内","lat":35.642924,"lon":139.578609},{"name":"みつおさ児童公園","province":"東京都","city":"狛江市","address":"東京都狛江市東野川3-16-4","lat":35.646008,"lon":139.5841},{"name":"水道橋児童公園","province":"東京都","city":"狛江市","address":"東京都狛江市東和泉4-9-1","lat":35.626327,"lon":139.570912},{"name":"岩戸川緑地公園","province":"東京都","city":"狛江市","address":"東京都狛江市岩戸南、猪方地内","lat":35.629286,"lon":139.587096},{"name":"野川北公園","province":"東京都","city":"狛江市","address":"東京都狛江市西野川1-19-10","lat":35.648544,"lon":139.576102},{"name":"元和泉公園","province":"東京都","city":"狛江市","address":"東京都狛江市元和泉2-12-7","lat":35.631988,"lon":139.57233},{"name":"西河原自然公園","province":"東京都","city":"狛江市","address":"東京都狛江市元和泉2-34-20","lat":35.633246,"lon":139.570163},{"name":"和泉多摩川児童公園","province":"東京都","city":"狛江市","address":"東京都狛江市元和泉3-6-11","lat":35.628261,"lon":139.571899},{"name":"小足立のびのび公園","province":"東京都","city":"狛江市","address":"東京都狛江市西野川4-14-1","lat":35.647587,"lon":139.572822},{"name":"前原公園","province":"東京都","city":"狛江市","address":"東京都狛江市西野川3-11-1","lat":35.64497,"lon":139.570204},{"name":"駒井・上村中ひだまり公園","province":"東京都","city":"狛江市","address":"東京都狛江市駒井町1-12-1","lat":35.625837,"lon":139.585665},{"name":"谷戸橋南広場","province":"東京都","city":"狛江市","address":"東京都狛江市東野川4-23","lat":35.644114,"lon":139.586957},{"name":"北久保公園","province":"東京都","city":"狛江市","address":"東京都狛江市和泉本町2-23-9","lat":35.643085,"lon":139.578234},{"name":"岩戸川南公園","province":"東京都","city":"狛江市","address":"東京都狛江市岩戸南4-17-28","lat":35.626667,"lon":139.593378},{"name":"清水川公園","province":"東京都","city":"狛江市","address":"東京都狛江市東和泉2-9","lat":35.630053,"lon":139.580833},{"name":"根川公園","province":"東京都","city":"狛江市","address":"東京都狛江市中和泉4-15-41","lat":35.63447,"lon":139.56471},{"name":"狛江弁財天池特別緑地保全地区","province":"東京都","city":"狛江市","address":"東京都狛江市元和泉1-7","lat":35.632292,"lon":139.576168},{"name":"狛江市役所","province":"東京都","city":"狛江市","address":"東京都狛江市和泉本町1丁目1-5","lat":35.63491314,"lon":139.57873418},{"name":"上和泉地域センター","province":"東京都","city":"狛江市","address":"東京都狛江市和泉本町4丁目7-51","lat":35.64522822,"lon":139.5679874},{"name":"南部地域センター","province":"東京都","city":"狛江市","address":"東京都狛江市猪方4丁目11-1","lat":35.6233737,"lon":139.57983535},{"name":"岩戸地域センター","province":"東京都","city":"狛江市","address":"東京都狛江市岩戸南2丁目2-5","lat":35.63215548,"lon":139.58610878},{"name":"野川地域センター","province":"東京都","city":"狛江市","address":"東京都狛江市西野川1丁目6-9","lat":35.64608091,"lon":139.57550046},{"name":"狛江市子ども家庭支援センター","province":"東京都","city":"狛江市","address":"東京都狛江市元和泉2-35-1","lat":35.6333,"lon":139.567778},{"name":"南部地域センター","province":"東京都","city":"狛江市","address":"東京都狛江市猪方4-11-1","lat":35.623377,"lon":139.579809},{"name":"上和泉地域センター","province":"東京都","city":"狛江市","address":"東京都狛江市和泉本町4-7-51","lat":35.645149,"lon":139.568014},{"name":"岩戸地域センター","province":"東京都","city":"狛江市","address":"東京都狛江市岩戸南2-2-5","lat":35.632071,"lon":139.586045},{"name":"野川地域センター","province":"東京都","city":"狛江市","address":"東京都狛江市西野川1-6-9","lat":35.646093,"lon":139.575503},{"name":"狛江市中央公民館","province":"東京都","city":"狛江市","address":"東京都狛江市和泉本町1-1-5","lat":35.635208,"lon":139.578171},{"name":"狛江市あいとぴあセンター","province":"東京都","city":"狛江市","address":"東京都狛江市元和泉2-35-1","lat":35.633349,"lon":139.56768},{"name":"狛江市西河原公民館","province":"東京都","city":"狛江市","address":"東京都狛江市元和泉2-35-1","lat":35.63344,"lon":139.567029},{"name":"狛江市立古民家園","province":"東京都","city":"狛江市","address":"東京都狛江市元和泉2-15-5","lat":35.632911,"lon":139.571155},{"name":"中村児童公園","province":"東京都","city":"狛江市","address":"東京都狛江市東野川2-16-10","lat":35.645554,"lon":139.579756},{"name":"丸山児童公園","province":"東京都","city":"狛江市","address":"東京都狛江市和泉本町2-15-3","lat":35.640334,"lon":139.579484},{"name":"供養塚児童公園","province":"東京都","city":"狛江市","address":"東京都狛江市駒井町3-3-1","lat":35.623597,"lon":139.581942},{"name":"田中の池児童公園","province":"東京都","city":"狛江市","address":"東京都狛江市元和泉2-17-1","lat":35.631247,"lon":139.572177},{"name":"多摩川緑地公園","province":"東京都","city":"狛江市","address":"東京都狛江市猪方4-923","lat":35.624292,"lon":139.573484},{"name":"藤塚第一児童公園","province":"東京都","city":"狛江市","address":"東京都狛江市和泉本町4-7-14","lat":35.644954,"lon":139.567907},{"name":"藤塚第二児童公園","province":"東京都","city":"狛江市","address":"東京都狛江市和泉本町4-7-12","lat":35.644405,"lon":139.568019},{"name":"藤塚第三児童公園","province":"東京都","city":"狛江市","address":"東京都狛江市和泉本町4-7-25","lat":35.643747,"lon":139.568703},{"name":"藤塚第四児童公園","province":"東京都","city":"狛江市","address":"東京都狛江市和泉本町4-7-39","lat":35.642764,"lon":139.569631},{"name":"西河原公園","province":"東京都","city":"狛江市","address":"東京都狛江市元和泉2-38-1","lat":35.632862,"lon":139.567111},{"name":"野川緑地公園","province":"東京都","city":"狛江市","address":"東京都狛江市和泉本町、岩戸北、東野川、西野川地内","lat":35.642924,"lon":139.578609},{"name":"みつおさ児童公園","province":"東京都","city":"狛江市","address":"東京都狛江市東野川3-16-4","lat":35.646008,"lon":139.5841},{"name":"水道橋児童公園","province":"東京都","city":"狛江市","address":"東京都狛江市東和泉4-9-1","lat":35.626327,"lon":139.570912},{"name":"岩戸川緑地公園","province":"東京都","city":"狛江市","address":"東京都狛江市岩戸南、猪方地内","lat":35.629286,"lon":139.587096},{"name":"野川北公園","province":"東京都","city":"狛江市","address":"東京都狛江市西野川1-19-10","lat":35.648544,"lon":139.576102},{"name":"元和泉公園","province":"東京都","city":"狛江市","address":"東京都狛江市元和泉2-12-7","lat":35.631988,"lon":139.57233},{"name":"西河原自然公園","province":"東京都","city":"狛江市","address":"東京都狛江市元和泉2-34-20","lat":35.633246,"lon":139.570163},{"name":"和泉多摩川児童公園","province":"東京都","city":"狛江市","address":"東京都狛江市元和泉3-6-11","lat":35.628261,"lon":139.571899},{"name":"小足立のびのび公園","province":"東京都","city":"狛江市","address":"東京都狛江市西野川4-14-1","lat":35.647587,"lon":139.572822},{"name":"前原公園","province":"東京都","city":"狛江市","address":"東京都狛江市西野川3-11-1","lat":35.64497,"lon":139.570204},{"name":"駒井・上村中ひだまり公園","province":"東京都","city":"狛江市","address":"東京都狛江市駒井町1-12-1","lat":35.625837,"lon":139.585665},{"name":"谷戸橋南広場","province":"東京都","city":"狛江市","address":"東京都狛江市東野川4-23","lat":35.644114,"lon":139.586957},{"name":"北久保公園","province":"東京都","city":"狛江市","address":"東京都狛江市和泉本町2-23-9","lat":35.643085,"lon":139.578234},{"name":"岩戸川南公園","province":"東京都","city":"狛江市","address":"東京都狛江市岩戸南4-17-28","lat":35.626667,"lon":139.593378},{"name":"清水川公園","province":"東京都","city":"狛江市","address":"東京都狛江市東和泉2-9","lat":35.630053,"lon":139.580833},{"name":"根川公園","province":"東京都","city":"狛江市","address":"東京都狛江市中和泉4-15-41","lat":35.63447,"lon":139.56471},{"name":"狛江弁財天池特別緑地保全地区","province":"東京都","city":"狛江市","address":"東京都狛江市元和泉1-7","lat":35.632292,"lon":139.576168},{"name":"狛江市役所","province":"東京都","city":"狛江市","address":"東京都狛江市和泉本町1丁目1-5","lat":35.63491314,"lon":139.57873418},{"name":"上和泉地域センター","province":"東京都","city":"狛江市","address":"東京都狛江市和泉本町4丁目7-51","lat":35.64522822,"lon":139.5679874},{"name":"南部地域センター","province":"東京都","city":"狛江市","address":"東京都狛江市猪方4丁目11-1","lat":35.6233737,"lon":139.57983535},{"name":"岩戸地域センター","province":"東京都","city":"狛江市","address":"東京都狛江市岩戸南2丁目2-5","lat":35.63215548,"lon":139.58610878},{"name":"野川地域センター","province":"東京都","city":"狛江市","address":"東京都狛江市西野川1丁目6-9","lat":35.64608091,"lon":139.57550046},{"name":"狛江市役所","province":"東京都","city":"狛江市","address":"東京都狛江市和泉本町1丁目1-5","lat":35.63491314,"lon":139.57873418},{"name":"上和泉地域センター","province":"東京都","city":"狛江市","address":"東京都狛江市和泉本町4丁目7-51","lat":35.64522822,"lon":139.5679874},{"name":"南部地域センター","province":"東京都","city":"狛江市","address":"東京都狛江市猪方4丁目11-1","lat":35.6233737,"lon":139.57983535},{"name":"岩戸地域センター","province":"東京都","city":"狛江市","address":"東京都狛江市岩戸南2丁目2-5","lat":35.63215548,"lon":139.58610878},{"name":"野川地域センター","province":"東京都","city":"狛江市","address":"東京都狛江市西野川1丁目6-9","lat":35.64608091,"lon":139.57550046},{"name":"狛江市役所","province":"東京都","city":"狛江市","address":"東京都狛江市和泉本町1丁目1-5","lat":35.63491314,"lon":139.57873418},{"name":"上和泉地域センター","province":"東京都","city":"狛江市","address":"東京都狛江市和泉本町4丁目7-51","lat":35.64522822,"lon":139.5679874},{"name":"南部地域センター","province":"東京都","city":"狛江市","address":"東京都狛江市猪方4丁目11-1","lat":35.6233737,"lon":139.57983535},{"name":"岩戸地域センター","province":"東京都","city":"狛江市","address":"東京都狛江市岩戸南2丁目2-5","lat":35.63215548,"lon":139.58610878},{"name":"野川地域センター","province":"東京都","city":"狛江市","address":"東京都狛江市西野川1丁目6-9","lat":35.64608091,"lon":139.57550046},{"name":"狛江市役所","province":"東京都","city":"狛江市","address":"東京都狛江市和泉本町1丁目1-5","lat":35.63491314,"lon":139.57873418},{"name":"上和泉地域センター","province":"東京都","city":"狛江市","address":"東京都狛江市和泉本町4丁目7-51","lat":35.64522822,"lon":139.5679874},{"name":"南部地域センター","province":"東京都","city":"狛江市","address":"東京都狛江市猪方4丁目11-1","lat":35.6233737,"lon":139.57983535},{"name":"岩戸地域センター","province":"東京都","city":"狛江市","address":"東京都狛江市岩戸南2丁目2-5","lat":35.63215548,"lon":139.58610878},{"name":"野川地域センター","province":"東京都","city":"狛江市","address":"東京都狛江市西野川1丁目6-9","lat":35.64608091,"lon":139.57550046},{"name":"狛江市役所","province":"東京都","city":"狛江市","address":"東京都狛江市和泉本町1丁目1-5","lat":35.63491314,"lon":139.57873418},{"name":"上和泉地域センター","province":"東京都","city":"狛江市","address":"東京都狛江市和泉本町4丁目7-51","lat":35.64522822,"lon":139.5679874},{"name":"南部地域センター","province":"東京都","city":"狛江市","address":"東京都狛江市猪方4丁目11-1","lat":35.6233737,"lon":139.57983535},{"name":"岩戸地域センター","province":"東京都","city":"狛江市","address":"東京都狛江市岩戸南2丁目2-5","lat":35.63215548,"lon":139.58610878},{"name":"野川地域センター","province":"東京都","city":"狛江市","address":"東京都狛江市西野川1丁目6-9","lat":35.64608091,"lon":139.57550046},{"name":"狛江市役所","province":"東京都","city":"狛江市","address":"東京都狛江市和泉本町1丁目1-5","lat":35.63491314,"lon":139.57873418},{"name":"上和泉地域センター","province":"東京都","city":"狛江市","address":"東京都狛江市和泉本町4丁目7-51","lat":35.64522822,"lon":139.5679874},{"name":"南部地域センター","province":"東京都","city":"狛江市","address":"東京都狛江市猪方4丁目11-1","lat":35.6233737,"lon":139.57983535},{"name":"岩戸地域センター","province":"東京都","city":"狛江市","address":"東京都狛江市岩戸南2丁目2-5","lat":35.63215548,"lon":139.58610878},{"name":"野川地域センター","province":"東京都","city":"狛江市","address":"東京都狛江市西野川1丁目6-9","lat":35.64608091,"lon":139.57550046},{"name":"狛江市役所","province":"東京都","city":"狛江市","address":"東京都狛江市和泉本町1丁目1-5","lat":35.63491314,"lon":139.57873418},{"name":"上和泉地域センター","province":"東京都","city":"狛江市","address":"東京都狛江市和泉本町4丁目7-51","lat":35.64522822,"lon":139.5679874},{"name":"南部地域センター","province":"東京都","city":"狛江市","address":"東京都狛江市猪方4丁目11-1","lat":35.6233737,"lon":139.57983535},{"name":"岩戸地域センター","province":"東京都","city":"狛江市","address":"東京都狛江市岩戸南2丁目2-5","lat":35.63215548,"lon":139.58610878},{"name":"野川地域センター","province":"東京都","city":"狛江市","address":"東京都狛江市西野川1丁目6-9","lat":35.64608091,"lon":139.57550046},{"name":"狛江市役所","province":"東京都","city":"狛江市","address":"東京都狛江市和泉本町1丁目1-5","lat":35.63491314,"lon":139.57873418},{"name":"上和泉地域センター","province":"東京都","city":"狛江市","address":"東京都狛江市和泉本町4丁目7-51","lat":35.64522822,"lon":139.5679874},{"name":"南部地域センター","province":"東京都","city":"狛江市","address":"東京都狛江市猪方4丁目11-1","lat":35.6233737,"lon":139.57983535},{"name":"岩戸地域センター","province":"東京都","city":"狛江市","address":"東京都狛江市岩戸南2丁目2-5","lat":35.63215548,"lon":139.58610878},{"name":"野川地域センター","province":"東京都","city":"狛江市","address":"東京都狛江市西野川1丁目6-9","lat":35.64608091,"lon":139.57550046},{"name":"狛江市役所","province":"東京都","city":"狛江市","address":"東京都狛江市和泉本町1丁目1-5","lat":35.63491314,"lon":139.57873418},{"name":"上和泉地域センター","province":"東京都","city":"狛江市","address":"東京都狛江市和泉本町4丁目7-51","lat":35.64522822,"lon":139.5679874},{"name":"南部地域センター","province":"東京都","city":"狛江市","address":"東京都狛江市猪方4丁目11-1","lat":35.6233737,"lon":139.57983535},{"name":"岩戸地域センター","province":"東京都","city":"狛江市","address":"東京都狛江市岩戸南2丁目2-5","lat":35.63215548,"lon":139.58610878},{"name":"野川地域センター","province":"東京都","city":"狛江市","address":"東京都狛江市西野川1丁目6-9","lat":35.64608091,"lon":139.57550046},{"name":"狛江市役所","province":"東京都","city":"狛江市","address":"東京都狛江市和泉本町1丁目1-5","lat":35.63491314,"lon":139.57873418},{"name":"上和泉地域センター","province":"東京都","city":"狛江市","address":"東京都狛江市和泉本町4丁目7-51","lat":35.64522822,"lon":139.5679874},{"name":"南部地域センター","province":"東京都","city":"狛江市","address":"東京都狛江市猪方4丁目11-1","lat":35.6233737,"lon":139.57983535},{"name":"岩戸地域センター","province":"東京都","city":"狛江市","address":"東京都狛江市岩戸南2丁目2-5","lat":35.63215548,"lon":139.58610878},{"name":"野川地域センター","province":"東京都","city":"狛江市","address":"東京都狛江市西野川1丁目6-9","lat":35.64608091,"lon":139.57550046},{"name":"狛江市役所","province":"東京都","city":"狛江市","address":"東京都狛江市和泉本町1丁目1-5","lat":35.63491314,"lon":139.57873418},{"name":"上和泉地域センター","province":"東京都","city":"狛江市","address":"東京都狛江市和泉本町4丁目7-51","lat":35.64522822,"lon":139.5679874},{"name":"南部地域センター","province":"東京都","city":"狛江市","address":"東京都狛江市猪方4丁目11-1","lat":35.6233737,"lon":139.57983535},{"name":"岩戸地域センター","province":"東京都","city":"狛江市","address":"東京都狛江市岩戸南2丁目2-5","lat":35.63215548,"lon":139.58610878},{"name":"野川地域センター","province":"東京都","city":"狛江市","address":"東京都狛江市西野川1丁目6-9","lat":35.64608091,"lon":139.57550046},{"name":"狛江市役所","province":"東京都","city":"狛江市","address":"東京都狛江市和泉本町1丁目1-5","lat":35.63491314,"lon":139.57873418},{"name":"上和泉地域センター","province":"東京都","city":"狛江市","address":"東京都狛江市和泉本町4丁目7-51","lat":35.64522822,"lon":139.5679874},{"name":"南部地域センター","province":"東京都","city":"狛江市","address":"東京都狛江市猪方4丁目11-1","lat":35.6233737,"lon":139.57983535},{"name":"岩戸地域センター","province":"東京都","city":"狛江市","address":"東京都狛江市岩戸南2丁目2-5","lat":35.63215548,"lon":139.58610878},{"name":"野川地域センター","province":"東京都","city":"狛江市","address":"東京都狛江市西野川1丁目6-9","lat":35.64608091,"lon":139.57550046},{"name":"狛江市役所","province":"東京都","city":"狛江市","address":"東京都狛江市和泉本町1丁目1-5","lat":35.63491314,"lon":139.57873418},{"name":"上和泉地域センター","province":"東京都","city":"狛江市","address":"東京都狛江市和泉本町4丁目7-51","lat":35.64522822,"lon":139.5679874},{"name":"南部地域センター","province":"東京都","city":"狛江市","address":"東京都狛江市猪方4丁目11-1","lat":35.6233737,"lon":139.57983535},{"name":"岩戸地域センター","province":"東京都","city":"狛江市","address":"東京都狛江市岩戸南2丁目2-5","lat":35.63215548,"lon":139.58610878},{"name":"野川地域センター","province":"東京都","city":"狛江市","address":"東京都狛江市西野川1丁目6-9","lat":35.64608091,"lon":139.57550046},{"name":"狛江市役所","province":"東京都","city":"狛江市","address":"東京都狛江市和泉本町1丁目1-5","lat":35.63491314,"lon":139.57873418},{"name":"上和泉地域センター","province":"東京都","city":"狛江市","address":"東京都狛江市和泉本町4丁目7-51","lat":35.64522822,"lon":139.5679874},{"name":"南部地域センター","province":"東京都","city":"狛江市","address":"東京都狛江市猪方4丁目11-1","lat":35.6233737,"lon":139.57983535},{"name":"岩戸地域センター","province":"東京都","city":"狛江市","address":"東京都狛江市岩戸南2丁目2-5","lat":35.63215548,"lon":139.58610878},{"name":"野川地域センター","province":"東京都","city":"狛江市","address":"東京都狛江市西野川1丁目6-9","lat":35.64608091,"lon":139.57550046},{"name":"狛江市役所","province":"東京都","city":"狛江市","address":"東京都狛江市和泉本町1丁目1-5","lat":35.63491314,"lon":139.57873418},{"name":"上和泉地域センター","province":"東京都","city":"狛江市","address":"東京都狛江市和泉本町4丁目7-51","lat":35.64522822,"lon":139.5679874},{"name":"南部地域センター","province":"東京都","city":"狛江市","address":"東京都狛江市猪方4丁目11-1","lat":35.6233737,"lon":139.57983535},{"name":"岩戸地域センター","province":"東京都","city":"狛江市","address":"東京都狛江市岩戸南2丁目2-5","lat":35.63215548,"lon":139.58610878},{"name":"野川地域センター","province":"東京都","city":"狛江市","address":"東京都狛江市西野川1丁目6-9","lat":35.64608091,"lon":139.57550046},{"name":"狛江市役所","province":"東京都","city":"狛江市","address":"東京都狛江市和泉本町1丁目1-5","lat":35.63491314,"lon":139.57873418},{"name":"上和泉地域センター","province":"東京都","city":"狛江市","address":"東京都狛江市和泉本町4丁目7-51","lat":35.64522822,"lon":139.5679874},{"name":"南部地域センター","province":"東京都","city":"狛江市","address":"東京都狛江市猪方4丁目11-1","lat":35.6233737,"lon":139.57983535},{"name":"岩戸地域センター","province":"東京都","city":"狛江市","address":"東京都狛江市岩戸南2丁目2-5","lat":35.63215548,"lon":139.58610878},{"name":"野川地域センター","province":"東京都","city":"狛江市","address":"東京都狛江市西野川1丁目6-9","lat":35.64608091,"lon":139.57550046},{"name":"狛江市役所","province":"東京都","city":"狛江市","address":"東京都狛江市和泉本町1丁目1-5","lat":35.63491314,"lon":139.57873418},{"name":"上和泉地域センター","province":"東京都","city":"狛江市","address":"東京都狛江市和泉本町4丁目7-51","lat":35.64522822,"lon":139.5679874},{"name":"南部地域センター","province":"東京都","city":"狛江市","address":"東京都狛江市猪方4丁目11-1","lat":35.6233737,"lon":139.57983535},{"name":"岩戸地域センター","province":"東京都","city":"狛江市","address":"東京都狛江市岩戸南2丁目2-5","lat":35.63215548,"lon":139.58610878},{"name":"野川地域センター","province":"東京都","city":"狛江市","address":"東京都狛江市西野川1丁目6-9","lat":35.64608091,"lon":139.57550046},{"name":"狛江市役所","province":"東京都","city":"狛江市","address":"東京都狛江市和泉本町1丁目1-5","lat":35.63491314,"lon":139.57873418},{"name":"上和泉地域センター","province":"東京都","city":"狛江市","address":"東京都狛江市和泉本町4丁目7-51","lat":35.64522822,"lon":139.5679874},{"name":"南部地域センター","province":"東京都","city":"狛江市","address":"東京都狛江市猪方4丁目11-1","lat":35.6233737,"lon":139.57983535},{"name":"岩戸地域センター","province":"東京都","city":"狛江市","address":"東京都狛江市岩戸南2丁目2-5","lat":35.63215548,"lon":139.58610878},{"name":"野川地域センター","province":"東京都","city":"狛江市","address":"東京都狛江市西野川1丁目6-9","lat":35.64608091,"lon":139.57550046},{"name":"狛江市役所","province":"東京都","city":"狛江市","address":"東京都狛江市和泉本町1丁目1-5","lat":35.63491314,"lon":139.57873418},{"name":"上和泉地域センター","province":"東京都","city":"狛江市","address":"東京都狛江市和泉本町4丁目7-51","lat":35.64522822,"lon":139.5679874},{"name":"南部地域センター","province":"東京都","city":"狛江市","address":"東京都狛江市猪方4丁目11-1","lat":35.6233737,"lon":139.57983535},{"name":"岩戸地域センター","province":"東京都","city":"狛江市","address":"東京都狛江市岩戸南2丁目2-5","lat":35.63215548,"lon":139.58610878},{"name":"野川地域センター","province":"東京都","city":"狛江市","address":"東京都狛江市西野川1丁目6-9","lat":35.64608091,"lon":139.57550046},{"name":"狛江市役所","province":"東京都","city":"狛江市","address":"東京都狛江市和泉本町1丁目1-5","lat":35.63491314,"lon":139.57873418},{"name":"上和泉地域センター","province":"東京都","city":"狛江市","address":"東京都狛江市和泉本町4丁目7-51","lat":35.64522822,"lon":139.5679874},{"name":"南部地域センター","province":"東京都","city":"狛江市","address":"東京都狛江市猪方4丁目11-1","lat":35.6233737,"lon":139.57983535},{"name":"岩戸地域センター","province":"東京都","city":"狛江市","address":"東京都狛江市岩戸南2丁目2-5","lat":35.63215548,"lon":139.58610878},{"name":"野川地域センター","province":"東京都","city":"狛江市","address":"東京都狛江市西野川1丁目6-9","lat":35.64608091,"lon":139.57550046},{"name":"狛江市役所","province":"東京都","city":"狛江市","address":"東京都狛江市和泉本町1丁目1-5","lat":35.63491314,"lon":139.57873418},{"name":"上和泉地域センター","province":"東京都","city":"狛江市","address":"東京都狛江市和泉本町4丁目7-51","lat":35.64522822,"lon":139.5679874},{"name":"南部地域センター","province":"東京都","city":"狛江市","address":"東京都狛江市猪方4丁目11-1","lat":35.6233737,"lon":139.57983535},{"name":"岩戸地域センター","province":"東京都","city":"狛江市","address":"東京都狛江市岩戸南2丁目2-5","lat":35.63215548,"lon":139.58610878},{"name":"野川地域センター","province":"東京都","city":"狛江市","address":"東京都狛江市西野川1丁目6-9","lat":35.64608091,"lon":139.57550046},{"name":"狛江市役所","province":"東京都","city":"狛江市","address":"東京都狛江市和泉本町1丁目1-5","lat":35.63491314,"lon":139.57873418},{"name":"上和泉地域センター","province":"東京都","city":"狛江市","address":"東京都狛江市和泉本町4丁目7-51","lat":35.64522822,"lon":139.5679874},{"name":"南部地域センター","province":"東京都","city":"狛江市","address":"東京都狛江市猪方4丁目11-1","lat":35.6233737,"lon":139.57983535},{"name":"岩戸地域センター","province":"東京都","city":"狛江市","address":"東京都狛江市岩戸南2丁目2-5","lat":35.63215548,"lon":139.58610878},{"name":"野川地域センター","province":"東京都","city":"狛江市","address":"東京都狛江市西野川1丁目6-9","lat":35.64608091,"lon":139.57550046},{"name":"狛江市役所","province":"東京都","city":"狛江市","address":"東京都狛江市和泉本町1丁目1-5","lat":35.63491314,"lon":139.57873418},{"name":"上和泉地域センター","province":"東京都","city":"狛江市","address":"東京都狛江市和泉本町4丁目7-51","lat":35.64522822,"lon":139.5679874},{"name":"南部地域センター","province":"東京都","city":"狛江市","address":"東京都狛江市猪方4丁目11-1","lat":35.6233737,"lon":139.57983535},{"name":"岩戸地域センター","province":"東京都","city":"狛江市","address":"東京都狛江市岩戸南2丁目2-5","lat":35.63215548,"lon":139.58610878},{"name":"野川地域センター","province":"東京都","city":"狛江市","address":"東京都狛江市西野川1丁目6-9","lat":35.64608091,"lon":139.57550046},{"name":"狛江市役所","province":"東京都","city":"狛江市","address":"東京都狛江市和泉本町1丁目1-5","lat":35.63491314,"lon":139.57873418},{"name":"上和泉地域センター","province":"東京都","city":"狛江市","address":"東京都狛江市和泉本町4丁目7-51","lat":35.64522822,"lon":139.5679874},{"name":"南部地域センター","province":"東京都","city":"狛江市","address":"東京都狛江市猪方4丁目11-1","lat":35.6233737,"lon":139.57983535},{"name":"岩戸地域センター","province":"東京都","city":"狛江市","address":"東京都狛江市岩戸南2丁目2-5","lat":35.63215548,"lon":139.58610878},{"name":"野川地域センター","province":"東京都","city":"狛江市","address":"東京都狛江市西野川1丁目6-9","lat":35.64608091,"lon":139.57550046},{"name":"狛江市役所","province":"東京都","city":"狛江市","address":"東京都狛江市和泉本町1丁目1-5","lat":35.63491314,"lon":139.57873418},{"name":"上和泉地域センター","province":"東京都","city":"狛江市","address":"東京都狛江市和泉本町4丁目7-51","lat":35.64522822,"lon":139.5679874},{"name":"南部地域センター","province":"東京都","city":"狛江市","address":"東京都狛江市猪方4丁目11-1","lat":35.6233737,"lon":139.57983535},{"name":"岩戸地域センター","province":"東京都","city":"狛江市","address":"東京都狛江市岩戸南2丁目2-5","lat":35.63215548,"lon":139.58610878},{"name":"野川地域センター","province":"東京都","city":"狛江市","address":"東京都狛江市西野川1丁目6-9","lat":35.64608091,"lon":139.57550046},{"name":"狛江市役所","province":"東京都","city":"狛江市","address":"東京都狛江市和泉本町1丁目1-5","lat":35.63491314,"lon":139.57873418},{"name":"上和泉地域センター","province":"東京都","city":"狛江市","address":"東京都狛江市和泉本町4丁目7-51","lat":35.64522822,"lon":139.5679874},{"name":"南部地域センター","province":"東京都","city":"狛江市","address":"東京都狛江市猪方4丁目11-1","lat":35.6233737,"lon":139.57983535},{"name":"岩戸地域センター","province":"東京都","city":"狛江市","address":"東京都狛江市岩戸南2丁目2-5","lat":35.63215548,"lon":139.58610878},{"name":"野川地域センター","province":"東京都","city":"狛江市","address":"東京都狛江市西野川1丁目6-9","lat":35.64608091,"lon":139.57550046},{"name":"狛江市役所","province":"東京都","city":"狛江市","address":"東京都狛江市和泉本町1丁目1-5","lat":35.63491314,"lon":139.57873418},{"name":"上和泉地域センター","province":"東京都","city":"狛江市","address":"東京都狛江市和泉本町4丁目7-51","lat":35.64522822,"lon":139.5679874},{"name":"南部地域センター","province":"東京都","city":"狛江市","address":"東京都狛江市猪方4丁目11-1","lat":35.6233737,"lon":139.57983535},{"name":"岩戸地域センター","province":"東京都","city":"狛江市","address":"東京都狛江市岩戸南2丁目2-5","lat":35.63215548,"lon":139.58610878},{"name":"野川地域センター","province":"東京都","city":"狛江市","address":"東京都狛江市西野川1丁目6-9","lat":35.64608091,"lon":139.57550046},{"name":"狛江市役所","province":"東京都","city":"狛江市","address":"東京都狛江市和泉本町1丁目1-5","lat":35.63491314,"lon":139.57873418},{"name":"上和泉地域センター","province":"東京都","city":"狛江市","address":"東京都狛江市和泉本町4丁目7-51","lat":35.64522822,"lon":139.5679874},{"name":"南部地域センター","province":"東京都","city":"狛江市","address":"東京都狛江市猪方4丁目11-1","lat":35.6233737,"lon":139.57983535},{"name":"岩戸地域センター","province":"東京都","city":"狛江市","address":"東京都狛江市岩戸南2丁目2-5","lat":35.63215548,"lon":139.58610878},{"name":"野川地域センター","province":"東京都","city":"狛江市","address":"東京都狛江市西野川1丁目6-9","lat":35.64608091,"lon":139.57550046},{"name":"狛江市役所","province":"東京都","city":"狛江市","address":"東京都狛江市和泉本町1丁目1-5","lat":35.63491314,"lon":139.57873418},{"name":"上和泉地域センター","province":"東京都","city":"狛江市","address":"東京都狛江市和泉本町4丁目7-51","lat":35.64522822,"lon":139.5679874},{"name":"南部地域センター","province":"東京都","city":"狛江市","address":"東京都狛江市猪方4丁目11-1","lat":35.6233737,"lon":139.57983535},{"name":"岩戸地域センター","province":"東京都","city":"狛江市","address":"東京都狛江市岩戸南2丁目2-5","lat":35.63215548,"lon":139.58610878},{"name":"野川地域センター","province":"東京都","city":"狛江市","address":"東京都狛江市西野川1丁目6-9","lat":35.64608091,"lon":139.57550046},{"name":"狛江市役所","province":"東京都","city":"狛江市","address":"東京都狛江市和泉本町1丁目1-5","lat":35.63491314,"lon":139.57873418},{"name":"上和泉地域センター","province":"東京都","city":"狛江市","address":"東京都狛江市和泉本町4丁目7-51","lat":35.64522822,"lon":139.5679874},{"name":"南部地域センター","province":"東京都","city":"狛江市","address":"東京都狛江市猪方4丁目11-1","lat":35.6233737,"lon":139.57983535},{"name":"岩戸地域センター","province":"東京都","city":"狛江市","address":"東京都狛江市岩戸南2丁目2-5","lat":35.63215548,"lon":139.58610878},{"name":"野川地域センター","province":"東京都","city":"狛江市","address":"東京都狛江市西野川1丁目6-9","lat":35.64608091,"lon":139.57550046},{"name":"狛江市役所","province":"東京都","city":"狛江市","address":"東京都狛江市和泉本町1丁目1-5","lat":35.63491314,"lon":139.57873418},{"name":"上和泉地域センター","province":"東京都","city":"狛江市","address":"東京都狛江市和泉本町4丁目7-51","lat":35.64522822,"lon":139.5679874},{"name":"南部地域センター","province":"東京都","city":"狛江市","address":"東京都狛江市猪方4丁目11-1","lat":35.6233737,"lon":139.57983535},{"name":"岩戸地域センター","province":"東京都","city":"狛江市","address":"東京都狛江市岩戸南2丁目2-5","lat":35.63215548,"lon":139.58610878},{"name":"野川地域センター","province":"東京都","city":"狛江市","address":"東京都狛江市西野川1丁目6-9","lat":35.64608091,"lon":139.57550046},{"name":"狛江市役所","province":"東京都","city":"狛江市","address":"東京都狛江市和泉本町1丁目1-5","lat":35.63491314,"lon":139.57873418},{"name":"上和泉地域センター","province":"東京都","city":"狛江市","address":"東京都狛江市和泉本町4丁目7-51","lat":35.64522822,"lon":139.5679874},{"name":"南部地域センター","province":"東京都","city":"狛江市","address":"東京都狛江市猪方4丁目11-1","lat":35.6233737,"lon":139.57983535},{"name":"岩戸地域センター","province":"東京都","city":"狛江市","address":"東京都狛江市岩戸南2丁目2-5","lat":35.63215548,"lon":139.58610878},{"name":"野川地域センター","province":"東京都","city":"狛江市","address":"東京都狛江市西野川1丁目6-9","lat":35.64608091,"lon":139.57550046},{"name":"狛江市役所","province":"東京都","city":"狛江市","address":"東京都狛江市和泉本町1丁目1-5","lat":35.63491314,"lon":139.57873418},{"name":"上和泉地域センター","province":"東京都","city":"狛江市","address":"東京都狛江市和泉本町4丁目7-51","lat":35.64522822,"lon":139.5679874},{"name":"南部地域センター","province":"東京都","city":"狛江市","address":"東京都狛江市猪方4丁目11-1","lat":35.6233737,"lon":139.57983535},{"name":"岩戸地域センター","province":"東京都","city":"狛江市","address":"東京都狛江市岩戸南2丁目2-5","lat":35.63215548,"lon":139.58610878},{"name":"野川地域センター","province":"東京都","city":"狛江市","address":"東京都狛江市西野川1丁目6-9","lat":35.64608091,"lon":139.57550046},{"name":"狛江市役所","province":"東京都","city":"狛江市","address":"東京都狛江市和泉本町1丁目1-5","lat":35.63491314,"lon":139.57873418},{"name":"上和泉地域センター","province":"東京都","city":"狛江市","address":"東京都狛江市和泉本町4丁目7-51","lat":35.64522822,"lon":139.5679874},{"name":"南部地域センター","province":"東京都","city":"狛江市","address":"東京都狛江市猪方4丁目11-1","lat":35.6233737,"lon":139.57983535},{"name":"岩戸地域センター","province":"東京都","city":"狛江市","address":"東京都狛江市岩戸南2丁目2-5","lat":35.63215548,"lon":139.58610878},{"name":"野川地域センター","province":"東京都","city":"狛江市","address":"東京都狛江市西野川1丁目6-9","lat":35.64608091,"lon":139.57550046},{"name":"狛江市役所","province":"東京都","city":"狛江市","address":"東京都狛江市和泉本町1丁目1-5","lat":35.63491314,"lon":139.57873418},{"name":"上和泉地域センター","province":"東京都","city":"狛江市","address":"東京都狛江市和泉本町4丁目7-51","lat":35.64522822,"lon":139.5679874},{"name":"南部地域センター","province":"東京都","city":"狛江市","address":"東京都狛江市猪方4丁目11-1","lat":35.6233737,"lon":139.57983535},{"name":"岩戸地域センター","province":"東京都","city":"狛江市","address":"東京都狛江市岩戸南2丁目2-5","lat":35.63215548,"lon":139.58610878},{"name":"野川地域センター","province":"東京都","city":"狛江市","address":"東京都狛江市西野川1丁目6-9","lat":35.64608091,"lon":139.57550046},{"name":"狛江市役所","province":"東京都","city":"狛江市","address":"東京都狛江市和泉本町1丁目1-5","lat":35.63491314,"lon":139.57873418},{"name":"上和泉地域センター","province":"東京都","city":"狛江市","address":"東京都狛江市和泉本町4丁目7-51","lat":35.64522822,"lon":139.5679874},{"name":"南部地域センター","province":"東京都","city":"狛江市","address":"東京都狛江市猪方4丁目11-1","lat":35.6233737,"lon":139.57983535},{"name":"岩戸地域センター","province":"東京都","city":"狛江市","address":"東京都狛江市岩戸南2丁目2-5","lat":35.63215548,"lon":139.58610878},{"name":"野川地域センター","province":"東京都","city":"狛江市","address":"東京都狛江市西野川1丁目6-9","lat":35.64608091,"lon":139.57550046},{"name":"狛江市役所","province":"東京都","city":"狛江市","address":"東京都狛江市和泉本町1丁目1-5","lat":35.63491314,"lon":139.57873418},{"name":"上和泉地域センター","province":"東京都","city":"狛江市","address":"東京都狛江市和泉本町4丁目7-51","lat":35.64522822,"lon":139.5679874},{"name":"南部地域センター","province":"東京都","city":"狛江市","address":"東京都狛江市猪方4丁目11-1","lat":35.6233737,"lon":139.57983535},{"name":"岩戸地域センター","province":"東京都","city":"狛江市","address":"東京都狛江市岩戸南2丁目2-5","lat":35.63215548,"lon":139.58610878},{"name":"野川地域センター","province":"東京都","city":"狛江市","address":"東京都狛江市西野川1丁目6-9","lat":35.64608091,"lon":139.57550046},{"name":"狛江市役所","province":"東京都","city":"狛江市","address":"東京都狛江市和泉本町1丁目1-5","lat":35.63491314,"lon":139.57873418},{"name":"上和泉地域センター","province":"東京都","city":"狛江市","address":"東京都狛江市和泉本町4丁目7-51","lat":35.64522822,"lon":139.5679874},{"name":"南部地域センター","province":"東京都","city":"狛江市","address":"東京都狛江市猪方4丁目11-1","lat":35.6233737,"lon":139.57983535},{"name":"岩戸地域センター","province":"東京都","city":"狛江市","address":"東京都狛江市岩戸南2丁目2-5","lat":35.63215548,"lon":139.58610878},{"name":"野川地域センター","province":"東京都","city":"狛江市","address":"東京都狛江市西野川1丁目6-9","lat":35.64608091,"lon":139.57550046},{"name":"狛江市役所","province":"東京都","city":"狛江市","address":"東京都狛江市和泉本町1丁目1-5","lat":35.63491314,"lon":139.57873418},{"name":"上和泉地域センター","province":"東京都","city":"狛江市","address":"東京都狛江市和泉本町4丁目7-51","lat":35.64522822,"lon":139.5679874},{"name":"南部地域センター","province":"東京都","city":"狛江市","address":"東京都狛江市猪方4丁目11-1","lat":35.6233737,"lon":139.57983535},{"name":"岩戸地域センター","province":"東京都","city":"狛江市","address":"東京都狛江市岩戸南2丁目2-5","lat":35.63215548,"lon":139.58610878},{"name":"野川地域センター","province":"東京都","city":"狛江市","address":"東京都狛江市西野川1丁目6-9","lat":35.64608091,"lon":139.57550046},{"name":"狛江市役所","province":"東京都","city":"狛江市","address":"東京都狛江市和泉本町1丁目1-5","lat":35.63491314,"lon":139.57873418},{"name":"上和泉地域センター","province":"東京都","city":"狛江市","address":"東京都狛江市和泉本町4丁目7-51","lat":35.64522822,"lon":139.5679874},{"name":"南部地域センター","province":"東京都","city":"狛江市","address":"東京都狛江市猪方4丁目11-1","lat":35.6233737,"lon":139.57983535},{"name":"岩戸地域センター","province":"東京都","city":"狛江市","address":"東京都狛江市岩戸南2丁目2-5","lat":35.63215548,"lon":139.58610878},{"name":"野川地域センター","province":"東京都","city":"狛江市","address":"東京都狛江市西野川1丁目6-9","lat":35.64608091,"lon":139.57550046},{"name":"狛江市役所","province":"東京都","city":"狛江市","address":"東京都狛江市和泉本町1丁目1-5","lat":35.63491314,"lon":139.57873418},{"name":"上和泉地域センター","province":"東京都","city":"狛江市","address":"東京都狛江市和泉本町4丁目7-51","lat":35.64522822,"lon":139.5679874},{"name":"南部地域センター","province":"東京都","city":"狛江市","address":"東京都狛江市猪方4丁目11-1","lat":35.6233737,"lon":139.57983535},{"name":"岩戸地域センター","province":"東京都","city":"狛江市","address":"東京都狛江市岩戸南2丁目2-5","lat":35.63215548,"lon":139.58610878},{"name":"野川地域センター","province":"東京都","city":"狛江市","address":"東京都狛江市西野川1丁目6-9","lat":35.64608091,"lon":139.57550046},{"name":"狛江市役所","province":"東京都","city":"狛江市","address":"東京都狛江市和泉本町1丁目1-5","lat":35.63491314,"lon":139.57873418},{"name":"上和泉地域センター","province":"東京都","city":"狛江市","address":"東京都狛江市和泉本町4丁目7-51","lat":35.64522822,"lon":139.5679874},{"name":"南部地域センター","province":"東京都","city":"狛江市","address":"東京都狛江市猪方4丁目11-1","lat":35.6233737,"lon":139.57983535},{"name":"岩戸地域センター","province":"東京都","city":"狛江市","address":"東京都狛江市岩戸南2丁目2-5","lat":35.63215548,"lon":139.58610878},{"name":"野川地域センター","province":"東京都","city":"狛江市","address":"東京都狛江市西野川1丁目6-9","lat":35.64608091,"lon":139.57550046},{"name":"狛江市役所","province":"東京都","city":"狛江市","address":"東京都狛江市和泉本町1丁目1-5","lat":35.63491314,"lon":139.57873418},{"name":"上和泉地域センター","province":"東京都","city":"狛江市","address":"東京都狛江市和泉本町4丁目7-51","lat":35.64522822,"lon":139.5679874},{"name":"南部地域センター","province":"東京都","city":"狛江市","address":"東京都狛江市猪方4丁目11-1","lat":35.6233737,"lon":139.57983535},{"name":"岩戸地域センター","province":"東京都","city":"狛江市","address":"東京都狛江市岩戸南2丁目2-5","lat":35.63215548,"lon":139.58610878},{"name":"野川地域センター","province":"東京都","city":"狛江市","address":"東京都狛江市西野川1丁目6-9","lat":35.64608091,"lon":139.57550046},{"name":"狛江市役所","province":"東京都","city":"狛江市","address":"東京都狛江市和泉本町1丁目1-5","lat":35.63491314,"lon":139.57873418},{"name":"上和泉地域センター","province":"東京都","city":"狛江市","address":"東京都狛江市和泉本町4丁目7-51","lat":35.64522822,"lon":139.5679874},{"name":"南部地域センター","province":"東京都","city":"狛江市","address":"東京都狛江市猪方4丁目11-1","lat":35.6233737,"lon":139.57983535},{"name":"岩戸地域センター","province":"東京都","city":"狛江市","address":"東京都狛江市岩戸南2丁目2-5","lat":35.63215548,"lon":139.58610878},{"name":"野川地域センター","province":"東京都","city":"狛江市","address":"東京都狛江市西野川1丁目6-9","lat":35.64608091,"lon":139.57550046},{"name":"狛江市役所","province":"東京都","city":"狛江市","address":"東京都狛江市和泉本町1丁目1-5","lat":35.63491314,"lon":139.57873418},{"name":"上和泉地域センター","province":"東京都","city":"狛江市","address":"東京都狛江市和泉本町4丁目7-51","lat":35.64522822,"lon":139.5679874},{"name":"南部地域センター","province":"東京都","city":"狛江市","address":"東京都狛江市猪方4丁目11-1","lat":35.6233737,"lon":139.57983535},{"name":"岩戸地域センター","province":"東京都","city":"狛江市","address":"東京都狛江市岩戸南2丁目2-5","lat":35.63215548,"lon":139.58610878},{"name":"野川地域センター","province":"東京都","city":"狛江市","address":"東京都狛江市西野川1丁目6-9","lat":35.64608091,"lon":139.57550046},{"name":"狛江市役所","province":"東京都","city":"狛江市","address":"東京都狛江市和泉本町1丁目1-5","lat":35.63491314,"lon":139.57873418},{"name":"上和泉地域センター","province":"東京都","city":"狛江市","address":"東京都狛江市和泉本町4丁目7-51","lat":35.64522822,"lon":139.5679874},{"name":"南部地域センター","province":"東京都","city":"狛江市","address":"東京都狛江市猪方4丁目11-1","lat":35.6233737,"lon":139.57983535},{"name":"岩戸地域センター","province":"東京都","city":"狛江市","address":"東京都狛江市岩戸南2丁目2-5","lat":35.63215548,"lon":139.58610878},{"name":"野川地域センター","province":"東京都","city":"狛江市","address":"東京都狛江市西野川1丁目6-9","lat":35.64608091,"lon":139.57550046},{"name":"狛江市役所","province":"東京都","city":"狛江市","address":"東京都狛江市和泉本町1丁目1-5","lat":35.63491314,"lon":139.57873418},{"name":"上和泉地域センター","province":"東京都","city":"狛江市","address":"東京都狛江市和泉本町4丁目7-51","lat":35.64522822,"lon":139.5679874},{"name":"南部地域センター","province":"東京都","city":"狛江市","address":"東京都狛江市猪方4丁目11-1","lat":35.6233737,"lon":139.57983535},{"name":"岩戸地域センター","province":"東京都","city":"狛江市","address":"東京都狛江市岩戸南2丁目2-5","lat":35.63215548,"lon":139.58610878},{"name":"野川地域センター","province":"東京都","city":"狛江市","address":"東京都狛江市西野川1丁目6-9","lat":35.64608091,"lon":139.57550046}]}