{"keyword":"自転車","data":[{"name":"オダクル狛江第1","province":"東京都","city":"狛江市","address":"東京都狛江市和泉本町1丁目2","lat":35.63414941,"lon":139.57939809},{"name":"オダクル狛江第2","province":"東京都","city":"狛江市","address":"東京都狛江市元和泉1丁目11","lat":35.63119715,"lon":139.5759071},{"name":"オダクルマルシェ狛江","province":"東京都","city":"狛江市","address":"東京都狛江市元和泉1丁目1","lat":35.63360228,"lon":139.5785899},{"name":"狛江駅北口自転車駐車場","province":"東京都","city":"狛江市","address":"東京都狛江市元和泉1丁目3","lat":35.6328524,"lon":139.57728177},{"name":"狛江駅南口第１自転車等駐車場","province":"東京都","city":"狛江市","address":"東京都狛江市東和泉1丁目17","lat":35.63206089,"lon":139.57744019},{"name":"オダクル喜多見店舗","province":"東京都","city":"狛江市","address":"東京都狛江市岩戸北2丁目20","lat":35.63603812,"lon":139.58530293},{"name":"オダクル喜多見第2","province":"東京都","city":"狛江市","address":"東京都狛江市岩戸北1丁目24","lat":35.63600755,"lon":139.58455857},{"name":"東都サイクルパーク喜多見第１","province":"東京都","city":"狛江市","address":"東京都狛江市岩戸北4丁目6","lat":35.6359937,"lon":139.58585012},{"name":"小川園宝島駐輪場","province":"東京都","city":"狛江市","address":"東京都狛江市岩戸北4丁目2","lat":35.63457449,"lon":139.5856697},{"name":"オダクル和泉多摩川第1","province":"東京都","city":"狛江市","address":"東京都狛江市東和泉4丁目1","lat":35.62800613,"lon":139.57366052},{"name":"オダクル和泉多摩川第2","province":"東京都","city":"狛江市","address":"東京都狛江市東和泉4丁目6","lat":35.62651476,"lon":139.57243861},{"name":"中和泉一丁目自転車置場","province":"東京都","city":"狛江市","address":"東京都狛江市中和泉1丁目25","lat":35.63396875,"lon":139.57337644},{"name":"和泉多摩川自転車置場（高架下）","province":"東京都","city":"狛江市","address":"東京都狛江市東和泉4丁目8","lat":35.62664253,"lon":139.57138318},{"name":"オダクル和泉多摩川東口","province":"東京都","city":"狛江市","address":"東京都狛江市東和泉4丁目2","lat":35.62754789,"lon":139.57372724},{"name":"狛江駅南口第2自転車駐車場","province":"東京都","city":"狛江市","address":"東京都狛江市東和泉1丁目20","lat":35.63166375,"lon":139.57751522},{"name":"東都サイクルパーク狛江駅前","province":"東京都","city":"狛江市","address":"東京都狛江市東和泉1丁目14","lat":35.63284132,"lon":139.57858999},{"name":"東都サイクルパーク和泉多摩川","province":"東京都","city":"狛江市","address":"東京都狛江市東和泉3丁目1","lat":35.62838383,"lon":139.57500476}]}