{"keyword":"館","data":[{"name":"岩戸児童センター","province":"東京都","city":"狛江市","address":"狛江市岩戸南3-15-1","lat":35.629103,"lon":139.587948},{"name":"和泉児童館","province":"東京都","city":"狛江市","address":"狛江市中和泉3-12-6","lat":35.636863,"lon":139.570504},{"name":"中央図書館","province":"東京都","city":"狛江市","address":"東京都狛江市和泉本町1丁目1-5","lat":35.63491314,"lon":139.57873418},{"name":"西河原公民館図書館","province":"東京都","city":"狛江市","address":"東京都狛江市元和泉2丁目35-1","lat":35.6333052,"lon":139.56761624},{"name":"野川地域センター図書館","province":"東京都","city":"狛江市","address":"東京都狛江市西野川1丁目6-9","lat":35.64608091,"lon":139.57550046},{"name":"上和泉地域センター図書館","province":"東京都","city":"狛江市","address":"東京都狛江市和泉本町4丁目7-51","lat":35.64522822,"lon":139.5679874},{"name":"岩戸地域センター図書室","province":"東京都","city":"狛江市","address":"東京都狛江市岩戸南2丁目2-5","lat":35.63215548,"lon":139.58610878},{"name":"南部地域センター図書室","province":"東京都","city":"狛江市","address":"東京都狛江市猪方4丁目11-1","lat":35.6233737,"lon":139.57983535},{"name":"北部児童館","province":"東京都","city":"狛江市","address":"狛江市和泉本町3-31-19","lat":35.64188,"lon":139.57559},{"name":"岩戸児童センター","province":"東京都","city":"狛江市","address":"狛江市岩戸南3-15-1","lat":35.62909,"lon":139.58789},{"name":"和泉児童館","province":"東京都","city":"狛江市","address":"狛江市中和泉3-12-6","lat":35.63688,"lon":139.57047},{"name":"狛江市立北部児童館","province":"東京都","city":"狛江市","address":"狛江市和泉本町3-31-19","lat":35.64188,"lon":139.57559},{"name":"狛江市立北部児童館","province":"東京都","city":"狛江市","address":"狛江市和泉本町3-31-19","lat":35.642016,"lon":139.575277},{"name":"＊?狛江市立中央図書館","province":"東京都","city":"狛江市","address":"狛江市和泉本町1-1-5","lat":35.634887,"lon":139.578748}]}