{"keyword":"みどころ","data":[{"name":"太宰治展示室　三鷹の此の小さい家","province":"東京都","city":"三鷹市","address":"三鷹市下連雀三丁目35-1コラル5階","lat":35.70161223,"lon":139.5607843},{"name":"柴田勝家兜埋納伝承地","province":"東京都","city":"三鷹市","address":"三鷹市新川三丁目20-17","lat":35.67770315,"lon":139.5701195},{"name":"国立天文台","province":"東京都","city":"三鷹市","address":"三鷹市大沢二丁目21-1","lat":35.67518215,"lon":139.5381403},{"name":"三鷹市大沢の里水車経営農家","province":"東京都","city":"三鷹市","address":"三鷹市大沢六丁目10-15","lat":35.67736987,"lon":139.5302749},{"name":"石造庚申供養塔（上連雀）","province":"東京都","city":"三鷹市","address":"三鷹市上連雀一丁目2-1欅橋たもと","lat":35.7036095,"lon":139.5586854},{"name":"石造庚申供養塔（中原）","province":"東京都","city":"三鷹市","address":"三鷹市中原四丁目16-27","lat":35.66920263,"lon":139.5688376},{"name":"柴田勝重墓","province":"東京都","city":"三鷹市","address":"三鷹市新川四丁目4春清寺墓地内","lat":35.66981767,"lon":139.5731482},{"name":"鷹場標石（市役所）","province":"東京都","city":"三鷹市","address":"三鷹市野崎一丁目1-1三鷹市役所市民センター敷地内","lat":35.68279984,"lon":139.5599866},{"name":"柴田家家碑","province":"東京都","city":"三鷹市","address":"三鷹市新川四丁目4春清寺墓地内","lat":35.66981767,"lon":139.5731482},{"name":"三鷹市芸術文化センター","province":"東京都","city":"三鷹市","address":"三鷹市上連雀六丁目12-14","lat":35.6928777,"lon":139.5581929},{"name":"三鷹市公会堂","province":"東京都","city":"三鷹市","address":"三鷹市野崎一丁目1-1","lat":35.68325975,"lon":139.559307},{"name":"太宰治文学サロン","province":"東京都","city":"三鷹市","address":"三鷹市下連雀三丁目16-14グランジャルダン三鷹1階","lat":35.70011498,"lon":139.5624402},{"name":"三鷹市美術ギャラリー","province":"東京都","city":"三鷹市","address":"三鷹市下連雀三丁目35-1コラル5階","lat":35.70164277,"lon":139.5607543},{"name":"井の頭恩賜公園（都立）","province":"東京都","city":"三鷹市","address":"三鷹市井の頭四丁目1番他(案内所:武蔵野市御殿山一丁目18-31)","lat":35.69974133,"lon":139.5768359},{"name":"井の頭恩賜公園西園（都立）","province":"東京都","city":"三鷹市","address":"三鷹市下連雀一丁目1番(案内所:武蔵野市御殿山一丁目18-31)","lat":35.69759243,"lon":139.5709805},{"name":"野川公園（都立）","province":"東京都","city":"三鷹市","address":"三鷹市大沢二・三・六丁目、調布市野水、小金井市東町地内(管理所:三鷹市大沢六丁目4-1)","lat":35.67978048,"lon":139.5257792},{"name":"堀合遊歩道","province":"東京都","city":"三鷹市","address":"三鷹市上連雀一丁目地内","lat":35.70291144,"lon":139.5521051},{"name":"新川天神山青少年広場","province":"東京都","city":"三鷹市","address":"三鷹市新川二丁目5-38","lat":35.67357229,"lon":139.5754858},{"name":"連雀中央公園","province":"東京都","city":"三鷹市","address":"三鷹市上連雀六丁目14-1","lat":35.69168682,"lon":139.5580659},{"name":"三鷹台児童公園","province":"東京都","city":"三鷹市","address":"三鷹市井の頭一丁目3-26","lat":35.68977487,"lon":139.591713},{"name":"仙川平和公園","province":"東京都","city":"三鷹市","address":"三鷹市新川六丁目7-1","lat":35.67982438,"lon":139.5688212},{"name":"牟礼の里公園","province":"東京都","city":"三鷹市","address":"三鷹市牟礼三丁目7-7","lat":35.68888169,"lon":139.5818248},{"name":"丸池公園（丸池の里）","province":"東京都","city":"三鷹市","address":"三鷹市新川五丁目1-8","lat":35.67720872,"lon":139.5701292},{"name":"大沢の里水田","province":"東京都","city":"三鷹市","address":"三鷹市大沢二丁目17番","lat":35.67801981,"lon":139.5308808},{"name":"大沢の里わさび田","province":"東京都","city":"三鷹市","address":"三鷹市大沢二丁目17番","lat":35.67812281,"lon":139.5313128},{"name":"大沢の里はけの道","province":"東京都","city":"三鷹市","address":"三鷹市大沢二丁目地内","lat":35.67647701,"lon":139.5321308},{"name":"国分寺崖線","province":"東京都","city":"三鷹市","address":"三鷹市大沢四~六丁目地内","lat":35.67904671,"lon":139.5317897},{"name":"野川","province":"東京都","city":"三鷹市","address":"三鷹市大沢四~六丁目地内","lat":35.67889669,"lon":139.5304309},{"name":"神田川","province":"東京都","city":"三鷹市","address":"三鷹市井の頭一~三丁目地内","lat":35.69751675,"lon":139.5833964},{"name":"仙川","province":"東京都","city":"三鷹市","address":"東京都三鷹市上連雀4丁目","lat":35.69765788,"lon":139.55540593},{"name":"北野のけやき並木","province":"東京都","city":"三鷹市","address":"三鷹市北野一丁目9番","lat":35.68013482,"lon":139.5862137},{"name":"風の散歩道","province":"東京都","city":"三鷹市","address":"三鷹市下連雀一~三丁目","lat":35.70207475,"lon":139.5626221}]}