{"keyword":"スモッグ","data":[{"name":"(株)あさの","province":"東京都","city":"三鷹市","address":"東京都三鷹市井の頭2-8-2","lat":35.69087213,"lon":139.5871695},{"name":"東葬祭","province":"東京都","city":"三鷹市","address":"東京都三鷹市上連雀2-5-15","lat":35.69845921,"lon":139.5588899},{"name":"永 塚 葬 儀 社","province":"東京都","city":"三鷹市","address":"東京都三鷹市下連雀3-15-15","lat":35.70170535,"lon":139.5623266},{"name":"日典","province":"東京都","city":"三鷹市","address":"東京都三鷹市野崎2-5-5","lat":35.68333439,"lon":139.5491371},{"name":"(株)セレモア","province":"東京都","city":"三鷹市","address":"東京都三鷹市新川5-16-10","lat":35.67602549,"lon":139.5677882},{"name":"東京むさし農業協同組合メモリアルセンター","province":"東京都","city":"三鷹市","address":"東京都三鷹市新川6-35-26","lat":35.6831526,"lon":139.5632417},{"name":"奥野式典","province":"東京都","city":"三鷹市","address":"東京都三鷹市野崎2-20-12","lat":35.68348742,"lon":139.5452849},{"name":"(株)メモリード","province":"東京都","city":"三鷹市","address":"東京都三鷹市下連雀9-3-23","lat":35.68371495,"lon":139.5616056},{"name":"三鷹国際交流協会","province":"東京都","city":"三鷹市","address":"東京都三鷹市下連雀3-30-12","lat":35.698111,"lon":139.561273},{"name":"上連雀浄水所（西配水場）","province":"東京都","city":"三鷹市","address":"東京都三鷹市上連雀9丁目41-4","lat":35.68686727,"lon":139.55074561},{"name":"三鷹市立第一中学校校庭","province":"東京都","city":"三鷹市","address":"東京都三鷹市下連雀9丁目10-1","lat":35.68538706,"lon":139.55970316},{"name":"三鷹市立大沢第二グラウンドサッカー場","province":"東京都","city":"三鷹市","address":"東京都三鷹市大沢5丁目21","lat":35.67102985,"lon":139.53154793},{"name":"杏林大学医学部付属病院ヘリポート","province":"東京都","city":"三鷹市","address":"東京都三鷹市新川6丁目20-2","lat":35.67747976,"lon":139.56650561},{"name":"王子齋藤紙業(株)  三鷹営業所","province":"東京都","city":"三鷹市","address":"三鷹市大沢4-8-1","lat":35.669399,"lon":139.540192},{"name":"(有)梅田商店","province":"東京都","city":"三鷹市","address":"三鷹市新川3-15-11","lat":35.681786,"lon":139.570877},{"name":"(株)あさの","province":"東京都","city":"三鷹市","address":"東京都三鷹市井の頭2-8-2","lat":35.69087213,"lon":139.5871695},{"name":"東葬祭","province":"東京都","city":"三鷹市","address":"東京都三鷹市上連雀2-5-15","lat":35.69845921,"lon":139.5588899},{"name":"永 塚 葬 儀 社","province":"東京都","city":"三鷹市","address":"東京都三鷹市下連雀3-15-15","lat":35.70170535,"lon":139.5623266},{"name":"日典","province":"東京都","city":"三鷹市","address":"東京都三鷹市野崎2-5-5","lat":35.68333439,"lon":139.5491371},{"name":"(株)セレモア","province":"東京都","city":"三鷹市","address":"東京都三鷹市新川5-16-10","lat":35.67602549,"lon":139.5677882},{"name":"東京むさし農業協同組合メモリアルセンター","province":"東京都","city":"三鷹市","address":"東京都三鷹市新川6-35-26","lat":35.6831526,"lon":139.5632417},{"name":"奥野式典","province":"東京都","city":"三鷹市","address":"東京都三鷹市野崎2-20-12","lat":35.68348742,"lon":139.5452849},{"name":"(株)メモリード","province":"東京都","city":"三鷹市","address":"東京都三鷹市下連雀9-3-23","lat":35.68371495,"lon":139.5616056},{"name":"三鷹国際交流協会","province":"東京都","city":"三鷹市","address":"東京都三鷹市下連雀3-30-12","lat":35.698111,"lon":139.561273},{"name":"王子齋藤紙業(株)  三鷹営業所","province":"東京都","city":"三鷹市","address":"三鷹市大沢4-8-1","lat":35.669399,"lon":139.540192},{"name":"(有)梅田商店","province":"東京都","city":"三鷹市","address":"三鷹市新川3-15-11","lat":35.681786,"lon":139.570877},{"name":"(株)あさの","province":"東京都","city":"三鷹市","address":"東京都三鷹市井の頭2-8-2","lat":35.69087213,"lon":139.5871695},{"name":"東葬祭","province":"東京都","city":"三鷹市","address":"東京都三鷹市上連雀2-5-15","lat":35.69845921,"lon":139.5588899},{"name":"永 塚 葬 儀 社","province":"東京都","city":"三鷹市","address":"東京都三鷹市下連雀3-15-15","lat":35.70170535,"lon":139.5623266},{"name":"日典","province":"東京都","city":"三鷹市","address":"東京都三鷹市野崎2-5-5","lat":35.68333439,"lon":139.5491371},{"name":"(株)セレモア","province":"東京都","city":"三鷹市","address":"東京都三鷹市新川5-16-10","lat":35.67602549,"lon":139.5677882},{"name":"東京むさし農業協同組合メモリアルセンター","province":"東京都","city":"三鷹市","address":"東京都三鷹市新川6-35-26","lat":35.6831526,"lon":139.5632417},{"name":"奥野式典","province":"東京都","city":"三鷹市","address":"東京都三鷹市野崎2-20-12","lat":35.68348742,"lon":139.5452849},{"name":"(株)メモリード","province":"東京都","city":"三鷹市","address":"東京都三鷹市下連雀9-3-23","lat":35.68371495,"lon":139.5616056},{"name":"三鷹国際交流協会","province":"東京都","city":"三鷹市","address":"東京都三鷹市下連雀3-30-12","lat":35.698111,"lon":139.561273},{"name":"王子齋藤紙業(株)  三鷹営業所","province":"東京都","city":"三鷹市","address":"三鷹市大沢4-8-1","lat":35.669399,"lon":139.540192},{"name":"(有)梅田商店","province":"東京都","city":"三鷹市","address":"三鷹市新川3-15-11","lat":35.681786,"lon":139.570877},{"name":"(株)あさの","province":"東京都","city":"三鷹市","address":"東京都三鷹市井の頭2-8-2","lat":35.69087213,"lon":139.5871695},{"name":"東葬祭","province":"東京都","city":"三鷹市","address":"東京都三鷹市上連雀2-5-15","lat":35.69845921,"lon":139.5588899},{"name":"永 塚 葬 儀 社","province":"東京都","city":"三鷹市","address":"東京都三鷹市下連雀3-15-15","lat":35.70170535,"lon":139.5623266},{"name":"日典","province":"東京都","city":"三鷹市","address":"東京都三鷹市野崎2-5-5","lat":35.68333439,"lon":139.5491371},{"name":"(株)セレモア","province":"東京都","city":"三鷹市","address":"東京都三鷹市新川5-16-10","lat":35.67602549,"lon":139.5677882},{"name":"東京むさし農業協同組合メモリアルセンター","province":"東京都","city":"三鷹市","address":"東京都三鷹市新川6-35-26","lat":35.6831526,"lon":139.5632417},{"name":"奥野式典","province":"東京都","city":"三鷹市","address":"東京都三鷹市野崎2-20-12","lat":35.68348742,"lon":139.5452849},{"name":"(株)メモリード","province":"東京都","city":"三鷹市","address":"東京都三鷹市下連雀9-3-23","lat":35.68371495,"lon":139.5616056},{"name":"三鷹国際交流協会","province":"東京都","city":"三鷹市","address":"東京都三鷹市下連雀3-30-12","lat":35.698111,"lon":139.561273},{"name":"王子齋藤紙業(株)  三鷹営業所","province":"東京都","city":"三鷹市","address":"三鷹市大沢4-8-1","lat":35.669399,"lon":139.540192},{"name":"(有)梅田商店","province":"東京都","city":"三鷹市","address":"三鷹市新川3-15-11","lat":35.681786,"lon":139.570877},{"name":"三鷹国際交流協会","province":"東京都","city":"三鷹市","address":"東京都三鷹市下連雀3-30-12","lat":35.698111,"lon":139.561273},{"name":"王子齋藤紙業(株)  三鷹営業所","province":"東京都","city":"三鷹市","address":"三鷹市大沢4-8-1","lat":35.669399,"lon":139.540192},{"name":"(有)梅田商店","province":"東京都","city":"三鷹市","address":"三鷹市新川3-15-11","lat":35.681786,"lon":139.570877},{"name":"三鷹国際交流協会","province":"東京都","city":"三鷹市","address":"東京都三鷹市下連雀3-30-12","lat":35.698111,"lon":139.561273},{"name":"王子齋藤紙業(株)  三鷹営業所","province":"東京都","city":"三鷹市","address":"三鷹市大沢4-8-1","lat":35.669399,"lon":139.540192},{"name":"(有)梅田商店","province":"東京都","city":"三鷹市","address":"三鷹市新川3-15-11","lat":35.681786,"lon":139.570877},{"name":"三鷹国際交流協会","province":"東京都","city":"三鷹市","address":"東京都三鷹市下連雀3-30-12","lat":35.698111,"lon":139.561273},{"name":"王子齋藤紙業(株)  三鷹営業所","province":"東京都","city":"三鷹市","address":"三鷹市大沢4-8-1","lat":35.669399,"lon":139.540192},{"name":"(有)梅田商店","province":"東京都","city":"三鷹市","address":"三鷹市新川3-15-11","lat":35.681786,"lon":139.570877},{"name":"三鷹国際交流協会","province":"東京都","city":"三鷹市","address":"東京都三鷹市下連雀3-30-12","lat":35.698111,"lon":139.561273},{"name":"王子齋藤紙業(株)  三鷹営業所","province":"東京都","city":"三鷹市","address":"三鷹市大沢4-8-1","lat":35.669399,"lon":139.540192},{"name":"(有)梅田商店","province":"東京都","city":"三鷹市","address":"三鷹市新川3-15-11","lat":35.681786,"lon":139.570877},{"name":"三鷹国際交流協会","province":"東京都","city":"三鷹市","address":"東京都三鷹市下連雀3-30-12","lat":35.698111,"lon":139.561273},{"name":"王子齋藤紙業(株)  三鷹営業所","province":"東京都","city":"三鷹市","address":"三鷹市大沢4-8-1","lat":35.669399,"lon":139.540192},{"name":"(有)梅田商店","province":"東京都","city":"三鷹市","address":"三鷹市新川3-15-11","lat":35.681786,"lon":139.570877},{"name":"三鷹国際交流協会","province":"東京都","city":"三鷹市","address":"東京都三鷹市下連雀3-30-12","lat":35.698111,"lon":139.561273},{"name":"王子齋藤紙業(株)  三鷹営業所","province":"東京都","city":"三鷹市","address":"三鷹市大沢4-8-1","lat":35.669399,"lon":139.540192},{"name":"(有)梅田商店","province":"東京都","city":"三鷹市","address":"三鷹市新川3-15-11","lat":35.681786,"lon":139.570877},{"name":"三鷹国際交流協会","province":"東京都","city":"三鷹市","address":"東京都三鷹市下連雀3-30-12","lat":35.698111,"lon":139.561273},{"name":"王子齋藤紙業(株)  三鷹営業所","province":"東京都","city":"三鷹市","address":"三鷹市大沢4-8-1","lat":35.669399,"lon":139.540192},{"name":"(有)梅田商店","province":"東京都","city":"三鷹市","address":"三鷹市新川3-15-11","lat":35.681786,"lon":139.570877},{"name":"三鷹国際交流協会","province":"東京都","city":"三鷹市","address":"東京都三鷹市下連雀3-30-12","lat":35.698111,"lon":139.561273},{"name":"王子齋藤紙業(株)  三鷹営業所","province":"東京都","city":"三鷹市","address":"三鷹市大沢4-8-1","lat":35.669399,"lon":139.540192},{"name":"(有)梅田商店","province":"東京都","city":"三鷹市","address":"三鷹市新川3-15-11","lat":35.681786,"lon":139.570877},{"name":"三鷹国際交流協会","province":"東京都","city":"三鷹市","address":"東京都三鷹市下連雀3-30-12","lat":35.698111,"lon":139.561273},{"name":"王子齋藤紙業(株)  三鷹営業所","province":"東京都","city":"三鷹市","address":"三鷹市大沢4-8-1","lat":35.669399,"lon":139.540192},{"name":"(有)梅田商店","province":"東京都","city":"三鷹市","address":"三鷹市新川3-15-11","lat":35.681786,"lon":139.570877},{"name":"三鷹国際交流協会","province":"東京都","city":"三鷹市","address":"東京都三鷹市下連雀3-30-12","lat":35.698111,"lon":139.561273},{"name":"王子齋藤紙業(株)  三鷹営業所","province":"東京都","city":"三鷹市","address":"三鷹市大沢4-8-1","lat":35.669399,"lon":139.540192},{"name":"(有)梅田商店","province":"東京都","city":"三鷹市","address":"三鷹市新川3-15-11","lat":35.681786,"lon":139.570877},{"name":"三鷹国際交流協会","province":"東京都","city":"三鷹市","address":"東京都三鷹市下連雀3-30-12","lat":35.698111,"lon":139.561273},{"name":"王子齋藤紙業(株)  三鷹営業所","province":"東京都","city":"三鷹市","address":"三鷹市大沢4-8-1","lat":35.669399,"lon":139.540192},{"name":"(有)梅田商店","province":"東京都","city":"三鷹市","address":"三鷹市新川3-15-11","lat":35.681786,"lon":139.570877},{"name":"三鷹国際交流協会","province":"東京都","city":"三鷹市","address":"東京都三鷹市下連雀3-30-12","lat":35.698111,"lon":139.561273},{"name":"王子齋藤紙業(株)  三鷹営業所","province":"東京都","city":"三鷹市","address":"三鷹市大沢4-8-1","lat":35.669399,"lon":139.540192},{"name":"(有)梅田商店","province":"東京都","city":"三鷹市","address":"三鷹市新川3-15-11","lat":35.681786,"lon":139.570877},{"name":"三鷹国際交流協会","province":"東京都","city":"三鷹市","address":"東京都三鷹市下連雀3-30-12","lat":35.698111,"lon":139.561273},{"name":"王子齋藤紙業(株)  三鷹営業所","province":"東京都","city":"三鷹市","address":"三鷹市大沢4-8-1","lat":35.669399,"lon":139.540192},{"name":"(有)梅田商店","province":"東京都","city":"三鷹市","address":"三鷹市新川3-15-11","lat":35.681786,"lon":139.570877},{"name":"三鷹国際交流協会","province":"東京都","city":"三鷹市","address":"東京都三鷹市下連雀3-30-12","lat":35.698111,"lon":139.561273},{"name":"王子齋藤紙業(株)  三鷹営業所","province":"東京都","city":"三鷹市","address":"三鷹市大沢4-8-1","lat":35.669399,"lon":139.540192},{"name":"(有)梅田商店","province":"東京都","city":"三鷹市","address":"三鷹市新川3-15-11","lat":35.681786,"lon":139.570877},{"name":"三鷹国際交流協会","province":"東京都","city":"三鷹市","address":"東京都三鷹市下連雀3-30-12","lat":35.698111,"lon":139.561273},{"name":"王子齋藤紙業(株)  三鷹営業所","province":"東京都","city":"三鷹市","address":"三鷹市大沢4-8-1","lat":35.669399,"lon":139.540192},{"name":"(有)梅田商店","province":"東京都","city":"三鷹市","address":"三鷹市新川3-15-11","lat":35.681786,"lon":139.570877},{"name":"三鷹国際交流協会","province":"東京都","city":"三鷹市","address":"東京都三鷹市下連雀3-30-12","lat":35.698111,"lon":139.561273},{"name":"王子齋藤紙業(株)  三鷹営業所","province":"東京都","city":"三鷹市","address":"三鷹市大沢4-8-1","lat":35.669399,"lon":139.540192},{"name":"(有)梅田商店","province":"東京都","city":"三鷹市","address":"三鷹市新川3-15-11","lat":35.681786,"lon":139.570877},{"name":"三鷹国際交流協会","province":"東京都","city":"三鷹市","address":"東京都三鷹市下連雀3-30-12","lat":35.698111,"lon":139.561273},{"name":"王子齋藤紙業(株)  三鷹営業所","province":"東京都","city":"三鷹市","address":"三鷹市大沢4-8-1","lat":35.669399,"lon":139.540192},{"name":"(有)梅田商店","province":"東京都","city":"三鷹市","address":"三鷹市新川3-15-11","lat":35.681786,"lon":139.570877},{"name":"三鷹国際交流協会","province":"東京都","city":"三鷹市","address":"東京都三鷹市下連雀3-30-12","lat":35.698111,"lon":139.561273},{"name":"王子齋藤紙業(株)  三鷹営業所","province":"東京都","city":"三鷹市","address":"三鷹市大沢4-8-1","lat":35.669399,"lon":139.540192},{"name":"(有)梅田商店","province":"東京都","city":"三鷹市","address":"三鷹市新川3-15-11","lat":35.681786,"lon":139.570877},{"name":"三鷹国際交流協会","province":"東京都","city":"三鷹市","address":"東京都三鷹市下連雀3-30-12","lat":35.698111,"lon":139.561273},{"name":"王子齋藤紙業(株)  三鷹営業所","province":"東京都","city":"三鷹市","address":"三鷹市大沢4-8-1","lat":35.669399,"lon":139.540192},{"name":"(有)梅田商店","province":"東京都","city":"三鷹市","address":"三鷹市新川3-15-11","lat":35.681786,"lon":139.570877},{"name":"三鷹国際交流協会","province":"東京都","city":"三鷹市","address":"東京都三鷹市下連雀3-30-12","lat":35.698111,"lon":139.561273},{"name":"王子齋藤紙業(株)  三鷹営業所","province":"東京都","city":"三鷹市","address":"三鷹市大沢4-8-1","lat":35.669399,"lon":139.540192},{"name":"(有)梅田商店","province":"東京都","city":"三鷹市","address":"三鷹市新川3-15-11","lat":35.681786,"lon":139.570877},{"name":"三鷹国際交流協会","province":"東京都","city":"三鷹市","address":"東京都三鷹市下連雀3-30-12","lat":35.698111,"lon":139.561273},{"name":"王子齋藤紙業(株)  三鷹営業所","province":"東京都","city":"三鷹市","address":"三鷹市大沢4-8-1","lat":35.669399,"lon":139.540192},{"name":"(有)梅田商店","province":"東京都","city":"三鷹市","address":"三鷹市新川3-15-11","lat":35.681786,"lon":139.570877},{"name":"三鷹国際交流協会","province":"東京都","city":"三鷹市","address":"東京都三鷹市下連雀3-30-12","lat":35.698111,"lon":139.561273},{"name":"王子齋藤紙業(株)  三鷹営業所","province":"東京都","city":"三鷹市","address":"三鷹市大沢4-8-1","lat":35.669399,"lon":139.540192},{"name":"(有)梅田商店","province":"東京都","city":"三鷹市","address":"三鷹市新川3-15-11","lat":35.681786,"lon":139.570877},{"name":"三鷹国際交流協会","province":"東京都","city":"三鷹市","address":"東京都三鷹市下連雀3-30-12","lat":35.698111,"lon":139.561273},{"name":"王子齋藤紙業(株)  三鷹営業所","province":"東京都","city":"三鷹市","address":"三鷹市大沢4-8-1","lat":35.669399,"lon":139.540192},{"name":"(有)梅田商店","province":"東京都","city":"三鷹市","address":"三鷹市新川3-15-11","lat":35.681786,"lon":139.570877},{"name":"三鷹国際交流協会","province":"東京都","city":"三鷹市","address":"東京都三鷹市下連雀3-30-12","lat":35.698111,"lon":139.561273},{"name":"王子齋藤紙業(株)  三鷹営業所","province":"東京都","city":"三鷹市","address":"三鷹市大沢4-8-1","lat":35.669399,"lon":139.540192},{"name":"(有)梅田商店","province":"東京都","city":"三鷹市","address":"三鷹市新川3-15-11","lat":35.681786,"lon":139.570877},{"name":"三鷹国際交流協会","province":"東京都","city":"三鷹市","address":"東京都三鷹市下連雀3-30-12","lat":35.698111,"lon":139.561273},{"name":"王子齋藤紙業(株)  三鷹営業所","province":"東京都","city":"三鷹市","address":"三鷹市大沢4-8-1","lat":35.669399,"lon":139.540192},{"name":"(有)梅田商店","province":"東京都","city":"三鷹市","address":"三鷹市新川3-15-11","lat":35.681786,"lon":139.570877},{"name":"三鷹国際交流協会","province":"東京都","city":"三鷹市","address":"東京都三鷹市下連雀3-30-12","lat":35.698111,"lon":139.561273},{"name":"王子齋藤紙業(株)  三鷹営業所","province":"東京都","city":"三鷹市","address":"三鷹市大沢4-8-1","lat":35.669399,"lon":139.540192},{"name":"(有)梅田商店","province":"東京都","city":"三鷹市","address":"三鷹市新川3-15-11","lat":35.681786,"lon":139.570877},{"name":"三鷹国際交流協会","province":"東京都","city":"三鷹市","address":"東京都三鷹市下連雀3-30-12","lat":35.698111,"lon":139.561273},{"name":"王子齋藤紙業(株)  三鷹営業所","province":"東京都","city":"三鷹市","address":"三鷹市大沢4-8-1","lat":35.669399,"lon":139.540192},{"name":"(有)梅田商店","province":"東京都","city":"三鷹市","address":"三鷹市新川3-15-11","lat":35.681786,"lon":139.570877},{"name":"三鷹国際交流協会","province":"東京都","city":"三鷹市","address":"東京都三鷹市下連雀3-30-12","lat":35.698111,"lon":139.561273},{"name":"王子齋藤紙業(株)  三鷹営業所","province":"東京都","city":"三鷹市","address":"三鷹市大沢4-8-1","lat":35.669399,"lon":139.540192},{"name":"(有)梅田商店","province":"東京都","city":"三鷹市","address":"三鷹市新川3-15-11","lat":35.681786,"lon":139.570877},{"name":"三鷹国際交流協会","province":"東京都","city":"三鷹市","address":"東京都三鷹市下連雀3-30-12","lat":35.698111,"lon":139.561273},{"name":"王子齋藤紙業(株)  三鷹営業所","province":"東京都","city":"三鷹市","address":"三鷹市大沢4-8-1","lat":35.669399,"lon":139.540192},{"name":"(有)梅田商店","province":"東京都","city":"三鷹市","address":"三鷹市新川3-15-11","lat":35.681786,"lon":139.570877},{"name":"三鷹国際交流協会","province":"東京都","city":"三鷹市","address":"東京都三鷹市下連雀3-30-12","lat":35.698111,"lon":139.561273},{"name":"王子齋藤紙業(株)  三鷹営業所","province":"東京都","city":"三鷹市","address":"三鷹市大沢4-8-1","lat":35.669399,"lon":139.540192},{"name":"(有)梅田商店","province":"東京都","city":"三鷹市","address":"三鷹市新川3-15-11","lat":35.681786,"lon":139.570877},{"name":"三鷹国際交流協会","province":"東京都","city":"三鷹市","address":"東京都三鷹市下連雀3-30-12","lat":35.698111,"lon":139.561273},{"name":"王子齋藤紙業(株)  三鷹営業所","province":"東京都","city":"三鷹市","address":"三鷹市大沢4-8-1","lat":35.669399,"lon":139.540192},{"name":"(有)梅田商店","province":"東京都","city":"三鷹市","address":"三鷹市新川3-15-11","lat":35.681786,"lon":139.570877},{"name":"三鷹国際交流協会","province":"東京都","city":"三鷹市","address":"東京都三鷹市下連雀3-30-12","lat":35.698111,"lon":139.561273},{"name":"王子齋藤紙業(株)  三鷹営業所","province":"東京都","city":"三鷹市","address":"三鷹市大沢4-8-1","lat":35.669399,"lon":139.540192},{"name":"(有)梅田商店","province":"東京都","city":"三鷹市","address":"三鷹市新川3-15-11","lat":35.681786,"lon":139.570877},{"name":"三鷹国際交流協会","province":"東京都","city":"三鷹市","address":"東京都三鷹市下連雀3-30-12","lat":35.698111,"lon":139.561273},{"name":"王子齋藤紙業(株)  三鷹営業所","province":"東京都","city":"三鷹市","address":"三鷹市大沢4-8-1","lat":35.669399,"lon":139.540192},{"name":"(有)梅田商店","province":"東京都","city":"三鷹市","address":"三鷹市新川3-15-11","lat":35.681786,"lon":139.570877},{"name":"三鷹国際交流協会","province":"東京都","city":"三鷹市","address":"東京都三鷹市下連雀3-30-12","lat":35.698111,"lon":139.561273},{"name":"王子齋藤紙業(株)  三鷹営業所","province":"東京都","city":"三鷹市","address":"三鷹市大沢4-8-1","lat":35.669399,"lon":139.540192},{"name":"(有)梅田商店","province":"東京都","city":"三鷹市","address":"三鷹市新川3-15-11","lat":35.681786,"lon":139.570877},{"name":"三鷹国際交流協会","province":"東京都","city":"三鷹市","address":"東京都三鷹市下連雀3-30-12","lat":35.698111,"lon":139.561273},{"name":"王子齋藤紙業(株)  三鷹営業所","province":"東京都","city":"三鷹市","address":"三鷹市大沢4-8-1","lat":35.669399,"lon":139.540192},{"name":"(有)梅田商店","province":"東京都","city":"三鷹市","address":"三鷹市新川3-15-11","lat":35.681786,"lon":139.570877},{"name":"三鷹国際交流協会","province":"東京都","city":"三鷹市","address":"東京都三鷹市下連雀3-30-12","lat":35.698111,"lon":139.561273},{"name":"王子齋藤紙業(株)  三鷹営業所","province":"東京都","city":"三鷹市","address":"三鷹市大沢4-8-1","lat":35.669399,"lon":139.540192},{"name":"(有)梅田商店","province":"東京都","city":"三鷹市","address":"三鷹市新川3-15-11","lat":35.681786,"lon":139.570877},{"name":"三鷹国際交流協会","province":"東京都","city":"三鷹市","address":"東京都三鷹市下連雀3-30-12","lat":35.698111,"lon":139.561273},{"name":"王子齋藤紙業(株)  三鷹営業所","province":"東京都","city":"三鷹市","address":"三鷹市大沢4-8-1","lat":35.669399,"lon":139.540192},{"name":"(有)梅田商店","province":"東京都","city":"三鷹市","address":"三鷹市新川3-15-11","lat":35.681786,"lon":139.570877},{"name":"三鷹国際交流協会","province":"東京都","city":"三鷹市","address":"東京都三鷹市下連雀3-30-12","lat":35.698111,"lon":139.561273},{"name":"王子齋藤紙業(株)  三鷹営業所","province":"東京都","city":"三鷹市","address":"三鷹市大沢4-8-1","lat":35.669399,"lon":139.540192},{"name":"(有)梅田商店","province":"東京都","city":"三鷹市","address":"三鷹市新川3-15-11","lat":35.681786,"lon":139.570877},{"name":"三鷹国際交流協会","province":"東京都","city":"三鷹市","address":"東京都三鷹市下連雀3-30-12","lat":35.698111,"lon":139.561273},{"name":"王子齋藤紙業(株)  三鷹営業所","province":"東京都","city":"三鷹市","address":"三鷹市大沢4-8-1","lat":35.669399,"lon":139.540192},{"name":"(有)梅田商店","province":"東京都","city":"三鷹市","address":"三鷹市新川3-15-11","lat":35.681786,"lon":139.570877},{"name":"三鷹国際交流協会","province":"東京都","city":"三鷹市","address":"東京都三鷹市下連雀3-30-12","lat":35.698111,"lon":139.561273},{"name":"王子齋藤紙業(株)  三鷹営業所","province":"東京都","city":"三鷹市","address":"三鷹市大沢4-8-1","lat":35.669399,"lon":139.540192},{"name":"(有)梅田商店","province":"東京都","city":"三鷹市","address":"三鷹市新川3-15-11","lat":35.681786,"lon":139.570877},{"name":"三鷹国際交流協会","province":"東京都","city":"三鷹市","address":"東京都三鷹市下連雀3-30-12","lat":35.698111,"lon":139.561273},{"name":"王子齋藤紙業(株)  三鷹営業所","province":"東京都","city":"三鷹市","address":"三鷹市大沢4-8-1","lat":35.669399,"lon":139.540192},{"name":"(有)梅田商店","province":"東京都","city":"三鷹市","address":"三鷹市新川3-15-11","lat":35.681786,"lon":139.570877},{"name":"三鷹国際交流協会","province":"東京都","city":"三鷹市","address":"東京都三鷹市下連雀3-30-12","lat":35.698111,"lon":139.561273},{"name":"王子齋藤紙業(株)  三鷹営業所","province":"東京都","city":"三鷹市","address":"三鷹市大沢4-8-1","lat":35.669399,"lon":139.540192},{"name":"(有)梅田商店","province":"東京都","city":"三鷹市","address":"三鷹市新川3-15-11","lat":35.681786,"lon":139.570877}]}