{"keyword":"一覧","data":[{"name":"西部図書館","province":"東京都","city":"三鷹市","address":"東京都三鷹市大沢2丁目6-47","lat":35.68096491,"lon":139.53580002},{"name":"芸術文化センター","province":"東京都","city":"三鷹市","address":"東京都三鷹市上連雀6丁目12-14","lat":35.69288347,"lon":139.55831695},{"name":"上連雀分庁舎","province":"東京都","city":"三鷹市","address":"東京都三鷹市上連雀8丁目3-10","lat":35.68484541,"lon":139.5577978},{"name":"三鷹図書館","province":"東京都","city":"三鷹市","address":"東京都三鷹市上連雀8丁目3-3","lat":35.68524815,"lon":139.55810887},{"name":"三鷹駅前図書館","province":"東京都","city":"三鷹市","address":"東京都三鷹市下連雀3丁目13-10","lat":35.69958836,"lon":139.56312736},{"name":"南部図書館","province":"東京都","city":"三鷹市","address":"東京都三鷹市新川5丁目14-16","lat":35.67524951,"lon":139.5685694},{"name":"三鷹市教育センター","province":"東京都","city":"三鷹市","address":"東京都三鷹市下連雀9丁目11-7","lat":35.68428441,"lon":139.56000595},{"name":"公会堂","province":"東京都","city":"三鷹市","address":"東京都三鷹市野崎1丁目1-1","lat":35.68351227,"lon":139.55959768},{"name":"公会堂さんさん館","province":"東京都","city":"三鷹市","address":"東京都三鷹市野崎1丁目1-1","lat":35.68351227,"lon":139.55959768},{"name":"三鷹市役所本庁舎","province":"東京都","city":"三鷹市","address":"東京都三鷹市野崎1丁目1-1","lat":35.68351227,"lon":139.55959768},{"name":"三鷹市役所第二庁舎","province":"東京都","city":"三鷹市","address":"東京都三鷹市野崎1丁目1-1","lat":35.68351227,"lon":139.55959768},{"name":"三鷹市役所第三庁舎","province":"東京都","city":"三鷹市","address":"東京都三鷹市野崎1丁目1-1","lat":35.68351227,"lon":139.55959768},{"name":"東部図書館","province":"東京都","city":"三鷹市","address":"東京都三鷹市牟礼5丁目8-16","lat":35.68269613,"lon":139.57895156},{"name":"三鷹ネットワーク大学","province":"東京都","city":"三鷹市","address":"東京都三鷹市下連雀3丁目24-3","lat":35.70182698,"lon":139.56212181}]}