{"keyword":"三鷹","data":[{"name":"三鷹駅前図書館","province":"東京都","city":"三鷹市","address":"三鷹市下連雀3-13-10","lat":35.699696,"lon":139.563095},{"name":"三鷹図書館","province":"東京都","city":"三鷹市","address":"三鷹市上連雀8-3-3","lat":35.685085,"lon":139.558121},{"name":"西部図書館","province":"東京都","city":"三鷹市","address":"三鷹市大沢2-6-47","lat":35.67728,"lon":139.528458},{"name":"東部図書館","province":"東京都","city":"三鷹市","address":"三鷹市牟礼5-8-16","lat":35.683567,"lon":139.577896},{"name":"南部図書館みんなみ","province":"東京都","city":"三鷹市","address":"三鷹市新川5-14-16","lat":35.675323,"lon":139.568542},{"name":"三鷹市女性交流室","province":"東京都","city":"三鷹市","address":"三鷹市下連雀3-30-12三鷹市中央通りタウンプラザ4階","lat":35.697933,"lon":139.561401},{"name":"生涯学習センター（三鷹中央防災公園・元気創造プラザ４階）","province":"東京都","city":"三鷹市","address":"三鷹市新川6-37-1","lat":35.68187,"lon":139.56218},{"name":"三鷹市西多世代交流センター","province":"東京都","city":"三鷹市","address":"三鷹市深大寺2-3-5","lat":35.688763,"lon":139.544724},{"name":"三鷹市東多世代交流センター","province":"東京都","city":"三鷹市","address":"三鷹市牟礼2-13-19","lat":35.684994,"lon":139.58371}]}