{"keyword":"伐採","data":[{"name":"杏林大学医学部付属病院","province":"東京都","city":"三鷹市","address":"東京都三鷹市新川6丁目20-2","lat":35.67747976,"lon":139.56650561},{"name":"三鷹市立第一中学校校庭","province":"東京都","city":"三鷹市","address":"東京都三鷹市下連雀9丁目10-1","lat":35.68538706,"lon":139.55970316},{"name":"三鷹市立大沢第二グラウンドサッカー場","province":"東京都","city":"三鷹市","address":"東京都三鷹市大沢5丁目21","lat":35.67102985,"lon":139.53154793},{"name":"杏林大学医学部付属病院ヘリポート","province":"東京都","city":"三鷹市","address":"東京都三鷹市新川6丁目20-2","lat":35.67747976,"lon":139.56650561},{"name":"杏林大学医学部付属病院","province":"東京都","city":"三鷹市","address":"東京都三鷹市新川6丁目20-2","lat":35.67747976,"lon":139.56650561},{"name":"三鷹市立第一中学校校庭","province":"東京都","city":"三鷹市","address":"東京都三鷹市下連雀9丁目10-1","lat":35.68538706,"lon":139.55970316},{"name":"三鷹市立大沢第二グラウンドサッカー場","province":"東京都","city":"三鷹市","address":"東京都三鷹市大沢5丁目21","lat":35.67102985,"lon":139.53154793},{"name":"杏林大学医学部付属病院ヘリポート","province":"東京都","city":"三鷹市","address":"東京都三鷹市新川6丁目20-2","lat":35.67747976,"lon":139.56650561},{"name":"杏林大学医学部付属病院","province":"東京都","city":"三鷹市","address":"東京都三鷹市新川6丁目20-2","lat":35.67747976,"lon":139.56650561},{"name":"三鷹市立第一中学校校庭","province":"東京都","city":"三鷹市","address":"東京都三鷹市下連雀9丁目10-1","lat":35.68538706,"lon":139.55970316},{"name":"三鷹市立大沢第二グラウンドサッカー場","province":"東京都","city":"三鷹市","address":"東京都三鷹市大沢5丁目21","lat":35.67102985,"lon":139.53154793},{"name":"杏林大学医学部付属病院ヘリポート","province":"東京都","city":"三鷹市","address":"東京都三鷹市新川6丁目20-2","lat":35.67747976,"lon":139.56650561},{"name":"杏林大学医学部付属病院","province":"東京都","city":"三鷹市","address":"東京都三鷹市新川6丁目20-2","lat":35.67747976,"lon":139.56650561},{"name":"杏林大学医学部付属病院","province":"東京都","city":"三鷹市","address":"東京都三鷹市新川6丁目20-2","lat":35.67747976,"lon":139.56650561},{"name":"杏林大学医学部付属病院","province":"東京都","city":"三鷹市","address":"東京都三鷹市新川6丁目20-2","lat":35.67747976,"lon":139.56650561},{"name":"杏林大学医学部付属病院","province":"東京都","city":"三鷹市","address":"東京都三鷹市新川6丁目20-2","lat":35.67747976,"lon":139.56650561},{"name":"杏林大学医学部付属病院","province":"東京都","city":"三鷹市","address":"東京都三鷹市新川6丁目20-2","lat":35.67747976,"lon":139.56650561},{"name":"杏林大学医学部付属病院","province":"東京都","city":"三鷹市","address":"東京都三鷹市新川6丁目20-2","lat":35.67747976,"lon":139.56650561},{"name":"杏林大学医学部付属病院","province":"東京都","city":"三鷹市","address":"東京都三鷹市新川6丁目20-2","lat":35.67747976,"lon":139.56650561},{"name":"杏林大学医学部付属病院","province":"東京都","city":"三鷹市","address":"東京都三鷹市新川6丁目20-2","lat":35.67747976,"lon":139.56650561},{"name":"杏林大学医学部付属病院","province":"東京都","city":"三鷹市","address":"東京都三鷹市新川6丁目20-2","lat":35.67747976,"lon":139.56650561},{"name":"杏林大学医学部付属病院","province":"東京都","city":"三鷹市","address":"東京都三鷹市新川6丁目20-2","lat":35.67747976,"lon":139.56650561},{"name":"杏林大学医学部付属病院","province":"東京都","city":"三鷹市","address":"東京都三鷹市新川6丁目20-2","lat":35.67747976,"lon":139.56650561},{"name":"杏林大学医学部付属病院","province":"東京都","city":"三鷹市","address":"東京都三鷹市新川6丁目20-2","lat":35.67747976,"lon":139.56650561},{"name":"杏林大学医学部付属病院","province":"東京都","city":"三鷹市","address":"東京都三鷹市新川6丁目20-2","lat":35.67747976,"lon":139.56650561},{"name":"杏林大学医学部付属病院","province":"東京都","city":"三鷹市","address":"東京都三鷹市新川6丁目20-2","lat":35.67747976,"lon":139.56650561},{"name":"杏林大学医学部付属病院","province":"東京都","city":"三鷹市","address":"東京都三鷹市新川6丁目20-2","lat":35.67747976,"lon":139.56650561},{"name":"杏林大学医学部付属病院","province":"東京都","city":"三鷹市","address":"東京都三鷹市新川6丁目20-2","lat":35.67747976,"lon":139.56650561},{"name":"杏林大学医学部付属病院","province":"東京都","city":"三鷹市","address":"東京都三鷹市新川6丁目20-2","lat":35.67747976,"lon":139.56650561},{"name":"杏林大学医学部付属病院","province":"東京都","city":"三鷹市","address":"東京都三鷹市新川6丁目20-2","lat":35.67747976,"lon":139.56650561},{"name":"杏林大学医学部付属病院","province":"東京都","city":"三鷹市","address":"東京都三鷹市新川6丁目20-2","lat":35.67747976,"lon":139.56650561},{"name":"杏林大学医学部付属病院","province":"東京都","city":"三鷹市","address":"東京都三鷹市新川6丁目20-2","lat":35.67747976,"lon":139.56650561},{"name":"杏林大学医学部付属病院","province":"東京都","city":"三鷹市","address":"東京都三鷹市新川6丁目20-2","lat":35.67747976,"lon":139.56650561},{"name":"杏林大学医学部付属病院","province":"東京都","city":"三鷹市","address":"東京都三鷹市新川6丁目20-2","lat":35.67747976,"lon":139.56650561},{"name":"杏林大学医学部付属病院","province":"東京都","city":"三鷹市","address":"東京都三鷹市新川6丁目20-2","lat":35.67747976,"lon":139.56650561},{"name":"杏林大学医学部付属病院","province":"東京都","city":"三鷹市","address":"東京都三鷹市新川6丁目20-2","lat":35.67747976,"lon":139.56650561},{"name":"杏林大学医学部付属病院","province":"東京都","city":"三鷹市","address":"東京都三鷹市新川6丁目20-2","lat":35.67747976,"lon":139.56650561},{"name":"杏林大学医学部付属病院","province":"東京都","city":"三鷹市","address":"東京都三鷹市新川6丁目20-2","lat":35.67747976,"lon":139.56650561},{"name":"杏林大学医学部付属病院","province":"東京都","city":"三鷹市","address":"東京都三鷹市新川6丁目20-2","lat":35.67747976,"lon":139.56650561},{"name":"杏林大学医学部付属病院","province":"東京都","city":"三鷹市","address":"東京都三鷹市新川6丁目20-2","lat":35.67747976,"lon":139.56650561},{"name":"杏林大学医学部付属病院","province":"東京都","city":"三鷹市","address":"東京都三鷹市新川6丁目20-2","lat":35.67747976,"lon":139.56650561},{"name":"杏林大学医学部付属病院","province":"東京都","city":"三鷹市","address":"東京都三鷹市新川6丁目20-2","lat":35.67747976,"lon":139.56650561},{"name":"杏林大学医学部付属病院","province":"東京都","city":"三鷹市","address":"東京都三鷹市新川6丁目20-2","lat":35.67747976,"lon":139.56650561},{"name":"杏林大学医学部付属病院","province":"東京都","city":"三鷹市","address":"東京都三鷹市新川6丁目20-2","lat":35.67747976,"lon":139.56650561}]}