{"keyword":"保育","data":[{"name":"井の頭保育園","province":"東京都","city":"三鷹市","address":"三鷹市井の頭3-16-31","lat":35.692703,"lon":139.580351},{"name":"みたか小鳥の森保育園","province":"東京都","city":"三鷹市","address":"三鷹市井の頭5-22-8","lat":35.69425,"lon":139.574443},{"name":"ケンパ井の頭","province":"東京都","city":"三鷹市","address":"三鷹市井の頭1-14-5","lat":35.690665,"lon":139.589789},{"name":"牟礼保育園","province":"東京都","city":"三鷹市","address":"三鷹市牟礼7-4-52","lat":35.683407,"lon":139.574627},{"name":"三鷹赤とんぼ保育園","province":"東京都","city":"三鷹市","address":"三鷹市牟礼3-9-3","lat":35.688298,"lon":139.580726},{"name":"にじいろ保育園三鷹牟礼","province":"東京都","city":"三鷹市","address":"三鷹市牟礼1-14-27","lat":35.685552,"lon":139.587645},{"name":"牟礼の森トキ保育園","province":"東京都","city":"三鷹市","address":"三鷹市牟礼4-2-23","lat":35.691017,"lon":139.578957},{"name":"第二小羊チャイルドセンター","province":"東京都","city":"三鷹市","address":"三鷹市北野3-10-14","lat":35.679821,"lon":139.579943},{"name":"新川保育園","province":"東京都","city":"三鷹市","address":"三鷹市新川5-7-2","lat":35.675452,"lon":139.570253},{"name":"こじか保育園","province":"東京都","city":"三鷹市","address":"三鷹市新川6-7-8","lat":35.679674,"lon":139.568428},{"name":"まなびの森保育園三鷹","province":"東京都","city":"三鷹市","address":"三鷹市新川6-5-15","lat":35.682357,"lon":139.568536},{"name":"にじいろ保育園三鷹新川","province":"東京都","city":"三鷹市","address":"三鷹市新川6-33-15","lat":35.683479,"lon":139.564958},{"name":"中原保育園","province":"東京都","city":"三鷹市","address":"三鷹市中原4-35-4-101","lat":35.668984,"lon":139.566114},{"name":"三鷹市立東台保育園","province":"東京都","city":"三鷹市","address":"三鷹市中原2-17-39","lat":35.667745,"lon":139.572286},{"name":"みたかつくしんぼ保育園","province":"東京都","city":"三鷹市","address":"三鷹市中原1-29-35","lat":35.66717,"lon":139.575933},{"name":"リトルキッズファースト保育園","province":"東京都","city":"三鷹市","address":"三鷹市井口1-10-19","lat":35.690203,"lon":139.550018},{"name":"三鷹どろんこ保育園","province":"東京都","city":"三鷹市","address":"三鷹市井口1-23-9","lat":35.693572,"lon":139.546643},{"name":"認定こども園　三鷹ちどりこども園","province":"東京都","city":"三鷹市","address":"三鷹市上連雀4-12-26","lat":35.695361,"lon":139.557211},{"name":"中央保育園","province":"東京都","city":"三鷹市","address":"三鷹市上連雀6-11-16","lat":35.692364,"lon":139.558984},{"name":"あけぼの保育園","province":"東京都","city":"三鷹市","address":"三鷹市上連雀4-11-21","lat":35.694144,"lon":139.557095},{"name":"山中保育園","province":"東京都","city":"三鷹市","address":"三鷹市上連雀7-19-1-100","lat":35.6898,"lon":139.552298},{"name":"上連雀保育園","province":"東京都","city":"三鷹市","address":"三鷹市上連雀5-1-27","lat":35.698702,"lon":139.553903},{"name":"第二椎の実子供の家","province":"東京都","city":"三鷹市","address":"三鷹市上連雀6-25-31","lat":35.691972,"lon":139.557225},{"name":"三鷹もりのこ保育園","province":"東京都","city":"三鷹市","address":"三鷹市上連雀2-16-1","lat":35.702235,"lon":139.556817},{"name":"キッズガーデン三鷹上連雀","province":"東京都","city":"三鷹市","address":"三鷹市上連雀6-27-4","lat":35.689937,"lon":139.555842},{"name":"南浦東保育園","province":"東京都","city":"三鷹市","address":"三鷹市下連雀6-12-1","lat":35.687579,"lon":139.565525},{"name":"下連雀保育園","province":"東京都","city":"三鷹市","address":"三鷹市下連雀4-19-4","lat":35.696197,"lon":139.560269},{"name":"三鷹南浦西保育園","province":"東京都","city":"三鷹市","address":"三鷹市下連雀7-2-1","lat":35.689009,"lon":139.563689},{"name":"三鷹駅前保育園","province":"東京都","city":"三鷹市","address":"三鷹市下連雀3-30-12三鷹中央通りタウンプラザ2階","lat":35.698111,"lon":139.561272},{"name":"あかね保育園","province":"東京都","city":"三鷹市","address":"三鷹市下連雀2-18-12","lat":35.692661,"lon":139.564939},{"name":"弘済保育所　おひさま保育園","province":"東京都","city":"三鷹市","address":"三鷹市下連雀5-2-5","lat":35.686001,"lon":139.57133},{"name":"にじいろ保育園三鷹下連雀","province":"東京都","city":"三鷹市","address":"三鷹市下連雀1-4-22","lat":35.691478,"lon":139.570524},{"name":"ポピンズナーサリースクール三鷹南","province":"東京都","city":"三鷹市","address":"三鷹市下連雀4-16-16","lat":35.695514,"lon":139.561017},{"name":"グローバルキッズ三鷹園","province":"東京都","city":"三鷹市","address":"三鷹市下連雀3-6-21","lat":35.698514,"lon":139.564427},{"name":"野崎保育園","province":"東京都","city":"三鷹市","address":"三鷹市野崎3-12-11","lat":35.685914,"lon":139.543399},{"name":"三鷹ちしろの木","province":"東京都","city":"三鷹市","address":"三鷹市野崎2-11-7","lat":35.684184,"lon":139.547843},{"name":"三鷹市立大沢台保育園","province":"東京都","city":"三鷹市","address":"三鷹市大沢2-2-52","lat":35.680737,"lon":139.537075},{"name":"椎の実子供の家","province":"東京都","city":"三鷹市","address":"三鷹市大沢4-8-8","lat":35.669877,"lon":139.539597},{"name":"三鷹西野保育園","province":"東京都","city":"三鷹市","address":"三鷹市深大寺3-3-10","lat":35.691811,"lon":139.536641}]}