{"keyword":"収蔵","data":[{"name":"上連雀給水所（西配水場）","province":"東京都","city":"三鷹市","address":"東京都三鷹市上連雀9-41-4","lat":35.6868321,"lon":139.55076},{"name":"三鷹新川給水所（東配水場）","province":"東京都","city":"三鷹市","address":"東京都三鷹市新川2-1-15","lat":35.6796028,"lon":139.577258},{"name":"杏林大学医学部付属病院","province":"東京都","city":"三鷹市","address":"東京都三鷹市新川6丁目20-2","lat":35.67747976,"lon":139.56650561},{"name":"上連雀浄水所（西配水場）","province":"東京都","city":"三鷹市","address":"東京都三鷹市上連雀9丁目41-4","lat":35.68686727,"lon":139.55074561},{"name":"三鷹市立第一中学校校庭","province":"東京都","city":"三鷹市","address":"東京都三鷹市下連雀9丁目10-1","lat":35.68538706,"lon":139.55970316},{"name":"三鷹市立大沢第二グラウンドサッカー場","province":"東京都","city":"三鷹市","address":"東京都三鷹市大沢5丁目21","lat":35.67102985,"lon":139.53154793},{"name":"杏林大学医学部付属病院ヘリポート","province":"東京都","city":"三鷹市","address":"東京都三鷹市新川6丁目20-2","lat":35.67747976,"lon":139.56650561},{"name":"三鷹地区","province":"東京都","city":"三鷹市","address":"三鷹市上連雀7-4-8","lat":35.68908,"lon":139.5548},{"name":"酒井薬品（株）物流センター","province":"東京都","city":"三鷹市","address":"三鷹市野崎1-11-22","lat":35.68355,"lon":139.5539},{"name":"上連雀給水所（西配水場）","province":"東京都","city":"三鷹市","address":"東京都三鷹市上連雀9-41-4","lat":35.6868321,"lon":139.55076},{"name":"三鷹新川給水所（東配水場）","province":"東京都","city":"三鷹市","address":"東京都三鷹市新川2-1-15","lat":35.6796028,"lon":139.577258},{"name":"杏林大学医学部付属病院","province":"東京都","city":"三鷹市","address":"東京都三鷹市新川6丁目20-2","lat":35.67747976,"lon":139.56650561},{"name":"上連雀浄水所（西配水場）","province":"東京都","city":"三鷹市","address":"東京都三鷹市上連雀9丁目41-4","lat":35.68686727,"lon":139.55074561},{"name":"三鷹市立第一中学校校庭","province":"東京都","city":"三鷹市","address":"東京都三鷹市下連雀9丁目10-1","lat":35.68538706,"lon":139.55970316},{"name":"三鷹市立大沢第二グラウンドサッカー場","province":"東京都","city":"三鷹市","address":"東京都三鷹市大沢5丁目21","lat":35.67102985,"lon":139.53154793},{"name":"杏林大学医学部付属病院ヘリポート","province":"東京都","city":"三鷹市","address":"東京都三鷹市新川6丁目20-2","lat":35.67747976,"lon":139.56650561},{"name":"三鷹地区","province":"東京都","city":"三鷹市","address":"三鷹市上連雀7-4-8","lat":35.68908,"lon":139.5548},{"name":"酒井薬品（株）物流センター","province":"東京都","city":"三鷹市","address":"三鷹市野崎1-11-22","lat":35.68355,"lon":139.5539},{"name":"上連雀給水所（西配水場）","province":"東京都","city":"三鷹市","address":"東京都三鷹市上連雀9-41-4","lat":35.6868321,"lon":139.55076},{"name":"三鷹新川給水所（東配水場）","province":"東京都","city":"三鷹市","address":"東京都三鷹市新川2-1-15","lat":35.6796028,"lon":139.577258},{"name":"杏林大学医学部付属病院","province":"東京都","city":"三鷹市","address":"東京都三鷹市新川6丁目20-2","lat":35.67747976,"lon":139.56650561},{"name":"上連雀浄水所（西配水場）","province":"東京都","city":"三鷹市","address":"東京都三鷹市上連雀9丁目41-4","lat":35.68686727,"lon":139.55074561},{"name":"三鷹市立第一中学校校庭","province":"東京都","city":"三鷹市","address":"東京都三鷹市下連雀9丁目10-1","lat":35.68538706,"lon":139.55970316},{"name":"三鷹市立大沢第二グラウンドサッカー場","province":"東京都","city":"三鷹市","address":"東京都三鷹市大沢5丁目21","lat":35.67102985,"lon":139.53154793},{"name":"杏林大学医学部付属病院ヘリポート","province":"東京都","city":"三鷹市","address":"東京都三鷹市新川6丁目20-2","lat":35.67747976,"lon":139.56650561},{"name":"三鷹地区","province":"東京都","city":"三鷹市","address":"三鷹市上連雀7-4-8","lat":35.68908,"lon":139.5548},{"name":"酒井薬品（株）物流センター","province":"東京都","city":"三鷹市","address":"三鷹市野崎1-11-22","lat":35.68355,"lon":139.5539},{"name":"上連雀給水所（西配水場）","province":"東京都","city":"三鷹市","address":"東京都三鷹市上連雀9-41-4","lat":35.6868321,"lon":139.55076},{"name":"三鷹新川給水所（東配水場）","province":"東京都","city":"三鷹市","address":"東京都三鷹市新川2-1-15","lat":35.6796028,"lon":139.577258},{"name":"杏林大学医学部付属病院","province":"東京都","city":"三鷹市","address":"東京都三鷹市新川6丁目20-2","lat":35.67747976,"lon":139.56650561},{"name":"三鷹市立第一中学校校庭","province":"東京都","city":"三鷹市","address":"東京都三鷹市下連雀9丁目10-1","lat":35.68538706,"lon":139.55970316},{"name":"三鷹市立大沢第二グラウンドサッカー場","province":"東京都","city":"三鷹市","address":"東京都三鷹市大沢5丁目21","lat":35.67102985,"lon":139.53154793},{"name":"杏林大学医学部付属病院ヘリポート","province":"東京都","city":"三鷹市","address":"東京都三鷹市新川6丁目20-2","lat":35.67747976,"lon":139.56650561},{"name":"三鷹地区","province":"東京都","city":"三鷹市","address":"三鷹市上連雀7-4-8","lat":35.68908,"lon":139.5548},{"name":"酒井薬品（株）物流センター","province":"東京都","city":"三鷹市","address":"三鷹市野崎1-11-22","lat":35.68355,"lon":139.5539},{"name":"上連雀給水所（西配水場）","province":"東京都","city":"三鷹市","address":"東京都三鷹市上連雀9-41-4","lat":35.6868321,"lon":139.55076},{"name":"三鷹新川給水所（東配水場）","province":"東京都","city":"三鷹市","address":"東京都三鷹市新川2-1-15","lat":35.6796028,"lon":139.577258},{"name":"杏林大学医学部付属病院","province":"東京都","city":"三鷹市","address":"東京都三鷹市新川6丁目20-2","lat":35.67747976,"lon":139.56650561},{"name":"三鷹地区","province":"東京都","city":"三鷹市","address":"三鷹市上連雀7-4-8","lat":35.68908,"lon":139.5548},{"name":"酒井薬品（株）物流センター","province":"東京都","city":"三鷹市","address":"三鷹市野崎1-11-22","lat":35.68355,"lon":139.5539},{"name":"上連雀給水所（西配水場）","province":"東京都","city":"三鷹市","address":"東京都三鷹市上連雀9-41-4","lat":35.6868321,"lon":139.55076},{"name":"三鷹新川給水所（東配水場）","province":"東京都","city":"三鷹市","address":"東京都三鷹市新川2-1-15","lat":35.6796028,"lon":139.577258},{"name":"杏林大学医学部付属病院","province":"東京都","city":"三鷹市","address":"東京都三鷹市新川6丁目20-2","lat":35.67747976,"lon":139.56650561},{"name":"三鷹地区","province":"東京都","city":"三鷹市","address":"三鷹市上連雀7-4-8","lat":35.68908,"lon":139.5548},{"name":"酒井薬品（株）物流センター","province":"東京都","city":"三鷹市","address":"三鷹市野崎1-11-22","lat":35.68355,"lon":139.5539},{"name":"上連雀給水所（西配水場）","province":"東京都","city":"三鷹市","address":"東京都三鷹市上連雀9-41-4","lat":35.6868321,"lon":139.55076},{"name":"三鷹新川給水所（東配水場）","province":"東京都","city":"三鷹市","address":"東京都三鷹市新川2-1-15","lat":35.6796028,"lon":139.577258},{"name":"杏林大学医学部付属病院","province":"東京都","city":"三鷹市","address":"東京都三鷹市新川6丁目20-2","lat":35.67747976,"lon":139.56650561},{"name":"三鷹地区","province":"東京都","city":"三鷹市","address":"三鷹市上連雀7-4-8","lat":35.68908,"lon":139.5548},{"name":"酒井薬品（株）物流センター","province":"東京都","city":"三鷹市","address":"三鷹市野崎1-11-22","lat":35.68355,"lon":139.5539},{"name":"上連雀給水所（西配水場）","province":"東京都","city":"三鷹市","address":"東京都三鷹市上連雀9-41-4","lat":35.6868321,"lon":139.55076},{"name":"三鷹新川給水所（東配水場）","province":"東京都","city":"三鷹市","address":"東京都三鷹市新川2-1-15","lat":35.6796028,"lon":139.577258},{"name":"杏林大学医学部付属病院","province":"東京都","city":"三鷹市","address":"東京都三鷹市新川6丁目20-2","lat":35.67747976,"lon":139.56650561},{"name":"三鷹地区","province":"東京都","city":"三鷹市","address":"三鷹市上連雀7-4-8","lat":35.68908,"lon":139.5548},{"name":"酒井薬品（株）物流センター","province":"東京都","city":"三鷹市","address":"三鷹市野崎1-11-22","lat":35.68355,"lon":139.5539},{"name":"上連雀給水所（西配水場）","province":"東京都","city":"三鷹市","address":"東京都三鷹市上連雀9-41-4","lat":35.6868321,"lon":139.55076},{"name":"三鷹新川給水所（東配水場）","province":"東京都","city":"三鷹市","address":"東京都三鷹市新川2-1-15","lat":35.6796028,"lon":139.577258},{"name":"杏林大学医学部付属病院","province":"東京都","city":"三鷹市","address":"東京都三鷹市新川6丁目20-2","lat":35.67747976,"lon":139.56650561},{"name":"三鷹地区","province":"東京都","city":"三鷹市","address":"三鷹市上連雀7-4-8","lat":35.68908,"lon":139.5548},{"name":"酒井薬品（株）物流センター","province":"東京都","city":"三鷹市","address":"三鷹市野崎1-11-22","lat":35.68355,"lon":139.5539},{"name":"上連雀給水所（西配水場）","province":"東京都","city":"三鷹市","address":"東京都三鷹市上連雀9-41-4","lat":35.6868321,"lon":139.55076},{"name":"三鷹新川給水所（東配水場）","province":"東京都","city":"三鷹市","address":"東京都三鷹市新川2-1-15","lat":35.6796028,"lon":139.577258},{"name":"杏林大学医学部付属病院","province":"東京都","city":"三鷹市","address":"東京都三鷹市新川6丁目20-2","lat":35.67747976,"lon":139.56650561},{"name":"三鷹地区","province":"東京都","city":"三鷹市","address":"三鷹市上連雀7-4-8","lat":35.68908,"lon":139.5548},{"name":"酒井薬品（株）物流センター","province":"東京都","city":"三鷹市","address":"三鷹市野崎1-11-22","lat":35.68355,"lon":139.5539},{"name":"上連雀給水所（西配水場）","province":"東京都","city":"三鷹市","address":"東京都三鷹市上連雀9-41-4","lat":35.6868321,"lon":139.55076},{"name":"三鷹新川給水所（東配水場）","province":"東京都","city":"三鷹市","address":"東京都三鷹市新川2-1-15","lat":35.6796028,"lon":139.577258},{"name":"三鷹地区","province":"東京都","city":"三鷹市","address":"三鷹市上連雀7-4-8","lat":35.68908,"lon":139.5548},{"name":"酒井薬品（株）物流センター","province":"東京都","city":"三鷹市","address":"三鷹市野崎1-11-22","lat":35.68355,"lon":139.5539},{"name":"上連雀給水所（西配水場）","province":"東京都","city":"三鷹市","address":"東京都三鷹市上連雀9-41-4","lat":35.6868321,"lon":139.55076},{"name":"三鷹新川給水所（東配水場）","province":"東京都","city":"三鷹市","address":"東京都三鷹市新川2-1-15","lat":35.6796028,"lon":139.577258},{"name":"三鷹地区","province":"東京都","city":"三鷹市","address":"三鷹市上連雀7-4-8","lat":35.68908,"lon":139.5548},{"name":"酒井薬品（株）物流センター","province":"東京都","city":"三鷹市","address":"三鷹市野崎1-11-22","lat":35.68355,"lon":139.5539},{"name":"上連雀給水所（西配水場）","province":"東京都","city":"三鷹市","address":"東京都三鷹市上連雀9-41-4","lat":35.6868321,"lon":139.55076},{"name":"三鷹新川給水所（東配水場）","province":"東京都","city":"三鷹市","address":"東京都三鷹市新川2-1-15","lat":35.6796028,"lon":139.577258},{"name":"三鷹地区","province":"東京都","city":"三鷹市","address":"三鷹市上連雀7-4-8","lat":35.68908,"lon":139.5548},{"name":"酒井薬品（株）物流センター","province":"東京都","city":"三鷹市","address":"三鷹市野崎1-11-22","lat":35.68355,"lon":139.5539},{"name":"上連雀給水所（西配水場）","province":"東京都","city":"三鷹市","address":"東京都三鷹市上連雀9-41-4","lat":35.6868321,"lon":139.55076},{"name":"三鷹新川給水所（東配水場）","province":"東京都","city":"三鷹市","address":"東京都三鷹市新川2-1-15","lat":35.6796028,"lon":139.577258},{"name":"三鷹地区","province":"東京都","city":"三鷹市","address":"三鷹市上連雀7-4-8","lat":35.68908,"lon":139.5548},{"name":"酒井薬品（株）物流センター","province":"東京都","city":"三鷹市","address":"三鷹市野崎1-11-22","lat":35.68355,"lon":139.5539},{"name":"上連雀給水所（西配水場）","province":"東京都","city":"三鷹市","address":"東京都三鷹市上連雀9-41-4","lat":35.6868321,"lon":139.55076},{"name":"三鷹新川給水所（東配水場）","province":"東京都","city":"三鷹市","address":"東京都三鷹市新川2-1-15","lat":35.6796028,"lon":139.577258},{"name":"三鷹地区","province":"東京都","city":"三鷹市","address":"三鷹市上連雀7-4-8","lat":35.68908,"lon":139.5548},{"name":"酒井薬品（株）物流センター","province":"東京都","city":"三鷹市","address":"三鷹市野崎1-11-22","lat":35.68355,"lon":139.5539},{"name":"上連雀給水所（西配水場）","province":"東京都","city":"三鷹市","address":"東京都三鷹市上連雀9-41-4","lat":35.6868321,"lon":139.55076},{"name":"三鷹新川給水所（東配水場）","province":"東京都","city":"三鷹市","address":"東京都三鷹市新川2-1-15","lat":35.6796028,"lon":139.577258},{"name":"三鷹地区","province":"東京都","city":"三鷹市","address":"三鷹市上連雀7-4-8","lat":35.68908,"lon":139.5548},{"name":"酒井薬品（株）物流センター","province":"東京都","city":"三鷹市","address":"三鷹市野崎1-11-22","lat":35.68355,"lon":139.5539},{"name":"上連雀給水所（西配水場）","province":"東京都","city":"三鷹市","address":"東京都三鷹市上連雀9-41-4","lat":35.6868321,"lon":139.55076},{"name":"三鷹新川給水所（東配水場）","province":"東京都","city":"三鷹市","address":"東京都三鷹市新川2-1-15","lat":35.6796028,"lon":139.577258},{"name":"三鷹地区","province":"東京都","city":"三鷹市","address":"三鷹市上連雀7-4-8","lat":35.68908,"lon":139.5548},{"name":"酒井薬品（株）物流センター","province":"東京都","city":"三鷹市","address":"三鷹市野崎1-11-22","lat":35.68355,"lon":139.5539},{"name":"上連雀給水所（西配水場）","province":"東京都","city":"三鷹市","address":"東京都三鷹市上連雀9-41-4","lat":35.6868321,"lon":139.55076},{"name":"三鷹新川給水所（東配水場）","province":"東京都","city":"三鷹市","address":"東京都三鷹市新川2-1-15","lat":35.6796028,"lon":139.577258},{"name":"三鷹地区","province":"東京都","city":"三鷹市","address":"三鷹市上連雀7-4-8","lat":35.68908,"lon":139.5548},{"name":"酒井薬品（株）物流センター","province":"東京都","city":"三鷹市","address":"三鷹市野崎1-11-22","lat":35.68355,"lon":139.5539},{"name":"上連雀給水所（西配水場）","province":"東京都","city":"三鷹市","address":"東京都三鷹市上連雀9-41-4","lat":35.6868321,"lon":139.55076},{"name":"三鷹新川給水所（東配水場）","province":"東京都","city":"三鷹市","address":"東京都三鷹市新川2-1-15","lat":35.6796028,"lon":139.577258},{"name":"三鷹地区","province":"東京都","city":"三鷹市","address":"三鷹市上連雀7-4-8","lat":35.68908,"lon":139.5548},{"name":"酒井薬品（株）物流センター","province":"東京都","city":"三鷹市","address":"三鷹市野崎1-11-22","lat":35.68355,"lon":139.5539},{"name":"上連雀給水所（西配水場）","province":"東京都","city":"三鷹市","address":"東京都三鷹市上連雀9-41-4","lat":35.6868321,"lon":139.55076},{"name":"三鷹新川給水所（東配水場）","province":"東京都","city":"三鷹市","address":"東京都三鷹市新川2-1-15","lat":35.6796028,"lon":139.577258},{"name":"三鷹地区","province":"東京都","city":"三鷹市","address":"三鷹市上連雀7-4-8","lat":35.68908,"lon":139.5548},{"name":"酒井薬品（株）物流センター","province":"東京都","city":"三鷹市","address":"三鷹市野崎1-11-22","lat":35.68355,"lon":139.5539},{"name":"上連雀給水所（西配水場）","province":"東京都","city":"三鷹市","address":"東京都三鷹市上連雀9-41-4","lat":35.6868321,"lon":139.55076},{"name":"三鷹新川給水所（東配水場）","province":"東京都","city":"三鷹市","address":"東京都三鷹市新川2-1-15","lat":35.6796028,"lon":139.577258},{"name":"三鷹地区","province":"東京都","city":"三鷹市","address":"三鷹市上連雀7-4-8","lat":35.68908,"lon":139.5548},{"name":"酒井薬品（株）物流センター","province":"東京都","city":"三鷹市","address":"三鷹市野崎1-11-22","lat":35.68355,"lon":139.5539},{"name":"上連雀給水所（西配水場）","province":"東京都","city":"三鷹市","address":"東京都三鷹市上連雀9-41-4","lat":35.6868321,"lon":139.55076},{"name":"三鷹新川給水所（東配水場）","province":"東京都","city":"三鷹市","address":"東京都三鷹市新川2-1-15","lat":35.6796028,"lon":139.577258},{"name":"三鷹地区","province":"東京都","city":"三鷹市","address":"三鷹市上連雀7-4-8","lat":35.68908,"lon":139.5548},{"name":"酒井薬品（株）物流センター","province":"東京都","city":"三鷹市","address":"三鷹市野崎1-11-22","lat":35.68355,"lon":139.5539},{"name":"上連雀給水所（西配水場）","province":"東京都","city":"三鷹市","address":"東京都三鷹市上連雀9-41-4","lat":35.6868321,"lon":139.55076},{"name":"三鷹新川給水所（東配水場）","province":"東京都","city":"三鷹市","address":"東京都三鷹市新川2-1-15","lat":35.6796028,"lon":139.577258},{"name":"三鷹地区","province":"東京都","city":"三鷹市","address":"三鷹市上連雀7-4-8","lat":35.68908,"lon":139.5548},{"name":"酒井薬品（株）物流センター","province":"東京都","city":"三鷹市","address":"三鷹市野崎1-11-22","lat":35.68355,"lon":139.5539},{"name":"上連雀給水所（西配水場）","province":"東京都","city":"三鷹市","address":"東京都三鷹市上連雀9-41-4","lat":35.6868321,"lon":139.55076},{"name":"三鷹新川給水所（東配水場）","province":"東京都","city":"三鷹市","address":"東京都三鷹市新川2-1-15","lat":35.6796028,"lon":139.577258},{"name":"三鷹地区","province":"東京都","city":"三鷹市","address":"三鷹市上連雀7-4-8","lat":35.68908,"lon":139.5548},{"name":"酒井薬品（株）物流センター","province":"東京都","city":"三鷹市","address":"三鷹市野崎1-11-22","lat":35.68355,"lon":139.5539},{"name":"上連雀給水所（西配水場）","province":"東京都","city":"三鷹市","address":"東京都三鷹市上連雀9-41-4","lat":35.6868321,"lon":139.55076},{"name":"三鷹新川給水所（東配水場）","province":"東京都","city":"三鷹市","address":"東京都三鷹市新川2-1-15","lat":35.6796028,"lon":139.577258},{"name":"三鷹地区","province":"東京都","city":"三鷹市","address":"三鷹市上連雀7-4-8","lat":35.68908,"lon":139.5548},{"name":"酒井薬品（株）物流センター","province":"東京都","city":"三鷹市","address":"三鷹市野崎1-11-22","lat":35.68355,"lon":139.5539},{"name":"上連雀給水所（西配水場）","province":"東京都","city":"三鷹市","address":"東京都三鷹市上連雀9-41-4","lat":35.6868321,"lon":139.55076},{"name":"三鷹新川給水所（東配水場）","province":"東京都","city":"三鷹市","address":"東京都三鷹市新川2-1-15","lat":35.6796028,"lon":139.577258},{"name":"三鷹地区","province":"東京都","city":"三鷹市","address":"三鷹市上連雀7-4-8","lat":35.68908,"lon":139.5548},{"name":"酒井薬品（株）物流センター","province":"東京都","city":"三鷹市","address":"三鷹市野崎1-11-22","lat":35.68355,"lon":139.5539},{"name":"上連雀給水所（西配水場）","province":"東京都","city":"三鷹市","address":"東京都三鷹市上連雀9-41-4","lat":35.6868321,"lon":139.55076},{"name":"三鷹新川給水所（東配水場）","province":"東京都","city":"三鷹市","address":"東京都三鷹市新川2-1-15","lat":35.6796028,"lon":139.577258},{"name":"三鷹地区","province":"東京都","city":"三鷹市","address":"三鷹市上連雀7-4-8","lat":35.68908,"lon":139.5548},{"name":"酒井薬品（株）物流センター","province":"東京都","city":"三鷹市","address":"三鷹市野崎1-11-22","lat":35.68355,"lon":139.5539},{"name":"上連雀給水所（西配水場）","province":"東京都","city":"三鷹市","address":"東京都三鷹市上連雀9-41-4","lat":35.6868321,"lon":139.55076},{"name":"三鷹新川給水所（東配水場）","province":"東京都","city":"三鷹市","address":"東京都三鷹市新川2-1-15","lat":35.6796028,"lon":139.577258},{"name":"三鷹地区","province":"東京都","city":"三鷹市","address":"三鷹市上連雀7-4-8","lat":35.68908,"lon":139.5548},{"name":"酒井薬品（株）物流センター","province":"東京都","city":"三鷹市","address":"三鷹市野崎1-11-22","lat":35.68355,"lon":139.5539},{"name":"上連雀給水所（西配水場）","province":"東京都","city":"三鷹市","address":"東京都三鷹市上連雀9-41-4","lat":35.6868321,"lon":139.55076},{"name":"三鷹新川給水所（東配水場）","province":"東京都","city":"三鷹市","address":"東京都三鷹市新川2-1-15","lat":35.6796028,"lon":139.577258},{"name":"三鷹地区","province":"東京都","city":"三鷹市","address":"三鷹市上連雀7-4-8","lat":35.68908,"lon":139.5548},{"name":"酒井薬品（株）物流センター","province":"東京都","city":"三鷹市","address":"三鷹市野崎1-11-22","lat":35.68355,"lon":139.5539},{"name":"上連雀給水所（西配水場）","province":"東京都","city":"三鷹市","address":"東京都三鷹市上連雀9-41-4","lat":35.6868321,"lon":139.55076},{"name":"三鷹新川給水所（東配水場）","province":"東京都","city":"三鷹市","address":"東京都三鷹市新川2-1-15","lat":35.6796028,"lon":139.577258},{"name":"三鷹地区","province":"東京都","city":"三鷹市","address":"三鷹市上連雀7-4-8","lat":35.68908,"lon":139.5548},{"name":"酒井薬品（株）物流センター","province":"東京都","city":"三鷹市","address":"三鷹市野崎1-11-22","lat":35.68355,"lon":139.5539},{"name":"上連雀給水所（西配水場）","province":"東京都","city":"三鷹市","address":"東京都三鷹市上連雀9-41-4","lat":35.6868321,"lon":139.55076},{"name":"三鷹新川給水所（東配水場）","province":"東京都","city":"三鷹市","address":"東京都三鷹市新川2-1-15","lat":35.6796028,"lon":139.577258},{"name":"三鷹地区","province":"東京都","city":"三鷹市","address":"三鷹市上連雀7-4-8","lat":35.68908,"lon":139.5548},{"name":"酒井薬品（株）物流センター","province":"東京都","city":"三鷹市","address":"三鷹市野崎1-11-22","lat":35.68355,"lon":139.5539},{"name":"上連雀給水所（西配水場）","province":"東京都","city":"三鷹市","address":"東京都三鷹市上連雀9-41-4","lat":35.6868321,"lon":139.55076},{"name":"三鷹新川給水所（東配水場）","province":"東京都","city":"三鷹市","address":"東京都三鷹市新川2-1-15","lat":35.6796028,"lon":139.577258},{"name":"三鷹地区","province":"東京都","city":"三鷹市","address":"三鷹市上連雀7-4-8","lat":35.68908,"lon":139.5548},{"name":"酒井薬品（株）物流センター","province":"東京都","city":"三鷹市","address":"三鷹市野崎1-11-22","lat":35.68355,"lon":139.5539},{"name":"上連雀給水所（西配水場）","province":"東京都","city":"三鷹市","address":"東京都三鷹市上連雀9-41-4","lat":35.6868321,"lon":139.55076},{"name":"三鷹新川給水所（東配水場）","province":"東京都","city":"三鷹市","address":"東京都三鷹市新川2-1-15","lat":35.6796028,"lon":139.577258},{"name":"上連雀給水所（西配水場）","province":"東京都","city":"三鷹市","address":"東京都三鷹市上連雀9-41-4","lat":35.6868321,"lon":139.55076},{"name":"三鷹新川給水所（東配水場）","province":"東京都","city":"三鷹市","address":"東京都三鷹市新川2-1-15","lat":35.6796028,"lon":139.577258},{"name":"上連雀給水所（西配水場）","province":"東京都","city":"三鷹市","address":"東京都三鷹市上連雀9-41-4","lat":35.6868321,"lon":139.55076},{"name":"三鷹新川給水所（東配水場）","province":"東京都","city":"三鷹市","address":"東京都三鷹市新川2-1-15","lat":35.6796028,"lon":139.577258},{"name":"上連雀給水所（西配水場）","province":"東京都","city":"三鷹市","address":"東京都三鷹市上連雀9-41-4","lat":35.6868321,"lon":139.55076},{"name":"三鷹新川給水所（東配水場）","province":"東京都","city":"三鷹市","address":"東京都三鷹市新川2-1-15","lat":35.6796028,"lon":139.577258},{"name":"上連雀給水所（西配水場）","province":"東京都","city":"三鷹市","address":"東京都三鷹市上連雀9-41-4","lat":35.6868321,"lon":139.55076},{"name":"三鷹新川給水所（東配水場）","province":"東京都","city":"三鷹市","address":"東京都三鷹市新川2-1-15","lat":35.6796028,"lon":139.577258},{"name":"上連雀給水所（西配水場）","province":"東京都","city":"三鷹市","address":"東京都三鷹市上連雀9-41-4","lat":35.6868321,"lon":139.55076},{"name":"三鷹新川給水所（東配水場）","province":"東京都","city":"三鷹市","address":"東京都三鷹市新川2-1-15","lat":35.6796028,"lon":139.577258},{"name":"上連雀給水所（西配水場）","province":"東京都","city":"三鷹市","address":"東京都三鷹市上連雀9-41-4","lat":35.6868321,"lon":139.55076},{"name":"三鷹新川給水所（東配水場）","province":"東京都","city":"三鷹市","address":"東京都三鷹市新川2-1-15","lat":35.6796028,"lon":139.577258},{"name":"上連雀給水所（西配水場）","province":"東京都","city":"三鷹市","address":"東京都三鷹市上連雀9-41-4","lat":35.6868321,"lon":139.55076},{"name":"三鷹新川給水所（東配水場）","province":"東京都","city":"三鷹市","address":"東京都三鷹市新川2-1-15","lat":35.6796028,"lon":139.577258},{"name":"上連雀給水所（西配水場）","province":"東京都","city":"三鷹市","address":"東京都三鷹市上連雀9-41-4","lat":35.6868321,"lon":139.55076},{"name":"三鷹新川給水所（東配水場）","province":"東京都","city":"三鷹市","address":"東京都三鷹市新川2-1-15","lat":35.6796028,"lon":139.577258},{"name":"上連雀給水所（西配水場）","province":"東京都","city":"三鷹市","address":"東京都三鷹市上連雀9-41-4","lat":35.6868321,"lon":139.55076},{"name":"三鷹新川給水所（東配水場）","province":"東京都","city":"三鷹市","address":"東京都三鷹市新川2-1-15","lat":35.6796028,"lon":139.577258},{"name":"上連雀給水所（西配水場）","province":"東京都","city":"三鷹市","address":"東京都三鷹市上連雀9-41-4","lat":35.6868321,"lon":139.55076},{"name":"三鷹新川給水所（東配水場）","province":"東京都","city":"三鷹市","address":"東京都三鷹市新川2-1-15","lat":35.6796028,"lon":139.577258},{"name":"上連雀給水所（西配水場）","province":"東京都","city":"三鷹市","address":"東京都三鷹市上連雀9-41-4","lat":35.6868321,"lon":139.55076},{"name":"三鷹新川給水所（東配水場）","province":"東京都","city":"三鷹市","address":"東京都三鷹市新川2-1-15","lat":35.6796028,"lon":139.577258},{"name":"上連雀給水所（西配水場）","province":"東京都","city":"三鷹市","address":"東京都三鷹市上連雀9-41-4","lat":35.6868321,"lon":139.55076},{"name":"三鷹新川給水所（東配水場）","province":"東京都","city":"三鷹市","address":"東京都三鷹市新川2-1-15","lat":35.6796028,"lon":139.577258}]}