{"keyword":"店","data":[{"name":"三鷹市子ども発達支援センター","province":"東京都","city":"三鷹市","address":"三鷹市新川6-37-1","lat":35.681774,"lon":139.561834},{"name":"コーポ三鷹","province":"東京都","city":"三鷹市","address":"東京都三鷹市","lat":35.68327617,"lon":139.55972268},{"name":"グッドライフ三鷹寮","province":"東京都","city":"三鷹市","address":"三鷹市野崎4-4-23","lat":35.680037,"lon":139.542419},{"name":"三鷹荘","province":"東京都","city":"三鷹市","address":"三鷹市大沢1-1-50","lat":35.678088,"lon":139.542266},{"name":"三鷹市社会福祉協議会","province":"東京都","city":"三鷹市","address":"三鷹市新川6-37-1元気創造プラザ3階福祉センター内","lat":35.681774,"lon":139.561834},{"name":"グッドライフ三鷹寮","province":"東京都","city":"三鷹市","address":"三鷹市野崎4-4-23","lat":35.67979,"lon":139.54228},{"name":"三鷹荘","province":"東京都","city":"三鷹市","address":"三鷹市大沢1-1-50","lat":35.67792,"lon":139.54054},{"name":"さくら三鷹ハウス","province":"東京都","city":"三鷹市","address":"東京都三鷹市","lat":35.68327617,"lon":139.55972268},{"name":"(株)あさの","province":"東京都","city":"三鷹市","address":"東京都三鷹市井の頭2-8-2","lat":35.69087213,"lon":139.5871695},{"name":"東葬祭","province":"東京都","city":"三鷹市","address":"東京都三鷹市上連雀2-5-15","lat":35.69845921,"lon":139.5588899},{"name":"永 塚 葬 儀 社","province":"東京都","city":"三鷹市","address":"東京都三鷹市下連雀3-15-15","lat":35.70170535,"lon":139.5623266},{"name":"日典","province":"東京都","city":"三鷹市","address":"東京都三鷹市野崎2-5-5","lat":35.68333439,"lon":139.5491371},{"name":"(株)セレモア","province":"東京都","city":"三鷹市","address":"東京都三鷹市新川5-16-10","lat":35.67602549,"lon":139.5677882},{"name":"東京むさし農業協同組合メモリアルセンター","province":"東京都","city":"三鷹市","address":"東京都三鷹市新川6-35-26","lat":35.6831526,"lon":139.5632417},{"name":"奥野式典","province":"東京都","city":"三鷹市","address":"東京都三鷹市野崎2-20-12","lat":35.68348742,"lon":139.5452849},{"name":"(株)メモリード","province":"東京都","city":"三鷹市","address":"東京都三鷹市下連雀9-3-23","lat":35.68371495,"lon":139.5616056},{"name":"株式会社　AZUMA","province":"東京都","city":"三鷹市","address":"東京都三鷹市上連雀2丁目5-15","lat":35.69835788,"lon":139.55886948},{"name":"（株）奥野式典","province":"東京都","city":"三鷹市","address":"東京都三鷹市野崎2丁目20-12","lat":35.68346477,"lon":139.54524346},{"name":"東京点字出版所","province":"東京都","city":"三鷹市","address":"三鷹市下連雀3-32-10","lat":35.69877,"lon":139.56078},{"name":"三鷹市社会福祉協議会","province":"東京都","city":"三鷹市","address":"三鷹市新川6-37-1元気創造プラザ3階福祉センター内","lat":35.68187,"lon":139.56218},{"name":"社会福祉法人巣立ち会巣立ち工房","province":"東京都","city":"三鷹市","address":"東京都三鷹市下連雀4丁目17-6","lat":35.69395285,"lon":139.56107777},{"name":"社会福祉法人三鷹ひまわり会三鷹ひまわり第一共同作業所","province":"東京都","city":"三鷹市","address":"東京都三鷹市下連雀4丁目8-20","lat":35.69289466,"lon":139.56269154},{"name":"社会福祉法人三鷹ひまわり会三鷹ひまわり第二共同作業所","province":"東京都","city":"三鷹市","address":"東京都三鷹市上連雀4丁目1-8","lat":35.69715802,"lon":139.5589973},{"name":"社会福祉法人三鷹ひまわり会三鷹ひまわり第三共同作業所","province":"東京都","city":"三鷹市","address":"東京都三鷹市下連雀3丁目11-8","lat":35.69754137,"lon":139.56297191},{"name":"ＡＨＣグループ株式会社就労移行支援事業所TODAY三鷹","province":"東京都","city":"三鷹市","address":"東京都三鷹市下連雀4丁目15-38","lat":35.69644425,"lon":139.56140265},{"name":"ウェルビー株式会社ウェルビー三鷹センター","province":"東京都","city":"三鷹市","address":"東京都三鷹市下連雀3丁目32-3","lat":35.69887174,"lon":139.56074428},{"name":"社会福祉法人にじの会ワークショップハーモニー","province":"東京都","city":"三鷹市","address":"東京都三鷹市大沢1丁目1-43","lat":35.67857915,"lon":139.54100516},{"name":"社会福祉法人むうぷむうぷ舎中原","province":"東京都","city":"三鷹市","address":"東京都三鷹市牟礼7丁目5-14","lat":35.68232936,"lon":139.57319374},{"name":"株式会社東京リハビリテーションサービス生活機能型デイサービスりぶうぇる","province":"東京都","city":"三鷹市","address":"東京都三鷹市牟礼6丁目13-15","lat":35.68913974,"lon":139.57464615},{"name":"東京点字出版所","province":"東京都","city":"三鷹市","address":"三鷹市下連雀3-32-10","lat":35.698472,"lon":139.560553},{"name":"グッドライフ三鷹寮","province":"東京都","city":"三鷹市","address":"三鷹市野崎4-4-23","lat":35.68024,"lon":139.54076},{"name":"＊?生涯学習センター（三鷹中央防災公園・元気創造プラザ??４階）","province":"東京都","city":"三鷹市","address":"三鷹市新川6-37-1","lat":35.68173,"lon":139.561673},{"name":"三鷹市牟礼老人保健施設はなかいどう","province":"東京都","city":"三鷹市","address":"三鷹市牟礼6-12-30","lat":35.687837,"lon":139.574399},{"name":"三鷹市子ども発達支援センター","province":"東京都","city":"三鷹市","address":"三鷹市新川6-37-1","lat":35.681774,"lon":139.561834},{"name":"コーポ三鷹","province":"東京都","city":"三鷹市","address":"東京都三鷹市","lat":35.68327617,"lon":139.55972268},{"name":"グッドライフ三鷹寮","province":"東京都","city":"三鷹市","address":"三鷹市野崎4-4-23","lat":35.680037,"lon":139.542419},{"name":"三鷹荘","province":"東京都","city":"三鷹市","address":"三鷹市大沢1-1-50","lat":35.678088,"lon":139.542266},{"name":"三鷹市社会福祉協議会","province":"東京都","city":"三鷹市","address":"三鷹市新川6-37-1元気創造プラザ3階福祉センター内","lat":35.681774,"lon":139.561834},{"name":"グッドライフ三鷹寮","province":"東京都","city":"三鷹市","address":"三鷹市野崎4-4-23","lat":35.67979,"lon":139.54228},{"name":"三鷹荘","province":"東京都","city":"三鷹市","address":"三鷹市大沢1-1-50","lat":35.67792,"lon":139.54054},{"name":"さくら三鷹ハウス","province":"東京都","city":"三鷹市","address":"東京都三鷹市","lat":35.68327617,"lon":139.55972268},{"name":"(株)あさの","province":"東京都","city":"三鷹市","address":"東京都三鷹市井の頭2-8-2","lat":35.69087213,"lon":139.5871695},{"name":"東葬祭","province":"東京都","city":"三鷹市","address":"東京都三鷹市上連雀2-5-15","lat":35.69845921,"lon":139.5588899},{"name":"永 塚 葬 儀 社","province":"東京都","city":"三鷹市","address":"東京都三鷹市下連雀3-15-15","lat":35.70170535,"lon":139.5623266},{"name":"日典","province":"東京都","city":"三鷹市","address":"東京都三鷹市野崎2-5-5","lat":35.68333439,"lon":139.5491371},{"name":"(株)セレモア","province":"東京都","city":"三鷹市","address":"東京都三鷹市新川5-16-10","lat":35.67602549,"lon":139.5677882},{"name":"東京むさし農業協同組合メモリアルセンター","province":"東京都","city":"三鷹市","address":"東京都三鷹市新川6-35-26","lat":35.6831526,"lon":139.5632417},{"name":"奥野式典","province":"東京都","city":"三鷹市","address":"東京都三鷹市野崎2-20-12","lat":35.68348742,"lon":139.5452849},{"name":"(株)メモリード","province":"東京都","city":"三鷹市","address":"東京都三鷹市下連雀9-3-23","lat":35.68371495,"lon":139.5616056},{"name":"株式会社　AZUMA","province":"東京都","city":"三鷹市","address":"東京都三鷹市上連雀2丁目5-15","lat":35.69835788,"lon":139.55886948},{"name":"（株）奥野式典","province":"東京都","city":"三鷹市","address":"東京都三鷹市野崎2丁目20-12","lat":35.68346477,"lon":139.54524346},{"name":"東京点字出版所","province":"東京都","city":"三鷹市","address":"三鷹市下連雀3-32-10","lat":35.69877,"lon":139.56078},{"name":"三鷹市社会福祉協議会","province":"東京都","city":"三鷹市","address":"三鷹市新川6-37-1元気創造プラザ3階福祉センター内","lat":35.68187,"lon":139.56218},{"name":"社会福祉法人巣立ち会巣立ち工房","province":"東京都","city":"三鷹市","address":"東京都三鷹市下連雀4丁目17-6","lat":35.69395285,"lon":139.56107777},{"name":"社会福祉法人三鷹ひまわり会三鷹ひまわり第一共同作業所","province":"東京都","city":"三鷹市","address":"東京都三鷹市下連雀4丁目8-20","lat":35.69289466,"lon":139.56269154},{"name":"社会福祉法人三鷹ひまわり会三鷹ひまわり第二共同作業所","province":"東京都","city":"三鷹市","address":"東京都三鷹市上連雀4丁目1-8","lat":35.69715802,"lon":139.5589973},{"name":"社会福祉法人三鷹ひまわり会三鷹ひまわり第三共同作業所","province":"東京都","city":"三鷹市","address":"東京都三鷹市下連雀3丁目11-8","lat":35.69754137,"lon":139.56297191},{"name":"ＡＨＣグループ株式会社就労移行支援事業所TODAY三鷹","province":"東京都","city":"三鷹市","address":"東京都三鷹市下連雀4丁目15-38","lat":35.69644425,"lon":139.56140265},{"name":"ウェルビー株式会社ウェルビー三鷹センター","province":"東京都","city":"三鷹市","address":"東京都三鷹市下連雀3丁目32-3","lat":35.69887174,"lon":139.56074428},{"name":"社会福祉法人にじの会ワークショップハーモニー","province":"東京都","city":"三鷹市","address":"東京都三鷹市大沢1丁目1-43","lat":35.67857915,"lon":139.54100516},{"name":"社会福祉法人むうぷむうぷ舎中原","province":"東京都","city":"三鷹市","address":"東京都三鷹市牟礼7丁目5-14","lat":35.68232936,"lon":139.57319374},{"name":"株式会社東京リハビリテーションサービス生活機能型デイサービスりぶうぇる","province":"東京都","city":"三鷹市","address":"東京都三鷹市牟礼6丁目13-15","lat":35.68913974,"lon":139.57464615},{"name":"東京点字出版所","province":"東京都","city":"三鷹市","address":"三鷹市下連雀3-32-10","lat":35.698472,"lon":139.560553},{"name":"グッドライフ三鷹寮","province":"東京都","city":"三鷹市","address":"三鷹市野崎4-4-23","lat":35.68024,"lon":139.54076},{"name":"三鷹市牟礼老人保健施設はなかいどう","province":"東京都","city":"三鷹市","address":"三鷹市牟礼6-12-30","lat":35.687837,"lon":139.574399},{"name":"三鷹市子ども発達支援センター","province":"東京都","city":"三鷹市","address":"三鷹市新川6-37-1","lat":35.681774,"lon":139.561834},{"name":"コーポ三鷹","province":"東京都","city":"三鷹市","address":"東京都三鷹市","lat":35.68327617,"lon":139.55972268},{"name":"グッドライフ三鷹寮","province":"東京都","city":"三鷹市","address":"三鷹市野崎4-4-23","lat":35.680037,"lon":139.542419},{"name":"三鷹荘","province":"東京都","city":"三鷹市","address":"三鷹市大沢1-1-50","lat":35.678088,"lon":139.542266},{"name":"三鷹市社会福祉協議会","province":"東京都","city":"三鷹市","address":"三鷹市新川6-37-1元気創造プラザ3階福祉センター内","lat":35.681774,"lon":139.561834},{"name":"グッドライフ三鷹寮","province":"東京都","city":"三鷹市","address":"三鷹市野崎4-4-23","lat":35.67979,"lon":139.54228},{"name":"三鷹荘","province":"東京都","city":"三鷹市","address":"三鷹市大沢1-1-50","lat":35.67792,"lon":139.54054},{"name":"さくら三鷹ハウス","province":"東京都","city":"三鷹市","address":"東京都三鷹市","lat":35.68327617,"lon":139.55972268},{"name":"株式会社　AZUMA","province":"東京都","city":"三鷹市","address":"東京都三鷹市上連雀2丁目5-15","lat":35.69835788,"lon":139.55886948},{"name":"（株）奥野式典","province":"東京都","city":"三鷹市","address":"東京都三鷹市野崎2丁目20-12","lat":35.68346477,"lon":139.54524346},{"name":"東京点字出版所","province":"東京都","city":"三鷹市","address":"三鷹市下連雀3-32-10","lat":35.69877,"lon":139.56078},{"name":"三鷹市社会福祉協議会","province":"東京都","city":"三鷹市","address":"三鷹市新川6-37-1元気創造プラザ3階福祉センター内","lat":35.68187,"lon":139.56218},{"name":"社会福祉法人巣立ち会巣立ち工房","province":"東京都","city":"三鷹市","address":"東京都三鷹市下連雀4丁目17-6","lat":35.69395285,"lon":139.56107777},{"name":"社会福祉法人三鷹ひまわり会三鷹ひまわり第一共同作業所","province":"東京都","city":"三鷹市","address":"東京都三鷹市下連雀4丁目8-20","lat":35.69289466,"lon":139.56269154},{"name":"社会福祉法人三鷹ひまわり会三鷹ひまわり第二共同作業所","province":"東京都","city":"三鷹市","address":"東京都三鷹市上連雀4丁目1-8","lat":35.69715802,"lon":139.5589973},{"name":"社会福祉法人三鷹ひまわり会三鷹ひまわり第三共同作業所","province":"東京都","city":"三鷹市","address":"東京都三鷹市下連雀3丁目11-8","lat":35.69754137,"lon":139.56297191},{"name":"ＡＨＣグループ株式会社就労移行支援事業所TODAY三鷹","province":"東京都","city":"三鷹市","address":"東京都三鷹市下連雀4丁目15-38","lat":35.69644425,"lon":139.56140265},{"name":"ウェルビー株式会社ウェルビー三鷹センター","province":"東京都","city":"三鷹市","address":"東京都三鷹市下連雀3丁目32-3","lat":35.69887174,"lon":139.56074428},{"name":"社会福祉法人にじの会ワークショップハーモニー","province":"東京都","city":"三鷹市","address":"東京都三鷹市大沢1丁目1-43","lat":35.67857915,"lon":139.54100516},{"name":"社会福祉法人むうぷむうぷ舎中原","province":"東京都","city":"三鷹市","address":"東京都三鷹市牟礼7丁目5-14","lat":35.68232936,"lon":139.57319374},{"name":"株式会社東京リハビリテーションサービス生活機能型デイサービスりぶうぇる","province":"東京都","city":"三鷹市","address":"東京都三鷹市牟礼6丁目13-15","lat":35.68913974,"lon":139.57464615},{"name":"東京点字出版所","province":"東京都","city":"三鷹市","address":"三鷹市下連雀3-32-10","lat":35.698472,"lon":139.560553},{"name":"グッドライフ三鷹寮","province":"東京都","city":"三鷹市","address":"三鷹市野崎4-4-23","lat":35.68024,"lon":139.54076},{"name":"三鷹市牟礼老人保健施設はなかいどう","province":"東京都","city":"三鷹市","address":"三鷹市牟礼6-12-30","lat":35.687837,"lon":139.574399},{"name":"三鷹市子ども発達支援センター","province":"東京都","city":"三鷹市","address":"三鷹市新川6-37-1","lat":35.681774,"lon":139.561834},{"name":"コーポ三鷹","province":"東京都","city":"三鷹市","address":"東京都三鷹市","lat":35.68327617,"lon":139.55972268},{"name":"グッドライフ三鷹寮","province":"東京都","city":"三鷹市","address":"三鷹市野崎4-4-23","lat":35.680037,"lon":139.542419},{"name":"三鷹荘","province":"東京都","city":"三鷹市","address":"三鷹市大沢1-1-50","lat":35.678088,"lon":139.542266},{"name":"三鷹市社会福祉協議会","province":"東京都","city":"三鷹市","address":"三鷹市新川6-37-1元気創造プラザ3階福祉センター内","lat":35.681774,"lon":139.561834},{"name":"グッドライフ三鷹寮","province":"東京都","city":"三鷹市","address":"三鷹市野崎4-4-23","lat":35.67979,"lon":139.54228},{"name":"三鷹荘","province":"東京都","city":"三鷹市","address":"三鷹市大沢1-1-50","lat":35.67792,"lon":139.54054},{"name":"さくら三鷹ハウス","province":"東京都","city":"三鷹市","address":"東京都三鷹市","lat":35.68327617,"lon":139.55972268},{"name":"株式会社　AZUMA","province":"東京都","city":"三鷹市","address":"東京都三鷹市上連雀2丁目5-15","lat":35.69835788,"lon":139.55886948},{"name":"（株）奥野式典","province":"東京都","city":"三鷹市","address":"東京都三鷹市野崎2丁目20-12","lat":35.68346477,"lon":139.54524346},{"name":"東京点字出版所","province":"東京都","city":"三鷹市","address":"三鷹市下連雀3-32-10","lat":35.69877,"lon":139.56078},{"name":"三鷹市社会福祉協議会","province":"東京都","city":"三鷹市","address":"三鷹市新川6-37-1元気創造プラザ3階福祉センター内","lat":35.68187,"lon":139.56218},{"name":"社会福祉法人巣立ち会巣立ち工房","province":"東京都","city":"三鷹市","address":"東京都三鷹市下連雀4丁目17-6","lat":35.69395285,"lon":139.56107777},{"name":"社会福祉法人三鷹ひまわり会三鷹ひまわり第一共同作業所","province":"東京都","city":"三鷹市","address":"東京都三鷹市下連雀4丁目8-20","lat":35.69289466,"lon":139.56269154},{"name":"社会福祉法人三鷹ひまわり会三鷹ひまわり第二共同作業所","province":"東京都","city":"三鷹市","address":"東京都三鷹市上連雀4丁目1-8","lat":35.69715802,"lon":139.5589973},{"name":"社会福祉法人三鷹ひまわり会三鷹ひまわり第三共同作業所","province":"東京都","city":"三鷹市","address":"東京都三鷹市下連雀3丁目11-8","lat":35.69754137,"lon":139.56297191},{"name":"ＡＨＣグループ株式会社就労移行支援事業所TODAY三鷹","province":"東京都","city":"三鷹市","address":"東京都三鷹市下連雀4丁目15-38","lat":35.69644425,"lon":139.56140265},{"name":"ウェルビー株式会社ウェルビー三鷹センター","province":"東京都","city":"三鷹市","address":"東京都三鷹市下連雀3丁目32-3","lat":35.69887174,"lon":139.56074428},{"name":"社会福祉法人にじの会ワークショップハーモニー","province":"東京都","city":"三鷹市","address":"東京都三鷹市大沢1丁目1-43","lat":35.67857915,"lon":139.54100516},{"name":"社会福祉法人むうぷむうぷ舎中原","province":"東京都","city":"三鷹市","address":"東京都三鷹市牟礼7丁目5-14","lat":35.68232936,"lon":139.57319374},{"name":"株式会社東京リハビリテーションサービス生活機能型デイサービスりぶうぇる","province":"東京都","city":"三鷹市","address":"東京都三鷹市牟礼6丁目13-15","lat":35.68913974,"lon":139.57464615},{"name":"東京点字出版所","province":"東京都","city":"三鷹市","address":"三鷹市下連雀3-32-10","lat":35.698472,"lon":139.560553},{"name":"グッドライフ三鷹寮","province":"東京都","city":"三鷹市","address":"三鷹市野崎4-4-23","lat":35.68024,"lon":139.54076},{"name":"三鷹市牟礼老人保健施設はなかいどう","province":"東京都","city":"三鷹市","address":"三鷹市牟礼6-12-30","lat":35.687837,"lon":139.574399},{"name":"三鷹市子ども発達支援センター","province":"東京都","city":"三鷹市","address":"三鷹市新川6-37-1","lat":35.681774,"lon":139.561834},{"name":"コーポ三鷹","province":"東京都","city":"三鷹市","address":"東京都三鷹市","lat":35.68327617,"lon":139.55972268},{"name":"グッドライフ三鷹寮","province":"東京都","city":"三鷹市","address":"三鷹市野崎4-4-23","lat":35.680037,"lon":139.542419},{"name":"三鷹荘","province":"東京都","city":"三鷹市","address":"三鷹市大沢1-1-50","lat":35.678088,"lon":139.542266},{"name":"三鷹市社会福祉協議会","province":"東京都","city":"三鷹市","address":"三鷹市新川6-37-1元気創造プラザ3階福祉センター内","lat":35.681774,"lon":139.561834},{"name":"グッドライフ三鷹寮","province":"東京都","city":"三鷹市","address":"三鷹市野崎4-4-23","lat":35.67979,"lon":139.54228},{"name":"三鷹荘","province":"東京都","city":"三鷹市","address":"三鷹市大沢1-1-50","lat":35.67792,"lon":139.54054},{"name":"さくら三鷹ハウス","province":"東京都","city":"三鷹市","address":"東京都三鷹市","lat":35.68327617,"lon":139.55972268},{"name":"株式会社　AZUMA","province":"東京都","city":"三鷹市","address":"東京都三鷹市上連雀2丁目5-15","lat":35.69835788,"lon":139.55886948},{"name":"（株）奥野式典","province":"東京都","city":"三鷹市","address":"東京都三鷹市野崎2丁目20-12","lat":35.68346477,"lon":139.54524346},{"name":"東京点字出版所","province":"東京都","city":"三鷹市","address":"三鷹市下連雀3-32-10","lat":35.69877,"lon":139.56078},{"name":"三鷹市社会福祉協議会","province":"東京都","city":"三鷹市","address":"三鷹市新川6-37-1元気創造プラザ3階福祉センター内","lat":35.68187,"lon":139.56218},{"name":"社会福祉法人巣立ち会巣立ち工房","province":"東京都","city":"三鷹市","address":"東京都三鷹市下連雀4丁目17-6","lat":35.69395285,"lon":139.56107777},{"name":"社会福祉法人三鷹ひまわり会三鷹ひまわり第一共同作業所","province":"東京都","city":"三鷹市","address":"東京都三鷹市下連雀4丁目8-20","lat":35.69289466,"lon":139.56269154},{"name":"社会福祉法人三鷹ひまわり会三鷹ひまわり第二共同作業所","province":"東京都","city":"三鷹市","address":"東京都三鷹市上連雀4丁目1-8","lat":35.69715802,"lon":139.5589973},{"name":"社会福祉法人三鷹ひまわり会三鷹ひまわり第三共同作業所","province":"東京都","city":"三鷹市","address":"東京都三鷹市下連雀3丁目11-8","lat":35.69754137,"lon":139.56297191},{"name":"ＡＨＣグループ株式会社就労移行支援事業所TODAY三鷹","province":"東京都","city":"三鷹市","address":"東京都三鷹市下連雀4丁目15-38","lat":35.69644425,"lon":139.56140265},{"name":"ウェルビー株式会社ウェルビー三鷹センター","province":"東京都","city":"三鷹市","address":"東京都三鷹市下連雀3丁目32-3","lat":35.69887174,"lon":139.56074428},{"name":"社会福祉法人にじの会ワークショップハーモニー","province":"東京都","city":"三鷹市","address":"東京都三鷹市大沢1丁目1-43","lat":35.67857915,"lon":139.54100516},{"name":"社会福祉法人むうぷむうぷ舎中原","province":"東京都","city":"三鷹市","address":"東京都三鷹市牟礼7丁目5-14","lat":35.68232936,"lon":139.57319374},{"name":"株式会社東京リハビリテーションサービス生活機能型デイサービスりぶうぇる","province":"東京都","city":"三鷹市","address":"東京都三鷹市牟礼6丁目13-15","lat":35.68913974,"lon":139.57464615},{"name":"東京点字出版所","province":"東京都","city":"三鷹市","address":"三鷹市下連雀3-32-10","lat":35.698472,"lon":139.560553},{"name":"グッドライフ三鷹寮","province":"東京都","city":"三鷹市","address":"三鷹市野崎4-4-23","lat":35.68024,"lon":139.54076},{"name":"三鷹市牟礼老人保健施設はなかいどう","province":"東京都","city":"三鷹市","address":"三鷹市牟礼6-12-30","lat":35.687837,"lon":139.574399},{"name":"三鷹市子ども発達支援センター","province":"東京都","city":"三鷹市","address":"三鷹市新川6-37-1","lat":35.681774,"lon":139.561834},{"name":"コーポ三鷹","province":"東京都","city":"三鷹市","address":"東京都三鷹市","lat":35.68327617,"lon":139.55972268},{"name":"グッドライフ三鷹寮","province":"東京都","city":"三鷹市","address":"三鷹市野崎4-4-23","lat":35.680037,"lon":139.542419},{"name":"三鷹荘","province":"東京都","city":"三鷹市","address":"三鷹市大沢1-1-50","lat":35.678088,"lon":139.542266},{"name":"三鷹市社会福祉協議会","province":"東京都","city":"三鷹市","address":"三鷹市新川6-37-1元気創造プラザ3階福祉センター内","lat":35.681774,"lon":139.561834},{"name":"グッドライフ三鷹寮","province":"東京都","city":"三鷹市","address":"三鷹市野崎4-4-23","lat":35.67979,"lon":139.54228},{"name":"三鷹荘","province":"東京都","city":"三鷹市","address":"三鷹市大沢1-1-50","lat":35.67792,"lon":139.54054},{"name":"さくら三鷹ハウス","province":"東京都","city":"三鷹市","address":"東京都三鷹市","lat":35.68327617,"lon":139.55972268},{"name":"東京点字出版所","province":"東京都","city":"三鷹市","address":"三鷹市下連雀3-32-10","lat":35.69877,"lon":139.56078},{"name":"三鷹市社会福祉協議会","province":"東京都","city":"三鷹市","address":"三鷹市新川6-37-1元気創造プラザ3階福祉センター内","lat":35.68187,"lon":139.56218},{"name":"社会福祉法人巣立ち会巣立ち工房","province":"東京都","city":"三鷹市","address":"東京都三鷹市下連雀4丁目17-6","lat":35.69395285,"lon":139.56107777},{"name":"社会福祉法人三鷹ひまわり会三鷹ひまわり第一共同作業所","province":"東京都","city":"三鷹市","address":"東京都三鷹市下連雀4丁目8-20","lat":35.69289466,"lon":139.56269154},{"name":"社会福祉法人三鷹ひまわり会三鷹ひまわり第二共同作業所","province":"東京都","city":"三鷹市","address":"東京都三鷹市上連雀4丁目1-8","lat":35.69715802,"lon":139.5589973},{"name":"社会福祉法人三鷹ひまわり会三鷹ひまわり第三共同作業所","province":"東京都","city":"三鷹市","address":"東京都三鷹市下連雀3丁目11-8","lat":35.69754137,"lon":139.56297191},{"name":"ＡＨＣグループ株式会社就労移行支援事業所TODAY三鷹","province":"東京都","city":"三鷹市","address":"東京都三鷹市下連雀4丁目15-38","lat":35.69644425,"lon":139.56140265},{"name":"ウェルビー株式会社ウェルビー三鷹センター","province":"東京都","city":"三鷹市","address":"東京都三鷹市下連雀3丁目32-3","lat":35.69887174,"lon":139.56074428},{"name":"社会福祉法人にじの会ワークショップハーモニー","province":"東京都","city":"三鷹市","address":"東京都三鷹市大沢1丁目1-43","lat":35.67857915,"lon":139.54100516},{"name":"社会福祉法人むうぷむうぷ舎中原","province":"東京都","city":"三鷹市","address":"東京都三鷹市牟礼7丁目5-14","lat":35.68232936,"lon":139.57319374},{"name":"株式会社東京リハビリテーションサービス生活機能型デイサービスりぶうぇる","province":"東京都","city":"三鷹市","address":"東京都三鷹市牟礼6丁目13-15","lat":35.68913974,"lon":139.57464615},{"name":"東京点字出版所","province":"東京都","city":"三鷹市","address":"三鷹市下連雀3-32-10","lat":35.698472,"lon":139.560553},{"name":"グッドライフ三鷹寮","province":"東京都","city":"三鷹市","address":"三鷹市野崎4-4-23","lat":35.68024,"lon":139.54076},{"name":"三鷹市牟礼老人保健施設はなかいどう","province":"東京都","city":"三鷹市","address":"三鷹市牟礼6-12-30","lat":35.687837,"lon":139.574399},{"name":"三鷹市子ども発達支援センター","province":"東京都","city":"三鷹市","address":"三鷹市新川6-37-1","lat":35.681774,"lon":139.561834},{"name":"コーポ三鷹","province":"東京都","city":"三鷹市","address":"東京都三鷹市","lat":35.68327617,"lon":139.55972268},{"name":"グッドライフ三鷹寮","province":"東京都","city":"三鷹市","address":"三鷹市野崎4-4-23","lat":35.680037,"lon":139.542419},{"name":"三鷹荘","province":"東京都","city":"三鷹市","address":"三鷹市大沢1-1-50","lat":35.678088,"lon":139.542266},{"name":"三鷹市社会福祉協議会","province":"東京都","city":"三鷹市","address":"三鷹市新川6-37-1元気創造プラザ3階福祉センター内","lat":35.681774,"lon":139.561834},{"name":"グッドライフ三鷹寮","province":"東京都","city":"三鷹市","address":"三鷹市野崎4-4-23","lat":35.67979,"lon":139.54228},{"name":"三鷹荘","province":"東京都","city":"三鷹市","address":"三鷹市大沢1-1-50","lat":35.67792,"lon":139.54054},{"name":"さくら三鷹ハウス","province":"東京都","city":"三鷹市","address":"東京都三鷹市","lat":35.68327617,"lon":139.55972268},{"name":"東京点字出版所","province":"東京都","city":"三鷹市","address":"三鷹市下連雀3-32-10","lat":35.69877,"lon":139.56078},{"name":"三鷹市社会福祉協議会","province":"東京都","city":"三鷹市","address":"三鷹市新川6-37-1元気創造プラザ3階福祉センター内","lat":35.68187,"lon":139.56218},{"name":"社会福祉法人巣立ち会巣立ち工房","province":"東京都","city":"三鷹市","address":"東京都三鷹市下連雀4丁目17-6","lat":35.69395285,"lon":139.56107777},{"name":"社会福祉法人三鷹ひまわり会三鷹ひまわり第一共同作業所","province":"東京都","city":"三鷹市","address":"東京都三鷹市下連雀4丁目8-20","lat":35.69289466,"lon":139.56269154},{"name":"社会福祉法人三鷹ひまわり会三鷹ひまわり第二共同作業所","province":"東京都","city":"三鷹市","address":"東京都三鷹市上連雀4丁目1-8","lat":35.69715802,"lon":139.5589973},{"name":"社会福祉法人三鷹ひまわり会三鷹ひまわり第三共同作業所","province":"東京都","city":"三鷹市","address":"東京都三鷹市下連雀3丁目11-8","lat":35.69754137,"lon":139.56297191},{"name":"ＡＨＣグループ株式会社就労移行支援事業所TODAY三鷹","province":"東京都","city":"三鷹市","address":"東京都三鷹市下連雀4丁目15-38","lat":35.69644425,"lon":139.56140265},{"name":"ウェルビー株式会社ウェルビー三鷹センター","province":"東京都","city":"三鷹市","address":"東京都三鷹市下連雀3丁目32-3","lat":35.69887174,"lon":139.56074428},{"name":"社会福祉法人にじの会ワークショップハーモニー","province":"東京都","city":"三鷹市","address":"東京都三鷹市大沢1丁目1-43","lat":35.67857915,"lon":139.54100516},{"name":"社会福祉法人むうぷむうぷ舎中原","province":"東京都","city":"三鷹市","address":"東京都三鷹市牟礼7丁目5-14","lat":35.68232936,"lon":139.57319374},{"name":"株式会社東京リハビリテーションサービス生活機能型デイサービスりぶうぇる","province":"東京都","city":"三鷹市","address":"東京都三鷹市牟礼6丁目13-15","lat":35.68913974,"lon":139.57464615},{"name":"東京点字出版所","province":"東京都","city":"三鷹市","address":"三鷹市下連雀3-32-10","lat":35.698472,"lon":139.560553},{"name":"グッドライフ三鷹寮","province":"東京都","city":"三鷹市","address":"三鷹市野崎4-4-23","lat":35.68024,"lon":139.54076},{"name":"三鷹市牟礼老人保健施設はなかいどう","province":"東京都","city":"三鷹市","address":"三鷹市牟礼6-12-30","lat":35.687837,"lon":139.574399},{"name":"三鷹市子ども発達支援センター","province":"東京都","city":"三鷹市","address":"三鷹市新川6-37-1","lat":35.681774,"lon":139.561834},{"name":"コーポ三鷹","province":"東京都","city":"三鷹市","address":"東京都三鷹市","lat":35.68327617,"lon":139.55972268},{"name":"グッドライフ三鷹寮","province":"東京都","city":"三鷹市","address":"三鷹市野崎4-4-23","lat":35.680037,"lon":139.542419},{"name":"三鷹荘","province":"東京都","city":"三鷹市","address":"三鷹市大沢1-1-50","lat":35.678088,"lon":139.542266},{"name":"三鷹市社会福祉協議会","province":"東京都","city":"三鷹市","address":"三鷹市新川6-37-1元気創造プラザ3階福祉センター内","lat":35.681774,"lon":139.561834},{"name":"グッドライフ三鷹寮","province":"東京都","city":"三鷹市","address":"三鷹市野崎4-4-23","lat":35.67979,"lon":139.54228},{"name":"三鷹荘","province":"東京都","city":"三鷹市","address":"三鷹市大沢1-1-50","lat":35.67792,"lon":139.54054},{"name":"さくら三鷹ハウス","province":"東京都","city":"三鷹市","address":"東京都三鷹市","lat":35.68327617,"lon":139.55972268},{"name":"東京点字出版所","province":"東京都","city":"三鷹市","address":"三鷹市下連雀3-32-10","lat":35.69877,"lon":139.56078},{"name":"三鷹市社会福祉協議会","province":"東京都","city":"三鷹市","address":"三鷹市新川6-37-1元気創造プラザ3階福祉センター内","lat":35.68187,"lon":139.56218},{"name":"社会福祉法人巣立ち会巣立ち工房","province":"東京都","city":"三鷹市","address":"東京都三鷹市下連雀4丁目17-6","lat":35.69395285,"lon":139.56107777},{"name":"社会福祉法人三鷹ひまわり会三鷹ひまわり第一共同作業所","province":"東京都","city":"三鷹市","address":"東京都三鷹市下連雀4丁目8-20","lat":35.69289466,"lon":139.56269154},{"name":"社会福祉法人三鷹ひまわり会三鷹ひまわり第二共同作業所","province":"東京都","city":"三鷹市","address":"東京都三鷹市上連雀4丁目1-8","lat":35.69715802,"lon":139.5589973},{"name":"社会福祉法人三鷹ひまわり会三鷹ひまわり第三共同作業所","province":"東京都","city":"三鷹市","address":"東京都三鷹市下連雀3丁目11-8","lat":35.69754137,"lon":139.56297191},{"name":"ＡＨＣグループ株式会社就労移行支援事業所TODAY三鷹","province":"東京都","city":"三鷹市","address":"東京都三鷹市下連雀4丁目15-38","lat":35.69644425,"lon":139.56140265},{"name":"ウェルビー株式会社ウェルビー三鷹センター","province":"東京都","city":"三鷹市","address":"東京都三鷹市下連雀3丁目32-3","lat":35.69887174,"lon":139.56074428},{"name":"社会福祉法人にじの会ワークショップハーモニー","province":"東京都","city":"三鷹市","address":"東京都三鷹市大沢1丁目1-43","lat":35.67857915,"lon":139.54100516},{"name":"社会福祉法人むうぷむうぷ舎中原","province":"東京都","city":"三鷹市","address":"東京都三鷹市牟礼7丁目5-14","lat":35.68232936,"lon":139.57319374},{"name":"株式会社東京リハビリテーションサービス生活機能型デイサービスりぶうぇる","province":"東京都","city":"三鷹市","address":"東京都三鷹市牟礼6丁目13-15","lat":35.68913974,"lon":139.57464615},{"name":"東京点字出版所","province":"東京都","city":"三鷹市","address":"三鷹市下連雀3-32-10","lat":35.698472,"lon":139.560553},{"name":"グッドライフ三鷹寮","province":"東京都","city":"三鷹市","address":"三鷹市野崎4-4-23","lat":35.68024,"lon":139.54076},{"name":"三鷹市牟礼老人保健施設はなかいどう","province":"東京都","city":"三鷹市","address":"三鷹市牟礼6-12-30","lat":35.687837,"lon":139.574399},{"name":"三鷹市子ども発達支援センター","province":"東京都","city":"三鷹市","address":"三鷹市新川6-37-1","lat":35.681774,"lon":139.561834},{"name":"コーポ三鷹","province":"東京都","city":"三鷹市","address":"東京都三鷹市","lat":35.68327617,"lon":139.55972268},{"name":"グッドライフ三鷹寮","province":"東京都","city":"三鷹市","address":"三鷹市野崎4-4-23","lat":35.680037,"lon":139.542419},{"name":"三鷹荘","province":"東京都","city":"三鷹市","address":"三鷹市大沢1-1-50","lat":35.678088,"lon":139.542266},{"name":"三鷹市社会福祉協議会","province":"東京都","city":"三鷹市","address":"三鷹市新川6-37-1元気創造プラザ3階福祉センター内","lat":35.681774,"lon":139.561834},{"name":"グッドライフ三鷹寮","province":"東京都","city":"三鷹市","address":"三鷹市野崎4-4-23","lat":35.67979,"lon":139.54228},{"name":"三鷹荘","province":"東京都","city":"三鷹市","address":"三鷹市大沢1-1-50","lat":35.67792,"lon":139.54054},{"name":"さくら三鷹ハウス","province":"東京都","city":"三鷹市","address":"東京都三鷹市","lat":35.68327617,"lon":139.55972268},{"name":"東京点字出版所","province":"東京都","city":"三鷹市","address":"三鷹市下連雀3-32-10","lat":35.69877,"lon":139.56078},{"name":"三鷹市社会福祉協議会","province":"東京都","city":"三鷹市","address":"三鷹市新川6-37-1元気創造プラザ3階福祉センター内","lat":35.68187,"lon":139.56218},{"name":"社会福祉法人巣立ち会巣立ち工房","province":"東京都","city":"三鷹市","address":"東京都三鷹市下連雀4丁目17-6","lat":35.69395285,"lon":139.56107777},{"name":"社会福祉法人三鷹ひまわり会三鷹ひまわり第一共同作業所","province":"東京都","city":"三鷹市","address":"東京都三鷹市下連雀4丁目8-20","lat":35.69289466,"lon":139.56269154},{"name":"社会福祉法人三鷹ひまわり会三鷹ひまわり第二共同作業所","province":"東京都","city":"三鷹市","address":"東京都三鷹市上連雀4丁目1-8","lat":35.69715802,"lon":139.5589973},{"name":"社会福祉法人三鷹ひまわり会三鷹ひまわり第三共同作業所","province":"東京都","city":"三鷹市","address":"東京都三鷹市下連雀3丁目11-8","lat":35.69754137,"lon":139.56297191},{"name":"ＡＨＣグループ株式会社就労移行支援事業所TODAY三鷹","province":"東京都","city":"三鷹市","address":"東京都三鷹市下連雀4丁目15-38","lat":35.69644425,"lon":139.56140265},{"name":"ウェルビー株式会社ウェルビー三鷹センター","province":"東京都","city":"三鷹市","address":"東京都三鷹市下連雀3丁目32-3","lat":35.69887174,"lon":139.56074428},{"name":"社会福祉法人にじの会ワークショップハーモニー","province":"東京都","city":"三鷹市","address":"東京都三鷹市大沢1丁目1-43","lat":35.67857915,"lon":139.54100516},{"name":"社会福祉法人むうぷむうぷ舎中原","province":"東京都","city":"三鷹市","address":"東京都三鷹市牟礼7丁目5-14","lat":35.68232936,"lon":139.57319374},{"name":"株式会社東京リハビリテーションサービス生活機能型デイサービスりぶうぇる","province":"東京都","city":"三鷹市","address":"東京都三鷹市牟礼6丁目13-15","lat":35.68913974,"lon":139.57464615},{"name":"東京点字出版所","province":"東京都","city":"三鷹市","address":"三鷹市下連雀3-32-10","lat":35.698472,"lon":139.560553},{"name":"グッドライフ三鷹寮","province":"東京都","city":"三鷹市","address":"三鷹市野崎4-4-23","lat":35.68024,"lon":139.54076},{"name":"三鷹市牟礼老人保健施設はなかいどう","province":"東京都","city":"三鷹市","address":"三鷹市牟礼6-12-30","lat":35.687837,"lon":139.574399},{"name":"三鷹市子ども発達支援センター","province":"東京都","city":"三鷹市","address":"三鷹市新川6-37-1","lat":35.681774,"lon":139.561834},{"name":"コーポ三鷹","province":"東京都","city":"三鷹市","address":"東京都三鷹市","lat":35.68327617,"lon":139.55972268},{"name":"グッドライフ三鷹寮","province":"東京都","city":"三鷹市","address":"三鷹市野崎4-4-23","lat":35.680037,"lon":139.542419},{"name":"三鷹荘","province":"東京都","city":"三鷹市","address":"三鷹市大沢1-1-50","lat":35.678088,"lon":139.542266},{"name":"三鷹市社会福祉協議会","province":"東京都","city":"三鷹市","address":"三鷹市新川6-37-1元気創造プラザ3階福祉センター内","lat":35.681774,"lon":139.561834},{"name":"グッドライフ三鷹寮","province":"東京都","city":"三鷹市","address":"三鷹市野崎4-4-23","lat":35.67979,"lon":139.54228},{"name":"三鷹荘","province":"東京都","city":"三鷹市","address":"三鷹市大沢1-1-50","lat":35.67792,"lon":139.54054},{"name":"さくら三鷹ハウス","province":"東京都","city":"三鷹市","address":"東京都三鷹市","lat":35.68327617,"lon":139.55972268},{"name":"東京点字出版所","province":"東京都","city":"三鷹市","address":"三鷹市下連雀3-32-10","lat":35.69877,"lon":139.56078},{"name":"三鷹市社会福祉協議会","province":"東京都","city":"三鷹市","address":"三鷹市新川6-37-1元気創造プラザ3階福祉センター内","lat":35.68187,"lon":139.56218},{"name":"社会福祉法人巣立ち会巣立ち工房","province":"東京都","city":"三鷹市","address":"東京都三鷹市下連雀4丁目17-6","lat":35.69395285,"lon":139.56107777},{"name":"社会福祉法人三鷹ひまわり会三鷹ひまわり第一共同作業所","province":"東京都","city":"三鷹市","address":"東京都三鷹市下連雀4丁目8-20","lat":35.69289466,"lon":139.56269154},{"name":"社会福祉法人三鷹ひまわり会三鷹ひまわり第二共同作業所","province":"東京都","city":"三鷹市","address":"東京都三鷹市上連雀4丁目1-8","lat":35.69715802,"lon":139.5589973},{"name":"社会福祉法人三鷹ひまわり会三鷹ひまわり第三共同作業所","province":"東京都","city":"三鷹市","address":"東京都三鷹市下連雀3丁目11-8","lat":35.69754137,"lon":139.56297191},{"name":"ＡＨＣグループ株式会社就労移行支援事業所TODAY三鷹","province":"東京都","city":"三鷹市","address":"東京都三鷹市下連雀4丁目15-38","lat":35.69644425,"lon":139.56140265},{"name":"ウェルビー株式会社ウェルビー三鷹センター","province":"東京都","city":"三鷹市","address":"東京都三鷹市下連雀3丁目32-3","lat":35.69887174,"lon":139.56074428},{"name":"社会福祉法人にじの会ワークショップハーモニー","province":"東京都","city":"三鷹市","address":"東京都三鷹市大沢1丁目1-43","lat":35.67857915,"lon":139.54100516},{"name":"社会福祉法人むうぷむうぷ舎中原","province":"東京都","city":"三鷹市","address":"東京都三鷹市牟礼7丁目5-14","lat":35.68232936,"lon":139.57319374},{"name":"株式会社東京リハビリテーションサービス生活機能型デイサービスりぶうぇる","province":"東京都","city":"三鷹市","address":"東京都三鷹市牟礼6丁目13-15","lat":35.68913974,"lon":139.57464615},{"name":"東京点字出版所","province":"東京都","city":"三鷹市","address":"三鷹市下連雀3-32-10","lat":35.698472,"lon":139.560553},{"name":"グッドライフ三鷹寮","province":"東京都","city":"三鷹市","address":"三鷹市野崎4-4-23","lat":35.68024,"lon":139.54076},{"name":"三鷹市牟礼老人保健施設はなかいどう","province":"東京都","city":"三鷹市","address":"三鷹市牟礼6-12-30","lat":35.687837,"lon":139.574399},{"name":"三鷹市子ども発達支援センター","province":"東京都","city":"三鷹市","address":"三鷹市新川6-37-1","lat":35.681774,"lon":139.561834},{"name":"コーポ三鷹","province":"東京都","city":"三鷹市","address":"東京都三鷹市","lat":35.68327617,"lon":139.55972268},{"name":"グッドライフ三鷹寮","province":"東京都","city":"三鷹市","address":"三鷹市野崎4-4-23","lat":35.680037,"lon":139.542419},{"name":"三鷹荘","province":"東京都","city":"三鷹市","address":"三鷹市大沢1-1-50","lat":35.678088,"lon":139.542266},{"name":"三鷹市社会福祉協議会","province":"東京都","city":"三鷹市","address":"三鷹市新川6-37-1元気創造プラザ3階福祉センター内","lat":35.681774,"lon":139.561834},{"name":"グッドライフ三鷹寮","province":"東京都","city":"三鷹市","address":"三鷹市野崎4-4-23","lat":35.67979,"lon":139.54228},{"name":"三鷹荘","province":"東京都","city":"三鷹市","address":"三鷹市大沢1-1-50","lat":35.67792,"lon":139.54054},{"name":"さくら三鷹ハウス","province":"東京都","city":"三鷹市","address":"東京都三鷹市","lat":35.68327617,"lon":139.55972268},{"name":"東京点字出版所","province":"東京都","city":"三鷹市","address":"三鷹市下連雀3-32-10","lat":35.69877,"lon":139.56078},{"name":"三鷹市社会福祉協議会","province":"東京都","city":"三鷹市","address":"三鷹市新川6-37-1元気創造プラザ3階福祉センター内","lat":35.68187,"lon":139.56218},{"name":"社会福祉法人巣立ち会巣立ち工房","province":"東京都","city":"三鷹市","address":"東京都三鷹市下連雀4丁目17-6","lat":35.69395285,"lon":139.56107777},{"name":"社会福祉法人三鷹ひまわり会三鷹ひまわり第一共同作業所","province":"東京都","city":"三鷹市","address":"東京都三鷹市下連雀4丁目8-20","lat":35.69289466,"lon":139.56269154},{"name":"社会福祉法人三鷹ひまわり会三鷹ひまわり第二共同作業所","province":"東京都","city":"三鷹市","address":"東京都三鷹市上連雀4丁目1-8","lat":35.69715802,"lon":139.5589973},{"name":"社会福祉法人三鷹ひまわり会三鷹ひまわり第三共同作業所","province":"東京都","city":"三鷹市","address":"東京都三鷹市下連雀3丁目11-8","lat":35.69754137,"lon":139.56297191},{"name":"ＡＨＣグループ株式会社就労移行支援事業所TODAY三鷹","province":"東京都","city":"三鷹市","address":"東京都三鷹市下連雀4丁目15-38","lat":35.69644425,"lon":139.56140265},{"name":"ウェルビー株式会社ウェルビー三鷹センター","province":"東京都","city":"三鷹市","address":"東京都三鷹市下連雀3丁目32-3","lat":35.69887174,"lon":139.56074428},{"name":"社会福祉法人にじの会ワークショップハーモニー","province":"東京都","city":"三鷹市","address":"東京都三鷹市大沢1丁目1-43","lat":35.67857915,"lon":139.54100516},{"name":"社会福祉法人むうぷむうぷ舎中原","province":"東京都","city":"三鷹市","address":"東京都三鷹市牟礼7丁目5-14","lat":35.68232936,"lon":139.57319374},{"name":"株式会社東京リハビリテーションサービス生活機能型デイサービスりぶうぇる","province":"東京都","city":"三鷹市","address":"東京都三鷹市牟礼6丁目13-15","lat":35.68913974,"lon":139.57464615},{"name":"東京点字出版所","province":"東京都","city":"三鷹市","address":"三鷹市下連雀3-32-10","lat":35.698472,"lon":139.560553},{"name":"グッドライフ三鷹寮","province":"東京都","city":"三鷹市","address":"三鷹市野崎4-4-23","lat":35.68024,"lon":139.54076},{"name":"三鷹市牟礼老人保健施設はなかいどう","province":"東京都","city":"三鷹市","address":"三鷹市牟礼6-12-30","lat":35.687837,"lon":139.574399},{"name":"三鷹市子ども発達支援センター","province":"東京都","city":"三鷹市","address":"三鷹市新川6-37-1","lat":35.681774,"lon":139.561834},{"name":"コーポ三鷹","province":"東京都","city":"三鷹市","address":"東京都三鷹市","lat":35.68327617,"lon":139.55972268},{"name":"グッドライフ三鷹寮","province":"東京都","city":"三鷹市","address":"三鷹市野崎4-4-23","lat":35.680037,"lon":139.542419},{"name":"三鷹荘","province":"東京都","city":"三鷹市","address":"三鷹市大沢1-1-50","lat":35.678088,"lon":139.542266},{"name":"三鷹市社会福祉協議会","province":"東京都","city":"三鷹市","address":"三鷹市新川6-37-1元気創造プラザ3階福祉センター内","lat":35.681774,"lon":139.561834},{"name":"グッドライフ三鷹寮","province":"東京都","city":"三鷹市","address":"三鷹市野崎4-4-23","lat":35.67979,"lon":139.54228},{"name":"三鷹荘","province":"東京都","city":"三鷹市","address":"三鷹市大沢1-1-50","lat":35.67792,"lon":139.54054},{"name":"さくら三鷹ハウス","province":"東京都","city":"三鷹市","address":"東京都三鷹市","lat":35.68327617,"lon":139.55972268},{"name":"東京点字出版所","province":"東京都","city":"三鷹市","address":"三鷹市下連雀3-32-10","lat":35.69877,"lon":139.56078},{"name":"三鷹市社会福祉協議会","province":"東京都","city":"三鷹市","address":"三鷹市新川6-37-1元気創造プラザ3階福祉センター内","lat":35.68187,"lon":139.56218},{"name":"社会福祉法人巣立ち会巣立ち工房","province":"東京都","city":"三鷹市","address":"東京都三鷹市下連雀4丁目17-6","lat":35.69395285,"lon":139.56107777},{"name":"社会福祉法人三鷹ひまわり会三鷹ひまわり第一共同作業所","province":"東京都","city":"三鷹市","address":"東京都三鷹市下連雀4丁目8-20","lat":35.69289466,"lon":139.56269154},{"name":"社会福祉法人三鷹ひまわり会三鷹ひまわり第二共同作業所","province":"東京都","city":"三鷹市","address":"東京都三鷹市上連雀4丁目1-8","lat":35.69715802,"lon":139.5589973},{"name":"社会福祉法人三鷹ひまわり会三鷹ひまわり第三共同作業所","province":"東京都","city":"三鷹市","address":"東京都三鷹市下連雀3丁目11-8","lat":35.69754137,"lon":139.56297191},{"name":"ＡＨＣグループ株式会社就労移行支援事業所TODAY三鷹","province":"東京都","city":"三鷹市","address":"東京都三鷹市下連雀4丁目15-38","lat":35.69644425,"lon":139.56140265},{"name":"ウェルビー株式会社ウェルビー三鷹センター","province":"東京都","city":"三鷹市","address":"東京都三鷹市下連雀3丁目32-3","lat":35.69887174,"lon":139.56074428},{"name":"社会福祉法人にじの会ワークショップハーモニー","province":"東京都","city":"三鷹市","address":"東京都三鷹市大沢1丁目1-43","lat":35.67857915,"lon":139.54100516},{"name":"社会福祉法人むうぷむうぷ舎中原","province":"東京都","city":"三鷹市","address":"東京都三鷹市牟礼7丁目5-14","lat":35.68232936,"lon":139.57319374},{"name":"株式会社東京リハビリテーションサービス生活機能型デイサービスりぶうぇる","province":"東京都","city":"三鷹市","address":"東京都三鷹市牟礼6丁目13-15","lat":35.68913974,"lon":139.57464615},{"name":"東京点字出版所","province":"東京都","city":"三鷹市","address":"三鷹市下連雀3-32-10","lat":35.698472,"lon":139.560553},{"name":"グッドライフ三鷹寮","province":"東京都","city":"三鷹市","address":"三鷹市野崎4-4-23","lat":35.68024,"lon":139.54076},{"name":"三鷹市牟礼老人保健施設はなかいどう","province":"東京都","city":"三鷹市","address":"三鷹市牟礼6-12-30","lat":35.687837,"lon":139.574399},{"name":"三鷹市子ども発達支援センター","province":"東京都","city":"三鷹市","address":"三鷹市新川6-37-1","lat":35.681774,"lon":139.561834},{"name":"コーポ三鷹","province":"東京都","city":"三鷹市","address":"東京都三鷹市","lat":35.68327617,"lon":139.55972268},{"name":"グッドライフ三鷹寮","province":"東京都","city":"三鷹市","address":"三鷹市野崎4-4-23","lat":35.680037,"lon":139.542419},{"name":"三鷹荘","province":"東京都","city":"三鷹市","address":"三鷹市大沢1-1-50","lat":35.678088,"lon":139.542266},{"name":"三鷹市社会福祉協議会","province":"東京都","city":"三鷹市","address":"三鷹市新川6-37-1元気創造プラザ3階福祉センター内","lat":35.681774,"lon":139.561834},{"name":"グッドライフ三鷹寮","province":"東京都","city":"三鷹市","address":"三鷹市野崎4-4-23","lat":35.67979,"lon":139.54228},{"name":"三鷹荘","province":"東京都","city":"三鷹市","address":"三鷹市大沢1-1-50","lat":35.67792,"lon":139.54054},{"name":"さくら三鷹ハウス","province":"東京都","city":"三鷹市","address":"東京都三鷹市","lat":35.68327617,"lon":139.55972268},{"name":"東京点字出版所","province":"東京都","city":"三鷹市","address":"三鷹市下連雀3-32-10","lat":35.69877,"lon":139.56078},{"name":"三鷹市社会福祉協議会","province":"東京都","city":"三鷹市","address":"三鷹市新川6-37-1元気創造プラザ3階福祉センター内","lat":35.68187,"lon":139.56218},{"name":"社会福祉法人巣立ち会巣立ち工房","province":"東京都","city":"三鷹市","address":"東京都三鷹市下連雀4丁目17-6","lat":35.69395285,"lon":139.56107777},{"name":"社会福祉法人三鷹ひまわり会三鷹ひまわり第一共同作業所","province":"東京都","city":"三鷹市","address":"東京都三鷹市下連雀4丁目8-20","lat":35.69289466,"lon":139.56269154},{"name":"社会福祉法人三鷹ひまわり会三鷹ひまわり第二共同作業所","province":"東京都","city":"三鷹市","address":"東京都三鷹市上連雀4丁目1-8","lat":35.69715802,"lon":139.5589973},{"name":"社会福祉法人三鷹ひまわり会三鷹ひまわり第三共同作業所","province":"東京都","city":"三鷹市","address":"東京都三鷹市下連雀3丁目11-8","lat":35.69754137,"lon":139.56297191},{"name":"ＡＨＣグループ株式会社就労移行支援事業所TODAY三鷹","province":"東京都","city":"三鷹市","address":"東京都三鷹市下連雀4丁目15-38","lat":35.69644425,"lon":139.56140265},{"name":"ウェルビー株式会社ウェルビー三鷹センター","province":"東京都","city":"三鷹市","address":"東京都三鷹市下連雀3丁目32-3","lat":35.69887174,"lon":139.56074428},{"name":"社会福祉法人にじの会ワークショップハーモニー","province":"東京都","city":"三鷹市","address":"東京都三鷹市大沢1丁目1-43","lat":35.67857915,"lon":139.54100516},{"name":"社会福祉法人むうぷむうぷ舎中原","province":"東京都","city":"三鷹市","address":"東京都三鷹市牟礼7丁目5-14","lat":35.68232936,"lon":139.57319374},{"name":"株式会社東京リハビリテーションサービス生活機能型デイサービスりぶうぇる","province":"東京都","city":"三鷹市","address":"東京都三鷹市牟礼6丁目13-15","lat":35.68913974,"lon":139.57464615},{"name":"東京点字出版所","province":"東京都","city":"三鷹市","address":"三鷹市下連雀3-32-10","lat":35.698472,"lon":139.560553},{"name":"グッドライフ三鷹寮","province":"東京都","city":"三鷹市","address":"三鷹市野崎4-4-23","lat":35.68024,"lon":139.54076},{"name":"三鷹市牟礼老人保健施設はなかいどう","province":"東京都","city":"三鷹市","address":"三鷹市牟礼6-12-30","lat":35.687837,"lon":139.574399},{"name":"三鷹市子ども発達支援センター","province":"東京都","city":"三鷹市","address":"三鷹市新川6-37-1","lat":35.681774,"lon":139.561834},{"name":"コーポ三鷹","province":"東京都","city":"三鷹市","address":"東京都三鷹市","lat":35.68327617,"lon":139.55972268},{"name":"グッドライフ三鷹寮","province":"東京都","city":"三鷹市","address":"三鷹市野崎4-4-23","lat":35.680037,"lon":139.542419},{"name":"三鷹荘","province":"東京都","city":"三鷹市","address":"三鷹市大沢1-1-50","lat":35.678088,"lon":139.542266},{"name":"三鷹市社会福祉協議会","province":"東京都","city":"三鷹市","address":"三鷹市新川6-37-1元気創造プラザ3階福祉センター内","lat":35.681774,"lon":139.561834},{"name":"グッドライフ三鷹寮","province":"東京都","city":"三鷹市","address":"三鷹市野崎4-4-23","lat":35.67979,"lon":139.54228},{"name":"三鷹荘","province":"東京都","city":"三鷹市","address":"三鷹市大沢1-1-50","lat":35.67792,"lon":139.54054},{"name":"さくら三鷹ハウス","province":"東京都","city":"三鷹市","address":"東京都三鷹市","lat":35.68327617,"lon":139.55972268},{"name":"東京点字出版所","province":"東京都","city":"三鷹市","address":"三鷹市下連雀3-32-10","lat":35.69877,"lon":139.56078},{"name":"三鷹市社会福祉協議会","province":"東京都","city":"三鷹市","address":"三鷹市新川6-37-1元気創造プラザ3階福祉センター内","lat":35.68187,"lon":139.56218},{"name":"社会福祉法人巣立ち会巣立ち工房","province":"東京都","city":"三鷹市","address":"東京都三鷹市下連雀4丁目17-6","lat":35.69395285,"lon":139.56107777},{"name":"社会福祉法人三鷹ひまわり会三鷹ひまわり第一共同作業所","province":"東京都","city":"三鷹市","address":"東京都三鷹市下連雀4丁目8-20","lat":35.69289466,"lon":139.56269154},{"name":"社会福祉法人三鷹ひまわり会三鷹ひまわり第二共同作業所","province":"東京都","city":"三鷹市","address":"東京都三鷹市上連雀4丁目1-8","lat":35.69715802,"lon":139.5589973},{"name":"社会福祉法人三鷹ひまわり会三鷹ひまわり第三共同作業所","province":"東京都","city":"三鷹市","address":"東京都三鷹市下連雀3丁目11-8","lat":35.69754137,"lon":139.56297191},{"name":"ＡＨＣグループ株式会社就労移行支援事業所TODAY三鷹","province":"東京都","city":"三鷹市","address":"東京都三鷹市下連雀4丁目15-38","lat":35.69644425,"lon":139.56140265},{"name":"ウェルビー株式会社ウェルビー三鷹センター","province":"東京都","city":"三鷹市","address":"東京都三鷹市下連雀3丁目32-3","lat":35.69887174,"lon":139.56074428},{"name":"社会福祉法人にじの会ワークショップハーモニー","province":"東京都","city":"三鷹市","address":"東京都三鷹市大沢1丁目1-43","lat":35.67857915,"lon":139.54100516},{"name":"社会福祉法人むうぷむうぷ舎中原","province":"東京都","city":"三鷹市","address":"東京都三鷹市牟礼7丁目5-14","lat":35.68232936,"lon":139.57319374},{"name":"株式会社東京リハビリテーションサービス生活機能型デイサービスりぶうぇる","province":"東京都","city":"三鷹市","address":"東京都三鷹市牟礼6丁目13-15","lat":35.68913974,"lon":139.57464615},{"name":"東京点字出版所","province":"東京都","city":"三鷹市","address":"三鷹市下連雀3-32-10","lat":35.698472,"lon":139.560553},{"name":"グッドライフ三鷹寮","province":"東京都","city":"三鷹市","address":"三鷹市野崎4-4-23","lat":35.68024,"lon":139.54076},{"name":"三鷹市牟礼老人保健施設はなかいどう","province":"東京都","city":"三鷹市","address":"三鷹市牟礼6-12-30","lat":35.687837,"lon":139.574399},{"name":"三鷹市子ども発達支援センター","province":"東京都","city":"三鷹市","address":"三鷹市新川6-37-1","lat":35.681774,"lon":139.561834},{"name":"コーポ三鷹","province":"東京都","city":"三鷹市","address":"東京都三鷹市","lat":35.68327617,"lon":139.55972268},{"name":"グッドライフ三鷹寮","province":"東京都","city":"三鷹市","address":"三鷹市野崎4-4-23","lat":35.680037,"lon":139.542419},{"name":"三鷹荘","province":"東京都","city":"三鷹市","address":"三鷹市大沢1-1-50","lat":35.678088,"lon":139.542266},{"name":"三鷹市社会福祉協議会","province":"東京都","city":"三鷹市","address":"三鷹市新川6-37-1元気創造プラザ3階福祉センター内","lat":35.681774,"lon":139.561834},{"name":"グッドライフ三鷹寮","province":"東京都","city":"三鷹市","address":"三鷹市野崎4-4-23","lat":35.67979,"lon":139.54228},{"name":"三鷹荘","province":"東京都","city":"三鷹市","address":"三鷹市大沢1-1-50","lat":35.67792,"lon":139.54054},{"name":"さくら三鷹ハウス","province":"東京都","city":"三鷹市","address":"東京都三鷹市","lat":35.68327617,"lon":139.55972268},{"name":"東京点字出版所","province":"東京都","city":"三鷹市","address":"三鷹市下連雀3-32-10","lat":35.69877,"lon":139.56078},{"name":"三鷹市社会福祉協議会","province":"東京都","city":"三鷹市","address":"三鷹市新川6-37-1元気創造プラザ3階福祉センター内","lat":35.68187,"lon":139.56218},{"name":"社会福祉法人巣立ち会巣立ち工房","province":"東京都","city":"三鷹市","address":"東京都三鷹市下連雀4丁目17-6","lat":35.69395285,"lon":139.56107777},{"name":"社会福祉法人三鷹ひまわり会三鷹ひまわり第一共同作業所","province":"東京都","city":"三鷹市","address":"東京都三鷹市下連雀4丁目8-20","lat":35.69289466,"lon":139.56269154},{"name":"社会福祉法人三鷹ひまわり会三鷹ひまわり第二共同作業所","province":"東京都","city":"三鷹市","address":"東京都三鷹市上連雀4丁目1-8","lat":35.69715802,"lon":139.5589973},{"name":"社会福祉法人三鷹ひまわり会三鷹ひまわり第三共同作業所","province":"東京都","city":"三鷹市","address":"東京都三鷹市下連雀3丁目11-8","lat":35.69754137,"lon":139.56297191},{"name":"ＡＨＣグループ株式会社就労移行支援事業所TODAY三鷹","province":"東京都","city":"三鷹市","address":"東京都三鷹市下連雀4丁目15-38","lat":35.69644425,"lon":139.56140265},{"name":"ウェルビー株式会社ウェルビー三鷹センター","province":"東京都","city":"三鷹市","address":"東京都三鷹市下連雀3丁目32-3","lat":35.69887174,"lon":139.56074428},{"name":"社会福祉法人にじの会ワークショップハーモニー","province":"東京都","city":"三鷹市","address":"東京都三鷹市大沢1丁目1-43","lat":35.67857915,"lon":139.54100516},{"name":"社会福祉法人むうぷむうぷ舎中原","province":"東京都","city":"三鷹市","address":"東京都三鷹市牟礼7丁目5-14","lat":35.68232936,"lon":139.57319374},{"name":"株式会社東京リハビリテーションサービス生活機能型デイサービスりぶうぇる","province":"東京都","city":"三鷹市","address":"東京都三鷹市牟礼6丁目13-15","lat":35.68913974,"lon":139.57464615},{"name":"東京点字出版所","province":"東京都","city":"三鷹市","address":"三鷹市下連雀3-32-10","lat":35.698472,"lon":139.560553},{"name":"グッドライフ三鷹寮","province":"東京都","city":"三鷹市","address":"三鷹市野崎4-4-23","lat":35.68024,"lon":139.54076},{"name":"三鷹市牟礼老人保健施設はなかいどう","province":"東京都","city":"三鷹市","address":"三鷹市牟礼6-12-30","lat":35.687837,"lon":139.574399},{"name":"三鷹市子ども発達支援センター","province":"東京都","city":"三鷹市","address":"三鷹市新川6-37-1","lat":35.681774,"lon":139.561834},{"name":"コーポ三鷹","province":"東京都","city":"三鷹市","address":"東京都三鷹市","lat":35.68327617,"lon":139.55972268},{"name":"グッドライフ三鷹寮","province":"東京都","city":"三鷹市","address":"三鷹市野崎4-4-23","lat":35.680037,"lon":139.542419},{"name":"三鷹荘","province":"東京都","city":"三鷹市","address":"三鷹市大沢1-1-50","lat":35.678088,"lon":139.542266},{"name":"三鷹市社会福祉協議会","province":"東京都","city":"三鷹市","address":"三鷹市新川6-37-1元気創造プラザ3階福祉センター内","lat":35.681774,"lon":139.561834},{"name":"グッドライフ三鷹寮","province":"東京都","city":"三鷹市","address":"三鷹市野崎4-4-23","lat":35.67979,"lon":139.54228},{"name":"三鷹荘","province":"東京都","city":"三鷹市","address":"三鷹市大沢1-1-50","lat":35.67792,"lon":139.54054},{"name":"さくら三鷹ハウス","province":"東京都","city":"三鷹市","address":"東京都三鷹市","lat":35.68327617,"lon":139.55972268},{"name":"東京点字出版所","province":"東京都","city":"三鷹市","address":"三鷹市下連雀3-32-10","lat":35.69877,"lon":139.56078},{"name":"三鷹市社会福祉協議会","province":"東京都","city":"三鷹市","address":"三鷹市新川6-37-1元気創造プラザ3階福祉センター内","lat":35.68187,"lon":139.56218},{"name":"社会福祉法人巣立ち会巣立ち工房","province":"東京都","city":"三鷹市","address":"東京都三鷹市下連雀4丁目17-6","lat":35.69395285,"lon":139.56107777},{"name":"社会福祉法人三鷹ひまわり会三鷹ひまわり第一共同作業所","province":"東京都","city":"三鷹市","address":"東京都三鷹市下連雀4丁目8-20","lat":35.69289466,"lon":139.56269154},{"name":"社会福祉法人三鷹ひまわり会三鷹ひまわり第二共同作業所","province":"東京都","city":"三鷹市","address":"東京都三鷹市上連雀4丁目1-8","lat":35.69715802,"lon":139.5589973},{"name":"社会福祉法人三鷹ひまわり会三鷹ひまわり第三共同作業所","province":"東京都","city":"三鷹市","address":"東京都三鷹市下連雀3丁目11-8","lat":35.69754137,"lon":139.56297191},{"name":"ＡＨＣグループ株式会社就労移行支援事業所TODAY三鷹","province":"東京都","city":"三鷹市","address":"東京都三鷹市下連雀4丁目15-38","lat":35.69644425,"lon":139.56140265},{"name":"ウェルビー株式会社ウェルビー三鷹センター","province":"東京都","city":"三鷹市","address":"東京都三鷹市下連雀3丁目32-3","lat":35.69887174,"lon":139.56074428},{"name":"社会福祉法人にじの会ワークショップハーモニー","province":"東京都","city":"三鷹市","address":"東京都三鷹市大沢1丁目1-43","lat":35.67857915,"lon":139.54100516},{"name":"社会福祉法人むうぷむうぷ舎中原","province":"東京都","city":"三鷹市","address":"東京都三鷹市牟礼7丁目5-14","lat":35.68232936,"lon":139.57319374},{"name":"株式会社東京リハビリテーションサービス生活機能型デイサービスりぶうぇる","province":"東京都","city":"三鷹市","address":"東京都三鷹市牟礼6丁目13-15","lat":35.68913974,"lon":139.57464615},{"name":"東京点字出版所","province":"東京都","city":"三鷹市","address":"三鷹市下連雀3-32-10","lat":35.698472,"lon":139.560553},{"name":"グッドライフ三鷹寮","province":"東京都","city":"三鷹市","address":"三鷹市野崎4-4-23","lat":35.68024,"lon":139.54076},{"name":"三鷹市牟礼老人保健施設はなかいどう","province":"東京都","city":"三鷹市","address":"三鷹市牟礼6-12-30","lat":35.687837,"lon":139.574399},{"name":"三鷹市子ども発達支援センター","province":"東京都","city":"三鷹市","address":"三鷹市新川6-37-1","lat":35.681774,"lon":139.561834},{"name":"コーポ三鷹","province":"東京都","city":"三鷹市","address":"東京都三鷹市","lat":35.68327617,"lon":139.55972268},{"name":"グッドライフ三鷹寮","province":"東京都","city":"三鷹市","address":"三鷹市野崎4-4-23","lat":35.680037,"lon":139.542419},{"name":"三鷹荘","province":"東京都","city":"三鷹市","address":"三鷹市大沢1-1-50","lat":35.678088,"lon":139.542266},{"name":"三鷹市社会福祉協議会","province":"東京都","city":"三鷹市","address":"三鷹市新川6-37-1元気創造プラザ3階福祉センター内","lat":35.681774,"lon":139.561834},{"name":"グッドライフ三鷹寮","province":"東京都","city":"三鷹市","address":"三鷹市野崎4-4-23","lat":35.67979,"lon":139.54228},{"name":"三鷹荘","province":"東京都","city":"三鷹市","address":"三鷹市大沢1-1-50","lat":35.67792,"lon":139.54054},{"name":"さくら三鷹ハウス","province":"東京都","city":"三鷹市","address":"東京都三鷹市","lat":35.68327617,"lon":139.55972268},{"name":"東京点字出版所","province":"東京都","city":"三鷹市","address":"三鷹市下連雀3-32-10","lat":35.69877,"lon":139.56078},{"name":"三鷹市社会福祉協議会","province":"東京都","city":"三鷹市","address":"三鷹市新川6-37-1元気創造プラザ3階福祉センター内","lat":35.68187,"lon":139.56218},{"name":"社会福祉法人巣立ち会巣立ち工房","province":"東京都","city":"三鷹市","address":"東京都三鷹市下連雀4丁目17-6","lat":35.69395285,"lon":139.56107777},{"name":"社会福祉法人三鷹ひまわり会三鷹ひまわり第一共同作業所","province":"東京都","city":"三鷹市","address":"東京都三鷹市下連雀4丁目8-20","lat":35.69289466,"lon":139.56269154},{"name":"社会福祉法人三鷹ひまわり会三鷹ひまわり第二共同作業所","province":"東京都","city":"三鷹市","address":"東京都三鷹市上連雀4丁目1-8","lat":35.69715802,"lon":139.5589973},{"name":"社会福祉法人三鷹ひまわり会三鷹ひまわり第三共同作業所","province":"東京都","city":"三鷹市","address":"東京都三鷹市下連雀3丁目11-8","lat":35.69754137,"lon":139.56297191},{"name":"ＡＨＣグループ株式会社就労移行支援事業所TODAY三鷹","province":"東京都","city":"三鷹市","address":"東京都三鷹市下連雀4丁目15-38","lat":35.69644425,"lon":139.56140265},{"name":"ウェルビー株式会社ウェルビー三鷹センター","province":"東京都","city":"三鷹市","address":"東京都三鷹市下連雀3丁目32-3","lat":35.69887174,"lon":139.56074428},{"name":"社会福祉法人にじの会ワークショップハーモニー","province":"東京都","city":"三鷹市","address":"東京都三鷹市大沢1丁目1-43","lat":35.67857915,"lon":139.54100516},{"name":"社会福祉法人むうぷむうぷ舎中原","province":"東京都","city":"三鷹市","address":"東京都三鷹市牟礼7丁目5-14","lat":35.68232936,"lon":139.57319374},{"name":"株式会社東京リハビリテーションサービス生活機能型デイサービスりぶうぇる","province":"東京都","city":"三鷹市","address":"東京都三鷹市牟礼6丁目13-15","lat":35.68913974,"lon":139.57464615},{"name":"東京点字出版所","province":"東京都","city":"三鷹市","address":"三鷹市下連雀3-32-10","lat":35.698472,"lon":139.560553},{"name":"グッドライフ三鷹寮","province":"東京都","city":"三鷹市","address":"三鷹市野崎4-4-23","lat":35.68024,"lon":139.54076},{"name":"三鷹市牟礼老人保健施設はなかいどう","province":"東京都","city":"三鷹市","address":"三鷹市牟礼6-12-30","lat":35.687837,"lon":139.574399},{"name":"三鷹市子ども発達支援センター","province":"東京都","city":"三鷹市","address":"三鷹市新川6-37-1","lat":35.681774,"lon":139.561834},{"name":"コーポ三鷹","province":"東京都","city":"三鷹市","address":"東京都三鷹市","lat":35.68327617,"lon":139.55972268},{"name":"グッドライフ三鷹寮","province":"東京都","city":"三鷹市","address":"三鷹市野崎4-4-23","lat":35.680037,"lon":139.542419},{"name":"三鷹荘","province":"東京都","city":"三鷹市","address":"三鷹市大沢1-1-50","lat":35.678088,"lon":139.542266},{"name":"三鷹市社会福祉協議会","province":"東京都","city":"三鷹市","address":"三鷹市新川6-37-1元気創造プラザ3階福祉センター内","lat":35.681774,"lon":139.561834},{"name":"グッドライフ三鷹寮","province":"東京都","city":"三鷹市","address":"三鷹市野崎4-4-23","lat":35.67979,"lon":139.54228},{"name":"三鷹荘","province":"東京都","city":"三鷹市","address":"三鷹市大沢1-1-50","lat":35.67792,"lon":139.54054},{"name":"さくら三鷹ハウス","province":"東京都","city":"三鷹市","address":"東京都三鷹市","lat":35.68327617,"lon":139.55972268},{"name":"東京点字出版所","province":"東京都","city":"三鷹市","address":"三鷹市下連雀3-32-10","lat":35.69877,"lon":139.56078},{"name":"三鷹市社会福祉協議会","province":"東京都","city":"三鷹市","address":"三鷹市新川6-37-1元気創造プラザ3階福祉センター内","lat":35.68187,"lon":139.56218},{"name":"社会福祉法人巣立ち会巣立ち工房","province":"東京都","city":"三鷹市","address":"東京都三鷹市下連雀4丁目17-6","lat":35.69395285,"lon":139.56107777},{"name":"社会福祉法人三鷹ひまわり会三鷹ひまわり第一共同作業所","province":"東京都","city":"三鷹市","address":"東京都三鷹市下連雀4丁目8-20","lat":35.69289466,"lon":139.56269154},{"name":"社会福祉法人三鷹ひまわり会三鷹ひまわり第二共同作業所","province":"東京都","city":"三鷹市","address":"東京都三鷹市上連雀4丁目1-8","lat":35.69715802,"lon":139.5589973},{"name":"社会福祉法人三鷹ひまわり会三鷹ひまわり第三共同作業所","province":"東京都","city":"三鷹市","address":"東京都三鷹市下連雀3丁目11-8","lat":35.69754137,"lon":139.56297191},{"name":"ＡＨＣグループ株式会社就労移行支援事業所TODAY三鷹","province":"東京都","city":"三鷹市","address":"東京都三鷹市下連雀4丁目15-38","lat":35.69644425,"lon":139.56140265},{"name":"ウェルビー株式会社ウェルビー三鷹センター","province":"東京都","city":"三鷹市","address":"東京都三鷹市下連雀3丁目32-3","lat":35.69887174,"lon":139.56074428},{"name":"社会福祉法人にじの会ワークショップハーモニー","province":"東京都","city":"三鷹市","address":"東京都三鷹市大沢1丁目1-43","lat":35.67857915,"lon":139.54100516},{"name":"社会福祉法人むうぷむうぷ舎中原","province":"東京都","city":"三鷹市","address":"東京都三鷹市牟礼7丁目5-14","lat":35.68232936,"lon":139.57319374},{"name":"株式会社東京リハビリテーションサービス生活機能型デイサービスりぶうぇる","province":"東京都","city":"三鷹市","address":"東京都三鷹市牟礼6丁目13-15","lat":35.68913974,"lon":139.57464615},{"name":"東京点字出版所","province":"東京都","city":"三鷹市","address":"三鷹市下連雀3-32-10","lat":35.698472,"lon":139.560553},{"name":"グッドライフ三鷹寮","province":"東京都","city":"三鷹市","address":"三鷹市野崎4-4-23","lat":35.68024,"lon":139.54076},{"name":"三鷹市牟礼老人保健施設はなかいどう","province":"東京都","city":"三鷹市","address":"三鷹市牟礼6-12-30","lat":35.687837,"lon":139.574399},{"name":"三鷹市子ども発達支援センター","province":"東京都","city":"三鷹市","address":"三鷹市新川6-37-1","lat":35.681774,"lon":139.561834},{"name":"コーポ三鷹","province":"東京都","city":"三鷹市","address":"東京都三鷹市","lat":35.68327617,"lon":139.55972268},{"name":"グッドライフ三鷹寮","province":"東京都","city":"三鷹市","address":"三鷹市野崎4-4-23","lat":35.680037,"lon":139.542419},{"name":"三鷹荘","province":"東京都","city":"三鷹市","address":"三鷹市大沢1-1-50","lat":35.678088,"lon":139.542266},{"name":"三鷹市社会福祉協議会","province":"東京都","city":"三鷹市","address":"三鷹市新川6-37-1元気創造プラザ3階福祉センター内","lat":35.681774,"lon":139.561834},{"name":"グッドライフ三鷹寮","province":"東京都","city":"三鷹市","address":"三鷹市野崎4-4-23","lat":35.67979,"lon":139.54228},{"name":"三鷹荘","province":"東京都","city":"三鷹市","address":"三鷹市大沢1-1-50","lat":35.67792,"lon":139.54054},{"name":"さくら三鷹ハウス","province":"東京都","city":"三鷹市","address":"東京都三鷹市","lat":35.68327617,"lon":139.55972268},{"name":"東京点字出版所","province":"東京都","city":"三鷹市","address":"三鷹市下連雀3-32-10","lat":35.69877,"lon":139.56078},{"name":"三鷹市社会福祉協議会","province":"東京都","city":"三鷹市","address":"三鷹市新川6-37-1元気創造プラザ3階福祉センター内","lat":35.68187,"lon":139.56218},{"name":"社会福祉法人巣立ち会巣立ち工房","province":"東京都","city":"三鷹市","address":"東京都三鷹市下連雀4丁目17-6","lat":35.69395285,"lon":139.56107777},{"name":"社会福祉法人三鷹ひまわり会三鷹ひまわり第一共同作業所","province":"東京都","city":"三鷹市","address":"東京都三鷹市下連雀4丁目8-20","lat":35.69289466,"lon":139.56269154},{"name":"社会福祉法人三鷹ひまわり会三鷹ひまわり第二共同作業所","province":"東京都","city":"三鷹市","address":"東京都三鷹市上連雀4丁目1-8","lat":35.69715802,"lon":139.5589973},{"name":"社会福祉法人三鷹ひまわり会三鷹ひまわり第三共同作業所","province":"東京都","city":"三鷹市","address":"東京都三鷹市下連雀3丁目11-8","lat":35.69754137,"lon":139.56297191},{"name":"ＡＨＣグループ株式会社就労移行支援事業所TODAY三鷹","province":"東京都","city":"三鷹市","address":"東京都三鷹市下連雀4丁目15-38","lat":35.69644425,"lon":139.56140265},{"name":"ウェルビー株式会社ウェルビー三鷹センター","province":"東京都","city":"三鷹市","address":"東京都三鷹市下連雀3丁目32-3","lat":35.69887174,"lon":139.56074428},{"name":"社会福祉法人にじの会ワークショップハーモニー","province":"東京都","city":"三鷹市","address":"東京都三鷹市大沢1丁目1-43","lat":35.67857915,"lon":139.54100516},{"name":"社会福祉法人むうぷむうぷ舎中原","province":"東京都","city":"三鷹市","address":"東京都三鷹市牟礼7丁目5-14","lat":35.68232936,"lon":139.57319374},{"name":"株式会社東京リハビリテーションサービス生活機能型デイサービスりぶうぇる","province":"東京都","city":"三鷹市","address":"東京都三鷹市牟礼6丁目13-15","lat":35.68913974,"lon":139.57464615},{"name":"東京点字出版所","province":"東京都","city":"三鷹市","address":"三鷹市下連雀3-32-10","lat":35.698472,"lon":139.560553},{"name":"グッドライフ三鷹寮","province":"東京都","city":"三鷹市","address":"三鷹市野崎4-4-23","lat":35.68024,"lon":139.54076},{"name":"三鷹市牟礼老人保健施設はなかいどう","province":"東京都","city":"三鷹市","address":"三鷹市牟礼6-12-30","lat":35.687837,"lon":139.574399},{"name":"三鷹市子ども発達支援センター","province":"東京都","city":"三鷹市","address":"三鷹市新川6-37-1","lat":35.681774,"lon":139.561834},{"name":"コーポ三鷹","province":"東京都","city":"三鷹市","address":"東京都三鷹市","lat":35.68327617,"lon":139.55972268},{"name":"グッドライフ三鷹寮","province":"東京都","city":"三鷹市","address":"三鷹市野崎4-4-23","lat":35.680037,"lon":139.542419},{"name":"三鷹荘","province":"東京都","city":"三鷹市","address":"三鷹市大沢1-1-50","lat":35.678088,"lon":139.542266},{"name":"三鷹市社会福祉協議会","province":"東京都","city":"三鷹市","address":"三鷹市新川6-37-1元気創造プラザ3階福祉センター内","lat":35.681774,"lon":139.561834},{"name":"グッドライフ三鷹寮","province":"東京都","city":"三鷹市","address":"三鷹市野崎4-4-23","lat":35.67979,"lon":139.54228},{"name":"三鷹荘","province":"東京都","city":"三鷹市","address":"三鷹市大沢1-1-50","lat":35.67792,"lon":139.54054},{"name":"さくら三鷹ハウス","province":"東京都","city":"三鷹市","address":"東京都三鷹市","lat":35.68327617,"lon":139.55972268},{"name":"東京点字出版所","province":"東京都","city":"三鷹市","address":"三鷹市下連雀3-32-10","lat":35.69877,"lon":139.56078},{"name":"三鷹市社会福祉協議会","province":"東京都","city":"三鷹市","address":"三鷹市新川6-37-1元気創造プラザ3階福祉センター内","lat":35.68187,"lon":139.56218},{"name":"社会福祉法人巣立ち会巣立ち工房","province":"東京都","city":"三鷹市","address":"東京都三鷹市下連雀4丁目17-6","lat":35.69395285,"lon":139.56107777},{"name":"社会福祉法人三鷹ひまわり会三鷹ひまわり第一共同作業所","province":"東京都","city":"三鷹市","address":"東京都三鷹市下連雀4丁目8-20","lat":35.69289466,"lon":139.56269154},{"name":"社会福祉法人三鷹ひまわり会三鷹ひまわり第二共同作業所","province":"東京都","city":"三鷹市","address":"東京都三鷹市上連雀4丁目1-8","lat":35.69715802,"lon":139.5589973},{"name":"社会福祉法人三鷹ひまわり会三鷹ひまわり第三共同作業所","province":"東京都","city":"三鷹市","address":"東京都三鷹市下連雀3丁目11-8","lat":35.69754137,"lon":139.56297191},{"name":"ＡＨＣグループ株式会社就労移行支援事業所TODAY三鷹","province":"東京都","city":"三鷹市","address":"東京都三鷹市下連雀4丁目15-38","lat":35.69644425,"lon":139.56140265},{"name":"ウェルビー株式会社ウェルビー三鷹センター","province":"東京都","city":"三鷹市","address":"東京都三鷹市下連雀3丁目32-3","lat":35.69887174,"lon":139.56074428},{"name":"社会福祉法人にじの会ワークショップハーモニー","province":"東京都","city":"三鷹市","address":"東京都三鷹市大沢1丁目1-43","lat":35.67857915,"lon":139.54100516},{"name":"社会福祉法人むうぷむうぷ舎中原","province":"東京都","city":"三鷹市","address":"東京都三鷹市牟礼7丁目5-14","lat":35.68232936,"lon":139.57319374},{"name":"株式会社東京リハビリテーションサービス生活機能型デイサービスりぶうぇる","province":"東京都","city":"三鷹市","address":"東京都三鷹市牟礼6丁目13-15","lat":35.68913974,"lon":139.57464615},{"name":"東京点字出版所","province":"東京都","city":"三鷹市","address":"三鷹市下連雀3-32-10","lat":35.698472,"lon":139.560553},{"name":"グッドライフ三鷹寮","province":"東京都","city":"三鷹市","address":"三鷹市野崎4-4-23","lat":35.68024,"lon":139.54076},{"name":"三鷹市牟礼老人保健施設はなかいどう","province":"東京都","city":"三鷹市","address":"三鷹市牟礼6-12-30","lat":35.687837,"lon":139.574399},{"name":"三鷹市子ども発達支援センター","province":"東京都","city":"三鷹市","address":"三鷹市新川6-37-1","lat":35.681774,"lon":139.561834},{"name":"コーポ三鷹","province":"東京都","city":"三鷹市","address":"東京都三鷹市","lat":35.68327617,"lon":139.55972268},{"name":"グッドライフ三鷹寮","province":"東京都","city":"三鷹市","address":"三鷹市野崎4-4-23","lat":35.680037,"lon":139.542419},{"name":"三鷹荘","province":"東京都","city":"三鷹市","address":"三鷹市大沢1-1-50","lat":35.678088,"lon":139.542266},{"name":"三鷹市社会福祉協議会","province":"東京都","city":"三鷹市","address":"三鷹市新川6-37-1元気創造プラザ3階福祉センター内","lat":35.681774,"lon":139.561834},{"name":"グッドライフ三鷹寮","province":"東京都","city":"三鷹市","address":"三鷹市野崎4-4-23","lat":35.67979,"lon":139.54228},{"name":"三鷹荘","province":"東京都","city":"三鷹市","address":"三鷹市大沢1-1-50","lat":35.67792,"lon":139.54054},{"name":"さくら三鷹ハウス","province":"東京都","city":"三鷹市","address":"東京都三鷹市","lat":35.68327617,"lon":139.55972268},{"name":"東京点字出版所","province":"東京都","city":"三鷹市","address":"三鷹市下連雀3-32-10","lat":35.69877,"lon":139.56078},{"name":"三鷹市社会福祉協議会","province":"東京都","city":"三鷹市","address":"三鷹市新川6-37-1元気創造プラザ3階福祉センター内","lat":35.68187,"lon":139.56218},{"name":"社会福祉法人巣立ち会巣立ち工房","province":"東京都","city":"三鷹市","address":"東京都三鷹市下連雀4丁目17-6","lat":35.69395285,"lon":139.56107777},{"name":"社会福祉法人三鷹ひまわり会三鷹ひまわり第一共同作業所","province":"東京都","city":"三鷹市","address":"東京都三鷹市下連雀4丁目8-20","lat":35.69289466,"lon":139.56269154},{"name":"社会福祉法人三鷹ひまわり会三鷹ひまわり第二共同作業所","province":"東京都","city":"三鷹市","address":"東京都三鷹市上連雀4丁目1-8","lat":35.69715802,"lon":139.5589973},{"name":"社会福祉法人三鷹ひまわり会三鷹ひまわり第三共同作業所","province":"東京都","city":"三鷹市","address":"東京都三鷹市下連雀3丁目11-8","lat":35.69754137,"lon":139.56297191},{"name":"ＡＨＣグループ株式会社就労移行支援事業所TODAY三鷹","province":"東京都","city":"三鷹市","address":"東京都三鷹市下連雀4丁目15-38","lat":35.69644425,"lon":139.56140265},{"name":"ウェルビー株式会社ウェルビー三鷹センター","province":"東京都","city":"三鷹市","address":"東京都三鷹市下連雀3丁目32-3","lat":35.69887174,"lon":139.56074428},{"name":"社会福祉法人にじの会ワークショップハーモニー","province":"東京都","city":"三鷹市","address":"東京都三鷹市大沢1丁目1-43","lat":35.67857915,"lon":139.54100516},{"name":"社会福祉法人むうぷむうぷ舎中原","province":"東京都","city":"三鷹市","address":"東京都三鷹市牟礼7丁目5-14","lat":35.68232936,"lon":139.57319374},{"name":"株式会社東京リハビリテーションサービス生活機能型デイサービスりぶうぇる","province":"東京都","city":"三鷹市","address":"東京都三鷹市牟礼6丁目13-15","lat":35.68913974,"lon":139.57464615},{"name":"東京点字出版所","province":"東京都","city":"三鷹市","address":"三鷹市下連雀3-32-10","lat":35.698472,"lon":139.560553},{"name":"グッドライフ三鷹寮","province":"東京都","city":"三鷹市","address":"三鷹市野崎4-4-23","lat":35.68024,"lon":139.54076},{"name":"三鷹市牟礼老人保健施設はなかいどう","province":"東京都","city":"三鷹市","address":"三鷹市牟礼6-12-30","lat":35.687837,"lon":139.574399},{"name":"三鷹市子ども発達支援センター","province":"東京都","city":"三鷹市","address":"三鷹市新川6-37-1","lat":35.681774,"lon":139.561834},{"name":"コーポ三鷹","province":"東京都","city":"三鷹市","address":"東京都三鷹市","lat":35.68327617,"lon":139.55972268},{"name":"グッドライフ三鷹寮","province":"東京都","city":"三鷹市","address":"三鷹市野崎4-4-23","lat":35.680037,"lon":139.542419},{"name":"三鷹荘","province":"東京都","city":"三鷹市","address":"三鷹市大沢1-1-50","lat":35.678088,"lon":139.542266},{"name":"三鷹市社会福祉協議会","province":"東京都","city":"三鷹市","address":"三鷹市新川6-37-1元気創造プラザ3階福祉センター内","lat":35.681774,"lon":139.561834},{"name":"グッドライフ三鷹寮","province":"東京都","city":"三鷹市","address":"三鷹市野崎4-4-23","lat":35.67979,"lon":139.54228},{"name":"三鷹荘","province":"東京都","city":"三鷹市","address":"三鷹市大沢1-1-50","lat":35.67792,"lon":139.54054},{"name":"さくら三鷹ハウス","province":"東京都","city":"三鷹市","address":"東京都三鷹市","lat":35.68327617,"lon":139.55972268},{"name":"東京点字出版所","province":"東京都","city":"三鷹市","address":"三鷹市下連雀3-32-10","lat":35.69877,"lon":139.56078},{"name":"三鷹市社会福祉協議会","province":"東京都","city":"三鷹市","address":"三鷹市新川6-37-1元気創造プラザ3階福祉センター内","lat":35.68187,"lon":139.56218},{"name":"社会福祉法人巣立ち会巣立ち工房","province":"東京都","city":"三鷹市","address":"東京都三鷹市下連雀4丁目17-6","lat":35.69395285,"lon":139.56107777},{"name":"社会福祉法人三鷹ひまわり会三鷹ひまわり第一共同作業所","province":"東京都","city":"三鷹市","address":"東京都三鷹市下連雀4丁目8-20","lat":35.69289466,"lon":139.56269154},{"name":"社会福祉法人三鷹ひまわり会三鷹ひまわり第二共同作業所","province":"東京都","city":"三鷹市","address":"東京都三鷹市上連雀4丁目1-8","lat":35.69715802,"lon":139.5589973},{"name":"社会福祉法人三鷹ひまわり会三鷹ひまわり第三共同作業所","province":"東京都","city":"三鷹市","address":"東京都三鷹市下連雀3丁目11-8","lat":35.69754137,"lon":139.56297191},{"name":"ＡＨＣグループ株式会社就労移行支援事業所TODAY三鷹","province":"東京都","city":"三鷹市","address":"東京都三鷹市下連雀4丁目15-38","lat":35.69644425,"lon":139.56140265},{"name":"ウェルビー株式会社ウェルビー三鷹センター","province":"東京都","city":"三鷹市","address":"東京都三鷹市下連雀3丁目32-3","lat":35.69887174,"lon":139.56074428},{"name":"社会福祉法人にじの会ワークショップハーモニー","province":"東京都","city":"三鷹市","address":"東京都三鷹市大沢1丁目1-43","lat":35.67857915,"lon":139.54100516},{"name":"社会福祉法人むうぷむうぷ舎中原","province":"東京都","city":"三鷹市","address":"東京都三鷹市牟礼7丁目5-14","lat":35.68232936,"lon":139.57319374},{"name":"株式会社東京リハビリテーションサービス生活機能型デイサービスりぶうぇる","province":"東京都","city":"三鷹市","address":"東京都三鷹市牟礼6丁目13-15","lat":35.68913974,"lon":139.57464615},{"name":"東京点字出版所","province":"東京都","city":"三鷹市","address":"三鷹市下連雀3-32-10","lat":35.698472,"lon":139.560553},{"name":"グッドライフ三鷹寮","province":"東京都","city":"三鷹市","address":"三鷹市野崎4-4-23","lat":35.68024,"lon":139.54076},{"name":"三鷹市牟礼老人保健施設はなかいどう","province":"東京都","city":"三鷹市","address":"三鷹市牟礼6-12-30","lat":35.687837,"lon":139.574399},{"name":"三鷹市子ども発達支援センター","province":"東京都","city":"三鷹市","address":"三鷹市新川6-37-1","lat":35.681774,"lon":139.561834},{"name":"コーポ三鷹","province":"東京都","city":"三鷹市","address":"東京都三鷹市","lat":35.68327617,"lon":139.55972268},{"name":"グッドライフ三鷹寮","province":"東京都","city":"三鷹市","address":"三鷹市野崎4-4-23","lat":35.680037,"lon":139.542419},{"name":"三鷹荘","province":"東京都","city":"三鷹市","address":"三鷹市大沢1-1-50","lat":35.678088,"lon":139.542266},{"name":"三鷹市社会福祉協議会","province":"東京都","city":"三鷹市","address":"三鷹市新川6-37-1元気創造プラザ3階福祉センター内","lat":35.681774,"lon":139.561834},{"name":"グッドライフ三鷹寮","province":"東京都","city":"三鷹市","address":"三鷹市野崎4-4-23","lat":35.67979,"lon":139.54228},{"name":"三鷹荘","province":"東京都","city":"三鷹市","address":"三鷹市大沢1-1-50","lat":35.67792,"lon":139.54054},{"name":"さくら三鷹ハウス","province":"東京都","city":"三鷹市","address":"東京都三鷹市","lat":35.68327617,"lon":139.55972268},{"name":"東京点字出版所","province":"東京都","city":"三鷹市","address":"三鷹市下連雀3-32-10","lat":35.69877,"lon":139.56078},{"name":"三鷹市社会福祉協議会","province":"東京都","city":"三鷹市","address":"三鷹市新川6-37-1元気創造プラザ3階福祉センター内","lat":35.68187,"lon":139.56218},{"name":"社会福祉法人巣立ち会巣立ち工房","province":"東京都","city":"三鷹市","address":"東京都三鷹市下連雀4丁目17-6","lat":35.69395285,"lon":139.56107777},{"name":"社会福祉法人三鷹ひまわり会三鷹ひまわり第一共同作業所","province":"東京都","city":"三鷹市","address":"東京都三鷹市下連雀4丁目8-20","lat":35.69289466,"lon":139.56269154},{"name":"社会福祉法人三鷹ひまわり会三鷹ひまわり第二共同作業所","province":"東京都","city":"三鷹市","address":"東京都三鷹市上連雀4丁目1-8","lat":35.69715802,"lon":139.5589973},{"name":"社会福祉法人三鷹ひまわり会三鷹ひまわり第三共同作業所","province":"東京都","city":"三鷹市","address":"東京都三鷹市下連雀3丁目11-8","lat":35.69754137,"lon":139.56297191},{"name":"ＡＨＣグループ株式会社就労移行支援事業所TODAY三鷹","province":"東京都","city":"三鷹市","address":"東京都三鷹市下連雀4丁目15-38","lat":35.69644425,"lon":139.56140265},{"name":"ウェルビー株式会社ウェルビー三鷹センター","province":"東京都","city":"三鷹市","address":"東京都三鷹市下連雀3丁目32-3","lat":35.69887174,"lon":139.56074428},{"name":"社会福祉法人にじの会ワークショップハーモニー","province":"東京都","city":"三鷹市","address":"東京都三鷹市大沢1丁目1-43","lat":35.67857915,"lon":139.54100516},{"name":"社会福祉法人むうぷむうぷ舎中原","province":"東京都","city":"三鷹市","address":"東京都三鷹市牟礼7丁目5-14","lat":35.68232936,"lon":139.57319374},{"name":"株式会社東京リハビリテーションサービス生活機能型デイサービスりぶうぇる","province":"東京都","city":"三鷹市","address":"東京都三鷹市牟礼6丁目13-15","lat":35.68913974,"lon":139.57464615},{"name":"東京点字出版所","province":"東京都","city":"三鷹市","address":"三鷹市下連雀3-32-10","lat":35.698472,"lon":139.560553},{"name":"グッドライフ三鷹寮","province":"東京都","city":"三鷹市","address":"三鷹市野崎4-4-23","lat":35.68024,"lon":139.54076},{"name":"三鷹市牟礼老人保健施設はなかいどう","province":"東京都","city":"三鷹市","address":"三鷹市牟礼6-12-30","lat":35.687837,"lon":139.574399},{"name":"三鷹市子ども発達支援センター","province":"東京都","city":"三鷹市","address":"三鷹市新川6-37-1","lat":35.681774,"lon":139.561834},{"name":"コーポ三鷹","province":"東京都","city":"三鷹市","address":"東京都三鷹市","lat":35.68327617,"lon":139.55972268},{"name":"グッドライフ三鷹寮","province":"東京都","city":"三鷹市","address":"三鷹市野崎4-4-23","lat":35.680037,"lon":139.542419},{"name":"三鷹荘","province":"東京都","city":"三鷹市","address":"三鷹市大沢1-1-50","lat":35.678088,"lon":139.542266},{"name":"三鷹市社会福祉協議会","province":"東京都","city":"三鷹市","address":"三鷹市新川6-37-1元気創造プラザ3階福祉センター内","lat":35.681774,"lon":139.561834},{"name":"グッドライフ三鷹寮","province":"東京都","city":"三鷹市","address":"三鷹市野崎4-4-23","lat":35.67979,"lon":139.54228},{"name":"三鷹荘","province":"東京都","city":"三鷹市","address":"三鷹市大沢1-1-50","lat":35.67792,"lon":139.54054},{"name":"さくら三鷹ハウス","province":"東京都","city":"三鷹市","address":"東京都三鷹市","lat":35.68327617,"lon":139.55972268},{"name":"東京点字出版所","province":"東京都","city":"三鷹市","address":"三鷹市下連雀3-32-10","lat":35.69877,"lon":139.56078},{"name":"三鷹市社会福祉協議会","province":"東京都","city":"三鷹市","address":"三鷹市新川6-37-1元気創造プラザ3階福祉センター内","lat":35.68187,"lon":139.56218},{"name":"社会福祉法人巣立ち会巣立ち工房","province":"東京都","city":"三鷹市","address":"東京都三鷹市下連雀4丁目17-6","lat":35.69395285,"lon":139.56107777},{"name":"社会福祉法人三鷹ひまわり会三鷹ひまわり第一共同作業所","province":"東京都","city":"三鷹市","address":"東京都三鷹市下連雀4丁目8-20","lat":35.69289466,"lon":139.56269154},{"name":"社会福祉法人三鷹ひまわり会三鷹ひまわり第二共同作業所","province":"東京都","city":"三鷹市","address":"東京都三鷹市上連雀4丁目1-8","lat":35.69715802,"lon":139.5589973},{"name":"社会福祉法人三鷹ひまわり会三鷹ひまわり第三共同作業所","province":"東京都","city":"三鷹市","address":"東京都三鷹市下連雀3丁目11-8","lat":35.69754137,"lon":139.56297191},{"name":"ＡＨＣグループ株式会社就労移行支援事業所TODAY三鷹","province":"東京都","city":"三鷹市","address":"東京都三鷹市下連雀4丁目15-38","lat":35.69644425,"lon":139.56140265},{"name":"ウェルビー株式会社ウェルビー三鷹センター","province":"東京都","city":"三鷹市","address":"東京都三鷹市下連雀3丁目32-3","lat":35.69887174,"lon":139.56074428},{"name":"社会福祉法人にじの会ワークショップハーモニー","province":"東京都","city":"三鷹市","address":"東京都三鷹市大沢1丁目1-43","lat":35.67857915,"lon":139.54100516},{"name":"社会福祉法人むうぷむうぷ舎中原","province":"東京都","city":"三鷹市","address":"東京都三鷹市牟礼7丁目5-14","lat":35.68232936,"lon":139.57319374},{"name":"株式会社東京リハビリテーションサービス生活機能型デイサービスりぶうぇる","province":"東京都","city":"三鷹市","address":"東京都三鷹市牟礼6丁目13-15","lat":35.68913974,"lon":139.57464615},{"name":"東京点字出版所","province":"東京都","city":"三鷹市","address":"三鷹市下連雀3-32-10","lat":35.698472,"lon":139.560553},{"name":"グッドライフ三鷹寮","province":"東京都","city":"三鷹市","address":"三鷹市野崎4-4-23","lat":35.68024,"lon":139.54076},{"name":"三鷹市牟礼老人保健施設はなかいどう","province":"東京都","city":"三鷹市","address":"三鷹市牟礼6-12-30","lat":35.687837,"lon":139.574399},{"name":"三鷹市子ども発達支援センター","province":"東京都","city":"三鷹市","address":"三鷹市新川6-37-1","lat":35.681774,"lon":139.561834},{"name":"コーポ三鷹","province":"東京都","city":"三鷹市","address":"東京都三鷹市","lat":35.68327617,"lon":139.55972268},{"name":"グッドライフ三鷹寮","province":"東京都","city":"三鷹市","address":"三鷹市野崎4-4-23","lat":35.680037,"lon":139.542419},{"name":"三鷹荘","province":"東京都","city":"三鷹市","address":"三鷹市大沢1-1-50","lat":35.678088,"lon":139.542266},{"name":"三鷹市社会福祉協議会","province":"東京都","city":"三鷹市","address":"三鷹市新川6-37-1元気創造プラザ3階福祉センター内","lat":35.681774,"lon":139.561834},{"name":"グッドライフ三鷹寮","province":"東京都","city":"三鷹市","address":"三鷹市野崎4-4-23","lat":35.67979,"lon":139.54228},{"name":"三鷹荘","province":"東京都","city":"三鷹市","address":"三鷹市大沢1-1-50","lat":35.67792,"lon":139.54054},{"name":"さくら三鷹ハウス","province":"東京都","city":"三鷹市","address":"東京都三鷹市","lat":35.68327617,"lon":139.55972268},{"name":"東京点字出版所","province":"東京都","city":"三鷹市","address":"三鷹市下連雀3-32-10","lat":35.69877,"lon":139.56078},{"name":"三鷹市社会福祉協議会","province":"東京都","city":"三鷹市","address":"三鷹市新川6-37-1元気創造プラザ3階福祉センター内","lat":35.68187,"lon":139.56218},{"name":"社会福祉法人巣立ち会巣立ち工房","province":"東京都","city":"三鷹市","address":"東京都三鷹市下連雀4丁目17-6","lat":35.69395285,"lon":139.56107777},{"name":"社会福祉法人三鷹ひまわり会三鷹ひまわり第一共同作業所","province":"東京都","city":"三鷹市","address":"東京都三鷹市下連雀4丁目8-20","lat":35.69289466,"lon":139.56269154},{"name":"社会福祉法人三鷹ひまわり会三鷹ひまわり第二共同作業所","province":"東京都","city":"三鷹市","address":"東京都三鷹市上連雀4丁目1-8","lat":35.69715802,"lon":139.5589973},{"name":"社会福祉法人三鷹ひまわり会三鷹ひまわり第三共同作業所","province":"東京都","city":"三鷹市","address":"東京都三鷹市下連雀3丁目11-8","lat":35.69754137,"lon":139.56297191},{"name":"ＡＨＣグループ株式会社就労移行支援事業所TODAY三鷹","province":"東京都","city":"三鷹市","address":"東京都三鷹市下連雀4丁目15-38","lat":35.69644425,"lon":139.56140265},{"name":"ウェルビー株式会社ウェルビー三鷹センター","province":"東京都","city":"三鷹市","address":"東京都三鷹市下連雀3丁目32-3","lat":35.69887174,"lon":139.56074428},{"name":"社会福祉法人にじの会ワークショップハーモニー","province":"東京都","city":"三鷹市","address":"東京都三鷹市大沢1丁目1-43","lat":35.67857915,"lon":139.54100516},{"name":"社会福祉法人むうぷむうぷ舎中原","province":"東京都","city":"三鷹市","address":"東京都三鷹市牟礼7丁目5-14","lat":35.68232936,"lon":139.57319374},{"name":"株式会社東京リハビリテーションサービス生活機能型デイサービスりぶうぇる","province":"東京都","city":"三鷹市","address":"東京都三鷹市牟礼6丁目13-15","lat":35.68913974,"lon":139.57464615},{"name":"東京点字出版所","province":"東京都","city":"三鷹市","address":"三鷹市下連雀3-32-10","lat":35.698472,"lon":139.560553},{"name":"グッドライフ三鷹寮","province":"東京都","city":"三鷹市","address":"三鷹市野崎4-4-23","lat":35.68024,"lon":139.54076},{"name":"三鷹市牟礼老人保健施設はなかいどう","province":"東京都","city":"三鷹市","address":"三鷹市牟礼6-12-30","lat":35.687837,"lon":139.574399},{"name":"三鷹市子ども発達支援センター","province":"東京都","city":"三鷹市","address":"三鷹市新川6-37-1","lat":35.681774,"lon":139.561834},{"name":"コーポ三鷹","province":"東京都","city":"三鷹市","address":"東京都三鷹市","lat":35.68327617,"lon":139.55972268},{"name":"グッドライフ三鷹寮","province":"東京都","city":"三鷹市","address":"三鷹市野崎4-4-23","lat":35.680037,"lon":139.542419},{"name":"三鷹荘","province":"東京都","city":"三鷹市","address":"三鷹市大沢1-1-50","lat":35.678088,"lon":139.542266},{"name":"三鷹市社会福祉協議会","province":"東京都","city":"三鷹市","address":"三鷹市新川6-37-1元気創造プラザ3階福祉センター内","lat":35.681774,"lon":139.561834},{"name":"グッドライフ三鷹寮","province":"東京都","city":"三鷹市","address":"三鷹市野崎4-4-23","lat":35.67979,"lon":139.54228},{"name":"三鷹荘","province":"東京都","city":"三鷹市","address":"三鷹市大沢1-1-50","lat":35.67792,"lon":139.54054},{"name":"さくら三鷹ハウス","province":"東京都","city":"三鷹市","address":"東京都三鷹市","lat":35.68327617,"lon":139.55972268},{"name":"東京点字出版所","province":"東京都","city":"三鷹市","address":"三鷹市下連雀3-32-10","lat":35.69877,"lon":139.56078},{"name":"三鷹市社会福祉協議会","province":"東京都","city":"三鷹市","address":"三鷹市新川6-37-1元気創造プラザ3階福祉センター内","lat":35.68187,"lon":139.56218},{"name":"社会福祉法人巣立ち会巣立ち工房","province":"東京都","city":"三鷹市","address":"東京都三鷹市下連雀4丁目17-6","lat":35.69395285,"lon":139.56107777},{"name":"社会福祉法人三鷹ひまわり会三鷹ひまわり第一共同作業所","province":"東京都","city":"三鷹市","address":"東京都三鷹市下連雀4丁目8-20","lat":35.69289466,"lon":139.56269154},{"name":"社会福祉法人三鷹ひまわり会三鷹ひまわり第二共同作業所","province":"東京都","city":"三鷹市","address":"東京都三鷹市上連雀4丁目1-8","lat":35.69715802,"lon":139.5589973},{"name":"社会福祉法人三鷹ひまわり会三鷹ひまわり第三共同作業所","province":"東京都","city":"三鷹市","address":"東京都三鷹市下連雀3丁目11-8","lat":35.69754137,"lon":139.56297191},{"name":"ＡＨＣグループ株式会社就労移行支援事業所TODAY三鷹","province":"東京都","city":"三鷹市","address":"東京都三鷹市下連雀4丁目15-38","lat":35.69644425,"lon":139.56140265},{"name":"ウェルビー株式会社ウェルビー三鷹センター","province":"東京都","city":"三鷹市","address":"東京都三鷹市下連雀3丁目32-3","lat":35.69887174,"lon":139.56074428},{"name":"社会福祉法人にじの会ワークショップハーモニー","province":"東京都","city":"三鷹市","address":"東京都三鷹市大沢1丁目1-43","lat":35.67857915,"lon":139.54100516},{"name":"社会福祉法人むうぷむうぷ舎中原","province":"東京都","city":"三鷹市","address":"東京都三鷹市牟礼7丁目5-14","lat":35.68232936,"lon":139.57319374},{"name":"株式会社東京リハビリテーションサービス生活機能型デイサービスりぶうぇる","province":"東京都","city":"三鷹市","address":"東京都三鷹市牟礼6丁目13-15","lat":35.68913974,"lon":139.57464615},{"name":"東京点字出版所","province":"東京都","city":"三鷹市","address":"三鷹市下連雀3-32-10","lat":35.698472,"lon":139.560553},{"name":"グッドライフ三鷹寮","province":"東京都","city":"三鷹市","address":"三鷹市野崎4-4-23","lat":35.68024,"lon":139.54076},{"name":"三鷹市牟礼老人保健施設はなかいどう","province":"東京都","city":"三鷹市","address":"三鷹市牟礼6-12-30","lat":35.687837,"lon":139.574399},{"name":"三鷹市子ども発達支援センター","province":"東京都","city":"三鷹市","address":"三鷹市新川6-37-1","lat":35.681774,"lon":139.561834},{"name":"コーポ三鷹","province":"東京都","city":"三鷹市","address":"東京都三鷹市","lat":35.68327617,"lon":139.55972268},{"name":"グッドライフ三鷹寮","province":"東京都","city":"三鷹市","address":"三鷹市野崎4-4-23","lat":35.680037,"lon":139.542419},{"name":"三鷹荘","province":"東京都","city":"三鷹市","address":"三鷹市大沢1-1-50","lat":35.678088,"lon":139.542266},{"name":"三鷹市社会福祉協議会","province":"東京都","city":"三鷹市","address":"三鷹市新川6-37-1元気創造プラザ3階福祉センター内","lat":35.681774,"lon":139.561834},{"name":"グッドライフ三鷹寮","province":"東京都","city":"三鷹市","address":"三鷹市野崎4-4-23","lat":35.67979,"lon":139.54228},{"name":"三鷹荘","province":"東京都","city":"三鷹市","address":"三鷹市大沢1-1-50","lat":35.67792,"lon":139.54054},{"name":"さくら三鷹ハウス","province":"東京都","city":"三鷹市","address":"東京都三鷹市","lat":35.68327617,"lon":139.55972268},{"name":"東京点字出版所","province":"東京都","city":"三鷹市","address":"三鷹市下連雀3-32-10","lat":35.69877,"lon":139.56078},{"name":"三鷹市社会福祉協議会","province":"東京都","city":"三鷹市","address":"三鷹市新川6-37-1元気創造プラザ3階福祉センター内","lat":35.68187,"lon":139.56218},{"name":"社会福祉法人巣立ち会巣立ち工房","province":"東京都","city":"三鷹市","address":"東京都三鷹市下連雀4丁目17-6","lat":35.69395285,"lon":139.56107777},{"name":"社会福祉法人三鷹ひまわり会三鷹ひまわり第一共同作業所","province":"東京都","city":"三鷹市","address":"東京都三鷹市下連雀4丁目8-20","lat":35.69289466,"lon":139.56269154},{"name":"社会福祉法人三鷹ひまわり会三鷹ひまわり第二共同作業所","province":"東京都","city":"三鷹市","address":"東京都三鷹市上連雀4丁目1-8","lat":35.69715802,"lon":139.5589973},{"name":"社会福祉法人三鷹ひまわり会三鷹ひまわり第三共同作業所","province":"東京都","city":"三鷹市","address":"東京都三鷹市下連雀3丁目11-8","lat":35.69754137,"lon":139.56297191},{"name":"ＡＨＣグループ株式会社就労移行支援事業所TODAY三鷹","province":"東京都","city":"三鷹市","address":"東京都三鷹市下連雀4丁目15-38","lat":35.69644425,"lon":139.56140265},{"name":"ウェルビー株式会社ウェルビー三鷹センター","province":"東京都","city":"三鷹市","address":"東京都三鷹市下連雀3丁目32-3","lat":35.69887174,"lon":139.56074428},{"name":"社会福祉法人にじの会ワークショップハーモニー","province":"東京都","city":"三鷹市","address":"東京都三鷹市大沢1丁目1-43","lat":35.67857915,"lon":139.54100516},{"name":"社会福祉法人むうぷむうぷ舎中原","province":"東京都","city":"三鷹市","address":"東京都三鷹市牟礼7丁目5-14","lat":35.68232936,"lon":139.57319374},{"name":"株式会社東京リハビリテーションサービス生活機能型デイサービスりぶうぇる","province":"東京都","city":"三鷹市","address":"東京都三鷹市牟礼6丁目13-15","lat":35.68913974,"lon":139.57464615},{"name":"東京点字出版所","province":"東京都","city":"三鷹市","address":"三鷹市下連雀3-32-10","lat":35.698472,"lon":139.560553},{"name":"グッドライフ三鷹寮","province":"東京都","city":"三鷹市","address":"三鷹市野崎4-4-23","lat":35.68024,"lon":139.54076},{"name":"三鷹市牟礼老人保健施設はなかいどう","province":"東京都","city":"三鷹市","address":"三鷹市牟礼6-12-30","lat":35.687837,"lon":139.574399},{"name":"三鷹市子ども発達支援センター","province":"東京都","city":"三鷹市","address":"三鷹市新川6-37-1","lat":35.681774,"lon":139.561834},{"name":"コーポ三鷹","province":"東京都","city":"三鷹市","address":"東京都三鷹市","lat":35.68327617,"lon":139.55972268},{"name":"グッドライフ三鷹寮","province":"東京都","city":"三鷹市","address":"三鷹市野崎4-4-23","lat":35.680037,"lon":139.542419},{"name":"三鷹荘","province":"東京都","city":"三鷹市","address":"三鷹市大沢1-1-50","lat":35.678088,"lon":139.542266},{"name":"三鷹市社会福祉協議会","province":"東京都","city":"三鷹市","address":"三鷹市新川6-37-1元気創造プラザ3階福祉センター内","lat":35.681774,"lon":139.561834},{"name":"グッドライフ三鷹寮","province":"東京都","city":"三鷹市","address":"三鷹市野崎4-4-23","lat":35.67979,"lon":139.54228},{"name":"三鷹荘","province":"東京都","city":"三鷹市","address":"三鷹市大沢1-1-50","lat":35.67792,"lon":139.54054},{"name":"さくら三鷹ハウス","province":"東京都","city":"三鷹市","address":"東京都三鷹市","lat":35.68327617,"lon":139.55972268},{"name":"東京点字出版所","province":"東京都","city":"三鷹市","address":"三鷹市下連雀3-32-10","lat":35.69877,"lon":139.56078},{"name":"三鷹市社会福祉協議会","province":"東京都","city":"三鷹市","address":"三鷹市新川6-37-1元気創造プラザ3階福祉センター内","lat":35.68187,"lon":139.56218},{"name":"社会福祉法人巣立ち会巣立ち工房","province":"東京都","city":"三鷹市","address":"東京都三鷹市下連雀4丁目17-6","lat":35.69395285,"lon":139.56107777},{"name":"社会福祉法人三鷹ひまわり会三鷹ひまわり第一共同作業所","province":"東京都","city":"三鷹市","address":"東京都三鷹市下連雀4丁目8-20","lat":35.69289466,"lon":139.56269154},{"name":"社会福祉法人三鷹ひまわり会三鷹ひまわり第二共同作業所","province":"東京都","city":"三鷹市","address":"東京都三鷹市上連雀4丁目1-8","lat":35.69715802,"lon":139.5589973},{"name":"社会福祉法人三鷹ひまわり会三鷹ひまわり第三共同作業所","province":"東京都","city":"三鷹市","address":"東京都三鷹市下連雀3丁目11-8","lat":35.69754137,"lon":139.56297191},{"name":"ＡＨＣグループ株式会社就労移行支援事業所TODAY三鷹","province":"東京都","city":"三鷹市","address":"東京都三鷹市下連雀4丁目15-38","lat":35.69644425,"lon":139.56140265},{"name":"ウェルビー株式会社ウェルビー三鷹センター","province":"東京都","city":"三鷹市","address":"東京都三鷹市下連雀3丁目32-3","lat":35.69887174,"lon":139.56074428},{"name":"社会福祉法人にじの会ワークショップハーモニー","province":"東京都","city":"三鷹市","address":"東京都三鷹市大沢1丁目1-43","lat":35.67857915,"lon":139.54100516},{"name":"社会福祉法人むうぷむうぷ舎中原","province":"東京都","city":"三鷹市","address":"東京都三鷹市牟礼7丁目5-14","lat":35.68232936,"lon":139.57319374},{"name":"株式会社東京リハビリテーションサービス生活機能型デイサービスりぶうぇる","province":"東京都","city":"三鷹市","address":"東京都三鷹市牟礼6丁目13-15","lat":35.68913974,"lon":139.57464615},{"name":"東京点字出版所","province":"東京都","city":"三鷹市","address":"三鷹市下連雀3-32-10","lat":35.698472,"lon":139.560553},{"name":"グッドライフ三鷹寮","province":"東京都","city":"三鷹市","address":"三鷹市野崎4-4-23","lat":35.68024,"lon":139.54076},{"name":"三鷹市牟礼老人保健施設はなかいどう","province":"東京都","city":"三鷹市","address":"三鷹市牟礼6-12-30","lat":35.687837,"lon":139.574399},{"name":"三鷹市子ども発達支援センター","province":"東京都","city":"三鷹市","address":"三鷹市新川6-37-1","lat":35.681774,"lon":139.561834},{"name":"コーポ三鷹","province":"東京都","city":"三鷹市","address":"東京都三鷹市","lat":35.68327617,"lon":139.55972268},{"name":"グッドライフ三鷹寮","province":"東京都","city":"三鷹市","address":"三鷹市野崎4-4-23","lat":35.680037,"lon":139.542419},{"name":"三鷹荘","province":"東京都","city":"三鷹市","address":"三鷹市大沢1-1-50","lat":35.678088,"lon":139.542266},{"name":"三鷹市社会福祉協議会","province":"東京都","city":"三鷹市","address":"三鷹市新川6-37-1元気創造プラザ3階福祉センター内","lat":35.681774,"lon":139.561834},{"name":"グッドライフ三鷹寮","province":"東京都","city":"三鷹市","address":"三鷹市野崎4-4-23","lat":35.67979,"lon":139.54228},{"name":"三鷹荘","province":"東京都","city":"三鷹市","address":"三鷹市大沢1-1-50","lat":35.67792,"lon":139.54054},{"name":"さくら三鷹ハウス","province":"東京都","city":"三鷹市","address":"東京都三鷹市","lat":35.68327617,"lon":139.55972268},{"name":"東京点字出版所","province":"東京都","city":"三鷹市","address":"三鷹市下連雀3-32-10","lat":35.69877,"lon":139.56078},{"name":"三鷹市社会福祉協議会","province":"東京都","city":"三鷹市","address":"三鷹市新川6-37-1元気創造プラザ3階福祉センター内","lat":35.68187,"lon":139.56218},{"name":"東京点字出版所","province":"東京都","city":"三鷹市","address":"三鷹市下連雀3-32-10","lat":35.698472,"lon":139.560553},{"name":"グッドライフ三鷹寮","province":"東京都","city":"三鷹市","address":"三鷹市野崎4-4-23","lat":35.68024,"lon":139.54076},{"name":"三鷹市牟礼老人保健施設はなかいどう","province":"東京都","city":"三鷹市","address":"三鷹市牟礼6-12-30","lat":35.687837,"lon":139.574399},{"name":"三鷹市子ども発達支援センター","province":"東京都","city":"三鷹市","address":"三鷹市新川6-37-1","lat":35.681774,"lon":139.561834},{"name":"コーポ三鷹","province":"東京都","city":"三鷹市","address":"東京都三鷹市","lat":35.68327617,"lon":139.55972268},{"name":"グッドライフ三鷹寮","province":"東京都","city":"三鷹市","address":"三鷹市野崎4-4-23","lat":35.680037,"lon":139.542419},{"name":"三鷹荘","province":"東京都","city":"三鷹市","address":"三鷹市大沢1-1-50","lat":35.678088,"lon":139.542266},{"name":"三鷹市社会福祉協議会","province":"東京都","city":"三鷹市","address":"三鷹市新川6-37-1元気創造プラザ3階福祉センター内","lat":35.681774,"lon":139.561834},{"name":"グッドライフ三鷹寮","province":"東京都","city":"三鷹市","address":"三鷹市野崎4-4-23","lat":35.67979,"lon":139.54228},{"name":"三鷹荘","province":"東京都","city":"三鷹市","address":"三鷹市大沢1-1-50","lat":35.67792,"lon":139.54054},{"name":"さくら三鷹ハウス","province":"東京都","city":"三鷹市","address":"東京都三鷹市","lat":35.68327617,"lon":139.55972268},{"name":"東京点字出版所","province":"東京都","city":"三鷹市","address":"三鷹市下連雀3-32-10","lat":35.69877,"lon":139.56078},{"name":"三鷹市社会福祉協議会","province":"東京都","city":"三鷹市","address":"三鷹市新川6-37-1元気創造プラザ3階福祉センター内","lat":35.68187,"lon":139.56218},{"name":"東京点字出版所","province":"東京都","city":"三鷹市","address":"三鷹市下連雀3-32-10","lat":35.698472,"lon":139.560553},{"name":"グッドライフ三鷹寮","province":"東京都","city":"三鷹市","address":"三鷹市野崎4-4-23","lat":35.68024,"lon":139.54076},{"name":"三鷹市牟礼老人保健施設はなかいどう","province":"東京都","city":"三鷹市","address":"三鷹市牟礼6-12-30","lat":35.687837,"lon":139.574399},{"name":"三鷹市子ども発達支援センター","province":"東京都","city":"三鷹市","address":"三鷹市新川6-37-1","lat":35.681774,"lon":139.561834},{"name":"コーポ三鷹","province":"東京都","city":"三鷹市","address":"東京都三鷹市","lat":35.68327617,"lon":139.55972268},{"name":"グッドライフ三鷹寮","province":"東京都","city":"三鷹市","address":"三鷹市野崎4-4-23","lat":35.680037,"lon":139.542419},{"name":"三鷹荘","province":"東京都","city":"三鷹市","address":"三鷹市大沢1-1-50","lat":35.678088,"lon":139.542266},{"name":"三鷹市社会福祉協議会","province":"東京都","city":"三鷹市","address":"三鷹市新川6-37-1元気創造プラザ3階福祉センター内","lat":35.681774,"lon":139.561834},{"name":"グッドライフ三鷹寮","province":"東京都","city":"三鷹市","address":"三鷹市野崎4-4-23","lat":35.67979,"lon":139.54228},{"name":"三鷹荘","province":"東京都","city":"三鷹市","address":"三鷹市大沢1-1-50","lat":35.67792,"lon":139.54054},{"name":"さくら三鷹ハウス","province":"東京都","city":"三鷹市","address":"東京都三鷹市","lat":35.68327617,"lon":139.55972268},{"name":"東京点字出版所","province":"東京都","city":"三鷹市","address":"三鷹市下連雀3-32-10","lat":35.69877,"lon":139.56078},{"name":"三鷹市社会福祉協議会","province":"東京都","city":"三鷹市","address":"三鷹市新川6-37-1元気創造プラザ3階福祉センター内","lat":35.68187,"lon":139.56218},{"name":"東京点字出版所","province":"東京都","city":"三鷹市","address":"三鷹市下連雀3-32-10","lat":35.698472,"lon":139.560553},{"name":"グッドライフ三鷹寮","province":"東京都","city":"三鷹市","address":"三鷹市野崎4-4-23","lat":35.68024,"lon":139.54076},{"name":"三鷹市牟礼老人保健施設はなかいどう","province":"東京都","city":"三鷹市","address":"三鷹市牟礼6-12-30","lat":35.687837,"lon":139.574399},{"name":"三鷹市子ども発達支援センター","province":"東京都","city":"三鷹市","address":"三鷹市新川6-37-1","lat":35.681774,"lon":139.561834},{"name":"コーポ三鷹","province":"東京都","city":"三鷹市","address":"東京都三鷹市","lat":35.68327617,"lon":139.55972268},{"name":"グッドライフ三鷹寮","province":"東京都","city":"三鷹市","address":"三鷹市野崎4-4-23","lat":35.680037,"lon":139.542419},{"name":"三鷹荘","province":"東京都","city":"三鷹市","address":"三鷹市大沢1-1-50","lat":35.678088,"lon":139.542266},{"name":"三鷹市社会福祉協議会","province":"東京都","city":"三鷹市","address":"三鷹市新川6-37-1元気創造プラザ3階福祉センター内","lat":35.681774,"lon":139.561834},{"name":"グッドライフ三鷹寮","province":"東京都","city":"三鷹市","address":"三鷹市野崎4-4-23","lat":35.67979,"lon":139.54228},{"name":"三鷹荘","province":"東京都","city":"三鷹市","address":"三鷹市大沢1-1-50","lat":35.67792,"lon":139.54054},{"name":"さくら三鷹ハウス","province":"東京都","city":"三鷹市","address":"東京都三鷹市","lat":35.68327617,"lon":139.55972268},{"name":"東京点字出版所","province":"東京都","city":"三鷹市","address":"三鷹市下連雀3-32-10","lat":35.69877,"lon":139.56078},{"name":"三鷹市社会福祉協議会","province":"東京都","city":"三鷹市","address":"三鷹市新川6-37-1元気創造プラザ3階福祉センター内","lat":35.68187,"lon":139.56218},{"name":"東京点字出版所","province":"東京都","city":"三鷹市","address":"三鷹市下連雀3-32-10","lat":35.698472,"lon":139.560553},{"name":"グッドライフ三鷹寮","province":"東京都","city":"三鷹市","address":"三鷹市野崎4-4-23","lat":35.68024,"lon":139.54076},{"name":"三鷹市牟礼老人保健施設はなかいどう","province":"東京都","city":"三鷹市","address":"三鷹市牟礼6-12-30","lat":35.687837,"lon":139.574399},{"name":"三鷹市子ども発達支援センター","province":"東京都","city":"三鷹市","address":"三鷹市新川6-37-1","lat":35.681774,"lon":139.561834},{"name":"コーポ三鷹","province":"東京都","city":"三鷹市","address":"東京都三鷹市","lat":35.68327617,"lon":139.55972268},{"name":"グッドライフ三鷹寮","province":"東京都","city":"三鷹市","address":"三鷹市野崎4-4-23","lat":35.680037,"lon":139.542419},{"name":"三鷹荘","province":"東京都","city":"三鷹市","address":"三鷹市大沢1-1-50","lat":35.678088,"lon":139.542266},{"name":"三鷹市社会福祉協議会","province":"東京都","city":"三鷹市","address":"三鷹市新川6-37-1元気創造プラザ3階福祉センター内","lat":35.681774,"lon":139.561834},{"name":"グッドライフ三鷹寮","province":"東京都","city":"三鷹市","address":"三鷹市野崎4-4-23","lat":35.67979,"lon":139.54228},{"name":"三鷹荘","province":"東京都","city":"三鷹市","address":"三鷹市大沢1-1-50","lat":35.67792,"lon":139.54054},{"name":"さくら三鷹ハウス","province":"東京都","city":"三鷹市","address":"東京都三鷹市","lat":35.68327617,"lon":139.55972268},{"name":"東京点字出版所","province":"東京都","city":"三鷹市","address":"三鷹市下連雀3-32-10","lat":35.69877,"lon":139.56078},{"name":"三鷹市社会福祉協議会","province":"東京都","city":"三鷹市","address":"三鷹市新川6-37-1元気創造プラザ3階福祉センター内","lat":35.68187,"lon":139.56218},{"name":"東京点字出版所","province":"東京都","city":"三鷹市","address":"三鷹市下連雀3-32-10","lat":35.698472,"lon":139.560553},{"name":"グッドライフ三鷹寮","province":"東京都","city":"三鷹市","address":"三鷹市野崎4-4-23","lat":35.68024,"lon":139.54076},{"name":"三鷹市牟礼老人保健施設はなかいどう","province":"東京都","city":"三鷹市","address":"三鷹市牟礼6-12-30","lat":35.687837,"lon":139.574399},{"name":"三鷹市子ども発達支援センター","province":"東京都","city":"三鷹市","address":"三鷹市新川6-37-1","lat":35.681774,"lon":139.561834},{"name":"コーポ三鷹","province":"東京都","city":"三鷹市","address":"東京都三鷹市","lat":35.68327617,"lon":139.55972268},{"name":"グッドライフ三鷹寮","province":"東京都","city":"三鷹市","address":"三鷹市野崎4-4-23","lat":35.680037,"lon":139.542419},{"name":"三鷹荘","province":"東京都","city":"三鷹市","address":"三鷹市大沢1-1-50","lat":35.678088,"lon":139.542266},{"name":"三鷹市社会福祉協議会","province":"東京都","city":"三鷹市","address":"三鷹市新川6-37-1元気創造プラザ3階福祉センター内","lat":35.681774,"lon":139.561834},{"name":"グッドライフ三鷹寮","province":"東京都","city":"三鷹市","address":"三鷹市野崎4-4-23","lat":35.67979,"lon":139.54228},{"name":"三鷹荘","province":"東京都","city":"三鷹市","address":"三鷹市大沢1-1-50","lat":35.67792,"lon":139.54054},{"name":"さくら三鷹ハウス","province":"東京都","city":"三鷹市","address":"東京都三鷹市","lat":35.68327617,"lon":139.55972268},{"name":"東京点字出版所","province":"東京都","city":"三鷹市","address":"三鷹市下連雀3-32-10","lat":35.69877,"lon":139.56078},{"name":"三鷹市社会福祉協議会","province":"東京都","city":"三鷹市","address":"三鷹市新川6-37-1元気創造プラザ3階福祉センター内","lat":35.68187,"lon":139.56218},{"name":"東京点字出版所","province":"東京都","city":"三鷹市","address":"三鷹市下連雀3-32-10","lat":35.698472,"lon":139.560553},{"name":"グッドライフ三鷹寮","province":"東京都","city":"三鷹市","address":"三鷹市野崎4-4-23","lat":35.68024,"lon":139.54076},{"name":"三鷹市牟礼老人保健施設はなかいどう","province":"東京都","city":"三鷹市","address":"三鷹市牟礼6-12-30","lat":35.687837,"lon":139.574399},{"name":"三鷹市子ども発達支援センター","province":"東京都","city":"三鷹市","address":"三鷹市新川6-37-1","lat":35.681774,"lon":139.561834},{"name":"コーポ三鷹","province":"東京都","city":"三鷹市","address":"東京都三鷹市","lat":35.68327617,"lon":139.55972268},{"name":"グッドライフ三鷹寮","province":"東京都","city":"三鷹市","address":"三鷹市野崎4-4-23","lat":35.680037,"lon":139.542419},{"name":"三鷹荘","province":"東京都","city":"三鷹市","address":"三鷹市大沢1-1-50","lat":35.678088,"lon":139.542266},{"name":"三鷹市社会福祉協議会","province":"東京都","city":"三鷹市","address":"三鷹市新川6-37-1元気創造プラザ3階福祉センター内","lat":35.681774,"lon":139.561834},{"name":"グッドライフ三鷹寮","province":"東京都","city":"三鷹市","address":"三鷹市野崎4-4-23","lat":35.67979,"lon":139.54228},{"name":"三鷹荘","province":"東京都","city":"三鷹市","address":"三鷹市大沢1-1-50","lat":35.67792,"lon":139.54054},{"name":"さくら三鷹ハウス","province":"東京都","city":"三鷹市","address":"東京都三鷹市","lat":35.68327617,"lon":139.55972268},{"name":"東京点字出版所","province":"東京都","city":"三鷹市","address":"三鷹市下連雀3-32-10","lat":35.69877,"lon":139.56078},{"name":"三鷹市社会福祉協議会","province":"東京都","city":"三鷹市","address":"三鷹市新川6-37-1元気創造プラザ3階福祉センター内","lat":35.68187,"lon":139.56218},{"name":"東京点字出版所","province":"東京都","city":"三鷹市","address":"三鷹市下連雀3-32-10","lat":35.698472,"lon":139.560553},{"name":"グッドライフ三鷹寮","province":"東京都","city":"三鷹市","address":"三鷹市野崎4-4-23","lat":35.68024,"lon":139.54076},{"name":"三鷹市牟礼老人保健施設はなかいどう","province":"東京都","city":"三鷹市","address":"三鷹市牟礼6-12-30","lat":35.687837,"lon":139.574399},{"name":"三鷹市子ども発達支援センター","province":"東京都","city":"三鷹市","address":"三鷹市新川6-37-1","lat":35.681774,"lon":139.561834},{"name":"コーポ三鷹","province":"東京都","city":"三鷹市","address":"東京都三鷹市","lat":35.68327617,"lon":139.55972268},{"name":"グッドライフ三鷹寮","province":"東京都","city":"三鷹市","address":"三鷹市野崎4-4-23","lat":35.680037,"lon":139.542419},{"name":"三鷹荘","province":"東京都","city":"三鷹市","address":"三鷹市大沢1-1-50","lat":35.678088,"lon":139.542266},{"name":"三鷹市社会福祉協議会","province":"東京都","city":"三鷹市","address":"三鷹市新川6-37-1元気創造プラザ3階福祉センター内","lat":35.681774,"lon":139.561834},{"name":"グッドライフ三鷹寮","province":"東京都","city":"三鷹市","address":"三鷹市野崎4-4-23","lat":35.67979,"lon":139.54228},{"name":"三鷹荘","province":"東京都","city":"三鷹市","address":"三鷹市大沢1-1-50","lat":35.67792,"lon":139.54054},{"name":"さくら三鷹ハウス","province":"東京都","city":"三鷹市","address":"東京都三鷹市","lat":35.68327617,"lon":139.55972268},{"name":"東京点字出版所","province":"東京都","city":"三鷹市","address":"三鷹市下連雀3-32-10","lat":35.69877,"lon":139.56078},{"name":"三鷹市社会福祉協議会","province":"東京都","city":"三鷹市","address":"三鷹市新川6-37-1元気創造プラザ3階福祉センター内","lat":35.68187,"lon":139.56218},{"name":"東京点字出版所","province":"東京都","city":"三鷹市","address":"三鷹市下連雀3-32-10","lat":35.698472,"lon":139.560553},{"name":"グッドライフ三鷹寮","province":"東京都","city":"三鷹市","address":"三鷹市野崎4-4-23","lat":35.68024,"lon":139.54076},{"name":"三鷹市牟礼老人保健施設はなかいどう","province":"東京都","city":"三鷹市","address":"三鷹市牟礼6-12-30","lat":35.687837,"lon":139.574399},{"name":"三鷹市子ども発達支援センター","province":"東京都","city":"三鷹市","address":"三鷹市新川6-37-1","lat":35.681774,"lon":139.561834},{"name":"コーポ三鷹","province":"東京都","city":"三鷹市","address":"東京都三鷹市","lat":35.68327617,"lon":139.55972268},{"name":"グッドライフ三鷹寮","province":"東京都","city":"三鷹市","address":"三鷹市野崎4-4-23","lat":35.680037,"lon":139.542419},{"name":"三鷹荘","province":"東京都","city":"三鷹市","address":"三鷹市大沢1-1-50","lat":35.678088,"lon":139.542266},{"name":"三鷹市社会福祉協議会","province":"東京都","city":"三鷹市","address":"三鷹市新川6-37-1元気創造プラザ3階福祉センター内","lat":35.681774,"lon":139.561834},{"name":"グッドライフ三鷹寮","province":"東京都","city":"三鷹市","address":"三鷹市野崎4-4-23","lat":35.67979,"lon":139.54228},{"name":"三鷹荘","province":"東京都","city":"三鷹市","address":"三鷹市大沢1-1-50","lat":35.67792,"lon":139.54054},{"name":"さくら三鷹ハウス","province":"東京都","city":"三鷹市","address":"東京都三鷹市","lat":35.68327617,"lon":139.55972268},{"name":"東京点字出版所","province":"東京都","city":"三鷹市","address":"三鷹市下連雀3-32-10","lat":35.69877,"lon":139.56078},{"name":"三鷹市社会福祉協議会","province":"東京都","city":"三鷹市","address":"三鷹市新川6-37-1元気創造プラザ3階福祉センター内","lat":35.68187,"lon":139.56218},{"name":"東京点字出版所","province":"東京都","city":"三鷹市","address":"三鷹市下連雀3-32-10","lat":35.698472,"lon":139.560553},{"name":"グッドライフ三鷹寮","province":"東京都","city":"三鷹市","address":"三鷹市野崎4-4-23","lat":35.68024,"lon":139.54076},{"name":"三鷹市牟礼老人保健施設はなかいどう","province":"東京都","city":"三鷹市","address":"三鷹市牟礼6-12-30","lat":35.687837,"lon":139.574399},{"name":"三鷹市子ども発達支援センター","province":"東京都","city":"三鷹市","address":"三鷹市新川6-37-1","lat":35.681774,"lon":139.561834},{"name":"コーポ三鷹","province":"東京都","city":"三鷹市","address":"東京都三鷹市","lat":35.68327617,"lon":139.55972268},{"name":"グッドライフ三鷹寮","province":"東京都","city":"三鷹市","address":"三鷹市野崎4-4-23","lat":35.680037,"lon":139.542419},{"name":"三鷹荘","province":"東京都","city":"三鷹市","address":"三鷹市大沢1-1-50","lat":35.678088,"lon":139.542266},{"name":"三鷹市社会福祉協議会","province":"東京都","city":"三鷹市","address":"三鷹市新川6-37-1元気創造プラザ3階福祉センター内","lat":35.681774,"lon":139.561834},{"name":"グッドライフ三鷹寮","province":"東京都","city":"三鷹市","address":"三鷹市野崎4-4-23","lat":35.67979,"lon":139.54228},{"name":"三鷹荘","province":"東京都","city":"三鷹市","address":"三鷹市大沢1-1-50","lat":35.67792,"lon":139.54054},{"name":"さくら三鷹ハウス","province":"東京都","city":"三鷹市","address":"東京都三鷹市","lat":35.68327617,"lon":139.55972268},{"name":"東京点字出版所","province":"東京都","city":"三鷹市","address":"三鷹市下連雀3-32-10","lat":35.69877,"lon":139.56078},{"name":"三鷹市社会福祉協議会","province":"東京都","city":"三鷹市","address":"三鷹市新川6-37-1元気創造プラザ3階福祉センター内","lat":35.68187,"lon":139.56218},{"name":"東京点字出版所","province":"東京都","city":"三鷹市","address":"三鷹市下連雀3-32-10","lat":35.698472,"lon":139.560553},{"name":"グッドライフ三鷹寮","province":"東京都","city":"三鷹市","address":"三鷹市野崎4-4-23","lat":35.68024,"lon":139.54076},{"name":"三鷹市牟礼老人保健施設はなかいどう","province":"東京都","city":"三鷹市","address":"三鷹市牟礼6-12-30","lat":35.687837,"lon":139.574399},{"name":"三鷹市子ども発達支援センター","province":"東京都","city":"三鷹市","address":"三鷹市新川6-37-1","lat":35.681774,"lon":139.561834},{"name":"コーポ三鷹","province":"東京都","city":"三鷹市","address":"東京都三鷹市","lat":35.68327617,"lon":139.55972268},{"name":"グッドライフ三鷹寮","province":"東京都","city":"三鷹市","address":"三鷹市野崎4-4-23","lat":35.680037,"lon":139.542419},{"name":"三鷹荘","province":"東京都","city":"三鷹市","address":"三鷹市大沢1-1-50","lat":35.678088,"lon":139.542266},{"name":"三鷹市社会福祉協議会","province":"東京都","city":"三鷹市","address":"三鷹市新川6-37-1元気創造プラザ3階福祉センター内","lat":35.681774,"lon":139.561834},{"name":"グッドライフ三鷹寮","province":"東京都","city":"三鷹市","address":"三鷹市野崎4-4-23","lat":35.67979,"lon":139.54228},{"name":"三鷹荘","province":"東京都","city":"三鷹市","address":"三鷹市大沢1-1-50","lat":35.67792,"lon":139.54054},{"name":"さくら三鷹ハウス","province":"東京都","city":"三鷹市","address":"東京都三鷹市","lat":35.68327617,"lon":139.55972268},{"name":"東京点字出版所","province":"東京都","city":"三鷹市","address":"三鷹市下連雀3-32-10","lat":35.69877,"lon":139.56078},{"name":"三鷹市社会福祉協議会","province":"東京都","city":"三鷹市","address":"三鷹市新川6-37-1元気創造プラザ3階福祉センター内","lat":35.68187,"lon":139.56218},{"name":"東京点字出版所","province":"東京都","city":"三鷹市","address":"三鷹市下連雀3-32-10","lat":35.698472,"lon":139.560553},{"name":"グッドライフ三鷹寮","province":"東京都","city":"三鷹市","address":"三鷹市野崎4-4-23","lat":35.68024,"lon":139.54076},{"name":"三鷹市牟礼老人保健施設はなかいどう","province":"東京都","city":"三鷹市","address":"三鷹市牟礼6-12-30","lat":35.687837,"lon":139.574399},{"name":"三鷹市子ども発達支援センター","province":"東京都","city":"三鷹市","address":"三鷹市新川6-37-1","lat":35.681774,"lon":139.561834},{"name":"コーポ三鷹","province":"東京都","city":"三鷹市","address":"東京都三鷹市","lat":35.68327617,"lon":139.55972268},{"name":"グッドライフ三鷹寮","province":"東京都","city":"三鷹市","address":"三鷹市野崎4-4-23","lat":35.680037,"lon":139.542419},{"name":"三鷹荘","province":"東京都","city":"三鷹市","address":"三鷹市大沢1-1-50","lat":35.678088,"lon":139.542266},{"name":"三鷹市社会福祉協議会","province":"東京都","city":"三鷹市","address":"三鷹市新川6-37-1元気創造プラザ3階福祉センター内","lat":35.681774,"lon":139.561834},{"name":"グッドライフ三鷹寮","province":"東京都","city":"三鷹市","address":"三鷹市野崎4-4-23","lat":35.67979,"lon":139.54228},{"name":"三鷹荘","province":"東京都","city":"三鷹市","address":"三鷹市大沢1-1-50","lat":35.67792,"lon":139.54054},{"name":"さくら三鷹ハウス","province":"東京都","city":"三鷹市","address":"東京都三鷹市","lat":35.68327617,"lon":139.55972268},{"name":"東京点字出版所","province":"東京都","city":"三鷹市","address":"三鷹市下連雀3-32-10","lat":35.69877,"lon":139.56078},{"name":"三鷹市社会福祉協議会","province":"東京都","city":"三鷹市","address":"三鷹市新川6-37-1元気創造プラザ3階福祉センター内","lat":35.68187,"lon":139.56218},{"name":"東京点字出版所","province":"東京都","city":"三鷹市","address":"三鷹市下連雀3-32-10","lat":35.698472,"lon":139.560553},{"name":"グッドライフ三鷹寮","province":"東京都","city":"三鷹市","address":"三鷹市野崎4-4-23","lat":35.68024,"lon":139.54076},{"name":"三鷹市牟礼老人保健施設はなかいどう","province":"東京都","city":"三鷹市","address":"三鷹市牟礼6-12-30","lat":35.687837,"lon":139.574399},{"name":"三鷹市子ども発達支援センター","province":"東京都","city":"三鷹市","address":"三鷹市新川6-37-1","lat":35.681774,"lon":139.561834},{"name":"コーポ三鷹","province":"東京都","city":"三鷹市","address":"東京都三鷹市","lat":35.68327617,"lon":139.55972268},{"name":"グッドライフ三鷹寮","province":"東京都","city":"三鷹市","address":"三鷹市野崎4-4-23","lat":35.680037,"lon":139.542419},{"name":"三鷹荘","province":"東京都","city":"三鷹市","address":"三鷹市大沢1-1-50","lat":35.678088,"lon":139.542266},{"name":"三鷹市社会福祉協議会","province":"東京都","city":"三鷹市","address":"三鷹市新川6-37-1元気創造プラザ3階福祉センター内","lat":35.681774,"lon":139.561834},{"name":"グッドライフ三鷹寮","province":"東京都","city":"三鷹市","address":"三鷹市野崎4-4-23","lat":35.67979,"lon":139.54228},{"name":"三鷹荘","province":"東京都","city":"三鷹市","address":"三鷹市大沢1-1-50","lat":35.67792,"lon":139.54054},{"name":"さくら三鷹ハウス","province":"東京都","city":"三鷹市","address":"東京都三鷹市","lat":35.68327617,"lon":139.55972268},{"name":"東京点字出版所","province":"東京都","city":"三鷹市","address":"三鷹市下連雀3-32-10","lat":35.69877,"lon":139.56078},{"name":"三鷹市社会福祉協議会","province":"東京都","city":"三鷹市","address":"三鷹市新川6-37-1元気創造プラザ3階福祉センター内","lat":35.68187,"lon":139.56218},{"name":"東京点字出版所","province":"東京都","city":"三鷹市","address":"三鷹市下連雀3-32-10","lat":35.698472,"lon":139.560553},{"name":"グッドライフ三鷹寮","province":"東京都","city":"三鷹市","address":"三鷹市野崎4-4-23","lat":35.68024,"lon":139.54076},{"name":"三鷹市牟礼老人保健施設はなかいどう","province":"東京都","city":"三鷹市","address":"三鷹市牟礼6-12-30","lat":35.687837,"lon":139.574399},{"name":"三鷹市子ども発達支援センター","province":"東京都","city":"三鷹市","address":"三鷹市新川6-37-1","lat":35.681774,"lon":139.561834},{"name":"コーポ三鷹","province":"東京都","city":"三鷹市","address":"東京都三鷹市","lat":35.68327617,"lon":139.55972268},{"name":"グッドライフ三鷹寮","province":"東京都","city":"三鷹市","address":"三鷹市野崎4-4-23","lat":35.680037,"lon":139.542419},{"name":"三鷹荘","province":"東京都","city":"三鷹市","address":"三鷹市大沢1-1-50","lat":35.678088,"lon":139.542266},{"name":"三鷹市社会福祉協議会","province":"東京都","city":"三鷹市","address":"三鷹市新川6-37-1元気創造プラザ3階福祉センター内","lat":35.681774,"lon":139.561834},{"name":"グッドライフ三鷹寮","province":"東京都","city":"三鷹市","address":"三鷹市野崎4-4-23","lat":35.67979,"lon":139.54228},{"name":"三鷹荘","province":"東京都","city":"三鷹市","address":"三鷹市大沢1-1-50","lat":35.67792,"lon":139.54054},{"name":"さくら三鷹ハウス","province":"東京都","city":"三鷹市","address":"東京都三鷹市","lat":35.68327617,"lon":139.55972268},{"name":"東京点字出版所","province":"東京都","city":"三鷹市","address":"三鷹市下連雀3-32-10","lat":35.69877,"lon":139.56078},{"name":"三鷹市社会福祉協議会","province":"東京都","city":"三鷹市","address":"三鷹市新川6-37-1元気創造プラザ3階福祉センター内","lat":35.68187,"lon":139.56218},{"name":"東京点字出版所","province":"東京都","city":"三鷹市","address":"三鷹市下連雀3-32-10","lat":35.698472,"lon":139.560553},{"name":"グッドライフ三鷹寮","province":"東京都","city":"三鷹市","address":"三鷹市野崎4-4-23","lat":35.68024,"lon":139.54076},{"name":"三鷹市牟礼老人保健施設はなかいどう","province":"東京都","city":"三鷹市","address":"三鷹市牟礼6-12-30","lat":35.687837,"lon":139.574399},{"name":"三鷹市子ども発達支援センター","province":"東京都","city":"三鷹市","address":"三鷹市新川6-37-1","lat":35.681774,"lon":139.561834},{"name":"コーポ三鷹","province":"東京都","city":"三鷹市","address":"東京都三鷹市","lat":35.68327617,"lon":139.55972268},{"name":"グッドライフ三鷹寮","province":"東京都","city":"三鷹市","address":"三鷹市野崎4-4-23","lat":35.680037,"lon":139.542419},{"name":"三鷹荘","province":"東京都","city":"三鷹市","address":"三鷹市大沢1-1-50","lat":35.678088,"lon":139.542266},{"name":"三鷹市社会福祉協議会","province":"東京都","city":"三鷹市","address":"三鷹市新川6-37-1元気創造プラザ3階福祉センター内","lat":35.681774,"lon":139.561834},{"name":"グッドライフ三鷹寮","province":"東京都","city":"三鷹市","address":"三鷹市野崎4-4-23","lat":35.67979,"lon":139.54228},{"name":"三鷹荘","province":"東京都","city":"三鷹市","address":"三鷹市大沢1-1-50","lat":35.67792,"lon":139.54054},{"name":"さくら三鷹ハウス","province":"東京都","city":"三鷹市","address":"東京都三鷹市","lat":35.68327617,"lon":139.55972268},{"name":"東京点字出版所","province":"東京都","city":"三鷹市","address":"三鷹市下連雀3-32-10","lat":35.69877,"lon":139.56078},{"name":"三鷹市社会福祉協議会","province":"東京都","city":"三鷹市","address":"三鷹市新川6-37-1元気創造プラザ3階福祉センター内","lat":35.68187,"lon":139.56218},{"name":"東京点字出版所","province":"東京都","city":"三鷹市","address":"三鷹市下連雀3-32-10","lat":35.698472,"lon":139.560553},{"name":"グッドライフ三鷹寮","province":"東京都","city":"三鷹市","address":"三鷹市野崎4-4-23","lat":35.68024,"lon":139.54076},{"name":"三鷹市牟礼老人保健施設はなかいどう","province":"東京都","city":"三鷹市","address":"三鷹市牟礼6-12-30","lat":35.687837,"lon":139.574399},{"name":"三鷹市子ども発達支援センター","province":"東京都","city":"三鷹市","address":"三鷹市新川6-37-1","lat":35.681774,"lon":139.561834},{"name":"コーポ三鷹","province":"東京都","city":"三鷹市","address":"東京都三鷹市","lat":35.68327617,"lon":139.55972268},{"name":"グッドライフ三鷹寮","province":"東京都","city":"三鷹市","address":"三鷹市野崎4-4-23","lat":35.680037,"lon":139.542419},{"name":"三鷹荘","province":"東京都","city":"三鷹市","address":"三鷹市大沢1-1-50","lat":35.678088,"lon":139.542266},{"name":"三鷹市社会福祉協議会","province":"東京都","city":"三鷹市","address":"三鷹市新川6-37-1元気創造プラザ3階福祉センター内","lat":35.681774,"lon":139.561834},{"name":"グッドライフ三鷹寮","province":"東京都","city":"三鷹市","address":"三鷹市野崎4-4-23","lat":35.67979,"lon":139.54228},{"name":"三鷹荘","province":"東京都","city":"三鷹市","address":"三鷹市大沢1-1-50","lat":35.67792,"lon":139.54054},{"name":"さくら三鷹ハウス","province":"東京都","city":"三鷹市","address":"東京都三鷹市","lat":35.68327617,"lon":139.55972268},{"name":"東京点字出版所","province":"東京都","city":"三鷹市","address":"三鷹市下連雀3-32-10","lat":35.69877,"lon":139.56078},{"name":"三鷹市社会福祉協議会","province":"東京都","city":"三鷹市","address":"三鷹市新川6-37-1元気創造プラザ3階福祉センター内","lat":35.68187,"lon":139.56218},{"name":"東京点字出版所","province":"東京都","city":"三鷹市","address":"三鷹市下連雀3-32-10","lat":35.698472,"lon":139.560553},{"name":"グッドライフ三鷹寮","province":"東京都","city":"三鷹市","address":"三鷹市野崎4-4-23","lat":35.68024,"lon":139.54076},{"name":"三鷹市牟礼老人保健施設はなかいどう","province":"東京都","city":"三鷹市","address":"三鷹市牟礼6-12-30","lat":35.687837,"lon":139.574399},{"name":"三鷹市子ども発達支援センター","province":"東京都","city":"三鷹市","address":"三鷹市新川6-37-1","lat":35.681774,"lon":139.561834},{"name":"コーポ三鷹","province":"東京都","city":"三鷹市","address":"東京都三鷹市","lat":35.68327617,"lon":139.55972268},{"name":"グッドライフ三鷹寮","province":"東京都","city":"三鷹市","address":"三鷹市野崎4-4-23","lat":35.680037,"lon":139.542419},{"name":"三鷹荘","province":"東京都","city":"三鷹市","address":"三鷹市大沢1-1-50","lat":35.678088,"lon":139.542266},{"name":"三鷹市社会福祉協議会","province":"東京都","city":"三鷹市","address":"三鷹市新川6-37-1元気創造プラザ3階福祉センター内","lat":35.681774,"lon":139.561834},{"name":"グッドライフ三鷹寮","province":"東京都","city":"三鷹市","address":"三鷹市野崎4-4-23","lat":35.67979,"lon":139.54228},{"name":"三鷹荘","province":"東京都","city":"三鷹市","address":"三鷹市大沢1-1-50","lat":35.67792,"lon":139.54054},{"name":"さくら三鷹ハウス","province":"東京都","city":"三鷹市","address":"東京都三鷹市","lat":35.68327617,"lon":139.55972268},{"name":"東京点字出版所","province":"東京都","city":"三鷹市","address":"三鷹市下連雀3-32-10","lat":35.69877,"lon":139.56078},{"name":"三鷹市社会福祉協議会","province":"東京都","city":"三鷹市","address":"三鷹市新川6-37-1元気創造プラザ3階福祉センター内","lat":35.68187,"lon":139.56218},{"name":"東京点字出版所","province":"東京都","city":"三鷹市","address":"三鷹市下連雀3-32-10","lat":35.698472,"lon":139.560553},{"name":"グッドライフ三鷹寮","province":"東京都","city":"三鷹市","address":"三鷹市野崎4-4-23","lat":35.68024,"lon":139.54076},{"name":"三鷹市牟礼老人保健施設はなかいどう","province":"東京都","city":"三鷹市","address":"三鷹市牟礼6-12-30","lat":35.687837,"lon":139.574399},{"name":"三鷹市子ども発達支援センター","province":"東京都","city":"三鷹市","address":"三鷹市新川6-37-1","lat":35.681774,"lon":139.561834},{"name":"コーポ三鷹","province":"東京都","city":"三鷹市","address":"東京都三鷹市","lat":35.68327617,"lon":139.55972268},{"name":"グッドライフ三鷹寮","province":"東京都","city":"三鷹市","address":"三鷹市野崎4-4-23","lat":35.680037,"lon":139.542419},{"name":"三鷹荘","province":"東京都","city":"三鷹市","address":"三鷹市大沢1-1-50","lat":35.678088,"lon":139.542266},{"name":"三鷹市社会福祉協議会","province":"東京都","city":"三鷹市","address":"三鷹市新川6-37-1元気創造プラザ3階福祉センター内","lat":35.681774,"lon":139.561834},{"name":"グッドライフ三鷹寮","province":"東京都","city":"三鷹市","address":"三鷹市野崎4-4-23","lat":35.67979,"lon":139.54228},{"name":"三鷹荘","province":"東京都","city":"三鷹市","address":"三鷹市大沢1-1-50","lat":35.67792,"lon":139.54054},{"name":"さくら三鷹ハウス","province":"東京都","city":"三鷹市","address":"東京都三鷹市","lat":35.68327617,"lon":139.55972268},{"name":"東京点字出版所","province":"東京都","city":"三鷹市","address":"三鷹市下連雀3-32-10","lat":35.69877,"lon":139.56078},{"name":"三鷹市社会福祉協議会","province":"東京都","city":"三鷹市","address":"三鷹市新川6-37-1元気創造プラザ3階福祉センター内","lat":35.68187,"lon":139.56218},{"name":"東京点字出版所","province":"東京都","city":"三鷹市","address":"三鷹市下連雀3-32-10","lat":35.698472,"lon":139.560553},{"name":"グッドライフ三鷹寮","province":"東京都","city":"三鷹市","address":"三鷹市野崎4-4-23","lat":35.68024,"lon":139.54076},{"name":"三鷹市牟礼老人保健施設はなかいどう","province":"東京都","city":"三鷹市","address":"三鷹市牟礼6-12-30","lat":35.687837,"lon":139.574399},{"name":"三鷹市子ども発達支援センター","province":"東京都","city":"三鷹市","address":"三鷹市新川6-37-1","lat":35.681774,"lon":139.561834},{"name":"コーポ三鷹","province":"東京都","city":"三鷹市","address":"東京都三鷹市","lat":35.68327617,"lon":139.55972268},{"name":"グッドライフ三鷹寮","province":"東京都","city":"三鷹市","address":"三鷹市野崎4-4-23","lat":35.680037,"lon":139.542419},{"name":"三鷹荘","province":"東京都","city":"三鷹市","address":"三鷹市大沢1-1-50","lat":35.678088,"lon":139.542266},{"name":"三鷹市社会福祉協議会","province":"東京都","city":"三鷹市","address":"三鷹市新川6-37-1元気創造プラザ3階福祉センター内","lat":35.681774,"lon":139.561834},{"name":"グッドライフ三鷹寮","province":"東京都","city":"三鷹市","address":"三鷹市野崎4-4-23","lat":35.67979,"lon":139.54228},{"name":"三鷹荘","province":"東京都","city":"三鷹市","address":"三鷹市大沢1-1-50","lat":35.67792,"lon":139.54054},{"name":"さくら三鷹ハウス","province":"東京都","city":"三鷹市","address":"東京都三鷹市","lat":35.68327617,"lon":139.55972268},{"name":"東京点字出版所","province":"東京都","city":"三鷹市","address":"三鷹市下連雀3-32-10","lat":35.69877,"lon":139.56078},{"name":"三鷹市社会福祉協議会","province":"東京都","city":"三鷹市","address":"三鷹市新川6-37-1元気創造プラザ3階福祉センター内","lat":35.68187,"lon":139.56218},{"name":"東京点字出版所","province":"東京都","city":"三鷹市","address":"三鷹市下連雀3-32-10","lat":35.698472,"lon":139.560553},{"name":"グッドライフ三鷹寮","province":"東京都","city":"三鷹市","address":"三鷹市野崎4-4-23","lat":35.68024,"lon":139.54076},{"name":"三鷹市牟礼老人保健施設はなかいどう","province":"東京都","city":"三鷹市","address":"三鷹市牟礼6-12-30","lat":35.687837,"lon":139.574399},{"name":"三鷹市子ども発達支援センター","province":"東京都","city":"三鷹市","address":"三鷹市新川6-37-1","lat":35.681774,"lon":139.561834},{"name":"コーポ三鷹","province":"東京都","city":"三鷹市","address":"東京都三鷹市","lat":35.68327617,"lon":139.55972268},{"name":"グッドライフ三鷹寮","province":"東京都","city":"三鷹市","address":"三鷹市野崎4-4-23","lat":35.680037,"lon":139.542419},{"name":"三鷹荘","province":"東京都","city":"三鷹市","address":"三鷹市大沢1-1-50","lat":35.678088,"lon":139.542266},{"name":"三鷹市社会福祉協議会","province":"東京都","city":"三鷹市","address":"三鷹市新川6-37-1元気創造プラザ3階福祉センター内","lat":35.681774,"lon":139.561834},{"name":"グッドライフ三鷹寮","province":"東京都","city":"三鷹市","address":"三鷹市野崎4-4-23","lat":35.67979,"lon":139.54228},{"name":"三鷹荘","province":"東京都","city":"三鷹市","address":"三鷹市大沢1-1-50","lat":35.67792,"lon":139.54054},{"name":"さくら三鷹ハウス","province":"東京都","city":"三鷹市","address":"東京都三鷹市","lat":35.68327617,"lon":139.55972268},{"name":"東京点字出版所","province":"東京都","city":"三鷹市","address":"三鷹市下連雀3-32-10","lat":35.69877,"lon":139.56078},{"name":"三鷹市社会福祉協議会","province":"東京都","city":"三鷹市","address":"三鷹市新川6-37-1元気創造プラザ3階福祉センター内","lat":35.68187,"lon":139.56218},{"name":"東京点字出版所","province":"東京都","city":"三鷹市","address":"三鷹市下連雀3-32-10","lat":35.698472,"lon":139.560553},{"name":"グッドライフ三鷹寮","province":"東京都","city":"三鷹市","address":"三鷹市野崎4-4-23","lat":35.68024,"lon":139.54076},{"name":"三鷹市牟礼老人保健施設はなかいどう","province":"東京都","city":"三鷹市","address":"三鷹市牟礼6-12-30","lat":35.687837,"lon":139.574399}]}