{"keyword":"戸数","data":[{"name":"三鷹市社会福祉協議会","province":"東京都","city":"三鷹市","address":"三鷹市新川6-37-1元気創造プラザ3階福祉センター内","lat":35.681774,"lon":139.561834},{"name":"三鷹市","province":"東京都","city":"三鷹市","address":"三鷹市野崎1-1-1","lat":35.68255956,"lon":139.5608228},{"name":"(株)あさの","province":"東京都","city":"三鷹市","address":"東京都三鷹市井の頭2-8-2","lat":35.69087213,"lon":139.5871695},{"name":"東葬祭","province":"東京都","city":"三鷹市","address":"東京都三鷹市上連雀2-5-15","lat":35.69845921,"lon":139.5588899},{"name":"永 塚 葬 儀 社","province":"東京都","city":"三鷹市","address":"東京都三鷹市下連雀3-15-15","lat":35.70170535,"lon":139.5623266},{"name":"日典","province":"東京都","city":"三鷹市","address":"東京都三鷹市野崎2-5-5","lat":35.68333439,"lon":139.5491371},{"name":"(株)セレモア","province":"東京都","city":"三鷹市","address":"東京都三鷹市新川5-16-10","lat":35.67602549,"lon":139.5677882},{"name":"東京むさし農業協同組合メモリアルセンター","province":"東京都","city":"三鷹市","address":"東京都三鷹市新川6-35-26","lat":35.6831526,"lon":139.5632417},{"name":"奥野式典","province":"東京都","city":"三鷹市","address":"東京都三鷹市野崎2-20-12","lat":35.68348742,"lon":139.5452849},{"name":"(株)メモリード","province":"東京都","city":"三鷹市","address":"東京都三鷹市下連雀9-3-23","lat":35.68371495,"lon":139.5616056},{"name":"株式会社　AZUMA","province":"東京都","city":"三鷹市","address":"東京都三鷹市上連雀2丁目5-15","lat":35.69835788,"lon":139.55886948},{"name":"（株）奥野式典","province":"東京都","city":"三鷹市","address":"東京都三鷹市野崎2丁目20-12","lat":35.68346477,"lon":139.54524346},{"name":"三鷹市社会福祉協議会","province":"東京都","city":"三鷹市","address":"三鷹市新川6-37-1元気創造プラザ3階福祉センター内","lat":35.68187,"lon":139.56218},{"name":"安心見守り電話","province":"東京都","city":"三鷹市","address":"三鷹市野崎1-1-1","lat":35.683262,"lon":139.559418},{"name":"三鷹市高齢者支援課高齢者相談係","province":"東京都","city":"三鷹市","address":"三鷹市野崎1-1-1","lat":35.683262,"lon":139.559418},{"name":"三鷹市東部地域包括支援センター","province":"東京都","city":"三鷹市","address":"三鷹市下連雀5-2-5特別養護老人ホーム弘済園1階","lat":35.685867,"lon":139.571869},{"name":"三鷹市井の頭地域包括支援センター","province":"東京都","city":"三鷹市","address":"三鷹市牟礼6-12-30三鷹市牟礼老人保健施設はなかいどう内","lat":35.687645,"lon":139.574585},{"name":"井の頭地域福祉支援センター","province":"東京都","city":"三鷹市","address":"三鷹市井の頭2-32-30井の頭コミュニティ・センター新館内","lat":35.693962,"lon":139.583344},{"name":"三鷹市連雀地域包括支援センター","province":"東京都","city":"三鷹市","address":"三鷹市下連雀8-3-6野村病院内","lat":35.684921,"lon":139.568466},{"name":"三鷹市三鷹駅周辺地域包括支援センター","province":"東京都","city":"三鷹市","address":"三鷹市下連雀4-2-8介護老人保健施設太郎内","lat":35.693394,"lon":139.56485},{"name":"三鷹市西部地域包括支援センター","province":"東京都","city":"三鷹市","address":"三鷹市深大寺2-29-13高齢者センターけやき苑内","lat":35.684795,"lon":139.541},{"name":"三鷹市大沢地域包括支援センター","province":"東京都","city":"三鷹市","address":"三鷹市大沢4-8-8旧どんぐり山施設内","lat":35.670273,"lon":139.540161},{"name":"三鷹市新川中原地域包括支援センター","province":"東京都","city":"三鷹市","address":"三鷹市新川5-6-31特別養護老人ホームみたか紫水園内","lat":35.676071,"lon":139.571152},{"name":"三鷹市消費者活動センター","province":"東京都","city":"三鷹市","address":"三鷹市下連雀3丁目22-7","lat":35.700787,"lon":139.563644},{"name":"三鷹国際交流協会","province":"東京都","city":"三鷹市","address":"東京都三鷹市下連雀3-30-12","lat":35.698111,"lon":139.561273},{"name":"杏林大学医学部付属病院","province":"東京都","city":"三鷹市","address":"東京都三鷹市新川6丁目20-2","lat":35.67747976,"lon":139.56650561},{"name":"上連雀浄水所（西配水場）","province":"東京都","city":"三鷹市","address":"東京都三鷹市上連雀9丁目41-4","lat":35.68686727,"lon":139.55074561},{"name":"三鷹市立第一中学校校庭","province":"東京都","city":"三鷹市","address":"東京都三鷹市下連雀9丁目10-1","lat":35.68538706,"lon":139.55970316},{"name":"三鷹市立大沢第二グラウンドサッカー場","province":"東京都","city":"三鷹市","address":"東京都三鷹市大沢5丁目21","lat":35.67102985,"lon":139.53154793},{"name":"杏林大学医学部付属病院ヘリポート","province":"東京都","city":"三鷹市","address":"東京都三鷹市新川6丁目20-2","lat":35.67747976,"lon":139.56650561},{"name":"三鷹市選挙管理委員会","province":"東京都","city":"三鷹市","address":"三鷹市野崎1-1-1第3庁舎","lat":35.683516,"lon":139.559481},{"name":"三鷹中等教育学校","province":"東京都","city":"三鷹市","address":"東京都三鷹市新川6丁目21-21","lat":35.67937122,"lon":139.56690551},{"name":"三鷹地区","province":"東京都","city":"三鷹市","address":"三鷹市上連雀7-4-8","lat":35.68908,"lon":139.5548},{"name":"酒井薬品（株）物流センター","province":"東京都","city":"三鷹市","address":"三鷹市野崎1-11-22","lat":35.68355,"lon":139.5539},{"name":"東日本電信電話（株）三鷹ビル","province":"東京都","city":"三鷹市","address":"三鷹市下連雀4-14-28","lat":35.69367,"lon":139.5617},{"name":"三鷹市環境センター","province":"東京都","city":"三鷹市","address":"三鷹市新川1-6-1","lat":35.671501,"lon":139.577942},{"name":"三鷹市社会福祉協議会","province":"東京都","city":"三鷹市","address":"三鷹市新川6-37-1元気創造プラザ3階福祉センター内","lat":35.681774,"lon":139.561834},{"name":"(株)あさの","province":"東京都","city":"三鷹市","address":"東京都三鷹市井の頭2-8-2","lat":35.69087213,"lon":139.5871695},{"name":"東葬祭","province":"東京都","city":"三鷹市","address":"東京都三鷹市上連雀2-5-15","lat":35.69845921,"lon":139.5588899},{"name":"永 塚 葬 儀 社","province":"東京都","city":"三鷹市","address":"東京都三鷹市下連雀3-15-15","lat":35.70170535,"lon":139.5623266},{"name":"日典","province":"東京都","city":"三鷹市","address":"東京都三鷹市野崎2-5-5","lat":35.68333439,"lon":139.5491371},{"name":"(株)セレモア","province":"東京都","city":"三鷹市","address":"東京都三鷹市新川5-16-10","lat":35.67602549,"lon":139.5677882},{"name":"東京むさし農業協同組合メモリアルセンター","province":"東京都","city":"三鷹市","address":"東京都三鷹市新川6-35-26","lat":35.6831526,"lon":139.5632417},{"name":"奥野式典","province":"東京都","city":"三鷹市","address":"東京都三鷹市野崎2-20-12","lat":35.68348742,"lon":139.5452849},{"name":"(株)メモリード","province":"東京都","city":"三鷹市","address":"東京都三鷹市下連雀9-3-23","lat":35.68371495,"lon":139.5616056},{"name":"三鷹市社会福祉協議会","province":"東京都","city":"三鷹市","address":"三鷹市新川6-37-1元気創造プラザ3階福祉センター内","lat":35.68187,"lon":139.56218},{"name":"安心見守り電話","province":"東京都","city":"三鷹市","address":"三鷹市野崎1-1-1","lat":35.683262,"lon":139.559418},{"name":"三鷹市高齢者支援課高齢者相談係","province":"東京都","city":"三鷹市","address":"三鷹市野崎1-1-1","lat":35.683262,"lon":139.559418},{"name":"三鷹市東部地域包括支援センター","province":"東京都","city":"三鷹市","address":"三鷹市下連雀5-2-5特別養護老人ホーム弘済園1階","lat":35.685867,"lon":139.571869},{"name":"三鷹市井の頭地域包括支援センター","province":"東京都","city":"三鷹市","address":"三鷹市牟礼6-12-30三鷹市牟礼老人保健施設はなかいどう内","lat":35.687645,"lon":139.574585},{"name":"井の頭地域福祉支援センター","province":"東京都","city":"三鷹市","address":"三鷹市井の頭2-32-30井の頭コミュニティ・センター新館内","lat":35.693962,"lon":139.583344},{"name":"三鷹市連雀地域包括支援センター","province":"東京都","city":"三鷹市","address":"三鷹市下連雀8-3-6野村病院内","lat":35.684921,"lon":139.568466},{"name":"三鷹市三鷹駅周辺地域包括支援センター","province":"東京都","city":"三鷹市","address":"三鷹市下連雀4-2-8介護老人保健施設太郎内","lat":35.693394,"lon":139.56485},{"name":"三鷹市西部地域包括支援センター","province":"東京都","city":"三鷹市","address":"三鷹市深大寺2-29-13高齢者センターけやき苑内","lat":35.684795,"lon":139.541},{"name":"三鷹市大沢地域包括支援センター","province":"東京都","city":"三鷹市","address":"三鷹市大沢4-8-8旧どんぐり山施設内","lat":35.670273,"lon":139.540161},{"name":"三鷹市新川中原地域包括支援センター","province":"東京都","city":"三鷹市","address":"三鷹市新川5-6-31特別養護老人ホームみたか紫水園内","lat":35.676071,"lon":139.571152},{"name":"三鷹市消費者活動センター","province":"東京都","city":"三鷹市","address":"三鷹市下連雀3丁目22-7","lat":35.700787,"lon":139.563644},{"name":"三鷹国際交流協会","province":"東京都","city":"三鷹市","address":"東京都三鷹市下連雀3-30-12","lat":35.698111,"lon":139.561273},{"name":"杏林大学医学部付属病院","province":"東京都","city":"三鷹市","address":"東京都三鷹市新川6丁目20-2","lat":35.67747976,"lon":139.56650561},{"name":"上連雀浄水所（西配水場）","province":"東京都","city":"三鷹市","address":"東京都三鷹市上連雀9丁目41-4","lat":35.68686727,"lon":139.55074561},{"name":"三鷹市立第一中学校校庭","province":"東京都","city":"三鷹市","address":"東京都三鷹市下連雀9丁目10-1","lat":35.68538706,"lon":139.55970316},{"name":"三鷹市立大沢第二グラウンドサッカー場","province":"東京都","city":"三鷹市","address":"東京都三鷹市大沢5丁目21","lat":35.67102985,"lon":139.53154793},{"name":"杏林大学医学部付属病院ヘリポート","province":"東京都","city":"三鷹市","address":"東京都三鷹市新川6丁目20-2","lat":35.67747976,"lon":139.56650561},{"name":"三鷹中等教育学校","province":"東京都","city":"三鷹市","address":"東京都三鷹市新川6丁目21-21","lat":35.67937122,"lon":139.56690551},{"name":"三鷹地区","province":"東京都","city":"三鷹市","address":"三鷹市上連雀7-4-8","lat":35.68908,"lon":139.5548},{"name":"酒井薬品（株）物流センター","province":"東京都","city":"三鷹市","address":"三鷹市野崎1-11-22","lat":35.68355,"lon":139.5539},{"name":"東日本電信電話（株）三鷹ビル","province":"東京都","city":"三鷹市","address":"三鷹市下連雀4-14-28","lat":35.69367,"lon":139.5617},{"name":"三鷹市環境センター","province":"東京都","city":"三鷹市","address":"三鷹市新川1-6-1","lat":35.671501,"lon":139.577942},{"name":"(株)あさの","province":"東京都","city":"三鷹市","address":"東京都三鷹市井の頭2-8-2","lat":35.69087213,"lon":139.5871695},{"name":"東葬祭","province":"東京都","city":"三鷹市","address":"東京都三鷹市上連雀2-5-15","lat":35.69845921,"lon":139.5588899},{"name":"永 塚 葬 儀 社","province":"東京都","city":"三鷹市","address":"東京都三鷹市下連雀3-15-15","lat":35.70170535,"lon":139.5623266},{"name":"日典","province":"東京都","city":"三鷹市","address":"東京都三鷹市野崎2-5-5","lat":35.68333439,"lon":139.5491371},{"name":"(株)セレモア","province":"東京都","city":"三鷹市","address":"東京都三鷹市新川5-16-10","lat":35.67602549,"lon":139.5677882},{"name":"東京むさし農業協同組合メモリアルセンター","province":"東京都","city":"三鷹市","address":"東京都三鷹市新川6-35-26","lat":35.6831526,"lon":139.5632417},{"name":"奥野式典","province":"東京都","city":"三鷹市","address":"東京都三鷹市野崎2-20-12","lat":35.68348742,"lon":139.5452849},{"name":"(株)メモリード","province":"東京都","city":"三鷹市","address":"東京都三鷹市下連雀9-3-23","lat":35.68371495,"lon":139.5616056},{"name":"安心見守り電話","province":"東京都","city":"三鷹市","address":"三鷹市野崎1-1-1","lat":35.683262,"lon":139.559418},{"name":"三鷹市高齢者支援課高齢者相談係","province":"東京都","city":"三鷹市","address":"三鷹市野崎1-1-1","lat":35.683262,"lon":139.559418},{"name":"三鷹市東部地域包括支援センター","province":"東京都","city":"三鷹市","address":"三鷹市下連雀5-2-5特別養護老人ホーム弘済園1階","lat":35.685867,"lon":139.571869},{"name":"三鷹市井の頭地域包括支援センター","province":"東京都","city":"三鷹市","address":"三鷹市牟礼6-12-30三鷹市牟礼老人保健施設はなかいどう内","lat":35.687645,"lon":139.574585},{"name":"井の頭地域福祉支援センター","province":"東京都","city":"三鷹市","address":"三鷹市井の頭2-32-30井の頭コミュニティ・センター新館内","lat":35.693962,"lon":139.583344},{"name":"三鷹市連雀地域包括支援センター","province":"東京都","city":"三鷹市","address":"三鷹市下連雀8-3-6野村病院内","lat":35.684921,"lon":139.568466},{"name":"三鷹市三鷹駅周辺地域包括支援センター","province":"東京都","city":"三鷹市","address":"三鷹市下連雀4-2-8介護老人保健施設太郎内","lat":35.693394,"lon":139.56485},{"name":"三鷹市西部地域包括支援センター","province":"東京都","city":"三鷹市","address":"三鷹市深大寺2-29-13高齢者センターけやき苑内","lat":35.684795,"lon":139.541},{"name":"三鷹市大沢地域包括支援センター","province":"東京都","city":"三鷹市","address":"三鷹市大沢4-8-8旧どんぐり山施設内","lat":35.670273,"lon":139.540161},{"name":"三鷹市新川中原地域包括支援センター","province":"東京都","city":"三鷹市","address":"三鷹市新川5-6-31特別養護老人ホームみたか紫水園内","lat":35.676071,"lon":139.571152},{"name":"三鷹市消費者活動センター","province":"東京都","city":"三鷹市","address":"三鷹市下連雀3丁目22-7","lat":35.700787,"lon":139.563644},{"name":"三鷹国際交流協会","province":"東京都","city":"三鷹市","address":"東京都三鷹市下連雀3-30-12","lat":35.698111,"lon":139.561273},{"name":"杏林大学医学部付属病院","province":"東京都","city":"三鷹市","address":"東京都三鷹市新川6丁目20-2","lat":35.67747976,"lon":139.56650561},{"name":"三鷹中等教育学校","province":"東京都","city":"三鷹市","address":"東京都三鷹市新川6丁目21-21","lat":35.67937122,"lon":139.56690551},{"name":"(株)あさの","province":"東京都","city":"三鷹市","address":"東京都三鷹市井の頭2-8-2","lat":35.69087213,"lon":139.5871695},{"name":"東葬祭","province":"東京都","city":"三鷹市","address":"東京都三鷹市上連雀2-5-15","lat":35.69845921,"lon":139.5588899},{"name":"永 塚 葬 儀 社","province":"東京都","city":"三鷹市","address":"東京都三鷹市下連雀3-15-15","lat":35.70170535,"lon":139.5623266},{"name":"日典","province":"東京都","city":"三鷹市","address":"東京都三鷹市野崎2-5-5","lat":35.68333439,"lon":139.5491371},{"name":"(株)セレモア","province":"東京都","city":"三鷹市","address":"東京都三鷹市新川5-16-10","lat":35.67602549,"lon":139.5677882},{"name":"東京むさし農業協同組合メモリアルセンター","province":"東京都","city":"三鷹市","address":"東京都三鷹市新川6-35-26","lat":35.6831526,"lon":139.5632417},{"name":"奥野式典","province":"東京都","city":"三鷹市","address":"東京都三鷹市野崎2-20-12","lat":35.68348742,"lon":139.5452849},{"name":"(株)メモリード","province":"東京都","city":"三鷹市","address":"東京都三鷹市下連雀9-3-23","lat":35.68371495,"lon":139.5616056},{"name":"安心見守り電話","province":"東京都","city":"三鷹市","address":"三鷹市野崎1-1-1","lat":35.683262,"lon":139.559418},{"name":"三鷹市高齢者支援課高齢者相談係","province":"東京都","city":"三鷹市","address":"三鷹市野崎1-1-1","lat":35.683262,"lon":139.559418},{"name":"三鷹市東部地域包括支援センター","province":"東京都","city":"三鷹市","address":"三鷹市下連雀5-2-5特別養護老人ホーム弘済園1階","lat":35.685867,"lon":139.571869},{"name":"三鷹市井の頭地域包括支援センター","province":"東京都","city":"三鷹市","address":"三鷹市牟礼6-12-30三鷹市牟礼老人保健施設はなかいどう内","lat":35.687645,"lon":139.574585},{"name":"井の頭地域福祉支援センター","province":"東京都","city":"三鷹市","address":"三鷹市井の頭2-32-30井の頭コミュニティ・センター新館内","lat":35.693962,"lon":139.583344},{"name":"三鷹市連雀地域包括支援センター","province":"東京都","city":"三鷹市","address":"三鷹市下連雀8-3-6野村病院内","lat":35.684921,"lon":139.568466},{"name":"三鷹市三鷹駅周辺地域包括支援センター","province":"東京都","city":"三鷹市","address":"三鷹市下連雀4-2-8介護老人保健施設太郎内","lat":35.693394,"lon":139.56485},{"name":"三鷹市西部地域包括支援センター","province":"東京都","city":"三鷹市","address":"三鷹市深大寺2-29-13高齢者センターけやき苑内","lat":35.684795,"lon":139.541},{"name":"三鷹市大沢地域包括支援センター","province":"東京都","city":"三鷹市","address":"三鷹市大沢4-8-8旧どんぐり山施設内","lat":35.670273,"lon":139.540161},{"name":"三鷹市新川中原地域包括支援センター","province":"東京都","city":"三鷹市","address":"三鷹市新川5-6-31特別養護老人ホームみたか紫水園内","lat":35.676071,"lon":139.571152},{"name":"三鷹市消費者活動センター","province":"東京都","city":"三鷹市","address":"三鷹市下連雀3丁目22-7","lat":35.700787,"lon":139.563644},{"name":"三鷹国際交流協会","province":"東京都","city":"三鷹市","address":"東京都三鷹市下連雀3-30-12","lat":35.698111,"lon":139.561273},{"name":"杏林大学医学部付属病院","province":"東京都","city":"三鷹市","address":"東京都三鷹市新川6丁目20-2","lat":35.67747976,"lon":139.56650561},{"name":"三鷹中等教育学校","province":"東京都","city":"三鷹市","address":"東京都三鷹市新川6丁目21-21","lat":35.67937122,"lon":139.56690551},{"name":"(株)あさの","province":"東京都","city":"三鷹市","address":"東京都三鷹市井の頭2-8-2","lat":35.69087213,"lon":139.5871695},{"name":"東葬祭","province":"東京都","city":"三鷹市","address":"東京都三鷹市上連雀2-5-15","lat":35.69845921,"lon":139.5588899},{"name":"永 塚 葬 儀 社","province":"東京都","city":"三鷹市","address":"東京都三鷹市下連雀3-15-15","lat":35.70170535,"lon":139.5623266},{"name":"日典","province":"東京都","city":"三鷹市","address":"東京都三鷹市野崎2-5-5","lat":35.68333439,"lon":139.5491371},{"name":"(株)セレモア","province":"東京都","city":"三鷹市","address":"東京都三鷹市新川5-16-10","lat":35.67602549,"lon":139.5677882},{"name":"東京むさし農業協同組合メモリアルセンター","province":"東京都","city":"三鷹市","address":"東京都三鷹市新川6-35-26","lat":35.6831526,"lon":139.5632417},{"name":"奥野式典","province":"東京都","city":"三鷹市","address":"東京都三鷹市野崎2-20-12","lat":35.68348742,"lon":139.5452849},{"name":"(株)メモリード","province":"東京都","city":"三鷹市","address":"東京都三鷹市下連雀9-3-23","lat":35.68371495,"lon":139.5616056},{"name":"安心見守り電話","province":"東京都","city":"三鷹市","address":"三鷹市野崎1-1-1","lat":35.683262,"lon":139.559418},{"name":"三鷹市高齢者支援課高齢者相談係","province":"東京都","city":"三鷹市","address":"三鷹市野崎1-1-1","lat":35.683262,"lon":139.559418},{"name":"三鷹市東部地域包括支援センター","province":"東京都","city":"三鷹市","address":"三鷹市下連雀5-2-5特別養護老人ホーム弘済園1階","lat":35.685867,"lon":139.571869},{"name":"三鷹市井の頭地域包括支援センター","province":"東京都","city":"三鷹市","address":"三鷹市牟礼6-12-30三鷹市牟礼老人保健施設はなかいどう内","lat":35.687645,"lon":139.574585},{"name":"井の頭地域福祉支援センター","province":"東京都","city":"三鷹市","address":"三鷹市井の頭2-32-30井の頭コミュニティ・センター新館内","lat":35.693962,"lon":139.583344},{"name":"三鷹市連雀地域包括支援センター","province":"東京都","city":"三鷹市","address":"三鷹市下連雀8-3-6野村病院内","lat":35.684921,"lon":139.568466},{"name":"三鷹市三鷹駅周辺地域包括支援センター","province":"東京都","city":"三鷹市","address":"三鷹市下連雀4-2-8介護老人保健施設太郎内","lat":35.693394,"lon":139.56485},{"name":"三鷹市西部地域包括支援センター","province":"東京都","city":"三鷹市","address":"三鷹市深大寺2-29-13高齢者センターけやき苑内","lat":35.684795,"lon":139.541},{"name":"三鷹市大沢地域包括支援センター","province":"東京都","city":"三鷹市","address":"三鷹市大沢4-8-8旧どんぐり山施設内","lat":35.670273,"lon":139.540161},{"name":"三鷹市新川中原地域包括支援センター","province":"東京都","city":"三鷹市","address":"三鷹市新川5-6-31特別養護老人ホームみたか紫水園内","lat":35.676071,"lon":139.571152},{"name":"三鷹市消費者活動センター","province":"東京都","city":"三鷹市","address":"三鷹市下連雀3丁目22-7","lat":35.700787,"lon":139.563644},{"name":"三鷹国際交流協会","province":"東京都","city":"三鷹市","address":"東京都三鷹市下連雀3-30-12","lat":35.698111,"lon":139.561273},{"name":"(株)あさの","province":"東京都","city":"三鷹市","address":"東京都三鷹市井の頭2-8-2","lat":35.69087213,"lon":139.5871695},{"name":"東葬祭","province":"東京都","city":"三鷹市","address":"東京都三鷹市上連雀2-5-15","lat":35.69845921,"lon":139.5588899},{"name":"永 塚 葬 儀 社","province":"東京都","city":"三鷹市","address":"東京都三鷹市下連雀3-15-15","lat":35.70170535,"lon":139.5623266},{"name":"日典","province":"東京都","city":"三鷹市","address":"東京都三鷹市野崎2-5-5","lat":35.68333439,"lon":139.5491371},{"name":"(株)セレモア","province":"東京都","city":"三鷹市","address":"東京都三鷹市新川5-16-10","lat":35.67602549,"lon":139.5677882},{"name":"東京むさし農業協同組合メモリアルセンター","province":"東京都","city":"三鷹市","address":"東京都三鷹市新川6-35-26","lat":35.6831526,"lon":139.5632417},{"name":"奥野式典","province":"東京都","city":"三鷹市","address":"東京都三鷹市野崎2-20-12","lat":35.68348742,"lon":139.5452849},{"name":"(株)メモリード","province":"東京都","city":"三鷹市","address":"東京都三鷹市下連雀9-3-23","lat":35.68371495,"lon":139.5616056},{"name":"安心見守り電話","province":"東京都","city":"三鷹市","address":"三鷹市野崎1-1-1","lat":35.683262,"lon":139.559418},{"name":"三鷹市高齢者支援課高齢者相談係","province":"東京都","city":"三鷹市","address":"三鷹市野崎1-1-1","lat":35.683262,"lon":139.559418},{"name":"三鷹市東部地域包括支援センター","province":"東京都","city":"三鷹市","address":"三鷹市下連雀5-2-5特別養護老人ホーム弘済園1階","lat":35.685867,"lon":139.571869},{"name":"三鷹市井の頭地域包括支援センター","province":"東京都","city":"三鷹市","address":"三鷹市牟礼6-12-30三鷹市牟礼老人保健施設はなかいどう内","lat":35.687645,"lon":139.574585},{"name":"井の頭地域福祉支援センター","province":"東京都","city":"三鷹市","address":"三鷹市井の頭2-32-30井の頭コミュニティ・センター新館内","lat":35.693962,"lon":139.583344},{"name":"三鷹市連雀地域包括支援センター","province":"東京都","city":"三鷹市","address":"三鷹市下連雀8-3-6野村病院内","lat":35.684921,"lon":139.568466},{"name":"三鷹市三鷹駅周辺地域包括支援センター","province":"東京都","city":"三鷹市","address":"三鷹市下連雀4-2-8介護老人保健施設太郎内","lat":35.693394,"lon":139.56485},{"name":"三鷹市西部地域包括支援センター","province":"東京都","city":"三鷹市","address":"三鷹市深大寺2-29-13高齢者センターけやき苑内","lat":35.684795,"lon":139.541},{"name":"三鷹市大沢地域包括支援センター","province":"東京都","city":"三鷹市","address":"三鷹市大沢4-8-8旧どんぐり山施設内","lat":35.670273,"lon":139.540161},{"name":"三鷹市新川中原地域包括支援センター","province":"東京都","city":"三鷹市","address":"三鷹市新川5-6-31特別養護老人ホームみたか紫水園内","lat":35.676071,"lon":139.571152},{"name":"三鷹市消費者活動センター","province":"東京都","city":"三鷹市","address":"三鷹市下連雀3丁目22-7","lat":35.700787,"lon":139.563644},{"name":"三鷹国際交流協会","province":"東京都","city":"三鷹市","address":"東京都三鷹市下連雀3-30-12","lat":35.698111,"lon":139.561273},{"name":"安心見守り電話","province":"東京都","city":"三鷹市","address":"三鷹市野崎1-1-1","lat":35.683262,"lon":139.559418},{"name":"三鷹市高齢者支援課高齢者相談係","province":"東京都","city":"三鷹市","address":"三鷹市野崎1-1-1","lat":35.683262,"lon":139.559418},{"name":"三鷹市東部地域包括支援センター","province":"東京都","city":"三鷹市","address":"三鷹市下連雀5-2-5特別養護老人ホーム弘済園1階","lat":35.685867,"lon":139.571869},{"name":"三鷹市井の頭地域包括支援センター","province":"東京都","city":"三鷹市","address":"三鷹市牟礼6-12-30三鷹市牟礼老人保健施設はなかいどう内","lat":35.687645,"lon":139.574585},{"name":"井の頭地域福祉支援センター","province":"東京都","city":"三鷹市","address":"三鷹市井の頭2-32-30井の頭コミュニティ・センター新館内","lat":35.693962,"lon":139.583344},{"name":"三鷹市連雀地域包括支援センター","province":"東京都","city":"三鷹市","address":"三鷹市下連雀8-3-6野村病院内","lat":35.684921,"lon":139.568466},{"name":"三鷹市三鷹駅周辺地域包括支援センター","province":"東京都","city":"三鷹市","address":"三鷹市下連雀4-2-8介護老人保健施設太郎内","lat":35.693394,"lon":139.56485},{"name":"三鷹市西部地域包括支援センター","province":"東京都","city":"三鷹市","address":"三鷹市深大寺2-29-13高齢者センターけやき苑内","lat":35.684795,"lon":139.541},{"name":"三鷹市大沢地域包括支援センター","province":"東京都","city":"三鷹市","address":"三鷹市大沢4-8-8旧どんぐり山施設内","lat":35.670273,"lon":139.540161},{"name":"三鷹市新川中原地域包括支援センター","province":"東京都","city":"三鷹市","address":"三鷹市新川5-6-31特別養護老人ホームみたか紫水園内","lat":35.676071,"lon":139.571152},{"name":"三鷹市消費者活動センター","province":"東京都","city":"三鷹市","address":"三鷹市下連雀3丁目22-7","lat":35.700787,"lon":139.563644},{"name":"三鷹国際交流協会","province":"東京都","city":"三鷹市","address":"東京都三鷹市下連雀3-30-12","lat":35.698111,"lon":139.561273},{"name":"安心見守り電話","province":"東京都","city":"三鷹市","address":"三鷹市野崎1-1-1","lat":35.683262,"lon":139.559418},{"name":"三鷹市高齢者支援課高齢者相談係","province":"東京都","city":"三鷹市","address":"三鷹市野崎1-1-1","lat":35.683262,"lon":139.559418},{"name":"三鷹市東部地域包括支援センター","province":"東京都","city":"三鷹市","address":"三鷹市下連雀5-2-5特別養護老人ホーム弘済園1階","lat":35.685867,"lon":139.571869},{"name":"三鷹市井の頭地域包括支援センター","province":"東京都","city":"三鷹市","address":"三鷹市牟礼6-12-30三鷹市牟礼老人保健施設はなかいどう内","lat":35.687645,"lon":139.574585},{"name":"井の頭地域福祉支援センター","province":"東京都","city":"三鷹市","address":"三鷹市井の頭2-32-30井の頭コミュニティ・センター新館内","lat":35.693962,"lon":139.583344},{"name":"三鷹市連雀地域包括支援センター","province":"東京都","city":"三鷹市","address":"三鷹市下連雀8-3-6野村病院内","lat":35.684921,"lon":139.568466},{"name":"三鷹市三鷹駅周辺地域包括支援センター","province":"東京都","city":"三鷹市","address":"三鷹市下連雀4-2-8介護老人保健施設太郎内","lat":35.693394,"lon":139.56485},{"name":"三鷹市西部地域包括支援センター","province":"東京都","city":"三鷹市","address":"三鷹市深大寺2-29-13高齢者センターけやき苑内","lat":35.684795,"lon":139.541},{"name":"三鷹市大沢地域包括支援センター","province":"東京都","city":"三鷹市","address":"三鷹市大沢4-8-8旧どんぐり山施設内","lat":35.670273,"lon":139.540161},{"name":"三鷹市新川中原地域包括支援センター","province":"東京都","city":"三鷹市","address":"三鷹市新川5-6-31特別養護老人ホームみたか紫水園内","lat":35.676071,"lon":139.571152},{"name":"三鷹市消費者活動センター","province":"東京都","city":"三鷹市","address":"三鷹市下連雀3丁目22-7","lat":35.700787,"lon":139.563644},{"name":"三鷹国際交流協会","province":"東京都","city":"三鷹市","address":"東京都三鷹市下連雀3-30-12","lat":35.698111,"lon":139.561273},{"name":"安心見守り電話","province":"東京都","city":"三鷹市","address":"三鷹市野崎1-1-1","lat":35.683262,"lon":139.559418},{"name":"三鷹市高齢者支援課高齢者相談係","province":"東京都","city":"三鷹市","address":"三鷹市野崎1-1-1","lat":35.683262,"lon":139.559418},{"name":"三鷹市東部地域包括支援センター","province":"東京都","city":"三鷹市","address":"三鷹市下連雀5-2-5特別養護老人ホーム弘済園1階","lat":35.685867,"lon":139.571869},{"name":"三鷹市井の頭地域包括支援センター","province":"東京都","city":"三鷹市","address":"三鷹市牟礼6-12-30三鷹市牟礼老人保健施設はなかいどう内","lat":35.687645,"lon":139.574585},{"name":"井の頭地域福祉支援センター","province":"東京都","city":"三鷹市","address":"三鷹市井の頭2-32-30井の頭コミュニティ・センター新館内","lat":35.693962,"lon":139.583344},{"name":"三鷹市連雀地域包括支援センター","province":"東京都","city":"三鷹市","address":"三鷹市下連雀8-3-6野村病院内","lat":35.684921,"lon":139.568466},{"name":"三鷹市三鷹駅周辺地域包括支援センター","province":"東京都","city":"三鷹市","address":"三鷹市下連雀4-2-8介護老人保健施設太郎内","lat":35.693394,"lon":139.56485},{"name":"三鷹市西部地域包括支援センター","province":"東京都","city":"三鷹市","address":"三鷹市深大寺2-29-13高齢者センターけやき苑内","lat":35.684795,"lon":139.541},{"name":"三鷹市大沢地域包括支援センター","province":"東京都","city":"三鷹市","address":"三鷹市大沢4-8-8旧どんぐり山施設内","lat":35.670273,"lon":139.540161},{"name":"三鷹市新川中原地域包括支援センター","province":"東京都","city":"三鷹市","address":"三鷹市新川5-6-31特別養護老人ホームみたか紫水園内","lat":35.676071,"lon":139.571152},{"name":"三鷹市消費者活動センター","province":"東京都","city":"三鷹市","address":"三鷹市下連雀3丁目22-7","lat":35.700787,"lon":139.563644},{"name":"安心見守り電話","province":"東京都","city":"三鷹市","address":"三鷹市野崎1-1-1","lat":35.683262,"lon":139.559418},{"name":"三鷹市高齢者支援課高齢者相談係","province":"東京都","city":"三鷹市","address":"三鷹市野崎1-1-1","lat":35.683262,"lon":139.559418},{"name":"三鷹市東部地域包括支援センター","province":"東京都","city":"三鷹市","address":"三鷹市下連雀5-2-5特別養護老人ホーム弘済園1階","lat":35.685867,"lon":139.571869},{"name":"三鷹市井の頭地域包括支援センター","province":"東京都","city":"三鷹市","address":"三鷹市牟礼6-12-30三鷹市牟礼老人保健施設はなかいどう内","lat":35.687645,"lon":139.574585},{"name":"井の頭地域福祉支援センター","province":"東京都","city":"三鷹市","address":"三鷹市井の頭2-32-30井の頭コミュニティ・センター新館内","lat":35.693962,"lon":139.583344},{"name":"三鷹市連雀地域包括支援センター","province":"東京都","city":"三鷹市","address":"三鷹市下連雀8-3-6野村病院内","lat":35.684921,"lon":139.568466},{"name":"三鷹市三鷹駅周辺地域包括支援センター","province":"東京都","city":"三鷹市","address":"三鷹市下連雀4-2-8介護老人保健施設太郎内","lat":35.693394,"lon":139.56485},{"name":"三鷹市西部地域包括支援センター","province":"東京都","city":"三鷹市","address":"三鷹市深大寺2-29-13高齢者センターけやき苑内","lat":35.684795,"lon":139.541},{"name":"三鷹市大沢地域包括支援センター","province":"東京都","city":"三鷹市","address":"三鷹市大沢4-8-8旧どんぐり山施設内","lat":35.670273,"lon":139.540161},{"name":"三鷹市新川中原地域包括支援センター","province":"東京都","city":"三鷹市","address":"三鷹市新川5-6-31特別養護老人ホームみたか紫水園内","lat":35.676071,"lon":139.571152},{"name":"三鷹市消費者活動センター","province":"東京都","city":"三鷹市","address":"三鷹市下連雀3丁目22-7","lat":35.700787,"lon":139.563644},{"name":"安心見守り電話","province":"東京都","city":"三鷹市","address":"三鷹市野崎1-1-1","lat":35.683262,"lon":139.559418},{"name":"三鷹市高齢者支援課高齢者相談係","province":"東京都","city":"三鷹市","address":"三鷹市野崎1-1-1","lat":35.683262,"lon":139.559418},{"name":"三鷹市東部地域包括支援センター","province":"東京都","city":"三鷹市","address":"三鷹市下連雀5-2-5特別養護老人ホーム弘済園1階","lat":35.685867,"lon":139.571869},{"name":"三鷹市井の頭地域包括支援センター","province":"東京都","city":"三鷹市","address":"三鷹市牟礼6-12-30三鷹市牟礼老人保健施設はなかいどう内","lat":35.687645,"lon":139.574585},{"name":"井の頭地域福祉支援センター","province":"東京都","city":"三鷹市","address":"三鷹市井の頭2-32-30井の頭コミュニティ・センター新館内","lat":35.693962,"lon":139.583344},{"name":"三鷹市連雀地域包括支援センター","province":"東京都","city":"三鷹市","address":"三鷹市下連雀8-3-6野村病院内","lat":35.684921,"lon":139.568466},{"name":"三鷹市三鷹駅周辺地域包括支援センター","province":"東京都","city":"三鷹市","address":"三鷹市下連雀4-2-8介護老人保健施設太郎内","lat":35.693394,"lon":139.56485},{"name":"三鷹市西部地域包括支援センター","province":"東京都","city":"三鷹市","address":"三鷹市深大寺2-29-13高齢者センターけやき苑内","lat":35.684795,"lon":139.541},{"name":"三鷹市大沢地域包括支援センター","province":"東京都","city":"三鷹市","address":"三鷹市大沢4-8-8旧どんぐり山施設内","lat":35.670273,"lon":139.540161},{"name":"三鷹市新川中原地域包括支援センター","province":"東京都","city":"三鷹市","address":"三鷹市新川5-6-31特別養護老人ホームみたか紫水園内","lat":35.676071,"lon":139.571152},{"name":"三鷹市消費者活動センター","province":"東京都","city":"三鷹市","address":"三鷹市下連雀3丁目22-7","lat":35.700787,"lon":139.563644},{"name":"安心見守り電話","province":"東京都","city":"三鷹市","address":"三鷹市野崎1-1-1","lat":35.683262,"lon":139.559418},{"name":"三鷹市高齢者支援課高齢者相談係","province":"東京都","city":"三鷹市","address":"三鷹市野崎1-1-1","lat":35.683262,"lon":139.559418},{"name":"三鷹市東部地域包括支援センター","province":"東京都","city":"三鷹市","address":"三鷹市下連雀5-2-5特別養護老人ホーム弘済園1階","lat":35.685867,"lon":139.571869},{"name":"三鷹市井の頭地域包括支援センター","province":"東京都","city":"三鷹市","address":"三鷹市牟礼6-12-30三鷹市牟礼老人保健施設はなかいどう内","lat":35.687645,"lon":139.574585},{"name":"井の頭地域福祉支援センター","province":"東京都","city":"三鷹市","address":"三鷹市井の頭2-32-30井の頭コミュニティ・センター新館内","lat":35.693962,"lon":139.583344},{"name":"三鷹市連雀地域包括支援センター","province":"東京都","city":"三鷹市","address":"三鷹市下連雀8-3-6野村病院内","lat":35.684921,"lon":139.568466},{"name":"三鷹市三鷹駅周辺地域包括支援センター","province":"東京都","city":"三鷹市","address":"三鷹市下連雀4-2-8介護老人保健施設太郎内","lat":35.693394,"lon":139.56485},{"name":"三鷹市西部地域包括支援センター","province":"東京都","city":"三鷹市","address":"三鷹市深大寺2-29-13高齢者センターけやき苑内","lat":35.684795,"lon":139.541},{"name":"三鷹市大沢地域包括支援センター","province":"東京都","city":"三鷹市","address":"三鷹市大沢4-8-8旧どんぐり山施設内","lat":35.670273,"lon":139.540161},{"name":"三鷹市新川中原地域包括支援センター","province":"東京都","city":"三鷹市","address":"三鷹市新川5-6-31特別養護老人ホームみたか紫水園内","lat":35.676071,"lon":139.571152},{"name":"三鷹市消費者活動センター","province":"東京都","city":"三鷹市","address":"三鷹市下連雀3丁目22-7","lat":35.700787,"lon":139.563644},{"name":"安心見守り電話","province":"東京都","city":"三鷹市","address":"三鷹市野崎1-1-1","lat":35.683262,"lon":139.559418},{"name":"三鷹市高齢者支援課高齢者相談係","province":"東京都","city":"三鷹市","address":"三鷹市野崎1-1-1","lat":35.683262,"lon":139.559418},{"name":"三鷹市東部地域包括支援センター","province":"東京都","city":"三鷹市","address":"三鷹市下連雀5-2-5特別養護老人ホーム弘済園1階","lat":35.685867,"lon":139.571869},{"name":"三鷹市井の頭地域包括支援センター","province":"東京都","city":"三鷹市","address":"三鷹市牟礼6-12-30三鷹市牟礼老人保健施設はなかいどう内","lat":35.687645,"lon":139.574585},{"name":"井の頭地域福祉支援センター","province":"東京都","city":"三鷹市","address":"三鷹市井の頭2-32-30井の頭コミュニティ・センター新館内","lat":35.693962,"lon":139.583344},{"name":"三鷹市連雀地域包括支援センター","province":"東京都","city":"三鷹市","address":"三鷹市下連雀8-3-6野村病院内","lat":35.684921,"lon":139.568466},{"name":"三鷹市三鷹駅周辺地域包括支援センター","province":"東京都","city":"三鷹市","address":"三鷹市下連雀4-2-8介護老人保健施設太郎内","lat":35.693394,"lon":139.56485},{"name":"三鷹市西部地域包括支援センター","province":"東京都","city":"三鷹市","address":"三鷹市深大寺2-29-13高齢者センターけやき苑内","lat":35.684795,"lon":139.541},{"name":"三鷹市大沢地域包括支援センター","province":"東京都","city":"三鷹市","address":"三鷹市大沢4-8-8旧どんぐり山施設内","lat":35.670273,"lon":139.540161},{"name":"三鷹市新川中原地域包括支援センター","province":"東京都","city":"三鷹市","address":"三鷹市新川5-6-31特別養護老人ホームみたか紫水園内","lat":35.676071,"lon":139.571152},{"name":"三鷹市消費者活動センター","province":"東京都","city":"三鷹市","address":"三鷹市下連雀3丁目22-7","lat":35.700787,"lon":139.563644},{"name":"安心見守り電話","province":"東京都","city":"三鷹市","address":"三鷹市野崎1-1-1","lat":35.683262,"lon":139.559418},{"name":"三鷹市高齢者支援課高齢者相談係","province":"東京都","city":"三鷹市","address":"三鷹市野崎1-1-1","lat":35.683262,"lon":139.559418},{"name":"三鷹市東部地域包括支援センター","province":"東京都","city":"三鷹市","address":"三鷹市下連雀5-2-5特別養護老人ホーム弘済園1階","lat":35.685867,"lon":139.571869},{"name":"三鷹市井の頭地域包括支援センター","province":"東京都","city":"三鷹市","address":"三鷹市牟礼6-12-30三鷹市牟礼老人保健施設はなかいどう内","lat":35.687645,"lon":139.574585},{"name":"井の頭地域福祉支援センター","province":"東京都","city":"三鷹市","address":"三鷹市井の頭2-32-30井の頭コミュニティ・センター新館内","lat":35.693962,"lon":139.583344},{"name":"三鷹市連雀地域包括支援センター","province":"東京都","city":"三鷹市","address":"三鷹市下連雀8-3-6野村病院内","lat":35.684921,"lon":139.568466},{"name":"三鷹市三鷹駅周辺地域包括支援センター","province":"東京都","city":"三鷹市","address":"三鷹市下連雀4-2-8介護老人保健施設太郎内","lat":35.693394,"lon":139.56485},{"name":"三鷹市西部地域包括支援センター","province":"東京都","city":"三鷹市","address":"三鷹市深大寺2-29-13高齢者センターけやき苑内","lat":35.684795,"lon":139.541},{"name":"三鷹市大沢地域包括支援センター","province":"東京都","city":"三鷹市","address":"三鷹市大沢4-8-8旧どんぐり山施設内","lat":35.670273,"lon":139.540161},{"name":"三鷹市新川中原地域包括支援センター","province":"東京都","city":"三鷹市","address":"三鷹市新川5-6-31特別養護老人ホームみたか紫水園内","lat":35.676071,"lon":139.571152},{"name":"三鷹市消費者活動センター","province":"東京都","city":"三鷹市","address":"三鷹市下連雀3丁目22-7","lat":35.700787,"lon":139.563644},{"name":"安心見守り電話","province":"東京都","city":"三鷹市","address":"三鷹市野崎1-1-1","lat":35.683262,"lon":139.559418},{"name":"三鷹市高齢者支援課高齢者相談係","province":"東京都","city":"三鷹市","address":"三鷹市野崎1-1-1","lat":35.683262,"lon":139.559418},{"name":"三鷹市東部地域包括支援センター","province":"東京都","city":"三鷹市","address":"三鷹市下連雀5-2-5特別養護老人ホーム弘済園1階","lat":35.685867,"lon":139.571869},{"name":"三鷹市井の頭地域包括支援センター","province":"東京都","city":"三鷹市","address":"三鷹市牟礼6-12-30三鷹市牟礼老人保健施設はなかいどう内","lat":35.687645,"lon":139.574585},{"name":"井の頭地域福祉支援センター","province":"東京都","city":"三鷹市","address":"三鷹市井の頭2-32-30井の頭コミュニティ・センター新館内","lat":35.693962,"lon":139.583344},{"name":"三鷹市連雀地域包括支援センター","province":"東京都","city":"三鷹市","address":"三鷹市下連雀8-3-6野村病院内","lat":35.684921,"lon":139.568466},{"name":"三鷹市三鷹駅周辺地域包括支援センター","province":"東京都","city":"三鷹市","address":"三鷹市下連雀4-2-8介護老人保健施設太郎内","lat":35.693394,"lon":139.56485},{"name":"三鷹市西部地域包括支援センター","province":"東京都","city":"三鷹市","address":"三鷹市深大寺2-29-13高齢者センターけやき苑内","lat":35.684795,"lon":139.541},{"name":"三鷹市大沢地域包括支援センター","province":"東京都","city":"三鷹市","address":"三鷹市大沢4-8-8旧どんぐり山施設内","lat":35.670273,"lon":139.540161},{"name":"三鷹市新川中原地域包括支援センター","province":"東京都","city":"三鷹市","address":"三鷹市新川5-6-31特別養護老人ホームみたか紫水園内","lat":35.676071,"lon":139.571152},{"name":"三鷹市消費者活動センター","province":"東京都","city":"三鷹市","address":"三鷹市下連雀3丁目22-7","lat":35.700787,"lon":139.563644},{"name":"安心見守り電話","province":"東京都","city":"三鷹市","address":"三鷹市野崎1-1-1","lat":35.683262,"lon":139.559418},{"name":"三鷹市高齢者支援課高齢者相談係","province":"東京都","city":"三鷹市","address":"三鷹市野崎1-1-1","lat":35.683262,"lon":139.559418},{"name":"三鷹市東部地域包括支援センター","province":"東京都","city":"三鷹市","address":"三鷹市下連雀5-2-5特別養護老人ホーム弘済園1階","lat":35.685867,"lon":139.571869},{"name":"三鷹市井の頭地域包括支援センター","province":"東京都","city":"三鷹市","address":"三鷹市牟礼6-12-30三鷹市牟礼老人保健施設はなかいどう内","lat":35.687645,"lon":139.574585},{"name":"井の頭地域福祉支援センター","province":"東京都","city":"三鷹市","address":"三鷹市井の頭2-32-30井の頭コミュニティ・センター新館内","lat":35.693962,"lon":139.583344},{"name":"三鷹市連雀地域包括支援センター","province":"東京都","city":"三鷹市","address":"三鷹市下連雀8-3-6野村病院内","lat":35.684921,"lon":139.568466},{"name":"三鷹市三鷹駅周辺地域包括支援センター","province":"東京都","city":"三鷹市","address":"三鷹市下連雀4-2-8介護老人保健施設太郎内","lat":35.693394,"lon":139.56485},{"name":"三鷹市西部地域包括支援センター","province":"東京都","city":"三鷹市","address":"三鷹市深大寺2-29-13高齢者センターけやき苑内","lat":35.684795,"lon":139.541},{"name":"三鷹市大沢地域包括支援センター","province":"東京都","city":"三鷹市","address":"三鷹市大沢4-8-8旧どんぐり山施設内","lat":35.670273,"lon":139.540161},{"name":"三鷹市新川中原地域包括支援センター","province":"東京都","city":"三鷹市","address":"三鷹市新川5-6-31特別養護老人ホームみたか紫水園内","lat":35.676071,"lon":139.571152},{"name":"三鷹市消費者活動センター","province":"東京都","city":"三鷹市","address":"三鷹市下連雀3丁目22-7","lat":35.700787,"lon":139.563644},{"name":"安心見守り電話","province":"東京都","city":"三鷹市","address":"三鷹市野崎1-1-1","lat":35.683262,"lon":139.559418},{"name":"三鷹市高齢者支援課高齢者相談係","province":"東京都","city":"三鷹市","address":"三鷹市野崎1-1-1","lat":35.683262,"lon":139.559418},{"name":"三鷹市東部地域包括支援センター","province":"東京都","city":"三鷹市","address":"三鷹市下連雀5-2-5特別養護老人ホーム弘済園1階","lat":35.685867,"lon":139.571869},{"name":"三鷹市井の頭地域包括支援センター","province":"東京都","city":"三鷹市","address":"三鷹市牟礼6-12-30三鷹市牟礼老人保健施設はなかいどう内","lat":35.687645,"lon":139.574585},{"name":"井の頭地域福祉支援センター","province":"東京都","city":"三鷹市","address":"三鷹市井の頭2-32-30井の頭コミュニティ・センター新館内","lat":35.693962,"lon":139.583344},{"name":"三鷹市連雀地域包括支援センター","province":"東京都","city":"三鷹市","address":"三鷹市下連雀8-3-6野村病院内","lat":35.684921,"lon":139.568466},{"name":"三鷹市三鷹駅周辺地域包括支援センター","province":"東京都","city":"三鷹市","address":"三鷹市下連雀4-2-8介護老人保健施設太郎内","lat":35.693394,"lon":139.56485},{"name":"三鷹市西部地域包括支援センター","province":"東京都","city":"三鷹市","address":"三鷹市深大寺2-29-13高齢者センターけやき苑内","lat":35.684795,"lon":139.541},{"name":"三鷹市大沢地域包括支援センター","province":"東京都","city":"三鷹市","address":"三鷹市大沢4-8-8旧どんぐり山施設内","lat":35.670273,"lon":139.540161},{"name":"三鷹市新川中原地域包括支援センター","province":"東京都","city":"三鷹市","address":"三鷹市新川5-6-31特別養護老人ホームみたか紫水園内","lat":35.676071,"lon":139.571152},{"name":"三鷹市消費者活動センター","province":"東京都","city":"三鷹市","address":"三鷹市下連雀3丁目22-7","lat":35.700787,"lon":139.563644},{"name":"安心見守り電話","province":"東京都","city":"三鷹市","address":"三鷹市野崎1-1-1","lat":35.683262,"lon":139.559418},{"name":"三鷹市高齢者支援課高齢者相談係","province":"東京都","city":"三鷹市","address":"三鷹市野崎1-1-1","lat":35.683262,"lon":139.559418},{"name":"三鷹市東部地域包括支援センター","province":"東京都","city":"三鷹市","address":"三鷹市下連雀5-2-5特別養護老人ホーム弘済園1階","lat":35.685867,"lon":139.571869},{"name":"三鷹市井の頭地域包括支援センター","province":"東京都","city":"三鷹市","address":"三鷹市牟礼6-12-30三鷹市牟礼老人保健施設はなかいどう内","lat":35.687645,"lon":139.574585},{"name":"井の頭地域福祉支援センター","province":"東京都","city":"三鷹市","address":"三鷹市井の頭2-32-30井の頭コミュニティ・センター新館内","lat":35.693962,"lon":139.583344},{"name":"三鷹市連雀地域包括支援センター","province":"東京都","city":"三鷹市","address":"三鷹市下連雀8-3-6野村病院内","lat":35.684921,"lon":139.568466},{"name":"三鷹市三鷹駅周辺地域包括支援センター","province":"東京都","city":"三鷹市","address":"三鷹市下連雀4-2-8介護老人保健施設太郎内","lat":35.693394,"lon":139.56485},{"name":"三鷹市西部地域包括支援センター","province":"東京都","city":"三鷹市","address":"三鷹市深大寺2-29-13高齢者センターけやき苑内","lat":35.684795,"lon":139.541},{"name":"三鷹市大沢地域包括支援センター","province":"東京都","city":"三鷹市","address":"三鷹市大沢4-8-8旧どんぐり山施設内","lat":35.670273,"lon":139.540161},{"name":"三鷹市新川中原地域包括支援センター","province":"東京都","city":"三鷹市","address":"三鷹市新川5-6-31特別養護老人ホームみたか紫水園内","lat":35.676071,"lon":139.571152},{"name":"三鷹市消費者活動センター","province":"東京都","city":"三鷹市","address":"三鷹市下連雀3丁目22-7","lat":35.700787,"lon":139.563644},{"name":"安心見守り電話","province":"東京都","city":"三鷹市","address":"三鷹市野崎1-1-1","lat":35.683262,"lon":139.559418},{"name":"三鷹市高齢者支援課高齢者相談係","province":"東京都","city":"三鷹市","address":"三鷹市野崎1-1-1","lat":35.683262,"lon":139.559418},{"name":"三鷹市東部地域包括支援センター","province":"東京都","city":"三鷹市","address":"三鷹市下連雀5-2-5特別養護老人ホーム弘済園1階","lat":35.685867,"lon":139.571869},{"name":"三鷹市井の頭地域包括支援センター","province":"東京都","city":"三鷹市","address":"三鷹市牟礼6-12-30三鷹市牟礼老人保健施設はなかいどう内","lat":35.687645,"lon":139.574585},{"name":"井の頭地域福祉支援センター","province":"東京都","city":"三鷹市","address":"三鷹市井の頭2-32-30井の頭コミュニティ・センター新館内","lat":35.693962,"lon":139.583344},{"name":"三鷹市連雀地域包括支援センター","province":"東京都","city":"三鷹市","address":"三鷹市下連雀8-3-6野村病院内","lat":35.684921,"lon":139.568466},{"name":"三鷹市三鷹駅周辺地域包括支援センター","province":"東京都","city":"三鷹市","address":"三鷹市下連雀4-2-8介護老人保健施設太郎内","lat":35.693394,"lon":139.56485},{"name":"三鷹市西部地域包括支援センター","province":"東京都","city":"三鷹市","address":"三鷹市深大寺2-29-13高齢者センターけやき苑内","lat":35.684795,"lon":139.541},{"name":"三鷹市大沢地域包括支援センター","province":"東京都","city":"三鷹市","address":"三鷹市大沢4-8-8旧どんぐり山施設内","lat":35.670273,"lon":139.540161},{"name":"三鷹市新川中原地域包括支援センター","province":"東京都","city":"三鷹市","address":"三鷹市新川5-6-31特別養護老人ホームみたか紫水園内","lat":35.676071,"lon":139.571152},{"name":"三鷹市消費者活動センター","province":"東京都","city":"三鷹市","address":"三鷹市下連雀3丁目22-7","lat":35.700787,"lon":139.563644},{"name":"安心見守り電話","province":"東京都","city":"三鷹市","address":"三鷹市野崎1-1-1","lat":35.683262,"lon":139.559418},{"name":"三鷹市高齢者支援課高齢者相談係","province":"東京都","city":"三鷹市","address":"三鷹市野崎1-1-1","lat":35.683262,"lon":139.559418},{"name":"三鷹市東部地域包括支援センター","province":"東京都","city":"三鷹市","address":"三鷹市下連雀5-2-5特別養護老人ホーム弘済園1階","lat":35.685867,"lon":139.571869},{"name":"三鷹市井の頭地域包括支援センター","province":"東京都","city":"三鷹市","address":"三鷹市牟礼6-12-30三鷹市牟礼老人保健施設はなかいどう内","lat":35.687645,"lon":139.574585},{"name":"井の頭地域福祉支援センター","province":"東京都","city":"三鷹市","address":"三鷹市井の頭2-32-30井の頭コミュニティ・センター新館内","lat":35.693962,"lon":139.583344},{"name":"三鷹市連雀地域包括支援センター","province":"東京都","city":"三鷹市","address":"三鷹市下連雀8-3-6野村病院内","lat":35.684921,"lon":139.568466},{"name":"三鷹市三鷹駅周辺地域包括支援センター","province":"東京都","city":"三鷹市","address":"三鷹市下連雀4-2-8介護老人保健施設太郎内","lat":35.693394,"lon":139.56485},{"name":"三鷹市西部地域包括支援センター","province":"東京都","city":"三鷹市","address":"三鷹市深大寺2-29-13高齢者センターけやき苑内","lat":35.684795,"lon":139.541},{"name":"三鷹市大沢地域包括支援センター","province":"東京都","city":"三鷹市","address":"三鷹市大沢4-8-8旧どんぐり山施設内","lat":35.670273,"lon":139.540161},{"name":"三鷹市新川中原地域包括支援センター","province":"東京都","city":"三鷹市","address":"三鷹市新川5-6-31特別養護老人ホームみたか紫水園内","lat":35.676071,"lon":139.571152},{"name":"三鷹市消費者活動センター","province":"東京都","city":"三鷹市","address":"三鷹市下連雀3丁目22-7","lat":35.700787,"lon":139.563644},{"name":"安心見守り電話","province":"東京都","city":"三鷹市","address":"三鷹市野崎1-1-1","lat":35.683262,"lon":139.559418},{"name":"三鷹市高齢者支援課高齢者相談係","province":"東京都","city":"三鷹市","address":"三鷹市野崎1-1-1","lat":35.683262,"lon":139.559418},{"name":"三鷹市東部地域包括支援センター","province":"東京都","city":"三鷹市","address":"三鷹市下連雀5-2-5特別養護老人ホーム弘済園1階","lat":35.685867,"lon":139.571869},{"name":"三鷹市井の頭地域包括支援センター","province":"東京都","city":"三鷹市","address":"三鷹市牟礼6-12-30三鷹市牟礼老人保健施設はなかいどう内","lat":35.687645,"lon":139.574585},{"name":"井の頭地域福祉支援センター","province":"東京都","city":"三鷹市","address":"三鷹市井の頭2-32-30井の頭コミュニティ・センター新館内","lat":35.693962,"lon":139.583344},{"name":"三鷹市連雀地域包括支援センター","province":"東京都","city":"三鷹市","address":"三鷹市下連雀8-3-6野村病院内","lat":35.684921,"lon":139.568466},{"name":"三鷹市三鷹駅周辺地域包括支援センター","province":"東京都","city":"三鷹市","address":"三鷹市下連雀4-2-8介護老人保健施設太郎内","lat":35.693394,"lon":139.56485},{"name":"三鷹市西部地域包括支援センター","province":"東京都","city":"三鷹市","address":"三鷹市深大寺2-29-13高齢者センターけやき苑内","lat":35.684795,"lon":139.541},{"name":"三鷹市大沢地域包括支援センター","province":"東京都","city":"三鷹市","address":"三鷹市大沢4-8-8旧どんぐり山施設内","lat":35.670273,"lon":139.540161},{"name":"三鷹市新川中原地域包括支援センター","province":"東京都","city":"三鷹市","address":"三鷹市新川5-6-31特別養護老人ホームみたか紫水園内","lat":35.676071,"lon":139.571152},{"name":"三鷹市消費者活動センター","province":"東京都","city":"三鷹市","address":"三鷹市下連雀3丁目22-7","lat":35.700787,"lon":139.563644}]}