{"keyword":"放課後","data":[{"name":"なかよし教室","province":"東京都","city":"三鷹市","address":"三鷹市井の頭二丁目21番18号","lat":35.691187,"lon":139.584342},{"name":"にじアート児童デイサービス","province":"東京都","city":"三鷹市","address":"三鷹市新川4-11-13","lat":35.673208,"lon":139.57133},{"name":"こどもデイサービス　らびぃ","province":"東京都","city":"三鷹市","address":"三鷹市新川4-12-6","lat":35.673436,"lon":139.572072},{"name":"まぁーる","province":"東京都","city":"三鷹市","address":"三鷹市新川3-21-19はなはなテラス1階","lat":35.678271,"lon":139.569528},{"name":"ＴＡＫＵＭＩ","province":"東京都","city":"三鷹市","address":"三鷹市下連雀3-17-20101号室","lat":35.699052,"lon":139.562461},{"name":"東京ヘルスケア学習運動センター","province":"東京都","city":"三鷹市","address":"三鷹市下連雀2-24-8","lat":35.695519,"lon":139.56575},{"name":"ＴＥＥＮＳ三鷹","province":"東京都","city":"三鷹市","address":"三鷹市下連雀3-42-10イニシア三鷹下連雀2階","lat":35.699202,"lon":139.559294},{"name":"ウイングみたか","province":"東京都","city":"三鷹市","address":"三鷹市野崎1-7-21ユニパレス三鷹1階","lat":35.683609,"lon":139.555229},{"name":"Ｇｒｅｅｎ　Ａｐｐｌｅ","province":"東京都","city":"三鷹市","address":"三鷹市深大寺三丁目10番1号","lat":35.689186,"lon":139.537797}]}