{"keyword":"構築","data":[{"name":"狐久保","province":"東京都","city":"三鷹市","address":"東京都三鷹市下連雀1丁目10-10","lat":35.69148381,"lon":139.56907156},{"name":"三鷹八幡前","province":"東京都","city":"三鷹市","address":"東京都三鷹市下連雀4丁目18-22","lat":35.69320847,"lon":139.55993902},{"name":"南浦","province":"東京都","city":"三鷹市","address":"東京都三鷹市下連雀2丁目18-8","lat":35.69217256,"lon":139.56504969},{"name":"下連雀一丁目","province":"東京都","city":"三鷹市","address":"東京都三鷹市下連雀1丁目1","lat":35.69514734,"lon":139.57113791},{"name":"大沢","province":"東京都","city":"三鷹市","address":"東京都三鷹市大沢3丁目8-5","lat":35.68297306,"lon":139.538608},{"name":"法専寺前","province":"東京都","city":"三鷹市","address":"東京都三鷹市下連雀3丁目40-11","lat":35.69809957,"lon":139.55929167},{"name":"三鷹駅前","province":"東京都","city":"三鷹市","address":"東京都三鷹市下連雀3丁目28-23","lat":35.70045212,"lon":139.56122473},{"name":"西野","province":"東京都","city":"三鷹市","address":"東京都三鷹市深大寺2丁目36-2","lat":35.68963341,"lon":139.53824388},{"name":"第三小学校東入口","province":"東京都","city":"三鷹市","address":"東京都三鷹市上連雀4丁目3-1","lat":35.69655252,"lon":139.55894455},{"name":"三鷹駅前通り","province":"東京都","city":"三鷹市","address":"東京都三鷹市下連雀4丁目15-46","lat":35.69747468,"lon":139.56126374},{"name":"中原小学校前","province":"東京都","city":"三鷹市","address":"東京都三鷹市中原2丁目11-31","lat":35.66963081,"lon":139.57231374},{"name":"三鷹コミュニティセンター前","province":"東京都","city":"三鷹市","address":"東京都三鷹市下連雀4丁目14-19","lat":35.69271965,"lon":139.56152222},{"name":"牟礼一丁目","province":"東京都","city":"三鷹市","address":"東京都三鷹市牟礼1丁目16-12","lat":35.68568486,"lon":139.58605641},{"name":"三鷹市役所前","province":"東京都","city":"三鷹市","address":"東京都三鷹市下連雀9丁目11-7","lat":35.68428441,"lon":139.56000595},{"name":"下連雀消防出張所前","province":"東京都","city":"三鷹市","address":"東京都三鷹市下連雀4丁目14-34","lat":35.69464167,"lon":139.56140272},{"name":"三鷹中央通り","province":"東京都","city":"三鷹市","address":"東京都三鷹市下連雀3丁目28-20","lat":35.69929947,"lon":139.56126644},{"name":"日産厚生園前","province":"東京都","city":"三鷹市","address":"東京都三鷹市下連雀1丁目1","lat":35.69514734,"lon":139.57113791},{"name":"井口コミュニティー・センター北","province":"東京都","city":"三鷹市","address":"東京都三鷹市井口1丁目14-36","lat":35.69443032,"lon":139.54837615},{"name":"三鷹駅南","province":"東京都","city":"三鷹市","address":"東京都三鷹市下連雀3丁目43-23","lat":35.7013131,"lon":139.55927765},{"name":"井之頭病院前","province":"東京都","city":"三鷹市","address":"東京都三鷹市上連雀2丁目6","lat":35.69894668,"lon":139.55793065},{"name":"三鷹台郵便局前","province":"東京都","city":"三鷹市","address":"東京都三鷹市井の頭2丁目9-4","lat":35.69051212,"lon":139.58683117},{"name":"禅林寺前","province":"東京都","city":"三鷹市","address":"東京都三鷹市下連雀4丁目18-20","lat":35.6938723,"lon":139.56041118},{"name":"上連雀二丁目第二","province":"東京都","city":"三鷹市","address":"東京都三鷹市下連雀3丁目44-13","lat":35.70198525,"lon":139.55926374},{"name":"三鷹農協北","province":"東京都","city":"三鷹市","address":"東京都三鷹市下連雀9丁目2-12","lat":35.68385397,"lon":139.56333623},{"name":"三鷹職安西","province":"東京都","city":"三鷹市","address":"東京都三鷹市上連雀4丁目6-8","lat":35.69514991,"lon":139.55902793},{"name":"三鷹警察署北","province":"東京都","city":"三鷹市","address":"東京都三鷹市下連雀9丁目7-2","lat":35.68725073,"lon":139.55942813},{"name":"三鷹保健所前","province":"東京都","city":"三鷹市","address":"東京都三鷹市新川6丁目37","lat":35.68159865,"lon":139.56238639},{"name":"国立天文台前","province":"東京都","city":"三鷹市","address":"東京都三鷹市大沢2丁目21","lat":35.67740148,"lon":139.53914427},{"name":"狐久保第二","province":"東京都","city":"三鷹市","address":"東京都三鷹市下連雀1丁目8-15","lat":35.69247261,"lon":139.56969091},{"name":"東京神学大学角","province":"東京都","city":"三鷹市","address":"東京都三鷹市大沢3丁目10-20","lat":35.68826128,"lon":139.53522477},{"name":"三鷹一中正門前","province":"東京都","city":"三鷹市","address":"東京都三鷹市下連雀9丁目10-1","lat":35.68538706,"lon":139.55970316},{"name":"杏林大学病院前","province":"東京都","city":"三鷹市","address":"東京都三鷹市新川6丁目21-21","lat":35.67937122,"lon":139.56690551},{"name":"三鷹市中央通りタウンプラザ","province":"東京都","city":"三鷹市","address":"東京都三鷹市下連雀3丁目32-6","lat":35.69853011,"lon":139.56100816},{"name":"三鷹市立アニメーション美術館前","province":"東京都","city":"三鷹市","address":"東京都三鷹市下連雀1丁目1-83","lat":35.69629164,"lon":139.57036571},{"name":"三鷹警察署前","province":"東京都","city":"三鷹市","address":"東京都三鷹市下連雀9丁目9-5","lat":35.68639249,"lon":139.55925873},{"name":"東京弘済園南","province":"東京都","city":"三鷹市","address":"東京都三鷹市牟礼6丁目25","lat":35.68509292,"lon":139.57267424},{"name":"下連雀五丁目南","province":"東京都","city":"三鷹市","address":"東京都三鷹市下連雀5丁目3-1","lat":35.68379022,"lon":139.56943291},{"name":"恵比寿苑前","province":"東京都","city":"三鷹市","address":"東京都三鷹市牟礼1丁目8","lat":35.68509333,"lon":139.5887951},{"name":"上連雀浄水所（西配水場）","province":"東京都","city":"三鷹市","address":"東京都三鷹市上連雀9丁目41-4","lat":35.68686727,"lon":139.55074561},{"name":"三鷹市総合保健センター","province":"東京都","city":"三鷹市","address":"東京都三鷹市新川6丁目35-28","lat":35.68242082,"lon":139.56406399},{"name":"三鷹警察署","province":"東京都","city":"三鷹市","address":"三鷹市上連雀8-2-36","lat":35.68657,"lon":139.5583},{"name":"三鷹消防署","province":"東京都","city":"三鷹市","address":"三鷹市新川6-28-14","lat":35.68289,"lon":139.566},{"name":"三鷹地区","province":"東京都","city":"三鷹市","address":"三鷹市上連雀7-4-8","lat":35.68908,"lon":139.5548},{"name":"酒井薬品（株）物流センター","province":"東京都","city":"三鷹市","address":"三鷹市野崎1-11-22","lat":35.68355,"lon":139.5539},{"name":"三鷹市立第一中学校校庭","province":"東京都","city":"三鷹市","address":"三鷹市下連雀9-10-1","lat":35.68539,"lon":139.5597},{"name":"杏林大学医学部付属病院ヘリポート","province":"東京都","city":"三鷹市","address":"三鷹市新川6-20-2","lat":35.67748,"lon":139.566503},{"name":"狐久保","province":"東京都","city":"三鷹市","address":"東京都三鷹市下連雀1丁目10-10","lat":35.69148381,"lon":139.56907156},{"name":"三鷹八幡前","province":"東京都","city":"三鷹市","address":"東京都三鷹市下連雀4丁目18-22","lat":35.69320847,"lon":139.55993902},{"name":"南浦","province":"東京都","city":"三鷹市","address":"東京都三鷹市下連雀2丁目18-8","lat":35.69217256,"lon":139.56504969},{"name":"下連雀一丁目","province":"東京都","city":"三鷹市","address":"東京都三鷹市下連雀1丁目1","lat":35.69514734,"lon":139.57113791},{"name":"大沢","province":"東京都","city":"三鷹市","address":"東京都三鷹市大沢3丁目8-5","lat":35.68297306,"lon":139.538608},{"name":"法専寺前","province":"東京都","city":"三鷹市","address":"東京都三鷹市下連雀3丁目40-11","lat":35.69809957,"lon":139.55929167},{"name":"三鷹駅前","province":"東京都","city":"三鷹市","address":"東京都三鷹市下連雀3丁目28-23","lat":35.70045212,"lon":139.56122473},{"name":"西野","province":"東京都","city":"三鷹市","address":"東京都三鷹市深大寺2丁目36-2","lat":35.68963341,"lon":139.53824388},{"name":"第三小学校東入口","province":"東京都","city":"三鷹市","address":"東京都三鷹市上連雀4丁目3-1","lat":35.69655252,"lon":139.55894455},{"name":"三鷹駅前通り","province":"東京都","city":"三鷹市","address":"東京都三鷹市下連雀4丁目15-46","lat":35.69747468,"lon":139.56126374},{"name":"中原小学校前","province":"東京都","city":"三鷹市","address":"東京都三鷹市中原2丁目11-31","lat":35.66963081,"lon":139.57231374},{"name":"三鷹コミュニティセンター前","province":"東京都","city":"三鷹市","address":"東京都三鷹市下連雀4丁目14-19","lat":35.69271965,"lon":139.56152222},{"name":"牟礼一丁目","province":"東京都","city":"三鷹市","address":"東京都三鷹市牟礼1丁目16-12","lat":35.68568486,"lon":139.58605641},{"name":"三鷹市役所前","province":"東京都","city":"三鷹市","address":"東京都三鷹市下連雀9丁目11-7","lat":35.68428441,"lon":139.56000595},{"name":"下連雀消防出張所前","province":"東京都","city":"三鷹市","address":"東京都三鷹市下連雀4丁目14-34","lat":35.69464167,"lon":139.56140272},{"name":"三鷹中央通り","province":"東京都","city":"三鷹市","address":"東京都三鷹市下連雀3丁目28-20","lat":35.69929947,"lon":139.56126644},{"name":"日産厚生園前","province":"東京都","city":"三鷹市","address":"東京都三鷹市下連雀1丁目1","lat":35.69514734,"lon":139.57113791},{"name":"井口コミュニティー・センター北","province":"東京都","city":"三鷹市","address":"東京都三鷹市井口1丁目14-36","lat":35.69443032,"lon":139.54837615},{"name":"三鷹駅南","province":"東京都","city":"三鷹市","address":"東京都三鷹市下連雀3丁目43-23","lat":35.7013131,"lon":139.55927765},{"name":"井之頭病院前","province":"東京都","city":"三鷹市","address":"東京都三鷹市上連雀2丁目6","lat":35.69894668,"lon":139.55793065},{"name":"三鷹台郵便局前","province":"東京都","city":"三鷹市","address":"東京都三鷹市井の頭2丁目9-4","lat":35.69051212,"lon":139.58683117},{"name":"禅林寺前","province":"東京都","city":"三鷹市","address":"東京都三鷹市下連雀4丁目18-20","lat":35.6938723,"lon":139.56041118},{"name":"上連雀二丁目第二","province":"東京都","city":"三鷹市","address":"東京都三鷹市下連雀3丁目44-13","lat":35.70198525,"lon":139.55926374},{"name":"三鷹農協北","province":"東京都","city":"三鷹市","address":"東京都三鷹市下連雀9丁目2-12","lat":35.68385397,"lon":139.56333623},{"name":"三鷹職安西","province":"東京都","city":"三鷹市","address":"東京都三鷹市上連雀4丁目6-8","lat":35.69514991,"lon":139.55902793},{"name":"三鷹警察署北","province":"東京都","city":"三鷹市","address":"東京都三鷹市下連雀9丁目7-2","lat":35.68725073,"lon":139.55942813},{"name":"三鷹保健所前","province":"東京都","city":"三鷹市","address":"東京都三鷹市新川6丁目37","lat":35.68159865,"lon":139.56238639},{"name":"国立天文台前","province":"東京都","city":"三鷹市","address":"東京都三鷹市大沢2丁目21","lat":35.67740148,"lon":139.53914427},{"name":"狐久保第二","province":"東京都","city":"三鷹市","address":"東京都三鷹市下連雀1丁目8-15","lat":35.69247261,"lon":139.56969091},{"name":"東京神学大学角","province":"東京都","city":"三鷹市","address":"東京都三鷹市大沢3丁目10-20","lat":35.68826128,"lon":139.53522477},{"name":"三鷹一中正門前","province":"東京都","city":"三鷹市","address":"東京都三鷹市下連雀9丁目10-1","lat":35.68538706,"lon":139.55970316},{"name":"杏林大学病院前","province":"東京都","city":"三鷹市","address":"東京都三鷹市新川6丁目21-21","lat":35.67937122,"lon":139.56690551},{"name":"三鷹市中央通りタウンプラザ","province":"東京都","city":"三鷹市","address":"東京都三鷹市下連雀3丁目32-6","lat":35.69853011,"lon":139.56100816},{"name":"三鷹市立アニメーション美術館前","province":"東京都","city":"三鷹市","address":"東京都三鷹市下連雀1丁目1-83","lat":35.69629164,"lon":139.57036571},{"name":"三鷹警察署前","province":"東京都","city":"三鷹市","address":"東京都三鷹市下連雀9丁目9-5","lat":35.68639249,"lon":139.55925873},{"name":"東京弘済園南","province":"東京都","city":"三鷹市","address":"東京都三鷹市牟礼6丁目25","lat":35.68509292,"lon":139.57267424},{"name":"下連雀五丁目南","province":"東京都","city":"三鷹市","address":"東京都三鷹市下連雀5丁目3-1","lat":35.68379022,"lon":139.56943291},{"name":"恵比寿苑前","province":"東京都","city":"三鷹市","address":"東京都三鷹市牟礼1丁目8","lat":35.68509333,"lon":139.5887951},{"name":"上連雀浄水所（西配水場）","province":"東京都","city":"三鷹市","address":"東京都三鷹市上連雀9丁目41-4","lat":35.68686727,"lon":139.55074561},{"name":"三鷹市総合保健センター","province":"東京都","city":"三鷹市","address":"東京都三鷹市新川6丁目35-28","lat":35.68242082,"lon":139.56406399},{"name":"三鷹警察署","province":"東京都","city":"三鷹市","address":"三鷹市上連雀8-2-36","lat":35.68657,"lon":139.5583},{"name":"三鷹消防署","province":"東京都","city":"三鷹市","address":"三鷹市新川6-28-14","lat":35.68289,"lon":139.566},{"name":"三鷹地区","province":"東京都","city":"三鷹市","address":"三鷹市上連雀7-4-8","lat":35.68908,"lon":139.5548},{"name":"酒井薬品（株）物流センター","province":"東京都","city":"三鷹市","address":"三鷹市野崎1-11-22","lat":35.68355,"lon":139.5539},{"name":"狐久保","province":"東京都","city":"三鷹市","address":"東京都三鷹市下連雀1丁目10-10","lat":35.69148381,"lon":139.56907156},{"name":"三鷹八幡前","province":"東京都","city":"三鷹市","address":"東京都三鷹市下連雀4丁目18-22","lat":35.69320847,"lon":139.55993902},{"name":"南浦","province":"東京都","city":"三鷹市","address":"東京都三鷹市下連雀2丁目18-8","lat":35.69217256,"lon":139.56504969},{"name":"下連雀一丁目","province":"東京都","city":"三鷹市","address":"東京都三鷹市下連雀1丁目1","lat":35.69514734,"lon":139.57113791},{"name":"大沢","province":"東京都","city":"三鷹市","address":"東京都三鷹市大沢3丁目8-5","lat":35.68297306,"lon":139.538608},{"name":"法専寺前","province":"東京都","city":"三鷹市","address":"東京都三鷹市下連雀3丁目40-11","lat":35.69809957,"lon":139.55929167},{"name":"三鷹駅前","province":"東京都","city":"三鷹市","address":"東京都三鷹市下連雀3丁目28-23","lat":35.70045212,"lon":139.56122473},{"name":"西野","province":"東京都","city":"三鷹市","address":"東京都三鷹市深大寺2丁目36-2","lat":35.68963341,"lon":139.53824388},{"name":"第三小学校東入口","province":"東京都","city":"三鷹市","address":"東京都三鷹市上連雀4丁目3-1","lat":35.69655252,"lon":139.55894455},{"name":"三鷹駅前通り","province":"東京都","city":"三鷹市","address":"東京都三鷹市下連雀4丁目15-46","lat":35.69747468,"lon":139.56126374},{"name":"中原小学校前","province":"東京都","city":"三鷹市","address":"東京都三鷹市中原2丁目11-31","lat":35.66963081,"lon":139.57231374},{"name":"三鷹コミュニティセンター前","province":"東京都","city":"三鷹市","address":"東京都三鷹市下連雀4丁目14-19","lat":35.69271965,"lon":139.56152222},{"name":"牟礼一丁目","province":"東京都","city":"三鷹市","address":"東京都三鷹市牟礼1丁目16-12","lat":35.68568486,"lon":139.58605641},{"name":"三鷹市役所前","province":"東京都","city":"三鷹市","address":"東京都三鷹市下連雀9丁目11-7","lat":35.68428441,"lon":139.56000595},{"name":"下連雀消防出張所前","province":"東京都","city":"三鷹市","address":"東京都三鷹市下連雀4丁目14-34","lat":35.69464167,"lon":139.56140272},{"name":"三鷹中央通り","province":"東京都","city":"三鷹市","address":"東京都三鷹市下連雀3丁目28-20","lat":35.69929947,"lon":139.56126644},{"name":"日産厚生園前","province":"東京都","city":"三鷹市","address":"東京都三鷹市下連雀1丁目1","lat":35.69514734,"lon":139.57113791},{"name":"井口コミュニティー・センター北","province":"東京都","city":"三鷹市","address":"東京都三鷹市井口1丁目14-36","lat":35.69443032,"lon":139.54837615},{"name":"三鷹駅南","province":"東京都","city":"三鷹市","address":"東京都三鷹市下連雀3丁目43-23","lat":35.7013131,"lon":139.55927765},{"name":"井之頭病院前","province":"東京都","city":"三鷹市","address":"東京都三鷹市上連雀2丁目6","lat":35.69894668,"lon":139.55793065},{"name":"三鷹台郵便局前","province":"東京都","city":"三鷹市","address":"東京都三鷹市井の頭2丁目9-4","lat":35.69051212,"lon":139.58683117},{"name":"禅林寺前","province":"東京都","city":"三鷹市","address":"東京都三鷹市下連雀4丁目18-20","lat":35.6938723,"lon":139.56041118},{"name":"上連雀二丁目第二","province":"東京都","city":"三鷹市","address":"東京都三鷹市下連雀3丁目44-13","lat":35.70198525,"lon":139.55926374},{"name":"三鷹農協北","province":"東京都","city":"三鷹市","address":"東京都三鷹市下連雀9丁目2-12","lat":35.68385397,"lon":139.56333623},{"name":"三鷹職安西","province":"東京都","city":"三鷹市","address":"東京都三鷹市上連雀4丁目6-8","lat":35.69514991,"lon":139.55902793},{"name":"三鷹警察署北","province":"東京都","city":"三鷹市","address":"東京都三鷹市下連雀9丁目7-2","lat":35.68725073,"lon":139.55942813},{"name":"三鷹保健所前","province":"東京都","city":"三鷹市","address":"東京都三鷹市新川6丁目37","lat":35.68159865,"lon":139.56238639},{"name":"国立天文台前","province":"東京都","city":"三鷹市","address":"東京都三鷹市大沢2丁目21","lat":35.67740148,"lon":139.53914427},{"name":"狐久保第二","province":"東京都","city":"三鷹市","address":"東京都三鷹市下連雀1丁目8-15","lat":35.69247261,"lon":139.56969091},{"name":"東京神学大学角","province":"東京都","city":"三鷹市","address":"東京都三鷹市大沢3丁目10-20","lat":35.68826128,"lon":139.53522477},{"name":"三鷹一中正門前","province":"東京都","city":"三鷹市","address":"東京都三鷹市下連雀9丁目10-1","lat":35.68538706,"lon":139.55970316},{"name":"杏林大学病院前","province":"東京都","city":"三鷹市","address":"東京都三鷹市新川6丁目21-21","lat":35.67937122,"lon":139.56690551},{"name":"三鷹市中央通りタウンプラザ","province":"東京都","city":"三鷹市","address":"東京都三鷹市下連雀3丁目32-6","lat":35.69853011,"lon":139.56100816},{"name":"三鷹市立アニメーション美術館前","province":"東京都","city":"三鷹市","address":"東京都三鷹市下連雀1丁目1-83","lat":35.69629164,"lon":139.57036571},{"name":"三鷹警察署前","province":"東京都","city":"三鷹市","address":"東京都三鷹市下連雀9丁目9-5","lat":35.68639249,"lon":139.55925873},{"name":"東京弘済園南","province":"東京都","city":"三鷹市","address":"東京都三鷹市牟礼6丁目25","lat":35.68509292,"lon":139.57267424},{"name":"下連雀五丁目南","province":"東京都","city":"三鷹市","address":"東京都三鷹市下連雀5丁目3-1","lat":35.68379022,"lon":139.56943291},{"name":"恵比寿苑前","province":"東京都","city":"三鷹市","address":"東京都三鷹市牟礼1丁目8","lat":35.68509333,"lon":139.5887951},{"name":"上連雀浄水所（西配水場）","province":"東京都","city":"三鷹市","address":"東京都三鷹市上連雀9丁目41-4","lat":35.68686727,"lon":139.55074561},{"name":"三鷹市総合保健センター","province":"東京都","city":"三鷹市","address":"東京都三鷹市新川6丁目35-28","lat":35.68242082,"lon":139.56406399},{"name":"三鷹警察署","province":"東京都","city":"三鷹市","address":"三鷹市上連雀8-2-36","lat":35.68657,"lon":139.5583},{"name":"三鷹消防署","province":"東京都","city":"三鷹市","address":"三鷹市新川6-28-14","lat":35.68289,"lon":139.566},{"name":"三鷹地区","province":"東京都","city":"三鷹市","address":"三鷹市上連雀7-4-8","lat":35.68908,"lon":139.5548},{"name":"酒井薬品（株）物流センター","province":"東京都","city":"三鷹市","address":"三鷹市野崎1-11-22","lat":35.68355,"lon":139.5539},{"name":"狐久保","province":"東京都","city":"三鷹市","address":"東京都三鷹市下連雀1丁目10-10","lat":35.69148381,"lon":139.56907156},{"name":"三鷹八幡前","province":"東京都","city":"三鷹市","address":"東京都三鷹市下連雀4丁目18-22","lat":35.69320847,"lon":139.55993902},{"name":"南浦","province":"東京都","city":"三鷹市","address":"東京都三鷹市下連雀2丁目18-8","lat":35.69217256,"lon":139.56504969},{"name":"下連雀一丁目","province":"東京都","city":"三鷹市","address":"東京都三鷹市下連雀1丁目1","lat":35.69514734,"lon":139.57113791},{"name":"大沢","province":"東京都","city":"三鷹市","address":"東京都三鷹市大沢3丁目8-5","lat":35.68297306,"lon":139.538608},{"name":"法専寺前","province":"東京都","city":"三鷹市","address":"東京都三鷹市下連雀3丁目40-11","lat":35.69809957,"lon":139.55929167},{"name":"三鷹駅前","province":"東京都","city":"三鷹市","address":"東京都三鷹市下連雀3丁目28-23","lat":35.70045212,"lon":139.56122473},{"name":"西野","province":"東京都","city":"三鷹市","address":"東京都三鷹市深大寺2丁目36-2","lat":35.68963341,"lon":139.53824388},{"name":"第三小学校東入口","province":"東京都","city":"三鷹市","address":"東京都三鷹市上連雀4丁目3-1","lat":35.69655252,"lon":139.55894455},{"name":"三鷹駅前通り","province":"東京都","city":"三鷹市","address":"東京都三鷹市下連雀4丁目15-46","lat":35.69747468,"lon":139.56126374},{"name":"中原小学校前","province":"東京都","city":"三鷹市","address":"東京都三鷹市中原2丁目11-31","lat":35.66963081,"lon":139.57231374},{"name":"三鷹コミュニティセンター前","province":"東京都","city":"三鷹市","address":"東京都三鷹市下連雀4丁目14-19","lat":35.69271965,"lon":139.56152222},{"name":"牟礼一丁目","province":"東京都","city":"三鷹市","address":"東京都三鷹市牟礼1丁目16-12","lat":35.68568486,"lon":139.58605641},{"name":"三鷹市役所前","province":"東京都","city":"三鷹市","address":"東京都三鷹市下連雀9丁目11-7","lat":35.68428441,"lon":139.56000595},{"name":"下連雀消防出張所前","province":"東京都","city":"三鷹市","address":"東京都三鷹市下連雀4丁目14-34","lat":35.69464167,"lon":139.56140272},{"name":"三鷹中央通り","province":"東京都","city":"三鷹市","address":"東京都三鷹市下連雀3丁目28-20","lat":35.69929947,"lon":139.56126644},{"name":"日産厚生園前","province":"東京都","city":"三鷹市","address":"東京都三鷹市下連雀1丁目1","lat":35.69514734,"lon":139.57113791},{"name":"井口コミュニティー・センター北","province":"東京都","city":"三鷹市","address":"東京都三鷹市井口1丁目14-36","lat":35.69443032,"lon":139.54837615},{"name":"三鷹駅南","province":"東京都","city":"三鷹市","address":"東京都三鷹市下連雀3丁目43-23","lat":35.7013131,"lon":139.55927765},{"name":"井之頭病院前","province":"東京都","city":"三鷹市","address":"東京都三鷹市上連雀2丁目6","lat":35.69894668,"lon":139.55793065},{"name":"三鷹台郵便局前","province":"東京都","city":"三鷹市","address":"東京都三鷹市井の頭2丁目9-4","lat":35.69051212,"lon":139.58683117},{"name":"禅林寺前","province":"東京都","city":"三鷹市","address":"東京都三鷹市下連雀4丁目18-20","lat":35.6938723,"lon":139.56041118},{"name":"上連雀二丁目第二","province":"東京都","city":"三鷹市","address":"東京都三鷹市下連雀3丁目44-13","lat":35.70198525,"lon":139.55926374},{"name":"三鷹農協北","province":"東京都","city":"三鷹市","address":"東京都三鷹市下連雀9丁目2-12","lat":35.68385397,"lon":139.56333623},{"name":"三鷹職安西","province":"東京都","city":"三鷹市","address":"東京都三鷹市上連雀4丁目6-8","lat":35.69514991,"lon":139.55902793},{"name":"三鷹警察署北","province":"東京都","city":"三鷹市","address":"東京都三鷹市下連雀9丁目7-2","lat":35.68725073,"lon":139.55942813},{"name":"三鷹保健所前","province":"東京都","city":"三鷹市","address":"東京都三鷹市新川6丁目37","lat":35.68159865,"lon":139.56238639},{"name":"国立天文台前","province":"東京都","city":"三鷹市","address":"東京都三鷹市大沢2丁目21","lat":35.67740148,"lon":139.53914427},{"name":"狐久保第二","province":"東京都","city":"三鷹市","address":"東京都三鷹市下連雀1丁目8-15","lat":35.69247261,"lon":139.56969091},{"name":"東京神学大学角","province":"東京都","city":"三鷹市","address":"東京都三鷹市大沢3丁目10-20","lat":35.68826128,"lon":139.53522477},{"name":"三鷹一中正門前","province":"東京都","city":"三鷹市","address":"東京都三鷹市下連雀9丁目10-1","lat":35.68538706,"lon":139.55970316},{"name":"杏林大学病院前","province":"東京都","city":"三鷹市","address":"東京都三鷹市新川6丁目21-21","lat":35.67937122,"lon":139.56690551},{"name":"三鷹市中央通りタウンプラザ","province":"東京都","city":"三鷹市","address":"東京都三鷹市下連雀3丁目32-6","lat":35.69853011,"lon":139.56100816},{"name":"三鷹市立アニメーション美術館前","province":"東京都","city":"三鷹市","address":"東京都三鷹市下連雀1丁目1-83","lat":35.69629164,"lon":139.57036571},{"name":"三鷹警察署前","province":"東京都","city":"三鷹市","address":"東京都三鷹市下連雀9丁目9-5","lat":35.68639249,"lon":139.55925873},{"name":"東京弘済園南","province":"東京都","city":"三鷹市","address":"東京都三鷹市牟礼6丁目25","lat":35.68509292,"lon":139.57267424},{"name":"下連雀五丁目南","province":"東京都","city":"三鷹市","address":"東京都三鷹市下連雀5丁目3-1","lat":35.68379022,"lon":139.56943291},{"name":"恵比寿苑前","province":"東京都","city":"三鷹市","address":"東京都三鷹市牟礼1丁目8","lat":35.68509333,"lon":139.5887951},{"name":"上連雀浄水所（西配水場）","province":"東京都","city":"三鷹市","address":"東京都三鷹市上連雀9丁目41-4","lat":35.68686727,"lon":139.55074561},{"name":"三鷹市総合保健センター","province":"東京都","city":"三鷹市","address":"東京都三鷹市新川6丁目35-28","lat":35.68242082,"lon":139.56406399},{"name":"三鷹警察署","province":"東京都","city":"三鷹市","address":"三鷹市上連雀8-2-36","lat":35.68657,"lon":139.5583},{"name":"三鷹消防署","province":"東京都","city":"三鷹市","address":"三鷹市新川6-28-14","lat":35.68289,"lon":139.566},{"name":"三鷹地区","province":"東京都","city":"三鷹市","address":"三鷹市上連雀7-4-8","lat":35.68908,"lon":139.5548},{"name":"酒井薬品（株）物流センター","province":"東京都","city":"三鷹市","address":"三鷹市野崎1-11-22","lat":35.68355,"lon":139.5539},{"name":"狐久保","province":"東京都","city":"三鷹市","address":"東京都三鷹市下連雀1丁目10-10","lat":35.69148381,"lon":139.56907156},{"name":"三鷹八幡前","province":"東京都","city":"三鷹市","address":"東京都三鷹市下連雀4丁目18-22","lat":35.69320847,"lon":139.55993902},{"name":"南浦","province":"東京都","city":"三鷹市","address":"東京都三鷹市下連雀2丁目18-8","lat":35.69217256,"lon":139.56504969},{"name":"下連雀一丁目","province":"東京都","city":"三鷹市","address":"東京都三鷹市下連雀1丁目1","lat":35.69514734,"lon":139.57113791},{"name":"大沢","province":"東京都","city":"三鷹市","address":"東京都三鷹市大沢3丁目8-5","lat":35.68297306,"lon":139.538608},{"name":"法専寺前","province":"東京都","city":"三鷹市","address":"東京都三鷹市下連雀3丁目40-11","lat":35.69809957,"lon":139.55929167},{"name":"三鷹駅前","province":"東京都","city":"三鷹市","address":"東京都三鷹市下連雀3丁目28-23","lat":35.70045212,"lon":139.56122473},{"name":"西野","province":"東京都","city":"三鷹市","address":"東京都三鷹市深大寺2丁目36-2","lat":35.68963341,"lon":139.53824388},{"name":"第三小学校東入口","province":"東京都","city":"三鷹市","address":"東京都三鷹市上連雀4丁目3-1","lat":35.69655252,"lon":139.55894455},{"name":"三鷹駅前通り","province":"東京都","city":"三鷹市","address":"東京都三鷹市下連雀4丁目15-46","lat":35.69747468,"lon":139.56126374},{"name":"中原小学校前","province":"東京都","city":"三鷹市","address":"東京都三鷹市中原2丁目11-31","lat":35.66963081,"lon":139.57231374},{"name":"三鷹コミュニティセンター前","province":"東京都","city":"三鷹市","address":"東京都三鷹市下連雀4丁目14-19","lat":35.69271965,"lon":139.56152222},{"name":"牟礼一丁目","province":"東京都","city":"三鷹市","address":"東京都三鷹市牟礼1丁目16-12","lat":35.68568486,"lon":139.58605641},{"name":"三鷹市役所前","province":"東京都","city":"三鷹市","address":"東京都三鷹市下連雀9丁目11-7","lat":35.68428441,"lon":139.56000595},{"name":"下連雀消防出張所前","province":"東京都","city":"三鷹市","address":"東京都三鷹市下連雀4丁目14-34","lat":35.69464167,"lon":139.56140272},{"name":"三鷹中央通り","province":"東京都","city":"三鷹市","address":"東京都三鷹市下連雀3丁目28-20","lat":35.69929947,"lon":139.56126644},{"name":"日産厚生園前","province":"東京都","city":"三鷹市","address":"東京都三鷹市下連雀1丁目1","lat":35.69514734,"lon":139.57113791},{"name":"井口コミュニティー・センター北","province":"東京都","city":"三鷹市","address":"東京都三鷹市井口1丁目14-36","lat":35.69443032,"lon":139.54837615},{"name":"三鷹駅南","province":"東京都","city":"三鷹市","address":"東京都三鷹市下連雀3丁目43-23","lat":35.7013131,"lon":139.55927765},{"name":"井之頭病院前","province":"東京都","city":"三鷹市","address":"東京都三鷹市上連雀2丁目6","lat":35.69894668,"lon":139.55793065},{"name":"三鷹台郵便局前","province":"東京都","city":"三鷹市","address":"東京都三鷹市井の頭2丁目9-4","lat":35.69051212,"lon":139.58683117},{"name":"禅林寺前","province":"東京都","city":"三鷹市","address":"東京都三鷹市下連雀4丁目18-20","lat":35.6938723,"lon":139.56041118},{"name":"上連雀二丁目第二","province":"東京都","city":"三鷹市","address":"東京都三鷹市下連雀3丁目44-13","lat":35.70198525,"lon":139.55926374},{"name":"三鷹農協北","province":"東京都","city":"三鷹市","address":"東京都三鷹市下連雀9丁目2-12","lat":35.68385397,"lon":139.56333623},{"name":"三鷹職安西","province":"東京都","city":"三鷹市","address":"東京都三鷹市上連雀4丁目6-8","lat":35.69514991,"lon":139.55902793},{"name":"三鷹警察署北","province":"東京都","city":"三鷹市","address":"東京都三鷹市下連雀9丁目7-2","lat":35.68725073,"lon":139.55942813},{"name":"三鷹保健所前","province":"東京都","city":"三鷹市","address":"東京都三鷹市新川6丁目37","lat":35.68159865,"lon":139.56238639},{"name":"国立天文台前","province":"東京都","city":"三鷹市","address":"東京都三鷹市大沢2丁目21","lat":35.67740148,"lon":139.53914427},{"name":"狐久保第二","province":"東京都","city":"三鷹市","address":"東京都三鷹市下連雀1丁目8-15","lat":35.69247261,"lon":139.56969091},{"name":"東京神学大学角","province":"東京都","city":"三鷹市","address":"東京都三鷹市大沢3丁目10-20","lat":35.68826128,"lon":139.53522477},{"name":"三鷹一中正門前","province":"東京都","city":"三鷹市","address":"東京都三鷹市下連雀9丁目10-1","lat":35.68538706,"lon":139.55970316},{"name":"杏林大学病院前","province":"東京都","city":"三鷹市","address":"東京都三鷹市新川6丁目21-21","lat":35.67937122,"lon":139.56690551},{"name":"三鷹市中央通りタウンプラザ","province":"東京都","city":"三鷹市","address":"東京都三鷹市下連雀3丁目32-6","lat":35.69853011,"lon":139.56100816},{"name":"三鷹市立アニメーション美術館前","province":"東京都","city":"三鷹市","address":"東京都三鷹市下連雀1丁目1-83","lat":35.69629164,"lon":139.57036571},{"name":"三鷹警察署前","province":"東京都","city":"三鷹市","address":"東京都三鷹市下連雀9丁目9-5","lat":35.68639249,"lon":139.55925873},{"name":"東京弘済園南","province":"東京都","city":"三鷹市","address":"東京都三鷹市牟礼6丁目25","lat":35.68509292,"lon":139.57267424},{"name":"下連雀五丁目南","province":"東京都","city":"三鷹市","address":"東京都三鷹市下連雀5丁目3-1","lat":35.68379022,"lon":139.56943291},{"name":"恵比寿苑前","province":"東京都","city":"三鷹市","address":"東京都三鷹市牟礼1丁目8","lat":35.68509333,"lon":139.5887951},{"name":"上連雀浄水所（西配水場）","province":"東京都","city":"三鷹市","address":"東京都三鷹市上連雀9丁目41-4","lat":35.68686727,"lon":139.55074561},{"name":"三鷹市総合保健センター","province":"東京都","city":"三鷹市","address":"東京都三鷹市新川6丁目35-28","lat":35.68242082,"lon":139.56406399},{"name":"三鷹警察署","province":"東京都","city":"三鷹市","address":"三鷹市上連雀8-2-36","lat":35.68657,"lon":139.5583},{"name":"三鷹消防署","province":"東京都","city":"三鷹市","address":"三鷹市新川6-28-14","lat":35.68289,"lon":139.566},{"name":"三鷹地区","province":"東京都","city":"三鷹市","address":"三鷹市上連雀7-4-8","lat":35.68908,"lon":139.5548},{"name":"酒井薬品（株）物流センター","province":"東京都","city":"三鷹市","address":"三鷹市野崎1-11-22","lat":35.68355,"lon":139.5539},{"name":"狐久保","province":"東京都","city":"三鷹市","address":"東京都三鷹市下連雀1丁目10-10","lat":35.69148381,"lon":139.56907156},{"name":"三鷹八幡前","province":"東京都","city":"三鷹市","address":"東京都三鷹市下連雀4丁目18-22","lat":35.69320847,"lon":139.55993902},{"name":"南浦","province":"東京都","city":"三鷹市","address":"東京都三鷹市下連雀2丁目18-8","lat":35.69217256,"lon":139.56504969},{"name":"下連雀一丁目","province":"東京都","city":"三鷹市","address":"東京都三鷹市下連雀1丁目1","lat":35.69514734,"lon":139.57113791},{"name":"大沢","province":"東京都","city":"三鷹市","address":"東京都三鷹市大沢3丁目8-5","lat":35.68297306,"lon":139.538608},{"name":"法専寺前","province":"東京都","city":"三鷹市","address":"東京都三鷹市下連雀3丁目40-11","lat":35.69809957,"lon":139.55929167},{"name":"三鷹駅前","province":"東京都","city":"三鷹市","address":"東京都三鷹市下連雀3丁目28-23","lat":35.70045212,"lon":139.56122473},{"name":"西野","province":"東京都","city":"三鷹市","address":"東京都三鷹市深大寺2丁目36-2","lat":35.68963341,"lon":139.53824388},{"name":"第三小学校東入口","province":"東京都","city":"三鷹市","address":"東京都三鷹市上連雀4丁目3-1","lat":35.69655252,"lon":139.55894455},{"name":"三鷹駅前通り","province":"東京都","city":"三鷹市","address":"東京都三鷹市下連雀4丁目15-46","lat":35.69747468,"lon":139.56126374},{"name":"中原小学校前","province":"東京都","city":"三鷹市","address":"東京都三鷹市中原2丁目11-31","lat":35.66963081,"lon":139.57231374},{"name":"三鷹コミュニティセンター前","province":"東京都","city":"三鷹市","address":"東京都三鷹市下連雀4丁目14-19","lat":35.69271965,"lon":139.56152222},{"name":"牟礼一丁目","province":"東京都","city":"三鷹市","address":"東京都三鷹市牟礼1丁目16-12","lat":35.68568486,"lon":139.58605641},{"name":"三鷹市役所前","province":"東京都","city":"三鷹市","address":"東京都三鷹市下連雀9丁目11-7","lat":35.68428441,"lon":139.56000595},{"name":"下連雀消防出張所前","province":"東京都","city":"三鷹市","address":"東京都三鷹市下連雀4丁目14-34","lat":35.69464167,"lon":139.56140272},{"name":"三鷹中央通り","province":"東京都","city":"三鷹市","address":"東京都三鷹市下連雀3丁目28-20","lat":35.69929947,"lon":139.56126644},{"name":"日産厚生園前","province":"東京都","city":"三鷹市","address":"東京都三鷹市下連雀1丁目1","lat":35.69514734,"lon":139.57113791},{"name":"井口コミュニティー・センター北","province":"東京都","city":"三鷹市","address":"東京都三鷹市井口1丁目14-36","lat":35.69443032,"lon":139.54837615},{"name":"三鷹駅南","province":"東京都","city":"三鷹市","address":"東京都三鷹市下連雀3丁目43-23","lat":35.7013131,"lon":139.55927765},{"name":"井之頭病院前","province":"東京都","city":"三鷹市","address":"東京都三鷹市上連雀2丁目6","lat":35.69894668,"lon":139.55793065},{"name":"三鷹台郵便局前","province":"東京都","city":"三鷹市","address":"東京都三鷹市井の頭2丁目9-4","lat":35.69051212,"lon":139.58683117},{"name":"禅林寺前","province":"東京都","city":"三鷹市","address":"東京都三鷹市下連雀4丁目18-20","lat":35.6938723,"lon":139.56041118},{"name":"上連雀二丁目第二","province":"東京都","city":"三鷹市","address":"東京都三鷹市下連雀3丁目44-13","lat":35.70198525,"lon":139.55926374},{"name":"三鷹農協北","province":"東京都","city":"三鷹市","address":"東京都三鷹市下連雀9丁目2-12","lat":35.68385397,"lon":139.56333623},{"name":"三鷹職安西","province":"東京都","city":"三鷹市","address":"東京都三鷹市上連雀4丁目6-8","lat":35.69514991,"lon":139.55902793},{"name":"三鷹警察署北","province":"東京都","city":"三鷹市","address":"東京都三鷹市下連雀9丁目7-2","lat":35.68725073,"lon":139.55942813},{"name":"三鷹保健所前","province":"東京都","city":"三鷹市","address":"東京都三鷹市新川6丁目37","lat":35.68159865,"lon":139.56238639},{"name":"国立天文台前","province":"東京都","city":"三鷹市","address":"東京都三鷹市大沢2丁目21","lat":35.67740148,"lon":139.53914427},{"name":"狐久保第二","province":"東京都","city":"三鷹市","address":"東京都三鷹市下連雀1丁目8-15","lat":35.69247261,"lon":139.56969091},{"name":"東京神学大学角","province":"東京都","city":"三鷹市","address":"東京都三鷹市大沢3丁目10-20","lat":35.68826128,"lon":139.53522477},{"name":"三鷹一中正門前","province":"東京都","city":"三鷹市","address":"東京都三鷹市下連雀9丁目10-1","lat":35.68538706,"lon":139.55970316},{"name":"杏林大学病院前","province":"東京都","city":"三鷹市","address":"東京都三鷹市新川6丁目21-21","lat":35.67937122,"lon":139.56690551},{"name":"三鷹市中央通りタウンプラザ","province":"東京都","city":"三鷹市","address":"東京都三鷹市下連雀3丁目32-6","lat":35.69853011,"lon":139.56100816},{"name":"三鷹市立アニメーション美術館前","province":"東京都","city":"三鷹市","address":"東京都三鷹市下連雀1丁目1-83","lat":35.69629164,"lon":139.57036571},{"name":"三鷹警察署前","province":"東京都","city":"三鷹市","address":"東京都三鷹市下連雀9丁目9-5","lat":35.68639249,"lon":139.55925873},{"name":"東京弘済園南","province":"東京都","city":"三鷹市","address":"東京都三鷹市牟礼6丁目25","lat":35.68509292,"lon":139.57267424},{"name":"下連雀五丁目南","province":"東京都","city":"三鷹市","address":"東京都三鷹市下連雀5丁目3-1","lat":35.68379022,"lon":139.56943291},{"name":"恵比寿苑前","province":"東京都","city":"三鷹市","address":"東京都三鷹市牟礼1丁目8","lat":35.68509333,"lon":139.5887951},{"name":"上連雀浄水所（西配水場）","province":"東京都","city":"三鷹市","address":"東京都三鷹市上連雀9丁目41-4","lat":35.68686727,"lon":139.55074561},{"name":"三鷹市総合保健センター","province":"東京都","city":"三鷹市","address":"東京都三鷹市新川6丁目35-28","lat":35.68242082,"lon":139.56406399},{"name":"三鷹警察署","province":"東京都","city":"三鷹市","address":"三鷹市上連雀8-2-36","lat":35.68657,"lon":139.5583},{"name":"三鷹消防署","province":"東京都","city":"三鷹市","address":"三鷹市新川6-28-14","lat":35.68289,"lon":139.566},{"name":"三鷹地区","province":"東京都","city":"三鷹市","address":"三鷹市上連雀7-4-8","lat":35.68908,"lon":139.5548},{"name":"酒井薬品（株）物流センター","province":"東京都","city":"三鷹市","address":"三鷹市野崎1-11-22","lat":35.68355,"lon":139.5539},{"name":"狐久保","province":"東京都","city":"三鷹市","address":"東京都三鷹市下連雀1丁目10-10","lat":35.69148381,"lon":139.56907156},{"name":"三鷹八幡前","province":"東京都","city":"三鷹市","address":"東京都三鷹市下連雀4丁目18-22","lat":35.69320847,"lon":139.55993902},{"name":"南浦","province":"東京都","city":"三鷹市","address":"東京都三鷹市下連雀2丁目18-8","lat":35.69217256,"lon":139.56504969},{"name":"下連雀一丁目","province":"東京都","city":"三鷹市","address":"東京都三鷹市下連雀1丁目1","lat":35.69514734,"lon":139.57113791},{"name":"大沢","province":"東京都","city":"三鷹市","address":"東京都三鷹市大沢3丁目8-5","lat":35.68297306,"lon":139.538608},{"name":"法専寺前","province":"東京都","city":"三鷹市","address":"東京都三鷹市下連雀3丁目40-11","lat":35.69809957,"lon":139.55929167},{"name":"三鷹駅前","province":"東京都","city":"三鷹市","address":"東京都三鷹市下連雀3丁目28-23","lat":35.70045212,"lon":139.56122473},{"name":"西野","province":"東京都","city":"三鷹市","address":"東京都三鷹市深大寺2丁目36-2","lat":35.68963341,"lon":139.53824388},{"name":"第三小学校東入口","province":"東京都","city":"三鷹市","address":"東京都三鷹市上連雀4丁目3-1","lat":35.69655252,"lon":139.55894455},{"name":"三鷹駅前通り","province":"東京都","city":"三鷹市","address":"東京都三鷹市下連雀4丁目15-46","lat":35.69747468,"lon":139.56126374},{"name":"中原小学校前","province":"東京都","city":"三鷹市","address":"東京都三鷹市中原2丁目11-31","lat":35.66963081,"lon":139.57231374},{"name":"三鷹コミュニティセンター前","province":"東京都","city":"三鷹市","address":"東京都三鷹市下連雀4丁目14-19","lat":35.69271965,"lon":139.56152222},{"name":"牟礼一丁目","province":"東京都","city":"三鷹市","address":"東京都三鷹市牟礼1丁目16-12","lat":35.68568486,"lon":139.58605641},{"name":"三鷹市役所前","province":"東京都","city":"三鷹市","address":"東京都三鷹市下連雀9丁目11-7","lat":35.68428441,"lon":139.56000595},{"name":"下連雀消防出張所前","province":"東京都","city":"三鷹市","address":"東京都三鷹市下連雀4丁目14-34","lat":35.69464167,"lon":139.56140272},{"name":"三鷹中央通り","province":"東京都","city":"三鷹市","address":"東京都三鷹市下連雀3丁目28-20","lat":35.69929947,"lon":139.56126644},{"name":"日産厚生園前","province":"東京都","city":"三鷹市","address":"東京都三鷹市下連雀1丁目1","lat":35.69514734,"lon":139.57113791},{"name":"井口コミュニティー・センター北","province":"東京都","city":"三鷹市","address":"東京都三鷹市井口1丁目14-36","lat":35.69443032,"lon":139.54837615},{"name":"三鷹駅南","province":"東京都","city":"三鷹市","address":"東京都三鷹市下連雀3丁目43-23","lat":35.7013131,"lon":139.55927765},{"name":"井之頭病院前","province":"東京都","city":"三鷹市","address":"東京都三鷹市上連雀2丁目6","lat":35.69894668,"lon":139.55793065},{"name":"三鷹台郵便局前","province":"東京都","city":"三鷹市","address":"東京都三鷹市井の頭2丁目9-4","lat":35.69051212,"lon":139.58683117},{"name":"禅林寺前","province":"東京都","city":"三鷹市","address":"東京都三鷹市下連雀4丁目18-20","lat":35.6938723,"lon":139.56041118},{"name":"上連雀二丁目第二","province":"東京都","city":"三鷹市","address":"東京都三鷹市下連雀3丁目44-13","lat":35.70198525,"lon":139.55926374},{"name":"三鷹農協北","province":"東京都","city":"三鷹市","address":"東京都三鷹市下連雀9丁目2-12","lat":35.68385397,"lon":139.56333623},{"name":"三鷹職安西","province":"東京都","city":"三鷹市","address":"東京都三鷹市上連雀4丁目6-8","lat":35.69514991,"lon":139.55902793},{"name":"三鷹警察署北","province":"東京都","city":"三鷹市","address":"東京都三鷹市下連雀9丁目7-2","lat":35.68725073,"lon":139.55942813},{"name":"三鷹保健所前","province":"東京都","city":"三鷹市","address":"東京都三鷹市新川6丁目37","lat":35.68159865,"lon":139.56238639},{"name":"国立天文台前","province":"東京都","city":"三鷹市","address":"東京都三鷹市大沢2丁目21","lat":35.67740148,"lon":139.53914427},{"name":"狐久保第二","province":"東京都","city":"三鷹市","address":"東京都三鷹市下連雀1丁目8-15","lat":35.69247261,"lon":139.56969091},{"name":"東京神学大学角","province":"東京都","city":"三鷹市","address":"東京都三鷹市大沢3丁目10-20","lat":35.68826128,"lon":139.53522477},{"name":"三鷹一中正門前","province":"東京都","city":"三鷹市","address":"東京都三鷹市下連雀9丁目10-1","lat":35.68538706,"lon":139.55970316},{"name":"杏林大学病院前","province":"東京都","city":"三鷹市","address":"東京都三鷹市新川6丁目21-21","lat":35.67937122,"lon":139.56690551},{"name":"三鷹市中央通りタウンプラザ","province":"東京都","city":"三鷹市","address":"東京都三鷹市下連雀3丁目32-6","lat":35.69853011,"lon":139.56100816},{"name":"三鷹市立アニメーション美術館前","province":"東京都","city":"三鷹市","address":"東京都三鷹市下連雀1丁目1-83","lat":35.69629164,"lon":139.57036571},{"name":"三鷹警察署前","province":"東京都","city":"三鷹市","address":"東京都三鷹市下連雀9丁目9-5","lat":35.68639249,"lon":139.55925873},{"name":"東京弘済園南","province":"東京都","city":"三鷹市","address":"東京都三鷹市牟礼6丁目25","lat":35.68509292,"lon":139.57267424},{"name":"下連雀五丁目南","province":"東京都","city":"三鷹市","address":"東京都三鷹市下連雀5丁目3-1","lat":35.68379022,"lon":139.56943291},{"name":"恵比寿苑前","province":"東京都","city":"三鷹市","address":"東京都三鷹市牟礼1丁目8","lat":35.68509333,"lon":139.5887951},{"name":"上連雀浄水所（西配水場）","province":"東京都","city":"三鷹市","address":"東京都三鷹市上連雀9丁目41-4","lat":35.68686727,"lon":139.55074561},{"name":"三鷹市総合保健センター","province":"東京都","city":"三鷹市","address":"東京都三鷹市新川6丁目35-28","lat":35.68242082,"lon":139.56406399},{"name":"三鷹警察署","province":"東京都","city":"三鷹市","address":"三鷹市上連雀8-2-36","lat":35.68657,"lon":139.5583},{"name":"三鷹消防署","province":"東京都","city":"三鷹市","address":"三鷹市新川6-28-14","lat":35.68289,"lon":139.566},{"name":"三鷹地区","province":"東京都","city":"三鷹市","address":"三鷹市上連雀7-4-8","lat":35.68908,"lon":139.5548},{"name":"酒井薬品（株）物流センター","province":"東京都","city":"三鷹市","address":"三鷹市野崎1-11-22","lat":35.68355,"lon":139.5539},{"name":"狐久保","province":"東京都","city":"三鷹市","address":"東京都三鷹市下連雀1丁目10-10","lat":35.69148381,"lon":139.56907156},{"name":"三鷹八幡前","province":"東京都","city":"三鷹市","address":"東京都三鷹市下連雀4丁目18-22","lat":35.69320847,"lon":139.55993902},{"name":"南浦","province":"東京都","city":"三鷹市","address":"東京都三鷹市下連雀2丁目18-8","lat":35.69217256,"lon":139.56504969},{"name":"下連雀一丁目","province":"東京都","city":"三鷹市","address":"東京都三鷹市下連雀1丁目1","lat":35.69514734,"lon":139.57113791},{"name":"大沢","province":"東京都","city":"三鷹市","address":"東京都三鷹市大沢3丁目8-5","lat":35.68297306,"lon":139.538608},{"name":"法専寺前","province":"東京都","city":"三鷹市","address":"東京都三鷹市下連雀3丁目40-11","lat":35.69809957,"lon":139.55929167},{"name":"三鷹駅前","province":"東京都","city":"三鷹市","address":"東京都三鷹市下連雀3丁目28-23","lat":35.70045212,"lon":139.56122473},{"name":"西野","province":"東京都","city":"三鷹市","address":"東京都三鷹市深大寺2丁目36-2","lat":35.68963341,"lon":139.53824388},{"name":"第三小学校東入口","province":"東京都","city":"三鷹市","address":"東京都三鷹市上連雀4丁目3-1","lat":35.69655252,"lon":139.55894455},{"name":"三鷹駅前通り","province":"東京都","city":"三鷹市","address":"東京都三鷹市下連雀4丁目15-46","lat":35.69747468,"lon":139.56126374},{"name":"中原小学校前","province":"東京都","city":"三鷹市","address":"東京都三鷹市中原2丁目11-31","lat":35.66963081,"lon":139.57231374},{"name":"三鷹コミュニティセンター前","province":"東京都","city":"三鷹市","address":"東京都三鷹市下連雀4丁目14-19","lat":35.69271965,"lon":139.56152222},{"name":"牟礼一丁目","province":"東京都","city":"三鷹市","address":"東京都三鷹市牟礼1丁目16-12","lat":35.68568486,"lon":139.58605641},{"name":"三鷹市役所前","province":"東京都","city":"三鷹市","address":"東京都三鷹市下連雀9丁目11-7","lat":35.68428441,"lon":139.56000595},{"name":"下連雀消防出張所前","province":"東京都","city":"三鷹市","address":"東京都三鷹市下連雀4丁目14-34","lat":35.69464167,"lon":139.56140272},{"name":"三鷹中央通り","province":"東京都","city":"三鷹市","address":"東京都三鷹市下連雀3丁目28-20","lat":35.69929947,"lon":139.56126644},{"name":"日産厚生園前","province":"東京都","city":"三鷹市","address":"東京都三鷹市下連雀1丁目1","lat":35.69514734,"lon":139.57113791},{"name":"井口コミュニティー・センター北","province":"東京都","city":"三鷹市","address":"東京都三鷹市井口1丁目14-36","lat":35.69443032,"lon":139.54837615},{"name":"三鷹駅南","province":"東京都","city":"三鷹市","address":"東京都三鷹市下連雀3丁目43-23","lat":35.7013131,"lon":139.55927765},{"name":"井之頭病院前","province":"東京都","city":"三鷹市","address":"東京都三鷹市上連雀2丁目6","lat":35.69894668,"lon":139.55793065},{"name":"三鷹台郵便局前","province":"東京都","city":"三鷹市","address":"東京都三鷹市井の頭2丁目9-4","lat":35.69051212,"lon":139.58683117},{"name":"禅林寺前","province":"東京都","city":"三鷹市","address":"東京都三鷹市下連雀4丁目18-20","lat":35.6938723,"lon":139.56041118},{"name":"上連雀二丁目第二","province":"東京都","city":"三鷹市","address":"東京都三鷹市下連雀3丁目44-13","lat":35.70198525,"lon":139.55926374},{"name":"三鷹農協北","province":"東京都","city":"三鷹市","address":"東京都三鷹市下連雀9丁目2-12","lat":35.68385397,"lon":139.56333623},{"name":"三鷹職安西","province":"東京都","city":"三鷹市","address":"東京都三鷹市上連雀4丁目6-8","lat":35.69514991,"lon":139.55902793},{"name":"三鷹警察署北","province":"東京都","city":"三鷹市","address":"東京都三鷹市下連雀9丁目7-2","lat":35.68725073,"lon":139.55942813},{"name":"三鷹保健所前","province":"東京都","city":"三鷹市","address":"東京都三鷹市新川6丁目37","lat":35.68159865,"lon":139.56238639},{"name":"国立天文台前","province":"東京都","city":"三鷹市","address":"東京都三鷹市大沢2丁目21","lat":35.67740148,"lon":139.53914427},{"name":"狐久保第二","province":"東京都","city":"三鷹市","address":"東京都三鷹市下連雀1丁目8-15","lat":35.69247261,"lon":139.56969091},{"name":"東京神学大学角","province":"東京都","city":"三鷹市","address":"東京都三鷹市大沢3丁目10-20","lat":35.68826128,"lon":139.53522477},{"name":"三鷹一中正門前","province":"東京都","city":"三鷹市","address":"東京都三鷹市下連雀9丁目10-1","lat":35.68538706,"lon":139.55970316},{"name":"杏林大学病院前","province":"東京都","city":"三鷹市","address":"東京都三鷹市新川6丁目21-21","lat":35.67937122,"lon":139.56690551},{"name":"三鷹市中央通りタウンプラザ","province":"東京都","city":"三鷹市","address":"東京都三鷹市下連雀3丁目32-6","lat":35.69853011,"lon":139.56100816},{"name":"三鷹市立アニメーション美術館前","province":"東京都","city":"三鷹市","address":"東京都三鷹市下連雀1丁目1-83","lat":35.69629164,"lon":139.57036571},{"name":"三鷹警察署前","province":"東京都","city":"三鷹市","address":"東京都三鷹市下連雀9丁目9-5","lat":35.68639249,"lon":139.55925873},{"name":"東京弘済園南","province":"東京都","city":"三鷹市","address":"東京都三鷹市牟礼6丁目25","lat":35.68509292,"lon":139.57267424},{"name":"下連雀五丁目南","province":"東京都","city":"三鷹市","address":"東京都三鷹市下連雀5丁目3-1","lat":35.68379022,"lon":139.56943291},{"name":"恵比寿苑前","province":"東京都","city":"三鷹市","address":"東京都三鷹市牟礼1丁目8","lat":35.68509333,"lon":139.5887951},{"name":"上連雀浄水所（西配水場）","province":"東京都","city":"三鷹市","address":"東京都三鷹市上連雀9丁目41-4","lat":35.68686727,"lon":139.55074561},{"name":"三鷹市総合保健センター","province":"東京都","city":"三鷹市","address":"東京都三鷹市新川6丁目35-28","lat":35.68242082,"lon":139.56406399},{"name":"三鷹警察署","province":"東京都","city":"三鷹市","address":"三鷹市上連雀8-2-36","lat":35.68657,"lon":139.5583},{"name":"三鷹消防署","province":"東京都","city":"三鷹市","address":"三鷹市新川6-28-14","lat":35.68289,"lon":139.566},{"name":"三鷹地区","province":"東京都","city":"三鷹市","address":"三鷹市上連雀7-4-8","lat":35.68908,"lon":139.5548},{"name":"酒井薬品（株）物流センター","province":"東京都","city":"三鷹市","address":"三鷹市野崎1-11-22","lat":35.68355,"lon":139.5539},{"name":"狐久保","province":"東京都","city":"三鷹市","address":"東京都三鷹市下連雀1丁目10-10","lat":35.69148381,"lon":139.56907156},{"name":"三鷹八幡前","province":"東京都","city":"三鷹市","address":"東京都三鷹市下連雀4丁目18-22","lat":35.69320847,"lon":139.55993902},{"name":"南浦","province":"東京都","city":"三鷹市","address":"東京都三鷹市下連雀2丁目18-8","lat":35.69217256,"lon":139.56504969},{"name":"下連雀一丁目","province":"東京都","city":"三鷹市","address":"東京都三鷹市下連雀1丁目1","lat":35.69514734,"lon":139.57113791},{"name":"大沢","province":"東京都","city":"三鷹市","address":"東京都三鷹市大沢3丁目8-5","lat":35.68297306,"lon":139.538608},{"name":"法専寺前","province":"東京都","city":"三鷹市","address":"東京都三鷹市下連雀3丁目40-11","lat":35.69809957,"lon":139.55929167},{"name":"三鷹駅前","province":"東京都","city":"三鷹市","address":"東京都三鷹市下連雀3丁目28-23","lat":35.70045212,"lon":139.56122473},{"name":"西野","province":"東京都","city":"三鷹市","address":"東京都三鷹市深大寺2丁目36-2","lat":35.68963341,"lon":139.53824388},{"name":"第三小学校東入口","province":"東京都","city":"三鷹市","address":"東京都三鷹市上連雀4丁目3-1","lat":35.69655252,"lon":139.55894455},{"name":"三鷹駅前通り","province":"東京都","city":"三鷹市","address":"東京都三鷹市下連雀4丁目15-46","lat":35.69747468,"lon":139.56126374},{"name":"中原小学校前","province":"東京都","city":"三鷹市","address":"東京都三鷹市中原2丁目11-31","lat":35.66963081,"lon":139.57231374},{"name":"三鷹コミュニティセンター前","province":"東京都","city":"三鷹市","address":"東京都三鷹市下連雀4丁目14-19","lat":35.69271965,"lon":139.56152222},{"name":"牟礼一丁目","province":"東京都","city":"三鷹市","address":"東京都三鷹市牟礼1丁目16-12","lat":35.68568486,"lon":139.58605641},{"name":"三鷹市役所前","province":"東京都","city":"三鷹市","address":"東京都三鷹市下連雀9丁目11-7","lat":35.68428441,"lon":139.56000595},{"name":"下連雀消防出張所前","province":"東京都","city":"三鷹市","address":"東京都三鷹市下連雀4丁目14-34","lat":35.69464167,"lon":139.56140272},{"name":"三鷹中央通り","province":"東京都","city":"三鷹市","address":"東京都三鷹市下連雀3丁目28-20","lat":35.69929947,"lon":139.56126644},{"name":"日産厚生園前","province":"東京都","city":"三鷹市","address":"東京都三鷹市下連雀1丁目1","lat":35.69514734,"lon":139.57113791},{"name":"井口コミュニティー・センター北","province":"東京都","city":"三鷹市","address":"東京都三鷹市井口1丁目14-36","lat":35.69443032,"lon":139.54837615},{"name":"三鷹駅南","province":"東京都","city":"三鷹市","address":"東京都三鷹市下連雀3丁目43-23","lat":35.7013131,"lon":139.55927765},{"name":"井之頭病院前","province":"東京都","city":"三鷹市","address":"東京都三鷹市上連雀2丁目6","lat":35.69894668,"lon":139.55793065},{"name":"三鷹台郵便局前","province":"東京都","city":"三鷹市","address":"東京都三鷹市井の頭2丁目9-4","lat":35.69051212,"lon":139.58683117},{"name":"禅林寺前","province":"東京都","city":"三鷹市","address":"東京都三鷹市下連雀4丁目18-20","lat":35.6938723,"lon":139.56041118},{"name":"上連雀二丁目第二","province":"東京都","city":"三鷹市","address":"東京都三鷹市下連雀3丁目44-13","lat":35.70198525,"lon":139.55926374},{"name":"三鷹農協北","province":"東京都","city":"三鷹市","address":"東京都三鷹市下連雀9丁目2-12","lat":35.68385397,"lon":139.56333623},{"name":"三鷹職安西","province":"東京都","city":"三鷹市","address":"東京都三鷹市上連雀4丁目6-8","lat":35.69514991,"lon":139.55902793},{"name":"三鷹警察署北","province":"東京都","city":"三鷹市","address":"東京都三鷹市下連雀9丁目7-2","lat":35.68725073,"lon":139.55942813},{"name":"三鷹保健所前","province":"東京都","city":"三鷹市","address":"東京都三鷹市新川6丁目37","lat":35.68159865,"lon":139.56238639},{"name":"国立天文台前","province":"東京都","city":"三鷹市","address":"東京都三鷹市大沢2丁目21","lat":35.67740148,"lon":139.53914427},{"name":"狐久保第二","province":"東京都","city":"三鷹市","address":"東京都三鷹市下連雀1丁目8-15","lat":35.69247261,"lon":139.56969091},{"name":"東京神学大学角","province":"東京都","city":"三鷹市","address":"東京都三鷹市大沢3丁目10-20","lat":35.68826128,"lon":139.53522477},{"name":"三鷹一中正門前","province":"東京都","city":"三鷹市","address":"東京都三鷹市下連雀9丁目10-1","lat":35.68538706,"lon":139.55970316},{"name":"杏林大学病院前","province":"東京都","city":"三鷹市","address":"東京都三鷹市新川6丁目21-21","lat":35.67937122,"lon":139.56690551},{"name":"三鷹市中央通りタウンプラザ","province":"東京都","city":"三鷹市","address":"東京都三鷹市下連雀3丁目32-6","lat":35.69853011,"lon":139.56100816},{"name":"三鷹市立アニメーション美術館前","province":"東京都","city":"三鷹市","address":"東京都三鷹市下連雀1丁目1-83","lat":35.69629164,"lon":139.57036571},{"name":"三鷹警察署前","province":"東京都","city":"三鷹市","address":"東京都三鷹市下連雀9丁目9-5","lat":35.68639249,"lon":139.55925873},{"name":"東京弘済園南","province":"東京都","city":"三鷹市","address":"東京都三鷹市牟礼6丁目25","lat":35.68509292,"lon":139.57267424},{"name":"下連雀五丁目南","province":"東京都","city":"三鷹市","address":"東京都三鷹市下連雀5丁目3-1","lat":35.68379022,"lon":139.56943291},{"name":"恵比寿苑前","province":"東京都","city":"三鷹市","address":"東京都三鷹市牟礼1丁目8","lat":35.68509333,"lon":139.5887951},{"name":"上連雀浄水所（西配水場）","province":"東京都","city":"三鷹市","address":"東京都三鷹市上連雀9丁目41-4","lat":35.68686727,"lon":139.55074561},{"name":"三鷹市総合保健センター","province":"東京都","city":"三鷹市","address":"東京都三鷹市新川6丁目35-28","lat":35.68242082,"lon":139.56406399},{"name":"三鷹警察署","province":"東京都","city":"三鷹市","address":"三鷹市上連雀8-2-36","lat":35.68657,"lon":139.5583},{"name":"三鷹消防署","province":"東京都","city":"三鷹市","address":"三鷹市新川6-28-14","lat":35.68289,"lon":139.566},{"name":"三鷹地区","province":"東京都","city":"三鷹市","address":"三鷹市上連雀7-4-8","lat":35.68908,"lon":139.5548},{"name":"酒井薬品（株）物流センター","province":"東京都","city":"三鷹市","address":"三鷹市野崎1-11-22","lat":35.68355,"lon":139.5539},{"name":"狐久保","province":"東京都","city":"三鷹市","address":"東京都三鷹市下連雀1丁目10-10","lat":35.69148381,"lon":139.56907156},{"name":"三鷹八幡前","province":"東京都","city":"三鷹市","address":"東京都三鷹市下連雀4丁目18-22","lat":35.69320847,"lon":139.55993902},{"name":"南浦","province":"東京都","city":"三鷹市","address":"東京都三鷹市下連雀2丁目18-8","lat":35.69217256,"lon":139.56504969},{"name":"下連雀一丁目","province":"東京都","city":"三鷹市","address":"東京都三鷹市下連雀1丁目1","lat":35.69514734,"lon":139.57113791},{"name":"大沢","province":"東京都","city":"三鷹市","address":"東京都三鷹市大沢3丁目8-5","lat":35.68297306,"lon":139.538608},{"name":"法専寺前","province":"東京都","city":"三鷹市","address":"東京都三鷹市下連雀3丁目40-11","lat":35.69809957,"lon":139.55929167},{"name":"三鷹駅前","province":"東京都","city":"三鷹市","address":"東京都三鷹市下連雀3丁目28-23","lat":35.70045212,"lon":139.56122473},{"name":"西野","province":"東京都","city":"三鷹市","address":"東京都三鷹市深大寺2丁目36-2","lat":35.68963341,"lon":139.53824388},{"name":"第三小学校東入口","province":"東京都","city":"三鷹市","address":"東京都三鷹市上連雀4丁目3-1","lat":35.69655252,"lon":139.55894455},{"name":"三鷹駅前通り","province":"東京都","city":"三鷹市","address":"東京都三鷹市下連雀4丁目15-46","lat":35.69747468,"lon":139.56126374},{"name":"中原小学校前","province":"東京都","city":"三鷹市","address":"東京都三鷹市中原2丁目11-31","lat":35.66963081,"lon":139.57231374},{"name":"三鷹コミュニティセンター前","province":"東京都","city":"三鷹市","address":"東京都三鷹市下連雀4丁目14-19","lat":35.69271965,"lon":139.56152222},{"name":"牟礼一丁目","province":"東京都","city":"三鷹市","address":"東京都三鷹市牟礼1丁目16-12","lat":35.68568486,"lon":139.58605641},{"name":"三鷹市役所前","province":"東京都","city":"三鷹市","address":"東京都三鷹市下連雀9丁目11-7","lat":35.68428441,"lon":139.56000595},{"name":"下連雀消防出張所前","province":"東京都","city":"三鷹市","address":"東京都三鷹市下連雀4丁目14-34","lat":35.69464167,"lon":139.56140272},{"name":"三鷹中央通り","province":"東京都","city":"三鷹市","address":"東京都三鷹市下連雀3丁目28-20","lat":35.69929947,"lon":139.56126644},{"name":"日産厚生園前","province":"東京都","city":"三鷹市","address":"東京都三鷹市下連雀1丁目1","lat":35.69514734,"lon":139.57113791},{"name":"井口コミュニティー・センター北","province":"東京都","city":"三鷹市","address":"東京都三鷹市井口1丁目14-36","lat":35.69443032,"lon":139.54837615},{"name":"三鷹駅南","province":"東京都","city":"三鷹市","address":"東京都三鷹市下連雀3丁目43-23","lat":35.7013131,"lon":139.55927765},{"name":"井之頭病院前","province":"東京都","city":"三鷹市","address":"東京都三鷹市上連雀2丁目6","lat":35.69894668,"lon":139.55793065},{"name":"三鷹台郵便局前","province":"東京都","city":"三鷹市","address":"東京都三鷹市井の頭2丁目9-4","lat":35.69051212,"lon":139.58683117},{"name":"禅林寺前","province":"東京都","city":"三鷹市","address":"東京都三鷹市下連雀4丁目18-20","lat":35.6938723,"lon":139.56041118},{"name":"上連雀二丁目第二","province":"東京都","city":"三鷹市","address":"東京都三鷹市下連雀3丁目44-13","lat":35.70198525,"lon":139.55926374},{"name":"三鷹農協北","province":"東京都","city":"三鷹市","address":"東京都三鷹市下連雀9丁目2-12","lat":35.68385397,"lon":139.56333623},{"name":"三鷹職安西","province":"東京都","city":"三鷹市","address":"東京都三鷹市上連雀4丁目6-8","lat":35.69514991,"lon":139.55902793},{"name":"三鷹警察署北","province":"東京都","city":"三鷹市","address":"東京都三鷹市下連雀9丁目7-2","lat":35.68725073,"lon":139.55942813},{"name":"三鷹保健所前","province":"東京都","city":"三鷹市","address":"東京都三鷹市新川6丁目37","lat":35.68159865,"lon":139.56238639},{"name":"国立天文台前","province":"東京都","city":"三鷹市","address":"東京都三鷹市大沢2丁目21","lat":35.67740148,"lon":139.53914427},{"name":"狐久保第二","province":"東京都","city":"三鷹市","address":"東京都三鷹市下連雀1丁目8-15","lat":35.69247261,"lon":139.56969091},{"name":"東京神学大学角","province":"東京都","city":"三鷹市","address":"東京都三鷹市大沢3丁目10-20","lat":35.68826128,"lon":139.53522477},{"name":"三鷹一中正門前","province":"東京都","city":"三鷹市","address":"東京都三鷹市下連雀9丁目10-1","lat":35.68538706,"lon":139.55970316},{"name":"杏林大学病院前","province":"東京都","city":"三鷹市","address":"東京都三鷹市新川6丁目21-21","lat":35.67937122,"lon":139.56690551},{"name":"三鷹市中央通りタウンプラザ","province":"東京都","city":"三鷹市","address":"東京都三鷹市下連雀3丁目32-6","lat":35.69853011,"lon":139.56100816},{"name":"三鷹市立アニメーション美術館前","province":"東京都","city":"三鷹市","address":"東京都三鷹市下連雀1丁目1-83","lat":35.69629164,"lon":139.57036571},{"name":"三鷹警察署前","province":"東京都","city":"三鷹市","address":"東京都三鷹市下連雀9丁目9-5","lat":35.68639249,"lon":139.55925873},{"name":"東京弘済園南","province":"東京都","city":"三鷹市","address":"東京都三鷹市牟礼6丁目25","lat":35.68509292,"lon":139.57267424},{"name":"下連雀五丁目南","province":"東京都","city":"三鷹市","address":"東京都三鷹市下連雀5丁目3-1","lat":35.68379022,"lon":139.56943291},{"name":"恵比寿苑前","province":"東京都","city":"三鷹市","address":"東京都三鷹市牟礼1丁目8","lat":35.68509333,"lon":139.5887951},{"name":"上連雀浄水所（西配水場）","province":"東京都","city":"三鷹市","address":"東京都三鷹市上連雀9丁目41-4","lat":35.68686727,"lon":139.55074561},{"name":"三鷹市総合保健センター","province":"東京都","city":"三鷹市","address":"東京都三鷹市新川6丁目35-28","lat":35.68242082,"lon":139.56406399},{"name":"三鷹警察署","province":"東京都","city":"三鷹市","address":"三鷹市上連雀8-2-36","lat":35.68657,"lon":139.5583},{"name":"三鷹消防署","province":"東京都","city":"三鷹市","address":"三鷹市新川6-28-14","lat":35.68289,"lon":139.566},{"name":"三鷹地区","province":"東京都","city":"三鷹市","address":"三鷹市上連雀7-4-8","lat":35.68908,"lon":139.5548},{"name":"酒井薬品（株）物流センター","province":"東京都","city":"三鷹市","address":"三鷹市野崎1-11-22","lat":35.68355,"lon":139.5539},{"name":"狐久保","province":"東京都","city":"三鷹市","address":"東京都三鷹市下連雀1丁目10-10","lat":35.69148381,"lon":139.56907156},{"name":"三鷹八幡前","province":"東京都","city":"三鷹市","address":"東京都三鷹市下連雀4丁目18-22","lat":35.69320847,"lon":139.55993902},{"name":"南浦","province":"東京都","city":"三鷹市","address":"東京都三鷹市下連雀2丁目18-8","lat":35.69217256,"lon":139.56504969},{"name":"下連雀一丁目","province":"東京都","city":"三鷹市","address":"東京都三鷹市下連雀1丁目1","lat":35.69514734,"lon":139.57113791},{"name":"大沢","province":"東京都","city":"三鷹市","address":"東京都三鷹市大沢3丁目8-5","lat":35.68297306,"lon":139.538608},{"name":"法専寺前","province":"東京都","city":"三鷹市","address":"東京都三鷹市下連雀3丁目40-11","lat":35.69809957,"lon":139.55929167},{"name":"三鷹駅前","province":"東京都","city":"三鷹市","address":"東京都三鷹市下連雀3丁目28-23","lat":35.70045212,"lon":139.56122473},{"name":"西野","province":"東京都","city":"三鷹市","address":"東京都三鷹市深大寺2丁目36-2","lat":35.68963341,"lon":139.53824388},{"name":"第三小学校東入口","province":"東京都","city":"三鷹市","address":"東京都三鷹市上連雀4丁目3-1","lat":35.69655252,"lon":139.55894455},{"name":"三鷹駅前通り","province":"東京都","city":"三鷹市","address":"東京都三鷹市下連雀4丁目15-46","lat":35.69747468,"lon":139.56126374},{"name":"中原小学校前","province":"東京都","city":"三鷹市","address":"東京都三鷹市中原2丁目11-31","lat":35.66963081,"lon":139.57231374},{"name":"三鷹コミュニティセンター前","province":"東京都","city":"三鷹市","address":"東京都三鷹市下連雀4丁目14-19","lat":35.69271965,"lon":139.56152222},{"name":"牟礼一丁目","province":"東京都","city":"三鷹市","address":"東京都三鷹市牟礼1丁目16-12","lat":35.68568486,"lon":139.58605641},{"name":"三鷹市役所前","province":"東京都","city":"三鷹市","address":"東京都三鷹市下連雀9丁目11-7","lat":35.68428441,"lon":139.56000595},{"name":"下連雀消防出張所前","province":"東京都","city":"三鷹市","address":"東京都三鷹市下連雀4丁目14-34","lat":35.69464167,"lon":139.56140272},{"name":"三鷹中央通り","province":"東京都","city":"三鷹市","address":"東京都三鷹市下連雀3丁目28-20","lat":35.69929947,"lon":139.56126644},{"name":"日産厚生園前","province":"東京都","city":"三鷹市","address":"東京都三鷹市下連雀1丁目1","lat":35.69514734,"lon":139.57113791},{"name":"井口コミュニティー・センター北","province":"東京都","city":"三鷹市","address":"東京都三鷹市井口1丁目14-36","lat":35.69443032,"lon":139.54837615},{"name":"三鷹駅南","province":"東京都","city":"三鷹市","address":"東京都三鷹市下連雀3丁目43-23","lat":35.7013131,"lon":139.55927765},{"name":"井之頭病院前","province":"東京都","city":"三鷹市","address":"東京都三鷹市上連雀2丁目6","lat":35.69894668,"lon":139.55793065},{"name":"三鷹台郵便局前","province":"東京都","city":"三鷹市","address":"東京都三鷹市井の頭2丁目9-4","lat":35.69051212,"lon":139.58683117},{"name":"禅林寺前","province":"東京都","city":"三鷹市","address":"東京都三鷹市下連雀4丁目18-20","lat":35.6938723,"lon":139.56041118},{"name":"上連雀二丁目第二","province":"東京都","city":"三鷹市","address":"東京都三鷹市下連雀3丁目44-13","lat":35.70198525,"lon":139.55926374},{"name":"三鷹農協北","province":"東京都","city":"三鷹市","address":"東京都三鷹市下連雀9丁目2-12","lat":35.68385397,"lon":139.56333623},{"name":"三鷹職安西","province":"東京都","city":"三鷹市","address":"東京都三鷹市上連雀4丁目6-8","lat":35.69514991,"lon":139.55902793},{"name":"三鷹警察署北","province":"東京都","city":"三鷹市","address":"東京都三鷹市下連雀9丁目7-2","lat":35.68725073,"lon":139.55942813},{"name":"三鷹保健所前","province":"東京都","city":"三鷹市","address":"東京都三鷹市新川6丁目37","lat":35.68159865,"lon":139.56238639},{"name":"国立天文台前","province":"東京都","city":"三鷹市","address":"東京都三鷹市大沢2丁目21","lat":35.67740148,"lon":139.53914427},{"name":"狐久保第二","province":"東京都","city":"三鷹市","address":"東京都三鷹市下連雀1丁目8-15","lat":35.69247261,"lon":139.56969091},{"name":"東京神学大学角","province":"東京都","city":"三鷹市","address":"東京都三鷹市大沢3丁目10-20","lat":35.68826128,"lon":139.53522477},{"name":"三鷹一中正門前","province":"東京都","city":"三鷹市","address":"東京都三鷹市下連雀9丁目10-1","lat":35.68538706,"lon":139.55970316},{"name":"杏林大学病院前","province":"東京都","city":"三鷹市","address":"東京都三鷹市新川6丁目21-21","lat":35.67937122,"lon":139.56690551},{"name":"三鷹市中央通りタウンプラザ","province":"東京都","city":"三鷹市","address":"東京都三鷹市下連雀3丁目32-6","lat":35.69853011,"lon":139.56100816},{"name":"三鷹市立アニメーション美術館前","province":"東京都","city":"三鷹市","address":"東京都三鷹市下連雀1丁目1-83","lat":35.69629164,"lon":139.57036571},{"name":"三鷹警察署前","province":"東京都","city":"三鷹市","address":"東京都三鷹市下連雀9丁目9-5","lat":35.68639249,"lon":139.55925873},{"name":"東京弘済園南","province":"東京都","city":"三鷹市","address":"東京都三鷹市牟礼6丁目25","lat":35.68509292,"lon":139.57267424},{"name":"下連雀五丁目南","province":"東京都","city":"三鷹市","address":"東京都三鷹市下連雀5丁目3-1","lat":35.68379022,"lon":139.56943291},{"name":"恵比寿苑前","province":"東京都","city":"三鷹市","address":"東京都三鷹市牟礼1丁目8","lat":35.68509333,"lon":139.5887951},{"name":"上連雀浄水所（西配水場）","province":"東京都","city":"三鷹市","address":"東京都三鷹市上連雀9丁目41-4","lat":35.68686727,"lon":139.55074561},{"name":"三鷹市総合保健センター","province":"東京都","city":"三鷹市","address":"東京都三鷹市新川6丁目35-28","lat":35.68242082,"lon":139.56406399},{"name":"三鷹警察署","province":"東京都","city":"三鷹市","address":"三鷹市上連雀8-2-36","lat":35.68657,"lon":139.5583},{"name":"三鷹消防署","province":"東京都","city":"三鷹市","address":"三鷹市新川6-28-14","lat":35.68289,"lon":139.566},{"name":"三鷹地区","province":"東京都","city":"三鷹市","address":"三鷹市上連雀7-4-8","lat":35.68908,"lon":139.5548},{"name":"酒井薬品（株）物流センター","province":"東京都","city":"三鷹市","address":"三鷹市野崎1-11-22","lat":35.68355,"lon":139.5539},{"name":"狐久保","province":"東京都","city":"三鷹市","address":"東京都三鷹市下連雀1丁目10-10","lat":35.69148381,"lon":139.56907156},{"name":"三鷹八幡前","province":"東京都","city":"三鷹市","address":"東京都三鷹市下連雀4丁目18-22","lat":35.69320847,"lon":139.55993902},{"name":"南浦","province":"東京都","city":"三鷹市","address":"東京都三鷹市下連雀2丁目18-8","lat":35.69217256,"lon":139.56504969},{"name":"下連雀一丁目","province":"東京都","city":"三鷹市","address":"東京都三鷹市下連雀1丁目1","lat":35.69514734,"lon":139.57113791},{"name":"大沢","province":"東京都","city":"三鷹市","address":"東京都三鷹市大沢3丁目8-5","lat":35.68297306,"lon":139.538608},{"name":"法専寺前","province":"東京都","city":"三鷹市","address":"東京都三鷹市下連雀3丁目40-11","lat":35.69809957,"lon":139.55929167},{"name":"三鷹駅前","province":"東京都","city":"三鷹市","address":"東京都三鷹市下連雀3丁目28-23","lat":35.70045212,"lon":139.56122473},{"name":"西野","province":"東京都","city":"三鷹市","address":"東京都三鷹市深大寺2丁目36-2","lat":35.68963341,"lon":139.53824388},{"name":"第三小学校東入口","province":"東京都","city":"三鷹市","address":"東京都三鷹市上連雀4丁目3-1","lat":35.69655252,"lon":139.55894455},{"name":"三鷹駅前通り","province":"東京都","city":"三鷹市","address":"東京都三鷹市下連雀4丁目15-46","lat":35.69747468,"lon":139.56126374},{"name":"中原小学校前","province":"東京都","city":"三鷹市","address":"東京都三鷹市中原2丁目11-31","lat":35.66963081,"lon":139.57231374},{"name":"三鷹コミュニティセンター前","province":"東京都","city":"三鷹市","address":"東京都三鷹市下連雀4丁目14-19","lat":35.69271965,"lon":139.56152222},{"name":"牟礼一丁目","province":"東京都","city":"三鷹市","address":"東京都三鷹市牟礼1丁目16-12","lat":35.68568486,"lon":139.58605641},{"name":"三鷹市役所前","province":"東京都","city":"三鷹市","address":"東京都三鷹市下連雀9丁目11-7","lat":35.68428441,"lon":139.56000595},{"name":"下連雀消防出張所前","province":"東京都","city":"三鷹市","address":"東京都三鷹市下連雀4丁目14-34","lat":35.69464167,"lon":139.56140272},{"name":"三鷹中央通り","province":"東京都","city":"三鷹市","address":"東京都三鷹市下連雀3丁目28-20","lat":35.69929947,"lon":139.56126644},{"name":"日産厚生園前","province":"東京都","city":"三鷹市","address":"東京都三鷹市下連雀1丁目1","lat":35.69514734,"lon":139.57113791},{"name":"井口コミュニティー・センター北","province":"東京都","city":"三鷹市","address":"東京都三鷹市井口1丁目14-36","lat":35.69443032,"lon":139.54837615},{"name":"三鷹駅南","province":"東京都","city":"三鷹市","address":"東京都三鷹市下連雀3丁目43-23","lat":35.7013131,"lon":139.55927765},{"name":"井之頭病院前","province":"東京都","city":"三鷹市","address":"東京都三鷹市上連雀2丁目6","lat":35.69894668,"lon":139.55793065},{"name":"三鷹台郵便局前","province":"東京都","city":"三鷹市","address":"東京都三鷹市井の頭2丁目9-4","lat":35.69051212,"lon":139.58683117},{"name":"禅林寺前","province":"東京都","city":"三鷹市","address":"東京都三鷹市下連雀4丁目18-20","lat":35.6938723,"lon":139.56041118},{"name":"上連雀二丁目第二","province":"東京都","city":"三鷹市","address":"東京都三鷹市下連雀3丁目44-13","lat":35.70198525,"lon":139.55926374},{"name":"三鷹農協北","province":"東京都","city":"三鷹市","address":"東京都三鷹市下連雀9丁目2-12","lat":35.68385397,"lon":139.56333623},{"name":"三鷹職安西","province":"東京都","city":"三鷹市","address":"東京都三鷹市上連雀4丁目6-8","lat":35.69514991,"lon":139.55902793},{"name":"三鷹警察署北","province":"東京都","city":"三鷹市","address":"東京都三鷹市下連雀9丁目7-2","lat":35.68725073,"lon":139.55942813},{"name":"三鷹保健所前","province":"東京都","city":"三鷹市","address":"東京都三鷹市新川6丁目37","lat":35.68159865,"lon":139.56238639},{"name":"国立天文台前","province":"東京都","city":"三鷹市","address":"東京都三鷹市大沢2丁目21","lat":35.67740148,"lon":139.53914427},{"name":"狐久保第二","province":"東京都","city":"三鷹市","address":"東京都三鷹市下連雀1丁目8-15","lat":35.69247261,"lon":139.56969091},{"name":"東京神学大学角","province":"東京都","city":"三鷹市","address":"東京都三鷹市大沢3丁目10-20","lat":35.68826128,"lon":139.53522477},{"name":"三鷹一中正門前","province":"東京都","city":"三鷹市","address":"東京都三鷹市下連雀9丁目10-1","lat":35.68538706,"lon":139.55970316},{"name":"杏林大学病院前","province":"東京都","city":"三鷹市","address":"東京都三鷹市新川6丁目21-21","lat":35.67937122,"lon":139.56690551},{"name":"三鷹市中央通りタウンプラザ","province":"東京都","city":"三鷹市","address":"東京都三鷹市下連雀3丁目32-6","lat":35.69853011,"lon":139.56100816},{"name":"三鷹市立アニメーション美術館前","province":"東京都","city":"三鷹市","address":"東京都三鷹市下連雀1丁目1-83","lat":35.69629164,"lon":139.57036571},{"name":"三鷹警察署前","province":"東京都","city":"三鷹市","address":"東京都三鷹市下連雀9丁目9-5","lat":35.68639249,"lon":139.55925873},{"name":"東京弘済園南","province":"東京都","city":"三鷹市","address":"東京都三鷹市牟礼6丁目25","lat":35.68509292,"lon":139.57267424},{"name":"下連雀五丁目南","province":"東京都","city":"三鷹市","address":"東京都三鷹市下連雀5丁目3-1","lat":35.68379022,"lon":139.56943291},{"name":"恵比寿苑前","province":"東京都","city":"三鷹市","address":"東京都三鷹市牟礼1丁目8","lat":35.68509333,"lon":139.5887951},{"name":"上連雀浄水所（西配水場）","province":"東京都","city":"三鷹市","address":"東京都三鷹市上連雀9丁目41-4","lat":35.68686727,"lon":139.55074561},{"name":"三鷹市総合保健センター","province":"東京都","city":"三鷹市","address":"東京都三鷹市新川6丁目35-28","lat":35.68242082,"lon":139.56406399},{"name":"三鷹警察署","province":"東京都","city":"三鷹市","address":"三鷹市上連雀8-2-36","lat":35.68657,"lon":139.5583},{"name":"三鷹消防署","province":"東京都","city":"三鷹市","address":"三鷹市新川6-28-14","lat":35.68289,"lon":139.566},{"name":"三鷹地区","province":"東京都","city":"三鷹市","address":"三鷹市上連雀7-4-8","lat":35.68908,"lon":139.5548},{"name":"酒井薬品（株）物流センター","province":"東京都","city":"三鷹市","address":"三鷹市野崎1-11-22","lat":35.68355,"lon":139.5539},{"name":"狐久保","province":"東京都","city":"三鷹市","address":"東京都三鷹市下連雀1丁目10-10","lat":35.69148381,"lon":139.56907156},{"name":"三鷹八幡前","province":"東京都","city":"三鷹市","address":"東京都三鷹市下連雀4丁目18-22","lat":35.69320847,"lon":139.55993902},{"name":"南浦","province":"東京都","city":"三鷹市","address":"東京都三鷹市下連雀2丁目18-8","lat":35.69217256,"lon":139.56504969},{"name":"下連雀一丁目","province":"東京都","city":"三鷹市","address":"東京都三鷹市下連雀1丁目1","lat":35.69514734,"lon":139.57113791},{"name":"大沢","province":"東京都","city":"三鷹市","address":"東京都三鷹市大沢3丁目8-5","lat":35.68297306,"lon":139.538608},{"name":"法専寺前","province":"東京都","city":"三鷹市","address":"東京都三鷹市下連雀3丁目40-11","lat":35.69809957,"lon":139.55929167},{"name":"三鷹駅前","province":"東京都","city":"三鷹市","address":"東京都三鷹市下連雀3丁目28-23","lat":35.70045212,"lon":139.56122473},{"name":"西野","province":"東京都","city":"三鷹市","address":"東京都三鷹市深大寺2丁目36-2","lat":35.68963341,"lon":139.53824388},{"name":"第三小学校東入口","province":"東京都","city":"三鷹市","address":"東京都三鷹市上連雀4丁目3-1","lat":35.69655252,"lon":139.55894455},{"name":"三鷹駅前通り","province":"東京都","city":"三鷹市","address":"東京都三鷹市下連雀4丁目15-46","lat":35.69747468,"lon":139.56126374},{"name":"中原小学校前","province":"東京都","city":"三鷹市","address":"東京都三鷹市中原2丁目11-31","lat":35.66963081,"lon":139.57231374},{"name":"三鷹コミュニティセンター前","province":"東京都","city":"三鷹市","address":"東京都三鷹市下連雀4丁目14-19","lat":35.69271965,"lon":139.56152222},{"name":"牟礼一丁目","province":"東京都","city":"三鷹市","address":"東京都三鷹市牟礼1丁目16-12","lat":35.68568486,"lon":139.58605641},{"name":"三鷹市役所前","province":"東京都","city":"三鷹市","address":"東京都三鷹市下連雀9丁目11-7","lat":35.68428441,"lon":139.56000595},{"name":"下連雀消防出張所前","province":"東京都","city":"三鷹市","address":"東京都三鷹市下連雀4丁目14-34","lat":35.69464167,"lon":139.56140272},{"name":"三鷹中央通り","province":"東京都","city":"三鷹市","address":"東京都三鷹市下連雀3丁目28-20","lat":35.69929947,"lon":139.56126644},{"name":"日産厚生園前","province":"東京都","city":"三鷹市","address":"東京都三鷹市下連雀1丁目1","lat":35.69514734,"lon":139.57113791},{"name":"井口コミュニティー・センター北","province":"東京都","city":"三鷹市","address":"東京都三鷹市井口1丁目14-36","lat":35.69443032,"lon":139.54837615},{"name":"三鷹駅南","province":"東京都","city":"三鷹市","address":"東京都三鷹市下連雀3丁目43-23","lat":35.7013131,"lon":139.55927765},{"name":"井之頭病院前","province":"東京都","city":"三鷹市","address":"東京都三鷹市上連雀2丁目6","lat":35.69894668,"lon":139.55793065},{"name":"三鷹台郵便局前","province":"東京都","city":"三鷹市","address":"東京都三鷹市井の頭2丁目9-4","lat":35.69051212,"lon":139.58683117},{"name":"禅林寺前","province":"東京都","city":"三鷹市","address":"東京都三鷹市下連雀4丁目18-20","lat":35.6938723,"lon":139.56041118},{"name":"上連雀二丁目第二","province":"東京都","city":"三鷹市","address":"東京都三鷹市下連雀3丁目44-13","lat":35.70198525,"lon":139.55926374},{"name":"三鷹農協北","province":"東京都","city":"三鷹市","address":"東京都三鷹市下連雀9丁目2-12","lat":35.68385397,"lon":139.56333623},{"name":"三鷹職安西","province":"東京都","city":"三鷹市","address":"東京都三鷹市上連雀4丁目6-8","lat":35.69514991,"lon":139.55902793},{"name":"三鷹警察署北","province":"東京都","city":"三鷹市","address":"東京都三鷹市下連雀9丁目7-2","lat":35.68725073,"lon":139.55942813},{"name":"三鷹保健所前","province":"東京都","city":"三鷹市","address":"東京都三鷹市新川6丁目37","lat":35.68159865,"lon":139.56238639},{"name":"国立天文台前","province":"東京都","city":"三鷹市","address":"東京都三鷹市大沢2丁目21","lat":35.67740148,"lon":139.53914427},{"name":"狐久保第二","province":"東京都","city":"三鷹市","address":"東京都三鷹市下連雀1丁目8-15","lat":35.69247261,"lon":139.56969091},{"name":"東京神学大学角","province":"東京都","city":"三鷹市","address":"東京都三鷹市大沢3丁目10-20","lat":35.68826128,"lon":139.53522477},{"name":"三鷹一中正門前","province":"東京都","city":"三鷹市","address":"東京都三鷹市下連雀9丁目10-1","lat":35.68538706,"lon":139.55970316},{"name":"杏林大学病院前","province":"東京都","city":"三鷹市","address":"東京都三鷹市新川6丁目21-21","lat":35.67937122,"lon":139.56690551},{"name":"三鷹市中央通りタウンプラザ","province":"東京都","city":"三鷹市","address":"東京都三鷹市下連雀3丁目32-6","lat":35.69853011,"lon":139.56100816},{"name":"三鷹市立アニメーション美術館前","province":"東京都","city":"三鷹市","address":"東京都三鷹市下連雀1丁目1-83","lat":35.69629164,"lon":139.57036571},{"name":"三鷹警察署前","province":"東京都","city":"三鷹市","address":"東京都三鷹市下連雀9丁目9-5","lat":35.68639249,"lon":139.55925873},{"name":"東京弘済園南","province":"東京都","city":"三鷹市","address":"東京都三鷹市牟礼6丁目25","lat":35.68509292,"lon":139.57267424},{"name":"下連雀五丁目南","province":"東京都","city":"三鷹市","address":"東京都三鷹市下連雀5丁目3-1","lat":35.68379022,"lon":139.56943291},{"name":"恵比寿苑前","province":"東京都","city":"三鷹市","address":"東京都三鷹市牟礼1丁目8","lat":35.68509333,"lon":139.5887951},{"name":"上連雀浄水所（西配水場）","province":"東京都","city":"三鷹市","address":"東京都三鷹市上連雀9丁目41-4","lat":35.68686727,"lon":139.55074561},{"name":"三鷹市総合保健センター","province":"東京都","city":"三鷹市","address":"東京都三鷹市新川6丁目35-28","lat":35.68242082,"lon":139.56406399},{"name":"三鷹警察署","province":"東京都","city":"三鷹市","address":"三鷹市上連雀8-2-36","lat":35.68657,"lon":139.5583},{"name":"三鷹消防署","province":"東京都","city":"三鷹市","address":"三鷹市新川6-28-14","lat":35.68289,"lon":139.566},{"name":"三鷹地区","province":"東京都","city":"三鷹市","address":"三鷹市上連雀7-4-8","lat":35.68908,"lon":139.5548},{"name":"酒井薬品（株）物流センター","province":"東京都","city":"三鷹市","address":"三鷹市野崎1-11-22","lat":35.68355,"lon":139.5539}]}