{"keyword":"緑地","data":[{"name":"新川児童公園","province":"東京都","city":"三鷹市","address":"東京都三鷹市新川6丁目26-12","lat":35.68243479,"lon":139.56806086},{"name":"東野児童公園","province":"東京都","city":"三鷹市","address":"東京都三鷹市深大寺2丁目6-8","lat":35.6895252,"lon":139.54462665},{"name":"上連雀交通公園","province":"東京都","city":"三鷹市","address":"東京都三鷹市上連雀7丁目8-13","lat":35.69329443,"lon":139.55337573},{"name":"中原児童公園","province":"東京都","city":"三鷹市","address":"東京都三鷹市中原4丁目8-36","lat":35.66482856,"lon":139.56995302},{"name":"下連雀みなみうら児童公園","province":"東京都","city":"三鷹市","address":"東京都三鷹市下連雀6丁目6-55","lat":35.68916458,"lon":139.56719125},{"name":"有三記念公園","province":"東京都","city":"三鷹市","address":"東京都三鷹市下連雀2丁目12-27","lat":35.69958011,"lon":139.56765194},{"name":"三鷹台やすらぎ児童公園","province":"東京都","city":"三鷹市","address":"東京都三鷹市井の頭1丁目10-2","lat":35.68895127,"lon":139.59028095},{"name":"北野こりす公園","province":"東京都","city":"三鷹市","address":"東京都三鷹市北野3丁目9-6","lat":35.67753287,"lon":139.58059049},{"name":"牟礼の里公園","province":"東京都","city":"三鷹市","address":"東京都三鷹市牟礼3丁目7-7","lat":35.68860664,"lon":139.58172056},{"name":"水源の森あけぼのふれあい公園","province":"東京都","city":"三鷹市","address":"東京都三鷹市上連雀5丁目16-30","lat":35.69746339,"lon":139.5520757},{"name":"中原もみじ防災公園","province":"東京都","city":"三鷹市","address":"東京都三鷹市中原1丁目10","lat":35.66155131,"lon":139.57571376},{"name":"三鷹中央防災公園","province":"東京都","city":"三鷹市","address":"東京都三鷹市新川6丁目37-1","lat":35.68171252,"lon":139.56183921},{"name":"連雀中央公園","province":"東京都","city":"三鷹市","address":"東京都三鷹市上連雀1丁目16-14-1","lat":35.70533191,"lon":139.55075882},{"name":"新川あおやぎ公園","province":"東京都","city":"三鷹市","address":"東京都三鷹市新川1丁目11-16","lat":35.66827825,"lon":139.57503577},{"name":"堀合遊歩道","province":"東京都","city":"三鷹市","address":"東京都三鷹市上連雀1丁目","lat":35.70387937,"lon":139.55448632},{"name":"下連雀バンビ児童遊園","province":"東京都","city":"三鷹市","address":"東京都三鷹市下連雀1丁目2-11","lat":35.69307257,"lon":139.57105465},{"name":"下連雀さくら児童遊園","province":"東京都","city":"三鷹市","address":"東京都三鷹市下連雀1丁目2-38","lat":35.69293092,"lon":139.57149628},{"name":"下連雀きつねくぼ児童遊園","province":"東京都","city":"三鷹市","address":"東京都三鷹市下連雀1丁目9-18","lat":35.69154771,"lon":139.56973539},{"name":"本町通り児童遊園","province":"東京都","city":"三鷹市","address":"東京都三鷹市下連雀3丁目21-31","lat":35.70017161,"lon":139.56163026},{"name":"下連雀あじさい児童遊園","province":"東京都","city":"三鷹市","address":"東京都三鷹市下連雀4丁目9-39","lat":35.69654982,"lon":139.56340802},{"name":"ひまわり児童遊園","province":"東京都","city":"三鷹市","address":"東京都三鷹市下連雀6丁目13-13","lat":35.68887013,"lon":139.56517201},{"name":"下連雀いぶき児童遊園","province":"東京都","city":"三鷹市","address":"東京都三鷹市下連雀6丁目17-18","lat":35.69120044,"lon":139.56537469},{"name":"下連雀さんりつ児童遊園","province":"東京都","city":"三鷹市","address":"東京都三鷹市下連雀8丁目3-1","lat":35.68549557,"lon":139.5684385},{"name":"下連雀つつじ児童遊園","province":"東京都","city":"三鷹市","address":"東京都三鷹市下連雀9丁目7-21","lat":35.68751185,"lon":139.5603697},{"name":"下連雀橋上都営児童遊園","province":"東京都","city":"三鷹市","address":"東京都三鷹市下連雀9丁目8-1","lat":35.68662304,"lon":139.55993644},{"name":"牟礼かおり児童遊園","province":"東京都","city":"三鷹市","address":"東京都三鷹市牟礼1丁目10-15","lat":35.68299914,"lon":139.58917848},{"name":"赤とんぼ児童遊園","province":"東京都","city":"三鷹市","address":"東京都三鷹市牟礼2丁目14-10","lat":35.68510427,"lon":139.58254006},{"name":"牟礼下本宿児童遊園","province":"東京都","city":"三鷹市","address":"東京都三鷹市牟礼2丁目16-10","lat":35.68306013,"lon":139.58523157},{"name":"森の児童遊園","province":"東京都","city":"三鷹市","address":"東京都三鷹市牟礼4丁目22-41","lat":35.69531126,"lon":139.57337658},{"name":"西牟礼児童遊園","province":"東京都","city":"三鷹市","address":"東京都三鷹市牟礼6丁目1-2","lat":35.68747337,"lon":139.57886529},{"name":"牟礼児童遊園","province":"東京都","city":"三鷹市","address":"東京都三鷹市牟礼6丁目6-1","lat":35.68644839,"lon":139.57529341},{"name":"牟礼けやき児童遊園","province":"東京都","city":"三鷹市","address":"東京都三鷹市牟礼6丁目23","lat":35.68768153,"lon":139.57283247},{"name":"牟礼さくら児童遊園","province":"東京都","city":"三鷹市","address":"東京都三鷹市牟礼6丁目23-6","lat":35.6873177,"lon":139.57360741},{"name":"牟礼ゆりのき児童遊園","province":"東京都","city":"三鷹市","address":"東京都三鷹市牟礼6丁目25-6","lat":35.68555676,"lon":139.57266589},{"name":"牟礼とりで児童遊園","province":"東京都","city":"三鷹市","address":"東京都三鷹市牟礼7丁目1-12","lat":35.6822878,"lon":139.57714618},{"name":"牟礼南児童遊園","province":"東京都","city":"三鷹市","address":"東京都三鷹市牟礼7丁目3-31","lat":35.68342934,"lon":139.57739612},{"name":"牟礼あおぞら児童遊園","province":"東京都","city":"三鷹市","address":"東京都三鷹市牟礼7丁目4-47","lat":35.68367926,"lon":139.57526018},{"name":"井の頭東児童遊園","province":"東京都","city":"三鷹市","address":"東京都三鷹市井の頭1丁目9-20","lat":35.68817079,"lon":139.58951437},{"name":"三鷹台児童遊園","province":"東京都","city":"三鷹市","address":"東京都三鷹市井の頭2丁目21-17","lat":35.69150083,"lon":139.58443411},{"name":"井の頭手のひら児童遊園","province":"東京都","city":"三鷹市","address":"東京都三鷹市井の頭4丁目26-12","lat":35.69903862,"lon":139.57365142},{"name":"井の頭あおば児童遊園","province":"東京都","city":"三鷹市","address":"東京都三鷹市井の頭5丁目2-38","lat":35.69306996,"lon":139.578504},{"name":"中原こぶし児童遊園","province":"東京都","city":"三鷹市","address":"東京都三鷹市中原1丁目29-17","lat":35.66639516,"lon":139.57555524},{"name":"中原くすのき児童遊園","province":"東京都","city":"三鷹市","address":"東京都三鷹市中原2丁目25-8","lat":35.66431479,"lon":139.57188066},{"name":"中原スポーツ児童遊園","province":"東京都","city":"三鷹市","address":"東京都三鷹市中原4丁目34-18","lat":35.66766698,"lon":139.56540328},{"name":"中仙川いちょう児童遊園","province":"東京都","city":"三鷹市","address":"東京都三鷹市中原4丁目34-5","lat":35.66829193,"lon":139.56638373},{"name":"中原きのみ児童遊園","province":"東京都","city":"三鷹市","address":"東京都三鷹市中原4丁目36-26","lat":35.66946952,"lon":139.56479215},{"name":"北野こまどり児童遊園","province":"東京都","city":"三鷹市","address":"東京都三鷹市北野4丁目7-20","lat":35.67083091,"lon":139.58267389},{"name":"北野児童遊園","province":"東京都","city":"三鷹市","address":"東京都三鷹市北野4丁目10-1","lat":35.67318062,"lon":139.58192942},{"name":"新川おおぞら児童遊園","province":"東京都","city":"三鷹市","address":"東京都三鷹市新川3丁目17-2","lat":35.67992124,"lon":139.57039963},{"name":"上連雀あんず児童遊園","province":"東京都","city":"三鷹市","address":"東京都三鷹市上連雀2丁目7-11","lat":35.70027708,"lon":139.55816391},{"name":"上連雀中央児童遊園","province":"東京都","city":"三鷹市","address":"東京都三鷹市上連雀4丁目13-18","lat":35.69632751,"lon":139.55698084},{"name":"上連雀七小南児童遊園","province":"東京都","city":"三鷹市","address":"東京都三鷹市上連雀7丁目6-16","lat":35.69068639,"lon":139.55413129},{"name":"上連雀通南児童遊園","province":"東京都","city":"三鷹市","address":"東京都三鷹市上連雀7丁目19-6","lat":35.68914207,"lon":139.5524065},{"name":"上連雀かりん児童遊園","province":"東京都","city":"三鷹市","address":"東京都三鷹市上連雀8丁目2-1","lat":35.68575642,"lon":139.55793943},{"name":"上連雀のぞみ児童遊園","province":"東京都","city":"三鷹市","address":"東京都三鷹市上連雀8丁目12-17","lat":35.68437043,"lon":139.5559341},{"name":"山中第２児童遊園","province":"東京都","city":"三鷹市","address":"東京都三鷹市上連雀8丁目26-10","lat":35.68684236,"lon":139.5551452},{"name":"山中第１児童遊園","province":"東京都","city":"三鷹市","address":"東京都三鷹市上連雀9丁目5-13","lat":35.6852953,"lon":139.55453142},{"name":"井口さかえ児童遊園","province":"東京都","city":"三鷹市","address":"東京都三鷹市井口3丁目3-27","lat":35.69424414,"lon":139.54438485},{"name":"井口北児童遊園","province":"東京都","city":"三鷹市","address":"東京都三鷹市井口3丁目13-2","lat":35.69613835,"lon":139.54335986},{"name":"井口新田児童遊園","province":"東京都","city":"三鷹市","address":"東京都三鷹市井口3丁目18-45","lat":35.69410237,"lon":139.5389881},{"name":"井口太陽の広場児童遊園","province":"東京都","city":"三鷹市","address":"東京都三鷹市井口4丁目12-1","lat":35.6918775,"lon":139.53355533},{"name":"深大寺の杜児童遊園","province":"東京都","city":"三鷹市","address":"東京都三鷹市深大寺1丁目11-30","lat":35.69263034,"lon":139.54041025},{"name":"野崎二小北児童遊園","province":"東京都","city":"三鷹市","address":"東京都三鷹市野崎3丁目18-12","lat":35.68651716,"lon":139.54264359},{"name":"野崎こみち児童遊園","province":"東京都","city":"三鷹市","address":"東京都三鷹市野崎4丁目3-17","lat":35.68040118,"lon":139.54235495},{"name":"大沢天神児童遊園","province":"東京都","city":"三鷹市","address":"東京都三鷹市大沢2丁目9-3","lat":35.68050938,"lon":139.53373078},{"name":"大沢あさぎり児童遊園","province":"東京都","city":"三鷹市","address":"東京都三鷹市大沢2丁目18-3","lat":35.67731802,"lon":139.53136721},{"name":"大沢しみず児童遊園","province":"東京都","city":"三鷹市","address":"東京都三鷹市大沢2丁目18-3","lat":35.67731802,"lon":139.53136721},{"name":"大沢崖の道児童遊園","province":"東京都","city":"三鷹市","address":"東京都三鷹市大沢2丁目20-26","lat":35.67411845,"lon":139.5340532},{"name":"大沢みはらし児童遊園","province":"東京都","city":"三鷹市","address":"東京都三鷹市大沢4丁目8-36","lat":35.66861639,"lon":139.54106933},{"name":"大沢れんげ児童遊園","province":"東京都","city":"三鷹市","address":"東京都三鷹市大沢4丁目13-11","lat":35.66624168,"lon":139.54070001},{"name":"大沢みずほ児童遊園","province":"東京都","city":"三鷹市","address":"東京都三鷹市大沢4丁目18-29","lat":35.66457244,"lon":139.54068062},{"name":"大沢四丁目児童遊園","province":"東京都","city":"三鷹市","address":"東京都三鷹市大沢4丁目20-25","lat":35.66616391,"lon":139.53935015},{"name":"大沢あさひ児童遊園","province":"東京都","city":"三鷹市","address":"東京都三鷹市大沢5丁目2-7","lat":35.67088275,"lon":139.53743351},{"name":"大沢八幡橋児童遊園","province":"東京都","city":"三鷹市","address":"東京都三鷹市大沢5丁目11-1","lat":35.6710105,"lon":139.53573089},{"name":"下原すみれ児童遊園","province":"東京都","city":"三鷹市","address":"東京都三鷹市大沢5丁目16-18","lat":35.67315747,"lon":139.53493369},{"name":"大沢わかくさ児童遊園","province":"東京都","city":"三鷹市","address":"東京都三鷹市大沢5丁目19-19","lat":35.67389344,"lon":139.53270608},{"name":"大沢せせらぎ児童遊園","province":"東京都","city":"三鷹市","address":"東京都三鷹市大沢6丁目10-4","lat":35.67674027,"lon":139.53007288},{"name":"大沢宿児童遊園","province":"東京都","city":"三鷹市","address":"東京都三鷹市大沢6丁目6-1","lat":35.67819558,"lon":139.52711752},{"name":"大沢飛橋児童遊園","province":"東京都","city":"三鷹市","address":"東京都三鷹市大沢6丁目12-6","lat":35.67606259,"lon":139.53053954},{"name":"牟礼古判塚青少年広場","province":"東京都","city":"三鷹市","address":"東京都三鷹市牟礼7丁目1-35","lat":35.6818017,"lon":139.57576576},{"name":"中原青少年広場","province":"東京都","city":"三鷹市","address":"東京都三鷹市中原4丁目17-19","lat":35.66974733,"lon":139.56721138},{"name":"大沢青少年広場（野崎三丁目公園）","province":"東京都","city":"三鷹市","address":"東京都三鷹市野崎3丁目27-30","lat":35.68367576,"lon":139.53978286},{"name":"花と緑の広場","province":"東京都","city":"三鷹市","address":"東京都三鷹市牟礼1丁目11-26","lat":35.68296302,"lon":139.58858687},{"name":"三鷹台暫定開放広場","province":"東京都","city":"三鷹市","address":"東京都三鷹市牟礼3丁目9","lat":35.68880102,"lon":139.58001237},{"name":"野崎三丁目広場（二中北）","province":"東京都","city":"三鷹市","address":"東京都三鷹市野崎3丁目2-18","lat":35.68768929,"lon":139.54469892},{"name":"下連雀一丁目10番緑地","province":"東京都","city":"三鷹市","address":"東京都三鷹市下連雀1丁目10-17","lat":35.69174767,"lon":139.56852438},{"name":"下連雀四丁目８番緑地","province":"東京都","city":"三鷹市","address":"東京都三鷹市下連雀4丁目8-2","lat":35.69426675,"lon":139.56352198},{"name":"下連雀八丁目２番緑地","province":"東京都","city":"三鷹市","address":"東京都三鷹市下連雀8丁目2-2","lat":35.68569829,"lon":139.56695528},{"name":"下連雀九丁目３番緑地","province":"東京都","city":"三鷹市","address":"東京都三鷹市下連雀9丁目3-13","lat":35.68500382,"lon":139.5625057},{"name":"牟礼三丁目10番緑地","province":"東京都","city":"三鷹市","address":"東京都三鷹市牟礼3丁目10-4","lat":35.68950371,"lon":139.57940128},{"name":"牟礼三丁目９番緑地","province":"東京都","city":"三鷹市","address":"東京都三鷹市牟礼3丁目9","lat":35.68880102,"lon":139.58001237},{"name":"牟礼一丁目４番緑地","province":"東京都","city":"三鷹市","address":"東京都三鷹市牟礼1丁目4-11","lat":35.68374632,"lon":139.59053945},{"name":"牟礼三丁目３番緑地","province":"東京都","city":"三鷹市","address":"東京都三鷹市牟礼3丁目3-1","lat":35.69105639,"lon":139.58243152},{"name":"牟礼五丁目８番緑地","province":"東京都","city":"三鷹市","address":"東京都三鷹市牟礼5丁目8","lat":35.68223229,"lon":139.57900991},{"name":"牟礼六丁目24番緑地２","province":"東京都","city":"三鷹市","address":"東京都三鷹市牟礼6丁目24","lat":35.68536792,"lon":139.57382414},{"name":"牟礼七丁目１番緑地","province":"東京都","city":"三鷹市","address":"東京都三鷹市牟礼7丁目1","lat":35.68211836,"lon":139.5766129},{"name":"井の頭一丁目1364番緑地","province":"東京都","city":"三鷹市","address":"東京都三鷹市井の頭1丁目7-19","lat":35.68638214,"lon":139.59088656},{"name":"井の頭五丁目３番緑地","province":"東京都","city":"三鷹市","address":"東京都三鷹市井の頭5丁目3-32","lat":35.69380046,"lon":139.57965388},{"name":"井の頭五丁目17番緑地","province":"東京都","city":"三鷹市","address":"東京都三鷹市井の頭5丁目17-29","lat":35.69698051,"lon":139.573071},{"name":"中原三丁目７番緑地","province":"東京都","city":"三鷹市","address":"東京都三鷹市中原3丁目7-4","lat":35.67060001,"lon":139.56726968},{"name":"中原四丁目26番緑地","province":"東京都","city":"三鷹市","address":"東京都三鷹市中原4丁目26-5","lat":35.66571448,"lon":139.56660882},{"name":"新川一丁目16番緑地","province":"東京都","city":"三鷹市","address":"東京都三鷹市新川1丁目16-21","lat":35.67256114,"lon":139.57699099},{"name":"新川三丁目13番緑地","province":"東京都","city":"三鷹市","address":"東京都三鷹市新川3丁目13-10","lat":35.68076842,"lon":139.57293549},{"name":"新川四丁目３番緑地","province":"東京都","city":"三鷹市","address":"東京都三鷹市新川4丁目3-30","lat":35.67125288,"lon":139.57408018},{"name":"上連雀四丁目13番緑地","province":"東京都","city":"三鷹市","address":"東京都三鷹市上連雀4丁目13-19","lat":35.69644694,"lon":139.55697806},{"name":"井口二丁目11番緑地","province":"東京都","city":"三鷹市","address":"東京都三鷹市井口2丁目11","lat":35.68844483,"lon":139.54765141},{"name":"井口一丁目13番緑地","province":"東京都","city":"三鷹市","address":"東京都三鷹市井口1丁目13-39","lat":35.69254997,"lon":139.5486623},{"name":"井口四丁目５番緑地","province":"東京都","city":"三鷹市","address":"東京都三鷹市井口4丁目5-28","lat":35.69456334,"lon":139.53485234},{"name":"深大寺一丁目８番緑地","province":"東京都","city":"三鷹市","address":"東京都三鷹市深大寺1丁目8-33","lat":35.69078886,"lon":139.53962706},{"name":"深大寺二丁目40番緑地","province":"東京都","city":"三鷹市","address":"東京都三鷹市深大寺2丁目40-2","lat":35.68760307,"lon":139.5383384},{"name":"野崎三丁目21番緑地","province":"東京都","city":"三鷹市","address":"東京都三鷹市野崎3丁目21-17","lat":35.68385354,"lon":139.5406911},{"name":"大沢二丁目公園（２－11番緑地）","province":"東京都","city":"三鷹市","address":"東京都三鷹市大沢2丁目11","lat":35.67702085,"lon":139.5322477},{"name":"大沢二丁目17番緑地（ホタルトイレ）","province":"東京都","city":"三鷹市","address":"東京都三鷹市大沢2丁目17-3","lat":35.67904837,"lon":139.53129771},{"name":"大沢四丁目11番緑地","province":"東京都","city":"三鷹市","address":"東京都三鷹市大沢4丁目11-17","lat":35.66732766,"lon":139.5407583},{"name":"大沢六丁目７番緑地","province":"東京都","city":"三鷹市","address":"東京都三鷹市大沢6丁目7-9","lat":35.6783928,"lon":139.52806188},{"name":"大沢六丁目11番緑地","province":"東京都","city":"三鷹市","address":"東京都三鷹市大沢6丁目11-20","lat":35.67675691,"lon":139.52923128}]}