{"keyword":"脳","data":[{"name":"社会福祉法人巣立ち会巣立ち工房","province":"東京都","city":"三鷹市","address":"東京都三鷹市下連雀4丁目17-6","lat":35.69395285,"lon":139.56107777},{"name":"社会福祉法人三鷹ひまわり会三鷹ひまわり第一共同作業所","province":"東京都","city":"三鷹市","address":"東京都三鷹市下連雀4丁目8-20","lat":35.69289466,"lon":139.56269154},{"name":"社会福祉法人三鷹ひまわり会三鷹ひまわり第二共同作業所","province":"東京都","city":"三鷹市","address":"東京都三鷹市上連雀4丁目1-8","lat":35.69715802,"lon":139.5589973},{"name":"社会福祉法人三鷹ひまわり会三鷹ひまわり第三共同作業所","province":"東京都","city":"三鷹市","address":"東京都三鷹市下連雀3丁目11-8","lat":35.69754137,"lon":139.56297191},{"name":"ＡＨＣグループ株式会社就労移行支援事業所TODAY三鷹","province":"東京都","city":"三鷹市","address":"東京都三鷹市下連雀4丁目15-38","lat":35.69644425,"lon":139.56140265},{"name":"ウェルビー株式会社ウェルビー三鷹センター","province":"東京都","city":"三鷹市","address":"東京都三鷹市下連雀3丁目32-3","lat":35.69887174,"lon":139.56074428},{"name":"社会福祉法人にじの会ワークショップハーモニー","province":"東京都","city":"三鷹市","address":"東京都三鷹市大沢1丁目1-43","lat":35.67857915,"lon":139.54100516},{"name":"社会福祉法人むうぷむうぷ舎中原","province":"東京都","city":"三鷹市","address":"東京都三鷹市牟礼7丁目5-14","lat":35.68232936,"lon":139.57319374},{"name":"株式会社東京リハビリテーションサービス生活機能型デイサービスりぶうぇる","province":"東京都","city":"三鷹市","address":"東京都三鷹市牟礼6丁目13-15","lat":35.68913974,"lon":139.57464615}]}