{"keyword":"自転車","data":[{"name":"すずかけ駐輪場","province":"東京都","city":"三鷹市","address":"東京都三鷹市下連雀3丁目16-7","lat":35.70004108,"lon":139.5625274},{"name":"つつじケ丘駐輪場","province":"東京都","city":"三鷹市","address":"東京都三鷹市中原1丁目13-9","lat":35.66225122,"lon":139.57521655},{"name":"三鷹駅南口中央駐輪場","province":"東京都","city":"三鷹市","address":"東京都三鷹市下連雀3丁目25-11","lat":35.70197695,"lon":139.56162186},{"name":"三鷹駅南口西駐輪場","province":"東京都","city":"三鷹市","address":"東京都三鷹市下連雀3丁目44-17","lat":35.70189914,"lon":139.55954427},{"name":"三鷹駅南口東駐輪場","province":"東京都","city":"三鷹市","address":"東京都三鷹市下連雀3丁目15-3","lat":35.7015548,"lon":139.56264122},{"name":"三鷹産業プラザ駐輪場","province":"東京都","city":"三鷹市","address":"東京都三鷹市下連雀3丁目38-4","lat":35.69879396,"lon":139.56022489},{"name":"上連雀二丁目駐輪場","province":"東京都","city":"三鷹市","address":"東京都三鷹市上連雀2丁目7-25","lat":35.7010631,"lon":139.55802222},{"name":"新川天神社前駐輪場","province":"東京都","city":"三鷹市","address":"東京都三鷹市新川2丁目1","lat":35.68032692,"lon":139.57763788},{"name":"赤鳥居通り駐輪場","province":"東京都","city":"三鷹市","address":"東京都三鷹市下連雀3丁目37-2","lat":35.70096593,"lon":139.56013592},{"name":"禅林寺通り第１駐輪場","province":"東京都","city":"三鷹市","address":"東京都三鷹市下連雀3丁目43-7","lat":35.70057153,"lon":139.55954155},{"name":"禅林寺通り第３駐輪場","province":"東京都","city":"三鷹市","address":"東京都三鷹市下連雀3丁目41-4","lat":35.69860786,"lon":139.55974995},{"name":"中原高架下駐輪場","province":"東京都","city":"三鷹市","address":"東京都三鷹市中原2丁目12-33","lat":35.66969187,"lon":139.57054999},{"name":"天文台下駐輪場","province":"東京都","city":"三鷹市","address":"東京都三鷹市大沢2丁目21-3","lat":35.67694319,"lon":139.53873043},{"name":"牟礼駐在所前駐輪場","province":"東京都","city":"三鷹市","address":"東京都三鷹市牟礼2丁目14","lat":35.68756783,"lon":139.5802485},{"name":"しろがね通り第２駐輪場","province":"東京都","city":"三鷹市","address":"東京都三鷹市下連雀3丁目28-9","lat":35.69952168,"lon":139.56155529},{"name":"三鷹台第１駐輪場","province":"東京都","city":"三鷹市","address":"東京都三鷹市井の頭2丁目1-19","lat":35.69272579,"lon":139.5882893},{"name":"三鷹駅南口駐輪場","province":"東京都","city":"三鷹市","address":"東京都三鷹市下連雀3丁目36-1","lat":35.70159364,"lon":139.56024978},{"name":"禅林寺通り第４駐輪場","province":"東京都","city":"三鷹市","address":"東京都三鷹市下連雀3丁目38-16","lat":35.69904671,"lon":139.56003879}]}