{"keyword":"認可","data":[{"name":"ケンパ井の頭","province":"東京都","city":"三鷹市","address":"三鷹市井の頭1-14-5","lat":35.69064,"lon":139.58954},{"name":"井の頭保育園","province":"東京都","city":"三鷹市","address":"三鷹市井の頭3-16-31","lat":35.6932,"lon":139.58057},{"name":"みたか小鳥の森保育園","province":"東京都","city":"三鷹市","address":"三鷹市井の頭5-22-8","lat":35.69447,"lon":139.57484},{"name":"にじいろ保育園三鷹牟礼","province":"東京都","city":"三鷹市","address":"三鷹市牟礼1-14-27","lat":35.68529,"lon":139.58705},{"name":"三鷹赤とんぼ保育園","province":"東京都","city":"三鷹市","address":"三鷹市牟礼3-9-3","lat":35.68871,"lon":139.57979},{"name":"牟礼の森トキ保育園","province":"東京都","city":"三鷹市","address":"三鷹市牟礼4-2-23","lat":35.69044,"lon":139.57954},{"name":"ときむれのこ保育園","province":"東京都","city":"三鷹市","address":"三鷹市牟礼4-3-14","lat":35.69178,"lon":139.57774},{"name":"ソラストみたか台保育園","province":"東京都","city":"三鷹市","address":"三鷹市牟礼5-6-7","lat":35.68309,"lon":139.58029},{"name":"みたかこころ保育園","province":"東京都","city":"三鷹市","address":"三鷹市牟礼6-2-1","lat":35.68859,"lon":139.57654},{"name":"牟礼保育園","province":"東京都","city":"三鷹市","address":"三鷹市牟礼7-4-52","lat":35.68401,"lon":139.57449},{"name":"第二小羊チャイルドセンター","province":"東京都","city":"三鷹市","address":"三鷹市北野3-10-14","lat":35.67935,"lon":139.58049},{"name":"HOPPA北野けやきの里","province":"東京都","city":"三鷹市","address":"三鷹市北野4-8-25","lat":35.67241,"lon":139.58315},{"name":"三鷹新川雲母保育園","province":"東京都","city":"三鷹市","address":"三鷹市新川3-6-6","lat":35.67796,"lon":139.57321},{"name":"新川保育園","province":"東京都","city":"三鷹市","address":"三鷹市新川5-7-2","lat":35.67542,"lon":139.57004},{"name":"にじいろ保育園三鷹新川","province":"東京都","city":"三鷹市","address":"三鷹市新川6-33-15","lat":35.68337,"lon":139.56555},{"name":"まなびの森保育園三鷹","province":"東京都","city":"三鷹市","address":"三鷹市新川6-5-15","lat":35.68262,"lon":139.56834},{"name":"こじか保育園","province":"東京都","city":"三鷹市","address":"三鷹市新川6-7-8","lat":35.67969,"lon":139.56831},{"name":"みたかつくしんぼ保育園","province":"東京都","city":"三鷹市","address":"三鷹市中原1-29-35","lat":35.66639,"lon":139.57535},{"name":"三鷹市立東台保育園","province":"東京都","city":"三鷹市","address":"三鷹市中原2-17-39","lat":35.66735,"lon":139.57179},{"name":"うれしい保育園三鷹中原","province":"東京都","city":"三鷹市","address":"三鷹市中原3-2-1","lat":35.6715,"lon":139.56891},{"name":"中原保育園","province":"東京都","city":"三鷹市","address":"三鷹市中原4-35-4-101","lat":35.66838,"lon":139.56516},{"name":"ＨＯＰＰＡたかの子","province":"東京都","city":"三鷹市","address":"三鷹市井口1-10-19","lat":35.69031,"lon":139.54971},{"name":"三鷹どろんこ保育園","province":"東京都","city":"三鷹市","address":"三鷹市井口1-23-9","lat":35.69485,"lon":139.54677},{"name":"みたいぐコスモ保育園","province":"東京都","city":"三鷹市","address":"三鷹市井口1-9-19","lat":35.69124,"lon":139.54968},{"name":"Gakkenほいくえん　三鷹","province":"東京都","city":"三鷹市","address":"三鷹市上連雀1-5-12","lat":35.70336,"lon":139.55737},{"name":"三鷹もりのこ保育園","province":"東京都","city":"三鷹市","address":"三鷹市上連雀2-16-1","lat":35.7014,"lon":139.55664},{"name":"あけぼの保育園","province":"東京都","city":"三鷹市","address":"三鷹市上連雀4-11-21","lat":35.6938,"lon":139.55766},{"name":"認定こども園　三鷹ちどりこども園","province":"東京都","city":"三鷹市","address":"三鷹市上連雀4-12-26","lat":35.6953607,"lon":139.5572403},{"name":"上連雀保育園","province":"東京都","city":"三鷹市","address":"三鷹市上連雀5-1-27","lat":35.69819,"lon":139.55403},{"name":"中央保育園","province":"東京都","city":"三鷹市","address":"三鷹市上連雀6-11-16","lat":35.69275,"lon":139.5596},{"name":"第二椎の実子供の家","province":"東京都","city":"三鷹市","address":"三鷹市上連雀6-25-31","lat":35.69178,"lon":139.55682},{"name":"キッズガーデン三鷹上連雀","province":"東京都","city":"三鷹市","address":"三鷹市上連雀6-27-4","lat":35.68987,"lon":139.55594},{"name":"山中保育園","province":"東京都","city":"三鷹市","address":"三鷹市上連雀7-19-1-100","lat":35.68926,"lon":139.55222},{"name":"にじいろ保育園三鷹下連雀","province":"東京都","city":"三鷹市","address":"三鷹市下連雀1-4-22","lat":35.69131,"lon":139.57129},{"name":"三鷹駅前保育園","province":"東京都","city":"三鷹市","address":"三鷹市下連雀3-30-12三鷹中央通りタウンプラザ2階","lat":35.69793,"lon":139.5614},{"name":"ペガサス保育園三鷹駅前","province":"東京都","city":"三鷹市","address":"三鷹市下連雀3-34-15-201","lat":35.70064,"lon":139.56068},{"name":"グローバルキッズ三鷹園","province":"東京都","city":"三鷹市","address":"三鷹市下連雀3-6-21","lat":35.69971,"lon":139.56429},{"name":"ポピンズナーサリースクール三鷹南","province":"東京都","city":"三鷹市","address":"三鷹市下連雀4-16-16","lat":35.69617,"lon":139.56088},{"name":"下連雀保育園","province":"東京都","city":"三鷹市","address":"三鷹市下連雀4-19-4","lat":35.6959,"lon":139.56024},{"name":"ポピンズナーサリースクール三鷹下連雀","province":"東京都","city":"三鷹市","address":"三鷹市下連雀5-1-1-E2","lat":35.6882,"lon":139.57179},{"name":"弘済保育所　おひさま保育園","province":"東京都","city":"三鷹市","address":"三鷹市下連雀5-2-5","lat":35.68725,"lon":139.57166},{"name":"南浦東保育園","province":"東京都","city":"三鷹市","address":"三鷹市下連雀6-12-1","lat":35.68769,"lon":139.56479},{"name":"三鷹南浦西保育園","province":"東京都","city":"三鷹市","address":"三鷹市下連雀7-2-1","lat":35.68931,"lon":139.56358},{"name":"あかね保育園","province":"東京都","city":"三鷹市","address":"三鷹市下連雀7-6-18","lat":35.6915,"lon":139.56334},{"name":"三鷹ちしろの木保育園","province":"東京都","city":"三鷹市","address":"三鷹市野崎2-11-7","lat":35.68387,"lon":139.54659},{"name":"野崎保育園","province":"東京都","city":"三鷹市","address":"三鷹市野崎3-12-11","lat":35.6856,"lon":139.54341},{"name":"三鷹市立大沢台保育園","province":"東京都","city":"三鷹市","address":"三鷹市大沢2-2-52","lat":35.68069,"lon":139.53706},{"name":"椎の実子供の家","province":"東京都","city":"三鷹市","address":"三鷹市大沢4-8-8","lat":35.6694,"lon":139.54019},{"name":"三鷹西野保育園","province":"東京都","city":"三鷹市","address":"三鷹市深大寺3-3-10","lat":35.69193,"lon":139.53688},{"name":"京進のほいくえん ＨＯＰＰＡたかの子","province":"東京都","city":"三鷹市","address":"三鷹市井口1-10-19","lat":35.69031,"lon":139.54971},{"name":"ビーフェア北野けやきの里","province":"東京都","city":"三鷹市","address":"三鷹市北野4-8-25","lat":35.67241,"lon":139.58315},{"name":"ココファン・ナーサリー三鷹","province":"東京都","city":"三鷹市","address":"三鷹市上連雀1-5-12","lat":35.70336,"lon":139.55737},{"name":"第二小羊チャイルドセンター","province":"東京都","city":"三鷹市","address":"三鷹市北野3-10-14","lat":35.67986,"lon":139.5807},{"name":"あかね保育園","province":"東京都","city":"三鷹市","address":"三鷹市下連雀2-18-12","lat":35.69226,"lon":139.56496},{"name":"三鷹どろんこ保育園","province":"東京都","city":"三鷹市","address":"三鷹市井口1-23-9","lat":35.69486,"lon":139.54677},{"name":"南浦東保育園","province":"東京都","city":"三鷹市","address":"三鷹市下連雀6-12-1","lat":35.6877,"lon":139.56479},{"name":"にじいろ保育園三鷹下連雀","province":"東京都","city":"三鷹市","address":"三鷹市下連雀1-4-22","lat":35.69132,"lon":139.57129},{"name":"東台保育園","province":"東京都","city":"三鷹市","address":"三鷹市中原2-17-39","lat":35.66735,"lon":139.57179},{"name":"大沢台保育園","province":"東京都","city":"三鷹市","address":"三鷹市大沢2-2-52","lat":35.68069,"lon":139.53706},{"name":"井の頭保育園","province":"東京都","city":"三鷹市","address":"東京都三鷹市井の頭3丁目16-31","lat":35.69270338,"lon":139.58035108},{"name":"第二小羊チャイルドセンター（本園）","province":"東京都","city":"三鷹市","address":"東京都三鷹市北野3丁目10-14","lat":35.67982703,"lon":139.57994325},{"name":"第二小羊チャイルドセンター（分園）","province":"東京都","city":"三鷹市","address":"東京都三鷹市北野2丁目","lat":35.68115753,"lon":139.58382065},{"name":"椎の実子供の家","province":"東京都","city":"三鷹市","address":"東京都三鷹市大沢4丁目8-8","lat":35.66987733,"lon":139.53961388},{"name":"あかね保育園","province":"東京都","city":"三鷹市","address":"東京都三鷹市下連雀7丁目6-18","lat":35.69096431,"lon":139.56307768},{"name":"みたか小鳥の森保育園（本園）","province":"東京都","city":"三鷹市","address":"東京都三鷹市井の頭5丁目22-8","lat":35.69425028,"lon":139.5744432},{"name":"みたか小鳥の森保育園（分園）","province":"東京都","city":"三鷹市","address":"東京都三鷹市牟礼4丁目9-25","lat":35.69020909,"lon":139.57544326},{"name":"みたかつくしんぼ保育園","province":"東京都","city":"三鷹市","address":"東京都三鷹市中原1丁目29-35","lat":35.66717008,"lon":139.57593296},{"name":"弘済保育所(おひさま保育園)","province":"東京都","city":"三鷹市","address":"東京都三鷹市下連雀5丁目2-5","lat":35.68600112,"lon":139.57132988},{"name":"まなびの森保育園三鷹","province":"東京都","city":"三鷹市","address":"東京都三鷹市新川6丁目5-15","lat":35.68235703,"lon":139.56853582},{"name":"第二椎の実子供の家","province":"東京都","city":"三鷹市","address":"東京都三鷹市上連雀6丁目25-31","lat":35.69197243,"lon":139.55722542},{"name":"にじいろ保育園三鷹下連雀","province":"東京都","city":"三鷹市","address":"東京都三鷹市下連雀1丁目4-22","lat":35.69147828,"lon":139.57052421},{"name":"ケンパ井の頭（本園）","province":"東京都","city":"三鷹市","address":"東京都三鷹市井の頭1丁目14-5","lat":35.69066495,"lon":139.58978926},{"name":"ケンパ井の頭（分園）","province":"東京都","city":"三鷹市","address":"東京都三鷹市井の頭1丁目31-22","lat":35.69189815,"lon":139.58950591},{"name":"ポピンズナーサリースクール三鷹南","province":"東京都","city":"三鷹市","address":"東京都三鷹市下連雀4丁目16-16","lat":35.69551379,"lon":139.56101661},{"name":"三鷹もりのこ保育園","province":"東京都","city":"三鷹市","address":"東京都三鷹市上連雀2丁目16-1","lat":35.70223517,"lon":139.55681673},{"name":"にじいろ保育園三鷹新川","province":"東京都","city":"三鷹市","address":"東京都三鷹市新川6丁目33-15","lat":35.68347905,"lon":139.56495832},{"name":"にじいろ保育園三鷹牟礼","province":"東京都","city":"三鷹市","address":"東京都三鷹市牟礼1丁目14-27","lat":35.68555158,"lon":139.58764518},{"name":"牟礼の森トキ保育園（本園）","province":"東京都","city":"三鷹市","address":"東京都三鷹市牟礼4丁目2-23","lat":35.69101742,"lon":139.57895682},{"name":"牟礼の森トキ保育園（分園）","province":"東京都","city":"三鷹市","address":"東京都三鷹市牟礼4丁目2-19","lat":35.69061191,"lon":139.57869575},{"name":"三鷹どろんこ保育園","province":"東京都","city":"三鷹市","address":"東京都三鷹市井口1丁目23-9","lat":35.69357482,"lon":139.54668466},{"name":"グローバルキッズ三鷹園","province":"東京都","city":"三鷹市","address":"東京都三鷹市下連雀3丁目6-21","lat":35.69851351,"lon":139.56442728},{"name":"三鷹ちしろの木保育園","province":"東京都","city":"三鷹市","address":"東京都三鷹市野崎2丁目11-7","lat":35.68411474,"lon":139.54772654},{"name":"キッズガーデン上連雀","province":"東京都","city":"三鷹市","address":"東京都三鷹市上連雀6丁目27-4","lat":35.69045311,"lon":139.55607001},{"name":"Gakkenほいくえん三鷹","province":"東京都","city":"三鷹市","address":"東京都三鷹市上連雀1丁目5-12","lat":35.70294065,"lon":139.557275},{"name":"みたいぐコスモ保育園","province":"東京都","city":"三鷹市","address":"東京都三鷹市井口1丁目9-19","lat":35.69140568,"lon":139.55033162},{"name":"三鷹新川雲母保育園","province":"東京都","city":"三鷹市","address":"東京都三鷹市新川3丁目6-6","lat":35.67771045,"lon":139.57349388},{"name":"ソラストみたか台保育園","province":"東京都","city":"三鷹市","address":"東京都三鷹市牟礼5丁目6-7","lat":35.68288225,"lon":139.58023756},{"name":"HOPPA北野けやきの里","province":"東京都","city":"三鷹市","address":"東京都三鷹市北野4丁目8-25","lat":35.6728029,"lon":139.58239329},{"name":"ポピンズナーサリースクール三鷹下連雀","province":"東京都","city":"三鷹市","address":"東京都三鷹市下連雀5丁目1-1","lat":35.68915355,"lon":139.57150475},{"name":"みたかこころ保育園","province":"東京都","city":"三鷹市","address":"東京都三鷹市牟礼6丁目2-1","lat":35.68850376,"lon":139.57710151},{"name":"うれしい保育園三鷹中原","province":"東京都","city":"三鷹市","address":"東京都三鷹市中原3丁目2-1","lat":35.6717805,"lon":139.57008051},{"name":"ときむれのこ保育園","province":"東京都","city":"三鷹市","address":"東京都三鷹市牟礼4丁目3-14","lat":35.69117571,"lon":139.5782291},{"name":"アイム保育園","province":"東京都","city":"三鷹市","address":"東京都三鷹市上連雀2丁目8-20","lat":35.70200189,"lon":139.5583777},{"name":"ことぶき保育園【A型】","province":"東京都","city":"三鷹市","address":"東京都三鷹市野崎2丁目11-12","lat":35.68406196,"lon":139.54681552},{"name":"小野寺家庭保育室","province":"東京都","city":"三鷹市","address":"東京都三鷹市新川1丁目14-11","lat":35.67072245,"lon":139.57650777},{"name":"蒲生家庭保育室","province":"東京都","city":"三鷹市","address":"東京都三鷹市上連雀3丁目13-4","lat":35.70016862,"lon":139.55109234},{"name":"家庭保育室いずみ保育園","province":"東京都","city":"三鷹市","address":"東京都三鷹市大沢3丁目5-4","lat":35.68170645,"lon":139.53350853},{"name":"こもれび家庭的グループ保育室イデオ","province":"東京都","city":"三鷹市","address":"東京都三鷹市新川1丁目15-1","lat":35.67189176,"lon":139.57672992}]}