{"keyword":"連絡","data":[{"name":"安心見守り電話","province":"東京都","city":"三鷹市","address":"三鷹市野崎1-1-1","lat":35.683262,"lon":139.559418},{"name":"三鷹市高齢者支援課高齢者相談係","province":"東京都","city":"三鷹市","address":"三鷹市野崎1-1-1","lat":35.683262,"lon":139.559418},{"name":"三鷹市東部地域包括支援センター","province":"東京都","city":"三鷹市","address":"三鷹市下連雀5-2-5特別養護老人ホーム弘済園1階","lat":35.685867,"lon":139.571869},{"name":"三鷹市井の頭地域包括支援センター","province":"東京都","city":"三鷹市","address":"三鷹市牟礼6-12-30三鷹市牟礼老人保健施設はなかいどう内","lat":35.687645,"lon":139.574585},{"name":"井の頭地域福祉支援センター","province":"東京都","city":"三鷹市","address":"三鷹市井の頭2-32-30井の頭コミュニティ・センター新館内","lat":35.693962,"lon":139.583344},{"name":"三鷹市連雀地域包括支援センター","province":"東京都","city":"三鷹市","address":"三鷹市下連雀8-3-6野村病院内","lat":35.684921,"lon":139.568466},{"name":"三鷹市三鷹駅周辺地域包括支援センター","province":"東京都","city":"三鷹市","address":"三鷹市下連雀4-2-8介護老人保健施設太郎内","lat":35.693394,"lon":139.56485},{"name":"三鷹市西部地域包括支援センター","province":"東京都","city":"三鷹市","address":"三鷹市深大寺2-29-13高齢者センターけやき苑内","lat":35.684795,"lon":139.541},{"name":"三鷹市大沢地域包括支援センター","province":"東京都","city":"三鷹市","address":"三鷹市大沢4-8-8旧どんぐり山施設内","lat":35.670273,"lon":139.540161},{"name":"三鷹市新川中原地域包括支援センター","province":"東京都","city":"三鷹市","address":"三鷹市新川5-6-31特別養護老人ホームみたか紫水園内","lat":35.676071,"lon":139.571152},{"name":"三鷹市消費者活動センター","province":"東京都","city":"三鷹市","address":"三鷹市下連雀3丁目22-7","lat":35.700787,"lon":139.563644}]}