{"keyword":"館","data":[{"name":"東多世代交流センター","province":"東京都","city":"三鷹市","address":"三鷹市牟礼2-13-19","lat":35.684254,"lon":139.584648},{"name":"西多世代交流センター","province":"東京都","city":"三鷹市","address":"三鷹市深大寺2-3-5","lat":35.688639,"lon":139.545152},{"name":"東多世代交流センター","province":"東京都","city":"三鷹市","address":"三鷹市牟礼2-13-19","lat":35.68499,"lon":139.58371},{"name":"西多世代交流センター","province":"東京都","city":"三鷹市","address":"三鷹市深大寺2-3-5","lat":35.68876,"lon":139.54472},{"name":"＊?西部図書館","province":"東京都","city":"三鷹市","address":"三鷹市大沢2-6-47","lat":35.680978,"lon":139.535786},{"name":"＊?三鷹図書館","province":"東京都","city":"三鷹市","address":"三鷹市上連雀8-3-3","lat":35.685261,"lon":139.558091},{"name":"下連雀図書館（閉館）","province":"東京都","city":"三鷹市","address":"三鷹市下連雀6-13-13","lat":35.688813,"lon":139.565334},{"name":"＊?東部図書館","province":"東京都","city":"三鷹市","address":"三鷹市牟礼5-8-16","lat":35.68275,"lon":139.578649},{"name":"＊?三鷹駅前図書館","province":"東京都","city":"三鷹市","address":"三鷹市下連雀3-13-10","lat":35.69952,"lon":139.563068},{"name":"＊?南部図書館みんなみ","province":"東京都","city":"三鷹市","address":"三鷹市新川5-14-16","lat":35.675223,"lon":139.568624}]}