{"keyword":"産業","data":[{"name":"産業研修センター","province":"","city":"","address":"橋場1丁目36番2号","lat":35.72393507,"lon":139.8082731},{"name":"都立産業貿易センター台東館","province":"","city":"","address":"花川戸2丁目6番5号","lat":35.71432465,"lon":139.7988729},{"name":"台東区シルバー人材センター","province":"","city":"","address":"小島1丁目5番5号小島ビル1階","lat":35.70420532,"lon":139.781655},{"name":"ハローワーク上野","province":"","city":"","address":"東上野4丁目1番2号","lat":35.71195452,"lon":139.7804346},{"name":"玉姫労働出張所","province":"","city":"","address":"清川2丁目23番2号","lat":35.72730425,"lon":139.8049129},{"name":"上野労働基準監督署","province":"","city":"","address":"池之端1丁目2番22号上野合同庁舎","lat":35.70962441,"lon":139.7686653},{"name":"上野年金事務所","province":"","city":"","address":"池之端1丁目2番18号MG池之端ビル","lat":35.71027434,"lon":139.7684953},{"name":"浅草ものづくり工房","province":"","city":"","address":"橋場1丁目36番2号(産業研修センター)","lat":35.72393507,"lon":139.8082731},{"name":"台東区中小企業振興センター　台東デザイナーズビレッジ","province":"","city":"","address":"小島2丁目9番10号","lat":35.70609665,"lon":139.783646},{"name":"台東区中小企業振興センター　公益財団法人 台東区産業振興事業団（勤労者サービスセンター）","province":"","city":"","address":"小島2丁目9番18号","lat":35.70600108,"lon":139.7841641}]}