{"keyword":"震災","data":[{"name":"王子小学校","province":"東京都","city":"北区","address":"北区王子2-7-1","lat":35.7575939062,"lon":139.735964226},{"name":"旧桜田小学校","province":"東京都","city":"北区","address":"北区王子5-2-8","lat":35.7626249156,"lon":139.734909218},{"name":"王子第二小学校","province":"東京都","city":"北区","address":"北区王子本町2-2-5","lat":35.7562790682,"lon":139.732688556},{"name":"王子第三小学校","province":"東京都","city":"北区","address":"北区上十条5-2-3","lat":35.7654654206,"lon":139.71794509},{"name":"王子第五小学校","province":"東京都","city":"北区","address":"北区上十条2-18-17","lat":35.7595056693,"lon":139.719244833},{"name":"荒川小学校","province":"東京都","city":"北区","address":"北区中十条3-1-6","lat":35.7633925789,"lon":139.725663543},{"name":"豊川小学校","province":"東京都","city":"北区","address":"北区豊島3-10-23","lat":35.7609590228,"lon":139.74278228},{"name":"堀船小学校","province":"東京都","city":"北区","address":"北区堀船2-11-9","lat":35.7538321851,"lon":139.746425067},{"name":"柳田小学校","province":"東京都","city":"北区","address":"北区豊島2-11-20","lat":35.7576481114,"lon":139.743962216},{"name":"東十条小学校","province":"東京都","city":"北区","address":"北区東十条3-14-23","lat":35.7660467484,"lon":139.729009651},{"name":"十条台小学校","province":"東京都","city":"北区","address":"北区中十条1-5-6","lat":35.7586649505,"lon":139.73054084},{"name":"としま若葉小学校","province":"東京都","city":"北区","address":"北区豊島5-3-30","lat":35.766130756,"lon":139.750178484},{"name":"赤羽小学校","province":"東京都","city":"北区","address":"北区赤羽1-24-6","lat":35.7806475102,"lon":139.721544131},{"name":"岩淵小学校","province":"東京都","city":"北区","address":"北区岩淵町6-6","lat":35.7845572969,"lon":139.72600738},{"name":"なでしこ小学校","province":"東京都","city":"北区","address":"北区志茂1-34-17","lat":35.777081,"lon":139.732015},{"name":"第四岩淵小学校","province":"東京都","city":"北区","address":"北区赤羽3-24-23","lat":35.7860293029,"lon":139.720659006},{"name":"梅木小学校","province":"東京都","city":"北区","address":"北区西が丘2-21-15","lat":35.7678867898,"lon":139.713887827},{"name":"神谷小学校","province":"東京都","city":"北区","address":"北区神谷2-30-5","lat":35.7721048015,"lon":139.729256375},{"name":"稲田小学校","province":"東京都","city":"北区","address":"北区赤羽南2-23-24","lat":35.773232453,"lon":139.725361554},{"name":"桐ケ丘郷小学校","province":"東京都","city":"北区","address":"北区桐ケ丘1-10-23","lat":35.7768329415,"lon":139.707163158},{"name":"袋小学校","province":"東京都","city":"北区","address":"北区赤羽北2-15-3","lat":35.7840394806,"lon":139.705759061},{"name":"八幡小学校","province":"東京都","city":"北区","address":"北区赤羽台3-18-5","lat":35.7808970532,"lon":139.714291644},{"name":"浮間小学校","province":"東京都","city":"北区","address":"北区浮間3-4-27","lat":35.7858416507,"lon":139.700528812},{"name":"西浮間小学校","province":"東京都","city":"北区","address":"北区浮間2-7-1","lat":35.7926503882,"lon":139.699207771},{"name":"赤羽台西小学校","province":"東京都","city":"北区","address":"北区赤羽台2-1-34","lat":35.7751742524,"lon":139.713617874},{"name":"西が丘小学校","province":"東京都","city":"北区","address":"北区十条仲原4-5-17","lat":35.7699183746,"lon":139.721294622},{"name":"滝野川小学校","province":"東京都","city":"北区","address":"北区西ケ原1-18-10","lat":35.7424994729,"lon":139.748073633},{"name":"滝野川第二小学校","province":"東京都","city":"北区","address":"北区滝野川6-19-4","lat":35.7448480068,"lon":139.726349646},{"name":"滝野川第三小学校","province":"東京都","city":"北区","address":"北区滝野川1-12-27","lat":35.7484395135,"lon":139.736657728},{"name":"滝野川第四小学校","province":"東京都","city":"北区","address":"北区東田端2-5-23","lat":35.7402950347,"lon":139.762320482},{"name":"滝野川第五小学校","province":"東京都","city":"北区","address":"北区昭和町3-3-12","lat":35.749564758,"lon":139.749601204},{"name":"西ケ原小学校","province":"東京都","city":"北区","address":"北区西ケ原4-19-21","lat":35.7431938169,"lon":139.736911521},{"name":"谷端小学校","province":"東京都","city":"北区","address":"北区滝野川7-12-17","lat":35.7447684157,"lon":139.721585354},{"name":"田端小学校","province":"東京都","city":"北区","address":"北区田端5-4-1","lat":35.737211597,"lon":139.756870466},{"name":"滝野川もみじ小学校","province":"東京都","city":"北区","address":"北区滝野川3-72-1","lat":35.7509667638,"lon":139.728456719},{"name":"王子桜中学校","province":"東京都","city":"北区","address":"北区王子2-7-1","lat":35.7586597665,"lon":139.735103361},{"name":"十条富士見中学校","province":"東京都","city":"北区","address":"北区十条台1-9-33","lat":35.7575368936,"lon":139.723085398},{"name":"明桜中学校","province":"東京都","city":"北区","address":"北区王子6-3-23","lat":35.7598749069,"lon":139.741558336},{"name":"堀船中学校","province":"東京都","city":"北区","address":"北区堀船2-23-20","lat":35.7555601121,"lon":139.746849054},{"name":"稲付中学校","province":"東京都","city":"北区","address":"北区赤羽西6-1-4","lat":35.7704776,"lon":139.70802},{"name":"赤羽岩淵中学校","province":"東京都","city":"北区","address":"北区赤羽2-6-18","lat":35.7794113288,"lon":139.726107376},{"name":"桐ケ丘中学校","province":"東京都","city":"北区","address":"北区桐ケ丘2-6-11","lat":35.780181597,"lon":139.708595044},{"name":"神谷中学校","province":"東京都","city":"北区","address":"北区神谷2-46-13","lat":35.7736395032,"lon":139.729412103},{"name":"浮間中学校","province":"東京都","city":"北区","address":"北区浮間4-29-32","lat":35.7903521167,"lon":139.693095071},{"name":"田端中学校","province":"東京都","city":"北区","address":"北区田端4-17-1","lat":35.738514,"lon":139.753902},{"name":"滝野川紅葉中学校","province":"東京都","city":"北区","address":"北区滝野川5-55-8","lat":35.7500000927,"lon":139.724833963},{"name":"飛鳥中学校","province":"東京都","city":"北区","address":"北区西ケ原3-5-12","lat":35.7441634071,"lon":139.742600002},{"name":"志茂子ども交流館","province":"東京都","city":"北区","address":"北区志茂5-18-1","lat":35.7837720833,"lon":139.731553826},{"name":"ココキタ豊島北コミュニティアリーナ","province":"東京都","city":"北区","address":"北区豊島5-3-13","lat":35.764893,"lon":139.75002},{"name":"新町コミュニティアリーナ","province":"東京都","city":"北区","address":"北区田端新町2-27-17","lat":35.740221,"lon":139.768061},{"name":"北区役所滝野川分庁舎","province":"東京都","city":"北区","address":"北区滝野川2-52-10","lat":35.7512862343,"lon":139.733232205},{"name":"旧西浮間小学校","province":"東京都","city":"北区","address":"北区浮間4-29-30","lat":35.7904363,"lon":139.691532},{"name":"旧滝野川第六小学校","province":"東京都","city":"北区","address":"北区滝野川5-44-15","lat":35.748758,"lon":139.724242},{"name":"旧清至中学校","province":"東京都","city":"北区","address":"北区王子6-7-3","lat":35.7629088609,"lon":139.741303726},{"name":"旧富士見中学校","province":"東京都","city":"北区","address":"北区上十条3-1-25","lat":35.7594338237,"lon":139.71714741},{"name":"旧田端中学校","province":"東京都","city":"北区","address":"北区田端6-9-1","lat":35.741392,"lon":139.755483},{"name":"王子第一小学校（改築中）","province":"東京都","city":"北区","address":"北区王子5-14-18","lat":35.765175,"lon":139.737516},{"name":"王子小学校","province":"東京都","city":"北区","address":"北区王子2-7-1","lat":35.75759391,"lon":139.7359642},{"name":"旧桜田小学校","province":"東京都","city":"北区","address":"北区王子5-2-8","lat":35.76262492,"lon":139.7349092},{"name":"王子第二小学校","province":"東京都","city":"北区","address":"北区王子本町2-2-5","lat":35.75627907,"lon":139.7326886},{"name":"王子第三小学校","province":"東京都","city":"北区","address":"北区上十条5-2-3","lat":35.76546542,"lon":139.7179451},{"name":"王子第五小学校","province":"東京都","city":"北区","address":"北区上十条2-18-17","lat":35.75950567,"lon":139.7192448},{"name":"荒川小学校","province":"東京都","city":"北区","address":"北区中十条3-1-6","lat":35.76339258,"lon":139.7256635},{"name":"豊川小学校","province":"東京都","city":"北区","address":"北区豊島3-10-23","lat":35.76095902,"lon":139.7427823},{"name":"堀船小学校","province":"東京都","city":"北区","address":"北区堀船2-11-9","lat":35.75383219,"lon":139.7464251},{"name":"柳田小学校","province":"東京都","city":"北区","address":"北区豊島2-11-20","lat":35.75764811,"lon":139.7439622},{"name":"東十条小学校","province":"東京都","city":"北区","address":"北区東十条3-14-23","lat":35.76604675,"lon":139.7290097},{"name":"十条台小学校","province":"東京都","city":"北区","address":"北区中十条1-5-6","lat":35.75866495,"lon":139.7305408},{"name":"としま若葉小学校","province":"東京都","city":"北区","address":"北区豊島5-3-30","lat":35.76613076,"lon":139.7501785},{"name":"赤羽小学校","province":"東京都","city":"北区","address":"北区赤羽1-24-6","lat":35.78064751,"lon":139.7215441},{"name":"岩淵小学校","province":"東京都","city":"北区","address":"北区岩淵町6-6","lat":35.7845573,"lon":139.7260074},{"name":"第四岩淵小学校","province":"東京都","city":"北区","address":"北区赤羽3-24-23","lat":35.7860293,"lon":139.720659},{"name":"梅木小学校","province":"東京都","city":"北区","address":"北区西が丘2-21-15","lat":35.76788679,"lon":139.7138878},{"name":"神谷小学校","province":"東京都","city":"北区","address":"北区神谷2-30-5","lat":35.7721048,"lon":139.7292564},{"name":"稲田小学校","province":"東京都","city":"北区","address":"北区赤羽南2-23-24","lat":35.77323245,"lon":139.7253616},{"name":"桐ケ丘郷小学校","province":"東京都","city":"北区","address":"北区桐ケ丘1-10-23","lat":35.77683294,"lon":139.7071632},{"name":"袋小学校","province":"東京都","city":"北区","address":"北区赤羽北2-15-3","lat":35.78403948,"lon":139.7057591},{"name":"八幡小学校","province":"東京都","city":"北区","address":"北区赤羽台3-18-5","lat":35.78089705,"lon":139.7142916},{"name":"浮間小学校","province":"東京都","city":"北区","address":"北区浮間3-4-27","lat":35.78584165,"lon":139.7005288},{"name":"西浮間小学校","province":"東京都","city":"北区","address":"北区浮間2-7-1","lat":35.79265039,"lon":139.6992078},{"name":"赤羽台西小学校","province":"東京都","city":"北区","address":"北区赤羽台2-1-34","lat":35.77517425,"lon":139.7136179},{"name":"西が丘小学校","province":"東京都","city":"北区","address":"北区十条仲原4-5-17","lat":35.76991837,"lon":139.7212946},{"name":"滝野川小学校","province":"東京都","city":"北区","address":"北区西ケ原1-18-10","lat":35.74249947,"lon":139.7480736},{"name":"滝野川第二小学校","province":"東京都","city":"北区","address":"北区滝野川6-19-4","lat":35.74484801,"lon":139.7263496},{"name":"滝野川第三小学校","province":"東京都","city":"北区","address":"北区滝野川1-12-27","lat":35.74843951,"lon":139.7366577},{"name":"滝野川第四小学校","province":"東京都","city":"北区","address":"北区東田端2-5-23","lat":35.74029503,"lon":139.7623205},{"name":"滝野川第五小学校","province":"東京都","city":"北区","address":"北区昭和町3-3-12","lat":35.74956476,"lon":139.7496012},{"name":"西ケ原小学校","province":"東京都","city":"北区","address":"北区西ケ原4-19-21","lat":35.74319382,"lon":139.7369115},{"name":"谷端小学校","province":"東京都","city":"北区","address":"北区滝野川7-12-17","lat":35.74476842,"lon":139.7215854},{"name":"田端小学校","province":"東京都","city":"北区","address":"北区田端5-4-1","lat":35.7372116,"lon":139.7568705},{"name":"滝野川もみじ小学校","province":"東京都","city":"北区","address":"北区滝野川3-72-1","lat":35.75096676,"lon":139.7284567},{"name":"王子桜中学校","province":"東京都","city":"北区","address":"北区王子2-7-1","lat":35.75865977,"lon":139.7351034},{"name":"十条富士見中学校","province":"東京都","city":"北区","address":"北区十条台1-9-33","lat":35.75753689,"lon":139.7230854},{"name":"明桜中学校","province":"東京都","city":"北区","address":"北区王子6-3-23","lat":35.75987491,"lon":139.7415583},{"name":"堀船中学校","province":"東京都","city":"北区","address":"北区堀船2-23-20","lat":35.75556011,"lon":139.7468491},{"name":"赤羽岩淵中学校","province":"東京都","city":"北区","address":"北区赤羽2-6-18","lat":35.77941133,"lon":139.7261074},{"name":"桐ケ丘中学校","province":"東京都","city":"北区","address":"北区桐ケ丘2-6-11","lat":35.7801816,"lon":139.708595},{"name":"神谷中学校","province":"東京都","city":"北区","address":"北区神谷2-46-13","lat":35.7736395,"lon":139.7294121},{"name":"浮間中学校","province":"東京都","city":"北区","address":"北区浮間4-29-32","lat":35.79035212,"lon":139.6930951},{"name":"滝野川紅葉中学校","province":"東京都","city":"北区","address":"北区滝野川5-55-8","lat":35.75000009,"lon":139.724834},{"name":"飛鳥中学校","province":"東京都","city":"北区","address":"北区西ケ原3-5-12","lat":35.74416341,"lon":139.7426},{"name":"志茂子ども交流館","province":"東京都","city":"北区","address":"北区志茂5-18-1","lat":35.78377208,"lon":139.7315538},{"name":"北区役所滝野川分庁舎","province":"東京都","city":"北区","address":"北区滝野川2-52-10","lat":35.75128623,"lon":139.7332322},{"name":"旧清至中学校","province":"東京都","city":"北区","address":"北区王子6-7-3","lat":35.76290886,"lon":139.7413037},{"name":"旧富士見中学校","province":"東京都","city":"北区","address":"北区上十条3-1-25","lat":35.75943382,"lon":139.7171474}]}