{"keyword":"家庭","data":[{"name":"千代田区児童・家庭支援センター","province":"東京都","city":"千代田区","address":"千代田区神田司町2-16神田さくら館6階","lat":35.693178,"lon":139.768394},{"name":"中央区立子ども家庭支援センター","province":"東京都","city":"中央区","address":"中央区勝どき1-4-13階","lat":35.660368,"lon":139.777208},{"name":"港区子ども家庭支援センター","province":"東京都","city":"港区","address":"港区三田1-4-10みなと保健所2階","lat":35.654031,"lon":139.742558},{"name":"文京区子ども家庭支援センター","province":"東京都","city":"文京区","address":"文京区春日1-16-21シビックセンター5階","lat":35.707951,"lon":139.75243},{"name":"台東区日本堤子ども家庭支援センター","province":"東京都","city":"台東区","address":"台東区日本堤2-25-8","lat":35.728119,"lon":139.797423},{"name":"墨田区子育て支援総合センター","province":"東京都","city":"墨田区","address":"墨田区京島1-35-9-103マーク・ゼロワン曳舟タワー棟1階","lat":35.716722,"lon":139.819675},{"name":"江東区南砂子ども家庭支援センター","province":"東京都","city":"江東区","address":"江東区南砂3-14-1-101","lat":35.668776,"lon":139.831742},{"name":"品川区子育て支援センター","province":"東京都","city":"品川区","address":"品川区平塚2-12-2品川区立家庭あんしんセンター内","lat":35.617063,"lon":139.71282},{"name":"目黒区子ども家庭支援センター","province":"東京都","city":"目黒区","address":"目黒区上目黒2-19-15目黒区総合庁舎2階","lat":35.641262,"lon":139.69859},{"name":"大田区子ども家庭支援センター","province":"東京都","city":"大田区","address":"大田区大森北4-16-5","lat":35.58337,"lon":139.727157},{"name":"世田谷区子ども家庭支援センター　せたがや子ども家庭支援センター","province":"東京都","city":"世田谷区","address":"世田谷区世田谷4-22-33世田谷区役所第3庁舎","lat":35.646513,"lon":139.652191},{"name":"渋谷区子ども家庭支援センター","province":"東京都","city":"渋谷区","address":"渋谷区神宮前3-18-33","lat":35.670937,"lon":139.709272},{"name":"中野区子ども家庭支援センター","province":"東京都","city":"中野区","address":"中野区中野4-8-1中野区役所3階","lat":35.707287,"lon":139.66381},{"name":"杉並区子ども家庭支援センター","province":"東京都","city":"杉並区","address":"杉並区阿佐谷南1-14-8","lat":35.699774,"lon":139.63711},{"name":"豊島区東部子ども家庭支援センター","province":"東京都","city":"豊島区","address":"豊島区上池袋2-35-22","lat":35.736855,"lon":139.718254},{"name":"北区子ども家庭支援センター","province":"東京都","city":"北区","address":"北区王子2-7-34","lat":35.757611,"lon":139.736033},{"name":"荒川区子ども家庭支援センター","province":"東京都","city":"荒川区","address":"荒川区荒川5-12-10","lat":35.739549,"lon":139.778208},{"name":"板橋区子ども家庭支援センター","province":"東京都","city":"板橋区","address":"板橋区栄町36-1板橋区立グリーンホール7階","lat":35.750925,"lon":139.705202},{"name":"練馬区練馬子ども家庭支援センター","province":"東京都","city":"練馬区","address":"練馬区豊玉北6-12-1練馬区役所東庁舎4階","lat":35.735573,"lon":139.651671},{"name":"足立区こども家庭支援センターげんき","province":"東京都","city":"足立区","address":"足立区梅島3-28-8","lat":35.775666,"lon":139.792602},{"name":"葛飾区子ども総合センター","province":"東京都","city":"葛飾区","address":"葛飾区青戸4-15-14健康プラザかつしか2階","lat":35.751567,"lon":139.850589},{"name":"江戸川区子ども家庭支援センター","province":"東京都","city":"江戸川区","address":"江戸川区瑞江2-9-15","lat":35.694852,"lon":139.895996},{"name":"八王子市子ども家庭支援センター","province":"東京都","city":"八王子市","address":"八王子市東町5-6クリエイトホール地下1階","lat":35.658484,"lon":139.339958},{"name":"立川市子ども家庭支援センター","province":"東京都","city":"立川市","address":"立川市錦町3-2-26","lat":35.694258,"lon":139.419698},{"name":"武蔵野市子ども家庭支援センター","province":"東京都","city":"武蔵野市","address":"武蔵野市緑町2-2-28武蔵野市役所3階","lat":35.717836,"lon":139.565937},{"name":"三鷹市子ども家庭支援センターのびのびひろば","province":"東京都","city":"三鷹市","address":"三鷹市下連雀3-30-12三鷹市中央通りタウンプラザ3階","lat":35.698111,"lon":139.561272},{"name":"青梅市子ども家庭支援センター","province":"東京都","city":"青梅市","address":"青梅市東青梅1-11-1青梅市役所3階","lat":35.787865,"lon":139.275796},{"name":"府中市子ども家庭支援センター","province":"東京都","city":"府中市","address":"府中市宮町1-50くるる3階","lat":35.671884,"lon":139.480597},{"name":"昭島市子ども家庭支援センター","province":"東京都","city":"昭島市","address":"昭島市田中町1-17-1昭島市役所3階","lat":35.705755,"lon":139.353609},{"name":"調布市子ども家庭支援センターすこやか","province":"東京都","city":"調布市","address":"調布市国領町3-1-38ココスクエア2階","lat":35.649608,"lon":139.558644},{"name":"町田市子ども家庭支援センター","province":"東京都","city":"町田市","address":"町田市森野2-2-22町田市役所2階","lat":35.546633,"lon":139.438587},{"name":"小金井市子ども家庭支援センター","province":"東京都","city":"小金井市","address":"小金井市貫井北町5-18-18保健センター1階","lat":35.701717,"lon":139.490125},{"name":"小平市子ども家庭支援センター","province":"東京都","city":"小平市","address":"小平市小川東町4-2-1小平元気村おがわ東2階","lat":35.740151,"lon":139.474067},{"name":"日野市子ども家庭支援センター","province":"東京都","city":"日野市","address":"日野市高幡1009-4京王アンフィール高幡3階","lat":35.661017,"lon":139.414194},{"name":"東村山市子ども家庭支援センター","province":"東京都","city":"東村山市","address":"東村山市本町1-2-3いきいきプラザ3階","lat":35.754624,"lon":139.468483},{"name":"国分寺市子ども家庭支援センター","province":"東京都","city":"国分寺市","address":"国分寺市光町3-13-20","lat":35.707698,"lon":139.442757},{"name":"国立市子ども家庭支援センター","province":"東京都","city":"国立市","address":"国立市富士見台3-21-1","lat":35.685859,"lon":139.435872},{"name":"福生市子ども家庭支援センター","province":"東京都","city":"福生市","address":"福生市北田園2-5-7福生市子ども応援館1館","lat":35.734162,"lon":139.322652},{"name":"狛江市子ども家庭支援センター","province":"東京都","city":"狛江市","address":"狛江市岩戸南3-15-1岩戸児童センター2階","lat":35.629103,"lon":139.587948},{"name":"東大和市子ども家庭支援センター","province":"東京都","city":"東大和市","address":"東大和市立野1-1034-2","lat":35.744346,"lon":139.423146},{"name":"清瀬市子ども家庭支援センター","province":"東京都","city":"清瀬市","address":"清瀬市中清戸3-235-5清瀬市児童センター内","lat":35.776412,"lon":139.530649},{"name":"東久留米市子ども家庭支援センター","province":"東京都","city":"東久留米市","address":"東久留米市滝山4-3-14わくわく健康プラザ南棟2階","lat":35.742288,"lon":139.504483},{"name":"武蔵村山市子ども家庭支援センター","province":"東京都","city":"武蔵村山市","address":"武蔵村山市学園4-5-1武蔵村山市民総合センター内","lat":35.746304,"lon":139.403259},{"name":"多摩市立子育て総合センター","province":"東京都","city":"多摩市","address":"多摩市豊ヶ丘1-21-3","lat":35.627768,"lon":139.429841},{"name":"稲城市子ども家庭支援センター","province":"東京都","city":"稲城市","address":"稲城市東長沼2115-23階","lat":35.637781,"lon":139.501344},{"name":"羽村市子ども家庭支援センター","province":"東京都","city":"羽村市","address":"羽村市緑ケ丘5-2-1羽村市役所2階","lat":35.767746,"lon":139.310547},{"name":"あきる野市子ども家庭支援センター","province":"東京都","city":"あきる野市","address":"あきる野市秋川1-8あきる野ルピア2階","lat":35.730153,"lon":139.287103},{"name":"西東京市子ども家庭支援センター","province":"東京都","city":"西東京市","address":"西東京市住吉町6-15-6住吉会館1階","lat":35.744433,"lon":139.55129},{"name":"瑞穂町子ども家庭支援センター","province":"東京都","city":"西多摩郡瑞穂町","address":"瑞穂町石畑1972","lat":35.773505,"lon":139.356331},{"name":"日の出町子ども家庭支援センター","province":"東京都","city":"西多摩郡日の出町","address":"日の出町大字平井2780日の出町役場1階子育て支援福祉課内","lat":35.742114,"lon":139.257405},{"name":"檜原村子ども家庭支援センター","province":"東京都","city":"西多摩郡檜原村","address":"檜原村2717番地檜原村やすらぎの里ふれあい館内","lat":35.735393,"lon":139.143657},{"name":"奥多摩町子ども家庭支援センター","province":"東京都","city":"西多摩郡奥多摩町","address":"奥多摩町小丹波108番地","lat":35.815299,"lon":139.149302},{"name":"大島町子ども家庭支援センター","province":"東京都","city":"大島町","address":"大島町野増字大宮","lat":34.733749,"lon":139.356854},{"name":"新島村子ども家庭支援センター","province":"東京都","city":"新島村","address":"新島村本村3-12-8さわやか健康センター内","lat":34.372609,"lon":139.259704},{"name":"神津島村子ども家庭支援センター","province":"東京都","city":"神津島村","address":"神津島村902はまゆう保育園内","lat":34.205741,"lon":139.134896},{"name":"三宅村子ども家庭支援センター","province":"東京都","city":"三宅村","address":"三宅村阿古497三宅村役場内","lat":34.075946,"lon":139.479166},{"name":"御蔵島村子ども家庭支援センター","province":"東京都","city":"御蔵島村","address":"御蔵島村字入かねが沢御蔵島村役場内","lat":33.897386,"lon":139.595805},{"name":"八丈町子ども家庭支援センター","province":"東京都","city":"八丈町","address":"八丈町大賀郷2551番地2八丈町役場内","lat":33.112756,"lon":139.789059},{"name":"小笠原村子ども家庭支援センター","province":"東京都","city":"小笠原村","address":"小笠原村父島字西町小笠原村役場内","lat":27.094271,"lon":142.192063},{"name":"狛江市子ども家庭支援センター","province":"東京都","city":"狛江市","address":"狛江市元和泉2-35-1","lat":35.6334,"lon":139.567413},{"name":"千代田区立児童・家庭支援センター","province":"東京都","city":"千代田区","address":"千代田区神田司町2-16神田さくら館6階","lat":35.69305,"lon":139.76849},{"name":"中央区立子ども家庭支援センター","province":"東京都","city":"中央区","address":"中央区勝どき1-4-13階","lat":35.66024,"lon":139.77724},{"name":"港区子ども家庭支援センター","province":"東京都","city":"港区","address":"港区南青山5-7-11港区子ども家庭総合支援センター1・2・3階","lat":35.66269,"lon":139.71281},{"name":"文京区子ども家庭支援センター","province":"東京都","city":"文京区","address":"文京区春日1-16-21シビックセンター5階","lat":35.70794,"lon":139.75278},{"name":"台東区日本堤子ども家庭支援センター","province":"東京都","city":"台東区","address":"台東区日本堤2-25-8","lat":35.72813,"lon":139.79745},{"name":"墨田区子育て支援総合センター","province":"東京都","city":"墨田区","address":"墨田区京島1-35-9-103マーク・ゼロワン曳舟タワー棟1階","lat":35.71669,"lon":139.81969},{"name":"江東区南砂子ども家庭支援センター","province":"東京都","city":"江東区","address":"江東区南砂3-14-1-101","lat":35.66912,"lon":139.83186},{"name":"品川区子ども家庭支援センター","province":"東京都","city":"品川区","address":"品川区二葉1-7-15","lat":35.60878,"lon":139.72881},{"name":"目黒区子ども家庭支援センター","province":"東京都","city":"目黒区","address":"目黒区上目黒2-19-15目黒区総合庁舎6階(相談は総合庁舎別館2階)","lat":35.64108,"lon":139.69838},{"name":"大田区子ども家庭支援センター","province":"東京都","city":"大田区","address":"大田区大森北4-16-5","lat":35.58298,"lon":139.72653},{"name":"世田谷区　せたがや子ども家庭支援センター","province":"東京都","city":"世田谷区","address":"世田谷区世田谷4-22-33世田谷区役所第3庁舎内","lat":35.64657,"lon":139.65193},{"name":"渋谷区子ども家庭支援センター","province":"東京都","city":"渋谷区","address":"渋谷区宇田川町5-6","lat":35.66322,"lon":139.69783},{"name":"中野区子ども・若者支援センター","province":"東京都","city":"中野区","address":"中野区中央1-41-2","lat":35.69867,"lon":139.68387},{"name":"杉並子ども家庭支援センター","province":"東京都","city":"杉並区","address":"杉並区阿佐谷南1-14-8","lat":35.69917,"lon":139.63687},{"name":"豊島区東部子ども家庭支援センター","province":"東京都","city":"豊島区","address":"豊島区上池袋2-35-22","lat":35.73687,"lon":139.7179},{"name":"北区子ども家庭支援センター","province":"東京都","city":"北区","address":"北区王子6-7-3旧清至中学校別棟","lat":35.7632,"lon":139.74117},{"name":"練馬区子ども家庭支援センター","province":"東京都","city":"練馬区","address":"練馬区豊玉北5-28-3","lat":35.73506,"lon":139.65346},{"name":"足立区こども支援センターげんき","province":"東京都","city":"足立区","address":"足立区梅島3-28-8","lat":35.77589,"lon":139.79234},{"name":"葛飾区子ども総合センター","province":"東京都","city":"葛飾区","address":"葛飾区青戸4-15-14健康プラザかつしか2階","lat":35.75141,"lon":139.85063},{"name":"江戸川区児童相談所（はあとポート）","province":"東京都","city":"江戸川区","address":"江戸川区中央3-4-18","lat":35.71037,"lon":139.8714},{"name":"八王子市子ども家庭支援センター（クリエイト）","province":"東京都","city":"八王子市","address":"八王子市東町5-6クリエイトホール地下1階","lat":35.65856,"lon":139.3398},{"name":"立川市子ども家庭支援センター","province":"東京都","city":"立川市","address":"立川市錦町3-2-26","lat":35.69389,"lon":139.41933},{"name":"武蔵野市子ども家庭支援センター","province":"東京都","city":"武蔵野市","address":"武蔵野市緑町2-2-28武蔵野市役所3階","lat":35.71776,"lon":139.56586},{"name":"三鷹市子ども家庭支援センターりぼん","province":"東京都","city":"三鷹市","address":"三鷹市下連雀9-11-7三鷹市教育センター2階","lat":35.6842,"lon":139.55949},{"name":"青梅市こども家庭センター","province":"東京都","city":"青梅市","address":"青梅市東青梅1-174-1青梅市健康センター内","lat":35.78766,"lon":139.27274},{"name":"府中市子ども家庭支援センター「たっち」","province":"東京都","city":"府中市","address":"府中市宮町1-50くるる3階","lat":35.67155,"lon":139.48073},{"name":"府中市子育て世代包括支援センター「みらい」","province":"東京都","city":"府中市","address":"府中市宮町1-41フォーリス3階","lat":35.67078,"lon":139.47974},{"name":"昭島市子ども家庭支援センター","province":"東京都","city":"昭島市","address":"昭島市つつじが丘3-3-15アキシマエンシス校舎棟1階","lat":35.71172,"lon":139.36919},{"name":"調布市子ども家庭支援センターすこやか","province":"東京都","city":"調布市","address":"調布市国領町3-1-38ココスクエア2階","lat":35.64957,"lon":139.55869},{"name":"町田市子ども家庭支援センター","province":"東京都","city":"町田市","address":"町田市森野2-2-22町田市役所2階","lat":35.54658,"lon":139.4389},{"name":"小金井市子ども家庭支援センター","province":"東京都","city":"小金井市","address":"小金井市貫井北町5-18-18保健センター1階","lat":35.70167,"lon":139.49036},{"name":"小平市子ども家庭支援センター","province":"東京都","city":"小平市","address":"小平市小川東町4-2-1小平元気村おがわ東2階","lat":35.74061,"lon":139.47476},{"name":"日野市立子ども家庭支援センター","province":"東京都","city":"日野市","address":"日野市高幡1009-4京王アンフィール高幡3階","lat":35.66095,"lon":139.41443},{"name":"東村山市子ども家庭支援センター","province":"東京都","city":"東村山市","address":"東村山市本町1-2-3いきいきプラザ3階","lat":35.75449,"lon":139.46841},{"name":"国分寺市子ども家庭支援センター","province":"東京都","city":"国分寺市","address":"国分寺市光町3-13-20","lat":35.708,"lon":139.44296},{"name":"国立市子ども家庭支援センター","province":"東京都","city":"国立市","address":"国立市富士見台2-47-1","lat":35.68438,"lon":139.44151},{"name":"福生市子ども家庭支援センター","province":"東京都","city":"福生市","address":"福生市北田園2-5-7子ども応援館1階","lat":35.73429,"lon":139.32309},{"name":"狛江市子ども家庭支援センター","province":"東京都","city":"狛江市","address":"狛江市元和泉1-11-11ひだまりセンター1階","lat":35.63123,"lon":139.57588},{"name":"東大和市子ども家庭支援センター","province":"東京都","city":"東大和市","address":"東大和市立野1-16-1","lat":35.74454,"lon":139.42163},{"name":"清瀬市子ども家庭支援センター","province":"東京都","city":"清瀬市","address":"清瀬市中里5-842清瀬市役所北隣しあわせ未来センター内","lat":35.78591,"lon":139.52619},{"name":"東久留米市子ども家庭支援センター","province":"東京都","city":"東久留米市","address":"東久留米市滝山4-3-14わくわく健康プラザ南棟2階","lat":35.74133,"lon":139.50406},{"name":"武蔵村山市子ども家庭支援センター","province":"東京都","city":"武蔵村山市","address":"武蔵村山市学園4-5-1武蔵村山市民総合センター内","lat":35.74613,"lon":139.40326},{"name":"多摩市子ども家庭支援センター","province":"東京都","city":"多摩市","address":"多摩市豊ヶ丘1-21-3","lat":35.62764,"lon":139.42989},{"name":"稲城市子ども家庭支援センター","province":"東京都","city":"稲城市","address":"稲城市東長沼2115-23階","lat":35.63477,"lon":139.50426},{"name":"羽村市子ども家庭支援センター","province":"東京都","city":"羽村市","address":"羽村市緑ケ丘5-2-1羽村市役所2階","lat":35.76751,"lon":139.31093},{"name":"あきる野市子ども家庭支援センター","province":"東京都","city":"あきる野市","address":"あきる野市秋川1-8あきる野ルピア2階","lat":35.72998,"lon":139.28703},{"name":"西東京市子ども家庭支援センター","province":"東京都","city":"西東京市","address":"西東京市住吉町6-15-6住吉会館2階","lat":35.74402,"lon":139.55215},{"name":"瑞穂町子ども家庭支援センター","province":"東京都","city":"西多摩郡瑞穂町","address":"瑞穂町石畑1972","lat":35.77695,"lon":139.35938},{"name":"日の出町子ども家庭支援センター","province":"東京都","city":"西多摩郡日の出町","address":"日の出町大字平井2780日の出町役場1階子育て支援福祉課内","lat":35.74244,"lon":139.25661},{"name":"檜原村子ども家庭支援センター","province":"東京都","city":"西多摩郡檜原村","address":"檜原村2717番地檜原村やすらぎの里ふれあい館内","lat":35.72684,"lon":139.14885},{"name":"奥多摩町子ども家庭支援センター","province":"東京都","city":"西多摩郡奥多摩町","address":"奥多摩町小丹波108番地","lat":35.81846,"lon":139.1485},{"name":"大島町子ども家庭支援センター","province":"東京都","city":"大島町","address":"大島町元町字丸塚548-1","lat":34.76086,"lon":139.37244},{"name":"利島村子ども家庭支援センター","province":"","city":"","address":"利島村105利島村高齢者在宅サービスセンター内","lat":34.52935,"lon":139.28258},{"name":"新島村子ども家庭支援センター","province":"東京都","city":"新島村","address":"新島村本村3-12-8さわやか健康センター内","lat":34.37287,"lon":139.25946},{"name":"神津島村子ども家庭支援センター","province":"東京都","city":"神津島村","address":"神津島村902はまゆう保育園内","lat":34.20589,"lon":139.13522},{"name":"三宅村子ども家庭支援センター","province":"東京都","city":"三宅村","address":"三宅村阿古497三宅村役場内","lat":34.07613,"lon":139.47989},{"name":"御蔵島村子ども家庭支援センター","province":"東京都","city":"御蔵島村","address":"御蔵島村字入かねが沢御蔵島村役場内","lat":33.89729,"lon":139.5959},{"name":"八丈町子ども家庭支援センター","province":"東京都","city":"八丈町","address":"八丈町大賀郷2551番地2八丈町役場内","lat":33.11339,"lon":139.78926},{"name":"小笠原村子ども家庭支援センター","province":"東京都","city":"小笠原村","address":"小笠原村父島字西町小笠原村役場内","lat":27.07124,"lon":142.20961},{"name":"青梅市子ども家庭支援センター","province":"東京都","city":"青梅市","address":"青梅市東青梅1-174-1青梅市健康センター内","lat":35.78766,"lon":139.27274},{"name":"清瀬市子ども家庭支援センター","province":"東京都","city":"清瀬市","address":"清瀬市中清戸3-235-5児童センターころぽっくる内","lat":35.77712,"lon":139.53165},{"name":"千代田区児童・家庭支援センター","province":"東京都","city":"千代田区","address":"千代田区神田司町2-16神田さくら館6階","lat":35.69305,"lon":139.76849},{"name":"江戸川区子ども家庭部相談課","province":"東京都","city":"江戸川区","address":"江戸川区中央3-4-18","lat":35.71037,"lon":139.8714},{"name":"青梅市子ども家庭支援センター","province":"東京都","city":"青梅市","address":"青梅市東青梅1-11-1青梅市役所3階","lat":35.78809,"lon":139.27527},{"name":"府中市子育て世代包括支援センター「みらい」","province":"東京都","city":"府中市","address":"府中市宮町1-41フォーリス3階","lat":35.67048,"lon":139.47957},{"name":"日野市子ども家庭支援センター","province":"東京都","city":"日野市","address":"日野市高幡1009-4京王アンフィール高幡3階","lat":35.66095,"lon":139.41443},{"name":"国立市子ども家庭支援センター","province":"東京都","city":"国立市","address":"国立市富士見台3-21-1","lat":35.68588,"lon":139.43515},{"name":"世田谷区　せたがや子ども家庭支援センター","province":"東京都","city":"世田谷区","address":"世田谷区世田谷4-22-33世田谷区役所第3庁舎","lat":35.646513,"lon":139.652191},{"name":"渋谷区子ども家庭支援センター","province":"東京都","city":"渋谷区","address":"渋谷区渋谷1-18-21","lat":35.662012,"lon":139.703662},{"name":"中野区子ども家庭支援センター","province":"東京都","city":"中野区","address":"中野区新井1-9-1","lat":35.71022,"lon":139.66594},{"name":"杉並子ども家庭支援センター","province":"東京都","city":"杉並区","address":"杉並区阿佐谷南1-14-8","lat":35.699774,"lon":139.63711},{"name":"北区子ども家庭支援センター","province":"東京都","city":"北区","address":"北区王子6-7-3旧清至中学校別棟","lat":35.762653,"lon":139.740387},{"name":"練馬区子ども家庭支援センター（練馬庁舎）","province":"東京都","city":"練馬区","address":"練馬区豊玉北6-12-1練馬区役所東庁舎4階","lat":35.735573,"lon":139.651671},{"name":"足立区こども支援センターげんき","province":"東京都","city":"足立区","address":"足立区梅島3-28-8","lat":35.775666,"lon":139.792602},{"name":"江戸川区児童相談所相談課総合相談係","province":"東京都","city":"江戸川区","address":"江戸川区中央3-4-18","lat":35.71037,"lon":139.8714},{"name":"昭島市子ども家庭支援センター","province":"東京都","city":"昭島市","address":"昭島市つつじが丘3-3-15アキシマエンシス校舎棟1階","lat":35.711993,"lon":139.36948},{"name":"東大和市子ども家庭支援センター","province":"東京都","city":"東大和市","address":"東大和市立野1-16-1","lat":35.744261,"lon":139.423228},{"name":"多摩市子ども家庭支援センター","province":"東京都","city":"多摩市","address":"多摩市豊ヶ丘1-21-3","lat":35.627768,"lon":139.429841},{"name":"品川区子育て支援センター","province":"東京都","city":"品川区","address":"品川区平塚2-12-2品川区立家庭あんしんセンター内","lat":35.61694,"lon":139.71266},{"name":"世田谷区せたがや子ども家庭支援センター","province":"東京都","city":"世田谷区","address":"世田谷区世田谷4-22-33世田谷区役所第3庁舎","lat":35.64657,"lon":139.65193},{"name":"板橋区子ども家庭支援センター","province":"東京都","city":"板橋区","address":"板橋区栄町36-1板橋区立グリーンホール7階","lat":35.75082,"lon":139.70491},{"name":"練馬区練馬子ども家庭支援センター","province":"東京都","city":"練馬区","address":"練馬区豊玉北5-28-3","lat":35.73506,"lon":139.65346},{"name":"府中市子ども家庭支援センター","province":"東京都","city":"府中市","address":"府中市宮町1-50くるる3階","lat":35.67155,"lon":139.48073},{"name":"台東区日本堤子ども家庭支援センター","province":"東京都","city":"台東区","address":"台東区日本堤2-25-8","lat":35.72813,"lon":139.79746},{"name":"江東区南砂子ども家庭支援センター","province":"東京都","city":"江東区","address":"江東区南砂3-14-1-101","lat":35.66913,"lon":139.83186},{"name":"渋谷区子ども家庭支援センター","province":"東京都","city":"渋谷区","address":"渋谷区渋谷1-18-21","lat":35.66185,"lon":139.70392},{"name":"府中市子ども家庭支援センター","province":"東京都","city":"府中市","address":"府中市宮町1-50くるる3階","lat":35.67156,"lon":139.48073},{"name":"西東京市子ども家庭支援センター","province":"東京都","city":"西東京市","address":"西東京市住吉町6-15-6住吉会館1階","lat":35.74402,"lon":139.55216},{"name":"檜原村子ども家庭支援センター","province":"東京都","city":"西多摩郡檜原村","address":"檜原村2717番地檜原村やすらぎの里ふれあい館内","lat":35.72683,"lon":139.16281},{"name":"千代田区児童・家庭支援センター","province":"東京都","city":"千代田区","address":"千代田区神田司町2-16神田さくら館6階","lat":35.6865,"lon":139.73579},{"name":"港区子ども家庭支援センター","province":"東京都","city":"港区","address":"港区三田1-4-10みなと保健所2階","lat":35.65316,"lon":139.74274},{"name":"墨田区子育て支援総合センター","province":"東京都","city":"墨田区","address":"墨田区京島1-35-9-103マーク・ゼロワン曳舟タワー棟1階","lat":35.71594,"lon":139.81821},{"name":"江東区南砂子ども家庭支援センター","province":"東京都","city":"江東区","address":"江東区南砂3-14-1-101","lat":35.67975,"lon":139.79932},{"name":"世田谷区　せたがや子ども家庭支援センター","province":"東京都","city":"世田谷区","address":"世田谷区世田谷4-22-33世田谷区役所第3庁舎","lat":35.64294,"lon":139.64603},{"name":"練馬区練馬子ども家庭支援センター（練馬庁舎）","province":"東京都","city":"練馬区","address":"練馬区豊玉北5-28-3","lat":35.73506,"lon":139.65346},{"name":"武蔵野市子ども家庭支援センター","province":"東京都","city":"武蔵野市","address":"武蔵野市緑町2-2-28武蔵野市役所3階","lat":35.71735,"lon":139.56256},{"name":"昭島市子ども家庭支援センター","province":"東京都","city":"昭島市","address":"昭島市つつじが丘3-3-15アキシマエンシス校舎棟1階","lat":35.71412,"lon":139.36948},{"name":"清瀬市子ども家庭支援センター","province":"東京都","city":"清瀬市","address":"清瀬市中清戸3-235-5清瀬市児童センター内","lat":35.77867,"lon":139.53389},{"name":"東久留米市子ども家庭支援センター","province":"東京都","city":"東久留米市","address":"東久留米市滝山4-3-14わくわく健康プラザ南棟2階","lat":35.74221,"lon":139.50792},{"name":"稲城市子ども家庭支援センター","province":"東京都","city":"稲城市","address":"稲城市東長沼2115-23階(本郷分室)","lat":35.6487,"lon":139.50085},{"name":"檜原村子ども家庭支援センター","province":"東京都","city":"西多摩郡檜原村","address":"檜原村2717番地檜原村やすらぎの里ふれあい館内","lat":33.53778,"lon":130.38956},{"name":"大島町子ども家庭支援センター","province":"東京都","city":"大島町","address":"大島町野増字大宮","lat":34.7169,"lon":139.37723},{"name":"子ども家庭支援センター","province":"","city":"","address":"豊玉北5-28-3","lat":35.73495256,"lon":139.6533309},{"name":"子ども家庭支援センター（石神井）","province":"","city":"","address":"石神井町3-30-26石神井庁舎4階","lat":35.74340496,"lon":139.602759},{"name":"地域子ども家庭支援センター練馬","province":"","city":"","address":"練馬1-17-1ココネリ4階","lat":35.73808106,"lon":139.6533067},{"name":"地域子ども家庭支援センター練馬分室","province":"","city":"","address":"豊玉北5-18-12","lat":35.73708295,"lon":139.6544328},{"name":"地域子ども家庭支援センター光が丘","province":"","city":"","address":"光が丘2-9-6光が丘区民センター6階","lat":35.75923273,"lon":139.6293026},{"name":"地域子ども家庭支援センター光が丘分室","province":"","city":"","address":"光が丘5-2-5-105","lat":35.75990107,"lon":139.6269696},{"name":"地域子ども家庭支援センター貫井","province":"","city":"","address":"貫井3-25-15","lat":35.73734394,"lon":139.627298},{"name":"地域子ども家庭支援センター大泉","province":"","city":"","address":"東大泉5-35-1","lat":35.7475786,"lon":139.589807},{"name":"地域子ども家庭支援センター関","province":"","city":"","address":"関町北1-21-15","lat":35.72671867,"lon":139.5786574},{"name":"台東子ども家庭支援センター","province":"","city":"","address":"台東1丁目25番5号","lat":35.7016055,"lon":139.7779653},{"name":"日本堤子ども家庭支援センター","province":"","city":"","address":"日本堤2丁目25番8号","lat":35.72798288,"lon":139.7972618},{"name":"寿子ども家庭支援センター","province":"","city":"","address":"寿1丁目10番10号","lat":35.70702096,"lon":139.7888723},{"name":"ほうらい子育てサポートセンター","province":"","city":"","address":"清川2丁目14番7号","lat":35.72711624,"lon":139.8010964}]}