{"keyword":"食堂","data":[{"name":"みんなの食堂・スプーン","province":"東京都","city":"多摩市","address":"東京都多摩市一ノ宮1丁目18-7","lat":35.65294071,"lon":139.44278385},{"name":"だれでも食堂","province":"東京都","city":"多摩市","address":"東京都多摩市落合3丁目17-1","lat":35.61649472,"lon":139.43023356},{"name":"わくわく子ども食堂","province":"東京都","city":"多摩市","address":"東京都多摩市東寺方626-2","lat":35.64261955,"lon":139.43752912},{"name":"ハーモニーカフェ","province":"東京都","city":"多摩市","address":"東京都多摩市諏訪4丁目2","lat":35.62308931,"lon":139.45772264},{"name":"子ども食堂　ほくの家","province":"東京都","city":"多摩市","address":"東京都多摩市聖ヶ丘2丁目22-3-1","lat":35.63122424,"lon":139.4573528},{"name":"愛宕だれでも食堂","province":"東京都","city":"多摩市","address":"東京都多摩市愛宕1丁目1-1","lat":35.63468156,"lon":139.43616564},{"name":"子ども食堂　きっちん空","province":"東京都","city":"多摩市","address":"東京都多摩市貝取1丁目47-9","lat":35.62354131,"lon":139.43796871},{"name":"ピンクララタマ子ども誰でも食堂","province":"東京都","city":"多摩市","address":"東京都多摩市一ノ宮3丁目5-24","lat":35.65043268,"lon":139.44348389},{"name":"亀ハウス","province":"東京都","city":"多摩市","address":"東京都多摩市永山1丁目17-11","lat":35.63153767,"lon":139.44278463},{"name":"オリーブきっちん","province":"東京都","city":"多摩市","address":"東京都多摩市山王下1丁目13-13","lat":35.62536559,"lon":139.41969522},{"name":"こども食堂　ほっこりキッチン","province":"東京都","city":"多摩市","address":"東京都多摩市唐木田1丁目15-3","lat":35.61436937,"lon":139.40476912},{"name":"みんなのしょくどう","province":"東京都","city":"多摩市","address":"東京都多摩市馬引沢2丁目3-23","lat":35.63329051,"lon":139.45246149},{"name":"まんまるぱ～る","province":"東京都","city":"多摩市","address":"東京都多摩市一ノ宮2丁目13-25","lat":35.65113537,"lon":139.4429478},{"name":"子ども食堂　ココっと","province":"東京都","city":"多摩市","address":"東京都多摩市一ノ宮1丁目11-26","lat":35.65417109,"lon":139.44110617},{"name":"こども食堂　えんそく","province":"東京都","city":"多摩市","address":"東京都多摩市和田2006-4","lat":35.64102227,"lon":139.42740504},{"name":"メルティング・ダイニング","province":"東京都","city":"多摩市","address":"東京都多摩市永山2丁目8-1","lat":35.62744937,"lon":139.44577621},{"name":"おもてなし食堂","province":"東京都","city":"文京区","address":"東京都文京区小石川3丁目4-14","lat":35.71253894,"lon":139.74521961},{"name":"氷川下子ども食堂","province":"東京都","city":"文京区","address":"東京都文京区千石3丁目3-7","lat":35.72480123,"lon":139.73621722},{"name":"おたがいさま食堂せんごく","province":"東京都","city":"文京区","address":"東京都文京区白山2丁目13-6","lat":35.71696348,"lon":139.74601384},{"name":"文京BASE子ども食堂","province":"東京都","city":"文京区","address":"東京都文京区小石川3丁目28-14","lat":35.71350562,"lon":139.75000249},{"name":"おかえりごはん","province":"東京都","city":"文京区","address":"東京都文京区千駄木3丁目42-4","lat":35.72785754,"lon":139.76420951},{"name":"定泉寺こども食堂","province":"東京都","city":"文京区","address":"東京都文京区本駒込1丁目7-12","lat":35.72574333,"lon":139.75300194},{"name":"動坂ごはん","province":"東京都","city":"文京区","address":"東京都文京区本駒込4丁目21-7","lat":35.73209839,"lon":139.75776529},{"name":"卯めこども食堂","province":"東京都","city":"渋谷区","address":"東京都渋谷区恵比寿1丁目25-12","lat":35.64673716,"lon":139.71588036},{"name":"パール子どもテーブル活動","province":"東京都","city":"渋谷区","address":"東京都渋谷区鉢山町3-27","lat":35.65275836,"lon":139.69863162},{"name":"ミート・ザ・おやつ","province":"東京都","city":"渋谷区","address":"東京都渋谷区代官山町7-9","lat":35.65073373,"lon":139.70500339},{"name":"長谷戸生活学校子ども食堂","province":"東京都","city":"渋谷区","address":"東京都渋谷区代官山町7-9","lat":35.65073373,"lon":139.70500339},{"name":"渋谷こどもテーブルゆめとぴあ","province":"東京都","city":"渋谷区","address":"東京都渋谷区鶯谷町10-15","lat":35.65317784,"lon":139.70248406},{"name":"渋谷・長崎歴史文化情報発信塾","province":"東京都","city":"渋谷区","address":"東京都渋谷区鶯谷町10-15","lat":35.65317784,"lon":139.70248406},{"name":"くるり食堂","province":"東京都","city":"渋谷区","address":"東京都渋谷区恵比寿西1丁目7-9","lat":35.64770638,"lon":139.70876432},{"name":"リフレッシュ氷川こども食堂","province":"東京都","city":"渋谷区","address":"東京都渋谷区東1丁目26-23","lat":35.65489165,"lon":139.70737802},{"name":"美竹の丘こどもごはん","province":"東京都","city":"渋谷区","address":"東京都渋谷区渋谷1丁目18-9","lat":35.66183525,"lon":139.70455298},{"name":"渋喜屋テーブル","province":"東京都","city":"渋谷区","address":"東京都渋谷区広尾3丁目2-14","lat":35.65542504,"lon":139.71414961},{"name":"スマイルきっちんナチュレ","province":"東京都","city":"渋谷区","address":"東京都渋谷区渋谷2丁目22-7","lat":35.65841895,"lon":139.70366153},{"name":"オーガニックおおうち食堂","province":"東京都","city":"渋谷区","address":"東京都渋谷区渋谷2丁目8-4","lat":35.66048268,"lon":139.70750555},{"name":"子ども料理教室","province":"東京都","city":"渋谷区","address":"東京都渋谷区宇田川町3-10","lat":35.66255726,"lon":139.69872846},{"name":"渋谷センター街こども食堂","province":"東京都","city":"渋谷区","address":"東京都渋谷区宇田川町16-8","lat":35.66085469,"lon":139.6989785},{"name":"子ども食堂","province":"東京都","city":"渋谷区","address":"東京都渋谷区円山町28-5","lat":35.65559128,"lon":139.69434298},{"name":"上富ダイニング","province":"東京都","city":"渋谷区","address":"東京都渋谷区上原3丁目13-8","lat":35.66649521,"lon":139.67853283},{"name":"みらいこどもテーブル","province":"東京都","city":"渋谷区","address":"東京都渋谷区富ヶ谷1丁目35-23","lat":35.66753145,"lon":139.68840416},{"name":"SHIBUYAコドモとママのミライ創造プロジェクト","province":"東京都","city":"渋谷区","address":"東京都渋谷区富ヶ谷2丁目9-13","lat":35.66466785,"lon":139.68643499},{"name":"コドモ大学食育部","province":"東京都","city":"渋谷区","address":"東京都渋谷区富ヶ谷2丁目9-15","lat":35.66486505,"lon":139.68663496},{"name":"上原ファンインずっとも食堂","province":"東京都","city":"渋谷区","address":"東京都渋谷区大山町21-10","lat":35.66962806,"lon":139.67275545},{"name":"サンキューキッチン","province":"東京都","city":"渋谷区","address":"東京都渋谷区西原1丁目22-9","lat":35.67686069,"lon":139.67813526},{"name":"Mamapura Kids＆Baby","province":"東京都","city":"渋谷区","address":"東京都渋谷区西原2丁目35-1","lat":35.67506917,"lon":139.6757161},{"name":"初台キッズ食堂","province":"東京都","city":"渋谷区","address":"東京都渋谷区初台1丁目33-10","lat":35.67960221,"lon":139.68485123},{"name":"初台クラブ","province":"東京都","city":"渋谷区","address":"東京都渋谷区初台1丁目11-2","lat":35.67944116,"lon":139.68679272},{"name":"みんなのカフェ“大空”","province":"東京都","city":"渋谷区","address":"東京都渋谷区幡ヶ谷2丁目50-2","lat":35.6799242,"lon":139.677288},{"name":"いるかのテーブル","province":"東京都","city":"渋谷区","address":"東京都渋谷区幡ヶ谷3丁目66-4","lat":35.68224048,"lon":139.6722439},{"name":"wakuwakuこどもひろば","province":"東京都","city":"渋谷区","address":"東京都渋谷区幡ヶ谷3丁目70","lat":35.68130169,"lon":139.67169399},{"name":"東京西ローターアクトクラブ","province":"東京都","city":"渋谷区","address":"東京都渋谷区幡ヶ谷2丁目50-2","lat":35.6799242,"lon":139.677288},{"name":"ささはたっこ","province":"東京都","city":"渋谷区","address":"東京都渋谷区笹塚1丁目50-16","lat":35.67466631,"lon":139.67015826},{"name":"やずぴょんち","province":"東京都","city":"渋谷区","address":"東京都渋谷区幡ヶ谷2丁目50-2","lat":35.6799242,"lon":139.677288},{"name":"ささはたカフェガーデン","province":"東京都","city":"渋谷区","address":"東京都渋谷区幡ヶ谷2丁目42-15","lat":35.6779799,"lon":139.67398836},{"name":"FUNNY CURRY","province":"東京都","city":"渋谷区","address":"東京都渋谷区幡ヶ谷3丁目42-8","lat":35.68035181,"lon":139.67218565},{"name":"こども食堂ささはたさんち","province":"東京都","city":"渋谷区","address":"東京都渋谷区笹塚1丁目20-4","lat":35.67272483,"lon":139.66873069},{"name":"「どなたでも食堂～お夕ご飯の日～」","province":"東京都","city":"渋谷区","address":"東京都渋谷区千駄ヶ谷5丁目12-9","lat":35.68336062,"lon":139.70524372},{"name":"みんなの世界テーブル","province":"東京都","city":"渋谷区","address":"東京都渋谷区代々木2丁目35-1","lat":35.68415756,"lon":139.69772492},{"name":"pure meat shop｜counter こども食堂","province":"東京都","city":"渋谷区","address":"東京都渋谷区千駄ヶ谷2丁目10-6","lat":35.67590603,"lon":139.70999081},{"name":"Mama's Kitchen","province":"東京都","city":"渋谷区","address":"東京都渋谷区神宮前4丁目22-11","lat":35.66867905,"lon":139.70864956},{"name":"お花屋さんのこどもごはん","province":"東京都","city":"渋谷区","address":"東京都渋谷区千駄ヶ谷3丁目54-15","lat":35.67498104,"lon":139.70591344},{"name":"ななかい子ども食堂","province":"東京都","city":"渋谷区","address":"東京都渋谷区神宮前3丁目12-8","lat":35.66989841,"lon":139.71114095},{"name":"ひといく子ども夢テーブル","province":"東京都","city":"渋谷区","address":"東京都渋谷区神宮前6丁目10-14","lat":35.66753464,"lon":139.70520824},{"name":"Yin Urasando子ども食堂","province":"東京都","city":"渋谷区","address":"東京都渋谷区神宮前4丁目15-2","lat":35.66848188,"lon":139.71092437},{"name":"江東中学生勉強会","province":"東京都","city":"江東区","address":"東京都江東区亀戸7丁目41-16","lat":35.69678434,"lon":139.83734573},{"name":"みなみすなこども食堂","province":"東京都","city":"江東区","address":"東京都江東区南砂4丁目3-12","lat":35.67435899,"lon":139.82808635},{"name":"たつみこども食堂","province":"東京都","city":"江東区","address":"東京都江東区辰巳1丁目","lat":35.6496309,"lon":139.81057458},{"name":"もんなかこども食堂","province":"東京都","city":"江東区","address":"東京都江東区深川1丁目11-4","lat":35.67818584,"lon":139.79723216},{"name":"下町こどもダイニング","province":"東京都","city":"江東区","address":"東京都江東区東陽2丁目2-20","lat":35.66588197,"lon":139.816032},{"name":"すなまちよっちゃん家こども食堂","province":"東京都","city":"江東区","address":"東京都江東区東砂7丁目9-13","lat":35.67156517,"lon":139.84029357},{"name":"つみき子ども食堂","province":"東京都","city":"江東区","address":"東京都江東区大島7丁目41-4","lat":35.69288751,"lon":139.84268165},{"name":"こども食堂ヤミー！","province":"東京都","city":"江東区","address":"東京都江東区枝川1丁目6-18","lat":35.65735487,"lon":139.80358058},{"name":"東陽子ども食堂スマイル","province":"東京都","city":"江東区","address":"東京都江東区東陽4丁目11-1","lat":35.67238958,"lon":139.81884288},{"name":"ぼたんこども食堂","province":"東京都","city":"江東区","address":"東京都江東区牡丹3丁目6-5","lat":35.66895069,"lon":139.79786734},{"name":"無印良品東京有明こども食堂","province":"東京都","city":"江東区","address":"東京都江東区有明2丁目1-7","lat":35.63817346,"lon":139.79140457},{"name":"食育カフェEDEN","province":"東京都","city":"江東区","address":"東京都江東区豊洲5丁目","lat":35.65313015,"lon":139.79643689},{"name":"グリーンタイガーこども食堂","province":"東京都","city":"江東区","address":"東京都江東区亀戸4丁目21-18","lat":35.70244671,"lon":139.82607522},{"name":"たかもり食堂","province":"東京都","city":"江東区","address":"東京都江東区森下3丁目12-17","lat":35.68520736,"lon":139.80217961},{"name":"佐賀町パパスこども食堂","province":"東京都","city":"江東区","address":"東京都江東区佐賀1丁目16-6","lat":35.67666636,"lon":139.79121796},{"name":"フローレンスの保育園こども食堂みんつく東雲","province":"東京都","city":"江東区","address":"東京都江東区東雲2丁目1-22","lat":35.64382857,"lon":139.80148951},{"name":"深川姉御家『健康&食育』こども食堂","province":"東京都","city":"江東区","address":"東京都江東区深川2丁目6-2","lat":35.67473617,"lon":139.79632353},{"name":"すずね食堂","province":"東京都","city":"江東区","address":"東京都江東区大島4丁目16-6","lat":35.68793798,"lon":139.83117178},{"name":"ぐっち子ども食堂","province":"東京都","city":"江東区","address":"東京都江東区北砂4丁目34-2","lat":35.6766644,"lon":139.83335795},{"name":"子ども食堂りとるふぉれすと","province":"東京都","city":"江東区","address":"東京都江東区扇橋3丁目22-2","lat":35.68412697,"lon":139.82017068},{"name":"チア食堂すた～でぃあむ☆","province":"東京都","city":"江東区","address":"東京都江東区門前仲町1丁目13-12","lat":35.67340572,"lon":139.7950984},{"name":"あきしまこどもクッキング","province":"東京都","city":"昭島市","address":"東京都昭島市つつじが丘3丁目7-7","lat":35.71352901,"lon":139.36620781},{"name":"たまりば☆ぬくぬく","province":"東京都","city":"昭島市","address":"東京都昭島市松原町1丁目3-10","lat":35.71211512,"lon":139.35702252},{"name":"あおぞらみんな食堂","province":"東京都","city":"昭島市","address":"東京都昭島市郷地町2丁目20-24","lat":35.69716746,"lon":139.3854093},{"name":"あのねの会あのね食堂","province":"東京都","city":"昭島市","address":"東京都昭島市宮沢町512-13","lat":35.71400132,"lon":139.37351825},{"name":"子ども料理ひろば","province":"東京都","city":"昭島市","address":"東京都昭島市玉川町5丁目13-13","lat":35.7030138,"lon":139.37706542},{"name":"昭島子ども食堂みほりん広場","province":"東京都","city":"昭島市","address":"東京都昭島市拝島町3926-11","lat":35.72095295,"lon":139.35638069},{"name":"つり舟の子ども食堂","province":"","city":"","address":"\"東京都国立市東1-15-18\"","lat":35.69808084,"lon":139.4474999},{"name":"おいでよ。ごはんや","province":"東京都","city":"国立市","address":"東京都国立市富士見台1-17-8","lat":35.68161091,"lon":139.4472612},{"name":"カサムシカ子ども食堂","province":"東京都","city":"国立市","address":"東京都国立市中3-5-60","lat":35.68929325,"lon":139.4424981},{"name":"たまご（多孫・他孫）食堂","province":"東京都","city":"国立市","address":"東京都国立市中2-10-7","lat":35.69293411,"lon":139.4394076},{"name":"おいしいじかん","province":"東京都","city":"国立市","address":"東京都国立市富士見台2-39-1","lat":35.68761301,"lon":139.4438361},{"name":"きたまち学☆食","province":"東京都","city":"国立市","address":"東京都国立市北3-23-1","lat":35.70110454,"lon":139.4303275},{"name":"OSUSOWAKE食堂","province":"東京都","city":"国立市","address":"東京都国立市東3-18-32","lat":35.69164296,"lon":139.4547772},{"name":"ぐるぐる食堂","province":"東京都","city":"国立市","address":"東京都国立市富士見台1-8-38","lat":35.68347175,"lon":139.4490542},{"name":"ラグー","province":"東京都","city":"国立市","address":"東京都国立市中1-15-6","lat":35.69682087,"lon":139.4430095},{"name":"SOMPO流子ども食堂","province":"東京都","city":"国立市","address":"東京都国立市青柳1-21-14","lat":35.68362927,"lon":139.4256635},{"name":"くにちゃん食堂","province":"東京都","city":"国立市","address":"東京都国立市富士見台4-10-1","lat":35.68579502,"lon":139.4318817},{"name":"矢川の子がも食堂","province":"東京都","city":"国立市","address":"東京都国立市富士見台4-17-65","lat":35.68549131,"lon":139.4300278},{"name":"わいわいクッキング","province":"東京都","city":"西東京市","address":"東京都西東京市南町5丁目6-11","lat":35.72599036,"lon":139.53779505},{"name":"放課後キッチン・ごろごろ","province":"東京都","city":"西東京市","address":"東京都西東京市緑町3丁目8","lat":35.74209958,"lon":139.53754988},{"name":"やぎさわ子ども食堂","province":"東京都","city":"西東京市","address":"東京都西東京市柳沢2丁目11-13","lat":35.72471865,"lon":139.55418261},{"name":"子ども食堂　おひさまキッチン","province":"東京都","city":"西東京市","address":"東京都西東京市保谷町4丁目11-26","lat":35.7315705,"lon":139.54867444},{"name":"「木・々」　子ども食堂","province":"東京都","city":"西東京市","address":"東京都西東京市保谷町6丁目25-1","lat":35.73738938,"lon":139.55323492},{"name":"こども食堂　陽気なキッチン","province":"東京都","city":"西東京市","address":"東京都西東京市緑町2丁目1-8","lat":35.73772506,"lon":139.53613351},{"name":"浦野屋　やきとんてるてる　ひばりが丘店　子ども食堂","province":"東京都","city":"西東京市","address":"東京都西東京市ひばりが丘北4丁目2-24","lat":35.7532762,"lon":139.54437948},{"name":"こども食堂　げんき","province":"東京都","city":"西東京市","address":"東京都西東京市富士町1丁目1-1","lat":35.73536192,"lon":139.55654028},{"name":"こひつじ食堂","province":"東京都","city":"西東京市","address":"東京都西東京市住吉町6丁目14-5","lat":35.74452462,"lon":139.55197084},{"name":"ＹＬこども食堂","province":"東京都","city":"西東京市","address":"東京都西東京市ひばりが丘北1丁目7-14","lat":35.75302358,"lon":139.55014293},{"name":"こども食堂ジョイフル","province":"東京都","city":"西東京市","address":"東京都西東京市ひばりが丘北4丁目3-13","lat":35.75340399,"lon":139.54532385},{"name":"こども（おとな）食堂プネウマ","province":"東京都","city":"西東京市","address":"東京都西東京市東伏見5丁目9-6","lat":35.72270787,"lon":139.55857955},{"name":"こどもカフェ「とんのいえ」","province":"東京都","city":"西東京市","address":"東京都西東京市泉町4丁目3-21","lat":35.7429776,"lon":139.5525403},{"name":"ひばりが丘スープキッチン","province":"東京都","city":"西東京市","address":"東京都西東京市ひばりが丘2丁目12-16","lat":35.74814061,"lon":139.54047163},{"name":"こども・地域　あおぞら食堂","province":"東京都","city":"西東京市","address":"東京都西東京市向台町2丁目16-22","lat":35.72039383,"lon":139.53944241},{"name":"子ども食堂「ゆいな」","province":"東京都","city":"西東京市","address":"東京都西東京市南町5丁目1-15","lat":35.72656248,"lon":139.53607573},{"name":"むさとく こども食堂","province":"東京都","city":"西東京市","address":"東京都西東京市向台町6丁目14-2","lat":35.72251827,"lon":139.52545461},{"name":"武蔵村山子ども食堂","province":"東京都","city":"武蔵村山市","address":"東京都武蔵村山市神明4丁目17-1","lat":35.75268109,"lon":139.40421683},{"name":"まどか食堂","province":"東京都","city":"武蔵村山市","address":"東京都武蔵村山市本町3丁目40-3","lat":35.75855478,"lon":139.38152149},{"name":"\"children’s kitchenうぉーく \"","province":"東京都","city":"武蔵村山市","address":"東京都武蔵村山市学園4丁目5-1","lat":35.74627625,"lon":139.40299776},{"name":"子ども食堂ぶどうハウス","province":"東京都","city":"武蔵村山市","address":"東京都武蔵村山市中原3丁目11-6","lat":35.75835147,"lon":139.36046217},{"name":"みんなの食堂　みっつ武蔵村山","province":"東京都","city":"武蔵村山市","address":"東京都武蔵村山市大南2丁目47-14","lat":35.74071024,"lon":139.40423952},{"name":"\"SOMPOの子ども食堂 \"","province":"東京都","city":"武蔵村山市","address":"東京都武蔵村山市三ツ藤1丁目4-1","lat":35.75192504,"lon":139.38247447},{"name":"おひさまごはんの会","province":"東京都","city":"清瀬市","address":"東京都清瀬市松山3丁目12-17","lat":35.76634904,"lon":139.51394001},{"name":"おひさま松山","province":"東京都","city":"清瀬市","address":"東京都清瀬市松山3丁目13-16","lat":35.76733227,"lon":139.51460104},{"name":"清瀬旭が丘子ども食堂","province":"東京都","city":"清瀬市","address":"東京都清瀬市旭が丘1丁目278","lat":35.79331002,"lon":139.53666829},{"name":"ぽかぽか食堂＆グリーンタウン","province":"東京都","city":"清瀬市","address":"東京都清瀬市下清戸1丁目17","lat":35.7801673,"lon":139.5371598},{"name":"NPO法人 狛江子ども食堂","province":"東京都","city":"狛江市","address":"東京都狛江市和泉本町4-7-51","lat":35.64514,"lon":139.568013},{"name":"みんなの居場所","province":"東京都","city":"狛江市","address":"東京都狛江市元和泉2-35-1","lat":35.633377,"lon":139.567064},{"name":"こどもの多摩里食堂","province":"東京都","city":"狛江市","address":"東京都狛江市東和泉2-9-11","lat":35.630515,"lon":139.580245},{"name":"ごはん＋居場所 おかえり","province":"東京都","city":"狛江市","address":"東京都狛江市東和泉2-20-12-1F","lat":35.628329,"lon":139.575847},{"name":"月末食堂","province":"東京都","city":"狛江市","address":"東京都狛江市東和泉1-32-3-102","lat":35.630338,"lon":139.577365},{"name":"コスモスこども・おとな食堂","province":"東京都","city":"狛江市","address":"東京都狛江市岩戸南2-2-5","lat":35.632142,"lon":139.586058},{"name":"まちの縁側本町　夕ぐれ食堂","province":"東京都","city":"東村山市","address":"東京都東村山市本町4丁目1-8","lat":35.75253003,"lon":139.46967488},{"name":"子ども食堂　リコード","province":"東京都","city":"東村山市","address":"東京都東村山市本町3丁目9-40","lat":35.75852665,"lon":139.47114118},{"name":"ふれあいこども食堂あおば","province":"東京都","city":"東村山市","address":"東京都東村山市青葉町2丁目25-66","lat":35.76190178,"lon":139.49118376},{"name":"ふれあいこども食堂","province":"東京都","city":"東村山市","address":"東京都東村山市栄町1丁目1-18","lat":35.75056089,"lon":139.47198587},{"name":"にちよう食堂","province":"東京都","city":"東村山市","address":"東京都東村山市栄町1丁目29-34","lat":35.75251075,"lon":139.47501885},{"name":"おひさま食堂","province":"東京都","city":"東村山市","address":"東京都東村山市富士見町5丁目1-93","lat":35.7450057,"lon":139.46432568},{"name":"万福食堂","province":"東京都","city":"東村山市","address":"東京都東村山市廻田町3丁目12-6","lat":35.75761762,"lon":139.44732947},{"name":"東村山地域食堂ふたば","province":"東京都","city":"東村山市","address":"東京都東村山市野口町1丁目15-5","lat":35.76157604,"lon":139.46296959},{"name":"SOMPO流　子ども食堂（八坂）","province":"東京都","city":"東村山市","address":"東京都東村山市栄町3丁目23-1","lat":35.74535292,"lon":139.46513116},{"name":"SOMPO流　子ども食堂（萩山）","province":"東京都","city":"東村山市","address":"東京都東村山市萩山町2丁目9-46","lat":35.7402039,"lon":139.47823297},{"name":"SOMPO流　子ども食堂（久米川）","province":"東京都","city":"東村山市","address":"東京都東村山市美住町1丁目19-10","lat":35.75042437,"lon":139.45880928},{"name":"子どもたちのお弁当屋さん","province":"東京都","city":"東村山市","address":"東京都東村山市富士見町2丁目19-23","lat":35.7372534,"lon":139.45070223},{"name":"恩多こども食堂","province":"東京都","city":"東村山市","address":"東京都東村山市恩多町3丁目3-22","lat":35.753233,"lon":139.47909623},{"name":"おむすびキッチン","province":"東京都","city":"日野市","address":"東京都日野市日野本町","lat":35.67961973,"lon":139.39544242},{"name":"子ども食堂さくらちゃん","province":"東京都","city":"日野市","address":"東京都日野市大坂上","lat":35.67583389,"lon":139.38800709},{"name":"こぼし場　ななめ食堂","province":"東京都","city":"日野市","address":"東京都日野市大坂上","lat":35.67583389,"lon":139.38800709},{"name":"すみれ食堂","province":"東京都","city":"日野市","address":"東京都日野市大坂上","lat":35.67583389,"lon":139.38800709},{"name":"西平山子どもゼロえん食堂","province":"東京都","city":"日野市","address":"東京都日野市西平山","lat":35.65326655,"lon":139.36271545},{"name":"ひのたま食堂","province":"東京都","city":"日野市","address":"東京都日野市日野本町","lat":35.67961973,"lon":139.39544242},{"name":"みんなのくれよんランチ","province":"東京都","city":"日野市","address":"東京都日野市神明","lat":35.67414262,"lon":139.39710081},{"name":"食・学・活きるみんなの居場所また明日","province":"東京都","city":"小金井市","address":"東京都小金井市貫井南町4丁目14-14","lat":35.69595658,"lon":139.49450286},{"name":"子ども食堂ポム","province":"東京都","city":"小金井市","address":"東京都小金井市中町4丁目7-7","lat":35.69475988,"lon":139.50855452},{"name":"にこにこ清風食堂","province":"東京都","city":"町田市","address":"東京都町田市金井6-15-1","lat":35.57641,"lon":139.46245},{"name":"みんなでごはん","province":"東京都","city":"町田市","address":"東京都町田市小川3-2-3","lat":35.525053,"lon":139.467785},{"name":"コミュニティキッチン鶴川","province":"東京都","city":"町田市","address":"東京都町田市能ヶ谷3-2-1","lat":35.584662,"lon":139.486155},{"name":"ふくちゃん食堂","province":"東京都","city":"町田市","address":"東京都町田市野津田町38-2","lat":35.584883,"lon":139.43348},{"name":"レッツごはん","province":"東京都","city":"町田市","address":"東京都町田市真光寺2-13-20","lat":35.602697,"lon":139.468947},{"name":"おむすび食堂＆冒険遊び場おむすび","province":"東京都","city":"町田市","address":"東京都町田市玉川学園6-2-16","lat":35.568379,"lon":139.46392},{"name":"キッチン南いただきます","province":"東京都","city":"町田市","address":"東京都町田市南町田1-9-20","lat":35.522782,"lon":139.467597},{"name":"めいちゃんの活き生き食堂","province":"東京都","city":"町田市","address":"東京都町田市小山町1729-1","lat":35.595145,"lon":139.381966},{"name":"きららボナペティこども食堂","province":"東京都","city":"町田市","address":"東京都町田市忠生1-5-3","lat":35.574021,"lon":139.424938},{"name":"みんなの子ども食堂さくらんぼう","province":"東京都","city":"町田市","address":"東京都町田市小山田桜台1-20","lat":35.590656,"lon":139.402832},{"name":"みんなの食堂","province":"東京都","city":"町田市","address":"東京都町田市高ヶ坂7-28-2","lat":35.539001,"lon":139.461769},{"name":"すまいるキッチン","province":"東京都","city":"町田市","address":"東京都町田市原町田4-18-3","lat":35.543317,"lon":139.450857},{"name":"こども食堂せかい","province":"東京都","city":"町田市","address":"東京都町田市小山町1149-17","lat":35.595005,"lon":139.374568},{"name":"こども・コミュニティ食堂あいはらごはん","province":"東京都","city":"町田市","address":"東京都町田市相原町547-14","lat":35.607238,"lon":139.33948},{"name":"寺子屋ごはん","province":"東京都","city":"町田市","address":"東京都町田市成瀬台2-34-12","lat":35.549972,"lon":139.480331},{"name":"しぜんの国食堂","province":"東京都","city":"町田市","address":"東京都町田市忠生2-5-3","lat":35.578024,"lon":139.424857},{"name":"SouZoo食堂","province":"東京都","city":"町田市","address":"東京都町田市小山ヶ丘1-14-1","lat":35.595422,"lon":139.389241},{"name":"東光寺いこいの広場","province":"東京都","city":"町田市","address":"東京都町田市南成瀬8-1-14","lat":35.535156,"lon":139.486718},{"name":"みんなdeごはん","province":"東京都","city":"町田市","address":"東京都町田市三輪町392","lat":35.578271,"lon":139.499809},{"name":"緑ヶ丘こどもフリースペースごりら","province":"東京都","city":"調布市","address":"東京都調布市緑ケ丘2丁目18-49","lat":35.66934778,"lon":139.58393216},{"name":"みんな食堂「仙川スープ」","province":"東京都","city":"調布市","address":"東京都調布市仙川町1丁目19-10","lat":35.66190703,"lon":139.58617112},{"name":"坂の上のばあちゃん家","province":"東京都","city":"調布市","address":"東京都調布市入間町3丁目22-5","lat":35.64650615,"lon":139.58803264},{"name":"子ども食堂深大寺東町","province":"東京都","city":"調布市","address":"東京都調布市深大寺東町6丁目26-15","lat":35.67562424,"lon":139.5587508},{"name":"ハナこども食堂","province":"東京都","city":"調布市","address":"東京都調布市深大寺東町7丁目23-2","lat":35.67628527,"lon":139.55891188},{"name":"絵堂なかよし子ども食堂","province":"東京都","city":"調布市","address":"東京都調布市深大寺南町5丁目9","lat":35.66653636,"lon":139.55753733},{"name":"しばさき彩こども食堂","province":"東京都","city":"調布市","address":"東京都調布市柴崎1丁目64-9","lat":35.6572738,"lon":139.56494541},{"name":"さくら子育てステーション","province":"東京都","city":"調布市","address":"東京都調布市八雲台1丁目22-1","lat":35.65435444,"lon":139.55306875},{"name":"かしわの食堂（まい・夢）","province":"東京都","city":"調布市","address":"東京都調布市佐須町2丁目18-1","lat":35.65938997,"lon":139.55534612},{"name":"深大寺カフェ子ども食堂","province":"東京都","city":"調布市","address":"東京都調布市深大寺元町1丁目11-1","lat":35.66248107,"lon":139.54792163},{"name":"そらなかBASE","province":"東京都","city":"調布市","address":"東京都調布市深大寺元町1丁目11-1","lat":35.66248107,"lon":139.54792163},{"name":"まごじば","province":"東京都","city":"調布市","address":"東京都調布市国領町1丁目7-1","lat":35.65279632,"lon":139.55237724},{"name":"こくりょう子ども食堂わいわい","province":"東京都","city":"調布市","address":"東京都調布市国領町3丁目8-15","lat":35.64856666,"lon":139.56058525},{"name":"二小地区もりあげ隊","province":"東京都","city":"調布市","address":"東京都調布市国領町5丁目76-3","lat":35.64864714,"lon":139.55144724},{"name":"ウナパウザ","province":"東京都","city":"調布市","address":"東京都調布市染地3丁目8-26","lat":35.63719661,"lon":139.55749791},{"name":"みさとや子ども食堂","province":"東京都","city":"調布市","address":"東京都調布市布田2丁目2-6","lat":35.65352939,"lon":139.54781918},{"name":"ちょうふ子ども食堂","province":"東京都","city":"調布市","address":"東京都調布市布田2丁目5-4","lat":35.65335444,"lon":139.54889689},{"name":"ハッピーこども食堂","province":"東京都","city":"調布市","address":"東京都調布市布田5丁目32-3","lat":35.64607548,"lon":139.54485383},{"name":"電気通信大学こども食堂","province":"東京都","city":"調布市","address":"東京都調布市調布ケ丘1丁目5-1","lat":35.65564303,"lon":139.54430838},{"name":"こども食堂かくしょうじ","province":"東京都","city":"調布市","address":"東京都調布市富士見町1丁目35-5","lat":35.66023412,"lon":139.53743394},{"name":"富士見あおぞら子ども食堂","province":"東京都","city":"調布市","address":"東京都調布市富士見町2丁目13-5","lat":35.65921758,"lon":139.54185572},{"name":"風のテーブル","province":"東京都","city":"調布市","address":"東京都調布市上石原1丁目36-7","lat":35.65909816,"lon":139.53207068},{"name":"子ども食堂かみいしわらたんぽぽ","province":"東京都","city":"調布市","address":"東京都調布市上石原3丁目21-6","lat":35.65290458,"lon":139.52214705},{"name":"大久野みつぼし食堂","province":"東京都","city":"西多摩郡日の出町","address":"東京都西多摩郡日の出町大久野（大字）1660-1","lat":35.74360987,"lon":139.23033701},{"name":"要町あさやけ子ども食堂","province":"東京都","city":"豊島区","address":"東京都豊島区要町1丁目39-4","lat":35.73551286,"lon":139.69712289},{"name":"みんなのふくろう食堂","province":"東京都","city":"豊島区","address":"東京都豊島区東池袋1丁目44-3","lat":35.73355799,"lon":139.71442983},{"name":"たらふく子ども食堂","province":"東京都","city":"豊島区","address":"東京都豊島区上池袋3丁目10-3","lat":35.73873249,"lon":139.71793765},{"name":"かみいけ子ども食堂","province":"東京都","city":"豊島区","address":"東京都豊島区上池袋3丁目1-10","lat":35.73767431,"lon":139.71956812},{"name":"里葉こども食堂","province":"東京都","city":"豊島区","address":"東京都豊島区北大塚3丁目7-1","lat":35.73351652,"lon":139.72218474},{"name":"北大塚こども食堂・友","province":"東京都","city":"豊島区","address":"東京都豊島区北大塚3丁目34-7","lat":35.73520254,"lon":139.72671205},{"name":"OOC子ども食堂","province":"東京都","city":"豊島区","address":"東京都豊島区北大塚2丁目12-2","lat":35.73261677,"lon":139.72815093},{"name":"ちとっこテラス","province":"東京都","city":"豊島区","address":"東京都豊島区高田3丁目37-17","lat":35.71599875,"lon":139.71056698},{"name":"武尊塾","province":"東京都","city":"青梅市","address":"東京都青梅市東青梅3-22-4","lat":35.789616,"lon":139.278397},{"name":"すぺーすまゆだま","province":"東京都","city":"青梅市","address":"東京都青梅市友田町3-96-1","lat":35.772816,"lon":139.288696},{"name":"か～もくの会","province":"東京都","city":"青梅市","address":"東京都青梅市勝沼3-78","lat":35.789818,"lon":139.266708},{"name":"子どもFREE・CAFE","province":"東京都","city":"青梅市","address":"東京都青梅市勝沼3-78","lat":35.789818,"lon":139.266708},{"name":"なかま亭","province":"東京都","city":"青梅市","address":"東京都青梅市今寺4-6-25","lat":35.79657,"lon":139.299545},{"name":"どんぐりやま","province":"東京都","city":"青梅市","address":"東京都青梅市今寺3-379-8","lat":35.798805,"lon":139.298676},{"name":"ゆうやけ子ども食堂かすみ","province":"東京都","city":"青梅市","address":"東京都青梅市藤橋2-614-18","lat":35.79903,"lon":139.301941},{"name":"Kanpa cafe mio","province":"東京都","city":"青梅市","address":"東京都青梅市勝沼3-78","lat":35.789818,"lon":139.266708},{"name":"和楽倶楽部","province":"東京都","city":"青梅市","address":"東京都青梅市今井2","lat":35.805725,"lon":139.312744},{"name":"CAFE TOIRO","province":"東京都","city":"青梅市","address":"東京都青梅市野上町3-19-4","lat":35.789551,"lon":139.290253},{"name":"あおばこどもの居場所","province":"東京都","city":"府中市","address":"東京都府中市紅葉丘1丁目35","lat":35.67608155,"lon":139.51360755},{"name":"グレイスキッチン","province":"東京都","city":"府中市","address":"東京都府中市白糸台4丁目2-8","lat":35.66549933,"lon":139.50903882},{"name":"子ども食堂・なな","province":"東京都","city":"府中市","address":"東京都府中市武蔵台2丁目2","lat":35.68866772,"lon":139.46109766},{"name":"こどもの居場所作り＠府中","province":"東京都","city":"府中市","address":"東京都府中市片町2丁目2","lat":35.66908969,"lon":139.47353896},{"name":"新町こどもカレー食堂","province":"東京都","city":"府中市","address":"東京都府中市新町3丁目1","lat":35.69080143,"lon":139.48736756},{"name":"とうきょうどけん子ども食堂","province":"東京都","city":"府中市","address":"東京都府中市晴見町2丁目15-5","lat":35.68168825,"lon":139.4727608},{"name":"にっころ食堂","province":"東京都","city":"府中市","address":"東京都府中市日新町4丁目46-7","lat":35.67052203,"lon":139.4417361},{"name":"ひがしふちゅう駅前こども食堂","province":"東京都","city":"府中市","address":"東京都府中市清水が丘1丁目2","lat":35.66909296,"lon":139.49406224},{"name":"みんなの食堂","province":"東京都","city":"府中市","address":"東京都府中市宮町1丁目100","lat":35.67197841,"lon":139.47949673},{"name":"ラ・メンサ・デリ・アンジェリ 天使の食卓","province":"東京都","city":"府中市","address":"東京都府中市府中町1丁目40-11","lat":35.67745835,"lon":139.47977983},{"name":"ゆとりえもったいない食堂","province":"東京都","city":"武蔵野市","address":"東京都武蔵野市吉祥寺南町4丁目25-5","lat":35.6987502,"lon":139.59153881},{"name":"わいわいライス","province":"東京都","city":"武蔵野市","address":"東京都武蔵野市緑町1丁目5-22","lat":35.71384782,"lon":139.56157413},{"name":"ミュー食堂","province":"東京都","city":"武蔵野市","address":"東京都武蔵野市中町3丁目4-9","lat":35.71224251,"lon":139.56427951},{"name":"ファイブグループこども食堂","province":"東京都","city":"武蔵野市","address":"東京都武蔵野市吉祥寺本町1丁目22-1","lat":35.70439655,"lon":139.58180885},{"name":"こどもば食堂＠上目黒","province":"東京都","city":"目黒区","address":"東京都目黒区祐天寺2丁目6-6","lat":35.6370906,"lon":139.69376866},{"name":"こどもば食堂＠中央町","province":"東京都","city":"目黒区","address":"東京都目黒区中央町2丁目4-18","lat":35.6318745,"lon":139.69222728},{"name":"かみめみんなの食堂","province":"東京都","city":"目黒区","address":"東京都目黒区祐天寺2丁目6-6","lat":35.6370906,"lon":139.69376866},{"name":"おてらでごはん","province":"東京都","city":"目黒区","address":"東京都目黒区中目黒5丁目24-53","lat":35.63690459,"lon":139.69705729},{"name":"ちゃいるどべーす目黒本町","province":"東京都","city":"目黒区","address":"東京都目黒区目黒本町2丁目1-20","lat":35.62522258,"lon":139.69522445},{"name":"すずめ食堂","province":"東京都","city":"目黒区","address":"東京都目黒区碑文谷3丁目15-5","lat":35.61786761,"lon":139.68421449},{"name":"とりつだい処","province":"東京都","city":"目黒区","address":"東京都目黒区八雲1丁目10-5","lat":35.61871439,"lon":139.67224043},{"name":"ECO膳","province":"東京都","city":"目黒区","address":"東京都目黒区東が丘1丁目7-14","lat":35.62727725,"lon":139.67001258},{"name":"まると食堂","province":"東京都","city":"目黒区","address":"東京都目黒区青葉台2丁目10-18","lat":35.6498003,"lon":139.69561254},{"name":"おやこカフェ","province":"東京都","city":"目黒区","address":"東京都目黒区目黒本町4丁目3-14","lat":35.62321732,"lon":139.6982187},{"name":"クロモンこども食堂","province":"東京都","city":"品川区","address":"東京都品川区北品川1丁目","lat":35.62126015,"lon":139.74102346},{"name":"となんこども食堂","province":"東京都","city":"品川区","address":"東京都品川区南品川6丁目6-7","lat":35.61190568,"lon":139.74000445},{"name":"ぬくもりこども食堂","province":"東京都","city":"品川区","address":"東京都品川区大井3丁目3-4","lat":35.60366747,"lon":139.73137485},{"name":"子ども食堂　ふたば","province":"東京都","city":"品川区","address":"東京都品川区二葉4丁目21-4","lat":35.60211999,"lon":139.71715936},{"name":"宿題外来","province":"東京都","city":"品川区","address":"東京都品川区豊町4丁目18-21","lat":35.6060696,"lon":139.72034785},{"name":"子どもゆめ食堂　だんらん","province":"東京都","city":"品川区","address":"東京都品川区西大井2丁目5-21","lat":35.59925377,"lon":139.72186462},{"name":"東五反田食堂","province":"東京都","city":"品川区","address":"東京都品川区東五反田4丁目11-6","lat":35.63025033,"lon":139.7259855},{"name":"こども食堂　ビストロ　ウッフ","province":"東京都","city":"品川区","address":"東京都品川区中延6丁目3-14","lat":35.60282261,"lon":139.71285692},{"name":"こども食堂　あかゆ","province":"東京都","city":"品川区","address":"東京都品川区小山4丁目1-6","lat":35.61980112,"lon":139.70267398},{"name":"福栄みらい塾","province":"東京都","city":"品川区","address":"東京都品川区東品川3丁目1-8","lat":35.61714416,"lon":139.74681759},{"name":"オリーブの樹","province":"東京都","city":"品川区","address":"東京都品川区東大井2丁目23-3","lat":35.59841841,"lon":139.73834677},{"name":"こども食堂ｗａｉｗａｉ","province":"東京都","city":"品川区","address":"東京都品川区中延4丁目4-1","lat":35.60627499,"lon":139.71137083},{"name":"なるとキッチン子ども食堂","province":"東京都","city":"品川区","address":"東京都品川区西五反田2丁目26-4","lat":35.62501749,"lon":139.72051671},{"name":"トントンみんなの子ども食堂","province":"東京都","city":"品川区","address":"東京都品川区二葉3丁目3-5","lat":35.60270607,"lon":139.7193786},{"name":"子ども食堂ぬまフェス！！","province":"東京都","city":"品川区","address":"東京都品川区中延4丁目19-9","lat":35.60410021,"lon":139.71021266},{"name":"てしおこども食堂","province":"東京都","city":"品川区","address":"東京都品川区小山6丁目5-10","lat":35.61436284,"lon":139.69860784},{"name":"スタジオMINAMI子ども食堂部","province":"東京都","city":"品川区","address":"東京都品川区中延1丁目10-19","lat":35.61261594,"lon":139.71049018},{"name":"旗の台ひかりっ子食堂","province":"東京都","city":"品川区","address":"東京都品川区旗の台6丁目22-24","lat":35.6064554,"lon":139.70109675},{"name":"みつばちマーヤこども食堂","province":"東京都","city":"品川区","address":"東京都品川区荏原7丁目6-9","lat":35.61176317,"lon":139.70035222},{"name":"ComidasTKD子ども食堂","province":"東京都","city":"品川区","address":"東京都品川区大崎3丁目10-16","lat":35.61955433,"lon":139.72441656},{"name":"あーちゃんの子ども食堂","province":"東京都","city":"品川区","address":"東京都品川区西品川2丁目5-10","lat":35.61407448,"lon":139.72737761},{"name":"歌の力子ども食堂","province":"東京都","city":"品川区","address":"東京都品川区大井2丁目27-15","lat":35.60430903,"lon":139.73049434},{"name":"クラブ・ターニー","province":"東京都","city":"品川区","address":"東京都品川区大崎1丁目2-2","lat":35.6222763,"lon":139.72729122},{"name":"しなちる子ども食堂","province":"東京都","city":"品川区","address":"東京都品川区南大井1丁目1-18","lat":35.59796846,"lon":139.7380857},{"name":"ゆたか子ども食堂","province":"東京都","city":"品川区","address":"東京都品川区豊町4丁目10-9","lat":35.60663072,"lon":139.72331982},{"name":"はたのだい子ども食堂","province":"東京都","city":"品川区","address":"東京都品川区旗の台3丁目2-9","lat":35.60506117,"lon":139.70685182},{"name":"かもめこども食堂","province":"東京都","city":"品川区","address":"東京都品川区東品川1丁目29-6","lat":35.62039365,"lon":139.74314554},{"name":"レガーメ子ども食堂","province":"東京都","city":"品川区","address":"東京都品川区戸越6丁目5-5","lat":35.60886922,"lon":139.71633144},{"name":"西大井ひかり食堂","province":"東京都","city":"品川区","address":"東京都品川区西大井2丁目4-4","lat":35.59995094,"lon":139.72248399},{"name":"まるごはんこども食堂","province":"東京都","city":"品川区","address":"東京都品川区西五反田4丁目31-23","lat":35.62708381,"lon":139.71379224},{"name":"かみしながわ食堂","province":"東京都","city":"品川区","address":"東京都品川区南品川4丁目15-11","lat":35.61284999,"lon":139.73917393},{"name":"しーしーきっちん子ども食堂","province":"東京都","city":"品川区","address":"東京都品川区南品川2丁目9-2","lat":35.61445823,"lon":139.74218752},{"name":"こどもダイニングほかげ","province":"東京都","city":"品川区","address":"東京都品川区中延6丁目1-21","lat":35.60320031,"lon":139.71023213},{"name":"子ども食堂ひよこ","province":"東京都","city":"品川区","address":"東京都品川区八潮5丁目10-27","lat":35.60015206,"lon":139.7512541},{"name":"立石みんな子ども食堂","province":"東京都","city":"葛飾区","address":"東京都葛飾区立石1丁目21-12","lat":35.73770808,"lon":139.85014569},{"name":"たていしこども食堂実行委員会","province":"東京都","city":"葛飾区","address":"東京都葛飾区立石1丁目21-12","lat":35.73770808,"lon":139.85014569},{"name":"えまいまキッチン","province":"東京都","city":"葛飾区","address":"東京都葛飾区亀有3丁目32-3","lat":35.76494653,"lon":139.84890299},{"name":"青空っ子こども食堂","province":"東京都","city":"葛飾区","address":"東京都葛飾区お花茶屋3丁目5-6","lat":35.75648368,"lon":139.84306772},{"name":"こども食堂　トコ","province":"東京都","city":"葛飾区","address":"東京都葛飾区東水元2-35-16","lat":35.7807536,"lon":139.868906},{"name":"ほっこり食堂","province":"東京都","city":"葛飾区","address":"東京都葛飾区立石8丁目51-7","lat":35.73898869,"lon":139.85940314},{"name":"マミー子ども食堂","province":"東京都","city":"葛飾区","address":"東京都葛飾区東金町4丁目7-7","lat":35.77312574,"lon":139.87489821},{"name":"大泉まちの子ども食堂","province":"東京都","city":"練馬区","address":"東京都練馬区大泉学園町5丁目6-17","lat":35.76605618,"lon":139.58681732},{"name":"おおいずみ子ども食堂","province":"東京都","city":"練馬区","address":"東京都練馬区東大泉5丁目35-12","lat":35.74777522,"lon":139.58954537},{"name":"子ども交流食堂たまっこ","province":"東京都","city":"練馬区","address":"東京都練馬区豊玉中3丁目3-12","lat":35.73209539,"lon":139.65530162},{"name":"桜台子育て応援食堂","province":"東京都","city":"練馬区","address":"東京都練馬区豊玉北1丁目12-3","lat":35.73486209,"lon":139.66858647},{"name":"石神井ゆうやけ子ども食堂","province":"東京都","city":"練馬区","address":"東京都練馬区石神井町1丁目24-6","lat":35.74275959,"lon":139.60806903},{"name":"太陽の子東大泉保育園こども食堂","province":"東京都","city":"練馬区","address":"東京都練馬区東大泉2丁目9-16","lat":35.75141936,"lon":139.59393098},{"name":"てへっ！こども食堂","province":"東京都","city":"練馬区","address":"東京都練馬区高松4丁目1-28","lat":35.75142596,"lon":139.63297772},{"name":"ねりまこども食堂","province":"東京都","city":"練馬区","address":"東京都練馬区谷原1丁目3-7","lat":35.74916489,"lon":139.62444516},{"name":"練馬地域ふれあい食堂","province":"東京都","city":"練馬区","address":"東京都練馬区練馬4丁目2-3","lat":35.74027488,"lon":139.65022115},{"name":"ハッピーお茶家ころころ","province":"東京都","city":"練馬区","address":"東京都練馬区東大泉1丁目15-10","lat":35.74799471,"lon":139.59283676},{"name":"ふろしきこども食堂","province":"東京都","city":"練馬区","address":"東京都練馬区練馬4丁目17-2","lat":35.74259123,"lon":139.64769904},{"name":"まるてる子ども食堂","province":"東京都","city":"練馬区","address":"東京都練馬区栄町31-6","lat":35.73843676,"lon":139.67126386},{"name":"みんなの食堂すまいる","province":"東京都","city":"練馬区","address":"東京都練馬区石神井町3丁目2-8","lat":35.74018207,"lon":139.60658038},{"name":"らくぜん子ども食堂","province":"東京都","city":"練馬区","address":"東京都練馬区旭町1丁目31-4","lat":35.7653381,"lon":139.62495835},{"name":"長さんこども食堂","province":"東京都","city":"練馬区","address":"東京都練馬区大泉町2丁目54-9","lat":35.76180737,"lon":139.60733505},{"name":"旭町こども食堂ニコ","province":"東京都","city":"練馬区","address":"東京都練馬区旭町3丁目26-7","lat":35.77683964,"lon":139.62853538},{"name":"こども食堂バァバんち","province":"東京都","city":"練馬区","address":"東京都練馬区中村1丁目8-2-7","lat":35.73255625,"lon":139.64794389},{"name":"こども食堂ぽてと","province":"東京都","city":"練馬区","address":"東京都練馬区練馬4丁目6-5","lat":35.74061369,"lon":139.64862683},{"name":"みさよ子ども食堂","province":"東京都","city":"練馬区","address":"東京都練馬区土支田3丁目27-27","lat":35.76155741,"lon":139.60763226},{"name":"ＳＯＭＰＯケアそんぽの家Ｓ江古田","province":"東京都","city":"練馬区","address":"東京都練馬区旭丘2丁目5-2","lat":35.73431521,"lon":139.67823288},{"name":"石神井台かめさん食堂","province":"東京都","city":"練馬区","address":"東京都練馬区石神井台3丁目20-9","lat":35.74213421,"lon":139.59137602},{"name":"子ども未来食堂","province":"東京都","city":"練馬区","address":"東京都練馬区羽沢2丁目5-3","lat":35.74272235,"lon":139.67018876},{"name":"感動こども食堂ときわ亭練馬店","province":"東京都","city":"練馬区","address":"東京都練馬区豊玉北5丁目19-1","lat":35.73692535,"lon":139.65368211},{"name":"ねりたか子ども食堂","province":"東京都","city":"練馬区","address":"東京都練馬区旭町1丁目12-31","lat":35.7635716,"lon":139.62405573},{"name":"ころころ子ども食堂","province":"東京都","city":"練馬区","address":"東京都練馬区大泉学園町1丁目7-13","lat":35.75947109,"lon":139.58895052},{"name":"みんなン家","province":"東京都","city":"練馬区","address":"東京都練馬区光が丘2丁目4-10","lat":35.7631608,"lon":139.63382992},{"name":"まえのふれあいこども食堂","province":"東京都","city":"板橋区","address":"東京都板橋区前野町2丁目43-15","lat":35.76690619,"lon":139.69032483},{"name":"板橋いずみ教会子ども食堂（ジョイフルクラブ）","province":"東京都","city":"板橋区","address":"東京都板橋区泉町52-6","lat":35.76863128,"lon":139.69969067},{"name":"陽ちゃん家こども食堂","province":"東京都","city":"板橋区","address":"東京都板橋区宮本町6-12","lat":35.76244603,"lon":139.70349062},{"name":"ことぶき子ども食堂","province":"東京都","city":"板橋区","address":"東京都板橋区相生町8-3","lat":35.77656317,"lon":139.68210293},{"name":"南蔵院こども会","province":"東京都","city":"板橋区","address":"東京都板橋区蓮沼町48-8","lat":35.77073383,"lon":139.70160989},{"name":"しむらん通り食堂","province":"東京都","city":"板橋区","address":"東京都板橋区志村1丁目35-15","lat":35.77616906,"lon":139.69405474},{"name":"かもめこども食堂","province":"東京都","city":"板橋区","address":"東京都板橋区東坂下1丁目12-7","lat":35.78199048,"lon":139.69029929},{"name":"いずみの苑コミュニティ弁当","province":"東京都","city":"板橋区","address":"東京都板橋区東坂下2丁目2-22","lat":35.78308199,"lon":139.69001316},{"name":"NPO板橋こども食堂","province":"東京都","city":"板橋区","address":"東京都板橋区蓮根2丁目21-11","lat":35.78285666,"lon":139.67648379},{"name":"さかした子ども食堂","province":"東京都","city":"板橋区","address":"東京都板橋区坂下2丁目22-5","lat":35.78320133,"lon":139.68411362},{"name":"にこにこ食堂","province":"東京都","city":"板橋区","address":"東京都板橋区坂下2丁目1-3","lat":35.78272368,"lon":139.68804944},{"name":"SOMPO流子ども食堂　高島平","province":"東京都","city":"板橋区","address":"東京都板橋区坂下3丁目5-2","lat":35.785165,"lon":139.6847135},{"name":"ごはん塾・にじいろぱーく","province":"東京都","city":"板橋区","address":"東京都板橋区高島平8丁目21-11","lat":35.79075515,"lon":139.66394866},{"name":"SOMPO流こども食堂　新高島平","province":"東京都","city":"板橋区","address":"東京都板橋区高島平7丁目17-9","lat":35.79133263,"lon":139.65537995},{"name":"まいにちおいで子ども食堂","province":"東京都","city":"板橋区","address":"東京都板橋区高島平7丁目23-21","lat":35.7908217,"lon":139.66045176},{"name":"リル・インフィニティ〈子ども食堂〉","province":"東京都","city":"板橋区","address":"東京都板橋区南常盤台1丁目18-5","lat":35.75687679,"lon":139.6888226},{"name":"ブランチCAF? in まもりん坊","province":"東京都","city":"板橋区","address":"東京都板橋区上板橋2丁目30-2","lat":35.76229793,"lon":139.67435139},{"name":"SOMPO流子ども食堂　ときわ台南","province":"東京都","city":"板橋区","address":"東京都板橋区東新町1丁目29-6","lat":35.75703764,"lon":139.68144542},{"name":"こども食堂ｂｙハーブ＆おいしい野菜塾","province":"東京都","city":"板橋区","address":"東京都板橋区西台2丁目12-12","lat":35.78035126,"lon":139.67099827},{"name":"長秀龍子ども食堂","province":"東京都","city":"板橋区","address":"東京都板橋区南常盤台1丁目20-4","lat":35.7565241,"lon":139.6898392},{"name":"寺子屋学園こども食堂","province":"東京都","city":"板橋区","address":"東京都板橋区常盤台2丁目15-9","lat":35.76136793,"lon":139.68968064},{"name":"西徳げんき食堂","province":"東京都","city":"板橋区","address":"東京都板橋区西台4丁目8-13","lat":35.77234384,"lon":139.66901538},{"name":"こども食堂　良ちゃん","province":"東京都","city":"板橋区","address":"東京都板橋区常盤台4丁目33-3","lat":35.76392557,"lon":139.67633725},{"name":"SOMPO流子ども食堂 ときわ台","province":"東京都","city":"板橋区","address":"東京都板橋区前野町2丁目18-3","lat":35.7649813,"lon":139.68694182},{"name":"「上二テラス」ランチタイム","province":"東京都","city":"板橋区","address":"東京都板橋区向原3丁目1-12","lat":35.74417819,"lon":139.6855318},{"name":"ななテラスこども食堂","province":"東京都","city":"板橋区","address":"東京都板橋区向原3丁目7-7","lat":35.7465251,"lon":139.68421513},{"name":"SOMPO流こども食堂　若木","province":"東京都","city":"板橋区","address":"東京都板橋区若木3丁目3-1","lat":35.77365225,"lon":139.67728125},{"name":"SOMPO流子ども食堂　奈美木成増","province":"東京都","city":"板橋区","address":"東京都板橋区赤塚3丁目13-1","lat":35.77897296,"lon":139.63954549},{"name":"SOMPO流子ども食堂　赤塚公園","province":"東京都","city":"板橋区","address":"東京都板橋区大門7-5","lat":35.78333099,"lon":139.64862789},{"name":"SOMPO流子ども食堂","province":"東京都","city":"板橋区","address":"東京都板橋区徳丸6丁目1-11","lat":35.77657377,"lon":139.66411013},{"name":"福まね嬉　こども食堂","province":"東京都","city":"板橋区","address":"東京都板橋区徳丸3丁目29-2","lat":35.77245185,"lon":139.65623043},{"name":"カフェひびき（誰でも食堂）","province":"東京都","city":"板橋区","address":"東京都板橋区徳丸6丁目13-18","lat":35.77790959,"lon":139.65914942},{"name":"SOMPOの子ども食堂","province":"東京都","city":"板橋区","address":"東京都板橋区赤塚新町2丁目7-16","lat":35.77214322,"lon":139.63940686},{"name":"くじらハウス赤塚こども食堂","province":"東京都","city":"板橋区","address":"東京都板橋区赤塚7丁目26-7","lat":35.77879265,"lon":139.64860305},{"name":"こども食堂　ニクビッタ","province":"東京都","city":"板橋区","address":"東京都板橋区徳丸1丁目7-12","lat":35.7684775,"lon":139.66417154},{"name":"ゆとりんぼ","province":"東京都","city":"板橋区","address":"東京都板橋区徳丸1丁目7-12","lat":35.7684775,"lon":139.66417154},{"name":"あったかごはんの会","province":"東京都","city":"板橋区","address":"東京都板橋区成増1丁目12-4","lat":35.7747122,"lon":139.632674},{"name":"子ども食堂　たんぽぽ","province":"東京都","city":"板橋区","address":"東京都板橋区成増4丁目14-18","lat":35.78327223,"lon":139.63534852},{"name":"SOMPO流子ども食堂　板橋三園","province":"東京都","city":"板橋区","address":"東京都板橋区三園2丁目12-14","lat":35.79587877,"lon":139.64304484},{"name":"SOMPO流子ども食堂　板橋仲宿","province":"東京都","city":"板橋区","address":"東京都板橋区仲宿50-1","lat":35.75705795,"lon":139.70863765},{"name":"みんなの食堂　フラワー","province":"東京都","city":"板橋区","address":"東京都板橋区大山東町25-12","lat":35.74915324,"lon":139.70618543},{"name":"親子ひろば","province":"東京都","city":"板橋区","address":"東京都板橋区大谷口上町1-3","lat":35.74976121,"lon":139.69509745},{"name":"にっこりキッチン！","province":"東京都","city":"板橋区","address":"東京都板橋区富士見町17-15","lat":35.76142102,"lon":139.69848829},{"name":"りんごのたね","province":"東京都","city":"板橋区","address":"東京都板橋区富士見町3-1","lat":35.76096004,"lon":139.70108533},{"name":"こども食堂　よかや","province":"東京都","city":"板橋区","address":"東京都板橋区板橋1丁目31-8","lat":35.74766755,"lon":139.71610132},{"name":"ノンナの家","province":"東京都","city":"板橋区","address":"東京都板橋区板橋4丁目53-2","lat":35.75228096,"lon":139.71834817},{"name":"大山こども食堂・みんなの広場","province":"東京都","city":"板橋区","address":"東京都板橋区大山金井町48-2","lat":35.74555077,"lon":139.70229423},{"name":"ハッピー大山子ども食堂","province":"東京都","city":"板橋区","address":"東京都板橋区大山町40-5","lat":35.74893641,"lon":139.69878051},{"name":"子ども食堂 鶏のから騒ぎ","province":"東京都","city":"板橋区","address":"東京都板橋区弥生町31-15","lat":35.75530502,"lon":139.69531385},{"name":"地域のみなぱ食堂","province":"東京都","city":"板橋区","address":"東京都板橋区弥生町58-1","lat":35.75503824,"lon":139.69163914},{"name":"東日暮里子ども食堂","province":"東京都","city":"荒川区","address":"東京都荒川区東日暮里2丁目5-11","lat":35.72952216,"lon":139.7866718},{"name":"ななほしこども食堂","province":"東京都","city":"荒川区","address":"東京都荒川区荒川4丁目54-5","lat":35.73984906,"lon":139.78131661},{"name":"子ども食堂ふらっと♭","province":"東京都","city":"荒川区","address":"東京都荒川区西尾久4丁目28-8","lat":35.74547739,"lon":139.75843133},{"name":"タヴェルナ～小さな食堂～","province":"東京都","city":"荒川区","address":"東京都荒川区西日暮里6丁目15-11","lat":35.73743476,"lon":139.77121994},{"name":"フロイデ　～ふれあい食堂～","province":"東京都","city":"荒川区","address":"東京都荒川区荒川3丁目3-10","lat":35.73377777,"lon":139.78418074},{"name":"こども食堂　たーさん家","province":"東京都","city":"荒川区","address":"東京都荒川区東尾久2丁目37-14","lat":35.74474211,"lon":139.77138888},{"name":"井草・ゆうゆう見守り隊～ふれあい食堂","province":"東京都","city":"杉並区","address":"東京都杉並区井草2丁目15-15","lat":35.72703116,"lon":139.61952977},{"name":"こども食堂ホルモン良ちゃん","province":"東京都","city":"杉並区","address":"東京都杉並区下井草1丁目6-3","lat":35.71485782,"lon":139.63274871},{"name":"四宮ごはん","province":"東京都","city":"杉並区","address":"東京都杉並区上井草2丁目28-3","lat":35.72265909,"lon":139.60876701},{"name":"OHANA食堂","province":"東京都","city":"杉並区","address":"東京都杉並区井草2丁目15-15","lat":35.72703116,"lon":139.61952977},{"name":"子ども食堂ほーぷ","province":"東京都","city":"杉並区","address":"東京都杉並区上井草3丁目19-23","lat":35.72188404,"lon":139.60392856},{"name":"西荻・寺子屋食堂","province":"東京都","city":"杉並区","address":"東京都杉並区西荻北4丁目4-4","lat":35.7066772,"lon":139.59599092},{"name":"ばぁばら","province":"大阪府","city":"大阪市中央区","address":"大阪府大阪市中央区","lat":34.68107502,"lon":135.50978711},{"name":"ワイワイ食堂コーナー中高生タイムスペシャル","province":"東京都","city":"杉並区","address":"東京都杉並区善福寺1丁目18-9","lat":35.7129821,"lon":139.59761},{"name":"kosatenパントリー","province":"東京都","city":"杉並区","address":"東京都杉並区善福寺3丁目2-14","lat":35.71750927,"lon":139.59424897},{"name":"みんなの食堂@kosaten","province":"東京都","city":"杉並区","address":"東京都杉並区善福寺3丁目2-14","lat":35.71750927,"lon":139.59424897},{"name":"みんなの食堂ルンルン","province":"東京都","city":"杉並区","address":"東京都杉並区善福寺2丁目24-8","lat":35.71182361,"lon":139.58705533},{"name":"西荻クリキンディのひとしずく","province":"東京都","city":"杉並区","address":"東京都杉並区西荻北3丁目14-5","lat":35.70512463,"lon":139.59748808},{"name":"桃井・みんなde食堂(みんしょく)","province":"東京都","city":"杉並区","address":"東京都杉並区桃井1丁目35-2","lat":35.71366297,"lon":139.61316704},{"name":"にんじんキッズカフェ・荻窪ふれあいの家","province":"東京都","city":"杉並区","address":"東京都杉並区荻窪2丁目29-3","lat":35.69660394,"lon":139.61838402},{"name":"フードパントリーしょうけい","province":"東京都","city":"杉並区","address":"東京都杉並区荻窪3丁目41-24","lat":35.70058149,"lon":139.62682207},{"name":"ほたるパントリー","province":"東京都","city":"杉並区","address":"東京都杉並区南荻窪4丁目6-11","lat":35.69938407,"lon":139.6142481},{"name":"子ども食堂おぎよん","province":"東京都","city":"杉並区","address":"東京都杉並区荻窪4丁目11-15","lat":35.70132288,"lon":139.61980316},{"name":"しょうけいこども食堂","province":"東京都","city":"杉並区","address":"東京都杉並区荻窪3丁目41-24","lat":35.70058149,"lon":139.62682207},{"name":"子ども食堂まんぷく","province":"東京都","city":"杉並区","address":"東京都杉並区荻窪5丁目10-22","lat":35.70147282,"lon":139.61833104},{"name":"キッチンあまぬま","province":"東京都","city":"杉並区","address":"東京都杉並区天沼3丁目19-16","lat":35.71011356,"lon":139.62080827},{"name":"阿佐ヶ谷ガヤガヤ食堂","province":"東京都","city":"杉並区","address":"東京都杉並区阿佐谷北2丁目25-8","lat":35.70590041,"lon":139.63021879},{"name":"リベルタこども食堂","province":"東京都","city":"杉並区","address":"東京都杉並区阿佐谷北2丁目5-7","lat":35.70490615,"lon":139.63281306},{"name":"みんなのお家 エルガーハウス","province":"東京都","city":"杉並区","address":"東京都杉並区高円寺北2丁目14-13","lat":35.70662318,"lon":139.65348066},{"name":"JAまごころ食堂","province":"東京都","city":"杉並区","address":"東京都杉並区成田東5丁目18-7","lat":35.70132317,"lon":139.63041064},{"name":"こども食堂あまてらす","province":"東京都","city":"杉並区","address":"東京都杉並区阿佐谷南3丁目10-8","lat":35.70206473,"lon":139.62996898},{"name":"おひさま食堂@南阿佐谷","province":"東京都","city":"杉並区","address":"東京都杉並区阿佐谷南1丁目16-8","lat":35.70057896,"lon":139.63595189},{"name":"トリドリ子ども食堂","province":"東京都","city":"杉並区","address":"東京都杉並区阿佐谷南3丁目1-21","lat":35.70165661,"lon":139.63586295},{"name":"高円寺わくわく食堂","province":"東京都","city":"杉並区","address":"東京都杉並区高円寺北2丁目14-13","lat":35.70662318,"lon":139.65348066},{"name":"高円寺子ども食堂","province":"東京都","city":"杉並区","address":"東京都杉並区高円寺南2丁目33-32","lat":35.69965175,"lon":139.65315044},{"name":"バードバス子ども食堂","province":"東京都","city":"杉並区","address":"東京都杉並区和田3丁目6-7","lat":35.69376928,"lon":139.65861132},{"name":"はっぴー食堂","province":"東京都","city":"杉並区","address":"東京都杉並区和田1丁目41-10","lat":35.69157514,"lon":139.65951966},{"name":"寺子屋in妙法寺","province":"東京都","city":"杉並区","address":"東京都杉並区堀ノ内3丁目48-8","lat":35.69254146,"lon":139.65177865},{"name":"杉並みんなの食堂","province":"東京都","city":"杉並区","address":"東京都杉並区和田2丁目21-39","lat":35.6900531,"lon":139.65961138},{"name":"ふくぷくひろば","province":"東京都","city":"杉並区","address":"東京都杉並区永福2丁目6-12","lat":35.67171024,"lon":139.63939712},{"name":"八十八ちいき食堂","province":"東京都","city":"杉並区","address":"東京都杉並区方南2丁目16-6","lat":35.68454824,"lon":139.66003657},{"name":"方南にこにこパントリー","province":"東京都","city":"杉並区","address":"東京都杉並区方南1丁目51-7","lat":35.67914611,"lon":139.6589591},{"name":"子ども未来食堂","province":"東京都","city":"杉並区","address":"東京都杉並区和泉4丁目48-15","lat":35.68300107,"lon":139.65523427},{"name":"ころころ食堂☆高井戸","province":"東京都","city":"杉並区","address":"東京都杉並区下高井戸5丁目4-42","lat":35.67197091,"lon":139.62334008},{"name":"こども食堂アランチーニ","province":"東京都","city":"杉並区","address":"東京都杉並区下高井戸3丁目1-4","lat":35.66936591,"lon":139.63344491},{"name":"四丁目子ども食堂","province":"東京都","city":"杉並区","address":"東京都杉並区高円寺南4丁目28-2","lat":35.70387896,"lon":139.65036717},{"name":"こども食堂ﾋﾛ","province":"東京都","city":"大田区","address":"東京都大田区南千束2丁目18-13","lat":35.60462481,"lon":139.68794244},{"name":"大岡山こども食堂","province":"東京都","city":"大田区","address":"東京都大田区北千束3丁目20-8","lat":35.60482752,"lon":139.68613703},{"name":"嶺町こども食堂みんなでごはん","province":"東京都","city":"大田区","address":"東京都大田区田園調布本町7-1","lat":35.58786589,"lon":139.67735279},{"name":"田園調布子ども食堂ともこｷｯﾁﾝ","province":"東京都","city":"大田区","address":"東京都大田区田園調布4丁目","lat":35.59272877,"lon":139.66135396},{"name":"ｶﾌｪｷｬﾋﾞﾝ","province":"東京都","city":"大田区","address":"東京都大田区南雪谷5丁目3-12","lat":35.58974056,"lon":139.68787927},{"name":"たんぽぽ食堂","province":"東京都","city":"大田区","address":"東京都大田区南雪谷5丁目3-12","lat":35.58974056,"lon":139.68787927},{"name":"子ども食堂ｳﾒｷｯﾁﾝ","province":"東京都","city":"大田区","address":"東京都大田区田園調布本町29-8","lat":35.58260295,"lon":139.67374809},{"name":"子ども食堂ﾌﾗﾝｼｽｺの広場","province":"東京都","city":"大田区","address":"東京都大田区仲池上1丁目21-11","lat":35.58569934,"lon":139.69815052},{"name":"こあら村のこども食堂","province":"東京都","city":"大田区","address":"東京都大田区久が原6丁目26-4","lat":35.57313754,"lon":139.69462416},{"name":"馬込子まもり食堂","province":"東京都","city":"大田区","address":"東京都大田区北馬込2丁目5-5","lat":35.59902577,"lon":139.7095962},{"name":"れんげの会こども食堂Withおとな","province":"東京都","city":"大田区","address":"東京都大田区西馬込2丁目20-1","lat":35.58649105,"lon":139.70527762},{"name":"絆倶楽部","province":"東京都","city":"大田区","address":"東京都大田区西馬込2丁目20-1","lat":35.58649105,"lon":139.70527762},{"name":"絆カフェ","province":"東京都","city":"大田区","address":"東京都大田区西馬込2丁目20-1","lat":35.58649105,"lon":139.70527762},{"name":"絆御飯","province":"東京都","city":"大田区","address":"東京都大田区西馬込2丁目20-1","lat":35.58649105,"lon":139.70527762},{"name":"てくてく食堂","province":"東京都","city":"大田区","address":"東京都大田区西馬込2丁目20-1","lat":35.58649105,"lon":139.70527762},{"name":"南馬込ｱｸﾞﾈｽこども食堂","province":"東京都","city":"大田区","address":"東京都大田区南馬込1丁目58-8","lat":35.58911316,"lon":139.71283519},{"name":"Steak＆Hamburg SOH","province":"東京都","city":"大田区","address":"東京都大田区山王2丁目36-9","lat":35.59170755,"lon":139.72220932},{"name":"おばんざい　地獄に佛","province":"東京都","city":"大田区","address":"東京都大田区山王2丁目2-15","lat":35.58900533,"lon":139.72802012},{"name":"ほっとねっとｷｯﾁﾝ","province":"東京都","city":"大田区","address":"東京都大田区中央2丁目10-1","lat":35.57955621,"lon":139.7202711},{"name":"みんなでべジ食","province":"東京都","city":"大田区","address":"東京都大田区池上3丁目32-17","lat":35.57372347,"lon":139.70167607},{"name":"子ども食堂ｵﾑﾗｲｽ食堂","province":"東京都","city":"大田区","address":"東京都大田区大森北1丁目29-6","lat":35.5855669,"lon":139.72875077},{"name":"こども＆ｼﾆｱ　もりもり食堂","province":"東京都","city":"大田区","address":"東京都大田区大森西2丁目2-1","lat":35.57887326,"lon":139.72839833},{"name":"こども食堂おやこｷｯﾁﾝ","province":"東京都","city":"大田区","address":"東京都大田区大森西2丁目2-1","lat":35.57887326,"lon":139.72839833},{"name":"感動こども食堂","province":"東京都","city":"大田区","address":"東京都大田区西蒲田7丁目5-12","lat":35.56378033,"lon":139.71516683},{"name":"だんだんﾜﾝｺｲﾝこども食堂","province":"東京都","city":"大田区","address":"東京都大田区東矢口1丁目17-9","lat":35.564572,"lon":139.70724548},{"name":"いちご食堂","province":"東京都","city":"大田区","address":"東京都大田区下丸子3丁目8-15","lat":35.57050488,"lon":139.68530334},{"name":"VICｽﾏｲﾙｷｯﾁﾝ","province":"東京都","city":"大田区","address":"東京都大田区矢口2丁目1-18","lat":35.56410568,"lon":139.69612749},{"name":"万人こども食堂","province":"東京都","city":"大田区","address":"東京都大田区新蒲田3丁目4-28","lat":35.55842023,"lon":139.70546838},{"name":"子ども食堂やんやん","province":"東京都","city":"大田区","address":"東京都大田区新蒲田2丁目1-13","lat":35.55895617,"lon":139.70872347},{"name":"ﾕﾆﾊﾞｰｻﾙこども食堂","province":"東京都","city":"大田区","address":"東京都大田区南六郷1丁目34-4","lat":35.54579173,"lon":139.72602558},{"name":"おおたﾗｰﾒﾝこども食堂（本羽田）","province":"東京都","city":"大田区","address":"東京都大田区本羽田1丁目12-9","lat":35.5488134,"lon":139.72456155},{"name":"大森東しあわせ食堂","province":"東京都","city":"大田区","address":"東京都大田区大森東4丁目6-15","lat":35.56848065,"lon":139.7383372},{"name":"ひこうき食堂","province":"東京都","city":"大田区","address":"東京都大田区新蒲田1丁目18-16","lat":35.55736749,"lon":139.71124551},{"name":"ﾄｰｷｮｰｺｰﾋｰ大田区　かぞく食堂","province":"東京都","city":"大田区","address":"東京都大田区大森東1丁目28-9","lat":35.57715448,"lon":139.73810337},{"name":"SOMPO流子ども食堂（そんぽの家　大鳥居）","province":"東京都","city":"大田区","address":"東京都大田区西糀谷3丁目32-2","lat":35.55304671,"lon":139.7372494},{"name":"SOMPO流子ども食堂（そんぽの家　東六郷）","province":"東京都","city":"大田区","address":"東京都大田区東六郷1丁目19-1","lat":35.55189611,"lon":139.7194534},{"name":"SOMPO流子ども食堂（そんぽの家S　西糀谷）","province":"東京都","city":"大田区","address":"東京都大田区西糀谷3丁目32-15","lat":35.552919,"lon":139.73772161},{"name":"SOMPO流子ども食堂（そんぽの家S　羽田）","province":"東京都","city":"大田区","address":"東京都大田区羽田2丁目2-11","lat":35.54853938,"lon":139.74190784},{"name":"SOMPO流子ども食堂（ﾗｳﾞｨｰﾚ羽田）","province":"東京都","city":"大田区","address":"東京都大田区東糀谷5丁目19-18","lat":35.55831036,"lon":139.74512924},{"name":"SOMPO流子ども食堂（ﾗｳﾞｨｰﾚ多摩川）","province":"東京都","city":"大田区","address":"東京都大田区多摩川2丁目13-22","lat":35.55821767,"lon":139.69939418},{"name":"みんなの食堂","province":"東京都","city":"大田区","address":"東京都大田区上池台1丁目13-4","lat":35.60263907,"lon":139.69726665},{"name":"羽田のこのこ食堂","province":"東京都","city":"大田区","address":"東京都大田区萩中2丁目11-5","lat":35.55107724,"lon":139.73176371},{"name":"ﾄﾘﾔｷ大学こども食堂","province":"東京都","city":"大田区","address":"東京都大田区蒲田5丁目19-15","lat":35.5622027,"lon":139.71791103},{"name":"子ども食堂ママちゃんち","province":"東京都","city":"大田区","address":"東京都大田区中央3丁目","lat":35.5766982,"lon":139.71946298},{"name":"えんむすび","province":"東京都","city":"大田区","address":"東京都大田区南六郷1丁目34-4","lat":35.54579173,"lon":139.72602558},{"name":"ﾌｰﾄﾞﾊﾞﾝｸ大田芋やぽんぽこ子ども食堂","province":"東京都","city":"大田区","address":"東京都大田区中央4丁目32-8","lat":35.57933676,"lon":139.71881846},{"name":"下町こども食堂みらい","province":"東京都","city":"台東区","address":"東京都台東区松が谷4丁目12-1","lat":35.71754247,"lon":139.78589722},{"name":"下町こども食堂さくら","province":"東京都","city":"台東区","address":"東京都台東区清川1丁目8-4","lat":35.72373976,"lon":139.80204595},{"name":"ユニバーサルスペースさくら","province":"東京都","city":"台東区","address":"東京都台東区橋場1丁目","lat":35.7245291,"lon":139.80577123},{"name":"よみせ通りいこいの家","province":"東京都","city":"台東区","address":"東京都台東区谷中3丁目2-9","lat":35.72509392,"lon":139.76449567},{"name":"Kids Café","province":"東京都","city":"台東区","address":"東京都台東区浅草橋4丁目4-4","lat":35.69788042,"lon":139.78082379},{"name":"まなび部子供食堂","province":"東京都","city":"台東区","address":"東京都台東区谷中4丁目2-33","lat":35.72351642,"lon":139.76710667},{"name":"もぐもぐ子供食堂","province":"東京都","city":"台東区","address":"東京都台東区東上野3丁目32-15","lat":35.71068468,"lon":139.78231176}]}