{"keyword":"徒歩","data":[{"name":"向山庭園","province":"東京都","city":"練馬区","address":"練馬区向山3-1-21","lat":35.74219269,"lon":139.6468391},{"name":"都立精神保健福祉センター","province":"東京都","city":"台東区","address":"台東区東上野3-3-13プラチナ第2ビル","lat":35.70650624,"lon":139.7848774},{"name":"都立中部総合精神保健福祉センター","province":"東京都","city":"世田谷区","address":"世田谷区上北沢2-1-7","lat":35.66586904,"lon":139.6209745},{"name":"都立多摩総合精神保健福祉センター","province":"東京都","city":"多摩市","address":"多摩市中沢2-1-3","lat":35.61914374,"lon":139.4172724},{"name":"夜間こころの電話相談","province":"大阪府","city":"大阪市中央区","address":"大阪府大阪市中央区","lat":34.68107502,"lon":135.50978711},{"name":"東京都自殺相談ダイヤル～こころといのちのほっとライン～","province":"大阪府","city":"大阪市中央区","address":"大阪府大阪市中央区","lat":34.68107502,"lon":135.50978711},{"name":"社会福祉法人東京いのちの電話","province":"大阪府","city":"大阪市中央区","address":"大阪府大阪市中央区","lat":34.68107502,"lon":135.50978711},{"name":"特定非営利活動法人東京多摩いのちの電話","province":"大阪府","city":"大阪市中央区","address":"大阪府大阪市中央区","lat":34.68107502,"lon":135.50978711},{"name":"都立精神保健福祉センター","province":"東京都","city":"台東区","address":"東京都台東区下谷1丁目1-3","lat":35.7173785,"lon":139.78121426},{"name":"東京都夜間こころの電話相談","province":"大阪府","city":"大阪市中央区","address":"大阪府大阪市中央区","lat":34.68107502,"lon":135.50978711},{"name":"向山庭園","province":"東京都","city":"練馬区","address":"練馬区向山3-1-21","lat":35.74219269,"lon":139.6468391},{"name":"都立精神保健福祉センター","province":"東京都","city":"台東区","address":"台東区東上野3-3-13プラチナ第2ビル","lat":35.70650624,"lon":139.7848774},{"name":"都立中部総合精神保健福祉センター","province":"東京都","city":"世田谷区","address":"世田谷区上北沢2-1-7","lat":35.66586904,"lon":139.6209745},{"name":"都立多摩総合精神保健福祉センター","province":"東京都","city":"多摩市","address":"多摩市中沢2-1-3","lat":35.61914374,"lon":139.4172724},{"name":"夜間こころの電話相談","province":"大阪府","city":"大阪市中央区","address":"大阪府大阪市中央区","lat":34.68107502,"lon":135.50978711},{"name":"東京都自殺相談ダイヤル～こころといのちのほっとライン～","province":"大阪府","city":"大阪市中央区","address":"大阪府大阪市中央区","lat":34.68107502,"lon":135.50978711},{"name":"社会福祉法人東京いのちの電話","province":"大阪府","city":"大阪市中央区","address":"大阪府大阪市中央区","lat":34.68107502,"lon":135.50978711},{"name":"特定非営利活動法人東京多摩いのちの電話","province":"大阪府","city":"大阪市中央区","address":"大阪府大阪市中央区","lat":34.68107502,"lon":135.50978711},{"name":"都立精神保健福祉センター","province":"東京都","city":"台東区","address":"東京都台東区下谷1丁目1-3","lat":35.7173785,"lon":139.78121426},{"name":"東京都夜間こころの電話相談","province":"大阪府","city":"大阪市中央区","address":"大阪府大阪市中央区","lat":34.68107502,"lon":135.50978711},{"name":"向山庭園","province":"東京都","city":"練馬区","address":"練馬区向山3-1-21","lat":35.74219269,"lon":139.6468391},{"name":"都立精神保健福祉センター","province":"東京都","city":"台東区","address":"台東区東上野3-3-13プラチナ第2ビル","lat":35.70650624,"lon":139.7848774},{"name":"都立中部総合精神保健福祉センター","province":"東京都","city":"世田谷区","address":"世田谷区上北沢2-1-7","lat":35.66586904,"lon":139.6209745},{"name":"都立多摩総合精神保健福祉センター","province":"東京都","city":"多摩市","address":"多摩市中沢2-1-3","lat":35.61914374,"lon":139.4172724},{"name":"夜間こころの電話相談","province":"大阪府","city":"大阪市中央区","address":"大阪府大阪市中央区","lat":34.68107502,"lon":135.50978711},{"name":"東京都自殺相談ダイヤル～こころといのちのほっとライン～","province":"大阪府","city":"大阪市中央区","address":"大阪府大阪市中央区","lat":34.68107502,"lon":135.50978711},{"name":"社会福祉法人東京いのちの電話","province":"大阪府","city":"大阪市中央区","address":"大阪府大阪市中央区","lat":34.68107502,"lon":135.50978711},{"name":"特定非営利活動法人東京多摩いのちの電話","province":"大阪府","city":"大阪市中央区","address":"大阪府大阪市中央区","lat":34.68107502,"lon":135.50978711},{"name":"都立精神保健福祉センター","province":"東京都","city":"台東区","address":"東京都台東区下谷1丁目1-3","lat":35.7173785,"lon":139.78121426},{"name":"東京都夜間こころの電話相談","province":"大阪府","city":"大阪市中央区","address":"大阪府大阪市中央区","lat":34.68107502,"lon":135.50978711},{"name":"向山庭園","province":"東京都","city":"練馬区","address":"練馬区向山3-1-21","lat":35.74219269,"lon":139.6468391},{"name":"都立精神保健福祉センター","province":"東京都","city":"台東区","address":"台東区東上野3-3-13プラチナ第2ビル","lat":35.70650624,"lon":139.7848774},{"name":"都立中部総合精神保健福祉センター","province":"東京都","city":"世田谷区","address":"世田谷区上北沢2-1-7","lat":35.66586904,"lon":139.6209745},{"name":"都立多摩総合精神保健福祉センター","province":"東京都","city":"多摩市","address":"多摩市中沢2-1-3","lat":35.61914374,"lon":139.4172724},{"name":"夜間こころの電話相談","province":"大阪府","city":"大阪市中央区","address":"大阪府大阪市中央区","lat":34.68107502,"lon":135.50978711},{"name":"東京都自殺相談ダイヤル～こころといのちのほっとライン～","province":"大阪府","city":"大阪市中央区","address":"大阪府大阪市中央区","lat":34.68107502,"lon":135.50978711},{"name":"社会福祉法人東京いのちの電話","province":"大阪府","city":"大阪市中央区","address":"大阪府大阪市中央区","lat":34.68107502,"lon":135.50978711},{"name":"特定非営利活動法人東京多摩いのちの電話","province":"大阪府","city":"大阪市中央区","address":"大阪府大阪市中央区","lat":34.68107502,"lon":135.50978711},{"name":"都立精神保健福祉センター","province":"東京都","city":"台東区","address":"東京都台東区下谷1丁目1-3","lat":35.7173785,"lon":139.78121426},{"name":"東京都夜間こころの電話相談","province":"大阪府","city":"大阪市中央区","address":"大阪府大阪市中央区","lat":34.68107502,"lon":135.50978711},{"name":"向山庭園","province":"東京都","city":"練馬区","address":"練馬区向山3-1-21","lat":35.74219269,"lon":139.6468391},{"name":"都立精神保健福祉センター","province":"東京都","city":"台東区","address":"台東区東上野3-3-13プラチナ第2ビル","lat":35.70650624,"lon":139.7848774},{"name":"都立中部総合精神保健福祉センター","province":"東京都","city":"世田谷区","address":"世田谷区上北沢2-1-7","lat":35.66586904,"lon":139.6209745},{"name":"都立多摩総合精神保健福祉センター","province":"東京都","city":"多摩市","address":"多摩市中沢2-1-3","lat":35.61914374,"lon":139.4172724},{"name":"夜間こころの電話相談","province":"大阪府","city":"大阪市中央区","address":"大阪府大阪市中央区","lat":34.68107502,"lon":135.50978711},{"name":"東京都自殺相談ダイヤル～こころといのちのほっとライン～","province":"大阪府","city":"大阪市中央区","address":"大阪府大阪市中央区","lat":34.68107502,"lon":135.50978711},{"name":"社会福祉法人東京いのちの電話","province":"大阪府","city":"大阪市中央区","address":"大阪府大阪市中央区","lat":34.68107502,"lon":135.50978711},{"name":"特定非営利活動法人東京多摩いのちの電話","province":"大阪府","city":"大阪市中央区","address":"大阪府大阪市中央区","lat":34.68107502,"lon":135.50978711},{"name":"都立精神保健福祉センター","province":"東京都","city":"台東区","address":"東京都台東区下谷1丁目1-3","lat":35.7173785,"lon":139.78121426},{"name":"東京都夜間こころの電話相談","province":"大阪府","city":"大阪市中央区","address":"大阪府大阪市中央区","lat":34.68107502,"lon":135.50978711},{"name":"向山庭園","province":"東京都","city":"練馬区","address":"練馬区向山3-1-21","lat":35.74219269,"lon":139.6468391},{"name":"都立精神保健福祉センター","province":"東京都","city":"台東区","address":"台東区東上野3-3-13プラチナ第2ビル","lat":35.70650624,"lon":139.7848774},{"name":"都立中部総合精神保健福祉センター","province":"東京都","city":"世田谷区","address":"世田谷区上北沢2-1-7","lat":35.66586904,"lon":139.6209745},{"name":"都立多摩総合精神保健福祉センター","province":"東京都","city":"多摩市","address":"多摩市中沢2-1-3","lat":35.61914374,"lon":139.4172724},{"name":"夜間こころの電話相談","province":"大阪府","city":"大阪市中央区","address":"大阪府大阪市中央区","lat":34.68107502,"lon":135.50978711},{"name":"東京都自殺相談ダイヤル～こころといのちのほっとライン～","province":"大阪府","city":"大阪市中央区","address":"大阪府大阪市中央区","lat":34.68107502,"lon":135.50978711},{"name":"社会福祉法人東京いのちの電話","province":"大阪府","city":"大阪市中央区","address":"大阪府大阪市中央区","lat":34.68107502,"lon":135.50978711},{"name":"特定非営利活動法人東京多摩いのちの電話","province":"大阪府","city":"大阪市中央区","address":"大阪府大阪市中央区","lat":34.68107502,"lon":135.50978711},{"name":"都立精神保健福祉センター","province":"東京都","city":"台東区","address":"東京都台東区下谷1丁目1-3","lat":35.7173785,"lon":139.78121426},{"name":"東京都夜間こころの電話相談","province":"大阪府","city":"大阪市中央区","address":"大阪府大阪市中央区","lat":34.68107502,"lon":135.50978711},{"name":"向山庭園","province":"東京都","city":"練馬区","address":"練馬区向山3-1-21","lat":35.74219269,"lon":139.6468391},{"name":"都立精神保健福祉センター","province":"東京都","city":"台東区","address":"台東区東上野3-3-13プラチナ第2ビル","lat":35.70650624,"lon":139.7848774},{"name":"都立中部総合精神保健福祉センター","province":"東京都","city":"世田谷区","address":"世田谷区上北沢2-1-7","lat":35.66586904,"lon":139.6209745},{"name":"都立多摩総合精神保健福祉センター","province":"東京都","city":"多摩市","address":"多摩市中沢2-1-3","lat":35.61914374,"lon":139.4172724},{"name":"夜間こころの電話相談","province":"大阪府","city":"大阪市中央区","address":"大阪府大阪市中央区","lat":34.68107502,"lon":135.50978711},{"name":"東京都自殺相談ダイヤル～こころといのちのほっとライン～","province":"大阪府","city":"大阪市中央区","address":"大阪府大阪市中央区","lat":34.68107502,"lon":135.50978711},{"name":"社会福祉法人東京いのちの電話","province":"大阪府","city":"大阪市中央区","address":"大阪府大阪市中央区","lat":34.68107502,"lon":135.50978711},{"name":"特定非営利活動法人東京多摩いのちの電話","province":"大阪府","city":"大阪市中央区","address":"大阪府大阪市中央区","lat":34.68107502,"lon":135.50978711},{"name":"都立精神保健福祉センター","province":"東京都","city":"台東区","address":"東京都台東区下谷1丁目1-3","lat":35.7173785,"lon":139.78121426},{"name":"東京都夜間こころの電話相談","province":"大阪府","city":"大阪市中央区","address":"大阪府大阪市中央区","lat":34.68107502,"lon":135.50978711},{"name":"向山庭園","province":"東京都","city":"練馬区","address":"練馬区向山3-1-21","lat":35.74219269,"lon":139.6468391},{"name":"都立精神保健福祉センター","province":"東京都","city":"台東区","address":"台東区東上野3-3-13プラチナ第2ビル","lat":35.70650624,"lon":139.7848774},{"name":"都立中部総合精神保健福祉センター","province":"東京都","city":"世田谷区","address":"世田谷区上北沢2-1-7","lat":35.66586904,"lon":139.6209745},{"name":"都立多摩総合精神保健福祉センター","province":"東京都","city":"多摩市","address":"多摩市中沢2-1-3","lat":35.61914374,"lon":139.4172724},{"name":"夜間こころの電話相談","province":"大阪府","city":"大阪市中央区","address":"大阪府大阪市中央区","lat":34.68107502,"lon":135.50978711},{"name":"東京都自殺相談ダイヤル～こころといのちのほっとライン～","province":"大阪府","city":"大阪市中央区","address":"大阪府大阪市中央区","lat":34.68107502,"lon":135.50978711},{"name":"社会福祉法人東京いのちの電話","province":"大阪府","city":"大阪市中央区","address":"大阪府大阪市中央区","lat":34.68107502,"lon":135.50978711},{"name":"特定非営利活動法人東京多摩いのちの電話","province":"大阪府","city":"大阪市中央区","address":"大阪府大阪市中央区","lat":34.68107502,"lon":135.50978711},{"name":"都立精神保健福祉センター","province":"東京都","city":"台東区","address":"東京都台東区下谷1丁目1-3","lat":35.7173785,"lon":139.78121426},{"name":"東京都夜間こころの電話相談","province":"大阪府","city":"大阪市中央区","address":"大阪府大阪市中央区","lat":34.68107502,"lon":135.50978711},{"name":"向山庭園","province":"東京都","city":"練馬区","address":"練馬区向山3-1-21","lat":35.74219269,"lon":139.6468391},{"name":"都立精神保健福祉センター","province":"東京都","city":"台東区","address":"台東区東上野3-3-13プラチナ第2ビル","lat":35.70650624,"lon":139.7848774},{"name":"都立中部総合精神保健福祉センター","province":"東京都","city":"世田谷区","address":"世田谷区上北沢2-1-7","lat":35.66586904,"lon":139.6209745},{"name":"都立多摩総合精神保健福祉センター","province":"東京都","city":"多摩市","address":"多摩市中沢2-1-3","lat":35.61914374,"lon":139.4172724},{"name":"夜間こころの電話相談","province":"大阪府","city":"大阪市中央区","address":"大阪府大阪市中央区","lat":34.68107502,"lon":135.50978711},{"name":"東京都自殺相談ダイヤル～こころといのちのほっとライン～","province":"大阪府","city":"大阪市中央区","address":"大阪府大阪市中央区","lat":34.68107502,"lon":135.50978711},{"name":"社会福祉法人東京いのちの電話","province":"大阪府","city":"大阪市中央区","address":"大阪府大阪市中央区","lat":34.68107502,"lon":135.50978711},{"name":"特定非営利活動法人東京多摩いのちの電話","province":"大阪府","city":"大阪市中央区","address":"大阪府大阪市中央区","lat":34.68107502,"lon":135.50978711},{"name":"都立精神保健福祉センター","province":"東京都","city":"台東区","address":"東京都台東区下谷1丁目1-3","lat":35.7173785,"lon":139.78121426},{"name":"東京都夜間こころの電話相談","province":"大阪府","city":"大阪市中央区","address":"大阪府大阪市中央区","lat":34.68107502,"lon":135.50978711},{"name":"向山庭園","province":"東京都","city":"練馬区","address":"練馬区向山3-1-21","lat":35.74219269,"lon":139.6468391},{"name":"都立精神保健福祉センター","province":"東京都","city":"台東区","address":"台東区東上野3-3-13プラチナ第2ビル","lat":35.70650624,"lon":139.7848774},{"name":"都立中部総合精神保健福祉センター","province":"東京都","city":"世田谷区","address":"世田谷区上北沢2-1-7","lat":35.66586904,"lon":139.6209745},{"name":"都立多摩総合精神保健福祉センター","province":"東京都","city":"多摩市","address":"多摩市中沢2-1-3","lat":35.61914374,"lon":139.4172724},{"name":"夜間こころの電話相談","province":"大阪府","city":"大阪市中央区","address":"大阪府大阪市中央区","lat":34.68107502,"lon":135.50978711},{"name":"東京都自殺相談ダイヤル～こころといのちのほっとライン～","province":"大阪府","city":"大阪市中央区","address":"大阪府大阪市中央区","lat":34.68107502,"lon":135.50978711},{"name":"社会福祉法人東京いのちの電話","province":"大阪府","city":"大阪市中央区","address":"大阪府大阪市中央区","lat":34.68107502,"lon":135.50978711},{"name":"特定非営利活動法人東京多摩いのちの電話","province":"大阪府","city":"大阪市中央区","address":"大阪府大阪市中央区","lat":34.68107502,"lon":135.50978711},{"name":"都立精神保健福祉センター","province":"東京都","city":"台東区","address":"東京都台東区下谷1丁目1-3","lat":35.7173785,"lon":139.78121426},{"name":"東京都夜間こころの電話相談","province":"大阪府","city":"大阪市中央区","address":"大阪府大阪市中央区","lat":34.68107502,"lon":135.50978711}]}