{"keyword":"給水","data":[{"name":"区立東郷元帥記念公園","province":"東京都","city":"千代田区","address":"東京都千代田区三番町18","lat":35.690219,"lon":139.74026},{"name":"都立日比谷公園","province":"東京都","city":"千代田区","address":"東京都千代田区日比谷公園1","lat":35.676068,"lon":139.756192},{"name":"都立一橋高等学校","province":"東京都","city":"千代田区","address":"東京都千代田区東神田1-12-13","lat":35.6945844,"lon":139.781041},{"name":"晴海給水所","province":"東京都","city":"中央区","address":"東京都中央区晴海1-6-3","lat":35.65832,"lon":139.78408},{"name":"区立あかつき公園","province":"東京都","city":"中央区","address":"東京都中央区築地7-19-1","lat":35.665987,"lon":139.776889},{"name":"区立堀留児童公園","province":"東京都","city":"中央区","address":"東京都中央区日本橋堀留町1-1-16","lat":35.6871001,"lon":139.779214},{"name":"芝給水所","province":"東京都","city":"港区","address":"東京都港区芝公園3-6-7","lat":35.6612205,"lon":139.745108},{"name":"都立青山公園","province":"東京都","city":"港区","address":"東京都港区六本木7-23","lat":35.66437,"lon":139.724887},{"name":"シティハイツ桂坂 (港区防災活動拠点)","province":"東京都","city":"港区","address":"東京都港区高輪2-13-8","lat":35.634688,"lon":139.738064},{"name":"淀橋給水所","province":"東京都","city":"新宿区","address":"東京都新宿区西新宿2-10-1","lat":35.6881427,"lon":139.690673},{"name":"区立鶴巻南公園","province":"東京都","city":"新宿区","address":"東京都新宿区早稲田鶴巻町507","lat":35.706243,"lon":139.724088},{"name":"区立百人町ふれあい公園","province":"東京都","city":"新宿区","address":"東京都新宿区百人町3-28","lat":35.706365,"lon":139.695779},{"name":"本郷給水所","province":"東京都","city":"文京区","address":"東京都文京区本郷2-7-29","lat":35.7038488,"lon":139.760411},{"name":"区立教育の森公園","province":"東京都","city":"文京区","address":"東京都文京区大塚3-29","lat":35.7208,"lon":139.73559},{"name":"都立上野恩賜公園","province":"東京都","city":"台東区","address":"東京都台東区上野公園8-51","lat":35.717343,"lon":139.774526},{"name":"区立隅田公園山谷堀広場","province":"東京都","city":"台東区","address":"東京都台東区浅草7-1","lat":35.7169585,"lon":139.804179},{"name":"区立文花公園","province":"東京都","city":"墨田区","address":"東京都墨田区文花1-27-5","lat":35.70891,"lon":139.82186},{"name":"区立両国公園","province":"東京都","city":"墨田区","address":"東京都墨田区両国4-25-3","lat":35.693666,"lon":139.795728},{"name":"亀戸給水所","province":"東京都","city":"江東区","address":"東京都江東区亀戸2-6-50","lat":35.7001343,"lon":139.81999},{"name":"豊住給水所","province":"東京都","city":"江東区","address":"東京都江東区東陽6-1-8","lat":35.67504,"lon":139.810955},{"name":"江東給水所","province":"東京都","city":"江東区","address":"東京都江東区新砂3-6-17","lat":35.6654223,"lon":139.841327},{"name":"有明給水所","province":"東京都","city":"江東区","address":"東京都江東区有明3-1-8","lat":35.6308274,"lon":139.78544},{"name":"区立南砂三丁目公園","province":"東京都","city":"江東区","address":"東京都江東区南砂3-14-21","lat":35.670954,"lon":139.832646},{"name":"都立辰巳の森海浜公園","province":"東京都","city":"江東区","address":"東京都江東区辰巳2-1","lat":35.648004,"lon":139.812798},{"name":"区立戸越公園","province":"東京都","city":"品川区","address":"東京都品川区豊町2-1-30","lat":35.61059,"lon":139.72284},{"name":"区立しおじ公園","province":"東京都","city":"品川区","address":"東京都品川区八潮5-6","lat":35.59629,"lon":139.75039},{"name":"都立八潮高等学校","province":"東京都","city":"品川区","address":"東京都品川区東品川3-27-22","lat":35.611851,"lon":139.74661},{"name":"八雲給水所","province":"東京都","city":"目黒区","address":"東京都目黒区八雲1-1","lat":35.620566,"lon":139.670911},{"name":"都立林試の森公園","province":"東京都","city":"目黒区","address":"東京都目黒区下目黒5-37","lat":35.625388,"lon":139.705384},{"name":"馬込給水所","province":"東京都","city":"大田区","address":"東京都大田区西馬込2-15-6","lat":35.5886364,"lon":139.70192},{"name":"上池台給水所","province":"東京都","city":"大田区","address":"東京都大田区上池台1-48-25","lat":35.6004761,"lon":139.699734},{"name":"東海給水所","province":"東京都","city":"大田区","address":"東京都大田区東海1-3-12","lat":35.5852378,"lon":139.75335},{"name":"区立西六郷三丁目公園","province":"東京都","city":"大田区","address":"東京都大田区西六郷3-16-16","lat":35.5463837,"lon":139.705564},{"name":"区立萩中公園","province":"東京都","city":"大田区","address":"東京都大田区萩中3-25-26","lat":35.5507281,"lon":139.737397},{"name":"区立都堀公園","province":"東京都","city":"大田区","address":"東京都大田区大森東1-30","lat":35.57786,"lon":139.7384},{"name":"区立下丸子公園","province":"東京都","city":"大田区","address":"東京都大田区下丸子4-21","lat":35.569444,"lon":139.681378},{"name":"区立女塚なかよし公園","province":"東京都","city":"大田区","address":"東京都大田区池上5-24","lat":35.5727504,"lon":139.711054},{"name":"砧浄水場","province":"東京都","city":"世田谷区","address":"東京都世田谷区喜多見2-9-1","lat":35.623056,"lon":139.593948},{"name":"砧下浄水所","province":"東京都","city":"世田谷区","address":"東京都世田谷区鎌田2-4-1","lat":35.617936,"lon":139.610803},{"name":"和田堀給水所","province":"東京都","city":"世田谷区","address":"東京都世田谷区大原2-30-43","lat":35.670036,"lon":139.657061},{"name":"玉川給水所","province":"東京都","city":"世田谷区","address":"東京都世田谷区玉川田園調布1-19-1","lat":35.599819,"lon":139.66272},{"name":"大蔵給水所","province":"東京都","city":"世田谷区","address":"東京都世田谷区砧2-8-1","lat":35.642887,"lon":139.616369},{"name":"駒沢給水所","province":"東京都","city":"世田谷区","address":"東京都世田谷区弦巻2-41-5","lat":35.633124,"lon":139.650269},{"name":"区立こどものひろば公園","province":"東京都","city":"世田谷区","address":"東京都世田谷区下馬2-31-4","lat":35.6427401,"lon":139.678642},{"name":"区立葭根公園","province":"東京都","city":"世田谷区","address":"東京都世田谷区船橋6-21","lat":35.6580311,"lon":139.622471},{"name":"都立祖師谷公園","province":"東京都","city":"世田谷区","address":"東京都世田谷区上祖師谷4-2","lat":35.6531,"lon":139.59928},{"name":"区立中町二丁目公園","province":"東京都","city":"世田谷区","address":"東京都世田谷区中町2-34-1","lat":35.6116002,"lon":139.641169},{"name":"都立代々木公園","province":"東京都","city":"渋谷区","address":"東京都渋谷区代々木神園町2-1","lat":35.668993,"lon":139.695398},{"name":"都立第一商業高等学校","province":"東京都","city":"渋谷区","address":"東京都渋谷区鉢山町8-1","lat":35.650164,"lon":139.698585},{"name":"区立景丘公園","province":"東京都","city":"渋谷区","address":"東京都渋谷区恵比寿4-19-21","lat":35.6437963,"lon":139.713581},{"name":"区立弥生公園","province":"東京都","city":"中野区","address":"東京都中野区弥生町5-4","lat":35.6863389,"lon":139.6669699},{"name":"区立江古田の森公園","province":"東京都","city":"中野区","address":"東京都中野区江古田3-14","lat":35.73,"lon":139.66623},{"name":"区立みずのとう公園","province":"東京都","city":"中野区","address":"東京都中野区江古田1-3","lat":35.724759,"lon":139.674948},{"name":"杉並浄水所","province":"東京都","city":"杉並区","address":"東京都杉並区善福寺3-28-5","lat":35.715126,"lon":139.588683},{"name":"和泉水圧調整所","province":"東京都","city":"杉並区","address":"東京都杉並区和泉2-5-23","lat":35.671071,"lon":139.652962},{"name":"上井草給水所","province":"東京都","city":"杉並区","address":"東京都杉並区上井草3-22-12","lat":35.7216352,"lon":139.601235},{"name":"都立和田堀公園","province":"東京都","city":"杉並区","address":"東京都杉並区大宮2-26","lat":35.6849095,"lon":139.6415107},{"name":"区立蚕糸の森公園","province":"東京都","city":"杉並区","address":"東京都杉並区和田3-55","lat":35.69637,"lon":139.65699},{"name":"区立昭栄公園","province":"東京都","city":"杉並区","address":"東京都杉並区高井戸西1-12","lat":35.680084,"lon":139.6083509},{"name":"区立井草森公園","province":"東京都","city":"杉並区","address":"東京都杉並区井草4-12-1","lat":35.7269509,"lon":139.6117369},{"name":"区立馬橋公園","province":"東京都","city":"杉並区","address":"東京都杉並区高円寺北4-35-5","lat":35.709583,"lon":139.643056},{"name":"都立善福寺川緑地","province":"東京都","city":"杉並区","address":"東京都杉並区成田西3-14","lat":35.692188,"lon":139.628662},{"name":"区立西池袋公園","province":"東京都","city":"豊島区","address":"東京都豊島区西池袋3-20-1","lat":35.7291806,"lon":139.7064044},{"name":"都立文京高等学校","province":"東京都","city":"豊島区","address":"東京都豊島区西巣鴨1-1-5","lat":35.7358562,"lon":139.728987},{"name":"区立桐ケ丘中央公園","province":"東京都","city":"北区","address":"東京都北区桐ケ丘1-8","lat":35.7771033,"lon":139.7067568},{"name":"区立滝野川公園","province":"東京都","city":"北区","address":"東京都北区西ケ原2-1","lat":35.7447843,"lon":139.7441294},{"name":"区立北運動公園","province":"東京都","city":"北区","address":"東京都北区神谷2-47-6","lat":35.7738574,"lon":139.7279613},{"name":"南千住給水所","province":"東京都","city":"荒川区","address":"東京都荒川区南千住8-2-6","lat":35.735711,"lon":139.807672},{"name":"区立日暮里南公園","province":"東京都","city":"荒川区","address":"東京都荒川区東日暮里5-19-1","lat":35.7270315,"lon":139.7773452},{"name":"三園浄水場","province":"東京都","city":"板橋区","address":"東京都板橋区三園2-10-1","lat":35.7948321,"lon":139.641979},{"name":"板橋給水所","province":"東京都","city":"板橋区","address":"東京都板橋区加賀1-17-1","lat":35.755489,"lon":139.718612},{"name":"大谷口給水所","province":"東京都","city":"板橋区","address":"東京都板橋区大谷口1-4","lat":35.745615,"lon":139.690848},{"name":"都立城北中央公園","province":"東京都","city":"板橋区","address":"東京都板橋区桜川1-1","lat":35.7536508,"lon":139.6776669},{"name":"区立城北公園","province":"東京都","city":"板橋区","address":"東京都板橋区坂下2-19-1","lat":35.7825806,"lon":139.6814502},{"name":"都立板橋高等学校","province":"東京都","city":"板橋区","address":"東京都板橋区大谷ロ1-54-1","lat":35.7439,"lon":139.689637},{"name":"都立赤塚公園","province":"東京都","city":"板橋区","address":"東京都板橋区高島平3-1","lat":35.785528,"lon":139.65724},{"name":"区立西徳第二公園","province":"東京都","city":"板橋区","address":"東京都板橋区西台3-42-1","lat":35.7766684,"lon":139.6673924},{"name":"練馬給水所","province":"東京都","city":"練馬区","address":"東京都練馬区光が丘2-4-1","lat":35.7633861,"lon":139.631914},{"name":"区立大泉公園","province":"東京都","city":"練馬区","address":"東京都練馬区大泉学園町6-25","lat":35.7720555,"lon":139.582711},{"name":"区立学田公園","province":"東京都","city":"練馬区","address":"東京都練馬区豊玉南3-32","lat":35.7305605,"lon":139.6491262},{"name":"区立はやいち公園","province":"東京都","city":"練馬区","address":"東京都練馬区早宮1-47-11","lat":35.753025,"lon":139.656532},{"name":"区立みんなの広場公園","province":"東京都","city":"練馬区","address":"東京都練馬区石神井町8-41","lat":35.7479365,"lon":139.5986648},{"name":"小右衛門給水所","province":"東京都","city":"足立区","address":"東京都足立区中央本町3-8-1","lat":35.7721511,"lon":139.807309},{"name":"区総合スポーツセンター","province":"東京都","city":"足立区","address":"東京都足立区東保木間2-27-1","lat":35.791311,"lon":139.8140941},{"name":"区立千住スポーツ公園","province":"東京都","city":"足立区","address":"東京都足立区千住緑町2-1-1","lat":35.7440262,"lon":139.7951426},{"name":"区立諏訪木東公園","province":"東京都","city":"足立区","address":"東京都足立区西新井3-25","lat":35.7899898,"lon":139.779992},{"name":"区立大谷田南公園","province":"東京都","city":"足立区","address":"東京都足立区中川4-42-1","lat":35.7721532,"lon":139.8493937},{"name":"区立北鹿浜公園","province":"東京都","city":"足立区","address":"東京都足立区鹿浜3-26","lat":35.7821245,"lon":139.7536455},{"name":"都立舎人公園","province":"東京都","city":"足立区","address":"東京都足立区舎人公園1-1","lat":35.7967372,"lon":139.7681512},{"name":"区立北宮城町公園","province":"東京都","city":"足立区","address":"東京都足立区扇2-37-1","lat":35.7669098,"lon":139.7702},{"name":"江北給水所","province":"東京都","city":"足立区","address":"東京都足立区江北5-5","lat":35.77803,"lon":139.76945},{"name":"金町浄水場","province":"東京都","city":"葛飾区","address":"東京都葛飾区金町浄水場1-1","lat":35.7625165,"lon":139.878351},{"name":"水元給水所（都立水元公園内自由広場）","province":"東京都","city":"葛飾区","address":"東京都葛飾区水元公園4","lat":35.7933213,"lon":139.862382},{"name":"区立上干葉公園","province":"東京都","city":"葛飾区","address":"東京都葛飾区東堀切3-25-1","lat":35.7549733,"lon":139.839038},{"name":"区立新小岩公園","province":"東京都","city":"葛飾区","address":"東京都葛飾区西新小岩1-1-3","lat":35.7158814,"lon":139.8550625},{"name":"区立渋江東公園","province":"東京都","city":"葛飾区","address":"東京都葛飾区東四つ木2-15","lat":35.7307623,"lon":139.843497},{"name":"西瑞江給水所","province":"東京都","city":"江戸川区","address":"東京都江戸川区東瑞江1-26-2","lat":35.691352,"lon":139.898084},{"name":"葛西給水所","province":"東京都","city":"江戸川区","address":"東京都江戸川区北葛西3-9","lat":35.67497,"lon":139.86078},{"name":"都立篠崎公園","province":"東京都","city":"江戸川区","address":"東京都江戸川区上篠崎1-25","lat":35.7143763,"lon":139.8967471},{"name":"区立宇喜田中央公園","province":"東京都","city":"江戸川区","address":"東京都江戸川区北葛西4-15","lat":35.6703527,"lon":139.8637841},{"name":"区立小岩公園","province":"東京都","city":"江戸川区","address":"東京都江戸川区北小岩6-43","lat":35.7462886,"lon":139.8867233},{"name":"都立大島小松川公園","province":"東京都","city":"江戸川区","address":"東京都江戸川区小松川1-7","lat":35.693831,"lon":139.852674},{"name":"都立葛西南高等学校","province":"東京都","city":"江戸川区","address":"東京都江戸川区南葛西1-11-1","lat":35.653675,"lon":139.870792},{"name":"一之江抹香亭","province":"東京都","city":"江戸川区","address":"東京都江戸川区一之江5-14","lat":35.6968671,"lon":139.8819413},{"name":"白髭東地区防災拠点","province":"東京都","city":"墨田区","address":"東京都墨田区堤通2","lat":35.733876,"lon":139.815874},{"name":"鑓水給水所","province":"東京都","city":"八王子市","address":"東京都八王子市鑓水401","lat":35.6241461,"lon":139.349782},{"name":"西寺方給水所","province":"東京都","city":"八王子市","address":"東京都八王子市西寺方町1006-167","lat":35.68939,"lon":139.26638},{"name":"狭間給水所","province":"東京都","city":"八王子市","address":"東京都八王子市狭間町1994-478","lat":35.6302942,"lon":139.278766},{"name":"犬目第二給水所","province":"東京都","city":"八王子市","address":"東京都八王子市犬目町710","lat":35.6993634,"lon":139.302661},{"name":"高月給水所","province":"東京都","city":"八王子市","address":"東京都八王子市高月町2240","lat":35.7061,"lon":139.32019},{"name":"散田給水所","province":"東京都","city":"八王子市","address":"東京都八王子市散田町2-6-1","lat":35.651316,"lon":139.315081},{"name":"東浅川給水所","province":"東京都","city":"八王子市","address":"東京都八王子市東浅川町674","lat":35.6405654,"lon":139.299999},{"name":"寺田配水所","province":"東京都","city":"八王子市","address":"東京都八王子市寺田町1359-4","lat":35.616192,"lon":139.296856},{"name":"元八王子配水所","province":"東京都","city":"八王子市","address":"東京都八王子市元八王子町3-2750-487","lat":35.64726,"lon":139.26656},{"name":"北野給水所","province":"東京都","city":"八王子市","address":"東京都八王子市北野町595-3","lat":35.6538594,"lon":139.354989},{"name":"南陽台配水所","province":"東京都","city":"八王子市","address":"東京都八王子市南陽台3-5-1","lat":35.6364467,"lon":139.374855},{"name":"楢原給水所","province":"東京都","city":"八王子市","address":"東京都八王子市楢原町1294-3","lat":35.6772291,"lon":139.307184},{"name":"暁町配水所","province":"東京都","city":"八王子市","address":"東京都八王子市暁町3-3-1","lat":35.6746641,"lon":139.336637},{"name":"久保山配水所","province":"東京都","city":"八王子市","address":"東京都八王子市久保山町2-15-1","lat":35.6864664,"lon":139.352866},{"name":"大船給水所","province":"東京都","city":"八王子市","address":"東京都八王子市七国3-56-1","lat":35.616612,"lon":139.317224},{"name":"鑓水小山給水所","province":"東京都","city":"八王子市","address":"東京都八王子市鑓水2-92","lat":35.606811,"lon":139.361154},{"name":"南大沢給水所","province":"東京都","city":"八王子市","address":"東京都八王子市南大沢4-25","lat":35.603229,"lon":139.37947},{"name":"都立陵南公園","province":"東京都","city":"八王子市","address":"東京都八王子市長房町1572","lat":35.6490541,"lon":139.2897306},{"name":"椚田ポンプ所","province":"東京都","city":"八王子市","address":"東京都八王子市椚田町545","lat":35.635202,"lon":139.310873},{"name":"柴崎給水所","province":"東京都","city":"立川市","address":"東京都立川市柴崎町1-1-41","lat":35.6968355,"lon":139.405944},{"name":"立川栄町浄水所","province":"東京都","city":"立川市","address":"東京都立川市栄町5-38-5","lat":35.7180059,"lon":139.424525},{"name":"立川砂川給水所","province":"東京都","city":"立川市","address":"東京都立川市砂川町6-41-1","lat":35.7299825,"lon":139.407448},{"name":"市立松中公園","province":"東京都","city":"立川市","address":"東京都立川市西砂町1-19-12","lat":35.72661,"lon":139.371352},{"name":"上連雀給水所（西配水場）","province":"東京都","city":"三鷹市","address":"東京都三鷹市上連雀9-41-4","lat":35.6868321,"lon":139.55076},{"name":"三鷹新川給水所（東配水場）","province":"東京都","city":"三鷹市","address":"東京都三鷹市新川2-1-15","lat":35.6796028,"lon":139.577258},{"name":"日向和田浄水所","province":"東京都","city":"青梅市","address":"東京都青梅市日向和田2-370","lat":35.7843741,"lon":139.234717},{"name":"千ヶ瀬第二浄水所","province":"東京都","city":"青梅市","address":"東京都青梅市千ヶ瀬町1-69-1","lat":35.7846878,"lon":139.277824},{"name":"御岳山第一配水所","province":"東京都","city":"青梅市","address":"東京都青梅市御岳山170-3","lat":35.78347,"lon":139.15112},{"name":"成木配水所","province":"東京都","city":"青梅市","address":"東京都青梅市成木8-690-3","lat":35.8187204,"lon":139.241891},{"name":"新町給水所","province":"東京都","city":"青梅市","address":"東京都青梅市新町5-24-1","lat":35.7884612,"lon":139.308874},{"name":"二俣尾配水所","province":"東京都","city":"青梅市","address":"東京都青梅市二俣尾5-107-2","lat":35.8152563,"lon":139.2066375},{"name":"城山配水所","province":"東京都","city":"青梅市","address":"東京都青梅市東青梅6-95-1","lat":35.796712,"lon":139.272305},{"name":"梅郷配水所","province":"東京都","city":"青梅市","address":"東京都青梅市和田町2-578-1","lat":35.782215,"lon":139.226243},{"name":"府中武蔵台浄水所及び府中武蔵台ポンプ所","province":"東京都","city":"府中市","address":"東京都府中市武蔵台2-7及び武蔵台1-25","lat":35.688081,"lon":139.460998},{"name":"若松給水所","province":"東京都","city":"府中市","address":"東京都府中市若松町4-10","lat":35.6760322,"lon":139.499748},{"name":"幸町給水所","province":"東京都","city":"府中市","address":"東京都府中市幸町2-24","lat":35.679613,"lon":139.483705},{"name":"府中南町給水所","province":"東京都","city":"府中市","address":"東京都府中市南町1-50","lat":35.6585721,"lon":139.470907},{"name":"都立武蔵野公園","province":"東京都","city":"府中市","address":"東京都府中市多磨町3-2","lat":35.6879393,"lon":139.5176078},{"name":"上石原配水所","province":"東京都","city":"調布市","address":"東京都調布市上石原1-34-7","lat":35.661306,"lon":139.531746},{"name":"仙川配水所","province":"東京都","city":"調布市","address":"東京都調布市仙川町3-6-27","lat":35.665028,"lon":139.585263},{"name":"深大寺給水所","province":"東京都","city":"調布市","address":"東京都調布市深大寺南町5-56-1","lat":35.6693259,"lon":139.555504},{"name":"調布西町給水所","province":"東京都","city":"調布市","address":"東京都調布市西町717","lat":35.66183,"lon":139.531668},{"name":"小野路給水所","province":"東京都","city":"町田市","address":"東京都町田市小野路町2637-1","lat":35.6055194,"lon":139.449716},{"name":"原町田浄水所","province":"東京都","city":"町田市","address":"東京都町田市原町田5-13-3","lat":35.54707,"lon":139.450439},{"name":"滝の沢給水所","province":"東京都","city":"町田市","address":"東京都町田市旭町2-7-7","lat":35.556835,"lon":139.434658},{"name":"野津田浄水所","province":"東京都","city":"町田市","address":"東京都町田市野津田町3398","lat":35.5768701,"lon":139.448481},{"name":"市立つくし野セントラルパーク","province":"東京都","city":"町田市","address":"東京都町田市つくし野3-19","lat":35.5202538,"lon":139.4822224},{"name":"市立鶴川中央公園","province":"東京都","city":"町田市","address":"東京都町田市鶴川6-6","lat":35.5909809,"lon":139.47186},{"name":"成瀬コミュニティセンター","province":"東京都","city":"町田市","address":"東京都町田市西成瀬2-49-1","lat":35.543542,"lon":139.472704},{"name":"市立忠生公園","province":"東京都","city":"町田市","address":"東京都町田市忠生1-3","lat":35.5734102,"lon":139.4235662},{"name":"市立三輪中央公園","province":"東京都","city":"町田市","address":"東京都町田市三輪緑山3-21","lat":35.5739501,"lon":139.4888159},{"name":"梶野配水所","province":"東京都","city":"小金井市","address":"東京都小金井市梶野町5-10-33","lat":35.7046375,"lon":139.526531},{"name":"上水南給水所","province":"東京都","city":"小平市","address":"東京都小平市上水南町3-12-36","lat":35.711611,"lon":139.491713},{"name":"小川給水所","province":"東京都","city":"小平市","address":"東京都小平市小川町1-847","lat":35.7256378,"lon":139.453172},{"name":"市立津田公園","province":"東京都","city":"小平市","address":"東京都小平市津田町3-39","lat":35.722887,"lon":139.470526},{"name":"市立大坂西公園","province":"東京都","city":"日野市","address":"東京都日野市大坂上1-14-4","lat":35.6764482,"lon":139.3902429},{"name":"多摩平給水所","province":"東京都","city":"日野市","address":"東京都日野市多摩平2-7-2","lat":35.6650353,"lon":139.382619},{"name":"程久保給水所","province":"東京都","city":"日野市","address":"東京都日野市程久保5-10-1","lat":35.64064,"lon":139.395207},{"name":"三沢配水所","province":"東京都","city":"日野市","address":"東京都日野市三沢905-2","lat":35.652935,"lon":139.420362},{"name":"日野旭が丘給水所","province":"東京都","city":"日野市","address":"東京都日野市旭が丘2-42-2","lat":35.662666,"lon":139.368353},{"name":"八坂給水所","province":"東京都","city":"東村山市","address":"東京都東村山市富士見町5-4-46","lat":35.747356,"lon":139.458482},{"name":"東村山浄水場","province":"東京都","city":"東村山市","address":"東京都東村山市美住町2-20-236","lat":35.7532331,"lon":139.458674},{"name":"美住給水所","province":"東京都","city":"東村山市","address":"東京都東村山市美住町2-13-4","lat":35.7555303,"lon":139.461554},{"name":"市立東村山運動公園","province":"東京都","city":"東村山市","address":"東京都東村山市恩多町1-9-5","lat":35.7556996,"lon":139.4901976},{"name":"市立秋津小学校","province":"東京都","city":"東村山市","address":"東京都東村山市秋津町3-48-1","lat":35.773108,"lon":139.482144},{"name":"東恋ヶ窪配水所","province":"東京都","city":"国分寺市","address":"東京都国分寺市東恋ヶ窪2-5-8","lat":35.7065051,"lon":139.476399},{"name":"国分寺北町給水所","province":"東京都","city":"国分寺市","address":"東京都国分寺市北町4-1-5","lat":35.721054,"lon":139.45038},{"name":"国立中給水所","province":"東京都","city":"国立市","address":"東京都国立市中3-8-1","lat":35.688163,"lon":139.442608},{"name":"谷保給水所","province":"東京都","city":"国立市","address":"東京都国立市谷保1462-1","lat":35.6779939,"lon":139.440914},{"name":"芝久保給水所","province":"東京都","city":"西東京市","address":"東京都西東京市芝久保町5-9-1","lat":35.7337671,"lon":139.524477},{"name":"保谷町給水所","province":"東京都","city":"西東京市","address":"東京都西東京市保谷町1-5-24","lat":35.7354513,"lon":139.554782},{"name":"西東京栄町配水所","province":"東京都","city":"西東京市","address":"東京都西東京市栄町2-7-6","lat":35.7516771,"lon":139.552224},{"name":"福生武蔵野台給水所","province":"東京都","city":"福生市","address":"東京都福生市武蔵野台2-32","lat":35.751586,"lon":139.329512},{"name":"市立明神下公園","province":"東京都","city":"福生市","address":"東京都福生市南田園1-12-1","lat":35.723895,"lon":139.330834},{"name":"和泉本町給水所","province":"東京都","city":"狛江市","address":"東京都狛江市和泉本町4-6-1","lat":35.6429908,"lon":139.571116},{"name":"上北台給水所","province":"東京都","city":"東大和市","address":"東京都東大和市上北台1-801-1","lat":35.7466078,"lon":139.413939},{"name":"東大和給水所","province":"東京都","city":"東大和市","address":"東京都東大和市桜が丘3-44","lat":35.7312269,"lon":139.428196},{"name":"清瀬元町配水所","province":"東京都","city":"清瀬市","address":"東京都清瀬市元町2-27-12","lat":35.777687,"lon":139.517376},{"name":"市立第３保育園","province":"東京都","city":"清瀬市","address":"東京都清瀬市旭が丘3-755-1","lat":35.7979192,"lon":139.5391642},{"name":"清瀬梅園給水所","province":"東京都","city":"清瀬市","address":"東京都清瀬市梅園1-3","lat":35.770799,"lon":139.5079632},{"name":"南沢給水所","province":"東京都","city":"東久留米市","address":"東京都東久留米市南沢3-9-21","lat":35.751937,"lon":139.525834},{"name":"滝山給水所","province":"東京都","city":"東久留米市","address":"東京都東久留米市滝山6-1-1","lat":35.7473841,"lon":139.507342},{"name":"学園配水所","province":"東京都","city":"武蔵村山市","address":"東京都武蔵村山市学園1-5-7","lat":35.7499647,"lon":139.390535},{"name":"中藤配水所","province":"東京都","city":"武蔵村山市","address":"東京都武蔵村山市中藤2-1-3","lat":35.7588747,"lon":139.393662},{"name":"市立中原公園","province":"東京都","city":"武蔵村山市","address":"東京都武蔵村山市中原2-21-4","lat":35.7568554,"lon":139.363293},{"name":"桜ヶ丘配水所","province":"東京都","city":"","address":"東京都多摩桜ヶ丘4-10","lat":35.6437424,"lon":139.444107},{"name":"落合配水所","province":"東京都","city":"多摩市","address":"東京都多摩市中沢1-12","lat":35.62455,"lon":139.413627},{"name":"愛宕配水所","province":"東京都","city":"多摩市","address":"東京都多摩市愛宕2-51","lat":35.634838,"lon":139.439535},{"name":"南野給水所","province":"東京都","city":"多摩市","address":"東京都多摩市南野2-16","lat":35.608639,"lon":139.431015},{"name":"聖ヶ丘給水所","province":"東京都","city":"多摩市","address":"東京都多摩市聖ヶ丘4-1","lat":35.63037,"lon":139.46307},{"name":"市立並木公園","province":"東京都","city":"多摩市","address":"東京都多摩市和田1551-1","lat":35.645741,"lon":139.433745},{"name":"坂浜配水所","province":"東京都","city":"稲城市","address":"東京都稲城市坂浜816","lat":35.615837,"lon":139.487899},{"name":"向陽台給水所","province":"東京都","city":"稲城市","address":"東京都稲城市向陽台6-16","lat":35.6437222,"lon":139.493028},{"name":"若葉台給水所","province":"東京都","city":"稲城市","address":"東京都稲城市若葉台1-19","lat":35.623984,"lon":139.473903},{"name":"秋留台給水所","province":"東京都","city":"あきる野市","address":"東京都あきる野市秋川3-2-10","lat":35.7321865,"lon":139.284454},{"name":"菅生給水所","province":"東京都","city":"あきる野市","address":"東京都あきる野市菅生683","lat":35.745663,"lon":139.287219},{"name":"上代継浄水所","province":"東京都","city":"あきる野市","address":"東京都あきる野市上代継407","lat":35.71888,"lon":139.279151},{"name":"戸倉給水所","province":"東京都","city":"あきる野市","address":"東京都あきる野市戸倉348-1","lat":35.726467,"lon":139.20192},{"name":"小峰台配水所","province":"東京都","city":"あきる野市","address":"東京都あきる野市小峰台40","lat":35.719041,"lon":139.233864},{"name":"伊奈配水所","province":"東京都","city":"あきる野市","address":"東京都あきる野市伊奈372-3","lat":35.7348684,"lon":139.252211},{"name":"石畑給水所","province":"東京都","city":"西多摩郡瑞穂町","address":"東京都瑞穂町石畑2301","lat":35.776763,"lon":139.363858},{"name":"文化の森給水所","province":"東京都","city":"西多摩郡日の出町","address":"東京都日の出町平井3075","lat":35.74752,"lon":139.25519},{"name":"第一浄水場","province":"東京都","city":"武蔵野市","address":"東京都武蔵野市吉祥寺北町4-11-46","lat":35.7152429,"lon":139.566641},{"name":"第二浄水場","province":"東京都","city":"武蔵野市","address":"東京都武蔵野市桜堤1-6-6","lat":35.709673,"lon":139.53636},{"name":"西部配水場","province":"東京都","city":"昭島市","address":"東京都昭島市緑町2-17-16","lat":35.712165,"lon":139.347832},{"name":"東部配水場","province":"東京都","city":"昭島市","address":"東京都昭島市朝日町4-23","lat":35.708692,"lon":139.369836},{"name":"第一配水場","province":"東京都","city":"羽村市","address":"東京都羽村市緑ケ丘2-18-5","lat":35.7647394,"lon":139.319607},{"name":"小作浄水場","province":"東京都","city":"羽村市","address":"東京都羽村市小作台4-2-1","lat":35.7761234,"lon":139.295803}]}