{"keyword":"保健","data":[{"name":"三本木保育所","province":"広島県","city":"府中市","address":"府中市府中町3-23-1","lat":35.677622,"lon":139.488524},{"name":"府中市保健センター","province":"広島県","city":"府中市","address":"府中市府中町2-25","lat":35.675775,"lon":139.482855},{"name":"まなびの森保育園府中","province":"広島県","city":"府中市","address":"府中市府中町2-9-12階","lat":35.67342,"lon":139.48259},{"name":"三本木保育所","province":"広島県","city":"府中市","address":"府中市府中町3-23-1","lat":35.67769,"lon":139.48901},{"name":"府中市保健センター","province":"広島県","city":"府中市","address":"府中市府中町2-25","lat":35.67585,"lon":139.4827},{"name":"三本木保育所","province":"広島県","city":"府中市","address":"府中市府中町3-23-1","lat":35.677622,"lon":139.488524},{"name":"まなびの森保育園府中","province":"広島県","city":"府中市","address":"府中市府中町2-9-12階","lat":35.67342,"lon":139.48259},{"name":"三本木保育所","province":"広島県","city":"府中市","address":"府中市府中町3-23-1","lat":35.67769,"lon":139.48901},{"name":"三本木保育所","province":"広島県","city":"府中市","address":"府中市府中町3-23-1","lat":35.677622,"lon":139.488524},{"name":"まなびの森保育園府中","province":"広島県","city":"府中市","address":"府中市府中町2-9-12階","lat":35.67342,"lon":139.48259},{"name":"三本木保育所","province":"広島県","city":"府中市","address":"府中市府中町3-23-1","lat":35.67769,"lon":139.48901},{"name":"三本木保育所","province":"広島県","city":"府中市","address":"府中市府中町3-23-1","lat":35.677622,"lon":139.488524},{"name":"まなびの森保育園府中","province":"広島県","city":"府中市","address":"府中市府中町2-9-12階","lat":35.67342,"lon":139.48259},{"name":"三本木保育所","province":"広島県","city":"府中市","address":"府中市府中町3-23-1","lat":35.67769,"lon":139.48901},{"name":"三本木保育所","province":"広島県","city":"府中市","address":"府中市府中町3-23-1","lat":35.677622,"lon":139.488524},{"name":"まなびの森保育園府中","province":"広島県","city":"府中市","address":"府中市府中町2-9-12階","lat":35.67342,"lon":139.48259},{"name":"三本木保育所","province":"広島県","city":"府中市","address":"府中市府中町3-23-1","lat":35.67769,"lon":139.48901},{"name":"三本木保育所","province":"広島県","city":"府中市","address":"府中市府中町3-23-1","lat":35.677622,"lon":139.488524},{"name":"まなびの森保育園府中","province":"広島県","city":"府中市","address":"府中市府中町2-9-12階","lat":35.67342,"lon":139.48259},{"name":"三本木保育所","province":"広島県","city":"府中市","address":"府中市府中町3-23-1","lat":35.67769,"lon":139.48901},{"name":"三本木保育所","province":"広島県","city":"府中市","address":"府中市府中町3-23-1","lat":35.677622,"lon":139.488524},{"name":"まなびの森保育園府中","province":"広島県","city":"府中市","address":"府中市府中町2-9-12階","lat":35.67342,"lon":139.48259},{"name":"三本木保育所","province":"広島県","city":"府中市","address":"府中市府中町3-23-1","lat":35.67769,"lon":139.48901},{"name":"三本木保育所","province":"広島県","city":"府中市","address":"府中市府中町3-23-1","lat":35.677622,"lon":139.488524},{"name":"三本木保育所","province":"広島県","city":"府中市","address":"府中市府中町3-23-1","lat":35.677622,"lon":139.488524},{"name":"三本木保育所","province":"広島県","city":"府中市","address":"府中市府中町3-23-1","lat":35.677622,"lon":139.488524},{"name":"三本木保育所","province":"広島県","city":"府中市","address":"府中市府中町3-23-1","lat":35.677622,"lon":139.488524},{"name":"三本木保育所","province":"広島県","city":"府中市","address":"府中市府中町3-23-1","lat":35.677622,"lon":139.488524},{"name":"三本木保育所","province":"広島県","city":"府中市","address":"府中市府中町3-23-1","lat":35.677622,"lon":139.488524},{"name":"三本木保育所","province":"広島県","city":"府中市","address":"府中市府中町3-23-1","lat":35.677622,"lon":139.488524},{"name":"三本木保育所","province":"広島県","city":"府中市","address":"府中市府中町3-23-1","lat":35.677622,"lon":139.488524},{"name":"三本木保育所","province":"広島県","city":"府中市","address":"府中市府中町3-23-1","lat":35.677622,"lon":139.488524},{"name":"三本木保育所","province":"広島県","city":"府中市","address":"府中市府中町3-23-1","lat":35.677622,"lon":139.488524},{"name":"三本木保育所","province":"広島県","city":"府中市","address":"府中市府中町3-23-1","lat":35.677622,"lon":139.488524},{"name":"三本木保育所","province":"広島県","city":"府中市","address":"府中市府中町3-23-1","lat":35.677622,"lon":139.488524},{"name":"三本木保育所","province":"広島県","city":"府中市","address":"府中市府中町3-23-1","lat":35.677622,"lon":139.488524},{"name":"三本木保育所","province":"広島県","city":"府中市","address":"府中市府中町3-23-1","lat":35.677622,"lon":139.488524},{"name":"三本木保育所","province":"広島県","city":"府中市","address":"府中市府中町3-23-1","lat":35.677622,"lon":139.488524},{"name":"三本木保育所","province":"広島県","city":"府中市","address":"府中市府中町3-23-1","lat":35.677622,"lon":139.488524},{"name":"三本木保育所","province":"広島県","city":"府中市","address":"府中市府中町3-23-1","lat":35.677622,"lon":139.488524},{"name":"三本木保育所","province":"広島県","city":"府中市","address":"府中市府中町3-23-1","lat":35.677622,"lon":139.488524},{"name":"三本木保育所","province":"広島県","city":"府中市","address":"府中市府中町3-23-1","lat":35.677622,"lon":139.488524},{"name":"三本木保育所","province":"広島県","city":"府中市","address":"府中市府中町3-23-1","lat":35.677622,"lon":139.488524},{"name":"三本木保育所","province":"広島県","city":"府中市","address":"府中市府中町3-23-1","lat":35.677622,"lon":139.488524},{"name":"三本木保育所","province":"広島県","city":"府中市","address":"府中市府中町3-23-1","lat":35.677622,"lon":139.488524},{"name":"三本木保育所","province":"広島県","city":"府中市","address":"府中市府中町3-23-1","lat":35.677622,"lon":139.488524},{"name":"三本木保育所","province":"広島県","city":"府中市","address":"府中市府中町3-23-1","lat":35.677622,"lon":139.488524},{"name":"三本木保育所","province":"広島県","city":"府中市","address":"府中市府中町3-23-1","lat":35.677622,"lon":139.488524},{"name":"三本木保育所","province":"広島県","city":"府中市","address":"府中市府中町3-23-1","lat":35.677622,"lon":139.488524},{"name":"三本木保育所","province":"広島県","city":"府中市","address":"府中市府中町3-23-1","lat":35.677622,"lon":139.488524},{"name":"三本木保育所","province":"広島県","city":"府中市","address":"府中市府中町3-23-1","lat":35.677622,"lon":139.488524},{"name":"三本木保育所","province":"広島県","city":"府中市","address":"府中市府中町3-23-1","lat":35.677622,"lon":139.488524},{"name":"三本木保育所","province":"広島県","city":"府中市","address":"府中市府中町3-23-1","lat":35.677622,"lon":139.488524},{"name":"三本木保育所","province":"広島県","city":"府中市","address":"府中市府中町3-23-1","lat":35.677622,"lon":139.488524},{"name":"三本木保育所","province":"広島県","city":"府中市","address":"府中市府中町3-23-1","lat":35.677622,"lon":139.488524},{"name":"三本木保育所","province":"広島県","city":"府中市","address":"府中市府中町3-23-1","lat":35.677622,"lon":139.488524},{"name":"三本木保育所","province":"広島県","city":"府中市","address":"府中市府中町3-23-1","lat":35.677622,"lon":139.488524},{"name":"三本木保育所","province":"広島県","city":"府中市","address":"府中市府中町3-23-1","lat":35.677622,"lon":139.488524},{"name":"三本木保育所","province":"広島県","city":"府中市","address":"府中市府中町3-23-1","lat":35.677622,"lon":139.488524},{"name":"三本木保育所","province":"広島県","city":"府中市","address":"府中市府中町3-23-1","lat":35.677622,"lon":139.488524},{"name":"三本木保育所","province":"広島県","city":"府中市","address":"府中市府中町3-23-1","lat":35.677622,"lon":139.488524},{"name":"三本木保育所","province":"広島県","city":"府中市","address":"府中市府中町3-23-1","lat":35.677622,"lon":139.488524},{"name":"三本木保育所","province":"広島県","city":"府中市","address":"府中市府中町3-23-1","lat":35.677622,"lon":139.488524},{"name":"三本木保育所","province":"広島県","city":"府中市","address":"府中市府中町3-23-1","lat":35.677622,"lon":139.488524},{"name":"三本木保育所","province":"広島県","city":"府中市","address":"府中市府中町3-23-1","lat":35.677622,"lon":139.488524},{"name":"三本木保育所","province":"広島県","city":"府中市","address":"府中市府中町3-23-1","lat":35.677622,"lon":139.488524},{"name":"三本木保育所","province":"広島県","city":"府中市","address":"府中市府中町3-23-1","lat":35.677622,"lon":139.488524},{"name":"三本木保育所","province":"広島県","city":"府中市","address":"府中市府中町3-23-1","lat":35.677622,"lon":139.488524},{"name":"三本木保育所","province":"広島県","city":"府中市","address":"府中市府中町3-23-1","lat":35.677622,"lon":139.488524},{"name":"三本木保育所","province":"広島県","city":"府中市","address":"府中市府中町3-23-1","lat":35.677622,"lon":139.488524},{"name":"三本木保育所","province":"広島県","city":"府中市","address":"府中市府中町3-23-1","lat":35.677622,"lon":139.488524},{"name":"三本木保育所","province":"広島県","city":"府中市","address":"府中市府中町3-23-1","lat":35.677622,"lon":139.488524}]}