{"keyword":"商品","data":[{"name":"中央児童館","province":"広島県","city":"府中市","address":"府中市府中町2-25","lat":35.675775,"lon":139.482855},{"name":"府中市社会福祉協議会","province":"広島県","city":"府中市","address":"府中市府中町1-30ふれあい会館2階","lat":35.675867,"lon":139.480063},{"name":"府中市保健センター","province":"広島県","city":"府中市","address":"府中市府中町2-25","lat":35.675775,"lon":139.482855},{"name":"中央児童館","province":"広島県","city":"府中市","address":"府中市府中町2-25","lat":35.67585,"lon":139.4827},{"name":"府中市社会福祉協議会","province":"広島県","city":"府中市","address":"府中市府中町1-30ふれあい会館2階","lat":35.67585,"lon":139.48009},{"name":"府中市保健センター","province":"広島県","city":"府中市","address":"府中市府中町2-25","lat":35.67585,"lon":139.4827},{"name":"府中警察署","province":"広島県","city":"府中市","address":"府中市府中町1-10-5","lat":35.67365,"lon":139.4816},{"name":"中央児童館","province":"広島県","city":"府中市","address":"府中市府中町2-25","lat":35.675775,"lon":139.482855},{"name":"府中市保健センター","province":"広島県","city":"府中市","address":"府中市府中町2-25","lat":35.675775,"lon":139.482855},{"name":"中央児童館","province":"広島県","city":"府中市","address":"府中市府中町2-25","lat":35.67585,"lon":139.4827},{"name":"府中市保健センター","province":"広島県","city":"府中市","address":"府中市府中町2-25","lat":35.67585,"lon":139.4827},{"name":"府中警察署","province":"広島県","city":"府中市","address":"府中市府中町1-10-5","lat":35.67365,"lon":139.4816},{"name":"中央児童館","province":"広島県","city":"府中市","address":"府中市府中町2-25","lat":35.675775,"lon":139.482855},{"name":"中央児童館","province":"広島県","city":"府中市","address":"府中市府中町2-25","lat":35.67585,"lon":139.4827}]}