{"keyword":"男女","data":[{"name":"三本木保育所","province":"広島県","city":"府中市","address":"府中市府中町3-23-1","lat":35.677622,"lon":139.488524},{"name":"スポーツひろば　プレイス　府中教室","province":"広島県","city":"府中市","address":"府中市府中町1-8-13-1F","lat":35.672784,"lon":139.481327},{"name":"放課後等デイサービス　ふぁんふぁん府中町","province":"広島県","city":"府中市","address":"府中市府中町1-32-5シャルマン府中103号室","lat":35.67695,"lon":139.479497},{"name":"府中市保健センター","province":"広島県","city":"府中市","address":"府中市府中町2-25","lat":35.675775,"lon":139.482855},{"name":"まなびの森保育園府中","province":"広島県","city":"府中市","address":"府中市府中町2-9-12階","lat":35.67342,"lon":139.48259},{"name":"三本木保育所","province":"広島県","city":"府中市","address":"府中市府中町3-23-1","lat":35.67769,"lon":139.48901},{"name":"府中警察署","province":"広島県","city":"府中市","address":"府中市府中町1-10-5","lat":35.67365,"lon":139.4816},{"name":"スポーツひろば　プレイス　府中教室","province":"広島県","city":"府中市","address":"府中市府中町1-8-13-1F","lat":35.672784,"lon":139.481327},{"name":"放課後等デイサービス　ふぁんふぁん府中町","province":"広島県","city":"府中市","address":"府中市府中町1-32-5シャルマン府中103号室","lat":35.67695,"lon":139.479497},{"name":"府中警察署","province":"広島県","city":"府中市","address":"府中市府中町1-10-5","lat":35.67365,"lon":139.4816},{"name":"スポーツひろば　プレイス　府中教室","province":"広島県","city":"府中市","address":"府中市府中町1-8-13-1F","lat":35.672784,"lon":139.481327},{"name":"放課後等デイサービス　ふぁんふぁん府中町","province":"広島県","city":"府中市","address":"府中市府中町1-32-5シャルマン府中103号室","lat":35.67695,"lon":139.479497},{"name":"スポーツひろば　プレイス　府中教室","province":"広島県","city":"府中市","address":"府中市府中町1-8-13-1F","lat":35.672784,"lon":139.481327},{"name":"放課後等デイサービス　ふぁんふぁん府中町","province":"広島県","city":"府中市","address":"府中市府中町1-32-5シャルマン府中103号室","lat":35.67695,"lon":139.479497},{"name":"スポーツひろば　プレイス　府中教室","province":"広島県","city":"府中市","address":"府中市府中町1-8-13-1F","lat":35.672784,"lon":139.481327},{"name":"放課後等デイサービス　ふぁんふぁん府中町","province":"広島県","city":"府中市","address":"府中市府中町1-32-5シャルマン府中103号室","lat":35.67695,"lon":139.479497},{"name":"スポーツひろば　プレイス　府中教室","province":"広島県","city":"府中市","address":"府中市府中町1-8-13-1F","lat":35.672784,"lon":139.481327},{"name":"放課後等デイサービス　ふぁんふぁん府中町","province":"広島県","city":"府中市","address":"府中市府中町1-32-5シャルマン府中103号室","lat":35.67695,"lon":139.479497},{"name":"スポーツひろば　プレイス　府中教室","province":"広島県","city":"府中市","address":"府中市府中町1-8-13-1F","lat":35.672784,"lon":139.481327},{"name":"放課後等デイサービス　ふぁんふぁん府中町","province":"広島県","city":"府中市","address":"府中市府中町1-32-5シャルマン府中103号室","lat":35.67695,"lon":139.479497}]}