{"category":"toilet","data":[{"name":"相原中央公園（管理棟内）","province":"東京都","city":"町田市","address":"東京都町田市相原町2018","lat":35.60931825,"lon":139.3196688},{"name":"相原中央公園（作業棟側）","province":"東京都","city":"町田市","address":"東京都町田市相原町2018","lat":35.60951415,"lon":139.3198017},{"name":"相原中央公園（芝生広場）","province":"東京都","city":"町田市","address":"東京都町田市相原町2018","lat":35.60933497,"lon":139.3196646},{"name":"Nature Factory 東京町田","province":"東京都","city":"町田市","address":"東京都町田市相原町5307-2","lat":35.6122812,"lon":139.2765802},{"name":"堺市民センター","province":"東京都","city":"町田市","address":"東京都町田市相原町795-1","lat":35.60430536,"lon":139.3333318},{"name":"尾根緑道内第２便所","province":"東京都","city":"町田市","address":"東京都町田市小山が丘1-11","lat":35.59763649,"lon":139.387157},{"name":"小山上沼公園","province":"東京都","city":"町田市","address":"東京都町田市小山が丘3-1-1","lat":35.5989315,"lon":139.3805601},{"name":"三ツ目山公園","province":"東京都","city":"町田市","address":"東京都町田市小山が丘5-38","lat":35.60590505,"lon":139.3540712},{"name":"小山白山公園","province":"東京都","city":"町田市","address":"東京都町田市小山が丘5-4","lat":35.60279467,"lon":139.3644451},{"name":"小山市民センター","province":"東京都","city":"町田市","address":"東京都町田市小山町2507-1","lat":35.59714835,"lon":139.36902},{"name":"谷戸池公園","province":"東京都","city":"町田市","address":"東京都町田市小山田桜台1-19-1","lat":35.5881534,"lon":139.40188},{"name":"上小山田町バイオトイレ","province":"東京都","city":"町田市","address":"東京都町田市上小山田町1851-2内","lat":35.60206977,"lon":139.395559},{"name":"上小山田コミュニティセンター","province":"東京都","city":"町田市","address":"東京都町田市上小山田町2616-2","lat":35.59484071,"lon":139.3983522},{"name":"木曽森野コミュニティセンター","province":"東京都","city":"町田市","address":"東京都町田市木曽東1-2","lat":35.55513015,"lon":139.4285798},{"name":"教育センター","province":"東京都","city":"町田市","address":"東京都町田市木曽東3-1-3","lat":35.55972889,"lon":139.4240379},{"name":"下小山田山王林公園","province":"東京都","city":"町田市","address":"東京都町田市下小山田町2805","lat":35.59225855,"lon":139.4074595},{"name":"町田市バイオエネルギーセンター","province":"東京都","city":"町田市","address":"東京都町田市下小山田町3160","lat":35.58777258,"lon":139.4109448},{"name":"土木・公園サービスセンター","province":"東京都","city":"町田市","address":"東京都町田市下小山田町3267-4","lat":35.58528811,"lon":139.4090985},{"name":"忠生スポーツ公園","province":"東京都","city":"町田市","address":"東京都町田市下小山田町3337-1","lat":35.59707143,"lon":139.4147426},{"name":"下小山田町バイオトイレ","province":"東京都","city":"町田市","address":"東京都町田市下小山田町1200-2内","lat":35.59720408,"lon":139.4223803},{"name":"町田市立室内プール","province":"東京都","city":"町田市","address":"東京都町田市図師町199-1","lat":35.58639266,"lon":139.4140035},{"name":"室内プール（温浴施設棟）","province":"東京都","city":"町田市","address":"東京都町田市図師町199-1","lat":35.58630765,"lon":139.4138148},{"name":"忠生公園（忠生口トイレ）","province":"東京都","city":"町田市","address":"東京都町田市忠生1-3-1","lat":35.57372166,"lon":139.4226101},{"name":"忠生公園（木曽口トイレ）","province":"東京都","city":"町田市","address":"東京都町田市忠生1-3-1","lat":35.57210544,"lon":139.4225113},{"name":"忠生市民センター","province":"東京都","city":"町田市","address":"東京都町田市忠生3-14-2","lat":35.57851191,"lon":139.4158638},{"name":"尾根緑道内第一公共トイレ","province":"東京都","city":"町田市","address":"東京都町田市常盤町3434-2","lat":35.58682185,"lon":139.402443},{"name":"根岸公園","province":"東京都","city":"町田市","address":"東京都町田市根岸1-16-1","lat":35.57130622,"lon":139.4126627},{"name":"本町田後田公園","province":"東京都","city":"町田市","address":"東京都町田市本町田2339-1","lat":35.56556105,"lon":139.4425696},{"name":"忠生公園（がにやら自然館内）","province":"東京都","city":"町田市","address":"東京都町田市山崎町1804-1","lat":35.57298742,"lon":139.4241924},{"name":"木曽山崎図書館","province":"東京都","city":"町田市","address":"東京都町田市山崎町2160","lat":35.56838416,"lon":139.4367322},{"name":"木曽山崎コミュニティセンター","province":"東京都","city":"町田市","address":"東京都町田市山崎町2160-4","lat":35.56859933,"lon":139.4366123},{"name":"町田中央公園①（バックネット側）","province":"東京都","city":"町田市","address":"東京都町田市旭町3-20-60","lat":35.55611667,"lon":139.4459031},{"name":"町田中央公園③（サン町田旭体育館1F）","province":"東京都","city":"町田市","address":"東京都町田市旭町3-20-60","lat":35.55696686,"lon":139.4471737},{"name":"町田中央公園④（サン町田旭体育館2F多目的室横）","province":"東京都","city":"町田市","address":"東京都町田市旭町3-20-60","lat":35.55696686,"lon":139.4471737},{"name":"町田中央公園⑤（サン町田旭体育館2F会議室横）","province":"東京都","city":"町田市","address":"東京都町田市旭町3-20-60","lat":35.55696686,"lon":139.4471737},{"name":"松葉公園","province":"東京都","city":"町田市","address":"東京都町田市高ヶ坂7-1043","lat":35.53766286,"lon":139.4654651},{"name":"玉川学園コミュニティセンター","province":"東京都","city":"町田市","address":"東京都町田市玉川学園2-19-12","lat":35.56373092,"lon":139.4627289},{"name":"町田シバヒロ","province":"東京都","city":"町田市","address":"東京都町田市中町1-20-23","lat":35.54822334,"lon":139.447122},{"name":"さるびあ図書館","province":"東京都","city":"町田市","address":"東京都町田市中町2-13-23","lat":35.55136772,"lon":139.4441454},{"name":"町田市保健所","province":"東京都","city":"町田市","address":"東京都町田市中町2-13-3","lat":35.55121958,"lon":139.4437069},{"name":"原町田青空ひろば","province":"東京都","city":"町田市","address":"東京都町田市原町田1-27","lat":35.5369899,"lon":139.4491748},{"name":"原町田一丁目駐車場","province":"東京都","city":"町田市","address":"東京都町田市原町田1-6-21","lat":35.54050928,"lon":139.4475692},{"name":"町田ターミナルプラザ","province":"東京都","city":"町田市","address":"東京都町田市原町田3-1-4","lat":35.54035593,"lon":139.4492485},{"name":"中央図書館","province":"東京都","city":"町田市","address":"東京都町田市原町田3-2-9","lat":35.5403913,"lon":139.4501544},{"name":"町田市文化交流センター","province":"東京都","city":"町田市","address":"東京都町田市原町田4-1-14","lat":35.54093763,"lon":139.4481321},{"name":"町田市民文学館ことばらんど","province":"東京都","city":"町田市","address":"東京都町田市原町田4-16-17","lat":35.54259031,"lon":139.4515229},{"name":"町田市せりがや会館","province":"東京都","city":"町田市","address":"東京都町田市原町田4-26-4","lat":35.54450784,"lon":139.4531667},{"name":"国際版画美術館","province":"東京都","city":"町田市","address":"東京都町田市原町田4-28-1","lat":35.54401651,"lon":139.4553386},{"name":"町田市民フォーラム","province":"東京都","city":"町田市","address":"東京都町田市原町田4-9-8","lat":35.54174822,"lon":139.4499238},{"name":"芹ヶ谷公園（虹と水の広場）","province":"東京都","city":"町田市","address":"東京都町田市原町田5-16","lat":35.54544614,"lon":139.4550658},{"name":"芹ヶ谷公園（芹ヶ谷グラウンド）","province":"東京都","city":"町田市","address":"東京都町田市原町田5-16","lat":35.5471564,"lon":139.4551366},{"name":"芹ヶ谷公園（小田急線側）","province":"東京都","city":"町田市","address":"東京都町田市原町田5-1679","lat":35.54834149,"lon":139.4511683},{"name":"健康福祉会館","province":"東京都","city":"町田市","address":"東京都町田市原町田5-8-21","lat":35.54609523,"lon":139.4499542},{"name":"町田駅前公共トイレ","province":"東京都","city":"町田市","address":"東京都町田市原町田6-1-11ルミネ町田脇","lat":35.54184621,"lon":139.4464663},{"name":"原町田わかば公園","province":"東京都","city":"町田市","address":"東京都町田市原町田6-27-3","lat":35.54541891,"lon":139.4482203},{"name":"生涯学習センター","province":"東京都","city":"町田市","address":"東京都町田市原町田6-8-1","lat":35.54297405,"lon":139.4471666},{"name":"木曽山崎公園","province":"東京都","city":"町田市","address":"東京都町田市本町田1966-1","lat":35.56514032,"lon":139.4354321},{"name":"木曽山崎グラウンド","province":"東京都","city":"町田市","address":"東京都町田市本町田1966-1","lat":35.56556105,"lon":139.4425696},{"name":"緑ヶ丘グラウンド","province":"東京都","city":"町田市","address":"東京都町田市本町田2380-6","lat":35.56409302,"lon":139.4365583},{"name":"子ども創造キャンパスひなた村","province":"東京都","city":"町田市","address":"東京都町田市本町田2863","lat":35.56776306,"lon":139.4453979},{"name":"町田薬師池公園四季彩の杜西園（ウェルカムゲート・インフォメーション）","province":"東京都","city":"町田市","address":"東京都町田市本町田3105","lat":35.57473776,"lon":139.4465087},{"name":"町田薬師池公園四季彩の杜西園（ウェルカムゲート・ラウンジ）","province":"東京都","city":"町田市","address":"東京都町田市本町田3105","lat":35.57476788,"lon":139.4466059},{"name":"本町田遺跡公園","province":"東京都","city":"町田市","address":"東京都町田市本町田3455","lat":35.56749645,"lon":139.4501295},{"name":"日向山公園","province":"東京都","city":"町田市","address":"東京都町田市本町田3486","lat":35.56786974,"lon":139.4464038},{"name":"市立博物館","province":"東京都","city":"町田市","address":"東京都町田市本町田3562","lat":35.56731949,"lon":139.4512617},{"name":"南大谷公園","province":"東京都","city":"町田市","address":"東京都町田市南大谷7-1104-1","lat":35.55026735,"lon":139.4626898},{"name":"わくわくプラザ町田","province":"東京都","city":"町田市","address":"東京都町田市森野1-1-15","lat":35.54256943,"lon":139.4426539},{"name":"町田市役所市庁舎","province":"東京都","city":"町田市","address":"東京都町田市森野2-2-22","lat":35.54669228,"lon":139.4386545},{"name":"町田市民ホール","province":"東京都","city":"町田市","address":"東京都町田市森野2-2-36","lat":35.54646742,"lon":139.439526},{"name":"木曽森野防災市民いこいの広場","province":"東京都","city":"町田市","address":"東京都町田市森野4-8","lat":35.55527785,"lon":139.4326685},{"name":"町田中央公園②（テニスコート側）","province":"東京都","city":"町田市","address":"東京都町田市旭町3-20-60","lat":35.55753184,"lon":139.4464175},{"name":"鶴川市民センター","province":"東京都","city":"町田市","address":"東京都町田市大蔵町1981-4","lat":35.58887085,"lon":139.4673853},{"name":"小野路公園①（管理棟内）","province":"東京都","city":"町田市","address":"東京都町田市小野路町2023-1","lat":35.59807168,"lon":139.4538011},{"name":"小野路公園②（球場脇）","province":"東京都","city":"町田市","address":"東京都町田市小野路町2023-1","lat":35.59778782,"lon":139.4543465},{"name":"小野路公園③（野球場観覧席棟内）","province":"東京都","city":"町田市","address":"東京都町田市小野路町2023-1","lat":35.59773085,"lon":139.4547295},{"name":"小野路公園④（グラウンド内）","province":"東京都","city":"町田市","address":"東京都町田市小野路町2023-1","lat":35.59818207,"lon":139.4547156},{"name":"研修農場バイオトイレ","province":"東京都","city":"町田市","address":"東京都町田市小野路町282-2","lat":35.59717827,"lon":139.4352231},{"name":"小野路町バイオトイレ（馬場）","province":"東京都","city":"町田市","address":"東京都町田市小野路町770-1内","lat":35.60030062,"lon":139.4337402},{"name":"小野路宿里山交流館","province":"東京都","city":"町田市","address":"東京都町田市小野路町888-1","lat":35.59827355,"lon":139.4385311},{"name":"南市民センター","province":"東京都","city":"町田市","address":"東京都町田市金森4-5-6","lat":35.52385977,"lon":139.4666749},{"name":"真光寺公園","province":"東京都","city":"町田市","address":"東京都町田市真光寺町2-2-1","lat":35.60865785,"lon":139.465798},{"name":"鶴川中央公園①（ゲートボール場脇）","province":"東京都","city":"町田市","address":"東京都町田市鶴川6-6","lat":35.59057475,"lon":139.4718265},{"name":"鶴川中央公園②","province":"東京都","city":"町田市","address":"東京都町田市鶴川6-6","lat":35.59081122,"lon":139.4712707},{"name":"鶴川図書館","province":"東京都","city":"町田市","address":"東京都町田市鶴川6-7-21-101号","lat":35.59085456,"lon":139.4703125},{"name":"和光大学ポプリホール鶴川","province":"東京都","city":"町田市","address":"東京都町田市能ヶ谷1-2-1","lat":35.58284188,"lon":139.4789833},{"name":"野津田公園管理棟（メインスタンド2階～6階）","province":"東京都","city":"町田市","address":"東京都町田市野津田町2035","lat":35.59192042,"lon":139.4386079},{"name":"野津田公園１期分①（多目的広場）","province":"東京都","city":"町田市","address":"東京都町田市野津田町2035","lat":35.59194539,"lon":139.4377204},{"name":"野津田公園１期分②（芝生広場前）","province":"東京都","city":"町田市","address":"東京都町田市野津田町2035","lat":35.59224041,"lon":139.4403504},{"name":"野津田公園２期分（テニスコート脇）","province":"東京都","city":"町田市","address":"東京都町田市野津田町2035","lat":35.59298819,"lon":139.4417228},{"name":"野津田公園２期分（上の原広場）","province":"東京都","city":"町田市","address":"東京都町田市野津田町2035","lat":35.59143867,"lon":139.4457486},{"name":"野津田公園管理棟（メインスタンド1階）","province":"東京都","city":"町田市","address":"東京都町田市野津田町2035","lat":35.59192318,"lon":139.4386089},{"name":"野津田公園バイオトイレ（球場脇）","province":"東京都","city":"町田市","address":"東京都町田市野津田町2035","lat":35.5936512,"lon":139.445711},{"name":"ぼたん園トイレ","province":"東京都","city":"町田市","address":"東京都町田市野津田町2274-1","lat":35.58330925,"lon":139.4437018},{"name":"ぼたん園トイレ（休憩室内）","province":"東京都","city":"町田市","address":"東京都町田市野津田町2274-1","lat":35.58320956,"lon":139.4442126},{"name":"ふるさと農具館","province":"東京都","city":"町田市","address":"東京都町田市野津田町2288","lat":35.58244792,"lon":139.4440466},{"name":"薬師池公園トイレ","province":"東京都","city":"町田市","address":"東京都町田市野津田町3270","lat":35.57919715,"lon":139.4483277},{"name":"薬師池公園トイレ（薬師堂）","province":"東京都","city":"町田市","address":"東京都町田市野津田町3270","lat":35.5787456,"lon":139.4465837},{"name":"町田市フォトサロン","province":"東京都","city":"町田市","address":"東京都町田市野津田町3272薬師池公園内","lat":35.57992534,"lon":139.4488101},{"name":"七国山ファーマーズセンター","province":"東京都","city":"町田市","address":"東京都町田市野津田町3497-1","lat":35.58101677,"lon":139.4432298},{"name":"自由民権資料館","province":"東京都","city":"町田市","address":"東京都町田市野津田町897","lat":35.58890471,"lon":139.4532895},{"name":"広袴公園","province":"東京都","city":"町田市","address":"東京都町田市広袴3-4-1","lat":35.59591838,"lon":139.4752811},{"name":"成瀬駅北口駅前広場公共トイレ","province":"東京都","city":"町田市","address":"東京都町田市南成瀬1-1成瀬駅隣接","lat":35.53556167,"lon":139.4730628},{"name":"恩廻公園","province":"東京都","city":"町田市","address":"東京都町田市三輪町539-72","lat":35.57615703,"lon":139.5037193},{"name":"鶴見川クリーンセンター","province":"東京都","city":"町田市","address":"東京都町田市三輪緑山1-1","lat":35.57070192,"lon":139.49196},{"name":"三輪みどり山球場","province":"東京都","city":"町田市","address":"東京都町田市三輪緑山1-24-1","lat":35.57180049,"lon":139.4916773},{"name":"三輪中央公園","province":"東京都","city":"町田市","address":"東京都町田市三輪緑山3-21","lat":35.57405549,"lon":139.4888677},{"name":"沢谷戸自然公園","province":"東京都","city":"町田市","address":"東京都町田市三輪緑山4-1-18","lat":35.57777488,"lon":139.4913035},{"name":"三輪コミュニティセンター","province":"東京都","city":"町田市","address":"東京都町田市三輪緑山4-14-1","lat":35.57718338,"lon":139.4930652},{"name":"山王塚公園","province":"東京都","city":"町田市","address":"東京都町田市薬師台3-3-20","lat":35.58210824,"lon":139.4533588},{"name":"松葉谷戸公園","province":"東京都","city":"町田市","address":"東京都町田市金森東1-1076-2","lat":35.5359676,"lon":139.4642483},{"name":"金森図書館","province":"東京都","city":"町田市","address":"東京都町田市金森東3-5-1","lat":35.53345412,"lon":139.4659348},{"name":"つくし野コミュニティセンター","province":"東京都","city":"町田市","address":"東京都町田市つくし野2-26-5","lat":35.52709328,"lon":139.4846571},{"name":"つくし野セントラルパーク","province":"東京都","city":"町田市","address":"東京都町田市つくし野3-19","lat":35.5204266,"lon":139.4824472},{"name":"鶴間公園クラブハウス","province":"東京都","city":"町田市","address":"東京都町田市鶴間2-5-13","lat":35.50947826,"lon":139.4661278},{"name":"鶴間公園","province":"東京都","city":"町田市","address":"東京都町田市鶴間3-1-1","lat":35.51087305,"lon":139.4661973},{"name":"成瀬弁天橋公園","province":"東京都","city":"町田市","address":"東京都町田市成瀬8-2045","lat":35.54278613,"lon":139.4693299},{"name":"成瀬うさぎ谷戸公園（鞍掛グラウンド）","province":"東京都","city":"町田市","address":"東京都町田市西成瀬1-2738-3","lat":35.54544511,"lon":139.467174},{"name":"成瀬コミュニティセンター","province":"東京都","city":"町田市","address":"東京都町田市西成瀬2-49-1","lat":35.54353038,"lon":139.4727757},{"name":"なるせ駅前市民センター","province":"東京都","city":"町田市","address":"東京都町田市南成瀬1-2-5","lat":35.53682154,"lon":139.4730256},{"name":"町田市立総合体育館","province":"東京都","city":"町田市","address":"東京都町田市南成瀬5-12","lat":35.5359569,"lon":139.479313},{"name":"堂之坂公苑","province":"東京都","city":"町田市","address":"東京都町田市南成瀬5-8","lat":35.53623535,"lon":139.4769298},{"name":"成瀬クリーンセンター","province":"東京都","city":"町田市","address":"東京都町田市南成瀬8-1-1","lat":35.53515186,"lon":139.483665},{"name":"ローソン・スリーエフ町田相原駅前店","province":"東京都","city":"町田市","address":"東京都町田市相原町1158-4","lat":35.60650678,"lon":139.3319197},{"name":"セブン-イレブン町田相原店","province":"東京都","city":"町田市","address":"東京都町田市相原町2177-1","lat":35.60612701,"lon":139.3171478},{"name":"ローソン 町田相原町境橋店","province":"東京都","city":"町田市","address":"東京都町田市相原町3144","lat":35.60556508,"lon":139.3044954},{"name":"ファミリーマート秀栄相原町店","province":"東京都","city":"町田市","address":"東京都町田市相原町3621-1","lat":35.61001704,"lon":139.2989492},{"name":"トイザらスベビーザらス町田多摩境店","province":"東京都","city":"町田市","address":"東京都町田市小山ヶ丘1-7-2","lat":35.5987263,"lon":139.3816645},{"name":"カインズホーム町田多摩境店","province":"東京都","city":"町田市","address":"東京都町田市小山ヶ丘3-6-6","lat":35.6014695,"lon":139.3749203},{"name":"セブン-イレブン町田小山ヶ丘４丁目店","province":"東京都","city":"町田市","address":"東京都町田市小山ヶ丘4-9-2","lat":35.60691431,"lon":139.3524332},{"name":"ファミリーマート町田多摩境店","province":"東京都","city":"町田市","address":"東京都町田市小山ヶ丘5-1-4","lat":35.6027111,"lon":139.3649671},{"name":"セブン-イレブン町田堺店","province":"東京都","city":"町田市","address":"東京都町田市小山町828-1","lat":35.59228839,"lon":139.3811088},{"name":"ローソン・スリーエフ　町田多摩境店","province":"東京都","city":"町田市","address":"東京都町田市小山町3161","lat":35.59961565,"lon":139.3630257},{"name":"ファミリーマート 町田小山町店","province":"東京都","city":"町田市","address":"東京都町田市小山町704-1","lat":35.59065787,"lon":139.3839015},{"name":"セブン-イレブン町田忠生公園入口店","province":"東京都","city":"町田市","address":"東京都町田市木曽西3-25-5","lat":35.57217534,"lon":139.4200512},{"name":"salon de みずき","province":"東京都","city":"町田市","address":"東京都町田市木曽東3-24-15エムアイビル1階","lat":35.56508393,"lon":139.4228128},{"name":"セブン-イレブン町田市木曽町店","province":"東京都","city":"町田市","address":"東京都町田市木曽東4-2-2","lat":35.56238054,"lon":139.4283137},{"name":"とんかつ　とん久","province":"東京都","city":"町田市","address":"東京都町田市木曽東4-27-19","lat":35.56726948,"lon":139.4257041},{"name":"ローソン小山田桜台店","province":"東京都","city":"町田市","address":"東京都町田市下小山田町3352-5","lat":35.58939658,"lon":139.4076165},{"name":"ファミリーマート町田図師店","province":"東京都","city":"町田市","address":"東京都町田市図師町1896-6","lat":35.58306806,"lon":139.4246931},{"name":"ローソン町田図師町店","province":"東京都","city":"町田市","address":"東京都町田市図師町612-1","lat":35.58128938,"lon":139.4170985},{"name":"ファミリーマート町田忠生店","province":"東京都","city":"町田市","address":"東京都町田市忠生1-27-8","lat":35.57529055,"lon":139.4182291},{"name":"でんかのヤマグチ　修理処","province":"東京都","city":"町田市","address":"東京都町田市忠生4-1-3","lat":35.57882786,"lon":139.4103314},{"name":"セブン-イレブン町田常盤店","province":"東京都","city":"町田市","address":"東京都町田市常盤町3163-4","lat":35.58669695,"lon":139.3933688},{"name":"ライフテクトヤマグチ　根岸店","province":"東京都","city":"町田市","address":"東京都町田市根岸1-13-5","lat":35.57270363,"lon":139.4138692},{"name":"ミニストップ町田根岸店","province":"東京都","city":"町田市","address":"東京都町田市根岸町1001-26","lat":35.5762016,"lon":139.4082566},{"name":"セブン-イレブン町田山崎新道店","province":"東京都","city":"町田市","address":"東京都町田市山崎町1936-1","lat":35.57107081,"lon":139.4286695},{"name":"㈱三和玉川学園店","province":"東京都","city":"町田市","address":"東京都町田市玉川学園2-11-26","lat":35.5627355,"lon":139.4622013},{"name":"セブン-イレブン玉川学園2丁目店","province":"東京都","city":"町田市","address":"東京都町田市玉川学園2-8-24","lat":35.56180236,"lon":139.4617751},{"name":"ファミリーマート町田中町二丁目店","province":"東京都","city":"町田市","address":"東京都町田市中町2-5-4","lat":35.55197154,"lon":139.4403443},{"name":"ファミリーマート町田駅南口店","province":"東京都","city":"町田市","address":"東京都町田市原町田1-3-9","lat":35.54064775,"lon":139.4467161},{"name":"ファミリーマート版画美術館入口店","province":"東京都","city":"町田市","address":"東京都町田市原町田3-15-1","lat":35.54279205,"lon":139.452826},{"name":"セブン-イレブン原町田４丁目店","province":"東京都","city":"町田市","address":"東京都町田市原町田4-11-18","lat":35.542633,"lon":139.4488713},{"name":"はじめの一歩","province":"東京都","city":"町田市","address":"東京都町田市本町田2507-4ハ16-106","lat":35.56719011,"lon":139.4359601},{"name":"デイサービス　みずきの家","province":"東京都","city":"町田市","address":"東京都町田市本町田2797","lat":35.56642917,"lon":139.4456027},{"name":"セブン-イレブン町田南大谷店","province":"東京都","city":"町田市","address":"東京都町田市南大谷4-11-1","lat":35.55561329,"lon":139.4565914},{"name":"ローソン町田森野一丁目店","province":"東京都","city":"町田市","address":"東京都町田市森野1-13-1","lat":35.54397812,"lon":139.4436756},{"name":"セブン-イレブン町田大蔵店","province":"東京都","city":"町田市","address":"東京都町田市大蔵町560-1","lat":35.58851952,"lon":139.4594194},{"name":"ローソン町田金井町店","province":"東京都","city":"町田市","address":"東京都町田市金井2-19-14","lat":35.57317163,"lon":139.4585832},{"name":"セブン-イレブン町田真光寺店","province":"東京都","city":"町田市","address":"東京都町田市真光寺3-21-20","lat":35.59960989,"lon":139.4662552},{"name":"ファミリーマートみなとや鶴川店","province":"東京都","city":"町田市","address":"東京都町田市鶴川2-10-7","lat":35.58851885,"lon":139.4721652},{"name":"鶴川あんしん相談室","province":"東京都","city":"町田市","address":"東京都町田市鶴川6-7-2第103号室","lat":35.59062036,"lon":139.4691373},{"name":"セブン-イレブン町田鶴川駅前店","province":"東京都","city":"町田市","address":"東京都町田市能ヶ谷1-4-6","lat":35.58307154,"lon":139.4795733},{"name":"セブン-イレブン町田鶴川駅北口店","province":"東京都","city":"町田市","address":"東京都町田市能ヶ谷1-8-1神蔵ビル1階","lat":35.58432672,"lon":139.4831767},{"name":"リレイス鶴川","province":"東京都","city":"町田市","address":"東京都町田市能ヶ谷3-2-1","lat":35.58466744,"lon":139.486095},{"name":"ローソン町田芝溝街道店","province":"東京都","city":"町田市","address":"東京都町田市野津田町1100-1","lat":35.58906295,"lon":139.45635},{"name":"べルク町田野津田店","province":"東京都","city":"町田市","address":"東京都町田市野津田町230","lat":35.58529573,"lon":139.4366898},{"name":"セブン-イレブン町田野津田町店","province":"東京都","city":"町田市","address":"東京都町田市野津田町36-1","lat":35.58508924,"lon":139.4332309},{"name":"ファミリーマート 町田金井町店","province":"東京都","city":"町田市","address":"東京都町田市金井ヶ丘4-1-21","lat":35.57786139,"lon":139.4702674},{"name":"島忠　ホームズ町田三輪店","province":"東京都","city":"町田市","address":"東京都町田市三輪町281-1","lat":35.57876121,"lon":139.5005438},{"name":"セブン-イレブン町田小川２丁目店","province":"東京都","city":"町田市","address":"東京都町田市小川2-25-3","lat":35.53041119,"lon":139.471763},{"name":"ファミリーマート秀栄町田小川店","province":"東京都","city":"町田市","address":"東京都町田市小川5-10-20","lat":35.52313903,"lon":139.4695037},{"name":"セブン-イレブン町田金森店","province":"東京都","city":"町田市","address":"東京都町田市金森2-21-17","lat":35.53345565,"lon":139.4596182},{"name":"セブン-イレブン町田ポプラヶ丘店","province":"東京都","city":"町田市","address":"東京都町田市成瀬台2-1-2","lat":35.54972519,"lon":139.4763024},{"name":"セブン-イレブン町田成瀬台３丁目店","province":"東京都","city":"町田市","address":"東京都町田市成瀬台3-8-7","lat":35.55457522,"lon":139.4782797},{"name":"株式会社村山工業所","province":"東京都","city":"町田市","address":"東京都町田市西成瀬1-49-23","lat":35.54333527,"lon":139.4641462},{"name":"ファミリーマート町田鶴間店","province":"東京都","city":"町田市","address":"東京都町田市南町田4-19-5","lat":35.51397935,"lon":139.4658381},{"name":"ファミリーマート南町田四丁目店","province":"東京都","city":"町田市","address":"東京都町田市南町田4-2-50","lat":35.51745625,"lon":139.4651266},{"name":"セブン-イレブン町田街道鶴間店","province":"東京都","city":"町田市","address":"東京都町田市南町田5-3-53","lat":35.51338479,"lon":139.4748282},{"name":"６８８９ Ｃａｆｅ","province":"東京都","city":"町田市","address":"東京都町田市南町田5-4-10","lat":35.51316168,"lon":139.4741592},{"name":"祐照庵(大戸観音堂）","province":"東京都","city":"町田市","address":"東京都町田市相原町4643","lat":35.61354961,"lon":139.2888803},{"name":"正山寺","province":"東京都","city":"町田市","address":"東京都町田市上小山田町1504","lat":35.60119824,"lon":139.4017001},{"name":"浄運寺","province":"東京都","city":"町田市","address":"東京都町田市原町田6-21-28","lat":35.54309338,"lon":139.4478158},{"name":"菅原神社","province":"東京都","city":"町田市","address":"東京都町田市本町田802","lat":35.55912926,"lon":139.4472652},{"name":"慶性寺","province":"東京都","city":"町田市","address":"東京都町田市大蔵町2177-1","lat":35.58539335,"lon":139.4736688},{"name":"春日神社","province":"東京都","city":"町田市","address":"東京都町田市大蔵町2822","lat":35.58582606,"lon":139.4593878},{"name":"小野神社","province":"東京都","city":"町田市","address":"東京都町田市小野路町885","lat":35.59799652,"lon":139.4379439},{"name":"八幡神社","province":"東京都","city":"町田市","address":"東京都町田市金井ヶ丘2-5-1","lat":35.57192535,"lon":139.4603878},{"name":"観泉寺","province":"東京都","city":"町田市","address":"東京都町田市真光寺町1210","lat":35.60092068,"lon":139.460623},{"name":"能ヶ谷神社","province":"東京都","city":"町田市","address":"東京都町田市能ヶ谷6-20-1","lat":35.58827914,"lon":139.4824017},{"name":"野津田神社","province":"東京都","city":"町田市","address":"東京都町田市野津田町2319","lat":35.58418331,"lon":139.4472048},{"name":"高蔵寺","province":"東京都","city":"町田市","address":"東京都町田市三輪町1739","lat":35.58044899,"lon":139.489907},{"name":"ローソン 町田相原駅西口店","province":"東京都","city":"町田市","address":"東京都町田市相原町1165-1","lat":35.60692506,"lon":139.3311513}]}