{"category":"wireless","data":[{"name":"町田市民病院","province":"東京都","city":"町田市","address":"東京都町田市旭町2丁目15-41","lat":35.55694609,"lon":139.43883454},{"name":"南多摩斎場","province":"東京都","city":"町田市","address":"東京都町田市上小山田町2147","lat":35.59878726,"lon":139.38638231},{"name":"小野路給水所","province":"東京都","city":"町田市","address":"東京都町田市小野路町2637-1","lat":35.60444421,"lon":139.44936302},{"name":"原町田浄水所","province":"東京都","city":"町田市","address":"東京都町田市原町田5丁目13-3","lat":35.54660006,"lon":139.45080608},{"name":"野津田浄水所","province":"東京都","city":"町田市","address":"東京都町田市野津田町3398","lat":35.57686925,"lon":139.44848042},{"name":"市立つくし野セントラルパーク","province":"東京都","city":"町田市","address":"東京都町田市つくし野3丁目19","lat":35.52117273,"lon":139.4820081},{"name":"市立鶴川中央公園","province":"東京都","city":"町田市","address":"東京都町田市鶴川6丁目6","lat":35.59097803,"lon":139.47185937},{"name":"市立忠生公園","province":"東京都","city":"町田市","address":"東京都町田市忠生1丁目3","lat":35.57282192,"lon":139.4224412},{"name":"JR町田駅北口","province":"東京都","city":"町田市","address":"東京都町田市原町田6-1","lat":35.542,"lon":139.445},{"name":"町田バスセンター（小田急線町田駅西口）","province":"東京都","city":"町田市","address":"東京都町田市森野1-15","lat":35.543,"lon":139.444},{"name":"町田市庁舎前","province":"東京都","city":"町田市","address":"東京都町田市森野2-2-22","lat":35.546,"lon":139.438},{"name":"町田ターミナルプラザ","province":"東京都","city":"町田市","address":"東京都町田市原町田3-1-4","lat":35.54,"lon":139.449},{"name":"まちの案内所町田ツーリストギャラリー","province":"東京都","city":"町田市","address":"東京都町田市原町田4-10-20ぽっぽ町田","lat":35.542,"lon":139.448},{"name":"町田市立国際版画美術館","province":"東京都","city":"町田市","address":"東京都町田市原町田4-28-1","lat":35.544,"lon":139.455},{"name":"町田リス園","province":"東京都","city":"町田市","address":"東京都町田市薬師台1-733-1","lat":35.578,"lon":139.449},{"name":"サウスフロントタワーCielo","province":"東京都","city":"町田市","address":"東京都町田市原町田4-9-8","lat":35.541,"lon":139.449},{"name":"まちだ名産品の店心和（ここわ）","province":"東京都","city":"町田市","address":"東京都町田市原町田6-12-20小田急ビル1階","lat":35.543,"lon":139.445},{"name":"忠生市民センター","province":"東京都","city":"町田市","address":"東京都町田市忠生3-14-2","lat":35.578,"lon":139.416},{"name":"鶴川市民センター","province":"東京都","city":"町田市","address":"東京都町田市大蔵町1981-4","lat":35.588,"lon":139.467},{"name":"南市民センター","province":"東京都","city":"町田市","address":"東京都町田市金森4-5-6","lat":35.523,"lon":139.466},{"name":"なるせ駅前市民センター","province":"東京都","city":"町田市","address":"東京都町田市南成瀬1-2-5","lat":35.536,"lon":139.472},{"name":"堺市民センター","province":"東京都","city":"町田市","address":"東京都町田市相原町795-1","lat":35.604,"lon":139.333},{"name":"小山市民センター","province":"東京都","city":"町田市","address":"東京都町田市小山町2507-1","lat":35.597,"lon":139.369},{"name":"町田市立自由民権資料館","province":"東京都","city":"町田市","address":"東京都町田市野津田町897","lat":35.588,"lon":139.453},{"name":"町田市保健所","province":"東京都","city":"町田市","address":"東京都町田市中町2丁目13-3","lat":35.55124111,"lon":139.44367596},{"name":"小川高等学校","province":"東京都","city":"町田市","address":"東京都町田市小川2丁目1002-1","lat":35.53233046,"lon":139.46933859},{"name":"町田総合高等学校","province":"東京都","city":"町田市","address":"東京都町田市木曽西3丁目5-1","lat":35.57035541,"lon":139.41678624},{"name":"町田工業高等学校","province":"東京都","city":"町田市","address":"東京都町田市忠生1丁目20-2","lat":35.5755605,"lon":139.42215504},{"name":"町田高等学校","province":"東京都","city":"町田市","address":"東京都町田市中町4丁目25-3","lat":35.55337986,"lon":139.44872268},{"name":"野津田高等学校","province":"東京都","city":"町田市","address":"東京都町田市野津田町2001","lat":35.58961486,"lon":139.43740885},{"name":"山崎高等学校","province":"東京都","city":"町田市","address":"東京都町田市山崎町1453-1","lat":35.57680228,"lon":139.43379559},{"name":"町田市役所","province":"東京都","city":"町田市","address":"東京都町田市中町1丁目20-23","lat":35.5486636,"lon":139.44637303}]}