{"keyword":"し尿","data":[{"name":"町田市子ども家庭支援センター","province":"東京都","city":"町田市","address":"町田市森野2-2-22町田市役所2階","lat":35.546633,"lon":139.438587},{"name":"町田市保健所","province":"東京都","city":"町田市","address":"町田市森野2-2-22市庁舎7階","lat":35.549872,"lon":139.440026},{"name":"町田市保健所中町庁舎","province":"東京都","city":"町田市","address":"町田市中町2-13-3","lat":35.551224,"lon":139.443709},{"name":"町田市健康福祉会館","province":"東京都","city":"町田市","address":"町田市原町田5-8-21","lat":35.54602,"lon":139.449987},{"name":"町田市忠生保健センター","province":"東京都","city":"町田市","address":"町田市忠生3-14-2","lat":35.578366,"lon":139.416031},{"name":"町田市鶴川保健センター","province":"東京都","city":"町田市","address":"町田市大蔵町1981-4","lat":35.588886,"lon":139.467396},{"name":"町田市","province":"東京都","city":"町田市","address":"町田市森野2-2-22","lat":35.5465589,"lon":139.4385269},{"name":"小山内裏公園","province":"東京都","city":"町田市","address":"東京都町田市小山ヶ丘4丁目4","lat":35.607051,"lon":139.368008},{"name":"小山田緑地","province":"東京都","city":"町田市","address":"東京都町田市下小山田町","lat":35.595044,"lon":139.416748},{"name":"小山田緑地","province":"東京都","city":"町田市","address":"東京都町田市下小山田町","lat":35.598005,"lon":139.415185},{"name":"小山田緑地","province":"東京都","city":"町田市","address":"東京都町田市下小山田町","lat":35.597766,"lon":139.415128},{"name":"小山田緑地","province":"東京都","city":"町田市","address":"東京都町田市下小山田町","lat":35.603479,"lon":139.415364},{"name":"小山内裏公園","province":"東京都","city":"町田市","address":"東京都町田市小山ヶ丘4丁目4","lat":35.608104,"lon":139.366396},{"name":"小山内裏公園","province":"東京都","city":"町田市","address":"東京都町田市小山ヶ丘4丁目4","lat":35.608099,"lon":139.3664},{"name":"小山内裏公園","province":"東京都","city":"町田市","address":"東京都町田市小山ヶ丘4丁目4","lat":35.606255,"lon":139.366674},{"name":"町田サービスステーション","province":"東京都","city":"町田市","address":"東京都町田市木曽東1丁目4-1","lat":35.557924,"lon":139.430373},{"name":"町田消防署","province":"東京都","city":"町田市","address":"東京都町田市本町田2380-3","lat":35.563954,"lon":139.437654},{"name":"木曽山崎公園","province":"東京都","city":"町田市","address":"東京都町田市本町田","lat":35.565132,"lon":139.435407},{"name":"町田市庁舎","province":"東京都","city":"町田市","address":"東京都町田市森野2丁目2-22","lat":35.546229,"lon":139.438582},{"name":"町田市庁舎","province":"東京都","city":"町田市","address":"東京都町田市森野2丁目2-22","lat":35.546492,"lon":139.438257},{"name":"町田市庁舎","province":"東京都","city":"町田市","address":"東京都町田市森野2丁目2-22","lat":35.546296,"lon":139.438529},{"name":"町田市庁舎","province":"東京都","city":"町田市","address":"東京都町田市森野2丁目2-22","lat":35.546621,"lon":139.439056},{"name":"町田市庁舎","province":"東京都","city":"町田市","address":"東京都町田市森野2丁目2-22","lat":35.546644,"lon":139.439078},{"name":"町田市庁舎","province":"東京都","city":"町田市","address":"東京都町田市森野2丁目2-22","lat":35.546659,"lon":139.439008},{"name":"町田市庁舎","province":"東京都","city":"町田市","address":"東京都町田市森野2丁目2-22","lat":35.546524,"lon":139.438274},{"name":"町田市庁舎","province":"東京都","city":"町田市","address":"東京都町田市森野2丁目2-22","lat":35.546406,"lon":139.438661},{"name":"町田市庁舎","province":"東京都","city":"町田市","address":"東京都町田市森野2丁目2-22","lat":35.546204,"lon":139.438563},{"name":"鶴川市民センター","province":"東京都","city":"町田市","address":"東京都町田市大蔵町1981-4","lat":35.588758,"lon":139.467329},{"name":"堺市民センター","province":"東京都","city":"町田市","address":"東京都町田市相原町795-1","lat":35.604411,"lon":139.333502},{"name":"なるせ駅前市民センター","province":"東京都","city":"町田市","address":"東京都町田市南成瀬1丁目2-5","lat":35.536794,"lon":139.472911},{"name":"忠生市民センター","province":"東京都","city":"町田市","address":"東京都町田市忠生3丁目14-2","lat":35.578508,"lon":139.415937},{"name":"忠生市民センター","province":"東京都","city":"町田市","address":"東京都町田市忠生3丁目14-2","lat":35.578414,"lon":139.416147},{"name":"忠生市民センター","province":"東京都","city":"町田市","address":"東京都町田市忠生3丁目14-2","lat":35.57842,"lon":139.41596},{"name":"小山市民センター","province":"東京都","city":"町田市","address":"東京都町田市小山町2507-1","lat":35.59714,"lon":139.36906},{"name":"小山市民センター","province":"東京都","city":"町田市","address":"東京都町田市小山町2507-1","lat":35.597131,"lon":139.369086},{"name":"南市民センター","province":"東京都","city":"町田市","address":"東京都町田市金森4丁目5-6","lat":35.523742,"lon":139.466801},{"name":"木曽山崎コミュニティセンター","province":"東京都","city":"町田市","address":"東京都町田市山崎町2160-4","lat":35.568613,"lon":139.436721},{"name":"玉川学園コミュニティセンター","province":"東京都","city":"町田市","address":"東京都町田市玉川学園2丁目19-12","lat":35.563701,"lon":139.462578},{"name":"生涯学習センター（まちだ中央公民館）","province":"東京都","city":"町田市","address":"東京都町田市原町田6丁目8-1","lat":35.543113,"lon":139.447387},{"name":"生涯学習センター（まちだ中央公民館）","province":"東京都","city":"町田市","address":"東京都町田市原町田6丁目8-1","lat":35.543117,"lon":139.447313},{"name":"町田市民フォーラム","province":"東京都","city":"町田市","address":"東京都町田市原町田4丁目9-8","lat":35.541882,"lon":139.450028},{"name":"町田市民フォーラム","province":"東京都","city":"町田市","address":"東京都町田市原町田4丁目9-8","lat":35.541864,"lon":139.450075},{"name":"木曽森野コミュニティセンター","province":"東京都","city":"町田市","address":"東京都町田市木曽東1丁目2","lat":35.555113,"lon":139.42852},{"name":"つくし野コミュニティセンター","province":"東京都","city":"町田市","address":"東京都町田市つくし野2丁目26","lat":35.527086,"lon":139.484774},{"name":"成瀬コミュニティセンター","province":"東京都","city":"町田市","address":"東京都町田市西成瀬2丁目49-1","lat":35.543713,"lon":139.473052},{"name":"成瀬コミュニティセンター","province":"東京都","city":"町田市","address":"東京都町田市西成瀬2丁目49-1","lat":35.543749,"lon":139.473046},{"name":"三輪コミュニティセンター","province":"東京都","city":"町田市","address":"東京都町田市三輪緑山4丁目14-1","lat":35.577167,"lon":139.493307},{"name":"上小山田コミュニティセンター","province":"東京都","city":"町田市","address":"東京都町田市上小山田町2616-2","lat":35.594875,"lon":139.398345},{"name":"町田市保健所中町庁舎","province":"東京都","city":"町田市","address":"東京都町田市中町2丁目13-3","lat":35.551351,"lon":139.44366},{"name":"健康福祉会館","province":"東京都","city":"町田市","address":"東京都町田市原町田5丁目8-21","lat":35.546075,"lon":139.450087},{"name":"健康福祉会館","province":"東京都","city":"町田市","address":"東京都町田市原町田5丁目8-21","lat":35.546065,"lon":139.450068},{"name":"健康福祉会館","province":"東京都","city":"町田市","address":"東京都町田市原町田5丁目8-21","lat":35.546038,"lon":139.45001},{"name":"中央図書館","province":"東京都","city":"町田市","address":"東京都町田市原町田3丁目2-9","lat":35.540372,"lon":139.450531},{"name":"中央図書館","province":"東京都","city":"町田市","address":"東京都町田市原町田3丁目2-9","lat":35.540538,"lon":139.450079},{"name":"中央図書館","province":"東京都","city":"町田市","address":"東京都町田市原町田3丁目2-9","lat":35.540447,"lon":139.450025},{"name":"中央図書館","province":"東京都","city":"町田市","address":"東京都町田市原町田3丁目2-9","lat":35.540576,"lon":139.450167},{"name":"さるびあ図書館","province":"東京都","city":"町田市","address":"東京都町田市中町2丁目13-23","lat":35.551431,"lon":139.444327},{"name":"鶴川図書館","province":"東京都","city":"町田市","address":"東京都町田市鶴川6丁目7-2","lat":35.590923,"lon":139.469723},{"name":"金森図書館","province":"東京都","city":"町田市","address":"東京都町田市金森東3丁目5-1","lat":35.533472,"lon":139.465794},{"name":"木曽山崎図書館","province":"東京都","city":"町田市","address":"東京都町田市山崎町2160","lat":35.5684,"lon":139.436679},{"name":"町田市民文学館ことばらんど","province":"東京都","city":"町田市","address":"東京都町田市原町田4丁目16","lat":35.542577,"lon":139.451592},{"name":"Nature_Factory_東京町田","province":"東京都","city":"町田市","address":"東京都町田市相原町","lat":35.612138,"lon":139.275962},{"name":"子ども創造キャンパスひなた村","province":"東京都","city":"町田市","address":"東京都町田市本町田2863","lat":35.567799,"lon":139.445612},{"name":"子ども創造キャンパスひなた村","province":"東京都","city":"町田市","address":"東京都町田市本町田2863","lat":35.567763,"lon":139.445642},{"name":"町田市ふるさと農具館","province":"東京都","city":"町田市","address":"東京都町田市野津田町2288","lat":35.582414,"lon":139.444089},{"name":"町田市七国山ファーマーズセンター","province":"東京都","city":"町田市","address":"東京都町田市野津田町3497-1","lat":35.581048,"lon":139.443427},{"name":"国際版画美術館","province":"東京都","city":"町田市","address":"東京都町田市原町田4丁目28-1","lat":35.544048,"lon":139.455101},{"name":"市立総合体育館","province":"東京都","city":"町田市","address":"東京都町田市南成瀬5丁目12","lat":35.536204,"lon":139.479021},{"name":"市立総合体育館","province":"東京都","city":"町田市","address":"東京都町田市南成瀬5丁目12","lat":35.536196,"lon":139.479044},{"name":"市立総合体育館","province":"東京都","city":"町田市","address":"東京都町田市南成瀬5丁目12","lat":35.536587,"lon":139.478786},{"name":"三輪みどり山球場","province":"東京都","city":"町田市","address":"東京都町田市三輪緑山1丁目24","lat":35.571813,"lon":139.491655},{"name":"町田市フォトサロン","province":"東京都","city":"町田市","address":"東京都町田市野津田町3272","lat":35.579954,"lon":139.448822},{"name":"市立博物館","province":"東京都","city":"町田市","address":"東京都町田市本町田3562","lat":35.567141,"lon":139.451254},{"name":"プラザ町田","province":"東京都","city":"町田市","address":"東京都町田市原町田4丁目1-14","lat":35.540855,"lon":139.448201},{"name":"プラザ町田","province":"東京都","city":"町田市","address":"東京都町田市原町田4丁目1-14","lat":35.540931,"lon":139.448222},{"name":"町田市小野路宿里山交流館","province":"東京都","city":"町田市","address":"東京都町田市小野路町888-1","lat":35.598342,"lon":139.438573},{"name":"自由民権資料館","province":"東京都","city":"町田市","address":"東京都町田市野津田町897","lat":35.588888,"lon":139.453279},{"name":"町田市考古資料室","province":"東京都","city":"町田市","address":"東京都町田市下小山田町","lat":35.589017,"lon":139.410513},{"name":"町田市民ホール","province":"東京都","city":"町田市","address":"東京都町田市森野2丁目2-36","lat":35.546341,"lon":139.439557},{"name":"町田市民ホール","province":"東京都","city":"町田市","address":"東京都町田市森野2丁目2-36","lat":35.546639,"lon":139.439701},{"name":"町田市鶴川緑の交流館（和光大学ポプリホール鶴川）","province":"東京都","city":"町田市","address":"東京都町田市能ヶ谷1丁目2-1","lat":35.582696,"lon":139.478796},{"name":"町田市鶴川緑の交流館（和光大学ポプリホール鶴川）","province":"東京都","city":"町田市","address":"東京都町田市能ヶ谷1丁目2-1","lat":35.582865,"lon":139.478841},{"name":"町田市鶴川緑の交流館（和光大学ポプリホール鶴川）","province":"東京都","city":"町田市","address":"東京都町田市能ヶ谷1丁目2-1","lat":35.582715,"lon":139.479033},{"name":"つくし野セントラルパーク","province":"東京都","city":"町田市","address":"東京都町田市つくし野3丁目19","lat":35.520433,"lon":139.482446},{"name":"鶴川中央公園","province":"東京都","city":"町田市","address":"東京都町田市鶴川6丁目6","lat":35.590582,"lon":139.471798},{"name":"芹ヶ谷公園","province":"東京都","city":"町田市","address":"東京都町田市南大谷","lat":35.548354,"lon":139.451169},{"name":"芹ヶ谷公園","province":"東京都","city":"町田市","address":"東京都町田市高ヶ坂1丁目8","lat":35.547171,"lon":139.455116},{"name":"芹ヶ谷公園","province":"東京都","city":"町田市","address":"東京都町田市高ヶ坂1丁目10","lat":35.5452,"lon":139.455226},{"name":"谷戸池公園","province":"東京都","city":"町田市","address":"東京都町田市小山田桜台1丁目17","lat":35.588149,"lon":139.401877},{"name":"野津田公園","province":"東京都","city":"町田市","address":"東京都町田市小野路町","lat":35.595955,"lon":139.44198},{"name":"かしの木山自然公園","province":"東京都","city":"町田市","address":"東京都町田市南大谷","lat":35.551538,"lon":139.466918},{"name":"堂之坂公苑","province":"東京都","city":"町田市","address":"東京都町田市南成瀬5丁目8","lat":35.536324,"lon":139.476862},{"name":"原町田わかば公園","province":"東京都","city":"町田市","address":"東京都町田市原町田6丁目27","lat":35.545434,"lon":139.448264},{"name":"小山白山公園","province":"東京都","city":"町田市","address":"東京都町田市小山ヶ丘5丁目4","lat":35.6028,"lon":139.36446},{"name":"真光寺公園","province":"東京都","city":"町田市","address":"東京都町田市真光寺2丁目2","lat":35.608648,"lon":139.465815},{"name":"沢谷戸自然公園","province":"東京都","city":"町田市","address":"東京都町田市三輪緑山4丁目1","lat":35.577785,"lon":139.49131},{"name":"原町田青空ひろば","province":"東京都","city":"町田市","address":"東京都町田市原町田1丁目27","lat":35.536986,"lon":139.449162},{"name":"町田・木曽森野防災市民いこいの広場","province":"東京都","city":"町田市","address":"東京都町田市森野4丁目8","lat":35.555292,"lon":139.432689},{"name":"広袴公園","province":"東京都","city":"町田市","address":"東京都町田市広袴3丁目4","lat":35.595919,"lon":139.475309},{"name":"松葉谷戸公園","province":"東京都","city":"町田市","address":"東京都町田市金森東1丁目30","lat":35.535973,"lon":139.464277},{"name":"三ツ目山公園","province":"東京都","city":"町田市","address":"東京都町田市小山ヶ丘5丁目38","lat":35.60589,"lon":139.354066},{"name":"小山上沼公園","province":"東京都","city":"町田市","address":"東京都町田市小山ヶ丘3丁目1","lat":35.598884,"lon":139.380618},{"name":"相原中央公園","province":"東京都","city":"町田市","address":"東京都町田市相原町2018","lat":35.609325,"lon":139.319693},{"name":"相原中央公園","province":"東京都","city":"町田市","address":"東京都町田市相原町","lat":35.61029,"lon":139.318504},{"name":"相原中央公園","province":"東京都","city":"町田市","address":"東京都町田市相原町","lat":35.60958,"lon":139.319731},{"name":"相原中央公園","province":"東京都","city":"町田市","address":"東京都町田市相原町","lat":35.610151,"lon":139.32039},{"name":"忠生公園","province":"東京都","city":"町田市","address":"東京都町田市山崎町1804-1","lat":35.57299,"lon":139.424113},{"name":"忠生公園","province":"東京都","city":"町田市","address":"東京都町田市忠生1丁目3","lat":35.573695,"lon":139.422597},{"name":"忠生公園","province":"東京都","city":"町田市","address":"東京都町田市忠生1丁目3","lat":35.572117,"lon":139.422549},{"name":"薬師池公園","province":"東京都","city":"町田市","address":"東京都町田市野津田町","lat":35.579082,"lon":139.448055},{"name":"薬師池公園","province":"東京都","city":"町田市","address":"東京都町田市野津田町","lat":35.579126,"lon":139.448189},{"name":"薬師池公園","province":"東京都","city":"町田市","address":"東京都町田市本町田","lat":35.574829,"lon":139.446597},{"name":"薬師池公園","province":"東京都","city":"町田市","address":"東京都町田市本町田","lat":35.574953,"lon":139.446853},{"name":"民権の森","province":"東京都","city":"町田市","address":"東京都町田市野津田町","lat":35.583471,"lon":139.443853},{"name":"野津田公園","province":"東京都","city":"町田市","address":"東京都町田市野津田町","lat":35.591942,"lon":139.438355},{"name":"野津田公園","province":"東京都","city":"町田市","address":"東京都町田市野津田町","lat":35.593148,"lon":139.439292},{"name":"野津田公園","province":"東京都","city":"町田市","address":"東京都町田市野津田町","lat":35.593074,"lon":139.441749},{"name":"野津田公園","province":"東京都","city":"町田市","address":"東京都町田市野津田町","lat":35.592316,"lon":139.440313},{"name":"野津田公園","province":"東京都","city":"町田市","address":"東京都町田市野津田町","lat":35.591993,"lon":139.437685},{"name":"野津田公園","province":"東京都","city":"町田市","address":"東京都町田市野津田町","lat":35.591488,"lon":139.445766},{"name":"成瀬うさぎ谷戸公園","province":"東京都","city":"町田市","address":"東京都町田市西成瀬2丁目7","lat":35.548163,"lon":139.469025},{"name":"町田中央公園","province":"東京都","city":"町田市","address":"東京都町田市旭町3丁目20-60","lat":35.556792,"lon":139.447117},{"name":"町田中央公園","province":"東京都","city":"町田市","address":"東京都町田市旭町3丁目20","lat":35.557563,"lon":139.446408},{"name":"小野路公園","province":"東京都","city":"町田市","address":"東京都町田市小野路町","lat":35.597815,"lon":139.454352},{"name":"小野路公園","province":"東京都","city":"町田市","address":"東京都町田市小野路町2023-1","lat":35.598077,"lon":139.453817},{"name":"小野路公園","province":"東京都","city":"町田市","address":"東京都町田市小野路町","lat":35.597758,"lon":139.454711},{"name":"日向山公園","province":"東京都","city":"町田市","address":"東京都町田市本町田3486","lat":35.568806,"lon":139.44802},{"name":"成瀬弁天橋公園","province":"東京都","city":"町田市","address":"東京都町田市成瀬8丁目11","lat":35.542743,"lon":139.469352},{"name":"根岸公園","province":"東京都","city":"町田市","address":"東京都町田市根岸1丁目16","lat":35.571308,"lon":139.412655},{"name":"南大谷公園","province":"東京都","city":"町田市","address":"東京都町田市南大谷","lat":35.550311,"lon":139.462632},{"name":"本町田遺跡公園","province":"東京都","city":"町田市","address":"東京都町田市本町田","lat":35.567545,"lon":139.450237},{"name":"鶴間公園","province":"東京都","city":"町田市","address":"東京都町田市鶴間2丁目5","lat":35.509373,"lon":139.46711},{"name":"鶴間公園","province":"東京都","city":"町田市","address":"東京都町田市鶴間3丁目1","lat":35.510323,"lon":139.467773},{"name":"市立室内プール","province":"東京都","city":"町田市","address":"東京都町田市図師町199-1","lat":35.586372,"lon":139.41356},{"name":"忠生スポーツ公園","province":"東京都","city":"町田市","address":"東京都町田市下小山田町","lat":35.587162,"lon":139.407581},{"name":"本町田後田公園","province":"東京都","city":"町田市","address":"東京都町田市本町田","lat":35.566357,"lon":139.441657},{"name":"町田駅前公共トイレ","province":"東京都","city":"町田市","address":"東京都町田市原町田6丁目1","lat":35.541927,"lon":139.44648},{"name":"尾根緑道第一公共トイレ","province":"東京都","city":"町田市","address":"東京都町田市小山田桜台1丁目17","lat":35.586813,"lon":139.402429},{"name":"成瀬駅北口駅前公共トイレ","province":"東京都","city":"町田市","address":"東京都町田市南成瀬1丁目1","lat":35.535631,"lon":139.473046},{"name":"町田ターミナルプラザ","province":"東京都","city":"町田市","address":"東京都町田市原町田3丁目1-4","lat":35.540227,"lon":139.449392},{"name":"ふれあいいちょう館","province":"東京都","city":"町田市","address":"東京都町田市大蔵町1984-1","lat":35.589057,"lon":139.468107},{"name":"ふれあい桜館","province":"東京都","city":"町田市","address":"東京都町田市下小山田町3580","lat":35.585093,"lon":139.40826},{"name":"町田市ふれあいもみじ館","province":"東京都","city":"町田市","address":"東京都町田市金森東3丁目17-14","lat":35.530386,"lon":139.465256},{"name":"町田市ふれあいもみじ館","province":"東京都","city":"町田市","address":"東京都町田市金森東3丁目17-14","lat":35.53037,"lon":139.465203},{"name":"町田薬師池公園四季彩の杜　ダリア園","province":"東京都","city":"町田市","address":"東京都町田市山崎町","lat":35.575606,"lon":139.440154},{"name":"町田薬師池公園四季彩の杜　ダリア園","province":"東京都","city":"町田市","address":"東京都町田市山崎町1213-1","lat":35.575897,"lon":139.440294},{"name":"町田リス園","province":"東京都","city":"町田市","address":"東京都町田市薬師台1丁目","lat":35.57821,"lon":139.45002},{"name":"町田市大賀藕絲館","province":"東京都","city":"町田市","address":"東京都町田市下小山田町3267","lat":35.585037,"lon":139.409106},{"name":"町田ゆめ工房","province":"東京都","city":"町田市","address":"東京都町田市相原町2983-157","lat":35.607921,"lon":139.313282},{"name":"社会福祉法人まちだ育成会こころみ","province":"東京都","city":"町田市","address":"東京都町田市山崎町996-10","lat":35.579947,"lon":139.44063},{"name":"せりがや会館","province":"東京都","city":"町田市","address":"東京都町田市原町田4丁目24-6","lat":35.544414,"lon":139.453029},{"name":"せりがや会館","province":"東京都","city":"町田市","address":"東京都町田市原町田4丁目24-6","lat":35.544522,"lon":139.453104},{"name":"緑ヶ丘グラウンド","province":"東京都","city":"町田市","address":"東京都町田市本町田","lat":35.564526,"lon":139.437448},{"name":"市立室内プール","province":"東京都","city":"町田市","address":"東京都町田市図師町199-1","lat":35.586269,"lon":139.413638},{"name":"市立室内プール","province":"東京都","city":"町田市","address":"東京都町田市図師町199-1","lat":35.586575,"lon":139.414028},{"name":"市立室内プール","province":"東京都","city":"町田市","address":"東京都町田市図師町199-1","lat":35.58643,"lon":139.413791},{"name":"市立室内プール","province":"東京都","city":"町田市","address":"東京都町田市図師町199-1","lat":35.586304,"lon":139.413525},{"name":"町田市バイオエネルギーセンター","province":"東京都","city":"町田市","address":"東京都町田市下小山田町3160","lat":35.586855,"lon":139.411041},{"name":"成瀬クリーンセンター","province":"東京都","city":"町田市","address":"東京都町田市南成瀬8丁目1-1","lat":35.535446,"lon":139.485133},{"name":"鶴見川クリーンセンター","province":"東京都","city":"町田市","address":"東京都町田市三輪緑山1丁目1","lat":35.57034,"lon":139.490852},{"name":"（株）公恩社","province":"東京都","city":"町田市","address":"東京都町田市小野路町3186-6","lat":35.60631871,"lon":139.44397447},{"name":"町田市保健所","province":"東京都","city":"町田市","address":"町田市森野2-2-22市庁舎7階","lat":35.54658,"lon":139.4389},{"name":"町田市保健所中町庁舎","province":"東京都","city":"町田市","address":"町田市中町2-13-3","lat":35.55124,"lon":139.4437},{"name":"町田市健康福祉会館","province":"東京都","city":"町田市","address":"町田市原町田5-8-21","lat":35.54611,"lon":139.45018},{"name":"町田市忠生保健センター","province":"東京都","city":"町田市","address":"町田市忠生3-14-2","lat":35.57766,"lon":139.41542},{"name":"町田市鶴川保健センター","province":"東京都","city":"町田市","address":"町田市大蔵町1981-4","lat":35.58874,"lon":139.46738},{"name":"町田市子ども家庭支援センター","province":"東京都","city":"町田市","address":"町田市森野2-2-22町田市役所2階","lat":35.54658,"lon":139.4389},{"name":"町田市保健所","province":"東京都","city":"町田市","address":"東京都町田市森野2丁目2-22","lat":35.54666373,"lon":139.43864046},{"name":"町田市保健所中町庁舎","province":"東京都","city":"町田市","address":"東京都町田市中町2丁目13-3","lat":35.55124111,"lon":139.44367596},{"name":"町田市健康福祉会館","province":"東京都","city":"町田市","address":"東京都町田市原町田5丁目8-21","lat":35.54609452,"lon":139.45002283},{"name":"町田市忠生保健センター","province":"東京都","city":"町田市","address":"東京都町田市忠生3丁目14-2","lat":35.57836563,"lon":139.41603053},{"name":"町田市鶴川保健センター","province":"東京都","city":"町田市","address":"東京都町田市大蔵町1981-4","lat":35.58888611,"lon":139.46739571},{"name":"森野第一自転車駐車場","province":"東京都","city":"町田市","address":"東京都町田市森野1-1","lat":35.54287761,"lon":139.4432129},{"name":"森野第二自転車駐車場","province":"東京都","city":"町田市","address":"東京都町田市森野1-15","lat":35.54325314,"lon":139.4440786},{"name":"森野第三自転車駐車場","province":"東京都","city":"町田市","address":"東京都町田市森野1-2、1-3","lat":35.54357069,"lon":139.4424664},{"name":"森野第三自転車駐車場","province":"東京都","city":"町田市","address":"東京都町田市森野1-2、1-3","lat":35.54357072,"lon":139.4424769},{"name":"森野第一バイク駐車場","province":"東京都","city":"町田市","address":"東京都町田市森野1-1","lat":35.54296653,"lon":139.4434422},{"name":"森野第二バイク駐車場","province":"東京都","city":"町田市","address":"東京都町田市森野1-3","lat":35.54448556,"lon":139.4412543},{"name":"森野第三バイク駐車場","province":"東京都","city":"町田市","address":"東京都町田市森野1-34","lat":35.54617103,"lon":139.4445772},{"name":"原町田一丁目自転車駐車場","province":"東京都","city":"町田市","address":"東京都町田市原町田1-6-21","lat":35.54022581,"lon":139.4481349},{"name":"原町田三丁目自転車駐車場","province":"東京都","city":"町田市","address":"東京都町田市原町田3-2-18","lat":35.54022369,"lon":139.4503142},{"name":"原町田四丁目自転車駐車場","province":"東京都","city":"町田市","address":"東京都町田市原町田4-11-11","lat":35.54261494,"lon":139.4490009},{"name":"原町田六丁目自転車駐車場","province":"東京都","city":"町田市","address":"東京都町田市原町田6-26","lat":35.54476589,"lon":139.4478056},{"name":"町田ターミナル自転車駐車場","province":"東京都","city":"町田市","address":"東京都町田市原町田3-1-4","lat":35.54022936,"lon":139.4494861},{"name":"成瀬駅北口自転車駐車場","province":"東京都","city":"町田市","address":"東京都町田市南成瀬1-3-5","lat":35.53588442,"lon":139.4723249},{"name":"成瀬駅北口自転車駐車場","province":"東京都","city":"町田市","address":"東京都町田市南成瀬1-3-5","lat":35.53589008,"lon":139.4723179},{"name":"なるせ駅前市民センター地下自転車駐車場","province":"東京都","city":"町田市","address":"東京都町田市南成瀬1-2-5","lat":35.53682331,"lon":139.4729389},{"name":"成瀬駅北口路上自転車駐車場","province":"東京都","city":"町田市","address":"東京都町田市南成瀬1-2、1-3","lat":35.53601269,"lon":139.4733683},{"name":"成瀬駅南口自転車駐車場","province":"東京都","city":"町田市","address":"東京都町田市成瀬が丘2-1-8","lat":35.53460661,"lon":139.4736763},{"name":"成瀬駅南口臨時バイク駐車場","province":"東京都","city":"町田市","address":"東京都町田市成瀬が丘2-7-3他","lat":35.53428211,"lon":139.4730072},{"name":"玉川学園五丁目臨時自転車駐車場","province":"東京都","city":"町田市","address":"東京都町田市玉川学園5-3966-16","lat":35.56535022,"lon":139.4632368},{"name":"玉川学園五丁目臨時自転車駐車場","province":"東京都","city":"町田市","address":"東京都町田市玉川学園5-3966-16","lat":35.56533889,"lon":139.4632508},{"name":"玉川学園二丁目自転車駐車場","province":"東京都","city":"町田市","address":"東京都町田市玉川学園2-19-12","lat":35.56362203,"lon":139.4624294},{"name":"東玉川学園臨時自転車駐車場","province":"東京都","city":"町田市","address":"東京都町田市玉川学園7-26","lat":35.56050253,"lon":139.4674399},{"name":"鶴川駅西側自転車駐車場","province":"東京都","city":"町田市","address":"東京都町田市大蔵町37他","lat":35.58280572,"lon":139.4780665},{"name":"鶴川駅西側自転車駐車場","province":"東京都","city":"町田市","address":"東京都町田市大蔵町37他","lat":35.58279994,"lon":139.4780457},{"name":"鶴川駅東側バイク駐車場","province":"東京都","city":"町田市","address":"東京都町田市能ヶ谷1-294-1","lat":35.58405772,"lon":139.4840784},{"name":"つくし野駅自転車駐車場","province":"東京都","city":"町田市","address":"東京都町田市つくし野1-26","lat":35.53108964,"lon":139.4847983},{"name":"すずかけ台駅前自転車駐車場","province":"東京都","city":"町田市","address":"東京都町田市南つくし野3-3-3","lat":35.51716572,"lon":139.4812881},{"name":"多摩境駅南側自転車駐車場","province":"東京都","city":"町田市","address":"東京都町田市小山ヶ丘3-23-134","lat":35.60251689,"lon":139.3673111},{"name":"多摩境駅北側自転車駐車場","province":"東京都","city":"町田市","address":"東京都町田市小山ヶ丘3-23-142","lat":35.60251689,"lon":139.3673111},{"name":"相原駅東口自転車駐車場","province":"東京都","city":"町田市","address":"東京都町田市相原町1155-5","lat":35.60728875,"lon":139.3319485},{"name":"相原駅西口自転車駐車場","province":"東京都","city":"町田市","address":"東京都町田市相原町1216-6","lat":35.60591619,"lon":139.3316303},{"name":"相原駅西口自転車駐車場","province":"東京都","city":"町田市","address":"東京都町田市相原町1216-6","lat":35.60601108,"lon":139.3316445},{"name":"相原駅東口バイク駐車場","province":"東京都","city":"町田市","address":"東京都町田市相原町1228-6","lat":35.60511536,"lon":139.3319489},{"name":"南町田グランベリーパーク駅北口地下自転車駐車場","province":"東京都","city":"町田市","address":"東京都町田市鶴間1-17","lat":35.51195142,"lon":139.4708528},{"name":"南町田グランベリーパーク駅東バイク自転車駐車場","province":"東京都","city":"町田市","address":"東京都町田市鶴間8-1799-2","lat":35.51092431,"lon":139.4737891},{"name":"南町田グランベリーパーク駅東自転車駐車場","province":"東京都","city":"町田市","address":"東京都町田市鶴間3-103-23","lat":35.51051,"lon":139.47342},{"name":"木曽住宅バス停自転車駐車場","province":"東京都","city":"町田市","address":"東京都町田市木曽東4-570-2他","lat":35.56387828,"lon":139.4277805},{"name":"まちだ中央公民館","province":"東京都","city":"町田市","address":"町田市原町田6-8-1","lat":35.543011,"lon":139.447189},{"name":"大地沢青少年センター","province":"東京都","city":"町田市","address":"町田市相原町5307-2","lat":35.616135,"lon":139.28125},{"name":"町田市青少年施設｢ひなた村｣","province":"東京都","city":"町田市","address":"町田市本町田2863","lat":35.567707,"lon":139.444824},{"name":"忠生図書館","province":"東京都","city":"町田市","address":"町田市忠生3-14-2","lat":35.57766,"lon":139.415421},{"name":"町田市立さるびあ図書館","province":"東京都","city":"町田市","address":"町田市中町2-13-23","lat":35.551235,"lon":139.443695},{"name":"町田市立金森図書館","province":"東京都","city":"町田市","address":"町田市金森東3-5-1","lat":35.533234,"lon":139.465652},{"name":"町田市立堺図書館","province":"東京都","city":"町田市","address":"町田市相原町795-1","lat":35.604332,"lon":139.33403},{"name":"町田市立中央図書館","province":"東京都","city":"町田市","address":"町田市原町田3-2-9","lat":35.540539,"lon":139.450058},{"name":"町田市立鶴川駅前図書館","province":"東京都","city":"町田市","address":"町田市能ヶ谷1-2-1和光大学ポプリホール鶴川2階","lat":35.582855,"lon":139.478897},{"name":"町田市立鶴川図書館","province":"東京都","city":"町田市","address":"町田市鶴川6-7-2-1-101","lat":35.585083,"lon":139.477875},{"name":"町田市立木曽山崎図書館","province":"東京都","city":"町田市","address":"町田市山崎町2160","lat":35.569847,"lon":139.434814},{"name":"町田市立博物館","province":"東京都","city":"町田市","address":"町田市本町田3562","lat":35.567085,"lon":139.452347},{"name":"町田市立自由民権資料館","province":"東京都","city":"町田市","address":"町田市野津田町897","lat":35.589741,"lon":139.453278},{"name":"町田市立国際版画美術館","province":"東京都","city":"町田市","address":"町田市原町田4-28-1","lat":35.544495,"lon":139.454941},{"name":"町田市男女平等推進センター","province":"東京都","city":"町田市","address":"町田市原町田4-9-8","lat":35.541824,"lon":139.449905},{"name":"町田市生涯学習センター","province":"東京都","city":"町田市","address":"町田市原町田6-8-1","lat":35.543011,"lon":139.447189},{"name":"町田市考古資料室","province":"東京都","city":"町田市","address":"町田市下小山田町4016","lat":35.589195,"lon":139.410248},{"name":"町田市民文学館ことばらんど","province":"東京都","city":"町田市","address":"町田市原町田4-16-17","lat":35.54269,"lon":139.451721},{"name":"生涯学習センター陶芸スタジオ","province":"東京都","city":"町田市","address":"町田市下小山田町4016","lat":35.589195,"lon":139.410248},{"name":"(有)カネショウ","province":"東京都","city":"町田市","address":"町田市下小山田町594","lat":35.606651,"lon":139.417145},{"name":"(株)宮崎  横浜営業所","province":"東京都","city":"町田市","address":"町田市鶴間7-20-19","lat":35.504444,"lon":139.480057},{"name":"(株)グリーン山愛","province":"東京都","city":"町田市","address":"町田市森野6-1-1","lat":35.552418,"lon":139.429977},{"name":"町田市選挙管理委員会","province":"東京都","city":"町田市","address":"町田市森野2-2-22","lat":35.546643,"lon":139.438645},{"name":"町田市本庁舎","province":"東京都","city":"町田市","address":"町田市中町1-20-23","lat":35.54866,"lon":139.4464},{"name":"町田警察署","province":"東京都","city":"町田市","address":"町田市旭町3-1-3","lat":35.55473,"lon":139.443918},{"name":"町田消防署","province":"東京都","city":"町田市","address":"町田市中町3-2-19","lat":35.54949,"lon":139.4491},{"name":"町田市立野津田公園（陸上競技場）","province":"東京都","city":"町田市","address":"町田市野津田町2035番地地内","lat":35.59191,"lon":139.4386},{"name":"町田リサイクル文化センター","province":"東京都","city":"町田市","address":"町田市下小山田町3160番","lat":35.586962,"lon":139.411761},{"name":"町田市立町田市民球場","province":"東京都","city":"町田市","address":"町田市旭町3-20-60","lat":35.55636,"lon":139.4466},{"name":"町田市子ども家庭支援センター","province":"東京都","city":"町田市","address":"町田市森野2-2-22町田市役所2階","lat":35.546633,"lon":139.438587},{"name":"町田市保健所","province":"東京都","city":"町田市","address":"町田市森野2-2-22市庁舎7階","lat":35.549872,"lon":139.440026},{"name":"町田市保健所中町庁舎","province":"東京都","city":"町田市","address":"町田市中町2-13-3","lat":35.551224,"lon":139.443709},{"name":"町田市健康福祉会館","province":"東京都","city":"町田市","address":"町田市原町田5-8-21","lat":35.54602,"lon":139.449987},{"name":"町田市忠生保健センター","province":"東京都","city":"町田市","address":"町田市忠生3-14-2","lat":35.578366,"lon":139.416031},{"name":"町田市鶴川保健センター","province":"東京都","city":"町田市","address":"町田市大蔵町1981-4","lat":35.588886,"lon":139.467396},{"name":"町田市","province":"東京都","city":"町田市","address":"町田市森野2-2-22","lat":35.5465589,"lon":139.4385269},{"name":"小山内裏公園","province":"東京都","city":"町田市","address":"東京都町田市小山ヶ丘4丁目4","lat":35.607051,"lon":139.368008},{"name":"小山田緑地","province":"東京都","city":"町田市","address":"東京都町田市下小山田町","lat":35.595044,"lon":139.416748},{"name":"小山田緑地","province":"東京都","city":"町田市","address":"東京都町田市下小山田町","lat":35.598005,"lon":139.415185},{"name":"小山田緑地","province":"東京都","city":"町田市","address":"東京都町田市下小山田町","lat":35.597766,"lon":139.415128},{"name":"小山田緑地","province":"東京都","city":"町田市","address":"東京都町田市下小山田町","lat":35.603479,"lon":139.415364},{"name":"小山内裏公園","province":"東京都","city":"町田市","address":"東京都町田市小山ヶ丘4丁目4","lat":35.608104,"lon":139.366396},{"name":"小山内裏公園","province":"東京都","city":"町田市","address":"東京都町田市小山ヶ丘4丁目4","lat":35.608099,"lon":139.3664},{"name":"小山内裏公園","province":"東京都","city":"町田市","address":"東京都町田市小山ヶ丘4丁目4","lat":35.606255,"lon":139.366674},{"name":"町田サービスステーション","province":"東京都","city":"町田市","address":"東京都町田市木曽東1丁目4-1","lat":35.557924,"lon":139.430373},{"name":"町田消防署","province":"東京都","city":"町田市","address":"東京都町田市本町田2380-3","lat":35.563954,"lon":139.437654},{"name":"木曽山崎公園","province":"東京都","city":"町田市","address":"東京都町田市本町田","lat":35.565132,"lon":139.435407},{"name":"町田市庁舎","province":"東京都","city":"町田市","address":"東京都町田市森野2丁目2-22","lat":35.546229,"lon":139.438582},{"name":"町田市庁舎","province":"東京都","city":"町田市","address":"東京都町田市森野2丁目2-22","lat":35.546492,"lon":139.438257},{"name":"町田市庁舎","province":"東京都","city":"町田市","address":"東京都町田市森野2丁目2-22","lat":35.546296,"lon":139.438529},{"name":"町田市庁舎","province":"東京都","city":"町田市","address":"東京都町田市森野2丁目2-22","lat":35.546621,"lon":139.439056},{"name":"町田市庁舎","province":"東京都","city":"町田市","address":"東京都町田市森野2丁目2-22","lat":35.546644,"lon":139.439078},{"name":"町田市庁舎","province":"東京都","city":"町田市","address":"東京都町田市森野2丁目2-22","lat":35.546659,"lon":139.439008},{"name":"町田市庁舎","province":"東京都","city":"町田市","address":"東京都町田市森野2丁目2-22","lat":35.546524,"lon":139.438274},{"name":"町田市庁舎","province":"東京都","city":"町田市","address":"東京都町田市森野2丁目2-22","lat":35.546406,"lon":139.438661},{"name":"町田市庁舎","province":"東京都","city":"町田市","address":"東京都町田市森野2丁目2-22","lat":35.546204,"lon":139.438563},{"name":"鶴川市民センター","province":"東京都","city":"町田市","address":"東京都町田市大蔵町1981-4","lat":35.588758,"lon":139.467329},{"name":"堺市民センター","province":"東京都","city":"町田市","address":"東京都町田市相原町795-1","lat":35.604411,"lon":139.333502},{"name":"なるせ駅前市民センター","province":"東京都","city":"町田市","address":"東京都町田市南成瀬1丁目2-5","lat":35.536794,"lon":139.472911},{"name":"忠生市民センター","province":"東京都","city":"町田市","address":"東京都町田市忠生3丁目14-2","lat":35.578508,"lon":139.415937},{"name":"忠生市民センター","province":"東京都","city":"町田市","address":"東京都町田市忠生3丁目14-2","lat":35.578414,"lon":139.416147},{"name":"忠生市民センター","province":"東京都","city":"町田市","address":"東京都町田市忠生3丁目14-2","lat":35.57842,"lon":139.41596},{"name":"小山市民センター","province":"東京都","city":"町田市","address":"東京都町田市小山町2507-1","lat":35.59714,"lon":139.36906},{"name":"小山市民センター","province":"東京都","city":"町田市","address":"東京都町田市小山町2507-1","lat":35.597131,"lon":139.369086},{"name":"南市民センター","province":"東京都","city":"町田市","address":"東京都町田市金森4丁目5-6","lat":35.523742,"lon":139.466801},{"name":"木曽山崎コミュニティセンター","province":"東京都","city":"町田市","address":"東京都町田市山崎町2160-4","lat":35.568613,"lon":139.436721},{"name":"玉川学園コミュニティセンター","province":"東京都","city":"町田市","address":"東京都町田市玉川学園2丁目19-12","lat":35.563701,"lon":139.462578},{"name":"生涯学習センター（まちだ中央公民館）","province":"東京都","city":"町田市","address":"東京都町田市原町田6丁目8-1","lat":35.543113,"lon":139.447387},{"name":"生涯学習センター（まちだ中央公民館）","province":"東京都","city":"町田市","address":"東京都町田市原町田6丁目8-1","lat":35.543117,"lon":139.447313},{"name":"町田市民フォーラム","province":"東京都","city":"町田市","address":"東京都町田市原町田4丁目9-8","lat":35.541882,"lon":139.450028},{"name":"町田市民フォーラム","province":"東京都","city":"町田市","address":"東京都町田市原町田4丁目9-8","lat":35.541864,"lon":139.450075},{"name":"木曽森野コミュニティセンター","province":"東京都","city":"町田市","address":"東京都町田市木曽東1丁目2","lat":35.555113,"lon":139.42852},{"name":"つくし野コミュニティセンター","province":"東京都","city":"町田市","address":"東京都町田市つくし野2丁目26","lat":35.527086,"lon":139.484774},{"name":"成瀬コミュニティセンター","province":"東京都","city":"町田市","address":"東京都町田市西成瀬2丁目49-1","lat":35.543713,"lon":139.473052},{"name":"成瀬コミュニティセンター","province":"東京都","city":"町田市","address":"東京都町田市西成瀬2丁目49-1","lat":35.543749,"lon":139.473046},{"name":"三輪コミュニティセンター","province":"東京都","city":"町田市","address":"東京都町田市三輪緑山4丁目14-1","lat":35.577167,"lon":139.493307},{"name":"上小山田コミュニティセンター","province":"東京都","city":"町田市","address":"東京都町田市上小山田町2616-2","lat":35.594875,"lon":139.398345},{"name":"町田市保健所中町庁舎","province":"東京都","city":"町田市","address":"東京都町田市中町2丁目13-3","lat":35.551351,"lon":139.44366},{"name":"健康福祉会館","province":"東京都","city":"町田市","address":"東京都町田市原町田5丁目8-21","lat":35.546075,"lon":139.450087},{"name":"健康福祉会館","province":"東京都","city":"町田市","address":"東京都町田市原町田5丁目8-21","lat":35.546065,"lon":139.450068},{"name":"健康福祉会館","province":"東京都","city":"町田市","address":"東京都町田市原町田5丁目8-21","lat":35.546038,"lon":139.45001},{"name":"中央図書館","province":"東京都","city":"町田市","address":"東京都町田市原町田3丁目2-9","lat":35.540372,"lon":139.450531},{"name":"中央図書館","province":"東京都","city":"町田市","address":"東京都町田市原町田3丁目2-9","lat":35.540538,"lon":139.450079},{"name":"中央図書館","province":"東京都","city":"町田市","address":"東京都町田市原町田3丁目2-9","lat":35.540447,"lon":139.450025},{"name":"中央図書館","province":"東京都","city":"町田市","address":"東京都町田市原町田3丁目2-9","lat":35.540576,"lon":139.450167},{"name":"さるびあ図書館","province":"東京都","city":"町田市","address":"東京都町田市中町2丁目13-23","lat":35.551431,"lon":139.444327},{"name":"鶴川図書館","province":"東京都","city":"町田市","address":"東京都町田市鶴川6丁目7-2","lat":35.590923,"lon":139.469723},{"name":"金森図書館","province":"東京都","city":"町田市","address":"東京都町田市金森東3丁目5-1","lat":35.533472,"lon":139.465794},{"name":"木曽山崎図書館","province":"東京都","city":"町田市","address":"東京都町田市山崎町2160","lat":35.5684,"lon":139.436679},{"name":"町田市民文学館ことばらんど","province":"東京都","city":"町田市","address":"東京都町田市原町田4丁目16","lat":35.542577,"lon":139.451592},{"name":"Nature_Factory_東京町田","province":"東京都","city":"町田市","address":"東京都町田市相原町","lat":35.612138,"lon":139.275962},{"name":"子ども創造キャンパスひなた村","province":"東京都","city":"町田市","address":"東京都町田市本町田2863","lat":35.567799,"lon":139.445612},{"name":"子ども創造キャンパスひなた村","province":"東京都","city":"町田市","address":"東京都町田市本町田2863","lat":35.567763,"lon":139.445642},{"name":"町田市ふるさと農具館","province":"東京都","city":"町田市","address":"東京都町田市野津田町2288","lat":35.582414,"lon":139.444089},{"name":"町田市七国山ファーマーズセンター","province":"東京都","city":"町田市","address":"東京都町田市野津田町3497-1","lat":35.581048,"lon":139.443427},{"name":"国際版画美術館","province":"東京都","city":"町田市","address":"東京都町田市原町田4丁目28-1","lat":35.544048,"lon":139.455101},{"name":"市立総合体育館","province":"東京都","city":"町田市","address":"東京都町田市南成瀬5丁目12","lat":35.536204,"lon":139.479021},{"name":"市立総合体育館","province":"東京都","city":"町田市","address":"東京都町田市南成瀬5丁目12","lat":35.536196,"lon":139.479044},{"name":"市立総合体育館","province":"東京都","city":"町田市","address":"東京都町田市南成瀬5丁目12","lat":35.536587,"lon":139.478786},{"name":"三輪みどり山球場","province":"東京都","city":"町田市","address":"東京都町田市三輪緑山1丁目24","lat":35.571813,"lon":139.491655},{"name":"町田市フォトサロン","province":"東京都","city":"町田市","address":"東京都町田市野津田町3272","lat":35.579954,"lon":139.448822},{"name":"市立博物館","province":"東京都","city":"町田市","address":"東京都町田市本町田3562","lat":35.567141,"lon":139.451254},{"name":"プラザ町田","province":"東京都","city":"町田市","address":"東京都町田市原町田4丁目1-14","lat":35.540855,"lon":139.448201},{"name":"プラザ町田","province":"東京都","city":"町田市","address":"東京都町田市原町田4丁目1-14","lat":35.540931,"lon":139.448222},{"name":"町田市小野路宿里山交流館","province":"東京都","city":"町田市","address":"東京都町田市小野路町888-1","lat":35.598342,"lon":139.438573},{"name":"自由民権資料館","province":"東京都","city":"町田市","address":"東京都町田市野津田町897","lat":35.588888,"lon":139.453279},{"name":"町田市考古資料室","province":"東京都","city":"町田市","address":"東京都町田市下小山田町","lat":35.589017,"lon":139.410513},{"name":"町田市民ホール","province":"東京都","city":"町田市","address":"東京都町田市森野2丁目2-36","lat":35.546341,"lon":139.439557},{"name":"町田市民ホール","province":"東京都","city":"町田市","address":"東京都町田市森野2丁目2-36","lat":35.546639,"lon":139.439701},{"name":"町田市鶴川緑の交流館（和光大学ポプリホール鶴川）","province":"東京都","city":"町田市","address":"東京都町田市能ヶ谷1丁目2-1","lat":35.582696,"lon":139.478796},{"name":"町田市鶴川緑の交流館（和光大学ポプリホール鶴川）","province":"東京都","city":"町田市","address":"東京都町田市能ヶ谷1丁目2-1","lat":35.582865,"lon":139.478841},{"name":"町田市鶴川緑の交流館（和光大学ポプリホール鶴川）","province":"東京都","city":"町田市","address":"東京都町田市能ヶ谷1丁目2-1","lat":35.582715,"lon":139.479033},{"name":"つくし野セントラルパーク","province":"東京都","city":"町田市","address":"東京都町田市つくし野3丁目19","lat":35.520433,"lon":139.482446},{"name":"鶴川中央公園","province":"東京都","city":"町田市","address":"東京都町田市鶴川6丁目6","lat":35.590582,"lon":139.471798},{"name":"芹ヶ谷公園","province":"東京都","city":"町田市","address":"東京都町田市南大谷","lat":35.548354,"lon":139.451169},{"name":"芹ヶ谷公園","province":"東京都","city":"町田市","address":"東京都町田市高ヶ坂1丁目8","lat":35.547171,"lon":139.455116},{"name":"芹ヶ谷公園","province":"東京都","city":"町田市","address":"東京都町田市高ヶ坂1丁目10","lat":35.5452,"lon":139.455226},{"name":"谷戸池公園","province":"東京都","city":"町田市","address":"東京都町田市小山田桜台1丁目17","lat":35.588149,"lon":139.401877},{"name":"野津田公園","province":"東京都","city":"町田市","address":"東京都町田市小野路町","lat":35.595955,"lon":139.44198},{"name":"かしの木山自然公園","province":"東京都","city":"町田市","address":"東京都町田市南大谷","lat":35.551538,"lon":139.466918},{"name":"堂之坂公苑","province":"東京都","city":"町田市","address":"東京都町田市南成瀬5丁目8","lat":35.536324,"lon":139.476862},{"name":"原町田わかば公園","province":"東京都","city":"町田市","address":"東京都町田市原町田6丁目27","lat":35.545434,"lon":139.448264},{"name":"小山白山公園","province":"東京都","city":"町田市","address":"東京都町田市小山ヶ丘5丁目4","lat":35.6028,"lon":139.36446},{"name":"真光寺公園","province":"東京都","city":"町田市","address":"東京都町田市真光寺2丁目2","lat":35.608648,"lon":139.465815},{"name":"沢谷戸自然公園","province":"東京都","city":"町田市","address":"東京都町田市三輪緑山4丁目1","lat":35.577785,"lon":139.49131},{"name":"原町田青空ひろば","province":"東京都","city":"町田市","address":"東京都町田市原町田1丁目27","lat":35.536986,"lon":139.449162},{"name":"町田・木曽森野防災市民いこいの広場","province":"東京都","city":"町田市","address":"東京都町田市森野4丁目8","lat":35.555292,"lon":139.432689},{"name":"広袴公園","province":"東京都","city":"町田市","address":"東京都町田市広袴3丁目4","lat":35.595919,"lon":139.475309},{"name":"松葉谷戸公園","province":"東京都","city":"町田市","address":"東京都町田市金森東1丁目30","lat":35.535973,"lon":139.464277},{"name":"三ツ目山公園","province":"東京都","city":"町田市","address":"東京都町田市小山ヶ丘5丁目38","lat":35.60589,"lon":139.354066},{"name":"小山上沼公園","province":"東京都","city":"町田市","address":"東京都町田市小山ヶ丘3丁目1","lat":35.598884,"lon":139.380618},{"name":"相原中央公園","province":"東京都","city":"町田市","address":"東京都町田市相原町2018","lat":35.609325,"lon":139.319693},{"name":"相原中央公園","province":"東京都","city":"町田市","address":"東京都町田市相原町","lat":35.61029,"lon":139.318504},{"name":"相原中央公園","province":"東京都","city":"町田市","address":"東京都町田市相原町","lat":35.60958,"lon":139.319731},{"name":"相原中央公園","province":"東京都","city":"町田市","address":"東京都町田市相原町","lat":35.610151,"lon":139.32039},{"name":"忠生公園","province":"東京都","city":"町田市","address":"東京都町田市山崎町1804-1","lat":35.57299,"lon":139.424113},{"name":"忠生公園","province":"東京都","city":"町田市","address":"東京都町田市忠生1丁目3","lat":35.573695,"lon":139.422597},{"name":"忠生公園","province":"東京都","city":"町田市","address":"東京都町田市忠生1丁目3","lat":35.572117,"lon":139.422549},{"name":"薬師池公園","province":"東京都","city":"町田市","address":"東京都町田市野津田町","lat":35.579082,"lon":139.448055},{"name":"薬師池公園","province":"東京都","city":"町田市","address":"東京都町田市野津田町","lat":35.579126,"lon":139.448189},{"name":"薬師池公園","province":"東京都","city":"町田市","address":"東京都町田市本町田","lat":35.574829,"lon":139.446597},{"name":"薬師池公園","province":"東京都","city":"町田市","address":"東京都町田市本町田","lat":35.574953,"lon":139.446853},{"name":"民権の森","province":"東京都","city":"町田市","address":"東京都町田市野津田町","lat":35.583471,"lon":139.443853},{"name":"野津田公園","province":"東京都","city":"町田市","address":"東京都町田市野津田町","lat":35.591942,"lon":139.438355},{"name":"野津田公園","province":"東京都","city":"町田市","address":"東京都町田市野津田町","lat":35.593148,"lon":139.439292},{"name":"野津田公園","province":"東京都","city":"町田市","address":"東京都町田市野津田町","lat":35.593074,"lon":139.441749},{"name":"野津田公園","province":"東京都","city":"町田市","address":"東京都町田市野津田町","lat":35.592316,"lon":139.440313},{"name":"野津田公園","province":"東京都","city":"町田市","address":"東京都町田市野津田町","lat":35.591993,"lon":139.437685},{"name":"野津田公園","province":"東京都","city":"町田市","address":"東京都町田市野津田町","lat":35.591488,"lon":139.445766},{"name":"成瀬うさぎ谷戸公園","province":"東京都","city":"町田市","address":"東京都町田市西成瀬2丁目7","lat":35.548163,"lon":139.469025},{"name":"町田中央公園","province":"東京都","city":"町田市","address":"東京都町田市旭町3丁目20-60","lat":35.556792,"lon":139.447117},{"name":"町田中央公園","province":"東京都","city":"町田市","address":"東京都町田市旭町3丁目20","lat":35.557563,"lon":139.446408},{"name":"小野路公園","province":"東京都","city":"町田市","address":"東京都町田市小野路町","lat":35.597815,"lon":139.454352},{"name":"小野路公園","province":"東京都","city":"町田市","address":"東京都町田市小野路町2023-1","lat":35.598077,"lon":139.453817},{"name":"小野路公園","province":"東京都","city":"町田市","address":"東京都町田市小野路町","lat":35.597758,"lon":139.454711},{"name":"日向山公園","province":"東京都","city":"町田市","address":"東京都町田市本町田3486","lat":35.568806,"lon":139.44802},{"name":"成瀬弁天橋公園","province":"東京都","city":"町田市","address":"東京都町田市成瀬8丁目11","lat":35.542743,"lon":139.469352},{"name":"根岸公園","province":"東京都","city":"町田市","address":"東京都町田市根岸1丁目16","lat":35.571308,"lon":139.412655},{"name":"南大谷公園","province":"東京都","city":"町田市","address":"東京都町田市南大谷","lat":35.550311,"lon":139.462632},{"name":"本町田遺跡公園","province":"東京都","city":"町田市","address":"東京都町田市本町田","lat":35.567545,"lon":139.450237},{"name":"鶴間公園","province":"東京都","city":"町田市","address":"東京都町田市鶴間2丁目5","lat":35.509373,"lon":139.46711},{"name":"鶴間公園","province":"東京都","city":"町田市","address":"東京都町田市鶴間3丁目1","lat":35.510323,"lon":139.467773},{"name":"市立室内プール","province":"東京都","city":"町田市","address":"東京都町田市図師町199-1","lat":35.586372,"lon":139.41356},{"name":"忠生スポーツ公園","province":"東京都","city":"町田市","address":"東京都町田市下小山田町","lat":35.587162,"lon":139.407581},{"name":"本町田後田公園","province":"東京都","city":"町田市","address":"東京都町田市本町田","lat":35.566357,"lon":139.441657},{"name":"町田駅前公共トイレ","province":"東京都","city":"町田市","address":"東京都町田市原町田6丁目1","lat":35.541927,"lon":139.44648},{"name":"尾根緑道第一公共トイレ","province":"東京都","city":"町田市","address":"東京都町田市小山田桜台1丁目17","lat":35.586813,"lon":139.402429},{"name":"成瀬駅北口駅前公共トイレ","province":"東京都","city":"町田市","address":"東京都町田市南成瀬1丁目1","lat":35.535631,"lon":139.473046},{"name":"町田ターミナルプラザ","province":"東京都","city":"町田市","address":"東京都町田市原町田3丁目1-4","lat":35.540227,"lon":139.449392},{"name":"ふれあいいちょう館","province":"東京都","city":"町田市","address":"東京都町田市大蔵町1984-1","lat":35.589057,"lon":139.468107},{"name":"ふれあい桜館","province":"東京都","city":"町田市","address":"東京都町田市下小山田町3580","lat":35.585093,"lon":139.40826},{"name":"町田市ふれあいもみじ館","province":"東京都","city":"町田市","address":"東京都町田市金森東3丁目17-14","lat":35.530386,"lon":139.465256},{"name":"町田市ふれあいもみじ館","province":"東京都","city":"町田市","address":"東京都町田市金森東3丁目17-14","lat":35.53037,"lon":139.465203},{"name":"町田薬師池公園四季彩の杜　ダリア園","province":"東京都","city":"町田市","address":"東京都町田市山崎町","lat":35.575606,"lon":139.440154},{"name":"町田薬師池公園四季彩の杜　ダリア園","province":"東京都","city":"町田市","address":"東京都町田市山崎町1213-1","lat":35.575897,"lon":139.440294},{"name":"町田リス園","province":"東京都","city":"町田市","address":"東京都町田市薬師台1丁目","lat":35.57821,"lon":139.45002},{"name":"町田市大賀藕絲館","province":"東京都","city":"町田市","address":"東京都町田市下小山田町3267","lat":35.585037,"lon":139.409106},{"name":"町田ゆめ工房","province":"東京都","city":"町田市","address":"東京都町田市相原町2983-157","lat":35.607921,"lon":139.313282},{"name":"社会福祉法人まちだ育成会こころみ","province":"東京都","city":"町田市","address":"東京都町田市山崎町996-10","lat":35.579947,"lon":139.44063},{"name":"せりがや会館","province":"東京都","city":"町田市","address":"東京都町田市原町田4丁目24-6","lat":35.544414,"lon":139.453029},{"name":"せりがや会館","province":"東京都","city":"町田市","address":"東京都町田市原町田4丁目24-6","lat":35.544522,"lon":139.453104},{"name":"緑ヶ丘グラウンド","province":"東京都","city":"町田市","address":"東京都町田市本町田","lat":35.564526,"lon":139.437448},{"name":"市立室内プール","province":"東京都","city":"町田市","address":"東京都町田市図師町199-1","lat":35.586269,"lon":139.413638},{"name":"市立室内プール","province":"東京都","city":"町田市","address":"東京都町田市図師町199-1","lat":35.586575,"lon":139.414028},{"name":"市立室内プール","province":"東京都","city":"町田市","address":"東京都町田市図師町199-1","lat":35.58643,"lon":139.413791},{"name":"市立室内プール","province":"東京都","city":"町田市","address":"東京都町田市図師町199-1","lat":35.586304,"lon":139.413525},{"name":"町田市バイオエネルギーセンター","province":"東京都","city":"町田市","address":"東京都町田市下小山田町3160","lat":35.586855,"lon":139.411041},{"name":"成瀬クリーンセンター","province":"東京都","city":"町田市","address":"東京都町田市南成瀬8丁目1-1","lat":35.535446,"lon":139.485133},{"name":"鶴見川クリーンセンター","province":"東京都","city":"町田市","address":"東京都町田市三輪緑山1丁目1","lat":35.57034,"lon":139.490852},{"name":"（株）公恩社","province":"東京都","city":"町田市","address":"東京都町田市小野路町3186-6","lat":35.60631871,"lon":139.44397447},{"name":"町田市保健所","province":"東京都","city":"町田市","address":"町田市森野2-2-22市庁舎7階","lat":35.54658,"lon":139.4389},{"name":"町田市保健所中町庁舎","province":"東京都","city":"町田市","address":"町田市中町2-13-3","lat":35.55124,"lon":139.4437},{"name":"町田市健康福祉会館","province":"東京都","city":"町田市","address":"町田市原町田5-8-21","lat":35.54611,"lon":139.45018},{"name":"町田市忠生保健センター","province":"東京都","city":"町田市","address":"町田市忠生3-14-2","lat":35.57766,"lon":139.41542},{"name":"町田市鶴川保健センター","province":"東京都","city":"町田市","address":"町田市大蔵町1981-4","lat":35.58874,"lon":139.46738},{"name":"町田市子ども家庭支援センター","province":"東京都","city":"町田市","address":"町田市森野2-2-22町田市役所2階","lat":35.54658,"lon":139.4389},{"name":"町田市保健所","province":"東京都","city":"町田市","address":"東京都町田市森野2丁目2-22","lat":35.54666373,"lon":139.43864046},{"name":"町田市保健所中町庁舎","province":"東京都","city":"町田市","address":"東京都町田市中町2丁目13-3","lat":35.55124111,"lon":139.44367596},{"name":"町田市健康福祉会館","province":"東京都","city":"町田市","address":"東京都町田市原町田5丁目8-21","lat":35.54609452,"lon":139.45002283},{"name":"町田市忠生保健センター","province":"東京都","city":"町田市","address":"東京都町田市忠生3丁目14-2","lat":35.57836563,"lon":139.41603053},{"name":"町田市鶴川保健センター","province":"東京都","city":"町田市","address":"東京都町田市大蔵町1981-4","lat":35.58888611,"lon":139.46739571},{"name":"森野第一自転車駐車場","province":"東京都","city":"町田市","address":"東京都町田市森野1-1","lat":35.54287761,"lon":139.4432129},{"name":"森野第二自転車駐車場","province":"東京都","city":"町田市","address":"東京都町田市森野1-15","lat":35.54325314,"lon":139.4440786},{"name":"森野第三自転車駐車場","province":"東京都","city":"町田市","address":"東京都町田市森野1-2、1-3","lat":35.54357069,"lon":139.4424664},{"name":"森野第三自転車駐車場","province":"東京都","city":"町田市","address":"東京都町田市森野1-2、1-3","lat":35.54357072,"lon":139.4424769},{"name":"森野第一バイク駐車場","province":"東京都","city":"町田市","address":"東京都町田市森野1-1","lat":35.54296653,"lon":139.4434422},{"name":"森野第二バイク駐車場","province":"東京都","city":"町田市","address":"東京都町田市森野1-3","lat":35.54448556,"lon":139.4412543},{"name":"森野第三バイク駐車場","province":"東京都","city":"町田市","address":"東京都町田市森野1-34","lat":35.54617103,"lon":139.4445772},{"name":"原町田一丁目自転車駐車場","province":"東京都","city":"町田市","address":"東京都町田市原町田1-6-21","lat":35.54022581,"lon":139.4481349},{"name":"原町田三丁目自転車駐車場","province":"東京都","city":"町田市","address":"東京都町田市原町田3-2-18","lat":35.54022369,"lon":139.4503142},{"name":"原町田四丁目自転車駐車場","province":"東京都","city":"町田市","address":"東京都町田市原町田4-11-11","lat":35.54261494,"lon":139.4490009},{"name":"原町田六丁目自転車駐車場","province":"東京都","city":"町田市","address":"東京都町田市原町田6-26","lat":35.54476589,"lon":139.4478056},{"name":"町田ターミナル自転車駐車場","province":"東京都","city":"町田市","address":"東京都町田市原町田3-1-4","lat":35.54022936,"lon":139.4494861},{"name":"成瀬駅北口自転車駐車場","province":"東京都","city":"町田市","address":"東京都町田市南成瀬1-3-5","lat":35.53588442,"lon":139.4723249},{"name":"成瀬駅北口自転車駐車場","province":"東京都","city":"町田市","address":"東京都町田市南成瀬1-3-5","lat":35.53589008,"lon":139.4723179},{"name":"なるせ駅前市民センター地下自転車駐車場","province":"東京都","city":"町田市","address":"東京都町田市南成瀬1-2-5","lat":35.53682331,"lon":139.4729389},{"name":"成瀬駅北口路上自転車駐車場","province":"東京都","city":"町田市","address":"東京都町田市南成瀬1-2、1-3","lat":35.53601269,"lon":139.4733683},{"name":"成瀬駅南口自転車駐車場","province":"東京都","city":"町田市","address":"東京都町田市成瀬が丘2-1-8","lat":35.53460661,"lon":139.4736763},{"name":"成瀬駅南口臨時バイク駐車場","province":"東京都","city":"町田市","address":"東京都町田市成瀬が丘2-7-3他","lat":35.53428211,"lon":139.4730072},{"name":"玉川学園五丁目臨時自転車駐車場","province":"東京都","city":"町田市","address":"東京都町田市玉川学園5-3966-16","lat":35.56535022,"lon":139.4632368},{"name":"玉川学園五丁目臨時自転車駐車場","province":"東京都","city":"町田市","address":"東京都町田市玉川学園5-3966-16","lat":35.56533889,"lon":139.4632508},{"name":"玉川学園二丁目自転車駐車場","province":"東京都","city":"町田市","address":"東京都町田市玉川学園2-19-12","lat":35.56362203,"lon":139.4624294},{"name":"東玉川学園臨時自転車駐車場","province":"東京都","city":"町田市","address":"東京都町田市玉川学園7-26","lat":35.56050253,"lon":139.4674399},{"name":"鶴川駅西側自転車駐車場","province":"東京都","city":"町田市","address":"東京都町田市大蔵町37他","lat":35.58280572,"lon":139.4780665},{"name":"鶴川駅西側自転車駐車場","province":"東京都","city":"町田市","address":"東京都町田市大蔵町37他","lat":35.58279994,"lon":139.4780457},{"name":"鶴川駅東側バイク駐車場","province":"東京都","city":"町田市","address":"東京都町田市能ヶ谷1-294-1","lat":35.58405772,"lon":139.4840784},{"name":"つくし野駅自転車駐車場","province":"東京都","city":"町田市","address":"東京都町田市つくし野1-26","lat":35.53108964,"lon":139.4847983},{"name":"すずかけ台駅前自転車駐車場","province":"東京都","city":"町田市","address":"東京都町田市南つくし野3-3-3","lat":35.51716572,"lon":139.4812881},{"name":"多摩境駅南側自転車駐車場","province":"東京都","city":"町田市","address":"東京都町田市小山ヶ丘3-23-134","lat":35.60251689,"lon":139.3673111},{"name":"多摩境駅北側自転車駐車場","province":"東京都","city":"町田市","address":"東京都町田市小山ヶ丘3-23-142","lat":35.60251689,"lon":139.3673111},{"name":"相原駅東口自転車駐車場","province":"東京都","city":"町田市","address":"東京都町田市相原町1155-5","lat":35.60728875,"lon":139.3319485},{"name":"相原駅西口自転車駐車場","province":"東京都","city":"町田市","address":"東京都町田市相原町1216-6","lat":35.60591619,"lon":139.3316303},{"name":"相原駅西口自転車駐車場","province":"東京都","city":"町田市","address":"東京都町田市相原町1216-6","lat":35.60601108,"lon":139.3316445},{"name":"相原駅東口バイク駐車場","province":"東京都","city":"町田市","address":"東京都町田市相原町1228-6","lat":35.60511536,"lon":139.3319489},{"name":"南町田グランベリーパーク駅北口地下自転車駐車場","province":"東京都","city":"町田市","address":"東京都町田市鶴間1-17","lat":35.51195142,"lon":139.4708528},{"name":"南町田グランベリーパーク駅東バイク自転車駐車場","province":"東京都","city":"町田市","address":"東京都町田市鶴間8-1799-2","lat":35.51092431,"lon":139.4737891},{"name":"南町田グランベリーパーク駅東自転車駐車場","province":"東京都","city":"町田市","address":"東京都町田市鶴間3-103-23","lat":35.51051,"lon":139.47342},{"name":"木曽住宅バス停自転車駐車場","province":"東京都","city":"町田市","address":"東京都町田市木曽東4-570-2他","lat":35.56387828,"lon":139.4277805},{"name":"まちだ中央公民館","province":"東京都","city":"町田市","address":"町田市原町田6-8-1","lat":35.543011,"lon":139.447189},{"name":"大地沢青少年センター","province":"東京都","city":"町田市","address":"町田市相原町5307-2","lat":35.616135,"lon":139.28125},{"name":"町田市青少年施設｢ひなた村｣","province":"東京都","city":"町田市","address":"町田市本町田2863","lat":35.567707,"lon":139.444824},{"name":"忠生図書館","province":"東京都","city":"町田市","address":"町田市忠生3-14-2","lat":35.57766,"lon":139.415421},{"name":"町田市立さるびあ図書館","province":"東京都","city":"町田市","address":"町田市中町2-13-23","lat":35.551235,"lon":139.443695},{"name":"町田市立金森図書館","province":"東京都","city":"町田市","address":"町田市金森東3-5-1","lat":35.533234,"lon":139.465652},{"name":"町田市立堺図書館","province":"東京都","city":"町田市","address":"町田市相原町795-1","lat":35.604332,"lon":139.33403},{"name":"町田市立中央図書館","province":"東京都","city":"町田市","address":"町田市原町田3-2-9","lat":35.540539,"lon":139.450058},{"name":"町田市立鶴川駅前図書館","province":"東京都","city":"町田市","address":"町田市能ヶ谷1-2-1和光大学ポプリホール鶴川2階","lat":35.582855,"lon":139.478897},{"name":"町田市立鶴川図書館","province":"東京都","city":"町田市","address":"町田市鶴川6-7-2-1-101","lat":35.585083,"lon":139.477875},{"name":"町田市立木曽山崎図書館","province":"東京都","city":"町田市","address":"町田市山崎町2160","lat":35.569847,"lon":139.434814},{"name":"町田市立博物館","province":"東京都","city":"町田市","address":"町田市本町田3562","lat":35.567085,"lon":139.452347},{"name":"町田市立自由民権資料館","province":"東京都","city":"町田市","address":"町田市野津田町897","lat":35.589741,"lon":139.453278},{"name":"町田市立国際版画美術館","province":"東京都","city":"町田市","address":"町田市原町田4-28-1","lat":35.544495,"lon":139.454941},{"name":"町田市男女平等推進センター","province":"東京都","city":"町田市","address":"町田市原町田4-9-8","lat":35.541824,"lon":139.449905},{"name":"町田市生涯学習センター","province":"東京都","city":"町田市","address":"町田市原町田6-8-1","lat":35.543011,"lon":139.447189},{"name":"町田市考古資料室","province":"東京都","city":"町田市","address":"町田市下小山田町4016","lat":35.589195,"lon":139.410248},{"name":"町田市民文学館ことばらんど","province":"東京都","city":"町田市","address":"町田市原町田4-16-17","lat":35.54269,"lon":139.451721},{"name":"生涯学習センター陶芸スタジオ","province":"東京都","city":"町田市","address":"町田市下小山田町4016","lat":35.589195,"lon":139.410248},{"name":"(有)カネショウ","province":"東京都","city":"町田市","address":"町田市下小山田町594","lat":35.606651,"lon":139.417145},{"name":"(株)宮崎  横浜営業所","province":"東京都","city":"町田市","address":"町田市鶴間7-20-19","lat":35.504444,"lon":139.480057},{"name":"(株)グリーン山愛","province":"東京都","city":"町田市","address":"町田市森野6-1-1","lat":35.552418,"lon":139.429977},{"name":"町田市選挙管理委員会","province":"東京都","city":"町田市","address":"町田市森野2-2-22","lat":35.546643,"lon":139.438645},{"name":"町田市子ども家庭支援センター","province":"東京都","city":"町田市","address":"町田市森野2-2-22町田市役所2階","lat":35.546633,"lon":139.438587},{"name":"町田市保健所","province":"東京都","city":"町田市","address":"町田市森野2-2-22市庁舎7階","lat":35.549872,"lon":139.440026},{"name":"町田市保健所中町庁舎","province":"東京都","city":"町田市","address":"町田市中町2-13-3","lat":35.551224,"lon":139.443709},{"name":"町田市健康福祉会館","province":"東京都","city":"町田市","address":"町田市原町田5-8-21","lat":35.54602,"lon":139.449987},{"name":"町田市忠生保健センター","province":"東京都","city":"町田市","address":"町田市忠生3-14-2","lat":35.578366,"lon":139.416031},{"name":"町田市鶴川保健センター","province":"東京都","city":"町田市","address":"町田市大蔵町1981-4","lat":35.588886,"lon":139.467396},{"name":"町田市","province":"東京都","city":"町田市","address":"町田市森野2-2-22","lat":35.5465589,"lon":139.4385269},{"name":"（株）公恩社","province":"東京都","city":"町田市","address":"東京都町田市小野路町3186-6","lat":35.60631871,"lon":139.44397447},{"name":"町田市保健所","province":"東京都","city":"町田市","address":"町田市森野2-2-22市庁舎7階","lat":35.54658,"lon":139.4389},{"name":"町田市保健所中町庁舎","province":"東京都","city":"町田市","address":"町田市中町2-13-3","lat":35.55124,"lon":139.4437},{"name":"町田市健康福祉会館","province":"東京都","city":"町田市","address":"町田市原町田5-8-21","lat":35.54611,"lon":139.45018},{"name":"町田市忠生保健センター","province":"東京都","city":"町田市","address":"町田市忠生3-14-2","lat":35.57766,"lon":139.41542},{"name":"町田市鶴川保健センター","province":"東京都","city":"町田市","address":"町田市大蔵町1981-4","lat":35.58874,"lon":139.46738},{"name":"町田市子ども家庭支援センター","province":"東京都","city":"町田市","address":"町田市森野2-2-22町田市役所2階","lat":35.54658,"lon":139.4389},{"name":"町田市保健所","province":"東京都","city":"町田市","address":"東京都町田市森野2丁目2-22","lat":35.54666373,"lon":139.43864046},{"name":"町田市保健所中町庁舎","province":"東京都","city":"町田市","address":"東京都町田市中町2丁目13-3","lat":35.55124111,"lon":139.44367596},{"name":"町田市健康福祉会館","province":"東京都","city":"町田市","address":"東京都町田市原町田5丁目8-21","lat":35.54609452,"lon":139.45002283},{"name":"町田市忠生保健センター","province":"東京都","city":"町田市","address":"東京都町田市忠生3丁目14-2","lat":35.57836563,"lon":139.41603053},{"name":"町田市鶴川保健センター","province":"東京都","city":"町田市","address":"東京都町田市大蔵町1981-4","lat":35.58888611,"lon":139.46739571},{"name":"森野第一自転車駐車場","province":"東京都","city":"町田市","address":"東京都町田市森野1-1","lat":35.54287761,"lon":139.4432129},{"name":"森野第二自転車駐車場","province":"東京都","city":"町田市","address":"東京都町田市森野1-15","lat":35.54325314,"lon":139.4440786},{"name":"森野第三自転車駐車場","province":"東京都","city":"町田市","address":"東京都町田市森野1-2、1-3","lat":35.54357069,"lon":139.4424664},{"name":"森野第三自転車駐車場","province":"東京都","city":"町田市","address":"東京都町田市森野1-2、1-3","lat":35.54357072,"lon":139.4424769},{"name":"森野第一バイク駐車場","province":"東京都","city":"町田市","address":"東京都町田市森野1-1","lat":35.54296653,"lon":139.4434422},{"name":"森野第二バイク駐車場","province":"東京都","city":"町田市","address":"東京都町田市森野1-3","lat":35.54448556,"lon":139.4412543},{"name":"森野第三バイク駐車場","province":"東京都","city":"町田市","address":"東京都町田市森野1-34","lat":35.54617103,"lon":139.4445772},{"name":"原町田一丁目自転車駐車場","province":"東京都","city":"町田市","address":"東京都町田市原町田1-6-21","lat":35.54022581,"lon":139.4481349},{"name":"原町田三丁目自転車駐車場","province":"東京都","city":"町田市","address":"東京都町田市原町田3-2-18","lat":35.54022369,"lon":139.4503142},{"name":"原町田四丁目自転車駐車場","province":"東京都","city":"町田市","address":"東京都町田市原町田4-11-11","lat":35.54261494,"lon":139.4490009},{"name":"原町田六丁目自転車駐車場","province":"東京都","city":"町田市","address":"東京都町田市原町田6-26","lat":35.54476589,"lon":139.4478056},{"name":"町田ターミナル自転車駐車場","province":"東京都","city":"町田市","address":"東京都町田市原町田3-1-4","lat":35.54022936,"lon":139.4494861},{"name":"成瀬駅北口自転車駐車場","province":"東京都","city":"町田市","address":"東京都町田市南成瀬1-3-5","lat":35.53588442,"lon":139.4723249},{"name":"成瀬駅北口自転車駐車場","province":"東京都","city":"町田市","address":"東京都町田市南成瀬1-3-5","lat":35.53589008,"lon":139.4723179},{"name":"なるせ駅前市民センター地下自転車駐車場","province":"東京都","city":"町田市","address":"東京都町田市南成瀬1-2-5","lat":35.53682331,"lon":139.4729389},{"name":"成瀬駅北口路上自転車駐車場","province":"東京都","city":"町田市","address":"東京都町田市南成瀬1-2、1-3","lat":35.53601269,"lon":139.4733683},{"name":"成瀬駅南口自転車駐車場","province":"東京都","city":"町田市","address":"東京都町田市成瀬が丘2-1-8","lat":35.53460661,"lon":139.4736763},{"name":"成瀬駅南口臨時バイク駐車場","province":"東京都","city":"町田市","address":"東京都町田市成瀬が丘2-7-3他","lat":35.53428211,"lon":139.4730072},{"name":"玉川学園五丁目臨時自転車駐車場","province":"東京都","city":"町田市","address":"東京都町田市玉川学園5-3966-16","lat":35.56535022,"lon":139.4632368},{"name":"玉川学園五丁目臨時自転車駐車場","province":"東京都","city":"町田市","address":"東京都町田市玉川学園5-3966-16","lat":35.56533889,"lon":139.4632508},{"name":"玉川学園二丁目自転車駐車場","province":"東京都","city":"町田市","address":"東京都町田市玉川学園2-19-12","lat":35.56362203,"lon":139.4624294},{"name":"東玉川学園臨時自転車駐車場","province":"東京都","city":"町田市","address":"東京都町田市玉川学園7-26","lat":35.56050253,"lon":139.4674399},{"name":"鶴川駅西側自転車駐車場","province":"東京都","city":"町田市","address":"東京都町田市大蔵町37他","lat":35.58280572,"lon":139.4780665},{"name":"鶴川駅西側自転車駐車場","province":"東京都","city":"町田市","address":"東京都町田市大蔵町37他","lat":35.58279994,"lon":139.4780457},{"name":"鶴川駅東側バイク駐車場","province":"東京都","city":"町田市","address":"東京都町田市能ヶ谷1-294-1","lat":35.58405772,"lon":139.4840784},{"name":"つくし野駅自転車駐車場","province":"東京都","city":"町田市","address":"東京都町田市つくし野1-26","lat":35.53108964,"lon":139.4847983},{"name":"すずかけ台駅前自転車駐車場","province":"東京都","city":"町田市","address":"東京都町田市南つくし野3-3-3","lat":35.51716572,"lon":139.4812881},{"name":"多摩境駅南側自転車駐車場","province":"東京都","city":"町田市","address":"東京都町田市小山ヶ丘3-23-134","lat":35.60251689,"lon":139.3673111},{"name":"多摩境駅北側自転車駐車場","province":"東京都","city":"町田市","address":"東京都町田市小山ヶ丘3-23-142","lat":35.60251689,"lon":139.3673111},{"name":"相原駅東口自転車駐車場","province":"東京都","city":"町田市","address":"東京都町田市相原町1155-5","lat":35.60728875,"lon":139.3319485},{"name":"相原駅西口自転車駐車場","province":"東京都","city":"町田市","address":"東京都町田市相原町1216-6","lat":35.60591619,"lon":139.3316303},{"name":"相原駅西口自転車駐車場","province":"東京都","city":"町田市","address":"東京都町田市相原町1216-6","lat":35.60601108,"lon":139.3316445},{"name":"相原駅東口バイク駐車場","province":"東京都","city":"町田市","address":"東京都町田市相原町1228-6","lat":35.60511536,"lon":139.3319489},{"name":"南町田グランベリーパーク駅北口地下自転車駐車場","province":"東京都","city":"町田市","address":"東京都町田市鶴間1-17","lat":35.51195142,"lon":139.4708528},{"name":"南町田グランベリーパーク駅東バイク自転車駐車場","province":"東京都","city":"町田市","address":"東京都町田市鶴間8-1799-2","lat":35.51092431,"lon":139.4737891},{"name":"南町田グランベリーパーク駅東自転車駐車場","province":"東京都","city":"町田市","address":"東京都町田市鶴間3-103-23","lat":35.51051,"lon":139.47342},{"name":"木曽住宅バス停自転車駐車場","province":"東京都","city":"町田市","address":"東京都町田市木曽東4-570-2他","lat":35.56387828,"lon":139.4277805},{"name":"まちだ中央公民館","province":"東京都","city":"町田市","address":"町田市原町田6-8-1","lat":35.543011,"lon":139.447189},{"name":"大地沢青少年センター","province":"東京都","city":"町田市","address":"町田市相原町5307-2","lat":35.616135,"lon":139.28125},{"name":"町田市青少年施設｢ひなた村｣","province":"東京都","city":"町田市","address":"町田市本町田2863","lat":35.567707,"lon":139.444824},{"name":"忠生図書館","province":"東京都","city":"町田市","address":"町田市忠生3-14-2","lat":35.57766,"lon":139.415421},{"name":"町田市立さるびあ図書館","province":"東京都","city":"町田市","address":"町田市中町2-13-23","lat":35.551235,"lon":139.443695},{"name":"町田市立金森図書館","province":"東京都","city":"町田市","address":"町田市金森東3-5-1","lat":35.533234,"lon":139.465652},{"name":"町田市立堺図書館","province":"東京都","city":"町田市","address":"町田市相原町795-1","lat":35.604332,"lon":139.33403},{"name":"町田市立中央図書館","province":"東京都","city":"町田市","address":"町田市原町田3-2-9","lat":35.540539,"lon":139.450058},{"name":"町田市立鶴川駅前図書館","province":"東京都","city":"町田市","address":"町田市能ヶ谷1-2-1和光大学ポプリホール鶴川2階","lat":35.582855,"lon":139.478897},{"name":"町田市立鶴川図書館","province":"東京都","city":"町田市","address":"町田市鶴川6-7-2-1-101","lat":35.585083,"lon":139.477875},{"name":"町田市立木曽山崎図書館","province":"東京都","city":"町田市","address":"町田市山崎町2160","lat":35.569847,"lon":139.434814},{"name":"町田市立博物館","province":"東京都","city":"町田市","address":"町田市本町田3562","lat":35.567085,"lon":139.452347},{"name":"町田市立自由民権資料館","province":"東京都","city":"町田市","address":"町田市野津田町897","lat":35.589741,"lon":139.453278},{"name":"町田市立国際版画美術館","province":"東京都","city":"町田市","address":"町田市原町田4-28-1","lat":35.544495,"lon":139.454941},{"name":"町田市男女平等推進センター","province":"東京都","city":"町田市","address":"町田市原町田4-9-8","lat":35.541824,"lon":139.449905},{"name":"町田市生涯学習センター","province":"東京都","city":"町田市","address":"町田市原町田6-8-1","lat":35.543011,"lon":139.447189},{"name":"町田市考古資料室","province":"東京都","city":"町田市","address":"町田市下小山田町4016","lat":35.589195,"lon":139.410248},{"name":"町田市民文学館ことばらんど","province":"東京都","city":"町田市","address":"町田市原町田4-16-17","lat":35.54269,"lon":139.451721},{"name":"生涯学習センター陶芸スタジオ","province":"東京都","city":"町田市","address":"町田市下小山田町4016","lat":35.589195,"lon":139.410248},{"name":"(有)カネショウ","province":"東京都","city":"町田市","address":"町田市下小山田町594","lat":35.606651,"lon":139.417145},{"name":"(株)宮崎  横浜営業所","province":"東京都","city":"町田市","address":"町田市鶴間7-20-19","lat":35.504444,"lon":139.480057},{"name":"(株)グリーン山愛","province":"東京都","city":"町田市","address":"町田市森野6-1-1","lat":35.552418,"lon":139.429977},{"name":"町田市選挙管理委員会","province":"東京都","city":"町田市","address":"町田市森野2-2-22","lat":35.546643,"lon":139.438645},{"name":"町田市保健所","province":"東京都","city":"町田市","address":"町田市森野2-2-22市庁舎7階","lat":35.549872,"lon":139.440026},{"name":"町田市保健所中町庁舎","province":"東京都","city":"町田市","address":"町田市中町2-13-3","lat":35.551224,"lon":139.443709},{"name":"町田市健康福祉会館","province":"東京都","city":"町田市","address":"町田市原町田5-8-21","lat":35.54602,"lon":139.449987},{"name":"町田市忠生保健センター","province":"東京都","city":"町田市","address":"町田市忠生3-14-2","lat":35.578366,"lon":139.416031},{"name":"町田市鶴川保健センター","province":"東京都","city":"町田市","address":"町田市大蔵町1981-4","lat":35.588886,"lon":139.467396},{"name":"町田市","province":"東京都","city":"町田市","address":"町田市森野2-2-22","lat":35.5465589,"lon":139.4385269},{"name":"（株）公恩社","province":"東京都","city":"町田市","address":"東京都町田市小野路町3186-6","lat":35.60631871,"lon":139.44397447},{"name":"町田市保健所","province":"東京都","city":"町田市","address":"町田市森野2-2-22市庁舎7階","lat":35.54658,"lon":139.4389},{"name":"町田市保健所中町庁舎","province":"東京都","city":"町田市","address":"町田市中町2-13-3","lat":35.55124,"lon":139.4437},{"name":"町田市健康福祉会館","province":"東京都","city":"町田市","address":"町田市原町田5-8-21","lat":35.54611,"lon":139.45018},{"name":"町田市忠生保健センター","province":"東京都","city":"町田市","address":"町田市忠生3-14-2","lat":35.57766,"lon":139.41542},{"name":"町田市鶴川保健センター","province":"東京都","city":"町田市","address":"町田市大蔵町1981-4","lat":35.58874,"lon":139.46738},{"name":"町田市保健所","province":"東京都","city":"町田市","address":"東京都町田市森野2丁目2-22","lat":35.54666373,"lon":139.43864046},{"name":"町田市保健所中町庁舎","province":"東京都","city":"町田市","address":"東京都町田市中町2丁目13-3","lat":35.55124111,"lon":139.44367596},{"name":"町田市健康福祉会館","province":"東京都","city":"町田市","address":"東京都町田市原町田5丁目8-21","lat":35.54609452,"lon":139.45002283},{"name":"町田市忠生保健センター","province":"東京都","city":"町田市","address":"東京都町田市忠生3丁目14-2","lat":35.57836563,"lon":139.41603053},{"name":"町田市鶴川保健センター","province":"東京都","city":"町田市","address":"東京都町田市大蔵町1981-4","lat":35.58888611,"lon":139.46739571},{"name":"森野第一自転車駐車場","province":"東京都","city":"町田市","address":"東京都町田市森野1-1","lat":35.54287761,"lon":139.4432129},{"name":"森野第二自転車駐車場","province":"東京都","city":"町田市","address":"東京都町田市森野1-15","lat":35.54325314,"lon":139.4440786},{"name":"森野第三自転車駐車場","province":"東京都","city":"町田市","address":"東京都町田市森野1-2、1-3","lat":35.54357069,"lon":139.4424664},{"name":"森野第三自転車駐車場","province":"東京都","city":"町田市","address":"東京都町田市森野1-2、1-3","lat":35.54357072,"lon":139.4424769},{"name":"森野第一バイク駐車場","province":"東京都","city":"町田市","address":"東京都町田市森野1-1","lat":35.54296653,"lon":139.4434422},{"name":"森野第二バイク駐車場","province":"東京都","city":"町田市","address":"東京都町田市森野1-3","lat":35.54448556,"lon":139.4412543},{"name":"森野第三バイク駐車場","province":"東京都","city":"町田市","address":"東京都町田市森野1-34","lat":35.54617103,"lon":139.4445772},{"name":"原町田一丁目自転車駐車場","province":"東京都","city":"町田市","address":"東京都町田市原町田1-6-21","lat":35.54022581,"lon":139.4481349},{"name":"原町田三丁目自転車駐車場","province":"東京都","city":"町田市","address":"東京都町田市原町田3-2-18","lat":35.54022369,"lon":139.4503142},{"name":"原町田四丁目自転車駐車場","province":"東京都","city":"町田市","address":"東京都町田市原町田4-11-11","lat":35.54261494,"lon":139.4490009},{"name":"原町田六丁目自転車駐車場","province":"東京都","city":"町田市","address":"東京都町田市原町田6-26","lat":35.54476589,"lon":139.4478056},{"name":"町田ターミナル自転車駐車場","province":"東京都","city":"町田市","address":"東京都町田市原町田3-1-4","lat":35.54022936,"lon":139.4494861},{"name":"成瀬駅北口自転車駐車場","province":"東京都","city":"町田市","address":"東京都町田市南成瀬1-3-5","lat":35.53588442,"lon":139.4723249},{"name":"成瀬駅北口自転車駐車場","province":"東京都","city":"町田市","address":"東京都町田市南成瀬1-3-5","lat":35.53589008,"lon":139.4723179},{"name":"なるせ駅前市民センター地下自転車駐車場","province":"東京都","city":"町田市","address":"東京都町田市南成瀬1-2-5","lat":35.53682331,"lon":139.4729389},{"name":"成瀬駅北口路上自転車駐車場","province":"東京都","city":"町田市","address":"東京都町田市南成瀬1-2、1-3","lat":35.53601269,"lon":139.4733683},{"name":"成瀬駅南口自転車駐車場","province":"東京都","city":"町田市","address":"東京都町田市成瀬が丘2-1-8","lat":35.53460661,"lon":139.4736763},{"name":"成瀬駅南口臨時バイク駐車場","province":"東京都","city":"町田市","address":"東京都町田市成瀬が丘2-7-3他","lat":35.53428211,"lon":139.4730072},{"name":"玉川学園五丁目臨時自転車駐車場","province":"東京都","city":"町田市","address":"東京都町田市玉川学園5-3966-16","lat":35.56535022,"lon":139.4632368},{"name":"玉川学園五丁目臨時自転車駐車場","province":"東京都","city":"町田市","address":"東京都町田市玉川学園5-3966-16","lat":35.56533889,"lon":139.4632508},{"name":"玉川学園二丁目自転車駐車場","province":"東京都","city":"町田市","address":"東京都町田市玉川学園2-19-12","lat":35.56362203,"lon":139.4624294},{"name":"東玉川学園臨時自転車駐車場","province":"東京都","city":"町田市","address":"東京都町田市玉川学園7-26","lat":35.56050253,"lon":139.4674399},{"name":"鶴川駅西側自転車駐車場","province":"東京都","city":"町田市","address":"東京都町田市大蔵町37他","lat":35.58280572,"lon":139.4780665},{"name":"鶴川駅西側自転車駐車場","province":"東京都","city":"町田市","address":"東京都町田市大蔵町37他","lat":35.58279994,"lon":139.4780457},{"name":"鶴川駅東側バイク駐車場","province":"東京都","city":"町田市","address":"東京都町田市能ヶ谷1-294-1","lat":35.58405772,"lon":139.4840784},{"name":"つくし野駅自転車駐車場","province":"東京都","city":"町田市","address":"東京都町田市つくし野1-26","lat":35.53108964,"lon":139.4847983},{"name":"すずかけ台駅前自転車駐車場","province":"東京都","city":"町田市","address":"東京都町田市南つくし野3-3-3","lat":35.51716572,"lon":139.4812881},{"name":"多摩境駅南側自転車駐車場","province":"東京都","city":"町田市","address":"東京都町田市小山ヶ丘3-23-134","lat":35.60251689,"lon":139.3673111},{"name":"多摩境駅北側自転車駐車場","province":"東京都","city":"町田市","address":"東京都町田市小山ヶ丘3-23-142","lat":35.60251689,"lon":139.3673111},{"name":"相原駅東口自転車駐車場","province":"東京都","city":"町田市","address":"東京都町田市相原町1155-5","lat":35.60728875,"lon":139.3319485},{"name":"相原駅西口自転車駐車場","province":"東京都","city":"町田市","address":"東京都町田市相原町1216-6","lat":35.60591619,"lon":139.3316303},{"name":"相原駅西口自転車駐車場","province":"東京都","city":"町田市","address":"東京都町田市相原町1216-6","lat":35.60601108,"lon":139.3316445},{"name":"相原駅東口バイク駐車場","province":"東京都","city":"町田市","address":"東京都町田市相原町1228-6","lat":35.60511536,"lon":139.3319489},{"name":"南町田グランベリーパーク駅北口地下自転車駐車場","province":"東京都","city":"町田市","address":"東京都町田市鶴間1-17","lat":35.51195142,"lon":139.4708528},{"name":"南町田グランベリーパーク駅東バイク自転車駐車場","province":"東京都","city":"町田市","address":"東京都町田市鶴間8-1799-2","lat":35.51092431,"lon":139.4737891},{"name":"南町田グランベリーパーク駅東自転車駐車場","province":"東京都","city":"町田市","address":"東京都町田市鶴間3-103-23","lat":35.51051,"lon":139.47342},{"name":"木曽住宅バス停自転車駐車場","province":"東京都","city":"町田市","address":"東京都町田市木曽東4-570-2他","lat":35.56387828,"lon":139.4277805},{"name":"まちだ中央公民館","province":"東京都","city":"町田市","address":"町田市原町田6-8-1","lat":35.543011,"lon":139.447189},{"name":"大地沢青少年センター","province":"東京都","city":"町田市","address":"町田市相原町5307-2","lat":35.616135,"lon":139.28125},{"name":"町田市青少年施設｢ひなた村｣","province":"東京都","city":"町田市","address":"町田市本町田2863","lat":35.567707,"lon":139.444824},{"name":"忠生図書館","province":"東京都","city":"町田市","address":"町田市忠生3-14-2","lat":35.57766,"lon":139.415421},{"name":"町田市立さるびあ図書館","province":"東京都","city":"町田市","address":"町田市中町2-13-23","lat":35.551235,"lon":139.443695},{"name":"町田市立金森図書館","province":"東京都","city":"町田市","address":"町田市金森東3-5-1","lat":35.533234,"lon":139.465652},{"name":"町田市立堺図書館","province":"東京都","city":"町田市","address":"町田市相原町795-1","lat":35.604332,"lon":139.33403},{"name":"町田市立中央図書館","province":"東京都","city":"町田市","address":"町田市原町田3-2-9","lat":35.540539,"lon":139.450058},{"name":"町田市立鶴川駅前図書館","province":"東京都","city":"町田市","address":"町田市能ヶ谷1-2-1和光大学ポプリホール鶴川2階","lat":35.582855,"lon":139.478897},{"name":"町田市立鶴川図書館","province":"東京都","city":"町田市","address":"町田市鶴川6-7-2-1-101","lat":35.585083,"lon":139.477875},{"name":"町田市立木曽山崎図書館","province":"東京都","city":"町田市","address":"町田市山崎町2160","lat":35.569847,"lon":139.434814},{"name":"町田市立博物館","province":"東京都","city":"町田市","address":"町田市本町田3562","lat":35.567085,"lon":139.452347},{"name":"町田市立自由民権資料館","province":"東京都","city":"町田市","address":"町田市野津田町897","lat":35.589741,"lon":139.453278},{"name":"町田市立国際版画美術館","province":"東京都","city":"町田市","address":"町田市原町田4-28-1","lat":35.544495,"lon":139.454941},{"name":"町田市男女平等推進センター","province":"東京都","city":"町田市","address":"町田市原町田4-9-8","lat":35.541824,"lon":139.449905},{"name":"町田市生涯学習センター","province":"東京都","city":"町田市","address":"町田市原町田6-8-1","lat":35.543011,"lon":139.447189},{"name":"町田市考古資料室","province":"東京都","city":"町田市","address":"町田市下小山田町4016","lat":35.589195,"lon":139.410248},{"name":"町田市民文学館ことばらんど","province":"東京都","city":"町田市","address":"町田市原町田4-16-17","lat":35.54269,"lon":139.451721},{"name":"生涯学習センター陶芸スタジオ","province":"東京都","city":"町田市","address":"町田市下小山田町4016","lat":35.589195,"lon":139.410248},{"name":"(有)カネショウ","province":"東京都","city":"町田市","address":"町田市下小山田町594","lat":35.606651,"lon":139.417145},{"name":"(株)宮崎  横浜営業所","province":"東京都","city":"町田市","address":"町田市鶴間7-20-19","lat":35.504444,"lon":139.480057},{"name":"(株)グリーン山愛","province":"東京都","city":"町田市","address":"町田市森野6-1-1","lat":35.552418,"lon":139.429977},{"name":"町田市選挙管理委員会","province":"東京都","city":"町田市","address":"町田市森野2-2-22","lat":35.546643,"lon":139.438645},{"name":"町田市保健所","province":"東京都","city":"町田市","address":"町田市森野2-2-22市庁舎7階","lat":35.549872,"lon":139.440026},{"name":"町田市保健所中町庁舎","province":"東京都","city":"町田市","address":"町田市中町2-13-3","lat":35.551224,"lon":139.443709},{"name":"町田市健康福祉会館","province":"東京都","city":"町田市","address":"町田市原町田5-8-21","lat":35.54602,"lon":139.449987},{"name":"町田市忠生保健センター","province":"東京都","city":"町田市","address":"町田市忠生3-14-2","lat":35.578366,"lon":139.416031},{"name":"町田市鶴川保健センター","province":"東京都","city":"町田市","address":"町田市大蔵町1981-4","lat":35.588886,"lon":139.467396},{"name":"町田市","province":"東京都","city":"町田市","address":"町田市森野2-2-22","lat":35.5465589,"lon":139.4385269},{"name":"（株）公恩社","province":"東京都","city":"町田市","address":"東京都町田市小野路町3186-6","lat":35.60631871,"lon":139.44397447},{"name":"町田市保健所","province":"東京都","city":"町田市","address":"町田市森野2-2-22市庁舎7階","lat":35.54658,"lon":139.4389},{"name":"町田市保健所中町庁舎","province":"東京都","city":"町田市","address":"町田市中町2-13-3","lat":35.55124,"lon":139.4437},{"name":"町田市健康福祉会館","province":"東京都","city":"町田市","address":"町田市原町田5-8-21","lat":35.54611,"lon":139.45018},{"name":"町田市忠生保健センター","province":"東京都","city":"町田市","address":"町田市忠生3-14-2","lat":35.57766,"lon":139.41542},{"name":"町田市鶴川保健センター","province":"東京都","city":"町田市","address":"町田市大蔵町1981-4","lat":35.58874,"lon":139.46738},{"name":"町田市保健所","province":"東京都","city":"町田市","address":"東京都町田市森野2丁目2-22","lat":35.54666373,"lon":139.43864046},{"name":"町田市保健所中町庁舎","province":"東京都","city":"町田市","address":"東京都町田市中町2丁目13-3","lat":35.55124111,"lon":139.44367596},{"name":"町田市健康福祉会館","province":"東京都","city":"町田市","address":"東京都町田市原町田5丁目8-21","lat":35.54609452,"lon":139.45002283},{"name":"町田市忠生保健センター","province":"東京都","city":"町田市","address":"東京都町田市忠生3丁目14-2","lat":35.57836563,"lon":139.41603053},{"name":"町田市鶴川保健センター","province":"東京都","city":"町田市","address":"東京都町田市大蔵町1981-4","lat":35.58888611,"lon":139.46739571},{"name":"森野第一自転車駐車場","province":"東京都","city":"町田市","address":"東京都町田市森野1-1","lat":35.54287761,"lon":139.4432129},{"name":"森野第二自転車駐車場","province":"東京都","city":"町田市","address":"東京都町田市森野1-15","lat":35.54325314,"lon":139.4440786},{"name":"森野第三自転車駐車場","province":"東京都","city":"町田市","address":"東京都町田市森野1-2、1-3","lat":35.54357069,"lon":139.4424664},{"name":"森野第三自転車駐車場","province":"東京都","city":"町田市","address":"東京都町田市森野1-2、1-3","lat":35.54357072,"lon":139.4424769},{"name":"森野第一バイク駐車場","province":"東京都","city":"町田市","address":"東京都町田市森野1-1","lat":35.54296653,"lon":139.4434422},{"name":"森野第二バイク駐車場","province":"東京都","city":"町田市","address":"東京都町田市森野1-3","lat":35.54448556,"lon":139.4412543},{"name":"森野第三バイク駐車場","province":"東京都","city":"町田市","address":"東京都町田市森野1-34","lat":35.54617103,"lon":139.4445772},{"name":"原町田一丁目自転車駐車場","province":"東京都","city":"町田市","address":"東京都町田市原町田1-6-21","lat":35.54022581,"lon":139.4481349},{"name":"原町田三丁目自転車駐車場","province":"東京都","city":"町田市","address":"東京都町田市原町田3-2-18","lat":35.54022369,"lon":139.4503142},{"name":"原町田四丁目自転車駐車場","province":"東京都","city":"町田市","address":"東京都町田市原町田4-11-11","lat":35.54261494,"lon":139.4490009},{"name":"原町田六丁目自転車駐車場","province":"東京都","city":"町田市","address":"東京都町田市原町田6-26","lat":35.54476589,"lon":139.4478056},{"name":"町田ターミナル自転車駐車場","province":"東京都","city":"町田市","address":"東京都町田市原町田3-1-4","lat":35.54022936,"lon":139.4494861},{"name":"成瀬駅北口自転車駐車場","province":"東京都","city":"町田市","address":"東京都町田市南成瀬1-3-5","lat":35.53588442,"lon":139.4723249},{"name":"成瀬駅北口自転車駐車場","province":"東京都","city":"町田市","address":"東京都町田市南成瀬1-3-5","lat":35.53589008,"lon":139.4723179},{"name":"なるせ駅前市民センター地下自転車駐車場","province":"東京都","city":"町田市","address":"東京都町田市南成瀬1-2-5","lat":35.53682331,"lon":139.4729389},{"name":"成瀬駅北口路上自転車駐車場","province":"東京都","city":"町田市","address":"東京都町田市南成瀬1-2、1-3","lat":35.53601269,"lon":139.4733683},{"name":"成瀬駅南口自転車駐車場","province":"東京都","city":"町田市","address":"東京都町田市成瀬が丘2-1-8","lat":35.53460661,"lon":139.4736763},{"name":"成瀬駅南口臨時バイク駐車場","province":"東京都","city":"町田市","address":"東京都町田市成瀬が丘2-7-3他","lat":35.53428211,"lon":139.4730072},{"name":"玉川学園五丁目臨時自転車駐車場","province":"東京都","city":"町田市","address":"東京都町田市玉川学園5-3966-16","lat":35.56535022,"lon":139.4632368},{"name":"玉川学園五丁目臨時自転車駐車場","province":"東京都","city":"町田市","address":"東京都町田市玉川学園5-3966-16","lat":35.56533889,"lon":139.4632508},{"name":"玉川学園二丁目自転車駐車場","province":"東京都","city":"町田市","address":"東京都町田市玉川学園2-19-12","lat":35.56362203,"lon":139.4624294},{"name":"東玉川学園臨時自転車駐車場","province":"東京都","city":"町田市","address":"東京都町田市玉川学園7-26","lat":35.56050253,"lon":139.4674399},{"name":"鶴川駅西側自転車駐車場","province":"東京都","city":"町田市","address":"東京都町田市大蔵町37他","lat":35.58280572,"lon":139.4780665},{"name":"鶴川駅西側自転車駐車場","province":"東京都","city":"町田市","address":"東京都町田市大蔵町37他","lat":35.58279994,"lon":139.4780457},{"name":"鶴川駅東側バイク駐車場","province":"東京都","city":"町田市","address":"東京都町田市能ヶ谷1-294-1","lat":35.58405772,"lon":139.4840784},{"name":"つくし野駅自転車駐車場","province":"東京都","city":"町田市","address":"東京都町田市つくし野1-26","lat":35.53108964,"lon":139.4847983},{"name":"すずかけ台駅前自転車駐車場","province":"東京都","city":"町田市","address":"東京都町田市南つくし野3-3-3","lat":35.51716572,"lon":139.4812881},{"name":"多摩境駅南側自転車駐車場","province":"東京都","city":"町田市","address":"東京都町田市小山ヶ丘3-23-134","lat":35.60251689,"lon":139.3673111},{"name":"多摩境駅北側自転車駐車場","province":"東京都","city":"町田市","address":"東京都町田市小山ヶ丘3-23-142","lat":35.60251689,"lon":139.3673111},{"name":"相原駅東口自転車駐車場","province":"東京都","city":"町田市","address":"東京都町田市相原町1155-5","lat":35.60728875,"lon":139.3319485},{"name":"相原駅西口自転車駐車場","province":"東京都","city":"町田市","address":"東京都町田市相原町1216-6","lat":35.60591619,"lon":139.3316303},{"name":"相原駅西口自転車駐車場","province":"東京都","city":"町田市","address":"東京都町田市相原町1216-6","lat":35.60601108,"lon":139.3316445},{"name":"相原駅東口バイク駐車場","province":"東京都","city":"町田市","address":"東京都町田市相原町1228-6","lat":35.60511536,"lon":139.3319489},{"name":"南町田グランベリーパーク駅北口地下自転車駐車場","province":"東京都","city":"町田市","address":"東京都町田市鶴間1-17","lat":35.51195142,"lon":139.4708528},{"name":"南町田グランベリーパーク駅東バイク自転車駐車場","province":"東京都","city":"町田市","address":"東京都町田市鶴間8-1799-2","lat":35.51092431,"lon":139.4737891},{"name":"南町田グランベリーパーク駅東自転車駐車場","province":"東京都","city":"町田市","address":"東京都町田市鶴間3-103-23","lat":35.51051,"lon":139.47342},{"name":"木曽住宅バス停自転車駐車場","province":"東京都","city":"町田市","address":"東京都町田市木曽東4-570-2他","lat":35.56387828,"lon":139.4277805},{"name":"まちだ中央公民館","province":"東京都","city":"町田市","address":"町田市原町田6-8-1","lat":35.543011,"lon":139.447189},{"name":"大地沢青少年センター","province":"東京都","city":"町田市","address":"町田市相原町5307-2","lat":35.616135,"lon":139.28125},{"name":"町田市青少年施設｢ひなた村｣","province":"東京都","city":"町田市","address":"町田市本町田2863","lat":35.567707,"lon":139.444824},{"name":"忠生図書館","province":"東京都","city":"町田市","address":"町田市忠生3-14-2","lat":35.57766,"lon":139.415421},{"name":"町田市立さるびあ図書館","province":"東京都","city":"町田市","address":"町田市中町2-13-23","lat":35.551235,"lon":139.443695},{"name":"町田市立金森図書館","province":"東京都","city":"町田市","address":"町田市金森東3-5-1","lat":35.533234,"lon":139.465652},{"name":"町田市立堺図書館","province":"東京都","city":"町田市","address":"町田市相原町795-1","lat":35.604332,"lon":139.33403},{"name":"町田市立中央図書館","province":"東京都","city":"町田市","address":"町田市原町田3-2-9","lat":35.540539,"lon":139.450058},{"name":"町田市立鶴川駅前図書館","province":"東京都","city":"町田市","address":"町田市能ヶ谷1-2-1和光大学ポプリホール鶴川2階","lat":35.582855,"lon":139.478897},{"name":"町田市立鶴川図書館","province":"東京都","city":"町田市","address":"町田市鶴川6-7-2-1-101","lat":35.585083,"lon":139.477875},{"name":"町田市立木曽山崎図書館","province":"東京都","city":"町田市","address":"町田市山崎町2160","lat":35.569847,"lon":139.434814},{"name":"町田市立博物館","province":"東京都","city":"町田市","address":"町田市本町田3562","lat":35.567085,"lon":139.452347},{"name":"町田市立自由民権資料館","province":"東京都","city":"町田市","address":"町田市野津田町897","lat":35.589741,"lon":139.453278},{"name":"町田市立国際版画美術館","province":"東京都","city":"町田市","address":"町田市原町田4-28-1","lat":35.544495,"lon":139.454941},{"name":"町田市男女平等推進センター","province":"東京都","city":"町田市","address":"町田市原町田4-9-8","lat":35.541824,"lon":139.449905},{"name":"町田市生涯学習センター","province":"東京都","city":"町田市","address":"町田市原町田6-8-1","lat":35.543011,"lon":139.447189},{"name":"町田市考古資料室","province":"東京都","city":"町田市","address":"町田市下小山田町4016","lat":35.589195,"lon":139.410248},{"name":"町田市民文学館ことばらんど","province":"東京都","city":"町田市","address":"町田市原町田4-16-17","lat":35.54269,"lon":139.451721},{"name":"生涯学習センター陶芸スタジオ","province":"東京都","city":"町田市","address":"町田市下小山田町4016","lat":35.589195,"lon":139.410248},{"name":"(有)カネショウ","province":"東京都","city":"町田市","address":"町田市下小山田町594","lat":35.606651,"lon":139.417145},{"name":"(株)宮崎  横浜営業所","province":"東京都","city":"町田市","address":"町田市鶴間7-20-19","lat":35.504444,"lon":139.480057},{"name":"(株)グリーン山愛","province":"東京都","city":"町田市","address":"町田市森野6-1-1","lat":35.552418,"lon":139.429977},{"name":"町田市選挙管理委員会","province":"東京都","city":"町田市","address":"町田市森野2-2-22","lat":35.546643,"lon":139.438645},{"name":"町田市","province":"東京都","city":"町田市","address":"町田市森野2-2-22","lat":35.5465589,"lon":139.4385269},{"name":"森野第一自転車駐車場","province":"東京都","city":"町田市","address":"東京都町田市森野1-1","lat":35.54287761,"lon":139.4432129},{"name":"森野第二自転車駐車場","province":"東京都","city":"町田市","address":"東京都町田市森野1-15","lat":35.54325314,"lon":139.4440786},{"name":"森野第三自転車駐車場","province":"東京都","city":"町田市","address":"東京都町田市森野1-2、1-3","lat":35.54357069,"lon":139.4424664},{"name":"森野第三自転車駐車場","province":"東京都","city":"町田市","address":"東京都町田市森野1-2、1-3","lat":35.54357072,"lon":139.4424769},{"name":"森野第一バイク駐車場","province":"東京都","city":"町田市","address":"東京都町田市森野1-1","lat":35.54296653,"lon":139.4434422},{"name":"森野第二バイク駐車場","province":"東京都","city":"町田市","address":"東京都町田市森野1-3","lat":35.54448556,"lon":139.4412543},{"name":"森野第三バイク駐車場","province":"東京都","city":"町田市","address":"東京都町田市森野1-34","lat":35.54617103,"lon":139.4445772},{"name":"原町田一丁目自転車駐車場","province":"東京都","city":"町田市","address":"東京都町田市原町田1-6-21","lat":35.54022581,"lon":139.4481349},{"name":"原町田三丁目自転車駐車場","province":"東京都","city":"町田市","address":"東京都町田市原町田3-2-18","lat":35.54022369,"lon":139.4503142},{"name":"原町田四丁目自転車駐車場","province":"東京都","city":"町田市","address":"東京都町田市原町田4-11-11","lat":35.54261494,"lon":139.4490009},{"name":"原町田六丁目自転車駐車場","province":"東京都","city":"町田市","address":"東京都町田市原町田6-26","lat":35.54476589,"lon":139.4478056},{"name":"町田ターミナル自転車駐車場","province":"東京都","city":"町田市","address":"東京都町田市原町田3-1-4","lat":35.54022936,"lon":139.4494861},{"name":"成瀬駅北口自転車駐車場","province":"東京都","city":"町田市","address":"東京都町田市南成瀬1-3-5","lat":35.53588442,"lon":139.4723249},{"name":"成瀬駅北口自転車駐車場","province":"東京都","city":"町田市","address":"東京都町田市南成瀬1-3-5","lat":35.53589008,"lon":139.4723179},{"name":"なるせ駅前市民センター地下自転車駐車場","province":"東京都","city":"町田市","address":"東京都町田市南成瀬1-2-5","lat":35.53682331,"lon":139.4729389},{"name":"成瀬駅北口路上自転車駐車場","province":"東京都","city":"町田市","address":"東京都町田市南成瀬1-2、1-3","lat":35.53601269,"lon":139.4733683},{"name":"成瀬駅南口自転車駐車場","province":"東京都","city":"町田市","address":"東京都町田市成瀬が丘2-1-8","lat":35.53460661,"lon":139.4736763},{"name":"成瀬駅南口臨時バイク駐車場","province":"東京都","city":"町田市","address":"東京都町田市成瀬が丘2-7-3他","lat":35.53428211,"lon":139.4730072},{"name":"玉川学園五丁目臨時自転車駐車場","province":"東京都","city":"町田市","address":"東京都町田市玉川学園5-3966-16","lat":35.56535022,"lon":139.4632368},{"name":"玉川学園五丁目臨時自転車駐車場","province":"東京都","city":"町田市","address":"東京都町田市玉川学園5-3966-16","lat":35.56533889,"lon":139.4632508},{"name":"玉川学園二丁目自転車駐車場","province":"東京都","city":"町田市","address":"東京都町田市玉川学園2-19-12","lat":35.56362203,"lon":139.4624294},{"name":"東玉川学園臨時自転車駐車場","province":"東京都","city":"町田市","address":"東京都町田市玉川学園7-26","lat":35.56050253,"lon":139.4674399},{"name":"鶴川駅西側自転車駐車場","province":"東京都","city":"町田市","address":"東京都町田市大蔵町37他","lat":35.58280572,"lon":139.4780665},{"name":"鶴川駅西側自転車駐車場","province":"東京都","city":"町田市","address":"東京都町田市大蔵町37他","lat":35.58279994,"lon":139.4780457},{"name":"鶴川駅東側バイク駐車場","province":"東京都","city":"町田市","address":"東京都町田市能ヶ谷1-294-1","lat":35.58405772,"lon":139.4840784},{"name":"つくし野駅自転車駐車場","province":"東京都","city":"町田市","address":"東京都町田市つくし野1-26","lat":35.53108964,"lon":139.4847983},{"name":"すずかけ台駅前自転車駐車場","province":"東京都","city":"町田市","address":"東京都町田市南つくし野3-3-3","lat":35.51716572,"lon":139.4812881},{"name":"多摩境駅南側自転車駐車場","province":"東京都","city":"町田市","address":"東京都町田市小山ヶ丘3-23-134","lat":35.60251689,"lon":139.3673111},{"name":"多摩境駅北側自転車駐車場","province":"東京都","city":"町田市","address":"東京都町田市小山ヶ丘3-23-142","lat":35.60251689,"lon":139.3673111},{"name":"相原駅東口自転車駐車場","province":"東京都","city":"町田市","address":"東京都町田市相原町1155-5","lat":35.60728875,"lon":139.3319485},{"name":"相原駅西口自転車駐車場","province":"東京都","city":"町田市","address":"東京都町田市相原町1216-6","lat":35.60591619,"lon":139.3316303},{"name":"相原駅西口自転車駐車場","province":"東京都","city":"町田市","address":"東京都町田市相原町1216-6","lat":35.60601108,"lon":139.3316445},{"name":"相原駅東口バイク駐車場","province":"東京都","city":"町田市","address":"東京都町田市相原町1228-6","lat":35.60511536,"lon":139.3319489},{"name":"南町田グランベリーパーク駅北口地下自転車駐車場","province":"東京都","city":"町田市","address":"東京都町田市鶴間1-17","lat":35.51195142,"lon":139.4708528},{"name":"南町田グランベリーパーク駅東バイク自転車駐車場","province":"東京都","city":"町田市","address":"東京都町田市鶴間8-1799-2","lat":35.51092431,"lon":139.4737891},{"name":"南町田グランベリーパーク駅東自転車駐車場","province":"東京都","city":"町田市","address":"東京都町田市鶴間3-103-23","lat":35.51051,"lon":139.47342},{"name":"木曽住宅バス停自転車駐車場","province":"東京都","city":"町田市","address":"東京都町田市木曽東4-570-2他","lat":35.56387828,"lon":139.4277805},{"name":"まちだ中央公民館","province":"東京都","city":"町田市","address":"町田市原町田6-8-1","lat":35.543011,"lon":139.447189},{"name":"大地沢青少年センター","province":"東京都","city":"町田市","address":"町田市相原町5307-2","lat":35.616135,"lon":139.28125},{"name":"町田市青少年施設｢ひなた村｣","province":"東京都","city":"町田市","address":"町田市本町田2863","lat":35.567707,"lon":139.444824},{"name":"忠生図書館","province":"東京都","city":"町田市","address":"町田市忠生3-14-2","lat":35.57766,"lon":139.415421},{"name":"町田市立さるびあ図書館","province":"東京都","city":"町田市","address":"町田市中町2-13-23","lat":35.551235,"lon":139.443695},{"name":"町田市立金森図書館","province":"東京都","city":"町田市","address":"町田市金森東3-5-1","lat":35.533234,"lon":139.465652},{"name":"町田市立堺図書館","province":"東京都","city":"町田市","address":"町田市相原町795-1","lat":35.604332,"lon":139.33403},{"name":"町田市立中央図書館","province":"東京都","city":"町田市","address":"町田市原町田3-2-9","lat":35.540539,"lon":139.450058},{"name":"町田市立鶴川駅前図書館","province":"東京都","city":"町田市","address":"町田市能ヶ谷1-2-1和光大学ポプリホール鶴川2階","lat":35.582855,"lon":139.478897},{"name":"町田市立鶴川図書館","province":"東京都","city":"町田市","address":"町田市鶴川6-7-2-1-101","lat":35.585083,"lon":139.477875},{"name":"町田市立木曽山崎図書館","province":"東京都","city":"町田市","address":"町田市山崎町2160","lat":35.569847,"lon":139.434814},{"name":"町田市立博物館","province":"東京都","city":"町田市","address":"町田市本町田3562","lat":35.567085,"lon":139.452347},{"name":"町田市立自由民権資料館","province":"東京都","city":"町田市","address":"町田市野津田町897","lat":35.589741,"lon":139.453278},{"name":"町田市立国際版画美術館","province":"東京都","city":"町田市","address":"町田市原町田4-28-1","lat":35.544495,"lon":139.454941},{"name":"町田市男女平等推進センター","province":"東京都","city":"町田市","address":"町田市原町田4-9-8","lat":35.541824,"lon":139.449905},{"name":"町田市生涯学習センター","province":"東京都","city":"町田市","address":"町田市原町田6-8-1","lat":35.543011,"lon":139.447189},{"name":"町田市考古資料室","province":"東京都","city":"町田市","address":"町田市下小山田町4016","lat":35.589195,"lon":139.410248},{"name":"町田市民文学館ことばらんど","province":"東京都","city":"町田市","address":"町田市原町田4-16-17","lat":35.54269,"lon":139.451721},{"name":"生涯学習センター陶芸スタジオ","province":"東京都","city":"町田市","address":"町田市下小山田町4016","lat":35.589195,"lon":139.410248},{"name":"(有)カネショウ","province":"東京都","city":"町田市","address":"町田市下小山田町594","lat":35.606651,"lon":139.417145},{"name":"(株)宮崎  横浜営業所","province":"東京都","city":"町田市","address":"町田市鶴間7-20-19","lat":35.504444,"lon":139.480057},{"name":"(株)グリーン山愛","province":"東京都","city":"町田市","address":"町田市森野6-1-1","lat":35.552418,"lon":139.429977},{"name":"町田市選挙管理委員会","province":"東京都","city":"町田市","address":"町田市森野2-2-22","lat":35.546643,"lon":139.438645},{"name":"まちだ中央公民館","province":"東京都","city":"町田市","address":"町田市原町田6-8-1","lat":35.543011,"lon":139.447189},{"name":"大地沢青少年センター","province":"東京都","city":"町田市","address":"町田市相原町5307-2","lat":35.616135,"lon":139.28125},{"name":"町田市青少年施設｢ひなた村｣","province":"東京都","city":"町田市","address":"町田市本町田2863","lat":35.567707,"lon":139.444824},{"name":"忠生図書館","province":"東京都","city":"町田市","address":"町田市忠生3-14-2","lat":35.57766,"lon":139.415421},{"name":"町田市立さるびあ図書館","province":"東京都","city":"町田市","address":"町田市中町2-13-23","lat":35.551235,"lon":139.443695},{"name":"町田市立金森図書館","province":"東京都","city":"町田市","address":"町田市金森東3-5-1","lat":35.533234,"lon":139.465652},{"name":"町田市立堺図書館","province":"東京都","city":"町田市","address":"町田市相原町795-1","lat":35.604332,"lon":139.33403},{"name":"町田市立中央図書館","province":"東京都","city":"町田市","address":"町田市原町田3-2-9","lat":35.540539,"lon":139.450058},{"name":"町田市立鶴川駅前図書館","province":"東京都","city":"町田市","address":"町田市能ヶ谷1-2-1和光大学ポプリホール鶴川2階","lat":35.582855,"lon":139.478897},{"name":"町田市立鶴川図書館","province":"東京都","city":"町田市","address":"町田市鶴川6-7-2-1-101","lat":35.585083,"lon":139.477875},{"name":"町田市立木曽山崎図書館","province":"東京都","city":"町田市","address":"町田市山崎町2160","lat":35.569847,"lon":139.434814},{"name":"町田市立博物館","province":"東京都","city":"町田市","address":"町田市本町田3562","lat":35.567085,"lon":139.452347},{"name":"町田市立自由民権資料館","province":"東京都","city":"町田市","address":"町田市野津田町897","lat":35.589741,"lon":139.453278},{"name":"町田市立国際版画美術館","province":"東京都","city":"町田市","address":"町田市原町田4-28-1","lat":35.544495,"lon":139.454941},{"name":"町田市男女平等推進センター","province":"東京都","city":"町田市","address":"町田市原町田4-9-8","lat":35.541824,"lon":139.449905},{"name":"町田市生涯学習センター","province":"東京都","city":"町田市","address":"町田市原町田6-8-1","lat":35.543011,"lon":139.447189},{"name":"町田市考古資料室","province":"東京都","city":"町田市","address":"町田市下小山田町4016","lat":35.589195,"lon":139.410248},{"name":"町田市民文学館ことばらんど","province":"東京都","city":"町田市","address":"町田市原町田4-16-17","lat":35.54269,"lon":139.451721},{"name":"生涯学習センター陶芸スタジオ","province":"東京都","city":"町田市","address":"町田市下小山田町4016","lat":35.589195,"lon":139.410248},{"name":"(有)カネショウ","province":"東京都","city":"町田市","address":"町田市下小山田町594","lat":35.606651,"lon":139.417145},{"name":"(株)宮崎  横浜営業所","province":"東京都","city":"町田市","address":"町田市鶴間7-20-19","lat":35.504444,"lon":139.480057},{"name":"(株)グリーン山愛","province":"東京都","city":"町田市","address":"町田市森野6-1-1","lat":35.552418,"lon":139.429977},{"name":"町田市選挙管理委員会","province":"東京都","city":"町田市","address":"町田市森野2-2-22","lat":35.546643,"lon":139.438645},{"name":"まちだ中央公民館","province":"東京都","city":"町田市","address":"町田市原町田6-8-1","lat":35.543011,"lon":139.447189},{"name":"大地沢青少年センター","province":"東京都","city":"町田市","address":"町田市相原町5307-2","lat":35.616135,"lon":139.28125},{"name":"町田市青少年施設｢ひなた村｣","province":"東京都","city":"町田市","address":"町田市本町田2863","lat":35.567707,"lon":139.444824},{"name":"忠生図書館","province":"東京都","city":"町田市","address":"町田市忠生3-14-2","lat":35.57766,"lon":139.415421},{"name":"町田市立さるびあ図書館","province":"東京都","city":"町田市","address":"町田市中町2-13-23","lat":35.551235,"lon":139.443695},{"name":"町田市立金森図書館","province":"東京都","city":"町田市","address":"町田市金森東3-5-1","lat":35.533234,"lon":139.465652},{"name":"町田市立堺図書館","province":"東京都","city":"町田市","address":"町田市相原町795-1","lat":35.604332,"lon":139.33403},{"name":"町田市立中央図書館","province":"東京都","city":"町田市","address":"町田市原町田3-2-9","lat":35.540539,"lon":139.450058},{"name":"町田市立鶴川駅前図書館","province":"東京都","city":"町田市","address":"町田市能ヶ谷1-2-1和光大学ポプリホール鶴川2階","lat":35.582855,"lon":139.478897},{"name":"町田市立鶴川図書館","province":"東京都","city":"町田市","address":"町田市鶴川6-7-2-1-101","lat":35.585083,"lon":139.477875},{"name":"町田市立木曽山崎図書館","province":"東京都","city":"町田市","address":"町田市山崎町2160","lat":35.569847,"lon":139.434814},{"name":"町田市立博物館","province":"東京都","city":"町田市","address":"町田市本町田3562","lat":35.567085,"lon":139.452347},{"name":"町田市立自由民権資料館","province":"東京都","city":"町田市","address":"町田市野津田町897","lat":35.589741,"lon":139.453278},{"name":"町田市立国際版画美術館","province":"東京都","city":"町田市","address":"町田市原町田4-28-1","lat":35.544495,"lon":139.454941},{"name":"町田市男女平等推進センター","province":"東京都","city":"町田市","address":"町田市原町田4-9-8","lat":35.541824,"lon":139.449905},{"name":"町田市生涯学習センター","province":"東京都","city":"町田市","address":"町田市原町田6-8-1","lat":35.543011,"lon":139.447189},{"name":"町田市考古資料室","province":"東京都","city":"町田市","address":"町田市下小山田町4016","lat":35.589195,"lon":139.410248},{"name":"町田市民文学館ことばらんど","province":"東京都","city":"町田市","address":"町田市原町田4-16-17","lat":35.54269,"lon":139.451721},{"name":"生涯学習センター陶芸スタジオ","province":"東京都","city":"町田市","address":"町田市下小山田町4016","lat":35.589195,"lon":139.410248},{"name":"町田市選挙管理委員会","province":"東京都","city":"町田市","address":"町田市森野2-2-22","lat":35.546643,"lon":139.438645},{"name":"まちだ中央公民館","province":"東京都","city":"町田市","address":"町田市原町田6-8-1","lat":35.543011,"lon":139.447189},{"name":"大地沢青少年センター","province":"東京都","city":"町田市","address":"町田市相原町5307-2","lat":35.616135,"lon":139.28125},{"name":"町田市青少年施設｢ひなた村｣","province":"東京都","city":"町田市","address":"町田市本町田2863","lat":35.567707,"lon":139.444824},{"name":"忠生図書館","province":"東京都","city":"町田市","address":"町田市忠生3-14-2","lat":35.57766,"lon":139.415421},{"name":"町田市立さるびあ図書館","province":"東京都","city":"町田市","address":"町田市中町2-13-23","lat":35.551235,"lon":139.443695},{"name":"町田市立金森図書館","province":"東京都","city":"町田市","address":"町田市金森東3-5-1","lat":35.533234,"lon":139.465652},{"name":"町田市立堺図書館","province":"東京都","city":"町田市","address":"町田市相原町795-1","lat":35.604332,"lon":139.33403},{"name":"町田市立中央図書館","province":"東京都","city":"町田市","address":"町田市原町田3-2-9","lat":35.540539,"lon":139.450058},{"name":"町田市立鶴川駅前図書館","province":"東京都","city":"町田市","address":"町田市能ヶ谷1-2-1和光大学ポプリホール鶴川2階","lat":35.582855,"lon":139.478897},{"name":"町田市立鶴川図書館","province":"東京都","city":"町田市","address":"町田市鶴川6-7-2-1-101","lat":35.585083,"lon":139.477875},{"name":"町田市立木曽山崎図書館","province":"東京都","city":"町田市","address":"町田市山崎町2160","lat":35.569847,"lon":139.434814},{"name":"町田市立博物館","province":"東京都","city":"町田市","address":"町田市本町田3562","lat":35.567085,"lon":139.452347},{"name":"町田市立自由民権資料館","province":"東京都","city":"町田市","address":"町田市野津田町897","lat":35.589741,"lon":139.453278},{"name":"町田市立国際版画美術館","province":"東京都","city":"町田市","address":"町田市原町田4-28-1","lat":35.544495,"lon":139.454941},{"name":"町田市男女平等推進センター","province":"東京都","city":"町田市","address":"町田市原町田4-9-8","lat":35.541824,"lon":139.449905},{"name":"町田市生涯学習センター","province":"東京都","city":"町田市","address":"町田市原町田6-8-1","lat":35.543011,"lon":139.447189},{"name":"町田市考古資料室","province":"東京都","city":"町田市","address":"町田市下小山田町4016","lat":35.589195,"lon":139.410248},{"name":"町田市民文学館ことばらんど","province":"東京都","city":"町田市","address":"町田市原町田4-16-17","lat":35.54269,"lon":139.451721},{"name":"生涯学習センター陶芸スタジオ","province":"東京都","city":"町田市","address":"町田市下小山田町4016","lat":35.589195,"lon":139.410248},{"name":"町田市選挙管理委員会","province":"東京都","city":"町田市","address":"町田市森野2-2-22","lat":35.546643,"lon":139.438645},{"name":"まちだ中央公民館","province":"東京都","city":"町田市","address":"町田市原町田6-8-1","lat":35.543011,"lon":139.447189},{"name":"大地沢青少年センター","province":"東京都","city":"町田市","address":"町田市相原町5307-2","lat":35.616135,"lon":139.28125},{"name":"町田市青少年施設｢ひなた村｣","province":"東京都","city":"町田市","address":"町田市本町田2863","lat":35.567707,"lon":139.444824},{"name":"忠生図書館","province":"東京都","city":"町田市","address":"町田市忠生3-14-2","lat":35.57766,"lon":139.415421},{"name":"町田市立さるびあ図書館","province":"東京都","city":"町田市","address":"町田市中町2-13-23","lat":35.551235,"lon":139.443695},{"name":"町田市立金森図書館","province":"東京都","city":"町田市","address":"町田市金森東3-5-1","lat":35.533234,"lon":139.465652},{"name":"町田市立堺図書館","province":"東京都","city":"町田市","address":"町田市相原町795-1","lat":35.604332,"lon":139.33403},{"name":"町田市立中央図書館","province":"東京都","city":"町田市","address":"町田市原町田3-2-9","lat":35.540539,"lon":139.450058},{"name":"町田市立鶴川駅前図書館","province":"東京都","city":"町田市","address":"町田市能ヶ谷1-2-1和光大学ポプリホール鶴川2階","lat":35.582855,"lon":139.478897},{"name":"町田市立鶴川図書館","province":"東京都","city":"町田市","address":"町田市鶴川6-7-2-1-101","lat":35.585083,"lon":139.477875},{"name":"町田市立木曽山崎図書館","province":"東京都","city":"町田市","address":"町田市山崎町2160","lat":35.569847,"lon":139.434814},{"name":"町田市立博物館","province":"東京都","city":"町田市","address":"町田市本町田3562","lat":35.567085,"lon":139.452347},{"name":"町田市立自由民権資料館","province":"東京都","city":"町田市","address":"町田市野津田町897","lat":35.589741,"lon":139.453278},{"name":"町田市立国際版画美術館","province":"東京都","city":"町田市","address":"町田市原町田4-28-1","lat":35.544495,"lon":139.454941},{"name":"町田市男女平等推進センター","province":"東京都","city":"町田市","address":"町田市原町田4-9-8","lat":35.541824,"lon":139.449905},{"name":"町田市生涯学習センター","province":"東京都","city":"町田市","address":"町田市原町田6-8-1","lat":35.543011,"lon":139.447189},{"name":"町田市考古資料室","province":"東京都","city":"町田市","address":"町田市下小山田町4016","lat":35.589195,"lon":139.410248},{"name":"町田市民文学館ことばらんど","province":"東京都","city":"町田市","address":"町田市原町田4-16-17","lat":35.54269,"lon":139.451721},{"name":"生涯学習センター陶芸スタジオ","province":"東京都","city":"町田市","address":"町田市下小山田町4016","lat":35.589195,"lon":139.410248},{"name":"町田市選挙管理委員会","province":"東京都","city":"町田市","address":"町田市森野2-2-22","lat":35.546643,"lon":139.438645},{"name":"まちだ中央公民館","province":"東京都","city":"町田市","address":"町田市原町田6-8-1","lat":35.543011,"lon":139.447189},{"name":"大地沢青少年センター","province":"東京都","city":"町田市","address":"町田市相原町5307-2","lat":35.616135,"lon":139.28125},{"name":"町田市青少年施設｢ひなた村｣","province":"東京都","city":"町田市","address":"町田市本町田2863","lat":35.567707,"lon":139.444824},{"name":"忠生図書館","province":"東京都","city":"町田市","address":"町田市忠生3-14-2","lat":35.57766,"lon":139.415421},{"name":"町田市立さるびあ図書館","province":"東京都","city":"町田市","address":"町田市中町2-13-23","lat":35.551235,"lon":139.443695},{"name":"町田市立金森図書館","province":"東京都","city":"町田市","address":"町田市金森東3-5-1","lat":35.533234,"lon":139.465652},{"name":"町田市立堺図書館","province":"東京都","city":"町田市","address":"町田市相原町795-1","lat":35.604332,"lon":139.33403},{"name":"町田市立中央図書館","province":"東京都","city":"町田市","address":"町田市原町田3-2-9","lat":35.540539,"lon":139.450058},{"name":"町田市立鶴川駅前図書館","province":"東京都","city":"町田市","address":"町田市能ヶ谷1-2-1和光大学ポプリホール鶴川2階","lat":35.582855,"lon":139.478897},{"name":"町田市立鶴川図書館","province":"東京都","city":"町田市","address":"町田市鶴川6-7-2-1-101","lat":35.585083,"lon":139.477875},{"name":"町田市立木曽山崎図書館","province":"東京都","city":"町田市","address":"町田市山崎町2160","lat":35.569847,"lon":139.434814},{"name":"町田市立博物館","province":"東京都","city":"町田市","address":"町田市本町田3562","lat":35.567085,"lon":139.452347},{"name":"町田市立自由民権資料館","province":"東京都","city":"町田市","address":"町田市野津田町897","lat":35.589741,"lon":139.453278},{"name":"町田市立国際版画美術館","province":"東京都","city":"町田市","address":"町田市原町田4-28-1","lat":35.544495,"lon":139.454941},{"name":"町田市男女平等推進センター","province":"東京都","city":"町田市","address":"町田市原町田4-9-8","lat":35.541824,"lon":139.449905},{"name":"町田市生涯学習センター","province":"東京都","city":"町田市","address":"町田市原町田6-8-1","lat":35.543011,"lon":139.447189},{"name":"町田市考古資料室","province":"東京都","city":"町田市","address":"町田市下小山田町4016","lat":35.589195,"lon":139.410248},{"name":"町田市民文学館ことばらんど","province":"東京都","city":"町田市","address":"町田市原町田4-16-17","lat":35.54269,"lon":139.451721},{"name":"生涯学習センター陶芸スタジオ","province":"東京都","city":"町田市","address":"町田市下小山田町4016","lat":35.589195,"lon":139.410248},{"name":"町田市選挙管理委員会","province":"東京都","city":"町田市","address":"町田市森野2-2-22","lat":35.546643,"lon":139.438645},{"name":"町田市選挙管理委員会","province":"東京都","city":"町田市","address":"町田市森野2-2-22","lat":35.546643,"lon":139.438645},{"name":"町田市選挙管理委員会","province":"東京都","city":"町田市","address":"町田市森野2-2-22","lat":35.546643,"lon":139.438645},{"name":"町田市選挙管理委員会","province":"東京都","city":"町田市","address":"町田市森野2-2-22","lat":35.546643,"lon":139.438645},{"name":"町田市選挙管理委員会","province":"東京都","city":"町田市","address":"町田市森野2-2-22","lat":35.546643,"lon":139.438645},{"name":"町田市選挙管理委員会","province":"東京都","city":"町田市","address":"町田市森野2-2-22","lat":35.546643,"lon":139.438645},{"name":"町田市選挙管理委員会","province":"東京都","city":"町田市","address":"町田市森野2-2-22","lat":35.546643,"lon":139.438645},{"name":"町田市選挙管理委員会","province":"東京都","city":"町田市","address":"町田市森野2-2-22","lat":35.546643,"lon":139.438645},{"name":"町田市選挙管理委員会","province":"東京都","city":"町田市","address":"町田市森野2-2-22","lat":35.546643,"lon":139.438645},{"name":"町田市選挙管理委員会","province":"東京都","city":"町田市","address":"町田市森野2-2-22","lat":35.546643,"lon":139.438645},{"name":"町田市選挙管理委員会","province":"東京都","city":"町田市","address":"町田市森野2-2-22","lat":35.546643,"lon":139.438645},{"name":"町田市選挙管理委員会","province":"東京都","city":"町田市","address":"町田市森野2-2-22","lat":35.546643,"lon":139.438645},{"name":"町田市選挙管理委員会","province":"東京都","city":"町田市","address":"町田市森野2-2-22","lat":35.546643,"lon":139.438645},{"name":"町田市選挙管理委員会","province":"東京都","city":"町田市","address":"町田市森野2-2-22","lat":35.546643,"lon":139.438645},{"name":"町田市選挙管理委員会","province":"東京都","city":"町田市","address":"町田市森野2-2-22","lat":35.546643,"lon":139.438645},{"name":"町田市選挙管理委員会","province":"東京都","city":"町田市","address":"町田市森野2-2-22","lat":35.546643,"lon":139.438645},{"name":"町田市選挙管理委員会","province":"東京都","city":"町田市","address":"町田市森野2-2-22","lat":35.546643,"lon":139.438645},{"name":"町田市選挙管理委員会","province":"東京都","city":"町田市","address":"町田市森野2-2-22","lat":35.546643,"lon":139.438645},{"name":"町田市選挙管理委員会","province":"東京都","city":"町田市","address":"町田市森野2-2-22","lat":35.546643,"lon":139.438645},{"name":"町田市選挙管理委員会","province":"東京都","city":"町田市","address":"町田市森野2-2-22","lat":35.546643,"lon":139.438645},{"name":"町田市選挙管理委員会","province":"東京都","city":"町田市","address":"町田市森野2-2-22","lat":35.546643,"lon":139.438645},{"name":"町田市選挙管理委員会","province":"東京都","city":"町田市","address":"町田市森野2-2-22","lat":35.546643,"lon":139.438645},{"name":"町田市選挙管理委員会","province":"東京都","city":"町田市","address":"町田市森野2-2-22","lat":35.546643,"lon":139.438645},{"name":"町田市選挙管理委員会","province":"東京都","city":"町田市","address":"町田市森野2-2-22","lat":35.546643,"lon":139.438645},{"name":"町田市選挙管理委員会","province":"東京都","city":"町田市","address":"町田市森野2-2-22","lat":35.546643,"lon":139.438645},{"name":"町田市選挙管理委員会","province":"東京都","city":"町田市","address":"町田市森野2-2-22","lat":35.546643,"lon":139.438645},{"name":"町田市選挙管理委員会","province":"東京都","city":"町田市","address":"町田市森野2-2-22","lat":35.546643,"lon":139.438645},{"name":"町田市選挙管理委員会","province":"東京都","city":"町田市","address":"町田市森野2-2-22","lat":35.546643,"lon":139.438645},{"name":"町田市選挙管理委員会","province":"東京都","city":"町田市","address":"町田市森野2-2-22","lat":35.546643,"lon":139.438645},{"name":"町田市選挙管理委員会","province":"東京都","city":"町田市","address":"町田市森野2-2-22","lat":35.546643,"lon":139.438645},{"name":"町田市選挙管理委員会","province":"東京都","city":"町田市","address":"町田市森野2-2-22","lat":35.546643,"lon":139.438645},{"name":"町田市選挙管理委員会","province":"東京都","city":"町田市","address":"町田市森野2-2-22","lat":35.546643,"lon":139.438645},{"name":"町田市選挙管理委員会","province":"東京都","city":"町田市","address":"町田市森野2-2-22","lat":35.546643,"lon":139.438645},{"name":"町田市選挙管理委員会","province":"東京都","city":"町田市","address":"町田市森野2-2-22","lat":35.546643,"lon":139.438645},{"name":"町田市選挙管理委員会","province":"東京都","city":"町田市","address":"町田市森野2-2-22","lat":35.546643,"lon":139.438645},{"name":"町田市選挙管理委員会","province":"東京都","city":"町田市","address":"町田市森野2-2-22","lat":35.546643,"lon":139.438645},{"name":"町田市選挙管理委員会","province":"東京都","city":"町田市","address":"町田市森野2-2-22","lat":35.546643,"lon":139.438645},{"name":"町田市選挙管理委員会","province":"東京都","city":"町田市","address":"町田市森野2-2-22","lat":35.546643,"lon":139.438645},{"name":"町田市選挙管理委員会","province":"東京都","city":"町田市","address":"町田市森野2-2-22","lat":35.546643,"lon":139.438645}]}