{"keyword":"クラブ","data":[{"name":"中央学童保育クラブ","province":"東京都","city":"町田市","address":"東京都町田市中町1丁目20-30","lat":35.5483303,"lon":139.44582031},{"name":"つるっこ学童保育クラブ","province":"東京都","city":"町田市","address":"東京都町田市大蔵町1913","lat":35.58985811,"lon":139.46581521},{"name":"相原たけの子学童保育クラブ","province":"東京都","city":"町田市","address":"東京都町田市相原町1673","lat":35.60650795,"lon":139.32341804},{"name":"藤の台学童保育クラブ","province":"東京都","city":"町田市","address":"東京都町田市本町田3350","lat":35.56977814,"lon":139.44405873},{"name":"木曽学童保育クラブ","province":"東京都","city":"町田市","address":"東京都町田市木曽東3丁目11-3","lat":35.56335634,"lon":139.42533839},{"name":"木曽境川学童保育クラブ","province":"東京都","city":"町田市","address":"東京都町田市木曽西1丁目9-1","lat":35.56531984,"lon":139.41511154},{"name":"七国山学童保育クラブ","province":"東京都","city":"町田市","address":"東京都町田市山崎町1314-2","lat":35.57645513,"lon":139.43528713},{"name":"竹ん子学童保育クラブ","province":"東京都","city":"町田市","address":"東京都町田市本町田1212","lat":35.56417318,"lon":139.44604758},{"name":"学童21保育クラブ","province":"東京都","city":"町田市","address":"東京都町田市原町田4丁目26-40","lat":35.54567525,"lon":139.45355312},{"name":"学童21保育クラブ（分室）","province":"東京都","city":"町田市","address":"東京都町田市原町田4丁目24-6","lat":35.54444758,"lon":139.45308375},{"name":"高ケ坂学童保育クラブ","province":"東京都","city":"町田市","address":"東京都町田市南大谷1260","lat":35.54935846,"lon":139.46030803},{"name":"すまいる学童保育クラブ","province":"東京都","city":"町田市","address":"東京都町田市成瀬台2丁目5-2","lat":35.55048491,"lon":139.47770442},{"name":"野津田学童保育クラブ","province":"東京都","city":"町田市","address":"東京都町田市野津田町1290","lat":35.5905323,"lon":139.45691843},{"name":"なんなる学童保育クラブ","province":"東京都","city":"町田市","address":"東京都町田市南成瀬3丁目6","lat":35.53996581,"lon":139.47043},{"name":"鶴間ひまわり学童保育クラブ","province":"東京都","city":"町田市","address":"東京都町田市鶴間4丁目17-1","lat":35.50529936,"lon":139.46952593},{"name":"金森学童保育クラブ","province":"東京都","city":"町田市","address":"東京都町田市金森東1丁目2-1","lat":35.53680688,"lon":139.45805583},{"name":"鶴川第四学童保育クラブ","province":"東京都","city":"町田市","address":"東京都町田市鶴川3丁目22","lat":35.59324364,"lon":139.4629264},{"name":"森野学童保育クラブ","province":"東京都","city":"町田市","address":"東京都町田市森野2丁目21-28","lat":35.54990233,"lon":139.43824871},{"name":"成瀬中央あおぞら学童保育クラブ","province":"東京都","city":"町田市","address":"東京都町田市成瀬2丁目8","lat":35.54700182,"lon":139.47627404},{"name":"なかよし学童保育クラブ","province":"東京都","city":"町田市","address":"東京都町田市忠生3丁目10-2","lat":35.57919057,"lon":139.41731927},{"name":"わんぱく学童保育クラブ","province":"東京都","city":"町田市","address":"東京都町田市小川3丁目10-1","lat":35.52704234,"lon":139.4708081},{"name":"そよかぜ学童保育クラブ","province":"東京都","city":"町田市","address":"東京都町田市成瀬7丁目11-1","lat":35.53926682,"lon":139.47797424},{"name":"大蔵学童保育クラブ","province":"東京都","city":"町田市","address":"東京都町田市大蔵町286","lat":35.58672524,"lon":139.46810681},{"name":"図師学童保育クラブ","province":"東京都","city":"町田市","address":"東京都町田市図師町239-19","lat":35.58439555,"lon":139.41675806},{"name":"高ヶ坂けやき学童保育クラブ","province":"東京都","city":"町田市","address":"東京都町田市高ヶ坂6丁目7-1","lat":35.54101506,"lon":139.46231931},{"name":"つくし野学童保育クラブ","province":"東京都","city":"町田市","address":"東京都町田市つくし野2丁目21-11","lat":35.52573031,"lon":139.48194403},{"name":"どろん子学童保育クラブ","province":"東京都","city":"町田市","address":"東京都町田市金森東3丁目22-24","lat":35.53303299,"lon":139.46720537},{"name":"鶴川学童保育クラブ","province":"東京都","city":"町田市","address":"東京都町田市鶴川6丁目5","lat":35.59047275,"lon":139.47338157},{"name":"大戸のびっ子学童保育クラブ","province":"東京都","city":"町田市","address":"東京都町田市相原町3865","lat":35.60927454,"lon":139.30496144},{"name":"南大谷学童保育クラブ","province":"東京都","city":"町田市","address":"東京都町田市南大谷811-1","lat":35.55179454,"lon":139.46352722},{"name":"ころころ学童保育クラブ","province":"東京都","city":"町田市","address":"東京都町田市玉川学園3丁目35-45","lat":35.56302635,"lon":139.4590521},{"name":"ころころ学童保育クラブ（分室）","province":"東京都","city":"町田市","address":"東京都町田市玉川学園4丁目14-7","lat":35.56464281,"lon":139.45687445},{"name":"小山ヶ丘学童保育クラブ","province":"東京都","city":"町田市","address":"東京都町田市小山ヶ丘5丁目37","lat":35.60515838,"lon":139.35477364},{"name":"小山中央学童保育クラブ","province":"東京都","city":"町田市","address":"東京都町田市小山ヶ丘3丁目7-1","lat":35.6020921,"lon":139.37327214},{"name":"小山学童保育クラブ","province":"東京都","city":"町田市","address":"東京都町田市小山町944","lat":35.59226283,"lon":139.37764714},{"name":"小山田学童保育クラブ","province":"東京都","city":"町田市","address":"東京都町田市上小山田町610","lat":35.59659656,"lon":139.40603081},{"name":"本町田学童保育クラブ","province":"東京都","city":"町田市","address":"東京都町田市本町田2032","lat":35.56336483,"lon":139.43682343},{"name":"鶴川第二学童保育クラブ","province":"東京都","city":"町田市","address":"東京都町田市能ヶ谷7丁目24-2","lat":35.59223497,"lon":139.48192588},{"name":"南つくし野学童保育クラブ","province":"東京都","city":"町田市","address":"東京都町田市南つくし野2丁目17-2","lat":35.5172141,"lon":139.47494734},{"name":"山崎学童保育クラブ","province":"東京都","city":"町田市","address":"東京都町田市忠生2丁目15-26","lat":35.57595775,"lon":139.42524918},{"name":"南第一さくら学童保育クラブ","province":"東京都","city":"町田市","address":"東京都町田市南町田1丁目10-1","lat":35.52179017,"lon":139.46777519},{"name":"みわっこ学童保育クラブ","province":"東京都","city":"町田市","address":"東京都町田市三輪町330-1","lat":35.57797107,"lon":139.49638675},{"name":"桜の森学童保育クラブ","province":"東京都","city":"町田市","address":"東京都町田市小山田桜台2丁目7","lat":35.58909451,"lon":139.40062596}]}