{"keyword":"ポイント","data":[{"name":"JR町田駅北口","province":"東京都","city":"町田市","address":"東京都町田市原町田6-1","lat":35.542,"lon":139.445},{"name":"町田バスセンター（小田急線町田駅西口）","province":"東京都","city":"町田市","address":"東京都町田市森野1-15","lat":35.543,"lon":139.444},{"name":"町田市庁舎前","province":"東京都","city":"町田市","address":"東京都町田市森野2-2-22","lat":35.546,"lon":139.438},{"name":"町田ターミナルプラザ","province":"東京都","city":"町田市","address":"東京都町田市原町田3-1-4","lat":35.54,"lon":139.449},{"name":"まちの案内所町田ツーリストギャラリー","province":"東京都","city":"町田市","address":"東京都町田市原町田4-10-20ぽっぽ町田","lat":35.542,"lon":139.448},{"name":"町田市立国際版画美術館","province":"東京都","city":"町田市","address":"東京都町田市原町田4-28-1","lat":35.544,"lon":139.455},{"name":"町田リス園","province":"東京都","city":"町田市","address":"東京都町田市薬師台1-733-1","lat":35.578,"lon":139.449},{"name":"サウスフロントタワーCielo","province":"東京都","city":"町田市","address":"東京都町田市原町田4-9-8","lat":35.541,"lon":139.449},{"name":"まちだ名産品の店心和（ここわ）","province":"東京都","city":"町田市","address":"東京都町田市原町田6-12-20小田急ビル1階","lat":35.543,"lon":139.445},{"name":"忠生市民センター","province":"東京都","city":"町田市","address":"東京都町田市忠生3-14-2","lat":35.578,"lon":139.416},{"name":"鶴川市民センター","province":"東京都","city":"町田市","address":"東京都町田市大蔵町1981-4","lat":35.588,"lon":139.467},{"name":"南市民センター","province":"東京都","city":"町田市","address":"東京都町田市金森4-5-6","lat":35.523,"lon":139.466},{"name":"なるせ駅前市民センター","province":"東京都","city":"町田市","address":"東京都町田市南成瀬1-2-5","lat":35.536,"lon":139.472},{"name":"堺市民センター","province":"東京都","city":"町田市","address":"東京都町田市相原町795-1","lat":35.604,"lon":139.333},{"name":"小山市民センター","province":"東京都","city":"町田市","address":"東京都町田市小山町2507-1","lat":35.597,"lon":139.369},{"name":"町田市立自由民権資料館","province":"東京都","city":"町田市","address":"東京都町田市野津田町897","lat":35.588,"lon":139.453}]}