{"keyword":"マップ","data":[{"name":"そうてつローゼン薬師台店","province":"東京都","city":"町田市","address":"東京都町田市薬師台2-13-1","lat":35.58055144,"lon":139.4520841},{"name":"JR相原駅","province":"東京都","city":"町田市","address":"東京都町田市相原町1218","lat":35.60543986,"lon":139.3313969},{"name":"堺第1高齢者支援センター（サンシルバー町田）","province":"東京都","city":"町田市","address":"東京都町田市相原町2373-1","lat":35.61325975,"lon":139.3143366},{"name":"法政大学　多摩キャンパス","province":"東京都","city":"町田市","address":"東京都町田市相原町4342","lat":35.61764792,"lon":139.2926013},{"name":"東京家政学院大学、東京家政学院大学大学院","province":"東京都","city":"町田市","address":"東京都町田市相原町2600","lat":35.60902739,"lon":139.3117854},{"name":"トヨタ西東京カローラ町田小山店","province":"東京都","city":"町田市","address":"東京都町田市小山町776-4","lat":35.59159086,"lon":139.3808312},{"name":"葬祭総合センター東典禮（本社・斎場）","province":"東京都","city":"町田市","address":"東京都町田市小山ヶ丘1-11-14","lat":35.59745708,"lon":139.386254},{"name":"カインズ町田多摩境店","province":"東京都","city":"町田市","address":"東京都町田市小山ヶ丘3-6-6","lat":35.6014695,"lon":139.3749203},{"name":"忠生公園","province":"東京都","city":"町田市","address":"東京都町田市忠生1-3-1","lat":35.57281731,"lon":139.4224202},{"name":"京王多摩境駅","province":"東京都","city":"町田市","address":"東京都町田市小山ヶ丘3-23","lat":35.60251689,"lon":139.3673111},{"name":"小山白山公園","province":"東京都","city":"町田市","address":"東京都町田市小山ヶ丘5-4","lat":35.60241467,"lon":139.3639433},{"name":"洋服の青山","province":"東京都","city":"町田市","address":"東京都町田市小山ヶ丘3-10-7","lat":35.60234269,"lon":139.3704242},{"name":"南多摩斎場","province":"東京都","city":"町田市","address":"東京都町田市上小山田町2147","lat":35.59886653,"lon":139.3864283},{"name":"谷戸池公園","province":"東京都","city":"町田市","address":"東京都町田市小山田桜台1-19-1","lat":35.58918847,"lon":139.4021616},{"name":"尾根緑道〔1〕公衆トイレ","province":"東京都","city":"町田市","address":"東京都町田市常盤町3434-2","lat":35.9999995,"lon":139.8333393},{"name":"コープみらい コープときわ店","province":"東京都","city":"町田市","address":"東京都町田市常盤町3170-1","lat":35.58608975,"lon":139.3929003},{"name":"桜美林大学","province":"東京都","city":"町田市","address":"東京都町田市常盤町3758","lat":35.58232856,"lon":139.4054519},{"name":"ヨドバシカメラマルチメデイア町田","province":"東京都","city":"町田市","address":"東京都町田市原町田1-1-11","lat":35.54211189,"lon":139.4448974},{"name":"JR町田駅","province":"東京都","city":"町田市","address":"東京都町田市原町田1-1-36","lat":35.54197364,"lon":139.4454503},{"name":"原町田青空ひろば","province":"東京都","city":"町田市","address":"東京都町田市原町田1-27","lat":35.53712869,"lon":139.4493},{"name":"市営原町田1丁目駐車場","province":"東京都","city":"町田市","address":"東京都町田市原町田1-6-21","lat":35.54036864,"lon":139.4476419},{"name":"コムウェルホール町田駅前会堂けやき","province":"東京都","city":"町田市","address":"東京都町田市原町田1-6-28","lat":35.54025447,"lon":139.4469764},{"name":"ノジマNEW鶴川店","province":"東京都","city":"町田市","address":"東京都町田市能ヶ谷1-7-5神栄ビル2F","lat":35.58420861,"lon":139.4825994},{"name":"オートバックス多摩境店","province":"東京都","city":"町田市","address":"東京都町田市小山ヶ丘2-3-4","lat":35.60312292,"lon":139.3724326},{"name":"町田ターミナルプラザ2F（ターミナル棟）","province":"東京都","city":"町田市","address":"東京都町田市原町田3-1-4(管理事務所)","lat":35.54014692,"lon":139.4495845},{"name":"まちだターミナルパーキング（3F～6F）","province":"東京都","city":"町田市","address":"東京都町田市原町田3-1-4(管理事務所)","lat":35.54014692,"lon":139.4495845},{"name":"町田ターミナル1F","province":"東京都","city":"町田市","address":"東京都町田市原町田3-1-4(管理事務所)","lat":35.54014692,"lon":139.4495845},{"name":"レンブラントホテル東京町田","province":"東京都","city":"町田市","address":"東京都町田市原町田3-2-9","lat":35.54032636,"lon":139.4503274},{"name":"特定非営利活動法人　町田ヒューマンネットワーク","province":"東京都","city":"町田市","address":"東京都町田市原町田2-22-261F","lat":35.53871475,"lon":139.4538621},{"name":"町田まちづくり公社「ぽっぽ町田」","province":"東京都","city":"町田市","address":"東京都町田市原町田4-10-20","lat":35.54214031,"lon":139.4489131},{"name":"東急ハンズ町田店","province":"東京都","city":"町田市","address":"東京都町田市原町田6-4-1町田東急ツインズ6F、7F","lat":35.54295294,"lon":139.4460716},{"name":"原町田診療所","province":"東京都","city":"町田市","address":"東京都町田市原町田4-17-11","lat":35.54315525,"lon":139.4519502},{"name":"浄運寺会館","province":"東京都","city":"町田市","address":"東京都町田市原町田6-21-28","lat":35.54309339,"lon":139.4478158},{"name":"Cielo","province":"東京都","city":"町田市","address":"東京都町田市原町田4-9-8(c/o防災センター)","lat":35.54174803,"lon":139.4499074},{"name":"社会福祉法人 七五三会 いづみの里","province":"東京都","city":"町田市","address":"東京都町田市原町田5-1-12","lat":35.54680375,"lon":139.4485534},{"name":"芹ヶ谷公園(虹と水の広場）","province":"東京都","city":"町田市","address":"東京都町田市原町田5-16","lat":35.54641075,"lon":139.4528448},{"name":"原町田スクエア","province":"東京都","city":"町田市","address":"東京都町田市原町田5-4-19コメット会館","lat":35.54478564,"lon":139.4494726},{"name":"町田駅前公共トイレ","province":"東京都","city":"町田市","address":"東京都町田市原町田6-1","lat":35.54220358,"lon":139.4456662},{"name":"ルミネ町田店","province":"東京都","city":"町田市","address":"東京都町田市原町田6-1-11","lat":35.54196325,"lon":139.4462301},{"name":"久美堂本店","province":"東京都","city":"町田市","address":"東京都町田市原町田6-11-10","lat":35.54441419,"lon":139.4461303},{"name":"小田急百貨店町田店","province":"東京都","city":"町田市","address":"東京都町田市原町田6-12-20","lat":35.54422925,"lon":139.4453075},{"name":"小田急町田駅","province":"東京都","city":"町田市","address":"東京都町田市原町田6-12-20","lat":35.54422925,"lon":139.4453075},{"name":"原町田わかば公園","province":"東京都","city":"町田市","address":"東京都町田市原町田6-27","lat":35.54508558,"lon":139.4482817},{"name":"北村眼科クリニック","province":"東京都","city":"町田市","address":"東京都町田市原町田6-29-3フェリーチェビル","lat":35.54620942,"lon":139.4472286},{"name":"レミィ町田","province":"東京都","city":"町田市","address":"東京都町田市原町田6-8-1町田センタービル地下1階~5階","lat":35.54297064,"lon":139.4472272},{"name":"町田東急ツインズ","province":"東京都","city":"町田市","address":"東京都町田市原町田6-4-1","lat":35.54295294,"lon":139.4460716},{"name":"町田バスセンター","province":"東京都","city":"町田市","address":"東京都町田市森野1-15","lat":35.54325311,"lon":139.4440786},{"name":"東京都町田合同庁舎","province":"東京都","city":"町田市","address":"東京都町田市中町1-31-12","lat":35.54839664,"lon":139.4485001},{"name":"子ども発達センター（旧　すみれ会館）","province":"東京都","city":"町田市","address":"東京都町田市中町2-13-14","lat":35.55166697,"lon":139.4443296},{"name":"町田市保健所中町庁舎","province":"東京都","city":"町田市","address":"東京都町田市中町2-13-3","lat":35.55117825,"lon":139.4437599},{"name":"永田整形外科","province":"東京都","city":"町田市","address":"東京都町田市中町2-2-5","lat":35.55037058,"lon":139.4416683},{"name":"カトリック町田教会","province":"東京都","city":"町田市","address":"東京都町田市中町3-2-1","lat":35.54915506,"lon":139.4488843},{"name":"町田税務署","province":"東京都","city":"町田市","address":"東京都町田市中町3-3-6","lat":35.54976072,"lon":139.4482299},{"name":"創価学会町田文化会館","province":"東京都","city":"町田市","address":"東京都町田市中町4-18-5","lat":35.55553189,"lon":139.4462619},{"name":"わくわくプラザ町田","province":"東京都","city":"町田市","address":"東京都町田市森野1-1-15","lat":35.54278369,"lon":139.4426014},{"name":"ホテルリソル町田","province":"東京都","city":"町田市","address":"東京都町田市森野1-12-15","lat":35.54441739,"lon":139.4425808},{"name":"ホテル町田ヴィラ","province":"東京都","city":"町田市","address":"東京都町田市森野1-20-10","lat":35.54538028,"lon":139.4440396},{"name":"いちのや駐車場","province":"東京都","city":"町田市","address":"東京都町田市森野1-21-14","lat":35.54503833,"lon":139.4433807},{"name":"町田木曽森野防災市民いこいの広場","province":"東京都","city":"町田市","address":"東京都町田市森野4-8","lat":35.55467022,"lon":139.432465},{"name":"夢庵　本町田店","province":"東京都","city":"町田市","address":"東京都町田市木曽東4-8-10","lat":35.56310994,"lon":139.4308728},{"name":"町田第2高齢者支援センター（湧和）","province":"東京都","city":"町田市","address":"東京都町田市本町田2102-1","lat":35.56015069,"lon":139.4385948},{"name":"木曽山崎公園","province":"東京都","city":"町田市","address":"東京都町田市本町田1966-1","lat":35.56556106,"lon":139.4425696},{"name":"ウエルシア町田本町田店","province":"東京都","city":"町田市","address":"東京都町田市本町田3173-1","lat":35.57214494,"lon":139.446329},{"name":"町田市子ども創造キャンパスひなた村","province":"東京都","city":"町田市","address":"東京都町田市本町田2863","lat":35.56770522,"lon":139.4453662},{"name":"市立博物館","province":"東京都","city":"町田市","address":"東京都町田市本町田3562","lat":35.56729189,"lon":139.4512854},{"name":"山口整形外科","province":"東京都","city":"町田市","address":"東京都町田市本町田4394-9サンニューヴィラ町田","lat":35.55740414,"lon":139.4545457},{"name":"ホンダカーズ　東京中央　町田中央店","province":"東京都","city":"町田市","address":"東京都町田市旭町1-1-19","lat":35.55236633,"lon":139.4400868},{"name":"サン町田旭体育館","province":"東京都","city":"町田市","address":"東京都町田市旭町3-20-60","lat":35.55636339,"lon":139.4466376},{"name":"町田警察署","province":"東京都","city":"町田市","address":"東京都町田市旭町3-1-3","lat":35.55492392,"lon":139.4435171},{"name":"町田中央公園","province":"東京都","city":"町田市","address":"東京都町田市旭町3-20-60","lat":35.55636339,"lon":139.4466376},{"name":"町田郵便局","province":"東京都","city":"町田市","address":"東京都町田市旭町3-2-22","lat":35.55537222,"lon":139.4449264},{"name":"木曽森野コミュニティセンター","province":"東京都","city":"町田市","address":"東京都町田市木曽東1-2","lat":35.5553995,"lon":139.4289581},{"name":"山森眼科","province":"東京都","city":"町田市","address":"東京都町田市木曽西3-20-6","lat":35.57271775,"lon":139.419616},{"name":"医療法人社団真清の会南多摩クリニック整形外科・内科・リハビリテーション科","province":"東京都","city":"町田市","address":"東京都町田市木曽西3-20-6","lat":35.57271775,"lon":139.419616},{"name":"忠生ショッピングセンター305","province":"東京都","city":"町田市","address":"東京都町田市木曽西2-17-21","lat":35.56939189,"lon":139.4154},{"name":"西村内科","province":"東京都","city":"町田市","address":"東京都町田市根岸2-33-3","lat":35.57506661,"lon":139.4165144},{"name":"東京都水道局町田サービスステーション","province":"東京都","city":"町田市","address":"東京都町田市木曽東1-4-1","lat":35.55780881,"lon":139.4302865},{"name":"やすらぎホール","province":"東京都","city":"町田市","address":"東京都町田市森野4-18-20","lat":35.55664267,"lon":139.4343745},{"name":"町田薬師池公園　四季彩の杜　ダリア園","province":"東京都","city":"町田市","address":"東京都町田市山崎町1213-1","lat":35.57591775,"lon":139.4402441},{"name":"忠生公園自然観察センター","province":"東京都","city":"町田市","address":"東京都町田市忠生1-3-1","lat":35.57281731,"lon":139.4224202},{"name":"ケアセンター木曽山崎","province":"東京都","city":"町田市","address":"東京都町田市山崎町2200","lat":35.56886544,"lon":139.4311305},{"name":"社会福祉法人まちだ育成会「こころみ」","province":"東京都","city":"町田市","address":"東京都町田市山崎町996","lat":35.57980469,"lon":139.441817},{"name":"銀座あけぼの忠生店","province":"東京都","city":"町田市","address":"東京都町田市忠生1-2-1","lat":35.57209861,"lon":139.420979},{"name":"藤堂歯科医院","province":"東京都","city":"町田市","address":"東京都町田市忠生1-2-5アーバングリーンハイツ","lat":35.57240586,"lon":139.4206416},{"name":"ひかり療育園","province":"東京都","city":"町田市","address":"東京都町田市忠生3-6-2","lat":35.57684608,"lon":139.4188208},{"name":"町田市授産センター","province":"東京都","city":"町田市","address":"東京都町田市忠生3-6-22","lat":35.57752544,"lon":139.4191905},{"name":"医療法人社団　咲間歯科医院","province":"東京都","city":"町田市","address":"東京都町田市根岸2-25-20","lat":35.57747506,"lon":139.4128295},{"name":"町田脳神経外科","province":"東京都","city":"町田市","address":"東京都町田市根岸町1009-4","lat":35.57907214,"lon":139.4064128},{"name":"町田市立室内プール","province":"東京都","city":"町田市","address":"東京都町田市図師町199-1","lat":35.58626272,"lon":139.4130386},{"name":"東京援護協会 サルビア荘","province":"東京都","city":"町田市","address":"東京都町田市図師町2987","lat":35.58984914,"lon":139.4351159},{"name":"東京援護協会 町田荘","province":"東京都","city":"町田市","address":"東京都町田市図師町2987","lat":35.58984914,"lon":139.4351159},{"name":"社会福祉法人みずき福祉会　町田福祉園","province":"東京都","city":"町田市","address":"東京都町田市図師町971-2","lat":35.5810285,"lon":139.4131912},{"name":"安心殿","province":"東京都","city":"町田市","address":"東京都町田市図師町997-7","lat":35.58201603,"lon":139.4104534},{"name":"多摩丘陵リハビリテーション病院","province":"東京都","city":"町田市","address":"東京都町田市下小山田町1491","lat":35.60453989,"lon":139.421775},{"name":"小山田緑地","province":"東京都","city":"町田市","address":"東京都町田市下小山田町361-10","lat":35.59782444,"lon":139.4150266},{"name":"大賀藕絲館","province":"東京都","city":"町田市","address":"東京都町田市下小山田町3267","lat":35.58572003,"lon":139.4090863},{"name":"忠生第1高齢者支援センター(ふれあい桜館）","province":"東京都","city":"町田市","address":"東京都町田市下小山田町3580ふれあい桜館1階","lat":35.58513597,"lon":139.4081352},{"name":"ふれあい桜館","province":"東京都","city":"町田市","address":"東京都町田市下小山田町3580","lat":35.58513597,"lon":139.4081352},{"name":"玉川学園駅前連絡所","province":"東京都","city":"町田市","address":"東京都町田市玉川学園2-19-12","lat":35.56374803,"lon":139.4625582},{"name":"小田急玉川学園前駅","province":"東京都","city":"町田市","address":"東京都町田市玉川学園2-21-9","lat":35.56321475,"lon":139.4630513},{"name":"町田第3高齢者支援センター（桜実会）","province":"東京都","city":"町田市","address":"東京都町田市玉川学園3-35-1","lat":35.56339711,"lon":139.4585391},{"name":"玉川学園子どもクラブ　ころころ児童館","province":"東京都","city":"町田市","address":"東京都町田市玉川学園3-35-45","lat":35.56284289,"lon":139.4590611},{"name":"昭和薬科大学","province":"東京都","city":"町田市","address":"東京都町田市東玉川学園3-3165","lat":35.55335875,"lon":139.4701346},{"name":"南大谷子どもクラブ「MOこもこ」","province":"東京都","city":"町田市","address":"東京都町田市南大谷264","lat":35.55320822,"lon":139.4577793},{"name":"西嶋医院・デイケアだんけ","province":"東京都","city":"町田市","address":"東京都町田市成瀬台3-8-182F","lat":35.55482319,"lon":139.4783376},{"name":"鶴川図書館","province":"東京都","city":"町田市","address":"東京都町田市鶴川6-7-2(1-101)","lat":35.59062036,"lon":139.4691373},{"name":"蓮清寺敬信殿","province":"東京都","city":"町田市","address":"東京都町田市能ヶ谷2-15-38","lat":35.58489003,"lon":139.48083},{"name":"鶴川鈴木歯科","province":"東京都","city":"町田市","address":"東京都町田市能ヶ谷1-6-11小田急マルシェ鶴川3階","lat":35.58337931,"lon":139.4814587},{"name":"株式会社ダイヤモンド会館","province":"東京都","city":"町田市","address":"東京都町田市能ヶ谷1-7-1","lat":35.58406942,"lon":139.4818699},{"name":"特別養護老人ホーム　悠々園","province":"東京都","city":"町田市","address":"東京都町田市能ヶ谷4-30-1","lat":35.58636942,"lon":139.4871228},{"name":"小田急鶴川駅","province":"東京都","city":"町田市","address":"東京都町田市能ヶ谷1-6-3","lat":35.58310192,"lon":139.480816},{"name":"鶴見川クリーンセンター","province":"東京都","city":"町田市","address":"東京都町田市三輪緑山1-1","lat":35.56833536,"lon":139.4893001},{"name":"沢谷戸自然公園","province":"東京都","city":"町田市","address":"東京都町田市三輪緑山4-1-18","lat":35.57790553,"lon":139.4928787},{"name":"三輪コミュニティセンター","province":"東京都","city":"町田市","address":"東京都町田市三輪緑山4-14-1","lat":35.57710594,"lon":139.4933631},{"name":"和光大学","province":"東京都","city":"町田市","address":"東京都町田市金井ヶ丘5-1-1","lat":35.57479775,"lon":139.4733131},{"name":"ふれあいいちょう館","province":"東京都","city":"町田市","address":"東京都町田市大蔵町1984-1","lat":35.58895789,"lon":139.4681191},{"name":"町田かたつむりの家","province":"東京都","city":"町田市","address":"東京都町田市野津田町168-1","lat":35.58516861,"lon":139.4359909},{"name":"社会福祉法人 福音会","province":"東京都","city":"町田市","address":"東京都町田市野津田町1932","lat":35.58711853,"lon":139.4349008},{"name":"まちだケアセンター","province":"東京都","city":"町田市","address":"東京都町田市野津田町1932","lat":35.58711853,"lon":139.4349008},{"name":"町田の丘学園","province":"東京都","city":"町田市","address":"東京都町田市野津田町2003","lat":35.58873528,"lon":139.4384748},{"name":"野津田公園、町田GIONスタジアム","province":"東京都","city":"町田市","address":"東京都町田市野津田町2035","lat":35.59192333,"lon":139.4386049},{"name":"町田ぼたん園","province":"東京都","city":"町田市","address":"東京都町田市野津田町2274-1","lat":35.58286981,"lon":139.4439438},{"name":"町田市ふるさと農具館","province":"東京都","city":"町田市","address":"東京都町田市野津田町2288","lat":35.58245314,"lon":139.4440466},{"name":"薬師池公園","province":"東京都","city":"町田市","address":"東京都町田市野津田町3270","lat":35.58510414,"lon":139.4454316},{"name":"町田市七国山ファーマーズセンター","province":"東京都","city":"町田市","address":"東京都町田市野津田町3497-1","lat":35.58101078,"lon":139.4433074},{"name":"町田生活実習所","province":"東京都","city":"町田市","address":"東京都町田市小野路町1605-2","lat":35.59632414,"lon":139.4445934},{"name":"湯舟共働学舎","province":"東京都","city":"町田市","address":"東京都町田市小野路町1733","lat":35.59477381,"lon":139.4494438},{"name":"まちだ丘の上病院","province":"東京都","city":"町田市","address":"東京都町田市小野路町11-1","lat":35.59116,"lon":139.4351399},{"name":"介護老人保健施設町田さくらんぼ、鶴川さくら病院","province":"東京都","city":"町田市","address":"東京都町田市小野路町1632","lat":35.59621328,"lon":139.4456424},{"name":"スーパー三和鶴川店","province":"東京都","city":"町田市","address":"東京都町田市真光寺1-25-1","lat":35.60146992,"lon":139.4670317},{"name":"真光寺公園","province":"東京都","city":"町田市","address":"東京都町田市真光寺2-2-1","lat":35.60799794,"lon":139.464698},{"name":"鶴川サナトリウム病院","province":"東京都","city":"町田市","address":"東京都町田市真光寺町197","lat":35.60374411,"lon":139.4592941},{"name":"はやし内科クリニック","province":"東京都","city":"町田市","address":"東京都町田市真光寺2-37-11鶴川メディカルビレッジ","lat":35.60033603,"lon":139.4686455},{"name":"いずみ会館　泉心庵","province":"東京都","city":"町田市","address":"東京都町田市真光寺町315-4","lat":35.60255142,"lon":139.4594045},{"name":"入倉クリニック","province":"東京都","city":"町田市","address":"東京都町田市真光寺2-37-11","lat":35.60033603,"lon":139.4686455},{"name":"国士舘大学町田キャンパス","province":"東京都","city":"町田市","address":"東京都町田市広袴1-1-1","lat":35.59462078,"lon":139.4634981},{"name":"広袴公園","province":"東京都","city":"町田市","address":"東京都町田市広袴3-4-1","lat":35.59610267,"lon":139.4749826},{"name":"鶴川第1高齢者支援センター（第二清風園）","province":"東京都","city":"町田市","address":"東京都町田市薬師台3-270-1","lat":35.58237856,"lon":139.4568184},{"name":"かしの木山自然公園管理棟　森の家","province":"東京都","city":"町田市","address":"東京都町田市西成瀬3-9","lat":35.55048875,"lon":139.4673078},{"name":"味の民芸町田成瀬店","province":"東京都","city":"町田市","address":"東京都町田市成瀬7-9-1","lat":35.54182542,"lon":139.4770048},{"name":"JR成瀬駅","province":"東京都","city":"町田市","address":"東京都町田市南成瀬1-1-5","lat":35.53548603,"lon":139.4729847},{"name":"そうてつローゼン成瀬店","province":"東京都","city":"町田市","address":"東京都町田市南成瀬1-3-5","lat":35.53641867,"lon":139.4724403},{"name":"総合体育館","province":"東京都","city":"町田市","address":"東京都町田市南成瀬5-12","lat":35.53608353,"lon":139.4786648},{"name":"堂之坂公苑","province":"東京都","city":"町田市","address":"東京都町田市南成瀬5-8","lat":35.53618708,"lon":139.477159},{"name":"プリテールプロント高瀬橋","province":"東京都","city":"町田市","address":"東京都町田市高ヶ坂6-4-3","lat":35.54229319,"lon":139.4621782},{"name":"ツクイ・デイサービス高ヶ坂","province":"東京都","city":"町田市","address":"東京都町田市高ヶ坂7-26-8","lat":35.539825,"lon":139.462114},{"name":"豊川小児科内科医院","province":"東京都","city":"町田市","address":"東京都町田市つくし野2-18-18","lat":35.52685003,"lon":139.4835311},{"name":"つくし野セントラルパーク","province":"東京都","city":"町田市","address":"東京都町田市つくし野3-19","lat":35.52116814,"lon":139.4819864},{"name":"東急つくし野駅","province":"東京都","city":"町田市","address":"東京都町田市つくし野4-1","lat":35.52670536,"lon":139.484761},{"name":"南第2高齢者支援センター（合掌苑）","province":"東京都","city":"町田市","address":"東京都町田市金森東3-18-16","lat":35.53142403,"lon":139.4659961},{"name":"町田市通所療育施設わさびだ療育園","province":"東京都","city":"町田市","address":"東京都町田市金森東3-18-9","lat":35.531101,"lon":139.4653496},{"name":"仁行堂クリニック","province":"東京都","city":"町田市","address":"東京都町田市金森3-23-11","lat":35.52789311,"lon":139.4635473},{"name":"スーパー三和小川店","province":"東京都","city":"町田市","address":"東京都町田市金森4-1-2","lat":35.52587714,"lon":139.4651725},{"name":"ふれあいもみじ館","province":"東京都","city":"町田市","address":"東京都町田市金森東3-17-14","lat":35.53041767,"lon":139.4652794},{"name":"栄山医院","province":"東京都","city":"町田市","address":"東京都町田市金森2-25-30","lat":35.53243636,"lon":139.4596725},{"name":"いとうクリニック","province":"東京都","city":"町田市","address":"東京都町田市小川3-10-5","lat":35.52786644,"lon":139.4722458},{"name":"町田慶泉病院","province":"東京都","city":"町田市","address":"東京都町田市南町田2-1-47","lat":35.52088172,"lon":139.4704263},{"name":"東急すずかけ台駅","province":"東京都","city":"町田市","address":"東京都町田市南つくし野3-1","lat":35.51745942,"lon":139.4823487},{"name":"南町田グランベリーパーク駅","province":"東京都","city":"町田市","address":"東京都町田市鶴間3-3-2","lat":35.51146283,"lon":139.4708034},{"name":"南第1高齢者支援センター（芙蓉園）","province":"東京都","city":"町田市","address":"東京都町田市南町田5-16-1","lat":35.51471564,"lon":139.4712589},{"name":"スーパー三和こどもの国店","province":"東京都","city":"町田市","address":"東京都町田市横浜市青葉区奈良町1-2-1","lat":35.58125442,"lon":139.4023574},{"name":"こどもの国","province":"東京都","city":"町田市","address":"東京都町田市横浜市青葉区奈良町700","lat":35.58125442,"lon":139.4023574},{"name":"イオン相模原店","province":"東京都","city":"町田市","address":"東京都町田市相模原市南区古淵2-10-1","lat":35.58125442,"lon":139.4023574},{"name":"イトーヨーカドー古淵店","province":"東京都","city":"町田市","address":"東京都町田市相模原市南区古淵3-13-33","lat":35.58125442,"lon":139.4023574},{"name":"湘和会堂　町田","province":"東京都","city":"町田市","address":"東京都町田市森野1-11-14","lat":35.54512236,"lon":139.4421163},{"name":"町田市教育センター","province":"東京都","city":"町田市","address":"東京都町田市木曽東3-1-3","lat":35.55972889,"lon":139.4240379},{"name":"山崎団地商店会公衆トイレ","province":"東京都","city":"町田市","address":"東京都町田市山崎町3-17","lat":35.9999995,"lon":139.8333393},{"name":"医療法人社団 南東京ハートクリニック","province":"東京都","city":"町田市","address":"東京都町田市木曽西2-18-12","lat":35.56863158,"lon":139.4169725},{"name":"ホンダカーズ東京中央　町田西店","province":"東京都","city":"町田市","address":"東京都町田市根岸2-33-19","lat":35.57523969,"lon":139.4167479},{"name":"フォーシーズンメモリアル","province":"東京都","city":"町田市","address":"東京都町田市小山町2339-6","lat":35.60011608,"lon":139.3689331},{"name":"町田モディ","province":"東京都","city":"町田市","address":"東京都町田市原町田6-2-6","lat":35.54335581,"lon":139.4451945},{"name":"相原医院","province":"東京都","city":"町田市","address":"東京都町田市相原町1241-8","lat":35.60421397,"lon":139.3300932},{"name":"ウエルシア薬局 町田滝の沢店","province":"東京都","city":"町田市","address":"東京都町田市木曽町120-1","lat":35.55860636,"lon":139.4324761},{"name":"成瀬ヶ丘ふれあい会館","province":"東京都","city":"町田市","address":"東京都町田市成瀬が丘2-20-3","lat":35.53426128,"lon":139.4716104},{"name":"レクサス町田","province":"東京都","city":"町田市","address":"東京都町田市鶴間8-2-1","lat":35.51139564,"lon":139.4736458},{"name":"法輪寺厄除不動尊","province":"東京都","city":"町田市","address":"東京都町田市根岸2-19-2","lat":35.57636556,"lon":139.4092531},{"name":"成瀬弁天橋公園","province":"東京都","city":"町田市","address":"東京都町田市成瀬8-11","lat":35.54262331,"lon":139.4693584},{"name":"多摩境駅西入口交差点","province":"東京都","city":"町田市","address":"東京都町田市小山ヶ丘4-3-3先","lat":35.60377919,"lon":139.3641549},{"name":"BOOK・OFF SUPER BAZAAR 町田中央通り アパレル館","province":"東京都","city":"町田市","address":"東京都町田市原町田4-7-9","lat":35.54116958,"lon":139.4495719},{"name":"東京みるく工房ピュア","province":"東京都","city":"町田市","address":"東京都町田市相原町2558","lat":35.61185547,"lon":139.3104281},{"name":"町田市立　こうさぎ保育園","province":"東京都","city":"町田市","address":"東京都町田市相原町792","lat":35.60436614,"lon":139.3337618},{"name":"社会福祉法人　景行会　クローバー保育園","province":"東京都","city":"町田市","address":"東京都町田市相原町3338-1","lat":35.60950356,"lon":139.2972269},{"name":"桜台保育園","province":"東京都","city":"町田市","address":"東京都町田市小山田桜台1-18","lat":35.58909092,"lon":139.4031034},{"name":"子どもの森保育園","province":"東京都","city":"町田市","address":"東京都町田市常盤町2970-1","lat":35.58847847,"lon":139.3952538},{"name":"社会福祉法人　こひつじ会　こひつじ保育園","province":"東京都","city":"町田市","address":"東京都町田市原町田2-11-5","lat":35.54081203,"lon":139.4524374},{"name":"町田市立　町田保育園","province":"東京都","city":"町田市","address":"東京都町田市原町田6-26-15","lat":35.54451211,"lon":139.4477988},{"name":"社会福祉法人　紫峰会　すみれ保育園","province":"東京都","city":"町田市","address":"東京都町田市木曽東2-8-1","lat":35.55635456,"lon":139.4250868},{"name":"社会福祉法人　たかね保育園","province":"東京都","city":"町田市","address":"東京都町田市山崎町2160-4","lat":35.56859619,"lon":139.4367346},{"name":"社会福祉法人　ユニケ福祉会　ユニケ保育園","province":"東京都","city":"町田市","address":"東京都町田市山崎町457","lat":35.57927031,"lon":139.4298114},{"name":"ひかりの子保育園分園ぶどうの木保育園","province":"東京都","city":"町田市","address":"東京都町田市木曽西3-9-7","lat":35.57288158,"lon":139.4155891},{"name":"玉川さくら保育園","province":"東京都","city":"町田市","address":"東京都町田市玉川学園3-35-48","lat":35.56261803,"lon":139.4592193},{"name":"社会福祉法人 三輪愛光会　三輪あいこう保育園","province":"東京都","city":"町田市","address":"東京都町田市三輪町82-7","lat":35.58184853,"lon":139.493154},{"name":"つるかわ保育園","province":"東京都","city":"町田市","address":"東京都町田市大蔵町2177-2","lat":35.58514739,"lon":139.4740235},{"name":"小野路保育園","province":"東京都","city":"町田市","address":"東京都町田市小野路町1416","lat":35.59853656,"lon":139.4405749},{"name":"高ヶ坂保育園","province":"東京都","city":"町田市","address":"東京都町田市高ヶ坂6-2-10","lat":35.54186408,"lon":139.4610828},{"name":"高ヶ坂ふたば保育園","province":"東京都","city":"町田市","address":"東京都町田市高ヶ坂7-26-6","lat":35.5398415,"lon":139.4624129},{"name":"ねむの木保育園","province":"東京都","city":"町田市","address":"東京都町田市金森東3-17-25","lat":35.53039272,"lon":139.4648879},{"name":"こばと保育園","province":"東京都","city":"町田市","address":"東京都町田市金森6-37-18","lat":35.52273261,"lon":139.455169},{"name":"金森保育園","province":"東京都","city":"町田市","address":"東京都町田市金森東1-12-16","lat":35.53504242,"lon":139.459747},{"name":"田園保育園","province":"東京都","city":"町田市","address":"東京都町田市南町田3-1-1","lat":35.51947058,"lon":139.4669582},{"name":"鶴川中央公園","province":"東京都","city":"町田市","address":"東京都町田市鶴川6-6","lat":35.59097567,"lon":139.4718368},{"name":"西友町田店","province":"東京都","city":"町田市","address":"東京都町田市森野1-14-17","lat":35.54361269,"lon":139.4437546},{"name":"PET FOREST町田多摩境店","province":"東京都","city":"町田市","address":"東京都町田市小山ヶ丘3-22-20","lat":35.60225919,"lon":139.3692153},{"name":"TOHOシネマズ南大沢","province":"東京都","city":"町田市","address":"東京都町田市八王子市南大沢2-3fab南大沢4F","lat":35.58125442,"lon":139.4023574},{"name":"都立小山内裏公園","province":"東京都","city":"町田市","address":"東京都町田市小山ヶ丘4-4","lat":35.60659858,"lon":139.3646009},{"name":"コストコ多摩境倉庫店","province":"東京都","city":"町田市","address":"東京都町田市小山ヶ丘3-6-1","lat":35.60112461,"lon":139.3764933},{"name":"コンフォート ロイヤルライフ多摩","province":"東京都","city":"町田市","address":"東京都町田市下小山田町1461","lat":35.60438181,"lon":139.4226202},{"name":"ボワ・すみれ福祉会　（花の郷）","province":"東京都","city":"町田市","address":"東京都町田市大蔵町360-2","lat":35.5857415,"lon":139.4665188},{"name":"医療法人石井メンタルクリニック（神蔵ビル1F)","province":"東京都","city":"町田市","address":"東京都町田市能ヶ谷1-8-1","lat":35.58432672,"lon":139.4831767},{"name":"緑山グランドハイツ","province":"東京都","city":"町田市","address":"東京都町田市三輪緑山2-2139-2","lat":35.57251542,"lon":139.4838474},{"name":"社会福祉法人ウィズ町田赤い屋根","province":"東京都","city":"町田市","address":"東京都町田市大蔵町122","lat":35.58300147,"lon":139.4745866},{"name":"学校法人鶴川学院　鶴川シオン幼稚園","province":"東京都","city":"町田市","address":"東京都町田市大蔵町2216","lat":35.58416153,"lon":139.4752748},{"name":"きらぼし銀行鶴川支店","province":"東京都","city":"町田市","address":"東京都町田市能ヶ谷1-4-9","lat":35.58309672,"lon":139.4798474},{"name":"トイザらスベビーザらス町田多摩境店","province":"東京都","city":"町田市","address":"東京都町田市小山ヶ丘1-7-2","lat":35.59872631,"lon":139.3816645},{"name":"町田パリオ","province":"東京都","city":"町田市","address":"東京都町田市森野1-15-13","lat":35.54326367,"lon":139.4439551},{"name":"未来保育CLUB","province":"東京都","city":"町田市","address":"東京都町田市中町1-31-4","lat":35.54795267,"lon":139.4484006},{"name":"ホテル新宿屋","province":"東京都","city":"町田市","address":"東京都町田市原町田6-13-22","lat":35.54445478,"lon":139.4465763},{"name":"濱谷歯科医院","province":"東京都","city":"町田市","address":"東京都町田市鶴川5-11-8","lat":35.59409717,"lon":139.4699619},{"name":"町田第1高齢者支援センター（コモンズ）","province":"東京都","city":"町田市","address":"東京都町田市森野4-8-39","lat":35.55410381,"lon":139.4331009},{"name":"二木ゴルフ","province":"東京都","city":"町田市","address":"東京都町田市南町田4-14-35","lat":35.51395447,"lon":139.4649518},{"name":"南町田病院","province":"東京都","city":"町田市","address":"東京都町田市鶴間4-4-1","lat":35.50683739,"lon":139.4712464},{"name":"仁愛医院","province":"東京都","city":"町田市","address":"東京都町田市高ヶ坂6-19-31","lat":35.54032561,"lon":139.4633005},{"name":"はっとり歯科医院","province":"東京都","city":"町田市","address":"東京都町田市つくし野2-31-18","lat":35.52374978,"lon":139.4814602},{"name":"シャロームの家","province":"東京都","city":"町田市","address":"東京都町田市金森東1-25-20","lat":35.53419503,"lon":139.4608645},{"name":"こじま内科","province":"東京都","city":"町田市","address":"東京都町田市小山町3245-1","lat":35.60051064,"lon":139.3603504},{"name":"株式会社楓の風　デイサービス藤の台","province":"東京都","city":"町田市","address":"東京都町田市藤の台1-1-52-103","lat":35.57105839,"lon":139.4489481},{"name":"町田市子どもセンター　つるっこ","province":"東京都","city":"町田市","address":"東京都町田市大蔵町1913","lat":35.58987883,"lon":139.4659195},{"name":"三ツ目山公園","province":"東京都","city":"町田市","address":"東京都町田市小山ヶ丘5-38","lat":35.60382831,"lon":139.35477},{"name":"社会福祉法人クラブハウス町田　ラ・ドロン","province":"東京都","city":"町田市","address":"東京都町田市森野3-19-13","lat":35.55227886,"lon":139.4391455},{"name":"サレジオ工業高等専門学校","province":"東京都","city":"町田市","address":"東京都町田市小山ヶ丘4-6-8","lat":35.60530969,"lon":139.3576993},{"name":"びっくり寿司つくし野店","province":"東京都","city":"町田市","address":"東京都町田市つくし野3-21-2","lat":35.51949742,"lon":139.4837861},{"name":"アシステッドナーシングアンドリビング鶴の苑","province":"東京都","city":"町田市","address":"東京都町田市南町田5-3-28","lat":35.51353392,"lon":139.4742369},{"name":"ラウンドワン町田店","province":"東京都","city":"町田市","address":"東京都町田市森野1-13-14","lat":35.54400106,"lon":139.4432829},{"name":"町田こひつじ幼稚園","province":"東京都","city":"町田市","address":"東京都町田市高ヶ坂2-37-24","lat":35.54120256,"lon":139.4571552},{"name":"光の原保育園","province":"東京都","city":"町田市","address":"東京都町田市南町田1-3-48","lat":35.52287064,"lon":139.4690628},{"name":"ジュエ インドアテニス ゴルフ","province":"東京都","city":"町田市","address":"東京都町田市小山町747","lat":35.59078358,"lon":139.3830664},{"name":"医療法人社団創生会　町田病院","province":"東京都","city":"町田市","address":"東京都町田市木曽東4-21-43","lat":35.56541144,"lon":139.4251053},{"name":"スーパーアルプス","province":"東京都","city":"町田市","address":"東京都町田市小山ヶ丘4-5-2","lat":35.60451864,"lon":139.3607227},{"name":"JA町田市鶴川駅前支店","province":"東京都","city":"町田市","address":"東京都町田市能ヶ谷2-13-4","lat":35.58418264,"lon":139.4810764},{"name":"デイサービス相原やまゆり","province":"東京都","city":"町田市","address":"東京都町田市相原町3174","lat":35.60655269,"lon":139.3019659},{"name":"町田わかくさ保育園","province":"東京都","city":"町田市","address":"東京都町田市成瀬7-10-7","lat":35.54073358,"lon":139.4754992},{"name":"松葉谷戸公園","province":"東京都","city":"町田市","address":"東京都町田市金森東1-20","lat":35.53590525,"lon":139.4609423},{"name":"町田製菓専門学校","province":"東京都","city":"町田市","address":"東京都町田市原町田5-1-3","lat":35.54672189,"lon":139.4480071},{"name":"特定非営利活動法人　町田ハンディキャブ友の会","province":"東京都","city":"町田市","address":"東京都町田市原町田4-24-6せりがや会館内","lat":35.54442269,"lon":139.4530769},{"name":"神奈中タクシー株式会社　町田第一営業所","province":"東京都","city":"町田市","address":"東京都町田市大蔵町211-1","lat":35.58468375,"lon":139.4719713},{"name":"カンツリー交通株式会社","province":"東京都","city":"町田市","address":"東京都町田市小野路町2381-1","lat":35.59778336,"lon":139.4471411},{"name":"東日本タクシー株式会社","province":"東京都","city":"町田市","address":"東京都町田市図師町1280","lat":35.58222467,"lon":139.4227872},{"name":"神奈中タクシー株式会社　町田第二営業所","province":"東京都","city":"町田市","address":"東京都町田市鶴間8-20-23","lat":35.50845842,"lon":139.4788959},{"name":"石黒ワゴンタクシー","province":"東京都","city":"町田市","address":"東京都町田市山崎町1735-12","lat":35.57378611,"lon":139.4261219},{"name":"福祉タクシー　トランスファー","province":"東京都","city":"町田市","address":"東京都町田市木曽東4-19-35","lat":35.56455239,"lon":139.4260927},{"name":"水野個人タクシー","province":"東京都","city":"町田市","address":"東京都町田市小山田桜台2-2-4-303","lat":35.59293839,"lon":139.4024989},{"name":"ヘルパーステーション相原","province":"東京都","city":"町田市","address":"東京都町田市相原町1220-15","lat":35.60589578,"lon":139.3321526},{"name":"町田市民バス「まちっこ」 相原ルート","province":"東京都","city":"町田市","address":"東京都町田市森野2-2-22(町田市役所)","lat":35.54674817,"lon":139.4385724},{"name":"町田市民バス「まちっこ」公共施設巡回ルート","province":"東京都","city":"町田市","address":"東京都町田市森野2-2-22(町田市役所)","lat":35.54674817,"lon":139.4385724},{"name":"玉川学園コミュニティバス「玉ちゃんバス」北ルート","province":"東京都","city":"町田市","address":"東京都町田市森野2-2-22(町田市役所)","lat":35.54674817,"lon":139.4385724},{"name":"ファミリーサポート","province":"東京都","city":"町田市","address":"東京都町田市鶴川3-12-10","lat":35.59152325,"lon":139.4627682},{"name":"サルビア移送サービス","province":"東京都","city":"町田市","address":"東京都町田市鶴川1-17-38","lat":35.58706206,"lon":139.4770786},{"name":"レインボーサービス","province":"東京都","city":"町田市","address":"東京都町田市小川1-29-1A303","lat":35.52987047,"lon":139.4765959},{"name":"けあ・ねっと","province":"東京都","city":"町田市","address":"東京都町田市本町田2980-9","lat":35.57253364,"lon":139.4394778},{"name":"生活協同組合　東京高齢協町田地域センター","province":"東京都","city":"町田市","address":"東京都町田市本町田2507-7ハ14-104","lat":35.56682375,"lon":139.4354293},{"name":"福祉タクシー優","province":"東京都","city":"町田市","address":"東京都町田市下小山田町2734-1","lat":35.593794,"lon":139.408076},{"name":"介護タクシー　青い鳥","province":"東京都","city":"町田市","address":"東京都町田市本町田1786-51","lat":35.55948428,"lon":139.4349462},{"name":"木曽交差点","province":"東京都","city":"町田市","address":"東京都町田市木曽東4-26-11先","lat":35.56633897,"lon":139.4243757},{"name":"鶴川団地中央交差点","province":"東京都","city":"町田市","address":"東京都町田市鶴川2-6-11","lat":35.58677158,"lon":139.4730176},{"name":"金森郵便局前交差点","province":"東京都","city":"町田市","address":"東京都町田市金森東1-11-25","lat":35.53455022,"lon":139.459573},{"name":"境川団地中央交差点","province":"東京都","city":"町田市","address":"東京都町田市木曽東2-10-12先","lat":35.55858283,"lon":139.4239689},{"name":"馬場交差点","province":"東京都","city":"町田市","address":"東京都町田市小山町177-3先","lat":35.59528133,"lon":139.3690738},{"name":"和光学園前交差点","province":"東京都","city":"町田市","address":"東京都町田市真光寺町1338","lat":35.60255142,"lon":139.4594045},{"name":"鶴川第一小前交差点","province":"東京都","city":"町田市","address":"東京都町田市野津田町1409","lat":35.59106811,"lon":139.4559969},{"name":"町田小川小学校北交差点","province":"東京都","city":"町田市","address":"東京都町田市小川2-9-35","lat":35.52802422,"lon":139.4724995},{"name":"山崎団地センター交差点","province":"東京都","city":"町田市","address":"東京都町田市本町田2507先","lat":35.56556106,"lon":139.4425696},{"name":"町田駅ロータリー式交差点","province":"東京都","city":"町田市","address":"東京都町田市原町田6-2","lat":35.54321917,"lon":139.4450107},{"name":"都立南大沢学園前交差点","province":"東京都","city":"町田市","address":"東京都町田市小山町2842","lat":35.59528133,"lon":139.3690738},{"name":"鶴川駅西口交差点","province":"東京都","city":"町田市","address":"東京都町田市能ヶ谷1-5016-4","lat":35.9999995,"lon":139.8333393},{"name":"JR町田駅前交差点","province":"東京都","city":"町田市","address":"東京都町田市原町田6-1","lat":35.54220358,"lon":139.4456662},{"name":"JR町田駅前北交差点","province":"東京都","city":"町田市","address":"東京都町田市原町田6-8","lat":35.54297125,"lon":139.4475396},{"name":"鶴川駅交差点","province":"東京都","city":"町田市","address":"東京都町田市能ヶ谷1-5016-4","lat":35.9999995,"lon":139.8333393},{"name":"小山郵便局東交差点","province":"東京都","city":"町田市","address":"東京都町田市小山町771-1先","lat":35.591383,"lon":139.3817195},{"name":"東名横浜インター出口","province":"東京都","city":"町田市","address":"東京都町田市鶴間8-12","lat":35.51035611,"lon":139.4749412},{"name":"湯船交差点","province":"東京都","city":"町田市","address":"東京都町田市小野路1571-2","lat":35.59812511,"lon":139.4441781},{"name":"中央橋北交差点","province":"東京都","city":"町田市","address":"東京都町田市中町1-20-23先","lat":35.54813458,"lon":139.4467484},{"name":"町田駅バスセンター交差点","province":"東京都","city":"町田市","address":"東京都町田市森野1-17先","lat":35.54425967,"lon":139.4442678},{"name":"原町田中央通り交差点","province":"東京都","city":"町田市","address":"東京都町田市原町田6-13-14","lat":35.54349297,"lon":139.4472434},{"name":"町田市役所前交差点","province":"東京都","city":"町田市","address":"東京都町田市森野2-2-22先","lat":35.54674817,"lon":139.4385724},{"name":"玉川学園コミュニティバス「玉ちゃんバス」東ルート","province":"東京都","city":"町田市","address":"東京都町田市森野2-2-22(町田市役所)","lat":35.54674817,"lon":139.4385724},{"name":"地域であたりまえに育つ営みを支援する会","province":"東京都","city":"町田市","address":"東京都町田市金井2-4-7","lat":35.57476611,"lon":139.4556063},{"name":"金森地区コミュニティバス「かわせみ号」成瀬駅ルート","province":"東京都","city":"町田市","address":"東京都町田市森野2-2-22(町田市役所)","lat":35.54674817,"lon":139.4385724},{"name":"アットホーム","province":"東京都","city":"町田市","address":"東京都町田市木曽東4-19-35","lat":35.56455239,"lon":139.4260927},{"name":"福祉輸送サービス共同配車センター","province":"東京都","city":"町田市","address":"東京都町田市原町田4-24-6せりがや会館内","lat":35.54442269,"lon":139.4530769},{"name":"ウィズ町田なないろ","province":"東京都","city":"町田市","address":"東京都町田市木曽西2-17-16","lat":35.57009644,"lon":139.41539},{"name":"尾根緑道〔2〕公衆トイレ","province":"東京都","city":"町田市","address":"東京都町田市小山ヶ丘1-11-14","lat":35.59745708,"lon":139.386254},{"name":"福祉会館前交差点","province":"東京都","city":"町田市","address":"東京都町田市原町田4-2","lat":35.54166156,"lon":139.4472602},{"name":"東平ひまわりこども園","province":"東京都","city":"町田市","address":"東京都町田市広袴町543-1","lat":35.59347756,"lon":139.475775},{"name":"ふれあい町田ホスピタル","province":"東京都","city":"町田市","address":"東京都町田市小山ヶ丘1-3-8","lat":35.59780814,"lon":139.3830308},{"name":"ふれあいの町田","province":"東京都","city":"町田市","address":"東京都町田市小山ヶ丘1-3-7","lat":35.59722314,"lon":139.3838208},{"name":"スターバックス コーヒー 多摩境店","province":"東京都","city":"町田市","address":"東京都町田市小山ヶ丘3-2-8","lat":35.60001008,"lon":139.37923},{"name":"医療法人社団さくらメディカルクリニック","province":"東京都","city":"町田市","address":"東京都町田市常盤町3200-1常盤メディカルモール2F","lat":35.58614011,"lon":139.3948799},{"name":"MrMax町田多摩境ショッピングセンター","province":"東京都","city":"町田市","address":"東京都町田市小山ヶ丘6-1-10","lat":35.60625489,"lon":139.3487601},{"name":"たかはしクリニック","province":"東京都","city":"町田市","address":"東京都町田市常盤町3200-1常盤メディカルモール1F","lat":35.58614011,"lon":139.3948799},{"name":"根岸公園","province":"東京都","city":"町田市","address":"東京都町田市根岸1-16-1","lat":35.5718485,"lon":139.4120104},{"name":"トヨタモビリティ東京株式会社 多摩境店","province":"東京都","city":"町田市","address":"東京都町田市小山ヶ丘2-2-10","lat":35.60261608,"lon":139.3743576},{"name":"小野路公園","province":"東京都","city":"町田市","address":"東京都町田市小野路町2023-1","lat":35.59807533,"lon":139.4538311},{"name":"乗馬クラブ　クレイン東京","province":"東京都","city":"町田市","address":"東京都町田市真光寺町1227","lat":35.598984,"lon":139.4605545},{"name":"メモリアルパーク「クラウド御殿山」","province":"東京都","city":"町田市","address":"東京都町田市相原町522-1","lat":35.61241364,"lon":139.3431201},{"name":"ぽっぽの森保育園","province":"東京都","city":"町田市","address":"東京都町田市大蔵町410","lat":35.58796989,"lon":139.4654126},{"name":"ENEOS J-Quest町田店","province":"東京都","city":"町田市","address":"東京都町田市小山ヶ丘2-2-20","lat":35.60240669,"lon":139.3761626},{"name":"PET FOREST町田鶴川店","province":"東京都","city":"町田市","address":"東京都町田市真光寺2-32-1三和鶴川ショッピングセンターD棟","lat":35.60164603,"lon":139.4681689},{"name":"合掌の郷町田小野路霊園","province":"東京都","city":"町田市","address":"東京都町田市小野路町1536","lat":35.59854981,"lon":139.4423979},{"name":"サンメモリアル東京","province":"東京都","city":"町田市","address":"東京都町田市小野路町3949","lat":35.60919206,"lon":139.4408397},{"name":"三輪保育園　分園","province":"東京都","city":"町田市","address":"東京都町田市三輪町1760-3","lat":35.57991808,"lon":139.4935665},{"name":"フォルクスワーゲン東名横浜","province":"東京都","city":"町田市","address":"東京都町田市小川7-9-26","lat":35.51149814,"lon":139.4768735},{"name":"ボルボ・カー東名横浜","province":"東京都","city":"町田市","address":"東京都町田市南町田5-9-18","lat":35.51218994,"lon":139.4719399},{"name":"ガスト町田図師店","province":"東京都","city":"町田市","address":"東京都町田市図師町1765","lat":35.58375922,"lon":139.4286718},{"name":"梅花の郷　光明浄苑","province":"東京都","city":"町田市","address":"東京都町田市高ヶ坂7-15-1","lat":35.53836736,"lon":139.4587011},{"name":"メルセデスベンツ東名横浜","province":"東京都","city":"町田市","address":"東京都町田市鶴間7-2-1","lat":35.50802281,"lon":139.4769067},{"name":"Crop","province":"東京都","city":"町田市","address":"東京都町田市小川2-28-13","lat":35.53095831,"lon":139.4712612},{"name":"カインズ町田多摩境店資材館PRO","province":"東京都","city":"町田市","address":"東京都町田市小山ヶ丘2-3-1","lat":35.60284067,"lon":139.3734743},{"name":"つるかわ台教会","province":"東京都","city":"町田市","address":"東京都町田市真光寺2-13-20","lat":35.60270942,"lon":139.4688921},{"name":"せせらぎの里　町田市自然休暇村","province":"東京都","city":"町田市","address":"東京都町田市長野県南佐久郡大字秋山53-15","lat":35.58125442,"lon":139.4023574},{"name":"町田警察署　忠生地区交番","province":"東京都","city":"町田市","address":"東京都町田市忠生1-11-1","lat":35.574259,"lon":139.4219748},{"name":"ミーナ町田","province":"東京都","city":"町田市","address":"東京都町田市原町田4-1-17","lat":35.54074306,"lon":139.448547},{"name":"FOOD ONE森野店","province":"東京都","city":"町田市","address":"東京都町田市森野3-15-22","lat":35.55417447,"lon":139.4370303},{"name":"ウエルパーク町田旭町店","province":"東京都","city":"町田市","address":"東京都町田市旭町1-8-5","lat":35.55511422,"lon":139.4371484},{"name":"オーケー町田森野店","province":"東京都","city":"町田市","address":"東京都町田市森野3-15-15","lat":35.55464236,"lon":139.4363282},{"name":"みなみ会館","province":"東京都","city":"町田市","address":"東京都町田市旭町1-22-5","lat":35.55603858,"lon":139.4413626},{"name":"町田商工会議所","province":"東京都","city":"町田市","address":"東京都町田市原町田3-3-22","lat":35.54081636,"lon":139.4506018},{"name":"セブンイレブン町田南大谷店","province":"東京都","city":"町田市","address":"東京都町田市南大谷196-1","lat":35.55561328,"lon":139.4565914},{"name":"TSUTAYA町田木曽店","province":"東京都","city":"町田市","address":"東京都町田市木曽西1-17-13","lat":35.56524514,"lon":139.419369},{"name":"クリエイトSD　町田南大谷店","province":"東京都","city":"町田市","address":"東京都町田市南大谷179-1","lat":35.55586703,"lon":139.45609},{"name":"櫻乃苑　町田中町","province":"東京都","city":"町田市","address":"東京都町田市中町3-9-5","lat":35.55142214,"lon":139.4483859},{"name":"勝楽寺","province":"東京都","city":"町田市","address":"東京都町田市原町田3-5-12(釈迦堂は原町田3-3-17)","lat":35.54089514,"lon":139.4517094},{"name":"道林寺 町田こもれびの杜霊苑","province":"東京都","city":"町田市","address":"東京都町田市相原町527-6","lat":35.61111186,"lon":139.3414505},{"name":"クリエイトSD　町田金井店","province":"東京都","city":"町田市","address":"東京都町田市金井4-23-33","lat":35.58109503,"lon":139.4694458},{"name":"セブンイレブン町田忠生公園入口店","province":"東京都","city":"町田市","address":"東京都町田市木曽西3-25-5","lat":35.57217533,"lon":139.4200512},{"name":"クラスティーナインターファニチャー","province":"東京都","city":"町田市","address":"東京都町田市鶴間8-11-12","lat":35.51005614,"lon":139.4757742},{"name":"小山上沼公園","province":"東京都","city":"町田市","address":"東京都町田市小山ヶ丘3-1-1","lat":35.59863269,"lon":139.379208},{"name":"Odakyu OX 鶴川店","province":"東京都","city":"町田市","address":"東京都町田市能ヶ谷1-6-6","lat":35.58356906,"lon":139.4811007},{"name":"町田市子どもセンター　ぱお","province":"東京都","city":"町田市","address":"東京都町田市相原町2025-2","lat":35.60829497,"lon":139.3215009},{"name":"たすけあい小川","province":"東京都","city":"町田市","address":"東京都町田市小川3-2-3","lat":35.52515039,"lon":139.4676891},{"name":"サニーステージ玉川学園","province":"東京都","city":"町田市","address":"東京都町田市玉川学園6-3-36","lat":35.57027697,"lon":139.4646289},{"name":"ロイヤルホスト町田店","province":"東京都","city":"町田市","address":"東京都町田市中町2-17-15","lat":35.55371753,"lon":139.4431099},{"name":"社会福祉法人 愛の鈴　町田おかしの家","province":"東京都","city":"町田市","address":"東京都町田市忠生2-7-9","lat":35.57938511,"lon":139.4259809},{"name":"三塚交差点","province":"東京都","city":"町田市","address":"東京都町田市原町田2-6-11","lat":35.538688,"lon":139.4534551},{"name":"町田中央通り交差点","province":"東京都","city":"町田市","address":"東京都町田市原町田3-3-28","lat":35.54122772,"lon":139.4505653},{"name":"版画美術館入口交差点","province":"東京都","city":"町田市","address":"東京都町田市原町田4-16-11","lat":35.54296006,"lon":139.4521397},{"name":"町田中央図書館前交差点","province":"東京都","city":"町田市","address":"東京都町田市原町田2-1-21","lat":35.53958625,"lon":139.451398},{"name":"町田市民病院入口交差点","province":"東京都","city":"町田市","address":"東京都町田市森野3-15-16先","lat":35.55430072,"lon":139.4365976},{"name":"町田郵便局前交差点","province":"東京都","city":"町田市","address":"東京都町田市旭町3-2","lat":35.55553036,"lon":139.4450033},{"name":"玉川学園駅前横断歩道","province":"東京都","city":"町田市","address":"東京都町田市玉川学園2-20","lat":35.56350078,"lon":139.4628614},{"name":"玉川学園駅西交差点","province":"東京都","city":"町田市","address":"東京都町田市玉川学園2-11-29","lat":35.56296519,"lon":139.4622295},{"name":"金森第1交差点","province":"東京都","city":"町田市","address":"東京都町田市金森3-1","lat":35.52976711,"lon":139.4618848},{"name":"金森4丁目北交差点","province":"東京都","city":"町田市","address":"東京都町田市金森4-2","lat":35.52542664,"lon":139.4657981},{"name":"町田南農協会館前交差点","province":"東京都","city":"町田市","address":"東京都町田市小川5-8","lat":35.52396133,"lon":139.4682141},{"name":"町田小川2丁目交差点","province":"東京都","city":"町田市","address":"東京都町田市小川2-27","lat":35.53012467,"lon":139.4708228},{"name":"南町田北交差点","province":"東京都","city":"町田市","address":"東京都町田市鶴間1-1-36","lat":35.51330458,"lon":139.4650806},{"name":"成瀬鞍掛横断歩道","province":"東京都","city":"町田市","address":"東京都町田市西成瀬1-51-40","lat":35.54306806,"lon":139.4654623},{"name":"成瀬ガード北交差点","province":"東京都","city":"町田市","address":"東京都町田市南成瀬5-1","lat":35.53583067,"lon":139.4746902},{"name":"鶴川市民センター前交差点","province":"東京都","city":"町田市","address":"東京都町田市大蔵町945","lat":35.9999995,"lon":139.8333393},{"name":"三家交差点","province":"東京都","city":"町田市","address":"東京都町田市木曽東4-21-43先","lat":35.56541144,"lon":139.4251053},{"name":"桜美林学園西交差点","province":"東京都","city":"町田市","address":"東京都町田市常盤町3654先","lat":35.581523,"lon":139.4046108},{"name":"相原駅入口交差点","province":"東京都","city":"町田市","address":"東京都町田市相原町796-12先","lat":35.60444153,"lon":139.3328242},{"name":"サウスフロント東交差点","province":"東京都","city":"町田市","address":"東京都町田市原町田4-9付近","lat":35.54188772,"lon":139.4500538},{"name":"民間交番「セーフティボックスサルビア」","province":"東京都","city":"町田市","address":"東京都町田市原町田6-13-14","lat":35.54349297,"lon":139.4472434},{"name":"斉藤歯科医院","province":"東京都","city":"町田市","address":"東京都町田市成瀬台4-22-17","lat":35.55768481,"lon":139.4779348},{"name":"リハビリホーム　グランダ玉川学園","province":"東京都","city":"町田市","address":"東京都町田市南大谷511-114","lat":35.55723344,"lon":139.4575541},{"name":"東京ガスライフバル町田","province":"東京都","city":"町田市","address":"東京都町田市中町2-15-14","lat":35.55300444,"lon":139.4432726},{"name":"ミニストップ町田旭町店","province":"東京都","city":"町田市","address":"東京都町田市旭町1-25-16","lat":35.55450247,"lon":139.4435023},{"name":"ダイハツ東京販売　町田金森店","province":"東京都","city":"町田市","address":"東京都町田市金森東3-12-34","lat":35.52987036,"lon":139.4626168},{"name":"きらぼし銀行相原支店","province":"東京都","city":"町田市","address":"東京都町田市相原町1254-6","lat":35.60461969,"lon":139.3294598},{"name":"創価学会町田平和会館","province":"東京都","city":"町田市","address":"東京都町田市木曽西4-35-45","lat":35.56911539,"lon":139.4213434},{"name":"ウェルパーク町田鶴川店","province":"東京都","city":"町田市","address":"東京都町田市能ヶ谷2-24-9","lat":35.58705133,"lon":139.4792654},{"name":"ガスト町田真光寺店","province":"東京都","city":"町田市","address":"東京都町田市広袴3-1-3","lat":35.59807878,"lon":139.4701341},{"name":"町田市鶴川第2高齢者支援センター（悠々会）","province":"東京都","city":"町田市","address":"東京都町田市能ヶ谷3-2-1鶴川地域コミュニティ1階","lat":35.58466744,"lon":139.486095},{"name":"コミュニティカフェレストラン「リレイス」","province":"東京都","city":"町田市","address":"東京都町田市能ヶ谷3-2-1リレイス鶴川1階","lat":35.58466744,"lon":139.486095},{"name":"東横INN　町田駅小田急線東口","province":"東京都","city":"町田市","address":"東京都町田市中町1-3-3","lat":35.54681867,"lon":139.4448987},{"name":"鶴川北教会","province":"東京都","city":"町田市","address":"東京都町田市真光寺町1338-6","lat":35.59721381,"lon":139.4603502},{"name":"ローソン原町田六丁目店","province":"東京都","city":"町田市","address":"東京都町田市原町田6-7-5","lat":35.54287508,"lon":139.4476743},{"name":"太陽ホーム株式会社","province":"東京都","city":"町田市","address":"東京都町田市忠生3-7-11","lat":35.57812928,"lon":139.4197699},{"name":"介護タクシー きんと雲","province":"東京都","city":"町田市","address":"東京都町田市本町田1219-12","lat":35.56332444,"lon":139.44677},{"name":"野津田公園　上の原グラウンド","province":"東京都","city":"町田市","address":"東京都町田市野津田町2035","lat":35.59192333,"lon":139.4386049},{"name":"野津田公園 テニスコート","province":"東京都","city":"町田市","address":"東京都町田市野津田町2035","lat":35.59192333,"lon":139.4386049},{"name":"ひかりの子保育園","province":"東京都","city":"町田市","address":"東京都町田市木曽西1-34-1","lat":35.56687,"lon":139.4152701},{"name":"鶴川記念病院","province":"東京都","city":"町田市","address":"東京都町田市三輪町1059-1","lat":35.57226922,"lon":139.4967348},{"name":"セブンイレブン町田藤の台東店","province":"東京都","city":"町田市","address":"東京都町田市金井1-1-18","lat":35.57200558,"lon":139.4539982},{"name":"ニトリ南町田店","province":"東京都","city":"町田市","address":"東京都町田市鶴間3-10-1","lat":35.5099795,"lon":139.4737136},{"name":"三和 中町店","province":"東京都","city":"町田市","address":"東京都町田市中町3-1-11","lat":35.54852081,"lon":139.4495761},{"name":"鹿島内科クリニック","province":"東京都","city":"町田市","address":"東京都町田市金森東1-25-29金森メディカルプラザA1","lat":35.53384361,"lon":139.4601937},{"name":"グループホーム悠々園","province":"東京都","city":"町田市","address":"東京都町田市本町田2026-2","lat":35.56273353,"lon":139.4351979},{"name":"町田誠心園","province":"東京都","city":"町田市","address":"東京都町田市下小山田町3352-8","lat":35.59010106,"lon":139.4085874},{"name":"開進幼稚園","province":"東京都","city":"町田市","address":"東京都町田市藤の台1-2-1","lat":35.56980878,"lon":139.4451647},{"name":"オーケー 町田小川店","province":"東京都","city":"町田市","address":"東京都町田市小川6-13-19","lat":35.51996583,"lon":139.4722278},{"name":"グループホーム・小規模多機能 なかまち","province":"東京都","city":"町田市","address":"東京都町田市中町1-28-201F","lat":35.54969772,"lon":139.4474884},{"name":"BMW東名横浜本店ショールーム","province":"東京都","city":"町田市","address":"東京都町田市鶴間8-19-15","lat":35.508017,"lon":139.4781761},{"name":"小山学童保育クラブ","province":"東京都","city":"町田市","address":"東京都町田市小山町944","lat":35.59256831,"lon":139.3775193},{"name":"イエローハット町田鶴川店","province":"東京都","city":"町田市","address":"東京都町田市野津田1169","lat":35.58856181,"lon":139.4582593},{"name":"シェ・シミズ","province":"東京都","city":"町田市","address":"東京都町田市野津田町140-3","lat":35.58426728,"lon":139.4343674},{"name":"紅高粱　総本店","province":"東京都","city":"町田市","address":"東京都町田市金井ヶ丘4-47-141F","lat":35.58113019,"lon":139.4704226},{"name":"アスク介護タクシー","province":"東京都","city":"町田市","address":"東京都町田市西成瀬1-29-3","lat":35.54482978,"lon":139.4653096},{"name":"社会福祉法人 まちだ育成会 「かがやき」","province":"東京都","city":"町田市","address":"東京都町田市山崎町1214-1","lat":35.57607936,"lon":139.4395601},{"name":"ミニストップ 町田街道旭店","province":"東京都","city":"町田市","address":"東京都町田市旭町1-20-15","lat":35.55604517,"lon":139.4402794},{"name":"社会福祉法人 ウィズ町田 グループホーム まいん","province":"東京都","city":"町田市","address":"東京都町田市根岸1-15-30","lat":35.57193836,"lon":139.4133488},{"name":"東京・湯河原温泉 万葉の湯","province":"東京都","city":"町田市","address":"東京都町田市鶴間7-3-1","lat":35.50745314,"lon":139.4773424},{"name":"セントラルウエルネスクラブ 成瀬店","province":"東京都","city":"町田市","address":"東京都町田市成瀬が丘2-28-1","lat":35.53552892,"lon":139.4712638},{"name":"ツクイ・サンシャイン町田西館","province":"東京都","city":"町田市","address":"東京都町田市小山ヶ丘1-11-7","lat":35.59869386,"lon":139.3834032},{"name":"社会福祉法人 嘉祥会 ぬくもりの園","province":"東京都","city":"町田市","address":"東京都町田市下小山田町2729-2","lat":35.59339356,"lon":139.4079736},{"name":"介護老人福祉施設 ヴィラ町田","province":"東京都","city":"町田市","address":"東京都町田市相原町4391-7","lat":35.61213692,"lon":139.2941448},{"name":"グループホーム いこいの郷 花梨・成瀬","province":"東京都","city":"町田市","address":"東京都町田市成瀬6-15-23","lat":35.53739564,"lon":139.4817611},{"name":"高齢者グループホーム 陽だまりの家 町田","province":"東京都","city":"町田市","address":"東京都町田市真光寺町327-3","lat":35.60637822,"lon":139.4616536},{"name":"高齢者複合施設 秋田高城","province":"東京都","city":"町田市","address":"東京都町田市根岸2-32-16","lat":35.57397642,"lon":139.4160894},{"name":"社会福祉法人 町田真弘会 光の園町田","province":"東京都","city":"町田市","address":"東京都町田市真光寺町1172","lat":35.60175869,"lon":139.4601322},{"name":"グループホーム 花物語まちだ","province":"東京都","city":"町田市","address":"東京都町田市山崎町1230-2","lat":35.57522672,"lon":139.4387715},{"name":"キヤノンスポーツパーク","province":"東京都","city":"町田市","address":"東京都町田市小野路町5290-1","lat":35.60685725,"lon":139.4283401},{"name":"社会福祉法人 町田真弘会 光の園おおくら","province":"東京都","city":"町田市","address":"東京都町田市大蔵町257-1","lat":35.58535364,"lon":139.4697196},{"name":"木下の介護 グループホーム 町田","province":"東京都","city":"町田市","address":"東京都町田市高ヶ坂4-10-7","lat":35.54708236,"lon":139.4641383},{"name":"SUPER MARKET ave　南町田店","province":"東京都","city":"町田市","address":"東京都町田市南町田4-35-1","lat":35.51400061,"lon":139.4677003},{"name":"SOMPO ケア ラヴィーレ南町田","province":"東京都","city":"町田市","address":"東京都町田市金森4-7-30","lat":35.52349464,"lon":139.466169},{"name":"スシロー　町田木曽店","province":"東京都","city":"町田市","address":"東京都町田市木曽西3-1-9","lat":35.56982147,"lon":139.4169279},{"name":"ダイハツ東京販売Dモール町田藤の台店","province":"東京都","city":"町田市","address":"東京都町田市藤の台2-1-1","lat":35.57126242,"lon":139.4536745},{"name":"ディサービス もみじのて野津田","province":"東京都","city":"町田市","address":"東京都町田市野津田町2662-1","lat":35.58659453,"lon":139.4521672},{"name":"トヨタモビリティ東京株式会社　町田旭町店","province":"東京都","city":"町田市","address":"東京都町田市旭町1-18-14","lat":35.55516103,"lon":139.4412197},{"name":"社会福祉法人創和会 ケアセンター成瀬","province":"東京都","city":"町田市","address":"東京都町田市成瀬台3-24-1","lat":35.55555586,"lon":139.4786794},{"name":"セブンイレブン町田堺店","province":"東京都","city":"町田市","address":"東京都町田市小山町828-1","lat":35.59228839,"lon":139.3811088},{"name":"もみの木保育園","province":"東京都","city":"町田市","address":"東京都町田市小山ヶ丘1-3-2","lat":35.59643158,"lon":139.3850635},{"name":"光の森保育園","province":"東京都","city":"町田市","address":"東京都町田市森野5-21-5","lat":35.55052358,"lon":139.4336264},{"name":"ファミリーマート町田多摩境店","province":"東京都","city":"町田市","address":"東京都町田市小山ヶ丘5-1-4","lat":35.60271111,"lon":139.3649671},{"name":"花物語 まちだ南","province":"東京都","city":"町田市","address":"東京都町田市鶴間6-18-40","lat":35.50342772,"lon":139.4743387},{"name":"特別養護老人ホ－ム 高ケ坂ひかり苑","province":"東京都","city":"町田市","address":"東京都町田市高ヶ坂5-26-19","lat":35.54576156,"lon":139.4620593},{"name":"ケアタクシー いろは","province":"東京都","city":"町田市","address":"東京都町田市図師町401-10","lat":35.58659483,"lon":139.4203539},{"name":"JA町田市　アグリハウスまちだ","province":"東京都","city":"町田市","address":"東京都町田市森野2-29-15","lat":35.54952981,"lon":139.4419273},{"name":"くらしの友 鶴川総合斎場","province":"東京都","city":"町田市","address":"東京都町田市金井ヶ丘4-43-26","lat":35.57832769,"lon":139.4701988},{"name":"お好み焼き本舗 多摩境店","province":"東京都","city":"町田市","address":"東京都町田市小山ヶ丘2-7-1","lat":35.60313689,"lon":139.3673969},{"name":"はなことば町田鶴川","province":"東京都","city":"町田市","address":"東京都町田市大蔵町150-2","lat":35.58374697,"lon":139.4744146},{"name":"寿司・しゃぶしゃぶ　ゆず庵 多摩境店","province":"東京都","city":"町田市","address":"東京都町田市小山ヶ丘2-7-2","lat":35.60318917,"lon":139.367126},{"name":"わかば介護タクシー","province":"東京都","city":"町田市","address":"東京都町田市真光寺1-9-1","lat":35.60557086,"lon":139.465939},{"name":"NPO法人 福祉開発研究センター","province":"東京都","city":"町田市","address":"東京都町田市森野3-19-17アコール町田1F","lat":35.55233306,"lon":139.4394905},{"name":"車検館 南町田店","province":"東京都","city":"町田市","address":"東京都町田市南町田5-1-20","lat":35.51491561,"lon":139.4740635},{"name":"ガスト町田相原店","province":"東京都","city":"町田市","address":"東京都町田市相原2174-1","lat":35.60615272,"lon":139.3173706},{"name":"千代田自動車株式会社","province":"東京都","city":"町田市","address":"東京都町田市森野3-16-21","lat":35.55348322,"lon":139.4373003},{"name":"鶴川若竹幼稚園","province":"東京都","city":"町田市","address":"東京都町田市野津田町1303","lat":35.59169206,"lon":139.4569401},{"name":"小田急マルシェ鶴川1","province":"東京都","city":"町田市","address":"東京都町田市能ヶ谷1-6-11","lat":35.58337931,"lon":139.4814587},{"name":"ガスト鶴川駅前店","province":"東京都","city":"町田市","address":"東京都町田市能ヶ谷1-7-6鈴木ビル1F","lat":35.58406639,"lon":139.4822714},{"name":"福祉・介護タクシーオオクラ","province":"東京都","city":"町田市","address":"東京都町田市大蔵町500-1","lat":35.58832542,"lon":139.4623666},{"name":"セブンイレブン 町田金森南店","province":"東京都","city":"町田市","address":"東京都町田市金森6-5-1","lat":35.52477678,"lon":139.4597597},{"name":"地域福祉サービスセンター まちだ正吉苑","province":"東京都","city":"町田市","address":"東京都町田市成瀬8-10-1","lat":35.5429685,"lon":139.4697706},{"name":"清風園","province":"東京都","city":"町田市","address":"東京都町田市金井7-17-13","lat":35.57429297,"lon":139.4614019},{"name":"ボンセジュール町田鶴川","province":"東京都","city":"町田市","address":"東京都町田市広袴町666-1","lat":35.59488525,"lon":139.4729837},{"name":"介護ステーションぬくもりの園","province":"東京都","city":"町田市","address":"東京都町田市小山田桜台1-20","lat":35.59050392,"lon":139.4030109},{"name":"忠生市民センター前横断歩道","province":"東京都","city":"町田市","address":"東京都町田市忠生3-14-1先","lat":35.57798308,"lon":139.4150649},{"name":"アイン薬局 金森店","province":"東京都","city":"町田市","address":"東京都町田市金森1-27-18","lat":35.53439644,"lon":139.4503744},{"name":"セブンイレブン 町田ポプラヶ丘店","province":"東京都","city":"町田市","address":"東京都町田市成瀬台2-1-2","lat":35.54972519,"lon":139.4763024},{"name":"ボワ・すみれ福祉会（ボワ・フルール）","province":"東京都","city":"町田市","address":"東京都町田市木曽西3-11-10","lat":35.5737835,"lon":139.4171984},{"name":"承知の助 多摩境店","province":"東京都","city":"町田市","address":"東京都町田市小山ヶ丘5-1-1","lat":35.60237061,"lon":139.3653018},{"name":"エルダーホームケア町田","province":"東京都","city":"町田市","address":"東京都町田市木曽東1-33-16","lat":35.5567325,"lon":139.4265568},{"name":"本町田遺跡","province":"東京都","city":"町田市","address":"東京都町田市本町田3455","lat":35.56556106,"lon":139.4425696},{"name":"介護老人保健施設 オネスティ南町田","province":"東京都","city":"町田市","address":"東京都町田市鶴間7-3-3","lat":35.50721347,"lon":139.4779784},{"name":"ヒューマンライフケア南町田","province":"東京都","city":"町田市","address":"東京都町田市南町田2-6-22黄桜グリーンハイツ","lat":35.51804467,"lon":139.4720326},{"name":"生活クラブ デポー町田","province":"東京都","city":"町田市","address":"東京都町田市成瀬が丘2-27-1","lat":35.53569467,"lon":139.470258},{"name":"原町田5丁目交差点","province":"東京都","city":"町田市","address":"東京都町田市原町田5-7","lat":35.54535033,"lon":139.4507355},{"name":"島忠ホームズ町田三輪店","province":"東京都","city":"町田市","address":"東京都町田市三輪町281-1","lat":35.57876119,"lon":139.5005438},{"name":"金井遊歩公園交差点","province":"東京都","city":"町田市","address":"東京都町田市金井1-10","lat":35.57388131,"lon":139.4544905},{"name":"セブンイレブン町田山崎新道店","province":"東京都","city":"町田市","address":"東京都町田市山崎町1936-1","lat":35.57107081,"lon":139.4286695},{"name":"木下の介護　リアンレーヴ本町田","province":"東京都","city":"町田市","address":"東京都町田市本町田2668-1","lat":35.5673735,"lon":139.4422468},{"name":"社会福祉法人つるかわ学園","province":"東京都","city":"町田市","address":"東京都町田市真光寺町186","lat":35.6027075,"lon":139.4589575},{"name":"特別養護老人ホーム椿","province":"東京都","city":"町田市","address":"東京都町田市相原町2311-1","lat":35.61096325,"lon":139.3128232},{"name":"老人ホーム多摩境","province":"東京都","city":"町田市","address":"東京都町田市小山ヶ丘3-26-2","lat":35.60145031,"lon":139.3652468},{"name":"放課後等デイサービス「あらぐさ」","province":"東京都","city":"町田市","address":"東京都町田市下小山田町231-1","lat":35.59606042,"lon":139.4114184},{"name":"薬師池公園前横断歩道","province":"東京都","city":"町田市","address":"東京都町田市金井町733-1","lat":35.57459058,"lon":139.4483441},{"name":"ケアホーム愛の鈴","province":"東京都","city":"町田市","address":"東京都町田市根岸2-28-14","lat":35.57588697,"lon":139.414427},{"name":"食品スーパーマーケット 三徳 成瀬店","province":"東京都","city":"町田市","address":"東京都町田市成瀬4-1-7","lat":35.54378083,"lon":139.4742008},{"name":"イリーゼ町田図師の丘","province":"東京都","city":"町田市","address":"東京都町田市図師町1896-1","lat":35.58330328,"lon":139.4245723},{"name":"セブンイレブン 町田金森店","province":"東京都","city":"町田市","address":"東京都町田市金森2-21-17","lat":35.53345564,"lon":139.4596182},{"name":"成瀬駅北口駅前広場公共トイレ","province":"東京都","city":"町田市","address":"東京都町田市南成瀬1-1","lat":35.53571333,"lon":139.4731798},{"name":"ファミリーマート 町田高ヶ坂店","province":"東京都","city":"町田市","address":"東京都町田市高ヶ坂5-12-17","lat":35.54209819,"lon":139.4593521},{"name":"町田新産業創造センター","province":"東京都","city":"町田市","address":"東京都町田市中町1-4-2","lat":35.54713611,"lon":139.4445764},{"name":"セブンイレブン 本町田店","province":"東京都","city":"町田市","address":"東京都町田市本町田3239","lat":35.57305744,"lon":139.4433276},{"name":"アスク木曽西保育園","province":"東京都","city":"町田市","address":"東京都町田市木曽西3-18-2","lat":35.57286297,"lon":139.4191601},{"name":"セブンイレブン 町田大蔵店","province":"東京都","city":"町田市","address":"東京都町田市大蔵町560-1","lat":35.58851953,"lon":139.4594194},{"name":"もりたケアタクシー","province":"東京都","city":"町田市","address":"東京都町田市金森東1-19-1","lat":35.53654017,"lon":139.4633509},{"name":"スーパー三和 町田大谷店","province":"東京都","city":"町田市","address":"東京都町田市南大谷216-1","lat":35.55460214,"lon":139.458302},{"name":"原町田境橋横断歩道","province":"東京都","city":"町田市","address":"東京都町田市原町田1-6-23先","lat":35.53971586,"lon":139.4469679},{"name":"山王ガーデン入口横断歩道","province":"東京都","city":"町田市","address":"東京都町田市野津田3534先","lat":35.58510414,"lon":139.4454316},{"name":"桜美林大学裏横断歩道","province":"東京都","city":"町田市","address":"東京都町田市常盤町3758先","lat":35.58232856,"lon":139.4054519},{"name":"木曽中央横断歩道","province":"東京都","city":"町田市","address":"東京都町田市木曽西4-35-1先","lat":35.56916581,"lon":139.4218868},{"name":"昭和シェル町田山崎店前交差点","province":"東京都","city":"町田市","address":"東京都町田市山崎町1-1-10先","lat":35.56808017,"lon":139.4273656},{"name":"ウエルパーク町田金森店","province":"東京都","city":"町田市","address":"東京都町田市金森3-7-20","lat":35.52726122,"lon":139.4592789},{"name":"ファミリーマートFCサンズ原町田三丁目店","province":"東京都","city":"町田市","address":"東京都町田市原町田3-4-16","lat":35.54014069,"lon":139.451356},{"name":"スギ薬局原町田店","province":"東京都","city":"町田市","address":"東京都町田市原町田3-4-2","lat":35.54037261,"lon":139.4514063},{"name":"セブンイレブン町田南成瀬さくら通り店","province":"東京都","city":"町田市","address":"東京都町田市南成瀬6-22-2","lat":35.53182992,"lon":139.4798293},{"name":"ローソン町田小山町店","province":"東京都","city":"町田市","address":"東京都町田市小山町1165-1","lat":35.59534744,"lon":139.3720022},{"name":"おやま内科クリニック","province":"東京都","city":"町田市","address":"東京都町田市小山町233-1","lat":35.59119228,"lon":139.3870966},{"name":"セブンイレブン町田成瀬台三丁目店","province":"東京都","city":"町田市","address":"東京都町田市成瀬台3-8-7","lat":35.55457522,"lon":139.4782797},{"name":"リアンレーヴ町田","province":"東京都","city":"町田市","address":"東京都町田市金井1-7-14","lat":35.57381319,"lon":139.4524372},{"name":"市立 山崎保育園","province":"東京都","city":"町田市","address":"東京都町田市山崎1-2-14","lat":35.56861997,"lon":139.4290261},{"name":"町田シバヒロ","province":"東京都","city":"町田市","address":"東京都町田市中町1-20-23","lat":35.54813458,"lon":139.4467484},{"name":"スズキアリーナ多摩境","province":"東京都","city":"町田市","address":"東京都町田市小山ヶ丘2-2-9","lat":35.602702,"lon":139.3748042},{"name":"セブンイレブン 町田街道鶴間店","province":"東京都","city":"町田市","address":"東京都町田市南町田5-3-53","lat":35.51338478,"lon":139.4748283},{"name":"医療対応住宅ケアホスピス根岸","province":"東京都","city":"町田市","address":"東京都町田市根岸2-30-10","lat":35.57507767,"lon":139.4156333},{"name":"ベルク町田野津田店","province":"東京都","city":"町田市","address":"東京都町田市野津田町230","lat":35.58529572,"lon":139.4366898},{"name":"きららデイリハてをつなごう","province":"東京都","city":"町田市","address":"東京都町田市忠生1-5-3","lat":35.57403247,"lon":139.4248728},{"name":"東平しらゆり保育園","province":"東京都","city":"町田市","address":"東京都町田市広袴町542","lat":35.59375347,"lon":139.4755055},{"name":"介護保険タクシー 青い海","province":"東京都","city":"町田市","address":"東京都町田市忠生1-28-7","lat":35.57611936,"lon":139.4191308},{"name":"ピースガーデン町田","province":"東京都","city":"町田市","address":"東京都町田市野津田町2543-9","lat":35.58728419,"lon":139.4514451},{"name":"ファミリーマート 金森町田街道店","province":"東京都","city":"町田市","address":"東京都町田市金森2-39-7","lat":35.53040558,"lon":139.4616221},{"name":"日産東京販売株式会社　多摩境店","province":"東京都","city":"町田市","address":"東京都町田市小山町1188-7","lat":35.5957575,"lon":139.3727464},{"name":"町田税務署入口信号機","province":"東京都","city":"町田市","address":"東京都町田市中町1-20-23先","lat":35.54813458,"lon":139.4467484},{"name":"中町一丁目横断歩道","province":"東京都","city":"町田市","address":"東京都町田市中町1-22-8先","lat":35.54955006,"lon":139.4462726},{"name":"町田一中前横断歩道","province":"東京都","city":"町田市","address":"東京都町田市中町1-26-13先","lat":35.55071569,"lon":139.4452795},{"name":"有限会社 グッドサービス","province":"東京都","city":"町田市","address":"東京都町田市木曽町500","lat":35.56072531,"lon":139.4293681},{"name":"学校法人相原保善学園あいはら幼稚園","province":"東京都","city":"町田市","address":"東京都町田市相原町4445-3","lat":35.61252842,"lon":139.2927129},{"name":"セブンイレブン町田芝溝街道店","province":"東京都","city":"町田市","address":"東京都町田市野津田町810-1","lat":35.58778242,"lon":139.449519},{"name":"浄運寺前信号機","province":"東京都","city":"町田市","address":"東京都町田市原町田6-21先","lat":35.54315556,"lon":139.4482269},{"name":"ファミリーマート町田大蔵町店","province":"東京都","city":"町田市","address":"東京都町田市大蔵町955","lat":35.58841558,"lon":139.4659809},{"name":"常照寺見真堂","province":"東京都","city":"町田市","address":"東京都町田市真光寺町337-21","lat":35.60255142,"lon":139.4594045},{"name":"ファミリーマート町田南大谷店","province":"東京都","city":"町田市","address":"東京都町田市南大谷722-3","lat":35.55338725,"lon":139.4658105},{"name":"トヨタモビリティ東京株式会社 町田中町店","province":"東京都","city":"町田市","address":"東京都町田市中町2-14-15","lat":35.55222553,"lon":139.4437797},{"name":"京王自動車　町田営業所","province":"東京都","city":"町田市","address":"東京都町田市旭町3-3-16","lat":35.55626322,"lon":139.4449493},{"name":"セブンイレブン町田小山ヶ丘4丁目店","province":"東京都","city":"町田市","address":"東京都町田市小山ヶ丘4-9-2","lat":35.60691431,"lon":139.3524332},{"name":"セブンイレブン町田小山ヶ丘6丁目店","province":"東京都","city":"町田市","address":"東京都町田市小山ヶ丘6-2-1","lat":35.609852,"lon":139.3450996},{"name":"黎音","province":"東京都","city":"町田市","address":"東京都町田市藤の台1-1-50-101","lat":35.57047389,"lon":139.4499485},{"name":"クリエイトSD町田木曽西店","province":"東京都","city":"町田市","address":"東京都町田市木曽西5-6-3","lat":35.56803775,"lon":139.4268406},{"name":"クリエイトSD新町田小山店","province":"東京都","city":"町田市","address":"東京都町田市小山町772-5","lat":35.59138828,"lon":139.3811459},{"name":"クリエイトSD町田金井木倉店","province":"東京都","city":"町田市","address":"東京都町田市金井2-19-19","lat":35.57322775,"lon":139.4574993},{"name":"セブンイレブン 町田鶴川団地店","province":"東京都","city":"町田市","address":"東京都町田市鶴川5-7-7","lat":35.59310636,"lon":139.4681876},{"name":"美容室 カシュカシュ","province":"東京都","city":"町田市","address":"東京都町田市鶴川5-7-7","lat":35.59310636,"lon":139.4681876},{"name":"ファミリーマート FC東名町田店","province":"東京都","city":"町田市","address":"東京都町田市小川7-8-6","lat":35.51241897,"lon":139.4760467},{"name":"セブンイレブン 南町田駅北口店","province":"東京都","city":"町田市","address":"東京都町田市鶴間1-16-10","lat":35.51183625,"lon":139.4702703},{"name":"さぬき診療所","province":"東京都","city":"町田市","address":"東京都町田市小川2-25-14成瀬メディカルヴィレッジ1階","lat":35.53128533,"lon":139.4716709},{"name":"和食レストラン とんでん 南成瀬店","province":"東京都","city":"町田市","address":"東京都町田市南成瀬4-2-16","lat":35.5387685,"lon":139.47393},{"name":"町田整形外科","province":"東京都","city":"町田市","address":"東京都町田市森野2-7-7","lat":35.54774261,"lon":139.4370581},{"name":"薬師台メディカルTERRACE","province":"東京都","city":"町田市","address":"東京都町田市薬師台1-25-12","lat":35.57780192,"lon":139.4549028},{"name":"鶴川リハビリテーション病院","province":"東京都","city":"町田市","address":"東京都町田市三輪町1129","lat":35.57264108,"lon":139.4959552},{"name":"幼保連携型認定こども園さふらん","province":"東京都","city":"町田市","address":"東京都町田市本町田2441町田木曽団地内","lat":35.56535089,"lon":139.4373554},{"name":"鶴が丘ガーデンホスピタル","province":"東京都","city":"町田市","address":"東京都町田市三輪緑山2-2133-1","lat":35.571689,"lon":139.4837825},{"name":"住宅型有料老人ホーム 福寿まちだ山崎","province":"東京都","city":"町田市","address":"東京都町田市山崎町338-1","lat":35.57933036,"lon":139.4321429},{"name":"セブンイレブン町田木曽東1丁目店","province":"東京都","city":"町田市","address":"東京都町田市木曽東1-7-5","lat":35.55795825,"lon":139.4315844},{"name":"セブンイレブン町田常盤店","province":"東京都","city":"町田市","address":"東京都町田市常盤町3163-4","lat":35.58669694,"lon":139.3933688},{"name":"セブンイレブン町田木曽西1丁目店","province":"東京都","city":"町田市","address":"東京都町田市木曽西1-18-2","lat":35.56648169,"lon":139.418444},{"name":"ワークマンプラス町田金井店","province":"東京都","city":"町田市","address":"東京都町田市金井ヶ丘2-2-5","lat":35.57266592,"lon":139.4609364},{"name":"SOMPO ケア ラヴィーレ町田小野路","province":"東京都","city":"町田市","address":"東京都町田市小野路町1612","lat":35.5969775,"lon":139.4457656},{"name":"特別養護老人ホームかりん・町田","province":"東京都","city":"町田市","address":"東京都町田市忠生1-2-7","lat":35.57283711,"lon":139.4211924},{"name":"良藤醫院","province":"東京都","city":"町田市","address":"東京都町田市南大谷748-21","lat":35.55474464,"lon":139.4635342},{"name":"セブンイレブン町田市木曽町店","province":"東京都","city":"町田市","address":"東京都町田市木曽東4-2-2","lat":35.56238053,"lon":139.4283137},{"name":"セブンイレブン町田木曽東4丁目店","province":"東京都","city":"町田市","address":"東京都町田市木曽東4-20-18","lat":35.56475864,"lon":139.4263093},{"name":"SOMPO ケア ラヴィーレ町田小山","province":"東京都","city":"町田市","address":"東京都町田市小山町652","lat":35.59043892,"lon":139.3861858},{"name":"医療法人社団 三友会 あけぼの病院","province":"東京都","city":"町田市","address":"東京都町田市中町1-23-3","lat":35.5497075,"lon":139.4456146},{"name":"南第3高齢者支援センター（正吉苑）","province":"東京都","city":"町田市","address":"東京都町田市西成瀬2-48-23","lat":35.54341492,"lon":139.4716659},{"name":"ファミリーマート町田本町田店","province":"東京都","city":"町田市","address":"東京都町田市本町田4394-1","lat":35.55782211,"lon":139.4545029},{"name":"セブンイレブン 町田能ヶ谷4丁目店","province":"東京都","city":"町田市","address":"東京都町田市能ヶ谷4-6-1","lat":35.58775831,"lon":139.481051},{"name":"マルエツ町田鶴川店","province":"東京都","city":"町田市","address":"東京都町田市大蔵町443","lat":35.58802389,"lon":139.4643791},{"name":"Zelvia X Kitchen","province":"東京都","city":"町田市","address":"東京都町田市野津田町919","lat":35.58873861,"lon":139.4536264},{"name":"ミニストップ町田山崎団地店","province":"東京都","city":"町田市","address":"東京都町田市山崎町1314-1","lat":35.57579822,"lon":139.4337067},{"name":"川田デンタルオフィス","province":"東京都","city":"町田市","address":"東京都町田市旭町3-1-15旭町メディカルビル4F","lat":35.55525175,"lon":139.4444145},{"name":"すずき脳神経外科クリニック","province":"東京都","city":"町田市","address":"東京都町田市旭町3-1-15旭町メディカルビル2F","lat":35.55525175,"lon":139.4444145},{"name":"ローソン町田根岸町店","province":"東京都","city":"町田市","address":"東京都町田市根岸町1009-8","lat":35.57923306,"lon":139.4069546},{"name":"セブンイレブン原町田5丁目店","province":"東京都","city":"町田市","address":"東京都町田市原町田5-3-10","lat":35.545875,"lon":139.4495199},{"name":"ビーバープロ町田木曽店","province":"東京都","city":"町田市","address":"東京都町田市木曽西3-26-7","lat":35.57117433,"lon":139.4202939},{"name":"玉川学園コミュニティバス「玉ちゃんバス」南ルート","province":"東京都","city":"町田市","address":"東京都町田市森野2-2-22(町田市役所)","lat":35.54674817,"lon":139.4385724},{"name":"でんかのヤマグチ根岸店","province":"東京都","city":"町田市","address":"東京都町田市根岸1-13-15","lat":35.57314253,"lon":139.4132013},{"name":"スズキアリーナ町田旭町","province":"東京都","city":"町田市","address":"東京都町田市旭町3-4-16","lat":35.55565786,"lon":139.4440077},{"name":"むつみ歯科医院","province":"東京都","city":"町田市","address":"東京都町田市木曽西2-13-7","lat":35.57206158,"lon":139.4144804},{"name":"ヘルパーステーション相原デイサービスセンター","province":"東京都","city":"町田市","address":"東京都町田市相原町4-5","lat":35.60362703,"lon":139.3453521},{"name":"デイサービス ゆらり","province":"東京都","city":"町田市","address":"東京都町田市本町田3307-4","lat":35.57047472,"lon":139.4431183},{"name":"デイサービス 南大谷","province":"東京都","city":"町田市","address":"東京都町田市南大谷264都営南大谷アパート4号棟","lat":35.55320822,"lon":139.4577793},{"name":"セブンイレブン町田玉川学園5丁目店","province":"東京都","city":"町田市","address":"東京都町田市玉川学園5-1-3","lat":35.56524497,"lon":139.4631567},{"name":"福祉タクシー　なるせ","province":"東京都","city":"町田市","address":"東京都町田市成瀬台2-14-6","lat":35.55370944,"lon":139.4771678},{"name":"リハテラス成瀬","province":"東京都","city":"町田市","address":"東京都町田市南成瀬1-6-9カワタビル1101","lat":35.53755947,"lon":139.4696326},{"name":"町田JORNA","province":"東京都","city":"町田市","address":"東京都町田市原町田6-6-14","lat":35.54215017,"lon":139.4471046},{"name":"すぎ内科・糖尿病クリニック","province":"東京都","city":"町田市","address":"東京都町田市原町田4-14-14Lifixビル1F","lat":35.54226572,"lon":139.4503933},{"name":"ASK調剤薬局","province":"東京都","city":"町田市","address":"東京都町田市原町田4-14-14Lifixビル1F","lat":35.54226572,"lon":139.4503933},{"name":"ファミリーマートFC版画美術館入口店","province":"東京都","city":"町田市","address":"東京都町田市原町田3-15-1","lat":35.54279206,"lon":139.4528259},{"name":"セブンイレブン原町田4丁目店","province":"東京都","city":"町田市","address":"東京都町田市原町田4-11-18","lat":35.542633,"lon":139.4488713},{"name":"Lifix医療ビル","province":"東京都","city":"町田市","address":"東京都町田市原町田4-14-14Lifixビル2階","lat":35.54226572,"lon":139.4503933},{"name":"なかはら脳神経クリニック","province":"東京都","city":"町田市","address":"東京都町田市原町田4-14-14Lifixビル1F","lat":35.54226572,"lon":139.4503933},{"name":"リハテラス大蔵","province":"東京都","city":"町田市","address":"東京都町田市大蔵町549-1中溝ビル1・2F","lat":35.5891035,"lon":139.4603269},{"name":"関東マツダ町田滝の沢ユーカーランド","province":"東京都","city":"町田市","address":"東京都町田市木曽東1-13-40","lat":35.5580035,"lon":139.4323219},{"name":"ファミリーマート町田能ヶ谷町店","province":"東京都","city":"町田市","address":"東京都町田市能ヶ谷4-19-15","lat":35.58526625,"lon":139.4860321},{"name":"リハテラス根岸","province":"東京都","city":"町田市","address":"東京都町田市根岸1-12-12","lat":35.57342431,"lon":139.4129714},{"name":"らいおんハートジップリハパーク","province":"東京都","city":"町田市","address":"東京都町田市三輪緑山1-3-1","lat":35.57306111,"lon":139.4890616},{"name":"セブンイレブン町田森野3丁目店","province":"東京都","city":"町田市","address":"東京都町田市森野3-3-21","lat":35.55168019,"lon":139.4389381},{"name":"牛角食べ放題専門店多摩境店","province":"東京都","city":"町田市","address":"東京都町田市小山ヶ丘4-1-5","lat":35.60332047,"lon":139.3649236},{"name":"町田市 鶴川地域障がい者支援センター","province":"東京都","city":"町田市","address":"東京都町田市能ヶ谷3-2-1","lat":35.58466744,"lon":139.486095},{"name":"町田市 堺地域障がい者支援センター","province":"東京都","city":"町田市","address":"東京都町田市小山町1234-1","lat":35.5962075,"lon":139.3749269},{"name":"子どもセンターぱお分館　WAAAO","province":"東京都","city":"町田市","address":"東京都町田市小山ヶ丘4-1-13ゲートヒルズ多摩境パークフロント3階","lat":35.60437775,"lon":139.3671777},{"name":"町田市役所前横断歩道","province":"東京都","city":"町田市","address":"東京都町田市森野2-2-45先","lat":35.54670953,"lon":139.4403502},{"name":"セブンイレブン 町田真光寺店","province":"東京都","city":"町田市","address":"東京都町田市真光寺3-21-20","lat":35.59960989,"lon":139.4662552},{"name":"鶴川駅広場前交差点","province":"東京都","city":"町田市","address":"東京都町田市能ヶ谷1-6-9先","lat":35.58383322,"lon":139.4814212},{"name":"クリエイトSD町田木曽西店前横断歩道","province":"東京都","city":"町田市","address":"東京都町田市木曽東4-28-19先","lat":35.56751292,"lon":139.4264426},{"name":"清住の杜町田","province":"東京都","city":"町田市","address":"東京都町田市下小山田町2735-4","lat":35.59371708,"lon":139.4086911},{"name":"町田の丘学園山崎校舎","province":"東京都","city":"町田市","address":"東京都町田市山崎1-2-17","lat":35.5688035,"lon":139.4283216},{"name":"エクセレント町田","province":"東京都","city":"町田市","address":"東京都町田市常盤町2955-1","lat":35.58925947,"lon":139.3956328},{"name":"すずかけ台駅西交差点","province":"東京都","city":"町田市","address":"東京都町田市つくし野3-2先","lat":35.52346394,"lon":139.4787621},{"name":"つくし野駅前交差点","province":"東京都","city":"町田市","address":"東京都町田市つくし野1-22-1先","lat":35.52839264,"lon":139.4841533},{"name":"成瀬駅南交差点","province":"東京都","city":"町田市","address":"東京都町田市成瀬が丘2-30-4先","lat":35.535402,"lon":139.4701391},{"name":"成瀬駅ガード南交差点","province":"東京都","city":"町田市","address":"東京都町田市成瀬が丘2-1-13先","lat":35.5342105,"lon":139.4735617},{"name":"つくし野中交差点","province":"東京都","city":"町田市","address":"東京都町田市南つくし野3-9-6先","lat":35.51788894,"lon":139.4786662},{"name":"南成瀬一丁目交差点","province":"東京都","city":"町田市","address":"東京都町田市南成瀬1-8-1先","lat":35.53721517,"lon":139.4710306},{"name":"南成瀬駅前広場横断歩道","province":"東京都","city":"町田市","address":"東京都町田市南成瀬1-2-1先","lat":35.53653281,"lon":139.4738959},{"name":"森野一丁目横断歩道","province":"東京都","city":"町田市","address":"東京都町田市森野1-11-16先","lat":35.54490186,"lon":139.4421505},{"name":"町田バスターミナル横断歩道","province":"東京都","city":"町田市","address":"東京都町田市原町田4-7-14先","lat":35.54093308,"lon":139.4491851},{"name":"町田バスターミナル西横断歩道","province":"東京都","city":"町田市","address":"東京都町田市原町田4-3-8先","lat":35.54139292,"lon":139.4478173},{"name":"スギ薬局南町田店","province":"東京都","city":"町田市","address":"東京都町田市南町田1-13-50","lat":35.52041058,"lon":139.4669884},{"name":"スマイル本町田","province":"東京都","city":"町田市","address":"東京都町田市本町田1747-1","lat":35.55995397,"lon":139.4372511},{"name":"町田ドライヴィングスクール","province":"東京都","city":"町田市","address":"東京都町田市南大谷1-55","lat":35.55352339,"lon":139.4566049},{"name":"セブンイレブン原町田大通り店","province":"東京都","city":"町田市","address":"東京都町田市原町田6-23-3","lat":35.5439915,"lon":139.4489795},{"name":"アグリハウスさかい","province":"東京都","city":"町田市","address":"東京都町田市相原町675","lat":35.60614108,"lon":139.3388108},{"name":"トヨタS&D西東京株式会社　鶴川店","province":"東京都","city":"町田市","address":"東京都町田市金井8-24-21","lat":35.57965089,"lon":139.4693812},{"name":"Dr．Driveセルフ忠生店","province":"東京都","city":"町田市","address":"東京都町田市忠生1-21-5","lat":35.57710231,"lon":139.4210496},{"name":"ひかりの子保育園コミュニティー施設ノエル","province":"東京都","city":"町田市","address":"東京都町田市木曽西1-34-1","lat":35.56687,"lon":139.4152701},{"name":"ファミリーマート町田山崎町店","province":"東京都","city":"町田市","address":"東京都町田市山崎町2179-4","lat":35.57023647,"lon":139.4384486},{"name":"グランハート町田B棟クリニックモール","province":"東京都","city":"町田市","address":"東京都町田市山崎町2055-2","lat":35.57133631,"lon":139.4317859},{"name":"グランハート町田C棟コミュニティモール","province":"東京都","city":"町田市","address":"東京都町田市山崎町2055-2","lat":35.57133631,"lon":139.4317859},{"name":"住宅型有料老人ホーム 福寿まちだ根岸","province":"東京都","city":"町田市","address":"東京都町田市根岸町1001-19","lat":35.57676708,"lon":139.4079858},{"name":"トヨタモビリティ東京 町田金井店","province":"東京都","city":"町田市","address":"東京都町田市金井ヶ丘2-23-21","lat":35.57232011,"lon":139.4626663},{"name":"ニーズセンター「花の家」","province":"東京都","city":"町田市","address":"東京都町田市下小山田町3267-2","lat":35.58575653,"lon":139.4107277},{"name":"セブンイレブン町田桜美林学園北店","province":"東京都","city":"町田市","address":"東京都町田市常盤町3650","lat":35.58331078,"lon":139.4069118},{"name":"特別養護老人ホーム レガメ町田","province":"東京都","city":"町田市","address":"東京都町田市南大谷1179-1","lat":35.55088253,"lon":139.4596786},{"name":"ファミリーマート町田成瀬が丘店","province":"東京都","city":"町田市","address":"東京都町田市成瀬が丘1-30-2","lat":35.53330761,"lon":139.4735944},{"name":"ローソン町田忠生二丁目店","province":"東京都","city":"町田市","address":"東京都町田市忠生2-28-9","lat":35.5783665,"lon":139.4207242},{"name":"グランベリーパーク郵便局","province":"東京都","city":"町田市","address":"東京都町田市鶴間3-3-1","lat":35.5110035,"lon":139.4703818},{"name":"ファミリーマート秀栄相原町店","province":"東京都","city":"町田市","address":"東京都町田市相原町字武蔵岡3621-1","lat":35.61001706,"lon":139.2989492},{"name":"東日本宇佐美246つくし野横浜インター","province":"東京都","city":"町田市","address":"東京都町田市つくし野4-36-1","lat":35.51929828,"lon":139.4844963},{"name":"桜美林ガーデンヒルズ サクラれすとらん","province":"東京都","city":"町田市","address":"東京都町田市小山ヶ丘1-14-1","lat":35.59531533,"lon":139.3889556},{"name":"セブンイレブン町田忠生4丁目店","province":"東京都","city":"町田市","address":"東京都町田市忠生4-4-1","lat":35.57916708,"lon":139.4117744},{"name":"リハステーション木曽西","province":"東京都","city":"町田市","address":"東京都町田市木曽西2-18-18","lat":35.56824467,"lon":139.4152923},{"name":"セブンイレブン南町田1丁目店","province":"東京都","city":"町田市","address":"東京都町田市南町田1-21-5","lat":35.51946831,"lon":139.4654732},{"name":"セブンイレブン町田小山店","province":"東京都","city":"町田市","address":"東京都町田市小山町2502-1","lat":35.59766956,"lon":139.367918},{"name":"安藤整形外科・形成外科","province":"東京都","city":"町田市","address":"東京都町田市成瀬4-1-1","lat":35.54335922,"lon":139.4749588},{"name":"しながわ内科・循環器クリニック","province":"東京都","city":"町田市","address":"東京都町田市山崎町333-1","lat":35.57901922,"lon":139.432188},{"name":"セブンイレブン町田高ヶ坂2丁目店","province":"東京都","city":"町田市","address":"東京都町田市高ヶ坂2-36-24","lat":35.54100158,"lon":139.4583161},{"name":"ただお整形外科・内科","province":"東京都","city":"町田市","address":"東京都町田市忠生2-28-5","lat":35.5782445,"lon":139.4203444},{"name":"ローソン町田図師店","province":"東京都","city":"町田市","address":"東京都町田市図師町612","lat":35.58128939,"lon":139.4170985},{"name":"ドコモショップ成瀬店","province":"東京都","city":"町田市","address":"東京都町田市成瀬7-3-8","lat":35.54316628,"lon":139.4742566},{"name":"ドコモショップ町田忠生店","province":"東京都","city":"町田市","address":"東京都町田市根岸2-33-17","lat":35.57544947,"lon":139.4163716},{"name":"ケアタクシーYUKARI（株）Reason to live support","province":"東京都","city":"町田市","address":"東京都町田市成瀬台3-8-17","lat":35.55493517,"lon":139.4784129},{"name":"ケアタクシーつるまき","province":"東京都","city":"町田市","address":"東京都町田市多摩市鶴牧3-2-1612","lat":35.58125442,"lon":139.4023574},{"name":"介護・福祉タクシー　ふく","province":"東京都","city":"町田市","address":"東京都町田市小野路町1747","lat":35.9999995,"lon":139.8333393},{"name":"とんから亭町田旭店","province":"東京都","city":"町田市","address":"東京都町田市旭町1-20","lat":35.55595442,"lon":139.4398169},{"name":"町田市 忠生地域障がい者支援センター","province":"東京都","city":"町田市","address":"東京都町田市図師町1677-1","lat":35.58286686,"lon":139.4256318},{"name":"町田市 町田地域障がい者支援センター","province":"東京都","city":"町田市","address":"東京都町田市原町田5-4-3第2大塚ビル1F101","lat":35.54499161,"lon":139.4494784},{"name":"ディサービス玉川学園くつろぎ","province":"東京都","city":"町田市","address":"東京都町田市玉川学園3-35-1","lat":35.56339711,"lon":139.4585391},{"name":"やすおか医院","province":"東京都","city":"町田市","address":"東京都町田市原町田4-14-17","lat":35.54229992,"lon":139.4501339},{"name":"セブンイレブン町田金井ヶ丘店","province":"東京都","city":"町田市","address":"東京都町田市金井ヶ丘2-24-9","lat":35.57215047,"lon":139.4640011},{"name":"カフェ　セミニョン","province":"東京都","city":"町田市","address":"東京都町田市旭町1-23-2生活クラブ館まちだ1F","lat":35.55514433,"lon":139.4418454},{"name":"スギ薬局グループ町田森野店","province":"東京都","city":"町田市","address":"東京都町田市森野6-56-1","lat":35.55217156,"lon":139.4289355},{"name":"ファミリーマート町田あけぼの病院前店","province":"東京都","city":"町田市","address":"東京都町田市中町1-10-16","lat":35.54930933,"lon":139.4449836},{"name":"つなぐカフェオリーブ町田中町","province":"東京都","city":"町田市","address":"東京都町田市中町1-11-12ウエリスオリーブ町田中町2F","lat":35.54884336,"lon":139.4453307},{"name":"こころのホスピタル町田","province":"東京都","city":"町田市","address":"東京都町田市上小山田町2140","lat":35.59843678,"lon":139.3890227},{"name":"ファミリーマート町田金井町店","province":"東京都","city":"町田市","address":"東京都町田市金井ヶ丘4-1-21","lat":35.57786139,"lon":139.4702674},{"name":"SUPERCOOL and RICO.","province":"東京都","city":"町田市","address":"東京都町田市小山町928-9","lat":35.59288525,"lon":139.378511},{"name":"町田消防署","province":"東京都","city":"町田市","address":"東京都町田市本町田2380-3","lat":35.56398642,"lon":139.4378216},{"name":"サンドラッグ町田南大谷店","province":"東京都","city":"町田市","address":"東京都町田市南大谷41-2","lat":35.55579031,"lon":139.4549021},{"name":"グランハート悠々園","province":"東京都","city":"町田市","address":"東京都町田市山崎町2055-1","lat":35.9999995,"lon":139.8333393},{"name":"ファミリーマート町田中町三丁目店","province":"東京都","city":"町田市","address":"東京都町田市中町3-14-7","lat":35.55008475,"lon":139.451053},{"name":"セブンイレブン町田本町田中町店","province":"東京都","city":"町田市","address":"東京都町田市本町田250-1","lat":35.55558147,"lon":139.4489431},{"name":"ドコモショップ町田小山店","province":"東京都","city":"町田市","address":"東京都町田市小山町617-1","lat":35.59121161,"lon":139.3841054},{"name":"デイサービス ラスベガス町田木曽","province":"東京都","city":"町田市","address":"東京都町田市木曽東4-10-25","lat":35.56393017,"lon":139.4322169},{"name":"三輪の森ビジターセンター","province":"東京都","city":"町田市","address":"東京都町田市三輪町740","lat":35.57299486,"lon":139.5030814},{"name":"セブンイレブン町田相原駅西店","province":"東京都","city":"町田市","address":"東京都町田市相原町1264-4","lat":35.60475636,"lon":139.3291061},{"name":"セブンイレブン南町田店","province":"東京都","city":"町田市","address":"東京都町田市鶴間5-10-1","lat":35.50513067,"lon":139.4737469},{"name":"ファミリーマート町田金森店","province":"東京都","city":"町田市","address":"東京都町田市金森2-30-3","lat":35.53033489,"lon":139.4578286},{"name":"緑ヶ丘グラウンド","province":"東京都","city":"町田市","address":"東京都町田市本町田2380-6","lat":35.56556106,"lon":139.4425696},{"name":"ウエルシア町田相原店","province":"東京都","city":"町田市","address":"東京都町田市相原町3336-1","lat":35.61066236,"lon":139.2971359},{"name":"ローソン町田相原駅西口店","province":"東京都","city":"町田市","address":"東京都町田市相原町1165-1","lat":35.60692358,"lon":139.3311585},{"name":"ウエルシア町田境川店","province":"東京都","city":"町田市","address":"東京都町田市木曽東2-10-1","lat":35.55896161,"lon":139.4235651},{"name":"ローソン町田本町田店","province":"東京都","city":"町田市","address":"東京都町田市本町田823-1","lat":35.56030394,"lon":139.4487593},{"name":"ノジマショッピングモールままともプラザ町田","province":"東京都","city":"町田市","address":"東京都町田市旭町1-24-1","lat":35.55501944,"lon":139.4427043},{"name":"ローソン町田常盤町店","province":"東京都","city":"町田市","address":"東京都町田市常盤町3518","lat":35.58422828,"lon":139.4005435},{"name":"日産東京販売株式会社　町田南店","province":"東京都","city":"町田市","address":"東京都町田市金森4-2-22","lat":35.52533836,"lon":139.4663081},{"name":"JOYSOUND  小田急町田北口店","province":"東京都","city":"町田市","address":"東京都町田市森野1-39グランドゥールビル(受付4階)","lat":35.54501683,"lon":139.4451068},{"name":"ホンダカーズ東京中央町田南店","province":"東京都","city":"町田市","address":"東京都町田市金森4-2-18","lat":35.52559897,"lon":139.4657872},{"name":"トヨタS&D西東京株式会社　町田南店","province":"東京都","city":"町田市","address":"東京都町田市小川5-9-7","lat":35.52367583,"lon":139.4687125},{"name":"ワーカーズコープけやき","province":"東京都","city":"町田市","address":"東京都町田市本町田1872-1","lat":35.56308597,"lon":139.4320946},{"name":"グループホームさるびあ","province":"東京都","city":"町田市","address":"東京都町田市南大谷1143-1","lat":35.55168203,"lon":139.4604978},{"name":"保坂眼科","province":"東京都","city":"町田市","address":"東京都町田市中町4-20-6","lat":35.55643358,"lon":139.4476508},{"name":"Tomei-Yokohama  BMW 町田鶴川支店","province":"東京都","city":"町田市","address":"東京都町田市野津田町2413-6","lat":35.58578447,"lon":139.4493515},{"name":"MINI Machida-Tsurukawa","province":"東京都","city":"町田市","address":"東京都町田市野津田町2413-6","lat":35.58578447,"lon":139.4493515},{"name":"ファミリーマート町田忠生店","province":"東京都","city":"町田市","address":"東京都町田市忠生1-27-8","lat":35.57529056,"lon":139.4182291},{"name":"スターバックスコーヒージャパン町田金森店","province":"東京都","city":"町田市","address":"東京都町田市金森3-1-10","lat":35.52990236,"lon":139.4620885},{"name":"タイヤ館多摩境店","province":"東京都","city":"町田市","address":"東京都町田市小山町1186-4","lat":35.59591447,"lon":139.3723022},{"name":"CAFE/B factory","province":"東京都","city":"町田市","address":"東京都町田市山崎町1877-1","lat":35.5724365,"lon":139.4270911},{"name":"住宅型有料老人ホームばんば デイサービスばんば","province":"東京都","city":"町田市","address":"東京都町田市小山町40-4","lat":35.58685092,"lon":139.3904845},{"name":"牧内科医院","province":"東京都","city":"町田市","address":"東京都町田市山崎町1921-1","lat":35.57166911,"lon":139.4285357},{"name":"東日本三菱自動車販売株式会社　東名町田店","province":"東京都","city":"町田市","address":"東京都町田市南町田2-4-1","lat":35.51921939,"lon":139.4717388},{"name":"CoCo壱番屋　町田金森店","province":"東京都","city":"町田市","address":"東京都町田市金森東2-10-11","lat":35.53122081,"lon":139.4621497},{"name":"鍼灸マッサージ～憩～SCC図師","province":"東京都","city":"町田市","address":"東京都町田市図師町604-3","lat":35.58104197,"lon":139.4170749},{"name":"アグリハウスみなみ","province":"東京都","city":"町田市","address":"東京都町田市金森4-5-3","lat":35.52380372,"lon":139.4675251},{"name":"医療法人社団にし整形外科","province":"東京都","city":"町田市","address":"東京都町田市小川3-2-68","lat":35.52443297,"lon":139.4678997},{"name":"ミニストップ町田小川店","province":"東京都","city":"町田市","address":"東京都町田市小川6-13-7","lat":35.51957317,"lon":139.4723623},{"name":"宮内歯科医院","province":"東京都","city":"町田市","address":"東京都町田市南つくし野3-10-23","lat":35.51818353,"lon":139.4787075},{"name":"セレモニーハウス町田","province":"東京都","city":"町田市","address":"東京都町田市旭町2-8-7","lat":35.55783053,"lon":139.4333014},{"name":"町田駅東どひ歯科口腔外科","province":"東京都","city":"町田市","address":"東京都町田市中町1-2-16プライム町田1F","lat":35.54627078,"lon":139.4457018},{"name":"高村歯科医院","province":"東京都","city":"町田市","address":"東京都町田市小川3-2-5","lat":35.52529356,"lon":139.4679917},{"name":"Oluolu Aina  オルオルアイナ","province":"東京都","city":"町田市","address":"東京都町田市大蔵町2790-1","lat":35.58737931,"lon":139.4593398},{"name":"東建コーポレーション町田支店","province":"東京都","city":"町田市","address":"東京都町田市根岸町1012-5レスパスアグレアーブル1F","lat":35.57877864,"lon":139.4090851},{"name":"つくし野耳鼻咽喉科","province":"東京都","city":"町田市","address":"東京都町田市小川1-2-32","lat":35.52666844,"lon":139.4749789},{"name":"トヨタモビリティ東京株式会社 南町田店","province":"東京都","city":"町田市","address":"東京都町田市小川6-24-1","lat":35.51808833,"lon":139.4728302},{"name":"とくとみ歯科","province":"東京都","city":"町田市","address":"東京都町田市成瀬8-4-12","lat":35.54293453,"lon":139.4664702},{"name":"木下内科胃腸科","province":"東京都","city":"町田市","address":"東京都町田市高ヶ坂3-7-11","lat":35.54673469,"lon":139.4571446},{"name":"西松屋　南町田店","province":"東京都","city":"町田市","address":"東京都町田市南町田5-1-7","lat":35.51490875,"lon":139.473685},{"name":"総合福祉ホーム芙蓉園","province":"東京都","city":"町田市","address":"東京都町田市南町田5-16-1","lat":35.51471564,"lon":139.4712589},{"name":"一般社団法人福祉心話会しんわ常盤事業所","province":"東京都","city":"町田市","address":"東京都町田市常盤町3196-11","lat":35.58585161,"lon":139.3942924},{"name":"稲垣耳鼻咽喉科医院","province":"東京都","city":"町田市","address":"東京都町田市原町田6-22-15","lat":35.54356739,"lon":139.4491844},{"name":"ふよう病院","province":"東京都","city":"町田市","address":"東京都町田市南町田3-43-1","lat":35.51547283,"lon":139.4718055},{"name":"東急ストアつくし野店","province":"東京都","city":"町田市","address":"東京都町田市つくし野1-30-1","lat":35.52769522,"lon":139.4841676},{"name":"ドトール珈琲農園 町田木曽町店","province":"東京都","city":"町田市","address":"東京都町田市木曽町495-1","lat":35.55951494,"lon":139.4303716},{"name":"洋麺屋 五右衛門町田木曽町店","province":"東京都","city":"町田市","address":"東京都町田市木曽町494-2","lat":35.55929217,"lon":139.4308737},{"name":"眼鏡市場　成瀬店","province":"東京都","city":"町田市","address":"東京都町田市西成瀬2-49-6","lat":35.54342589,"lon":139.4724107},{"name":"スギ薬局町田高ヶ坂店","province":"東京都","city":"町田市","address":"東京都町田市高ヶ坂5-15-14","lat":35.54263728,"lon":139.4609786},{"name":"スエヒロ館　鶴川店","province":"東京都","city":"町田市","address":"東京都町田市能ヶ谷1-8-3","lat":35.58441092,"lon":139.4837741},{"name":"忠生第一小学校東交差点","province":"東京都","city":"町田市","address":"東京都町田市忠生2-29先","lat":35.57867892,"lon":139.4200226},{"name":"下根岸交差点","province":"東京都","city":"町田市","address":"東京都町田市忠生3-14先","lat":35.57753008,"lon":139.4151782},{"name":"忠生農協北交差点","province":"東京都","city":"町田市","address":"東京都町田市忠生2-28先","lat":35.57821761,"lon":139.4206152},{"name":"藤の台球場・テニスコート","province":"東京都","city":"町田市","address":"東京都町田市本町田3486","lat":35.56882503,"lon":139.4479886},{"name":"サンドラッグ町田小川店","province":"東京都","city":"町田市","address":"東京都町田市小川4-22-3","lat":35.52659939,"lon":139.4737089},{"name":"市立中央図書館前交差点","province":"東京都","city":"町田市","address":"東京都町田市原町田3-2-2先","lat":35.54093325,"lon":139.449688},{"name":"成瀬駅前交差点","province":"東京都","city":"町田市","address":"東京都町田市南成瀬1-3-5先","lat":35.53641867,"lon":139.4724403},{"name":"成瀬駅東交差点","province":"東京都","city":"町田市","address":"東京都町田市南成瀬5-1-10先","lat":35.53689136,"lon":139.4744694},{"name":"町田市立総合体育館前交差点","province":"東京都","city":"町田市","address":"東京都町田市南成瀬5-3-6先","lat":35.53696844,"lon":139.4771148},{"name":"社会福祉法人　蓮倫会　小山保育園","province":"東京都","city":"町田市","address":"東京都町田市小山町954","lat":35.59302269,"lon":139.376952},{"name":"町田保健所入口交差点","province":"東京都","city":"町田市","address":"東京都町田市中町2-13-14先","lat":35.55166697,"lon":139.4443296},{"name":"榮通り中央交差点","province":"東京都","city":"町田市","address":"東京都町田市森野1-32-12先","lat":35.54781736,"lon":139.4433858},{"name":"森野新道交差点","province":"東京都","city":"町田市","address":"東京都町田市森野1-30-11先","lat":35.54691403,"lon":139.4419461},{"name":"ローソン町田高ヶ坂五丁目店","province":"東京都","city":"町田市","address":"東京都町田市高ヶ坂5-17-11","lat":35.54262756,"lon":139.4616533}]}