{"keyword":"一覧","data":[{"name":"サン町田旭体育館","province":"東京都","city":"町田市","address":"東京都町田市旭町3丁目20-60","lat":35.55634896,"lon":139.44662554},{"name":"鶴川市民センター","province":"東京都","city":"町田市","address":"東京都町田市大蔵町1981-4","lat":35.58888611,"lon":139.46739571},{"name":"小山市民センター","province":"東京都","city":"町田市","address":"東京都町田市小山町2507-1","lat":35.59715385,"lon":139.36896715},{"name":"南市民センター","province":"東京都","city":"町田市","address":"東京都町田市金森4丁目5-6","lat":35.5237481,"lon":139.4667696},{"name":"木曽森野コミュニティセンター","province":"東京都","city":"町田市","address":"東京都町田市木曽東1丁目2","lat":35.55656271,"lon":139.43028811},{"name":"水道局町田サービスステーション","province":"東京都","city":"町田市","address":"東京都町田市木曽東1丁目4-1","lat":35.55778481,"lon":139.43023252},{"name":"相原中央公園管理棟","province":"東京都","city":"町田市","address":"東京都町田市相原町2018","lat":35.60930444,"lon":139.31964321},{"name":"町田市立室内プール","province":"東京都","city":"町田市","address":"東京都町田市図師町199-1","lat":35.58627029,"lon":139.41303335},{"name":"忠生市民センター","province":"東京都","city":"町田市","address":"東京都町田市忠生3丁目14-2","lat":35.57836563,"lon":139.41603053},{"name":"つくし野コミュニティセンター","province":"東京都","city":"町田市","address":"東京都町田市つくし野2丁目26-5","lat":35.52716937,"lon":139.48469949},{"name":"町田GIONスタジアム","province":"東京都","city":"町田市","address":"東京都町田市野津田町2035","lat":35.59190908,"lon":139.43862536},{"name":"成瀬コミュニティセンター","province":"東京都","city":"町田市","address":"東京都町田市西成瀬2丁目49-1","lat":35.54352677,"lon":139.47274369},{"name":"町田市立鶴川駅前図書館","province":"東京都","city":"町田市","address":"東京都町田市能ヶ谷1丁目2-1","lat":35.58281289,"lon":139.47887319},{"name":"町田市立中央図書館","province":"東京都","city":"町田市","address":"東京都町田市原町田3丁目2-9","lat":35.54050622,"lon":139.45036188},{"name":"町田市民フォーラム","province":"東京都","city":"町田市","address":"東京都町田市原町田4丁目9-8","lat":35.54180052,"lon":139.44984799},{"name":"町田市健康福祉会館","province":"東京都","city":"町田市","address":"東京都町田市原町田5丁目8-21","lat":35.54609452,"lon":139.45002283},{"name":"なるせ駅前市民センター","province":"東京都","city":"町田市","address":"東京都町田市南成瀬1丁目2-5","lat":35.53680532,"lon":139.47301332},{"name":"町田市立総合体育館","province":"東京都","city":"町田市","address":"東京都町田市南成瀬5丁目12","lat":35.53652562,"lon":139.47901873},{"name":"成瀬クリーンセンター","province":"東京都","city":"町田市","address":"東京都町田市南成瀬8丁目1-1","lat":35.53524587,"lon":139.48370755},{"name":"三輪コミュニティセンター","province":"東京都","city":"町田市","address":"東京都町田市三輪緑山4丁目14-4","lat":35.57715408,"lon":139.4936368},{"name":"町田市庁舎","province":"東京都","city":"町田市","address":"東京都町田市森野2丁目2-22","lat":35.54666373,"lon":139.43864046},{"name":"町田市民ホール","province":"東京都","city":"町田市","address":"東京都町田市森野2丁目2-36","lat":35.54702482,"lon":139.43975979},{"name":"木曽山崎コミュニティセンター","province":"東京都","city":"町田市","address":"東京都町田市山崎町2160-4","lat":35.56853928,"lon":139.43666498}]}