{"keyword":"保育","data":[{"name":"南つくし野保育園","province":"東京都","city":"町田市","address":"町田市南つくし野2-17-1","lat":35.517014,"lon":139.475014},{"name":"もりのおがわ保育園","province":"東京都","city":"町田市","address":"町田市小川1-11-2","lat":35.527462,"lon":139.475183},{"name":"こびとのもり保育園","province":"東京都","city":"町田市","address":"町田市小川6丁目1番32号","lat":35.521932,"lon":139.470981},{"name":"レイモンド南町田保育園","province":"東京都","city":"町田市","address":"町田市鶴間八丁目4番30号クレインドビル1F","lat":35.511199,"lon":139.474312},{"name":"田園保育園","province":"東京都","city":"町田市","address":"町田市南町田3-1-1","lat":35.519493,"lon":139.466939},{"name":"光の原保育園","province":"東京都","city":"町田市","address":"町田市南町田1-3-48","lat":35.522882,"lon":139.468986},{"name":"ハッピードリーム鶴間","province":"東京都","city":"町田市","address":"町田市南町田4-22-7","lat":35.514869,"lon":139.466798},{"name":"成瀬南野保育園","province":"東京都","city":"町田市","address":"町田市成瀬が丘3-22-1","lat":35.536202,"lon":139.467897},{"name":"こうりん保育園","province":"東京都","city":"町田市","address":"町田市金森7-6-1","lat":35.532541,"lon":139.454048},{"name":"こばと保育園","province":"東京都","city":"町田市","address":"町田市金森6-37-18","lat":35.522736,"lon":139.455226},{"name":"市立町田保育園","province":"東京都","city":"町田市","address":"町田市原町田6-26-15","lat":35.544564,"lon":139.447829},{"name":"こひつじ保育園","province":"東京都","city":"町田市","address":"町田市原町田2-11-5","lat":35.540834,"lon":139.452389},{"name":"赤ちゃんの家保育園","province":"東京都","city":"町田市","address":"町田市原町田6-27-10","lat":35.545031,"lon":139.448656},{"name":"なごみ保育園","province":"東京都","city":"町田市","address":"町田市原町田5-1-5","lat":35.54693,"lon":139.448148},{"name":"なごみ第二保育園","province":"東京都","city":"町田市","address":"町田市原町田3-19-6","lat":35.542892,"lon":139.454806},{"name":"太陽の子町田駅前保育園","province":"東京都","city":"町田市","address":"町田市原町田6-17-8クオーレ1F","lat":35.545767,"lon":139.446937},{"name":"高ヶ坂保育園","province":"東京都","city":"町田市","address":"町田市高ヶ坂6-2-10","lat":35.541859,"lon":139.461036},{"name":"高ヶ坂ふたば保育園","province":"東京都","city":"町田市","address":"町田市高ヶ坂7-26-6","lat":35.539871,"lon":139.462386},{"name":"市立金森保育園","province":"東京都","city":"町田市","address":"町田市金森東1-12-16","lat":35.53514,"lon":139.459834},{"name":"町田南保育園","province":"東京都","city":"町田市","address":"町田市金森東4-36-8","lat":35.527739,"lon":139.467861},{"name":"ねむの木保育園","province":"東京都","city":"町田市","address":"町田市金森東3-17-25","lat":35.530408,"lon":139.464889},{"name":"未来保育ＣＬＵＢ","province":"東京都","city":"町田市","address":"町田市中町1-31-4NTT町田ビル1F","lat":35.547936,"lon":139.448387},{"name":"森野三丁目保育園","province":"東京都","city":"町田市","address":"町田市森野3-11-16","lat":35.55341,"lon":139.435735},{"name":"光の森保育園","province":"東京都","city":"町田市","address":"町田市森野5-21-5","lat":35.550588,"lon":139.433582},{"name":"もりの聖愛保育園","province":"東京都","city":"町田市","address":"町田市森野4-8-10","lat":35.55406,"lon":139.432499},{"name":"まちっこ保育園","province":"東京都","city":"町田市","address":"町田市南大谷1400-1","lat":35.553611,"lon":139.453756},{"name":"草笛保育園","province":"東京都","city":"町田市","address":"町田市本町田3133-5","lat":35.570028,"lon":139.450697},{"name":"わかば保育園","province":"東京都","city":"町田市","address":"町田市本町田2591-20","lat":35.567423,"lon":139.440642},{"name":"本町田わかくさ保育園","province":"東京都","city":"町田市","address":"町田市本町田29-8","lat":35.557749,"lon":139.453892},{"name":"開進こども保育園","province":"東京都","city":"町田市","address":"町田市本町田3350-38","lat":35.570156,"lon":139.444895},{"name":"しぜんの国保育園","province":"東京都","city":"町田市","address":"町田市忠生2-5-3","lat":35.577388,"lon":139.424944},{"name":"すみれ保育園","province":"東京都","city":"町田市","address":"町田市木曽東2-8-1","lat":35.556382,"lon":139.425147},{"name":"木曽保育園","province":"東京都","city":"町田市","address":"町田市木曽東4-13-7","lat":35.56632,"lon":139.431213},{"name":"すずらん保育園","province":"東京都","city":"町田市","address":"町田市木曽東2-3-22","lat":35.555699,"lon":139.426772},{"name":"ひかりの子保育園","province":"東京都","city":"町田市","address":"町田市木曽西1-34-1","lat":35.566878,"lon":139.415189},{"name":"第二わかくさ保育園","province":"東京都","city":"町田市","address":"町田市木曽西5-1-1","lat":35.566675,"lon":139.424047},{"name":"アスク木曽西保育園","province":"東京都","city":"町田市","address":"町田市木曽西3-18-2","lat":35.572972,"lon":139.419116},{"name":"まなざし保育園","province":"東京都","city":"町田市","address":"町田市根岸1-2-3","lat":35.571061,"lon":139.41157},{"name":"玉川さくら保育園","province":"東京都","city":"町田市","address":"町田市玉川学園3-35-48","lat":35.562649,"lon":139.459208},{"name":"町田わかくさ保育園","province":"東京都","city":"町田市","address":"町田市成瀬7-10-7","lat":35.540664,"lon":139.475527},{"name":"成瀬くりの家保育園","province":"東京都","city":"町田市","address":"町田市成瀬1-5-1","lat":35.548282,"lon":139.472482},{"name":"桜台保育園","province":"東京都","city":"町田市","address":"町田市小山田桜台1-18","lat":35.589095,"lon":139.403187},{"name":"市立こうさぎ保育園","province":"東京都","city":"町田市","address":"町田市相原町792","lat":35.604356,"lon":139.333742},{"name":"クローバー保育園","province":"東京都","city":"町田市","address":"町田市相原町3338-1","lat":35.6095,"lon":139.297246},{"name":"小山保育園","province":"東京都","city":"町田市","address":"町田市小山町954","lat":35.593082,"lon":139.376983},{"name":"多摩境敬愛保育園","province":"東京都","city":"町田市","address":"町田市小山町4464","lat":35.601384,"lon":139.364837},{"name":"サンフィール保育園","province":"東京都","city":"町田市","address":"町田市小山町4604-2","lat":35.601678,"lon":139.359932},{"name":"かえで保育園","province":"東京都","city":"町田市","address":"町田市小山町775","lat":35.591274,"lon":139.380761},{"name":"町田ときわ保育園","province":"東京都","city":"町田市","address":"町田市常盤町3465-1","lat":35.583042,"lon":139.401671},{"name":"子どもの森保育園","province":"東京都","city":"町田市","address":"町田市常盤町2970-1","lat":35.588486,"lon":139.39514},{"name":"こっこのもり保育園","province":"東京都","city":"町田市","address":"町田市常盤町3028-3","lat":35.589486,"lon":139.393152},{"name":"敬愛桃の実保育園","province":"東京都","city":"町田市","address":"町田市小山ヶ丘3-28","lat":35.602361,"lon":139.366001},{"name":"もみの木保育園","province":"東京都","city":"町田市","address":"町田市小山ヶ丘1-3-2","lat":35.596382,"lon":139.385116},{"name":"かりん保育園","province":"東京都","city":"町田市","address":"町田市小山ヶ丘1-10-2","lat":35.599093,"lon":139.383027},{"name":"東平ひまわり保育園","province":"東京都","city":"町田市","address":"町田市広袴町543-1","lat":35.593534,"lon":139.475745},{"name":"東平しらゆり保育園","province":"東京都","city":"町田市","address":"町田市広袴町542","lat":35.593759,"lon":139.475509},{"name":"みどりの森保育園","province":"東京都","city":"町田市","address":"町田市能ヶ谷4-7-19","lat":35.587627,"lon":139.481823},{"name":"三輪保育園","province":"東京都","city":"町田市","address":"町田市三輪町1720-8","lat":35.579815,"lon":139.493673},{"name":"三輪あいこう保育園","province":"東京都","city":"町田市","address":"町田市三輪町82-7","lat":35.581882,"lon":139.49304},{"name":"花の木保育園","province":"東京都","city":"町田市","address":"町田市真光寺3-1-6","lat":35.597568,"lon":139.463035},{"name":"ききょう保育園","province":"東京都","city":"町田市","address":"町田市鶴川1-16-7","lat":35.58744,"lon":139.478207},{"name":"市立大蔵保育園","province":"東京都","city":"町田市","address":"町田市大蔵町1984","lat":35.588711,"lon":139.467987},{"name":"つるかわ保育園","province":"東京都","city":"町田市","address":"町田市大蔵町2177-2","lat":35.585362,"lon":139.474076},{"name":"井の花保育園","province":"東京都","city":"町田市","address":"町田市大蔵町530-1","lat":35.589405,"lon":139.460624},{"name":"ぽっぽの森保育園","province":"東京都","city":"町田市","address":"町田市大蔵町410","lat":35.587947,"lon":139.465371},{"name":"おひさま共同保育園","province":"東京都","city":"町田市","address":"町田市野津田町498-1","lat":35.586829,"lon":139.442783},{"name":"小野路保育園","province":"東京都","city":"町田市","address":"町田市小野路町1416","lat":35.598525,"lon":139.4405},{"name":"ゆうき山保育園","province":"東京都","city":"町田市","address":"町田市金井町2938-14","lat":35.568062,"lon":139.454508},{"name":"たかね保育園","province":"東京都","city":"町田市","address":"町田市山崎町2160-4","lat":35.568567,"lon":139.436665},{"name":"ユニケ保育園","province":"東京都","city":"町田市","address":"町田市山崎町457","lat":35.580771,"lon":139.430424},{"name":"たかね第二保育園","province":"東京都","city":"町田市","address":"町田市山崎町1540-3","lat":35.575311,"lon":139.432982},{"name":"カナリヤ保育園","province":"東京都","city":"町田市","address":"町田市山崎町2130","lat":35.572347,"lon":139.435684},{"name":"市立山崎保育園","province":"東京都","city":"町田市","address":"町田市山崎1-2-14","lat":35.568689,"lon":139.428988}]}