{"keyword":"公共","data":[{"name":"大戸緑地","province":"東京都","city":"町田市","address":"東京都町田市相原町","lat":35.617521,"lon":139.289337},{"name":"小山内裏公園","province":"東京都","city":"町田市","address":"東京都町田市小山ケ丘二・四丁目、八王子市南大沢四・五丁目、鑓水二丁目","lat":35.606146,"lon":139.368198},{"name":"小山田緑地","province":"東京都","city":"町田市","address":"東京都町田市下小山田町・上小山田町","lat":35.596194,"lon":139.416319},{"name":"なるせ駅前市民センター","province":"東京都","city":"町田市","address":"東京都町田市南成瀬1-2-5","lat":35.53682331,"lon":139.4729389},{"name":"鶴川市民センター","province":"東京都","city":"町田市","address":"東京都町田市大蔵町1981-4","lat":35.58888656,"lon":139.4673706},{"name":"堺市民センター","province":"東京都","city":"町田市","address":"東京都町田市相原町795-1","lat":35.60424683,"lon":139.3333728},{"name":"町田駅前連絡所","province":"東京都","city":"町田市","address":"東京都町田市原町田6-12-20","lat":35.54422925,"lon":139.4453075},{"name":"鶴川駅前連絡所","province":"東京都","city":"町田市","address":"東京都町田市能ヶ谷1-2-1","lat":35.58272153,"lon":139.4788655},{"name":"玉川学園駅前連絡所（玉川学園コミュニティセンター）","province":"東京都","city":"町田市","address":"東京都町田市玉川学園2-19-12","lat":35.56374803,"lon":139.4625582},{"name":"木曽山崎連絡所（木曽山崎コミュニティセンター）","province":"東京都","city":"町田市","address":"東京都町田市山崎町2160-4","lat":35.56859619,"lon":139.4367346},{"name":"町田市マイナンバーカードセンター","province":"東京都","city":"町田市","address":"東京都町田市原町田6-9-19","lat":35.54337142,"lon":139.44649},{"name":"男女平等推進センター","province":"東京都","city":"町田市","address":"東京都町田市原町田4-9-8","lat":35.54174803,"lon":139.4499074},{"name":"消費生活センター","province":"東京都","city":"町田市","address":"東京都町田市原町田4-9-8","lat":35.54174803,"lon":139.4499074},{"name":"町田市民ホール","province":"東京都","city":"町田市","address":"東京都町田市森野2-2-36","lat":35.5465005,"lon":139.4395107},{"name":"本町田遺跡公園","province":"東京都","city":"町田市","address":"東京都町田市本町田3455","lat":35.56726083,"lon":139.4496951},{"name":"国際版画美術館","province":"東京都","city":"町田市","address":"東京都町田市原町田4-28-1","lat":35.54406803,"lon":139.4550188},{"name":"自由民権資料館","province":"東京都","city":"町田市","address":"東京都町田市野津田町897","lat":35.58888433,"lon":139.4531958},{"name":"町田市文化交流センター","province":"東京都","city":"町田市","address":"東京都町田市原町田4-1-14","lat":35.54095047,"lon":139.4481429},{"name":"ふるさと農具館","province":"東京都","city":"町田市","address":"東京都町田市野津田町2288","lat":35.58245314,"lon":139.4440466},{"name":"七国山ファーマーズセンター","province":"東京都","city":"町田市","address":"東京都町田市野津田町3497-1","lat":35.58101078,"lon":139.4433074},{"name":"町田市フォトサロン","province":"東京都","city":"町田市","address":"東京都町田市野津田町3272","lat":35.57991964,"lon":139.4488459},{"name":"町田市民フォーラム","province":"東京都","city":"町田市","address":"東京都町田市原町田4-9-8","lat":35.54174803,"lon":139.4499074},{"name":"生涯学習センター(まちだ中央公民館)","province":"東京都","city":"町田市","address":"東京都町田市原町田6-8-1","lat":35.54297064,"lon":139.4472272},{"name":"さるびあ図書館","province":"東京都","city":"町田市","address":"東京都町田市中町2-13-23","lat":35.55135953,"lon":139.4440469},{"name":"金森図書館","province":"東京都","city":"町田市","address":"東京都町田市金森東3-5-1","lat":35.53336514,"lon":139.4658106},{"name":"鶴川図書館","province":"東京都","city":"町田市","address":"東京都町田市鶴川6-7-2","lat":35.59084111,"lon":139.4703122},{"name":"鶴川駅前図書館","province":"東京都","city":"町田市","address":"東京都町田市能ヶ谷1-2-1","lat":35.58272153,"lon":139.4788655},{"name":"木曽山崎図書館","province":"東京都","city":"町田市","address":"東京都町田市山崎町2160","lat":35.56837031,"lon":139.4367606},{"name":"堺図書館","province":"東京都","city":"町田市","address":"東京都町田市相原町795-1","lat":35.60424683,"lon":139.3333728},{"name":"忠生図書館","province":"東京都","city":"町田市","address":"東京都町田市忠生3-14-2","lat":35.57833572,"lon":139.4161491},{"name":"町田市考古資料室","province":"東京都","city":"町田市","address":"東京都町田市下小山田町4016","lat":35.58891144,"lon":139.4105654},{"name":"わくわくプラザ町田","province":"東京都","city":"町田市","address":"東京都町田市森野1-1-15","lat":35.54255036,"lon":139.4426495},{"name":"つくし野コミュニティセンター","province":"東京都","city":"町田市","address":"東京都町田市つくし野2-26-5","lat":35.52712206,"lon":139.4846791},{"name":"木曽森野コミュニティセンター","province":"東京都","city":"町田市","address":"東京都町田市木曽東1-2","lat":35.55510311,"lon":139.428557},{"name":"三輪コミュニティセンター","province":"東京都","city":"町田市","address":"東京都町田市三輪緑山4-14-1","lat":35.57717031,"lon":139.4931332},{"name":"上小山田コミュニティセンター","province":"東京都","city":"町田市","address":"東京都町田市上小山田町2616-2","lat":35.59484069,"lon":139.3983522},{"name":"市立総合体育館","province":"東京都","city":"町田市","address":"東京都町田市南成瀬5-12","lat":35.53613744,"lon":139.4790913},{"name":"サン町田旭体育館","province":"東京都","city":"町田市","address":"東京都町田市旭町3-20-60","lat":35.55676039,"lon":139.4471094},{"name":"市立室内プール","province":"東京都","city":"町田市","address":"東京都町田市図師町199-1","lat":35.58625617,"lon":139.4138418},{"name":"町田第一中学校温水プール","province":"東京都","city":"町田市","address":"東京都町田市中町1-27-5","lat":35.55094533,"lon":139.4461659},{"name":"南中学校温水プール","province":"東京都","city":"町田市","address":"東京都町田市金森3-27-1","lat":35.52613608,"lon":139.4618525},{"name":"鶴川中学校温水プール","province":"東京都","city":"町田市","address":"東京都町田市小野路町1905-1","lat":35.59374314,"lon":139.4537907},{"name":"町田GIONスタジアム(町田市立陸上競技場)","province":"東京都","city":"町田市","address":"東京都町田市野津田町2035","lat":35.59192333,"lon":139.4386049},{"name":"町田市民球場・町田中央公園テニスコート","province":"東京都","city":"町田市","address":"東京都町田市旭町3-20-60","lat":35.55720289,"lon":139.4462442},{"name":"藤の台球場","province":"東京都","city":"町田市","address":"東京都町田市本町田3486","lat":35.568264,"lon":139.4476923},{"name":"鶴川球場・鶴川中央公園テニスコート","province":"東京都","city":"町田市","address":"東京都町田市鶴川6-6","lat":35.59101283,"lon":139.4715918},{"name":"三輪みどり山球場","province":"東京都","city":"町田市","address":"東京都町田市三輪緑山1-24-1","lat":35.57221744,"lon":139.4925473},{"name":"小野路GIONベースボールパーク（小野路球場）","province":"東京都","city":"町田市","address":"東京都町田市小野路町2023-1","lat":35.59848706,"lon":139.4546072},{"name":"野津田球場","province":"東京都","city":"町田市","address":"東京都町田市野津田町2035","lat":35.59292575,"lon":139.4459921},{"name":"忠生公園ソフトボール場","province":"東京都","city":"町田市","address":"東京都町田市忠生1-3-1","lat":35.57281731,"lon":139.4224202},{"name":"鶴間公園グラウンド","province":"東京都","city":"町田市","address":"東京都町田市鶴間3-1-1","lat":35.50852233,"lon":139.4674563},{"name":"鶴間公園運動広場","province":"東京都","city":"町田市","address":"東京都町田市鶴間3-1-1","lat":35.51075608,"lon":139.4675569},{"name":"相原中央グラウンド・テニスコート","province":"東京都","city":"町田市","address":"東京都町田市相原町2018","lat":35.60934875,"lon":139.3196883},{"name":"上の原グラウンド","province":"東京都","city":"町田市","address":"東京都町田市野津田町2035","lat":35.59088497,"lon":139.4452218},{"name":"小野路GIONグラウンド（小野路グラウンド）","province":"東京都","city":"町田市","address":"東京都町田市小野路町2023-1","lat":35.59766911,"lon":139.4532602},{"name":"木曽山崎グラウンド","province":"東京都","city":"町田市","address":"東京都町田市本町田2533","lat":35.56450153,"lon":139.4351938},{"name":"緑ヶ丘グラウンド","province":"東京都","city":"町田市","address":"東京都町田市本町田2380-6","lat":35.56461833,"lon":139.4374753},{"name":"丘の上グラウンド","province":"東京都","city":"町田市","address":"東京都町田市野津田町2035","lat":35.59523472,"lon":139.442266},{"name":"成瀬鞍掛グラウンド","province":"東京都","city":"町田市","address":"東京都町田市西成瀬1-7","lat":35.54775808,"lon":139.4695676},{"name":"小山上沼グラウンド","province":"東京都","city":"町田市","address":"東京都町田市小山ヶ丘3-1-1","lat":35.59897119,"lon":139.3792994},{"name":"本町田後田グラウンド","province":"東京都","city":"町田市","address":"東京都町田市本町田2339-1","lat":35.56587114,"lon":139.4417112},{"name":"芹ヶ谷公園グラウンド","province":"東京都","city":"町田市","address":"東京都町田市高ヶ坂1-1716-2","lat":35.54697867,"lon":139.4554877},{"name":"山王塚公園グラウンド","province":"東京都","city":"町田市","address":"東京都町田市薬師台3-3-20","lat":35.58231658,"lon":139.4539517},{"name":"成瀬クリーンセンターテニスコート","province":"東京都","city":"町田市","address":"東京都町田市南成瀬8-1-1","lat":35.53560844,"lon":139.4849884},{"name":"野津田公園テニスコート","province":"東京都","city":"町田市","address":"東京都町田市野津田町2035","lat":35.59315933,"lon":139.4420936},{"name":"野津田公園北テニスコート","province":"東京都","city":"町田市","address":"東京都町田市野津田町2035","lat":35.59419586,"lon":139.4396565},{"name":"鶴間公園テニスコート","province":"東京都","city":"町田市","address":"東京都町田市鶴間3-1-1","lat":35.50903442,"lon":139.466914},{"name":"鶴川第2テニスコート","province":"東京都","city":"町田市","address":"東京都町田市鶴川3-2-2","lat":35.59011958,"lon":139.466232},{"name":"町田薬師池公園四季彩の杜　薬師池","province":"東京都","city":"町田市","address":"東京都町田市野津田町3270","lat":35.57888936,"lon":139.4485365},{"name":"町田薬師池公園四季彩の杜　西園（ウェルカムゲート）","province":"東京都","city":"町田市","address":"東京都町田市本町田3105","lat":35.57480803,"lon":139.4465802},{"name":"町田薬師池公園四季彩の杜　ぼたん園（民権の森公園）","province":"東京都","city":"町田市","address":"東京都町田市野津田町2274-1","lat":35.58286981,"lon":139.4439438},{"name":"町田薬師池公園四季彩の杜　リス園","province":"東京都","city":"町田市","address":"東京都町田市薬師台1-733-1","lat":35.57809886,"lon":139.4497414},{"name":"町田薬師池公園四季彩の杜　えびね苑","province":"東京都","city":"町田市","address":"東京都町田市本町田3129-6","lat":35.57280728,"lon":139.4477423},{"name":"町田薬師池公園四季彩の杜　ダリア園","province":"東京都","city":"町田市","address":"東京都町田市山崎町1213-1","lat":35.57591775,"lon":139.4402441},{"name":"芹ヶ谷公園","province":"東京都","city":"町田市","address":"東京都町田市原町田5-16","lat":35.54612069,"lon":139.4544591},{"name":"鶴間公園","province":"東京都","city":"町田市","address":"東京都町田市鶴間3-1-1","lat":35.51018675,"lon":139.4682908},{"name":"野津田公園","province":"東京都","city":"町田市","address":"東京都町田市野津田町2035","lat":35.59192333,"lon":139.4386049},{"name":"忠生公園（忠生がにやら自然館）","province":"東京都","city":"町田市","address":"東京都町田市山崎町1804-1","lat":35.57296114,"lon":139.4241821},{"name":"忠生スポーツ公園","province":"東京都","city":"町田市","address":"東京都町田市下小山田町3337-1","lat":35.58729583,"lon":139.4070229},{"name":"相原中央公園","province":"東京都","city":"町田市","address":"東京都町田市相原町2018","lat":35.60934875,"lon":139.3196883},{"name":"かしの木山自然公園","province":"東京都","city":"町田市","address":"東京都町田市西成瀬3-9","lat":35.55048875,"lon":139.4673078},{"name":"町田かたかごの森","province":"東京都","city":"町田市","address":"東京都町田市山崎町1706-1","lat":35.57340347,"lon":139.4286998},{"name":"小野路宿里山交流館","province":"東京都","city":"町田市","address":"東京都町田市小野路町888-1","lat":35.59823192,"lon":139.4385524},{"name":"町田シバヒロ","province":"東京都","city":"町田市","address":"東京都町田市中町1-20-23","lat":35.54845547,"lon":139.4468276},{"name":"せりがや冒険遊び場","province":"東京都","city":"町田市","address":"東京都町田市原町田5-16","lat":35.54620736,"lon":139.4553028},{"name":"鶴川中央公園冒険あそび場","province":"東京都","city":"町田市","address":"東京都町田市鶴川6-6","lat":35.59085614,"lon":139.4721491},{"name":"谷戸池公園冒険あそび場","province":"東京都","city":"町田市","address":"東京都町田市小山田桜台1-19-1","lat":35.58899958,"lon":139.4017782},{"name":"三ツ目山冒険遊び場","province":"東京都","city":"町田市","address":"東京都町田市小山ヶ丘5-38","lat":35.60351117,"lon":139.3526056},{"name":"松葉谷戸冒険遊び場","province":"東京都","city":"町田市","address":"東京都町田市金森東1-30","lat":35.53625558,"lon":139.4651721},{"name":"町田ターミナルプラザ市民広場","province":"東京都","city":"町田市","address":"東京都町田市原町田3-1-4","lat":35.54014692,"lon":139.4495845},{"name":"子どもセンターぱお分館WAAAO","province":"東京都","city":"町田市","address":"東京都町田市小山ヶ丘4-1-13","lat":35.60437775,"lon":139.3671777},{"name":"子どもセンターただON","province":"東京都","city":"町田市","address":"東京都町田市忠生1-11-1","lat":35.574259,"lon":139.4219748},{"name":"南大谷子どもクラブ「MOこもこ」","province":"東京都","city":"町田市","address":"東京都町田市南大谷264","lat":35.5535875,"lon":139.4579536},{"name":"玉川学園子どもクラブ ころころ児童館","province":"東京都","city":"町田市","address":"東京都町田市玉川学園3-35-45","lat":35.56284289,"lon":139.4590611},{"name":"南町田子どもクラブ「つみき」","province":"東京都","city":"町田市","address":"東京都町田市鶴間3-1-4","lat":35.51002647,"lon":139.4693155},{"name":"小山田子どもクラブ「ゆめいく」","province":"東京都","city":"町田市","address":"東京都町田市小山田桜台2-1-2","lat":35.59261092,"lon":139.4042983},{"name":"子ども創造キャンパス　ひなた村","province":"東京都","city":"町田市","address":"東京都町田市本町田2863","lat":35.56770522,"lon":139.4453662},{"name":"Nature Factory 東京町田","province":"東京都","city":"町田市","address":"東京都町田市相原町5307-2","lat":35.61227289,"lon":139.276446},{"name":"ふれあい桜館（小山田）","province":"東京都","city":"町田市","address":"東京都町田市下小山田町3580","lat":35.58513597,"lon":139.4081352},{"name":"ふれあいもみじ館（金森）","province":"東京都","city":"町田市","address":"東京都町田市金森東3-17-14","lat":35.53041767,"lon":139.4652794},{"name":"ふれあいいちょう館（鶴川）","province":"東京都","city":"町田市","address":"東京都町田市大蔵町1984-1","lat":35.58895789,"lon":139.4681191},{"name":"ふれあいくぬぎ館（木曽山崎）","province":"東京都","city":"町田市","address":"東京都町田市山崎町2160-4","lat":35.56859619,"lon":139.4367346},{"name":"ふれあいけやき館（堺）","province":"東京都","city":"町田市","address":"東京都町田市相原町795-1","lat":35.60424683,"lon":139.3333728},{"name":"ふれあいもっこく館（町田）","province":"東京都","city":"町田市","address":"東京都町田市原町田5-8-21","lat":35.54607242,"lon":139.449957},{"name":"堺第1高齢者支援センター","province":"東京都","city":"町田市","address":"東京都町田市相原町2373-1","lat":35.61325975,"lon":139.3143366},{"name":"堺第2高齢者支援センター","province":"東京都","city":"町田市","address":"東京都町田市小山ヶ丘1-2-9","lat":35.59620978,"lon":139.3856936},{"name":"忠生第1高齢者支援センター","province":"東京都","city":"町田市","address":"東京都町田市下小山田町3580","lat":35.58513597,"lon":139.4081352},{"name":"忠生第2高齢者支援センター","province":"東京都","city":"町田市","address":"東京都町田市山崎町2200","lat":35.56812686,"lon":139.4349089},{"name":"鶴川第1高齢者支援センター","province":"東京都","city":"町田市","address":"東京都町田市薬師台3-270-1","lat":35.58237856,"lon":139.4568184},{"name":"鶴川第2高齢者支援センター","province":"東京都","city":"町田市","address":"東京都町田市能ヶ谷3-2-1","lat":35.58466744,"lon":139.486095},{"name":"町田第1高齢者支援センター","province":"東京都","city":"町田市","address":"東京都町田市森野4-8-39","lat":35.55410381,"lon":139.4331009},{"name":"町田第2高齢者支援センター","province":"東京都","city":"町田市","address":"東京都町田市本町田2102-1","lat":35.56015069,"lon":139.4385948},{"name":"町田第3高齢者支援センター","province":"東京都","city":"町田市","address":"東京都町田市玉川学園3-35-1","lat":35.56339711,"lon":139.4585391},{"name":"南第1高齢者支援センター","province":"東京都","city":"町田市","address":"東京都町田市南町田5-16-1","lat":35.51471564,"lon":139.4712589},{"name":"南第2高齢者支援センター","province":"東京都","city":"町田市","address":"東京都町田市金森東3-18-16","lat":35.53142403,"lon":139.4659961},{"name":"南第3高齢者支援センター","province":"東京都","city":"町田市","address":"東京都町田市西成瀬2-48-23","lat":35.54341492,"lon":139.4716659},{"name":"相原あんしん相談室","province":"東京都","city":"町田市","address":"東京都町田市相原町1158-26","lat":35.60643186,"lon":139.3320551},{"name":"小山あんしん相談室","province":"東京都","city":"町田市","address":"東京都町田市小山町2619","lat":35.59786308,"lon":139.365964},{"name":"忠生あんしん相談室","province":"東京都","city":"町田市","address":"東京都町田市忠生3-1-34","lat":35.57650483,"lon":139.4161098},{"name":"木曽あんしん相談室","province":"東京都","city":"町田市","address":"東京都町田市木曽東1-34-10","lat":35.55742492,"lon":139.4260758},{"name":"野津田あんしん相談室","province":"東京都","city":"町田市","address":"東京都町田市野津田町831-1","lat":35.58848711,"lon":139.4502811},{"name":"鶴川あんしん相談室","province":"東京都","city":"町田市","address":"東京都町田市鶴川6-7-2-103","lat":35.59085567,"lon":139.4695849},{"name":"原町田あんしん相談室","province":"東京都","city":"町田市","address":"東京都町田市原町田4-24-6","lat":35.54442269,"lon":139.4530769},{"name":"本町田あんしん相談室","province":"東京都","city":"町田市","address":"東京都町田市本町田3486","lat":35.57029128,"lon":139.4501444},{"name":"南大谷あんしん相談室","province":"東京都","city":"町田市","address":"東京都町田市南大谷205-1-2","lat":35.55479356,"lon":139.4570516},{"name":"小川あんしん相談室","province":"東京都","city":"町田市","address":"東京都町田市小川6-1-11","lat":35.52149456,"lon":139.4710421},{"name":"成瀬が丘あんしん相談室","province":"東京都","city":"町田市","address":"東京都町田市成瀬が丘2-23-4","lat":35.53537797,"lon":139.4720085},{"name":"成瀬台あんしん相談室","province":"東京都","city":"町田市","address":"東京都町田市成瀬台3-8-1","lat":35.55450147,"lon":139.4773054},{"name":"町田地域障がい者支援センター","province":"東京都","city":"町田市","address":"東京都町田市原町田5-4-3","lat":35.54484547,"lon":139.4496858},{"name":"鶴川地域障がい者支援センター","province":"東京都","city":"町田市","address":"東京都町田市能ヶ谷3-2-1","lat":35.58466744,"lon":139.486095},{"name":"堺地域障がい者支援センター","province":"東京都","city":"町田市","address":"東京都町田市小山町1234-1","lat":35.5962075,"lon":139.3749269},{"name":"忠生地域障がい者支援センター","province":"東京都","city":"町田市","address":"東京都町田市図師町1677-1","lat":35.58286686,"lon":139.4256318},{"name":"南地域障がい者支援センター","province":"東京都","city":"町田市","address":"東京都町田市金森東3-18-16","lat":35.53142403,"lon":139.4659961},{"name":"町田市子ども発達センター","province":"東京都","city":"町田市","address":"東京都町田市中町2-13-14","lat":35.55166697,"lon":139.4443296},{"name":"せりがや会館","province":"東京都","city":"町田市","address":"東京都町田市原町田4-24-6","lat":35.54442269,"lon":139.4530769},{"name":"保健所（市庁舎7階）","province":"東京都","city":"町田市","address":"東京都町田市森野2-2-22","lat":35.54674817,"lon":139.4385724},{"name":"保健所（中町庁舎）","province":"東京都","city":"町田市","address":"東京都町田市中町2-13-3","lat":35.55117825,"lon":139.4437599},{"name":"健康福祉会館","province":"東京都","city":"町田市","address":"東京都町田市原町田5-8-21","lat":35.54607242,"lon":139.449957},{"name":"鶴川保健センター","province":"東京都","city":"町田市","address":"東京都町田市大蔵町1981-4","lat":35.58888656,"lon":139.4673706},{"name":"忠生保健センター","province":"東京都","city":"町田市","address":"東京都町田市忠生3-14-2","lat":35.57833572,"lon":139.4161491},{"name":"町田市バイオエネルギーセンター","province":"東京都","city":"町田市","address":"東京都町田市下小山田町3160","lat":35.58681511,"lon":139.4112734},{"name":"まちだエコライフ推進公社","province":"東京都","city":"町田市","address":"東京都町田市下小山田町3160","lat":35.58681511,"lon":139.4112734},{"name":"リサイクルショップまちエコ（小山田店）","province":"東京都","city":"町田市","address":"東京都町田市下小山田町3160","lat":35.58681511,"lon":139.4112734},{"name":"成瀬クリーンセンター","province":"東京都","city":"町田市","address":"東京都町田市南成瀬8-1-1","lat":35.53560844,"lon":139.4849884},{"name":"鶴見川クリーンセンター","province":"東京都","city":"町田市","address":"東京都町田市三輪緑山1-1","lat":35.57062875,"lon":139.4919588},{"name":"町田市剪定枝資源化センター","province":"東京都","city":"町田市","address":"東京都町田市小野路町3332","lat":35.60894983,"lon":139.4427724},{"name":"町田市民病院","province":"東京都","city":"町田市","address":"東京都町田市旭町2-15-41","lat":35.55693906,"lon":139.4387318}]}