{"keyword":"子育て","data":[{"name":"市立こうさぎ保育園","province":"東京都","city":"町田市","address":"東京都町田市相原町792","lat":35.60433931,"lon":139.33375058},{"name":"市立金森保育園","province":"東京都","city":"町田市","address":"東京都町田市金森東1丁目12-16","lat":35.53513494,"lon":139.45983631},{"name":"市立大蔵保育園","province":"東京都","city":"町田市","address":"東京都町田市大蔵町1984","lat":35.58871118,"lon":139.46798735},{"name":"市立山崎保育園","province":"東京都","city":"町田市","address":"東京都町田市山崎1丁目2-14","lat":35.56870303,"lon":139.42904069},{"name":"市立町田保育園","province":"東京都","city":"町田市","address":"東京都町田市原町田6丁目26-15","lat":35.54456682,"lon":139.44783138},{"name":"こひつじ保育園","province":"東京都","city":"町田市","address":"東京都町田市原町田2丁目11-5","lat":35.54083404,"lon":139.45238949},{"name":"町田ときわ保育園","province":"東京都","city":"町田市","address":"東京都町田市常盤町3465-1","lat":35.5830397,"lon":139.40160387},{"name":"つるかわ保育園","province":"東京都","city":"町田市","address":"東京都町田市大蔵町2177-2","lat":35.58513986,"lon":139.47399271},{"name":"小山保育園","province":"東京都","city":"町田市","address":"東京都町田市小山町954","lat":35.59308216,"lon":139.37698328},{"name":"たかね保育園","province":"東京都","city":"町田市","address":"東京都町田市山崎町2160-4","lat":35.56853928,"lon":139.43666498},{"name":"小野路保育園","province":"東京都","city":"町田市","address":"東京都町田市小野路町1416","lat":35.59852506,"lon":139.44050001},{"name":"すみれ保育園","province":"東京都","city":"町田市","address":"東京都町田市木曽東2丁目8-1","lat":35.55643489,"lon":139.42512192},{"name":"木曽保育園","province":"東京都","city":"町田市","address":"東京都町田市木曽東4丁目13-7","lat":35.56631999,"lon":139.43121276},{"name":"ききょう保育園","province":"東京都","city":"町田市","address":"東京都町田市鶴川1丁目16-7","lat":35.58746812,"lon":139.47819543},{"name":"田園保育園","province":"東京都","city":"町田市","address":"東京都町田市南町田3丁目1-1","lat":35.51949324,"lon":139.46693923},{"name":"ユニケ保育園","province":"東京都","city":"町田市","address":"東京都町田市山崎町457","lat":35.58075178,"lon":139.43048747},{"name":"こうりん保育園","province":"東京都","city":"町田市","address":"東京都町田市金森7丁目6-1","lat":35.53250725,"lon":139.45407852},{"name":"ひかりの子保育園","province":"東京都","city":"町田市","address":"東京都町田市木曽西1丁目34-1","lat":35.56687799,"lon":139.41518927},{"name":"赤ちゃんの家保育園","province":"東京都","city":"町田市","address":"東京都町田市原町田6丁目27-10","lat":35.54500292,"lon":139.44866186},{"name":"たかね第二保育園","province":"東京都","city":"町田市","address":"東京都町田市山崎町1540-3","lat":35.57537186,"lon":139.43290682},{"name":"町田南保育園","province":"東京都","city":"町田市","address":"東京都町田市金森東4丁目36-8","lat":35.52773922,"lon":139.46786103},{"name":"高ケ坂保育園","province":"東京都","city":"町田市","address":"東京都町田市高ヶ坂6丁目2-10","lat":35.54185932,"lon":139.46103603},{"name":"花の木保育園","province":"東京都","city":"町田市","address":"東京都町田市真光寺3丁目1-6","lat":35.59756821,"lon":139.46303462},{"name":"町田わかくさ保育園","province":"東京都","city":"町田市","address":"東京都町田市成瀬7丁目10-7","lat":35.54066356,"lon":139.47553259},{"name":"しぜんの国保育園","province":"東京都","city":"町田市","address":"東京都町田市忠生2丁目5-3","lat":35.57738814,"lon":139.42494362},{"name":"成瀬南野保育園","province":"東京都","city":"町田市","address":"東京都町田市成瀬が丘3丁目22-1","lat":35.53620214,"lon":139.46789692},{"name":"桜台保育園","province":"東京都","city":"町田市","address":"東京都町田市小山田桜台1丁目18","lat":35.58909462,"lon":139.40318686},{"name":"三輪保育園","province":"東京都","city":"町田市","address":"東京都町田市三輪町1720-8","lat":35.57981508,"lon":139.49367292},{"name":"クロ－バ－保育園","province":"東京都","city":"町田市","address":"東京都町田市相原町3338-1","lat":35.60949973,"lon":139.29724556},{"name":"成瀬くりの家保育園","province":"東京都","city":"町田市","address":"東京都町田市成瀬1丁目5-1","lat":35.54828174,"lon":139.47248242},{"name":"ねむの木保育園","province":"東京都","city":"町田市","address":"東京都町田市金森東3丁目17-25","lat":35.53040811,"lon":139.46488892},{"name":"こばと保育園","province":"東京都","city":"町田市","address":"東京都町田市金森6丁目37-18","lat":35.52273637,"lon":139.45522598},{"name":"玉川さくら保育園","province":"東京都","city":"町田市","address":"東京都町田市玉川学園3丁目35-48","lat":35.56264862,"lon":139.45920765},{"name":"三輪あいこう保育園","province":"東京都","city":"町田市","address":"東京都町田市三輪町82-7","lat":35.58184548,"lon":139.49303961},{"name":"子どもの森保育園","province":"東京都","city":"町田市","address":"東京都町田市常盤町2970-1","lat":35.58848602,"lon":139.39515699},{"name":"高ケ坂ふたば保育園","province":"東京都","city":"町田市","address":"東京都町田市高ヶ坂7丁目26-6","lat":35.53985408,"lon":139.4623888},{"name":"多摩境敬愛保育園","province":"東京都","city":"町田市","address":"東京都町田市小山町4464","lat":35.60138382,"lon":139.3648368},{"name":"光の原保育園","province":"東京都","city":"町田市","address":"東京都町田市南町田1丁目3-48","lat":35.52288177,"lon":139.46898619},{"name":"敬愛桃の実保育園","province":"東京都","city":"町田市","address":"東京都町田市小山ヶ丘3丁目28","lat":35.60236145,"lon":139.36600054},{"name":"南つくし野保育園","province":"東京都","city":"町田市","address":"東京都町田市南つくし野2丁目17-1","lat":35.51701414,"lon":139.47501402},{"name":"未来保育ＣＬＵＢ","province":"東京都","city":"町田市","address":"東京都町田市中町1丁目31-4","lat":35.54797484,"lon":139.44835901},{"name":"こひつじ保育園　分園","province":"東京都","city":"町田市","address":"東京都町田市原町田2丁目18-3","lat":35.54147852,"lon":139.45533645},{"name":"東平ひまわり保育園","province":"東京都","city":"町田市","address":"東京都町田市広袴町543-1","lat":35.59348119,"lon":139.4757704},{"name":"三輪保育園　分園","province":"東京都","city":"町田市","address":"東京都町田市三輪町1760-3","lat":35.57989005,"lon":139.49353125},{"name":"なごみ保育園","province":"東京都","city":"町田市","address":"東京都町田市原町田5丁目1-5","lat":35.54691938,"lon":139.44816462},{"name":"ハッピードリーム鶴間","province":"東京都","city":"町田市","address":"東京都町田市南町田4丁目22-7","lat":35.51486904,"lon":139.46679776},{"name":"井の花保育園","province":"東京都","city":"町田市","address":"東京都町田市大蔵町530-1","lat":35.58941042,"lon":139.46061545},{"name":"おひさま共同保育園","province":"東京都","city":"町田市","address":"東京都町田市野津田町498-1","lat":35.58682923,"lon":139.44278346},{"name":"すずらん保育園","province":"東京都","city":"町田市","address":"東京都町田市木曽東2丁目3-22","lat":35.55569888,"lon":139.42677179},{"name":"みどりの森保育園","province":"東京都","city":"町田市","address":"東京都町田市能ヶ谷4丁目7-19","lat":35.58762697,"lon":139.48182315},{"name":"サンフィール保育園","province":"東京都","city":"町田市","address":"東京都町田市小山町4604-2","lat":35.60167822,"lon":139.35993167},{"name":"小野路保育園　第一分園","province":"東京都","city":"町田市","address":"東京都町田市野津田町1084-1","lat":35.58811592,"lon":139.45813228},{"name":"ひかりの子保育園　分園","province":"東京都","city":"町田市","address":"東京都町田市木曽西3丁目9-7","lat":35.57286344,"lon":139.41561961},{"name":"第二わかくさ保育園","province":"東京都","city":"町田市","address":"東京都町田市木曽西5丁目1-1","lat":35.56667539,"lon":139.42404675},{"name":"わかば保育園","province":"東京都","city":"町田市","address":"東京都町田市本町田2591-20","lat":35.56742279,"lon":139.44064242},{"name":"森野三丁目保育園","province":"東京都","city":"町田市","address":"東京都町田市森野3丁目11-16","lat":35.55341035,"lon":139.43573491},{"name":"かえで保育園","province":"東京都","city":"町田市","address":"東京都町田市小山町775","lat":35.59127688,"lon":139.38078859},{"name":"もみの木保育園","province":"東京都","city":"町田市","address":"東京都町田市小山ヶ丘1丁目3-2","lat":35.59639859,"lon":139.38501028},{"name":"まなざし保育園","province":"東京都","city":"町田市","address":"東京都町田市根岸1丁目2-3","lat":35.57106078,"lon":139.41157004},{"name":"光の森保育園","province":"東京都","city":"町田市","address":"東京都町田市森野5丁目21-5","lat":35.55058835,"lon":139.43358243},{"name":"もりのおがわ保育園","province":"東京都","city":"町田市","address":"東京都町田市小川1丁目11-2","lat":35.52742065,"lon":139.47516352},{"name":"アスク木曽西保育園","province":"東京都","city":"町田市","address":"東京都町田市木曽西3丁目18-2","lat":35.57295795,"lon":139.41911928},{"name":"もりの聖愛保育園","province":"東京都","city":"町田市","address":"東京都町田市森野4丁目8-10","lat":35.55406025,"lon":139.43249908},{"name":"東平しらゆり保育園","province":"東京都","city":"町田市","address":"東京都町田市広袴町542","lat":35.59375891,"lon":139.47550929},{"name":"こびとのもり保育園","province":"東京都","city":"町田市","address":"東京都町田市小川6丁目1-32","lat":35.52193211,"lon":139.47098056},{"name":"レイモンド南町田保育園","province":"東京都","city":"町田市","address":"東京都町田市鶴間8丁目4-30","lat":35.51120131,"lon":139.47430876},{"name":"なごみ第二保育園","province":"東京都","city":"町田市","address":"東京都町田市原町田3丁目19-6","lat":35.54289224,"lon":139.45480589},{"name":"太陽の子町田駅前保育園","province":"東京都","city":"町田市","address":"東京都町田市原町田6丁目17-8","lat":35.54574167,"lon":139.44692031},{"name":"こっこのもり保育園","province":"東京都","city":"町田市","address":"東京都町田市常盤町3028-3","lat":35.58948582,"lon":139.39315155},{"name":"開進こども保育園","province":"東京都","city":"町田市","address":"東京都町田市本町田3350-38","lat":35.5701559,"lon":139.44489476},{"name":"カナリヤ保育園","province":"東京都","city":"町田市","address":"東京都町田市山崎町2130","lat":35.57234722,"lon":139.43568442},{"name":"ぽっぽの森保育園","province":"東京都","city":"町田市","address":"東京都町田市大蔵町410","lat":35.58794712,"lon":139.46537081},{"name":"町田わかくさ保育園　分園","province":"東京都","city":"町田市","address":"東京都町田市南成瀬1丁目8-7","lat":35.53728569,"lon":139.47194666},{"name":"子どもの森保育園　分園","province":"東京都","city":"町田市","address":"東京都町田市小山町1016","lat":35.59386542,"lon":139.37774152},{"name":"かりん保育園","province":"東京都","city":"町田市","address":"東京都町田市小山ヶ丘1丁目10-2","lat":35.5990899,"lon":139.38302979},{"name":"サンフィール保育園分園","province":"東京都","city":"町田市","address":"東京都町田市小山町3166-1","lat":35.59995627,"lon":139.36254262},{"name":"鶴川平和台幼稚園","province":"東京都","city":"町田市","address":"東京都町田市能ヶ谷6丁目41-1","lat":35.59091327,"lon":139.48480919},{"name":"鶴間幼稚園","province":"東京都","city":"町田市","address":"東京都町田市南町田2丁目12-1","lat":35.52057939,"lon":139.46911129},{"name":"成瀬台幼稚園","province":"東京都","city":"町田市","address":"東京都町田市成瀬台2丁目2-12","lat":35.54968787,"lon":139.47832667},{"name":"南ヶ丘幼稚園","province":"東京都","city":"町田市","address":"東京都町田市小川6丁目2-1","lat":35.52107676,"lon":139.47149725},{"name":"山ゆり幼稚園","province":"東京都","city":"町田市","address":"東京都町田市本町田3450","lat":35.56430662,"lon":139.451586},{"name":"原町田幼稚園","province":"東京都","city":"町田市","address":"東京都町田市原町田3丁目9-16","lat":35.54160339,"lon":139.45215614},{"name":"（仮）町田ひまわり幼稚園","province":"東京都","city":"町田市","address":"東京都町田市金森1丁目8-26","lat":35.53650119,"lon":139.45307013},{"name":"幼保連携型認定こども園　町田自然幼稚園","province":"東京都","city":"町田市","address":"東京都町田市忠生2丁目7-5","lat":35.57922407,"lon":139.42578794},{"name":"幼保連携型認定こども園さふらん","province":"東京都","city":"町田市","address":"東京都町田市本町田2441","lat":35.56588679,"lon":139.43768162},{"name":"子どもの森こども園","province":"東京都","city":"町田市","address":"東京都町田市常盤町3031-2","lat":35.5895775,"lon":139.39359873},{"name":"玉川中央幼稚園","province":"東京都","city":"町田市","address":"東京都町田市玉川学園2丁目3-27","lat":35.56223754,"lon":139.45922433},{"name":"光認定こども園","province":"東京都","city":"町田市","address":"東京都町田市金森3丁目41-1","lat":35.52545015,"lon":139.46128375},{"name":"認定こども園　正和幼稚園","province":"東京都","city":"町田市","address":"東京都町田市山崎町2261-1","lat":35.56823924,"lon":139.43171267},{"name":"カナリヤこども園","province":"東京都","city":"町田市","address":"東京都町田市山崎町2088-1","lat":35.57302214,"lon":139.43538721},{"name":"認定こども園　高ヶ坂こども園","province":"東京都","city":"町田市","address":"東京都町田市高ヶ坂5丁目6-19","lat":35.54547006,"lon":139.46127479},{"name":"（仮）認定こども園 鶴川シオン幼稚園","province":"東京都","city":"町田市","address":"東京都町田市大蔵町2216","lat":35.58417898,"lon":139.4752788}]}