{"keyword":"店","data":[{"name":"町田市民病院","province":"東京都","city":"町田市","address":"町田市旭町2-15-41","lat":35.557091,"lon":139.438701},{"name":"町田市すみれ教室","province":"東京都","city":"町田市","address":"町田市中町2-13-14","lat":35.551569,"lon":139.444459},{"name":"町田市授産場","province":"東京都","city":"町田市","address":"町田市忠生3-6-22","lat":35.57746,"lon":139.419097},{"name":"桜ケ丘共働学舎","province":"東京都","city":"町田市","address":"町田市小野路町2157","lat":35.594709,"lon":139.449684},{"name":"町田荘","province":"東京都","city":"町田市","address":"町田市南成瀬4-19-15","lat":35.538792,"lon":139.477213},{"name":"町田第２荘","province":"東京都","city":"町田市","address":"町田市南成瀬7-6-12","lat":35.534051,"lon":139.480602},{"name":"町田図師荘","province":"東京都","city":"町田市","address":"町田市図師町615-7","lat":35.582199,"lon":139.419452},{"name":"町田市社会福祉協議会","province":"東京都","city":"町田市","address":"町田市原町田4-9-8町田市民フォーラム4階","lat":35.541806,"lon":139.449881},{"name":"町田荘","province":"東京都","city":"町田市","address":"町田市南成瀬4-19-15","lat":35.53862,"lon":139.47742},{"name":"町田第２荘","province":"東京都","city":"町田市","address":"町田市南成瀬7-6-12","lat":35.5341,"lon":139.48062},{"name":"町田図師荘","province":"東京都","city":"町田市","address":"町田市図師町615-7","lat":35.58226,"lon":139.41943},{"name":"町田市保健所","province":"東京都","city":"町田市","address":"町田市森野2-2-22市庁舎7階","lat":35.549872,"lon":139.440026},{"name":"町田市保健所中町庁舎","province":"東京都","city":"町田市","address":"町田市中町2-13-3","lat":35.551224,"lon":139.443709},{"name":"町田市健康福祉会館","province":"東京都","city":"町田市","address":"町田市原町田5-8-21","lat":35.54602,"lon":139.449987},{"name":"町田市忠生保健センター","province":"東京都","city":"町田市","address":"町田市忠生3-14-2","lat":35.578366,"lon":139.416031},{"name":"町田市鶴川保健センター","province":"東京都","city":"町田市","address":"町田市大蔵町1981-4","lat":35.588886,"lon":139.467396},{"name":"（株）公恩社","province":"東京都","city":"町田市","address":"東京都町田市小野路町3186-6","lat":35.60631871,"lon":139.44397447},{"name":"町田市民病院","province":"東京都","city":"町田市","address":"町田市旭町2-15-41","lat":35.55734,"lon":139.4369},{"name":"愛恵会乳児院","province":"東京都","city":"町田市","address":"町田市小山町3191-3","lat":35.59977,"lon":139.3615},{"name":"あいこう","province":"東京都","city":"町田市","address":"東京都町田市","lat":35.5466304,"lon":139.43861823},{"name":"桜ケ丘共働学舎","province":"東京都","city":"町田市","address":"町田市小野路町2157","lat":35.60214,"lon":139.43965},{"name":"アクア矢部町","province":"東京都","city":"町田市","address":"町田市矢部町10-2","lat":35.57644,"lon":139.4057},{"name":"町田市社会福祉協議会","province":"東京都","city":"町田市","address":"町田市原町田4-9-8町田市民フォーラム4階","lat":35.54182,"lon":139.44991},{"name":"町田市保健所","province":"東京都","city":"町田市","address":"町田市森野2-2-22市庁舎7階","lat":35.54658,"lon":139.4389},{"name":"町田市保健所中町庁舎","province":"東京都","city":"町田市","address":"町田市中町2-13-3","lat":35.55124,"lon":139.4437},{"name":"町田市健康福祉会館","province":"東京都","city":"町田市","address":"町田市原町田5-8-21","lat":35.54611,"lon":139.45018},{"name":"町田市忠生保健センター","province":"東京都","city":"町田市","address":"町田市忠生3-14-2","lat":35.57766,"lon":139.41542},{"name":"町田市鶴川保健センター","province":"東京都","city":"町田市","address":"町田市大蔵町1981-4","lat":35.58874,"lon":139.46738},{"name":"町田市保健所","province":"東京都","city":"町田市","address":"東京都町田市森野2丁目2-22","lat":35.54666373,"lon":139.43864046},{"name":"町田市保健所中町庁舎","province":"東京都","city":"町田市","address":"東京都町田市中町2丁目13-3","lat":35.55124111,"lon":139.44367596},{"name":"町田市健康福祉会館","province":"東京都","city":"町田市","address":"東京都町田市原町田5丁目8-21","lat":35.54609452,"lon":139.45002283},{"name":"町田市忠生保健センター","province":"東京都","city":"町田市","address":"東京都町田市忠生3丁目14-2","lat":35.57836563,"lon":139.41603053},{"name":"町田市鶴川保健センター","province":"東京都","city":"町田市","address":"東京都町田市大蔵町1981-4","lat":35.58888611,"lon":139.46739571},{"name":"社会福祉法人まちだ育成会ひかり療育園","province":"東京都","city":"町田市","address":"東京都町田市忠生3丁目6-2","lat":35.57688807,"lon":139.41875532},{"name":"医療法人社団公朋会デイケアだんけ","province":"東京都","city":"町田市","address":"東京都町田市成瀬台3丁目8-18","lat":35.55480671,"lon":139.47834313},{"name":"社会福祉法人つぼみの家町田ゆめ工房","province":"東京都","city":"町田市","address":"東京都町田市相原町2983-157","lat":35.60794677,"lon":139.31323009},{"name":"社会福祉法人ウィズ町田なないろ","province":"東京都","city":"町田市","address":"東京都町田市木曽西2丁目17-16","lat":35.57001097,"lon":139.41539749},{"name":"社会福祉法人まちのひ富士清掃サービス","province":"東京都","city":"町田市","address":"東京都町田市忠生3丁目18-1","lat":35.57811285,"lon":139.41451123},{"name":"地域活動支援センターまちプラ","province":"東京都","city":"町田市","address":"東京都町田市原町田4丁目24-6","lat":35.54444758,"lon":139.45308375},{"name":"愛恵会乳児院","province":"東京都","city":"町田市","address":"町田市小山町3191-3","lat":35.599698,"lon":139.361059},{"name":"町田市民病院","province":"東京都","city":"町田市","address":"町田市旭町2-15-41","lat":35.55734,"lon":139.43691},{"name":"＊?町田市生涯学習センター","province":"東京都","city":"町田市","address":"町田市原町田6-8-1","lat":35.542981,"lon":139.447266},{"name":"サンシルバー町田","province":"東京都","city":"町田市","address":"町田市相原町2373-1","lat":35.613326,"lon":139.314385},{"name":"町田市民病院","province":"東京都","city":"町田市","address":"町田市旭町2-15-41","lat":35.557091,"lon":139.438701},{"name":"町田市すみれ教室","province":"東京都","city":"町田市","address":"町田市中町2-13-14","lat":35.551569,"lon":139.444459},{"name":"町田市授産場","province":"東京都","city":"町田市","address":"町田市忠生3-6-22","lat":35.57746,"lon":139.419097},{"name":"桜ケ丘共働学舎","province":"東京都","city":"町田市","address":"町田市小野路町2157","lat":35.594709,"lon":139.449684},{"name":"町田荘","province":"東京都","city":"町田市","address":"町田市南成瀬4-19-15","lat":35.538792,"lon":139.477213},{"name":"町田第２荘","province":"東京都","city":"町田市","address":"町田市南成瀬7-6-12","lat":35.534051,"lon":139.480602},{"name":"町田図師荘","province":"東京都","city":"町田市","address":"町田市図師町615-7","lat":35.582199,"lon":139.419452},{"name":"町田市社会福祉協議会","province":"東京都","city":"町田市","address":"町田市原町田4-9-8町田市民フォーラム4階","lat":35.541806,"lon":139.449881},{"name":"町田荘","province":"東京都","city":"町田市","address":"町田市南成瀬4-19-15","lat":35.53862,"lon":139.47742},{"name":"町田第２荘","province":"東京都","city":"町田市","address":"町田市南成瀬7-6-12","lat":35.5341,"lon":139.48062},{"name":"町田図師荘","province":"東京都","city":"町田市","address":"町田市図師町615-7","lat":35.58226,"lon":139.41943},{"name":"町田市保健所","province":"東京都","city":"町田市","address":"町田市森野2-2-22市庁舎7階","lat":35.549872,"lon":139.440026},{"name":"町田市保健所中町庁舎","province":"東京都","city":"町田市","address":"町田市中町2-13-3","lat":35.551224,"lon":139.443709},{"name":"町田市健康福祉会館","province":"東京都","city":"町田市","address":"町田市原町田5-8-21","lat":35.54602,"lon":139.449987},{"name":"町田市忠生保健センター","province":"東京都","city":"町田市","address":"町田市忠生3-14-2","lat":35.578366,"lon":139.416031},{"name":"町田市鶴川保健センター","province":"東京都","city":"町田市","address":"町田市大蔵町1981-4","lat":35.588886,"lon":139.467396},{"name":"（株）公恩社","province":"東京都","city":"町田市","address":"東京都町田市小野路町3186-6","lat":35.60631871,"lon":139.44397447},{"name":"町田市民病院","province":"東京都","city":"町田市","address":"町田市旭町2-15-41","lat":35.55734,"lon":139.4369},{"name":"愛恵会乳児院","province":"東京都","city":"町田市","address":"町田市小山町3191-3","lat":35.59977,"lon":139.3615},{"name":"あいこう","province":"東京都","city":"町田市","address":"東京都町田市","lat":35.5466304,"lon":139.43861823},{"name":"桜ケ丘共働学舎","province":"東京都","city":"町田市","address":"町田市小野路町2157","lat":35.60214,"lon":139.43965},{"name":"アクア矢部町","province":"東京都","city":"町田市","address":"町田市矢部町10-2","lat":35.57644,"lon":139.4057},{"name":"町田市社会福祉協議会","province":"東京都","city":"町田市","address":"町田市原町田4-9-8町田市民フォーラム4階","lat":35.54182,"lon":139.44991},{"name":"町田市保健所","province":"東京都","city":"町田市","address":"町田市森野2-2-22市庁舎7階","lat":35.54658,"lon":139.4389},{"name":"町田市保健所中町庁舎","province":"東京都","city":"町田市","address":"町田市中町2-13-3","lat":35.55124,"lon":139.4437},{"name":"町田市健康福祉会館","province":"東京都","city":"町田市","address":"町田市原町田5-8-21","lat":35.54611,"lon":139.45018},{"name":"町田市忠生保健センター","province":"東京都","city":"町田市","address":"町田市忠生3-14-2","lat":35.57766,"lon":139.41542},{"name":"町田市鶴川保健センター","province":"東京都","city":"町田市","address":"町田市大蔵町1981-4","lat":35.58874,"lon":139.46738},{"name":"町田市保健所","province":"東京都","city":"町田市","address":"東京都町田市森野2丁目2-22","lat":35.54666373,"lon":139.43864046},{"name":"町田市保健所中町庁舎","province":"東京都","city":"町田市","address":"東京都町田市中町2丁目13-3","lat":35.55124111,"lon":139.44367596},{"name":"町田市健康福祉会館","province":"東京都","city":"町田市","address":"東京都町田市原町田5丁目8-21","lat":35.54609452,"lon":139.45002283},{"name":"町田市忠生保健センター","province":"東京都","city":"町田市","address":"東京都町田市忠生3丁目14-2","lat":35.57836563,"lon":139.41603053},{"name":"町田市鶴川保健センター","province":"東京都","city":"町田市","address":"東京都町田市大蔵町1981-4","lat":35.58888611,"lon":139.46739571},{"name":"社会福祉法人まちだ育成会ひかり療育園","province":"東京都","city":"町田市","address":"東京都町田市忠生3丁目6-2","lat":35.57688807,"lon":139.41875532},{"name":"医療法人社団公朋会デイケアだんけ","province":"東京都","city":"町田市","address":"東京都町田市成瀬台3丁目8-18","lat":35.55480671,"lon":139.47834313},{"name":"社会福祉法人つぼみの家町田ゆめ工房","province":"東京都","city":"町田市","address":"東京都町田市相原町2983-157","lat":35.60794677,"lon":139.31323009},{"name":"社会福祉法人ウィズ町田なないろ","province":"東京都","city":"町田市","address":"東京都町田市木曽西2丁目17-16","lat":35.57001097,"lon":139.41539749},{"name":"社会福祉法人まちのひ富士清掃サービス","province":"東京都","city":"町田市","address":"東京都町田市忠生3丁目18-1","lat":35.57811285,"lon":139.41451123},{"name":"地域活動支援センターまちプラ","province":"東京都","city":"町田市","address":"東京都町田市原町田4丁目24-6","lat":35.54444758,"lon":139.45308375},{"name":"愛恵会乳児院","province":"東京都","city":"町田市","address":"町田市小山町3191-3","lat":35.599698,"lon":139.361059},{"name":"町田市民病院","province":"東京都","city":"町田市","address":"町田市旭町2-15-41","lat":35.55734,"lon":139.43691},{"name":"サンシルバー町田","province":"東京都","city":"町田市","address":"町田市相原町2373-1","lat":35.613326,"lon":139.314385},{"name":"町田市民病院","province":"東京都","city":"町田市","address":"町田市旭町2-15-41","lat":35.557091,"lon":139.438701},{"name":"町田市すみれ教室","province":"東京都","city":"町田市","address":"町田市中町2-13-14","lat":35.551569,"lon":139.444459},{"name":"町田市授産場","province":"東京都","city":"町田市","address":"町田市忠生3-6-22","lat":35.57746,"lon":139.419097},{"name":"桜ケ丘共働学舎","province":"東京都","city":"町田市","address":"町田市小野路町2157","lat":35.594709,"lon":139.449684},{"name":"町田荘","province":"東京都","city":"町田市","address":"町田市南成瀬4-19-15","lat":35.538792,"lon":139.477213},{"name":"町田第２荘","province":"東京都","city":"町田市","address":"町田市南成瀬7-6-12","lat":35.534051,"lon":139.480602},{"name":"町田図師荘","province":"東京都","city":"町田市","address":"町田市図師町615-7","lat":35.582199,"lon":139.419452},{"name":"町田市社会福祉協議会","province":"東京都","city":"町田市","address":"町田市原町田4-9-8町田市民フォーラム4階","lat":35.541806,"lon":139.449881},{"name":"町田荘","province":"東京都","city":"町田市","address":"町田市南成瀬4-19-15","lat":35.53862,"lon":139.47742},{"name":"町田第２荘","province":"東京都","city":"町田市","address":"町田市南成瀬7-6-12","lat":35.5341,"lon":139.48062},{"name":"町田図師荘","province":"東京都","city":"町田市","address":"町田市図師町615-7","lat":35.58226,"lon":139.41943},{"name":"町田市保健所","province":"東京都","city":"町田市","address":"町田市森野2-2-22市庁舎7階","lat":35.549872,"lon":139.440026},{"name":"町田市保健所中町庁舎","province":"東京都","city":"町田市","address":"町田市中町2-13-3","lat":35.551224,"lon":139.443709},{"name":"町田市健康福祉会館","province":"東京都","city":"町田市","address":"町田市原町田5-8-21","lat":35.54602,"lon":139.449987},{"name":"町田市忠生保健センター","province":"東京都","city":"町田市","address":"町田市忠生3-14-2","lat":35.578366,"lon":139.416031},{"name":"町田市鶴川保健センター","province":"東京都","city":"町田市","address":"町田市大蔵町1981-4","lat":35.588886,"lon":139.467396},{"name":"（株）公恩社","province":"東京都","city":"町田市","address":"東京都町田市小野路町3186-6","lat":35.60631871,"lon":139.44397447},{"name":"町田市民病院","province":"東京都","city":"町田市","address":"町田市旭町2-15-41","lat":35.55734,"lon":139.4369},{"name":"愛恵会乳児院","province":"東京都","city":"町田市","address":"町田市小山町3191-3","lat":35.59977,"lon":139.3615},{"name":"あいこう","province":"東京都","city":"町田市","address":"東京都町田市","lat":35.5466304,"lon":139.43861823},{"name":"桜ケ丘共働学舎","province":"東京都","city":"町田市","address":"町田市小野路町2157","lat":35.60214,"lon":139.43965},{"name":"アクア矢部町","province":"東京都","city":"町田市","address":"町田市矢部町10-2","lat":35.57644,"lon":139.4057},{"name":"町田市社会福祉協議会","province":"東京都","city":"町田市","address":"町田市原町田4-9-8町田市民フォーラム4階","lat":35.54182,"lon":139.44991},{"name":"町田市保健所","province":"東京都","city":"町田市","address":"町田市森野2-2-22市庁舎7階","lat":35.54658,"lon":139.4389},{"name":"町田市保健所中町庁舎","province":"東京都","city":"町田市","address":"町田市中町2-13-3","lat":35.55124,"lon":139.4437},{"name":"町田市健康福祉会館","province":"東京都","city":"町田市","address":"町田市原町田5-8-21","lat":35.54611,"lon":139.45018},{"name":"町田市忠生保健センター","province":"東京都","city":"町田市","address":"町田市忠生3-14-2","lat":35.57766,"lon":139.41542},{"name":"町田市鶴川保健センター","province":"東京都","city":"町田市","address":"町田市大蔵町1981-4","lat":35.58874,"lon":139.46738},{"name":"町田市保健所","province":"東京都","city":"町田市","address":"東京都町田市森野2丁目2-22","lat":35.54666373,"lon":139.43864046},{"name":"町田市保健所中町庁舎","province":"東京都","city":"町田市","address":"東京都町田市中町2丁目13-3","lat":35.55124111,"lon":139.44367596},{"name":"町田市健康福祉会館","province":"東京都","city":"町田市","address":"東京都町田市原町田5丁目8-21","lat":35.54609452,"lon":139.45002283},{"name":"町田市忠生保健センター","province":"東京都","city":"町田市","address":"東京都町田市忠生3丁目14-2","lat":35.57836563,"lon":139.41603053},{"name":"町田市鶴川保健センター","province":"東京都","city":"町田市","address":"東京都町田市大蔵町1981-4","lat":35.58888611,"lon":139.46739571},{"name":"社会福祉法人まちだ育成会ひかり療育園","province":"東京都","city":"町田市","address":"東京都町田市忠生3丁目6-2","lat":35.57688807,"lon":139.41875532},{"name":"医療法人社団公朋会デイケアだんけ","province":"東京都","city":"町田市","address":"東京都町田市成瀬台3丁目8-18","lat":35.55480671,"lon":139.47834313},{"name":"社会福祉法人つぼみの家町田ゆめ工房","province":"東京都","city":"町田市","address":"東京都町田市相原町2983-157","lat":35.60794677,"lon":139.31323009},{"name":"社会福祉法人ウィズ町田なないろ","province":"東京都","city":"町田市","address":"東京都町田市木曽西2丁目17-16","lat":35.57001097,"lon":139.41539749},{"name":"社会福祉法人まちのひ富士清掃サービス","province":"東京都","city":"町田市","address":"東京都町田市忠生3丁目18-1","lat":35.57811285,"lon":139.41451123},{"name":"地域活動支援センターまちプラ","province":"東京都","city":"町田市","address":"東京都町田市原町田4丁目24-6","lat":35.54444758,"lon":139.45308375},{"name":"愛恵会乳児院","province":"東京都","city":"町田市","address":"町田市小山町3191-3","lat":35.599698,"lon":139.361059},{"name":"町田市民病院","province":"東京都","city":"町田市","address":"町田市旭町2-15-41","lat":35.55734,"lon":139.43691},{"name":"サンシルバー町田","province":"東京都","city":"町田市","address":"町田市相原町2373-1","lat":35.613326,"lon":139.314385},{"name":"町田市民病院","province":"東京都","city":"町田市","address":"町田市旭町2-15-41","lat":35.557091,"lon":139.438701},{"name":"町田市すみれ教室","province":"東京都","city":"町田市","address":"町田市中町2-13-14","lat":35.551569,"lon":139.444459},{"name":"町田市授産場","province":"東京都","city":"町田市","address":"町田市忠生3-6-22","lat":35.57746,"lon":139.419097},{"name":"桜ケ丘共働学舎","province":"東京都","city":"町田市","address":"町田市小野路町2157","lat":35.594709,"lon":139.449684},{"name":"町田荘","province":"東京都","city":"町田市","address":"町田市南成瀬4-19-15","lat":35.538792,"lon":139.477213},{"name":"町田第２荘","province":"東京都","city":"町田市","address":"町田市南成瀬7-6-12","lat":35.534051,"lon":139.480602},{"name":"町田図師荘","province":"東京都","city":"町田市","address":"町田市図師町615-7","lat":35.582199,"lon":139.419452},{"name":"町田市社会福祉協議会","province":"東京都","city":"町田市","address":"町田市原町田4-9-8町田市民フォーラム4階","lat":35.541806,"lon":139.449881},{"name":"町田荘","province":"東京都","city":"町田市","address":"町田市南成瀬4-19-15","lat":35.53862,"lon":139.47742},{"name":"町田第２荘","province":"東京都","city":"町田市","address":"町田市南成瀬7-6-12","lat":35.5341,"lon":139.48062},{"name":"町田図師荘","province":"東京都","city":"町田市","address":"町田市図師町615-7","lat":35.58226,"lon":139.41943},{"name":"町田市保健所","province":"東京都","city":"町田市","address":"町田市森野2-2-22市庁舎7階","lat":35.549872,"lon":139.440026},{"name":"町田市保健所中町庁舎","province":"東京都","city":"町田市","address":"町田市中町2-13-3","lat":35.551224,"lon":139.443709},{"name":"町田市健康福祉会館","province":"東京都","city":"町田市","address":"町田市原町田5-8-21","lat":35.54602,"lon":139.449987},{"name":"町田市忠生保健センター","province":"東京都","city":"町田市","address":"町田市忠生3-14-2","lat":35.578366,"lon":139.416031},{"name":"町田市鶴川保健センター","province":"東京都","city":"町田市","address":"町田市大蔵町1981-4","lat":35.588886,"lon":139.467396},{"name":"（株）公恩社","province":"東京都","city":"町田市","address":"東京都町田市小野路町3186-6","lat":35.60631871,"lon":139.44397447},{"name":"町田市民病院","province":"東京都","city":"町田市","address":"町田市旭町2-15-41","lat":35.55734,"lon":139.4369},{"name":"愛恵会乳児院","province":"東京都","city":"町田市","address":"町田市小山町3191-3","lat":35.59977,"lon":139.3615},{"name":"あいこう","province":"東京都","city":"町田市","address":"東京都町田市","lat":35.5466304,"lon":139.43861823},{"name":"桜ケ丘共働学舎","province":"東京都","city":"町田市","address":"町田市小野路町2157","lat":35.60214,"lon":139.43965},{"name":"アクア矢部町","province":"東京都","city":"町田市","address":"町田市矢部町10-2","lat":35.57644,"lon":139.4057},{"name":"町田市社会福祉協議会","province":"東京都","city":"町田市","address":"町田市原町田4-9-8町田市民フォーラム4階","lat":35.54182,"lon":139.44991},{"name":"町田市保健所","province":"東京都","city":"町田市","address":"町田市森野2-2-22市庁舎7階","lat":35.54658,"lon":139.4389},{"name":"町田市保健所中町庁舎","province":"東京都","city":"町田市","address":"町田市中町2-13-3","lat":35.55124,"lon":139.4437},{"name":"町田市健康福祉会館","province":"東京都","city":"町田市","address":"町田市原町田5-8-21","lat":35.54611,"lon":139.45018},{"name":"町田市忠生保健センター","province":"東京都","city":"町田市","address":"町田市忠生3-14-2","lat":35.57766,"lon":139.41542},{"name":"町田市鶴川保健センター","province":"東京都","city":"町田市","address":"町田市大蔵町1981-4","lat":35.58874,"lon":139.46738},{"name":"町田市保健所","province":"東京都","city":"町田市","address":"東京都町田市森野2丁目2-22","lat":35.54666373,"lon":139.43864046},{"name":"町田市保健所中町庁舎","province":"東京都","city":"町田市","address":"東京都町田市中町2丁目13-3","lat":35.55124111,"lon":139.44367596},{"name":"町田市健康福祉会館","province":"東京都","city":"町田市","address":"東京都町田市原町田5丁目8-21","lat":35.54609452,"lon":139.45002283},{"name":"町田市忠生保健センター","province":"東京都","city":"町田市","address":"東京都町田市忠生3丁目14-2","lat":35.57836563,"lon":139.41603053},{"name":"町田市鶴川保健センター","province":"東京都","city":"町田市","address":"東京都町田市大蔵町1981-4","lat":35.58888611,"lon":139.46739571},{"name":"社会福祉法人まちだ育成会ひかり療育園","province":"東京都","city":"町田市","address":"東京都町田市忠生3丁目6-2","lat":35.57688807,"lon":139.41875532},{"name":"医療法人社団公朋会デイケアだんけ","province":"東京都","city":"町田市","address":"東京都町田市成瀬台3丁目8-18","lat":35.55480671,"lon":139.47834313},{"name":"社会福祉法人つぼみの家町田ゆめ工房","province":"東京都","city":"町田市","address":"東京都町田市相原町2983-157","lat":35.60794677,"lon":139.31323009},{"name":"社会福祉法人ウィズ町田なないろ","province":"東京都","city":"町田市","address":"東京都町田市木曽西2丁目17-16","lat":35.57001097,"lon":139.41539749},{"name":"社会福祉法人まちのひ富士清掃サービス","province":"東京都","city":"町田市","address":"東京都町田市忠生3丁目18-1","lat":35.57811285,"lon":139.41451123},{"name":"地域活動支援センターまちプラ","province":"東京都","city":"町田市","address":"東京都町田市原町田4丁目24-6","lat":35.54444758,"lon":139.45308375},{"name":"愛恵会乳児院","province":"東京都","city":"町田市","address":"町田市小山町3191-3","lat":35.599698,"lon":139.361059},{"name":"町田市民病院","province":"東京都","city":"町田市","address":"町田市旭町2-15-41","lat":35.55734,"lon":139.43691},{"name":"サンシルバー町田","province":"東京都","city":"町田市","address":"町田市相原町2373-1","lat":35.613326,"lon":139.314385},{"name":"町田市民病院","province":"東京都","city":"町田市","address":"町田市旭町2-15-41","lat":35.557091,"lon":139.438701},{"name":"町田市すみれ教室","province":"東京都","city":"町田市","address":"町田市中町2-13-14","lat":35.551569,"lon":139.444459},{"name":"町田市授産場","province":"東京都","city":"町田市","address":"町田市忠生3-6-22","lat":35.57746,"lon":139.419097},{"name":"桜ケ丘共働学舎","province":"東京都","city":"町田市","address":"町田市小野路町2157","lat":35.594709,"lon":139.449684},{"name":"町田荘","province":"東京都","city":"町田市","address":"町田市南成瀬4-19-15","lat":35.538792,"lon":139.477213},{"name":"町田第２荘","province":"東京都","city":"町田市","address":"町田市南成瀬7-6-12","lat":35.534051,"lon":139.480602},{"name":"町田図師荘","province":"東京都","city":"町田市","address":"町田市図師町615-7","lat":35.582199,"lon":139.419452},{"name":"町田市社会福祉協議会","province":"東京都","city":"町田市","address":"町田市原町田4-9-8町田市民フォーラム4階","lat":35.541806,"lon":139.449881},{"name":"町田荘","province":"東京都","city":"町田市","address":"町田市南成瀬4-19-15","lat":35.53862,"lon":139.47742},{"name":"町田第２荘","province":"東京都","city":"町田市","address":"町田市南成瀬7-6-12","lat":35.5341,"lon":139.48062},{"name":"町田図師荘","province":"東京都","city":"町田市","address":"町田市図師町615-7","lat":35.58226,"lon":139.41943},{"name":"町田市保健所","province":"東京都","city":"町田市","address":"町田市森野2-2-22市庁舎7階","lat":35.549872,"lon":139.440026},{"name":"町田市保健所中町庁舎","province":"東京都","city":"町田市","address":"町田市中町2-13-3","lat":35.551224,"lon":139.443709},{"name":"町田市健康福祉会館","province":"東京都","city":"町田市","address":"町田市原町田5-8-21","lat":35.54602,"lon":139.449987},{"name":"町田市忠生保健センター","province":"東京都","city":"町田市","address":"町田市忠生3-14-2","lat":35.578366,"lon":139.416031},{"name":"町田市鶴川保健センター","province":"東京都","city":"町田市","address":"町田市大蔵町1981-4","lat":35.588886,"lon":139.467396},{"name":"（株）公恩社","province":"東京都","city":"町田市","address":"東京都町田市小野路町3186-6","lat":35.60631871,"lon":139.44397447},{"name":"町田市民病院","province":"東京都","city":"町田市","address":"町田市旭町2-15-41","lat":35.55734,"lon":139.4369},{"name":"愛恵会乳児院","province":"東京都","city":"町田市","address":"町田市小山町3191-3","lat":35.59977,"lon":139.3615},{"name":"あいこう","province":"東京都","city":"町田市","address":"東京都町田市","lat":35.5466304,"lon":139.43861823},{"name":"桜ケ丘共働学舎","province":"東京都","city":"町田市","address":"町田市小野路町2157","lat":35.60214,"lon":139.43965},{"name":"アクア矢部町","province":"東京都","city":"町田市","address":"町田市矢部町10-2","lat":35.57644,"lon":139.4057},{"name":"町田市社会福祉協議会","province":"東京都","city":"町田市","address":"町田市原町田4-9-8町田市民フォーラム4階","lat":35.54182,"lon":139.44991},{"name":"町田市保健所","province":"東京都","city":"町田市","address":"町田市森野2-2-22市庁舎7階","lat":35.54658,"lon":139.4389},{"name":"町田市保健所中町庁舎","province":"東京都","city":"町田市","address":"町田市中町2-13-3","lat":35.55124,"lon":139.4437},{"name":"町田市健康福祉会館","province":"東京都","city":"町田市","address":"町田市原町田5-8-21","lat":35.54611,"lon":139.45018},{"name":"町田市忠生保健センター","province":"東京都","city":"町田市","address":"町田市忠生3-14-2","lat":35.57766,"lon":139.41542},{"name":"町田市鶴川保健センター","province":"東京都","city":"町田市","address":"町田市大蔵町1981-4","lat":35.58874,"lon":139.46738},{"name":"町田市保健所","province":"東京都","city":"町田市","address":"東京都町田市森野2丁目2-22","lat":35.54666373,"lon":139.43864046},{"name":"町田市保健所中町庁舎","province":"東京都","city":"町田市","address":"東京都町田市中町2丁目13-3","lat":35.55124111,"lon":139.44367596},{"name":"町田市健康福祉会館","province":"東京都","city":"町田市","address":"東京都町田市原町田5丁目8-21","lat":35.54609452,"lon":139.45002283},{"name":"町田市忠生保健センター","province":"東京都","city":"町田市","address":"東京都町田市忠生3丁目14-2","lat":35.57836563,"lon":139.41603053},{"name":"町田市鶴川保健センター","province":"東京都","city":"町田市","address":"東京都町田市大蔵町1981-4","lat":35.58888611,"lon":139.46739571},{"name":"社会福祉法人まちだ育成会ひかり療育園","province":"東京都","city":"町田市","address":"東京都町田市忠生3丁目6-2","lat":35.57688807,"lon":139.41875532},{"name":"医療法人社団公朋会デイケアだんけ","province":"東京都","city":"町田市","address":"東京都町田市成瀬台3丁目8-18","lat":35.55480671,"lon":139.47834313},{"name":"社会福祉法人つぼみの家町田ゆめ工房","province":"東京都","city":"町田市","address":"東京都町田市相原町2983-157","lat":35.60794677,"lon":139.31323009},{"name":"社会福祉法人ウィズ町田なないろ","province":"東京都","city":"町田市","address":"東京都町田市木曽西2丁目17-16","lat":35.57001097,"lon":139.41539749},{"name":"社会福祉法人まちのひ富士清掃サービス","province":"東京都","city":"町田市","address":"東京都町田市忠生3丁目18-1","lat":35.57811285,"lon":139.41451123},{"name":"地域活動支援センターまちプラ","province":"東京都","city":"町田市","address":"東京都町田市原町田4丁目24-6","lat":35.54444758,"lon":139.45308375},{"name":"愛恵会乳児院","province":"東京都","city":"町田市","address":"町田市小山町3191-3","lat":35.599698,"lon":139.361059},{"name":"町田市民病院","province":"東京都","city":"町田市","address":"町田市旭町2-15-41","lat":35.55734,"lon":139.43691},{"name":"サンシルバー町田","province":"東京都","city":"町田市","address":"町田市相原町2373-1","lat":35.613326,"lon":139.314385},{"name":"町田市民病院","province":"東京都","city":"町田市","address":"町田市旭町2-15-41","lat":35.557091,"lon":139.438701},{"name":"町田市すみれ教室","province":"東京都","city":"町田市","address":"町田市中町2-13-14","lat":35.551569,"lon":139.444459},{"name":"町田市授産場","province":"東京都","city":"町田市","address":"町田市忠生3-6-22","lat":35.57746,"lon":139.419097},{"name":"桜ケ丘共働学舎","province":"東京都","city":"町田市","address":"町田市小野路町2157","lat":35.594709,"lon":139.449684},{"name":"町田荘","province":"東京都","city":"町田市","address":"町田市南成瀬4-19-15","lat":35.538792,"lon":139.477213},{"name":"町田第２荘","province":"東京都","city":"町田市","address":"町田市南成瀬7-6-12","lat":35.534051,"lon":139.480602},{"name":"町田図師荘","province":"東京都","city":"町田市","address":"町田市図師町615-7","lat":35.582199,"lon":139.419452},{"name":"町田市社会福祉協議会","province":"東京都","city":"町田市","address":"町田市原町田4-9-8町田市民フォーラム4階","lat":35.541806,"lon":139.449881},{"name":"町田荘","province":"東京都","city":"町田市","address":"町田市南成瀬4-19-15","lat":35.53862,"lon":139.47742},{"name":"町田第２荘","province":"東京都","city":"町田市","address":"町田市南成瀬7-6-12","lat":35.5341,"lon":139.48062},{"name":"町田図師荘","province":"東京都","city":"町田市","address":"町田市図師町615-7","lat":35.58226,"lon":139.41943},{"name":"町田市保健所","province":"東京都","city":"町田市","address":"町田市森野2-2-22市庁舎7階","lat":35.549872,"lon":139.440026},{"name":"町田市保健所中町庁舎","province":"東京都","city":"町田市","address":"町田市中町2-13-3","lat":35.551224,"lon":139.443709},{"name":"町田市健康福祉会館","province":"東京都","city":"町田市","address":"町田市原町田5-8-21","lat":35.54602,"lon":139.449987},{"name":"町田市忠生保健センター","province":"東京都","city":"町田市","address":"町田市忠生3-14-2","lat":35.578366,"lon":139.416031},{"name":"町田市鶴川保健センター","province":"東京都","city":"町田市","address":"町田市大蔵町1981-4","lat":35.588886,"lon":139.467396},{"name":"町田市民病院","province":"東京都","city":"町田市","address":"町田市旭町2-15-41","lat":35.55734,"lon":139.4369},{"name":"愛恵会乳児院","province":"東京都","city":"町田市","address":"町田市小山町3191-3","lat":35.59977,"lon":139.3615},{"name":"あいこう","province":"東京都","city":"町田市","address":"東京都町田市","lat":35.5466304,"lon":139.43861823},{"name":"桜ケ丘共働学舎","province":"東京都","city":"町田市","address":"町田市小野路町2157","lat":35.60214,"lon":139.43965},{"name":"アクア矢部町","province":"東京都","city":"町田市","address":"町田市矢部町10-2","lat":35.57644,"lon":139.4057},{"name":"町田市社会福祉協議会","province":"東京都","city":"町田市","address":"町田市原町田4-9-8町田市民フォーラム4階","lat":35.54182,"lon":139.44991},{"name":"町田市保健所","province":"東京都","city":"町田市","address":"町田市森野2-2-22市庁舎7階","lat":35.54658,"lon":139.4389},{"name":"町田市保健所中町庁舎","province":"東京都","city":"町田市","address":"町田市中町2-13-3","lat":35.55124,"lon":139.4437},{"name":"町田市健康福祉会館","province":"東京都","city":"町田市","address":"町田市原町田5-8-21","lat":35.54611,"lon":139.45018},{"name":"町田市忠生保健センター","province":"東京都","city":"町田市","address":"町田市忠生3-14-2","lat":35.57766,"lon":139.41542},{"name":"町田市鶴川保健センター","province":"東京都","city":"町田市","address":"町田市大蔵町1981-4","lat":35.58874,"lon":139.46738},{"name":"町田市保健所","province":"東京都","city":"町田市","address":"東京都町田市森野2丁目2-22","lat":35.54666373,"lon":139.43864046},{"name":"町田市保健所中町庁舎","province":"東京都","city":"町田市","address":"東京都町田市中町2丁目13-3","lat":35.55124111,"lon":139.44367596},{"name":"町田市健康福祉会館","province":"東京都","city":"町田市","address":"東京都町田市原町田5丁目8-21","lat":35.54609452,"lon":139.45002283},{"name":"町田市忠生保健センター","province":"東京都","city":"町田市","address":"東京都町田市忠生3丁目14-2","lat":35.57836563,"lon":139.41603053},{"name":"町田市鶴川保健センター","province":"東京都","city":"町田市","address":"東京都町田市大蔵町1981-4","lat":35.58888611,"lon":139.46739571},{"name":"社会福祉法人まちだ育成会ひかり療育園","province":"東京都","city":"町田市","address":"東京都町田市忠生3丁目6-2","lat":35.57688807,"lon":139.41875532},{"name":"医療法人社団公朋会デイケアだんけ","province":"東京都","city":"町田市","address":"東京都町田市成瀬台3丁目8-18","lat":35.55480671,"lon":139.47834313},{"name":"社会福祉法人つぼみの家町田ゆめ工房","province":"東京都","city":"町田市","address":"東京都町田市相原町2983-157","lat":35.60794677,"lon":139.31323009},{"name":"社会福祉法人ウィズ町田なないろ","province":"東京都","city":"町田市","address":"東京都町田市木曽西2丁目17-16","lat":35.57001097,"lon":139.41539749},{"name":"社会福祉法人まちのひ富士清掃サービス","province":"東京都","city":"町田市","address":"東京都町田市忠生3丁目18-1","lat":35.57811285,"lon":139.41451123},{"name":"地域活動支援センターまちプラ","province":"東京都","city":"町田市","address":"東京都町田市原町田4丁目24-6","lat":35.54444758,"lon":139.45308375},{"name":"愛恵会乳児院","province":"東京都","city":"町田市","address":"町田市小山町3191-3","lat":35.599698,"lon":139.361059},{"name":"町田市民病院","province":"東京都","city":"町田市","address":"町田市旭町2-15-41","lat":35.55734,"lon":139.43691},{"name":"サンシルバー町田","province":"東京都","city":"町田市","address":"町田市相原町2373-1","lat":35.613326,"lon":139.314385},{"name":"町田市民病院","province":"東京都","city":"町田市","address":"町田市旭町2-15-41","lat":35.557091,"lon":139.438701},{"name":"町田市すみれ教室","province":"東京都","city":"町田市","address":"町田市中町2-13-14","lat":35.551569,"lon":139.444459},{"name":"町田市授産場","province":"東京都","city":"町田市","address":"町田市忠生3-6-22","lat":35.57746,"lon":139.419097},{"name":"桜ケ丘共働学舎","province":"東京都","city":"町田市","address":"町田市小野路町2157","lat":35.594709,"lon":139.449684},{"name":"町田荘","province":"東京都","city":"町田市","address":"町田市南成瀬4-19-15","lat":35.538792,"lon":139.477213},{"name":"町田第２荘","province":"東京都","city":"町田市","address":"町田市南成瀬7-6-12","lat":35.534051,"lon":139.480602},{"name":"町田図師荘","province":"東京都","city":"町田市","address":"町田市図師町615-7","lat":35.582199,"lon":139.419452},{"name":"町田市社会福祉協議会","province":"東京都","city":"町田市","address":"町田市原町田4-9-8町田市民フォーラム4階","lat":35.541806,"lon":139.449881},{"name":"町田荘","province":"東京都","city":"町田市","address":"町田市南成瀬4-19-15","lat":35.53862,"lon":139.47742},{"name":"町田第２荘","province":"東京都","city":"町田市","address":"町田市南成瀬7-6-12","lat":35.5341,"lon":139.48062},{"name":"町田図師荘","province":"東京都","city":"町田市","address":"町田市図師町615-7","lat":35.58226,"lon":139.41943},{"name":"町田市保健所","province":"東京都","city":"町田市","address":"町田市森野2-2-22市庁舎7階","lat":35.549872,"lon":139.440026},{"name":"町田市保健所中町庁舎","province":"東京都","city":"町田市","address":"町田市中町2-13-3","lat":35.551224,"lon":139.443709},{"name":"町田市健康福祉会館","province":"東京都","city":"町田市","address":"町田市原町田5-8-21","lat":35.54602,"lon":139.449987},{"name":"町田市忠生保健センター","province":"東京都","city":"町田市","address":"町田市忠生3-14-2","lat":35.578366,"lon":139.416031},{"name":"町田市鶴川保健センター","province":"東京都","city":"町田市","address":"町田市大蔵町1981-4","lat":35.588886,"lon":139.467396},{"name":"町田市民病院","province":"東京都","city":"町田市","address":"町田市旭町2-15-41","lat":35.55734,"lon":139.4369},{"name":"愛恵会乳児院","province":"東京都","city":"町田市","address":"町田市小山町3191-3","lat":35.59977,"lon":139.3615},{"name":"あいこう","province":"東京都","city":"町田市","address":"東京都町田市","lat":35.5466304,"lon":139.43861823},{"name":"桜ケ丘共働学舎","province":"東京都","city":"町田市","address":"町田市小野路町2157","lat":35.60214,"lon":139.43965},{"name":"アクア矢部町","province":"東京都","city":"町田市","address":"町田市矢部町10-2","lat":35.57644,"lon":139.4057},{"name":"町田市社会福祉協議会","province":"東京都","city":"町田市","address":"町田市原町田4-9-8町田市民フォーラム4階","lat":35.54182,"lon":139.44991},{"name":"町田市保健所","province":"東京都","city":"町田市","address":"町田市森野2-2-22市庁舎7階","lat":35.54658,"lon":139.4389},{"name":"町田市保健所中町庁舎","province":"東京都","city":"町田市","address":"町田市中町2-13-3","lat":35.55124,"lon":139.4437},{"name":"町田市健康福祉会館","province":"東京都","city":"町田市","address":"町田市原町田5-8-21","lat":35.54611,"lon":139.45018},{"name":"町田市忠生保健センター","province":"東京都","city":"町田市","address":"町田市忠生3-14-2","lat":35.57766,"lon":139.41542},{"name":"町田市鶴川保健センター","province":"東京都","city":"町田市","address":"町田市大蔵町1981-4","lat":35.58874,"lon":139.46738},{"name":"社会福祉法人まちだ育成会ひかり療育園","province":"東京都","city":"町田市","address":"東京都町田市忠生3丁目6-2","lat":35.57688807,"lon":139.41875532},{"name":"医療法人社団公朋会デイケアだんけ","province":"東京都","city":"町田市","address":"東京都町田市成瀬台3丁目8-18","lat":35.55480671,"lon":139.47834313},{"name":"社会福祉法人つぼみの家町田ゆめ工房","province":"東京都","city":"町田市","address":"東京都町田市相原町2983-157","lat":35.60794677,"lon":139.31323009},{"name":"社会福祉法人ウィズ町田なないろ","province":"東京都","city":"町田市","address":"東京都町田市木曽西2丁目17-16","lat":35.57001097,"lon":139.41539749},{"name":"社会福祉法人まちのひ富士清掃サービス","province":"東京都","city":"町田市","address":"東京都町田市忠生3丁目18-1","lat":35.57811285,"lon":139.41451123},{"name":"地域活動支援センターまちプラ","province":"東京都","city":"町田市","address":"東京都町田市原町田4丁目24-6","lat":35.54444758,"lon":139.45308375},{"name":"愛恵会乳児院","province":"東京都","city":"町田市","address":"町田市小山町3191-3","lat":35.599698,"lon":139.361059},{"name":"町田市民病院","province":"東京都","city":"町田市","address":"町田市旭町2-15-41","lat":35.55734,"lon":139.43691},{"name":"サンシルバー町田","province":"東京都","city":"町田市","address":"町田市相原町2373-1","lat":35.613326,"lon":139.314385},{"name":"町田市民病院","province":"東京都","city":"町田市","address":"町田市旭町2-15-41","lat":35.557091,"lon":139.438701},{"name":"町田市すみれ教室","province":"東京都","city":"町田市","address":"町田市中町2-13-14","lat":35.551569,"lon":139.444459},{"name":"町田市授産場","province":"東京都","city":"町田市","address":"町田市忠生3-6-22","lat":35.57746,"lon":139.419097},{"name":"桜ケ丘共働学舎","province":"東京都","city":"町田市","address":"町田市小野路町2157","lat":35.594709,"lon":139.449684},{"name":"町田荘","province":"東京都","city":"町田市","address":"町田市南成瀬4-19-15","lat":35.538792,"lon":139.477213},{"name":"町田第２荘","province":"東京都","city":"町田市","address":"町田市南成瀬7-6-12","lat":35.534051,"lon":139.480602},{"name":"町田図師荘","province":"東京都","city":"町田市","address":"町田市図師町615-7","lat":35.582199,"lon":139.419452},{"name":"町田市社会福祉協議会","province":"東京都","city":"町田市","address":"町田市原町田4-9-8町田市民フォーラム4階","lat":35.541806,"lon":139.449881},{"name":"町田荘","province":"東京都","city":"町田市","address":"町田市南成瀬4-19-15","lat":35.53862,"lon":139.47742},{"name":"町田第２荘","province":"東京都","city":"町田市","address":"町田市南成瀬7-6-12","lat":35.5341,"lon":139.48062},{"name":"町田図師荘","province":"東京都","city":"町田市","address":"町田市図師町615-7","lat":35.58226,"lon":139.41943},{"name":"町田市保健所","province":"東京都","city":"町田市","address":"町田市森野2-2-22市庁舎7階","lat":35.549872,"lon":139.440026},{"name":"町田市保健所中町庁舎","province":"東京都","city":"町田市","address":"町田市中町2-13-3","lat":35.551224,"lon":139.443709},{"name":"町田市健康福祉会館","province":"東京都","city":"町田市","address":"町田市原町田5-8-21","lat":35.54602,"lon":139.449987},{"name":"町田市忠生保健センター","province":"東京都","city":"町田市","address":"町田市忠生3-14-2","lat":35.578366,"lon":139.416031},{"name":"町田市鶴川保健センター","province":"東京都","city":"町田市","address":"町田市大蔵町1981-4","lat":35.588886,"lon":139.467396},{"name":"町田市民病院","province":"東京都","city":"町田市","address":"町田市旭町2-15-41","lat":35.55734,"lon":139.4369},{"name":"愛恵会乳児院","province":"東京都","city":"町田市","address":"町田市小山町3191-3","lat":35.59977,"lon":139.3615},{"name":"あいこう","province":"東京都","city":"町田市","address":"東京都町田市","lat":35.5466304,"lon":139.43861823},{"name":"桜ケ丘共働学舎","province":"東京都","city":"町田市","address":"町田市小野路町2157","lat":35.60214,"lon":139.43965},{"name":"アクア矢部町","province":"東京都","city":"町田市","address":"町田市矢部町10-2","lat":35.57644,"lon":139.4057},{"name":"町田市社会福祉協議会","province":"東京都","city":"町田市","address":"町田市原町田4-9-8町田市民フォーラム4階","lat":35.54182,"lon":139.44991},{"name":"町田市保健所","province":"東京都","city":"町田市","address":"町田市森野2-2-22市庁舎7階","lat":35.54658,"lon":139.4389},{"name":"町田市保健所中町庁舎","province":"東京都","city":"町田市","address":"町田市中町2-13-3","lat":35.55124,"lon":139.4437},{"name":"町田市健康福祉会館","province":"東京都","city":"町田市","address":"町田市原町田5-8-21","lat":35.54611,"lon":139.45018},{"name":"町田市忠生保健センター","province":"東京都","city":"町田市","address":"町田市忠生3-14-2","lat":35.57766,"lon":139.41542},{"name":"町田市鶴川保健センター","province":"東京都","city":"町田市","address":"町田市大蔵町1981-4","lat":35.58874,"lon":139.46738},{"name":"社会福祉法人まちだ育成会ひかり療育園","province":"東京都","city":"町田市","address":"東京都町田市忠生3丁目6-2","lat":35.57688807,"lon":139.41875532},{"name":"医療法人社団公朋会デイケアだんけ","province":"東京都","city":"町田市","address":"東京都町田市成瀬台3丁目8-18","lat":35.55480671,"lon":139.47834313},{"name":"社会福祉法人つぼみの家町田ゆめ工房","province":"東京都","city":"町田市","address":"東京都町田市相原町2983-157","lat":35.60794677,"lon":139.31323009},{"name":"社会福祉法人ウィズ町田なないろ","province":"東京都","city":"町田市","address":"東京都町田市木曽西2丁目17-16","lat":35.57001097,"lon":139.41539749},{"name":"社会福祉法人まちのひ富士清掃サービス","province":"東京都","city":"町田市","address":"東京都町田市忠生3丁目18-1","lat":35.57811285,"lon":139.41451123},{"name":"地域活動支援センターまちプラ","province":"東京都","city":"町田市","address":"東京都町田市原町田4丁目24-6","lat":35.54444758,"lon":139.45308375},{"name":"愛恵会乳児院","province":"東京都","city":"町田市","address":"町田市小山町3191-3","lat":35.599698,"lon":139.361059},{"name":"町田市民病院","province":"東京都","city":"町田市","address":"町田市旭町2-15-41","lat":35.55734,"lon":139.43691},{"name":"サンシルバー町田","province":"東京都","city":"町田市","address":"町田市相原町2373-1","lat":35.613326,"lon":139.314385},{"name":"町田市民病院","province":"東京都","city":"町田市","address":"町田市旭町2-15-41","lat":35.557091,"lon":139.438701},{"name":"町田市すみれ教室","province":"東京都","city":"町田市","address":"町田市中町2-13-14","lat":35.551569,"lon":139.444459},{"name":"町田市授産場","province":"東京都","city":"町田市","address":"町田市忠生3-6-22","lat":35.57746,"lon":139.419097},{"name":"桜ケ丘共働学舎","province":"東京都","city":"町田市","address":"町田市小野路町2157","lat":35.594709,"lon":139.449684},{"name":"町田荘","province":"東京都","city":"町田市","address":"町田市南成瀬4-19-15","lat":35.538792,"lon":139.477213},{"name":"町田第２荘","province":"東京都","city":"町田市","address":"町田市南成瀬7-6-12","lat":35.534051,"lon":139.480602},{"name":"町田図師荘","province":"東京都","city":"町田市","address":"町田市図師町615-7","lat":35.582199,"lon":139.419452},{"name":"町田市社会福祉協議会","province":"東京都","city":"町田市","address":"町田市原町田4-9-8町田市民フォーラム4階","lat":35.541806,"lon":139.449881},{"name":"町田荘","province":"東京都","city":"町田市","address":"町田市南成瀬4-19-15","lat":35.53862,"lon":139.47742},{"name":"町田第２荘","province":"東京都","city":"町田市","address":"町田市南成瀬7-6-12","lat":35.5341,"lon":139.48062},{"name":"町田図師荘","province":"東京都","city":"町田市","address":"町田市図師町615-7","lat":35.58226,"lon":139.41943},{"name":"町田市保健所","province":"東京都","city":"町田市","address":"町田市森野2-2-22市庁舎7階","lat":35.549872,"lon":139.440026},{"name":"町田市保健所中町庁舎","province":"東京都","city":"町田市","address":"町田市中町2-13-3","lat":35.551224,"lon":139.443709},{"name":"町田市健康福祉会館","province":"東京都","city":"町田市","address":"町田市原町田5-8-21","lat":35.54602,"lon":139.449987},{"name":"町田市忠生保健センター","province":"東京都","city":"町田市","address":"町田市忠生3-14-2","lat":35.578366,"lon":139.416031},{"name":"町田市鶴川保健センター","province":"東京都","city":"町田市","address":"町田市大蔵町1981-4","lat":35.588886,"lon":139.467396},{"name":"町田市民病院","province":"東京都","city":"町田市","address":"町田市旭町2-15-41","lat":35.55734,"lon":139.4369},{"name":"愛恵会乳児院","province":"東京都","city":"町田市","address":"町田市小山町3191-3","lat":35.59977,"lon":139.3615},{"name":"あいこう","province":"東京都","city":"町田市","address":"東京都町田市","lat":35.5466304,"lon":139.43861823},{"name":"桜ケ丘共働学舎","province":"東京都","city":"町田市","address":"町田市小野路町2157","lat":35.60214,"lon":139.43965},{"name":"アクア矢部町","province":"東京都","city":"町田市","address":"町田市矢部町10-2","lat":35.57644,"lon":139.4057},{"name":"町田市社会福祉協議会","province":"東京都","city":"町田市","address":"町田市原町田4-9-8町田市民フォーラム4階","lat":35.54182,"lon":139.44991},{"name":"町田市保健所","province":"東京都","city":"町田市","address":"町田市森野2-2-22市庁舎7階","lat":35.54658,"lon":139.4389},{"name":"町田市保健所中町庁舎","province":"東京都","city":"町田市","address":"町田市中町2-13-3","lat":35.55124,"lon":139.4437},{"name":"町田市健康福祉会館","province":"東京都","city":"町田市","address":"町田市原町田5-8-21","lat":35.54611,"lon":139.45018},{"name":"町田市忠生保健センター","province":"東京都","city":"町田市","address":"町田市忠生3-14-2","lat":35.57766,"lon":139.41542},{"name":"町田市鶴川保健センター","province":"東京都","city":"町田市","address":"町田市大蔵町1981-4","lat":35.58874,"lon":139.46738},{"name":"社会福祉法人まちだ育成会ひかり療育園","province":"東京都","city":"町田市","address":"東京都町田市忠生3丁目6-2","lat":35.57688807,"lon":139.41875532},{"name":"医療法人社団公朋会デイケアだんけ","province":"東京都","city":"町田市","address":"東京都町田市成瀬台3丁目8-18","lat":35.55480671,"lon":139.47834313},{"name":"社会福祉法人つぼみの家町田ゆめ工房","province":"東京都","city":"町田市","address":"東京都町田市相原町2983-157","lat":35.60794677,"lon":139.31323009},{"name":"社会福祉法人ウィズ町田なないろ","province":"東京都","city":"町田市","address":"東京都町田市木曽西2丁目17-16","lat":35.57001097,"lon":139.41539749},{"name":"社会福祉法人まちのひ富士清掃サービス","province":"東京都","city":"町田市","address":"東京都町田市忠生3丁目18-1","lat":35.57811285,"lon":139.41451123},{"name":"地域活動支援センターまちプラ","province":"東京都","city":"町田市","address":"東京都町田市原町田4丁目24-6","lat":35.54444758,"lon":139.45308375},{"name":"愛恵会乳児院","province":"東京都","city":"町田市","address":"町田市小山町3191-3","lat":35.599698,"lon":139.361059},{"name":"町田市民病院","province":"東京都","city":"町田市","address":"町田市旭町2-15-41","lat":35.55734,"lon":139.43691},{"name":"サンシルバー町田","province":"東京都","city":"町田市","address":"町田市相原町2373-1","lat":35.613326,"lon":139.314385},{"name":"町田市民病院","province":"東京都","city":"町田市","address":"町田市旭町2-15-41","lat":35.557091,"lon":139.438701},{"name":"町田市すみれ教室","province":"東京都","city":"町田市","address":"町田市中町2-13-14","lat":35.551569,"lon":139.444459},{"name":"町田市授産場","province":"東京都","city":"町田市","address":"町田市忠生3-6-22","lat":35.57746,"lon":139.419097},{"name":"桜ケ丘共働学舎","province":"東京都","city":"町田市","address":"町田市小野路町2157","lat":35.594709,"lon":139.449684},{"name":"町田荘","province":"東京都","city":"町田市","address":"町田市南成瀬4-19-15","lat":35.538792,"lon":139.477213},{"name":"町田第２荘","province":"東京都","city":"町田市","address":"町田市南成瀬7-6-12","lat":35.534051,"lon":139.480602},{"name":"町田図師荘","province":"東京都","city":"町田市","address":"町田市図師町615-7","lat":35.582199,"lon":139.419452},{"name":"町田市社会福祉協議会","province":"東京都","city":"町田市","address":"町田市原町田4-9-8町田市民フォーラム4階","lat":35.541806,"lon":139.449881},{"name":"町田荘","province":"東京都","city":"町田市","address":"町田市南成瀬4-19-15","lat":35.53862,"lon":139.47742},{"name":"町田第２荘","province":"東京都","city":"町田市","address":"町田市南成瀬7-6-12","lat":35.5341,"lon":139.48062},{"name":"町田図師荘","province":"東京都","city":"町田市","address":"町田市図師町615-7","lat":35.58226,"lon":139.41943},{"name":"町田市保健所","province":"東京都","city":"町田市","address":"町田市森野2-2-22市庁舎7階","lat":35.549872,"lon":139.440026},{"name":"町田市保健所中町庁舎","province":"東京都","city":"町田市","address":"町田市中町2-13-3","lat":35.551224,"lon":139.443709},{"name":"町田市健康福祉会館","province":"東京都","city":"町田市","address":"町田市原町田5-8-21","lat":35.54602,"lon":139.449987},{"name":"町田市忠生保健センター","province":"東京都","city":"町田市","address":"町田市忠生3-14-2","lat":35.578366,"lon":139.416031},{"name":"町田市鶴川保健センター","province":"東京都","city":"町田市","address":"町田市大蔵町1981-4","lat":35.588886,"lon":139.467396},{"name":"町田市民病院","province":"東京都","city":"町田市","address":"町田市旭町2-15-41","lat":35.55734,"lon":139.4369},{"name":"愛恵会乳児院","province":"東京都","city":"町田市","address":"町田市小山町3191-3","lat":35.59977,"lon":139.3615},{"name":"あいこう","province":"東京都","city":"町田市","address":"東京都町田市","lat":35.5466304,"lon":139.43861823},{"name":"桜ケ丘共働学舎","province":"東京都","city":"町田市","address":"町田市小野路町2157","lat":35.60214,"lon":139.43965},{"name":"アクア矢部町","province":"東京都","city":"町田市","address":"町田市矢部町10-2","lat":35.57644,"lon":139.4057},{"name":"町田市社会福祉協議会","province":"東京都","city":"町田市","address":"町田市原町田4-9-8町田市民フォーラム4階","lat":35.54182,"lon":139.44991},{"name":"町田市保健所","province":"東京都","city":"町田市","address":"町田市森野2-2-22市庁舎7階","lat":35.54658,"lon":139.4389},{"name":"町田市保健所中町庁舎","province":"東京都","city":"町田市","address":"町田市中町2-13-3","lat":35.55124,"lon":139.4437},{"name":"町田市健康福祉会館","province":"東京都","city":"町田市","address":"町田市原町田5-8-21","lat":35.54611,"lon":139.45018},{"name":"町田市忠生保健センター","province":"東京都","city":"町田市","address":"町田市忠生3-14-2","lat":35.57766,"lon":139.41542},{"name":"町田市鶴川保健センター","province":"東京都","city":"町田市","address":"町田市大蔵町1981-4","lat":35.58874,"lon":139.46738},{"name":"社会福祉法人まちだ育成会ひかり療育園","province":"東京都","city":"町田市","address":"東京都町田市忠生3丁目6-2","lat":35.57688807,"lon":139.41875532},{"name":"医療法人社団公朋会デイケアだんけ","province":"東京都","city":"町田市","address":"東京都町田市成瀬台3丁目8-18","lat":35.55480671,"lon":139.47834313},{"name":"社会福祉法人つぼみの家町田ゆめ工房","province":"東京都","city":"町田市","address":"東京都町田市相原町2983-157","lat":35.60794677,"lon":139.31323009},{"name":"社会福祉法人ウィズ町田なないろ","province":"東京都","city":"町田市","address":"東京都町田市木曽西2丁目17-16","lat":35.57001097,"lon":139.41539749},{"name":"社会福祉法人まちのひ富士清掃サービス","province":"東京都","city":"町田市","address":"東京都町田市忠生3丁目18-1","lat":35.57811285,"lon":139.41451123},{"name":"地域活動支援センターまちプラ","province":"東京都","city":"町田市","address":"東京都町田市原町田4丁目24-6","lat":35.54444758,"lon":139.45308375},{"name":"愛恵会乳児院","province":"東京都","city":"町田市","address":"町田市小山町3191-3","lat":35.599698,"lon":139.361059},{"name":"町田市民病院","province":"東京都","city":"町田市","address":"町田市旭町2-15-41","lat":35.55734,"lon":139.43691},{"name":"サンシルバー町田","province":"東京都","city":"町田市","address":"町田市相原町2373-1","lat":35.613326,"lon":139.314385},{"name":"町田市民病院","province":"東京都","city":"町田市","address":"町田市旭町2-15-41","lat":35.557091,"lon":139.438701},{"name":"町田市すみれ教室","province":"東京都","city":"町田市","address":"町田市中町2-13-14","lat":35.551569,"lon":139.444459},{"name":"町田市授産場","province":"東京都","city":"町田市","address":"町田市忠生3-6-22","lat":35.57746,"lon":139.419097},{"name":"桜ケ丘共働学舎","province":"東京都","city":"町田市","address":"町田市小野路町2157","lat":35.594709,"lon":139.449684},{"name":"町田荘","province":"東京都","city":"町田市","address":"町田市南成瀬4-19-15","lat":35.538792,"lon":139.477213},{"name":"町田第２荘","province":"東京都","city":"町田市","address":"町田市南成瀬7-6-12","lat":35.534051,"lon":139.480602},{"name":"町田図師荘","province":"東京都","city":"町田市","address":"町田市図師町615-7","lat":35.582199,"lon":139.419452},{"name":"町田市社会福祉協議会","province":"東京都","city":"町田市","address":"町田市原町田4-9-8町田市民フォーラム4階","lat":35.541806,"lon":139.449881},{"name":"町田荘","province":"東京都","city":"町田市","address":"町田市南成瀬4-19-15","lat":35.53862,"lon":139.47742},{"name":"町田第２荘","province":"東京都","city":"町田市","address":"町田市南成瀬7-6-12","lat":35.5341,"lon":139.48062},{"name":"町田図師荘","province":"東京都","city":"町田市","address":"町田市図師町615-7","lat":35.58226,"lon":139.41943},{"name":"町田市保健所","province":"東京都","city":"町田市","address":"町田市森野2-2-22市庁舎7階","lat":35.549872,"lon":139.440026},{"name":"町田市保健所中町庁舎","province":"東京都","city":"町田市","address":"町田市中町2-13-3","lat":35.551224,"lon":139.443709},{"name":"町田市健康福祉会館","province":"東京都","city":"町田市","address":"町田市原町田5-8-21","lat":35.54602,"lon":139.449987},{"name":"町田市忠生保健センター","province":"東京都","city":"町田市","address":"町田市忠生3-14-2","lat":35.578366,"lon":139.416031},{"name":"町田市鶴川保健センター","province":"東京都","city":"町田市","address":"町田市大蔵町1981-4","lat":35.588886,"lon":139.467396},{"name":"町田市民病院","province":"東京都","city":"町田市","address":"町田市旭町2-15-41","lat":35.55734,"lon":139.4369},{"name":"愛恵会乳児院","province":"東京都","city":"町田市","address":"町田市小山町3191-3","lat":35.59977,"lon":139.3615},{"name":"あいこう","province":"東京都","city":"町田市","address":"東京都町田市","lat":35.5466304,"lon":139.43861823},{"name":"桜ケ丘共働学舎","province":"東京都","city":"町田市","address":"町田市小野路町2157","lat":35.60214,"lon":139.43965},{"name":"アクア矢部町","province":"東京都","city":"町田市","address":"町田市矢部町10-2","lat":35.57644,"lon":139.4057},{"name":"町田市社会福祉協議会","province":"東京都","city":"町田市","address":"町田市原町田4-9-8町田市民フォーラム4階","lat":35.54182,"lon":139.44991},{"name":"町田市保健所","province":"東京都","city":"町田市","address":"町田市森野2-2-22市庁舎7階","lat":35.54658,"lon":139.4389},{"name":"町田市保健所中町庁舎","province":"東京都","city":"町田市","address":"町田市中町2-13-3","lat":35.55124,"lon":139.4437},{"name":"町田市健康福祉会館","province":"東京都","city":"町田市","address":"町田市原町田5-8-21","lat":35.54611,"lon":139.45018},{"name":"町田市忠生保健センター","province":"東京都","city":"町田市","address":"町田市忠生3-14-2","lat":35.57766,"lon":139.41542},{"name":"町田市鶴川保健センター","province":"東京都","city":"町田市","address":"町田市大蔵町1981-4","lat":35.58874,"lon":139.46738},{"name":"社会福祉法人まちだ育成会ひかり療育園","province":"東京都","city":"町田市","address":"東京都町田市忠生3丁目6-2","lat":35.57688807,"lon":139.41875532},{"name":"医療法人社団公朋会デイケアだんけ","province":"東京都","city":"町田市","address":"東京都町田市成瀬台3丁目8-18","lat":35.55480671,"lon":139.47834313},{"name":"社会福祉法人つぼみの家町田ゆめ工房","province":"東京都","city":"町田市","address":"東京都町田市相原町2983-157","lat":35.60794677,"lon":139.31323009},{"name":"社会福祉法人ウィズ町田なないろ","province":"東京都","city":"町田市","address":"東京都町田市木曽西2丁目17-16","lat":35.57001097,"lon":139.41539749},{"name":"社会福祉法人まちのひ富士清掃サービス","province":"東京都","city":"町田市","address":"東京都町田市忠生3丁目18-1","lat":35.57811285,"lon":139.41451123},{"name":"地域活動支援センターまちプラ","province":"東京都","city":"町田市","address":"東京都町田市原町田4丁目24-6","lat":35.54444758,"lon":139.45308375},{"name":"愛恵会乳児院","province":"東京都","city":"町田市","address":"町田市小山町3191-3","lat":35.599698,"lon":139.361059},{"name":"町田市民病院","province":"東京都","city":"町田市","address":"町田市旭町2-15-41","lat":35.55734,"lon":139.43691},{"name":"サンシルバー町田","province":"東京都","city":"町田市","address":"町田市相原町2373-1","lat":35.613326,"lon":139.314385},{"name":"町田市民病院","province":"東京都","city":"町田市","address":"町田市旭町2-15-41","lat":35.557091,"lon":139.438701},{"name":"町田市すみれ教室","province":"東京都","city":"町田市","address":"町田市中町2-13-14","lat":35.551569,"lon":139.444459},{"name":"町田市授産場","province":"東京都","city":"町田市","address":"町田市忠生3-6-22","lat":35.57746,"lon":139.419097},{"name":"桜ケ丘共働学舎","province":"東京都","city":"町田市","address":"町田市小野路町2157","lat":35.594709,"lon":139.449684},{"name":"町田荘","province":"東京都","city":"町田市","address":"町田市南成瀬4-19-15","lat":35.538792,"lon":139.477213},{"name":"町田第２荘","province":"東京都","city":"町田市","address":"町田市南成瀬7-6-12","lat":35.534051,"lon":139.480602},{"name":"町田図師荘","province":"東京都","city":"町田市","address":"町田市図師町615-7","lat":35.582199,"lon":139.419452},{"name":"町田市社会福祉協議会","province":"東京都","city":"町田市","address":"町田市原町田4-9-8町田市民フォーラム4階","lat":35.541806,"lon":139.449881},{"name":"町田荘","province":"東京都","city":"町田市","address":"町田市南成瀬4-19-15","lat":35.53862,"lon":139.47742},{"name":"町田第２荘","province":"東京都","city":"町田市","address":"町田市南成瀬7-6-12","lat":35.5341,"lon":139.48062},{"name":"町田図師荘","province":"東京都","city":"町田市","address":"町田市図師町615-7","lat":35.58226,"lon":139.41943},{"name":"町田市保健所","province":"東京都","city":"町田市","address":"町田市森野2-2-22市庁舎7階","lat":35.549872,"lon":139.440026},{"name":"町田市保健所中町庁舎","province":"東京都","city":"町田市","address":"町田市中町2-13-3","lat":35.551224,"lon":139.443709},{"name":"町田市健康福祉会館","province":"東京都","city":"町田市","address":"町田市原町田5-8-21","lat":35.54602,"lon":139.449987},{"name":"町田市忠生保健センター","province":"東京都","city":"町田市","address":"町田市忠生3-14-2","lat":35.578366,"lon":139.416031},{"name":"町田市鶴川保健センター","province":"東京都","city":"町田市","address":"町田市大蔵町1981-4","lat":35.588886,"lon":139.467396},{"name":"町田市民病院","province":"東京都","city":"町田市","address":"町田市旭町2-15-41","lat":35.55734,"lon":139.4369},{"name":"愛恵会乳児院","province":"東京都","city":"町田市","address":"町田市小山町3191-3","lat":35.59977,"lon":139.3615},{"name":"あいこう","province":"東京都","city":"町田市","address":"東京都町田市","lat":35.5466304,"lon":139.43861823},{"name":"桜ケ丘共働学舎","province":"東京都","city":"町田市","address":"町田市小野路町2157","lat":35.60214,"lon":139.43965},{"name":"アクア矢部町","province":"東京都","city":"町田市","address":"町田市矢部町10-2","lat":35.57644,"lon":139.4057},{"name":"町田市社会福祉協議会","province":"東京都","city":"町田市","address":"町田市原町田4-9-8町田市民フォーラム4階","lat":35.54182,"lon":139.44991},{"name":"町田市保健所","province":"東京都","city":"町田市","address":"町田市森野2-2-22市庁舎7階","lat":35.54658,"lon":139.4389},{"name":"町田市保健所中町庁舎","province":"東京都","city":"町田市","address":"町田市中町2-13-3","lat":35.55124,"lon":139.4437},{"name":"町田市健康福祉会館","province":"東京都","city":"町田市","address":"町田市原町田5-8-21","lat":35.54611,"lon":139.45018},{"name":"町田市忠生保健センター","province":"東京都","city":"町田市","address":"町田市忠生3-14-2","lat":35.57766,"lon":139.41542},{"name":"町田市鶴川保健センター","province":"東京都","city":"町田市","address":"町田市大蔵町1981-4","lat":35.58874,"lon":139.46738},{"name":"社会福祉法人まちだ育成会ひかり療育園","province":"東京都","city":"町田市","address":"東京都町田市忠生3丁目6-2","lat":35.57688807,"lon":139.41875532},{"name":"医療法人社団公朋会デイケアだんけ","province":"東京都","city":"町田市","address":"東京都町田市成瀬台3丁目8-18","lat":35.55480671,"lon":139.47834313},{"name":"社会福祉法人つぼみの家町田ゆめ工房","province":"東京都","city":"町田市","address":"東京都町田市相原町2983-157","lat":35.60794677,"lon":139.31323009},{"name":"社会福祉法人ウィズ町田なないろ","province":"東京都","city":"町田市","address":"東京都町田市木曽西2丁目17-16","lat":35.57001097,"lon":139.41539749},{"name":"社会福祉法人まちのひ富士清掃サービス","province":"東京都","city":"町田市","address":"東京都町田市忠生3丁目18-1","lat":35.57811285,"lon":139.41451123},{"name":"地域活動支援センターまちプラ","province":"東京都","city":"町田市","address":"東京都町田市原町田4丁目24-6","lat":35.54444758,"lon":139.45308375},{"name":"愛恵会乳児院","province":"東京都","city":"町田市","address":"町田市小山町3191-3","lat":35.599698,"lon":139.361059},{"name":"町田市民病院","province":"東京都","city":"町田市","address":"町田市旭町2-15-41","lat":35.55734,"lon":139.43691},{"name":"サンシルバー町田","province":"東京都","city":"町田市","address":"町田市相原町2373-1","lat":35.613326,"lon":139.314385},{"name":"町田市民病院","province":"東京都","city":"町田市","address":"町田市旭町2-15-41","lat":35.557091,"lon":139.438701},{"name":"町田市すみれ教室","province":"東京都","city":"町田市","address":"町田市中町2-13-14","lat":35.551569,"lon":139.444459},{"name":"町田市授産場","province":"東京都","city":"町田市","address":"町田市忠生3-6-22","lat":35.57746,"lon":139.419097},{"name":"桜ケ丘共働学舎","province":"東京都","city":"町田市","address":"町田市小野路町2157","lat":35.594709,"lon":139.449684},{"name":"町田荘","province":"東京都","city":"町田市","address":"町田市南成瀬4-19-15","lat":35.538792,"lon":139.477213},{"name":"町田第２荘","province":"東京都","city":"町田市","address":"町田市南成瀬7-6-12","lat":35.534051,"lon":139.480602},{"name":"町田図師荘","province":"東京都","city":"町田市","address":"町田市図師町615-7","lat":35.582199,"lon":139.419452},{"name":"町田市社会福祉協議会","province":"東京都","city":"町田市","address":"町田市原町田4-9-8町田市民フォーラム4階","lat":35.541806,"lon":139.449881},{"name":"町田荘","province":"東京都","city":"町田市","address":"町田市南成瀬4-19-15","lat":35.53862,"lon":139.47742},{"name":"町田第２荘","province":"東京都","city":"町田市","address":"町田市南成瀬7-6-12","lat":35.5341,"lon":139.48062},{"name":"町田図師荘","province":"東京都","city":"町田市","address":"町田市図師町615-7","lat":35.58226,"lon":139.41943},{"name":"町田市保健所","province":"東京都","city":"町田市","address":"町田市森野2-2-22市庁舎7階","lat":35.549872,"lon":139.440026},{"name":"町田市保健所中町庁舎","province":"東京都","city":"町田市","address":"町田市中町2-13-3","lat":35.551224,"lon":139.443709},{"name":"町田市健康福祉会館","province":"東京都","city":"町田市","address":"町田市原町田5-8-21","lat":35.54602,"lon":139.449987},{"name":"町田市忠生保健センター","province":"東京都","city":"町田市","address":"町田市忠生3-14-2","lat":35.578366,"lon":139.416031},{"name":"町田市鶴川保健センター","province":"東京都","city":"町田市","address":"町田市大蔵町1981-4","lat":35.588886,"lon":139.467396},{"name":"町田市民病院","province":"東京都","city":"町田市","address":"町田市旭町2-15-41","lat":35.55734,"lon":139.4369},{"name":"愛恵会乳児院","province":"東京都","city":"町田市","address":"町田市小山町3191-3","lat":35.59977,"lon":139.3615},{"name":"あいこう","province":"東京都","city":"町田市","address":"東京都町田市","lat":35.5466304,"lon":139.43861823},{"name":"桜ケ丘共働学舎","province":"東京都","city":"町田市","address":"町田市小野路町2157","lat":35.60214,"lon":139.43965},{"name":"アクア矢部町","province":"東京都","city":"町田市","address":"町田市矢部町10-2","lat":35.57644,"lon":139.4057},{"name":"町田市社会福祉協議会","province":"東京都","city":"町田市","address":"町田市原町田4-9-8町田市民フォーラム4階","lat":35.54182,"lon":139.44991},{"name":"町田市保健所","province":"東京都","city":"町田市","address":"町田市森野2-2-22市庁舎7階","lat":35.54658,"lon":139.4389},{"name":"町田市保健所中町庁舎","province":"東京都","city":"町田市","address":"町田市中町2-13-3","lat":35.55124,"lon":139.4437},{"name":"町田市健康福祉会館","province":"東京都","city":"町田市","address":"町田市原町田5-8-21","lat":35.54611,"lon":139.45018},{"name":"町田市忠生保健センター","province":"東京都","city":"町田市","address":"町田市忠生3-14-2","lat":35.57766,"lon":139.41542},{"name":"町田市鶴川保健センター","province":"東京都","city":"町田市","address":"町田市大蔵町1981-4","lat":35.58874,"lon":139.46738},{"name":"社会福祉法人まちだ育成会ひかり療育園","province":"東京都","city":"町田市","address":"東京都町田市忠生3丁目6-2","lat":35.57688807,"lon":139.41875532},{"name":"医療法人社団公朋会デイケアだんけ","province":"東京都","city":"町田市","address":"東京都町田市成瀬台3丁目8-18","lat":35.55480671,"lon":139.47834313},{"name":"社会福祉法人つぼみの家町田ゆめ工房","province":"東京都","city":"町田市","address":"東京都町田市相原町2983-157","lat":35.60794677,"lon":139.31323009},{"name":"社会福祉法人ウィズ町田なないろ","province":"東京都","city":"町田市","address":"東京都町田市木曽西2丁目17-16","lat":35.57001097,"lon":139.41539749},{"name":"社会福祉法人まちのひ富士清掃サービス","province":"東京都","city":"町田市","address":"東京都町田市忠生3丁目18-1","lat":35.57811285,"lon":139.41451123},{"name":"地域活動支援センターまちプラ","province":"東京都","city":"町田市","address":"東京都町田市原町田4丁目24-6","lat":35.54444758,"lon":139.45308375},{"name":"愛恵会乳児院","province":"東京都","city":"町田市","address":"町田市小山町3191-3","lat":35.599698,"lon":139.361059},{"name":"町田市民病院","province":"東京都","city":"町田市","address":"町田市旭町2-15-41","lat":35.55734,"lon":139.43691},{"name":"サンシルバー町田","province":"東京都","city":"町田市","address":"町田市相原町2373-1","lat":35.613326,"lon":139.314385},{"name":"町田市民病院","province":"東京都","city":"町田市","address":"町田市旭町2-15-41","lat":35.557091,"lon":139.438701},{"name":"町田市すみれ教室","province":"東京都","city":"町田市","address":"町田市中町2-13-14","lat":35.551569,"lon":139.444459},{"name":"町田市授産場","province":"東京都","city":"町田市","address":"町田市忠生3-6-22","lat":35.57746,"lon":139.419097},{"name":"桜ケ丘共働学舎","province":"東京都","city":"町田市","address":"町田市小野路町2157","lat":35.594709,"lon":139.449684},{"name":"町田荘","province":"東京都","city":"町田市","address":"町田市南成瀬4-19-15","lat":35.538792,"lon":139.477213},{"name":"町田第２荘","province":"東京都","city":"町田市","address":"町田市南成瀬7-6-12","lat":35.534051,"lon":139.480602},{"name":"町田図師荘","province":"東京都","city":"町田市","address":"町田市図師町615-7","lat":35.582199,"lon":139.419452},{"name":"町田市社会福祉協議会","province":"東京都","city":"町田市","address":"町田市原町田4-9-8町田市民フォーラム4階","lat":35.541806,"lon":139.449881},{"name":"町田荘","province":"東京都","city":"町田市","address":"町田市南成瀬4-19-15","lat":35.53862,"lon":139.47742},{"name":"町田第２荘","province":"東京都","city":"町田市","address":"町田市南成瀬7-6-12","lat":35.5341,"lon":139.48062},{"name":"町田図師荘","province":"東京都","city":"町田市","address":"町田市図師町615-7","lat":35.58226,"lon":139.41943},{"name":"町田市保健所","province":"東京都","city":"町田市","address":"町田市森野2-2-22市庁舎7階","lat":35.549872,"lon":139.440026},{"name":"町田市保健所中町庁舎","province":"東京都","city":"町田市","address":"町田市中町2-13-3","lat":35.551224,"lon":139.443709},{"name":"町田市健康福祉会館","province":"東京都","city":"町田市","address":"町田市原町田5-8-21","lat":35.54602,"lon":139.449987},{"name":"町田市忠生保健センター","province":"東京都","city":"町田市","address":"町田市忠生3-14-2","lat":35.578366,"lon":139.416031},{"name":"町田市鶴川保健センター","province":"東京都","city":"町田市","address":"町田市大蔵町1981-4","lat":35.588886,"lon":139.467396},{"name":"町田市民病院","province":"東京都","city":"町田市","address":"町田市旭町2-15-41","lat":35.55734,"lon":139.4369},{"name":"愛恵会乳児院","province":"東京都","city":"町田市","address":"町田市小山町3191-3","lat":35.59977,"lon":139.3615},{"name":"あいこう","province":"東京都","city":"町田市","address":"東京都町田市","lat":35.5466304,"lon":139.43861823},{"name":"桜ケ丘共働学舎","province":"東京都","city":"町田市","address":"町田市小野路町2157","lat":35.60214,"lon":139.43965},{"name":"アクア矢部町","province":"東京都","city":"町田市","address":"町田市矢部町10-2","lat":35.57644,"lon":139.4057},{"name":"町田市社会福祉協議会","province":"東京都","city":"町田市","address":"町田市原町田4-9-8町田市民フォーラム4階","lat":35.54182,"lon":139.44991},{"name":"町田市保健所","province":"東京都","city":"町田市","address":"町田市森野2-2-22市庁舎7階","lat":35.54658,"lon":139.4389},{"name":"町田市保健所中町庁舎","province":"東京都","city":"町田市","address":"町田市中町2-13-3","lat":35.55124,"lon":139.4437},{"name":"町田市健康福祉会館","province":"東京都","city":"町田市","address":"町田市原町田5-8-21","lat":35.54611,"lon":139.45018},{"name":"町田市忠生保健センター","province":"東京都","city":"町田市","address":"町田市忠生3-14-2","lat":35.57766,"lon":139.41542},{"name":"町田市鶴川保健センター","province":"東京都","city":"町田市","address":"町田市大蔵町1981-4","lat":35.58874,"lon":139.46738},{"name":"社会福祉法人まちだ育成会ひかり療育園","province":"東京都","city":"町田市","address":"東京都町田市忠生3丁目6-2","lat":35.57688807,"lon":139.41875532},{"name":"医療法人社団公朋会デイケアだんけ","province":"東京都","city":"町田市","address":"東京都町田市成瀬台3丁目8-18","lat":35.55480671,"lon":139.47834313},{"name":"社会福祉法人つぼみの家町田ゆめ工房","province":"東京都","city":"町田市","address":"東京都町田市相原町2983-157","lat":35.60794677,"lon":139.31323009},{"name":"社会福祉法人ウィズ町田なないろ","province":"東京都","city":"町田市","address":"東京都町田市木曽西2丁目17-16","lat":35.57001097,"lon":139.41539749},{"name":"社会福祉法人まちのひ富士清掃サービス","province":"東京都","city":"町田市","address":"東京都町田市忠生3丁目18-1","lat":35.57811285,"lon":139.41451123},{"name":"地域活動支援センターまちプラ","province":"東京都","city":"町田市","address":"東京都町田市原町田4丁目24-6","lat":35.54444758,"lon":139.45308375},{"name":"愛恵会乳児院","province":"東京都","city":"町田市","address":"町田市小山町3191-3","lat":35.599698,"lon":139.361059},{"name":"町田市民病院","province":"東京都","city":"町田市","address":"町田市旭町2-15-41","lat":35.55734,"lon":139.43691},{"name":"サンシルバー町田","province":"東京都","city":"町田市","address":"町田市相原町2373-1","lat":35.613326,"lon":139.314385},{"name":"町田市民病院","province":"東京都","city":"町田市","address":"町田市旭町2-15-41","lat":35.557091,"lon":139.438701},{"name":"町田市すみれ教室","province":"東京都","city":"町田市","address":"町田市中町2-13-14","lat":35.551569,"lon":139.444459},{"name":"町田市授産場","province":"東京都","city":"町田市","address":"町田市忠生3-6-22","lat":35.57746,"lon":139.419097},{"name":"桜ケ丘共働学舎","province":"東京都","city":"町田市","address":"町田市小野路町2157","lat":35.594709,"lon":139.449684},{"name":"町田荘","province":"東京都","city":"町田市","address":"町田市南成瀬4-19-15","lat":35.538792,"lon":139.477213},{"name":"町田第２荘","province":"東京都","city":"町田市","address":"町田市南成瀬7-6-12","lat":35.534051,"lon":139.480602},{"name":"町田図師荘","province":"東京都","city":"町田市","address":"町田市図師町615-7","lat":35.582199,"lon":139.419452},{"name":"町田市社会福祉協議会","province":"東京都","city":"町田市","address":"町田市原町田4-9-8町田市民フォーラム4階","lat":35.541806,"lon":139.449881},{"name":"町田荘","province":"東京都","city":"町田市","address":"町田市南成瀬4-19-15","lat":35.53862,"lon":139.47742},{"name":"町田第２荘","province":"東京都","city":"町田市","address":"町田市南成瀬7-6-12","lat":35.5341,"lon":139.48062},{"name":"町田図師荘","province":"東京都","city":"町田市","address":"町田市図師町615-7","lat":35.58226,"lon":139.41943},{"name":"町田市保健所","province":"東京都","city":"町田市","address":"町田市森野2-2-22市庁舎7階","lat":35.549872,"lon":139.440026},{"name":"町田市保健所中町庁舎","province":"東京都","city":"町田市","address":"町田市中町2-13-3","lat":35.551224,"lon":139.443709},{"name":"町田市健康福祉会館","province":"東京都","city":"町田市","address":"町田市原町田5-8-21","lat":35.54602,"lon":139.449987},{"name":"町田市忠生保健センター","province":"東京都","city":"町田市","address":"町田市忠生3-14-2","lat":35.578366,"lon":139.416031},{"name":"町田市鶴川保健センター","province":"東京都","city":"町田市","address":"町田市大蔵町1981-4","lat":35.588886,"lon":139.467396},{"name":"町田市民病院","province":"東京都","city":"町田市","address":"町田市旭町2-15-41","lat":35.55734,"lon":139.4369},{"name":"愛恵会乳児院","province":"東京都","city":"町田市","address":"町田市小山町3191-3","lat":35.59977,"lon":139.3615},{"name":"あいこう","province":"東京都","city":"町田市","address":"東京都町田市","lat":35.5466304,"lon":139.43861823},{"name":"桜ケ丘共働学舎","province":"東京都","city":"町田市","address":"町田市小野路町2157","lat":35.60214,"lon":139.43965},{"name":"アクア矢部町","province":"東京都","city":"町田市","address":"町田市矢部町10-2","lat":35.57644,"lon":139.4057},{"name":"町田市社会福祉協議会","province":"東京都","city":"町田市","address":"町田市原町田4-9-8町田市民フォーラム4階","lat":35.54182,"lon":139.44991},{"name":"町田市保健所","province":"東京都","city":"町田市","address":"町田市森野2-2-22市庁舎7階","lat":35.54658,"lon":139.4389},{"name":"町田市保健所中町庁舎","province":"東京都","city":"町田市","address":"町田市中町2-13-3","lat":35.55124,"lon":139.4437},{"name":"町田市健康福祉会館","province":"東京都","city":"町田市","address":"町田市原町田5-8-21","lat":35.54611,"lon":139.45018},{"name":"町田市忠生保健センター","province":"東京都","city":"町田市","address":"町田市忠生3-14-2","lat":35.57766,"lon":139.41542},{"name":"町田市鶴川保健センター","province":"東京都","city":"町田市","address":"町田市大蔵町1981-4","lat":35.58874,"lon":139.46738},{"name":"社会福祉法人まちだ育成会ひかり療育園","province":"東京都","city":"町田市","address":"東京都町田市忠生3丁目6-2","lat":35.57688807,"lon":139.41875532},{"name":"医療法人社団公朋会デイケアだんけ","province":"東京都","city":"町田市","address":"東京都町田市成瀬台3丁目8-18","lat":35.55480671,"lon":139.47834313},{"name":"社会福祉法人つぼみの家町田ゆめ工房","province":"東京都","city":"町田市","address":"東京都町田市相原町2983-157","lat":35.60794677,"lon":139.31323009},{"name":"社会福祉法人ウィズ町田なないろ","province":"東京都","city":"町田市","address":"東京都町田市木曽西2丁目17-16","lat":35.57001097,"lon":139.41539749},{"name":"社会福祉法人まちのひ富士清掃サービス","province":"東京都","city":"町田市","address":"東京都町田市忠生3丁目18-1","lat":35.57811285,"lon":139.41451123},{"name":"地域活動支援センターまちプラ","province":"東京都","city":"町田市","address":"東京都町田市原町田4丁目24-6","lat":35.54444758,"lon":139.45308375},{"name":"愛恵会乳児院","province":"東京都","city":"町田市","address":"町田市小山町3191-3","lat":35.599698,"lon":139.361059},{"name":"町田市民病院","province":"東京都","city":"町田市","address":"町田市旭町2-15-41","lat":35.55734,"lon":139.43691},{"name":"サンシルバー町田","province":"東京都","city":"町田市","address":"町田市相原町2373-1","lat":35.613326,"lon":139.314385},{"name":"町田市民病院","province":"東京都","city":"町田市","address":"町田市旭町2-15-41","lat":35.557091,"lon":139.438701},{"name":"町田市すみれ教室","province":"東京都","city":"町田市","address":"町田市中町2-13-14","lat":35.551569,"lon":139.444459},{"name":"町田市授産場","province":"東京都","city":"町田市","address":"町田市忠生3-6-22","lat":35.57746,"lon":139.419097},{"name":"桜ケ丘共働学舎","province":"東京都","city":"町田市","address":"町田市小野路町2157","lat":35.594709,"lon":139.449684},{"name":"町田荘","province":"東京都","city":"町田市","address":"町田市南成瀬4-19-15","lat":35.538792,"lon":139.477213},{"name":"町田第２荘","province":"東京都","city":"町田市","address":"町田市南成瀬7-6-12","lat":35.534051,"lon":139.480602},{"name":"町田図師荘","province":"東京都","city":"町田市","address":"町田市図師町615-7","lat":35.582199,"lon":139.419452},{"name":"町田市社会福祉協議会","province":"東京都","city":"町田市","address":"町田市原町田4-9-8町田市民フォーラム4階","lat":35.541806,"lon":139.449881},{"name":"町田荘","province":"東京都","city":"町田市","address":"町田市南成瀬4-19-15","lat":35.53862,"lon":139.47742},{"name":"町田第２荘","province":"東京都","city":"町田市","address":"町田市南成瀬7-6-12","lat":35.5341,"lon":139.48062},{"name":"町田図師荘","province":"東京都","city":"町田市","address":"町田市図師町615-7","lat":35.58226,"lon":139.41943},{"name":"町田市保健所","province":"東京都","city":"町田市","address":"町田市森野2-2-22市庁舎7階","lat":35.549872,"lon":139.440026},{"name":"町田市保健所中町庁舎","province":"東京都","city":"町田市","address":"町田市中町2-13-3","lat":35.551224,"lon":139.443709},{"name":"町田市健康福祉会館","province":"東京都","city":"町田市","address":"町田市原町田5-8-21","lat":35.54602,"lon":139.449987},{"name":"町田市忠生保健センター","province":"東京都","city":"町田市","address":"町田市忠生3-14-2","lat":35.578366,"lon":139.416031},{"name":"町田市鶴川保健センター","province":"東京都","city":"町田市","address":"町田市大蔵町1981-4","lat":35.588886,"lon":139.467396},{"name":"町田市民病院","province":"東京都","city":"町田市","address":"町田市旭町2-15-41","lat":35.55734,"lon":139.4369},{"name":"愛恵会乳児院","province":"東京都","city":"町田市","address":"町田市小山町3191-3","lat":35.59977,"lon":139.3615},{"name":"あいこう","province":"東京都","city":"町田市","address":"東京都町田市","lat":35.5466304,"lon":139.43861823},{"name":"桜ケ丘共働学舎","province":"東京都","city":"町田市","address":"町田市小野路町2157","lat":35.60214,"lon":139.43965},{"name":"アクア矢部町","province":"東京都","city":"町田市","address":"町田市矢部町10-2","lat":35.57644,"lon":139.4057},{"name":"町田市社会福祉協議会","province":"東京都","city":"町田市","address":"町田市原町田4-9-8町田市民フォーラム4階","lat":35.54182,"lon":139.44991},{"name":"社会福祉法人まちだ育成会ひかり療育園","province":"東京都","city":"町田市","address":"東京都町田市忠生3丁目6-2","lat":35.57688807,"lon":139.41875532},{"name":"医療法人社団公朋会デイケアだんけ","province":"東京都","city":"町田市","address":"東京都町田市成瀬台3丁目8-18","lat":35.55480671,"lon":139.47834313},{"name":"社会福祉法人つぼみの家町田ゆめ工房","province":"東京都","city":"町田市","address":"東京都町田市相原町2983-157","lat":35.60794677,"lon":139.31323009},{"name":"社会福祉法人ウィズ町田なないろ","province":"東京都","city":"町田市","address":"東京都町田市木曽西2丁目17-16","lat":35.57001097,"lon":139.41539749},{"name":"社会福祉法人まちのひ富士清掃サービス","province":"東京都","city":"町田市","address":"東京都町田市忠生3丁目18-1","lat":35.57811285,"lon":139.41451123},{"name":"地域活動支援センターまちプラ","province":"東京都","city":"町田市","address":"東京都町田市原町田4丁目24-6","lat":35.54444758,"lon":139.45308375},{"name":"愛恵会乳児院","province":"東京都","city":"町田市","address":"町田市小山町3191-3","lat":35.599698,"lon":139.361059},{"name":"町田市民病院","province":"東京都","city":"町田市","address":"町田市旭町2-15-41","lat":35.55734,"lon":139.43691},{"name":"サンシルバー町田","province":"東京都","city":"町田市","address":"町田市相原町2373-1","lat":35.613326,"lon":139.314385},{"name":"町田市民病院","province":"東京都","city":"町田市","address":"町田市旭町2-15-41","lat":35.557091,"lon":139.438701},{"name":"町田市すみれ教室","province":"東京都","city":"町田市","address":"町田市中町2-13-14","lat":35.551569,"lon":139.444459},{"name":"町田市授産場","province":"東京都","city":"町田市","address":"町田市忠生3-6-22","lat":35.57746,"lon":139.419097},{"name":"桜ケ丘共働学舎","province":"東京都","city":"町田市","address":"町田市小野路町2157","lat":35.594709,"lon":139.449684},{"name":"町田荘","province":"東京都","city":"町田市","address":"町田市南成瀬4-19-15","lat":35.538792,"lon":139.477213},{"name":"町田第２荘","province":"東京都","city":"町田市","address":"町田市南成瀬7-6-12","lat":35.534051,"lon":139.480602},{"name":"町田図師荘","province":"東京都","city":"町田市","address":"町田市図師町615-7","lat":35.582199,"lon":139.419452},{"name":"町田市社会福祉協議会","province":"東京都","city":"町田市","address":"町田市原町田4-9-8町田市民フォーラム4階","lat":35.541806,"lon":139.449881},{"name":"町田荘","province":"東京都","city":"町田市","address":"町田市南成瀬4-19-15","lat":35.53862,"lon":139.47742},{"name":"町田第２荘","province":"東京都","city":"町田市","address":"町田市南成瀬7-6-12","lat":35.5341,"lon":139.48062},{"name":"町田図師荘","province":"東京都","city":"町田市","address":"町田市図師町615-7","lat":35.58226,"lon":139.41943},{"name":"町田市保健所","province":"東京都","city":"町田市","address":"町田市森野2-2-22市庁舎7階","lat":35.549872,"lon":139.440026},{"name":"町田市保健所中町庁舎","province":"東京都","city":"町田市","address":"町田市中町2-13-3","lat":35.551224,"lon":139.443709},{"name":"町田市健康福祉会館","province":"東京都","city":"町田市","address":"町田市原町田5-8-21","lat":35.54602,"lon":139.449987},{"name":"町田市忠生保健センター","province":"東京都","city":"町田市","address":"町田市忠生3-14-2","lat":35.578366,"lon":139.416031},{"name":"町田市鶴川保健センター","province":"東京都","city":"町田市","address":"町田市大蔵町1981-4","lat":35.588886,"lon":139.467396},{"name":"町田市民病院","province":"東京都","city":"町田市","address":"町田市旭町2-15-41","lat":35.55734,"lon":139.4369},{"name":"愛恵会乳児院","province":"東京都","city":"町田市","address":"町田市小山町3191-3","lat":35.59977,"lon":139.3615},{"name":"あいこう","province":"東京都","city":"町田市","address":"東京都町田市","lat":35.5466304,"lon":139.43861823},{"name":"桜ケ丘共働学舎","province":"東京都","city":"町田市","address":"町田市小野路町2157","lat":35.60214,"lon":139.43965},{"name":"アクア矢部町","province":"東京都","city":"町田市","address":"町田市矢部町10-2","lat":35.57644,"lon":139.4057},{"name":"町田市社会福祉協議会","province":"東京都","city":"町田市","address":"町田市原町田4-9-8町田市民フォーラム4階","lat":35.54182,"lon":139.44991},{"name":"社会福祉法人まちだ育成会ひかり療育園","province":"東京都","city":"町田市","address":"東京都町田市忠生3丁目6-2","lat":35.57688807,"lon":139.41875532},{"name":"医療法人社団公朋会デイケアだんけ","province":"東京都","city":"町田市","address":"東京都町田市成瀬台3丁目8-18","lat":35.55480671,"lon":139.47834313},{"name":"社会福祉法人つぼみの家町田ゆめ工房","province":"東京都","city":"町田市","address":"東京都町田市相原町2983-157","lat":35.60794677,"lon":139.31323009},{"name":"社会福祉法人ウィズ町田なないろ","province":"東京都","city":"町田市","address":"東京都町田市木曽西2丁目17-16","lat":35.57001097,"lon":139.41539749},{"name":"社会福祉法人まちのひ富士清掃サービス","province":"東京都","city":"町田市","address":"東京都町田市忠生3丁目18-1","lat":35.57811285,"lon":139.41451123},{"name":"地域活動支援センターまちプラ","province":"東京都","city":"町田市","address":"東京都町田市原町田4丁目24-6","lat":35.54444758,"lon":139.45308375},{"name":"愛恵会乳児院","province":"東京都","city":"町田市","address":"町田市小山町3191-3","lat":35.599698,"lon":139.361059},{"name":"町田市民病院","province":"東京都","city":"町田市","address":"町田市旭町2-15-41","lat":35.55734,"lon":139.43691},{"name":"サンシルバー町田","province":"東京都","city":"町田市","address":"町田市相原町2373-1","lat":35.613326,"lon":139.314385},{"name":"町田市民病院","province":"東京都","city":"町田市","address":"町田市旭町2-15-41","lat":35.557091,"lon":139.438701},{"name":"町田市すみれ教室","province":"東京都","city":"町田市","address":"町田市中町2-13-14","lat":35.551569,"lon":139.444459},{"name":"町田市授産場","province":"東京都","city":"町田市","address":"町田市忠生3-6-22","lat":35.57746,"lon":139.419097},{"name":"桜ケ丘共働学舎","province":"東京都","city":"町田市","address":"町田市小野路町2157","lat":35.594709,"lon":139.449684},{"name":"町田荘","province":"東京都","city":"町田市","address":"町田市南成瀬4-19-15","lat":35.538792,"lon":139.477213},{"name":"町田第２荘","province":"東京都","city":"町田市","address":"町田市南成瀬7-6-12","lat":35.534051,"lon":139.480602},{"name":"町田図師荘","province":"東京都","city":"町田市","address":"町田市図師町615-7","lat":35.582199,"lon":139.419452},{"name":"町田市社会福祉協議会","province":"東京都","city":"町田市","address":"町田市原町田4-9-8町田市民フォーラム4階","lat":35.541806,"lon":139.449881},{"name":"町田荘","province":"東京都","city":"町田市","address":"町田市南成瀬4-19-15","lat":35.53862,"lon":139.47742},{"name":"町田第２荘","province":"東京都","city":"町田市","address":"町田市南成瀬7-6-12","lat":35.5341,"lon":139.48062},{"name":"町田図師荘","province":"東京都","city":"町田市","address":"町田市図師町615-7","lat":35.58226,"lon":139.41943},{"name":"町田市保健所","province":"東京都","city":"町田市","address":"町田市森野2-2-22市庁舎7階","lat":35.549872,"lon":139.440026},{"name":"町田市保健所中町庁舎","province":"東京都","city":"町田市","address":"町田市中町2-13-3","lat":35.551224,"lon":139.443709},{"name":"町田市健康福祉会館","province":"東京都","city":"町田市","address":"町田市原町田5-8-21","lat":35.54602,"lon":139.449987},{"name":"町田市忠生保健センター","province":"東京都","city":"町田市","address":"町田市忠生3-14-2","lat":35.578366,"lon":139.416031},{"name":"町田市鶴川保健センター","province":"東京都","city":"町田市","address":"町田市大蔵町1981-4","lat":35.588886,"lon":139.467396},{"name":"町田市民病院","province":"東京都","city":"町田市","address":"町田市旭町2-15-41","lat":35.55734,"lon":139.4369},{"name":"愛恵会乳児院","province":"東京都","city":"町田市","address":"町田市小山町3191-3","lat":35.59977,"lon":139.3615},{"name":"あいこう","province":"東京都","city":"町田市","address":"東京都町田市","lat":35.5466304,"lon":139.43861823},{"name":"桜ケ丘共働学舎","province":"東京都","city":"町田市","address":"町田市小野路町2157","lat":35.60214,"lon":139.43965},{"name":"アクア矢部町","province":"東京都","city":"町田市","address":"町田市矢部町10-2","lat":35.57644,"lon":139.4057},{"name":"町田市社会福祉協議会","province":"東京都","city":"町田市","address":"町田市原町田4-9-8町田市民フォーラム4階","lat":35.54182,"lon":139.44991},{"name":"社会福祉法人まちだ育成会ひかり療育園","province":"東京都","city":"町田市","address":"東京都町田市忠生3丁目6-2","lat":35.57688807,"lon":139.41875532},{"name":"医療法人社団公朋会デイケアだんけ","province":"東京都","city":"町田市","address":"東京都町田市成瀬台3丁目8-18","lat":35.55480671,"lon":139.47834313},{"name":"社会福祉法人つぼみの家町田ゆめ工房","province":"東京都","city":"町田市","address":"東京都町田市相原町2983-157","lat":35.60794677,"lon":139.31323009},{"name":"社会福祉法人ウィズ町田なないろ","province":"東京都","city":"町田市","address":"東京都町田市木曽西2丁目17-16","lat":35.57001097,"lon":139.41539749},{"name":"社会福祉法人まちのひ富士清掃サービス","province":"東京都","city":"町田市","address":"東京都町田市忠生3丁目18-1","lat":35.57811285,"lon":139.41451123},{"name":"地域活動支援センターまちプラ","province":"東京都","city":"町田市","address":"東京都町田市原町田4丁目24-6","lat":35.54444758,"lon":139.45308375},{"name":"愛恵会乳児院","province":"東京都","city":"町田市","address":"町田市小山町3191-3","lat":35.599698,"lon":139.361059},{"name":"町田市民病院","province":"東京都","city":"町田市","address":"町田市旭町2-15-41","lat":35.55734,"lon":139.43691},{"name":"サンシルバー町田","province":"東京都","city":"町田市","address":"町田市相原町2373-1","lat":35.613326,"lon":139.314385},{"name":"町田市民病院","province":"東京都","city":"町田市","address":"町田市旭町2-15-41","lat":35.557091,"lon":139.438701},{"name":"町田市すみれ教室","province":"東京都","city":"町田市","address":"町田市中町2-13-14","lat":35.551569,"lon":139.444459},{"name":"町田市授産場","province":"東京都","city":"町田市","address":"町田市忠生3-6-22","lat":35.57746,"lon":139.419097},{"name":"桜ケ丘共働学舎","province":"東京都","city":"町田市","address":"町田市小野路町2157","lat":35.594709,"lon":139.449684},{"name":"町田荘","province":"東京都","city":"町田市","address":"町田市南成瀬4-19-15","lat":35.538792,"lon":139.477213},{"name":"町田第２荘","province":"東京都","city":"町田市","address":"町田市南成瀬7-6-12","lat":35.534051,"lon":139.480602},{"name":"町田図師荘","province":"東京都","city":"町田市","address":"町田市図師町615-7","lat":35.582199,"lon":139.419452},{"name":"町田市社会福祉協議会","province":"東京都","city":"町田市","address":"町田市原町田4-9-8町田市民フォーラム4階","lat":35.541806,"lon":139.449881},{"name":"町田荘","province":"東京都","city":"町田市","address":"町田市南成瀬4-19-15","lat":35.53862,"lon":139.47742},{"name":"町田第２荘","province":"東京都","city":"町田市","address":"町田市南成瀬7-6-12","lat":35.5341,"lon":139.48062},{"name":"町田図師荘","province":"東京都","city":"町田市","address":"町田市図師町615-7","lat":35.58226,"lon":139.41943},{"name":"町田市保健所","province":"東京都","city":"町田市","address":"町田市森野2-2-22市庁舎7階","lat":35.549872,"lon":139.440026},{"name":"町田市保健所中町庁舎","province":"東京都","city":"町田市","address":"町田市中町2-13-3","lat":35.551224,"lon":139.443709},{"name":"町田市健康福祉会館","province":"東京都","city":"町田市","address":"町田市原町田5-8-21","lat":35.54602,"lon":139.449987},{"name":"町田市忠生保健センター","province":"東京都","city":"町田市","address":"町田市忠生3-14-2","lat":35.578366,"lon":139.416031},{"name":"町田市鶴川保健センター","province":"東京都","city":"町田市","address":"町田市大蔵町1981-4","lat":35.588886,"lon":139.467396},{"name":"町田市民病院","province":"東京都","city":"町田市","address":"町田市旭町2-15-41","lat":35.55734,"lon":139.4369},{"name":"愛恵会乳児院","province":"東京都","city":"町田市","address":"町田市小山町3191-3","lat":35.59977,"lon":139.3615},{"name":"あいこう","province":"東京都","city":"町田市","address":"東京都町田市","lat":35.5466304,"lon":139.43861823},{"name":"桜ケ丘共働学舎","province":"東京都","city":"町田市","address":"町田市小野路町2157","lat":35.60214,"lon":139.43965},{"name":"アクア矢部町","province":"東京都","city":"町田市","address":"町田市矢部町10-2","lat":35.57644,"lon":139.4057},{"name":"町田市社会福祉協議会","province":"東京都","city":"町田市","address":"町田市原町田4-9-8町田市民フォーラム4階","lat":35.54182,"lon":139.44991},{"name":"社会福祉法人まちだ育成会ひかり療育園","province":"東京都","city":"町田市","address":"東京都町田市忠生3丁目6-2","lat":35.57688807,"lon":139.41875532},{"name":"医療法人社団公朋会デイケアだんけ","province":"東京都","city":"町田市","address":"東京都町田市成瀬台3丁目8-18","lat":35.55480671,"lon":139.47834313},{"name":"社会福祉法人つぼみの家町田ゆめ工房","province":"東京都","city":"町田市","address":"東京都町田市相原町2983-157","lat":35.60794677,"lon":139.31323009},{"name":"社会福祉法人ウィズ町田なないろ","province":"東京都","city":"町田市","address":"東京都町田市木曽西2丁目17-16","lat":35.57001097,"lon":139.41539749},{"name":"社会福祉法人まちのひ富士清掃サービス","province":"東京都","city":"町田市","address":"東京都町田市忠生3丁目18-1","lat":35.57811285,"lon":139.41451123},{"name":"地域活動支援センターまちプラ","province":"東京都","city":"町田市","address":"東京都町田市原町田4丁目24-6","lat":35.54444758,"lon":139.45308375},{"name":"愛恵会乳児院","province":"東京都","city":"町田市","address":"町田市小山町3191-3","lat":35.599698,"lon":139.361059},{"name":"町田市民病院","province":"東京都","city":"町田市","address":"町田市旭町2-15-41","lat":35.55734,"lon":139.43691},{"name":"サンシルバー町田","province":"東京都","city":"町田市","address":"町田市相原町2373-1","lat":35.613326,"lon":139.314385},{"name":"町田市民病院","province":"東京都","city":"町田市","address":"町田市旭町2-15-41","lat":35.557091,"lon":139.438701},{"name":"町田市すみれ教室","province":"東京都","city":"町田市","address":"町田市中町2-13-14","lat":35.551569,"lon":139.444459},{"name":"町田市授産場","province":"東京都","city":"町田市","address":"町田市忠生3-6-22","lat":35.57746,"lon":139.419097},{"name":"桜ケ丘共働学舎","province":"東京都","city":"町田市","address":"町田市小野路町2157","lat":35.594709,"lon":139.449684},{"name":"町田荘","province":"東京都","city":"町田市","address":"町田市南成瀬4-19-15","lat":35.538792,"lon":139.477213},{"name":"町田第２荘","province":"東京都","city":"町田市","address":"町田市南成瀬7-6-12","lat":35.534051,"lon":139.480602},{"name":"町田図師荘","province":"東京都","city":"町田市","address":"町田市図師町615-7","lat":35.582199,"lon":139.419452},{"name":"町田市社会福祉協議会","province":"東京都","city":"町田市","address":"町田市原町田4-9-8町田市民フォーラム4階","lat":35.541806,"lon":139.449881},{"name":"町田荘","province":"東京都","city":"町田市","address":"町田市南成瀬4-19-15","lat":35.53862,"lon":139.47742},{"name":"町田第２荘","province":"東京都","city":"町田市","address":"町田市南成瀬7-6-12","lat":35.5341,"lon":139.48062},{"name":"町田図師荘","province":"東京都","city":"町田市","address":"町田市図師町615-7","lat":35.58226,"lon":139.41943},{"name":"町田市保健所","province":"東京都","city":"町田市","address":"町田市森野2-2-22市庁舎7階","lat":35.549872,"lon":139.440026},{"name":"町田市保健所中町庁舎","province":"東京都","city":"町田市","address":"町田市中町2-13-3","lat":35.551224,"lon":139.443709},{"name":"町田市健康福祉会館","province":"東京都","city":"町田市","address":"町田市原町田5-8-21","lat":35.54602,"lon":139.449987},{"name":"町田市忠生保健センター","province":"東京都","city":"町田市","address":"町田市忠生3-14-2","lat":35.578366,"lon":139.416031},{"name":"町田市鶴川保健センター","province":"東京都","city":"町田市","address":"町田市大蔵町1981-4","lat":35.588886,"lon":139.467396},{"name":"町田市民病院","province":"東京都","city":"町田市","address":"町田市旭町2-15-41","lat":35.55734,"lon":139.4369},{"name":"愛恵会乳児院","province":"東京都","city":"町田市","address":"町田市小山町3191-3","lat":35.59977,"lon":139.3615},{"name":"あいこう","province":"東京都","city":"町田市","address":"東京都町田市","lat":35.5466304,"lon":139.43861823},{"name":"桜ケ丘共働学舎","province":"東京都","city":"町田市","address":"町田市小野路町2157","lat":35.60214,"lon":139.43965},{"name":"アクア矢部町","province":"東京都","city":"町田市","address":"町田市矢部町10-2","lat":35.57644,"lon":139.4057},{"name":"町田市社会福祉協議会","province":"東京都","city":"町田市","address":"町田市原町田4-9-8町田市民フォーラム4階","lat":35.54182,"lon":139.44991},{"name":"社会福祉法人まちだ育成会ひかり療育園","province":"東京都","city":"町田市","address":"東京都町田市忠生3丁目6-2","lat":35.57688807,"lon":139.41875532},{"name":"医療法人社団公朋会デイケアだんけ","province":"東京都","city":"町田市","address":"東京都町田市成瀬台3丁目8-18","lat":35.55480671,"lon":139.47834313},{"name":"社会福祉法人つぼみの家町田ゆめ工房","province":"東京都","city":"町田市","address":"東京都町田市相原町2983-157","lat":35.60794677,"lon":139.31323009},{"name":"社会福祉法人ウィズ町田なないろ","province":"東京都","city":"町田市","address":"東京都町田市木曽西2丁目17-16","lat":35.57001097,"lon":139.41539749},{"name":"社会福祉法人まちのひ富士清掃サービス","province":"東京都","city":"町田市","address":"東京都町田市忠生3丁目18-1","lat":35.57811285,"lon":139.41451123},{"name":"地域活動支援センターまちプラ","province":"東京都","city":"町田市","address":"東京都町田市原町田4丁目24-6","lat":35.54444758,"lon":139.45308375},{"name":"愛恵会乳児院","province":"東京都","city":"町田市","address":"町田市小山町3191-3","lat":35.599698,"lon":139.361059},{"name":"町田市民病院","province":"東京都","city":"町田市","address":"町田市旭町2-15-41","lat":35.55734,"lon":139.43691},{"name":"サンシルバー町田","province":"東京都","city":"町田市","address":"町田市相原町2373-1","lat":35.613326,"lon":139.314385},{"name":"町田市民病院","province":"東京都","city":"町田市","address":"町田市旭町2-15-41","lat":35.557091,"lon":139.438701},{"name":"町田市すみれ教室","province":"東京都","city":"町田市","address":"町田市中町2-13-14","lat":35.551569,"lon":139.444459},{"name":"町田市授産場","province":"東京都","city":"町田市","address":"町田市忠生3-6-22","lat":35.57746,"lon":139.419097},{"name":"桜ケ丘共働学舎","province":"東京都","city":"町田市","address":"町田市小野路町2157","lat":35.594709,"lon":139.449684},{"name":"町田荘","province":"東京都","city":"町田市","address":"町田市南成瀬4-19-15","lat":35.538792,"lon":139.477213},{"name":"町田第２荘","province":"東京都","city":"町田市","address":"町田市南成瀬7-6-12","lat":35.534051,"lon":139.480602},{"name":"町田図師荘","province":"東京都","city":"町田市","address":"町田市図師町615-7","lat":35.582199,"lon":139.419452},{"name":"町田市社会福祉協議会","province":"東京都","city":"町田市","address":"町田市原町田4-9-8町田市民フォーラム4階","lat":35.541806,"lon":139.449881},{"name":"町田荘","province":"東京都","city":"町田市","address":"町田市南成瀬4-19-15","lat":35.53862,"lon":139.47742},{"name":"町田第２荘","province":"東京都","city":"町田市","address":"町田市南成瀬7-6-12","lat":35.5341,"lon":139.48062},{"name":"町田図師荘","province":"東京都","city":"町田市","address":"町田市図師町615-7","lat":35.58226,"lon":139.41943},{"name":"町田市保健所","province":"東京都","city":"町田市","address":"町田市森野2-2-22市庁舎7階","lat":35.549872,"lon":139.440026},{"name":"町田市保健所中町庁舎","province":"東京都","city":"町田市","address":"町田市中町2-13-3","lat":35.551224,"lon":139.443709},{"name":"町田市健康福祉会館","province":"東京都","city":"町田市","address":"町田市原町田5-8-21","lat":35.54602,"lon":139.449987},{"name":"町田市忠生保健センター","province":"東京都","city":"町田市","address":"町田市忠生3-14-2","lat":35.578366,"lon":139.416031},{"name":"町田市鶴川保健センター","province":"東京都","city":"町田市","address":"町田市大蔵町1981-4","lat":35.588886,"lon":139.467396},{"name":"町田市民病院","province":"東京都","city":"町田市","address":"町田市旭町2-15-41","lat":35.55734,"lon":139.4369},{"name":"愛恵会乳児院","province":"東京都","city":"町田市","address":"町田市小山町3191-3","lat":35.59977,"lon":139.3615},{"name":"あいこう","province":"東京都","city":"町田市","address":"東京都町田市","lat":35.5466304,"lon":139.43861823},{"name":"桜ケ丘共働学舎","province":"東京都","city":"町田市","address":"町田市小野路町2157","lat":35.60214,"lon":139.43965},{"name":"アクア矢部町","province":"東京都","city":"町田市","address":"町田市矢部町10-2","lat":35.57644,"lon":139.4057},{"name":"町田市社会福祉協議会","province":"東京都","city":"町田市","address":"町田市原町田4-9-8町田市民フォーラム4階","lat":35.54182,"lon":139.44991},{"name":"社会福祉法人まちだ育成会ひかり療育園","province":"東京都","city":"町田市","address":"東京都町田市忠生3丁目6-2","lat":35.57688807,"lon":139.41875532},{"name":"医療法人社団公朋会デイケアだんけ","province":"東京都","city":"町田市","address":"東京都町田市成瀬台3丁目8-18","lat":35.55480671,"lon":139.47834313},{"name":"社会福祉法人つぼみの家町田ゆめ工房","province":"東京都","city":"町田市","address":"東京都町田市相原町2983-157","lat":35.60794677,"lon":139.31323009},{"name":"社会福祉法人ウィズ町田なないろ","province":"東京都","city":"町田市","address":"東京都町田市木曽西2丁目17-16","lat":35.57001097,"lon":139.41539749},{"name":"社会福祉法人まちのひ富士清掃サービス","province":"東京都","city":"町田市","address":"東京都町田市忠生3丁目18-1","lat":35.57811285,"lon":139.41451123},{"name":"地域活動支援センターまちプラ","province":"東京都","city":"町田市","address":"東京都町田市原町田4丁目24-6","lat":35.54444758,"lon":139.45308375},{"name":"愛恵会乳児院","province":"東京都","city":"町田市","address":"町田市小山町3191-3","lat":35.599698,"lon":139.361059},{"name":"町田市民病院","province":"東京都","city":"町田市","address":"町田市旭町2-15-41","lat":35.55734,"lon":139.43691},{"name":"サンシルバー町田","province":"東京都","city":"町田市","address":"町田市相原町2373-1","lat":35.613326,"lon":139.314385},{"name":"町田市民病院","province":"東京都","city":"町田市","address":"町田市旭町2-15-41","lat":35.557091,"lon":139.438701},{"name":"町田市すみれ教室","province":"東京都","city":"町田市","address":"町田市中町2-13-14","lat":35.551569,"lon":139.444459},{"name":"町田市授産場","province":"東京都","city":"町田市","address":"町田市忠生3-6-22","lat":35.57746,"lon":139.419097},{"name":"桜ケ丘共働学舎","province":"東京都","city":"町田市","address":"町田市小野路町2157","lat":35.594709,"lon":139.449684},{"name":"町田荘","province":"東京都","city":"町田市","address":"町田市南成瀬4-19-15","lat":35.538792,"lon":139.477213},{"name":"町田第２荘","province":"東京都","city":"町田市","address":"町田市南成瀬7-6-12","lat":35.534051,"lon":139.480602},{"name":"町田図師荘","province":"東京都","city":"町田市","address":"町田市図師町615-7","lat":35.582199,"lon":139.419452},{"name":"町田市社会福祉協議会","province":"東京都","city":"町田市","address":"町田市原町田4-9-8町田市民フォーラム4階","lat":35.541806,"lon":139.449881},{"name":"町田荘","province":"東京都","city":"町田市","address":"町田市南成瀬4-19-15","lat":35.53862,"lon":139.47742},{"name":"町田第２荘","province":"東京都","city":"町田市","address":"町田市南成瀬7-6-12","lat":35.5341,"lon":139.48062},{"name":"町田図師荘","province":"東京都","city":"町田市","address":"町田市図師町615-7","lat":35.58226,"lon":139.41943},{"name":"町田市保健所","province":"東京都","city":"町田市","address":"町田市森野2-2-22市庁舎7階","lat":35.549872,"lon":139.440026},{"name":"町田市保健所中町庁舎","province":"東京都","city":"町田市","address":"町田市中町2-13-3","lat":35.551224,"lon":139.443709},{"name":"町田市健康福祉会館","province":"東京都","city":"町田市","address":"町田市原町田5-8-21","lat":35.54602,"lon":139.449987},{"name":"町田市忠生保健センター","province":"東京都","city":"町田市","address":"町田市忠生3-14-2","lat":35.578366,"lon":139.416031},{"name":"町田市鶴川保健センター","province":"東京都","city":"町田市","address":"町田市大蔵町1981-4","lat":35.588886,"lon":139.467396},{"name":"町田市民病院","province":"東京都","city":"町田市","address":"町田市旭町2-15-41","lat":35.55734,"lon":139.4369},{"name":"愛恵会乳児院","province":"東京都","city":"町田市","address":"町田市小山町3191-3","lat":35.59977,"lon":139.3615},{"name":"あいこう","province":"東京都","city":"町田市","address":"東京都町田市","lat":35.5466304,"lon":139.43861823},{"name":"桜ケ丘共働学舎","province":"東京都","city":"町田市","address":"町田市小野路町2157","lat":35.60214,"lon":139.43965},{"name":"アクア矢部町","province":"東京都","city":"町田市","address":"町田市矢部町10-2","lat":35.57644,"lon":139.4057},{"name":"町田市社会福祉協議会","province":"東京都","city":"町田市","address":"町田市原町田4-9-8町田市民フォーラム4階","lat":35.54182,"lon":139.44991},{"name":"社会福祉法人まちだ育成会ひかり療育園","province":"東京都","city":"町田市","address":"東京都町田市忠生3丁目6-2","lat":35.57688807,"lon":139.41875532},{"name":"医療法人社団公朋会デイケアだんけ","province":"東京都","city":"町田市","address":"東京都町田市成瀬台3丁目8-18","lat":35.55480671,"lon":139.47834313},{"name":"社会福祉法人つぼみの家町田ゆめ工房","province":"東京都","city":"町田市","address":"東京都町田市相原町2983-157","lat":35.60794677,"lon":139.31323009},{"name":"社会福祉法人ウィズ町田なないろ","province":"東京都","city":"町田市","address":"東京都町田市木曽西2丁目17-16","lat":35.57001097,"lon":139.41539749},{"name":"社会福祉法人まちのひ富士清掃サービス","province":"東京都","city":"町田市","address":"東京都町田市忠生3丁目18-1","lat":35.57811285,"lon":139.41451123},{"name":"地域活動支援センターまちプラ","province":"東京都","city":"町田市","address":"東京都町田市原町田4丁目24-6","lat":35.54444758,"lon":139.45308375},{"name":"愛恵会乳児院","province":"東京都","city":"町田市","address":"町田市小山町3191-3","lat":35.599698,"lon":139.361059},{"name":"町田市民病院","province":"東京都","city":"町田市","address":"町田市旭町2-15-41","lat":35.55734,"lon":139.43691},{"name":"サンシルバー町田","province":"東京都","city":"町田市","address":"町田市相原町2373-1","lat":35.613326,"lon":139.314385},{"name":"町田市民病院","province":"東京都","city":"町田市","address":"町田市旭町2-15-41","lat":35.557091,"lon":139.438701},{"name":"町田市すみれ教室","province":"東京都","city":"町田市","address":"町田市中町2-13-14","lat":35.551569,"lon":139.444459},{"name":"町田市授産場","province":"東京都","city":"町田市","address":"町田市忠生3-6-22","lat":35.57746,"lon":139.419097},{"name":"桜ケ丘共働学舎","province":"東京都","city":"町田市","address":"町田市小野路町2157","lat":35.594709,"lon":139.449684},{"name":"町田荘","province":"東京都","city":"町田市","address":"町田市南成瀬4-19-15","lat":35.538792,"lon":139.477213},{"name":"町田第２荘","province":"東京都","city":"町田市","address":"町田市南成瀬7-6-12","lat":35.534051,"lon":139.480602},{"name":"町田図師荘","province":"東京都","city":"町田市","address":"町田市図師町615-7","lat":35.582199,"lon":139.419452},{"name":"町田市社会福祉協議会","province":"東京都","city":"町田市","address":"町田市原町田4-9-8町田市民フォーラム4階","lat":35.541806,"lon":139.449881},{"name":"町田荘","province":"東京都","city":"町田市","address":"町田市南成瀬4-19-15","lat":35.53862,"lon":139.47742},{"name":"町田第２荘","province":"東京都","city":"町田市","address":"町田市南成瀬7-6-12","lat":35.5341,"lon":139.48062},{"name":"町田図師荘","province":"東京都","city":"町田市","address":"町田市図師町615-7","lat":35.58226,"lon":139.41943},{"name":"町田市保健所","province":"東京都","city":"町田市","address":"町田市森野2-2-22市庁舎7階","lat":35.549872,"lon":139.440026},{"name":"町田市保健所中町庁舎","province":"東京都","city":"町田市","address":"町田市中町2-13-3","lat":35.551224,"lon":139.443709},{"name":"町田市健康福祉会館","province":"東京都","city":"町田市","address":"町田市原町田5-8-21","lat":35.54602,"lon":139.449987},{"name":"町田市忠生保健センター","province":"東京都","city":"町田市","address":"町田市忠生3-14-2","lat":35.578366,"lon":139.416031},{"name":"町田市鶴川保健センター","province":"東京都","city":"町田市","address":"町田市大蔵町1981-4","lat":35.588886,"lon":139.467396},{"name":"町田市民病院","province":"東京都","city":"町田市","address":"町田市旭町2-15-41","lat":35.55734,"lon":139.4369},{"name":"愛恵会乳児院","province":"東京都","city":"町田市","address":"町田市小山町3191-3","lat":35.59977,"lon":139.3615},{"name":"あいこう","province":"東京都","city":"町田市","address":"東京都町田市","lat":35.5466304,"lon":139.43861823},{"name":"桜ケ丘共働学舎","province":"東京都","city":"町田市","address":"町田市小野路町2157","lat":35.60214,"lon":139.43965},{"name":"アクア矢部町","province":"東京都","city":"町田市","address":"町田市矢部町10-2","lat":35.57644,"lon":139.4057},{"name":"町田市社会福祉協議会","province":"東京都","city":"町田市","address":"町田市原町田4-9-8町田市民フォーラム4階","lat":35.54182,"lon":139.44991},{"name":"社会福祉法人まちだ育成会ひかり療育園","province":"東京都","city":"町田市","address":"東京都町田市忠生3丁目6-2","lat":35.57688807,"lon":139.41875532},{"name":"医療法人社団公朋会デイケアだんけ","province":"東京都","city":"町田市","address":"東京都町田市成瀬台3丁目8-18","lat":35.55480671,"lon":139.47834313},{"name":"社会福祉法人つぼみの家町田ゆめ工房","province":"東京都","city":"町田市","address":"東京都町田市相原町2983-157","lat":35.60794677,"lon":139.31323009},{"name":"社会福祉法人ウィズ町田なないろ","province":"東京都","city":"町田市","address":"東京都町田市木曽西2丁目17-16","lat":35.57001097,"lon":139.41539749},{"name":"社会福祉法人まちのひ富士清掃サービス","province":"東京都","city":"町田市","address":"東京都町田市忠生3丁目18-1","lat":35.57811285,"lon":139.41451123},{"name":"地域活動支援センターまちプラ","province":"東京都","city":"町田市","address":"東京都町田市原町田4丁目24-6","lat":35.54444758,"lon":139.45308375},{"name":"愛恵会乳児院","province":"東京都","city":"町田市","address":"町田市小山町3191-3","lat":35.599698,"lon":139.361059},{"name":"町田市民病院","province":"東京都","city":"町田市","address":"町田市旭町2-15-41","lat":35.55734,"lon":139.43691},{"name":"サンシルバー町田","province":"東京都","city":"町田市","address":"町田市相原町2373-1","lat":35.613326,"lon":139.314385},{"name":"町田市民病院","province":"東京都","city":"町田市","address":"町田市旭町2-15-41","lat":35.557091,"lon":139.438701},{"name":"町田市すみれ教室","province":"東京都","city":"町田市","address":"町田市中町2-13-14","lat":35.551569,"lon":139.444459},{"name":"町田市授産場","province":"東京都","city":"町田市","address":"町田市忠生3-6-22","lat":35.57746,"lon":139.419097},{"name":"桜ケ丘共働学舎","province":"東京都","city":"町田市","address":"町田市小野路町2157","lat":35.594709,"lon":139.449684},{"name":"町田荘","province":"東京都","city":"町田市","address":"町田市南成瀬4-19-15","lat":35.538792,"lon":139.477213},{"name":"町田第２荘","province":"東京都","city":"町田市","address":"町田市南成瀬7-6-12","lat":35.534051,"lon":139.480602},{"name":"町田図師荘","province":"東京都","city":"町田市","address":"町田市図師町615-7","lat":35.582199,"lon":139.419452},{"name":"町田市社会福祉協議会","province":"東京都","city":"町田市","address":"町田市原町田4-9-8町田市民フォーラム4階","lat":35.541806,"lon":139.449881},{"name":"町田荘","province":"東京都","city":"町田市","address":"町田市南成瀬4-19-15","lat":35.53862,"lon":139.47742},{"name":"町田第２荘","province":"東京都","city":"町田市","address":"町田市南成瀬7-6-12","lat":35.5341,"lon":139.48062},{"name":"町田図師荘","province":"東京都","city":"町田市","address":"町田市図師町615-7","lat":35.58226,"lon":139.41943},{"name":"町田市保健所","province":"東京都","city":"町田市","address":"町田市森野2-2-22市庁舎7階","lat":35.549872,"lon":139.440026},{"name":"町田市保健所中町庁舎","province":"東京都","city":"町田市","address":"町田市中町2-13-3","lat":35.551224,"lon":139.443709},{"name":"町田市健康福祉会館","province":"東京都","city":"町田市","address":"町田市原町田5-8-21","lat":35.54602,"lon":139.449987},{"name":"町田市忠生保健センター","province":"東京都","city":"町田市","address":"町田市忠生3-14-2","lat":35.578366,"lon":139.416031},{"name":"町田市鶴川保健センター","province":"東京都","city":"町田市","address":"町田市大蔵町1981-4","lat":35.588886,"lon":139.467396},{"name":"町田市民病院","province":"東京都","city":"町田市","address":"町田市旭町2-15-41","lat":35.55734,"lon":139.4369},{"name":"愛恵会乳児院","province":"東京都","city":"町田市","address":"町田市小山町3191-3","lat":35.59977,"lon":139.3615},{"name":"あいこう","province":"東京都","city":"町田市","address":"東京都町田市","lat":35.5466304,"lon":139.43861823},{"name":"桜ケ丘共働学舎","province":"東京都","city":"町田市","address":"町田市小野路町2157","lat":35.60214,"lon":139.43965},{"name":"アクア矢部町","province":"東京都","city":"町田市","address":"町田市矢部町10-2","lat":35.57644,"lon":139.4057},{"name":"町田市社会福祉協議会","province":"東京都","city":"町田市","address":"町田市原町田4-9-8町田市民フォーラム4階","lat":35.54182,"lon":139.44991},{"name":"社会福祉法人まちだ育成会ひかり療育園","province":"東京都","city":"町田市","address":"東京都町田市忠生3丁目6-2","lat":35.57688807,"lon":139.41875532},{"name":"医療法人社団公朋会デイケアだんけ","province":"東京都","city":"町田市","address":"東京都町田市成瀬台3丁目8-18","lat":35.55480671,"lon":139.47834313},{"name":"社会福祉法人つぼみの家町田ゆめ工房","province":"東京都","city":"町田市","address":"東京都町田市相原町2983-157","lat":35.60794677,"lon":139.31323009},{"name":"社会福祉法人ウィズ町田なないろ","province":"東京都","city":"町田市","address":"東京都町田市木曽西2丁目17-16","lat":35.57001097,"lon":139.41539749},{"name":"社会福祉法人まちのひ富士清掃サービス","province":"東京都","city":"町田市","address":"東京都町田市忠生3丁目18-1","lat":35.57811285,"lon":139.41451123},{"name":"地域活動支援センターまちプラ","province":"東京都","city":"町田市","address":"東京都町田市原町田4丁目24-6","lat":35.54444758,"lon":139.45308375},{"name":"愛恵会乳児院","province":"東京都","city":"町田市","address":"町田市小山町3191-3","lat":35.599698,"lon":139.361059},{"name":"町田市民病院","province":"東京都","city":"町田市","address":"町田市旭町2-15-41","lat":35.55734,"lon":139.43691},{"name":"サンシルバー町田","province":"東京都","city":"町田市","address":"町田市相原町2373-1","lat":35.613326,"lon":139.314385},{"name":"町田市民病院","province":"東京都","city":"町田市","address":"町田市旭町2-15-41","lat":35.557091,"lon":139.438701},{"name":"町田市すみれ教室","province":"東京都","city":"町田市","address":"町田市中町2-13-14","lat":35.551569,"lon":139.444459},{"name":"町田市授産場","province":"東京都","city":"町田市","address":"町田市忠生3-6-22","lat":35.57746,"lon":139.419097},{"name":"桜ケ丘共働学舎","province":"東京都","city":"町田市","address":"町田市小野路町2157","lat":35.594709,"lon":139.449684},{"name":"町田荘","province":"東京都","city":"町田市","address":"町田市南成瀬4-19-15","lat":35.538792,"lon":139.477213},{"name":"町田第２荘","province":"東京都","city":"町田市","address":"町田市南成瀬7-6-12","lat":35.534051,"lon":139.480602},{"name":"町田図師荘","province":"東京都","city":"町田市","address":"町田市図師町615-7","lat":35.582199,"lon":139.419452},{"name":"町田市社会福祉協議会","province":"東京都","city":"町田市","address":"町田市原町田4-9-8町田市民フォーラム4階","lat":35.541806,"lon":139.449881},{"name":"町田荘","province":"東京都","city":"町田市","address":"町田市南成瀬4-19-15","lat":35.53862,"lon":139.47742},{"name":"町田第２荘","province":"東京都","city":"町田市","address":"町田市南成瀬7-6-12","lat":35.5341,"lon":139.48062},{"name":"町田図師荘","province":"東京都","city":"町田市","address":"町田市図師町615-7","lat":35.58226,"lon":139.41943},{"name":"町田市保健所","province":"東京都","city":"町田市","address":"町田市森野2-2-22市庁舎7階","lat":35.549872,"lon":139.440026},{"name":"町田市保健所中町庁舎","province":"東京都","city":"町田市","address":"町田市中町2-13-3","lat":35.551224,"lon":139.443709},{"name":"町田市健康福祉会館","province":"東京都","city":"町田市","address":"町田市原町田5-8-21","lat":35.54602,"lon":139.449987},{"name":"町田市忠生保健センター","province":"東京都","city":"町田市","address":"町田市忠生3-14-2","lat":35.578366,"lon":139.416031},{"name":"町田市鶴川保健センター","province":"東京都","city":"町田市","address":"町田市大蔵町1981-4","lat":35.588886,"lon":139.467396},{"name":"町田市民病院","province":"東京都","city":"町田市","address":"町田市旭町2-15-41","lat":35.55734,"lon":139.4369},{"name":"愛恵会乳児院","province":"東京都","city":"町田市","address":"町田市小山町3191-3","lat":35.59977,"lon":139.3615},{"name":"あいこう","province":"東京都","city":"町田市","address":"東京都町田市","lat":35.5466304,"lon":139.43861823},{"name":"桜ケ丘共働学舎","province":"東京都","city":"町田市","address":"町田市小野路町2157","lat":35.60214,"lon":139.43965},{"name":"アクア矢部町","province":"東京都","city":"町田市","address":"町田市矢部町10-2","lat":35.57644,"lon":139.4057},{"name":"町田市社会福祉協議会","province":"東京都","city":"町田市","address":"町田市原町田4-9-8町田市民フォーラム4階","lat":35.54182,"lon":139.44991},{"name":"社会福祉法人まちだ育成会ひかり療育園","province":"東京都","city":"町田市","address":"東京都町田市忠生3丁目6-2","lat":35.57688807,"lon":139.41875532},{"name":"医療法人社団公朋会デイケアだんけ","province":"東京都","city":"町田市","address":"東京都町田市成瀬台3丁目8-18","lat":35.55480671,"lon":139.47834313},{"name":"社会福祉法人つぼみの家町田ゆめ工房","province":"東京都","city":"町田市","address":"東京都町田市相原町2983-157","lat":35.60794677,"lon":139.31323009},{"name":"社会福祉法人ウィズ町田なないろ","province":"東京都","city":"町田市","address":"東京都町田市木曽西2丁目17-16","lat":35.57001097,"lon":139.41539749},{"name":"社会福祉法人まちのひ富士清掃サービス","province":"東京都","city":"町田市","address":"東京都町田市忠生3丁目18-1","lat":35.57811285,"lon":139.41451123},{"name":"地域活動支援センターまちプラ","province":"東京都","city":"町田市","address":"東京都町田市原町田4丁目24-6","lat":35.54444758,"lon":139.45308375},{"name":"愛恵会乳児院","province":"東京都","city":"町田市","address":"町田市小山町3191-3","lat":35.599698,"lon":139.361059},{"name":"町田市民病院","province":"東京都","city":"町田市","address":"町田市旭町2-15-41","lat":35.55734,"lon":139.43691},{"name":"サンシルバー町田","province":"東京都","city":"町田市","address":"町田市相原町2373-1","lat":35.613326,"lon":139.314385},{"name":"町田市民病院","province":"東京都","city":"町田市","address":"町田市旭町2-15-41","lat":35.557091,"lon":139.438701},{"name":"町田市すみれ教室","province":"東京都","city":"町田市","address":"町田市中町2-13-14","lat":35.551569,"lon":139.444459},{"name":"町田市授産場","province":"東京都","city":"町田市","address":"町田市忠生3-6-22","lat":35.57746,"lon":139.419097},{"name":"桜ケ丘共働学舎","province":"東京都","city":"町田市","address":"町田市小野路町2157","lat":35.594709,"lon":139.449684},{"name":"町田荘","province":"東京都","city":"町田市","address":"町田市南成瀬4-19-15","lat":35.538792,"lon":139.477213},{"name":"町田第２荘","province":"東京都","city":"町田市","address":"町田市南成瀬7-6-12","lat":35.534051,"lon":139.480602},{"name":"町田図師荘","province":"東京都","city":"町田市","address":"町田市図師町615-7","lat":35.582199,"lon":139.419452},{"name":"町田市社会福祉協議会","province":"東京都","city":"町田市","address":"町田市原町田4-9-8町田市民フォーラム4階","lat":35.541806,"lon":139.449881},{"name":"町田荘","province":"東京都","city":"町田市","address":"町田市南成瀬4-19-15","lat":35.53862,"lon":139.47742},{"name":"町田第２荘","province":"東京都","city":"町田市","address":"町田市南成瀬7-6-12","lat":35.5341,"lon":139.48062},{"name":"町田図師荘","province":"東京都","city":"町田市","address":"町田市図師町615-7","lat":35.58226,"lon":139.41943},{"name":"町田市保健所","province":"東京都","city":"町田市","address":"町田市森野2-2-22市庁舎7階","lat":35.549872,"lon":139.440026},{"name":"町田市保健所中町庁舎","province":"東京都","city":"町田市","address":"町田市中町2-13-3","lat":35.551224,"lon":139.443709},{"name":"町田市健康福祉会館","province":"東京都","city":"町田市","address":"町田市原町田5-8-21","lat":35.54602,"lon":139.449987},{"name":"町田市忠生保健センター","province":"東京都","city":"町田市","address":"町田市忠生3-14-2","lat":35.578366,"lon":139.416031},{"name":"町田市鶴川保健センター","province":"東京都","city":"町田市","address":"町田市大蔵町1981-4","lat":35.588886,"lon":139.467396},{"name":"町田市民病院","province":"東京都","city":"町田市","address":"町田市旭町2-15-41","lat":35.55734,"lon":139.4369},{"name":"愛恵会乳児院","province":"東京都","city":"町田市","address":"町田市小山町3191-3","lat":35.59977,"lon":139.3615},{"name":"あいこう","province":"東京都","city":"町田市","address":"東京都町田市","lat":35.5466304,"lon":139.43861823},{"name":"桜ケ丘共働学舎","province":"東京都","city":"町田市","address":"町田市小野路町2157","lat":35.60214,"lon":139.43965},{"name":"アクア矢部町","province":"東京都","city":"町田市","address":"町田市矢部町10-2","lat":35.57644,"lon":139.4057},{"name":"町田市社会福祉協議会","province":"東京都","city":"町田市","address":"町田市原町田4-9-8町田市民フォーラム4階","lat":35.54182,"lon":139.44991},{"name":"社会福祉法人まちだ育成会ひかり療育園","province":"東京都","city":"町田市","address":"東京都町田市忠生3丁目6-2","lat":35.57688807,"lon":139.41875532},{"name":"医療法人社団公朋会デイケアだんけ","province":"東京都","city":"町田市","address":"東京都町田市成瀬台3丁目8-18","lat":35.55480671,"lon":139.47834313},{"name":"社会福祉法人つぼみの家町田ゆめ工房","province":"東京都","city":"町田市","address":"東京都町田市相原町2983-157","lat":35.60794677,"lon":139.31323009},{"name":"社会福祉法人ウィズ町田なないろ","province":"東京都","city":"町田市","address":"東京都町田市木曽西2丁目17-16","lat":35.57001097,"lon":139.41539749},{"name":"社会福祉法人まちのひ富士清掃サービス","province":"東京都","city":"町田市","address":"東京都町田市忠生3丁目18-1","lat":35.57811285,"lon":139.41451123},{"name":"地域活動支援センターまちプラ","province":"東京都","city":"町田市","address":"東京都町田市原町田4丁目24-6","lat":35.54444758,"lon":139.45308375},{"name":"愛恵会乳児院","province":"東京都","city":"町田市","address":"町田市小山町3191-3","lat":35.599698,"lon":139.361059},{"name":"町田市民病院","province":"東京都","city":"町田市","address":"町田市旭町2-15-41","lat":35.55734,"lon":139.43691},{"name":"サンシルバー町田","province":"東京都","city":"町田市","address":"町田市相原町2373-1","lat":35.613326,"lon":139.314385},{"name":"町田市民病院","province":"東京都","city":"町田市","address":"町田市旭町2-15-41","lat":35.557091,"lon":139.438701},{"name":"町田市すみれ教室","province":"東京都","city":"町田市","address":"町田市中町2-13-14","lat":35.551569,"lon":139.444459},{"name":"町田市授産場","province":"東京都","city":"町田市","address":"町田市忠生3-6-22","lat":35.57746,"lon":139.419097},{"name":"桜ケ丘共働学舎","province":"東京都","city":"町田市","address":"町田市小野路町2157","lat":35.594709,"lon":139.449684},{"name":"町田荘","province":"東京都","city":"町田市","address":"町田市南成瀬4-19-15","lat":35.538792,"lon":139.477213},{"name":"町田第２荘","province":"東京都","city":"町田市","address":"町田市南成瀬7-6-12","lat":35.534051,"lon":139.480602},{"name":"町田図師荘","province":"東京都","city":"町田市","address":"町田市図師町615-7","lat":35.582199,"lon":139.419452},{"name":"町田市社会福祉協議会","province":"東京都","city":"町田市","address":"町田市原町田4-9-8町田市民フォーラム4階","lat":35.541806,"lon":139.449881},{"name":"町田荘","province":"東京都","city":"町田市","address":"町田市南成瀬4-19-15","lat":35.53862,"lon":139.47742},{"name":"町田第２荘","province":"東京都","city":"町田市","address":"町田市南成瀬7-6-12","lat":35.5341,"lon":139.48062},{"name":"町田図師荘","province":"東京都","city":"町田市","address":"町田市図師町615-7","lat":35.58226,"lon":139.41943},{"name":"町田市保健所","province":"東京都","city":"町田市","address":"町田市森野2-2-22市庁舎7階","lat":35.549872,"lon":139.440026},{"name":"町田市保健所中町庁舎","province":"東京都","city":"町田市","address":"町田市中町2-13-3","lat":35.551224,"lon":139.443709},{"name":"町田市健康福祉会館","province":"東京都","city":"町田市","address":"町田市原町田5-8-21","lat":35.54602,"lon":139.449987},{"name":"町田市忠生保健センター","province":"東京都","city":"町田市","address":"町田市忠生3-14-2","lat":35.578366,"lon":139.416031},{"name":"町田市鶴川保健センター","province":"東京都","city":"町田市","address":"町田市大蔵町1981-4","lat":35.588886,"lon":139.467396},{"name":"町田市民病院","province":"東京都","city":"町田市","address":"町田市旭町2-15-41","lat":35.55734,"lon":139.4369},{"name":"愛恵会乳児院","province":"東京都","city":"町田市","address":"町田市小山町3191-3","lat":35.59977,"lon":139.3615},{"name":"あいこう","province":"東京都","city":"町田市","address":"東京都町田市","lat":35.5466304,"lon":139.43861823},{"name":"桜ケ丘共働学舎","province":"東京都","city":"町田市","address":"町田市小野路町2157","lat":35.60214,"lon":139.43965},{"name":"アクア矢部町","province":"東京都","city":"町田市","address":"町田市矢部町10-2","lat":35.57644,"lon":139.4057},{"name":"町田市社会福祉協議会","province":"東京都","city":"町田市","address":"町田市原町田4-9-8町田市民フォーラム4階","lat":35.54182,"lon":139.44991},{"name":"社会福祉法人まちだ育成会ひかり療育園","province":"東京都","city":"町田市","address":"東京都町田市忠生3丁目6-2","lat":35.57688807,"lon":139.41875532},{"name":"医療法人社団公朋会デイケアだんけ","province":"東京都","city":"町田市","address":"東京都町田市成瀬台3丁目8-18","lat":35.55480671,"lon":139.47834313},{"name":"社会福祉法人つぼみの家町田ゆめ工房","province":"東京都","city":"町田市","address":"東京都町田市相原町2983-157","lat":35.60794677,"lon":139.31323009},{"name":"社会福祉法人ウィズ町田なないろ","province":"東京都","city":"町田市","address":"東京都町田市木曽西2丁目17-16","lat":35.57001097,"lon":139.41539749},{"name":"社会福祉法人まちのひ富士清掃サービス","province":"東京都","city":"町田市","address":"東京都町田市忠生3丁目18-1","lat":35.57811285,"lon":139.41451123},{"name":"地域活動支援センターまちプラ","province":"東京都","city":"町田市","address":"東京都町田市原町田4丁目24-6","lat":35.54444758,"lon":139.45308375},{"name":"愛恵会乳児院","province":"東京都","city":"町田市","address":"町田市小山町3191-3","lat":35.599698,"lon":139.361059},{"name":"町田市民病院","province":"東京都","city":"町田市","address":"町田市旭町2-15-41","lat":35.55734,"lon":139.43691},{"name":"サンシルバー町田","province":"東京都","city":"町田市","address":"町田市相原町2373-1","lat":35.613326,"lon":139.314385},{"name":"町田市民病院","province":"東京都","city":"町田市","address":"町田市旭町2-15-41","lat":35.557091,"lon":139.438701},{"name":"町田市すみれ教室","province":"東京都","city":"町田市","address":"町田市中町2-13-14","lat":35.551569,"lon":139.444459},{"name":"町田市授産場","province":"東京都","city":"町田市","address":"町田市忠生3-6-22","lat":35.57746,"lon":139.419097},{"name":"桜ケ丘共働学舎","province":"東京都","city":"町田市","address":"町田市小野路町2157","lat":35.594709,"lon":139.449684},{"name":"町田荘","province":"東京都","city":"町田市","address":"町田市南成瀬4-19-15","lat":35.538792,"lon":139.477213},{"name":"町田第２荘","province":"東京都","city":"町田市","address":"町田市南成瀬7-6-12","lat":35.534051,"lon":139.480602},{"name":"町田図師荘","province":"東京都","city":"町田市","address":"町田市図師町615-7","lat":35.582199,"lon":139.419452},{"name":"町田市社会福祉協議会","province":"東京都","city":"町田市","address":"町田市原町田4-9-8町田市民フォーラム4階","lat":35.541806,"lon":139.449881},{"name":"町田荘","province":"東京都","city":"町田市","address":"町田市南成瀬4-19-15","lat":35.53862,"lon":139.47742},{"name":"町田第２荘","province":"東京都","city":"町田市","address":"町田市南成瀬7-6-12","lat":35.5341,"lon":139.48062},{"name":"町田図師荘","province":"東京都","city":"町田市","address":"町田市図師町615-7","lat":35.58226,"lon":139.41943},{"name":"町田市保健所","province":"東京都","city":"町田市","address":"町田市森野2-2-22市庁舎7階","lat":35.549872,"lon":139.440026},{"name":"町田市保健所中町庁舎","province":"東京都","city":"町田市","address":"町田市中町2-13-3","lat":35.551224,"lon":139.443709},{"name":"町田市健康福祉会館","province":"東京都","city":"町田市","address":"町田市原町田5-8-21","lat":35.54602,"lon":139.449987},{"name":"町田市忠生保健センター","province":"東京都","city":"町田市","address":"町田市忠生3-14-2","lat":35.578366,"lon":139.416031},{"name":"町田市鶴川保健センター","province":"東京都","city":"町田市","address":"町田市大蔵町1981-4","lat":35.588886,"lon":139.467396},{"name":"町田市民病院","province":"東京都","city":"町田市","address":"町田市旭町2-15-41","lat":35.55734,"lon":139.4369},{"name":"愛恵会乳児院","province":"東京都","city":"町田市","address":"町田市小山町3191-3","lat":35.59977,"lon":139.3615},{"name":"あいこう","province":"東京都","city":"町田市","address":"東京都町田市","lat":35.5466304,"lon":139.43861823},{"name":"桜ケ丘共働学舎","province":"東京都","city":"町田市","address":"町田市小野路町2157","lat":35.60214,"lon":139.43965},{"name":"アクア矢部町","province":"東京都","city":"町田市","address":"町田市矢部町10-2","lat":35.57644,"lon":139.4057},{"name":"町田市社会福祉協議会","province":"東京都","city":"町田市","address":"町田市原町田4-9-8町田市民フォーラム4階","lat":35.54182,"lon":139.44991},{"name":"社会福祉法人まちだ育成会ひかり療育園","province":"東京都","city":"町田市","address":"東京都町田市忠生3丁目6-2","lat":35.57688807,"lon":139.41875532},{"name":"医療法人社団公朋会デイケアだんけ","province":"東京都","city":"町田市","address":"東京都町田市成瀬台3丁目8-18","lat":35.55480671,"lon":139.47834313},{"name":"社会福祉法人つぼみの家町田ゆめ工房","province":"東京都","city":"町田市","address":"東京都町田市相原町2983-157","lat":35.60794677,"lon":139.31323009},{"name":"社会福祉法人ウィズ町田なないろ","province":"東京都","city":"町田市","address":"東京都町田市木曽西2丁目17-16","lat":35.57001097,"lon":139.41539749},{"name":"社会福祉法人まちのひ富士清掃サービス","province":"東京都","city":"町田市","address":"東京都町田市忠生3丁目18-1","lat":35.57811285,"lon":139.41451123},{"name":"地域活動支援センターまちプラ","province":"東京都","city":"町田市","address":"東京都町田市原町田4丁目24-6","lat":35.54444758,"lon":139.45308375},{"name":"愛恵会乳児院","province":"東京都","city":"町田市","address":"町田市小山町3191-3","lat":35.599698,"lon":139.361059},{"name":"町田市民病院","province":"東京都","city":"町田市","address":"町田市旭町2-15-41","lat":35.55734,"lon":139.43691},{"name":"サンシルバー町田","province":"東京都","city":"町田市","address":"町田市相原町2373-1","lat":35.613326,"lon":139.314385},{"name":"町田市民病院","province":"東京都","city":"町田市","address":"町田市旭町2-15-41","lat":35.557091,"lon":139.438701},{"name":"町田市すみれ教室","province":"東京都","city":"町田市","address":"町田市中町2-13-14","lat":35.551569,"lon":139.444459},{"name":"町田市授産場","province":"東京都","city":"町田市","address":"町田市忠生3-6-22","lat":35.57746,"lon":139.419097},{"name":"桜ケ丘共働学舎","province":"東京都","city":"町田市","address":"町田市小野路町2157","lat":35.594709,"lon":139.449684},{"name":"町田荘","province":"東京都","city":"町田市","address":"町田市南成瀬4-19-15","lat":35.538792,"lon":139.477213},{"name":"町田第２荘","province":"東京都","city":"町田市","address":"町田市南成瀬7-6-12","lat":35.534051,"lon":139.480602},{"name":"町田図師荘","province":"東京都","city":"町田市","address":"町田市図師町615-7","lat":35.582199,"lon":139.419452},{"name":"町田市社会福祉協議会","province":"東京都","city":"町田市","address":"町田市原町田4-9-8町田市民フォーラム4階","lat":35.541806,"lon":139.449881},{"name":"町田荘","province":"東京都","city":"町田市","address":"町田市南成瀬4-19-15","lat":35.53862,"lon":139.47742},{"name":"町田第２荘","province":"東京都","city":"町田市","address":"町田市南成瀬7-6-12","lat":35.5341,"lon":139.48062},{"name":"町田図師荘","province":"東京都","city":"町田市","address":"町田市図師町615-7","lat":35.58226,"lon":139.41943},{"name":"町田市保健所","province":"東京都","city":"町田市","address":"町田市森野2-2-22市庁舎7階","lat":35.549872,"lon":139.440026},{"name":"町田市保健所中町庁舎","province":"東京都","city":"町田市","address":"町田市中町2-13-3","lat":35.551224,"lon":139.443709},{"name":"町田市健康福祉会館","province":"東京都","city":"町田市","address":"町田市原町田5-8-21","lat":35.54602,"lon":139.449987},{"name":"町田市忠生保健センター","province":"東京都","city":"町田市","address":"町田市忠生3-14-2","lat":35.578366,"lon":139.416031},{"name":"町田市鶴川保健センター","province":"東京都","city":"町田市","address":"町田市大蔵町1981-4","lat":35.588886,"lon":139.467396},{"name":"町田市民病院","province":"東京都","city":"町田市","address":"町田市旭町2-15-41","lat":35.55734,"lon":139.4369},{"name":"愛恵会乳児院","province":"東京都","city":"町田市","address":"町田市小山町3191-3","lat":35.59977,"lon":139.3615},{"name":"あいこう","province":"東京都","city":"町田市","address":"東京都町田市","lat":35.5466304,"lon":139.43861823},{"name":"桜ケ丘共働学舎","province":"東京都","city":"町田市","address":"町田市小野路町2157","lat":35.60214,"lon":139.43965},{"name":"アクア矢部町","province":"東京都","city":"町田市","address":"町田市矢部町10-2","lat":35.57644,"lon":139.4057},{"name":"町田市社会福祉協議会","province":"東京都","city":"町田市","address":"町田市原町田4-9-8町田市民フォーラム4階","lat":35.54182,"lon":139.44991},{"name":"愛恵会乳児院","province":"東京都","city":"町田市","address":"町田市小山町3191-3","lat":35.599698,"lon":139.361059},{"name":"町田市民病院","province":"東京都","city":"町田市","address":"町田市旭町2-15-41","lat":35.55734,"lon":139.43691},{"name":"サンシルバー町田","province":"東京都","city":"町田市","address":"町田市相原町2373-1","lat":35.613326,"lon":139.314385},{"name":"町田市民病院","province":"東京都","city":"町田市","address":"町田市旭町2-15-41","lat":35.557091,"lon":139.438701},{"name":"町田市すみれ教室","province":"東京都","city":"町田市","address":"町田市中町2-13-14","lat":35.551569,"lon":139.444459},{"name":"町田市授産場","province":"東京都","city":"町田市","address":"町田市忠生3-6-22","lat":35.57746,"lon":139.419097},{"name":"桜ケ丘共働学舎","province":"東京都","city":"町田市","address":"町田市小野路町2157","lat":35.594709,"lon":139.449684},{"name":"町田荘","province":"東京都","city":"町田市","address":"町田市南成瀬4-19-15","lat":35.538792,"lon":139.477213},{"name":"町田第２荘","province":"東京都","city":"町田市","address":"町田市南成瀬7-6-12","lat":35.534051,"lon":139.480602},{"name":"町田図師荘","province":"東京都","city":"町田市","address":"町田市図師町615-7","lat":35.582199,"lon":139.419452},{"name":"町田市社会福祉協議会","province":"東京都","city":"町田市","address":"町田市原町田4-9-8町田市民フォーラム4階","lat":35.541806,"lon":139.449881},{"name":"町田荘","province":"東京都","city":"町田市","address":"町田市南成瀬4-19-15","lat":35.53862,"lon":139.47742},{"name":"町田第２荘","province":"東京都","city":"町田市","address":"町田市南成瀬7-6-12","lat":35.5341,"lon":139.48062},{"name":"町田図師荘","province":"東京都","city":"町田市","address":"町田市図師町615-7","lat":35.58226,"lon":139.41943},{"name":"町田市保健所","province":"東京都","city":"町田市","address":"町田市森野2-2-22市庁舎7階","lat":35.549872,"lon":139.440026},{"name":"町田市保健所中町庁舎","province":"東京都","city":"町田市","address":"町田市中町2-13-3","lat":35.551224,"lon":139.443709},{"name":"町田市健康福祉会館","province":"東京都","city":"町田市","address":"町田市原町田5-8-21","lat":35.54602,"lon":139.449987},{"name":"町田市忠生保健センター","province":"東京都","city":"町田市","address":"町田市忠生3-14-2","lat":35.578366,"lon":139.416031},{"name":"町田市鶴川保健センター","province":"東京都","city":"町田市","address":"町田市大蔵町1981-4","lat":35.588886,"lon":139.467396},{"name":"町田市民病院","province":"東京都","city":"町田市","address":"町田市旭町2-15-41","lat":35.55734,"lon":139.4369},{"name":"愛恵会乳児院","province":"東京都","city":"町田市","address":"町田市小山町3191-3","lat":35.59977,"lon":139.3615},{"name":"あいこう","province":"東京都","city":"町田市","address":"東京都町田市","lat":35.5466304,"lon":139.43861823},{"name":"桜ケ丘共働学舎","province":"東京都","city":"町田市","address":"町田市小野路町2157","lat":35.60214,"lon":139.43965},{"name":"アクア矢部町","province":"東京都","city":"町田市","address":"町田市矢部町10-2","lat":35.57644,"lon":139.4057},{"name":"町田市社会福祉協議会","province":"東京都","city":"町田市","address":"町田市原町田4-9-8町田市民フォーラム4階","lat":35.54182,"lon":139.44991},{"name":"愛恵会乳児院","province":"東京都","city":"町田市","address":"町田市小山町3191-3","lat":35.599698,"lon":139.361059},{"name":"町田市民病院","province":"東京都","city":"町田市","address":"町田市旭町2-15-41","lat":35.55734,"lon":139.43691},{"name":"サンシルバー町田","province":"東京都","city":"町田市","address":"町田市相原町2373-1","lat":35.613326,"lon":139.314385},{"name":"町田市民病院","province":"東京都","city":"町田市","address":"町田市旭町2-15-41","lat":35.557091,"lon":139.438701},{"name":"町田市すみれ教室","province":"東京都","city":"町田市","address":"町田市中町2-13-14","lat":35.551569,"lon":139.444459},{"name":"町田市授産場","province":"東京都","city":"町田市","address":"町田市忠生3-6-22","lat":35.57746,"lon":139.419097},{"name":"桜ケ丘共働学舎","province":"東京都","city":"町田市","address":"町田市小野路町2157","lat":35.594709,"lon":139.449684},{"name":"町田荘","province":"東京都","city":"町田市","address":"町田市南成瀬4-19-15","lat":35.538792,"lon":139.477213},{"name":"町田第２荘","province":"東京都","city":"町田市","address":"町田市南成瀬7-6-12","lat":35.534051,"lon":139.480602},{"name":"町田図師荘","province":"東京都","city":"町田市","address":"町田市図師町615-7","lat":35.582199,"lon":139.419452},{"name":"町田市社会福祉協議会","province":"東京都","city":"町田市","address":"町田市原町田4-9-8町田市民フォーラム4階","lat":35.541806,"lon":139.449881},{"name":"町田荘","province":"東京都","city":"町田市","address":"町田市南成瀬4-19-15","lat":35.53862,"lon":139.47742},{"name":"町田第２荘","province":"東京都","city":"町田市","address":"町田市南成瀬7-6-12","lat":35.5341,"lon":139.48062},{"name":"町田図師荘","province":"東京都","city":"町田市","address":"町田市図師町615-7","lat":35.58226,"lon":139.41943},{"name":"町田市保健所","province":"東京都","city":"町田市","address":"町田市森野2-2-22市庁舎7階","lat":35.549872,"lon":139.440026},{"name":"町田市保健所中町庁舎","province":"東京都","city":"町田市","address":"町田市中町2-13-3","lat":35.551224,"lon":139.443709},{"name":"町田市健康福祉会館","province":"東京都","city":"町田市","address":"町田市原町田5-8-21","lat":35.54602,"lon":139.449987},{"name":"町田市忠生保健センター","province":"東京都","city":"町田市","address":"町田市忠生3-14-2","lat":35.578366,"lon":139.416031},{"name":"町田市鶴川保健センター","province":"東京都","city":"町田市","address":"町田市大蔵町1981-4","lat":35.588886,"lon":139.467396},{"name":"町田市民病院","province":"東京都","city":"町田市","address":"町田市旭町2-15-41","lat":35.55734,"lon":139.4369},{"name":"愛恵会乳児院","province":"東京都","city":"町田市","address":"町田市小山町3191-3","lat":35.59977,"lon":139.3615},{"name":"あいこう","province":"東京都","city":"町田市","address":"東京都町田市","lat":35.5466304,"lon":139.43861823},{"name":"桜ケ丘共働学舎","province":"東京都","city":"町田市","address":"町田市小野路町2157","lat":35.60214,"lon":139.43965},{"name":"アクア矢部町","province":"東京都","city":"町田市","address":"町田市矢部町10-2","lat":35.57644,"lon":139.4057},{"name":"町田市社会福祉協議会","province":"東京都","city":"町田市","address":"町田市原町田4-9-8町田市民フォーラム4階","lat":35.54182,"lon":139.44991},{"name":"愛恵会乳児院","province":"東京都","city":"町田市","address":"町田市小山町3191-3","lat":35.599698,"lon":139.361059},{"name":"町田市民病院","province":"東京都","city":"町田市","address":"町田市旭町2-15-41","lat":35.55734,"lon":139.43691},{"name":"サンシルバー町田","province":"東京都","city":"町田市","address":"町田市相原町2373-1","lat":35.613326,"lon":139.314385},{"name":"町田市民病院","province":"東京都","city":"町田市","address":"町田市旭町2-15-41","lat":35.557091,"lon":139.438701},{"name":"町田市すみれ教室","province":"東京都","city":"町田市","address":"町田市中町2-13-14","lat":35.551569,"lon":139.444459},{"name":"町田市授産場","province":"東京都","city":"町田市","address":"町田市忠生3-6-22","lat":35.57746,"lon":139.419097},{"name":"桜ケ丘共働学舎","province":"東京都","city":"町田市","address":"町田市小野路町2157","lat":35.594709,"lon":139.449684},{"name":"町田荘","province":"東京都","city":"町田市","address":"町田市南成瀬4-19-15","lat":35.538792,"lon":139.477213},{"name":"町田第２荘","province":"東京都","city":"町田市","address":"町田市南成瀬7-6-12","lat":35.534051,"lon":139.480602},{"name":"町田図師荘","province":"東京都","city":"町田市","address":"町田市図師町615-7","lat":35.582199,"lon":139.419452},{"name":"町田市社会福祉協議会","province":"東京都","city":"町田市","address":"町田市原町田4-9-8町田市民フォーラム4階","lat":35.541806,"lon":139.449881},{"name":"町田荘","province":"東京都","city":"町田市","address":"町田市南成瀬4-19-15","lat":35.53862,"lon":139.47742},{"name":"町田第２荘","province":"東京都","city":"町田市","address":"町田市南成瀬7-6-12","lat":35.5341,"lon":139.48062},{"name":"町田図師荘","province":"東京都","city":"町田市","address":"町田市図師町615-7","lat":35.58226,"lon":139.41943},{"name":"町田市保健所","province":"東京都","city":"町田市","address":"町田市森野2-2-22市庁舎7階","lat":35.549872,"lon":139.440026},{"name":"町田市保健所中町庁舎","province":"東京都","city":"町田市","address":"町田市中町2-13-3","lat":35.551224,"lon":139.443709},{"name":"町田市健康福祉会館","province":"東京都","city":"町田市","address":"町田市原町田5-8-21","lat":35.54602,"lon":139.449987},{"name":"町田市忠生保健センター","province":"東京都","city":"町田市","address":"町田市忠生3-14-2","lat":35.578366,"lon":139.416031},{"name":"町田市鶴川保健センター","province":"東京都","city":"町田市","address":"町田市大蔵町1981-4","lat":35.588886,"lon":139.467396},{"name":"町田市民病院","province":"東京都","city":"町田市","address":"町田市旭町2-15-41","lat":35.55734,"lon":139.4369},{"name":"愛恵会乳児院","province":"東京都","city":"町田市","address":"町田市小山町3191-3","lat":35.59977,"lon":139.3615},{"name":"あいこう","province":"東京都","city":"町田市","address":"東京都町田市","lat":35.5466304,"lon":139.43861823},{"name":"桜ケ丘共働学舎","province":"東京都","city":"町田市","address":"町田市小野路町2157","lat":35.60214,"lon":139.43965},{"name":"アクア矢部町","province":"東京都","city":"町田市","address":"町田市矢部町10-2","lat":35.57644,"lon":139.4057},{"name":"町田市社会福祉協議会","province":"東京都","city":"町田市","address":"町田市原町田4-9-8町田市民フォーラム4階","lat":35.54182,"lon":139.44991},{"name":"愛恵会乳児院","province":"東京都","city":"町田市","address":"町田市小山町3191-3","lat":35.599698,"lon":139.361059},{"name":"町田市民病院","province":"東京都","city":"町田市","address":"町田市旭町2-15-41","lat":35.55734,"lon":139.43691},{"name":"サンシルバー町田","province":"東京都","city":"町田市","address":"町田市相原町2373-1","lat":35.613326,"lon":139.314385},{"name":"町田市民病院","province":"東京都","city":"町田市","address":"町田市旭町2-15-41","lat":35.557091,"lon":139.438701},{"name":"町田市すみれ教室","province":"東京都","city":"町田市","address":"町田市中町2-13-14","lat":35.551569,"lon":139.444459},{"name":"町田市授産場","province":"東京都","city":"町田市","address":"町田市忠生3-6-22","lat":35.57746,"lon":139.419097},{"name":"桜ケ丘共働学舎","province":"東京都","city":"町田市","address":"町田市小野路町2157","lat":35.594709,"lon":139.449684},{"name":"町田荘","province":"東京都","city":"町田市","address":"町田市南成瀬4-19-15","lat":35.538792,"lon":139.477213},{"name":"町田第２荘","province":"東京都","city":"町田市","address":"町田市南成瀬7-6-12","lat":35.534051,"lon":139.480602},{"name":"町田図師荘","province":"東京都","city":"町田市","address":"町田市図師町615-7","lat":35.582199,"lon":139.419452},{"name":"町田市社会福祉協議会","province":"東京都","city":"町田市","address":"町田市原町田4-9-8町田市民フォーラム4階","lat":35.541806,"lon":139.449881},{"name":"町田荘","province":"東京都","city":"町田市","address":"町田市南成瀬4-19-15","lat":35.53862,"lon":139.47742},{"name":"町田第２荘","province":"東京都","city":"町田市","address":"町田市南成瀬7-6-12","lat":35.5341,"lon":139.48062},{"name":"町田図師荘","province":"東京都","city":"町田市","address":"町田市図師町615-7","lat":35.58226,"lon":139.41943},{"name":"町田市保健所","province":"東京都","city":"町田市","address":"町田市森野2-2-22市庁舎7階","lat":35.549872,"lon":139.440026},{"name":"町田市保健所中町庁舎","province":"東京都","city":"町田市","address":"町田市中町2-13-3","lat":35.551224,"lon":139.443709},{"name":"町田市健康福祉会館","province":"東京都","city":"町田市","address":"町田市原町田5-8-21","lat":35.54602,"lon":139.449987},{"name":"町田市忠生保健センター","province":"東京都","city":"町田市","address":"町田市忠生3-14-2","lat":35.578366,"lon":139.416031},{"name":"町田市鶴川保健センター","province":"東京都","city":"町田市","address":"町田市大蔵町1981-4","lat":35.588886,"lon":139.467396},{"name":"町田市民病院","province":"東京都","city":"町田市","address":"町田市旭町2-15-41","lat":35.55734,"lon":139.4369},{"name":"愛恵会乳児院","province":"東京都","city":"町田市","address":"町田市小山町3191-3","lat":35.59977,"lon":139.3615},{"name":"あいこう","province":"東京都","city":"町田市","address":"東京都町田市","lat":35.5466304,"lon":139.43861823},{"name":"桜ケ丘共働学舎","province":"東京都","city":"町田市","address":"町田市小野路町2157","lat":35.60214,"lon":139.43965},{"name":"アクア矢部町","province":"東京都","city":"町田市","address":"町田市矢部町10-2","lat":35.57644,"lon":139.4057},{"name":"町田市社会福祉協議会","province":"東京都","city":"町田市","address":"町田市原町田4-9-8町田市民フォーラム4階","lat":35.54182,"lon":139.44991},{"name":"愛恵会乳児院","province":"東京都","city":"町田市","address":"町田市小山町3191-3","lat":35.599698,"lon":139.361059},{"name":"町田市民病院","province":"東京都","city":"町田市","address":"町田市旭町2-15-41","lat":35.55734,"lon":139.43691},{"name":"サンシルバー町田","province":"東京都","city":"町田市","address":"町田市相原町2373-1","lat":35.613326,"lon":139.314385},{"name":"町田市民病院","province":"東京都","city":"町田市","address":"町田市旭町2-15-41","lat":35.557091,"lon":139.438701},{"name":"町田市すみれ教室","province":"東京都","city":"町田市","address":"町田市中町2-13-14","lat":35.551569,"lon":139.444459},{"name":"町田市授産場","province":"東京都","city":"町田市","address":"町田市忠生3-6-22","lat":35.57746,"lon":139.419097},{"name":"桜ケ丘共働学舎","province":"東京都","city":"町田市","address":"町田市小野路町2157","lat":35.594709,"lon":139.449684},{"name":"町田荘","province":"東京都","city":"町田市","address":"町田市南成瀬4-19-15","lat":35.538792,"lon":139.477213},{"name":"町田第２荘","province":"東京都","city":"町田市","address":"町田市南成瀬7-6-12","lat":35.534051,"lon":139.480602},{"name":"町田図師荘","province":"東京都","city":"町田市","address":"町田市図師町615-7","lat":35.582199,"lon":139.419452},{"name":"町田市社会福祉協議会","province":"東京都","city":"町田市","address":"町田市原町田4-9-8町田市民フォーラム4階","lat":35.541806,"lon":139.449881},{"name":"町田荘","province":"東京都","city":"町田市","address":"町田市南成瀬4-19-15","lat":35.53862,"lon":139.47742},{"name":"町田第２荘","province":"東京都","city":"町田市","address":"町田市南成瀬7-6-12","lat":35.5341,"lon":139.48062},{"name":"町田図師荘","province":"東京都","city":"町田市","address":"町田市図師町615-7","lat":35.58226,"lon":139.41943},{"name":"町田市保健所","province":"東京都","city":"町田市","address":"町田市森野2-2-22市庁舎7階","lat":35.549872,"lon":139.440026},{"name":"町田市保健所中町庁舎","province":"東京都","city":"町田市","address":"町田市中町2-13-3","lat":35.551224,"lon":139.443709},{"name":"町田市健康福祉会館","province":"東京都","city":"町田市","address":"町田市原町田5-8-21","lat":35.54602,"lon":139.449987},{"name":"町田市忠生保健センター","province":"東京都","city":"町田市","address":"町田市忠生3-14-2","lat":35.578366,"lon":139.416031},{"name":"町田市鶴川保健センター","province":"東京都","city":"町田市","address":"町田市大蔵町1981-4","lat":35.588886,"lon":139.467396},{"name":"町田市民病院","province":"東京都","city":"町田市","address":"町田市旭町2-15-41","lat":35.55734,"lon":139.4369},{"name":"愛恵会乳児院","province":"東京都","city":"町田市","address":"町田市小山町3191-3","lat":35.59977,"lon":139.3615},{"name":"あいこう","province":"東京都","city":"町田市","address":"東京都町田市","lat":35.5466304,"lon":139.43861823},{"name":"桜ケ丘共働学舎","province":"東京都","city":"町田市","address":"町田市小野路町2157","lat":35.60214,"lon":139.43965},{"name":"アクア矢部町","province":"東京都","city":"町田市","address":"町田市矢部町10-2","lat":35.57644,"lon":139.4057},{"name":"町田市社会福祉協議会","province":"東京都","city":"町田市","address":"町田市原町田4-9-8町田市民フォーラム4階","lat":35.54182,"lon":139.44991},{"name":"愛恵会乳児院","province":"東京都","city":"町田市","address":"町田市小山町3191-3","lat":35.599698,"lon":139.361059},{"name":"町田市民病院","province":"東京都","city":"町田市","address":"町田市旭町2-15-41","lat":35.55734,"lon":139.43691},{"name":"サンシルバー町田","province":"東京都","city":"町田市","address":"町田市相原町2373-1","lat":35.613326,"lon":139.314385},{"name":"町田市民病院","province":"東京都","city":"町田市","address":"町田市旭町2-15-41","lat":35.557091,"lon":139.438701},{"name":"町田市すみれ教室","province":"東京都","city":"町田市","address":"町田市中町2-13-14","lat":35.551569,"lon":139.444459},{"name":"町田市授産場","province":"東京都","city":"町田市","address":"町田市忠生3-6-22","lat":35.57746,"lon":139.419097},{"name":"桜ケ丘共働学舎","province":"東京都","city":"町田市","address":"町田市小野路町2157","lat":35.594709,"lon":139.449684},{"name":"町田荘","province":"東京都","city":"町田市","address":"町田市南成瀬4-19-15","lat":35.538792,"lon":139.477213},{"name":"町田第２荘","province":"東京都","city":"町田市","address":"町田市南成瀬7-6-12","lat":35.534051,"lon":139.480602},{"name":"町田図師荘","province":"東京都","city":"町田市","address":"町田市図師町615-7","lat":35.582199,"lon":139.419452},{"name":"町田市社会福祉協議会","province":"東京都","city":"町田市","address":"町田市原町田4-9-8町田市民フォーラム4階","lat":35.541806,"lon":139.449881},{"name":"町田荘","province":"東京都","city":"町田市","address":"町田市南成瀬4-19-15","lat":35.53862,"lon":139.47742},{"name":"町田第２荘","province":"東京都","city":"町田市","address":"町田市南成瀬7-6-12","lat":35.5341,"lon":139.48062},{"name":"町田図師荘","province":"東京都","city":"町田市","address":"町田市図師町615-7","lat":35.58226,"lon":139.41943},{"name":"町田市保健所","province":"東京都","city":"町田市","address":"町田市森野2-2-22市庁舎7階","lat":35.549872,"lon":139.440026},{"name":"町田市保健所中町庁舎","province":"東京都","city":"町田市","address":"町田市中町2-13-3","lat":35.551224,"lon":139.443709},{"name":"町田市健康福祉会館","province":"東京都","city":"町田市","address":"町田市原町田5-8-21","lat":35.54602,"lon":139.449987},{"name":"町田市忠生保健センター","province":"東京都","city":"町田市","address":"町田市忠生3-14-2","lat":35.578366,"lon":139.416031},{"name":"町田市鶴川保健センター","province":"東京都","city":"町田市","address":"町田市大蔵町1981-4","lat":35.588886,"lon":139.467396},{"name":"町田市民病院","province":"東京都","city":"町田市","address":"町田市旭町2-15-41","lat":35.55734,"lon":139.4369},{"name":"愛恵会乳児院","province":"東京都","city":"町田市","address":"町田市小山町3191-3","lat":35.59977,"lon":139.3615},{"name":"あいこう","province":"東京都","city":"町田市","address":"東京都町田市","lat":35.5466304,"lon":139.43861823},{"name":"桜ケ丘共働学舎","province":"東京都","city":"町田市","address":"町田市小野路町2157","lat":35.60214,"lon":139.43965},{"name":"アクア矢部町","province":"東京都","city":"町田市","address":"町田市矢部町10-2","lat":35.57644,"lon":139.4057},{"name":"町田市社会福祉協議会","province":"東京都","city":"町田市","address":"町田市原町田4-9-8町田市民フォーラム4階","lat":35.54182,"lon":139.44991},{"name":"愛恵会乳児院","province":"東京都","city":"町田市","address":"町田市小山町3191-3","lat":35.599698,"lon":139.361059},{"name":"町田市民病院","province":"東京都","city":"町田市","address":"町田市旭町2-15-41","lat":35.55734,"lon":139.43691},{"name":"サンシルバー町田","province":"東京都","city":"町田市","address":"町田市相原町2373-1","lat":35.613326,"lon":139.314385},{"name":"町田市民病院","province":"東京都","city":"町田市","address":"町田市旭町2-15-41","lat":35.557091,"lon":139.438701},{"name":"町田市すみれ教室","province":"東京都","city":"町田市","address":"町田市中町2-13-14","lat":35.551569,"lon":139.444459},{"name":"町田市授産場","province":"東京都","city":"町田市","address":"町田市忠生3-6-22","lat":35.57746,"lon":139.419097},{"name":"桜ケ丘共働学舎","province":"東京都","city":"町田市","address":"町田市小野路町2157","lat":35.594709,"lon":139.449684},{"name":"町田荘","province":"東京都","city":"町田市","address":"町田市南成瀬4-19-15","lat":35.538792,"lon":139.477213},{"name":"町田第２荘","province":"東京都","city":"町田市","address":"町田市南成瀬7-6-12","lat":35.534051,"lon":139.480602},{"name":"町田図師荘","province":"東京都","city":"町田市","address":"町田市図師町615-7","lat":35.582199,"lon":139.419452},{"name":"町田市社会福祉協議会","province":"東京都","city":"町田市","address":"町田市原町田4-9-8町田市民フォーラム4階","lat":35.541806,"lon":139.449881},{"name":"町田荘","province":"東京都","city":"町田市","address":"町田市南成瀬4-19-15","lat":35.53862,"lon":139.47742},{"name":"町田第２荘","province":"東京都","city":"町田市","address":"町田市南成瀬7-6-12","lat":35.5341,"lon":139.48062},{"name":"町田図師荘","province":"東京都","city":"町田市","address":"町田市図師町615-7","lat":35.58226,"lon":139.41943},{"name":"町田市保健所","province":"東京都","city":"町田市","address":"町田市森野2-2-22市庁舎7階","lat":35.549872,"lon":139.440026},{"name":"町田市保健所中町庁舎","province":"東京都","city":"町田市","address":"町田市中町2-13-3","lat":35.551224,"lon":139.443709},{"name":"町田市健康福祉会館","province":"東京都","city":"町田市","address":"町田市原町田5-8-21","lat":35.54602,"lon":139.449987},{"name":"町田市忠生保健センター","province":"東京都","city":"町田市","address":"町田市忠生3-14-2","lat":35.578366,"lon":139.416031},{"name":"町田市鶴川保健センター","province":"東京都","city":"町田市","address":"町田市大蔵町1981-4","lat":35.588886,"lon":139.467396},{"name":"町田市民病院","province":"東京都","city":"町田市","address":"町田市旭町2-15-41","lat":35.55734,"lon":139.4369},{"name":"愛恵会乳児院","province":"東京都","city":"町田市","address":"町田市小山町3191-3","lat":35.59977,"lon":139.3615},{"name":"あいこう","province":"東京都","city":"町田市","address":"東京都町田市","lat":35.5466304,"lon":139.43861823},{"name":"桜ケ丘共働学舎","province":"東京都","city":"町田市","address":"町田市小野路町2157","lat":35.60214,"lon":139.43965},{"name":"アクア矢部町","province":"東京都","city":"町田市","address":"町田市矢部町10-2","lat":35.57644,"lon":139.4057},{"name":"町田市社会福祉協議会","province":"東京都","city":"町田市","address":"町田市原町田4-9-8町田市民フォーラム4階","lat":35.54182,"lon":139.44991},{"name":"愛恵会乳児院","province":"東京都","city":"町田市","address":"町田市小山町3191-3","lat":35.599698,"lon":139.361059},{"name":"町田市民病院","province":"東京都","city":"町田市","address":"町田市旭町2-15-41","lat":35.55734,"lon":139.43691},{"name":"サンシルバー町田","province":"東京都","city":"町田市","address":"町田市相原町2373-1","lat":35.613326,"lon":139.314385},{"name":"町田市民病院","province":"東京都","city":"町田市","address":"町田市旭町2-15-41","lat":35.557091,"lon":139.438701},{"name":"町田市すみれ教室","province":"東京都","city":"町田市","address":"町田市中町2-13-14","lat":35.551569,"lon":139.444459},{"name":"町田市授産場","province":"東京都","city":"町田市","address":"町田市忠生3-6-22","lat":35.57746,"lon":139.419097},{"name":"桜ケ丘共働学舎","province":"東京都","city":"町田市","address":"町田市小野路町2157","lat":35.594709,"lon":139.449684},{"name":"町田荘","province":"東京都","city":"町田市","address":"町田市南成瀬4-19-15","lat":35.538792,"lon":139.477213},{"name":"町田第２荘","province":"東京都","city":"町田市","address":"町田市南成瀬7-6-12","lat":35.534051,"lon":139.480602},{"name":"町田図師荘","province":"東京都","city":"町田市","address":"町田市図師町615-7","lat":35.582199,"lon":139.419452},{"name":"町田市社会福祉協議会","province":"東京都","city":"町田市","address":"町田市原町田4-9-8町田市民フォーラム4階","lat":35.541806,"lon":139.449881},{"name":"町田荘","province":"東京都","city":"町田市","address":"町田市南成瀬4-19-15","lat":35.53862,"lon":139.47742},{"name":"町田第２荘","province":"東京都","city":"町田市","address":"町田市南成瀬7-6-12","lat":35.5341,"lon":139.48062},{"name":"町田図師荘","province":"東京都","city":"町田市","address":"町田市図師町615-7","lat":35.58226,"lon":139.41943},{"name":"町田市保健所","province":"東京都","city":"町田市","address":"町田市森野2-2-22市庁舎7階","lat":35.549872,"lon":139.440026},{"name":"町田市保健所中町庁舎","province":"東京都","city":"町田市","address":"町田市中町2-13-3","lat":35.551224,"lon":139.443709},{"name":"町田市健康福祉会館","province":"東京都","city":"町田市","address":"町田市原町田5-8-21","lat":35.54602,"lon":139.449987},{"name":"町田市忠生保健センター","province":"東京都","city":"町田市","address":"町田市忠生3-14-2","lat":35.578366,"lon":139.416031},{"name":"町田市鶴川保健センター","province":"東京都","city":"町田市","address":"町田市大蔵町1981-4","lat":35.588886,"lon":139.467396},{"name":"町田市民病院","province":"東京都","city":"町田市","address":"町田市旭町2-15-41","lat":35.55734,"lon":139.4369},{"name":"愛恵会乳児院","province":"東京都","city":"町田市","address":"町田市小山町3191-3","lat":35.59977,"lon":139.3615},{"name":"あいこう","province":"東京都","city":"町田市","address":"東京都町田市","lat":35.5466304,"lon":139.43861823},{"name":"桜ケ丘共働学舎","province":"東京都","city":"町田市","address":"町田市小野路町2157","lat":35.60214,"lon":139.43965},{"name":"アクア矢部町","province":"東京都","city":"町田市","address":"町田市矢部町10-2","lat":35.57644,"lon":139.4057},{"name":"町田市社会福祉協議会","province":"東京都","city":"町田市","address":"町田市原町田4-9-8町田市民フォーラム4階","lat":35.54182,"lon":139.44991},{"name":"愛恵会乳児院","province":"東京都","city":"町田市","address":"町田市小山町3191-3","lat":35.599698,"lon":139.361059},{"name":"町田市民病院","province":"東京都","city":"町田市","address":"町田市旭町2-15-41","lat":35.55734,"lon":139.43691},{"name":"サンシルバー町田","province":"東京都","city":"町田市","address":"町田市相原町2373-1","lat":35.613326,"lon":139.314385},{"name":"町田市民病院","province":"東京都","city":"町田市","address":"町田市旭町2-15-41","lat":35.557091,"lon":139.438701},{"name":"町田市すみれ教室","province":"東京都","city":"町田市","address":"町田市中町2-13-14","lat":35.551569,"lon":139.444459},{"name":"町田市授産場","province":"東京都","city":"町田市","address":"町田市忠生3-6-22","lat":35.57746,"lon":139.419097},{"name":"桜ケ丘共働学舎","province":"東京都","city":"町田市","address":"町田市小野路町2157","lat":35.594709,"lon":139.449684},{"name":"町田荘","province":"東京都","city":"町田市","address":"町田市南成瀬4-19-15","lat":35.538792,"lon":139.477213},{"name":"町田第２荘","province":"東京都","city":"町田市","address":"町田市南成瀬7-6-12","lat":35.534051,"lon":139.480602},{"name":"町田図師荘","province":"東京都","city":"町田市","address":"町田市図師町615-7","lat":35.582199,"lon":139.419452},{"name":"町田市社会福祉協議会","province":"東京都","city":"町田市","address":"町田市原町田4-9-8町田市民フォーラム4階","lat":35.541806,"lon":139.449881},{"name":"町田荘","province":"東京都","city":"町田市","address":"町田市南成瀬4-19-15","lat":35.53862,"lon":139.47742},{"name":"町田第２荘","province":"東京都","city":"町田市","address":"町田市南成瀬7-6-12","lat":35.5341,"lon":139.48062},{"name":"町田図師荘","province":"東京都","city":"町田市","address":"町田市図師町615-7","lat":35.58226,"lon":139.41943},{"name":"町田市保健所","province":"東京都","city":"町田市","address":"町田市森野2-2-22市庁舎7階","lat":35.549872,"lon":139.440026},{"name":"町田市保健所中町庁舎","province":"東京都","city":"町田市","address":"町田市中町2-13-3","lat":35.551224,"lon":139.443709},{"name":"町田市健康福祉会館","province":"東京都","city":"町田市","address":"町田市原町田5-8-21","lat":35.54602,"lon":139.449987},{"name":"町田市忠生保健センター","province":"東京都","city":"町田市","address":"町田市忠生3-14-2","lat":35.578366,"lon":139.416031},{"name":"町田市鶴川保健センター","province":"東京都","city":"町田市","address":"町田市大蔵町1981-4","lat":35.588886,"lon":139.467396},{"name":"町田市民病院","province":"東京都","city":"町田市","address":"町田市旭町2-15-41","lat":35.55734,"lon":139.4369},{"name":"愛恵会乳児院","province":"東京都","city":"町田市","address":"町田市小山町3191-3","lat":35.59977,"lon":139.3615},{"name":"あいこう","province":"東京都","city":"町田市","address":"東京都町田市","lat":35.5466304,"lon":139.43861823},{"name":"桜ケ丘共働学舎","province":"東京都","city":"町田市","address":"町田市小野路町2157","lat":35.60214,"lon":139.43965},{"name":"アクア矢部町","province":"東京都","city":"町田市","address":"町田市矢部町10-2","lat":35.57644,"lon":139.4057},{"name":"町田市社会福祉協議会","province":"東京都","city":"町田市","address":"町田市原町田4-9-8町田市民フォーラム4階","lat":35.54182,"lon":139.44991},{"name":"愛恵会乳児院","province":"東京都","city":"町田市","address":"町田市小山町3191-3","lat":35.599698,"lon":139.361059},{"name":"町田市民病院","province":"東京都","city":"町田市","address":"町田市旭町2-15-41","lat":35.55734,"lon":139.43691},{"name":"サンシルバー町田","province":"東京都","city":"町田市","address":"町田市相原町2373-1","lat":35.613326,"lon":139.314385},{"name":"町田市民病院","province":"東京都","city":"町田市","address":"町田市旭町2-15-41","lat":35.557091,"lon":139.438701},{"name":"町田市すみれ教室","province":"東京都","city":"町田市","address":"町田市中町2-13-14","lat":35.551569,"lon":139.444459},{"name":"町田市授産場","province":"東京都","city":"町田市","address":"町田市忠生3-6-22","lat":35.57746,"lon":139.419097},{"name":"桜ケ丘共働学舎","province":"東京都","city":"町田市","address":"町田市小野路町2157","lat":35.594709,"lon":139.449684},{"name":"町田荘","province":"東京都","city":"町田市","address":"町田市南成瀬4-19-15","lat":35.538792,"lon":139.477213},{"name":"町田第２荘","province":"東京都","city":"町田市","address":"町田市南成瀬7-6-12","lat":35.534051,"lon":139.480602},{"name":"町田図師荘","province":"東京都","city":"町田市","address":"町田市図師町615-7","lat":35.582199,"lon":139.419452},{"name":"町田市社会福祉協議会","province":"東京都","city":"町田市","address":"町田市原町田4-9-8町田市民フォーラム4階","lat":35.541806,"lon":139.449881},{"name":"町田荘","province":"東京都","city":"町田市","address":"町田市南成瀬4-19-15","lat":35.53862,"lon":139.47742},{"name":"町田第２荘","province":"東京都","city":"町田市","address":"町田市南成瀬7-6-12","lat":35.5341,"lon":139.48062},{"name":"町田図師荘","province":"東京都","city":"町田市","address":"町田市図師町615-7","lat":35.58226,"lon":139.41943},{"name":"町田市保健所","province":"東京都","city":"町田市","address":"町田市森野2-2-22市庁舎7階","lat":35.549872,"lon":139.440026},{"name":"町田市保健所中町庁舎","province":"東京都","city":"町田市","address":"町田市中町2-13-3","lat":35.551224,"lon":139.443709},{"name":"町田市健康福祉会館","province":"東京都","city":"町田市","address":"町田市原町田5-8-21","lat":35.54602,"lon":139.449987},{"name":"町田市忠生保健センター","province":"東京都","city":"町田市","address":"町田市忠生3-14-2","lat":35.578366,"lon":139.416031},{"name":"町田市鶴川保健センター","province":"東京都","city":"町田市","address":"町田市大蔵町1981-4","lat":35.588886,"lon":139.467396},{"name":"町田市民病院","province":"東京都","city":"町田市","address":"町田市旭町2-15-41","lat":35.55734,"lon":139.4369},{"name":"愛恵会乳児院","province":"東京都","city":"町田市","address":"町田市小山町3191-3","lat":35.59977,"lon":139.3615},{"name":"あいこう","province":"東京都","city":"町田市","address":"東京都町田市","lat":35.5466304,"lon":139.43861823},{"name":"桜ケ丘共働学舎","province":"東京都","city":"町田市","address":"町田市小野路町2157","lat":35.60214,"lon":139.43965},{"name":"アクア矢部町","province":"東京都","city":"町田市","address":"町田市矢部町10-2","lat":35.57644,"lon":139.4057},{"name":"町田市社会福祉協議会","province":"東京都","city":"町田市","address":"町田市原町田4-9-8町田市民フォーラム4階","lat":35.54182,"lon":139.44991},{"name":"愛恵会乳児院","province":"東京都","city":"町田市","address":"町田市小山町3191-3","lat":35.599698,"lon":139.361059},{"name":"町田市民病院","province":"東京都","city":"町田市","address":"町田市旭町2-15-41","lat":35.55734,"lon":139.43691},{"name":"サンシルバー町田","province":"東京都","city":"町田市","address":"町田市相原町2373-1","lat":35.613326,"lon":139.314385},{"name":"町田市民病院","province":"東京都","city":"町田市","address":"町田市旭町2-15-41","lat":35.557091,"lon":139.438701},{"name":"町田市すみれ教室","province":"東京都","city":"町田市","address":"町田市中町2-13-14","lat":35.551569,"lon":139.444459},{"name":"町田市授産場","province":"東京都","city":"町田市","address":"町田市忠生3-6-22","lat":35.57746,"lon":139.419097},{"name":"桜ケ丘共働学舎","province":"東京都","city":"町田市","address":"町田市小野路町2157","lat":35.594709,"lon":139.449684},{"name":"町田荘","province":"東京都","city":"町田市","address":"町田市南成瀬4-19-15","lat":35.538792,"lon":139.477213},{"name":"町田第２荘","province":"東京都","city":"町田市","address":"町田市南成瀬7-6-12","lat":35.534051,"lon":139.480602},{"name":"町田図師荘","province":"東京都","city":"町田市","address":"町田市図師町615-7","lat":35.582199,"lon":139.419452},{"name":"町田市社会福祉協議会","province":"東京都","city":"町田市","address":"町田市原町田4-9-8町田市民フォーラム4階","lat":35.541806,"lon":139.449881},{"name":"町田荘","province":"東京都","city":"町田市","address":"町田市南成瀬4-19-15","lat":35.53862,"lon":139.47742},{"name":"町田第２荘","province":"東京都","city":"町田市","address":"町田市南成瀬7-6-12","lat":35.5341,"lon":139.48062},{"name":"町田図師荘","province":"東京都","city":"町田市","address":"町田市図師町615-7","lat":35.58226,"lon":139.41943},{"name":"町田市保健所","province":"東京都","city":"町田市","address":"町田市森野2-2-22市庁舎7階","lat":35.549872,"lon":139.440026},{"name":"町田市保健所中町庁舎","province":"東京都","city":"町田市","address":"町田市中町2-13-3","lat":35.551224,"lon":139.443709},{"name":"町田市健康福祉会館","province":"東京都","city":"町田市","address":"町田市原町田5-8-21","lat":35.54602,"lon":139.449987},{"name":"町田市忠生保健センター","province":"東京都","city":"町田市","address":"町田市忠生3-14-2","lat":35.578366,"lon":139.416031},{"name":"町田市鶴川保健センター","province":"東京都","city":"町田市","address":"町田市大蔵町1981-4","lat":35.588886,"lon":139.467396},{"name":"町田市民病院","province":"東京都","city":"町田市","address":"町田市旭町2-15-41","lat":35.55734,"lon":139.4369},{"name":"愛恵会乳児院","province":"東京都","city":"町田市","address":"町田市小山町3191-3","lat":35.59977,"lon":139.3615},{"name":"あいこう","province":"東京都","city":"町田市","address":"東京都町田市","lat":35.5466304,"lon":139.43861823},{"name":"桜ケ丘共働学舎","province":"東京都","city":"町田市","address":"町田市小野路町2157","lat":35.60214,"lon":139.43965},{"name":"アクア矢部町","province":"東京都","city":"町田市","address":"町田市矢部町10-2","lat":35.57644,"lon":139.4057},{"name":"町田市社会福祉協議会","province":"東京都","city":"町田市","address":"町田市原町田4-9-8町田市民フォーラム4階","lat":35.54182,"lon":139.44991},{"name":"愛恵会乳児院","province":"東京都","city":"町田市","address":"町田市小山町3191-3","lat":35.599698,"lon":139.361059},{"name":"町田市民病院","province":"東京都","city":"町田市","address":"町田市旭町2-15-41","lat":35.55734,"lon":139.43691},{"name":"サンシルバー町田","province":"東京都","city":"町田市","address":"町田市相原町2373-1","lat":35.613326,"lon":139.314385},{"name":"町田市民病院","province":"東京都","city":"町田市","address":"町田市旭町2-15-41","lat":35.557091,"lon":139.438701},{"name":"町田市すみれ教室","province":"東京都","city":"町田市","address":"町田市中町2-13-14","lat":35.551569,"lon":139.444459},{"name":"町田市授産場","province":"東京都","city":"町田市","address":"町田市忠生3-6-22","lat":35.57746,"lon":139.419097},{"name":"桜ケ丘共働学舎","province":"東京都","city":"町田市","address":"町田市小野路町2157","lat":35.594709,"lon":139.449684},{"name":"町田荘","province":"東京都","city":"町田市","address":"町田市南成瀬4-19-15","lat":35.538792,"lon":139.477213},{"name":"町田第２荘","province":"東京都","city":"町田市","address":"町田市南成瀬7-6-12","lat":35.534051,"lon":139.480602},{"name":"町田図師荘","province":"東京都","city":"町田市","address":"町田市図師町615-7","lat":35.582199,"lon":139.419452},{"name":"町田市社会福祉協議会","province":"東京都","city":"町田市","address":"町田市原町田4-9-8町田市民フォーラム4階","lat":35.541806,"lon":139.449881},{"name":"町田荘","province":"東京都","city":"町田市","address":"町田市南成瀬4-19-15","lat":35.53862,"lon":139.47742},{"name":"町田第２荘","province":"東京都","city":"町田市","address":"町田市南成瀬7-6-12","lat":35.5341,"lon":139.48062},{"name":"町田図師荘","province":"東京都","city":"町田市","address":"町田市図師町615-7","lat":35.58226,"lon":139.41943},{"name":"町田市保健所","province":"東京都","city":"町田市","address":"町田市森野2-2-22市庁舎7階","lat":35.549872,"lon":139.440026},{"name":"町田市保健所中町庁舎","province":"東京都","city":"町田市","address":"町田市中町2-13-3","lat":35.551224,"lon":139.443709},{"name":"町田市健康福祉会館","province":"東京都","city":"町田市","address":"町田市原町田5-8-21","lat":35.54602,"lon":139.449987},{"name":"町田市忠生保健センター","province":"東京都","city":"町田市","address":"町田市忠生3-14-2","lat":35.578366,"lon":139.416031},{"name":"町田市鶴川保健センター","province":"東京都","city":"町田市","address":"町田市大蔵町1981-4","lat":35.588886,"lon":139.467396},{"name":"町田市民病院","province":"東京都","city":"町田市","address":"町田市旭町2-15-41","lat":35.55734,"lon":139.4369},{"name":"愛恵会乳児院","province":"東京都","city":"町田市","address":"町田市小山町3191-3","lat":35.59977,"lon":139.3615},{"name":"あいこう","province":"東京都","city":"町田市","address":"東京都町田市","lat":35.5466304,"lon":139.43861823},{"name":"桜ケ丘共働学舎","province":"東京都","city":"町田市","address":"町田市小野路町2157","lat":35.60214,"lon":139.43965},{"name":"アクア矢部町","province":"東京都","city":"町田市","address":"町田市矢部町10-2","lat":35.57644,"lon":139.4057},{"name":"町田市社会福祉協議会","province":"東京都","city":"町田市","address":"町田市原町田4-9-8町田市民フォーラム4階","lat":35.54182,"lon":139.44991},{"name":"愛恵会乳児院","province":"東京都","city":"町田市","address":"町田市小山町3191-3","lat":35.599698,"lon":139.361059},{"name":"町田市民病院","province":"東京都","city":"町田市","address":"町田市旭町2-15-41","lat":35.55734,"lon":139.43691},{"name":"サンシルバー町田","province":"東京都","city":"町田市","address":"町田市相原町2373-1","lat":35.613326,"lon":139.314385},{"name":"町田市民病院","province":"東京都","city":"町田市","address":"町田市旭町2-15-41","lat":35.557091,"lon":139.438701},{"name":"町田市すみれ教室","province":"東京都","city":"町田市","address":"町田市中町2-13-14","lat":35.551569,"lon":139.444459},{"name":"町田市授産場","province":"東京都","city":"町田市","address":"町田市忠生3-6-22","lat":35.57746,"lon":139.419097},{"name":"桜ケ丘共働学舎","province":"東京都","city":"町田市","address":"町田市小野路町2157","lat":35.594709,"lon":139.449684},{"name":"町田荘","province":"東京都","city":"町田市","address":"町田市南成瀬4-19-15","lat":35.538792,"lon":139.477213},{"name":"町田第２荘","province":"東京都","city":"町田市","address":"町田市南成瀬7-6-12","lat":35.534051,"lon":139.480602},{"name":"町田図師荘","province":"東京都","city":"町田市","address":"町田市図師町615-7","lat":35.582199,"lon":139.419452},{"name":"町田市社会福祉協議会","province":"東京都","city":"町田市","address":"町田市原町田4-9-8町田市民フォーラム4階","lat":35.541806,"lon":139.449881},{"name":"町田荘","province":"東京都","city":"町田市","address":"町田市南成瀬4-19-15","lat":35.53862,"lon":139.47742},{"name":"町田第２荘","province":"東京都","city":"町田市","address":"町田市南成瀬7-6-12","lat":35.5341,"lon":139.48062},{"name":"町田図師荘","province":"東京都","city":"町田市","address":"町田市図師町615-7","lat":35.58226,"lon":139.41943},{"name":"町田市保健所","province":"東京都","city":"町田市","address":"町田市森野2-2-22市庁舎7階","lat":35.549872,"lon":139.440026},{"name":"町田市保健所中町庁舎","province":"東京都","city":"町田市","address":"町田市中町2-13-3","lat":35.551224,"lon":139.443709},{"name":"町田市健康福祉会館","province":"東京都","city":"町田市","address":"町田市原町田5-8-21","lat":35.54602,"lon":139.449987},{"name":"町田市忠生保健センター","province":"東京都","city":"町田市","address":"町田市忠生3-14-2","lat":35.578366,"lon":139.416031},{"name":"町田市鶴川保健センター","province":"東京都","city":"町田市","address":"町田市大蔵町1981-4","lat":35.588886,"lon":139.467396},{"name":"町田市民病院","province":"東京都","city":"町田市","address":"町田市旭町2-15-41","lat":35.55734,"lon":139.4369},{"name":"愛恵会乳児院","province":"東京都","city":"町田市","address":"町田市小山町3191-3","lat":35.59977,"lon":139.3615},{"name":"あいこう","province":"東京都","city":"町田市","address":"東京都町田市","lat":35.5466304,"lon":139.43861823},{"name":"桜ケ丘共働学舎","province":"東京都","city":"町田市","address":"町田市小野路町2157","lat":35.60214,"lon":139.43965},{"name":"アクア矢部町","province":"東京都","city":"町田市","address":"町田市矢部町10-2","lat":35.57644,"lon":139.4057},{"name":"町田市社会福祉協議会","province":"東京都","city":"町田市","address":"町田市原町田4-9-8町田市民フォーラム4階","lat":35.54182,"lon":139.44991},{"name":"愛恵会乳児院","province":"東京都","city":"町田市","address":"町田市小山町3191-3","lat":35.599698,"lon":139.361059},{"name":"町田市民病院","province":"東京都","city":"町田市","address":"町田市旭町2-15-41","lat":35.55734,"lon":139.43691},{"name":"サンシルバー町田","province":"東京都","city":"町田市","address":"町田市相原町2373-1","lat":35.613326,"lon":139.314385},{"name":"町田市民病院","province":"東京都","city":"町田市","address":"町田市旭町2-15-41","lat":35.557091,"lon":139.438701},{"name":"町田市すみれ教室","province":"東京都","city":"町田市","address":"町田市中町2-13-14","lat":35.551569,"lon":139.444459},{"name":"町田市授産場","province":"東京都","city":"町田市","address":"町田市忠生3-6-22","lat":35.57746,"lon":139.419097},{"name":"桜ケ丘共働学舎","province":"東京都","city":"町田市","address":"町田市小野路町2157","lat":35.594709,"lon":139.449684},{"name":"町田荘","province":"東京都","city":"町田市","address":"町田市南成瀬4-19-15","lat":35.538792,"lon":139.477213},{"name":"町田第２荘","province":"東京都","city":"町田市","address":"町田市南成瀬7-6-12","lat":35.534051,"lon":139.480602},{"name":"町田図師荘","province":"東京都","city":"町田市","address":"町田市図師町615-7","lat":35.582199,"lon":139.419452},{"name":"町田市社会福祉協議会","province":"東京都","city":"町田市","address":"町田市原町田4-9-8町田市民フォーラム4階","lat":35.541806,"lon":139.449881},{"name":"町田荘","province":"東京都","city":"町田市","address":"町田市南成瀬4-19-15","lat":35.53862,"lon":139.47742},{"name":"町田第２荘","province":"東京都","city":"町田市","address":"町田市南成瀬7-6-12","lat":35.5341,"lon":139.48062},{"name":"町田図師荘","province":"東京都","city":"町田市","address":"町田市図師町615-7","lat":35.58226,"lon":139.41943},{"name":"町田市保健所","province":"東京都","city":"町田市","address":"町田市森野2-2-22市庁舎7階","lat":35.549872,"lon":139.440026},{"name":"町田市保健所中町庁舎","province":"東京都","city":"町田市","address":"町田市中町2-13-3","lat":35.551224,"lon":139.443709},{"name":"町田市健康福祉会館","province":"東京都","city":"町田市","address":"町田市原町田5-8-21","lat":35.54602,"lon":139.449987},{"name":"町田市忠生保健センター","province":"東京都","city":"町田市","address":"町田市忠生3-14-2","lat":35.578366,"lon":139.416031},{"name":"町田市鶴川保健センター","province":"東京都","city":"町田市","address":"町田市大蔵町1981-4","lat":35.588886,"lon":139.467396},{"name":"町田市民病院","province":"東京都","city":"町田市","address":"町田市旭町2-15-41","lat":35.55734,"lon":139.4369},{"name":"愛恵会乳児院","province":"東京都","city":"町田市","address":"町田市小山町3191-3","lat":35.59977,"lon":139.3615},{"name":"あいこう","province":"東京都","city":"町田市","address":"東京都町田市","lat":35.5466304,"lon":139.43861823},{"name":"桜ケ丘共働学舎","province":"東京都","city":"町田市","address":"町田市小野路町2157","lat":35.60214,"lon":139.43965},{"name":"アクア矢部町","province":"東京都","city":"町田市","address":"町田市矢部町10-2","lat":35.57644,"lon":139.4057},{"name":"町田市社会福祉協議会","province":"東京都","city":"町田市","address":"町田市原町田4-9-8町田市民フォーラム4階","lat":35.54182,"lon":139.44991},{"name":"愛恵会乳児院","province":"東京都","city":"町田市","address":"町田市小山町3191-3","lat":35.599698,"lon":139.361059},{"name":"町田市民病院","province":"東京都","city":"町田市","address":"町田市旭町2-15-41","lat":35.55734,"lon":139.43691},{"name":"サンシルバー町田","province":"東京都","city":"町田市","address":"町田市相原町2373-1","lat":35.613326,"lon":139.314385},{"name":"町田市民病院","province":"東京都","city":"町田市","address":"町田市旭町2-15-41","lat":35.557091,"lon":139.438701},{"name":"町田市すみれ教室","province":"東京都","city":"町田市","address":"町田市中町2-13-14","lat":35.551569,"lon":139.444459},{"name":"町田市授産場","province":"東京都","city":"町田市","address":"町田市忠生3-6-22","lat":35.57746,"lon":139.419097},{"name":"桜ケ丘共働学舎","province":"東京都","city":"町田市","address":"町田市小野路町2157","lat":35.594709,"lon":139.449684},{"name":"町田荘","province":"東京都","city":"町田市","address":"町田市南成瀬4-19-15","lat":35.538792,"lon":139.477213},{"name":"町田第２荘","province":"東京都","city":"町田市","address":"町田市南成瀬7-6-12","lat":35.534051,"lon":139.480602},{"name":"町田図師荘","province":"東京都","city":"町田市","address":"町田市図師町615-7","lat":35.582199,"lon":139.419452},{"name":"町田市社会福祉協議会","province":"東京都","city":"町田市","address":"町田市原町田4-9-8町田市民フォーラム4階","lat":35.541806,"lon":139.449881},{"name":"町田荘","province":"東京都","city":"町田市","address":"町田市南成瀬4-19-15","lat":35.53862,"lon":139.47742},{"name":"町田第２荘","province":"東京都","city":"町田市","address":"町田市南成瀬7-6-12","lat":35.5341,"lon":139.48062},{"name":"町田図師荘","province":"東京都","city":"町田市","address":"町田市図師町615-7","lat":35.58226,"lon":139.41943},{"name":"町田市保健所","province":"東京都","city":"町田市","address":"町田市森野2-2-22市庁舎7階","lat":35.549872,"lon":139.440026},{"name":"町田市保健所中町庁舎","province":"東京都","city":"町田市","address":"町田市中町2-13-3","lat":35.551224,"lon":139.443709},{"name":"町田市健康福祉会館","province":"東京都","city":"町田市","address":"町田市原町田5-8-21","lat":35.54602,"lon":139.449987},{"name":"町田市忠生保健センター","province":"東京都","city":"町田市","address":"町田市忠生3-14-2","lat":35.578366,"lon":139.416031},{"name":"町田市鶴川保健センター","province":"東京都","city":"町田市","address":"町田市大蔵町1981-4","lat":35.588886,"lon":139.467396},{"name":"町田市民病院","province":"東京都","city":"町田市","address":"町田市旭町2-15-41","lat":35.55734,"lon":139.4369},{"name":"愛恵会乳児院","province":"東京都","city":"町田市","address":"町田市小山町3191-3","lat":35.59977,"lon":139.3615},{"name":"あいこう","province":"東京都","city":"町田市","address":"東京都町田市","lat":35.5466304,"lon":139.43861823},{"name":"桜ケ丘共働学舎","province":"東京都","city":"町田市","address":"町田市小野路町2157","lat":35.60214,"lon":139.43965},{"name":"アクア矢部町","province":"東京都","city":"町田市","address":"町田市矢部町10-2","lat":35.57644,"lon":139.4057},{"name":"町田市社会福祉協議会","province":"東京都","city":"町田市","address":"町田市原町田4-9-8町田市民フォーラム4階","lat":35.54182,"lon":139.44991},{"name":"愛恵会乳児院","province":"東京都","city":"町田市","address":"町田市小山町3191-3","lat":35.599698,"lon":139.361059},{"name":"町田市民病院","province":"東京都","city":"町田市","address":"町田市旭町2-15-41","lat":35.55734,"lon":139.43691},{"name":"サンシルバー町田","province":"東京都","city":"町田市","address":"町田市相原町2373-1","lat":35.613326,"lon":139.314385},{"name":"町田市民病院","province":"東京都","city":"町田市","address":"町田市旭町2-15-41","lat":35.557091,"lon":139.438701},{"name":"町田市すみれ教室","province":"東京都","city":"町田市","address":"町田市中町2-13-14","lat":35.551569,"lon":139.444459},{"name":"町田市授産場","province":"東京都","city":"町田市","address":"町田市忠生3-6-22","lat":35.57746,"lon":139.419097},{"name":"桜ケ丘共働学舎","province":"東京都","city":"町田市","address":"町田市小野路町2157","lat":35.594709,"lon":139.449684},{"name":"町田荘","province":"東京都","city":"町田市","address":"町田市南成瀬4-19-15","lat":35.538792,"lon":139.477213},{"name":"町田第２荘","province":"東京都","city":"町田市","address":"町田市南成瀬7-6-12","lat":35.534051,"lon":139.480602},{"name":"町田図師荘","province":"東京都","city":"町田市","address":"町田市図師町615-7","lat":35.582199,"lon":139.419452},{"name":"町田市社会福祉協議会","province":"東京都","city":"町田市","address":"町田市原町田4-9-8町田市民フォーラム4階","lat":35.541806,"lon":139.449881},{"name":"町田荘","province":"東京都","city":"町田市","address":"町田市南成瀬4-19-15","lat":35.53862,"lon":139.47742},{"name":"町田第２荘","province":"東京都","city":"町田市","address":"町田市南成瀬7-6-12","lat":35.5341,"lon":139.48062},{"name":"町田図師荘","province":"東京都","city":"町田市","address":"町田市図師町615-7","lat":35.58226,"lon":139.41943},{"name":"町田市保健所","province":"東京都","city":"町田市","address":"町田市森野2-2-22市庁舎7階","lat":35.549872,"lon":139.440026},{"name":"町田市保健所中町庁舎","province":"東京都","city":"町田市","address":"町田市中町2-13-3","lat":35.551224,"lon":139.443709},{"name":"町田市健康福祉会館","province":"東京都","city":"町田市","address":"町田市原町田5-8-21","lat":35.54602,"lon":139.449987},{"name":"町田市忠生保健センター","province":"東京都","city":"町田市","address":"町田市忠生3-14-2","lat":35.578366,"lon":139.416031},{"name":"町田市鶴川保健センター","province":"東京都","city":"町田市","address":"町田市大蔵町1981-4","lat":35.588886,"lon":139.467396},{"name":"町田市民病院","province":"東京都","city":"町田市","address":"町田市旭町2-15-41","lat":35.55734,"lon":139.4369},{"name":"愛恵会乳児院","province":"東京都","city":"町田市","address":"町田市小山町3191-3","lat":35.59977,"lon":139.3615},{"name":"あいこう","province":"東京都","city":"町田市","address":"東京都町田市","lat":35.5466304,"lon":139.43861823},{"name":"桜ケ丘共働学舎","province":"東京都","city":"町田市","address":"町田市小野路町2157","lat":35.60214,"lon":139.43965},{"name":"アクア矢部町","province":"東京都","city":"町田市","address":"町田市矢部町10-2","lat":35.57644,"lon":139.4057},{"name":"町田市社会福祉協議会","province":"東京都","city":"町田市","address":"町田市原町田4-9-8町田市民フォーラム4階","lat":35.54182,"lon":139.44991},{"name":"愛恵会乳児院","province":"東京都","city":"町田市","address":"町田市小山町3191-3","lat":35.599698,"lon":139.361059},{"name":"町田市民病院","province":"東京都","city":"町田市","address":"町田市旭町2-15-41","lat":35.55734,"lon":139.43691},{"name":"サンシルバー町田","province":"東京都","city":"町田市","address":"町田市相原町2373-1","lat":35.613326,"lon":139.314385},{"name":"町田市民病院","province":"東京都","city":"町田市","address":"町田市旭町2-15-41","lat":35.557091,"lon":139.438701},{"name":"町田市すみれ教室","province":"東京都","city":"町田市","address":"町田市中町2-13-14","lat":35.551569,"lon":139.444459},{"name":"町田市授産場","province":"東京都","city":"町田市","address":"町田市忠生3-6-22","lat":35.57746,"lon":139.419097},{"name":"桜ケ丘共働学舎","province":"東京都","city":"町田市","address":"町田市小野路町2157","lat":35.594709,"lon":139.449684},{"name":"町田荘","province":"東京都","city":"町田市","address":"町田市南成瀬4-19-15","lat":35.538792,"lon":139.477213},{"name":"町田第２荘","province":"東京都","city":"町田市","address":"町田市南成瀬7-6-12","lat":35.534051,"lon":139.480602},{"name":"町田図師荘","province":"東京都","city":"町田市","address":"町田市図師町615-7","lat":35.582199,"lon":139.419452},{"name":"町田市社会福祉協議会","province":"東京都","city":"町田市","address":"町田市原町田4-9-8町田市民フォーラム4階","lat":35.541806,"lon":139.449881},{"name":"町田荘","province":"東京都","city":"町田市","address":"町田市南成瀬4-19-15","lat":35.53862,"lon":139.47742},{"name":"町田第２荘","province":"東京都","city":"町田市","address":"町田市南成瀬7-6-12","lat":35.5341,"lon":139.48062},{"name":"町田図師荘","province":"東京都","city":"町田市","address":"町田市図師町615-7","lat":35.58226,"lon":139.41943},{"name":"町田市保健所","province":"東京都","city":"町田市","address":"町田市森野2-2-22市庁舎7階","lat":35.549872,"lon":139.440026},{"name":"町田市保健所中町庁舎","province":"東京都","city":"町田市","address":"町田市中町2-13-3","lat":35.551224,"lon":139.443709},{"name":"町田市健康福祉会館","province":"東京都","city":"町田市","address":"町田市原町田5-8-21","lat":35.54602,"lon":139.449987},{"name":"町田市忠生保健センター","province":"東京都","city":"町田市","address":"町田市忠生3-14-2","lat":35.578366,"lon":139.416031},{"name":"町田市鶴川保健センター","province":"東京都","city":"町田市","address":"町田市大蔵町1981-4","lat":35.588886,"lon":139.467396},{"name":"町田市民病院","province":"東京都","city":"町田市","address":"町田市旭町2-15-41","lat":35.55734,"lon":139.4369},{"name":"愛恵会乳児院","province":"東京都","city":"町田市","address":"町田市小山町3191-3","lat":35.59977,"lon":139.3615},{"name":"あいこう","province":"東京都","city":"町田市","address":"東京都町田市","lat":35.5466304,"lon":139.43861823},{"name":"桜ケ丘共働学舎","province":"東京都","city":"町田市","address":"町田市小野路町2157","lat":35.60214,"lon":139.43965},{"name":"アクア矢部町","province":"東京都","city":"町田市","address":"町田市矢部町10-2","lat":35.57644,"lon":139.4057},{"name":"町田市社会福祉協議会","province":"東京都","city":"町田市","address":"町田市原町田4-9-8町田市民フォーラム4階","lat":35.54182,"lon":139.44991},{"name":"愛恵会乳児院","province":"東京都","city":"町田市","address":"町田市小山町3191-3","lat":35.599698,"lon":139.361059},{"name":"町田市民病院","province":"東京都","city":"町田市","address":"町田市旭町2-15-41","lat":35.55734,"lon":139.43691},{"name":"サンシルバー町田","province":"東京都","city":"町田市","address":"町田市相原町2373-1","lat":35.613326,"lon":139.314385},{"name":"町田市民病院","province":"東京都","city":"町田市","address":"町田市旭町2-15-41","lat":35.557091,"lon":139.438701},{"name":"町田市すみれ教室","province":"東京都","city":"町田市","address":"町田市中町2-13-14","lat":35.551569,"lon":139.444459},{"name":"町田市授産場","province":"東京都","city":"町田市","address":"町田市忠生3-6-22","lat":35.57746,"lon":139.419097},{"name":"桜ケ丘共働学舎","province":"東京都","city":"町田市","address":"町田市小野路町2157","lat":35.594709,"lon":139.449684},{"name":"町田荘","province":"東京都","city":"町田市","address":"町田市南成瀬4-19-15","lat":35.538792,"lon":139.477213},{"name":"町田第２荘","province":"東京都","city":"町田市","address":"町田市南成瀬7-6-12","lat":35.534051,"lon":139.480602},{"name":"町田図師荘","province":"東京都","city":"町田市","address":"町田市図師町615-7","lat":35.582199,"lon":139.419452},{"name":"町田市社会福祉協議会","province":"東京都","city":"町田市","address":"町田市原町田4-9-8町田市民フォーラム4階","lat":35.541806,"lon":139.449881},{"name":"町田荘","province":"東京都","city":"町田市","address":"町田市南成瀬4-19-15","lat":35.53862,"lon":139.47742},{"name":"町田第２荘","province":"東京都","city":"町田市","address":"町田市南成瀬7-6-12","lat":35.5341,"lon":139.48062},{"name":"町田図師荘","province":"東京都","city":"町田市","address":"町田市図師町615-7","lat":35.58226,"lon":139.41943},{"name":"町田市保健所","province":"東京都","city":"町田市","address":"町田市森野2-2-22市庁舎7階","lat":35.549872,"lon":139.440026},{"name":"町田市保健所中町庁舎","province":"東京都","city":"町田市","address":"町田市中町2-13-3","lat":35.551224,"lon":139.443709},{"name":"町田市健康福祉会館","province":"東京都","city":"町田市","address":"町田市原町田5-8-21","lat":35.54602,"lon":139.449987},{"name":"町田市忠生保健センター","province":"東京都","city":"町田市","address":"町田市忠生3-14-2","lat":35.578366,"lon":139.416031},{"name":"町田市鶴川保健センター","province":"東京都","city":"町田市","address":"町田市大蔵町1981-4","lat":35.588886,"lon":139.467396},{"name":"町田市民病院","province":"東京都","city":"町田市","address":"町田市旭町2-15-41","lat":35.55734,"lon":139.4369},{"name":"愛恵会乳児院","province":"東京都","city":"町田市","address":"町田市小山町3191-3","lat":35.59977,"lon":139.3615},{"name":"あいこう","province":"東京都","city":"町田市","address":"東京都町田市","lat":35.5466304,"lon":139.43861823},{"name":"桜ケ丘共働学舎","province":"東京都","city":"町田市","address":"町田市小野路町2157","lat":35.60214,"lon":139.43965},{"name":"アクア矢部町","province":"東京都","city":"町田市","address":"町田市矢部町10-2","lat":35.57644,"lon":139.4057},{"name":"町田市社会福祉協議会","province":"東京都","city":"町田市","address":"町田市原町田4-9-8町田市民フォーラム4階","lat":35.54182,"lon":139.44991},{"name":"愛恵会乳児院","province":"東京都","city":"町田市","address":"町田市小山町3191-3","lat":35.599698,"lon":139.361059},{"name":"町田市民病院","province":"東京都","city":"町田市","address":"町田市旭町2-15-41","lat":35.55734,"lon":139.43691},{"name":"サンシルバー町田","province":"東京都","city":"町田市","address":"町田市相原町2373-1","lat":35.613326,"lon":139.314385},{"name":"町田市民病院","province":"東京都","city":"町田市","address":"町田市旭町2-15-41","lat":35.557091,"lon":139.438701},{"name":"町田市すみれ教室","province":"東京都","city":"町田市","address":"町田市中町2-13-14","lat":35.551569,"lon":139.444459},{"name":"町田市授産場","province":"東京都","city":"町田市","address":"町田市忠生3-6-22","lat":35.57746,"lon":139.419097},{"name":"桜ケ丘共働学舎","province":"東京都","city":"町田市","address":"町田市小野路町2157","lat":35.594709,"lon":139.449684},{"name":"町田荘","province":"東京都","city":"町田市","address":"町田市南成瀬4-19-15","lat":35.538792,"lon":139.477213},{"name":"町田第２荘","province":"東京都","city":"町田市","address":"町田市南成瀬7-6-12","lat":35.534051,"lon":139.480602},{"name":"町田図師荘","province":"東京都","city":"町田市","address":"町田市図師町615-7","lat":35.582199,"lon":139.419452},{"name":"町田市社会福祉協議会","province":"東京都","city":"町田市","address":"町田市原町田4-9-8町田市民フォーラム4階","lat":35.541806,"lon":139.449881},{"name":"町田荘","province":"東京都","city":"町田市","address":"町田市南成瀬4-19-15","lat":35.53862,"lon":139.47742},{"name":"町田第２荘","province":"東京都","city":"町田市","address":"町田市南成瀬7-6-12","lat":35.5341,"lon":139.48062},{"name":"町田図師荘","province":"東京都","city":"町田市","address":"町田市図師町615-7","lat":35.58226,"lon":139.41943},{"name":"町田市保健所","province":"東京都","city":"町田市","address":"町田市森野2-2-22市庁舎7階","lat":35.549872,"lon":139.440026},{"name":"町田市保健所中町庁舎","province":"東京都","city":"町田市","address":"町田市中町2-13-3","lat":35.551224,"lon":139.443709},{"name":"町田市健康福祉会館","province":"東京都","city":"町田市","address":"町田市原町田5-8-21","lat":35.54602,"lon":139.449987},{"name":"町田市忠生保健センター","province":"東京都","city":"町田市","address":"町田市忠生3-14-2","lat":35.578366,"lon":139.416031},{"name":"町田市鶴川保健センター","province":"東京都","city":"町田市","address":"町田市大蔵町1981-4","lat":35.588886,"lon":139.467396},{"name":"町田市民病院","province":"東京都","city":"町田市","address":"町田市旭町2-15-41","lat":35.55734,"lon":139.4369},{"name":"愛恵会乳児院","province":"東京都","city":"町田市","address":"町田市小山町3191-3","lat":35.59977,"lon":139.3615},{"name":"あいこう","province":"東京都","city":"町田市","address":"東京都町田市","lat":35.5466304,"lon":139.43861823},{"name":"桜ケ丘共働学舎","province":"東京都","city":"町田市","address":"町田市小野路町2157","lat":35.60214,"lon":139.43965},{"name":"アクア矢部町","province":"東京都","city":"町田市","address":"町田市矢部町10-2","lat":35.57644,"lon":139.4057},{"name":"町田市社会福祉協議会","province":"東京都","city":"町田市","address":"町田市原町田4-9-8町田市民フォーラム4階","lat":35.54182,"lon":139.44991},{"name":"愛恵会乳児院","province":"東京都","city":"町田市","address":"町田市小山町3191-3","lat":35.599698,"lon":139.361059},{"name":"町田市民病院","province":"東京都","city":"町田市","address":"町田市旭町2-15-41","lat":35.55734,"lon":139.43691},{"name":"サンシルバー町田","province":"東京都","city":"町田市","address":"町田市相原町2373-1","lat":35.613326,"lon":139.314385}]}