{"keyword":"戸数","data":[{"name":"町田市社会福祉協議会","province":"東京都","city":"町田市","address":"町田市原町田4-9-8町田市民フォーラム4階","lat":35.541806,"lon":139.449881},{"name":"町田市","province":"東京都","city":"町田市","address":"町田市森野2-2-22","lat":35.5465589,"lon":139.4385269},{"name":"（株）公恩社","province":"東京都","city":"町田市","address":"東京都町田市小野路町3186-6","lat":35.60631871,"lon":139.44397447},{"name":"町田市社会福祉協議会","province":"東京都","city":"町田市","address":"町田市原町田4-9-8町田市民フォーラム4階","lat":35.54182,"lon":139.44991},{"name":"堺第1高齢者支援センター","province":"東京都","city":"町田市","address":"町田市相原町2373-1(老人保健施設サンシルバー町田内)","lat":35.612473,"lon":139.312881},{"name":"堺第2高齢者支援センター","province":"東京都","city":"町田市","address":"町田市小山ヶ丘1-2-(特別養護老人ホーム美郷内)","lat":35.595638,"lon":139.386398},{"name":"忠生第1高齢者支援センター","province":"東京都","city":"町田市","address":"町田市下小山田町3580ふれあい桜館1階","lat":35.587135,"lon":139.408478},{"name":"忠生第2高齢者支援センター","province":"東京都","city":"町田市","address":"町田市山崎町2200(福音会木曽山崎事業所内)","lat":35.572918,"lon":139.43161},{"name":"鶴川第1高齢者支援センター","province":"東京都","city":"町田市","address":"町田市薬師台3-270-1(特別養護老人ホーム第二清風園内)","lat":35.583256,"lon":139.49028},{"name":"鶴川第2高齢者支援センター","province":"東京都","city":"町田市","address":"町田市能ヶ谷3-2-1鶴川地域コミュニティ1階","lat":33.443153,"lon":129.96727},{"name":"町田第1高齢者支援センター","province":"東京都","city":"町田市","address":"町田市森野4-8-39(特別養護老人ホームコモンズ内)","lat":35.554134,"lon":139.433395},{"name":"町田第2高齢者支援センター","province":"東京都","city":"町田市","address":"町田市本町田2102-1(本町田高齢者在宅サービスセンター内)","lat":35.559875,"lon":139.437897},{"name":"町田第3高齢者支援センター","province":"東京都","city":"町田市","address":"町田市玉川学園3-35-1(玉川学園高齢者在宅サービスセンター内)","lat":35.56337,"lon":139.458298},{"name":"南第1高齢者支援センター","province":"東京都","city":"町田市","address":"町田市南町田5-16-1(特別養護老人ホーム芙蓉園内)","lat":35.514652,"lon":139.47113},{"name":"南第2高齢者支援センター","province":"東京都","city":"町田市","address":"町田市金森東3-18-16(特別養護老人ホーム合掌苑桂寮内)","lat":35.531769,"lon":139.466049},{"name":"南第3高齢者支援センター","province":"東京都","city":"町田市","address":"町田市西成瀬2-48-23","lat":35.543419,"lon":139.471664},{"name":"相原あんしん相談室","province":"東京都","city":"町田市","address":"町田市相原町1158-26","lat":35.607006,"lon":139.331741},{"name":"小山あんしん相談室","province":"東京都","city":"町田市","address":"町田市小山町2619","lat":35.598221,"lon":139.36644},{"name":"忠生あんしん相談室","province":"東京都","city":"町田市","address":"町田市忠生3-1-34もりやハイツ2101号室","lat":35.571674,"lon":139.421463},{"name":"木曽山崎あんしん相談室","province":"東京都","city":"町田市","address":"町田市山崎町2200","lat":35.572918,"lon":139.43161},{"name":"野津田あんしん相談室","province":"東京都","city":"町田市","address":"町田市野津田町831-1","lat":35.588425,"lon":139.450272},{"name":"鶴川あんしん相談室","province":"東京都","city":"町田市","address":"町田市鶴川6-7-2-103号室","lat":35.587303,"lon":139.473465},{"name":"原町田あんしん相談室","province":"東京都","city":"町田市","address":"町田市原町田4-24-6せりがや会館1階","lat":35.544724,"lon":139.453049},{"name":"本町田あんしん相談室","province":"東京都","city":"町田市","address":"町田市本町田3486藤の第団地1-50-109","lat":35.569607,"lon":139.44574},{"name":"南大谷あんしん相談室","province":"東京都","city":"町田市","address":"町田市南大谷205-1-2","lat":35.554821,"lon":139.456757},{"name":"小川あんしん相談室","province":"東京都","city":"町田市","address":"町田市小川6-1-11","lat":35.522091,"lon":139.471252},{"name":"金森あんしん相談室","province":"東京都","city":"町田市","address":"町田市金森東4-2-2523号室","lat":35.533897,"lon":139.461243},{"name":"成瀬あんしん相談室","province":"東京都","city":"町田市","address":"町田市西成瀬2-48-23","lat":35.543419,"lon":139.471664},{"name":"医療と介護の連携支援センター","province":"東京都","city":"町田市","address":"町田市木曽西4-12-22KISOコミュニティベース1F","lat":35.566994,"lon":139.413712},{"name":"町田市高齢者福祉課","province":"東京都","city":"町田市","address":"町田市森野2-2-22","lat":35.547039,"lon":139.438141},{"name":"町田市民病院","province":"東京都","city":"町田市","address":"東京都町田市旭町2丁目15-41","lat":35.55694609,"lon":139.43883454},{"name":"南多摩斎場","province":"東京都","city":"町田市","address":"東京都町田市上小山田町2147","lat":35.59878726,"lon":139.38638231},{"name":"小野路給水所","province":"東京都","city":"町田市","address":"東京都町田市小野路町2637-1","lat":35.60444421,"lon":139.44936302},{"name":"原町田浄水所","province":"東京都","city":"町田市","address":"東京都町田市原町田5丁目13-3","lat":35.54660006,"lon":139.45080608},{"name":"野津田浄水所","province":"東京都","city":"町田市","address":"東京都町田市野津田町3398","lat":35.57686925,"lon":139.44848042},{"name":"市立つくし野セントラルパーク","province":"東京都","city":"町田市","address":"東京都町田市つくし野3丁目19","lat":35.52117273,"lon":139.4820081},{"name":"市立鶴川中央公園","province":"東京都","city":"町田市","address":"東京都町田市鶴川6丁目6","lat":35.59097803,"lon":139.47185937},{"name":"市立忠生公園","province":"東京都","city":"町田市","address":"東京都町田市忠生1丁目3","lat":35.57282192,"lon":139.4224412},{"name":"町田市立町田市民球場","province":"東京都","city":"町田市","address":"東京都町田市旭町3丁目20-60","lat":35.55634896,"lon":139.44662554},{"name":"町田市鶴見川クリーンセンター","province":"東京都","city":"町田市","address":"東京都町田市三輪緑山1丁目1","lat":35.56975115,"lon":139.48945637},{"name":"日本大学第三高等学校運動場","province":"東京都","city":"町田市","address":"東京都町田市図師町11-2375","lat":35.59196136,"lon":139.41930483},{"name":"法政大学プレイグラウンド","province":"東京都","city":"町田市","address":"東京都町田市相原町4342","lat":35.61340443,"lon":139.29763694},{"name":"町田市立野津田公園陸上競技場","province":"東京都","city":"町田市","address":"東京都町田市野津田町2035","lat":35.59190908,"lon":139.43862536},{"name":"日向山公園野球場（藤の台球場）","province":"東京都","city":"町田市","address":"東京都町田市本町田3486","lat":35.56881998,"lon":139.44800563},{"name":"町田市立町田中央公園","province":"東京都","city":"町田市","address":"東京都町田市旭町3丁目20-60","lat":35.55634896,"lon":139.44662554},{"name":"町田市立リサイクルセンター","province":"東京都","city":"町田市","address":"東京都町田市下小山田町3160","lat":35.58679242,"lon":139.41140293},{"name":"町田市選挙管理委員会","province":"東京都","city":"町田市","address":"町田市森野2-2-22","lat":35.546643,"lon":139.438645},{"name":"JR町田駅北口","province":"東京都","city":"町田市","address":"東京都町田市原町田6-1","lat":35.542,"lon":139.445},{"name":"町田バスセンター（小田急線町田駅西口）","province":"東京都","city":"町田市","address":"東京都町田市森野1-15","lat":35.543,"lon":139.444},{"name":"町田市庁舎前","province":"東京都","city":"町田市","address":"東京都町田市森野2-2-22","lat":35.546,"lon":139.438},{"name":"町田ターミナルプラザ","province":"東京都","city":"町田市","address":"東京都町田市原町田3-1-4","lat":35.54,"lon":139.449},{"name":"まちの案内所町田ツーリストギャラリー","province":"東京都","city":"町田市","address":"東京都町田市原町田4-10-20ぽっぽ町田","lat":35.542,"lon":139.448},{"name":"町田市立国際版画美術館","province":"東京都","city":"町田市","address":"東京都町田市原町田4-28-1","lat":35.544,"lon":139.455},{"name":"町田リス園","province":"東京都","city":"町田市","address":"東京都町田市薬師台1-733-1","lat":35.578,"lon":139.449},{"name":"サウスフロントタワーCielo","province":"東京都","city":"町田市","address":"東京都町田市原町田4-9-8","lat":35.541,"lon":139.449},{"name":"まちだ名産品の店心和（ここわ）","province":"東京都","city":"町田市","address":"東京都町田市原町田6-12-20小田急ビル1階","lat":35.543,"lon":139.445},{"name":"忠生市民センター","province":"東京都","city":"町田市","address":"東京都町田市忠生3-14-2","lat":35.578,"lon":139.416},{"name":"鶴川市民センター","province":"東京都","city":"町田市","address":"東京都町田市大蔵町1981-4","lat":35.588,"lon":139.467},{"name":"南市民センター","province":"東京都","city":"町田市","address":"東京都町田市金森4-5-6","lat":35.523,"lon":139.466},{"name":"なるせ駅前市民センター","province":"東京都","city":"町田市","address":"東京都町田市南成瀬1-2-5","lat":35.536,"lon":139.472},{"name":"堺市民センター","province":"東京都","city":"町田市","address":"東京都町田市相原町795-1","lat":35.604,"lon":139.333},{"name":"小山市民センター","province":"東京都","city":"町田市","address":"東京都町田市小山町2507-1","lat":35.597,"lon":139.369},{"name":"町田市立自由民権資料館","province":"東京都","city":"町田市","address":"東京都町田市野津田町897","lat":35.588,"lon":139.453},{"name":"小川高等学校","province":"東京都","city":"町田市","address":"東京都町田市小川2丁目1002-1","lat":35.53233046,"lon":139.46933859},{"name":"町田総合高等学校","province":"東京都","city":"町田市","address":"東京都町田市木曽西3丁目5-1","lat":35.57035541,"lon":139.41678624},{"name":"町田工業高等学校","province":"東京都","city":"町田市","address":"東京都町田市忠生1丁目20-2","lat":35.5755605,"lon":139.42215504},{"name":"町田高等学校","province":"東京都","city":"町田市","address":"東京都町田市中町4丁目25-3","lat":35.55337986,"lon":139.44872268},{"name":"野津田高等学校","province":"東京都","city":"町田市","address":"東京都町田市野津田町2001","lat":35.58961486,"lon":139.43740885},{"name":"山崎高等学校","province":"東京都","city":"町田市","address":"東京都町田市山崎町1453-1","lat":35.57680228,"lon":139.43379559},{"name":"南多摩東部建設事務所","province":"東京都","city":"町田市","address":"町田市中町1-31-12","lat":35.54851,"lon":139.4485},{"name":"東日本電信電話（株）木曽ビル","province":"東京都","city":"町田市","address":"町田市木曾町144","lat":35.56147,"lon":139.4301},{"name":"町田リサイクル文化センター","province":"東京都","city":"町田市","address":"町田市下小山田町3160","lat":35.587688,"lon":139.412216},{"name":"町田市社会福祉協議会","province":"東京都","city":"町田市","address":"町田市原町田4-9-8町田市民フォーラム4階","lat":35.541806,"lon":139.449881},{"name":"町田市社会福祉協議会","province":"東京都","city":"町田市","address":"町田市原町田4-9-8町田市民フォーラム4階","lat":35.54182,"lon":139.44991},{"name":"堺第1高齢者支援センター","province":"東京都","city":"町田市","address":"町田市相原町2373-1(老人保健施設サンシルバー町田内)","lat":35.612473,"lon":139.312881},{"name":"堺第2高齢者支援センター","province":"東京都","city":"町田市","address":"町田市小山ヶ丘1-2-(特別養護老人ホーム美郷内)","lat":35.595638,"lon":139.386398},{"name":"忠生第1高齢者支援センター","province":"東京都","city":"町田市","address":"町田市下小山田町3580ふれあい桜館1階","lat":35.587135,"lon":139.408478},{"name":"忠生第2高齢者支援センター","province":"東京都","city":"町田市","address":"町田市山崎町2200(福音会木曽山崎事業所内)","lat":35.572918,"lon":139.43161},{"name":"鶴川第1高齢者支援センター","province":"東京都","city":"町田市","address":"町田市薬師台3-270-1(特別養護老人ホーム第二清風園内)","lat":35.583256,"lon":139.49028},{"name":"鶴川第2高齢者支援センター","province":"東京都","city":"町田市","address":"町田市能ヶ谷3-2-1鶴川地域コミュニティ1階","lat":33.443153,"lon":129.96727},{"name":"町田第1高齢者支援センター","province":"東京都","city":"町田市","address":"町田市森野4-8-39(特別養護老人ホームコモンズ内)","lat":35.554134,"lon":139.433395},{"name":"町田第2高齢者支援センター","province":"東京都","city":"町田市","address":"町田市本町田2102-1(本町田高齢者在宅サービスセンター内)","lat":35.559875,"lon":139.437897},{"name":"町田第3高齢者支援センター","province":"東京都","city":"町田市","address":"町田市玉川学園3-35-1(玉川学園高齢者在宅サービスセンター内)","lat":35.56337,"lon":139.458298},{"name":"南第1高齢者支援センター","province":"東京都","city":"町田市","address":"町田市南町田5-16-1(特別養護老人ホーム芙蓉園内)","lat":35.514652,"lon":139.47113},{"name":"南第2高齢者支援センター","province":"東京都","city":"町田市","address":"町田市金森東3-18-16(特別養護老人ホーム合掌苑桂寮内)","lat":35.531769,"lon":139.466049},{"name":"南第3高齢者支援センター","province":"東京都","city":"町田市","address":"町田市西成瀬2-48-23","lat":35.543419,"lon":139.471664},{"name":"相原あんしん相談室","province":"東京都","city":"町田市","address":"町田市相原町1158-26","lat":35.607006,"lon":139.331741},{"name":"小山あんしん相談室","province":"東京都","city":"町田市","address":"町田市小山町2619","lat":35.598221,"lon":139.36644},{"name":"忠生あんしん相談室","province":"東京都","city":"町田市","address":"町田市忠生3-1-34もりやハイツ2101号室","lat":35.571674,"lon":139.421463},{"name":"木曽山崎あんしん相談室","province":"東京都","city":"町田市","address":"町田市山崎町2200","lat":35.572918,"lon":139.43161},{"name":"野津田あんしん相談室","province":"東京都","city":"町田市","address":"町田市野津田町831-1","lat":35.588425,"lon":139.450272},{"name":"鶴川あんしん相談室","province":"東京都","city":"町田市","address":"町田市鶴川6-7-2-103号室","lat":35.587303,"lon":139.473465},{"name":"原町田あんしん相談室","province":"東京都","city":"町田市","address":"町田市原町田4-24-6せりがや会館1階","lat":35.544724,"lon":139.453049},{"name":"本町田あんしん相談室","province":"東京都","city":"町田市","address":"町田市本町田3486藤の第団地1-50-109","lat":35.569607,"lon":139.44574},{"name":"南大谷あんしん相談室","province":"東京都","city":"町田市","address":"町田市南大谷205-1-2","lat":35.554821,"lon":139.456757},{"name":"小川あんしん相談室","province":"東京都","city":"町田市","address":"町田市小川6-1-11","lat":35.522091,"lon":139.471252},{"name":"金森あんしん相談室","province":"東京都","city":"町田市","address":"町田市金森東4-2-2523号室","lat":35.533897,"lon":139.461243},{"name":"成瀬あんしん相談室","province":"東京都","city":"町田市","address":"町田市西成瀬2-48-23","lat":35.543419,"lon":139.471664},{"name":"医療と介護の連携支援センター","province":"東京都","city":"町田市","address":"町田市木曽西4-12-22KISOコミュニティベース1F","lat":35.566994,"lon":139.413712},{"name":"町田市高齢者福祉課","province":"東京都","city":"町田市","address":"町田市森野2-2-22","lat":35.547039,"lon":139.438141},{"name":"町田市民病院","province":"東京都","city":"町田市","address":"東京都町田市旭町2丁目15-41","lat":35.55694609,"lon":139.43883454},{"name":"南多摩斎場","province":"東京都","city":"町田市","address":"東京都町田市上小山田町2147","lat":35.59878726,"lon":139.38638231},{"name":"小野路給水所","province":"東京都","city":"町田市","address":"東京都町田市小野路町2637-1","lat":35.60444421,"lon":139.44936302},{"name":"原町田浄水所","province":"東京都","city":"町田市","address":"東京都町田市原町田5丁目13-3","lat":35.54660006,"lon":139.45080608},{"name":"野津田浄水所","province":"東京都","city":"町田市","address":"東京都町田市野津田町3398","lat":35.57686925,"lon":139.44848042},{"name":"市立つくし野セントラルパーク","province":"東京都","city":"町田市","address":"東京都町田市つくし野3丁目19","lat":35.52117273,"lon":139.4820081},{"name":"市立鶴川中央公園","province":"東京都","city":"町田市","address":"東京都町田市鶴川6丁目6","lat":35.59097803,"lon":139.47185937},{"name":"市立忠生公園","province":"東京都","city":"町田市","address":"東京都町田市忠生1丁目3","lat":35.57282192,"lon":139.4224412},{"name":"町田市立町田市民球場","province":"東京都","city":"町田市","address":"東京都町田市旭町3丁目20-60","lat":35.55634896,"lon":139.44662554},{"name":"町田市鶴見川クリーンセンター","province":"東京都","city":"町田市","address":"東京都町田市三輪緑山1丁目1","lat":35.56975115,"lon":139.48945637},{"name":"日本大学第三高等学校運動場","province":"東京都","city":"町田市","address":"東京都町田市図師町11-2375","lat":35.59196136,"lon":139.41930483},{"name":"法政大学プレイグラウンド","province":"東京都","city":"町田市","address":"東京都町田市相原町4342","lat":35.61340443,"lon":139.29763694},{"name":"町田市立野津田公園陸上競技場","province":"東京都","city":"町田市","address":"東京都町田市野津田町2035","lat":35.59190908,"lon":139.43862536},{"name":"日向山公園野球場（藤の台球場）","province":"東京都","city":"町田市","address":"東京都町田市本町田3486","lat":35.56881998,"lon":139.44800563},{"name":"町田市立町田中央公園","province":"東京都","city":"町田市","address":"東京都町田市旭町3丁目20-60","lat":35.55634896,"lon":139.44662554},{"name":"町田市立リサイクルセンター","province":"東京都","city":"町田市","address":"東京都町田市下小山田町3160","lat":35.58679242,"lon":139.41140293},{"name":"JR町田駅北口","province":"東京都","city":"町田市","address":"東京都町田市原町田6-1","lat":35.542,"lon":139.445},{"name":"町田バスセンター（小田急線町田駅西口）","province":"東京都","city":"町田市","address":"東京都町田市森野1-15","lat":35.543,"lon":139.444},{"name":"町田市庁舎前","province":"東京都","city":"町田市","address":"東京都町田市森野2-2-22","lat":35.546,"lon":139.438},{"name":"町田ターミナルプラザ","province":"東京都","city":"町田市","address":"東京都町田市原町田3-1-4","lat":35.54,"lon":139.449},{"name":"まちの案内所町田ツーリストギャラリー","province":"東京都","city":"町田市","address":"東京都町田市原町田4-10-20ぽっぽ町田","lat":35.542,"lon":139.448},{"name":"町田市立国際版画美術館","province":"東京都","city":"町田市","address":"東京都町田市原町田4-28-1","lat":35.544,"lon":139.455},{"name":"町田リス園","province":"東京都","city":"町田市","address":"東京都町田市薬師台1-733-1","lat":35.578,"lon":139.449},{"name":"サウスフロントタワーCielo","province":"東京都","city":"町田市","address":"東京都町田市原町田4-9-8","lat":35.541,"lon":139.449},{"name":"まちだ名産品の店心和（ここわ）","province":"東京都","city":"町田市","address":"東京都町田市原町田6-12-20小田急ビル1階","lat":35.543,"lon":139.445},{"name":"忠生市民センター","province":"東京都","city":"町田市","address":"東京都町田市忠生3-14-2","lat":35.578,"lon":139.416},{"name":"鶴川市民センター","province":"東京都","city":"町田市","address":"東京都町田市大蔵町1981-4","lat":35.588,"lon":139.467},{"name":"南市民センター","province":"東京都","city":"町田市","address":"東京都町田市金森4-5-6","lat":35.523,"lon":139.466},{"name":"なるせ駅前市民センター","province":"東京都","city":"町田市","address":"東京都町田市南成瀬1-2-5","lat":35.536,"lon":139.472},{"name":"堺市民センター","province":"東京都","city":"町田市","address":"東京都町田市相原町795-1","lat":35.604,"lon":139.333},{"name":"小山市民センター","province":"東京都","city":"町田市","address":"東京都町田市小山町2507-1","lat":35.597,"lon":139.369},{"name":"町田市立自由民権資料館","province":"東京都","city":"町田市","address":"東京都町田市野津田町897","lat":35.588,"lon":139.453},{"name":"小川高等学校","province":"東京都","city":"町田市","address":"東京都町田市小川2丁目1002-1","lat":35.53233046,"lon":139.46933859},{"name":"町田総合高等学校","province":"東京都","city":"町田市","address":"東京都町田市木曽西3丁目5-1","lat":35.57035541,"lon":139.41678624},{"name":"町田工業高等学校","province":"東京都","city":"町田市","address":"東京都町田市忠生1丁目20-2","lat":35.5755605,"lon":139.42215504},{"name":"町田高等学校","province":"東京都","city":"町田市","address":"東京都町田市中町4丁目25-3","lat":35.55337986,"lon":139.44872268},{"name":"野津田高等学校","province":"東京都","city":"町田市","address":"東京都町田市野津田町2001","lat":35.58961486,"lon":139.43740885},{"name":"山崎高等学校","province":"東京都","city":"町田市","address":"東京都町田市山崎町1453-1","lat":35.57680228,"lon":139.43379559},{"name":"南多摩東部建設事務所","province":"東京都","city":"町田市","address":"町田市中町1-31-12","lat":35.54851,"lon":139.4485},{"name":"東日本電信電話（株）木曽ビル","province":"東京都","city":"町田市","address":"町田市木曾町144","lat":35.56147,"lon":139.4301},{"name":"町田リサイクル文化センター","province":"東京都","city":"町田市","address":"町田市下小山田町3160","lat":35.587688,"lon":139.412216},{"name":"堺第1高齢者支援センター","province":"東京都","city":"町田市","address":"町田市相原町2373-1(老人保健施設サンシルバー町田内)","lat":35.612473,"lon":139.312881},{"name":"堺第2高齢者支援センター","province":"東京都","city":"町田市","address":"町田市小山ヶ丘1-2-(特別養護老人ホーム美郷内)","lat":35.595638,"lon":139.386398},{"name":"忠生第1高齢者支援センター","province":"東京都","city":"町田市","address":"町田市下小山田町3580ふれあい桜館1階","lat":35.587135,"lon":139.408478},{"name":"忠生第2高齢者支援センター","province":"東京都","city":"町田市","address":"町田市山崎町2200(福音会木曽山崎事業所内)","lat":35.572918,"lon":139.43161},{"name":"鶴川第1高齢者支援センター","province":"東京都","city":"町田市","address":"町田市薬師台3-270-1(特別養護老人ホーム第二清風園内)","lat":35.583256,"lon":139.49028},{"name":"鶴川第2高齢者支援センター","province":"東京都","city":"町田市","address":"町田市能ヶ谷3-2-1鶴川地域コミュニティ1階","lat":33.443153,"lon":129.96727},{"name":"町田第1高齢者支援センター","province":"東京都","city":"町田市","address":"町田市森野4-8-39(特別養護老人ホームコモンズ内)","lat":35.554134,"lon":139.433395},{"name":"町田第2高齢者支援センター","province":"東京都","city":"町田市","address":"町田市本町田2102-1(本町田高齢者在宅サービスセンター内)","lat":35.559875,"lon":139.437897},{"name":"町田第3高齢者支援センター","province":"東京都","city":"町田市","address":"町田市玉川学園3-35-1(玉川学園高齢者在宅サービスセンター内)","lat":35.56337,"lon":139.458298},{"name":"南第1高齢者支援センター","province":"東京都","city":"町田市","address":"町田市南町田5-16-1(特別養護老人ホーム芙蓉園内)","lat":35.514652,"lon":139.47113},{"name":"南第2高齢者支援センター","province":"東京都","city":"町田市","address":"町田市金森東3-18-16(特別養護老人ホーム合掌苑桂寮内)","lat":35.531769,"lon":139.466049},{"name":"南第3高齢者支援センター","province":"東京都","city":"町田市","address":"町田市西成瀬2-48-23","lat":35.543419,"lon":139.471664},{"name":"相原あんしん相談室","province":"東京都","city":"町田市","address":"町田市相原町1158-26","lat":35.607006,"lon":139.331741},{"name":"小山あんしん相談室","province":"東京都","city":"町田市","address":"町田市小山町2619","lat":35.598221,"lon":139.36644},{"name":"忠生あんしん相談室","province":"東京都","city":"町田市","address":"町田市忠生3-1-34もりやハイツ2101号室","lat":35.571674,"lon":139.421463},{"name":"木曽山崎あんしん相談室","province":"東京都","city":"町田市","address":"町田市山崎町2200","lat":35.572918,"lon":139.43161},{"name":"野津田あんしん相談室","province":"東京都","city":"町田市","address":"町田市野津田町831-1","lat":35.588425,"lon":139.450272},{"name":"鶴川あんしん相談室","province":"東京都","city":"町田市","address":"町田市鶴川6-7-2-103号室","lat":35.587303,"lon":139.473465},{"name":"原町田あんしん相談室","province":"東京都","city":"町田市","address":"町田市原町田4-24-6せりがや会館1階","lat":35.544724,"lon":139.453049},{"name":"本町田あんしん相談室","province":"東京都","city":"町田市","address":"町田市本町田3486藤の第団地1-50-109","lat":35.569607,"lon":139.44574},{"name":"南大谷あんしん相談室","province":"東京都","city":"町田市","address":"町田市南大谷205-1-2","lat":35.554821,"lon":139.456757},{"name":"小川あんしん相談室","province":"東京都","city":"町田市","address":"町田市小川6-1-11","lat":35.522091,"lon":139.471252},{"name":"金森あんしん相談室","province":"東京都","city":"町田市","address":"町田市金森東4-2-2523号室","lat":35.533897,"lon":139.461243},{"name":"成瀬あんしん相談室","province":"東京都","city":"町田市","address":"町田市西成瀬2-48-23","lat":35.543419,"lon":139.471664},{"name":"医療と介護の連携支援センター","province":"東京都","city":"町田市","address":"町田市木曽西4-12-22KISOコミュニティベース1F","lat":35.566994,"lon":139.413712},{"name":"町田市高齢者福祉課","province":"東京都","city":"町田市","address":"町田市森野2-2-22","lat":35.547039,"lon":139.438141},{"name":"町田市民病院","province":"東京都","city":"町田市","address":"東京都町田市旭町2丁目15-41","lat":35.55694609,"lon":139.43883454},{"name":"JR町田駅北口","province":"東京都","city":"町田市","address":"東京都町田市原町田6-1","lat":35.542,"lon":139.445},{"name":"町田バスセンター（小田急線町田駅西口）","province":"東京都","city":"町田市","address":"東京都町田市森野1-15","lat":35.543,"lon":139.444},{"name":"町田市庁舎前","province":"東京都","city":"町田市","address":"東京都町田市森野2-2-22","lat":35.546,"lon":139.438},{"name":"町田ターミナルプラザ","province":"東京都","city":"町田市","address":"東京都町田市原町田3-1-4","lat":35.54,"lon":139.449},{"name":"まちの案内所町田ツーリストギャラリー","province":"東京都","city":"町田市","address":"東京都町田市原町田4-10-20ぽっぽ町田","lat":35.542,"lon":139.448},{"name":"町田市立国際版画美術館","province":"東京都","city":"町田市","address":"東京都町田市原町田4-28-1","lat":35.544,"lon":139.455},{"name":"町田リス園","province":"東京都","city":"町田市","address":"東京都町田市薬師台1-733-1","lat":35.578,"lon":139.449},{"name":"サウスフロントタワーCielo","province":"東京都","city":"町田市","address":"東京都町田市原町田4-9-8","lat":35.541,"lon":139.449},{"name":"まちだ名産品の店心和（ここわ）","province":"東京都","city":"町田市","address":"東京都町田市原町田6-12-20小田急ビル1階","lat":35.543,"lon":139.445},{"name":"忠生市民センター","province":"東京都","city":"町田市","address":"東京都町田市忠生3-14-2","lat":35.578,"lon":139.416},{"name":"鶴川市民センター","province":"東京都","city":"町田市","address":"東京都町田市大蔵町1981-4","lat":35.588,"lon":139.467},{"name":"南市民センター","province":"東京都","city":"町田市","address":"東京都町田市金森4-5-6","lat":35.523,"lon":139.466},{"name":"なるせ駅前市民センター","province":"東京都","city":"町田市","address":"東京都町田市南成瀬1-2-5","lat":35.536,"lon":139.472},{"name":"堺市民センター","province":"東京都","city":"町田市","address":"東京都町田市相原町795-1","lat":35.604,"lon":139.333},{"name":"小山市民センター","province":"東京都","city":"町田市","address":"東京都町田市小山町2507-1","lat":35.597,"lon":139.369},{"name":"町田市立自由民権資料館","province":"東京都","city":"町田市","address":"東京都町田市野津田町897","lat":35.588,"lon":139.453},{"name":"小川高等学校","province":"東京都","city":"町田市","address":"東京都町田市小川2丁目1002-1","lat":35.53233046,"lon":139.46933859},{"name":"町田総合高等学校","province":"東京都","city":"町田市","address":"東京都町田市木曽西3丁目5-1","lat":35.57035541,"lon":139.41678624},{"name":"町田工業高等学校","province":"東京都","city":"町田市","address":"東京都町田市忠生1丁目20-2","lat":35.5755605,"lon":139.42215504},{"name":"町田高等学校","province":"東京都","city":"町田市","address":"東京都町田市中町4丁目25-3","lat":35.55337986,"lon":139.44872268},{"name":"野津田高等学校","province":"東京都","city":"町田市","address":"東京都町田市野津田町2001","lat":35.58961486,"lon":139.43740885},{"name":"山崎高等学校","province":"東京都","city":"町田市","address":"東京都町田市山崎町1453-1","lat":35.57680228,"lon":139.43379559},{"name":"堺第1高齢者支援センター","province":"東京都","city":"町田市","address":"町田市相原町2373-1(老人保健施設サンシルバー町田内)","lat":35.612473,"lon":139.312881},{"name":"堺第2高齢者支援センター","province":"東京都","city":"町田市","address":"町田市小山ヶ丘1-2-(特別養護老人ホーム美郷内)","lat":35.595638,"lon":139.386398},{"name":"忠生第1高齢者支援センター","province":"東京都","city":"町田市","address":"町田市下小山田町3580ふれあい桜館1階","lat":35.587135,"lon":139.408478},{"name":"忠生第2高齢者支援センター","province":"東京都","city":"町田市","address":"町田市山崎町2200(福音会木曽山崎事業所内)","lat":35.572918,"lon":139.43161},{"name":"鶴川第1高齢者支援センター","province":"東京都","city":"町田市","address":"町田市薬師台3-270-1(特別養護老人ホーム第二清風園内)","lat":35.583256,"lon":139.49028},{"name":"鶴川第2高齢者支援センター","province":"東京都","city":"町田市","address":"町田市能ヶ谷3-2-1鶴川地域コミュニティ1階","lat":33.443153,"lon":129.96727},{"name":"町田第1高齢者支援センター","province":"東京都","city":"町田市","address":"町田市森野4-8-39(特別養護老人ホームコモンズ内)","lat":35.554134,"lon":139.433395},{"name":"町田第2高齢者支援センター","province":"東京都","city":"町田市","address":"町田市本町田2102-1(本町田高齢者在宅サービスセンター内)","lat":35.559875,"lon":139.437897},{"name":"町田第3高齢者支援センター","province":"東京都","city":"町田市","address":"町田市玉川学園3-35-1(玉川学園高齢者在宅サービスセンター内)","lat":35.56337,"lon":139.458298},{"name":"南第1高齢者支援センター","province":"東京都","city":"町田市","address":"町田市南町田5-16-1(特別養護老人ホーム芙蓉園内)","lat":35.514652,"lon":139.47113},{"name":"南第2高齢者支援センター","province":"東京都","city":"町田市","address":"町田市金森東3-18-16(特別養護老人ホーム合掌苑桂寮内)","lat":35.531769,"lon":139.466049},{"name":"南第3高齢者支援センター","province":"東京都","city":"町田市","address":"町田市西成瀬2-48-23","lat":35.543419,"lon":139.471664},{"name":"相原あんしん相談室","province":"東京都","city":"町田市","address":"町田市相原町1158-26","lat":35.607006,"lon":139.331741},{"name":"小山あんしん相談室","province":"東京都","city":"町田市","address":"町田市小山町2619","lat":35.598221,"lon":139.36644},{"name":"忠生あんしん相談室","province":"東京都","city":"町田市","address":"町田市忠生3-1-34もりやハイツ2101号室","lat":35.571674,"lon":139.421463},{"name":"木曽山崎あんしん相談室","province":"東京都","city":"町田市","address":"町田市山崎町2200","lat":35.572918,"lon":139.43161},{"name":"野津田あんしん相談室","province":"東京都","city":"町田市","address":"町田市野津田町831-1","lat":35.588425,"lon":139.450272},{"name":"鶴川あんしん相談室","province":"東京都","city":"町田市","address":"町田市鶴川6-7-2-103号室","lat":35.587303,"lon":139.473465},{"name":"原町田あんしん相談室","province":"東京都","city":"町田市","address":"町田市原町田4-24-6せりがや会館1階","lat":35.544724,"lon":139.453049},{"name":"本町田あんしん相談室","province":"東京都","city":"町田市","address":"町田市本町田3486藤の第団地1-50-109","lat":35.569607,"lon":139.44574},{"name":"南大谷あんしん相談室","province":"東京都","city":"町田市","address":"町田市南大谷205-1-2","lat":35.554821,"lon":139.456757},{"name":"小川あんしん相談室","province":"東京都","city":"町田市","address":"町田市小川6-1-11","lat":35.522091,"lon":139.471252},{"name":"金森あんしん相談室","province":"東京都","city":"町田市","address":"町田市金森東4-2-2523号室","lat":35.533897,"lon":139.461243},{"name":"成瀬あんしん相談室","province":"東京都","city":"町田市","address":"町田市西成瀬2-48-23","lat":35.543419,"lon":139.471664},{"name":"医療と介護の連携支援センター","province":"東京都","city":"町田市","address":"町田市木曽西4-12-22KISOコミュニティベース1F","lat":35.566994,"lon":139.413712},{"name":"町田市高齢者福祉課","province":"東京都","city":"町田市","address":"町田市森野2-2-22","lat":35.547039,"lon":139.438141},{"name":"町田市民病院","province":"東京都","city":"町田市","address":"東京都町田市旭町2丁目15-41","lat":35.55694609,"lon":139.43883454},{"name":"JR町田駅北口","province":"東京都","city":"町田市","address":"東京都町田市原町田6-1","lat":35.542,"lon":139.445},{"name":"町田バスセンター（小田急線町田駅西口）","province":"東京都","city":"町田市","address":"東京都町田市森野1-15","lat":35.543,"lon":139.444},{"name":"町田市庁舎前","province":"東京都","city":"町田市","address":"東京都町田市森野2-2-22","lat":35.546,"lon":139.438},{"name":"町田ターミナルプラザ","province":"東京都","city":"町田市","address":"東京都町田市原町田3-1-4","lat":35.54,"lon":139.449},{"name":"まちの案内所町田ツーリストギャラリー","province":"東京都","city":"町田市","address":"東京都町田市原町田4-10-20ぽっぽ町田","lat":35.542,"lon":139.448},{"name":"町田市立国際版画美術館","province":"東京都","city":"町田市","address":"東京都町田市原町田4-28-1","lat":35.544,"lon":139.455},{"name":"町田リス園","province":"東京都","city":"町田市","address":"東京都町田市薬師台1-733-1","lat":35.578,"lon":139.449},{"name":"サウスフロントタワーCielo","province":"東京都","city":"町田市","address":"東京都町田市原町田4-9-8","lat":35.541,"lon":139.449},{"name":"まちだ名産品の店心和（ここわ）","province":"東京都","city":"町田市","address":"東京都町田市原町田6-12-20小田急ビル1階","lat":35.543,"lon":139.445},{"name":"忠生市民センター","province":"東京都","city":"町田市","address":"東京都町田市忠生3-14-2","lat":35.578,"lon":139.416},{"name":"鶴川市民センター","province":"東京都","city":"町田市","address":"東京都町田市大蔵町1981-4","lat":35.588,"lon":139.467},{"name":"南市民センター","province":"東京都","city":"町田市","address":"東京都町田市金森4-5-6","lat":35.523,"lon":139.466},{"name":"なるせ駅前市民センター","province":"東京都","city":"町田市","address":"東京都町田市南成瀬1-2-5","lat":35.536,"lon":139.472},{"name":"堺市民センター","province":"東京都","city":"町田市","address":"東京都町田市相原町795-1","lat":35.604,"lon":139.333},{"name":"小山市民センター","province":"東京都","city":"町田市","address":"東京都町田市小山町2507-1","lat":35.597,"lon":139.369},{"name":"町田市立自由民権資料館","province":"東京都","city":"町田市","address":"東京都町田市野津田町897","lat":35.588,"lon":139.453},{"name":"小川高等学校","province":"東京都","city":"町田市","address":"東京都町田市小川2丁目1002-1","lat":35.53233046,"lon":139.46933859},{"name":"町田総合高等学校","province":"東京都","city":"町田市","address":"東京都町田市木曽西3丁目5-1","lat":35.57035541,"lon":139.41678624},{"name":"町田工業高等学校","province":"東京都","city":"町田市","address":"東京都町田市忠生1丁目20-2","lat":35.5755605,"lon":139.42215504},{"name":"町田高等学校","province":"東京都","city":"町田市","address":"東京都町田市中町4丁目25-3","lat":35.55337986,"lon":139.44872268},{"name":"野津田高等学校","province":"東京都","city":"町田市","address":"東京都町田市野津田町2001","lat":35.58961486,"lon":139.43740885},{"name":"山崎高等学校","province":"東京都","city":"町田市","address":"東京都町田市山崎町1453-1","lat":35.57680228,"lon":139.43379559},{"name":"堺第1高齢者支援センター","province":"東京都","city":"町田市","address":"町田市相原町2373-1(老人保健施設サンシルバー町田内)","lat":35.612473,"lon":139.312881},{"name":"堺第2高齢者支援センター","province":"東京都","city":"町田市","address":"町田市小山ヶ丘1-2-(特別養護老人ホーム美郷内)","lat":35.595638,"lon":139.386398},{"name":"忠生第1高齢者支援センター","province":"東京都","city":"町田市","address":"町田市下小山田町3580ふれあい桜館1階","lat":35.587135,"lon":139.408478},{"name":"忠生第2高齢者支援センター","province":"東京都","city":"町田市","address":"町田市山崎町2200(福音会木曽山崎事業所内)","lat":35.572918,"lon":139.43161},{"name":"鶴川第1高齢者支援センター","province":"東京都","city":"町田市","address":"町田市薬師台3-270-1(特別養護老人ホーム第二清風園内)","lat":35.583256,"lon":139.49028},{"name":"鶴川第2高齢者支援センター","province":"東京都","city":"町田市","address":"町田市能ヶ谷3-2-1鶴川地域コミュニティ1階","lat":33.443153,"lon":129.96727},{"name":"町田第1高齢者支援センター","province":"東京都","city":"町田市","address":"町田市森野4-8-39(特別養護老人ホームコモンズ内)","lat":35.554134,"lon":139.433395},{"name":"町田第2高齢者支援センター","province":"東京都","city":"町田市","address":"町田市本町田2102-1(本町田高齢者在宅サービスセンター内)","lat":35.559875,"lon":139.437897},{"name":"町田第3高齢者支援センター","province":"東京都","city":"町田市","address":"町田市玉川学園3-35-1(玉川学園高齢者在宅サービスセンター内)","lat":35.56337,"lon":139.458298},{"name":"南第1高齢者支援センター","province":"東京都","city":"町田市","address":"町田市南町田5-16-1(特別養護老人ホーム芙蓉園内)","lat":35.514652,"lon":139.47113},{"name":"南第2高齢者支援センター","province":"東京都","city":"町田市","address":"町田市金森東3-18-16(特別養護老人ホーム合掌苑桂寮内)","lat":35.531769,"lon":139.466049},{"name":"南第3高齢者支援センター","province":"東京都","city":"町田市","address":"町田市西成瀬2-48-23","lat":35.543419,"lon":139.471664},{"name":"相原あんしん相談室","province":"東京都","city":"町田市","address":"町田市相原町1158-26","lat":35.607006,"lon":139.331741},{"name":"小山あんしん相談室","province":"東京都","city":"町田市","address":"町田市小山町2619","lat":35.598221,"lon":139.36644},{"name":"忠生あんしん相談室","province":"東京都","city":"町田市","address":"町田市忠生3-1-34もりやハイツ2101号室","lat":35.571674,"lon":139.421463},{"name":"木曽山崎あんしん相談室","province":"東京都","city":"町田市","address":"町田市山崎町2200","lat":35.572918,"lon":139.43161},{"name":"野津田あんしん相談室","province":"東京都","city":"町田市","address":"町田市野津田町831-1","lat":35.588425,"lon":139.450272},{"name":"鶴川あんしん相談室","province":"東京都","city":"町田市","address":"町田市鶴川6-7-2-103号室","lat":35.587303,"lon":139.473465},{"name":"原町田あんしん相談室","province":"東京都","city":"町田市","address":"町田市原町田4-24-6せりがや会館1階","lat":35.544724,"lon":139.453049},{"name":"本町田あんしん相談室","province":"東京都","city":"町田市","address":"町田市本町田3486藤の第団地1-50-109","lat":35.569607,"lon":139.44574},{"name":"南大谷あんしん相談室","province":"東京都","city":"町田市","address":"町田市南大谷205-1-2","lat":35.554821,"lon":139.456757},{"name":"小川あんしん相談室","province":"東京都","city":"町田市","address":"町田市小川6-1-11","lat":35.522091,"lon":139.471252},{"name":"金森あんしん相談室","province":"東京都","city":"町田市","address":"町田市金森東4-2-2523号室","lat":35.533897,"lon":139.461243},{"name":"成瀬あんしん相談室","province":"東京都","city":"町田市","address":"町田市西成瀬2-48-23","lat":35.543419,"lon":139.471664},{"name":"医療と介護の連携支援センター","province":"東京都","city":"町田市","address":"町田市木曽西4-12-22KISOコミュニティベース1F","lat":35.566994,"lon":139.413712},{"name":"町田市高齢者福祉課","province":"東京都","city":"町田市","address":"町田市森野2-2-22","lat":35.547039,"lon":139.438141},{"name":"JR町田駅北口","province":"東京都","city":"町田市","address":"東京都町田市原町田6-1","lat":35.542,"lon":139.445},{"name":"町田バスセンター（小田急線町田駅西口）","province":"東京都","city":"町田市","address":"東京都町田市森野1-15","lat":35.543,"lon":139.444},{"name":"町田市庁舎前","province":"東京都","city":"町田市","address":"東京都町田市森野2-2-22","lat":35.546,"lon":139.438},{"name":"町田ターミナルプラザ","province":"東京都","city":"町田市","address":"東京都町田市原町田3-1-4","lat":35.54,"lon":139.449},{"name":"まちの案内所町田ツーリストギャラリー","province":"東京都","city":"町田市","address":"東京都町田市原町田4-10-20ぽっぽ町田","lat":35.542,"lon":139.448},{"name":"町田市立国際版画美術館","province":"東京都","city":"町田市","address":"東京都町田市原町田4-28-1","lat":35.544,"lon":139.455},{"name":"町田リス園","province":"東京都","city":"町田市","address":"東京都町田市薬師台1-733-1","lat":35.578,"lon":139.449},{"name":"サウスフロントタワーCielo","province":"東京都","city":"町田市","address":"東京都町田市原町田4-9-8","lat":35.541,"lon":139.449},{"name":"まちだ名産品の店心和（ここわ）","province":"東京都","city":"町田市","address":"東京都町田市原町田6-12-20小田急ビル1階","lat":35.543,"lon":139.445},{"name":"忠生市民センター","province":"東京都","city":"町田市","address":"東京都町田市忠生3-14-2","lat":35.578,"lon":139.416},{"name":"鶴川市民センター","province":"東京都","city":"町田市","address":"東京都町田市大蔵町1981-4","lat":35.588,"lon":139.467},{"name":"南市民センター","province":"東京都","city":"町田市","address":"東京都町田市金森4-5-6","lat":35.523,"lon":139.466},{"name":"なるせ駅前市民センター","province":"東京都","city":"町田市","address":"東京都町田市南成瀬1-2-5","lat":35.536,"lon":139.472},{"name":"堺市民センター","province":"東京都","city":"町田市","address":"東京都町田市相原町795-1","lat":35.604,"lon":139.333},{"name":"小山市民センター","province":"東京都","city":"町田市","address":"東京都町田市小山町2507-1","lat":35.597,"lon":139.369},{"name":"町田市立自由民権資料館","province":"東京都","city":"町田市","address":"東京都町田市野津田町897","lat":35.588,"lon":139.453},{"name":"堺第1高齢者支援センター","province":"東京都","city":"町田市","address":"町田市相原町2373-1(老人保健施設サンシルバー町田内)","lat":35.612473,"lon":139.312881},{"name":"堺第2高齢者支援センター","province":"東京都","city":"町田市","address":"町田市小山ヶ丘1-2-(特別養護老人ホーム美郷内)","lat":35.595638,"lon":139.386398},{"name":"忠生第1高齢者支援センター","province":"東京都","city":"町田市","address":"町田市下小山田町3580ふれあい桜館1階","lat":35.587135,"lon":139.408478},{"name":"忠生第2高齢者支援センター","province":"東京都","city":"町田市","address":"町田市山崎町2200(福音会木曽山崎事業所内)","lat":35.572918,"lon":139.43161},{"name":"鶴川第1高齢者支援センター","province":"東京都","city":"町田市","address":"町田市薬師台3-270-1(特別養護老人ホーム第二清風園内)","lat":35.583256,"lon":139.49028},{"name":"鶴川第2高齢者支援センター","province":"東京都","city":"町田市","address":"町田市能ヶ谷3-2-1鶴川地域コミュニティ1階","lat":33.443153,"lon":129.96727},{"name":"町田第1高齢者支援センター","province":"東京都","city":"町田市","address":"町田市森野4-8-39(特別養護老人ホームコモンズ内)","lat":35.554134,"lon":139.433395},{"name":"町田第2高齢者支援センター","province":"東京都","city":"町田市","address":"町田市本町田2102-1(本町田高齢者在宅サービスセンター内)","lat":35.559875,"lon":139.437897},{"name":"町田第3高齢者支援センター","province":"東京都","city":"町田市","address":"町田市玉川学園3-35-1(玉川学園高齢者在宅サービスセンター内)","lat":35.56337,"lon":139.458298},{"name":"南第1高齢者支援センター","province":"東京都","city":"町田市","address":"町田市南町田5-16-1(特別養護老人ホーム芙蓉園内)","lat":35.514652,"lon":139.47113},{"name":"南第2高齢者支援センター","province":"東京都","city":"町田市","address":"町田市金森東3-18-16(特別養護老人ホーム合掌苑桂寮内)","lat":35.531769,"lon":139.466049},{"name":"南第3高齢者支援センター","province":"東京都","city":"町田市","address":"町田市西成瀬2-48-23","lat":35.543419,"lon":139.471664},{"name":"相原あんしん相談室","province":"東京都","city":"町田市","address":"町田市相原町1158-26","lat":35.607006,"lon":139.331741},{"name":"小山あんしん相談室","province":"東京都","city":"町田市","address":"町田市小山町2619","lat":35.598221,"lon":139.36644},{"name":"忠生あんしん相談室","province":"東京都","city":"町田市","address":"町田市忠生3-1-34もりやハイツ2101号室","lat":35.571674,"lon":139.421463},{"name":"木曽山崎あんしん相談室","province":"東京都","city":"町田市","address":"町田市山崎町2200","lat":35.572918,"lon":139.43161},{"name":"野津田あんしん相談室","province":"東京都","city":"町田市","address":"町田市野津田町831-1","lat":35.588425,"lon":139.450272},{"name":"鶴川あんしん相談室","province":"東京都","city":"町田市","address":"町田市鶴川6-7-2-103号室","lat":35.587303,"lon":139.473465},{"name":"原町田あんしん相談室","province":"東京都","city":"町田市","address":"町田市原町田4-24-6せりがや会館1階","lat":35.544724,"lon":139.453049},{"name":"本町田あんしん相談室","province":"東京都","city":"町田市","address":"町田市本町田3486藤の第団地1-50-109","lat":35.569607,"lon":139.44574},{"name":"南大谷あんしん相談室","province":"東京都","city":"町田市","address":"町田市南大谷205-1-2","lat":35.554821,"lon":139.456757},{"name":"小川あんしん相談室","province":"東京都","city":"町田市","address":"町田市小川6-1-11","lat":35.522091,"lon":139.471252},{"name":"金森あんしん相談室","province":"東京都","city":"町田市","address":"町田市金森東4-2-2523号室","lat":35.533897,"lon":139.461243},{"name":"成瀬あんしん相談室","province":"東京都","city":"町田市","address":"町田市西成瀬2-48-23","lat":35.543419,"lon":139.471664},{"name":"医療と介護の連携支援センター","province":"東京都","city":"町田市","address":"町田市木曽西4-12-22KISOコミュニティベース1F","lat":35.566994,"lon":139.413712},{"name":"町田市高齢者福祉課","province":"東京都","city":"町田市","address":"町田市森野2-2-22","lat":35.547039,"lon":139.438141},{"name":"JR町田駅北口","province":"東京都","city":"町田市","address":"東京都町田市原町田6-1","lat":35.542,"lon":139.445},{"name":"町田バスセンター（小田急線町田駅西口）","province":"東京都","city":"町田市","address":"東京都町田市森野1-15","lat":35.543,"lon":139.444},{"name":"町田市庁舎前","province":"東京都","city":"町田市","address":"東京都町田市森野2-2-22","lat":35.546,"lon":139.438},{"name":"町田ターミナルプラザ","province":"東京都","city":"町田市","address":"東京都町田市原町田3-1-4","lat":35.54,"lon":139.449},{"name":"まちの案内所町田ツーリストギャラリー","province":"東京都","city":"町田市","address":"東京都町田市原町田4-10-20ぽっぽ町田","lat":35.542,"lon":139.448},{"name":"町田市立国際版画美術館","province":"東京都","city":"町田市","address":"東京都町田市原町田4-28-1","lat":35.544,"lon":139.455},{"name":"町田リス園","province":"東京都","city":"町田市","address":"東京都町田市薬師台1-733-1","lat":35.578,"lon":139.449},{"name":"サウスフロントタワーCielo","province":"東京都","city":"町田市","address":"東京都町田市原町田4-9-8","lat":35.541,"lon":139.449},{"name":"まちだ名産品の店心和（ここわ）","province":"東京都","city":"町田市","address":"東京都町田市原町田6-12-20小田急ビル1階","lat":35.543,"lon":139.445},{"name":"忠生市民センター","province":"東京都","city":"町田市","address":"東京都町田市忠生3-14-2","lat":35.578,"lon":139.416},{"name":"鶴川市民センター","province":"東京都","city":"町田市","address":"東京都町田市大蔵町1981-4","lat":35.588,"lon":139.467},{"name":"南市民センター","province":"東京都","city":"町田市","address":"東京都町田市金森4-5-6","lat":35.523,"lon":139.466},{"name":"なるせ駅前市民センター","province":"東京都","city":"町田市","address":"東京都町田市南成瀬1-2-5","lat":35.536,"lon":139.472},{"name":"堺市民センター","province":"東京都","city":"町田市","address":"東京都町田市相原町795-1","lat":35.604,"lon":139.333},{"name":"小山市民センター","province":"東京都","city":"町田市","address":"東京都町田市小山町2507-1","lat":35.597,"lon":139.369},{"name":"町田市立自由民権資料館","province":"東京都","city":"町田市","address":"東京都町田市野津田町897","lat":35.588,"lon":139.453},{"name":"堺第1高齢者支援センター","province":"東京都","city":"町田市","address":"町田市相原町2373-1(老人保健施設サンシルバー町田内)","lat":35.612473,"lon":139.312881},{"name":"堺第2高齢者支援センター","province":"東京都","city":"町田市","address":"町田市小山ヶ丘1-2-(特別養護老人ホーム美郷内)","lat":35.595638,"lon":139.386398},{"name":"忠生第1高齢者支援センター","province":"東京都","city":"町田市","address":"町田市下小山田町3580ふれあい桜館1階","lat":35.587135,"lon":139.408478},{"name":"忠生第2高齢者支援センター","province":"東京都","city":"町田市","address":"町田市山崎町2200(福音会木曽山崎事業所内)","lat":35.572918,"lon":139.43161},{"name":"鶴川第1高齢者支援センター","province":"東京都","city":"町田市","address":"町田市薬師台3-270-1(特別養護老人ホーム第二清風園内)","lat":35.583256,"lon":139.49028},{"name":"鶴川第2高齢者支援センター","province":"東京都","city":"町田市","address":"町田市能ヶ谷3-2-1鶴川地域コミュニティ1階","lat":33.443153,"lon":129.96727},{"name":"町田第1高齢者支援センター","province":"東京都","city":"町田市","address":"町田市森野4-8-39(特別養護老人ホームコモンズ内)","lat":35.554134,"lon":139.433395},{"name":"町田第2高齢者支援センター","province":"東京都","city":"町田市","address":"町田市本町田2102-1(本町田高齢者在宅サービスセンター内)","lat":35.559875,"lon":139.437897},{"name":"町田第3高齢者支援センター","province":"東京都","city":"町田市","address":"町田市玉川学園3-35-1(玉川学園高齢者在宅サービスセンター内)","lat":35.56337,"lon":139.458298},{"name":"南第1高齢者支援センター","province":"東京都","city":"町田市","address":"町田市南町田5-16-1(特別養護老人ホーム芙蓉園内)","lat":35.514652,"lon":139.47113},{"name":"南第2高齢者支援センター","province":"東京都","city":"町田市","address":"町田市金森東3-18-16(特別養護老人ホーム合掌苑桂寮内)","lat":35.531769,"lon":139.466049},{"name":"南第3高齢者支援センター","province":"東京都","city":"町田市","address":"町田市西成瀬2-48-23","lat":35.543419,"lon":139.471664},{"name":"相原あんしん相談室","province":"東京都","city":"町田市","address":"町田市相原町1158-26","lat":35.607006,"lon":139.331741},{"name":"小山あんしん相談室","province":"東京都","city":"町田市","address":"町田市小山町2619","lat":35.598221,"lon":139.36644},{"name":"忠生あんしん相談室","province":"東京都","city":"町田市","address":"町田市忠生3-1-34もりやハイツ2101号室","lat":35.571674,"lon":139.421463},{"name":"木曽山崎あんしん相談室","province":"東京都","city":"町田市","address":"町田市山崎町2200","lat":35.572918,"lon":139.43161},{"name":"野津田あんしん相談室","province":"東京都","city":"町田市","address":"町田市野津田町831-1","lat":35.588425,"lon":139.450272},{"name":"鶴川あんしん相談室","province":"東京都","city":"町田市","address":"町田市鶴川6-7-2-103号室","lat":35.587303,"lon":139.473465},{"name":"原町田あんしん相談室","province":"東京都","city":"町田市","address":"町田市原町田4-24-6せりがや会館1階","lat":35.544724,"lon":139.453049},{"name":"本町田あんしん相談室","province":"東京都","city":"町田市","address":"町田市本町田3486藤の第団地1-50-109","lat":35.569607,"lon":139.44574},{"name":"南大谷あんしん相談室","province":"東京都","city":"町田市","address":"町田市南大谷205-1-2","lat":35.554821,"lon":139.456757},{"name":"小川あんしん相談室","province":"東京都","city":"町田市","address":"町田市小川6-1-11","lat":35.522091,"lon":139.471252},{"name":"金森あんしん相談室","province":"東京都","city":"町田市","address":"町田市金森東4-2-2523号室","lat":35.533897,"lon":139.461243},{"name":"成瀬あんしん相談室","province":"東京都","city":"町田市","address":"町田市西成瀬2-48-23","lat":35.543419,"lon":139.471664},{"name":"医療と介護の連携支援センター","province":"東京都","city":"町田市","address":"町田市木曽西4-12-22KISOコミュニティベース1F","lat":35.566994,"lon":139.413712},{"name":"町田市高齢者福祉課","province":"東京都","city":"町田市","address":"町田市森野2-2-22","lat":35.547039,"lon":139.438141},{"name":"JR町田駅北口","province":"東京都","city":"町田市","address":"東京都町田市原町田6-1","lat":35.542,"lon":139.445},{"name":"町田バスセンター（小田急線町田駅西口）","province":"東京都","city":"町田市","address":"東京都町田市森野1-15","lat":35.543,"lon":139.444},{"name":"町田市庁舎前","province":"東京都","city":"町田市","address":"東京都町田市森野2-2-22","lat":35.546,"lon":139.438},{"name":"町田ターミナルプラザ","province":"東京都","city":"町田市","address":"東京都町田市原町田3-1-4","lat":35.54,"lon":139.449},{"name":"まちの案内所町田ツーリストギャラリー","province":"東京都","city":"町田市","address":"東京都町田市原町田4-10-20ぽっぽ町田","lat":35.542,"lon":139.448},{"name":"町田市立国際版画美術館","province":"東京都","city":"町田市","address":"東京都町田市原町田4-28-1","lat":35.544,"lon":139.455},{"name":"町田リス園","province":"東京都","city":"町田市","address":"東京都町田市薬師台1-733-1","lat":35.578,"lon":139.449},{"name":"サウスフロントタワーCielo","province":"東京都","city":"町田市","address":"東京都町田市原町田4-9-8","lat":35.541,"lon":139.449},{"name":"まちだ名産品の店心和（ここわ）","province":"東京都","city":"町田市","address":"東京都町田市原町田6-12-20小田急ビル1階","lat":35.543,"lon":139.445},{"name":"忠生市民センター","province":"東京都","city":"町田市","address":"東京都町田市忠生3-14-2","lat":35.578,"lon":139.416},{"name":"鶴川市民センター","province":"東京都","city":"町田市","address":"東京都町田市大蔵町1981-4","lat":35.588,"lon":139.467},{"name":"南市民センター","province":"東京都","city":"町田市","address":"東京都町田市金森4-5-6","lat":35.523,"lon":139.466},{"name":"なるせ駅前市民センター","province":"東京都","city":"町田市","address":"東京都町田市南成瀬1-2-5","lat":35.536,"lon":139.472},{"name":"堺市民センター","province":"東京都","city":"町田市","address":"東京都町田市相原町795-1","lat":35.604,"lon":139.333},{"name":"小山市民センター","province":"東京都","city":"町田市","address":"東京都町田市小山町2507-1","lat":35.597,"lon":139.369},{"name":"町田市立自由民権資料館","province":"東京都","city":"町田市","address":"東京都町田市野津田町897","lat":35.588,"lon":139.453},{"name":"堺第1高齢者支援センター","province":"東京都","city":"町田市","address":"町田市相原町2373-1(老人保健施設サンシルバー町田内)","lat":35.612473,"lon":139.312881},{"name":"堺第2高齢者支援センター","province":"東京都","city":"町田市","address":"町田市小山ヶ丘1-2-(特別養護老人ホーム美郷内)","lat":35.595638,"lon":139.386398},{"name":"忠生第1高齢者支援センター","province":"東京都","city":"町田市","address":"町田市下小山田町3580ふれあい桜館1階","lat":35.587135,"lon":139.408478},{"name":"忠生第2高齢者支援センター","province":"東京都","city":"町田市","address":"町田市山崎町2200(福音会木曽山崎事業所内)","lat":35.572918,"lon":139.43161},{"name":"鶴川第1高齢者支援センター","province":"東京都","city":"町田市","address":"町田市薬師台3-270-1(特別養護老人ホーム第二清風園内)","lat":35.583256,"lon":139.49028},{"name":"鶴川第2高齢者支援センター","province":"東京都","city":"町田市","address":"町田市能ヶ谷3-2-1鶴川地域コミュニティ1階","lat":33.443153,"lon":129.96727},{"name":"町田第1高齢者支援センター","province":"東京都","city":"町田市","address":"町田市森野4-8-39(特別養護老人ホームコモンズ内)","lat":35.554134,"lon":139.433395},{"name":"町田第2高齢者支援センター","province":"東京都","city":"町田市","address":"町田市本町田2102-1(本町田高齢者在宅サービスセンター内)","lat":35.559875,"lon":139.437897},{"name":"町田第3高齢者支援センター","province":"東京都","city":"町田市","address":"町田市玉川学園3-35-1(玉川学園高齢者在宅サービスセンター内)","lat":35.56337,"lon":139.458298},{"name":"南第1高齢者支援センター","province":"東京都","city":"町田市","address":"町田市南町田5-16-1(特別養護老人ホーム芙蓉園内)","lat":35.514652,"lon":139.47113},{"name":"南第2高齢者支援センター","province":"東京都","city":"町田市","address":"町田市金森東3-18-16(特別養護老人ホーム合掌苑桂寮内)","lat":35.531769,"lon":139.466049},{"name":"南第3高齢者支援センター","province":"東京都","city":"町田市","address":"町田市西成瀬2-48-23","lat":35.543419,"lon":139.471664},{"name":"相原あんしん相談室","province":"東京都","city":"町田市","address":"町田市相原町1158-26","lat":35.607006,"lon":139.331741},{"name":"小山あんしん相談室","province":"東京都","city":"町田市","address":"町田市小山町2619","lat":35.598221,"lon":139.36644},{"name":"忠生あんしん相談室","province":"東京都","city":"町田市","address":"町田市忠生3-1-34もりやハイツ2101号室","lat":35.571674,"lon":139.421463},{"name":"木曽山崎あんしん相談室","province":"東京都","city":"町田市","address":"町田市山崎町2200","lat":35.572918,"lon":139.43161},{"name":"野津田あんしん相談室","province":"東京都","city":"町田市","address":"町田市野津田町831-1","lat":35.588425,"lon":139.450272},{"name":"鶴川あんしん相談室","province":"東京都","city":"町田市","address":"町田市鶴川6-7-2-103号室","lat":35.587303,"lon":139.473465},{"name":"原町田あんしん相談室","province":"東京都","city":"町田市","address":"町田市原町田4-24-6せりがや会館1階","lat":35.544724,"lon":139.453049},{"name":"本町田あんしん相談室","province":"東京都","city":"町田市","address":"町田市本町田3486藤の第団地1-50-109","lat":35.569607,"lon":139.44574},{"name":"南大谷あんしん相談室","province":"東京都","city":"町田市","address":"町田市南大谷205-1-2","lat":35.554821,"lon":139.456757},{"name":"小川あんしん相談室","province":"東京都","city":"町田市","address":"町田市小川6-1-11","lat":35.522091,"lon":139.471252},{"name":"金森あんしん相談室","province":"東京都","city":"町田市","address":"町田市金森東4-2-2523号室","lat":35.533897,"lon":139.461243},{"name":"成瀬あんしん相談室","province":"東京都","city":"町田市","address":"町田市西成瀬2-48-23","lat":35.543419,"lon":139.471664},{"name":"医療と介護の連携支援センター","province":"東京都","city":"町田市","address":"町田市木曽西4-12-22KISOコミュニティベース1F","lat":35.566994,"lon":139.413712},{"name":"町田市高齢者福祉課","province":"東京都","city":"町田市","address":"町田市森野2-2-22","lat":35.547039,"lon":139.438141},{"name":"JR町田駅北口","province":"東京都","city":"町田市","address":"東京都町田市原町田6-1","lat":35.542,"lon":139.445},{"name":"町田バスセンター（小田急線町田駅西口）","province":"東京都","city":"町田市","address":"東京都町田市森野1-15","lat":35.543,"lon":139.444},{"name":"町田市庁舎前","province":"東京都","city":"町田市","address":"東京都町田市森野2-2-22","lat":35.546,"lon":139.438},{"name":"町田ターミナルプラザ","province":"東京都","city":"町田市","address":"東京都町田市原町田3-1-4","lat":35.54,"lon":139.449},{"name":"まちの案内所町田ツーリストギャラリー","province":"東京都","city":"町田市","address":"東京都町田市原町田4-10-20ぽっぽ町田","lat":35.542,"lon":139.448},{"name":"町田市立国際版画美術館","province":"東京都","city":"町田市","address":"東京都町田市原町田4-28-1","lat":35.544,"lon":139.455},{"name":"町田リス園","province":"東京都","city":"町田市","address":"東京都町田市薬師台1-733-1","lat":35.578,"lon":139.449},{"name":"サウスフロントタワーCielo","province":"東京都","city":"町田市","address":"東京都町田市原町田4-9-8","lat":35.541,"lon":139.449},{"name":"まちだ名産品の店心和（ここわ）","province":"東京都","city":"町田市","address":"東京都町田市原町田6-12-20小田急ビル1階","lat":35.543,"lon":139.445},{"name":"忠生市民センター","province":"東京都","city":"町田市","address":"東京都町田市忠生3-14-2","lat":35.578,"lon":139.416},{"name":"鶴川市民センター","province":"東京都","city":"町田市","address":"東京都町田市大蔵町1981-4","lat":35.588,"lon":139.467},{"name":"南市民センター","province":"東京都","city":"町田市","address":"東京都町田市金森4-5-6","lat":35.523,"lon":139.466},{"name":"なるせ駅前市民センター","province":"東京都","city":"町田市","address":"東京都町田市南成瀬1-2-5","lat":35.536,"lon":139.472},{"name":"堺市民センター","province":"東京都","city":"町田市","address":"東京都町田市相原町795-1","lat":35.604,"lon":139.333},{"name":"小山市民センター","province":"東京都","city":"町田市","address":"東京都町田市小山町2507-1","lat":35.597,"lon":139.369},{"name":"町田市立自由民権資料館","province":"東京都","city":"町田市","address":"東京都町田市野津田町897","lat":35.588,"lon":139.453},{"name":"堺第1高齢者支援センター","province":"東京都","city":"町田市","address":"町田市相原町2373-1(老人保健施設サンシルバー町田内)","lat":35.612473,"lon":139.312881},{"name":"堺第2高齢者支援センター","province":"東京都","city":"町田市","address":"町田市小山ヶ丘1-2-(特別養護老人ホーム美郷内)","lat":35.595638,"lon":139.386398},{"name":"忠生第1高齢者支援センター","province":"東京都","city":"町田市","address":"町田市下小山田町3580ふれあい桜館1階","lat":35.587135,"lon":139.408478},{"name":"忠生第2高齢者支援センター","province":"東京都","city":"町田市","address":"町田市山崎町2200(福音会木曽山崎事業所内)","lat":35.572918,"lon":139.43161},{"name":"鶴川第1高齢者支援センター","province":"東京都","city":"町田市","address":"町田市薬師台3-270-1(特別養護老人ホーム第二清風園内)","lat":35.583256,"lon":139.49028},{"name":"鶴川第2高齢者支援センター","province":"東京都","city":"町田市","address":"町田市能ヶ谷3-2-1鶴川地域コミュニティ1階","lat":33.443153,"lon":129.96727},{"name":"町田第1高齢者支援センター","province":"東京都","city":"町田市","address":"町田市森野4-8-39(特別養護老人ホームコモンズ内)","lat":35.554134,"lon":139.433395},{"name":"町田第2高齢者支援センター","province":"東京都","city":"町田市","address":"町田市本町田2102-1(本町田高齢者在宅サービスセンター内)","lat":35.559875,"lon":139.437897},{"name":"町田第3高齢者支援センター","province":"東京都","city":"町田市","address":"町田市玉川学園3-35-1(玉川学園高齢者在宅サービスセンター内)","lat":35.56337,"lon":139.458298},{"name":"南第1高齢者支援センター","province":"東京都","city":"町田市","address":"町田市南町田5-16-1(特別養護老人ホーム芙蓉園内)","lat":35.514652,"lon":139.47113},{"name":"南第2高齢者支援センター","province":"東京都","city":"町田市","address":"町田市金森東3-18-16(特別養護老人ホーム合掌苑桂寮内)","lat":35.531769,"lon":139.466049},{"name":"南第3高齢者支援センター","province":"東京都","city":"町田市","address":"町田市西成瀬2-48-23","lat":35.543419,"lon":139.471664},{"name":"相原あんしん相談室","province":"東京都","city":"町田市","address":"町田市相原町1158-26","lat":35.607006,"lon":139.331741},{"name":"小山あんしん相談室","province":"東京都","city":"町田市","address":"町田市小山町2619","lat":35.598221,"lon":139.36644},{"name":"忠生あんしん相談室","province":"東京都","city":"町田市","address":"町田市忠生3-1-34もりやハイツ2101号室","lat":35.571674,"lon":139.421463},{"name":"木曽山崎あんしん相談室","province":"東京都","city":"町田市","address":"町田市山崎町2200","lat":35.572918,"lon":139.43161},{"name":"野津田あんしん相談室","province":"東京都","city":"町田市","address":"町田市野津田町831-1","lat":35.588425,"lon":139.450272},{"name":"鶴川あんしん相談室","province":"東京都","city":"町田市","address":"町田市鶴川6-7-2-103号室","lat":35.587303,"lon":139.473465},{"name":"原町田あんしん相談室","province":"東京都","city":"町田市","address":"町田市原町田4-24-6せりがや会館1階","lat":35.544724,"lon":139.453049},{"name":"本町田あんしん相談室","province":"東京都","city":"町田市","address":"町田市本町田3486藤の第団地1-50-109","lat":35.569607,"lon":139.44574},{"name":"南大谷あんしん相談室","province":"東京都","city":"町田市","address":"町田市南大谷205-1-2","lat":35.554821,"lon":139.456757},{"name":"小川あんしん相談室","province":"東京都","city":"町田市","address":"町田市小川6-1-11","lat":35.522091,"lon":139.471252},{"name":"金森あんしん相談室","province":"東京都","city":"町田市","address":"町田市金森東4-2-2523号室","lat":35.533897,"lon":139.461243},{"name":"成瀬あんしん相談室","province":"東京都","city":"町田市","address":"町田市西成瀬2-48-23","lat":35.543419,"lon":139.471664},{"name":"医療と介護の連携支援センター","province":"東京都","city":"町田市","address":"町田市木曽西4-12-22KISOコミュニティベース1F","lat":35.566994,"lon":139.413712},{"name":"町田市高齢者福祉課","province":"東京都","city":"町田市","address":"町田市森野2-2-22","lat":35.547039,"lon":139.438141},{"name":"堺第1高齢者支援センター","province":"東京都","city":"町田市","address":"町田市相原町2373-1(老人保健施設サンシルバー町田内)","lat":35.612473,"lon":139.312881},{"name":"堺第2高齢者支援センター","province":"東京都","city":"町田市","address":"町田市小山ヶ丘1-2-(特別養護老人ホーム美郷内)","lat":35.595638,"lon":139.386398},{"name":"忠生第1高齢者支援センター","province":"東京都","city":"町田市","address":"町田市下小山田町3580ふれあい桜館1階","lat":35.587135,"lon":139.408478},{"name":"忠生第2高齢者支援センター","province":"東京都","city":"町田市","address":"町田市山崎町2200(福音会木曽山崎事業所内)","lat":35.572918,"lon":139.43161},{"name":"鶴川第1高齢者支援センター","province":"東京都","city":"町田市","address":"町田市薬師台3-270-1(特別養護老人ホーム第二清風園内)","lat":35.583256,"lon":139.49028},{"name":"鶴川第2高齢者支援センター","province":"東京都","city":"町田市","address":"町田市能ヶ谷3-2-1鶴川地域コミュニティ1階","lat":33.443153,"lon":129.96727},{"name":"町田第1高齢者支援センター","province":"東京都","city":"町田市","address":"町田市森野4-8-39(特別養護老人ホームコモンズ内)","lat":35.554134,"lon":139.433395},{"name":"町田第2高齢者支援センター","province":"東京都","city":"町田市","address":"町田市本町田2102-1(本町田高齢者在宅サービスセンター内)","lat":35.559875,"lon":139.437897},{"name":"町田第3高齢者支援センター","province":"東京都","city":"町田市","address":"町田市玉川学園3-35-1(玉川学園高齢者在宅サービスセンター内)","lat":35.56337,"lon":139.458298},{"name":"南第1高齢者支援センター","province":"東京都","city":"町田市","address":"町田市南町田5-16-1(特別養護老人ホーム芙蓉園内)","lat":35.514652,"lon":139.47113},{"name":"南第2高齢者支援センター","province":"東京都","city":"町田市","address":"町田市金森東3-18-16(特別養護老人ホーム合掌苑桂寮内)","lat":35.531769,"lon":139.466049},{"name":"南第3高齢者支援センター","province":"東京都","city":"町田市","address":"町田市西成瀬2-48-23","lat":35.543419,"lon":139.471664},{"name":"相原あんしん相談室","province":"東京都","city":"町田市","address":"町田市相原町1158-26","lat":35.607006,"lon":139.331741},{"name":"小山あんしん相談室","province":"東京都","city":"町田市","address":"町田市小山町2619","lat":35.598221,"lon":139.36644},{"name":"忠生あんしん相談室","province":"東京都","city":"町田市","address":"町田市忠生3-1-34もりやハイツ2101号室","lat":35.571674,"lon":139.421463},{"name":"木曽山崎あんしん相談室","province":"東京都","city":"町田市","address":"町田市山崎町2200","lat":35.572918,"lon":139.43161},{"name":"野津田あんしん相談室","province":"東京都","city":"町田市","address":"町田市野津田町831-1","lat":35.588425,"lon":139.450272},{"name":"鶴川あんしん相談室","province":"東京都","city":"町田市","address":"町田市鶴川6-7-2-103号室","lat":35.587303,"lon":139.473465},{"name":"原町田あんしん相談室","province":"東京都","city":"町田市","address":"町田市原町田4-24-6せりがや会館1階","lat":35.544724,"lon":139.453049},{"name":"本町田あんしん相談室","province":"東京都","city":"町田市","address":"町田市本町田3486藤の第団地1-50-109","lat":35.569607,"lon":139.44574},{"name":"南大谷あんしん相談室","province":"東京都","city":"町田市","address":"町田市南大谷205-1-2","lat":35.554821,"lon":139.456757},{"name":"小川あんしん相談室","province":"東京都","city":"町田市","address":"町田市小川6-1-11","lat":35.522091,"lon":139.471252},{"name":"金森あんしん相談室","province":"東京都","city":"町田市","address":"町田市金森東4-2-2523号室","lat":35.533897,"lon":139.461243},{"name":"成瀬あんしん相談室","province":"東京都","city":"町田市","address":"町田市西成瀬2-48-23","lat":35.543419,"lon":139.471664},{"name":"医療と介護の連携支援センター","province":"東京都","city":"町田市","address":"町田市木曽西4-12-22KISOコミュニティベース1F","lat":35.566994,"lon":139.413712},{"name":"町田市高齢者福祉課","province":"東京都","city":"町田市","address":"町田市森野2-2-22","lat":35.547039,"lon":139.438141},{"name":"堺第1高齢者支援センター","province":"東京都","city":"町田市","address":"町田市相原町2373-1(老人保健施設サンシルバー町田内)","lat":35.612473,"lon":139.312881},{"name":"堺第2高齢者支援センター","province":"東京都","city":"町田市","address":"町田市小山ヶ丘1-2-(特別養護老人ホーム美郷内)","lat":35.595638,"lon":139.386398},{"name":"忠生第1高齢者支援センター","province":"東京都","city":"町田市","address":"町田市下小山田町3580ふれあい桜館1階","lat":35.587135,"lon":139.408478},{"name":"忠生第2高齢者支援センター","province":"東京都","city":"町田市","address":"町田市山崎町2200(福音会木曽山崎事業所内)","lat":35.572918,"lon":139.43161},{"name":"鶴川第1高齢者支援センター","province":"東京都","city":"町田市","address":"町田市薬師台3-270-1(特別養護老人ホーム第二清風園内)","lat":35.583256,"lon":139.49028},{"name":"鶴川第2高齢者支援センター","province":"東京都","city":"町田市","address":"町田市能ヶ谷3-2-1鶴川地域コミュニティ1階","lat":33.443153,"lon":129.96727},{"name":"町田第1高齢者支援センター","province":"東京都","city":"町田市","address":"町田市森野4-8-39(特別養護老人ホームコモンズ内)","lat":35.554134,"lon":139.433395},{"name":"町田第2高齢者支援センター","province":"東京都","city":"町田市","address":"町田市本町田2102-1(本町田高齢者在宅サービスセンター内)","lat":35.559875,"lon":139.437897},{"name":"町田第3高齢者支援センター","province":"東京都","city":"町田市","address":"町田市玉川学園3-35-1(玉川学園高齢者在宅サービスセンター内)","lat":35.56337,"lon":139.458298},{"name":"南第1高齢者支援センター","province":"東京都","city":"町田市","address":"町田市南町田5-16-1(特別養護老人ホーム芙蓉園内)","lat":35.514652,"lon":139.47113},{"name":"南第2高齢者支援センター","province":"東京都","city":"町田市","address":"町田市金森東3-18-16(特別養護老人ホーム合掌苑桂寮内)","lat":35.531769,"lon":139.466049},{"name":"南第3高齢者支援センター","province":"東京都","city":"町田市","address":"町田市西成瀬2-48-23","lat":35.543419,"lon":139.471664},{"name":"相原あんしん相談室","province":"東京都","city":"町田市","address":"町田市相原町1158-26","lat":35.607006,"lon":139.331741},{"name":"小山あんしん相談室","province":"東京都","city":"町田市","address":"町田市小山町2619","lat":35.598221,"lon":139.36644},{"name":"忠生あんしん相談室","province":"東京都","city":"町田市","address":"町田市忠生3-1-34もりやハイツ2101号室","lat":35.571674,"lon":139.421463},{"name":"木曽山崎あんしん相談室","province":"東京都","city":"町田市","address":"町田市山崎町2200","lat":35.572918,"lon":139.43161},{"name":"野津田あんしん相談室","province":"東京都","city":"町田市","address":"町田市野津田町831-1","lat":35.588425,"lon":139.450272},{"name":"鶴川あんしん相談室","province":"東京都","city":"町田市","address":"町田市鶴川6-7-2-103号室","lat":35.587303,"lon":139.473465},{"name":"原町田あんしん相談室","province":"東京都","city":"町田市","address":"町田市原町田4-24-6せりがや会館1階","lat":35.544724,"lon":139.453049},{"name":"本町田あんしん相談室","province":"東京都","city":"町田市","address":"町田市本町田3486藤の第団地1-50-109","lat":35.569607,"lon":139.44574},{"name":"南大谷あんしん相談室","province":"東京都","city":"町田市","address":"町田市南大谷205-1-2","lat":35.554821,"lon":139.456757},{"name":"小川あんしん相談室","province":"東京都","city":"町田市","address":"町田市小川6-1-11","lat":35.522091,"lon":139.471252},{"name":"金森あんしん相談室","province":"東京都","city":"町田市","address":"町田市金森東4-2-2523号室","lat":35.533897,"lon":139.461243},{"name":"成瀬あんしん相談室","province":"東京都","city":"町田市","address":"町田市西成瀬2-48-23","lat":35.543419,"lon":139.471664},{"name":"医療と介護の連携支援センター","province":"東京都","city":"町田市","address":"町田市木曽西4-12-22KISOコミュニティベース1F","lat":35.566994,"lon":139.413712},{"name":"町田市高齢者福祉課","province":"東京都","city":"町田市","address":"町田市森野2-2-22","lat":35.547039,"lon":139.438141},{"name":"堺第1高齢者支援センター","province":"東京都","city":"町田市","address":"町田市相原町2373-1(老人保健施設サンシルバー町田内)","lat":35.612473,"lon":139.312881},{"name":"堺第2高齢者支援センター","province":"東京都","city":"町田市","address":"町田市小山ヶ丘1-2-(特別養護老人ホーム美郷内)","lat":35.595638,"lon":139.386398},{"name":"忠生第1高齢者支援センター","province":"東京都","city":"町田市","address":"町田市下小山田町3580ふれあい桜館1階","lat":35.587135,"lon":139.408478},{"name":"忠生第2高齢者支援センター","province":"東京都","city":"町田市","address":"町田市山崎町2200(福音会木曽山崎事業所内)","lat":35.572918,"lon":139.43161},{"name":"鶴川第1高齢者支援センター","province":"東京都","city":"町田市","address":"町田市薬師台3-270-1(特別養護老人ホーム第二清風園内)","lat":35.583256,"lon":139.49028},{"name":"鶴川第2高齢者支援センター","province":"東京都","city":"町田市","address":"町田市能ヶ谷3-2-1鶴川地域コミュニティ1階","lat":33.443153,"lon":129.96727},{"name":"町田第1高齢者支援センター","province":"東京都","city":"町田市","address":"町田市森野4-8-39(特別養護老人ホームコモンズ内)","lat":35.554134,"lon":139.433395},{"name":"町田第2高齢者支援センター","province":"東京都","city":"町田市","address":"町田市本町田2102-1(本町田高齢者在宅サービスセンター内)","lat":35.559875,"lon":139.437897},{"name":"町田第3高齢者支援センター","province":"東京都","city":"町田市","address":"町田市玉川学園3-35-1(玉川学園高齢者在宅サービスセンター内)","lat":35.56337,"lon":139.458298},{"name":"南第1高齢者支援センター","province":"東京都","city":"町田市","address":"町田市南町田5-16-1(特別養護老人ホーム芙蓉園内)","lat":35.514652,"lon":139.47113},{"name":"南第2高齢者支援センター","province":"東京都","city":"町田市","address":"町田市金森東3-18-16(特別養護老人ホーム合掌苑桂寮内)","lat":35.531769,"lon":139.466049},{"name":"南第3高齢者支援センター","province":"東京都","city":"町田市","address":"町田市西成瀬2-48-23","lat":35.543419,"lon":139.471664},{"name":"相原あんしん相談室","province":"東京都","city":"町田市","address":"町田市相原町1158-26","lat":35.607006,"lon":139.331741},{"name":"小山あんしん相談室","province":"東京都","city":"町田市","address":"町田市小山町2619","lat":35.598221,"lon":139.36644},{"name":"忠生あんしん相談室","province":"東京都","city":"町田市","address":"町田市忠生3-1-34もりやハイツ2101号室","lat":35.571674,"lon":139.421463},{"name":"木曽山崎あんしん相談室","province":"東京都","city":"町田市","address":"町田市山崎町2200","lat":35.572918,"lon":139.43161},{"name":"野津田あんしん相談室","province":"東京都","city":"町田市","address":"町田市野津田町831-1","lat":35.588425,"lon":139.450272},{"name":"鶴川あんしん相談室","province":"東京都","city":"町田市","address":"町田市鶴川6-7-2-103号室","lat":35.587303,"lon":139.473465},{"name":"原町田あんしん相談室","province":"東京都","city":"町田市","address":"町田市原町田4-24-6せりがや会館1階","lat":35.544724,"lon":139.453049},{"name":"本町田あんしん相談室","province":"東京都","city":"町田市","address":"町田市本町田3486藤の第団地1-50-109","lat":35.569607,"lon":139.44574},{"name":"南大谷あんしん相談室","province":"東京都","city":"町田市","address":"町田市南大谷205-1-2","lat":35.554821,"lon":139.456757},{"name":"小川あんしん相談室","province":"東京都","city":"町田市","address":"町田市小川6-1-11","lat":35.522091,"lon":139.471252},{"name":"金森あんしん相談室","province":"東京都","city":"町田市","address":"町田市金森東4-2-2523号室","lat":35.533897,"lon":139.461243},{"name":"成瀬あんしん相談室","province":"東京都","city":"町田市","address":"町田市西成瀬2-48-23","lat":35.543419,"lon":139.471664},{"name":"医療と介護の連携支援センター","province":"東京都","city":"町田市","address":"町田市木曽西4-12-22KISOコミュニティベース1F","lat":35.566994,"lon":139.413712},{"name":"町田市高齢者福祉課","province":"東京都","city":"町田市","address":"町田市森野2-2-22","lat":35.547039,"lon":139.438141},{"name":"堺第1高齢者支援センター","province":"東京都","city":"町田市","address":"町田市相原町2373-1(老人保健施設サンシルバー町田内)","lat":35.612473,"lon":139.312881},{"name":"堺第2高齢者支援センター","province":"東京都","city":"町田市","address":"町田市小山ヶ丘1-2-(特別養護老人ホーム美郷内)","lat":35.595638,"lon":139.386398},{"name":"忠生第1高齢者支援センター","province":"東京都","city":"町田市","address":"町田市下小山田町3580ふれあい桜館1階","lat":35.587135,"lon":139.408478},{"name":"忠生第2高齢者支援センター","province":"東京都","city":"町田市","address":"町田市山崎町2200(福音会木曽山崎事業所内)","lat":35.572918,"lon":139.43161},{"name":"鶴川第1高齢者支援センター","province":"東京都","city":"町田市","address":"町田市薬師台3-270-1(特別養護老人ホーム第二清風園内)","lat":35.583256,"lon":139.49028},{"name":"鶴川第2高齢者支援センター","province":"東京都","city":"町田市","address":"町田市能ヶ谷3-2-1鶴川地域コミュニティ1階","lat":33.443153,"lon":129.96727},{"name":"町田第1高齢者支援センター","province":"東京都","city":"町田市","address":"町田市森野4-8-39(特別養護老人ホームコモンズ内)","lat":35.554134,"lon":139.433395},{"name":"町田第2高齢者支援センター","province":"東京都","city":"町田市","address":"町田市本町田2102-1(本町田高齢者在宅サービスセンター内)","lat":35.559875,"lon":139.437897},{"name":"町田第3高齢者支援センター","province":"東京都","city":"町田市","address":"町田市玉川学園3-35-1(玉川学園高齢者在宅サービスセンター内)","lat":35.56337,"lon":139.458298},{"name":"南第1高齢者支援センター","province":"東京都","city":"町田市","address":"町田市南町田5-16-1(特別養護老人ホーム芙蓉園内)","lat":35.514652,"lon":139.47113},{"name":"南第2高齢者支援センター","province":"東京都","city":"町田市","address":"町田市金森東3-18-16(特別養護老人ホーム合掌苑桂寮内)","lat":35.531769,"lon":139.466049},{"name":"南第3高齢者支援センター","province":"東京都","city":"町田市","address":"町田市西成瀬2-48-23","lat":35.543419,"lon":139.471664},{"name":"相原あんしん相談室","province":"東京都","city":"町田市","address":"町田市相原町1158-26","lat":35.607006,"lon":139.331741},{"name":"小山あんしん相談室","province":"東京都","city":"町田市","address":"町田市小山町2619","lat":35.598221,"lon":139.36644},{"name":"忠生あんしん相談室","province":"東京都","city":"町田市","address":"町田市忠生3-1-34もりやハイツ2101号室","lat":35.571674,"lon":139.421463},{"name":"木曽山崎あんしん相談室","province":"東京都","city":"町田市","address":"町田市山崎町2200","lat":35.572918,"lon":139.43161},{"name":"野津田あんしん相談室","province":"東京都","city":"町田市","address":"町田市野津田町831-1","lat":35.588425,"lon":139.450272},{"name":"鶴川あんしん相談室","province":"東京都","city":"町田市","address":"町田市鶴川6-7-2-103号室","lat":35.587303,"lon":139.473465},{"name":"原町田あんしん相談室","province":"東京都","city":"町田市","address":"町田市原町田4-24-6せりがや会館1階","lat":35.544724,"lon":139.453049},{"name":"本町田あんしん相談室","province":"東京都","city":"町田市","address":"町田市本町田3486藤の第団地1-50-109","lat":35.569607,"lon":139.44574},{"name":"南大谷あんしん相談室","province":"東京都","city":"町田市","address":"町田市南大谷205-1-2","lat":35.554821,"lon":139.456757},{"name":"小川あんしん相談室","province":"東京都","city":"町田市","address":"町田市小川6-1-11","lat":35.522091,"lon":139.471252},{"name":"金森あんしん相談室","province":"東京都","city":"町田市","address":"町田市金森東4-2-2523号室","lat":35.533897,"lon":139.461243},{"name":"成瀬あんしん相談室","province":"東京都","city":"町田市","address":"町田市西成瀬2-48-23","lat":35.543419,"lon":139.471664},{"name":"医療と介護の連携支援センター","province":"東京都","city":"町田市","address":"町田市木曽西4-12-22KISOコミュニティベース1F","lat":35.566994,"lon":139.413712},{"name":"町田市高齢者福祉課","province":"東京都","city":"町田市","address":"町田市森野2-2-22","lat":35.547039,"lon":139.438141},{"name":"堺第1高齢者支援センター","province":"東京都","city":"町田市","address":"町田市相原町2373-1(老人保健施設サンシルバー町田内)","lat":35.612473,"lon":139.312881},{"name":"堺第2高齢者支援センター","province":"東京都","city":"町田市","address":"町田市小山ヶ丘1-2-(特別養護老人ホーム美郷内)","lat":35.595638,"lon":139.386398},{"name":"忠生第1高齢者支援センター","province":"東京都","city":"町田市","address":"町田市下小山田町3580ふれあい桜館1階","lat":35.587135,"lon":139.408478},{"name":"忠生第2高齢者支援センター","province":"東京都","city":"町田市","address":"町田市山崎町2200(福音会木曽山崎事業所内)","lat":35.572918,"lon":139.43161},{"name":"鶴川第1高齢者支援センター","province":"東京都","city":"町田市","address":"町田市薬師台3-270-1(特別養護老人ホーム第二清風園内)","lat":35.583256,"lon":139.49028},{"name":"鶴川第2高齢者支援センター","province":"東京都","city":"町田市","address":"町田市能ヶ谷3-2-1鶴川地域コミュニティ1階","lat":33.443153,"lon":129.96727},{"name":"町田第1高齢者支援センター","province":"東京都","city":"町田市","address":"町田市森野4-8-39(特別養護老人ホームコモンズ内)","lat":35.554134,"lon":139.433395},{"name":"町田第2高齢者支援センター","province":"東京都","city":"町田市","address":"町田市本町田2102-1(本町田高齢者在宅サービスセンター内)","lat":35.559875,"lon":139.437897},{"name":"町田第3高齢者支援センター","province":"東京都","city":"町田市","address":"町田市玉川学園3-35-1(玉川学園高齢者在宅サービスセンター内)","lat":35.56337,"lon":139.458298},{"name":"南第1高齢者支援センター","province":"東京都","city":"町田市","address":"町田市南町田5-16-1(特別養護老人ホーム芙蓉園内)","lat":35.514652,"lon":139.47113},{"name":"南第2高齢者支援センター","province":"東京都","city":"町田市","address":"町田市金森東3-18-16(特別養護老人ホーム合掌苑桂寮内)","lat":35.531769,"lon":139.466049},{"name":"南第3高齢者支援センター","province":"東京都","city":"町田市","address":"町田市西成瀬2-48-23","lat":35.543419,"lon":139.471664},{"name":"相原あんしん相談室","province":"東京都","city":"町田市","address":"町田市相原町1158-26","lat":35.607006,"lon":139.331741},{"name":"小山あんしん相談室","province":"東京都","city":"町田市","address":"町田市小山町2619","lat":35.598221,"lon":139.36644},{"name":"忠生あんしん相談室","province":"東京都","city":"町田市","address":"町田市忠生3-1-34もりやハイツ2101号室","lat":35.571674,"lon":139.421463},{"name":"木曽山崎あんしん相談室","province":"東京都","city":"町田市","address":"町田市山崎町2200","lat":35.572918,"lon":139.43161},{"name":"野津田あんしん相談室","province":"東京都","city":"町田市","address":"町田市野津田町831-1","lat":35.588425,"lon":139.450272},{"name":"鶴川あんしん相談室","province":"東京都","city":"町田市","address":"町田市鶴川6-7-2-103号室","lat":35.587303,"lon":139.473465},{"name":"原町田あんしん相談室","province":"東京都","city":"町田市","address":"町田市原町田4-24-6せりがや会館1階","lat":35.544724,"lon":139.453049},{"name":"本町田あんしん相談室","province":"東京都","city":"町田市","address":"町田市本町田3486藤の第団地1-50-109","lat":35.569607,"lon":139.44574},{"name":"南大谷あんしん相談室","province":"東京都","city":"町田市","address":"町田市南大谷205-1-2","lat":35.554821,"lon":139.456757},{"name":"小川あんしん相談室","province":"東京都","city":"町田市","address":"町田市小川6-1-11","lat":35.522091,"lon":139.471252},{"name":"金森あんしん相談室","province":"東京都","city":"町田市","address":"町田市金森東4-2-2523号室","lat":35.533897,"lon":139.461243},{"name":"成瀬あんしん相談室","province":"東京都","city":"町田市","address":"町田市西成瀬2-48-23","lat":35.543419,"lon":139.471664},{"name":"医療と介護の連携支援センター","province":"東京都","city":"町田市","address":"町田市木曽西4-12-22KISOコミュニティベース1F","lat":35.566994,"lon":139.413712},{"name":"町田市高齢者福祉課","province":"東京都","city":"町田市","address":"町田市森野2-2-22","lat":35.547039,"lon":139.438141},{"name":"堺第1高齢者支援センター","province":"東京都","city":"町田市","address":"町田市相原町2373-1(老人保健施設サンシルバー町田内)","lat":35.612473,"lon":139.312881},{"name":"堺第2高齢者支援センター","province":"東京都","city":"町田市","address":"町田市小山ヶ丘1-2-(特別養護老人ホーム美郷内)","lat":35.595638,"lon":139.386398},{"name":"忠生第1高齢者支援センター","province":"東京都","city":"町田市","address":"町田市下小山田町3580ふれあい桜館1階","lat":35.587135,"lon":139.408478},{"name":"忠生第2高齢者支援センター","province":"東京都","city":"町田市","address":"町田市山崎町2200(福音会木曽山崎事業所内)","lat":35.572918,"lon":139.43161},{"name":"鶴川第1高齢者支援センター","province":"東京都","city":"町田市","address":"町田市薬師台3-270-1(特別養護老人ホーム第二清風園内)","lat":35.583256,"lon":139.49028},{"name":"鶴川第2高齢者支援センター","province":"東京都","city":"町田市","address":"町田市能ヶ谷3-2-1鶴川地域コミュニティ1階","lat":33.443153,"lon":129.96727},{"name":"町田第1高齢者支援センター","province":"東京都","city":"町田市","address":"町田市森野4-8-39(特別養護老人ホームコモンズ内)","lat":35.554134,"lon":139.433395},{"name":"町田第2高齢者支援センター","province":"東京都","city":"町田市","address":"町田市本町田2102-1(本町田高齢者在宅サービスセンター内)","lat":35.559875,"lon":139.437897},{"name":"町田第3高齢者支援センター","province":"東京都","city":"町田市","address":"町田市玉川学園3-35-1(玉川学園高齢者在宅サービスセンター内)","lat":35.56337,"lon":139.458298},{"name":"南第1高齢者支援センター","province":"東京都","city":"町田市","address":"町田市南町田5-16-1(特別養護老人ホーム芙蓉園内)","lat":35.514652,"lon":139.47113},{"name":"南第2高齢者支援センター","province":"東京都","city":"町田市","address":"町田市金森東3-18-16(特別養護老人ホーム合掌苑桂寮内)","lat":35.531769,"lon":139.466049},{"name":"南第3高齢者支援センター","province":"東京都","city":"町田市","address":"町田市西成瀬2-48-23","lat":35.543419,"lon":139.471664},{"name":"相原あんしん相談室","province":"東京都","city":"町田市","address":"町田市相原町1158-26","lat":35.607006,"lon":139.331741},{"name":"小山あんしん相談室","province":"東京都","city":"町田市","address":"町田市小山町2619","lat":35.598221,"lon":139.36644},{"name":"忠生あんしん相談室","province":"東京都","city":"町田市","address":"町田市忠生3-1-34もりやハイツ2101号室","lat":35.571674,"lon":139.421463},{"name":"木曽山崎あんしん相談室","province":"東京都","city":"町田市","address":"町田市山崎町2200","lat":35.572918,"lon":139.43161},{"name":"野津田あんしん相談室","province":"東京都","city":"町田市","address":"町田市野津田町831-1","lat":35.588425,"lon":139.450272},{"name":"鶴川あんしん相談室","province":"東京都","city":"町田市","address":"町田市鶴川6-7-2-103号室","lat":35.587303,"lon":139.473465},{"name":"原町田あんしん相談室","province":"東京都","city":"町田市","address":"町田市原町田4-24-6せりがや会館1階","lat":35.544724,"lon":139.453049},{"name":"本町田あんしん相談室","province":"東京都","city":"町田市","address":"町田市本町田3486藤の第団地1-50-109","lat":35.569607,"lon":139.44574},{"name":"南大谷あんしん相談室","province":"東京都","city":"町田市","address":"町田市南大谷205-1-2","lat":35.554821,"lon":139.456757},{"name":"小川あんしん相談室","province":"東京都","city":"町田市","address":"町田市小川6-1-11","lat":35.522091,"lon":139.471252},{"name":"金森あんしん相談室","province":"東京都","city":"町田市","address":"町田市金森東4-2-2523号室","lat":35.533897,"lon":139.461243},{"name":"成瀬あんしん相談室","province":"東京都","city":"町田市","address":"町田市西成瀬2-48-23","lat":35.543419,"lon":139.471664},{"name":"医療と介護の連携支援センター","province":"東京都","city":"町田市","address":"町田市木曽西4-12-22KISOコミュニティベース1F","lat":35.566994,"lon":139.413712},{"name":"町田市高齢者福祉課","province":"東京都","city":"町田市","address":"町田市森野2-2-22","lat":35.547039,"lon":139.438141},{"name":"堺第1高齢者支援センター","province":"東京都","city":"町田市","address":"町田市相原町2373-1(老人保健施設サンシルバー町田内)","lat":35.612473,"lon":139.312881},{"name":"堺第2高齢者支援センター","province":"東京都","city":"町田市","address":"町田市小山ヶ丘1-2-(特別養護老人ホーム美郷内)","lat":35.595638,"lon":139.386398},{"name":"忠生第1高齢者支援センター","province":"東京都","city":"町田市","address":"町田市下小山田町3580ふれあい桜館1階","lat":35.587135,"lon":139.408478},{"name":"忠生第2高齢者支援センター","province":"東京都","city":"町田市","address":"町田市山崎町2200(福音会木曽山崎事業所内)","lat":35.572918,"lon":139.43161},{"name":"鶴川第1高齢者支援センター","province":"東京都","city":"町田市","address":"町田市薬師台3-270-1(特別養護老人ホーム第二清風園内)","lat":35.583256,"lon":139.49028},{"name":"鶴川第2高齢者支援センター","province":"東京都","city":"町田市","address":"町田市能ヶ谷3-2-1鶴川地域コミュニティ1階","lat":33.443153,"lon":129.96727},{"name":"町田第1高齢者支援センター","province":"東京都","city":"町田市","address":"町田市森野4-8-39(特別養護老人ホームコモンズ内)","lat":35.554134,"lon":139.433395},{"name":"町田第2高齢者支援センター","province":"東京都","city":"町田市","address":"町田市本町田2102-1(本町田高齢者在宅サービスセンター内)","lat":35.559875,"lon":139.437897},{"name":"町田第3高齢者支援センター","province":"東京都","city":"町田市","address":"町田市玉川学園3-35-1(玉川学園高齢者在宅サービスセンター内)","lat":35.56337,"lon":139.458298},{"name":"南第1高齢者支援センター","province":"東京都","city":"町田市","address":"町田市南町田5-16-1(特別養護老人ホーム芙蓉園内)","lat":35.514652,"lon":139.47113},{"name":"南第2高齢者支援センター","province":"東京都","city":"町田市","address":"町田市金森東3-18-16(特別養護老人ホーム合掌苑桂寮内)","lat":35.531769,"lon":139.466049},{"name":"南第3高齢者支援センター","province":"東京都","city":"町田市","address":"町田市西成瀬2-48-23","lat":35.543419,"lon":139.471664},{"name":"相原あんしん相談室","province":"東京都","city":"町田市","address":"町田市相原町1158-26","lat":35.607006,"lon":139.331741},{"name":"小山あんしん相談室","province":"東京都","city":"町田市","address":"町田市小山町2619","lat":35.598221,"lon":139.36644},{"name":"忠生あんしん相談室","province":"東京都","city":"町田市","address":"町田市忠生3-1-34もりやハイツ2101号室","lat":35.571674,"lon":139.421463},{"name":"木曽山崎あんしん相談室","province":"東京都","city":"町田市","address":"町田市山崎町2200","lat":35.572918,"lon":139.43161},{"name":"野津田あんしん相談室","province":"東京都","city":"町田市","address":"町田市野津田町831-1","lat":35.588425,"lon":139.450272},{"name":"鶴川あんしん相談室","province":"東京都","city":"町田市","address":"町田市鶴川6-7-2-103号室","lat":35.587303,"lon":139.473465},{"name":"原町田あんしん相談室","province":"東京都","city":"町田市","address":"町田市原町田4-24-6せりがや会館1階","lat":35.544724,"lon":139.453049},{"name":"本町田あんしん相談室","province":"東京都","city":"町田市","address":"町田市本町田3486藤の第団地1-50-109","lat":35.569607,"lon":139.44574},{"name":"南大谷あんしん相談室","province":"東京都","city":"町田市","address":"町田市南大谷205-1-2","lat":35.554821,"lon":139.456757},{"name":"小川あんしん相談室","province":"東京都","city":"町田市","address":"町田市小川6-1-11","lat":35.522091,"lon":139.471252},{"name":"金森あんしん相談室","province":"東京都","city":"町田市","address":"町田市金森東4-2-2523号室","lat":35.533897,"lon":139.461243},{"name":"成瀬あんしん相談室","province":"東京都","city":"町田市","address":"町田市西成瀬2-48-23","lat":35.543419,"lon":139.471664},{"name":"医療と介護の連携支援センター","province":"東京都","city":"町田市","address":"町田市木曽西4-12-22KISOコミュニティベース1F","lat":35.566994,"lon":139.413712},{"name":"町田市高齢者福祉課","province":"東京都","city":"町田市","address":"町田市森野2-2-22","lat":35.547039,"lon":139.438141},{"name":"堺第1高齢者支援センター","province":"東京都","city":"町田市","address":"町田市相原町2373-1(老人保健施設サンシルバー町田内)","lat":35.612473,"lon":139.312881},{"name":"堺第2高齢者支援センター","province":"東京都","city":"町田市","address":"町田市小山ヶ丘1-2-(特別養護老人ホーム美郷内)","lat":35.595638,"lon":139.386398},{"name":"忠生第1高齢者支援センター","province":"東京都","city":"町田市","address":"町田市下小山田町3580ふれあい桜館1階","lat":35.587135,"lon":139.408478},{"name":"忠生第2高齢者支援センター","province":"東京都","city":"町田市","address":"町田市山崎町2200(福音会木曽山崎事業所内)","lat":35.572918,"lon":139.43161},{"name":"鶴川第1高齢者支援センター","province":"東京都","city":"町田市","address":"町田市薬師台3-270-1(特別養護老人ホーム第二清風園内)","lat":35.583256,"lon":139.49028},{"name":"鶴川第2高齢者支援センター","province":"東京都","city":"町田市","address":"町田市能ヶ谷3-2-1鶴川地域コミュニティ1階","lat":33.443153,"lon":129.96727},{"name":"町田第1高齢者支援センター","province":"東京都","city":"町田市","address":"町田市森野4-8-39(特別養護老人ホームコモンズ内)","lat":35.554134,"lon":139.433395},{"name":"町田第2高齢者支援センター","province":"東京都","city":"町田市","address":"町田市本町田2102-1(本町田高齢者在宅サービスセンター内)","lat":35.559875,"lon":139.437897},{"name":"町田第3高齢者支援センター","province":"東京都","city":"町田市","address":"町田市玉川学園3-35-1(玉川学園高齢者在宅サービスセンター内)","lat":35.56337,"lon":139.458298},{"name":"南第1高齢者支援センター","province":"東京都","city":"町田市","address":"町田市南町田5-16-1(特別養護老人ホーム芙蓉園内)","lat":35.514652,"lon":139.47113},{"name":"南第2高齢者支援センター","province":"東京都","city":"町田市","address":"町田市金森東3-18-16(特別養護老人ホーム合掌苑桂寮内)","lat":35.531769,"lon":139.466049},{"name":"南第3高齢者支援センター","province":"東京都","city":"町田市","address":"町田市西成瀬2-48-23","lat":35.543419,"lon":139.471664},{"name":"相原あんしん相談室","province":"東京都","city":"町田市","address":"町田市相原町1158-26","lat":35.607006,"lon":139.331741},{"name":"小山あんしん相談室","province":"東京都","city":"町田市","address":"町田市小山町2619","lat":35.598221,"lon":139.36644},{"name":"忠生あんしん相談室","province":"東京都","city":"町田市","address":"町田市忠生3-1-34もりやハイツ2101号室","lat":35.571674,"lon":139.421463},{"name":"木曽山崎あんしん相談室","province":"東京都","city":"町田市","address":"町田市山崎町2200","lat":35.572918,"lon":139.43161},{"name":"野津田あんしん相談室","province":"東京都","city":"町田市","address":"町田市野津田町831-1","lat":35.588425,"lon":139.450272},{"name":"鶴川あんしん相談室","province":"東京都","city":"町田市","address":"町田市鶴川6-7-2-103号室","lat":35.587303,"lon":139.473465},{"name":"原町田あんしん相談室","province":"東京都","city":"町田市","address":"町田市原町田4-24-6せりがや会館1階","lat":35.544724,"lon":139.453049},{"name":"本町田あんしん相談室","province":"東京都","city":"町田市","address":"町田市本町田3486藤の第団地1-50-109","lat":35.569607,"lon":139.44574},{"name":"南大谷あんしん相談室","province":"東京都","city":"町田市","address":"町田市南大谷205-1-2","lat":35.554821,"lon":139.456757},{"name":"小川あんしん相談室","province":"東京都","city":"町田市","address":"町田市小川6-1-11","lat":35.522091,"lon":139.471252},{"name":"金森あんしん相談室","province":"東京都","city":"町田市","address":"町田市金森東4-2-2523号室","lat":35.533897,"lon":139.461243},{"name":"成瀬あんしん相談室","province":"東京都","city":"町田市","address":"町田市西成瀬2-48-23","lat":35.543419,"lon":139.471664},{"name":"医療と介護の連携支援センター","province":"東京都","city":"町田市","address":"町田市木曽西4-12-22KISOコミュニティベース1F","lat":35.566994,"lon":139.413712},{"name":"町田市高齢者福祉課","province":"東京都","city":"町田市","address":"町田市森野2-2-22","lat":35.547039,"lon":139.438141},{"name":"堺第1高齢者支援センター","province":"東京都","city":"町田市","address":"町田市相原町2373-1(老人保健施設サンシルバー町田内)","lat":35.612473,"lon":139.312881},{"name":"堺第2高齢者支援センター","province":"東京都","city":"町田市","address":"町田市小山ヶ丘1-2-(特別養護老人ホーム美郷内)","lat":35.595638,"lon":139.386398},{"name":"忠生第1高齢者支援センター","province":"東京都","city":"町田市","address":"町田市下小山田町3580ふれあい桜館1階","lat":35.587135,"lon":139.408478},{"name":"忠生第2高齢者支援センター","province":"東京都","city":"町田市","address":"町田市山崎町2200(福音会木曽山崎事業所内)","lat":35.572918,"lon":139.43161},{"name":"鶴川第1高齢者支援センター","province":"東京都","city":"町田市","address":"町田市薬師台3-270-1(特別養護老人ホーム第二清風園内)","lat":35.583256,"lon":139.49028},{"name":"鶴川第2高齢者支援センター","province":"東京都","city":"町田市","address":"町田市能ヶ谷3-2-1鶴川地域コミュニティ1階","lat":33.443153,"lon":129.96727},{"name":"町田第1高齢者支援センター","province":"東京都","city":"町田市","address":"町田市森野4-8-39(特別養護老人ホームコモンズ内)","lat":35.554134,"lon":139.433395},{"name":"町田第2高齢者支援センター","province":"東京都","city":"町田市","address":"町田市本町田2102-1(本町田高齢者在宅サービスセンター内)","lat":35.559875,"lon":139.437897},{"name":"町田第3高齢者支援センター","province":"東京都","city":"町田市","address":"町田市玉川学園3-35-1(玉川学園高齢者在宅サービスセンター内)","lat":35.56337,"lon":139.458298},{"name":"南第1高齢者支援センター","province":"東京都","city":"町田市","address":"町田市南町田5-16-1(特別養護老人ホーム芙蓉園内)","lat":35.514652,"lon":139.47113},{"name":"南第2高齢者支援センター","province":"東京都","city":"町田市","address":"町田市金森東3-18-16(特別養護老人ホーム合掌苑桂寮内)","lat":35.531769,"lon":139.466049},{"name":"南第3高齢者支援センター","province":"東京都","city":"町田市","address":"町田市西成瀬2-48-23","lat":35.543419,"lon":139.471664},{"name":"相原あんしん相談室","province":"東京都","city":"町田市","address":"町田市相原町1158-26","lat":35.607006,"lon":139.331741},{"name":"小山あんしん相談室","province":"東京都","city":"町田市","address":"町田市小山町2619","lat":35.598221,"lon":139.36644},{"name":"忠生あんしん相談室","province":"東京都","city":"町田市","address":"町田市忠生3-1-34もりやハイツ2101号室","lat":35.571674,"lon":139.421463},{"name":"木曽山崎あんしん相談室","province":"東京都","city":"町田市","address":"町田市山崎町2200","lat":35.572918,"lon":139.43161},{"name":"野津田あんしん相談室","province":"東京都","city":"町田市","address":"町田市野津田町831-1","lat":35.588425,"lon":139.450272},{"name":"鶴川あんしん相談室","province":"東京都","city":"町田市","address":"町田市鶴川6-7-2-103号室","lat":35.587303,"lon":139.473465},{"name":"原町田あんしん相談室","province":"東京都","city":"町田市","address":"町田市原町田4-24-6せりがや会館1階","lat":35.544724,"lon":139.453049},{"name":"本町田あんしん相談室","province":"東京都","city":"町田市","address":"町田市本町田3486藤の第団地1-50-109","lat":35.569607,"lon":139.44574},{"name":"南大谷あんしん相談室","province":"東京都","city":"町田市","address":"町田市南大谷205-1-2","lat":35.554821,"lon":139.456757},{"name":"小川あんしん相談室","province":"東京都","city":"町田市","address":"町田市小川6-1-11","lat":35.522091,"lon":139.471252},{"name":"金森あんしん相談室","province":"東京都","city":"町田市","address":"町田市金森東4-2-2523号室","lat":35.533897,"lon":139.461243},{"name":"成瀬あんしん相談室","province":"東京都","city":"町田市","address":"町田市西成瀬2-48-23","lat":35.543419,"lon":139.471664},{"name":"医療と介護の連携支援センター","province":"東京都","city":"町田市","address":"町田市木曽西4-12-22KISOコミュニティベース1F","lat":35.566994,"lon":139.413712},{"name":"町田市高齢者福祉課","province":"東京都","city":"町田市","address":"町田市森野2-2-22","lat":35.547039,"lon":139.438141},{"name":"堺第1高齢者支援センター","province":"東京都","city":"町田市","address":"町田市相原町2373-1(老人保健施設サンシルバー町田内)","lat":35.612473,"lon":139.312881},{"name":"堺第2高齢者支援センター","province":"東京都","city":"町田市","address":"町田市小山ヶ丘1-2-(特別養護老人ホーム美郷内)","lat":35.595638,"lon":139.386398},{"name":"忠生第1高齢者支援センター","province":"東京都","city":"町田市","address":"町田市下小山田町3580ふれあい桜館1階","lat":35.587135,"lon":139.408478},{"name":"忠生第2高齢者支援センター","province":"東京都","city":"町田市","address":"町田市山崎町2200(福音会木曽山崎事業所内)","lat":35.572918,"lon":139.43161},{"name":"鶴川第1高齢者支援センター","province":"東京都","city":"町田市","address":"町田市薬師台3-270-1(特別養護老人ホーム第二清風園内)","lat":35.583256,"lon":139.49028},{"name":"鶴川第2高齢者支援センター","province":"東京都","city":"町田市","address":"町田市能ヶ谷3-2-1鶴川地域コミュニティ1階","lat":33.443153,"lon":129.96727},{"name":"町田第1高齢者支援センター","province":"東京都","city":"町田市","address":"町田市森野4-8-39(特別養護老人ホームコモンズ内)","lat":35.554134,"lon":139.433395},{"name":"町田第2高齢者支援センター","province":"東京都","city":"町田市","address":"町田市本町田2102-1(本町田高齢者在宅サービスセンター内)","lat":35.559875,"lon":139.437897},{"name":"町田第3高齢者支援センター","province":"東京都","city":"町田市","address":"町田市玉川学園3-35-1(玉川学園高齢者在宅サービスセンター内)","lat":35.56337,"lon":139.458298},{"name":"南第1高齢者支援センター","province":"東京都","city":"町田市","address":"町田市南町田5-16-1(特別養護老人ホーム芙蓉園内)","lat":35.514652,"lon":139.47113},{"name":"南第2高齢者支援センター","province":"東京都","city":"町田市","address":"町田市金森東3-18-16(特別養護老人ホーム合掌苑桂寮内)","lat":35.531769,"lon":139.466049},{"name":"南第3高齢者支援センター","province":"東京都","city":"町田市","address":"町田市西成瀬2-48-23","lat":35.543419,"lon":139.471664},{"name":"相原あんしん相談室","province":"東京都","city":"町田市","address":"町田市相原町1158-26","lat":35.607006,"lon":139.331741},{"name":"小山あんしん相談室","province":"東京都","city":"町田市","address":"町田市小山町2619","lat":35.598221,"lon":139.36644},{"name":"忠生あんしん相談室","province":"東京都","city":"町田市","address":"町田市忠生3-1-34もりやハイツ2101号室","lat":35.571674,"lon":139.421463},{"name":"木曽山崎あんしん相談室","province":"東京都","city":"町田市","address":"町田市山崎町2200","lat":35.572918,"lon":139.43161},{"name":"野津田あんしん相談室","province":"東京都","city":"町田市","address":"町田市野津田町831-1","lat":35.588425,"lon":139.450272},{"name":"鶴川あんしん相談室","province":"東京都","city":"町田市","address":"町田市鶴川6-7-2-103号室","lat":35.587303,"lon":139.473465},{"name":"原町田あんしん相談室","province":"東京都","city":"町田市","address":"町田市原町田4-24-6せりがや会館1階","lat":35.544724,"lon":139.453049},{"name":"本町田あんしん相談室","province":"東京都","city":"町田市","address":"町田市本町田3486藤の第団地1-50-109","lat":35.569607,"lon":139.44574},{"name":"南大谷あんしん相談室","province":"東京都","city":"町田市","address":"町田市南大谷205-1-2","lat":35.554821,"lon":139.456757},{"name":"小川あんしん相談室","province":"東京都","city":"町田市","address":"町田市小川6-1-11","lat":35.522091,"lon":139.471252},{"name":"金森あんしん相談室","province":"東京都","city":"町田市","address":"町田市金森東4-2-2523号室","lat":35.533897,"lon":139.461243},{"name":"成瀬あんしん相談室","province":"東京都","city":"町田市","address":"町田市西成瀬2-48-23","lat":35.543419,"lon":139.471664},{"name":"医療と介護の連携支援センター","province":"東京都","city":"町田市","address":"町田市木曽西4-12-22KISOコミュニティベース1F","lat":35.566994,"lon":139.413712},{"name":"町田市高齢者福祉課","province":"東京都","city":"町田市","address":"町田市森野2-2-22","lat":35.547039,"lon":139.438141},{"name":"堺第1高齢者支援センター","province":"東京都","city":"町田市","address":"町田市相原町2373-1(老人保健施設サンシルバー町田内)","lat":35.612473,"lon":139.312881},{"name":"堺第2高齢者支援センター","province":"東京都","city":"町田市","address":"町田市小山ヶ丘1-2-(特別養護老人ホーム美郷内)","lat":35.595638,"lon":139.386398},{"name":"忠生第1高齢者支援センター","province":"東京都","city":"町田市","address":"町田市下小山田町3580ふれあい桜館1階","lat":35.587135,"lon":139.408478},{"name":"忠生第2高齢者支援センター","province":"東京都","city":"町田市","address":"町田市山崎町2200(福音会木曽山崎事業所内)","lat":35.572918,"lon":139.43161},{"name":"鶴川第1高齢者支援センター","province":"東京都","city":"町田市","address":"町田市薬師台3-270-1(特別養護老人ホーム第二清風園内)","lat":35.583256,"lon":139.49028},{"name":"鶴川第2高齢者支援センター","province":"東京都","city":"町田市","address":"町田市能ヶ谷3-2-1鶴川地域コミュニティ1階","lat":33.443153,"lon":129.96727},{"name":"町田第1高齢者支援センター","province":"東京都","city":"町田市","address":"町田市森野4-8-39(特別養護老人ホームコモンズ内)","lat":35.554134,"lon":139.433395},{"name":"町田第2高齢者支援センター","province":"東京都","city":"町田市","address":"町田市本町田2102-1(本町田高齢者在宅サービスセンター内)","lat":35.559875,"lon":139.437897},{"name":"町田第3高齢者支援センター","province":"東京都","city":"町田市","address":"町田市玉川学園3-35-1(玉川学園高齢者在宅サービスセンター内)","lat":35.56337,"lon":139.458298},{"name":"南第1高齢者支援センター","province":"東京都","city":"町田市","address":"町田市南町田5-16-1(特別養護老人ホーム芙蓉園内)","lat":35.514652,"lon":139.47113},{"name":"南第2高齢者支援センター","province":"東京都","city":"町田市","address":"町田市金森東3-18-16(特別養護老人ホーム合掌苑桂寮内)","lat":35.531769,"lon":139.466049},{"name":"南第3高齢者支援センター","province":"東京都","city":"町田市","address":"町田市西成瀬2-48-23","lat":35.543419,"lon":139.471664},{"name":"相原あんしん相談室","province":"東京都","city":"町田市","address":"町田市相原町1158-26","lat":35.607006,"lon":139.331741},{"name":"小山あんしん相談室","province":"東京都","city":"町田市","address":"町田市小山町2619","lat":35.598221,"lon":139.36644},{"name":"忠生あんしん相談室","province":"東京都","city":"町田市","address":"町田市忠生3-1-34もりやハイツ2101号室","lat":35.571674,"lon":139.421463},{"name":"木曽山崎あんしん相談室","province":"東京都","city":"町田市","address":"町田市山崎町2200","lat":35.572918,"lon":139.43161},{"name":"野津田あんしん相談室","province":"東京都","city":"町田市","address":"町田市野津田町831-1","lat":35.588425,"lon":139.450272},{"name":"鶴川あんしん相談室","province":"東京都","city":"町田市","address":"町田市鶴川6-7-2-103号室","lat":35.587303,"lon":139.473465},{"name":"原町田あんしん相談室","province":"東京都","city":"町田市","address":"町田市原町田4-24-6せりがや会館1階","lat":35.544724,"lon":139.453049},{"name":"本町田あんしん相談室","province":"東京都","city":"町田市","address":"町田市本町田3486藤の第団地1-50-109","lat":35.569607,"lon":139.44574},{"name":"南大谷あんしん相談室","province":"東京都","city":"町田市","address":"町田市南大谷205-1-2","lat":35.554821,"lon":139.456757},{"name":"小川あんしん相談室","province":"東京都","city":"町田市","address":"町田市小川6-1-11","lat":35.522091,"lon":139.471252},{"name":"金森あんしん相談室","province":"東京都","city":"町田市","address":"町田市金森東4-2-2523号室","lat":35.533897,"lon":139.461243},{"name":"成瀬あんしん相談室","province":"東京都","city":"町田市","address":"町田市西成瀬2-48-23","lat":35.543419,"lon":139.471664},{"name":"医療と介護の連携支援センター","province":"東京都","city":"町田市","address":"町田市木曽西4-12-22KISOコミュニティベース1F","lat":35.566994,"lon":139.413712},{"name":"町田市高齢者福祉課","province":"東京都","city":"町田市","address":"町田市森野2-2-22","lat":35.547039,"lon":139.438141},{"name":"堺第1高齢者支援センター","province":"東京都","city":"町田市","address":"町田市相原町2373-1(老人保健施設サンシルバー町田内)","lat":35.612473,"lon":139.312881},{"name":"堺第2高齢者支援センター","province":"東京都","city":"町田市","address":"町田市小山ヶ丘1-2-(特別養護老人ホーム美郷内)","lat":35.595638,"lon":139.386398},{"name":"忠生第1高齢者支援センター","province":"東京都","city":"町田市","address":"町田市下小山田町3580ふれあい桜館1階","lat":35.587135,"lon":139.408478},{"name":"忠生第2高齢者支援センター","province":"東京都","city":"町田市","address":"町田市山崎町2200(福音会木曽山崎事業所内)","lat":35.572918,"lon":139.43161},{"name":"鶴川第1高齢者支援センター","province":"東京都","city":"町田市","address":"町田市薬師台3-270-1(特別養護老人ホーム第二清風園内)","lat":35.583256,"lon":139.49028},{"name":"鶴川第2高齢者支援センター","province":"東京都","city":"町田市","address":"町田市能ヶ谷3-2-1鶴川地域コミュニティ1階","lat":33.443153,"lon":129.96727},{"name":"町田第1高齢者支援センター","province":"東京都","city":"町田市","address":"町田市森野4-8-39(特別養護老人ホームコモンズ内)","lat":35.554134,"lon":139.433395},{"name":"町田第2高齢者支援センター","province":"東京都","city":"町田市","address":"町田市本町田2102-1(本町田高齢者在宅サービスセンター内)","lat":35.559875,"lon":139.437897},{"name":"町田第3高齢者支援センター","province":"東京都","city":"町田市","address":"町田市玉川学園3-35-1(玉川学園高齢者在宅サービスセンター内)","lat":35.56337,"lon":139.458298},{"name":"南第1高齢者支援センター","province":"東京都","city":"町田市","address":"町田市南町田5-16-1(特別養護老人ホーム芙蓉園内)","lat":35.514652,"lon":139.47113},{"name":"南第2高齢者支援センター","province":"東京都","city":"町田市","address":"町田市金森東3-18-16(特別養護老人ホーム合掌苑桂寮内)","lat":35.531769,"lon":139.466049},{"name":"南第3高齢者支援センター","province":"東京都","city":"町田市","address":"町田市西成瀬2-48-23","lat":35.543419,"lon":139.471664},{"name":"相原あんしん相談室","province":"東京都","city":"町田市","address":"町田市相原町1158-26","lat":35.607006,"lon":139.331741},{"name":"小山あんしん相談室","province":"東京都","city":"町田市","address":"町田市小山町2619","lat":35.598221,"lon":139.36644},{"name":"忠生あんしん相談室","province":"東京都","city":"町田市","address":"町田市忠生3-1-34もりやハイツ2101号室","lat":35.571674,"lon":139.421463},{"name":"木曽山崎あんしん相談室","province":"東京都","city":"町田市","address":"町田市山崎町2200","lat":35.572918,"lon":139.43161},{"name":"野津田あんしん相談室","province":"東京都","city":"町田市","address":"町田市野津田町831-1","lat":35.588425,"lon":139.450272},{"name":"鶴川あんしん相談室","province":"東京都","city":"町田市","address":"町田市鶴川6-7-2-103号室","lat":35.587303,"lon":139.473465},{"name":"原町田あんしん相談室","province":"東京都","city":"町田市","address":"町田市原町田4-24-6せりがや会館1階","lat":35.544724,"lon":139.453049},{"name":"本町田あんしん相談室","province":"東京都","city":"町田市","address":"町田市本町田3486藤の第団地1-50-109","lat":35.569607,"lon":139.44574},{"name":"南大谷あんしん相談室","province":"東京都","city":"町田市","address":"町田市南大谷205-1-2","lat":35.554821,"lon":139.456757},{"name":"小川あんしん相談室","province":"東京都","city":"町田市","address":"町田市小川6-1-11","lat":35.522091,"lon":139.471252},{"name":"金森あんしん相談室","province":"東京都","city":"町田市","address":"町田市金森東4-2-2523号室","lat":35.533897,"lon":139.461243},{"name":"成瀬あんしん相談室","province":"東京都","city":"町田市","address":"町田市西成瀬2-48-23","lat":35.543419,"lon":139.471664},{"name":"医療と介護の連携支援センター","province":"東京都","city":"町田市","address":"町田市木曽西4-12-22KISOコミュニティベース1F","lat":35.566994,"lon":139.413712},{"name":"町田市高齢者福祉課","province":"東京都","city":"町田市","address":"町田市森野2-2-22","lat":35.547039,"lon":139.438141}]}