{"keyword":"放課後","data":[{"name":"つくしんぼ","province":"東京都","city":"町田市","address":"町田市南つくし野1-11-3","lat":35.520513,"lon":139.473808},{"name":"トゥモローフィールド町田","province":"東京都","city":"町田市","address":"町田市原町田5-3-17小井土ビル2F","lat":35.54542,"lon":139.449806},{"name":"星の王子","province":"東京都","city":"町田市","address":"町田市中町3-6-12町田向井田ビル1階","lat":35.551558,"lon":139.446637},{"name":"ぴっころもんど","province":"東京都","city":"町田市","address":"町田市中町4-13-11階","lat":35.553638,"lon":139.447973},{"name":"運動療育で生きる力を育む　シエル　中町教室","province":"東京都","city":"町田市","address":"町田市中町3-10-9アーバン第3ビルラ・ヴィ201","lat":35.551,"lon":139.449001},{"name":"ハッピーテラス町田駅前","province":"東京都","city":"町田市","address":"町田市森野2丁目2番36号Wald2022階","lat":35.547008,"lon":139.439735},{"name":"Ｋｉｄｓテラス森野","province":"東京都","city":"町田市","address":"町田市森野5-14-191階","lat":35.548391,"lon":139.436543},{"name":"放課後等デイサービス　アイ・ランド町田","province":"東京都","city":"町田市","address":"町田市旭町二丁目12番2号","lat":35.557835,"lon":139.435735},{"name":"運動療育で生きる力を育む　シエル　町田教室","province":"東京都","city":"町田市","address":"町田市旭町2-13-3サンライズ旭町2階","lat":35.557652,"lon":139.437021},{"name":"でんでん虫の家・町田","province":"東京都","city":"町田市","address":"町田市本町田97イ-4号棟0-1号室","lat":35.559552,"lon":139.452664},{"name":"つぼみクラブ","province":"東京都","city":"町田市","address":"町田市本町田2973-7本町田マリノビル202号","lat":35.572164,"lon":139.441809},{"name":"ナカミチ児童デイサービス本町田","province":"東京都","city":"町田市","address":"町田市本町田2020-5","lat":35.563365,"lon":139.434513},{"name":"つぼみ　アウラ","province":"東京都","city":"町田市","address":"町田市本町田2977-3","lat":35.571822,"lon":139.440423},{"name":"わいわいプラス町田教室","province":"東京都","city":"町田市","address":"町田市本町田1297-1ラ・ベルチュ町田1-3号室","lat":35.56407,"lon":139.444917},{"name":"ボワ・フルール","province":"東京都","city":"町田市","address":"町田市木曽西3-11-10","lat":35.573777,"lon":139.417214},{"name":"ボワ・コンサール","province":"東京都","city":"町田市","address":"町田市木曽西2-6-12","lat":35.570272,"lon":139.412745},{"name":"リハビリらんど","province":"東京都","city":"町田市","address":"町田市木曽西1-3-30セゾンコリーヌ101","lat":35.56384,"lon":139.420342},{"name":"重症心身障がい児放課後等デイサービスきらら","province":"東京都","city":"町田市","address":"町田市木曽西5-20-10","lat":35.56862,"lon":139.422852},{"name":"おもちゃ箱まちだ","province":"東京都","city":"町田市","address":"町田市木曽西3-18-2-2階","lat":35.572972,"lon":139.419116},{"name":"Ｋｉｄｓテラス木曽西","province":"東京都","city":"町田市","address":"町田市木曽西4-5-21階","lat":35.565278,"lon":139.422455},{"name":"レ・マーニ","province":"東京都","city":"町田市","address":"町田市玉川学園1-5-21","lat":35.558268,"lon":139.458216},{"name":"なかよし共和国","province":"東京都","city":"町田市","address":"町田市成瀬台2丁目16-2ウィル成瀬台A棟1階","lat":35.554112,"lon":139.477388},{"name":"アイ・らんど成瀬","province":"東京都","city":"町田市","address":"町田市成瀬7-10-6-110","lat":35.541638,"lon":139.474391},{"name":"ウイングまちだ成瀬","province":"東京都","city":"町田市","address":"町田市南成瀬6-1-1","lat":35.534761,"lon":139.474258},{"name":"あらぐさ","province":"東京都","city":"町田市","address":"町田市下小山田町231-1","lat":35.596091,"lon":139.411411},{"name":"ボワ・エール","province":"東京都","city":"町田市","address":"町田市下小山田町3267-2","lat":35.585665,"lon":139.410634},{"name":"プラナスデイサービスセンター","province":"東京都","city":"町田市","address":"町田市小山町4319-2","lat":35.599606,"lon":139.358607},{"name":"児童デイサービスかのん","province":"東京都","city":"町田市","address":"町田市鶴川2-14-24","lat":35.589972,"lon":139.469465},{"name":"放課後等デイサービス　キンダー","province":"東京都","city":"町田市","address":"町田市大蔵町530-16プランドール須崎B","lat":35.589305,"lon":139.460777},{"name":"放課後等デイサービス　キンダーハウス","province":"東京都","city":"町田市","address":"町田市金井3-24-1","lat":35.579586,"lon":139.458941},{"name":"アイ・らんど忠生","province":"東京都","city":"町田市","address":"町田市山崎町2055-2C-113","lat":35.571336,"lon":139.431738}]}