{"keyword":"町田","data":[{"name":"まちだ中央公民館","province":"東京都","city":"町田市","address":"町田市原町田6-8-1","lat":35.543011,"lon":139.447189},{"name":"大地沢青少年センター","province":"東京都","city":"町田市","address":"町田市相原町5307-2","lat":35.616135,"lon":139.28125},{"name":"町田市青少年施設｢ひなた村｣","province":"東京都","city":"町田市","address":"町田市本町田2863","lat":35.567707,"lon":139.444824},{"name":"忠生図書館","province":"東京都","city":"町田市","address":"町田市忠生3-14-2","lat":35.57766,"lon":139.415421},{"name":"町田市立さるびあ図書館","province":"東京都","city":"町田市","address":"町田市中町2-13-23","lat":35.551235,"lon":139.443695},{"name":"町田市立金森図書館","province":"東京都","city":"町田市","address":"町田市金森東3-5-1","lat":35.533234,"lon":139.465652},{"name":"町田市立堺図書館","province":"東京都","city":"町田市","address":"町田市相原町795-1","lat":35.604332,"lon":139.33403},{"name":"町田市立中央図書館","province":"東京都","city":"町田市","address":"町田市原町田3-2-9","lat":35.540539,"lon":139.450058},{"name":"町田市立鶴川駅前図書館","province":"東京都","city":"町田市","address":"町田市能ヶ谷1-2-1和光大学ポプリホール鶴川2階","lat":35.582855,"lon":139.478897},{"name":"町田市立鶴川図書館","province":"東京都","city":"町田市","address":"町田市鶴川6-7-2-1-101","lat":35.585083,"lon":139.477875},{"name":"町田市立木曽山崎図書館","province":"東京都","city":"町田市","address":"町田市山崎町2160","lat":35.569847,"lon":139.434814},{"name":"町田市立博物館","province":"東京都","city":"町田市","address":"町田市本町田3562","lat":35.567085,"lon":139.452347},{"name":"町田市立自由民権資料館","province":"東京都","city":"町田市","address":"町田市野津田町897","lat":35.589741,"lon":139.453278},{"name":"町田市立国際版画美術館","province":"東京都","city":"町田市","address":"町田市原町田4-28-1","lat":35.544495,"lon":139.454941},{"name":"町田市男女平等推進センター","province":"東京都","city":"町田市","address":"町田市原町田4-9-8","lat":35.541824,"lon":139.449905},{"name":"町田市生涯学習センター","province":"東京都","city":"町田市","address":"町田市原町田6-8-1","lat":35.543011,"lon":139.447189},{"name":"町田市考古資料室","province":"東京都","city":"町田市","address":"町田市下小山田町4016","lat":35.589195,"lon":139.410248},{"name":"町田市民文学館ことばらんど","province":"東京都","city":"町田市","address":"町田市原町田4-16-17","lat":35.54269,"lon":139.451721},{"name":"生涯学習センター陶芸スタジオ","province":"東京都","city":"町田市","address":"町田市下小山田町4016","lat":35.589195,"lon":139.410248}]}