{"keyword":"移転","data":[{"name":"スーパーヤマザキ百草店","province":"東京都","city":"町田市","address":"東京都町田市三輪町281-1","lat":35.5786457,"lon":139.5005001},{"name":"藤の台住宅管理組合前","province":"東京都","city":"町田市","address":"東京都町田市藤の台2丁目2","lat":35.56977353,"lon":139.4506921},{"name":"ゆうき山公園","province":"東京都","city":"町田市","address":"東京都町田市金井ヶ丘1丁目14","lat":35.57022261,"lon":139.4572909},{"name":"四つ木橋児童公園","province":"東京都","city":"町田市","address":"東京都町田市三輪町","lat":35.57728672,"lon":139.4995085},{"name":"天神原公園","province":"東京都","city":"町田市","address":"東京都町田市南成瀬6丁目6","lat":35.533003,"lon":139.476601},{"name":"南つくし野なかむら公園","province":"東京都","city":"町田市","address":"東京都町田市南つくし野4丁目12","lat":35.523809,"lon":139.478066},{"name":"南町田ハイタウン","province":"東京都","city":"町田市","address":"東京都町田市南町田3丁目2","lat":35.51951694,"lon":139.466755},{"name":"市立博物館前","province":"東京都","city":"町田市","address":"東京都町田市本町田","lat":35.56744205,"lon":139.4509341},{"name":"玉川学園やすらぎ公園","province":"東京都","city":"町田市","address":"東京都町田市玉川学園4丁目23","lat":35.56478242,"lon":139.4537669},{"name":"西田橋公園","province":"東京都","city":"町田市","address":"東京都町田市金森5丁目15","lat":35.52030392,"lon":139.458372},{"name":"鶴間橋児童公園","province":"東京都","city":"町田市","address":"東京都町田市南町田4丁目7","lat":35.51747144,"lon":139.464422},{"name":"鶴間公園","province":"東京都","city":"町田市","address":"東京都町田市鶴間3丁目1","lat":35.50974002,"lon":139.4675533},{"name":"鶴間三角公園","province":"東京都","city":"町田市","address":"東京都町田市鶴間6丁目10","lat":35.50528267,"lon":139.4768824},{"name":"鶴間風の子公園","province":"東京都","city":"町田市","address":"東京都町田市鶴間4丁目8","lat":35.50673656,"lon":139.4718293},{"name":"鶴間ガーデンセシア","province":"東京都","city":"町田市","address":"東京都町田市南町田5丁目14","lat":35.51466275,"lon":139.4731712},{"name":"セルシオヒルズすずかけ台","province":"東京都","city":"町田市","address":"東京都町田市小川6丁目25","lat":35.51822686,"lon":139.4737108},{"name":"南つくし野やなぎ公園","province":"東京都","city":"町田市","address":"東京都町田市南つくし野3丁目14","lat":35.51897514,"lon":139.4778267},{"name":"つくし野セントラルパーク","province":"東京都","city":"町田市","address":"東京都町田市つくし野3丁目19","lat":35.52056458,"lon":139.4823534},{"name":"総合体育館駐車場入口","province":"東京都","city":"町田市","address":"東京都町田市南成瀬5丁目12","lat":35.53652328,"lon":139.4792998},{"name":"成瀬熊ヶ谷戸公園","province":"東京都","city":"町田市","address":"東京都町田市成瀬台2丁目33","lat":35.54957761,"lon":139.4806826},{"name":"成瀬台公園","province":"東京都","city":"町田市","address":"東京都町田市成瀬台3丁目7","lat":35.55500866,"lon":139.4774664},{"name":"東玉川学園１丁目児童公園","province":"東京都","city":"町田市","address":"東京都町田市東玉川学園1丁目9","lat":35.55757141,"lon":139.4701571},{"name":"三輪中央公園","province":"東京都","city":"町田市","address":"東京都町田市三輪緑山3丁目21","lat":35.57460778,"lon":139.4890026},{"name":"三輪沢谷戸かえで公園","province":"東京都","city":"町田市","address":"東京都町田市三輪緑山1丁目35","lat":35.57666806,"lon":139.4923663},{"name":"三輪第一住宅バス停前","province":"東京都","city":"町田市","address":"東京都町田市三輪町","lat":35.58309142,"lon":139.4911137},{"name":"金井森の丘公園","province":"東京都","city":"町田市","address":"東京都町田市金井6丁目23","lat":35.57776369,"lon":139.4651787},{"name":"薬師ヶ丘住宅","province":"東京都","city":"町田市","address":"東京都町田市野津田町","lat":35.58203739,"lon":139.4461817},{"name":"薬師台青空公園","province":"東京都","city":"町田市","address":"東京都町田市薬師台2丁目13","lat":35.58050547,"lon":139.4528735},{"name":"金井関山公園","province":"東京都","city":"町田市","address":"東京都町田市金井3丁目12","lat":35.5819378,"lon":139.4591783},{"name":"山王塚公園","province":"東京都","city":"町田市","address":"東京都町田市野津田町","lat":35.58391831,"lon":139.455676},{"name":"鶴川台緑の里公園","province":"東京都","city":"町田市","address":"東京都町田市真光寺2丁目26","lat":35.60022494,"lon":139.4703547},{"name":"鶴川台丘の里公園","province":"東京都","city":"町田市","address":"東京都町田市真光寺1丁目13","lat":35.60395053,"lon":139.4656984},{"name":"イリーゼ町田図師の丘","province":"東京都","city":"町田市","address":"東京都町田市図師町","lat":35.58321024,"lon":139.4242898},{"name":"都営町田中里橋アパート","province":"東京都","city":"町田市","address":"東京都町田市木曽西1丁目33","lat":35.56654086,"lon":139.4148236},{"name":"境川住宅管理事務所前","province":"東京都","city":"町田市","address":"東京都町田市木曽東2丁目10","lat":35.55899572,"lon":139.4241309},{"name":"木曽森野防災市民いこいの広場","province":"東京都","city":"町田市","address":"東京都町田市森野4丁目8","lat":35.5552821,"lon":139.432783},{"name":"金井中央ふれあい公園","province":"東京都","city":"町田市","address":"東京都町田市金井5丁目5","lat":35.57547889,"lon":139.4604419},{"name":"本町田住宅貝がら公園","province":"東京都","city":"町田市","address":"東京都町田市本町田","lat":35.55741962,"lon":139.4538121},{"name":"小山ヶ丘こもれび公園","province":"東京都","city":"町田市","address":"東京都町田市小山ヶ丘6丁目1","lat":35.607629,"lon":139.347306},{"name":"上小山田はなみずき公園","province":"東京都","city":"町田市","address":"東京都町田市上小山田町","lat":35.594908,"lon":139.400502},{"name":"武蔵岡住宅","province":"東京都","city":"町田市","address":"東京都町田市相原町","lat":35.60869495,"lon":139.2979704},{"name":"ヴィラ町田","province":"東京都","city":"町田市","address":"東京都町田市相原町4391-7","lat":35.6123723,"lon":139.2942066},{"name":"ゆくのき学園前","province":"東京都","city":"町田市","address":"東京都町田市相原町","lat":35.60951523,"lon":139.3037209},{"name":"小山ヶ丘一丁目","province":"東京都","city":"町田市","address":"東京都町田市小山ヶ丘1丁目11","lat":35.5977662,"lon":139.3867074},{"name":"小山ヶ丘小学校前","province":"東京都","city":"町田市","address":"東京都町田市小山ヶ丘5丁目37","lat":35.60574586,"lon":139.3546372},{"name":"小山観音谷戸","province":"東京都","city":"町田市","address":"東京都町田市小山町","lat":35.60180775,"lon":139.3565418},{"name":"マイライフ尾根道","province":"東京都","city":"町田市","address":"東京都町田市常盤町3547-2","lat":35.584699,"lon":139.4037226},{"name":"常盤団地","province":"東京都","city":"町田市","address":"東京都町田市常盤町","lat":35.59195119,"lon":139.3937162},{"name":"馬場児童公園前","province":"東京都","city":"町田市","address":"東京都町田市小山町","lat":35.59046928,"lon":139.3876037},{"name":"小山小学校前","province":"東京都","city":"町田市","address":"東京都町田市小山町","lat":35.59321258,"lon":139.3778703},{"name":"小山中央小学校前","province":"東京都","city":"町田市","address":"東京都町田市小山ヶ丘3丁目7","lat":35.60220925,"lon":139.372516},{"name":"町田荘","province":"東京都","city":"町田市","address":"東京都町田市図師町","lat":35.58976228,"lon":139.4353341},{"name":"都営八幡平","province":"東京都","city":"町田市","address":"東京都町田市下小山田町","lat":35.58359464,"lon":139.4086134},{"name":"福音会","province":"東京都","city":"町田市","address":"東京都町田市野津田町","lat":35.58752755,"lon":139.435021},{"name":"矢部八幡","province":"東京都","city":"町田市","address":"東京都町田市矢部町","lat":35.57865989,"lon":139.4051454},{"name":"小山白山公園","province":"東京都","city":"町田市","address":"東京都町田市小山ヶ丘5丁目4","lat":35.60278994,"lon":139.3638869},{"name":"小山田桜台","province":"東京都","city":"町田市","address":"東京都町田市小山田桜台1丁目20","lat":35.58997139,"lon":139.4024037},{"name":"鶴川さくら病院前","province":"東京都","city":"町田市","address":"東京都町田市小野路町","lat":35.59597492,"lon":139.4457946},{"name":"山崎第二スポーツ広場","province":"東京都","city":"町田市","address":"東京都町田市山崎町","lat":35.58211024,"lon":139.4345436},{"name":"シーアイハイツ町田","province":"東京都","city":"町田市","address":"東京都町田市山崎町","lat":35.57710112,"lon":139.4369711},{"name":"町田リサイクル文化センター","province":"東京都","city":"町田市","address":"町田市下小山田町3160","lat":35.587688,"lon":139.412216},{"name":"スーパーヤマザキ百草店","province":"東京都","city":"町田市","address":"東京都町田市三輪町281-1","lat":35.5786457,"lon":139.5005001},{"name":"藤の台住宅管理組合前","province":"東京都","city":"町田市","address":"東京都町田市藤の台2丁目2","lat":35.56977353,"lon":139.4506921},{"name":"ゆうき山公園","province":"東京都","city":"町田市","address":"東京都町田市金井ヶ丘1丁目14","lat":35.57022261,"lon":139.4572909},{"name":"四つ木橋児童公園","province":"東京都","city":"町田市","address":"東京都町田市三輪町","lat":35.57728672,"lon":139.4995085},{"name":"天神原公園","province":"東京都","city":"町田市","address":"東京都町田市南成瀬6丁目6","lat":35.533003,"lon":139.476601},{"name":"南つくし野なかむら公園","province":"東京都","city":"町田市","address":"東京都町田市南つくし野4丁目12","lat":35.523809,"lon":139.478066},{"name":"南町田ハイタウン","province":"東京都","city":"町田市","address":"東京都町田市南町田3丁目2","lat":35.51951694,"lon":139.466755},{"name":"市立博物館前","province":"東京都","city":"町田市","address":"東京都町田市本町田","lat":35.56744205,"lon":139.4509341},{"name":"玉川学園やすらぎ公園","province":"東京都","city":"町田市","address":"東京都町田市玉川学園4丁目23","lat":35.56478242,"lon":139.4537669},{"name":"西田橋公園","province":"東京都","city":"町田市","address":"東京都町田市金森5丁目15","lat":35.52030392,"lon":139.458372},{"name":"鶴間橋児童公園","province":"東京都","city":"町田市","address":"東京都町田市南町田4丁目7","lat":35.51747144,"lon":139.464422},{"name":"鶴間公園","province":"東京都","city":"町田市","address":"東京都町田市鶴間3丁目1","lat":35.50974002,"lon":139.4675533},{"name":"鶴間三角公園","province":"東京都","city":"町田市","address":"東京都町田市鶴間6丁目10","lat":35.50528267,"lon":139.4768824},{"name":"鶴間風の子公園","province":"東京都","city":"町田市","address":"東京都町田市鶴間4丁目8","lat":35.50673656,"lon":139.4718293},{"name":"鶴間ガーデンセシア","province":"東京都","city":"町田市","address":"東京都町田市南町田5丁目14","lat":35.51466275,"lon":139.4731712},{"name":"セルシオヒルズすずかけ台","province":"東京都","city":"町田市","address":"東京都町田市小川6丁目25","lat":35.51822686,"lon":139.4737108},{"name":"南つくし野やなぎ公園","province":"東京都","city":"町田市","address":"東京都町田市南つくし野3丁目14","lat":35.51897514,"lon":139.4778267},{"name":"つくし野セントラルパーク","province":"東京都","city":"町田市","address":"東京都町田市つくし野3丁目19","lat":35.52056458,"lon":139.4823534},{"name":"総合体育館駐車場入口","province":"東京都","city":"町田市","address":"東京都町田市南成瀬5丁目12","lat":35.53652328,"lon":139.4792998},{"name":"成瀬熊ヶ谷戸公園","province":"東京都","city":"町田市","address":"東京都町田市成瀬台2丁目33","lat":35.54957761,"lon":139.4806826},{"name":"成瀬台公園","province":"東京都","city":"町田市","address":"東京都町田市成瀬台3丁目7","lat":35.55500866,"lon":139.4774664},{"name":"東玉川学園１丁目児童公園","province":"東京都","city":"町田市","address":"東京都町田市東玉川学園1丁目9","lat":35.55757141,"lon":139.4701571},{"name":"三輪中央公園","province":"東京都","city":"町田市","address":"東京都町田市三輪緑山3丁目21","lat":35.57460778,"lon":139.4890026},{"name":"三輪沢谷戸かえで公園","province":"東京都","city":"町田市","address":"東京都町田市三輪緑山1丁目35","lat":35.57666806,"lon":139.4923663},{"name":"三輪第一住宅バス停前","province":"東京都","city":"町田市","address":"東京都町田市三輪町","lat":35.58309142,"lon":139.4911137},{"name":"金井森の丘公園","province":"東京都","city":"町田市","address":"東京都町田市金井6丁目23","lat":35.57776369,"lon":139.4651787},{"name":"薬師ヶ丘住宅","province":"東京都","city":"町田市","address":"東京都町田市野津田町","lat":35.58203739,"lon":139.4461817},{"name":"薬師台青空公園","province":"東京都","city":"町田市","address":"東京都町田市薬師台2丁目13","lat":35.58050547,"lon":139.4528735},{"name":"金井関山公園","province":"東京都","city":"町田市","address":"東京都町田市金井3丁目12","lat":35.5819378,"lon":139.4591783},{"name":"山王塚公園","province":"東京都","city":"町田市","address":"東京都町田市野津田町","lat":35.58391831,"lon":139.455676},{"name":"鶴川台緑の里公園","province":"東京都","city":"町田市","address":"東京都町田市真光寺2丁目26","lat":35.60022494,"lon":139.4703547},{"name":"鶴川台丘の里公園","province":"東京都","city":"町田市","address":"東京都町田市真光寺1丁目13","lat":35.60395053,"lon":139.4656984},{"name":"イリーゼ町田図師の丘","province":"東京都","city":"町田市","address":"東京都町田市図師町","lat":35.58321024,"lon":139.4242898},{"name":"都営町田中里橋アパート","province":"東京都","city":"町田市","address":"東京都町田市木曽西1丁目33","lat":35.56654086,"lon":139.4148236},{"name":"境川住宅管理事務所前","province":"東京都","city":"町田市","address":"東京都町田市木曽東2丁目10","lat":35.55899572,"lon":139.4241309},{"name":"木曽森野防災市民いこいの広場","province":"東京都","city":"町田市","address":"東京都町田市森野4丁目8","lat":35.5552821,"lon":139.432783},{"name":"金井中央ふれあい公園","province":"東京都","city":"町田市","address":"東京都町田市金井5丁目5","lat":35.57547889,"lon":139.4604419},{"name":"本町田住宅貝がら公園","province":"東京都","city":"町田市","address":"東京都町田市本町田","lat":35.55741962,"lon":139.4538121},{"name":"小山ヶ丘こもれび公園","province":"東京都","city":"町田市","address":"東京都町田市小山ヶ丘6丁目1","lat":35.607629,"lon":139.347306},{"name":"上小山田はなみずき公園","province":"東京都","city":"町田市","address":"東京都町田市上小山田町","lat":35.594908,"lon":139.400502},{"name":"武蔵岡住宅","province":"東京都","city":"町田市","address":"東京都町田市相原町","lat":35.60869495,"lon":139.2979704},{"name":"ヴィラ町田","province":"東京都","city":"町田市","address":"東京都町田市相原町4391-7","lat":35.6123723,"lon":139.2942066},{"name":"ゆくのき学園前","province":"東京都","city":"町田市","address":"東京都町田市相原町","lat":35.60951523,"lon":139.3037209},{"name":"小山ヶ丘一丁目","province":"東京都","city":"町田市","address":"東京都町田市小山ヶ丘1丁目11","lat":35.5977662,"lon":139.3867074},{"name":"小山ヶ丘小学校前","province":"東京都","city":"町田市","address":"東京都町田市小山ヶ丘5丁目37","lat":35.60574586,"lon":139.3546372},{"name":"小山観音谷戸","province":"東京都","city":"町田市","address":"東京都町田市小山町","lat":35.60180775,"lon":139.3565418},{"name":"マイライフ尾根道","province":"東京都","city":"町田市","address":"東京都町田市常盤町3547-2","lat":35.584699,"lon":139.4037226},{"name":"常盤団地","province":"東京都","city":"町田市","address":"東京都町田市常盤町","lat":35.59195119,"lon":139.3937162},{"name":"馬場児童公園前","province":"東京都","city":"町田市","address":"東京都町田市小山町","lat":35.59046928,"lon":139.3876037},{"name":"小山小学校前","province":"東京都","city":"町田市","address":"東京都町田市小山町","lat":35.59321258,"lon":139.3778703},{"name":"小山中央小学校前","province":"東京都","city":"町田市","address":"東京都町田市小山ヶ丘3丁目7","lat":35.60220925,"lon":139.372516},{"name":"町田荘","province":"東京都","city":"町田市","address":"東京都町田市図師町","lat":35.58976228,"lon":139.4353341},{"name":"都営八幡平","province":"東京都","city":"町田市","address":"東京都町田市下小山田町","lat":35.58359464,"lon":139.4086134},{"name":"福音会","province":"東京都","city":"町田市","address":"東京都町田市野津田町","lat":35.58752755,"lon":139.435021},{"name":"矢部八幡","province":"東京都","city":"町田市","address":"東京都町田市矢部町","lat":35.57865989,"lon":139.4051454},{"name":"小山白山公園","province":"東京都","city":"町田市","address":"東京都町田市小山ヶ丘5丁目4","lat":35.60278994,"lon":139.3638869},{"name":"小山田桜台","province":"東京都","city":"町田市","address":"東京都町田市小山田桜台1丁目20","lat":35.58997139,"lon":139.4024037},{"name":"鶴川さくら病院前","province":"東京都","city":"町田市","address":"東京都町田市小野路町","lat":35.59597492,"lon":139.4457946},{"name":"山崎第二スポーツ広場","province":"東京都","city":"町田市","address":"東京都町田市山崎町","lat":35.58211024,"lon":139.4345436},{"name":"シーアイハイツ町田","province":"東京都","city":"町田市","address":"東京都町田市山崎町","lat":35.57710112,"lon":139.4369711},{"name":"町田リサイクル文化センター","province":"東京都","city":"町田市","address":"町田市下小山田町3160","lat":35.587688,"lon":139.412216},{"name":"スーパーヤマザキ百草店","province":"東京都","city":"町田市","address":"東京都町田市三輪町281-1","lat":35.5786457,"lon":139.5005001},{"name":"藤の台住宅管理組合前","province":"東京都","city":"町田市","address":"東京都町田市藤の台2丁目2","lat":35.56977353,"lon":139.4506921},{"name":"ゆうき山公園","province":"東京都","city":"町田市","address":"東京都町田市金井ヶ丘1丁目14","lat":35.57022261,"lon":139.4572909},{"name":"四つ木橋児童公園","province":"東京都","city":"町田市","address":"東京都町田市三輪町","lat":35.57728672,"lon":139.4995085},{"name":"天神原公園","province":"東京都","city":"町田市","address":"東京都町田市南成瀬6丁目6","lat":35.533003,"lon":139.476601},{"name":"南つくし野なかむら公園","province":"東京都","city":"町田市","address":"東京都町田市南つくし野4丁目12","lat":35.523809,"lon":139.478066},{"name":"南町田ハイタウン","province":"東京都","city":"町田市","address":"東京都町田市南町田3丁目2","lat":35.51951694,"lon":139.466755},{"name":"市立博物館前","province":"東京都","city":"町田市","address":"東京都町田市本町田","lat":35.56744205,"lon":139.4509341},{"name":"玉川学園やすらぎ公園","province":"東京都","city":"町田市","address":"東京都町田市玉川学園4丁目23","lat":35.56478242,"lon":139.4537669},{"name":"西田橋公園","province":"東京都","city":"町田市","address":"東京都町田市金森5丁目15","lat":35.52030392,"lon":139.458372},{"name":"鶴間橋児童公園","province":"東京都","city":"町田市","address":"東京都町田市南町田4丁目7","lat":35.51747144,"lon":139.464422},{"name":"鶴間公園","province":"東京都","city":"町田市","address":"東京都町田市鶴間3丁目1","lat":35.50974002,"lon":139.4675533},{"name":"鶴間三角公園","province":"東京都","city":"町田市","address":"東京都町田市鶴間6丁目10","lat":35.50528267,"lon":139.4768824},{"name":"鶴間風の子公園","province":"東京都","city":"町田市","address":"東京都町田市鶴間4丁目8","lat":35.50673656,"lon":139.4718293},{"name":"鶴間ガーデンセシア","province":"東京都","city":"町田市","address":"東京都町田市南町田5丁目14","lat":35.51466275,"lon":139.4731712},{"name":"セルシオヒルズすずかけ台","province":"東京都","city":"町田市","address":"東京都町田市小川6丁目25","lat":35.51822686,"lon":139.4737108},{"name":"南つくし野やなぎ公園","province":"東京都","city":"町田市","address":"東京都町田市南つくし野3丁目14","lat":35.51897514,"lon":139.4778267},{"name":"つくし野セントラルパーク","province":"東京都","city":"町田市","address":"東京都町田市つくし野3丁目19","lat":35.52056458,"lon":139.4823534},{"name":"総合体育館駐車場入口","province":"東京都","city":"町田市","address":"東京都町田市南成瀬5丁目12","lat":35.53652328,"lon":139.4792998},{"name":"成瀬熊ヶ谷戸公園","province":"東京都","city":"町田市","address":"東京都町田市成瀬台2丁目33","lat":35.54957761,"lon":139.4806826},{"name":"成瀬台公園","province":"東京都","city":"町田市","address":"東京都町田市成瀬台3丁目7","lat":35.55500866,"lon":139.4774664},{"name":"東玉川学園１丁目児童公園","province":"東京都","city":"町田市","address":"東京都町田市東玉川学園1丁目9","lat":35.55757141,"lon":139.4701571},{"name":"三輪中央公園","province":"東京都","city":"町田市","address":"東京都町田市三輪緑山3丁目21","lat":35.57460778,"lon":139.4890026},{"name":"三輪沢谷戸かえで公園","province":"東京都","city":"町田市","address":"東京都町田市三輪緑山1丁目35","lat":35.57666806,"lon":139.4923663},{"name":"三輪第一住宅バス停前","province":"東京都","city":"町田市","address":"東京都町田市三輪町","lat":35.58309142,"lon":139.4911137},{"name":"金井森の丘公園","province":"東京都","city":"町田市","address":"東京都町田市金井6丁目23","lat":35.57776369,"lon":139.4651787},{"name":"薬師ヶ丘住宅","province":"東京都","city":"町田市","address":"東京都町田市野津田町","lat":35.58203739,"lon":139.4461817},{"name":"薬師台青空公園","province":"東京都","city":"町田市","address":"東京都町田市薬師台2丁目13","lat":35.58050547,"lon":139.4528735},{"name":"金井関山公園","province":"東京都","city":"町田市","address":"東京都町田市金井3丁目12","lat":35.5819378,"lon":139.4591783},{"name":"山王塚公園","province":"東京都","city":"町田市","address":"東京都町田市野津田町","lat":35.58391831,"lon":139.455676},{"name":"鶴川台緑の里公園","province":"東京都","city":"町田市","address":"東京都町田市真光寺2丁目26","lat":35.60022494,"lon":139.4703547},{"name":"鶴川台丘の里公園","province":"東京都","city":"町田市","address":"東京都町田市真光寺1丁目13","lat":35.60395053,"lon":139.4656984},{"name":"イリーゼ町田図師の丘","province":"東京都","city":"町田市","address":"東京都町田市図師町","lat":35.58321024,"lon":139.4242898},{"name":"都営町田中里橋アパート","province":"東京都","city":"町田市","address":"東京都町田市木曽西1丁目33","lat":35.56654086,"lon":139.4148236},{"name":"境川住宅管理事務所前","province":"東京都","city":"町田市","address":"東京都町田市木曽東2丁目10","lat":35.55899572,"lon":139.4241309},{"name":"木曽森野防災市民いこいの広場","province":"東京都","city":"町田市","address":"東京都町田市森野4丁目8","lat":35.5552821,"lon":139.432783},{"name":"金井中央ふれあい公園","province":"東京都","city":"町田市","address":"東京都町田市金井5丁目5","lat":35.57547889,"lon":139.4604419},{"name":"本町田住宅貝がら公園","province":"東京都","city":"町田市","address":"東京都町田市本町田","lat":35.55741962,"lon":139.4538121},{"name":"小山ヶ丘こもれび公園","province":"東京都","city":"町田市","address":"東京都町田市小山ヶ丘6丁目1","lat":35.607629,"lon":139.347306},{"name":"上小山田はなみずき公園","province":"東京都","city":"町田市","address":"東京都町田市上小山田町","lat":35.594908,"lon":139.400502},{"name":"武蔵岡住宅","province":"東京都","city":"町田市","address":"東京都町田市相原町","lat":35.60869495,"lon":139.2979704},{"name":"ヴィラ町田","province":"東京都","city":"町田市","address":"東京都町田市相原町4391-7","lat":35.6123723,"lon":139.2942066},{"name":"ゆくのき学園前","province":"東京都","city":"町田市","address":"東京都町田市相原町","lat":35.60951523,"lon":139.3037209},{"name":"小山ヶ丘一丁目","province":"東京都","city":"町田市","address":"東京都町田市小山ヶ丘1丁目11","lat":35.5977662,"lon":139.3867074},{"name":"小山ヶ丘小学校前","province":"東京都","city":"町田市","address":"東京都町田市小山ヶ丘5丁目37","lat":35.60574586,"lon":139.3546372},{"name":"小山観音谷戸","province":"東京都","city":"町田市","address":"東京都町田市小山町","lat":35.60180775,"lon":139.3565418},{"name":"マイライフ尾根道","province":"東京都","city":"町田市","address":"東京都町田市常盤町3547-2","lat":35.584699,"lon":139.4037226},{"name":"常盤団地","province":"東京都","city":"町田市","address":"東京都町田市常盤町","lat":35.59195119,"lon":139.3937162},{"name":"馬場児童公園前","province":"東京都","city":"町田市","address":"東京都町田市小山町","lat":35.59046928,"lon":139.3876037},{"name":"小山小学校前","province":"東京都","city":"町田市","address":"東京都町田市小山町","lat":35.59321258,"lon":139.3778703},{"name":"小山中央小学校前","province":"東京都","city":"町田市","address":"東京都町田市小山ヶ丘3丁目7","lat":35.60220925,"lon":139.372516},{"name":"町田荘","province":"東京都","city":"町田市","address":"東京都町田市図師町","lat":35.58976228,"lon":139.4353341},{"name":"都営八幡平","province":"東京都","city":"町田市","address":"東京都町田市下小山田町","lat":35.58359464,"lon":139.4086134},{"name":"福音会","province":"東京都","city":"町田市","address":"東京都町田市野津田町","lat":35.58752755,"lon":139.435021},{"name":"矢部八幡","province":"東京都","city":"町田市","address":"東京都町田市矢部町","lat":35.57865989,"lon":139.4051454},{"name":"小山白山公園","province":"東京都","city":"町田市","address":"東京都町田市小山ヶ丘5丁目4","lat":35.60278994,"lon":139.3638869},{"name":"小山田桜台","province":"東京都","city":"町田市","address":"東京都町田市小山田桜台1丁目20","lat":35.58997139,"lon":139.4024037},{"name":"鶴川さくら病院前","province":"東京都","city":"町田市","address":"東京都町田市小野路町","lat":35.59597492,"lon":139.4457946},{"name":"山崎第二スポーツ広場","province":"東京都","city":"町田市","address":"東京都町田市山崎町","lat":35.58211024,"lon":139.4345436},{"name":"シーアイハイツ町田","province":"東京都","city":"町田市","address":"東京都町田市山崎町","lat":35.57710112,"lon":139.4369711},{"name":"町田リサイクル文化センター","province":"東京都","city":"町田市","address":"町田市下小山田町3160","lat":35.587688,"lon":139.412216},{"name":"スーパーヤマザキ百草店","province":"東京都","city":"町田市","address":"東京都町田市三輪町281-1","lat":35.5786457,"lon":139.5005001},{"name":"藤の台住宅管理組合前","province":"東京都","city":"町田市","address":"東京都町田市藤の台2丁目2","lat":35.56977353,"lon":139.4506921},{"name":"ゆうき山公園","province":"東京都","city":"町田市","address":"東京都町田市金井ヶ丘1丁目14","lat":35.57022261,"lon":139.4572909},{"name":"四つ木橋児童公園","province":"東京都","city":"町田市","address":"東京都町田市三輪町","lat":35.57728672,"lon":139.4995085},{"name":"天神原公園","province":"東京都","city":"町田市","address":"東京都町田市南成瀬6丁目6","lat":35.533003,"lon":139.476601},{"name":"南つくし野なかむら公園","province":"東京都","city":"町田市","address":"東京都町田市南つくし野4丁目12","lat":35.523809,"lon":139.478066},{"name":"南町田ハイタウン","province":"東京都","city":"町田市","address":"東京都町田市南町田3丁目2","lat":35.51951694,"lon":139.466755},{"name":"市立博物館前","province":"東京都","city":"町田市","address":"東京都町田市本町田","lat":35.56744205,"lon":139.4509341},{"name":"玉川学園やすらぎ公園","province":"東京都","city":"町田市","address":"東京都町田市玉川学園4丁目23","lat":35.56478242,"lon":139.4537669},{"name":"西田橋公園","province":"東京都","city":"町田市","address":"東京都町田市金森5丁目15","lat":35.52030392,"lon":139.458372},{"name":"鶴間橋児童公園","province":"東京都","city":"町田市","address":"東京都町田市南町田4丁目7","lat":35.51747144,"lon":139.464422},{"name":"鶴間公園","province":"東京都","city":"町田市","address":"東京都町田市鶴間3丁目1","lat":35.50974002,"lon":139.4675533},{"name":"鶴間三角公園","province":"東京都","city":"町田市","address":"東京都町田市鶴間6丁目10","lat":35.50528267,"lon":139.4768824},{"name":"鶴間風の子公園","province":"東京都","city":"町田市","address":"東京都町田市鶴間4丁目8","lat":35.50673656,"lon":139.4718293},{"name":"鶴間ガーデンセシア","province":"東京都","city":"町田市","address":"東京都町田市南町田5丁目14","lat":35.51466275,"lon":139.4731712},{"name":"セルシオヒルズすずかけ台","province":"東京都","city":"町田市","address":"東京都町田市小川6丁目25","lat":35.51822686,"lon":139.4737108},{"name":"南つくし野やなぎ公園","province":"東京都","city":"町田市","address":"東京都町田市南つくし野3丁目14","lat":35.51897514,"lon":139.4778267},{"name":"つくし野セントラルパーク","province":"東京都","city":"町田市","address":"東京都町田市つくし野3丁目19","lat":35.52056458,"lon":139.4823534},{"name":"総合体育館駐車場入口","province":"東京都","city":"町田市","address":"東京都町田市南成瀬5丁目12","lat":35.53652328,"lon":139.4792998},{"name":"成瀬熊ヶ谷戸公園","province":"東京都","city":"町田市","address":"東京都町田市成瀬台2丁目33","lat":35.54957761,"lon":139.4806826},{"name":"成瀬台公園","province":"東京都","city":"町田市","address":"東京都町田市成瀬台3丁目7","lat":35.55500866,"lon":139.4774664},{"name":"東玉川学園１丁目児童公園","province":"東京都","city":"町田市","address":"東京都町田市東玉川学園1丁目9","lat":35.55757141,"lon":139.4701571},{"name":"三輪中央公園","province":"東京都","city":"町田市","address":"東京都町田市三輪緑山3丁目21","lat":35.57460778,"lon":139.4890026},{"name":"三輪沢谷戸かえで公園","province":"東京都","city":"町田市","address":"東京都町田市三輪緑山1丁目35","lat":35.57666806,"lon":139.4923663},{"name":"三輪第一住宅バス停前","province":"東京都","city":"町田市","address":"東京都町田市三輪町","lat":35.58309142,"lon":139.4911137},{"name":"金井森の丘公園","province":"東京都","city":"町田市","address":"東京都町田市金井6丁目23","lat":35.57776369,"lon":139.4651787},{"name":"薬師ヶ丘住宅","province":"東京都","city":"町田市","address":"東京都町田市野津田町","lat":35.58203739,"lon":139.4461817},{"name":"薬師台青空公園","province":"東京都","city":"町田市","address":"東京都町田市薬師台2丁目13","lat":35.58050547,"lon":139.4528735},{"name":"金井関山公園","province":"東京都","city":"町田市","address":"東京都町田市金井3丁目12","lat":35.5819378,"lon":139.4591783},{"name":"山王塚公園","province":"東京都","city":"町田市","address":"東京都町田市野津田町","lat":35.58391831,"lon":139.455676},{"name":"鶴川台緑の里公園","province":"東京都","city":"町田市","address":"東京都町田市真光寺2丁目26","lat":35.60022494,"lon":139.4703547},{"name":"鶴川台丘の里公園","province":"東京都","city":"町田市","address":"東京都町田市真光寺1丁目13","lat":35.60395053,"lon":139.4656984},{"name":"イリーゼ町田図師の丘","province":"東京都","city":"町田市","address":"東京都町田市図師町","lat":35.58321024,"lon":139.4242898},{"name":"都営町田中里橋アパート","province":"東京都","city":"町田市","address":"東京都町田市木曽西1丁目33","lat":35.56654086,"lon":139.4148236},{"name":"境川住宅管理事務所前","province":"東京都","city":"町田市","address":"東京都町田市木曽東2丁目10","lat":35.55899572,"lon":139.4241309},{"name":"木曽森野防災市民いこいの広場","province":"東京都","city":"町田市","address":"東京都町田市森野4丁目8","lat":35.5552821,"lon":139.432783},{"name":"金井中央ふれあい公園","province":"東京都","city":"町田市","address":"東京都町田市金井5丁目5","lat":35.57547889,"lon":139.4604419},{"name":"本町田住宅貝がら公園","province":"東京都","city":"町田市","address":"東京都町田市本町田","lat":35.55741962,"lon":139.4538121},{"name":"小山ヶ丘こもれび公園","province":"東京都","city":"町田市","address":"東京都町田市小山ヶ丘6丁目1","lat":35.607629,"lon":139.347306},{"name":"上小山田はなみずき公園","province":"東京都","city":"町田市","address":"東京都町田市上小山田町","lat":35.594908,"lon":139.400502},{"name":"武蔵岡住宅","province":"東京都","city":"町田市","address":"東京都町田市相原町","lat":35.60869495,"lon":139.2979704},{"name":"ヴィラ町田","province":"東京都","city":"町田市","address":"東京都町田市相原町4391-7","lat":35.6123723,"lon":139.2942066},{"name":"ゆくのき学園前","province":"東京都","city":"町田市","address":"東京都町田市相原町","lat":35.60951523,"lon":139.3037209},{"name":"小山ヶ丘一丁目","province":"東京都","city":"町田市","address":"東京都町田市小山ヶ丘1丁目11","lat":35.5977662,"lon":139.3867074},{"name":"小山ヶ丘小学校前","province":"東京都","city":"町田市","address":"東京都町田市小山ヶ丘5丁目37","lat":35.60574586,"lon":139.3546372},{"name":"小山観音谷戸","province":"東京都","city":"町田市","address":"東京都町田市小山町","lat":35.60180775,"lon":139.3565418},{"name":"マイライフ尾根道","province":"東京都","city":"町田市","address":"東京都町田市常盤町3547-2","lat":35.584699,"lon":139.4037226},{"name":"常盤団地","province":"東京都","city":"町田市","address":"東京都町田市常盤町","lat":35.59195119,"lon":139.3937162},{"name":"馬場児童公園前","province":"東京都","city":"町田市","address":"東京都町田市小山町","lat":35.59046928,"lon":139.3876037},{"name":"小山小学校前","province":"東京都","city":"町田市","address":"東京都町田市小山町","lat":35.59321258,"lon":139.3778703},{"name":"小山中央小学校前","province":"東京都","city":"町田市","address":"東京都町田市小山ヶ丘3丁目7","lat":35.60220925,"lon":139.372516},{"name":"町田荘","province":"東京都","city":"町田市","address":"東京都町田市図師町","lat":35.58976228,"lon":139.4353341},{"name":"都営八幡平","province":"東京都","city":"町田市","address":"東京都町田市下小山田町","lat":35.58359464,"lon":139.4086134},{"name":"福音会","province":"東京都","city":"町田市","address":"東京都町田市野津田町","lat":35.58752755,"lon":139.435021},{"name":"矢部八幡","province":"東京都","city":"町田市","address":"東京都町田市矢部町","lat":35.57865989,"lon":139.4051454},{"name":"小山白山公園","province":"東京都","city":"町田市","address":"東京都町田市小山ヶ丘5丁目4","lat":35.60278994,"lon":139.3638869},{"name":"小山田桜台","province":"東京都","city":"町田市","address":"東京都町田市小山田桜台1丁目20","lat":35.58997139,"lon":139.4024037},{"name":"鶴川さくら病院前","province":"東京都","city":"町田市","address":"東京都町田市小野路町","lat":35.59597492,"lon":139.4457946},{"name":"山崎第二スポーツ広場","province":"東京都","city":"町田市","address":"東京都町田市山崎町","lat":35.58211024,"lon":139.4345436},{"name":"シーアイハイツ町田","province":"東京都","city":"町田市","address":"東京都町田市山崎町","lat":35.57710112,"lon":139.4369711},{"name":"町田リサイクル文化センター","province":"東京都","city":"町田市","address":"町田市下小山田町3160","lat":35.587688,"lon":139.412216},{"name":"スーパーヤマザキ百草店","province":"東京都","city":"町田市","address":"東京都町田市三輪町281-1","lat":35.5786457,"lon":139.5005001},{"name":"藤の台住宅管理組合前","province":"東京都","city":"町田市","address":"東京都町田市藤の台2丁目2","lat":35.56977353,"lon":139.4506921},{"name":"ゆうき山公園","province":"東京都","city":"町田市","address":"東京都町田市金井ヶ丘1丁目14","lat":35.57022261,"lon":139.4572909},{"name":"四つ木橋児童公園","province":"東京都","city":"町田市","address":"東京都町田市三輪町","lat":35.57728672,"lon":139.4995085},{"name":"天神原公園","province":"東京都","city":"町田市","address":"東京都町田市南成瀬6丁目6","lat":35.533003,"lon":139.476601},{"name":"南つくし野なかむら公園","province":"東京都","city":"町田市","address":"東京都町田市南つくし野4丁目12","lat":35.523809,"lon":139.478066},{"name":"南町田ハイタウン","province":"東京都","city":"町田市","address":"東京都町田市南町田3丁目2","lat":35.51951694,"lon":139.466755},{"name":"市立博物館前","province":"東京都","city":"町田市","address":"東京都町田市本町田","lat":35.56744205,"lon":139.4509341},{"name":"玉川学園やすらぎ公園","province":"東京都","city":"町田市","address":"東京都町田市玉川学園4丁目23","lat":35.56478242,"lon":139.4537669},{"name":"西田橋公園","province":"東京都","city":"町田市","address":"東京都町田市金森5丁目15","lat":35.52030392,"lon":139.458372},{"name":"鶴間橋児童公園","province":"東京都","city":"町田市","address":"東京都町田市南町田4丁目7","lat":35.51747144,"lon":139.464422},{"name":"鶴間公園","province":"東京都","city":"町田市","address":"東京都町田市鶴間3丁目1","lat":35.50974002,"lon":139.4675533},{"name":"鶴間三角公園","province":"東京都","city":"町田市","address":"東京都町田市鶴間6丁目10","lat":35.50528267,"lon":139.4768824},{"name":"鶴間風の子公園","province":"東京都","city":"町田市","address":"東京都町田市鶴間4丁目8","lat":35.50673656,"lon":139.4718293},{"name":"鶴間ガーデンセシア","province":"東京都","city":"町田市","address":"東京都町田市南町田5丁目14","lat":35.51466275,"lon":139.4731712},{"name":"セルシオヒルズすずかけ台","province":"東京都","city":"町田市","address":"東京都町田市小川6丁目25","lat":35.51822686,"lon":139.4737108},{"name":"南つくし野やなぎ公園","province":"東京都","city":"町田市","address":"東京都町田市南つくし野3丁目14","lat":35.51897514,"lon":139.4778267},{"name":"つくし野セントラルパーク","province":"東京都","city":"町田市","address":"東京都町田市つくし野3丁目19","lat":35.52056458,"lon":139.4823534},{"name":"総合体育館駐車場入口","province":"東京都","city":"町田市","address":"東京都町田市南成瀬5丁目12","lat":35.53652328,"lon":139.4792998},{"name":"成瀬熊ヶ谷戸公園","province":"東京都","city":"町田市","address":"東京都町田市成瀬台2丁目33","lat":35.54957761,"lon":139.4806826},{"name":"成瀬台公園","province":"東京都","city":"町田市","address":"東京都町田市成瀬台3丁目7","lat":35.55500866,"lon":139.4774664},{"name":"東玉川学園１丁目児童公園","province":"東京都","city":"町田市","address":"東京都町田市東玉川学園1丁目9","lat":35.55757141,"lon":139.4701571},{"name":"三輪中央公園","province":"東京都","city":"町田市","address":"東京都町田市三輪緑山3丁目21","lat":35.57460778,"lon":139.4890026},{"name":"三輪沢谷戸かえで公園","province":"東京都","city":"町田市","address":"東京都町田市三輪緑山1丁目35","lat":35.57666806,"lon":139.4923663},{"name":"三輪第一住宅バス停前","province":"東京都","city":"町田市","address":"東京都町田市三輪町","lat":35.58309142,"lon":139.4911137},{"name":"金井森の丘公園","province":"東京都","city":"町田市","address":"東京都町田市金井6丁目23","lat":35.57776369,"lon":139.4651787},{"name":"薬師ヶ丘住宅","province":"東京都","city":"町田市","address":"東京都町田市野津田町","lat":35.58203739,"lon":139.4461817},{"name":"薬師台青空公園","province":"東京都","city":"町田市","address":"東京都町田市薬師台2丁目13","lat":35.58050547,"lon":139.4528735},{"name":"金井関山公園","province":"東京都","city":"町田市","address":"東京都町田市金井3丁目12","lat":35.5819378,"lon":139.4591783},{"name":"山王塚公園","province":"東京都","city":"町田市","address":"東京都町田市野津田町","lat":35.58391831,"lon":139.455676},{"name":"鶴川台緑の里公園","province":"東京都","city":"町田市","address":"東京都町田市真光寺2丁目26","lat":35.60022494,"lon":139.4703547},{"name":"鶴川台丘の里公園","province":"東京都","city":"町田市","address":"東京都町田市真光寺1丁目13","lat":35.60395053,"lon":139.4656984},{"name":"イリーゼ町田図師の丘","province":"東京都","city":"町田市","address":"東京都町田市図師町","lat":35.58321024,"lon":139.4242898},{"name":"都営町田中里橋アパート","province":"東京都","city":"町田市","address":"東京都町田市木曽西1丁目33","lat":35.56654086,"lon":139.4148236},{"name":"境川住宅管理事務所前","province":"東京都","city":"町田市","address":"東京都町田市木曽東2丁目10","lat":35.55899572,"lon":139.4241309},{"name":"木曽森野防災市民いこいの広場","province":"東京都","city":"町田市","address":"東京都町田市森野4丁目8","lat":35.5552821,"lon":139.432783},{"name":"金井中央ふれあい公園","province":"東京都","city":"町田市","address":"東京都町田市金井5丁目5","lat":35.57547889,"lon":139.4604419},{"name":"本町田住宅貝がら公園","province":"東京都","city":"町田市","address":"東京都町田市本町田","lat":35.55741962,"lon":139.4538121},{"name":"小山ヶ丘こもれび公園","province":"東京都","city":"町田市","address":"東京都町田市小山ヶ丘6丁目1","lat":35.607629,"lon":139.347306},{"name":"上小山田はなみずき公園","province":"東京都","city":"町田市","address":"東京都町田市上小山田町","lat":35.594908,"lon":139.400502},{"name":"武蔵岡住宅","province":"東京都","city":"町田市","address":"東京都町田市相原町","lat":35.60869495,"lon":139.2979704},{"name":"ヴィラ町田","province":"東京都","city":"町田市","address":"東京都町田市相原町4391-7","lat":35.6123723,"lon":139.2942066},{"name":"ゆくのき学園前","province":"東京都","city":"町田市","address":"東京都町田市相原町","lat":35.60951523,"lon":139.3037209},{"name":"小山ヶ丘一丁目","province":"東京都","city":"町田市","address":"東京都町田市小山ヶ丘1丁目11","lat":35.5977662,"lon":139.3867074},{"name":"小山ヶ丘小学校前","province":"東京都","city":"町田市","address":"東京都町田市小山ヶ丘5丁目37","lat":35.60574586,"lon":139.3546372},{"name":"小山観音谷戸","province":"東京都","city":"町田市","address":"東京都町田市小山町","lat":35.60180775,"lon":139.3565418},{"name":"マイライフ尾根道","province":"東京都","city":"町田市","address":"東京都町田市常盤町3547-2","lat":35.584699,"lon":139.4037226},{"name":"常盤団地","province":"東京都","city":"町田市","address":"東京都町田市常盤町","lat":35.59195119,"lon":139.3937162},{"name":"馬場児童公園前","province":"東京都","city":"町田市","address":"東京都町田市小山町","lat":35.59046928,"lon":139.3876037},{"name":"小山小学校前","province":"東京都","city":"町田市","address":"東京都町田市小山町","lat":35.59321258,"lon":139.3778703},{"name":"小山中央小学校前","province":"東京都","city":"町田市","address":"東京都町田市小山ヶ丘3丁目7","lat":35.60220925,"lon":139.372516},{"name":"町田荘","province":"東京都","city":"町田市","address":"東京都町田市図師町","lat":35.58976228,"lon":139.4353341},{"name":"都営八幡平","province":"東京都","city":"町田市","address":"東京都町田市下小山田町","lat":35.58359464,"lon":139.4086134},{"name":"福音会","province":"東京都","city":"町田市","address":"東京都町田市野津田町","lat":35.58752755,"lon":139.435021},{"name":"矢部八幡","province":"東京都","city":"町田市","address":"東京都町田市矢部町","lat":35.57865989,"lon":139.4051454},{"name":"小山白山公園","province":"東京都","city":"町田市","address":"東京都町田市小山ヶ丘5丁目4","lat":35.60278994,"lon":139.3638869},{"name":"小山田桜台","province":"東京都","city":"町田市","address":"東京都町田市小山田桜台1丁目20","lat":35.58997139,"lon":139.4024037},{"name":"鶴川さくら病院前","province":"東京都","city":"町田市","address":"東京都町田市小野路町","lat":35.59597492,"lon":139.4457946},{"name":"山崎第二スポーツ広場","province":"東京都","city":"町田市","address":"東京都町田市山崎町","lat":35.58211024,"lon":139.4345436},{"name":"シーアイハイツ町田","province":"東京都","city":"町田市","address":"東京都町田市山崎町","lat":35.57710112,"lon":139.4369711},{"name":"町田リサイクル文化センター","province":"東京都","city":"町田市","address":"町田市下小山田町3160","lat":35.587688,"lon":139.412216},{"name":"スーパーヤマザキ百草店","province":"東京都","city":"町田市","address":"東京都町田市三輪町281-1","lat":35.5786457,"lon":139.5005001},{"name":"藤の台住宅管理組合前","province":"東京都","city":"町田市","address":"東京都町田市藤の台2丁目2","lat":35.56977353,"lon":139.4506921},{"name":"ゆうき山公園","province":"東京都","city":"町田市","address":"東京都町田市金井ヶ丘1丁目14","lat":35.57022261,"lon":139.4572909},{"name":"四つ木橋児童公園","province":"東京都","city":"町田市","address":"東京都町田市三輪町","lat":35.57728672,"lon":139.4995085},{"name":"天神原公園","province":"東京都","city":"町田市","address":"東京都町田市南成瀬6丁目6","lat":35.533003,"lon":139.476601},{"name":"南つくし野なかむら公園","province":"東京都","city":"町田市","address":"東京都町田市南つくし野4丁目12","lat":35.523809,"lon":139.478066},{"name":"南町田ハイタウン","province":"東京都","city":"町田市","address":"東京都町田市南町田3丁目2","lat":35.51951694,"lon":139.466755},{"name":"市立博物館前","province":"東京都","city":"町田市","address":"東京都町田市本町田","lat":35.56744205,"lon":139.4509341},{"name":"玉川学園やすらぎ公園","province":"東京都","city":"町田市","address":"東京都町田市玉川学園4丁目23","lat":35.56478242,"lon":139.4537669},{"name":"西田橋公園","province":"東京都","city":"町田市","address":"東京都町田市金森5丁目15","lat":35.52030392,"lon":139.458372},{"name":"鶴間橋児童公園","province":"東京都","city":"町田市","address":"東京都町田市南町田4丁目7","lat":35.51747144,"lon":139.464422},{"name":"鶴間公園","province":"東京都","city":"町田市","address":"東京都町田市鶴間3丁目1","lat":35.50974002,"lon":139.4675533},{"name":"鶴間三角公園","province":"東京都","city":"町田市","address":"東京都町田市鶴間6丁目10","lat":35.50528267,"lon":139.4768824},{"name":"鶴間風の子公園","province":"東京都","city":"町田市","address":"東京都町田市鶴間4丁目8","lat":35.50673656,"lon":139.4718293},{"name":"鶴間ガーデンセシア","province":"東京都","city":"町田市","address":"東京都町田市南町田5丁目14","lat":35.51466275,"lon":139.4731712},{"name":"セルシオヒルズすずかけ台","province":"東京都","city":"町田市","address":"東京都町田市小川6丁目25","lat":35.51822686,"lon":139.4737108},{"name":"南つくし野やなぎ公園","province":"東京都","city":"町田市","address":"東京都町田市南つくし野3丁目14","lat":35.51897514,"lon":139.4778267},{"name":"つくし野セントラルパーク","province":"東京都","city":"町田市","address":"東京都町田市つくし野3丁目19","lat":35.52056458,"lon":139.4823534},{"name":"総合体育館駐車場入口","province":"東京都","city":"町田市","address":"東京都町田市南成瀬5丁目12","lat":35.53652328,"lon":139.4792998},{"name":"成瀬熊ヶ谷戸公園","province":"東京都","city":"町田市","address":"東京都町田市成瀬台2丁目33","lat":35.54957761,"lon":139.4806826},{"name":"成瀬台公園","province":"東京都","city":"町田市","address":"東京都町田市成瀬台3丁目7","lat":35.55500866,"lon":139.4774664},{"name":"東玉川学園１丁目児童公園","province":"東京都","city":"町田市","address":"東京都町田市東玉川学園1丁目9","lat":35.55757141,"lon":139.4701571},{"name":"三輪中央公園","province":"東京都","city":"町田市","address":"東京都町田市三輪緑山3丁目21","lat":35.57460778,"lon":139.4890026},{"name":"三輪沢谷戸かえで公園","province":"東京都","city":"町田市","address":"東京都町田市三輪緑山1丁目35","lat":35.57666806,"lon":139.4923663},{"name":"三輪第一住宅バス停前","province":"東京都","city":"町田市","address":"東京都町田市三輪町","lat":35.58309142,"lon":139.4911137},{"name":"金井森の丘公園","province":"東京都","city":"町田市","address":"東京都町田市金井6丁目23","lat":35.57776369,"lon":139.4651787},{"name":"薬師ヶ丘住宅","province":"東京都","city":"町田市","address":"東京都町田市野津田町","lat":35.58203739,"lon":139.4461817},{"name":"薬師台青空公園","province":"東京都","city":"町田市","address":"東京都町田市薬師台2丁目13","lat":35.58050547,"lon":139.4528735},{"name":"金井関山公園","province":"東京都","city":"町田市","address":"東京都町田市金井3丁目12","lat":35.5819378,"lon":139.4591783},{"name":"山王塚公園","province":"東京都","city":"町田市","address":"東京都町田市野津田町","lat":35.58391831,"lon":139.455676},{"name":"鶴川台緑の里公園","province":"東京都","city":"町田市","address":"東京都町田市真光寺2丁目26","lat":35.60022494,"lon":139.4703547},{"name":"鶴川台丘の里公園","province":"東京都","city":"町田市","address":"東京都町田市真光寺1丁目13","lat":35.60395053,"lon":139.4656984},{"name":"イリーゼ町田図師の丘","province":"東京都","city":"町田市","address":"東京都町田市図師町","lat":35.58321024,"lon":139.4242898},{"name":"都営町田中里橋アパート","province":"東京都","city":"町田市","address":"東京都町田市木曽西1丁目33","lat":35.56654086,"lon":139.4148236},{"name":"境川住宅管理事務所前","province":"東京都","city":"町田市","address":"東京都町田市木曽東2丁目10","lat":35.55899572,"lon":139.4241309},{"name":"木曽森野防災市民いこいの広場","province":"東京都","city":"町田市","address":"東京都町田市森野4丁目8","lat":35.5552821,"lon":139.432783},{"name":"金井中央ふれあい公園","province":"東京都","city":"町田市","address":"東京都町田市金井5丁目5","lat":35.57547889,"lon":139.4604419},{"name":"本町田住宅貝がら公園","province":"東京都","city":"町田市","address":"東京都町田市本町田","lat":35.55741962,"lon":139.4538121},{"name":"小山ヶ丘こもれび公園","province":"東京都","city":"町田市","address":"東京都町田市小山ヶ丘6丁目1","lat":35.607629,"lon":139.347306},{"name":"上小山田はなみずき公園","province":"東京都","city":"町田市","address":"東京都町田市上小山田町","lat":35.594908,"lon":139.400502},{"name":"武蔵岡住宅","province":"東京都","city":"町田市","address":"東京都町田市相原町","lat":35.60869495,"lon":139.2979704},{"name":"ヴィラ町田","province":"東京都","city":"町田市","address":"東京都町田市相原町4391-7","lat":35.6123723,"lon":139.2942066},{"name":"ゆくのき学園前","province":"東京都","city":"町田市","address":"東京都町田市相原町","lat":35.60951523,"lon":139.3037209},{"name":"小山ヶ丘一丁目","province":"東京都","city":"町田市","address":"東京都町田市小山ヶ丘1丁目11","lat":35.5977662,"lon":139.3867074},{"name":"小山ヶ丘小学校前","province":"東京都","city":"町田市","address":"東京都町田市小山ヶ丘5丁目37","lat":35.60574586,"lon":139.3546372},{"name":"小山観音谷戸","province":"東京都","city":"町田市","address":"東京都町田市小山町","lat":35.60180775,"lon":139.3565418},{"name":"マイライフ尾根道","province":"東京都","city":"町田市","address":"東京都町田市常盤町3547-2","lat":35.584699,"lon":139.4037226},{"name":"常盤団地","province":"東京都","city":"町田市","address":"東京都町田市常盤町","lat":35.59195119,"lon":139.3937162},{"name":"馬場児童公園前","province":"東京都","city":"町田市","address":"東京都町田市小山町","lat":35.59046928,"lon":139.3876037},{"name":"小山小学校前","province":"東京都","city":"町田市","address":"東京都町田市小山町","lat":35.59321258,"lon":139.3778703},{"name":"小山中央小学校前","province":"東京都","city":"町田市","address":"東京都町田市小山ヶ丘3丁目7","lat":35.60220925,"lon":139.372516},{"name":"町田荘","province":"東京都","city":"町田市","address":"東京都町田市図師町","lat":35.58976228,"lon":139.4353341},{"name":"都営八幡平","province":"東京都","city":"町田市","address":"東京都町田市下小山田町","lat":35.58359464,"lon":139.4086134},{"name":"福音会","province":"東京都","city":"町田市","address":"東京都町田市野津田町","lat":35.58752755,"lon":139.435021},{"name":"矢部八幡","province":"東京都","city":"町田市","address":"東京都町田市矢部町","lat":35.57865989,"lon":139.4051454},{"name":"小山白山公園","province":"東京都","city":"町田市","address":"東京都町田市小山ヶ丘5丁目4","lat":35.60278994,"lon":139.3638869},{"name":"小山田桜台","province":"東京都","city":"町田市","address":"東京都町田市小山田桜台1丁目20","lat":35.58997139,"lon":139.4024037},{"name":"鶴川さくら病院前","province":"東京都","city":"町田市","address":"東京都町田市小野路町","lat":35.59597492,"lon":139.4457946},{"name":"山崎第二スポーツ広場","province":"東京都","city":"町田市","address":"東京都町田市山崎町","lat":35.58211024,"lon":139.4345436},{"name":"シーアイハイツ町田","province":"東京都","city":"町田市","address":"東京都町田市山崎町","lat":35.57710112,"lon":139.4369711},{"name":"町田リサイクル文化センター","province":"東京都","city":"町田市","address":"町田市下小山田町3160","lat":35.587688,"lon":139.412216},{"name":"スーパーヤマザキ百草店","province":"東京都","city":"町田市","address":"東京都町田市三輪町281-1","lat":35.5786457,"lon":139.5005001},{"name":"藤の台住宅管理組合前","province":"東京都","city":"町田市","address":"東京都町田市藤の台2丁目2","lat":35.56977353,"lon":139.4506921},{"name":"ゆうき山公園","province":"東京都","city":"町田市","address":"東京都町田市金井ヶ丘1丁目14","lat":35.57022261,"lon":139.4572909},{"name":"四つ木橋児童公園","province":"東京都","city":"町田市","address":"東京都町田市三輪町","lat":35.57728672,"lon":139.4995085},{"name":"天神原公園","province":"東京都","city":"町田市","address":"東京都町田市南成瀬6丁目6","lat":35.533003,"lon":139.476601},{"name":"南つくし野なかむら公園","province":"東京都","city":"町田市","address":"東京都町田市南つくし野4丁目12","lat":35.523809,"lon":139.478066},{"name":"南町田ハイタウン","province":"東京都","city":"町田市","address":"東京都町田市南町田3丁目2","lat":35.51951694,"lon":139.466755},{"name":"市立博物館前","province":"東京都","city":"町田市","address":"東京都町田市本町田","lat":35.56744205,"lon":139.4509341},{"name":"玉川学園やすらぎ公園","province":"東京都","city":"町田市","address":"東京都町田市玉川学園4丁目23","lat":35.56478242,"lon":139.4537669},{"name":"西田橋公園","province":"東京都","city":"町田市","address":"東京都町田市金森5丁目15","lat":35.52030392,"lon":139.458372},{"name":"鶴間橋児童公園","province":"東京都","city":"町田市","address":"東京都町田市南町田4丁目7","lat":35.51747144,"lon":139.464422},{"name":"鶴間公園","province":"東京都","city":"町田市","address":"東京都町田市鶴間3丁目1","lat":35.50974002,"lon":139.4675533},{"name":"鶴間三角公園","province":"東京都","city":"町田市","address":"東京都町田市鶴間6丁目10","lat":35.50528267,"lon":139.4768824},{"name":"鶴間風の子公園","province":"東京都","city":"町田市","address":"東京都町田市鶴間4丁目8","lat":35.50673656,"lon":139.4718293},{"name":"鶴間ガーデンセシア","province":"東京都","city":"町田市","address":"東京都町田市南町田5丁目14","lat":35.51466275,"lon":139.4731712},{"name":"セルシオヒルズすずかけ台","province":"東京都","city":"町田市","address":"東京都町田市小川6丁目25","lat":35.51822686,"lon":139.4737108},{"name":"南つくし野やなぎ公園","province":"東京都","city":"町田市","address":"東京都町田市南つくし野3丁目14","lat":35.51897514,"lon":139.4778267},{"name":"つくし野セントラルパーク","province":"東京都","city":"町田市","address":"東京都町田市つくし野3丁目19","lat":35.52056458,"lon":139.4823534},{"name":"総合体育館駐車場入口","province":"東京都","city":"町田市","address":"東京都町田市南成瀬5丁目12","lat":35.53652328,"lon":139.4792998},{"name":"成瀬熊ヶ谷戸公園","province":"東京都","city":"町田市","address":"東京都町田市成瀬台2丁目33","lat":35.54957761,"lon":139.4806826},{"name":"成瀬台公園","province":"東京都","city":"町田市","address":"東京都町田市成瀬台3丁目7","lat":35.55500866,"lon":139.4774664},{"name":"東玉川学園１丁目児童公園","province":"東京都","city":"町田市","address":"東京都町田市東玉川学園1丁目9","lat":35.55757141,"lon":139.4701571},{"name":"三輪中央公園","province":"東京都","city":"町田市","address":"東京都町田市三輪緑山3丁目21","lat":35.57460778,"lon":139.4890026},{"name":"三輪沢谷戸かえで公園","province":"東京都","city":"町田市","address":"東京都町田市三輪緑山1丁目35","lat":35.57666806,"lon":139.4923663},{"name":"三輪第一住宅バス停前","province":"東京都","city":"町田市","address":"東京都町田市三輪町","lat":35.58309142,"lon":139.4911137},{"name":"金井森の丘公園","province":"東京都","city":"町田市","address":"東京都町田市金井6丁目23","lat":35.57776369,"lon":139.4651787},{"name":"薬師ヶ丘住宅","province":"東京都","city":"町田市","address":"東京都町田市野津田町","lat":35.58203739,"lon":139.4461817},{"name":"薬師台青空公園","province":"東京都","city":"町田市","address":"東京都町田市薬師台2丁目13","lat":35.58050547,"lon":139.4528735},{"name":"金井関山公園","province":"東京都","city":"町田市","address":"東京都町田市金井3丁目12","lat":35.5819378,"lon":139.4591783},{"name":"山王塚公園","province":"東京都","city":"町田市","address":"東京都町田市野津田町","lat":35.58391831,"lon":139.455676},{"name":"鶴川台緑の里公園","province":"東京都","city":"町田市","address":"東京都町田市真光寺2丁目26","lat":35.60022494,"lon":139.4703547},{"name":"鶴川台丘の里公園","province":"東京都","city":"町田市","address":"東京都町田市真光寺1丁目13","lat":35.60395053,"lon":139.4656984},{"name":"イリーゼ町田図師の丘","province":"東京都","city":"町田市","address":"東京都町田市図師町","lat":35.58321024,"lon":139.4242898},{"name":"都営町田中里橋アパート","province":"東京都","city":"町田市","address":"東京都町田市木曽西1丁目33","lat":35.56654086,"lon":139.4148236},{"name":"境川住宅管理事務所前","province":"東京都","city":"町田市","address":"東京都町田市木曽東2丁目10","lat":35.55899572,"lon":139.4241309},{"name":"木曽森野防災市民いこいの広場","province":"東京都","city":"町田市","address":"東京都町田市森野4丁目8","lat":35.5552821,"lon":139.432783},{"name":"金井中央ふれあい公園","province":"東京都","city":"町田市","address":"東京都町田市金井5丁目5","lat":35.57547889,"lon":139.4604419},{"name":"本町田住宅貝がら公園","province":"東京都","city":"町田市","address":"東京都町田市本町田","lat":35.55741962,"lon":139.4538121},{"name":"町田リサイクル文化センター","province":"東京都","city":"町田市","address":"町田市下小山田町3160","lat":35.587688,"lon":139.412216},{"name":"スーパーヤマザキ百草店","province":"東京都","city":"町田市","address":"東京都町田市三輪町281-1","lat":35.5786457,"lon":139.5005001},{"name":"藤の台住宅管理組合前","province":"東京都","city":"町田市","address":"東京都町田市藤の台2丁目2","lat":35.56977353,"lon":139.4506921},{"name":"ゆうき山公園","province":"東京都","city":"町田市","address":"東京都町田市金井ヶ丘1丁目14","lat":35.57022261,"lon":139.4572909},{"name":"四つ木橋児童公園","province":"東京都","city":"町田市","address":"東京都町田市三輪町","lat":35.57728672,"lon":139.4995085},{"name":"天神原公園","province":"東京都","city":"町田市","address":"東京都町田市南成瀬6丁目6","lat":35.533003,"lon":139.476601},{"name":"南つくし野なかむら公園","province":"東京都","city":"町田市","address":"東京都町田市南つくし野4丁目12","lat":35.523809,"lon":139.478066},{"name":"南町田ハイタウン","province":"東京都","city":"町田市","address":"東京都町田市南町田3丁目2","lat":35.51951694,"lon":139.466755},{"name":"市立博物館前","province":"東京都","city":"町田市","address":"東京都町田市本町田","lat":35.56744205,"lon":139.4509341},{"name":"玉川学園やすらぎ公園","province":"東京都","city":"町田市","address":"東京都町田市玉川学園4丁目23","lat":35.56478242,"lon":139.4537669},{"name":"西田橋公園","province":"東京都","city":"町田市","address":"東京都町田市金森5丁目15","lat":35.52030392,"lon":139.458372},{"name":"鶴間橋児童公園","province":"東京都","city":"町田市","address":"東京都町田市南町田4丁目7","lat":35.51747144,"lon":139.464422},{"name":"鶴間公園","province":"東京都","city":"町田市","address":"東京都町田市鶴間3丁目1","lat":35.50974002,"lon":139.4675533},{"name":"鶴間三角公園","province":"東京都","city":"町田市","address":"東京都町田市鶴間6丁目10","lat":35.50528267,"lon":139.4768824},{"name":"鶴間風の子公園","province":"東京都","city":"町田市","address":"東京都町田市鶴間4丁目8","lat":35.50673656,"lon":139.4718293},{"name":"鶴間ガーデンセシア","province":"東京都","city":"町田市","address":"東京都町田市南町田5丁目14","lat":35.51466275,"lon":139.4731712},{"name":"セルシオヒルズすずかけ台","province":"東京都","city":"町田市","address":"東京都町田市小川6丁目25","lat":35.51822686,"lon":139.4737108},{"name":"南つくし野やなぎ公園","province":"東京都","city":"町田市","address":"東京都町田市南つくし野3丁目14","lat":35.51897514,"lon":139.4778267},{"name":"つくし野セントラルパーク","province":"東京都","city":"町田市","address":"東京都町田市つくし野3丁目19","lat":35.52056458,"lon":139.4823534},{"name":"総合体育館駐車場入口","province":"東京都","city":"町田市","address":"東京都町田市南成瀬5丁目12","lat":35.53652328,"lon":139.4792998},{"name":"成瀬熊ヶ谷戸公園","province":"東京都","city":"町田市","address":"東京都町田市成瀬台2丁目33","lat":35.54957761,"lon":139.4806826},{"name":"成瀬台公園","province":"東京都","city":"町田市","address":"東京都町田市成瀬台3丁目7","lat":35.55500866,"lon":139.4774664},{"name":"東玉川学園１丁目児童公園","province":"東京都","city":"町田市","address":"東京都町田市東玉川学園1丁目9","lat":35.55757141,"lon":139.4701571},{"name":"三輪中央公園","province":"東京都","city":"町田市","address":"東京都町田市三輪緑山3丁目21","lat":35.57460778,"lon":139.4890026},{"name":"三輪沢谷戸かえで公園","province":"東京都","city":"町田市","address":"東京都町田市三輪緑山1丁目35","lat":35.57666806,"lon":139.4923663},{"name":"三輪第一住宅バス停前","province":"東京都","city":"町田市","address":"東京都町田市三輪町","lat":35.58309142,"lon":139.4911137},{"name":"金井森の丘公園","province":"東京都","city":"町田市","address":"東京都町田市金井6丁目23","lat":35.57776369,"lon":139.4651787},{"name":"薬師ヶ丘住宅","province":"東京都","city":"町田市","address":"東京都町田市野津田町","lat":35.58203739,"lon":139.4461817},{"name":"薬師台青空公園","province":"東京都","city":"町田市","address":"東京都町田市薬師台2丁目13","lat":35.58050547,"lon":139.4528735},{"name":"金井関山公園","province":"東京都","city":"町田市","address":"東京都町田市金井3丁目12","lat":35.5819378,"lon":139.4591783},{"name":"山王塚公園","province":"東京都","city":"町田市","address":"東京都町田市野津田町","lat":35.58391831,"lon":139.455676},{"name":"鶴川台緑の里公園","province":"東京都","city":"町田市","address":"東京都町田市真光寺2丁目26","lat":35.60022494,"lon":139.4703547},{"name":"鶴川台丘の里公園","province":"東京都","city":"町田市","address":"東京都町田市真光寺1丁目13","lat":35.60395053,"lon":139.4656984},{"name":"イリーゼ町田図師の丘","province":"東京都","city":"町田市","address":"東京都町田市図師町","lat":35.58321024,"lon":139.4242898},{"name":"都営町田中里橋アパート","province":"東京都","city":"町田市","address":"東京都町田市木曽西1丁目33","lat":35.56654086,"lon":139.4148236},{"name":"境川住宅管理事務所前","province":"東京都","city":"町田市","address":"東京都町田市木曽東2丁目10","lat":35.55899572,"lon":139.4241309},{"name":"木曽森野防災市民いこいの広場","province":"東京都","city":"町田市","address":"東京都町田市森野4丁目8","lat":35.5552821,"lon":139.432783},{"name":"金井中央ふれあい公園","province":"東京都","city":"町田市","address":"東京都町田市金井5丁目5","lat":35.57547889,"lon":139.4604419},{"name":"本町田住宅貝がら公園","province":"東京都","city":"町田市","address":"東京都町田市本町田","lat":35.55741962,"lon":139.4538121},{"name":"町田リサイクル文化センター","province":"東京都","city":"町田市","address":"町田市下小山田町3160","lat":35.587688,"lon":139.412216},{"name":"スーパーヤマザキ百草店","province":"東京都","city":"町田市","address":"東京都町田市三輪町281-1","lat":35.5786457,"lon":139.5005001},{"name":"藤の台住宅管理組合前","province":"東京都","city":"町田市","address":"東京都町田市藤の台2丁目2","lat":35.56977353,"lon":139.4506921},{"name":"ゆうき山公園","province":"東京都","city":"町田市","address":"東京都町田市金井ヶ丘1丁目14","lat":35.57022261,"lon":139.4572909},{"name":"四つ木橋児童公園","province":"東京都","city":"町田市","address":"東京都町田市三輪町","lat":35.57728672,"lon":139.4995085},{"name":"天神原公園","province":"東京都","city":"町田市","address":"東京都町田市南成瀬6丁目6","lat":35.533003,"lon":139.476601},{"name":"南つくし野なかむら公園","province":"東京都","city":"町田市","address":"東京都町田市南つくし野4丁目12","lat":35.523809,"lon":139.478066},{"name":"南町田ハイタウン","province":"東京都","city":"町田市","address":"東京都町田市南町田3丁目2","lat":35.51951694,"lon":139.466755},{"name":"市立博物館前","province":"東京都","city":"町田市","address":"東京都町田市本町田","lat":35.56744205,"lon":139.4509341},{"name":"玉川学園やすらぎ公園","province":"東京都","city":"町田市","address":"東京都町田市玉川学園4丁目23","lat":35.56478242,"lon":139.4537669},{"name":"西田橋公園","province":"東京都","city":"町田市","address":"東京都町田市金森5丁目15","lat":35.52030392,"lon":139.458372},{"name":"鶴間橋児童公園","province":"東京都","city":"町田市","address":"東京都町田市南町田4丁目7","lat":35.51747144,"lon":139.464422},{"name":"鶴間公園","province":"東京都","city":"町田市","address":"東京都町田市鶴間3丁目1","lat":35.50974002,"lon":139.4675533},{"name":"鶴間三角公園","province":"東京都","city":"町田市","address":"東京都町田市鶴間6丁目10","lat":35.50528267,"lon":139.4768824},{"name":"鶴間風の子公園","province":"東京都","city":"町田市","address":"東京都町田市鶴間4丁目8","lat":35.50673656,"lon":139.4718293},{"name":"鶴間ガーデンセシア","province":"東京都","city":"町田市","address":"東京都町田市南町田5丁目14","lat":35.51466275,"lon":139.4731712},{"name":"セルシオヒルズすずかけ台","province":"東京都","city":"町田市","address":"東京都町田市小川6丁目25","lat":35.51822686,"lon":139.4737108},{"name":"南つくし野やなぎ公園","province":"東京都","city":"町田市","address":"東京都町田市南つくし野3丁目14","lat":35.51897514,"lon":139.4778267},{"name":"つくし野セントラルパーク","province":"東京都","city":"町田市","address":"東京都町田市つくし野3丁目19","lat":35.52056458,"lon":139.4823534},{"name":"総合体育館駐車場入口","province":"東京都","city":"町田市","address":"東京都町田市南成瀬5丁目12","lat":35.53652328,"lon":139.4792998},{"name":"成瀬熊ヶ谷戸公園","province":"東京都","city":"町田市","address":"東京都町田市成瀬台2丁目33","lat":35.54957761,"lon":139.4806826},{"name":"成瀬台公園","province":"東京都","city":"町田市","address":"東京都町田市成瀬台3丁目7","lat":35.55500866,"lon":139.4774664},{"name":"東玉川学園１丁目児童公園","province":"東京都","city":"町田市","address":"東京都町田市東玉川学園1丁目9","lat":35.55757141,"lon":139.4701571},{"name":"三輪中央公園","province":"東京都","city":"町田市","address":"東京都町田市三輪緑山3丁目21","lat":35.57460778,"lon":139.4890026},{"name":"三輪沢谷戸かえで公園","province":"東京都","city":"町田市","address":"東京都町田市三輪緑山1丁目35","lat":35.57666806,"lon":139.4923663},{"name":"三輪第一住宅バス停前","province":"東京都","city":"町田市","address":"東京都町田市三輪町","lat":35.58309142,"lon":139.4911137},{"name":"金井森の丘公園","province":"東京都","city":"町田市","address":"東京都町田市金井6丁目23","lat":35.57776369,"lon":139.4651787},{"name":"薬師ヶ丘住宅","province":"東京都","city":"町田市","address":"東京都町田市野津田町","lat":35.58203739,"lon":139.4461817},{"name":"薬師台青空公園","province":"東京都","city":"町田市","address":"東京都町田市薬師台2丁目13","lat":35.58050547,"lon":139.4528735},{"name":"金井関山公園","province":"東京都","city":"町田市","address":"東京都町田市金井3丁目12","lat":35.5819378,"lon":139.4591783},{"name":"山王塚公園","province":"東京都","city":"町田市","address":"東京都町田市野津田町","lat":35.58391831,"lon":139.455676},{"name":"鶴川台緑の里公園","province":"東京都","city":"町田市","address":"東京都町田市真光寺2丁目26","lat":35.60022494,"lon":139.4703547},{"name":"鶴川台丘の里公園","province":"東京都","city":"町田市","address":"東京都町田市真光寺1丁目13","lat":35.60395053,"lon":139.4656984},{"name":"イリーゼ町田図師の丘","province":"東京都","city":"町田市","address":"東京都町田市図師町","lat":35.58321024,"lon":139.4242898},{"name":"都営町田中里橋アパート","province":"東京都","city":"町田市","address":"東京都町田市木曽西1丁目33","lat":35.56654086,"lon":139.4148236},{"name":"境川住宅管理事務所前","province":"東京都","city":"町田市","address":"東京都町田市木曽東2丁目10","lat":35.55899572,"lon":139.4241309},{"name":"木曽森野防災市民いこいの広場","province":"東京都","city":"町田市","address":"東京都町田市森野4丁目8","lat":35.5552821,"lon":139.432783},{"name":"金井中央ふれあい公園","province":"東京都","city":"町田市","address":"東京都町田市金井5丁目5","lat":35.57547889,"lon":139.4604419},{"name":"本町田住宅貝がら公園","province":"東京都","city":"町田市","address":"東京都町田市本町田","lat":35.55741962,"lon":139.4538121},{"name":"町田リサイクル文化センター","province":"東京都","city":"町田市","address":"町田市下小山田町3160","lat":35.587688,"lon":139.412216},{"name":"スーパーヤマザキ百草店","province":"東京都","city":"町田市","address":"東京都町田市三輪町281-1","lat":35.5786457,"lon":139.5005001},{"name":"藤の台住宅管理組合前","province":"東京都","city":"町田市","address":"東京都町田市藤の台2丁目2","lat":35.56977353,"lon":139.4506921},{"name":"ゆうき山公園","province":"東京都","city":"町田市","address":"東京都町田市金井ヶ丘1丁目14","lat":35.57022261,"lon":139.4572909},{"name":"四つ木橋児童公園","province":"東京都","city":"町田市","address":"東京都町田市三輪町","lat":35.57728672,"lon":139.4995085},{"name":"天神原公園","province":"東京都","city":"町田市","address":"東京都町田市南成瀬6丁目6","lat":35.533003,"lon":139.476601},{"name":"南つくし野なかむら公園","province":"東京都","city":"町田市","address":"東京都町田市南つくし野4丁目12","lat":35.523809,"lon":139.478066},{"name":"南町田ハイタウン","province":"東京都","city":"町田市","address":"東京都町田市南町田3丁目2","lat":35.51951694,"lon":139.466755},{"name":"市立博物館前","province":"東京都","city":"町田市","address":"東京都町田市本町田","lat":35.56744205,"lon":139.4509341},{"name":"玉川学園やすらぎ公園","province":"東京都","city":"町田市","address":"東京都町田市玉川学園4丁目23","lat":35.56478242,"lon":139.4537669},{"name":"西田橋公園","province":"東京都","city":"町田市","address":"東京都町田市金森5丁目15","lat":35.52030392,"lon":139.458372},{"name":"鶴間橋児童公園","province":"東京都","city":"町田市","address":"東京都町田市南町田4丁目7","lat":35.51747144,"lon":139.464422},{"name":"鶴間公園","province":"東京都","city":"町田市","address":"東京都町田市鶴間3丁目1","lat":35.50974002,"lon":139.4675533},{"name":"鶴間三角公園","province":"東京都","city":"町田市","address":"東京都町田市鶴間6丁目10","lat":35.50528267,"lon":139.4768824},{"name":"鶴間風の子公園","province":"東京都","city":"町田市","address":"東京都町田市鶴間4丁目8","lat":35.50673656,"lon":139.4718293},{"name":"鶴間ガーデンセシア","province":"東京都","city":"町田市","address":"東京都町田市南町田5丁目14","lat":35.51466275,"lon":139.4731712},{"name":"セルシオヒルズすずかけ台","province":"東京都","city":"町田市","address":"東京都町田市小川6丁目25","lat":35.51822686,"lon":139.4737108},{"name":"南つくし野やなぎ公園","province":"東京都","city":"町田市","address":"東京都町田市南つくし野3丁目14","lat":35.51897514,"lon":139.4778267},{"name":"つくし野セントラルパーク","province":"東京都","city":"町田市","address":"東京都町田市つくし野3丁目19","lat":35.52056458,"lon":139.4823534},{"name":"総合体育館駐車場入口","province":"東京都","city":"町田市","address":"東京都町田市南成瀬5丁目12","lat":35.53652328,"lon":139.4792998},{"name":"成瀬熊ヶ谷戸公園","province":"東京都","city":"町田市","address":"東京都町田市成瀬台2丁目33","lat":35.54957761,"lon":139.4806826},{"name":"成瀬台公園","province":"東京都","city":"町田市","address":"東京都町田市成瀬台3丁目7","lat":35.55500866,"lon":139.4774664},{"name":"東玉川学園１丁目児童公園","province":"東京都","city":"町田市","address":"東京都町田市東玉川学園1丁目9","lat":35.55757141,"lon":139.4701571},{"name":"三輪中央公園","province":"東京都","city":"町田市","address":"東京都町田市三輪緑山3丁目21","lat":35.57460778,"lon":139.4890026},{"name":"三輪沢谷戸かえで公園","province":"東京都","city":"町田市","address":"東京都町田市三輪緑山1丁目35","lat":35.57666806,"lon":139.4923663},{"name":"三輪第一住宅バス停前","province":"東京都","city":"町田市","address":"東京都町田市三輪町","lat":35.58309142,"lon":139.4911137},{"name":"金井森の丘公園","province":"東京都","city":"町田市","address":"東京都町田市金井6丁目23","lat":35.57776369,"lon":139.4651787},{"name":"薬師ヶ丘住宅","province":"東京都","city":"町田市","address":"東京都町田市野津田町","lat":35.58203739,"lon":139.4461817},{"name":"薬師台青空公園","province":"東京都","city":"町田市","address":"東京都町田市薬師台2丁目13","lat":35.58050547,"lon":139.4528735},{"name":"金井関山公園","province":"東京都","city":"町田市","address":"東京都町田市金井3丁目12","lat":35.5819378,"lon":139.4591783},{"name":"山王塚公園","province":"東京都","city":"町田市","address":"東京都町田市野津田町","lat":35.58391831,"lon":139.455676},{"name":"鶴川台緑の里公園","province":"東京都","city":"町田市","address":"東京都町田市真光寺2丁目26","lat":35.60022494,"lon":139.4703547},{"name":"鶴川台丘の里公園","province":"東京都","city":"町田市","address":"東京都町田市真光寺1丁目13","lat":35.60395053,"lon":139.4656984},{"name":"イリーゼ町田図師の丘","province":"東京都","city":"町田市","address":"東京都町田市図師町","lat":35.58321024,"lon":139.4242898},{"name":"都営町田中里橋アパート","province":"東京都","city":"町田市","address":"東京都町田市木曽西1丁目33","lat":35.56654086,"lon":139.4148236},{"name":"境川住宅管理事務所前","province":"東京都","city":"町田市","address":"東京都町田市木曽東2丁目10","lat":35.55899572,"lon":139.4241309},{"name":"木曽森野防災市民いこいの広場","province":"東京都","city":"町田市","address":"東京都町田市森野4丁目8","lat":35.5552821,"lon":139.432783},{"name":"金井中央ふれあい公園","province":"東京都","city":"町田市","address":"東京都町田市金井5丁目5","lat":35.57547889,"lon":139.4604419},{"name":"本町田住宅貝がら公園","province":"東京都","city":"町田市","address":"東京都町田市本町田","lat":35.55741962,"lon":139.4538121},{"name":"スーパーヤマザキ百草店","province":"東京都","city":"町田市","address":"東京都町田市三輪町281-1","lat":35.5786457,"lon":139.5005001},{"name":"藤の台住宅管理組合前","province":"東京都","city":"町田市","address":"東京都町田市藤の台2丁目2","lat":35.56977353,"lon":139.4506921},{"name":"ゆうき山公園","province":"東京都","city":"町田市","address":"東京都町田市金井ヶ丘1丁目14","lat":35.57022261,"lon":139.4572909},{"name":"四つ木橋児童公園","province":"東京都","city":"町田市","address":"東京都町田市三輪町","lat":35.57728672,"lon":139.4995085},{"name":"天神原公園","province":"東京都","city":"町田市","address":"東京都町田市南成瀬6丁目6","lat":35.533003,"lon":139.476601},{"name":"南つくし野なかむら公園","province":"東京都","city":"町田市","address":"東京都町田市南つくし野4丁目12","lat":35.523809,"lon":139.478066},{"name":"南町田ハイタウン","province":"東京都","city":"町田市","address":"東京都町田市南町田3丁目2","lat":35.51951694,"lon":139.466755},{"name":"市立博物館前","province":"東京都","city":"町田市","address":"東京都町田市本町田","lat":35.56744205,"lon":139.4509341},{"name":"玉川学園やすらぎ公園","province":"東京都","city":"町田市","address":"東京都町田市玉川学園4丁目23","lat":35.56478242,"lon":139.4537669},{"name":"西田橋公園","province":"東京都","city":"町田市","address":"東京都町田市金森5丁目15","lat":35.52030392,"lon":139.458372},{"name":"鶴間橋児童公園","province":"東京都","city":"町田市","address":"東京都町田市南町田4丁目7","lat":35.51747144,"lon":139.464422},{"name":"鶴間公園","province":"東京都","city":"町田市","address":"東京都町田市鶴間3丁目1","lat":35.50974002,"lon":139.4675533},{"name":"鶴間三角公園","province":"東京都","city":"町田市","address":"東京都町田市鶴間6丁目10","lat":35.50528267,"lon":139.4768824},{"name":"鶴間風の子公園","province":"東京都","city":"町田市","address":"東京都町田市鶴間4丁目8","lat":35.50673656,"lon":139.4718293},{"name":"鶴間ガーデンセシア","province":"東京都","city":"町田市","address":"東京都町田市南町田5丁目14","lat":35.51466275,"lon":139.4731712},{"name":"セルシオヒルズすずかけ台","province":"東京都","city":"町田市","address":"東京都町田市小川6丁目25","lat":35.51822686,"lon":139.4737108},{"name":"南つくし野やなぎ公園","province":"東京都","city":"町田市","address":"東京都町田市南つくし野3丁目14","lat":35.51897514,"lon":139.4778267},{"name":"つくし野セントラルパーク","province":"東京都","city":"町田市","address":"東京都町田市つくし野3丁目19","lat":35.52056458,"lon":139.4823534},{"name":"総合体育館駐車場入口","province":"東京都","city":"町田市","address":"東京都町田市南成瀬5丁目12","lat":35.53652328,"lon":139.4792998},{"name":"成瀬熊ヶ谷戸公園","province":"東京都","city":"町田市","address":"東京都町田市成瀬台2丁目33","lat":35.54957761,"lon":139.4806826},{"name":"成瀬台公園","province":"東京都","city":"町田市","address":"東京都町田市成瀬台3丁目7","lat":35.55500866,"lon":139.4774664},{"name":"東玉川学園１丁目児童公園","province":"東京都","city":"町田市","address":"東京都町田市東玉川学園1丁目9","lat":35.55757141,"lon":139.4701571},{"name":"三輪中央公園","province":"東京都","city":"町田市","address":"東京都町田市三輪緑山3丁目21","lat":35.57460778,"lon":139.4890026},{"name":"三輪沢谷戸かえで公園","province":"東京都","city":"町田市","address":"東京都町田市三輪緑山1丁目35","lat":35.57666806,"lon":139.4923663},{"name":"三輪第一住宅バス停前","province":"東京都","city":"町田市","address":"東京都町田市三輪町","lat":35.58309142,"lon":139.4911137},{"name":"金井森の丘公園","province":"東京都","city":"町田市","address":"東京都町田市金井6丁目23","lat":35.57776369,"lon":139.4651787},{"name":"薬師ヶ丘住宅","province":"東京都","city":"町田市","address":"東京都町田市野津田町","lat":35.58203739,"lon":139.4461817},{"name":"薬師台青空公園","province":"東京都","city":"町田市","address":"東京都町田市薬師台2丁目13","lat":35.58050547,"lon":139.4528735},{"name":"金井関山公園","province":"東京都","city":"町田市","address":"東京都町田市金井3丁目12","lat":35.5819378,"lon":139.4591783},{"name":"山王塚公園","province":"東京都","city":"町田市","address":"東京都町田市野津田町","lat":35.58391831,"lon":139.455676},{"name":"鶴川台緑の里公園","province":"東京都","city":"町田市","address":"東京都町田市真光寺2丁目26","lat":35.60022494,"lon":139.4703547},{"name":"鶴川台丘の里公園","province":"東京都","city":"町田市","address":"東京都町田市真光寺1丁目13","lat":35.60395053,"lon":139.4656984},{"name":"イリーゼ町田図師の丘","province":"東京都","city":"町田市","address":"東京都町田市図師町","lat":35.58321024,"lon":139.4242898},{"name":"都営町田中里橋アパート","province":"東京都","city":"町田市","address":"東京都町田市木曽西1丁目33","lat":35.56654086,"lon":139.4148236},{"name":"境川住宅管理事務所前","province":"東京都","city":"町田市","address":"東京都町田市木曽東2丁目10","lat":35.55899572,"lon":139.4241309},{"name":"木曽森野防災市民いこいの広場","province":"東京都","city":"町田市","address":"東京都町田市森野4丁目8","lat":35.5552821,"lon":139.432783},{"name":"金井中央ふれあい公園","province":"東京都","city":"町田市","address":"東京都町田市金井5丁目5","lat":35.57547889,"lon":139.4604419},{"name":"本町田住宅貝がら公園","province":"東京都","city":"町田市","address":"東京都町田市本町田","lat":35.55741962,"lon":139.4538121},{"name":"藤の台住宅管理組合前","province":"東京都","city":"町田市","address":"東京都町田市藤の台2丁目2","lat":35.56977353,"lon":139.4506921},{"name":"ゆうき山公園","province":"東京都","city":"町田市","address":"東京都町田市金井ヶ丘1丁目14","lat":35.57022261,"lon":139.4572909},{"name":"四つ木橋児童公園","province":"東京都","city":"町田市","address":"東京都町田市三輪町","lat":35.57728672,"lon":139.4995085},{"name":"天神原公園","province":"東京都","city":"町田市","address":"東京都町田市南成瀬6丁目6","lat":35.533003,"lon":139.476601},{"name":"南つくし野なかむら公園","province":"東京都","city":"町田市","address":"東京都町田市南つくし野4丁目12","lat":35.523809,"lon":139.478066},{"name":"南町田ハイタウン","province":"東京都","city":"町田市","address":"東京都町田市南町田3丁目2","lat":35.51951694,"lon":139.466755},{"name":"市立博物館前","province":"東京都","city":"町田市","address":"東京都町田市本町田","lat":35.56744205,"lon":139.4509341},{"name":"玉川学園やすらぎ公園","province":"東京都","city":"町田市","address":"東京都町田市玉川学園4丁目23","lat":35.56478242,"lon":139.4537669},{"name":"西田橋公園","province":"東京都","city":"町田市","address":"東京都町田市金森5丁目15","lat":35.52030392,"lon":139.458372},{"name":"鶴間橋児童公園","province":"東京都","city":"町田市","address":"東京都町田市南町田4丁目7","lat":35.51747144,"lon":139.464422},{"name":"鶴間公園","province":"東京都","city":"町田市","address":"東京都町田市鶴間3丁目1","lat":35.50974002,"lon":139.4675533},{"name":"鶴間三角公園","province":"東京都","city":"町田市","address":"東京都町田市鶴間6丁目10","lat":35.50528267,"lon":139.4768824},{"name":"鶴間風の子公園","province":"東京都","city":"町田市","address":"東京都町田市鶴間4丁目8","lat":35.50673656,"lon":139.4718293},{"name":"鶴間ガーデンセシア","province":"東京都","city":"町田市","address":"東京都町田市南町田5丁目14","lat":35.51466275,"lon":139.4731712},{"name":"セルシオヒルズすずかけ台","province":"東京都","city":"町田市","address":"東京都町田市小川6丁目25","lat":35.51822686,"lon":139.4737108},{"name":"南つくし野やなぎ公園","province":"東京都","city":"町田市","address":"東京都町田市南つくし野3丁目14","lat":35.51897514,"lon":139.4778267},{"name":"つくし野セントラルパーク","province":"東京都","city":"町田市","address":"東京都町田市つくし野3丁目19","lat":35.52056458,"lon":139.4823534},{"name":"総合体育館駐車場入口","province":"東京都","city":"町田市","address":"東京都町田市南成瀬5丁目12","lat":35.53652328,"lon":139.4792998},{"name":"成瀬熊ヶ谷戸公園","province":"東京都","city":"町田市","address":"東京都町田市成瀬台2丁目33","lat":35.54957761,"lon":139.4806826},{"name":"成瀬台公園","province":"東京都","city":"町田市","address":"東京都町田市成瀬台3丁目7","lat":35.55500866,"lon":139.4774664},{"name":"東玉川学園１丁目児童公園","province":"東京都","city":"町田市","address":"東京都町田市東玉川学園1丁目9","lat":35.55757141,"lon":139.4701571},{"name":"三輪中央公園","province":"東京都","city":"町田市","address":"東京都町田市三輪緑山3丁目21","lat":35.57460778,"lon":139.4890026},{"name":"三輪沢谷戸かえで公園","province":"東京都","city":"町田市","address":"東京都町田市三輪緑山1丁目35","lat":35.57666806,"lon":139.4923663},{"name":"三輪第一住宅バス停前","province":"東京都","city":"町田市","address":"東京都町田市三輪町","lat":35.58309142,"lon":139.4911137},{"name":"金井森の丘公園","province":"東京都","city":"町田市","address":"東京都町田市金井6丁目23","lat":35.57776369,"lon":139.4651787},{"name":"薬師ヶ丘住宅","province":"東京都","city":"町田市","address":"東京都町田市野津田町","lat":35.58203739,"lon":139.4461817},{"name":"薬師台青空公園","province":"東京都","city":"町田市","address":"東京都町田市薬師台2丁目13","lat":35.58050547,"lon":139.4528735},{"name":"金井関山公園","province":"東京都","city":"町田市","address":"東京都町田市金井3丁目12","lat":35.5819378,"lon":139.4591783},{"name":"山王塚公園","province":"東京都","city":"町田市","address":"東京都町田市野津田町","lat":35.58391831,"lon":139.455676},{"name":"鶴川台緑の里公園","province":"東京都","city":"町田市","address":"東京都町田市真光寺2丁目26","lat":35.60022494,"lon":139.4703547},{"name":"鶴川台丘の里公園","province":"東京都","city":"町田市","address":"東京都町田市真光寺1丁目13","lat":35.60395053,"lon":139.4656984},{"name":"イリーゼ町田図師の丘","province":"東京都","city":"町田市","address":"東京都町田市図師町","lat":35.58321024,"lon":139.4242898},{"name":"都営町田中里橋アパート","province":"東京都","city":"町田市","address":"東京都町田市木曽西1丁目33","lat":35.56654086,"lon":139.4148236},{"name":"境川住宅管理事務所前","province":"東京都","city":"町田市","address":"東京都町田市木曽東2丁目10","lat":35.55899572,"lon":139.4241309},{"name":"木曽森野防災市民いこいの広場","province":"東京都","city":"町田市","address":"東京都町田市森野4丁目8","lat":35.5552821,"lon":139.432783},{"name":"金井中央ふれあい公園","province":"東京都","city":"町田市","address":"東京都町田市金井5丁目5","lat":35.57547889,"lon":139.4604419},{"name":"本町田住宅貝がら公園","province":"東京都","city":"町田市","address":"東京都町田市本町田","lat":35.55741962,"lon":139.4538121},{"name":"藤の台住宅管理組合前","province":"東京都","city":"町田市","address":"東京都町田市藤の台2丁目2","lat":35.56977353,"lon":139.4506921},{"name":"ゆうき山公園","province":"東京都","city":"町田市","address":"東京都町田市金井ヶ丘1丁目14","lat":35.57022261,"lon":139.4572909},{"name":"四つ木橋児童公園","province":"東京都","city":"町田市","address":"東京都町田市三輪町","lat":35.57728672,"lon":139.4995085},{"name":"天神原公園","province":"東京都","city":"町田市","address":"東京都町田市南成瀬6丁目6","lat":35.533003,"lon":139.476601},{"name":"南つくし野なかむら公園","province":"東京都","city":"町田市","address":"東京都町田市南つくし野4丁目12","lat":35.523809,"lon":139.478066},{"name":"南町田ハイタウン","province":"東京都","city":"町田市","address":"東京都町田市南町田3丁目2","lat":35.51951694,"lon":139.466755},{"name":"市立博物館前","province":"東京都","city":"町田市","address":"東京都町田市本町田","lat":35.56744205,"lon":139.4509341},{"name":"玉川学園やすらぎ公園","province":"東京都","city":"町田市","address":"東京都町田市玉川学園4丁目23","lat":35.56478242,"lon":139.4537669},{"name":"西田橋公園","province":"東京都","city":"町田市","address":"東京都町田市金森5丁目15","lat":35.52030392,"lon":139.458372},{"name":"鶴間橋児童公園","province":"東京都","city":"町田市","address":"東京都町田市南町田4丁目7","lat":35.51747144,"lon":139.464422},{"name":"鶴間公園","province":"東京都","city":"町田市","address":"東京都町田市鶴間3丁目1","lat":35.50974002,"lon":139.4675533},{"name":"鶴間三角公園","province":"東京都","city":"町田市","address":"東京都町田市鶴間6丁目10","lat":35.50528267,"lon":139.4768824},{"name":"鶴間風の子公園","province":"東京都","city":"町田市","address":"東京都町田市鶴間4丁目8","lat":35.50673656,"lon":139.4718293},{"name":"鶴間ガーデンセシア","province":"東京都","city":"町田市","address":"東京都町田市南町田5丁目14","lat":35.51466275,"lon":139.4731712},{"name":"セルシオヒルズすずかけ台","province":"東京都","city":"町田市","address":"東京都町田市小川6丁目25","lat":35.51822686,"lon":139.4737108},{"name":"南つくし野やなぎ公園","province":"東京都","city":"町田市","address":"東京都町田市南つくし野3丁目14","lat":35.51897514,"lon":139.4778267},{"name":"つくし野セントラルパーク","province":"東京都","city":"町田市","address":"東京都町田市つくし野3丁目19","lat":35.52056458,"lon":139.4823534},{"name":"総合体育館駐車場入口","province":"東京都","city":"町田市","address":"東京都町田市南成瀬5丁目12","lat":35.53652328,"lon":139.4792998},{"name":"成瀬熊ヶ谷戸公園","province":"東京都","city":"町田市","address":"東京都町田市成瀬台2丁目33","lat":35.54957761,"lon":139.4806826},{"name":"成瀬台公園","province":"東京都","city":"町田市","address":"東京都町田市成瀬台3丁目7","lat":35.55500866,"lon":139.4774664},{"name":"東玉川学園１丁目児童公園","province":"東京都","city":"町田市","address":"東京都町田市東玉川学園1丁目9","lat":35.55757141,"lon":139.4701571},{"name":"三輪中央公園","province":"東京都","city":"町田市","address":"東京都町田市三輪緑山3丁目21","lat":35.57460778,"lon":139.4890026},{"name":"三輪沢谷戸かえで公園","province":"東京都","city":"町田市","address":"東京都町田市三輪緑山1丁目35","lat":35.57666806,"lon":139.4923663},{"name":"三輪第一住宅バス停前","province":"東京都","city":"町田市","address":"東京都町田市三輪町","lat":35.58309142,"lon":139.4911137},{"name":"金井森の丘公園","province":"東京都","city":"町田市","address":"東京都町田市金井6丁目23","lat":35.57776369,"lon":139.4651787},{"name":"薬師ヶ丘住宅","province":"東京都","city":"町田市","address":"東京都町田市野津田町","lat":35.58203739,"lon":139.4461817},{"name":"薬師台青空公園","province":"東京都","city":"町田市","address":"東京都町田市薬師台2丁目13","lat":35.58050547,"lon":139.4528735},{"name":"金井関山公園","province":"東京都","city":"町田市","address":"東京都町田市金井3丁目12","lat":35.5819378,"lon":139.4591783},{"name":"山王塚公園","province":"東京都","city":"町田市","address":"東京都町田市野津田町","lat":35.58391831,"lon":139.455676},{"name":"鶴川台緑の里公園","province":"東京都","city":"町田市","address":"東京都町田市真光寺2丁目26","lat":35.60022494,"lon":139.4703547},{"name":"鶴川台丘の里公園","province":"東京都","city":"町田市","address":"東京都町田市真光寺1丁目13","lat":35.60395053,"lon":139.4656984},{"name":"イリーゼ町田図師の丘","province":"東京都","city":"町田市","address":"東京都町田市図師町","lat":35.58321024,"lon":139.4242898},{"name":"都営町田中里橋アパート","province":"東京都","city":"町田市","address":"東京都町田市木曽西1丁目33","lat":35.56654086,"lon":139.4148236},{"name":"境川住宅管理事務所前","province":"東京都","city":"町田市","address":"東京都町田市木曽東2丁目10","lat":35.55899572,"lon":139.4241309},{"name":"木曽森野防災市民いこいの広場","province":"東京都","city":"町田市","address":"東京都町田市森野4丁目8","lat":35.5552821,"lon":139.432783},{"name":"金井中央ふれあい公園","province":"東京都","city":"町田市","address":"東京都町田市金井5丁目5","lat":35.57547889,"lon":139.4604419},{"name":"本町田住宅貝がら公園","province":"東京都","city":"町田市","address":"東京都町田市本町田","lat":35.55741962,"lon":139.4538121},{"name":"藤の台住宅管理組合前","province":"東京都","city":"町田市","address":"東京都町田市藤の台2丁目2","lat":35.56977353,"lon":139.4506921},{"name":"ゆうき山公園","province":"東京都","city":"町田市","address":"東京都町田市金井ヶ丘1丁目14","lat":35.57022261,"lon":139.4572909},{"name":"四つ木橋児童公園","province":"東京都","city":"町田市","address":"東京都町田市三輪町","lat":35.57728672,"lon":139.4995085},{"name":"天神原公園","province":"東京都","city":"町田市","address":"東京都町田市南成瀬6丁目6","lat":35.533003,"lon":139.476601},{"name":"南つくし野なかむら公園","province":"東京都","city":"町田市","address":"東京都町田市南つくし野4丁目12","lat":35.523809,"lon":139.478066},{"name":"南町田ハイタウン","province":"東京都","city":"町田市","address":"東京都町田市南町田3丁目2","lat":35.51951694,"lon":139.466755},{"name":"市立博物館前","province":"東京都","city":"町田市","address":"東京都町田市本町田","lat":35.56744205,"lon":139.4509341},{"name":"玉川学園やすらぎ公園","province":"東京都","city":"町田市","address":"東京都町田市玉川学園4丁目23","lat":35.56478242,"lon":139.4537669},{"name":"西田橋公園","province":"東京都","city":"町田市","address":"東京都町田市金森5丁目15","lat":35.52030392,"lon":139.458372},{"name":"鶴間橋児童公園","province":"東京都","city":"町田市","address":"東京都町田市南町田4丁目7","lat":35.51747144,"lon":139.464422},{"name":"鶴間公園","province":"東京都","city":"町田市","address":"東京都町田市鶴間3丁目1","lat":35.50974002,"lon":139.4675533},{"name":"鶴間三角公園","province":"東京都","city":"町田市","address":"東京都町田市鶴間6丁目10","lat":35.50528267,"lon":139.4768824},{"name":"鶴間風の子公園","province":"東京都","city":"町田市","address":"東京都町田市鶴間4丁目8","lat":35.50673656,"lon":139.4718293},{"name":"鶴間ガーデンセシア","province":"東京都","city":"町田市","address":"東京都町田市南町田5丁目14","lat":35.51466275,"lon":139.4731712},{"name":"セルシオヒルズすずかけ台","province":"東京都","city":"町田市","address":"東京都町田市小川6丁目25","lat":35.51822686,"lon":139.4737108},{"name":"南つくし野やなぎ公園","province":"東京都","city":"町田市","address":"東京都町田市南つくし野3丁目14","lat":35.51897514,"lon":139.4778267},{"name":"つくし野セントラルパーク","province":"東京都","city":"町田市","address":"東京都町田市つくし野3丁目19","lat":35.52056458,"lon":139.4823534},{"name":"総合体育館駐車場入口","province":"東京都","city":"町田市","address":"東京都町田市南成瀬5丁目12","lat":35.53652328,"lon":139.4792998},{"name":"成瀬熊ヶ谷戸公園","province":"東京都","city":"町田市","address":"東京都町田市成瀬台2丁目33","lat":35.54957761,"lon":139.4806826},{"name":"成瀬台公園","province":"東京都","city":"町田市","address":"東京都町田市成瀬台3丁目7","lat":35.55500866,"lon":139.4774664},{"name":"東玉川学園１丁目児童公園","province":"東京都","city":"町田市","address":"東京都町田市東玉川学園1丁目9","lat":35.55757141,"lon":139.4701571},{"name":"三輪中央公園","province":"東京都","city":"町田市","address":"東京都町田市三輪緑山3丁目21","lat":35.57460778,"lon":139.4890026},{"name":"三輪沢谷戸かえで公園","province":"東京都","city":"町田市","address":"東京都町田市三輪緑山1丁目35","lat":35.57666806,"lon":139.4923663},{"name":"三輪第一住宅バス停前","province":"東京都","city":"町田市","address":"東京都町田市三輪町","lat":35.58309142,"lon":139.4911137},{"name":"金井森の丘公園","province":"東京都","city":"町田市","address":"東京都町田市金井6丁目23","lat":35.57776369,"lon":139.4651787},{"name":"薬師ヶ丘住宅","province":"東京都","city":"町田市","address":"東京都町田市野津田町","lat":35.58203739,"lon":139.4461817},{"name":"薬師台青空公園","province":"東京都","city":"町田市","address":"東京都町田市薬師台2丁目13","lat":35.58050547,"lon":139.4528735},{"name":"金井関山公園","province":"東京都","city":"町田市","address":"東京都町田市金井3丁目12","lat":35.5819378,"lon":139.4591783},{"name":"山王塚公園","province":"東京都","city":"町田市","address":"東京都町田市野津田町","lat":35.58391831,"lon":139.455676},{"name":"鶴川台緑の里公園","province":"東京都","city":"町田市","address":"東京都町田市真光寺2丁目26","lat":35.60022494,"lon":139.4703547},{"name":"鶴川台丘の里公園","province":"東京都","city":"町田市","address":"東京都町田市真光寺1丁目13","lat":35.60395053,"lon":139.4656984},{"name":"イリーゼ町田図師の丘","province":"東京都","city":"町田市","address":"東京都町田市図師町","lat":35.58321024,"lon":139.4242898},{"name":"都営町田中里橋アパート","province":"東京都","city":"町田市","address":"東京都町田市木曽西1丁目33","lat":35.56654086,"lon":139.4148236},{"name":"境川住宅管理事務所前","province":"東京都","city":"町田市","address":"東京都町田市木曽東2丁目10","lat":35.55899572,"lon":139.4241309},{"name":"木曽森野防災市民いこいの広場","province":"東京都","city":"町田市","address":"東京都町田市森野4丁目8","lat":35.5552821,"lon":139.432783},{"name":"金井中央ふれあい公園","province":"東京都","city":"町田市","address":"東京都町田市金井5丁目5","lat":35.57547889,"lon":139.4604419},{"name":"本町田住宅貝がら公園","province":"東京都","city":"町田市","address":"東京都町田市本町田","lat":35.55741962,"lon":139.4538121},{"name":"藤の台住宅管理組合前","province":"東京都","city":"町田市","address":"東京都町田市藤の台2丁目2","lat":35.56977353,"lon":139.4506921},{"name":"ゆうき山公園","province":"東京都","city":"町田市","address":"東京都町田市金井ヶ丘1丁目14","lat":35.57022261,"lon":139.4572909},{"name":"四つ木橋児童公園","province":"東京都","city":"町田市","address":"東京都町田市三輪町","lat":35.57728672,"lon":139.4995085},{"name":"天神原公園","province":"東京都","city":"町田市","address":"東京都町田市南成瀬6丁目6","lat":35.533003,"lon":139.476601},{"name":"南つくし野なかむら公園","province":"東京都","city":"町田市","address":"東京都町田市南つくし野4丁目12","lat":35.523809,"lon":139.478066},{"name":"南町田ハイタウン","province":"東京都","city":"町田市","address":"東京都町田市南町田3丁目2","lat":35.51951694,"lon":139.466755},{"name":"市立博物館前","province":"東京都","city":"町田市","address":"東京都町田市本町田","lat":35.56744205,"lon":139.4509341},{"name":"玉川学園やすらぎ公園","province":"東京都","city":"町田市","address":"東京都町田市玉川学園4丁目23","lat":35.56478242,"lon":139.4537669},{"name":"西田橋公園","province":"東京都","city":"町田市","address":"東京都町田市金森5丁目15","lat":35.52030392,"lon":139.458372},{"name":"鶴間橋児童公園","province":"東京都","city":"町田市","address":"東京都町田市南町田4丁目7","lat":35.51747144,"lon":139.464422},{"name":"鶴間公園","province":"東京都","city":"町田市","address":"東京都町田市鶴間3丁目1","lat":35.50974002,"lon":139.4675533},{"name":"鶴間三角公園","province":"東京都","city":"町田市","address":"東京都町田市鶴間6丁目10","lat":35.50528267,"lon":139.4768824},{"name":"鶴間風の子公園","province":"東京都","city":"町田市","address":"東京都町田市鶴間4丁目8","lat":35.50673656,"lon":139.4718293},{"name":"鶴間ガーデンセシア","province":"東京都","city":"町田市","address":"東京都町田市南町田5丁目14","lat":35.51466275,"lon":139.4731712},{"name":"セルシオヒルズすずかけ台","province":"東京都","city":"町田市","address":"東京都町田市小川6丁目25","lat":35.51822686,"lon":139.4737108},{"name":"南つくし野やなぎ公園","province":"東京都","city":"町田市","address":"東京都町田市南つくし野3丁目14","lat":35.51897514,"lon":139.4778267},{"name":"つくし野セントラルパーク","province":"東京都","city":"町田市","address":"東京都町田市つくし野3丁目19","lat":35.52056458,"lon":139.4823534},{"name":"総合体育館駐車場入口","province":"東京都","city":"町田市","address":"東京都町田市南成瀬5丁目12","lat":35.53652328,"lon":139.4792998},{"name":"成瀬熊ヶ谷戸公園","province":"東京都","city":"町田市","address":"東京都町田市成瀬台2丁目33","lat":35.54957761,"lon":139.4806826},{"name":"成瀬台公園","province":"東京都","city":"町田市","address":"東京都町田市成瀬台3丁目7","lat":35.55500866,"lon":139.4774664},{"name":"東玉川学園１丁目児童公園","province":"東京都","city":"町田市","address":"東京都町田市東玉川学園1丁目9","lat":35.55757141,"lon":139.4701571},{"name":"三輪中央公園","province":"東京都","city":"町田市","address":"東京都町田市三輪緑山3丁目21","lat":35.57460778,"lon":139.4890026},{"name":"三輪沢谷戸かえで公園","province":"東京都","city":"町田市","address":"東京都町田市三輪緑山1丁目35","lat":35.57666806,"lon":139.4923663},{"name":"三輪第一住宅バス停前","province":"東京都","city":"町田市","address":"東京都町田市三輪町","lat":35.58309142,"lon":139.4911137},{"name":"金井森の丘公園","province":"東京都","city":"町田市","address":"東京都町田市金井6丁目23","lat":35.57776369,"lon":139.4651787},{"name":"薬師ヶ丘住宅","province":"東京都","city":"町田市","address":"東京都町田市野津田町","lat":35.58203739,"lon":139.4461817},{"name":"薬師台青空公園","province":"東京都","city":"町田市","address":"東京都町田市薬師台2丁目13","lat":35.58050547,"lon":139.4528735},{"name":"金井関山公園","province":"東京都","city":"町田市","address":"東京都町田市金井3丁目12","lat":35.5819378,"lon":139.4591783},{"name":"山王塚公園","province":"東京都","city":"町田市","address":"東京都町田市野津田町","lat":35.58391831,"lon":139.455676},{"name":"鶴川台緑の里公園","province":"東京都","city":"町田市","address":"東京都町田市真光寺2丁目26","lat":35.60022494,"lon":139.4703547},{"name":"鶴川台丘の里公園","province":"東京都","city":"町田市","address":"東京都町田市真光寺1丁目13","lat":35.60395053,"lon":139.4656984},{"name":"イリーゼ町田図師の丘","province":"東京都","city":"町田市","address":"東京都町田市図師町","lat":35.58321024,"lon":139.4242898},{"name":"都営町田中里橋アパート","province":"東京都","city":"町田市","address":"東京都町田市木曽西1丁目33","lat":35.56654086,"lon":139.4148236},{"name":"境川住宅管理事務所前","province":"東京都","city":"町田市","address":"東京都町田市木曽東2丁目10","lat":35.55899572,"lon":139.4241309},{"name":"木曽森野防災市民いこいの広場","province":"東京都","city":"町田市","address":"東京都町田市森野4丁目8","lat":35.5552821,"lon":139.432783},{"name":"金井中央ふれあい公園","province":"東京都","city":"町田市","address":"東京都町田市金井5丁目5","lat":35.57547889,"lon":139.4604419},{"name":"本町田住宅貝がら公園","province":"東京都","city":"町田市","address":"東京都町田市本町田","lat":35.55741962,"lon":139.4538121},{"name":"藤の台住宅管理組合前","province":"東京都","city":"町田市","address":"東京都町田市藤の台2丁目2","lat":35.56977353,"lon":139.4506921},{"name":"ゆうき山公園","province":"東京都","city":"町田市","address":"東京都町田市金井ヶ丘1丁目14","lat":35.57022261,"lon":139.4572909},{"name":"四つ木橋児童公園","province":"東京都","city":"町田市","address":"東京都町田市三輪町","lat":35.57728672,"lon":139.4995085},{"name":"天神原公園","province":"東京都","city":"町田市","address":"東京都町田市南成瀬6丁目6","lat":35.533003,"lon":139.476601},{"name":"南つくし野なかむら公園","province":"東京都","city":"町田市","address":"東京都町田市南つくし野4丁目12","lat":35.523809,"lon":139.478066},{"name":"南町田ハイタウン","province":"東京都","city":"町田市","address":"東京都町田市南町田3丁目2","lat":35.51951694,"lon":139.466755},{"name":"市立博物館前","province":"東京都","city":"町田市","address":"東京都町田市本町田","lat":35.56744205,"lon":139.4509341},{"name":"玉川学園やすらぎ公園","province":"東京都","city":"町田市","address":"東京都町田市玉川学園4丁目23","lat":35.56478242,"lon":139.4537669},{"name":"西田橋公園","province":"東京都","city":"町田市","address":"東京都町田市金森5丁目15","lat":35.52030392,"lon":139.458372},{"name":"鶴間橋児童公園","province":"東京都","city":"町田市","address":"東京都町田市南町田4丁目7","lat":35.51747144,"lon":139.464422},{"name":"鶴間公園","province":"東京都","city":"町田市","address":"東京都町田市鶴間3丁目1","lat":35.50974002,"lon":139.4675533},{"name":"鶴間三角公園","province":"東京都","city":"町田市","address":"東京都町田市鶴間6丁目10","lat":35.50528267,"lon":139.4768824},{"name":"鶴間風の子公園","province":"東京都","city":"町田市","address":"東京都町田市鶴間4丁目8","lat":35.50673656,"lon":139.4718293},{"name":"鶴間ガーデンセシア","province":"東京都","city":"町田市","address":"東京都町田市南町田5丁目14","lat":35.51466275,"lon":139.4731712},{"name":"セルシオヒルズすずかけ台","province":"東京都","city":"町田市","address":"東京都町田市小川6丁目25","lat":35.51822686,"lon":139.4737108},{"name":"南つくし野やなぎ公園","province":"東京都","city":"町田市","address":"東京都町田市南つくし野3丁目14","lat":35.51897514,"lon":139.4778267},{"name":"つくし野セントラルパーク","province":"東京都","city":"町田市","address":"東京都町田市つくし野3丁目19","lat":35.52056458,"lon":139.4823534},{"name":"総合体育館駐車場入口","province":"東京都","city":"町田市","address":"東京都町田市南成瀬5丁目12","lat":35.53652328,"lon":139.4792998},{"name":"成瀬熊ヶ谷戸公園","province":"東京都","city":"町田市","address":"東京都町田市成瀬台2丁目33","lat":35.54957761,"lon":139.4806826},{"name":"成瀬台公園","province":"東京都","city":"町田市","address":"東京都町田市成瀬台3丁目7","lat":35.55500866,"lon":139.4774664},{"name":"東玉川学園１丁目児童公園","province":"東京都","city":"町田市","address":"東京都町田市東玉川学園1丁目9","lat":35.55757141,"lon":139.4701571},{"name":"三輪中央公園","province":"東京都","city":"町田市","address":"東京都町田市三輪緑山3丁目21","lat":35.57460778,"lon":139.4890026},{"name":"三輪沢谷戸かえで公園","province":"東京都","city":"町田市","address":"東京都町田市三輪緑山1丁目35","lat":35.57666806,"lon":139.4923663},{"name":"三輪第一住宅バス停前","province":"東京都","city":"町田市","address":"東京都町田市三輪町","lat":35.58309142,"lon":139.4911137},{"name":"金井森の丘公園","province":"東京都","city":"町田市","address":"東京都町田市金井6丁目23","lat":35.57776369,"lon":139.4651787},{"name":"薬師ヶ丘住宅","province":"東京都","city":"町田市","address":"東京都町田市野津田町","lat":35.58203739,"lon":139.4461817},{"name":"薬師台青空公園","province":"東京都","city":"町田市","address":"東京都町田市薬師台2丁目13","lat":35.58050547,"lon":139.4528735},{"name":"金井関山公園","province":"東京都","city":"町田市","address":"東京都町田市金井3丁目12","lat":35.5819378,"lon":139.4591783},{"name":"山王塚公園","province":"東京都","city":"町田市","address":"東京都町田市野津田町","lat":35.58391831,"lon":139.455676},{"name":"鶴川台緑の里公園","province":"東京都","city":"町田市","address":"東京都町田市真光寺2丁目26","lat":35.60022494,"lon":139.4703547},{"name":"鶴川台丘の里公園","province":"東京都","city":"町田市","address":"東京都町田市真光寺1丁目13","lat":35.60395053,"lon":139.4656984},{"name":"イリーゼ町田図師の丘","province":"東京都","city":"町田市","address":"東京都町田市図師町","lat":35.58321024,"lon":139.4242898},{"name":"都営町田中里橋アパート","province":"東京都","city":"町田市","address":"東京都町田市木曽西1丁目33","lat":35.56654086,"lon":139.4148236},{"name":"境川住宅管理事務所前","province":"東京都","city":"町田市","address":"東京都町田市木曽東2丁目10","lat":35.55899572,"lon":139.4241309},{"name":"木曽森野防災市民いこいの広場","province":"東京都","city":"町田市","address":"東京都町田市森野4丁目8","lat":35.5552821,"lon":139.432783},{"name":"金井中央ふれあい公園","province":"東京都","city":"町田市","address":"東京都町田市金井5丁目5","lat":35.57547889,"lon":139.4604419},{"name":"本町田住宅貝がら公園","province":"東京都","city":"町田市","address":"東京都町田市本町田","lat":35.55741962,"lon":139.4538121},{"name":"藤の台住宅管理組合前","province":"東京都","city":"町田市","address":"東京都町田市藤の台2丁目2","lat":35.56977353,"lon":139.4506921},{"name":"ゆうき山公園","province":"東京都","city":"町田市","address":"東京都町田市金井ヶ丘1丁目14","lat":35.57022261,"lon":139.4572909},{"name":"四つ木橋児童公園","province":"東京都","city":"町田市","address":"東京都町田市三輪町","lat":35.57728672,"lon":139.4995085},{"name":"天神原公園","province":"東京都","city":"町田市","address":"東京都町田市南成瀬6丁目6","lat":35.533003,"lon":139.476601},{"name":"南つくし野なかむら公園","province":"東京都","city":"町田市","address":"東京都町田市南つくし野4丁目12","lat":35.523809,"lon":139.478066},{"name":"南町田ハイタウン","province":"東京都","city":"町田市","address":"東京都町田市南町田3丁目2","lat":35.51951694,"lon":139.466755},{"name":"市立博物館前","province":"東京都","city":"町田市","address":"東京都町田市本町田","lat":35.56744205,"lon":139.4509341},{"name":"玉川学園やすらぎ公園","province":"東京都","city":"町田市","address":"東京都町田市玉川学園4丁目23","lat":35.56478242,"lon":139.4537669},{"name":"西田橋公園","province":"東京都","city":"町田市","address":"東京都町田市金森5丁目15","lat":35.52030392,"lon":139.458372},{"name":"鶴間橋児童公園","province":"東京都","city":"町田市","address":"東京都町田市南町田4丁目7","lat":35.51747144,"lon":139.464422},{"name":"鶴間公園","province":"東京都","city":"町田市","address":"東京都町田市鶴間3丁目1","lat":35.50974002,"lon":139.4675533},{"name":"鶴間三角公園","province":"東京都","city":"町田市","address":"東京都町田市鶴間6丁目10","lat":35.50528267,"lon":139.4768824},{"name":"鶴間風の子公園","province":"東京都","city":"町田市","address":"東京都町田市鶴間4丁目8","lat":35.50673656,"lon":139.4718293},{"name":"鶴間ガーデンセシア","province":"東京都","city":"町田市","address":"東京都町田市南町田5丁目14","lat":35.51466275,"lon":139.4731712},{"name":"セルシオヒルズすずかけ台","province":"東京都","city":"町田市","address":"東京都町田市小川6丁目25","lat":35.51822686,"lon":139.4737108},{"name":"南つくし野やなぎ公園","province":"東京都","city":"町田市","address":"東京都町田市南つくし野3丁目14","lat":35.51897514,"lon":139.4778267},{"name":"つくし野セントラルパーク","province":"東京都","city":"町田市","address":"東京都町田市つくし野3丁目19","lat":35.52056458,"lon":139.4823534},{"name":"総合体育館駐車場入口","province":"東京都","city":"町田市","address":"東京都町田市南成瀬5丁目12","lat":35.53652328,"lon":139.4792998},{"name":"成瀬熊ヶ谷戸公園","province":"東京都","city":"町田市","address":"東京都町田市成瀬台2丁目33","lat":35.54957761,"lon":139.4806826},{"name":"成瀬台公園","province":"東京都","city":"町田市","address":"東京都町田市成瀬台3丁目7","lat":35.55500866,"lon":139.4774664},{"name":"東玉川学園１丁目児童公園","province":"東京都","city":"町田市","address":"東京都町田市東玉川学園1丁目9","lat":35.55757141,"lon":139.4701571},{"name":"三輪中央公園","province":"東京都","city":"町田市","address":"東京都町田市三輪緑山3丁目21","lat":35.57460778,"lon":139.4890026},{"name":"三輪沢谷戸かえで公園","province":"東京都","city":"町田市","address":"東京都町田市三輪緑山1丁目35","lat":35.57666806,"lon":139.4923663},{"name":"三輪第一住宅バス停前","province":"東京都","city":"町田市","address":"東京都町田市三輪町","lat":35.58309142,"lon":139.4911137},{"name":"金井森の丘公園","province":"東京都","city":"町田市","address":"東京都町田市金井6丁目23","lat":35.57776369,"lon":139.4651787},{"name":"薬師ヶ丘住宅","province":"東京都","city":"町田市","address":"東京都町田市野津田町","lat":35.58203739,"lon":139.4461817},{"name":"薬師台青空公園","province":"東京都","city":"町田市","address":"東京都町田市薬師台2丁目13","lat":35.58050547,"lon":139.4528735},{"name":"金井関山公園","province":"東京都","city":"町田市","address":"東京都町田市金井3丁目12","lat":35.5819378,"lon":139.4591783},{"name":"山王塚公園","province":"東京都","city":"町田市","address":"東京都町田市野津田町","lat":35.58391831,"lon":139.455676},{"name":"鶴川台緑の里公園","province":"東京都","city":"町田市","address":"東京都町田市真光寺2丁目26","lat":35.60022494,"lon":139.4703547},{"name":"鶴川台丘の里公園","province":"東京都","city":"町田市","address":"東京都町田市真光寺1丁目13","lat":35.60395053,"lon":139.4656984},{"name":"イリーゼ町田図師の丘","province":"東京都","city":"町田市","address":"東京都町田市図師町","lat":35.58321024,"lon":139.4242898},{"name":"都営町田中里橋アパート","province":"東京都","city":"町田市","address":"東京都町田市木曽西1丁目33","lat":35.56654086,"lon":139.4148236},{"name":"境川住宅管理事務所前","province":"東京都","city":"町田市","address":"東京都町田市木曽東2丁目10","lat":35.55899572,"lon":139.4241309},{"name":"木曽森野防災市民いこいの広場","province":"東京都","city":"町田市","address":"東京都町田市森野4丁目8","lat":35.5552821,"lon":139.432783},{"name":"金井中央ふれあい公園","province":"東京都","city":"町田市","address":"東京都町田市金井5丁目5","lat":35.57547889,"lon":139.4604419},{"name":"本町田住宅貝がら公園","province":"東京都","city":"町田市","address":"東京都町田市本町田","lat":35.55741962,"lon":139.4538121},{"name":"藤の台住宅管理組合前","province":"東京都","city":"町田市","address":"東京都町田市藤の台2丁目2","lat":35.56977353,"lon":139.4506921},{"name":"ゆうき山公園","province":"東京都","city":"町田市","address":"東京都町田市金井ヶ丘1丁目14","lat":35.57022261,"lon":139.4572909},{"name":"四つ木橋児童公園","province":"東京都","city":"町田市","address":"東京都町田市三輪町","lat":35.57728672,"lon":139.4995085},{"name":"天神原公園","province":"東京都","city":"町田市","address":"東京都町田市南成瀬6丁目6","lat":35.533003,"lon":139.476601},{"name":"南つくし野なかむら公園","province":"東京都","city":"町田市","address":"東京都町田市南つくし野4丁目12","lat":35.523809,"lon":139.478066},{"name":"南町田ハイタウン","province":"東京都","city":"町田市","address":"東京都町田市南町田3丁目2","lat":35.51951694,"lon":139.466755},{"name":"市立博物館前","province":"東京都","city":"町田市","address":"東京都町田市本町田","lat":35.56744205,"lon":139.4509341},{"name":"玉川学園やすらぎ公園","province":"東京都","city":"町田市","address":"東京都町田市玉川学園4丁目23","lat":35.56478242,"lon":139.4537669},{"name":"西田橋公園","province":"東京都","city":"町田市","address":"東京都町田市金森5丁目15","lat":35.52030392,"lon":139.458372},{"name":"鶴間橋児童公園","province":"東京都","city":"町田市","address":"東京都町田市南町田4丁目7","lat":35.51747144,"lon":139.464422},{"name":"鶴間公園","province":"東京都","city":"町田市","address":"東京都町田市鶴間3丁目1","lat":35.50974002,"lon":139.4675533},{"name":"鶴間三角公園","province":"東京都","city":"町田市","address":"東京都町田市鶴間6丁目10","lat":35.50528267,"lon":139.4768824},{"name":"鶴間風の子公園","province":"東京都","city":"町田市","address":"東京都町田市鶴間4丁目8","lat":35.50673656,"lon":139.4718293},{"name":"鶴間ガーデンセシア","province":"東京都","city":"町田市","address":"東京都町田市南町田5丁目14","lat":35.51466275,"lon":139.4731712},{"name":"セルシオヒルズすずかけ台","province":"東京都","city":"町田市","address":"東京都町田市小川6丁目25","lat":35.51822686,"lon":139.4737108},{"name":"南つくし野やなぎ公園","province":"東京都","city":"町田市","address":"東京都町田市南つくし野3丁目14","lat":35.51897514,"lon":139.4778267},{"name":"つくし野セントラルパーク","province":"東京都","city":"町田市","address":"東京都町田市つくし野3丁目19","lat":35.52056458,"lon":139.4823534},{"name":"総合体育館駐車場入口","province":"東京都","city":"町田市","address":"東京都町田市南成瀬5丁目12","lat":35.53652328,"lon":139.4792998},{"name":"成瀬熊ヶ谷戸公園","province":"東京都","city":"町田市","address":"東京都町田市成瀬台2丁目33","lat":35.54957761,"lon":139.4806826},{"name":"成瀬台公園","province":"東京都","city":"町田市","address":"東京都町田市成瀬台3丁目7","lat":35.55500866,"lon":139.4774664},{"name":"東玉川学園１丁目児童公園","province":"東京都","city":"町田市","address":"東京都町田市東玉川学園1丁目9","lat":35.55757141,"lon":139.4701571},{"name":"三輪中央公園","province":"東京都","city":"町田市","address":"東京都町田市三輪緑山3丁目21","lat":35.57460778,"lon":139.4890026},{"name":"三輪沢谷戸かえで公園","province":"東京都","city":"町田市","address":"東京都町田市三輪緑山1丁目35","lat":35.57666806,"lon":139.4923663},{"name":"三輪第一住宅バス停前","province":"東京都","city":"町田市","address":"東京都町田市三輪町","lat":35.58309142,"lon":139.4911137},{"name":"金井森の丘公園","province":"東京都","city":"町田市","address":"東京都町田市金井6丁目23","lat":35.57776369,"lon":139.4651787},{"name":"薬師ヶ丘住宅","province":"東京都","city":"町田市","address":"東京都町田市野津田町","lat":35.58203739,"lon":139.4461817},{"name":"薬師台青空公園","province":"東京都","city":"町田市","address":"東京都町田市薬師台2丁目13","lat":35.58050547,"lon":139.4528735},{"name":"金井関山公園","province":"東京都","city":"町田市","address":"東京都町田市金井3丁目12","lat":35.5819378,"lon":139.4591783},{"name":"山王塚公園","province":"東京都","city":"町田市","address":"東京都町田市野津田町","lat":35.58391831,"lon":139.455676},{"name":"鶴川台緑の里公園","province":"東京都","city":"町田市","address":"東京都町田市真光寺2丁目26","lat":35.60022494,"lon":139.4703547},{"name":"鶴川台丘の里公園","province":"東京都","city":"町田市","address":"東京都町田市真光寺1丁目13","lat":35.60395053,"lon":139.4656984},{"name":"イリーゼ町田図師の丘","province":"東京都","city":"町田市","address":"東京都町田市図師町","lat":35.58321024,"lon":139.4242898},{"name":"都営町田中里橋アパート","province":"東京都","city":"町田市","address":"東京都町田市木曽西1丁目33","lat":35.56654086,"lon":139.4148236},{"name":"境川住宅管理事務所前","province":"東京都","city":"町田市","address":"東京都町田市木曽東2丁目10","lat":35.55899572,"lon":139.4241309},{"name":"木曽森野防災市民いこいの広場","province":"東京都","city":"町田市","address":"東京都町田市森野4丁目8","lat":35.5552821,"lon":139.432783},{"name":"金井中央ふれあい公園","province":"東京都","city":"町田市","address":"東京都町田市金井5丁目5","lat":35.57547889,"lon":139.4604419},{"name":"本町田住宅貝がら公園","province":"東京都","city":"町田市","address":"東京都町田市本町田","lat":35.55741962,"lon":139.4538121},{"name":"藤の台住宅管理組合前","province":"東京都","city":"町田市","address":"東京都町田市藤の台2丁目2","lat":35.56977353,"lon":139.4506921},{"name":"ゆうき山公園","province":"東京都","city":"町田市","address":"東京都町田市金井ヶ丘1丁目14","lat":35.57022261,"lon":139.4572909},{"name":"四つ木橋児童公園","province":"東京都","city":"町田市","address":"東京都町田市三輪町","lat":35.57728672,"lon":139.4995085},{"name":"天神原公園","province":"東京都","city":"町田市","address":"東京都町田市南成瀬6丁目6","lat":35.533003,"lon":139.476601},{"name":"南つくし野なかむら公園","province":"東京都","city":"町田市","address":"東京都町田市南つくし野4丁目12","lat":35.523809,"lon":139.478066},{"name":"南町田ハイタウン","province":"東京都","city":"町田市","address":"東京都町田市南町田3丁目2","lat":35.51951694,"lon":139.466755},{"name":"市立博物館前","province":"東京都","city":"町田市","address":"東京都町田市本町田","lat":35.56744205,"lon":139.4509341},{"name":"玉川学園やすらぎ公園","province":"東京都","city":"町田市","address":"東京都町田市玉川学園4丁目23","lat":35.56478242,"lon":139.4537669},{"name":"西田橋公園","province":"東京都","city":"町田市","address":"東京都町田市金森5丁目15","lat":35.52030392,"lon":139.458372},{"name":"鶴間橋児童公園","province":"東京都","city":"町田市","address":"東京都町田市南町田4丁目7","lat":35.51747144,"lon":139.464422},{"name":"鶴間公園","province":"東京都","city":"町田市","address":"東京都町田市鶴間3丁目1","lat":35.50974002,"lon":139.4675533},{"name":"鶴間三角公園","province":"東京都","city":"町田市","address":"東京都町田市鶴間6丁目10","lat":35.50528267,"lon":139.4768824},{"name":"鶴間風の子公園","province":"東京都","city":"町田市","address":"東京都町田市鶴間4丁目8","lat":35.50673656,"lon":139.4718293},{"name":"鶴間ガーデンセシア","province":"東京都","city":"町田市","address":"東京都町田市南町田5丁目14","lat":35.51466275,"lon":139.4731712},{"name":"セルシオヒルズすずかけ台","province":"東京都","city":"町田市","address":"東京都町田市小川6丁目25","lat":35.51822686,"lon":139.4737108},{"name":"南つくし野やなぎ公園","province":"東京都","city":"町田市","address":"東京都町田市南つくし野3丁目14","lat":35.51897514,"lon":139.4778267},{"name":"つくし野セントラルパーク","province":"東京都","city":"町田市","address":"東京都町田市つくし野3丁目19","lat":35.52056458,"lon":139.4823534},{"name":"総合体育館駐車場入口","province":"東京都","city":"町田市","address":"東京都町田市南成瀬5丁目12","lat":35.53652328,"lon":139.4792998},{"name":"成瀬熊ヶ谷戸公園","province":"東京都","city":"町田市","address":"東京都町田市成瀬台2丁目33","lat":35.54957761,"lon":139.4806826},{"name":"成瀬台公園","province":"東京都","city":"町田市","address":"東京都町田市成瀬台3丁目7","lat":35.55500866,"lon":139.4774664},{"name":"東玉川学園１丁目児童公園","province":"東京都","city":"町田市","address":"東京都町田市東玉川学園1丁目9","lat":35.55757141,"lon":139.4701571},{"name":"三輪中央公園","province":"東京都","city":"町田市","address":"東京都町田市三輪緑山3丁目21","lat":35.57460778,"lon":139.4890026},{"name":"三輪沢谷戸かえで公園","province":"東京都","city":"町田市","address":"東京都町田市三輪緑山1丁目35","lat":35.57666806,"lon":139.4923663},{"name":"三輪第一住宅バス停前","province":"東京都","city":"町田市","address":"東京都町田市三輪町","lat":35.58309142,"lon":139.4911137},{"name":"金井森の丘公園","province":"東京都","city":"町田市","address":"東京都町田市金井6丁目23","lat":35.57776369,"lon":139.4651787},{"name":"薬師ヶ丘住宅","province":"東京都","city":"町田市","address":"東京都町田市野津田町","lat":35.58203739,"lon":139.4461817},{"name":"薬師台青空公園","province":"東京都","city":"町田市","address":"東京都町田市薬師台2丁目13","lat":35.58050547,"lon":139.4528735},{"name":"金井関山公園","province":"東京都","city":"町田市","address":"東京都町田市金井3丁目12","lat":35.5819378,"lon":139.4591783},{"name":"山王塚公園","province":"東京都","city":"町田市","address":"東京都町田市野津田町","lat":35.58391831,"lon":139.455676},{"name":"鶴川台緑の里公園","province":"東京都","city":"町田市","address":"東京都町田市真光寺2丁目26","lat":35.60022494,"lon":139.4703547},{"name":"鶴川台丘の里公園","province":"東京都","city":"町田市","address":"東京都町田市真光寺1丁目13","lat":35.60395053,"lon":139.4656984},{"name":"イリーゼ町田図師の丘","province":"東京都","city":"町田市","address":"東京都町田市図師町","lat":35.58321024,"lon":139.4242898},{"name":"都営町田中里橋アパート","province":"東京都","city":"町田市","address":"東京都町田市木曽西1丁目33","lat":35.56654086,"lon":139.4148236},{"name":"境川住宅管理事務所前","province":"東京都","city":"町田市","address":"東京都町田市木曽東2丁目10","lat":35.55899572,"lon":139.4241309},{"name":"木曽森野防災市民いこいの広場","province":"東京都","city":"町田市","address":"東京都町田市森野4丁目8","lat":35.5552821,"lon":139.432783},{"name":"金井中央ふれあい公園","province":"東京都","city":"町田市","address":"東京都町田市金井5丁目5","lat":35.57547889,"lon":139.4604419},{"name":"本町田住宅貝がら公園","province":"東京都","city":"町田市","address":"東京都町田市本町田","lat":35.55741962,"lon":139.4538121},{"name":"藤の台住宅管理組合前","province":"東京都","city":"町田市","address":"東京都町田市藤の台2丁目2","lat":35.56977353,"lon":139.4506921},{"name":"ゆうき山公園","province":"東京都","city":"町田市","address":"東京都町田市金井ヶ丘1丁目14","lat":35.57022261,"lon":139.4572909},{"name":"四つ木橋児童公園","province":"東京都","city":"町田市","address":"東京都町田市三輪町","lat":35.57728672,"lon":139.4995085},{"name":"天神原公園","province":"東京都","city":"町田市","address":"東京都町田市南成瀬6丁目6","lat":35.533003,"lon":139.476601},{"name":"南つくし野なかむら公園","province":"東京都","city":"町田市","address":"東京都町田市南つくし野4丁目12","lat":35.523809,"lon":139.478066},{"name":"南町田ハイタウン","province":"東京都","city":"町田市","address":"東京都町田市南町田3丁目2","lat":35.51951694,"lon":139.466755},{"name":"市立博物館前","province":"東京都","city":"町田市","address":"東京都町田市本町田","lat":35.56744205,"lon":139.4509341},{"name":"玉川学園やすらぎ公園","province":"東京都","city":"町田市","address":"東京都町田市玉川学園4丁目23","lat":35.56478242,"lon":139.4537669},{"name":"西田橋公園","province":"東京都","city":"町田市","address":"東京都町田市金森5丁目15","lat":35.52030392,"lon":139.458372},{"name":"鶴間橋児童公園","province":"東京都","city":"町田市","address":"東京都町田市南町田4丁目7","lat":35.51747144,"lon":139.464422},{"name":"鶴間公園","province":"東京都","city":"町田市","address":"東京都町田市鶴間3丁目1","lat":35.50974002,"lon":139.4675533},{"name":"鶴間三角公園","province":"東京都","city":"町田市","address":"東京都町田市鶴間6丁目10","lat":35.50528267,"lon":139.4768824},{"name":"鶴間風の子公園","province":"東京都","city":"町田市","address":"東京都町田市鶴間4丁目8","lat":35.50673656,"lon":139.4718293},{"name":"鶴間ガーデンセシア","province":"東京都","city":"町田市","address":"東京都町田市南町田5丁目14","lat":35.51466275,"lon":139.4731712},{"name":"セルシオヒルズすずかけ台","province":"東京都","city":"町田市","address":"東京都町田市小川6丁目25","lat":35.51822686,"lon":139.4737108},{"name":"南つくし野やなぎ公園","province":"東京都","city":"町田市","address":"東京都町田市南つくし野3丁目14","lat":35.51897514,"lon":139.4778267},{"name":"つくし野セントラルパーク","province":"東京都","city":"町田市","address":"東京都町田市つくし野3丁目19","lat":35.52056458,"lon":139.4823534},{"name":"総合体育館駐車場入口","province":"東京都","city":"町田市","address":"東京都町田市南成瀬5丁目12","lat":35.53652328,"lon":139.4792998},{"name":"成瀬熊ヶ谷戸公園","province":"東京都","city":"町田市","address":"東京都町田市成瀬台2丁目33","lat":35.54957761,"lon":139.4806826},{"name":"成瀬台公園","province":"東京都","city":"町田市","address":"東京都町田市成瀬台3丁目7","lat":35.55500866,"lon":139.4774664},{"name":"東玉川学園１丁目児童公園","province":"東京都","city":"町田市","address":"東京都町田市東玉川学園1丁目9","lat":35.55757141,"lon":139.4701571},{"name":"三輪中央公園","province":"東京都","city":"町田市","address":"東京都町田市三輪緑山3丁目21","lat":35.57460778,"lon":139.4890026},{"name":"三輪沢谷戸かえで公園","province":"東京都","city":"町田市","address":"東京都町田市三輪緑山1丁目35","lat":35.57666806,"lon":139.4923663},{"name":"三輪第一住宅バス停前","province":"東京都","city":"町田市","address":"東京都町田市三輪町","lat":35.58309142,"lon":139.4911137},{"name":"金井森の丘公園","province":"東京都","city":"町田市","address":"東京都町田市金井6丁目23","lat":35.57776369,"lon":139.4651787},{"name":"薬師ヶ丘住宅","province":"東京都","city":"町田市","address":"東京都町田市野津田町","lat":35.58203739,"lon":139.4461817},{"name":"薬師台青空公園","province":"東京都","city":"町田市","address":"東京都町田市薬師台2丁目13","lat":35.58050547,"lon":139.4528735},{"name":"金井関山公園","province":"東京都","city":"町田市","address":"東京都町田市金井3丁目12","lat":35.5819378,"lon":139.4591783},{"name":"山王塚公園","province":"東京都","city":"町田市","address":"東京都町田市野津田町","lat":35.58391831,"lon":139.455676},{"name":"鶴川台緑の里公園","province":"東京都","city":"町田市","address":"東京都町田市真光寺2丁目26","lat":35.60022494,"lon":139.4703547},{"name":"鶴川台丘の里公園","province":"東京都","city":"町田市","address":"東京都町田市真光寺1丁目13","lat":35.60395053,"lon":139.4656984},{"name":"イリーゼ町田図師の丘","province":"東京都","city":"町田市","address":"東京都町田市図師町","lat":35.58321024,"lon":139.4242898},{"name":"都営町田中里橋アパート","province":"東京都","city":"町田市","address":"東京都町田市木曽西1丁目33","lat":35.56654086,"lon":139.4148236},{"name":"境川住宅管理事務所前","province":"東京都","city":"町田市","address":"東京都町田市木曽東2丁目10","lat":35.55899572,"lon":139.4241309},{"name":"木曽森野防災市民いこいの広場","province":"東京都","city":"町田市","address":"東京都町田市森野4丁目8","lat":35.5552821,"lon":139.432783},{"name":"金井中央ふれあい公園","province":"東京都","city":"町田市","address":"東京都町田市金井5丁目5","lat":35.57547889,"lon":139.4604419},{"name":"本町田住宅貝がら公園","province":"東京都","city":"町田市","address":"東京都町田市本町田","lat":35.55741962,"lon":139.4538121},{"name":"藤の台住宅管理組合前","province":"東京都","city":"町田市","address":"東京都町田市藤の台2丁目2","lat":35.56977353,"lon":139.4506921},{"name":"ゆうき山公園","province":"東京都","city":"町田市","address":"東京都町田市金井ヶ丘1丁目14","lat":35.57022261,"lon":139.4572909},{"name":"四つ木橋児童公園","province":"東京都","city":"町田市","address":"東京都町田市三輪町","lat":35.57728672,"lon":139.4995085},{"name":"天神原公園","province":"東京都","city":"町田市","address":"東京都町田市南成瀬6丁目6","lat":35.533003,"lon":139.476601},{"name":"南つくし野なかむら公園","province":"東京都","city":"町田市","address":"東京都町田市南つくし野4丁目12","lat":35.523809,"lon":139.478066},{"name":"南町田ハイタウン","province":"東京都","city":"町田市","address":"東京都町田市南町田3丁目2","lat":35.51951694,"lon":139.466755},{"name":"市立博物館前","province":"東京都","city":"町田市","address":"東京都町田市本町田","lat":35.56744205,"lon":139.4509341},{"name":"玉川学園やすらぎ公園","province":"東京都","city":"町田市","address":"東京都町田市玉川学園4丁目23","lat":35.56478242,"lon":139.4537669},{"name":"西田橋公園","province":"東京都","city":"町田市","address":"東京都町田市金森5丁目15","lat":35.52030392,"lon":139.458372},{"name":"鶴間橋児童公園","province":"東京都","city":"町田市","address":"東京都町田市南町田4丁目7","lat":35.51747144,"lon":139.464422},{"name":"鶴間公園","province":"東京都","city":"町田市","address":"東京都町田市鶴間3丁目1","lat":35.50974002,"lon":139.4675533},{"name":"鶴間三角公園","province":"東京都","city":"町田市","address":"東京都町田市鶴間6丁目10","lat":35.50528267,"lon":139.4768824},{"name":"鶴間風の子公園","province":"東京都","city":"町田市","address":"東京都町田市鶴間4丁目8","lat":35.50673656,"lon":139.4718293},{"name":"鶴間ガーデンセシア","province":"東京都","city":"町田市","address":"東京都町田市南町田5丁目14","lat":35.51466275,"lon":139.4731712},{"name":"セルシオヒルズすずかけ台","province":"東京都","city":"町田市","address":"東京都町田市小川6丁目25","lat":35.51822686,"lon":139.4737108},{"name":"南つくし野やなぎ公園","province":"東京都","city":"町田市","address":"東京都町田市南つくし野3丁目14","lat":35.51897514,"lon":139.4778267},{"name":"つくし野セントラルパーク","province":"東京都","city":"町田市","address":"東京都町田市つくし野3丁目19","lat":35.52056458,"lon":139.4823534},{"name":"総合体育館駐車場入口","province":"東京都","city":"町田市","address":"東京都町田市南成瀬5丁目12","lat":35.53652328,"lon":139.4792998},{"name":"成瀬熊ヶ谷戸公園","province":"東京都","city":"町田市","address":"東京都町田市成瀬台2丁目33","lat":35.54957761,"lon":139.4806826},{"name":"成瀬台公園","province":"東京都","city":"町田市","address":"東京都町田市成瀬台3丁目7","lat":35.55500866,"lon":139.4774664},{"name":"東玉川学園１丁目児童公園","province":"東京都","city":"町田市","address":"東京都町田市東玉川学園1丁目9","lat":35.55757141,"lon":139.4701571},{"name":"三輪中央公園","province":"東京都","city":"町田市","address":"東京都町田市三輪緑山3丁目21","lat":35.57460778,"lon":139.4890026},{"name":"三輪沢谷戸かえで公園","province":"東京都","city":"町田市","address":"東京都町田市三輪緑山1丁目35","lat":35.57666806,"lon":139.4923663},{"name":"三輪第一住宅バス停前","province":"東京都","city":"町田市","address":"東京都町田市三輪町","lat":35.58309142,"lon":139.4911137},{"name":"金井森の丘公園","province":"東京都","city":"町田市","address":"東京都町田市金井6丁目23","lat":35.57776369,"lon":139.4651787},{"name":"薬師ヶ丘住宅","province":"東京都","city":"町田市","address":"東京都町田市野津田町","lat":35.58203739,"lon":139.4461817},{"name":"薬師台青空公園","province":"東京都","city":"町田市","address":"東京都町田市薬師台2丁目13","lat":35.58050547,"lon":139.4528735},{"name":"金井関山公園","province":"東京都","city":"町田市","address":"東京都町田市金井3丁目12","lat":35.5819378,"lon":139.4591783},{"name":"山王塚公園","province":"東京都","city":"町田市","address":"東京都町田市野津田町","lat":35.58391831,"lon":139.455676},{"name":"鶴川台緑の里公園","province":"東京都","city":"町田市","address":"東京都町田市真光寺2丁目26","lat":35.60022494,"lon":139.4703547},{"name":"鶴川台丘の里公園","province":"東京都","city":"町田市","address":"東京都町田市真光寺1丁目13","lat":35.60395053,"lon":139.4656984},{"name":"イリーゼ町田図師の丘","province":"東京都","city":"町田市","address":"東京都町田市図師町","lat":35.58321024,"lon":139.4242898},{"name":"都営町田中里橋アパート","province":"東京都","city":"町田市","address":"東京都町田市木曽西1丁目33","lat":35.56654086,"lon":139.4148236},{"name":"境川住宅管理事務所前","province":"東京都","city":"町田市","address":"東京都町田市木曽東2丁目10","lat":35.55899572,"lon":139.4241309},{"name":"木曽森野防災市民いこいの広場","province":"東京都","city":"町田市","address":"東京都町田市森野4丁目8","lat":35.5552821,"lon":139.432783},{"name":"金井中央ふれあい公園","province":"東京都","city":"町田市","address":"東京都町田市金井5丁目5","lat":35.57547889,"lon":139.4604419},{"name":"本町田住宅貝がら公園","province":"東京都","city":"町田市","address":"東京都町田市本町田","lat":35.55741962,"lon":139.4538121},{"name":"藤の台住宅管理組合前","province":"東京都","city":"町田市","address":"東京都町田市藤の台2丁目2","lat":35.56977353,"lon":139.4506921},{"name":"ゆうき山公園","province":"東京都","city":"町田市","address":"東京都町田市金井ヶ丘1丁目14","lat":35.57022261,"lon":139.4572909},{"name":"四つ木橋児童公園","province":"東京都","city":"町田市","address":"東京都町田市三輪町","lat":35.57728672,"lon":139.4995085},{"name":"天神原公園","province":"東京都","city":"町田市","address":"東京都町田市南成瀬6丁目6","lat":35.533003,"lon":139.476601},{"name":"南つくし野なかむら公園","province":"東京都","city":"町田市","address":"東京都町田市南つくし野4丁目12","lat":35.523809,"lon":139.478066},{"name":"南町田ハイタウン","province":"東京都","city":"町田市","address":"東京都町田市南町田3丁目2","lat":35.51951694,"lon":139.466755},{"name":"市立博物館前","province":"東京都","city":"町田市","address":"東京都町田市本町田","lat":35.56744205,"lon":139.4509341},{"name":"玉川学園やすらぎ公園","province":"東京都","city":"町田市","address":"東京都町田市玉川学園4丁目23","lat":35.56478242,"lon":139.4537669},{"name":"西田橋公園","province":"東京都","city":"町田市","address":"東京都町田市金森5丁目15","lat":35.52030392,"lon":139.458372},{"name":"鶴間橋児童公園","province":"東京都","city":"町田市","address":"東京都町田市南町田4丁目7","lat":35.51747144,"lon":139.464422},{"name":"鶴間公園","province":"東京都","city":"町田市","address":"東京都町田市鶴間3丁目1","lat":35.50974002,"lon":139.4675533},{"name":"鶴間三角公園","province":"東京都","city":"町田市","address":"東京都町田市鶴間6丁目10","lat":35.50528267,"lon":139.4768824},{"name":"鶴間風の子公園","province":"東京都","city":"町田市","address":"東京都町田市鶴間4丁目8","lat":35.50673656,"lon":139.4718293},{"name":"鶴間ガーデンセシア","province":"東京都","city":"町田市","address":"東京都町田市南町田5丁目14","lat":35.51466275,"lon":139.4731712},{"name":"セルシオヒルズすずかけ台","province":"東京都","city":"町田市","address":"東京都町田市小川6丁目25","lat":35.51822686,"lon":139.4737108},{"name":"南つくし野やなぎ公園","province":"東京都","city":"町田市","address":"東京都町田市南つくし野3丁目14","lat":35.51897514,"lon":139.4778267},{"name":"つくし野セントラルパーク","province":"東京都","city":"町田市","address":"東京都町田市つくし野3丁目19","lat":35.52056458,"lon":139.4823534},{"name":"総合体育館駐車場入口","province":"東京都","city":"町田市","address":"東京都町田市南成瀬5丁目12","lat":35.53652328,"lon":139.4792998},{"name":"成瀬熊ヶ谷戸公園","province":"東京都","city":"町田市","address":"東京都町田市成瀬台2丁目33","lat":35.54957761,"lon":139.4806826},{"name":"成瀬台公園","province":"東京都","city":"町田市","address":"東京都町田市成瀬台3丁目7","lat":35.55500866,"lon":139.4774664},{"name":"東玉川学園１丁目児童公園","province":"東京都","city":"町田市","address":"東京都町田市東玉川学園1丁目9","lat":35.55757141,"lon":139.4701571},{"name":"三輪中央公園","province":"東京都","city":"町田市","address":"東京都町田市三輪緑山3丁目21","lat":35.57460778,"lon":139.4890026},{"name":"三輪沢谷戸かえで公園","province":"東京都","city":"町田市","address":"東京都町田市三輪緑山1丁目35","lat":35.57666806,"lon":139.4923663},{"name":"三輪第一住宅バス停前","province":"東京都","city":"町田市","address":"東京都町田市三輪町","lat":35.58309142,"lon":139.4911137},{"name":"金井森の丘公園","province":"東京都","city":"町田市","address":"東京都町田市金井6丁目23","lat":35.57776369,"lon":139.4651787},{"name":"薬師ヶ丘住宅","province":"東京都","city":"町田市","address":"東京都町田市野津田町","lat":35.58203739,"lon":139.4461817},{"name":"薬師台青空公園","province":"東京都","city":"町田市","address":"東京都町田市薬師台2丁目13","lat":35.58050547,"lon":139.4528735},{"name":"金井関山公園","province":"東京都","city":"町田市","address":"東京都町田市金井3丁目12","lat":35.5819378,"lon":139.4591783},{"name":"山王塚公園","province":"東京都","city":"町田市","address":"東京都町田市野津田町","lat":35.58391831,"lon":139.455676},{"name":"鶴川台緑の里公園","province":"東京都","city":"町田市","address":"東京都町田市真光寺2丁目26","lat":35.60022494,"lon":139.4703547},{"name":"鶴川台丘の里公園","province":"東京都","city":"町田市","address":"東京都町田市真光寺1丁目13","lat":35.60395053,"lon":139.4656984},{"name":"イリーゼ町田図師の丘","province":"東京都","city":"町田市","address":"東京都町田市図師町","lat":35.58321024,"lon":139.4242898},{"name":"都営町田中里橋アパート","province":"東京都","city":"町田市","address":"東京都町田市木曽西1丁目33","lat":35.56654086,"lon":139.4148236},{"name":"境川住宅管理事務所前","province":"東京都","city":"町田市","address":"東京都町田市木曽東2丁目10","lat":35.55899572,"lon":139.4241309},{"name":"木曽森野防災市民いこいの広場","province":"東京都","city":"町田市","address":"東京都町田市森野4丁目8","lat":35.5552821,"lon":139.432783},{"name":"金井中央ふれあい公園","province":"東京都","city":"町田市","address":"東京都町田市金井5丁目5","lat":35.57547889,"lon":139.4604419},{"name":"本町田住宅貝がら公園","province":"東京都","city":"町田市","address":"東京都町田市本町田","lat":35.55741962,"lon":139.4538121},{"name":"藤の台住宅管理組合前","province":"東京都","city":"町田市","address":"東京都町田市藤の台2丁目2","lat":35.56977353,"lon":139.4506921},{"name":"ゆうき山公園","province":"東京都","city":"町田市","address":"東京都町田市金井ヶ丘1丁目14","lat":35.57022261,"lon":139.4572909},{"name":"四つ木橋児童公園","province":"東京都","city":"町田市","address":"東京都町田市三輪町","lat":35.57728672,"lon":139.4995085},{"name":"天神原公園","province":"東京都","city":"町田市","address":"東京都町田市南成瀬6丁目6","lat":35.533003,"lon":139.476601},{"name":"南つくし野なかむら公園","province":"東京都","city":"町田市","address":"東京都町田市南つくし野4丁目12","lat":35.523809,"lon":139.478066},{"name":"南町田ハイタウン","province":"東京都","city":"町田市","address":"東京都町田市南町田3丁目2","lat":35.51951694,"lon":139.466755},{"name":"市立博物館前","province":"東京都","city":"町田市","address":"東京都町田市本町田","lat":35.56744205,"lon":139.4509341},{"name":"玉川学園やすらぎ公園","province":"東京都","city":"町田市","address":"東京都町田市玉川学園4丁目23","lat":35.56478242,"lon":139.4537669},{"name":"西田橋公園","province":"東京都","city":"町田市","address":"東京都町田市金森5丁目15","lat":35.52030392,"lon":139.458372},{"name":"鶴間橋児童公園","province":"東京都","city":"町田市","address":"東京都町田市南町田4丁目7","lat":35.51747144,"lon":139.464422},{"name":"鶴間公園","province":"東京都","city":"町田市","address":"東京都町田市鶴間3丁目1","lat":35.50974002,"lon":139.4675533},{"name":"鶴間三角公園","province":"東京都","city":"町田市","address":"東京都町田市鶴間6丁目10","lat":35.50528267,"lon":139.4768824},{"name":"鶴間風の子公園","province":"東京都","city":"町田市","address":"東京都町田市鶴間4丁目8","lat":35.50673656,"lon":139.4718293},{"name":"鶴間ガーデンセシア","province":"東京都","city":"町田市","address":"東京都町田市南町田5丁目14","lat":35.51466275,"lon":139.4731712},{"name":"セルシオヒルズすずかけ台","province":"東京都","city":"町田市","address":"東京都町田市小川6丁目25","lat":35.51822686,"lon":139.4737108},{"name":"南つくし野やなぎ公園","province":"東京都","city":"町田市","address":"東京都町田市南つくし野3丁目14","lat":35.51897514,"lon":139.4778267},{"name":"つくし野セントラルパーク","province":"東京都","city":"町田市","address":"東京都町田市つくし野3丁目19","lat":35.52056458,"lon":139.4823534},{"name":"総合体育館駐車場入口","province":"東京都","city":"町田市","address":"東京都町田市南成瀬5丁目12","lat":35.53652328,"lon":139.4792998},{"name":"成瀬熊ヶ谷戸公園","province":"東京都","city":"町田市","address":"東京都町田市成瀬台2丁目33","lat":35.54957761,"lon":139.4806826},{"name":"成瀬台公園","province":"東京都","city":"町田市","address":"東京都町田市成瀬台3丁目7","lat":35.55500866,"lon":139.4774664},{"name":"東玉川学園１丁目児童公園","province":"東京都","city":"町田市","address":"東京都町田市東玉川学園1丁目9","lat":35.55757141,"lon":139.4701571},{"name":"三輪中央公園","province":"東京都","city":"町田市","address":"東京都町田市三輪緑山3丁目21","lat":35.57460778,"lon":139.4890026},{"name":"三輪沢谷戸かえで公園","province":"東京都","city":"町田市","address":"東京都町田市三輪緑山1丁目35","lat":35.57666806,"lon":139.4923663},{"name":"三輪第一住宅バス停前","province":"東京都","city":"町田市","address":"東京都町田市三輪町","lat":35.58309142,"lon":139.4911137},{"name":"金井森の丘公園","province":"東京都","city":"町田市","address":"東京都町田市金井6丁目23","lat":35.57776369,"lon":139.4651787},{"name":"薬師ヶ丘住宅","province":"東京都","city":"町田市","address":"東京都町田市野津田町","lat":35.58203739,"lon":139.4461817},{"name":"薬師台青空公園","province":"東京都","city":"町田市","address":"東京都町田市薬師台2丁目13","lat":35.58050547,"lon":139.4528735},{"name":"金井関山公園","province":"東京都","city":"町田市","address":"東京都町田市金井3丁目12","lat":35.5819378,"lon":139.4591783},{"name":"山王塚公園","province":"東京都","city":"町田市","address":"東京都町田市野津田町","lat":35.58391831,"lon":139.455676},{"name":"鶴川台緑の里公園","province":"東京都","city":"町田市","address":"東京都町田市真光寺2丁目26","lat":35.60022494,"lon":139.4703547},{"name":"鶴川台丘の里公園","province":"東京都","city":"町田市","address":"東京都町田市真光寺1丁目13","lat":35.60395053,"lon":139.4656984},{"name":"イリーゼ町田図師の丘","province":"東京都","city":"町田市","address":"東京都町田市図師町","lat":35.58321024,"lon":139.4242898},{"name":"都営町田中里橋アパート","province":"東京都","city":"町田市","address":"東京都町田市木曽西1丁目33","lat":35.56654086,"lon":139.4148236},{"name":"境川住宅管理事務所前","province":"東京都","city":"町田市","address":"東京都町田市木曽東2丁目10","lat":35.55899572,"lon":139.4241309},{"name":"木曽森野防災市民いこいの広場","province":"東京都","city":"町田市","address":"東京都町田市森野4丁目8","lat":35.5552821,"lon":139.432783},{"name":"金井中央ふれあい公園","province":"東京都","city":"町田市","address":"東京都町田市金井5丁目5","lat":35.57547889,"lon":139.4604419},{"name":"本町田住宅貝がら公園","province":"東京都","city":"町田市","address":"東京都町田市本町田","lat":35.55741962,"lon":139.4538121},{"name":"藤の台住宅管理組合前","province":"東京都","city":"町田市","address":"東京都町田市藤の台2丁目2","lat":35.56977353,"lon":139.4506921},{"name":"ゆうき山公園","province":"東京都","city":"町田市","address":"東京都町田市金井ヶ丘1丁目14","lat":35.57022261,"lon":139.4572909},{"name":"四つ木橋児童公園","province":"東京都","city":"町田市","address":"東京都町田市三輪町","lat":35.57728672,"lon":139.4995085},{"name":"天神原公園","province":"東京都","city":"町田市","address":"東京都町田市南成瀬6丁目6","lat":35.533003,"lon":139.476601},{"name":"南つくし野なかむら公園","province":"東京都","city":"町田市","address":"東京都町田市南つくし野4丁目12","lat":35.523809,"lon":139.478066},{"name":"南町田ハイタウン","province":"東京都","city":"町田市","address":"東京都町田市南町田3丁目2","lat":35.51951694,"lon":139.466755},{"name":"市立博物館前","province":"東京都","city":"町田市","address":"東京都町田市本町田","lat":35.56744205,"lon":139.4509341},{"name":"玉川学園やすらぎ公園","province":"東京都","city":"町田市","address":"東京都町田市玉川学園4丁目23","lat":35.56478242,"lon":139.4537669},{"name":"西田橋公園","province":"東京都","city":"町田市","address":"東京都町田市金森5丁目15","lat":35.52030392,"lon":139.458372},{"name":"鶴間橋児童公園","province":"東京都","city":"町田市","address":"東京都町田市南町田4丁目7","lat":35.51747144,"lon":139.464422},{"name":"鶴間公園","province":"東京都","city":"町田市","address":"東京都町田市鶴間3丁目1","lat":35.50974002,"lon":139.4675533},{"name":"鶴間三角公園","province":"東京都","city":"町田市","address":"東京都町田市鶴間6丁目10","lat":35.50528267,"lon":139.4768824},{"name":"鶴間風の子公園","province":"東京都","city":"町田市","address":"東京都町田市鶴間4丁目8","lat":35.50673656,"lon":139.4718293},{"name":"鶴間ガーデンセシア","province":"東京都","city":"町田市","address":"東京都町田市南町田5丁目14","lat":35.51466275,"lon":139.4731712},{"name":"セルシオヒルズすずかけ台","province":"東京都","city":"町田市","address":"東京都町田市小川6丁目25","lat":35.51822686,"lon":139.4737108},{"name":"南つくし野やなぎ公園","province":"東京都","city":"町田市","address":"東京都町田市南つくし野3丁目14","lat":35.51897514,"lon":139.4778267},{"name":"つくし野セントラルパーク","province":"東京都","city":"町田市","address":"東京都町田市つくし野3丁目19","lat":35.52056458,"lon":139.4823534},{"name":"総合体育館駐車場入口","province":"東京都","city":"町田市","address":"東京都町田市南成瀬5丁目12","lat":35.53652328,"lon":139.4792998},{"name":"成瀬熊ヶ谷戸公園","province":"東京都","city":"町田市","address":"東京都町田市成瀬台2丁目33","lat":35.54957761,"lon":139.4806826},{"name":"成瀬台公園","province":"東京都","city":"町田市","address":"東京都町田市成瀬台3丁目7","lat":35.55500866,"lon":139.4774664},{"name":"東玉川学園１丁目児童公園","province":"東京都","city":"町田市","address":"東京都町田市東玉川学園1丁目9","lat":35.55757141,"lon":139.4701571},{"name":"三輪中央公園","province":"東京都","city":"町田市","address":"東京都町田市三輪緑山3丁目21","lat":35.57460778,"lon":139.4890026},{"name":"三輪沢谷戸かえで公園","province":"東京都","city":"町田市","address":"東京都町田市三輪緑山1丁目35","lat":35.57666806,"lon":139.4923663},{"name":"三輪第一住宅バス停前","province":"東京都","city":"町田市","address":"東京都町田市三輪町","lat":35.58309142,"lon":139.4911137},{"name":"金井森の丘公園","province":"東京都","city":"町田市","address":"東京都町田市金井6丁目23","lat":35.57776369,"lon":139.4651787},{"name":"薬師ヶ丘住宅","province":"東京都","city":"町田市","address":"東京都町田市野津田町","lat":35.58203739,"lon":139.4461817},{"name":"薬師台青空公園","province":"東京都","city":"町田市","address":"東京都町田市薬師台2丁目13","lat":35.58050547,"lon":139.4528735},{"name":"金井関山公園","province":"東京都","city":"町田市","address":"東京都町田市金井3丁目12","lat":35.5819378,"lon":139.4591783},{"name":"山王塚公園","province":"東京都","city":"町田市","address":"東京都町田市野津田町","lat":35.58391831,"lon":139.455676},{"name":"鶴川台緑の里公園","province":"東京都","city":"町田市","address":"東京都町田市真光寺2丁目26","lat":35.60022494,"lon":139.4703547},{"name":"鶴川台丘の里公園","province":"東京都","city":"町田市","address":"東京都町田市真光寺1丁目13","lat":35.60395053,"lon":139.4656984},{"name":"イリーゼ町田図師の丘","province":"東京都","city":"町田市","address":"東京都町田市図師町","lat":35.58321024,"lon":139.4242898},{"name":"都営町田中里橋アパート","province":"東京都","city":"町田市","address":"東京都町田市木曽西1丁目33","lat":35.56654086,"lon":139.4148236},{"name":"境川住宅管理事務所前","province":"東京都","city":"町田市","address":"東京都町田市木曽東2丁目10","lat":35.55899572,"lon":139.4241309},{"name":"木曽森野防災市民いこいの広場","province":"東京都","city":"町田市","address":"東京都町田市森野4丁目8","lat":35.5552821,"lon":139.432783},{"name":"金井中央ふれあい公園","province":"東京都","city":"町田市","address":"東京都町田市金井5丁目5","lat":35.57547889,"lon":139.4604419},{"name":"本町田住宅貝がら公園","province":"東京都","city":"町田市","address":"東京都町田市本町田","lat":35.55741962,"lon":139.4538121},{"name":"藤の台住宅管理組合前","province":"東京都","city":"町田市","address":"東京都町田市藤の台2丁目2","lat":35.56977353,"lon":139.4506921},{"name":"ゆうき山公園","province":"東京都","city":"町田市","address":"東京都町田市金井ヶ丘1丁目14","lat":35.57022261,"lon":139.4572909},{"name":"四つ木橋児童公園","province":"東京都","city":"町田市","address":"東京都町田市三輪町","lat":35.57728672,"lon":139.4995085},{"name":"天神原公園","province":"東京都","city":"町田市","address":"東京都町田市南成瀬6丁目6","lat":35.533003,"lon":139.476601},{"name":"南つくし野なかむら公園","province":"東京都","city":"町田市","address":"東京都町田市南つくし野4丁目12","lat":35.523809,"lon":139.478066},{"name":"南町田ハイタウン","province":"東京都","city":"町田市","address":"東京都町田市南町田3丁目2","lat":35.51951694,"lon":139.466755},{"name":"市立博物館前","province":"東京都","city":"町田市","address":"東京都町田市本町田","lat":35.56744205,"lon":139.4509341},{"name":"玉川学園やすらぎ公園","province":"東京都","city":"町田市","address":"東京都町田市玉川学園4丁目23","lat":35.56478242,"lon":139.4537669},{"name":"西田橋公園","province":"東京都","city":"町田市","address":"東京都町田市金森5丁目15","lat":35.52030392,"lon":139.458372},{"name":"鶴間橋児童公園","province":"東京都","city":"町田市","address":"東京都町田市南町田4丁目7","lat":35.51747144,"lon":139.464422},{"name":"鶴間公園","province":"東京都","city":"町田市","address":"東京都町田市鶴間3丁目1","lat":35.50974002,"lon":139.4675533},{"name":"鶴間三角公園","province":"東京都","city":"町田市","address":"東京都町田市鶴間6丁目10","lat":35.50528267,"lon":139.4768824},{"name":"鶴間風の子公園","province":"東京都","city":"町田市","address":"東京都町田市鶴間4丁目8","lat":35.50673656,"lon":139.4718293},{"name":"鶴間ガーデンセシア","province":"東京都","city":"町田市","address":"東京都町田市南町田5丁目14","lat":35.51466275,"lon":139.4731712},{"name":"セルシオヒルズすずかけ台","province":"東京都","city":"町田市","address":"東京都町田市小川6丁目25","lat":35.51822686,"lon":139.4737108},{"name":"南つくし野やなぎ公園","province":"東京都","city":"町田市","address":"東京都町田市南つくし野3丁目14","lat":35.51897514,"lon":139.4778267},{"name":"つくし野セントラルパーク","province":"東京都","city":"町田市","address":"東京都町田市つくし野3丁目19","lat":35.52056458,"lon":139.4823534},{"name":"総合体育館駐車場入口","province":"東京都","city":"町田市","address":"東京都町田市南成瀬5丁目12","lat":35.53652328,"lon":139.4792998},{"name":"成瀬熊ヶ谷戸公園","province":"東京都","city":"町田市","address":"東京都町田市成瀬台2丁目33","lat":35.54957761,"lon":139.4806826},{"name":"成瀬台公園","province":"東京都","city":"町田市","address":"東京都町田市成瀬台3丁目7","lat":35.55500866,"lon":139.4774664},{"name":"東玉川学園１丁目児童公園","province":"東京都","city":"町田市","address":"東京都町田市東玉川学園1丁目9","lat":35.55757141,"lon":139.4701571},{"name":"三輪中央公園","province":"東京都","city":"町田市","address":"東京都町田市三輪緑山3丁目21","lat":35.57460778,"lon":139.4890026},{"name":"三輪沢谷戸かえで公園","province":"東京都","city":"町田市","address":"東京都町田市三輪緑山1丁目35","lat":35.57666806,"lon":139.4923663},{"name":"三輪第一住宅バス停前","province":"東京都","city":"町田市","address":"東京都町田市三輪町","lat":35.58309142,"lon":139.4911137},{"name":"金井森の丘公園","province":"東京都","city":"町田市","address":"東京都町田市金井6丁目23","lat":35.57776369,"lon":139.4651787},{"name":"薬師ヶ丘住宅","province":"東京都","city":"町田市","address":"東京都町田市野津田町","lat":35.58203739,"lon":139.4461817},{"name":"薬師台青空公園","province":"東京都","city":"町田市","address":"東京都町田市薬師台2丁目13","lat":35.58050547,"lon":139.4528735},{"name":"金井関山公園","province":"東京都","city":"町田市","address":"東京都町田市金井3丁目12","lat":35.5819378,"lon":139.4591783},{"name":"山王塚公園","province":"東京都","city":"町田市","address":"東京都町田市野津田町","lat":35.58391831,"lon":139.455676},{"name":"鶴川台緑の里公園","province":"東京都","city":"町田市","address":"東京都町田市真光寺2丁目26","lat":35.60022494,"lon":139.4703547},{"name":"鶴川台丘の里公園","province":"東京都","city":"町田市","address":"東京都町田市真光寺1丁目13","lat":35.60395053,"lon":139.4656984},{"name":"イリーゼ町田図師の丘","province":"東京都","city":"町田市","address":"東京都町田市図師町","lat":35.58321024,"lon":139.4242898},{"name":"都営町田中里橋アパート","province":"東京都","city":"町田市","address":"東京都町田市木曽西1丁目33","lat":35.56654086,"lon":139.4148236},{"name":"境川住宅管理事務所前","province":"東京都","city":"町田市","address":"東京都町田市木曽東2丁目10","lat":35.55899572,"lon":139.4241309},{"name":"木曽森野防災市民いこいの広場","province":"東京都","city":"町田市","address":"東京都町田市森野4丁目8","lat":35.5552821,"lon":139.432783},{"name":"金井中央ふれあい公園","province":"東京都","city":"町田市","address":"東京都町田市金井5丁目5","lat":35.57547889,"lon":139.4604419},{"name":"本町田住宅貝がら公園","province":"東京都","city":"町田市","address":"東京都町田市本町田","lat":35.55741962,"lon":139.4538121},{"name":"藤の台住宅管理組合前","province":"東京都","city":"町田市","address":"東京都町田市藤の台2丁目2","lat":35.56977353,"lon":139.4506921},{"name":"ゆうき山公園","province":"東京都","city":"町田市","address":"東京都町田市金井ヶ丘1丁目14","lat":35.57022261,"lon":139.4572909},{"name":"四つ木橋児童公園","province":"東京都","city":"町田市","address":"東京都町田市三輪町","lat":35.57728672,"lon":139.4995085},{"name":"天神原公園","province":"東京都","city":"町田市","address":"東京都町田市南成瀬6丁目6","lat":35.533003,"lon":139.476601},{"name":"南つくし野なかむら公園","province":"東京都","city":"町田市","address":"東京都町田市南つくし野4丁目12","lat":35.523809,"lon":139.478066},{"name":"南町田ハイタウン","province":"東京都","city":"町田市","address":"東京都町田市南町田3丁目2","lat":35.51951694,"lon":139.466755},{"name":"市立博物館前","province":"東京都","city":"町田市","address":"東京都町田市本町田","lat":35.56744205,"lon":139.4509341},{"name":"玉川学園やすらぎ公園","province":"東京都","city":"町田市","address":"東京都町田市玉川学園4丁目23","lat":35.56478242,"lon":139.4537669},{"name":"西田橋公園","province":"東京都","city":"町田市","address":"東京都町田市金森5丁目15","lat":35.52030392,"lon":139.458372},{"name":"鶴間橋児童公園","province":"東京都","city":"町田市","address":"東京都町田市南町田4丁目7","lat":35.51747144,"lon":139.464422},{"name":"鶴間公園","province":"東京都","city":"町田市","address":"東京都町田市鶴間3丁目1","lat":35.50974002,"lon":139.4675533},{"name":"鶴間三角公園","province":"東京都","city":"町田市","address":"東京都町田市鶴間6丁目10","lat":35.50528267,"lon":139.4768824},{"name":"鶴間風の子公園","province":"東京都","city":"町田市","address":"東京都町田市鶴間4丁目8","lat":35.50673656,"lon":139.4718293},{"name":"鶴間ガーデンセシア","province":"東京都","city":"町田市","address":"東京都町田市南町田5丁目14","lat":35.51466275,"lon":139.4731712},{"name":"セルシオヒルズすずかけ台","province":"東京都","city":"町田市","address":"東京都町田市小川6丁目25","lat":35.51822686,"lon":139.4737108},{"name":"南つくし野やなぎ公園","province":"東京都","city":"町田市","address":"東京都町田市南つくし野3丁目14","lat":35.51897514,"lon":139.4778267},{"name":"つくし野セントラルパーク","province":"東京都","city":"町田市","address":"東京都町田市つくし野3丁目19","lat":35.52056458,"lon":139.4823534},{"name":"総合体育館駐車場入口","province":"東京都","city":"町田市","address":"東京都町田市南成瀬5丁目12","lat":35.53652328,"lon":139.4792998},{"name":"成瀬熊ヶ谷戸公園","province":"東京都","city":"町田市","address":"東京都町田市成瀬台2丁目33","lat":35.54957761,"lon":139.4806826},{"name":"成瀬台公園","province":"東京都","city":"町田市","address":"東京都町田市成瀬台3丁目7","lat":35.55500866,"lon":139.4774664},{"name":"東玉川学園１丁目児童公園","province":"東京都","city":"町田市","address":"東京都町田市東玉川学園1丁目9","lat":35.55757141,"lon":139.4701571},{"name":"三輪中央公園","province":"東京都","city":"町田市","address":"東京都町田市三輪緑山3丁目21","lat":35.57460778,"lon":139.4890026},{"name":"三輪沢谷戸かえで公園","province":"東京都","city":"町田市","address":"東京都町田市三輪緑山1丁目35","lat":35.57666806,"lon":139.4923663},{"name":"三輪第一住宅バス停前","province":"東京都","city":"町田市","address":"東京都町田市三輪町","lat":35.58309142,"lon":139.4911137},{"name":"金井森の丘公園","province":"東京都","city":"町田市","address":"東京都町田市金井6丁目23","lat":35.57776369,"lon":139.4651787},{"name":"薬師ヶ丘住宅","province":"東京都","city":"町田市","address":"東京都町田市野津田町","lat":35.58203739,"lon":139.4461817},{"name":"薬師台青空公園","province":"東京都","city":"町田市","address":"東京都町田市薬師台2丁目13","lat":35.58050547,"lon":139.4528735},{"name":"金井関山公園","province":"東京都","city":"町田市","address":"東京都町田市金井3丁目12","lat":35.5819378,"lon":139.4591783},{"name":"山王塚公園","province":"東京都","city":"町田市","address":"東京都町田市野津田町","lat":35.58391831,"lon":139.455676},{"name":"鶴川台緑の里公園","province":"東京都","city":"町田市","address":"東京都町田市真光寺2丁目26","lat":35.60022494,"lon":139.4703547},{"name":"鶴川台丘の里公園","province":"東京都","city":"町田市","address":"東京都町田市真光寺1丁目13","lat":35.60395053,"lon":139.4656984},{"name":"イリーゼ町田図師の丘","province":"東京都","city":"町田市","address":"東京都町田市図師町","lat":35.58321024,"lon":139.4242898},{"name":"都営町田中里橋アパート","province":"東京都","city":"町田市","address":"東京都町田市木曽西1丁目33","lat":35.56654086,"lon":139.4148236},{"name":"境川住宅管理事務所前","province":"東京都","city":"町田市","address":"東京都町田市木曽東2丁目10","lat":35.55899572,"lon":139.4241309},{"name":"木曽森野防災市民いこいの広場","province":"東京都","city":"町田市","address":"東京都町田市森野4丁目8","lat":35.5552821,"lon":139.432783},{"name":"金井中央ふれあい公園","province":"東京都","city":"町田市","address":"東京都町田市金井5丁目5","lat":35.57547889,"lon":139.4604419},{"name":"本町田住宅貝がら公園","province":"東京都","city":"町田市","address":"東京都町田市本町田","lat":35.55741962,"lon":139.4538121},{"name":"藤の台住宅管理組合前","province":"東京都","city":"町田市","address":"東京都町田市藤の台2丁目2","lat":35.56977353,"lon":139.4506921},{"name":"ゆうき山公園","province":"東京都","city":"町田市","address":"東京都町田市金井ヶ丘1丁目14","lat":35.57022261,"lon":139.4572909},{"name":"四つ木橋児童公園","province":"東京都","city":"町田市","address":"東京都町田市三輪町","lat":35.57728672,"lon":139.4995085},{"name":"天神原公園","province":"東京都","city":"町田市","address":"東京都町田市南成瀬6丁目6","lat":35.533003,"lon":139.476601},{"name":"南つくし野なかむら公園","province":"東京都","city":"町田市","address":"東京都町田市南つくし野4丁目12","lat":35.523809,"lon":139.478066},{"name":"南町田ハイタウン","province":"東京都","city":"町田市","address":"東京都町田市南町田3丁目2","lat":35.51951694,"lon":139.466755},{"name":"市立博物館前","province":"東京都","city":"町田市","address":"東京都町田市本町田","lat":35.56744205,"lon":139.4509341},{"name":"玉川学園やすらぎ公園","province":"東京都","city":"町田市","address":"東京都町田市玉川学園4丁目23","lat":35.56478242,"lon":139.4537669},{"name":"西田橋公園","province":"東京都","city":"町田市","address":"東京都町田市金森5丁目15","lat":35.52030392,"lon":139.458372},{"name":"鶴間橋児童公園","province":"東京都","city":"町田市","address":"東京都町田市南町田4丁目7","lat":35.51747144,"lon":139.464422},{"name":"鶴間公園","province":"東京都","city":"町田市","address":"東京都町田市鶴間3丁目1","lat":35.50974002,"lon":139.4675533},{"name":"鶴間三角公園","province":"東京都","city":"町田市","address":"東京都町田市鶴間6丁目10","lat":35.50528267,"lon":139.4768824},{"name":"鶴間風の子公園","province":"東京都","city":"町田市","address":"東京都町田市鶴間4丁目8","lat":35.50673656,"lon":139.4718293},{"name":"鶴間ガーデンセシア","province":"東京都","city":"町田市","address":"東京都町田市南町田5丁目14","lat":35.51466275,"lon":139.4731712},{"name":"セルシオヒルズすずかけ台","province":"東京都","city":"町田市","address":"東京都町田市小川6丁目25","lat":35.51822686,"lon":139.4737108},{"name":"南つくし野やなぎ公園","province":"東京都","city":"町田市","address":"東京都町田市南つくし野3丁目14","lat":35.51897514,"lon":139.4778267},{"name":"つくし野セントラルパーク","province":"東京都","city":"町田市","address":"東京都町田市つくし野3丁目19","lat":35.52056458,"lon":139.4823534},{"name":"総合体育館駐車場入口","province":"東京都","city":"町田市","address":"東京都町田市南成瀬5丁目12","lat":35.53652328,"lon":139.4792998},{"name":"成瀬熊ヶ谷戸公園","province":"東京都","city":"町田市","address":"東京都町田市成瀬台2丁目33","lat":35.54957761,"lon":139.4806826},{"name":"成瀬台公園","province":"東京都","city":"町田市","address":"東京都町田市成瀬台3丁目7","lat":35.55500866,"lon":139.4774664},{"name":"東玉川学園１丁目児童公園","province":"東京都","city":"町田市","address":"東京都町田市東玉川学園1丁目9","lat":35.55757141,"lon":139.4701571},{"name":"三輪中央公園","province":"東京都","city":"町田市","address":"東京都町田市三輪緑山3丁目21","lat":35.57460778,"lon":139.4890026},{"name":"三輪沢谷戸かえで公園","province":"東京都","city":"町田市","address":"東京都町田市三輪緑山1丁目35","lat":35.57666806,"lon":139.4923663},{"name":"三輪第一住宅バス停前","province":"東京都","city":"町田市","address":"東京都町田市三輪町","lat":35.58309142,"lon":139.4911137},{"name":"金井森の丘公園","province":"東京都","city":"町田市","address":"東京都町田市金井6丁目23","lat":35.57776369,"lon":139.4651787},{"name":"薬師ヶ丘住宅","province":"東京都","city":"町田市","address":"東京都町田市野津田町","lat":35.58203739,"lon":139.4461817},{"name":"薬師台青空公園","province":"東京都","city":"町田市","address":"東京都町田市薬師台2丁目13","lat":35.58050547,"lon":139.4528735},{"name":"金井関山公園","province":"東京都","city":"町田市","address":"東京都町田市金井3丁目12","lat":35.5819378,"lon":139.4591783},{"name":"山王塚公園","province":"東京都","city":"町田市","address":"東京都町田市野津田町","lat":35.58391831,"lon":139.455676},{"name":"鶴川台緑の里公園","province":"東京都","city":"町田市","address":"東京都町田市真光寺2丁目26","lat":35.60022494,"lon":139.4703547},{"name":"鶴川台丘の里公園","province":"東京都","city":"町田市","address":"東京都町田市真光寺1丁目13","lat":35.60395053,"lon":139.4656984},{"name":"イリーゼ町田図師の丘","province":"東京都","city":"町田市","address":"東京都町田市図師町","lat":35.58321024,"lon":139.4242898},{"name":"都営町田中里橋アパート","province":"東京都","city":"町田市","address":"東京都町田市木曽西1丁目33","lat":35.56654086,"lon":139.4148236},{"name":"境川住宅管理事務所前","province":"東京都","city":"町田市","address":"東京都町田市木曽東2丁目10","lat":35.55899572,"lon":139.4241309},{"name":"木曽森野防災市民いこいの広場","province":"東京都","city":"町田市","address":"東京都町田市森野4丁目8","lat":35.5552821,"lon":139.432783},{"name":"金井中央ふれあい公園","province":"東京都","city":"町田市","address":"東京都町田市金井5丁目5","lat":35.57547889,"lon":139.4604419},{"name":"本町田住宅貝がら公園","province":"東京都","city":"町田市","address":"東京都町田市本町田","lat":35.55741962,"lon":139.4538121},{"name":"藤の台住宅管理組合前","province":"東京都","city":"町田市","address":"東京都町田市藤の台2丁目2","lat":35.56977353,"lon":139.4506921},{"name":"ゆうき山公園","province":"東京都","city":"町田市","address":"東京都町田市金井ヶ丘1丁目14","lat":35.57022261,"lon":139.4572909},{"name":"四つ木橋児童公園","province":"東京都","city":"町田市","address":"東京都町田市三輪町","lat":35.57728672,"lon":139.4995085},{"name":"天神原公園","province":"東京都","city":"町田市","address":"東京都町田市南成瀬6丁目6","lat":35.533003,"lon":139.476601},{"name":"南つくし野なかむら公園","province":"東京都","city":"町田市","address":"東京都町田市南つくし野4丁目12","lat":35.523809,"lon":139.478066},{"name":"南町田ハイタウン","province":"東京都","city":"町田市","address":"東京都町田市南町田3丁目2","lat":35.51951694,"lon":139.466755},{"name":"市立博物館前","province":"東京都","city":"町田市","address":"東京都町田市本町田","lat":35.56744205,"lon":139.4509341},{"name":"玉川学園やすらぎ公園","province":"東京都","city":"町田市","address":"東京都町田市玉川学園4丁目23","lat":35.56478242,"lon":139.4537669},{"name":"西田橋公園","province":"東京都","city":"町田市","address":"東京都町田市金森5丁目15","lat":35.52030392,"lon":139.458372},{"name":"鶴間橋児童公園","province":"東京都","city":"町田市","address":"東京都町田市南町田4丁目7","lat":35.51747144,"lon":139.464422},{"name":"鶴間公園","province":"東京都","city":"町田市","address":"東京都町田市鶴間3丁目1","lat":35.50974002,"lon":139.4675533},{"name":"鶴間三角公園","province":"東京都","city":"町田市","address":"東京都町田市鶴間6丁目10","lat":35.50528267,"lon":139.4768824},{"name":"鶴間風の子公園","province":"東京都","city":"町田市","address":"東京都町田市鶴間4丁目8","lat":35.50673656,"lon":139.4718293},{"name":"鶴間ガーデンセシア","province":"東京都","city":"町田市","address":"東京都町田市南町田5丁目14","lat":35.51466275,"lon":139.4731712},{"name":"セルシオヒルズすずかけ台","province":"東京都","city":"町田市","address":"東京都町田市小川6丁目25","lat":35.51822686,"lon":139.4737108},{"name":"南つくし野やなぎ公園","province":"東京都","city":"町田市","address":"東京都町田市南つくし野3丁目14","lat":35.51897514,"lon":139.4778267},{"name":"つくし野セントラルパーク","province":"東京都","city":"町田市","address":"東京都町田市つくし野3丁目19","lat":35.52056458,"lon":139.4823534},{"name":"総合体育館駐車場入口","province":"東京都","city":"町田市","address":"東京都町田市南成瀬5丁目12","lat":35.53652328,"lon":139.4792998},{"name":"成瀬熊ヶ谷戸公園","province":"東京都","city":"町田市","address":"東京都町田市成瀬台2丁目33","lat":35.54957761,"lon":139.4806826},{"name":"成瀬台公園","province":"東京都","city":"町田市","address":"東京都町田市成瀬台3丁目7","lat":35.55500866,"lon":139.4774664},{"name":"東玉川学園１丁目児童公園","province":"東京都","city":"町田市","address":"東京都町田市東玉川学園1丁目9","lat":35.55757141,"lon":139.4701571},{"name":"三輪中央公園","province":"東京都","city":"町田市","address":"東京都町田市三輪緑山3丁目21","lat":35.57460778,"lon":139.4890026},{"name":"三輪沢谷戸かえで公園","province":"東京都","city":"町田市","address":"東京都町田市三輪緑山1丁目35","lat":35.57666806,"lon":139.4923663},{"name":"三輪第一住宅バス停前","province":"東京都","city":"町田市","address":"東京都町田市三輪町","lat":35.58309142,"lon":139.4911137},{"name":"金井森の丘公園","province":"東京都","city":"町田市","address":"東京都町田市金井6丁目23","lat":35.57776369,"lon":139.4651787},{"name":"薬師ヶ丘住宅","province":"東京都","city":"町田市","address":"東京都町田市野津田町","lat":35.58203739,"lon":139.4461817},{"name":"薬師台青空公園","province":"東京都","city":"町田市","address":"東京都町田市薬師台2丁目13","lat":35.58050547,"lon":139.4528735},{"name":"金井関山公園","province":"東京都","city":"町田市","address":"東京都町田市金井3丁目12","lat":35.5819378,"lon":139.4591783},{"name":"山王塚公園","province":"東京都","city":"町田市","address":"東京都町田市野津田町","lat":35.58391831,"lon":139.455676},{"name":"鶴川台緑の里公園","province":"東京都","city":"町田市","address":"東京都町田市真光寺2丁目26","lat":35.60022494,"lon":139.4703547},{"name":"鶴川台丘の里公園","province":"東京都","city":"町田市","address":"東京都町田市真光寺1丁目13","lat":35.60395053,"lon":139.4656984},{"name":"イリーゼ町田図師の丘","province":"東京都","city":"町田市","address":"東京都町田市図師町","lat":35.58321024,"lon":139.4242898},{"name":"都営町田中里橋アパート","province":"東京都","city":"町田市","address":"東京都町田市木曽西1丁目33","lat":35.56654086,"lon":139.4148236},{"name":"境川住宅管理事務所前","province":"東京都","city":"町田市","address":"東京都町田市木曽東2丁目10","lat":35.55899572,"lon":139.4241309},{"name":"木曽森野防災市民いこいの広場","province":"東京都","city":"町田市","address":"東京都町田市森野4丁目8","lat":35.5552821,"lon":139.432783},{"name":"金井中央ふれあい公園","province":"東京都","city":"町田市","address":"東京都町田市金井5丁目5","lat":35.57547889,"lon":139.4604419},{"name":"本町田住宅貝がら公園","province":"東京都","city":"町田市","address":"東京都町田市本町田","lat":35.55741962,"lon":139.4538121},{"name":"藤の台住宅管理組合前","province":"東京都","city":"町田市","address":"東京都町田市藤の台2丁目2","lat":35.56977353,"lon":139.4506921},{"name":"ゆうき山公園","province":"東京都","city":"町田市","address":"東京都町田市金井ヶ丘1丁目14","lat":35.57022261,"lon":139.4572909},{"name":"四つ木橋児童公園","province":"東京都","city":"町田市","address":"東京都町田市三輪町","lat":35.57728672,"lon":139.4995085},{"name":"天神原公園","province":"東京都","city":"町田市","address":"東京都町田市南成瀬6丁目6","lat":35.533003,"lon":139.476601},{"name":"南つくし野なかむら公園","province":"東京都","city":"町田市","address":"東京都町田市南つくし野4丁目12","lat":35.523809,"lon":139.478066},{"name":"南町田ハイタウン","province":"東京都","city":"町田市","address":"東京都町田市南町田3丁目2","lat":35.51951694,"lon":139.466755},{"name":"市立博物館前","province":"東京都","city":"町田市","address":"東京都町田市本町田","lat":35.56744205,"lon":139.4509341},{"name":"玉川学園やすらぎ公園","province":"東京都","city":"町田市","address":"東京都町田市玉川学園4丁目23","lat":35.56478242,"lon":139.4537669},{"name":"西田橋公園","province":"東京都","city":"町田市","address":"東京都町田市金森5丁目15","lat":35.52030392,"lon":139.458372},{"name":"鶴間橋児童公園","province":"東京都","city":"町田市","address":"東京都町田市南町田4丁目7","lat":35.51747144,"lon":139.464422},{"name":"鶴間公園","province":"東京都","city":"町田市","address":"東京都町田市鶴間3丁目1","lat":35.50974002,"lon":139.4675533},{"name":"鶴間三角公園","province":"東京都","city":"町田市","address":"東京都町田市鶴間6丁目10","lat":35.50528267,"lon":139.4768824},{"name":"鶴間風の子公園","province":"東京都","city":"町田市","address":"東京都町田市鶴間4丁目8","lat":35.50673656,"lon":139.4718293},{"name":"鶴間ガーデンセシア","province":"東京都","city":"町田市","address":"東京都町田市南町田5丁目14","lat":35.51466275,"lon":139.4731712},{"name":"セルシオヒルズすずかけ台","province":"東京都","city":"町田市","address":"東京都町田市小川6丁目25","lat":35.51822686,"lon":139.4737108},{"name":"南つくし野やなぎ公園","province":"東京都","city":"町田市","address":"東京都町田市南つくし野3丁目14","lat":35.51897514,"lon":139.4778267},{"name":"つくし野セントラルパーク","province":"東京都","city":"町田市","address":"東京都町田市つくし野3丁目19","lat":35.52056458,"lon":139.4823534},{"name":"総合体育館駐車場入口","province":"東京都","city":"町田市","address":"東京都町田市南成瀬5丁目12","lat":35.53652328,"lon":139.4792998},{"name":"成瀬熊ヶ谷戸公園","province":"東京都","city":"町田市","address":"東京都町田市成瀬台2丁目33","lat":35.54957761,"lon":139.4806826},{"name":"成瀬台公園","province":"東京都","city":"町田市","address":"東京都町田市成瀬台3丁目7","lat":35.55500866,"lon":139.4774664},{"name":"東玉川学園１丁目児童公園","province":"東京都","city":"町田市","address":"東京都町田市東玉川学園1丁目9","lat":35.55757141,"lon":139.4701571},{"name":"三輪中央公園","province":"東京都","city":"町田市","address":"東京都町田市三輪緑山3丁目21","lat":35.57460778,"lon":139.4890026},{"name":"三輪沢谷戸かえで公園","province":"東京都","city":"町田市","address":"東京都町田市三輪緑山1丁目35","lat":35.57666806,"lon":139.4923663},{"name":"三輪第一住宅バス停前","province":"東京都","city":"町田市","address":"東京都町田市三輪町","lat":35.58309142,"lon":139.4911137},{"name":"金井森の丘公園","province":"東京都","city":"町田市","address":"東京都町田市金井6丁目23","lat":35.57776369,"lon":139.4651787},{"name":"薬師ヶ丘住宅","province":"東京都","city":"町田市","address":"東京都町田市野津田町","lat":35.58203739,"lon":139.4461817},{"name":"薬師台青空公園","province":"東京都","city":"町田市","address":"東京都町田市薬師台2丁目13","lat":35.58050547,"lon":139.4528735},{"name":"金井関山公園","province":"東京都","city":"町田市","address":"東京都町田市金井3丁目12","lat":35.5819378,"lon":139.4591783},{"name":"山王塚公園","province":"東京都","city":"町田市","address":"東京都町田市野津田町","lat":35.58391831,"lon":139.455676},{"name":"鶴川台緑の里公園","province":"東京都","city":"町田市","address":"東京都町田市真光寺2丁目26","lat":35.60022494,"lon":139.4703547},{"name":"鶴川台丘の里公園","province":"東京都","city":"町田市","address":"東京都町田市真光寺1丁目13","lat":35.60395053,"lon":139.4656984},{"name":"イリーゼ町田図師の丘","province":"東京都","city":"町田市","address":"東京都町田市図師町","lat":35.58321024,"lon":139.4242898},{"name":"都営町田中里橋アパート","province":"東京都","city":"町田市","address":"東京都町田市木曽西1丁目33","lat":35.56654086,"lon":139.4148236},{"name":"境川住宅管理事務所前","province":"東京都","city":"町田市","address":"東京都町田市木曽東2丁目10","lat":35.55899572,"lon":139.4241309},{"name":"木曽森野防災市民いこいの広場","province":"東京都","city":"町田市","address":"東京都町田市森野4丁目8","lat":35.5552821,"lon":139.432783},{"name":"金井中央ふれあい公園","province":"東京都","city":"町田市","address":"東京都町田市金井5丁目5","lat":35.57547889,"lon":139.4604419},{"name":"本町田住宅貝がら公園","province":"東京都","city":"町田市","address":"東京都町田市本町田","lat":35.55741962,"lon":139.4538121},{"name":"藤の台住宅管理組合前","province":"東京都","city":"町田市","address":"東京都町田市藤の台2丁目2","lat":35.56977353,"lon":139.4506921},{"name":"ゆうき山公園","province":"東京都","city":"町田市","address":"東京都町田市金井ヶ丘1丁目14","lat":35.57022261,"lon":139.4572909},{"name":"四つ木橋児童公園","province":"東京都","city":"町田市","address":"東京都町田市三輪町","lat":35.57728672,"lon":139.4995085},{"name":"天神原公園","province":"東京都","city":"町田市","address":"東京都町田市南成瀬6丁目6","lat":35.533003,"lon":139.476601},{"name":"南つくし野なかむら公園","province":"東京都","city":"町田市","address":"東京都町田市南つくし野4丁目12","lat":35.523809,"lon":139.478066},{"name":"南町田ハイタウン","province":"東京都","city":"町田市","address":"東京都町田市南町田3丁目2","lat":35.51951694,"lon":139.466755},{"name":"市立博物館前","province":"東京都","city":"町田市","address":"東京都町田市本町田","lat":35.56744205,"lon":139.4509341},{"name":"玉川学園やすらぎ公園","province":"東京都","city":"町田市","address":"東京都町田市玉川学園4丁目23","lat":35.56478242,"lon":139.4537669},{"name":"西田橋公園","province":"東京都","city":"町田市","address":"東京都町田市金森5丁目15","lat":35.52030392,"lon":139.458372},{"name":"鶴間橋児童公園","province":"東京都","city":"町田市","address":"東京都町田市南町田4丁目7","lat":35.51747144,"lon":139.464422},{"name":"鶴間公園","province":"東京都","city":"町田市","address":"東京都町田市鶴間3丁目1","lat":35.50974002,"lon":139.4675533},{"name":"鶴間三角公園","province":"東京都","city":"町田市","address":"東京都町田市鶴間6丁目10","lat":35.50528267,"lon":139.4768824},{"name":"鶴間風の子公園","province":"東京都","city":"町田市","address":"東京都町田市鶴間4丁目8","lat":35.50673656,"lon":139.4718293},{"name":"鶴間ガーデンセシア","province":"東京都","city":"町田市","address":"東京都町田市南町田5丁目14","lat":35.51466275,"lon":139.4731712},{"name":"セルシオヒルズすずかけ台","province":"東京都","city":"町田市","address":"東京都町田市小川6丁目25","lat":35.51822686,"lon":139.4737108},{"name":"南つくし野やなぎ公園","province":"東京都","city":"町田市","address":"東京都町田市南つくし野3丁目14","lat":35.51897514,"lon":139.4778267},{"name":"つくし野セントラルパーク","province":"東京都","city":"町田市","address":"東京都町田市つくし野3丁目19","lat":35.52056458,"lon":139.4823534},{"name":"総合体育館駐車場入口","province":"東京都","city":"町田市","address":"東京都町田市南成瀬5丁目12","lat":35.53652328,"lon":139.4792998},{"name":"成瀬熊ヶ谷戸公園","province":"東京都","city":"町田市","address":"東京都町田市成瀬台2丁目33","lat":35.54957761,"lon":139.4806826},{"name":"成瀬台公園","province":"東京都","city":"町田市","address":"東京都町田市成瀬台3丁目7","lat":35.55500866,"lon":139.4774664},{"name":"東玉川学園１丁目児童公園","province":"東京都","city":"町田市","address":"東京都町田市東玉川学園1丁目9","lat":35.55757141,"lon":139.4701571},{"name":"三輪中央公園","province":"東京都","city":"町田市","address":"東京都町田市三輪緑山3丁目21","lat":35.57460778,"lon":139.4890026},{"name":"三輪沢谷戸かえで公園","province":"東京都","city":"町田市","address":"東京都町田市三輪緑山1丁目35","lat":35.57666806,"lon":139.4923663},{"name":"三輪第一住宅バス停前","province":"東京都","city":"町田市","address":"東京都町田市三輪町","lat":35.58309142,"lon":139.4911137},{"name":"金井森の丘公園","province":"東京都","city":"町田市","address":"東京都町田市金井6丁目23","lat":35.57776369,"lon":139.4651787},{"name":"薬師ヶ丘住宅","province":"東京都","city":"町田市","address":"東京都町田市野津田町","lat":35.58203739,"lon":139.4461817},{"name":"薬師台青空公園","province":"東京都","city":"町田市","address":"東京都町田市薬師台2丁目13","lat":35.58050547,"lon":139.4528735},{"name":"金井関山公園","province":"東京都","city":"町田市","address":"東京都町田市金井3丁目12","lat":35.5819378,"lon":139.4591783},{"name":"山王塚公園","province":"東京都","city":"町田市","address":"東京都町田市野津田町","lat":35.58391831,"lon":139.455676},{"name":"鶴川台緑の里公園","province":"東京都","city":"町田市","address":"東京都町田市真光寺2丁目26","lat":35.60022494,"lon":139.4703547},{"name":"鶴川台丘の里公園","province":"東京都","city":"町田市","address":"東京都町田市真光寺1丁目13","lat":35.60395053,"lon":139.4656984},{"name":"イリーゼ町田図師の丘","province":"東京都","city":"町田市","address":"東京都町田市図師町","lat":35.58321024,"lon":139.4242898},{"name":"都営町田中里橋アパート","province":"東京都","city":"町田市","address":"東京都町田市木曽西1丁目33","lat":35.56654086,"lon":139.4148236},{"name":"境川住宅管理事務所前","province":"東京都","city":"町田市","address":"東京都町田市木曽東2丁目10","lat":35.55899572,"lon":139.4241309},{"name":"木曽森野防災市民いこいの広場","province":"東京都","city":"町田市","address":"東京都町田市森野4丁目8","lat":35.5552821,"lon":139.432783},{"name":"金井中央ふれあい公園","province":"東京都","city":"町田市","address":"東京都町田市金井5丁目5","lat":35.57547889,"lon":139.4604419},{"name":"本町田住宅貝がら公園","province":"東京都","city":"町田市","address":"東京都町田市本町田","lat":35.55741962,"lon":139.4538121}]}