{"keyword":"給水","data":[{"name":"小野路給水所","province":"東京都","city":"町田市","address":"東京都町田市小野路町2637-1","lat":35.6055194,"lon":139.449716},{"name":"原町田浄水所","province":"東京都","city":"町田市","address":"東京都町田市原町田5-13-3","lat":35.54707,"lon":139.450439},{"name":"滝の沢給水所","province":"東京都","city":"町田市","address":"東京都町田市旭町2-7-7","lat":35.556835,"lon":139.434658},{"name":"野津田浄水所","province":"東京都","city":"町田市","address":"東京都町田市野津田町3398","lat":35.5768701,"lon":139.448481},{"name":"市立つくし野セントラルパーク","province":"東京都","city":"町田市","address":"東京都町田市つくし野3-19","lat":35.5202538,"lon":139.4822224},{"name":"市立鶴川中央公園","province":"東京都","city":"町田市","address":"東京都町田市鶴川6-6","lat":35.5909809,"lon":139.47186},{"name":"成瀬コミュニティセンター","province":"東京都","city":"町田市","address":"東京都町田市西成瀬2-49-1","lat":35.543542,"lon":139.472704},{"name":"市立忠生公園","province":"東京都","city":"町田市","address":"東京都町田市忠生1-3","lat":35.5734102,"lon":139.4235662},{"name":"市立三輪中央公園","province":"東京都","city":"町田市","address":"東京都町田市三輪緑山3-21","lat":35.5739501,"lon":139.4888159}]}