{"keyword":"総務","data":[{"name":"町田市立町田市民球場","province":"東京都","city":"町田市","address":"東京都町田市旭町3丁目20-60","lat":35.55634896,"lon":139.44662554},{"name":"町田市鶴見川クリーンセンター","province":"東京都","city":"町田市","address":"東京都町田市三輪緑山1丁目1","lat":35.56975115,"lon":139.48945637},{"name":"日本大学第三高等学校運動場","province":"東京都","city":"町田市","address":"東京都町田市図師町11-2375","lat":35.59196136,"lon":139.41930483},{"name":"法政大学プレイグラウンド","province":"東京都","city":"町田市","address":"東京都町田市相原町4342","lat":35.61340443,"lon":139.29763694},{"name":"町田市立野津田公園陸上競技場","province":"東京都","city":"町田市","address":"東京都町田市野津田町2035","lat":35.59190908,"lon":139.43862536},{"name":"日向山公園野球場（藤の台球場）","province":"東京都","city":"町田市","address":"東京都町田市本町田3486","lat":35.56881998,"lon":139.44800563},{"name":"町田市立町田中央公園","province":"東京都","city":"町田市","address":"東京都町田市旭町3丁目20-60","lat":35.55634896,"lon":139.44662554},{"name":"町田市立リサイクルセンター","province":"東京都","city":"町田市","address":"東京都町田市下小山田町3160","lat":35.58679242,"lon":139.41140293},{"name":"小川高等学校","province":"東京都","city":"町田市","address":"東京都町田市小川2丁目1002-1","lat":35.53233046,"lon":139.46933859},{"name":"町田総合高等学校","province":"東京都","city":"町田市","address":"東京都町田市木曽西3丁目5-1","lat":35.57035541,"lon":139.41678624},{"name":"町田工業高等学校","province":"東京都","city":"町田市","address":"東京都町田市忠生1丁目20-2","lat":35.5755605,"lon":139.42215504},{"name":"町田高等学校","province":"東京都","city":"町田市","address":"東京都町田市中町4丁目25-3","lat":35.55337986,"lon":139.44872268},{"name":"野津田高等学校","province":"東京都","city":"町田市","address":"東京都町田市野津田町2001","lat":35.58961486,"lon":139.43740885},{"name":"山崎高等学校","province":"東京都","city":"町田市","address":"東京都町田市山崎町1453-1","lat":35.57680228,"lon":139.43379559}]}