{"keyword":"自転車","data":[{"name":"森野第一自転車駐車場","province":"東京都","city":"町田市","address":"東京都町田市森野1丁目1","lat":35.54276138,"lon":139.44296798},{"name":"森野第二自転車駐車場","province":"東京都","city":"町田市","address":"東京都町田市森野1丁目15-13","lat":35.54323356,"lon":139.44397344},{"name":"原町田一丁目自転車駐車場","province":"東京都","city":"町田市","address":"東京都町田市原町田1丁目6-21","lat":35.54056445,"lon":139.44754543},{"name":"原町田四丁目自転車駐車場","province":"東京都","city":"町田市","address":"東京都町田市原町田4丁目11-11","lat":35.54262263,"lon":139.44900081},{"name":"原町田六丁目自転車駐車場","province":"東京都","city":"町田市","address":"東京都町田市原町田6丁目26","lat":35.54478069,"lon":139.44782305},{"name":"町田ターミナル自転車駐車場","province":"東京都","city":"町田市","address":"東京都町田市原町田3丁目1-4","lat":35.54016456,"lon":139.44946751},{"name":"成瀬駅北口自転車駐車場","province":"東京都","city":"町田市","address":"東京都町田市南成瀬1丁目3-5","lat":35.53649414,"lon":139.47221611},{"name":"なるせ駅前市民センター地下自転車駐車場","province":"東京都","city":"町田市","address":"東京都町田市南成瀬1丁目2-5","lat":35.53680532,"lon":139.47301332},{"name":"成瀬駅南口自転車駐車場","province":"東京都","city":"町田市","address":"東京都町田市成瀬が丘2丁目1-8","lat":35.53463344,"lon":139.47367724},{"name":"鶴川駅西側自転車駐車場","province":"東京都","city":"町田市","address":"東京都町田市大蔵町337-1","lat":35.58745024,"lon":139.46873178},{"name":"南町田グランベリーパーク駅北口地下自転車駐車場","province":"東京都","city":"町田市","address":"東京都町田市鶴間1丁目17","lat":35.51185353,"lon":139.47128382},{"name":"つくし野駅自転車駐車場","province":"東京都","city":"町田市","address":"東京都町田市つくし野1丁目26-1","lat":35.53116883,"lon":139.48492156},{"name":"相原駅東口自転車駐車場","province":"東京都","city":"町田市","address":"東京都町田市相原町1155-5","lat":35.60714142,"lon":139.33191448},{"name":"木曽住宅バス停自転車駐車場","province":"東京都","city":"町田市","address":"東京都町田市木曽東4丁目2","lat":35.56298974,"lon":139.42754097},{"name":"東玉川学園臨時自転車駐車場","province":"東京都","city":"町田市","address":"東京都町田市玉川学園7丁目26","lat":35.56051046,"lon":139.46744609},{"name":"成瀬駅北口路上自転車駐車場","province":"東京都","city":"町田市","address":"東京都町田市南成瀬1丁目2","lat":35.53616103,"lon":139.47354943},{"name":"玉川学園五丁目臨時自転車駐車場","province":"東京都","city":"町田市","address":"東京都町田市玉川学園5丁目1","lat":35.56553738,"lon":139.46267953},{"name":"玉川学園二丁目自転車駐輪場","province":"東京都","city":"町田市","address":"東京都町田市玉川学園2丁目19-12","lat":35.56371258,"lon":139.46261016}]}