{"keyword":"西口","data":[{"name":"大戸緑地?","province":"東京都","city":"町田市","address":"東京都町田市相原町","lat":35.61045709,"lon":139.32745076},{"name":"小山内裏公園","province":"東京都","city":"町田市","address":"東京都町田市小山ヶ丘4丁目","lat":35.60768028,"lon":139.35214598},{"name":"小山田緑地","province":"東京都","city":"町田市","address":"東京都町田市下小山田町","lat":35.59351652,"lon":139.40952508},{"name":"大戸緑地?","province":"東京都","city":"町田市","address":"東京都町田市相原町","lat":35.61045709,"lon":139.32745076},{"name":"小山内裏公園","province":"東京都","city":"町田市","address":"東京都町田市小山ヶ丘4丁目","lat":35.60768028,"lon":139.35214598},{"name":"小山田緑地","province":"東京都","city":"町田市","address":"東京都町田市下小山田町","lat":35.59351652,"lon":139.40952508},{"name":"大戸緑地?","province":"東京都","city":"町田市","address":"東京都町田市相原町","lat":35.61045709,"lon":139.32745076},{"name":"小山内裏公園","province":"東京都","city":"町田市","address":"東京都町田市小山ヶ丘4丁目","lat":35.60768028,"lon":139.35214598},{"name":"小山田緑地","province":"東京都","city":"町田市","address":"東京都町田市下小山田町","lat":35.59351652,"lon":139.40952508},{"name":"大戸緑地?","province":"東京都","city":"町田市","address":"東京都町田市相原町","lat":35.61045709,"lon":139.32745076},{"name":"小山内裏公園","province":"東京都","city":"町田市","address":"東京都町田市小山ヶ丘4丁目","lat":35.60768028,"lon":139.35214598},{"name":"小山田緑地","province":"東京都","city":"町田市","address":"東京都町田市下小山田町","lat":35.59351652,"lon":139.40952508},{"name":"大戸緑地?","province":"東京都","city":"町田市","address":"東京都町田市相原町","lat":35.61045709,"lon":139.32745076},{"name":"小山内裏公園","province":"東京都","city":"町田市","address":"東京都町田市小山ヶ丘4丁目","lat":35.60768028,"lon":139.35214598},{"name":"小山田緑地","province":"東京都","city":"町田市","address":"東京都町田市下小山田町","lat":35.59351652,"lon":139.40952508},{"name":"大戸緑地?","province":"東京都","city":"町田市","address":"東京都町田市相原町","lat":35.61045709,"lon":139.32745076},{"name":"小山内裏公園","province":"東京都","city":"町田市","address":"東京都町田市小山ヶ丘4丁目","lat":35.60768028,"lon":139.35214598},{"name":"小山田緑地","province":"東京都","city":"町田市","address":"東京都町田市下小山田町","lat":35.59351652,"lon":139.40952508},{"name":"大戸緑地?","province":"東京都","city":"町田市","address":"東京都町田市相原町","lat":35.61045709,"lon":139.32745076},{"name":"小山内裏公園","province":"東京都","city":"町田市","address":"東京都町田市小山ヶ丘4丁目","lat":35.60768028,"lon":139.35214598},{"name":"小山田緑地","province":"東京都","city":"町田市","address":"東京都町田市下小山田町","lat":35.59351652,"lon":139.40952508},{"name":"大戸緑地?","province":"東京都","city":"町田市","address":"東京都町田市相原町","lat":35.61045709,"lon":139.32745076},{"name":"小山内裏公園","province":"東京都","city":"町田市","address":"東京都町田市小山ヶ丘4丁目","lat":35.60768028,"lon":139.35214598},{"name":"小山田緑地","province":"東京都","city":"町田市","address":"東京都町田市下小山田町","lat":35.59351652,"lon":139.40952508}]}