{"keyword":"認可","data":[{"name":"まちっこ保育園","province":"東京都","city":"町田市","address":"町田市南大谷1400-1","lat":35.552225,"lon":139.453961},{"name":"草笛保育園","province":"東京都","city":"町田市","address":"町田市本町田3133-5","lat":35.57003,"lon":139.44914},{"name":"東平ひまわり保育園","province":"東京都","city":"町田市","address":"町田市広袴町543-1","lat":35.59363,"lon":139.47562},{"name":"ゆうき山保育園","province":"東京都","city":"町田市","address":"町田市金井町2938-14","lat":35.56812,"lon":139.4547},{"name":"草笛保育園","province":"東京都","city":"町田市","address":"町田市藤の台1-1-56","lat":35.54816,"lon":139.44646},{"name":"町田わかくさ保育園","province":"東京都","city":"町田市","address":"町田市成瀬7-10-7","lat":35.54265,"lon":139.47153},{"name":"クローバー保育園","province":"東京都","city":"町田市","address":"町田市相原町3338-1","lat":35.60972,"lon":139.29712},{"name":"小山保育園","province":"東京都","city":"町田市","address":"町田市小山町954","lat":35.59565,"lon":139.37705},{"name":"かえで保育園","province":"東京都","city":"町田市","address":"町田市小山町775","lat":35.59115,"lon":139.38059},{"name":"もみの木保育園","province":"東京都","city":"町田市","address":"町田市小山ヶ丘1-3-2","lat":35.59722,"lon":139.38355},{"name":"みどりの森保育園","province":"東京都","city":"町田市","address":"町田市能ヶ谷4-7-19","lat":35.58753,"lon":139.482},{"name":"おひさま共同保育園","province":"東京都","city":"町田市","address":"町田市野津田町498-1","lat":35.58629,"lon":139.44051},{"name":"まちっこ保育園","province":"東京都","city":"町田市","address":"町田市南大谷1400-1","lat":35.55603,"lon":139.45334},{"name":"草笛保育園","province":"東京都","city":"町田市","address":"町田市藤の台1-1-56","lat":40.63493,"lon":140.45834},{"name":"ゆうき山保育園","province":"東京都","city":"町田市","address":"町田市金井ヶ丘1-10-24","lat":35.57394,"lon":139.45464}]}