{"keyword":"連絡","data":[{"name":"堺第1高齢者支援センター","province":"東京都","city":"町田市","address":"町田市相原町2373-1(老人保健施設サンシルバー町田内)","lat":35.612473,"lon":139.312881},{"name":"堺第2高齢者支援センター","province":"東京都","city":"町田市","address":"町田市小山ヶ丘1-2-(特別養護老人ホーム美郷内)","lat":35.595638,"lon":139.386398},{"name":"忠生第1高齢者支援センター","province":"東京都","city":"町田市","address":"町田市下小山田町3580ふれあい桜館1階","lat":35.587135,"lon":139.408478},{"name":"忠生第2高齢者支援センター","province":"東京都","city":"町田市","address":"町田市山崎町2200(福音会木曽山崎事業所内)","lat":35.572918,"lon":139.43161},{"name":"鶴川第1高齢者支援センター","province":"東京都","city":"町田市","address":"町田市薬師台3-270-1(特別養護老人ホーム第二清風園内)","lat":35.583256,"lon":139.49028},{"name":"鶴川第2高齢者支援センター","province":"東京都","city":"町田市","address":"町田市能ヶ谷3-2-1鶴川地域コミュニティ1階","lat":33.443153,"lon":129.96727},{"name":"町田第1高齢者支援センター","province":"東京都","city":"町田市","address":"町田市森野4-8-39(特別養護老人ホームコモンズ内)","lat":35.554134,"lon":139.433395},{"name":"町田第2高齢者支援センター","province":"東京都","city":"町田市","address":"町田市本町田2102-1(本町田高齢者在宅サービスセンター内)","lat":35.559875,"lon":139.437897},{"name":"町田第3高齢者支援センター","province":"東京都","city":"町田市","address":"町田市玉川学園3-35-1(玉川学園高齢者在宅サービスセンター内)","lat":35.56337,"lon":139.458298},{"name":"南第1高齢者支援センター","province":"東京都","city":"町田市","address":"町田市南町田5-16-1(特別養護老人ホーム芙蓉園内)","lat":35.514652,"lon":139.47113},{"name":"南第2高齢者支援センター","province":"東京都","city":"町田市","address":"町田市金森東3-18-16(特別養護老人ホーム合掌苑桂寮内)","lat":35.531769,"lon":139.466049},{"name":"南第3高齢者支援センター","province":"東京都","city":"町田市","address":"町田市西成瀬2-48-23","lat":35.543419,"lon":139.471664},{"name":"相原あんしん相談室","province":"東京都","city":"町田市","address":"町田市相原町1158-26","lat":35.607006,"lon":139.331741},{"name":"小山あんしん相談室","province":"東京都","city":"町田市","address":"町田市小山町2619","lat":35.598221,"lon":139.36644},{"name":"忠生あんしん相談室","province":"東京都","city":"町田市","address":"町田市忠生3-1-34もりやハイツ2101号室","lat":35.571674,"lon":139.421463},{"name":"木曽山崎あんしん相談室","province":"東京都","city":"町田市","address":"町田市山崎町2200","lat":35.572918,"lon":139.43161},{"name":"野津田あんしん相談室","province":"東京都","city":"町田市","address":"町田市野津田町831-1","lat":35.588425,"lon":139.450272},{"name":"鶴川あんしん相談室","province":"東京都","city":"町田市","address":"町田市鶴川6-7-2-103号室","lat":35.587303,"lon":139.473465},{"name":"原町田あんしん相談室","province":"東京都","city":"町田市","address":"町田市原町田4-24-6せりがや会館1階","lat":35.544724,"lon":139.453049},{"name":"本町田あんしん相談室","province":"東京都","city":"町田市","address":"町田市本町田3486藤の第団地1-50-109","lat":35.569607,"lon":139.44574},{"name":"南大谷あんしん相談室","province":"東京都","city":"町田市","address":"町田市南大谷205-1-2","lat":35.554821,"lon":139.456757},{"name":"小川あんしん相談室","province":"東京都","city":"町田市","address":"町田市小川6-1-11","lat":35.522091,"lon":139.471252},{"name":"金森あんしん相談室","province":"東京都","city":"町田市","address":"町田市金森東4-2-2523号室","lat":35.533897,"lon":139.461243},{"name":"成瀬あんしん相談室","province":"東京都","city":"町田市","address":"町田市西成瀬2-48-23","lat":35.543419,"lon":139.471664},{"name":"医療と介護の連携支援センター","province":"東京都","city":"町田市","address":"町田市木曽西4-12-22KISOコミュニティベース1F","lat":35.566994,"lon":139.413712},{"name":"町田市高齢者福祉課","province":"東京都","city":"町田市","address":"町田市森野2-2-22","lat":35.547039,"lon":139.438141},{"name":"忠生市民センター","province":"東京都","city":"町田市","address":"東京都町田市忠生3-14-2","lat":35.57833575,"lon":139.4161491},{"name":"鶴川市民センター","province":"東京都","city":"町田市","address":"東京都町田市大蔵町1981-4","lat":35.58888653,"lon":139.4673705},{"name":"南市民センター","province":"東京都","city":"町田市","address":"東京都町田市金森4-5-6","lat":35.52364719,"lon":139.4667958},{"name":"町田駅前連絡所","province":"東京都","city":"町田市","address":"東京都町田市原町田6-12-20小田急百貨店町田店3階","lat":35.54421258,"lon":139.4452819},{"name":"木曽山崎コミュニティセンター（木曽山崎連絡所）","province":"東京都","city":"町田市","address":"東京都町田市山崎町2160-4","lat":35.56859619,"lon":139.4367346},{"name":"玉川学園コミュニティセンター（玉川学園駅前連絡所）","province":"東京都","city":"町田市","address":"東京都町田市玉川学園2-19-12","lat":35.56370672,"lon":139.4626306},{"name":"南町田駅前連絡所","province":"東京都","city":"町田市","address":"東京都町田市鶴間3-10-2","lat":35.50987194,"lon":139.4732748}]}