{"keyword":"重傷","data":[{"name":"子どもセンターただＯＮ","province":"東京都","city":"町田市","address":"東京都町田市忠生1-11-1","lat":35.574259,"lon":139.4219748},{"name":"子どもセンターつるっこ","province":"東京都","city":"町田市","address":"東京都町田市大蔵町1913","lat":35.58987883,"lon":139.4659195},{"name":"子どもセンターぱお","province":"東京都","city":"町田市","address":"東京都町田市相原町2025-2","lat":35.60829497,"lon":139.3215009},{"name":"子どもセンターぱお分館","province":"東京都","city":"町田市","address":"東京都町田市小山ヶ丘4-1-13ゲートヒルズ多摩境パークフロント3階","lat":35.60437775,"lon":139.3671777},{"name":"子どもセンターばあん","province":"東京都","city":"町田市","address":"東京都町田市金森4-5-7","lat":35.52387322,"lon":139.4670211},{"name":"子どもセンターまあち","province":"東京都","city":"町田市","address":"東京都町田市中町1-31-22","lat":35.54818772,"lon":139.4488871},{"name":"玉川学園子どもクラブころころ児童館","province":"東京都","city":"町田市","address":"東京都町田市玉川学園3-35-45","lat":35.56284289,"lon":139.4590611},{"name":"南大谷子どもクラブ","province":"東京都","city":"町田市","address":"東京都町田市南大谷264都営4号棟1階","lat":35.55361169,"lon":139.4578753},{"name":"木曽子どもクラブ「きそっち」","province":"東京都","city":"町田市","address":"東京都町田市木曽東1-6-40","lat":35.55776556,"lon":139.4307672},{"name":"小山子どもクラブ「さん」","province":"東京都","city":"町田市","address":"東京都町田市小山町1165-3","lat":35.59510767,"lon":139.3718709},{"name":"三輪子どもクラブ「MIWA～GO」","province":"東京都","city":"町田市","address":"東京都町田市三輪緑山3-25-2","lat":35.57380756,"lon":139.4886551},{"name":"南町田子どもクラブ「つみき」","province":"東京都","city":"町田市","address":"東京都町田市鶴間3-1-1パークライフ棟","lat":35.51004264,"lon":139.4693211},{"name":"市立こうさぎ保育園","province":"東京都","city":"町田市","address":"東京都町田市相原町792","lat":35.60436614,"lon":139.3337618},{"name":"市立山崎保育園（忠生地域子育て相談センター）","province":"東京都","city":"町田市","address":"東京都町田市山崎1-2-14","lat":35.56861997,"lon":139.4290261},{"name":"市立大蔵保育園（鶴川地域子育て相談センター）","province":"東京都","city":"町田市","address":"東京都町田市大蔵町1984","lat":35.58861389,"lon":139.467863},{"name":"市立町田保育園","province":"東京都","city":"町田市","address":"東京都町田市原町田6-26-15","lat":35.54451211,"lon":139.4477988},{"name":"市立金森保育園（南地域子育て相談センター）","province":"東京都","city":"町田市","address":"東京都町田市金森東1-12-16","lat":35.53504242,"lon":139.459747},{"name":"町田シバヒロ","province":"東京都","city":"町田市","address":"東京都町田市中町1-20-23","lat":35.54831906,"lon":139.4470388},{"name":"子ども創造キャンパスひなた村","province":"東京都","city":"町田市","address":"東京都町田市本町田2863","lat":35.56770522,"lon":139.4453662},{"name":"大地沢青少年センター","province":"東京都","city":"町田市","address":"東京都町田市相原町5307-2","lat":35.61227289,"lon":139.276446},{"name":"南市民センター","province":"東京都","city":"町田市","address":"東京都町田市金森4-5-6","lat":35.52364717,"lon":139.4667959},{"name":"小山市民センター","province":"東京都","city":"町田市","address":"東京都町田市小山町2507-1","lat":35.59714842,"lon":139.3689945},{"name":"忠生市民センター","province":"東京都","city":"町田市","address":"東京都町田市忠生3-14-2","lat":35.57833572,"lon":139.4161491},{"name":"木曽山崎コミュニティセンター","province":"東京都","city":"町田市","address":"東京都町田市山崎町2160-4","lat":35.56859619,"lon":139.4367346},{"name":"成瀬コミュニティセンター","province":"東京都","city":"町田市","address":"東京都町田市西成瀬2-49-1","lat":35.54352008,"lon":139.4728479},{"name":"和光大学ポプリホール鶴川","province":"東京都","city":"町田市","address":"東京都町田市能ヶ谷1-2-1","lat":35.58272153,"lon":139.4788655},{"name":"町田市役所","province":"東京都","city":"町田市","address":"東京都町田市森野2-2-22","lat":35.54674817,"lon":139.4385724},{"name":"町田GIONスタジアム（町田市立陸上競技場）","province":"東京都","city":"町田市","address":"東京都町田市野津田町2035","lat":35.59192333,"lon":139.4386049},{"name":"町田市生涯学習センター","province":"東京都","city":"町田市","address":"東京都町田市原町田6-8-1","lat":35.54297064,"lon":139.4472272},{"name":"町田市立総合体育館","province":"東京都","city":"町田市","address":"東京都町田市南成瀬5-12","lat":35.53622756,"lon":139.4789897},{"name":"サン町田旭体育館","province":"東京都","city":"町田市","address":"東京都町田市旭町3-20-60","lat":35.55668356,"lon":139.4470972},{"name":"市立室内プール","province":"東京都","city":"町田市","address":"東京都町田市図師町199-1","lat":35.58630764,"lon":139.4138148},{"name":"健康福祉会館","province":"東京都","city":"町田市","address":"東京都町田市原町田5-8-21","lat":35.54598961,"lon":139.4499538},{"name":"中央図書館","province":"東京都","city":"町田市","address":"東京都町田市原町田3-2-9","lat":35.54032636,"lon":139.4503274},{"name":"町田市民文学館ことばらんど","province":"東京都","city":"町田市","address":"東京都町田市原町田4-16-17","lat":35.54252644,"lon":139.4515091},{"name":"町田市民病院","province":"東京都","city":"町田市","address":"東京都町田市旭町2-15-41","lat":35.55714028,"lon":139.4384157},{"name":"町田合同庁舎","province":"東京都","city":"町田市","address":"東京都町田市森野2-28-14","lat":35.54984375,"lon":139.4415866},{"name":"町田市立相原中央公園","province":"東京都","city":"町田市","address":"東京都町田市相原町2018","lat":35.60933497,"lon":139.3196646},{"name":"小山保育園","province":"東京都","city":"町田市","address":"東京都町田市小山町954","lat":35.59302269,"lon":139.376952},{"name":"小山内裏公園","province":"東京都","city":"町田市","address":"東京都町田市小山ヶ丘4-4","lat":35.60704361,"lon":139.3680304},{"name":"町田リス園","province":"東京都","city":"町田市","address":"東京都町田市薬師台1-733-1","lat":35.57809886,"lon":139.4497414},{"name":"三沢こどもクリニック","province":"東京都","city":"町田市","address":"東京都町田市木曽西2-18-10","lat":35.56914644,"lon":139.4166011},{"name":"あったかなるせ（町田わかくさ保育園内）","province":"東京都","city":"町田市","address":"東京都町田市成瀬7-10-7","lat":35.54073358,"lon":139.4754992},{"name":"かえで保育園","province":"東京都","city":"町田市","address":"東京都町田市小山町775","lat":35.59122853,"lon":139.3807892},{"name":"幼保連携型認定こども園　町田自然幼稚園","province":"東京都","city":"町田市","address":"東京都町田市忠生2-7-5","lat":35.57924486,"lon":139.4257973},{"name":"認定こども園　正和幼稚園","province":"東京都","city":"町田市","address":"東京都町田市山崎町2261-1","lat":35.56828283,"lon":139.4316809},{"name":"ききょう保育園","province":"東京都","city":"町田市","address":"東京都町田市鶴川1-16-7","lat":35.58749856,"lon":139.4782692},{"name":"しぜんの国保育園","province":"東京都","city":"町田市","address":"東京都町田市忠生2-5-3","lat":35.57739406,"lon":139.4249326},{"name":"みどりの森保育園","province":"東京都","city":"町田市","address":"東京都町田市能ヶ谷4-7-19","lat":35.58755839,"lon":139.4818157},{"name":"井の花保育園","province":"東京都","city":"町田市","address":"東京都町田市大蔵町530-1","lat":35.589389,"lon":139.4606067},{"name":"南つくし野保育園","province":"東京都","city":"町田市","address":"東京都町田市南つくし野2-17-1","lat":35.51698656,"lon":139.4749992},{"name":"ひかりの子保育園（コミュニティルーム　ノエル）","province":"東京都","city":"町田市","address":"東京都町田市木曽西1-34-1","lat":35.56687,"lon":139.4152701},{"name":"レイモンド南町田保育園","province":"東京都","city":"町田市","address":"東京都町田市鶴間8-4-30クレインドビル1階","lat":35.51123544,"lon":139.4744019},{"name":"第二わかくさ保育園","province":"東京都","city":"町田市","address":"東京都町田市木曽西5-1-1","lat":35.56666633,"lon":139.4241218},{"name":"ぽっぽの森保育園（かのんカフェ）","province":"東京都","city":"町田市","address":"東京都町田市大蔵町410","lat":35.58796989,"lon":139.4654126},{"name":"町田サレジオ幼稚園","province":"東京都","city":"町田市","address":"東京都町田市小山ヶ丘4丁目6-2","lat":35.60513925,"lon":139.3596335},{"name":"成瀬くりの家保育園","province":"東京都","city":"町田市","address":"東京都町田市成瀬1-5-1","lat":35.54832289,"lon":139.4723968},{"name":"花の木保育園","province":"東京都","city":"町田市","address":"東京都町田市真光寺3-1-6","lat":35.59768992,"lon":139.4632931},{"name":"カナリヤ保育園","province":"東京都","city":"町田市","address":"東京都町田市山崎町2130","lat":35.57123936,"lon":139.4361068},{"name":"たかね保育園","province":"東京都","city":"町田市","address":"東京都町田市山崎町2160-4","lat":35.56986036,"lon":139.4346376},{"name":"もりの聖愛保育園","province":"東京都","city":"町田市","address":"東京都町田市森野4-8-10","lat":35.55405919,"lon":139.4325},{"name":"アスク木曽西保育園","province":"東京都","city":"町田市","address":"東京都町田市木曽西3-18-2","lat":35.57301633,"lon":139.4191634},{"name":"認定こども園　開進幼稚園","province":"東京都","city":"町田市","address":"東京都町田市本町田3350-24","lat":35.56964253,"lon":139.443896},{"name":"開進こども保育園","province":"東京都","city":"町田市","address":"東京都町田市本町田3350-38","lat":35.57012839,"lon":139.4448633},{"name":"ゆうき山保育園","province":"東京都","city":"町田市","address":"東京都町田市金井ヶ丘1-10-24","lat":35.56812022,"lon":139.4545372},{"name":"住宅情報館（町田店）","province":"東京都","city":"町田市","address":"東京都町田市旭町1-25-20","lat":35.55432622,"lon":139.4433518},{"name":"トイザらス・ベビーザらス　町田多摩境店","province":"東京都","city":"町田市","address":"東京都町田市小山ヶ丘1-7-2","lat":35.59872631,"lon":139.3816645},{"name":"スーパースポーツゼビオ多摩境店","province":"東京都","city":"町田市","address":"東京都町田市小山ヶ丘3-5-1","lat":35.60077922,"lon":139.3779912},{"name":"スーパーアルプス多摩境店","province":"東京都","city":"町田市","address":"東京都町田市小山ヶ丘4-5-2","lat":35.60470181,"lon":139.3602021},{"name":"西松屋チェーン町田多摩境店","province":"東京都","city":"町田市","address":"東京都町田市小山ヶ丘5-1-1","lat":35.60237061,"lon":139.3653018},{"name":"ＭｒMax町田多摩境ショッピングセンター","province":"東京都","city":"町田市","address":"東京都町田市小山ヶ丘6-1-10","lat":35.60625489,"lon":139.3487601},{"name":"トヨタ西東京カローラ町田小山店","province":"東京都","city":"町田市","address":"東京都町田市小山町776-4","lat":35.59167761,"lon":139.3808414},{"name":"アメリア町田根岸ショッピングセンター","province":"東京都","city":"町田市","address":"東京都町田市根岸2-18-1","lat":35.57633619,"lon":139.4106731},{"name":"トヨタモビリティ東京株式会社　町田中町店","province":"東京都","city":"町田市","address":"東京都町田市中町2-14-15","lat":35.55222553,"lon":139.4437797},{"name":"ルミネ町田店","province":"東京都","city":"町田市","address":"東京都町田市原町田6-1-11","lat":35.54200658,"lon":139.4461013},{"name":"東急百貨店　町田東急ツインズ（EAST3階）","province":"東京都","city":"町田市","address":"東京都町田市原町田6-4-1","lat":35.54295294,"lon":139.4460716},{"name":"町田マルイ","province":"東京都","city":"町田市","address":"東京都町田市原町田6-1-6","lat":35.54266631,"lon":139.4448588},{"name":"町田モディ","province":"東京都","city":"町田市","address":"東京都町田市原町田6-2-6","lat":35.54335106,"lon":139.4452253},{"name":"小田急百貨店町田店","province":"東京都","city":"町田市","address":"東京都町田市原町田6-12-20","lat":35.54422158,"lon":139.4452953},{"name":"島忠ホームズ町田三輪店","province":"東京都","city":"町田市","address":"東京都町田市三輪町281-1","lat":35.57877061,"lon":139.5004549},{"name":"西松屋チェーン町田大蔵店","province":"東京都","city":"町田市","address":"東京都町田市大蔵557","lat":35.58916633,"lon":139.4597705},{"name":"そうてつローゼン成瀬店","province":"東京都","city":"町田市","address":"東京都町田市南成瀬1-3-5","lat":35.53596281,"lon":139.4723589},{"name":"西松屋チェーン南町田店","province":"東京都","city":"町田市","address":"東京都町田市南町田5-1-7","lat":35.51490444,"lon":139.4736831},{"name":"ケーユー本店","province":"東京都","city":"町田市","address":"東京都町田市鶴間8-17-1","lat":35.50912747,"lon":139.4776504},{"name":"社会福祉法人賛育会　第二清風園","province":"東京都","city":"町田市","address":"東京都町田市薬師台3-270-1","lat":35.58237856,"lon":139.4568184},{"name":"スズキアリーナ　多摩境","province":"東京都","city":"町田市","address":"東京都町田市小山ヶ丘2-2-9","lat":35.602702,"lon":139.3748042},{"name":"トヨタ西東京カローラ鶴川店","province":"東京都","city":"町田市","address":"東京都町田市金井8-24-21","lat":35.57965089,"lon":139.4693812},{"name":"玉川学園コミュニティセンター","province":"東京都","city":"町田市","address":"東京都町田市玉川学園2-19-12","lat":35.56374803,"lon":139.4625582},{"name":"鶴川市民センター（鶴川保健センター併設）","province":"東京都","city":"町田市","address":"東京都町田市大蔵町1981-4","lat":35.58888656,"lon":139.4673706},{"name":"町田市立町田市民球場","province":"東京都","city":"町田市","address":"東京都町田市旭町3丁目20-60","lat":35.55634896,"lon":139.44662554},{"name":"町田市鶴見川クリーンセンター","province":"東京都","city":"町田市","address":"東京都町田市三輪緑山1丁目1","lat":35.56975115,"lon":139.48945637},{"name":"日本大学第三高等学校運動場","province":"東京都","city":"町田市","address":"東京都町田市図師町11-2375","lat":35.59196136,"lon":139.41930483},{"name":"法政大学プレイグラウンド","province":"東京都","city":"町田市","address":"東京都町田市相原町4342","lat":35.61340443,"lon":139.29763694},{"name":"町田市立野津田公園陸上競技場","province":"東京都","city":"町田市","address":"東京都町田市野津田町2035","lat":35.59190908,"lon":139.43862536},{"name":"日向山公園野球場（藤の台球場）","province":"東京都","city":"町田市","address":"東京都町田市本町田3486","lat":35.56881998,"lon":139.44800563},{"name":"町田市立町田中央公園","province":"東京都","city":"町田市","address":"東京都町田市旭町3丁目20-60","lat":35.55634896,"lon":139.44662554},{"name":"町田市立リサイクルセンター","province":"東京都","city":"町田市","address":"東京都町田市下小山田町3160","lat":35.58679242,"lon":139.41140293},{"name":"小川高等学校","province":"東京都","city":"町田市","address":"東京都町田市小川2丁目1002-1","lat":35.53233046,"lon":139.46933859},{"name":"町田総合高等学校","province":"東京都","city":"町田市","address":"東京都町田市木曽西3丁目5-1","lat":35.57035541,"lon":139.41678624},{"name":"町田工業高等学校","province":"東京都","city":"町田市","address":"東京都町田市忠生1丁目20-2","lat":35.5755605,"lon":139.42215504},{"name":"町田高等学校","province":"東京都","city":"町田市","address":"東京都町田市中町4丁目25-3","lat":35.55337986,"lon":139.44872268},{"name":"野津田高等学校","province":"東京都","city":"町田市","address":"東京都町田市野津田町2001","lat":35.58961486,"lon":139.43740885},{"name":"山崎高等学校","province":"東京都","city":"町田市","address":"東京都町田市山崎町1453-1","lat":35.57680228,"lon":139.43379559},{"name":"子どもセンターただＯＮ","province":"東京都","city":"町田市","address":"東京都町田市忠生1-11-1","lat":35.574259,"lon":139.4219748},{"name":"子どもセンターつるっこ","province":"東京都","city":"町田市","address":"東京都町田市大蔵町1913","lat":35.58987883,"lon":139.4659195},{"name":"子どもセンターぱお","province":"東京都","city":"町田市","address":"東京都町田市相原町2025-2","lat":35.60829497,"lon":139.3215009},{"name":"子どもセンターぱお分館","province":"東京都","city":"町田市","address":"東京都町田市小山ヶ丘4-1-13ゲートヒルズ多摩境パークフロント3階","lat":35.60437775,"lon":139.3671777},{"name":"子どもセンターばあん","province":"東京都","city":"町田市","address":"東京都町田市金森4-5-7","lat":35.52387322,"lon":139.4670211},{"name":"子どもセンターまあち","province":"東京都","city":"町田市","address":"東京都町田市中町1-31-22","lat":35.54818772,"lon":139.4488871},{"name":"玉川学園子どもクラブころころ児童館","province":"東京都","city":"町田市","address":"東京都町田市玉川学園3-35-45","lat":35.56284289,"lon":139.4590611},{"name":"南大谷子どもクラブ","province":"東京都","city":"町田市","address":"東京都町田市南大谷264都営4号棟1階","lat":35.55361169,"lon":139.4578753},{"name":"木曽子どもクラブ「きそっち」","province":"東京都","city":"町田市","address":"東京都町田市木曽東1-6-40","lat":35.55776556,"lon":139.4307672},{"name":"小山子どもクラブ「さん」","province":"東京都","city":"町田市","address":"東京都町田市小山町1165-3","lat":35.59510767,"lon":139.3718709},{"name":"三輪子どもクラブ「MIWA～GO」","province":"東京都","city":"町田市","address":"東京都町田市三輪緑山3-25-2","lat":35.57380756,"lon":139.4886551},{"name":"南町田子どもクラブ「つみき」","province":"東京都","city":"町田市","address":"東京都町田市鶴間3-1-1パークライフ棟","lat":35.51004264,"lon":139.4693211},{"name":"市立こうさぎ保育園","province":"東京都","city":"町田市","address":"東京都町田市相原町792","lat":35.60436614,"lon":139.3337618},{"name":"市立山崎保育園（忠生地域子育て相談センター）","province":"東京都","city":"町田市","address":"東京都町田市山崎1-2-14","lat":35.56861997,"lon":139.4290261},{"name":"市立大蔵保育園（鶴川地域子育て相談センター）","province":"東京都","city":"町田市","address":"東京都町田市大蔵町1984","lat":35.58861389,"lon":139.467863},{"name":"市立町田保育園","province":"東京都","city":"町田市","address":"東京都町田市原町田6-26-15","lat":35.54451211,"lon":139.4477988},{"name":"市立金森保育園（南地域子育て相談センター）","province":"東京都","city":"町田市","address":"東京都町田市金森東1-12-16","lat":35.53504242,"lon":139.459747},{"name":"町田シバヒロ","province":"東京都","city":"町田市","address":"東京都町田市中町1-20-23","lat":35.54831906,"lon":139.4470388},{"name":"子ども創造キャンパスひなた村","province":"東京都","city":"町田市","address":"東京都町田市本町田2863","lat":35.56770522,"lon":139.4453662},{"name":"大地沢青少年センター","province":"東京都","city":"町田市","address":"東京都町田市相原町5307-2","lat":35.61227289,"lon":139.276446},{"name":"南市民センター","province":"東京都","city":"町田市","address":"東京都町田市金森4-5-6","lat":35.52364717,"lon":139.4667959},{"name":"小山市民センター","province":"東京都","city":"町田市","address":"東京都町田市小山町2507-1","lat":35.59714842,"lon":139.3689945},{"name":"忠生市民センター","province":"東京都","city":"町田市","address":"東京都町田市忠生3-14-2","lat":35.57833572,"lon":139.4161491},{"name":"木曽山崎コミュニティセンター","province":"東京都","city":"町田市","address":"東京都町田市山崎町2160-4","lat":35.56859619,"lon":139.4367346},{"name":"成瀬コミュニティセンター","province":"東京都","city":"町田市","address":"東京都町田市西成瀬2-49-1","lat":35.54352008,"lon":139.4728479},{"name":"和光大学ポプリホール鶴川","province":"東京都","city":"町田市","address":"東京都町田市能ヶ谷1-2-1","lat":35.58272153,"lon":139.4788655},{"name":"町田市役所","province":"東京都","city":"町田市","address":"東京都町田市森野2-2-22","lat":35.54674817,"lon":139.4385724},{"name":"町田GIONスタジアム（町田市立陸上競技場）","province":"東京都","city":"町田市","address":"東京都町田市野津田町2035","lat":35.59192333,"lon":139.4386049},{"name":"町田市生涯学習センター","province":"東京都","city":"町田市","address":"東京都町田市原町田6-8-1","lat":35.54297064,"lon":139.4472272},{"name":"町田市立総合体育館","province":"東京都","city":"町田市","address":"東京都町田市南成瀬5-12","lat":35.53622756,"lon":139.4789897},{"name":"サン町田旭体育館","province":"東京都","city":"町田市","address":"東京都町田市旭町3-20-60","lat":35.55668356,"lon":139.4470972},{"name":"市立室内プール","province":"東京都","city":"町田市","address":"東京都町田市図師町199-1","lat":35.58630764,"lon":139.4138148},{"name":"健康福祉会館","province":"東京都","city":"町田市","address":"東京都町田市原町田5-8-21","lat":35.54598961,"lon":139.4499538},{"name":"中央図書館","province":"東京都","city":"町田市","address":"東京都町田市原町田3-2-9","lat":35.54032636,"lon":139.4503274},{"name":"町田市民文学館ことばらんど","province":"東京都","city":"町田市","address":"東京都町田市原町田4-16-17","lat":35.54252644,"lon":139.4515091},{"name":"町田市民病院","province":"東京都","city":"町田市","address":"東京都町田市旭町2-15-41","lat":35.55714028,"lon":139.4384157},{"name":"町田合同庁舎","province":"東京都","city":"町田市","address":"東京都町田市森野2-28-14","lat":35.54984375,"lon":139.4415866},{"name":"町田市立相原中央公園","province":"東京都","city":"町田市","address":"東京都町田市相原町2018","lat":35.60933497,"lon":139.3196646},{"name":"小山保育園","province":"東京都","city":"町田市","address":"東京都町田市小山町954","lat":35.59302269,"lon":139.376952},{"name":"小山内裏公園","province":"東京都","city":"町田市","address":"東京都町田市小山ヶ丘4-4","lat":35.60704361,"lon":139.3680304},{"name":"町田リス園","province":"東京都","city":"町田市","address":"東京都町田市薬師台1-733-1","lat":35.57809886,"lon":139.4497414},{"name":"三沢こどもクリニック","province":"東京都","city":"町田市","address":"東京都町田市木曽西2-18-10","lat":35.56914644,"lon":139.4166011},{"name":"あったかなるせ（町田わかくさ保育園内）","province":"東京都","city":"町田市","address":"東京都町田市成瀬7-10-7","lat":35.54073358,"lon":139.4754992},{"name":"かえで保育園","province":"東京都","city":"町田市","address":"東京都町田市小山町775","lat":35.59122853,"lon":139.3807892},{"name":"幼保連携型認定こども園　町田自然幼稚園","province":"東京都","city":"町田市","address":"東京都町田市忠生2-7-5","lat":35.57924486,"lon":139.4257973},{"name":"認定こども園　正和幼稚園","province":"東京都","city":"町田市","address":"東京都町田市山崎町2261-1","lat":35.56828283,"lon":139.4316809},{"name":"ききょう保育園","province":"東京都","city":"町田市","address":"東京都町田市鶴川1-16-7","lat":35.58749856,"lon":139.4782692},{"name":"しぜんの国保育園","province":"東京都","city":"町田市","address":"東京都町田市忠生2-5-3","lat":35.57739406,"lon":139.4249326},{"name":"みどりの森保育園","province":"東京都","city":"町田市","address":"東京都町田市能ヶ谷4-7-19","lat":35.58755839,"lon":139.4818157},{"name":"井の花保育園","province":"東京都","city":"町田市","address":"東京都町田市大蔵町530-1","lat":35.589389,"lon":139.4606067},{"name":"南つくし野保育園","province":"東京都","city":"町田市","address":"東京都町田市南つくし野2-17-1","lat":35.51698656,"lon":139.4749992},{"name":"ひかりの子保育園（コミュニティルーム　ノエル）","province":"東京都","city":"町田市","address":"東京都町田市木曽西1-34-1","lat":35.56687,"lon":139.4152701},{"name":"レイモンド南町田保育園","province":"東京都","city":"町田市","address":"東京都町田市鶴間8-4-30クレインドビル1階","lat":35.51123544,"lon":139.4744019},{"name":"第二わかくさ保育園","province":"東京都","city":"町田市","address":"東京都町田市木曽西5-1-1","lat":35.56666633,"lon":139.4241218},{"name":"ぽっぽの森保育園（かのんカフェ）","province":"東京都","city":"町田市","address":"東京都町田市大蔵町410","lat":35.58796989,"lon":139.4654126},{"name":"町田サレジオ幼稚園","province":"東京都","city":"町田市","address":"東京都町田市小山ヶ丘4丁目6-2","lat":35.60513925,"lon":139.3596335},{"name":"成瀬くりの家保育園","province":"東京都","city":"町田市","address":"東京都町田市成瀬1-5-1","lat":35.54832289,"lon":139.4723968},{"name":"花の木保育園","province":"東京都","city":"町田市","address":"東京都町田市真光寺3-1-6","lat":35.59768992,"lon":139.4632931},{"name":"カナリヤ保育園","province":"東京都","city":"町田市","address":"東京都町田市山崎町2130","lat":35.57123936,"lon":139.4361068},{"name":"たかね保育園","province":"東京都","city":"町田市","address":"東京都町田市山崎町2160-4","lat":35.56986036,"lon":139.4346376},{"name":"もりの聖愛保育園","province":"東京都","city":"町田市","address":"東京都町田市森野4-8-10","lat":35.55405919,"lon":139.4325},{"name":"アスク木曽西保育園","province":"東京都","city":"町田市","address":"東京都町田市木曽西3-18-2","lat":35.57301633,"lon":139.4191634},{"name":"認定こども園　開進幼稚園","province":"東京都","city":"町田市","address":"東京都町田市本町田3350-24","lat":35.56964253,"lon":139.443896},{"name":"開進こども保育園","province":"東京都","city":"町田市","address":"東京都町田市本町田3350-38","lat":35.57012839,"lon":139.4448633},{"name":"ゆうき山保育園","province":"東京都","city":"町田市","address":"東京都町田市金井ヶ丘1-10-24","lat":35.56812022,"lon":139.4545372},{"name":"住宅情報館（町田店）","province":"東京都","city":"町田市","address":"東京都町田市旭町1-25-20","lat":35.55432622,"lon":139.4433518},{"name":"トイザらス・ベビーザらス　町田多摩境店","province":"東京都","city":"町田市","address":"東京都町田市小山ヶ丘1-7-2","lat":35.59872631,"lon":139.3816645},{"name":"スーパースポーツゼビオ多摩境店","province":"東京都","city":"町田市","address":"東京都町田市小山ヶ丘3-5-1","lat":35.60077922,"lon":139.3779912},{"name":"スーパーアルプス多摩境店","province":"東京都","city":"町田市","address":"東京都町田市小山ヶ丘4-5-2","lat":35.60470181,"lon":139.3602021},{"name":"西松屋チェーン町田多摩境店","province":"東京都","city":"町田市","address":"東京都町田市小山ヶ丘5-1-1","lat":35.60237061,"lon":139.3653018},{"name":"ＭｒMax町田多摩境ショッピングセンター","province":"東京都","city":"町田市","address":"東京都町田市小山ヶ丘6-1-10","lat":35.60625489,"lon":139.3487601},{"name":"トヨタ西東京カローラ町田小山店","province":"東京都","city":"町田市","address":"東京都町田市小山町776-4","lat":35.59167761,"lon":139.3808414},{"name":"アメリア町田根岸ショッピングセンター","province":"東京都","city":"町田市","address":"東京都町田市根岸2-18-1","lat":35.57633619,"lon":139.4106731},{"name":"トヨタモビリティ東京株式会社　町田中町店","province":"東京都","city":"町田市","address":"東京都町田市中町2-14-15","lat":35.55222553,"lon":139.4437797},{"name":"ルミネ町田店","province":"東京都","city":"町田市","address":"東京都町田市原町田6-1-11","lat":35.54200658,"lon":139.4461013},{"name":"東急百貨店　町田東急ツインズ（EAST3階）","province":"東京都","city":"町田市","address":"東京都町田市原町田6-4-1","lat":35.54295294,"lon":139.4460716},{"name":"町田マルイ","province":"東京都","city":"町田市","address":"東京都町田市原町田6-1-6","lat":35.54266631,"lon":139.4448588},{"name":"町田モディ","province":"東京都","city":"町田市","address":"東京都町田市原町田6-2-6","lat":35.54335106,"lon":139.4452253},{"name":"小田急百貨店町田店","province":"東京都","city":"町田市","address":"東京都町田市原町田6-12-20","lat":35.54422158,"lon":139.4452953},{"name":"島忠ホームズ町田三輪店","province":"東京都","city":"町田市","address":"東京都町田市三輪町281-1","lat":35.57877061,"lon":139.5004549},{"name":"西松屋チェーン町田大蔵店","province":"東京都","city":"町田市","address":"東京都町田市大蔵557","lat":35.58916633,"lon":139.4597705},{"name":"そうてつローゼン成瀬店","province":"東京都","city":"町田市","address":"東京都町田市南成瀬1-3-5","lat":35.53596281,"lon":139.4723589},{"name":"西松屋チェーン南町田店","province":"東京都","city":"町田市","address":"東京都町田市南町田5-1-7","lat":35.51490444,"lon":139.4736831},{"name":"ケーユー本店","province":"東京都","city":"町田市","address":"東京都町田市鶴間8-17-1","lat":35.50912747,"lon":139.4776504},{"name":"社会福祉法人賛育会　第二清風園","province":"東京都","city":"町田市","address":"東京都町田市薬師台3-270-1","lat":35.58237856,"lon":139.4568184},{"name":"スズキアリーナ　多摩境","province":"東京都","city":"町田市","address":"東京都町田市小山ヶ丘2-2-9","lat":35.602702,"lon":139.3748042},{"name":"トヨタ西東京カローラ鶴川店","province":"東京都","city":"町田市","address":"東京都町田市金井8-24-21","lat":35.57965089,"lon":139.4693812},{"name":"玉川学園コミュニティセンター","province":"東京都","city":"町田市","address":"東京都町田市玉川学園2-19-12","lat":35.56374803,"lon":139.4625582},{"name":"鶴川市民センター（鶴川保健センター併設）","province":"東京都","city":"町田市","address":"東京都町田市大蔵町1981-4","lat":35.58888656,"lon":139.4673706},{"name":"町田市立町田市民球場","province":"東京都","city":"町田市","address":"東京都町田市旭町3丁目20-60","lat":35.55634896,"lon":139.44662554},{"name":"町田市鶴見川クリーンセンター","province":"東京都","city":"町田市","address":"東京都町田市三輪緑山1丁目1","lat":35.56975115,"lon":139.48945637},{"name":"日本大学第三高等学校運動場","province":"東京都","city":"町田市","address":"東京都町田市図師町11-2375","lat":35.59196136,"lon":139.41930483},{"name":"法政大学プレイグラウンド","province":"東京都","city":"町田市","address":"東京都町田市相原町4342","lat":35.61340443,"lon":139.29763694},{"name":"町田市立野津田公園陸上競技場","province":"東京都","city":"町田市","address":"東京都町田市野津田町2035","lat":35.59190908,"lon":139.43862536},{"name":"日向山公園野球場（藤の台球場）","province":"東京都","city":"町田市","address":"東京都町田市本町田3486","lat":35.56881998,"lon":139.44800563},{"name":"町田市立町田中央公園","province":"東京都","city":"町田市","address":"東京都町田市旭町3丁目20-60","lat":35.55634896,"lon":139.44662554},{"name":"町田市立リサイクルセンター","province":"東京都","city":"町田市","address":"東京都町田市下小山田町3160","lat":35.58679242,"lon":139.41140293},{"name":"小川高等学校","province":"東京都","city":"町田市","address":"東京都町田市小川2丁目1002-1","lat":35.53233046,"lon":139.46933859},{"name":"町田総合高等学校","province":"東京都","city":"町田市","address":"東京都町田市木曽西3丁目5-1","lat":35.57035541,"lon":139.41678624},{"name":"町田工業高等学校","province":"東京都","city":"町田市","address":"東京都町田市忠生1丁目20-2","lat":35.5755605,"lon":139.42215504},{"name":"町田高等学校","province":"東京都","city":"町田市","address":"東京都町田市中町4丁目25-3","lat":35.55337986,"lon":139.44872268},{"name":"野津田高等学校","province":"東京都","city":"町田市","address":"東京都町田市野津田町2001","lat":35.58961486,"lon":139.43740885},{"name":"山崎高等学校","province":"東京都","city":"町田市","address":"東京都町田市山崎町1453-1","lat":35.57680228,"lon":139.43379559},{"name":"子どもセンターただＯＮ","province":"東京都","city":"町田市","address":"東京都町田市忠生1-11-1","lat":35.574259,"lon":139.4219748},{"name":"子どもセンターつるっこ","province":"東京都","city":"町田市","address":"東京都町田市大蔵町1913","lat":35.58987883,"lon":139.4659195},{"name":"子どもセンターぱお","province":"東京都","city":"町田市","address":"東京都町田市相原町2025-2","lat":35.60829497,"lon":139.3215009},{"name":"子どもセンターぱお分館","province":"東京都","city":"町田市","address":"東京都町田市小山ヶ丘4-1-13ゲートヒルズ多摩境パークフロント3階","lat":35.60437775,"lon":139.3671777},{"name":"子どもセンターばあん","province":"東京都","city":"町田市","address":"東京都町田市金森4-5-7","lat":35.52387322,"lon":139.4670211},{"name":"子どもセンターまあち","province":"東京都","city":"町田市","address":"東京都町田市中町1-31-22","lat":35.54818772,"lon":139.4488871},{"name":"玉川学園子どもクラブころころ児童館","province":"東京都","city":"町田市","address":"東京都町田市玉川学園3-35-45","lat":35.56284289,"lon":139.4590611},{"name":"南大谷子どもクラブ","province":"東京都","city":"町田市","address":"東京都町田市南大谷264都営4号棟1階","lat":35.55361169,"lon":139.4578753},{"name":"木曽子どもクラブ「きそっち」","province":"東京都","city":"町田市","address":"東京都町田市木曽東1-6-40","lat":35.55776556,"lon":139.4307672},{"name":"小山子どもクラブ「さん」","province":"東京都","city":"町田市","address":"東京都町田市小山町1165-3","lat":35.59510767,"lon":139.3718709},{"name":"三輪子どもクラブ「MIWA～GO」","province":"東京都","city":"町田市","address":"東京都町田市三輪緑山3-25-2","lat":35.57380756,"lon":139.4886551},{"name":"南町田子どもクラブ「つみき」","province":"東京都","city":"町田市","address":"東京都町田市鶴間3-1-1パークライフ棟","lat":35.51004264,"lon":139.4693211},{"name":"市立こうさぎ保育園","province":"東京都","city":"町田市","address":"東京都町田市相原町792","lat":35.60436614,"lon":139.3337618},{"name":"市立山崎保育園（忠生地域子育て相談センター）","province":"東京都","city":"町田市","address":"東京都町田市山崎1-2-14","lat":35.56861997,"lon":139.4290261},{"name":"市立大蔵保育園（鶴川地域子育て相談センター）","province":"東京都","city":"町田市","address":"東京都町田市大蔵町1984","lat":35.58861389,"lon":139.467863},{"name":"市立町田保育園","province":"東京都","city":"町田市","address":"東京都町田市原町田6-26-15","lat":35.54451211,"lon":139.4477988},{"name":"市立金森保育園（南地域子育て相談センター）","province":"東京都","city":"町田市","address":"東京都町田市金森東1-12-16","lat":35.53504242,"lon":139.459747},{"name":"町田シバヒロ","province":"東京都","city":"町田市","address":"東京都町田市中町1-20-23","lat":35.54831906,"lon":139.4470388},{"name":"子ども創造キャンパスひなた村","province":"東京都","city":"町田市","address":"東京都町田市本町田2863","lat":35.56770522,"lon":139.4453662},{"name":"大地沢青少年センター","province":"東京都","city":"町田市","address":"東京都町田市相原町5307-2","lat":35.61227289,"lon":139.276446},{"name":"南市民センター","province":"東京都","city":"町田市","address":"東京都町田市金森4-5-6","lat":35.52364717,"lon":139.4667959},{"name":"小山市民センター","province":"東京都","city":"町田市","address":"東京都町田市小山町2507-1","lat":35.59714842,"lon":139.3689945},{"name":"忠生市民センター","province":"東京都","city":"町田市","address":"東京都町田市忠生3-14-2","lat":35.57833572,"lon":139.4161491},{"name":"木曽山崎コミュニティセンター","province":"東京都","city":"町田市","address":"東京都町田市山崎町2160-4","lat":35.56859619,"lon":139.4367346},{"name":"成瀬コミュニティセンター","province":"東京都","city":"町田市","address":"東京都町田市西成瀬2-49-1","lat":35.54352008,"lon":139.4728479},{"name":"和光大学ポプリホール鶴川","province":"東京都","city":"町田市","address":"東京都町田市能ヶ谷1-2-1","lat":35.58272153,"lon":139.4788655},{"name":"町田市役所","province":"東京都","city":"町田市","address":"東京都町田市森野2-2-22","lat":35.54674817,"lon":139.4385724},{"name":"町田GIONスタジアム（町田市立陸上競技場）","province":"東京都","city":"町田市","address":"東京都町田市野津田町2035","lat":35.59192333,"lon":139.4386049},{"name":"町田市生涯学習センター","province":"東京都","city":"町田市","address":"東京都町田市原町田6-8-1","lat":35.54297064,"lon":139.4472272},{"name":"町田市立総合体育館","province":"東京都","city":"町田市","address":"東京都町田市南成瀬5-12","lat":35.53622756,"lon":139.4789897},{"name":"サン町田旭体育館","province":"東京都","city":"町田市","address":"東京都町田市旭町3-20-60","lat":35.55668356,"lon":139.4470972},{"name":"市立室内プール","province":"東京都","city":"町田市","address":"東京都町田市図師町199-1","lat":35.58630764,"lon":139.4138148},{"name":"健康福祉会館","province":"東京都","city":"町田市","address":"東京都町田市原町田5-8-21","lat":35.54598961,"lon":139.4499538},{"name":"中央図書館","province":"東京都","city":"町田市","address":"東京都町田市原町田3-2-9","lat":35.54032636,"lon":139.4503274},{"name":"町田市民文学館ことばらんど","province":"東京都","city":"町田市","address":"東京都町田市原町田4-16-17","lat":35.54252644,"lon":139.4515091},{"name":"町田市民病院","province":"東京都","city":"町田市","address":"東京都町田市旭町2-15-41","lat":35.55714028,"lon":139.4384157},{"name":"町田合同庁舎","province":"東京都","city":"町田市","address":"東京都町田市森野2-28-14","lat":35.54984375,"lon":139.4415866},{"name":"町田市立相原中央公園","province":"東京都","city":"町田市","address":"東京都町田市相原町2018","lat":35.60933497,"lon":139.3196646},{"name":"小山保育園","province":"東京都","city":"町田市","address":"東京都町田市小山町954","lat":35.59302269,"lon":139.376952},{"name":"小山内裏公園","province":"東京都","city":"町田市","address":"東京都町田市小山ヶ丘4-4","lat":35.60704361,"lon":139.3680304},{"name":"町田リス園","province":"東京都","city":"町田市","address":"東京都町田市薬師台1-733-1","lat":35.57809886,"lon":139.4497414},{"name":"三沢こどもクリニック","province":"東京都","city":"町田市","address":"東京都町田市木曽西2-18-10","lat":35.56914644,"lon":139.4166011},{"name":"あったかなるせ（町田わかくさ保育園内）","province":"東京都","city":"町田市","address":"東京都町田市成瀬7-10-7","lat":35.54073358,"lon":139.4754992},{"name":"かえで保育園","province":"東京都","city":"町田市","address":"東京都町田市小山町775","lat":35.59122853,"lon":139.3807892},{"name":"幼保連携型認定こども園　町田自然幼稚園","province":"東京都","city":"町田市","address":"東京都町田市忠生2-7-5","lat":35.57924486,"lon":139.4257973},{"name":"認定こども園　正和幼稚園","province":"東京都","city":"町田市","address":"東京都町田市山崎町2261-1","lat":35.56828283,"lon":139.4316809},{"name":"ききょう保育園","province":"東京都","city":"町田市","address":"東京都町田市鶴川1-16-7","lat":35.58749856,"lon":139.4782692},{"name":"しぜんの国保育園","province":"東京都","city":"町田市","address":"東京都町田市忠生2-5-3","lat":35.57739406,"lon":139.4249326},{"name":"みどりの森保育園","province":"東京都","city":"町田市","address":"東京都町田市能ヶ谷4-7-19","lat":35.58755839,"lon":139.4818157},{"name":"井の花保育園","province":"東京都","city":"町田市","address":"東京都町田市大蔵町530-1","lat":35.589389,"lon":139.4606067},{"name":"南つくし野保育園","province":"東京都","city":"町田市","address":"東京都町田市南つくし野2-17-1","lat":35.51698656,"lon":139.4749992},{"name":"ひかりの子保育園（コミュニティルーム　ノエル）","province":"東京都","city":"町田市","address":"東京都町田市木曽西1-34-1","lat":35.56687,"lon":139.4152701},{"name":"レイモンド南町田保育園","province":"東京都","city":"町田市","address":"東京都町田市鶴間8-4-30クレインドビル1階","lat":35.51123544,"lon":139.4744019},{"name":"第二わかくさ保育園","province":"東京都","city":"町田市","address":"東京都町田市木曽西5-1-1","lat":35.56666633,"lon":139.4241218},{"name":"ぽっぽの森保育園（かのんカフェ）","province":"東京都","city":"町田市","address":"東京都町田市大蔵町410","lat":35.58796989,"lon":139.4654126},{"name":"町田サレジオ幼稚園","province":"東京都","city":"町田市","address":"東京都町田市小山ヶ丘4丁目6-2","lat":35.60513925,"lon":139.3596335},{"name":"成瀬くりの家保育園","province":"東京都","city":"町田市","address":"東京都町田市成瀬1-5-1","lat":35.54832289,"lon":139.4723968},{"name":"花の木保育園","province":"東京都","city":"町田市","address":"東京都町田市真光寺3-1-6","lat":35.59768992,"lon":139.4632931},{"name":"カナリヤ保育園","province":"東京都","city":"町田市","address":"東京都町田市山崎町2130","lat":35.57123936,"lon":139.4361068},{"name":"たかね保育園","province":"東京都","city":"町田市","address":"東京都町田市山崎町2160-4","lat":35.56986036,"lon":139.4346376},{"name":"もりの聖愛保育園","province":"東京都","city":"町田市","address":"東京都町田市森野4-8-10","lat":35.55405919,"lon":139.4325},{"name":"アスク木曽西保育園","province":"東京都","city":"町田市","address":"東京都町田市木曽西3-18-2","lat":35.57301633,"lon":139.4191634},{"name":"認定こども園　開進幼稚園","province":"東京都","city":"町田市","address":"東京都町田市本町田3350-24","lat":35.56964253,"lon":139.443896},{"name":"開進こども保育園","province":"東京都","city":"町田市","address":"東京都町田市本町田3350-38","lat":35.57012839,"lon":139.4448633},{"name":"ゆうき山保育園","province":"東京都","city":"町田市","address":"東京都町田市金井ヶ丘1-10-24","lat":35.56812022,"lon":139.4545372},{"name":"住宅情報館（町田店）","province":"東京都","city":"町田市","address":"東京都町田市旭町1-25-20","lat":35.55432622,"lon":139.4433518},{"name":"トイザらス・ベビーザらス　町田多摩境店","province":"東京都","city":"町田市","address":"東京都町田市小山ヶ丘1-7-2","lat":35.59872631,"lon":139.3816645},{"name":"スーパースポーツゼビオ多摩境店","province":"東京都","city":"町田市","address":"東京都町田市小山ヶ丘3-5-1","lat":35.60077922,"lon":139.3779912},{"name":"スーパーアルプス多摩境店","province":"東京都","city":"町田市","address":"東京都町田市小山ヶ丘4-5-2","lat":35.60470181,"lon":139.3602021},{"name":"西松屋チェーン町田多摩境店","province":"東京都","city":"町田市","address":"東京都町田市小山ヶ丘5-1-1","lat":35.60237061,"lon":139.3653018},{"name":"ＭｒMax町田多摩境ショッピングセンター","province":"東京都","city":"町田市","address":"東京都町田市小山ヶ丘6-1-10","lat":35.60625489,"lon":139.3487601},{"name":"トヨタ西東京カローラ町田小山店","province":"東京都","city":"町田市","address":"東京都町田市小山町776-4","lat":35.59167761,"lon":139.3808414},{"name":"アメリア町田根岸ショッピングセンター","province":"東京都","city":"町田市","address":"東京都町田市根岸2-18-1","lat":35.57633619,"lon":139.4106731},{"name":"トヨタモビリティ東京株式会社　町田中町店","province":"東京都","city":"町田市","address":"東京都町田市中町2-14-15","lat":35.55222553,"lon":139.4437797},{"name":"ルミネ町田店","province":"東京都","city":"町田市","address":"東京都町田市原町田6-1-11","lat":35.54200658,"lon":139.4461013},{"name":"東急百貨店　町田東急ツインズ（EAST3階）","province":"東京都","city":"町田市","address":"東京都町田市原町田6-4-1","lat":35.54295294,"lon":139.4460716},{"name":"町田マルイ","province":"東京都","city":"町田市","address":"東京都町田市原町田6-1-6","lat":35.54266631,"lon":139.4448588},{"name":"町田モディ","province":"東京都","city":"町田市","address":"東京都町田市原町田6-2-6","lat":35.54335106,"lon":139.4452253},{"name":"小田急百貨店町田店","province":"東京都","city":"町田市","address":"東京都町田市原町田6-12-20","lat":35.54422158,"lon":139.4452953},{"name":"島忠ホームズ町田三輪店","province":"東京都","city":"町田市","address":"東京都町田市三輪町281-1","lat":35.57877061,"lon":139.5004549},{"name":"西松屋チェーン町田大蔵店","province":"東京都","city":"町田市","address":"東京都町田市大蔵557","lat":35.58916633,"lon":139.4597705},{"name":"そうてつローゼン成瀬店","province":"東京都","city":"町田市","address":"東京都町田市南成瀬1-3-5","lat":35.53596281,"lon":139.4723589},{"name":"西松屋チェーン南町田店","province":"東京都","city":"町田市","address":"東京都町田市南町田5-1-7","lat":35.51490444,"lon":139.4736831},{"name":"ケーユー本店","province":"東京都","city":"町田市","address":"東京都町田市鶴間8-17-1","lat":35.50912747,"lon":139.4776504},{"name":"社会福祉法人賛育会　第二清風園","province":"東京都","city":"町田市","address":"東京都町田市薬師台3-270-1","lat":35.58237856,"lon":139.4568184},{"name":"スズキアリーナ　多摩境","province":"東京都","city":"町田市","address":"東京都町田市小山ヶ丘2-2-9","lat":35.602702,"lon":139.3748042},{"name":"トヨタ西東京カローラ鶴川店","province":"東京都","city":"町田市","address":"東京都町田市金井8-24-21","lat":35.57965089,"lon":139.4693812},{"name":"玉川学園コミュニティセンター","province":"東京都","city":"町田市","address":"東京都町田市玉川学園2-19-12","lat":35.56374803,"lon":139.4625582},{"name":"鶴川市民センター（鶴川保健センター併設）","province":"東京都","city":"町田市","address":"東京都町田市大蔵町1981-4","lat":35.58888656,"lon":139.4673706},{"name":"町田市立町田市民球場","province":"東京都","city":"町田市","address":"東京都町田市旭町3丁目20-60","lat":35.55634896,"lon":139.44662554},{"name":"町田市鶴見川クリーンセンター","province":"東京都","city":"町田市","address":"東京都町田市三輪緑山1丁目1","lat":35.56975115,"lon":139.48945637},{"name":"日本大学第三高等学校運動場","province":"東京都","city":"町田市","address":"東京都町田市図師町11-2375","lat":35.59196136,"lon":139.41930483},{"name":"法政大学プレイグラウンド","province":"東京都","city":"町田市","address":"東京都町田市相原町4342","lat":35.61340443,"lon":139.29763694},{"name":"町田市立野津田公園陸上競技場","province":"東京都","city":"町田市","address":"東京都町田市野津田町2035","lat":35.59190908,"lon":139.43862536},{"name":"日向山公園野球場（藤の台球場）","province":"東京都","city":"町田市","address":"東京都町田市本町田3486","lat":35.56881998,"lon":139.44800563},{"name":"町田市立町田中央公園","province":"東京都","city":"町田市","address":"東京都町田市旭町3丁目20-60","lat":35.55634896,"lon":139.44662554},{"name":"町田市立リサイクルセンター","province":"東京都","city":"町田市","address":"東京都町田市下小山田町3160","lat":35.58679242,"lon":139.41140293},{"name":"小川高等学校","province":"東京都","city":"町田市","address":"東京都町田市小川2丁目1002-1","lat":35.53233046,"lon":139.46933859},{"name":"町田総合高等学校","province":"東京都","city":"町田市","address":"東京都町田市木曽西3丁目5-1","lat":35.57035541,"lon":139.41678624},{"name":"町田工業高等学校","province":"東京都","city":"町田市","address":"東京都町田市忠生1丁目20-2","lat":35.5755605,"lon":139.42215504},{"name":"町田高等学校","province":"東京都","city":"町田市","address":"東京都町田市中町4丁目25-3","lat":35.55337986,"lon":139.44872268},{"name":"野津田高等学校","province":"東京都","city":"町田市","address":"東京都町田市野津田町2001","lat":35.58961486,"lon":139.43740885},{"name":"山崎高等学校","province":"東京都","city":"町田市","address":"東京都町田市山崎町1453-1","lat":35.57680228,"lon":139.43379559},{"name":"子どもセンターただＯＮ","province":"東京都","city":"町田市","address":"東京都町田市忠生1-11-1","lat":35.574259,"lon":139.4219748},{"name":"子どもセンターつるっこ","province":"東京都","city":"町田市","address":"東京都町田市大蔵町1913","lat":35.58987883,"lon":139.4659195},{"name":"子どもセンターぱお","province":"東京都","city":"町田市","address":"東京都町田市相原町2025-2","lat":35.60829497,"lon":139.3215009},{"name":"子どもセンターぱお分館","province":"東京都","city":"町田市","address":"東京都町田市小山ヶ丘4-1-13ゲートヒルズ多摩境パークフロント3階","lat":35.60437775,"lon":139.3671777},{"name":"子どもセンターばあん","province":"東京都","city":"町田市","address":"東京都町田市金森4-5-7","lat":35.52387322,"lon":139.4670211},{"name":"子どもセンターまあち","province":"東京都","city":"町田市","address":"東京都町田市中町1-31-22","lat":35.54818772,"lon":139.4488871},{"name":"玉川学園子どもクラブころころ児童館","province":"東京都","city":"町田市","address":"東京都町田市玉川学園3-35-45","lat":35.56284289,"lon":139.4590611},{"name":"南大谷子どもクラブ","province":"東京都","city":"町田市","address":"東京都町田市南大谷264都営4号棟1階","lat":35.55361169,"lon":139.4578753},{"name":"木曽子どもクラブ「きそっち」","province":"東京都","city":"町田市","address":"東京都町田市木曽東1-6-40","lat":35.55776556,"lon":139.4307672},{"name":"小山子どもクラブ「さん」","province":"東京都","city":"町田市","address":"東京都町田市小山町1165-3","lat":35.59510767,"lon":139.3718709},{"name":"三輪子どもクラブ「MIWA～GO」","province":"東京都","city":"町田市","address":"東京都町田市三輪緑山3-25-2","lat":35.57380756,"lon":139.4886551},{"name":"南町田子どもクラブ「つみき」","province":"東京都","city":"町田市","address":"東京都町田市鶴間3-1-1パークライフ棟","lat":35.51004264,"lon":139.4693211},{"name":"市立こうさぎ保育園","province":"東京都","city":"町田市","address":"東京都町田市相原町792","lat":35.60436614,"lon":139.3337618},{"name":"市立山崎保育園（忠生地域子育て相談センター）","province":"東京都","city":"町田市","address":"東京都町田市山崎1-2-14","lat":35.56861997,"lon":139.4290261},{"name":"市立大蔵保育園（鶴川地域子育て相談センター）","province":"東京都","city":"町田市","address":"東京都町田市大蔵町1984","lat":35.58861389,"lon":139.467863},{"name":"市立町田保育園","province":"東京都","city":"町田市","address":"東京都町田市原町田6-26-15","lat":35.54451211,"lon":139.4477988},{"name":"市立金森保育園（南地域子育て相談センター）","province":"東京都","city":"町田市","address":"東京都町田市金森東1-12-16","lat":35.53504242,"lon":139.459747},{"name":"町田シバヒロ","province":"東京都","city":"町田市","address":"東京都町田市中町1-20-23","lat":35.54831906,"lon":139.4470388},{"name":"子ども創造キャンパスひなた村","province":"東京都","city":"町田市","address":"東京都町田市本町田2863","lat":35.56770522,"lon":139.4453662},{"name":"大地沢青少年センター","province":"東京都","city":"町田市","address":"東京都町田市相原町5307-2","lat":35.61227289,"lon":139.276446},{"name":"南市民センター","province":"東京都","city":"町田市","address":"東京都町田市金森4-5-6","lat":35.52364717,"lon":139.4667959},{"name":"小山市民センター","province":"東京都","city":"町田市","address":"東京都町田市小山町2507-1","lat":35.59714842,"lon":139.3689945},{"name":"忠生市民センター","province":"東京都","city":"町田市","address":"東京都町田市忠生3-14-2","lat":35.57833572,"lon":139.4161491},{"name":"木曽山崎コミュニティセンター","province":"東京都","city":"町田市","address":"東京都町田市山崎町2160-4","lat":35.56859619,"lon":139.4367346},{"name":"成瀬コミュニティセンター","province":"東京都","city":"町田市","address":"東京都町田市西成瀬2-49-1","lat":35.54352008,"lon":139.4728479},{"name":"和光大学ポプリホール鶴川","province":"東京都","city":"町田市","address":"東京都町田市能ヶ谷1-2-1","lat":35.58272153,"lon":139.4788655},{"name":"町田市役所","province":"東京都","city":"町田市","address":"東京都町田市森野2-2-22","lat":35.54674817,"lon":139.4385724},{"name":"町田GIONスタジアム（町田市立陸上競技場）","province":"東京都","city":"町田市","address":"東京都町田市野津田町2035","lat":35.59192333,"lon":139.4386049},{"name":"町田市生涯学習センター","province":"東京都","city":"町田市","address":"東京都町田市原町田6-8-1","lat":35.54297064,"lon":139.4472272},{"name":"町田市立総合体育館","province":"東京都","city":"町田市","address":"東京都町田市南成瀬5-12","lat":35.53622756,"lon":139.4789897},{"name":"サン町田旭体育館","province":"東京都","city":"町田市","address":"東京都町田市旭町3-20-60","lat":35.55668356,"lon":139.4470972},{"name":"市立室内プール","province":"東京都","city":"町田市","address":"東京都町田市図師町199-1","lat":35.58630764,"lon":139.4138148},{"name":"健康福祉会館","province":"東京都","city":"町田市","address":"東京都町田市原町田5-8-21","lat":35.54598961,"lon":139.4499538},{"name":"中央図書館","province":"東京都","city":"町田市","address":"東京都町田市原町田3-2-9","lat":35.54032636,"lon":139.4503274},{"name":"町田市民文学館ことばらんど","province":"東京都","city":"町田市","address":"東京都町田市原町田4-16-17","lat":35.54252644,"lon":139.4515091},{"name":"町田市民病院","province":"東京都","city":"町田市","address":"東京都町田市旭町2-15-41","lat":35.55714028,"lon":139.4384157},{"name":"町田合同庁舎","province":"東京都","city":"町田市","address":"東京都町田市森野2-28-14","lat":35.54984375,"lon":139.4415866},{"name":"町田市立相原中央公園","province":"東京都","city":"町田市","address":"東京都町田市相原町2018","lat":35.60933497,"lon":139.3196646},{"name":"小山保育園","province":"東京都","city":"町田市","address":"東京都町田市小山町954","lat":35.59302269,"lon":139.376952},{"name":"小山内裏公園","province":"東京都","city":"町田市","address":"東京都町田市小山ヶ丘4-4","lat":35.60704361,"lon":139.3680304},{"name":"町田リス園","province":"東京都","city":"町田市","address":"東京都町田市薬師台1-733-1","lat":35.57809886,"lon":139.4497414},{"name":"三沢こどもクリニック","province":"東京都","city":"町田市","address":"東京都町田市木曽西2-18-10","lat":35.56914644,"lon":139.4166011},{"name":"あったかなるせ（町田わかくさ保育園内）","province":"東京都","city":"町田市","address":"東京都町田市成瀬7-10-7","lat":35.54073358,"lon":139.4754992},{"name":"かえで保育園","province":"東京都","city":"町田市","address":"東京都町田市小山町775","lat":35.59122853,"lon":139.3807892},{"name":"幼保連携型認定こども園　町田自然幼稚園","province":"東京都","city":"町田市","address":"東京都町田市忠生2-7-5","lat":35.57924486,"lon":139.4257973},{"name":"認定こども園　正和幼稚園","province":"東京都","city":"町田市","address":"東京都町田市山崎町2261-1","lat":35.56828283,"lon":139.4316809},{"name":"ききょう保育園","province":"東京都","city":"町田市","address":"東京都町田市鶴川1-16-7","lat":35.58749856,"lon":139.4782692},{"name":"しぜんの国保育園","province":"東京都","city":"町田市","address":"東京都町田市忠生2-5-3","lat":35.57739406,"lon":139.4249326},{"name":"みどりの森保育園","province":"東京都","city":"町田市","address":"東京都町田市能ヶ谷4-7-19","lat":35.58755839,"lon":139.4818157},{"name":"井の花保育園","province":"東京都","city":"町田市","address":"東京都町田市大蔵町530-1","lat":35.589389,"lon":139.4606067},{"name":"南つくし野保育園","province":"東京都","city":"町田市","address":"東京都町田市南つくし野2-17-1","lat":35.51698656,"lon":139.4749992},{"name":"ひかりの子保育園（コミュニティルーム　ノエル）","province":"東京都","city":"町田市","address":"東京都町田市木曽西1-34-1","lat":35.56687,"lon":139.4152701},{"name":"レイモンド南町田保育園","province":"東京都","city":"町田市","address":"東京都町田市鶴間8-4-30クレインドビル1階","lat":35.51123544,"lon":139.4744019},{"name":"第二わかくさ保育園","province":"東京都","city":"町田市","address":"東京都町田市木曽西5-1-1","lat":35.56666633,"lon":139.4241218},{"name":"ぽっぽの森保育園（かのんカフェ）","province":"東京都","city":"町田市","address":"東京都町田市大蔵町410","lat":35.58796989,"lon":139.4654126},{"name":"町田サレジオ幼稚園","province":"東京都","city":"町田市","address":"東京都町田市小山ヶ丘4丁目6-2","lat":35.60513925,"lon":139.3596335},{"name":"成瀬くりの家保育園","province":"東京都","city":"町田市","address":"東京都町田市成瀬1-5-1","lat":35.54832289,"lon":139.4723968},{"name":"花の木保育園","province":"東京都","city":"町田市","address":"東京都町田市真光寺3-1-6","lat":35.59768992,"lon":139.4632931},{"name":"カナリヤ保育園","province":"東京都","city":"町田市","address":"東京都町田市山崎町2130","lat":35.57123936,"lon":139.4361068},{"name":"たかね保育園","province":"東京都","city":"町田市","address":"東京都町田市山崎町2160-4","lat":35.56986036,"lon":139.4346376},{"name":"もりの聖愛保育園","province":"東京都","city":"町田市","address":"東京都町田市森野4-8-10","lat":35.55405919,"lon":139.4325},{"name":"アスク木曽西保育園","province":"東京都","city":"町田市","address":"東京都町田市木曽西3-18-2","lat":35.57301633,"lon":139.4191634},{"name":"認定こども園　開進幼稚園","province":"東京都","city":"町田市","address":"東京都町田市本町田3350-24","lat":35.56964253,"lon":139.443896},{"name":"開進こども保育園","province":"東京都","city":"町田市","address":"東京都町田市本町田3350-38","lat":35.57012839,"lon":139.4448633},{"name":"ゆうき山保育園","province":"東京都","city":"町田市","address":"東京都町田市金井ヶ丘1-10-24","lat":35.56812022,"lon":139.4545372},{"name":"住宅情報館（町田店）","province":"東京都","city":"町田市","address":"東京都町田市旭町1-25-20","lat":35.55432622,"lon":139.4433518},{"name":"トイザらス・ベビーザらス　町田多摩境店","province":"東京都","city":"町田市","address":"東京都町田市小山ヶ丘1-7-2","lat":35.59872631,"lon":139.3816645},{"name":"スーパースポーツゼビオ多摩境店","province":"東京都","city":"町田市","address":"東京都町田市小山ヶ丘3-5-1","lat":35.60077922,"lon":139.3779912},{"name":"スーパーアルプス多摩境店","province":"東京都","city":"町田市","address":"東京都町田市小山ヶ丘4-5-2","lat":35.60470181,"lon":139.3602021},{"name":"西松屋チェーン町田多摩境店","province":"東京都","city":"町田市","address":"東京都町田市小山ヶ丘5-1-1","lat":35.60237061,"lon":139.3653018},{"name":"ＭｒMax町田多摩境ショッピングセンター","province":"東京都","city":"町田市","address":"東京都町田市小山ヶ丘6-1-10","lat":35.60625489,"lon":139.3487601},{"name":"トヨタ西東京カローラ町田小山店","province":"東京都","city":"町田市","address":"東京都町田市小山町776-4","lat":35.59167761,"lon":139.3808414},{"name":"アメリア町田根岸ショッピングセンター","province":"東京都","city":"町田市","address":"東京都町田市根岸2-18-1","lat":35.57633619,"lon":139.4106731},{"name":"トヨタモビリティ東京株式会社　町田中町店","province":"東京都","city":"町田市","address":"東京都町田市中町2-14-15","lat":35.55222553,"lon":139.4437797},{"name":"ルミネ町田店","province":"東京都","city":"町田市","address":"東京都町田市原町田6-1-11","lat":35.54200658,"lon":139.4461013},{"name":"東急百貨店　町田東急ツインズ（EAST3階）","province":"東京都","city":"町田市","address":"東京都町田市原町田6-4-1","lat":35.54295294,"lon":139.4460716},{"name":"町田マルイ","province":"東京都","city":"町田市","address":"東京都町田市原町田6-1-6","lat":35.54266631,"lon":139.4448588},{"name":"町田モディ","province":"東京都","city":"町田市","address":"東京都町田市原町田6-2-6","lat":35.54335106,"lon":139.4452253},{"name":"小田急百貨店町田店","province":"東京都","city":"町田市","address":"東京都町田市原町田6-12-20","lat":35.54422158,"lon":139.4452953},{"name":"島忠ホームズ町田三輪店","province":"東京都","city":"町田市","address":"東京都町田市三輪町281-1","lat":35.57877061,"lon":139.5004549},{"name":"西松屋チェーン町田大蔵店","province":"東京都","city":"町田市","address":"東京都町田市大蔵557","lat":35.58916633,"lon":139.4597705},{"name":"そうてつローゼン成瀬店","province":"東京都","city":"町田市","address":"東京都町田市南成瀬1-3-5","lat":35.53596281,"lon":139.4723589},{"name":"西松屋チェーン南町田店","province":"東京都","city":"町田市","address":"東京都町田市南町田5-1-7","lat":35.51490444,"lon":139.4736831},{"name":"ケーユー本店","province":"東京都","city":"町田市","address":"東京都町田市鶴間8-17-1","lat":35.50912747,"lon":139.4776504},{"name":"社会福祉法人賛育会　第二清風園","province":"東京都","city":"町田市","address":"東京都町田市薬師台3-270-1","lat":35.58237856,"lon":139.4568184},{"name":"スズキアリーナ　多摩境","province":"東京都","city":"町田市","address":"東京都町田市小山ヶ丘2-2-9","lat":35.602702,"lon":139.3748042},{"name":"トヨタ西東京カローラ鶴川店","province":"東京都","city":"町田市","address":"東京都町田市金井8-24-21","lat":35.57965089,"lon":139.4693812},{"name":"玉川学園コミュニティセンター","province":"東京都","city":"町田市","address":"東京都町田市玉川学園2-19-12","lat":35.56374803,"lon":139.4625582},{"name":"鶴川市民センター（鶴川保健センター併設）","province":"東京都","city":"町田市","address":"東京都町田市大蔵町1981-4","lat":35.58888656,"lon":139.4673706},{"name":"町田市立町田市民球場","province":"東京都","city":"町田市","address":"東京都町田市旭町3丁目20-60","lat":35.55634896,"lon":139.44662554},{"name":"町田市鶴見川クリーンセンター","province":"東京都","city":"町田市","address":"東京都町田市三輪緑山1丁目1","lat":35.56975115,"lon":139.48945637},{"name":"日本大学第三高等学校運動場","province":"東京都","city":"町田市","address":"東京都町田市図師町11-2375","lat":35.59196136,"lon":139.41930483},{"name":"法政大学プレイグラウンド","province":"東京都","city":"町田市","address":"東京都町田市相原町4342","lat":35.61340443,"lon":139.29763694},{"name":"町田市立野津田公園陸上競技場","province":"東京都","city":"町田市","address":"東京都町田市野津田町2035","lat":35.59190908,"lon":139.43862536},{"name":"日向山公園野球場（藤の台球場）","province":"東京都","city":"町田市","address":"東京都町田市本町田3486","lat":35.56881998,"lon":139.44800563},{"name":"町田市立町田中央公園","province":"東京都","city":"町田市","address":"東京都町田市旭町3丁目20-60","lat":35.55634896,"lon":139.44662554},{"name":"町田市立リサイクルセンター","province":"東京都","city":"町田市","address":"東京都町田市下小山田町3160","lat":35.58679242,"lon":139.41140293},{"name":"小川高等学校","province":"東京都","city":"町田市","address":"東京都町田市小川2丁目1002-1","lat":35.53233046,"lon":139.46933859},{"name":"町田総合高等学校","province":"東京都","city":"町田市","address":"東京都町田市木曽西3丁目5-1","lat":35.57035541,"lon":139.41678624},{"name":"町田工業高等学校","province":"東京都","city":"町田市","address":"東京都町田市忠生1丁目20-2","lat":35.5755605,"lon":139.42215504},{"name":"町田高等学校","province":"東京都","city":"町田市","address":"東京都町田市中町4丁目25-3","lat":35.55337986,"lon":139.44872268},{"name":"野津田高等学校","province":"東京都","city":"町田市","address":"東京都町田市野津田町2001","lat":35.58961486,"lon":139.43740885},{"name":"山崎高等学校","province":"東京都","city":"町田市","address":"東京都町田市山崎町1453-1","lat":35.57680228,"lon":139.43379559},{"name":"子どもセンターただＯＮ","province":"東京都","city":"町田市","address":"東京都町田市忠生1-11-1","lat":35.574259,"lon":139.4219748},{"name":"子どもセンターつるっこ","province":"東京都","city":"町田市","address":"東京都町田市大蔵町1913","lat":35.58987883,"lon":139.4659195},{"name":"子どもセンターぱお","province":"東京都","city":"町田市","address":"東京都町田市相原町2025-2","lat":35.60829497,"lon":139.3215009},{"name":"子どもセンターぱお分館","province":"東京都","city":"町田市","address":"東京都町田市小山ヶ丘4-1-13ゲートヒルズ多摩境パークフロント3階","lat":35.60437775,"lon":139.3671777},{"name":"子どもセンターばあん","province":"東京都","city":"町田市","address":"東京都町田市金森4-5-7","lat":35.52387322,"lon":139.4670211},{"name":"子どもセンターまあち","province":"東京都","city":"町田市","address":"東京都町田市中町1-31-22","lat":35.54818772,"lon":139.4488871},{"name":"玉川学園子どもクラブころころ児童館","province":"東京都","city":"町田市","address":"東京都町田市玉川学園3-35-45","lat":35.56284289,"lon":139.4590611},{"name":"南大谷子どもクラブ","province":"東京都","city":"町田市","address":"東京都町田市南大谷264都営4号棟1階","lat":35.55361169,"lon":139.4578753},{"name":"木曽子どもクラブ「きそっち」","province":"東京都","city":"町田市","address":"東京都町田市木曽東1-6-40","lat":35.55776556,"lon":139.4307672},{"name":"小山子どもクラブ「さん」","province":"東京都","city":"町田市","address":"東京都町田市小山町1165-3","lat":35.59510767,"lon":139.3718709},{"name":"三輪子どもクラブ「MIWA～GO」","province":"東京都","city":"町田市","address":"東京都町田市三輪緑山3-25-2","lat":35.57380756,"lon":139.4886551},{"name":"南町田子どもクラブ「つみき」","province":"東京都","city":"町田市","address":"東京都町田市鶴間3-1-1パークライフ棟","lat":35.51004264,"lon":139.4693211},{"name":"市立こうさぎ保育園","province":"東京都","city":"町田市","address":"東京都町田市相原町792","lat":35.60436614,"lon":139.3337618},{"name":"市立山崎保育園（忠生地域子育て相談センター）","province":"東京都","city":"町田市","address":"東京都町田市山崎1-2-14","lat":35.56861997,"lon":139.4290261},{"name":"市立大蔵保育園（鶴川地域子育て相談センター）","province":"東京都","city":"町田市","address":"東京都町田市大蔵町1984","lat":35.58861389,"lon":139.467863},{"name":"市立町田保育園","province":"東京都","city":"町田市","address":"東京都町田市原町田6-26-15","lat":35.54451211,"lon":139.4477988},{"name":"市立金森保育園（南地域子育て相談センター）","province":"東京都","city":"町田市","address":"東京都町田市金森東1-12-16","lat":35.53504242,"lon":139.459747},{"name":"町田シバヒロ","province":"東京都","city":"町田市","address":"東京都町田市中町1-20-23","lat":35.54831906,"lon":139.4470388},{"name":"子ども創造キャンパスひなた村","province":"東京都","city":"町田市","address":"東京都町田市本町田2863","lat":35.56770522,"lon":139.4453662},{"name":"大地沢青少年センター","province":"東京都","city":"町田市","address":"東京都町田市相原町5307-2","lat":35.61227289,"lon":139.276446},{"name":"南市民センター","province":"東京都","city":"町田市","address":"東京都町田市金森4-5-6","lat":35.52364717,"lon":139.4667959},{"name":"小山市民センター","province":"東京都","city":"町田市","address":"東京都町田市小山町2507-1","lat":35.59714842,"lon":139.3689945},{"name":"忠生市民センター","province":"東京都","city":"町田市","address":"東京都町田市忠生3-14-2","lat":35.57833572,"lon":139.4161491},{"name":"木曽山崎コミュニティセンター","province":"東京都","city":"町田市","address":"東京都町田市山崎町2160-4","lat":35.56859619,"lon":139.4367346},{"name":"成瀬コミュニティセンター","province":"東京都","city":"町田市","address":"東京都町田市西成瀬2-49-1","lat":35.54352008,"lon":139.4728479},{"name":"和光大学ポプリホール鶴川","province":"東京都","city":"町田市","address":"東京都町田市能ヶ谷1-2-1","lat":35.58272153,"lon":139.4788655},{"name":"町田市役所","province":"東京都","city":"町田市","address":"東京都町田市森野2-2-22","lat":35.54674817,"lon":139.4385724},{"name":"町田GIONスタジアム（町田市立陸上競技場）","province":"東京都","city":"町田市","address":"東京都町田市野津田町2035","lat":35.59192333,"lon":139.4386049},{"name":"町田市生涯学習センター","province":"東京都","city":"町田市","address":"東京都町田市原町田6-8-1","lat":35.54297064,"lon":139.4472272},{"name":"町田市立総合体育館","province":"東京都","city":"町田市","address":"東京都町田市南成瀬5-12","lat":35.53622756,"lon":139.4789897},{"name":"サン町田旭体育館","province":"東京都","city":"町田市","address":"東京都町田市旭町3-20-60","lat":35.55668356,"lon":139.4470972},{"name":"市立室内プール","province":"東京都","city":"町田市","address":"東京都町田市図師町199-1","lat":35.58630764,"lon":139.4138148},{"name":"健康福祉会館","province":"東京都","city":"町田市","address":"東京都町田市原町田5-8-21","lat":35.54598961,"lon":139.4499538},{"name":"中央図書館","province":"東京都","city":"町田市","address":"東京都町田市原町田3-2-9","lat":35.54032636,"lon":139.4503274},{"name":"町田市民文学館ことばらんど","province":"東京都","city":"町田市","address":"東京都町田市原町田4-16-17","lat":35.54252644,"lon":139.4515091},{"name":"町田市民病院","province":"東京都","city":"町田市","address":"東京都町田市旭町2-15-41","lat":35.55714028,"lon":139.4384157},{"name":"町田合同庁舎","province":"東京都","city":"町田市","address":"東京都町田市森野2-28-14","lat":35.54984375,"lon":139.4415866},{"name":"町田市立相原中央公園","province":"東京都","city":"町田市","address":"東京都町田市相原町2018","lat":35.60933497,"lon":139.3196646},{"name":"小山保育園","province":"東京都","city":"町田市","address":"東京都町田市小山町954","lat":35.59302269,"lon":139.376952},{"name":"小山内裏公園","province":"東京都","city":"町田市","address":"東京都町田市小山ヶ丘4-4","lat":35.60704361,"lon":139.3680304},{"name":"町田リス園","province":"東京都","city":"町田市","address":"東京都町田市薬師台1-733-1","lat":35.57809886,"lon":139.4497414},{"name":"三沢こどもクリニック","province":"東京都","city":"町田市","address":"東京都町田市木曽西2-18-10","lat":35.56914644,"lon":139.4166011},{"name":"あったかなるせ（町田わかくさ保育園内）","province":"東京都","city":"町田市","address":"東京都町田市成瀬7-10-7","lat":35.54073358,"lon":139.4754992},{"name":"かえで保育園","province":"東京都","city":"町田市","address":"東京都町田市小山町775","lat":35.59122853,"lon":139.3807892},{"name":"幼保連携型認定こども園　町田自然幼稚園","province":"東京都","city":"町田市","address":"東京都町田市忠生2-7-5","lat":35.57924486,"lon":139.4257973},{"name":"認定こども園　正和幼稚園","province":"東京都","city":"町田市","address":"東京都町田市山崎町2261-1","lat":35.56828283,"lon":139.4316809},{"name":"ききょう保育園","province":"東京都","city":"町田市","address":"東京都町田市鶴川1-16-7","lat":35.58749856,"lon":139.4782692},{"name":"しぜんの国保育園","province":"東京都","city":"町田市","address":"東京都町田市忠生2-5-3","lat":35.57739406,"lon":139.4249326},{"name":"みどりの森保育園","province":"東京都","city":"町田市","address":"東京都町田市能ヶ谷4-7-19","lat":35.58755839,"lon":139.4818157},{"name":"井の花保育園","province":"東京都","city":"町田市","address":"東京都町田市大蔵町530-1","lat":35.589389,"lon":139.4606067},{"name":"南つくし野保育園","province":"東京都","city":"町田市","address":"東京都町田市南つくし野2-17-1","lat":35.51698656,"lon":139.4749992},{"name":"ひかりの子保育園（コミュニティルーム　ノエル）","province":"東京都","city":"町田市","address":"東京都町田市木曽西1-34-1","lat":35.56687,"lon":139.4152701},{"name":"レイモンド南町田保育園","province":"東京都","city":"町田市","address":"東京都町田市鶴間8-4-30クレインドビル1階","lat":35.51123544,"lon":139.4744019},{"name":"第二わかくさ保育園","province":"東京都","city":"町田市","address":"東京都町田市木曽西5-1-1","lat":35.56666633,"lon":139.4241218},{"name":"ぽっぽの森保育園（かのんカフェ）","province":"東京都","city":"町田市","address":"東京都町田市大蔵町410","lat":35.58796989,"lon":139.4654126},{"name":"町田サレジオ幼稚園","province":"東京都","city":"町田市","address":"東京都町田市小山ヶ丘4丁目6-2","lat":35.60513925,"lon":139.3596335},{"name":"成瀬くりの家保育園","province":"東京都","city":"町田市","address":"東京都町田市成瀬1-5-1","lat":35.54832289,"lon":139.4723968},{"name":"花の木保育園","province":"東京都","city":"町田市","address":"東京都町田市真光寺3-1-6","lat":35.59768992,"lon":139.4632931},{"name":"カナリヤ保育園","province":"東京都","city":"町田市","address":"東京都町田市山崎町2130","lat":35.57123936,"lon":139.4361068},{"name":"たかね保育園","province":"東京都","city":"町田市","address":"東京都町田市山崎町2160-4","lat":35.56986036,"lon":139.4346376},{"name":"もりの聖愛保育園","province":"東京都","city":"町田市","address":"東京都町田市森野4-8-10","lat":35.55405919,"lon":139.4325},{"name":"アスク木曽西保育園","province":"東京都","city":"町田市","address":"東京都町田市木曽西3-18-2","lat":35.57301633,"lon":139.4191634},{"name":"認定こども園　開進幼稚園","province":"東京都","city":"町田市","address":"東京都町田市本町田3350-24","lat":35.56964253,"lon":139.443896},{"name":"開進こども保育園","province":"東京都","city":"町田市","address":"東京都町田市本町田3350-38","lat":35.57012839,"lon":139.4448633},{"name":"ゆうき山保育園","province":"東京都","city":"町田市","address":"東京都町田市金井ヶ丘1-10-24","lat":35.56812022,"lon":139.4545372},{"name":"住宅情報館（町田店）","province":"東京都","city":"町田市","address":"東京都町田市旭町1-25-20","lat":35.55432622,"lon":139.4433518},{"name":"トイザらス・ベビーザらス　町田多摩境店","province":"東京都","city":"町田市","address":"東京都町田市小山ヶ丘1-7-2","lat":35.59872631,"lon":139.3816645},{"name":"スーパースポーツゼビオ多摩境店","province":"東京都","city":"町田市","address":"東京都町田市小山ヶ丘3-5-1","lat":35.60077922,"lon":139.3779912},{"name":"スーパーアルプス多摩境店","province":"東京都","city":"町田市","address":"東京都町田市小山ヶ丘4-5-2","lat":35.60470181,"lon":139.3602021},{"name":"西松屋チェーン町田多摩境店","province":"東京都","city":"町田市","address":"東京都町田市小山ヶ丘5-1-1","lat":35.60237061,"lon":139.3653018},{"name":"ＭｒMax町田多摩境ショッピングセンター","province":"東京都","city":"町田市","address":"東京都町田市小山ヶ丘6-1-10","lat":35.60625489,"lon":139.3487601},{"name":"トヨタ西東京カローラ町田小山店","province":"東京都","city":"町田市","address":"東京都町田市小山町776-4","lat":35.59167761,"lon":139.3808414},{"name":"アメリア町田根岸ショッピングセンター","province":"東京都","city":"町田市","address":"東京都町田市根岸2-18-1","lat":35.57633619,"lon":139.4106731},{"name":"トヨタモビリティ東京株式会社　町田中町店","province":"東京都","city":"町田市","address":"東京都町田市中町2-14-15","lat":35.55222553,"lon":139.4437797},{"name":"ルミネ町田店","province":"東京都","city":"町田市","address":"東京都町田市原町田6-1-11","lat":35.54200658,"lon":139.4461013},{"name":"東急百貨店　町田東急ツインズ（EAST3階）","province":"東京都","city":"町田市","address":"東京都町田市原町田6-4-1","lat":35.54295294,"lon":139.4460716},{"name":"町田マルイ","province":"東京都","city":"町田市","address":"東京都町田市原町田6-1-6","lat":35.54266631,"lon":139.4448588},{"name":"町田モディ","province":"東京都","city":"町田市","address":"東京都町田市原町田6-2-6","lat":35.54335106,"lon":139.4452253},{"name":"小田急百貨店町田店","province":"東京都","city":"町田市","address":"東京都町田市原町田6-12-20","lat":35.54422158,"lon":139.4452953},{"name":"島忠ホームズ町田三輪店","province":"東京都","city":"町田市","address":"東京都町田市三輪町281-1","lat":35.57877061,"lon":139.5004549},{"name":"西松屋チェーン町田大蔵店","province":"東京都","city":"町田市","address":"東京都町田市大蔵557","lat":35.58916633,"lon":139.4597705},{"name":"そうてつローゼン成瀬店","province":"東京都","city":"町田市","address":"東京都町田市南成瀬1-3-5","lat":35.53596281,"lon":139.4723589},{"name":"西松屋チェーン南町田店","province":"東京都","city":"町田市","address":"東京都町田市南町田5-1-7","lat":35.51490444,"lon":139.4736831},{"name":"ケーユー本店","province":"東京都","city":"町田市","address":"東京都町田市鶴間8-17-1","lat":35.50912747,"lon":139.4776504},{"name":"社会福祉法人賛育会　第二清風園","province":"東京都","city":"町田市","address":"東京都町田市薬師台3-270-1","lat":35.58237856,"lon":139.4568184},{"name":"スズキアリーナ　多摩境","province":"東京都","city":"町田市","address":"東京都町田市小山ヶ丘2-2-9","lat":35.602702,"lon":139.3748042},{"name":"トヨタ西東京カローラ鶴川店","province":"東京都","city":"町田市","address":"東京都町田市金井8-24-21","lat":35.57965089,"lon":139.4693812},{"name":"玉川学園コミュニティセンター","province":"東京都","city":"町田市","address":"東京都町田市玉川学園2-19-12","lat":35.56374803,"lon":139.4625582},{"name":"鶴川市民センター（鶴川保健センター併設）","province":"東京都","city":"町田市","address":"東京都町田市大蔵町1981-4","lat":35.58888656,"lon":139.4673706},{"name":"町田市立町田市民球場","province":"東京都","city":"町田市","address":"東京都町田市旭町3丁目20-60","lat":35.55634896,"lon":139.44662554},{"name":"町田市鶴見川クリーンセンター","province":"東京都","city":"町田市","address":"東京都町田市三輪緑山1丁目1","lat":35.56975115,"lon":139.48945637},{"name":"日本大学第三高等学校運動場","province":"東京都","city":"町田市","address":"東京都町田市図師町11-2375","lat":35.59196136,"lon":139.41930483},{"name":"法政大学プレイグラウンド","province":"東京都","city":"町田市","address":"東京都町田市相原町4342","lat":35.61340443,"lon":139.29763694},{"name":"町田市立野津田公園陸上競技場","province":"東京都","city":"町田市","address":"東京都町田市野津田町2035","lat":35.59190908,"lon":139.43862536},{"name":"日向山公園野球場（藤の台球場）","province":"東京都","city":"町田市","address":"東京都町田市本町田3486","lat":35.56881998,"lon":139.44800563},{"name":"町田市立町田中央公園","province":"東京都","city":"町田市","address":"東京都町田市旭町3丁目20-60","lat":35.55634896,"lon":139.44662554},{"name":"町田市立リサイクルセンター","province":"東京都","city":"町田市","address":"東京都町田市下小山田町3160","lat":35.58679242,"lon":139.41140293},{"name":"小川高等学校","province":"東京都","city":"町田市","address":"東京都町田市小川2丁目1002-1","lat":35.53233046,"lon":139.46933859},{"name":"町田総合高等学校","province":"東京都","city":"町田市","address":"東京都町田市木曽西3丁目5-1","lat":35.57035541,"lon":139.41678624},{"name":"町田工業高等学校","province":"東京都","city":"町田市","address":"東京都町田市忠生1丁目20-2","lat":35.5755605,"lon":139.42215504},{"name":"町田高等学校","province":"東京都","city":"町田市","address":"東京都町田市中町4丁目25-3","lat":35.55337986,"lon":139.44872268},{"name":"野津田高等学校","province":"東京都","city":"町田市","address":"東京都町田市野津田町2001","lat":35.58961486,"lon":139.43740885},{"name":"山崎高等学校","province":"東京都","city":"町田市","address":"東京都町田市山崎町1453-1","lat":35.57680228,"lon":139.43379559},{"name":"子どもセンターただＯＮ","province":"東京都","city":"町田市","address":"東京都町田市忠生1-11-1","lat":35.574259,"lon":139.4219748},{"name":"子どもセンターつるっこ","province":"東京都","city":"町田市","address":"東京都町田市大蔵町1913","lat":35.58987883,"lon":139.4659195},{"name":"子どもセンターぱお","province":"東京都","city":"町田市","address":"東京都町田市相原町2025-2","lat":35.60829497,"lon":139.3215009},{"name":"子どもセンターぱお分館","province":"東京都","city":"町田市","address":"東京都町田市小山ヶ丘4-1-13ゲートヒルズ多摩境パークフロント3階","lat":35.60437775,"lon":139.3671777},{"name":"子どもセンターばあん","province":"東京都","city":"町田市","address":"東京都町田市金森4-5-7","lat":35.52387322,"lon":139.4670211},{"name":"子どもセンターまあち","province":"東京都","city":"町田市","address":"東京都町田市中町1-31-22","lat":35.54818772,"lon":139.4488871},{"name":"玉川学園子どもクラブころころ児童館","province":"東京都","city":"町田市","address":"東京都町田市玉川学園3-35-45","lat":35.56284289,"lon":139.4590611},{"name":"南大谷子どもクラブ","province":"東京都","city":"町田市","address":"東京都町田市南大谷264都営4号棟1階","lat":35.55361169,"lon":139.4578753},{"name":"木曽子どもクラブ「きそっち」","province":"東京都","city":"町田市","address":"東京都町田市木曽東1-6-40","lat":35.55776556,"lon":139.4307672},{"name":"小山子どもクラブ「さん」","province":"東京都","city":"町田市","address":"東京都町田市小山町1165-3","lat":35.59510767,"lon":139.3718709},{"name":"三輪子どもクラブ「MIWA～GO」","province":"東京都","city":"町田市","address":"東京都町田市三輪緑山3-25-2","lat":35.57380756,"lon":139.4886551},{"name":"南町田子どもクラブ「つみき」","province":"東京都","city":"町田市","address":"東京都町田市鶴間3-1-1パークライフ棟","lat":35.51004264,"lon":139.4693211},{"name":"市立こうさぎ保育園","province":"東京都","city":"町田市","address":"東京都町田市相原町792","lat":35.60436614,"lon":139.3337618},{"name":"市立山崎保育園（忠生地域子育て相談センター）","province":"東京都","city":"町田市","address":"東京都町田市山崎1-2-14","lat":35.56861997,"lon":139.4290261},{"name":"市立大蔵保育園（鶴川地域子育て相談センター）","province":"東京都","city":"町田市","address":"東京都町田市大蔵町1984","lat":35.58861389,"lon":139.467863},{"name":"市立町田保育園","province":"東京都","city":"町田市","address":"東京都町田市原町田6-26-15","lat":35.54451211,"lon":139.4477988},{"name":"市立金森保育園（南地域子育て相談センター）","province":"東京都","city":"町田市","address":"東京都町田市金森東1-12-16","lat":35.53504242,"lon":139.459747},{"name":"町田シバヒロ","province":"東京都","city":"町田市","address":"東京都町田市中町1-20-23","lat":35.54831906,"lon":139.4470388},{"name":"子ども創造キャンパスひなた村","province":"東京都","city":"町田市","address":"東京都町田市本町田2863","lat":35.56770522,"lon":139.4453662},{"name":"大地沢青少年センター","province":"東京都","city":"町田市","address":"東京都町田市相原町5307-2","lat":35.61227289,"lon":139.276446},{"name":"南市民センター","province":"東京都","city":"町田市","address":"東京都町田市金森4-5-6","lat":35.52364717,"lon":139.4667959},{"name":"小山市民センター","province":"東京都","city":"町田市","address":"東京都町田市小山町2507-1","lat":35.59714842,"lon":139.3689945},{"name":"忠生市民センター","province":"東京都","city":"町田市","address":"東京都町田市忠生3-14-2","lat":35.57833572,"lon":139.4161491},{"name":"木曽山崎コミュニティセンター","province":"東京都","city":"町田市","address":"東京都町田市山崎町2160-4","lat":35.56859619,"lon":139.4367346},{"name":"成瀬コミュニティセンター","province":"東京都","city":"町田市","address":"東京都町田市西成瀬2-49-1","lat":35.54352008,"lon":139.4728479},{"name":"和光大学ポプリホール鶴川","province":"東京都","city":"町田市","address":"東京都町田市能ヶ谷1-2-1","lat":35.58272153,"lon":139.4788655},{"name":"町田市役所","province":"東京都","city":"町田市","address":"東京都町田市森野2-2-22","lat":35.54674817,"lon":139.4385724},{"name":"町田GIONスタジアム（町田市立陸上競技場）","province":"東京都","city":"町田市","address":"東京都町田市野津田町2035","lat":35.59192333,"lon":139.4386049},{"name":"町田市生涯学習センター","province":"東京都","city":"町田市","address":"東京都町田市原町田6-8-1","lat":35.54297064,"lon":139.4472272},{"name":"町田市立総合体育館","province":"東京都","city":"町田市","address":"東京都町田市南成瀬5-12","lat":35.53622756,"lon":139.4789897},{"name":"サン町田旭体育館","province":"東京都","city":"町田市","address":"東京都町田市旭町3-20-60","lat":35.55668356,"lon":139.4470972},{"name":"市立室内プール","province":"東京都","city":"町田市","address":"東京都町田市図師町199-1","lat":35.58630764,"lon":139.4138148},{"name":"健康福祉会館","province":"東京都","city":"町田市","address":"東京都町田市原町田5-8-21","lat":35.54598961,"lon":139.4499538},{"name":"中央図書館","province":"東京都","city":"町田市","address":"東京都町田市原町田3-2-9","lat":35.54032636,"lon":139.4503274},{"name":"町田市民文学館ことばらんど","province":"東京都","city":"町田市","address":"東京都町田市原町田4-16-17","lat":35.54252644,"lon":139.4515091},{"name":"町田市民病院","province":"東京都","city":"町田市","address":"東京都町田市旭町2-15-41","lat":35.55714028,"lon":139.4384157},{"name":"町田合同庁舎","province":"東京都","city":"町田市","address":"東京都町田市森野2-28-14","lat":35.54984375,"lon":139.4415866},{"name":"町田市立相原中央公園","province":"東京都","city":"町田市","address":"東京都町田市相原町2018","lat":35.60933497,"lon":139.3196646},{"name":"小山保育園","province":"東京都","city":"町田市","address":"東京都町田市小山町954","lat":35.59302269,"lon":139.376952},{"name":"小山内裏公園","province":"東京都","city":"町田市","address":"東京都町田市小山ヶ丘4-4","lat":35.60704361,"lon":139.3680304},{"name":"町田リス園","province":"東京都","city":"町田市","address":"東京都町田市薬師台1-733-1","lat":35.57809886,"lon":139.4497414},{"name":"三沢こどもクリニック","province":"東京都","city":"町田市","address":"東京都町田市木曽西2-18-10","lat":35.56914644,"lon":139.4166011},{"name":"あったかなるせ（町田わかくさ保育園内）","province":"東京都","city":"町田市","address":"東京都町田市成瀬7-10-7","lat":35.54073358,"lon":139.4754992},{"name":"かえで保育園","province":"東京都","city":"町田市","address":"東京都町田市小山町775","lat":35.59122853,"lon":139.3807892},{"name":"幼保連携型認定こども園　町田自然幼稚園","province":"東京都","city":"町田市","address":"東京都町田市忠生2-7-5","lat":35.57924486,"lon":139.4257973},{"name":"認定こども園　正和幼稚園","province":"東京都","city":"町田市","address":"東京都町田市山崎町2261-1","lat":35.56828283,"lon":139.4316809},{"name":"ききょう保育園","province":"東京都","city":"町田市","address":"東京都町田市鶴川1-16-7","lat":35.58749856,"lon":139.4782692},{"name":"しぜんの国保育園","province":"東京都","city":"町田市","address":"東京都町田市忠生2-5-3","lat":35.57739406,"lon":139.4249326},{"name":"みどりの森保育園","province":"東京都","city":"町田市","address":"東京都町田市能ヶ谷4-7-19","lat":35.58755839,"lon":139.4818157},{"name":"井の花保育園","province":"東京都","city":"町田市","address":"東京都町田市大蔵町530-1","lat":35.589389,"lon":139.4606067},{"name":"南つくし野保育園","province":"東京都","city":"町田市","address":"東京都町田市南つくし野2-17-1","lat":35.51698656,"lon":139.4749992},{"name":"ひかりの子保育園（コミュニティルーム　ノエル）","province":"東京都","city":"町田市","address":"東京都町田市木曽西1-34-1","lat":35.56687,"lon":139.4152701},{"name":"レイモンド南町田保育園","province":"東京都","city":"町田市","address":"東京都町田市鶴間8-4-30クレインドビル1階","lat":35.51123544,"lon":139.4744019},{"name":"第二わかくさ保育園","province":"東京都","city":"町田市","address":"東京都町田市木曽西5-1-1","lat":35.56666633,"lon":139.4241218},{"name":"ぽっぽの森保育園（かのんカフェ）","province":"東京都","city":"町田市","address":"東京都町田市大蔵町410","lat":35.58796989,"lon":139.4654126},{"name":"町田サレジオ幼稚園","province":"東京都","city":"町田市","address":"東京都町田市小山ヶ丘4丁目6-2","lat":35.60513925,"lon":139.3596335},{"name":"成瀬くりの家保育園","province":"東京都","city":"町田市","address":"東京都町田市成瀬1-5-1","lat":35.54832289,"lon":139.4723968},{"name":"花の木保育園","province":"東京都","city":"町田市","address":"東京都町田市真光寺3-1-6","lat":35.59768992,"lon":139.4632931},{"name":"カナリヤ保育園","province":"東京都","city":"町田市","address":"東京都町田市山崎町2130","lat":35.57123936,"lon":139.4361068},{"name":"たかね保育園","province":"東京都","city":"町田市","address":"東京都町田市山崎町2160-4","lat":35.56986036,"lon":139.4346376},{"name":"もりの聖愛保育園","province":"東京都","city":"町田市","address":"東京都町田市森野4-8-10","lat":35.55405919,"lon":139.4325},{"name":"アスク木曽西保育園","province":"東京都","city":"町田市","address":"東京都町田市木曽西3-18-2","lat":35.57301633,"lon":139.4191634},{"name":"認定こども園　開進幼稚園","province":"東京都","city":"町田市","address":"東京都町田市本町田3350-24","lat":35.56964253,"lon":139.443896},{"name":"開進こども保育園","province":"東京都","city":"町田市","address":"東京都町田市本町田3350-38","lat":35.57012839,"lon":139.4448633},{"name":"ゆうき山保育園","province":"東京都","city":"町田市","address":"東京都町田市金井ヶ丘1-10-24","lat":35.56812022,"lon":139.4545372},{"name":"住宅情報館（町田店）","province":"東京都","city":"町田市","address":"東京都町田市旭町1-25-20","lat":35.55432622,"lon":139.4433518},{"name":"トイザらス・ベビーザらス　町田多摩境店","province":"東京都","city":"町田市","address":"東京都町田市小山ヶ丘1-7-2","lat":35.59872631,"lon":139.3816645},{"name":"スーパースポーツゼビオ多摩境店","province":"東京都","city":"町田市","address":"東京都町田市小山ヶ丘3-5-1","lat":35.60077922,"lon":139.3779912},{"name":"スーパーアルプス多摩境店","province":"東京都","city":"町田市","address":"東京都町田市小山ヶ丘4-5-2","lat":35.60470181,"lon":139.3602021},{"name":"西松屋チェーン町田多摩境店","province":"東京都","city":"町田市","address":"東京都町田市小山ヶ丘5-1-1","lat":35.60237061,"lon":139.3653018},{"name":"ＭｒMax町田多摩境ショッピングセンター","province":"東京都","city":"町田市","address":"東京都町田市小山ヶ丘6-1-10","lat":35.60625489,"lon":139.3487601},{"name":"トヨタ西東京カローラ町田小山店","province":"東京都","city":"町田市","address":"東京都町田市小山町776-4","lat":35.59167761,"lon":139.3808414},{"name":"アメリア町田根岸ショッピングセンター","province":"東京都","city":"町田市","address":"東京都町田市根岸2-18-1","lat":35.57633619,"lon":139.4106731},{"name":"トヨタモビリティ東京株式会社　町田中町店","province":"東京都","city":"町田市","address":"東京都町田市中町2-14-15","lat":35.55222553,"lon":139.4437797},{"name":"ルミネ町田店","province":"東京都","city":"町田市","address":"東京都町田市原町田6-1-11","lat":35.54200658,"lon":139.4461013},{"name":"東急百貨店　町田東急ツインズ（EAST3階）","province":"東京都","city":"町田市","address":"東京都町田市原町田6-4-1","lat":35.54295294,"lon":139.4460716},{"name":"町田マルイ","province":"東京都","city":"町田市","address":"東京都町田市原町田6-1-6","lat":35.54266631,"lon":139.4448588},{"name":"町田モディ","province":"東京都","city":"町田市","address":"東京都町田市原町田6-2-6","lat":35.54335106,"lon":139.4452253},{"name":"小田急百貨店町田店","province":"東京都","city":"町田市","address":"東京都町田市原町田6-12-20","lat":35.54422158,"lon":139.4452953},{"name":"島忠ホームズ町田三輪店","province":"東京都","city":"町田市","address":"東京都町田市三輪町281-1","lat":35.57877061,"lon":139.5004549},{"name":"西松屋チェーン町田大蔵店","province":"東京都","city":"町田市","address":"東京都町田市大蔵557","lat":35.58916633,"lon":139.4597705},{"name":"そうてつローゼン成瀬店","province":"東京都","city":"町田市","address":"東京都町田市南成瀬1-3-5","lat":35.53596281,"lon":139.4723589},{"name":"西松屋チェーン南町田店","province":"東京都","city":"町田市","address":"東京都町田市南町田5-1-7","lat":35.51490444,"lon":139.4736831},{"name":"ケーユー本店","province":"東京都","city":"町田市","address":"東京都町田市鶴間8-17-1","lat":35.50912747,"lon":139.4776504},{"name":"社会福祉法人賛育会　第二清風園","province":"東京都","city":"町田市","address":"東京都町田市薬師台3-270-1","lat":35.58237856,"lon":139.4568184},{"name":"スズキアリーナ　多摩境","province":"東京都","city":"町田市","address":"東京都町田市小山ヶ丘2-2-9","lat":35.602702,"lon":139.3748042},{"name":"トヨタ西東京カローラ鶴川店","province":"東京都","city":"町田市","address":"東京都町田市金井8-24-21","lat":35.57965089,"lon":139.4693812},{"name":"玉川学園コミュニティセンター","province":"東京都","city":"町田市","address":"東京都町田市玉川学園2-19-12","lat":35.56374803,"lon":139.4625582},{"name":"鶴川市民センター（鶴川保健センター併設）","province":"東京都","city":"町田市","address":"東京都町田市大蔵町1981-4","lat":35.58888656,"lon":139.4673706},{"name":"町田市立町田市民球場","province":"東京都","city":"町田市","address":"東京都町田市旭町3丁目20-60","lat":35.55634896,"lon":139.44662554},{"name":"町田市鶴見川クリーンセンター","province":"東京都","city":"町田市","address":"東京都町田市三輪緑山1丁目1","lat":35.56975115,"lon":139.48945637},{"name":"日本大学第三高等学校運動場","province":"東京都","city":"町田市","address":"東京都町田市図師町11-2375","lat":35.59196136,"lon":139.41930483},{"name":"法政大学プレイグラウンド","province":"東京都","city":"町田市","address":"東京都町田市相原町4342","lat":35.61340443,"lon":139.29763694},{"name":"町田市立野津田公園陸上競技場","province":"東京都","city":"町田市","address":"東京都町田市野津田町2035","lat":35.59190908,"lon":139.43862536},{"name":"日向山公園野球場（藤の台球場）","province":"東京都","city":"町田市","address":"東京都町田市本町田3486","lat":35.56881998,"lon":139.44800563},{"name":"町田市立町田中央公園","province":"東京都","city":"町田市","address":"東京都町田市旭町3丁目20-60","lat":35.55634896,"lon":139.44662554},{"name":"町田市立リサイクルセンター","province":"東京都","city":"町田市","address":"東京都町田市下小山田町3160","lat":35.58679242,"lon":139.41140293},{"name":"小川高等学校","province":"東京都","city":"町田市","address":"東京都町田市小川2丁目1002-1","lat":35.53233046,"lon":139.46933859},{"name":"町田総合高等学校","province":"東京都","city":"町田市","address":"東京都町田市木曽西3丁目5-1","lat":35.57035541,"lon":139.41678624},{"name":"町田工業高等学校","province":"東京都","city":"町田市","address":"東京都町田市忠生1丁目20-2","lat":35.5755605,"lon":139.42215504},{"name":"町田高等学校","province":"東京都","city":"町田市","address":"東京都町田市中町4丁目25-3","lat":35.55337986,"lon":139.44872268},{"name":"野津田高等学校","province":"東京都","city":"町田市","address":"東京都町田市野津田町2001","lat":35.58961486,"lon":139.43740885},{"name":"山崎高等学校","province":"東京都","city":"町田市","address":"東京都町田市山崎町1453-1","lat":35.57680228,"lon":139.43379559},{"name":"子どもセンターただＯＮ","province":"東京都","city":"町田市","address":"東京都町田市忠生1-11-1","lat":35.574259,"lon":139.4219748},{"name":"子どもセンターつるっこ","province":"東京都","city":"町田市","address":"東京都町田市大蔵町1913","lat":35.58987883,"lon":139.4659195},{"name":"子どもセンターぱお","province":"東京都","city":"町田市","address":"東京都町田市相原町2025-2","lat":35.60829497,"lon":139.3215009},{"name":"子どもセンターぱお分館","province":"東京都","city":"町田市","address":"東京都町田市小山ヶ丘4-1-13ゲートヒルズ多摩境パークフロント3階","lat":35.60437775,"lon":139.3671777},{"name":"子どもセンターばあん","province":"東京都","city":"町田市","address":"東京都町田市金森4-5-7","lat":35.52387322,"lon":139.4670211},{"name":"子どもセンターまあち","province":"東京都","city":"町田市","address":"東京都町田市中町1-31-22","lat":35.54818772,"lon":139.4488871},{"name":"玉川学園子どもクラブころころ児童館","province":"東京都","city":"町田市","address":"東京都町田市玉川学園3-35-45","lat":35.56284289,"lon":139.4590611},{"name":"南大谷子どもクラブ","province":"東京都","city":"町田市","address":"東京都町田市南大谷264都営4号棟1階","lat":35.55361169,"lon":139.4578753},{"name":"木曽子どもクラブ「きそっち」","province":"東京都","city":"町田市","address":"東京都町田市木曽東1-6-40","lat":35.55776556,"lon":139.4307672},{"name":"小山子どもクラブ「さん」","province":"東京都","city":"町田市","address":"東京都町田市小山町1165-3","lat":35.59510767,"lon":139.3718709},{"name":"三輪子どもクラブ「MIWA～GO」","province":"東京都","city":"町田市","address":"東京都町田市三輪緑山3-25-2","lat":35.57380756,"lon":139.4886551},{"name":"南町田子どもクラブ「つみき」","province":"東京都","city":"町田市","address":"東京都町田市鶴間3-1-1パークライフ棟","lat":35.51004264,"lon":139.4693211},{"name":"市立こうさぎ保育園","province":"東京都","city":"町田市","address":"東京都町田市相原町792","lat":35.60436614,"lon":139.3337618},{"name":"市立山崎保育園（忠生地域子育て相談センター）","province":"東京都","city":"町田市","address":"東京都町田市山崎1-2-14","lat":35.56861997,"lon":139.4290261},{"name":"市立大蔵保育園（鶴川地域子育て相談センター）","province":"東京都","city":"町田市","address":"東京都町田市大蔵町1984","lat":35.58861389,"lon":139.467863},{"name":"市立町田保育園","province":"東京都","city":"町田市","address":"東京都町田市原町田6-26-15","lat":35.54451211,"lon":139.4477988},{"name":"市立金森保育園（南地域子育て相談センター）","province":"東京都","city":"町田市","address":"東京都町田市金森東1-12-16","lat":35.53504242,"lon":139.459747},{"name":"町田シバヒロ","province":"東京都","city":"町田市","address":"東京都町田市中町1-20-23","lat":35.54831906,"lon":139.4470388},{"name":"子ども創造キャンパスひなた村","province":"東京都","city":"町田市","address":"東京都町田市本町田2863","lat":35.56770522,"lon":139.4453662},{"name":"大地沢青少年センター","province":"東京都","city":"町田市","address":"東京都町田市相原町5307-2","lat":35.61227289,"lon":139.276446},{"name":"南市民センター","province":"東京都","city":"町田市","address":"東京都町田市金森4-5-6","lat":35.52364717,"lon":139.4667959},{"name":"小山市民センター","province":"東京都","city":"町田市","address":"東京都町田市小山町2507-1","lat":35.59714842,"lon":139.3689945},{"name":"忠生市民センター","province":"東京都","city":"町田市","address":"東京都町田市忠生3-14-2","lat":35.57833572,"lon":139.4161491},{"name":"木曽山崎コミュニティセンター","province":"東京都","city":"町田市","address":"東京都町田市山崎町2160-4","lat":35.56859619,"lon":139.4367346},{"name":"成瀬コミュニティセンター","province":"東京都","city":"町田市","address":"東京都町田市西成瀬2-49-1","lat":35.54352008,"lon":139.4728479},{"name":"和光大学ポプリホール鶴川","province":"東京都","city":"町田市","address":"東京都町田市能ヶ谷1-2-1","lat":35.58272153,"lon":139.4788655},{"name":"町田市役所","province":"東京都","city":"町田市","address":"東京都町田市森野2-2-22","lat":35.54674817,"lon":139.4385724},{"name":"町田GIONスタジアム（町田市立陸上競技場）","province":"東京都","city":"町田市","address":"東京都町田市野津田町2035","lat":35.59192333,"lon":139.4386049},{"name":"町田市生涯学習センター","province":"東京都","city":"町田市","address":"東京都町田市原町田6-8-1","lat":35.54297064,"lon":139.4472272},{"name":"町田市立総合体育館","province":"東京都","city":"町田市","address":"東京都町田市南成瀬5-12","lat":35.53622756,"lon":139.4789897},{"name":"サン町田旭体育館","province":"東京都","city":"町田市","address":"東京都町田市旭町3-20-60","lat":35.55668356,"lon":139.4470972},{"name":"市立室内プール","province":"東京都","city":"町田市","address":"東京都町田市図師町199-1","lat":35.58630764,"lon":139.4138148},{"name":"健康福祉会館","province":"東京都","city":"町田市","address":"東京都町田市原町田5-8-21","lat":35.54598961,"lon":139.4499538},{"name":"中央図書館","province":"東京都","city":"町田市","address":"東京都町田市原町田3-2-9","lat":35.54032636,"lon":139.4503274},{"name":"町田市民文学館ことばらんど","province":"東京都","city":"町田市","address":"東京都町田市原町田4-16-17","lat":35.54252644,"lon":139.4515091},{"name":"町田市民病院","province":"東京都","city":"町田市","address":"東京都町田市旭町2-15-41","lat":35.55714028,"lon":139.4384157},{"name":"町田合同庁舎","province":"東京都","city":"町田市","address":"東京都町田市森野2-28-14","lat":35.54984375,"lon":139.4415866},{"name":"町田市立相原中央公園","province":"東京都","city":"町田市","address":"東京都町田市相原町2018","lat":35.60933497,"lon":139.3196646},{"name":"小山保育園","province":"東京都","city":"町田市","address":"東京都町田市小山町954","lat":35.59302269,"lon":139.376952},{"name":"小山内裏公園","province":"東京都","city":"町田市","address":"東京都町田市小山ヶ丘4-4","lat":35.60704361,"lon":139.3680304},{"name":"町田リス園","province":"東京都","city":"町田市","address":"東京都町田市薬師台1-733-1","lat":35.57809886,"lon":139.4497414},{"name":"三沢こどもクリニック","province":"東京都","city":"町田市","address":"東京都町田市木曽西2-18-10","lat":35.56914644,"lon":139.4166011},{"name":"あったかなるせ（町田わかくさ保育園内）","province":"東京都","city":"町田市","address":"東京都町田市成瀬7-10-7","lat":35.54073358,"lon":139.4754992},{"name":"かえで保育園","province":"東京都","city":"町田市","address":"東京都町田市小山町775","lat":35.59122853,"lon":139.3807892},{"name":"幼保連携型認定こども園　町田自然幼稚園","province":"東京都","city":"町田市","address":"東京都町田市忠生2-7-5","lat":35.57924486,"lon":139.4257973},{"name":"認定こども園　正和幼稚園","province":"東京都","city":"町田市","address":"東京都町田市山崎町2261-1","lat":35.56828283,"lon":139.4316809},{"name":"ききょう保育園","province":"東京都","city":"町田市","address":"東京都町田市鶴川1-16-7","lat":35.58749856,"lon":139.4782692},{"name":"しぜんの国保育園","province":"東京都","city":"町田市","address":"東京都町田市忠生2-5-3","lat":35.57739406,"lon":139.4249326},{"name":"みどりの森保育園","province":"東京都","city":"町田市","address":"東京都町田市能ヶ谷4-7-19","lat":35.58755839,"lon":139.4818157},{"name":"井の花保育園","province":"東京都","city":"町田市","address":"東京都町田市大蔵町530-1","lat":35.589389,"lon":139.4606067},{"name":"南つくし野保育園","province":"東京都","city":"町田市","address":"東京都町田市南つくし野2-17-1","lat":35.51698656,"lon":139.4749992},{"name":"ひかりの子保育園（コミュニティルーム　ノエル）","province":"東京都","city":"町田市","address":"東京都町田市木曽西1-34-1","lat":35.56687,"lon":139.4152701},{"name":"レイモンド南町田保育園","province":"東京都","city":"町田市","address":"東京都町田市鶴間8-4-30クレインドビル1階","lat":35.51123544,"lon":139.4744019},{"name":"第二わかくさ保育園","province":"東京都","city":"町田市","address":"東京都町田市木曽西5-1-1","lat":35.56666633,"lon":139.4241218},{"name":"ぽっぽの森保育園（かのんカフェ）","province":"東京都","city":"町田市","address":"東京都町田市大蔵町410","lat":35.58796989,"lon":139.4654126},{"name":"町田サレジオ幼稚園","province":"東京都","city":"町田市","address":"東京都町田市小山ヶ丘4丁目6-2","lat":35.60513925,"lon":139.3596335},{"name":"成瀬くりの家保育園","province":"東京都","city":"町田市","address":"東京都町田市成瀬1-5-1","lat":35.54832289,"lon":139.4723968},{"name":"花の木保育園","province":"東京都","city":"町田市","address":"東京都町田市真光寺3-1-6","lat":35.59768992,"lon":139.4632931},{"name":"カナリヤ保育園","province":"東京都","city":"町田市","address":"東京都町田市山崎町2130","lat":35.57123936,"lon":139.4361068},{"name":"たかね保育園","province":"東京都","city":"町田市","address":"東京都町田市山崎町2160-4","lat":35.56986036,"lon":139.4346376},{"name":"もりの聖愛保育園","province":"東京都","city":"町田市","address":"東京都町田市森野4-8-10","lat":35.55405919,"lon":139.4325},{"name":"アスク木曽西保育園","province":"東京都","city":"町田市","address":"東京都町田市木曽西3-18-2","lat":35.57301633,"lon":139.4191634},{"name":"認定こども園　開進幼稚園","province":"東京都","city":"町田市","address":"東京都町田市本町田3350-24","lat":35.56964253,"lon":139.443896},{"name":"開進こども保育園","province":"東京都","city":"町田市","address":"東京都町田市本町田3350-38","lat":35.57012839,"lon":139.4448633},{"name":"ゆうき山保育園","province":"東京都","city":"町田市","address":"東京都町田市金井ヶ丘1-10-24","lat":35.56812022,"lon":139.4545372},{"name":"住宅情報館（町田店）","province":"東京都","city":"町田市","address":"東京都町田市旭町1-25-20","lat":35.55432622,"lon":139.4433518},{"name":"トイザらス・ベビーザらス　町田多摩境店","province":"東京都","city":"町田市","address":"東京都町田市小山ヶ丘1-7-2","lat":35.59872631,"lon":139.3816645},{"name":"スーパースポーツゼビオ多摩境店","province":"東京都","city":"町田市","address":"東京都町田市小山ヶ丘3-5-1","lat":35.60077922,"lon":139.3779912},{"name":"スーパーアルプス多摩境店","province":"東京都","city":"町田市","address":"東京都町田市小山ヶ丘4-5-2","lat":35.60470181,"lon":139.3602021},{"name":"西松屋チェーン町田多摩境店","province":"東京都","city":"町田市","address":"東京都町田市小山ヶ丘5-1-1","lat":35.60237061,"lon":139.3653018},{"name":"ＭｒMax町田多摩境ショッピングセンター","province":"東京都","city":"町田市","address":"東京都町田市小山ヶ丘6-1-10","lat":35.60625489,"lon":139.3487601},{"name":"トヨタ西東京カローラ町田小山店","province":"東京都","city":"町田市","address":"東京都町田市小山町776-4","lat":35.59167761,"lon":139.3808414},{"name":"アメリア町田根岸ショッピングセンター","province":"東京都","city":"町田市","address":"東京都町田市根岸2-18-1","lat":35.57633619,"lon":139.4106731},{"name":"トヨタモビリティ東京株式会社　町田中町店","province":"東京都","city":"町田市","address":"東京都町田市中町2-14-15","lat":35.55222553,"lon":139.4437797},{"name":"ルミネ町田店","province":"東京都","city":"町田市","address":"東京都町田市原町田6-1-11","lat":35.54200658,"lon":139.4461013},{"name":"東急百貨店　町田東急ツインズ（EAST3階）","province":"東京都","city":"町田市","address":"東京都町田市原町田6-4-1","lat":35.54295294,"lon":139.4460716},{"name":"町田マルイ","province":"東京都","city":"町田市","address":"東京都町田市原町田6-1-6","lat":35.54266631,"lon":139.4448588},{"name":"町田モディ","province":"東京都","city":"町田市","address":"東京都町田市原町田6-2-6","lat":35.54335106,"lon":139.4452253},{"name":"小田急百貨店町田店","province":"東京都","city":"町田市","address":"東京都町田市原町田6-12-20","lat":35.54422158,"lon":139.4452953},{"name":"島忠ホームズ町田三輪店","province":"東京都","city":"町田市","address":"東京都町田市三輪町281-1","lat":35.57877061,"lon":139.5004549},{"name":"西松屋チェーン町田大蔵店","province":"東京都","city":"町田市","address":"東京都町田市大蔵557","lat":35.58916633,"lon":139.4597705},{"name":"そうてつローゼン成瀬店","province":"東京都","city":"町田市","address":"東京都町田市南成瀬1-3-5","lat":35.53596281,"lon":139.4723589},{"name":"西松屋チェーン南町田店","province":"東京都","city":"町田市","address":"東京都町田市南町田5-1-7","lat":35.51490444,"lon":139.4736831},{"name":"ケーユー本店","province":"東京都","city":"町田市","address":"東京都町田市鶴間8-17-1","lat":35.50912747,"lon":139.4776504},{"name":"社会福祉法人賛育会　第二清風園","province":"東京都","city":"町田市","address":"東京都町田市薬師台3-270-1","lat":35.58237856,"lon":139.4568184},{"name":"スズキアリーナ　多摩境","province":"東京都","city":"町田市","address":"東京都町田市小山ヶ丘2-2-9","lat":35.602702,"lon":139.3748042},{"name":"トヨタ西東京カローラ鶴川店","province":"東京都","city":"町田市","address":"東京都町田市金井8-24-21","lat":35.57965089,"lon":139.4693812},{"name":"玉川学園コミュニティセンター","province":"東京都","city":"町田市","address":"東京都町田市玉川学園2-19-12","lat":35.56374803,"lon":139.4625582},{"name":"鶴川市民センター（鶴川保健センター併設）","province":"東京都","city":"町田市","address":"東京都町田市大蔵町1981-4","lat":35.58888656,"lon":139.4673706},{"name":"町田市立町田市民球場","province":"東京都","city":"町田市","address":"東京都町田市旭町3丁目20-60","lat":35.55634896,"lon":139.44662554},{"name":"町田市鶴見川クリーンセンター","province":"東京都","city":"町田市","address":"東京都町田市三輪緑山1丁目1","lat":35.56975115,"lon":139.48945637},{"name":"日本大学第三高等学校運動場","province":"東京都","city":"町田市","address":"東京都町田市図師町11-2375","lat":35.59196136,"lon":139.41930483},{"name":"法政大学プレイグラウンド","province":"東京都","city":"町田市","address":"東京都町田市相原町4342","lat":35.61340443,"lon":139.29763694},{"name":"町田市立野津田公園陸上競技場","province":"東京都","city":"町田市","address":"東京都町田市野津田町2035","lat":35.59190908,"lon":139.43862536},{"name":"日向山公園野球場（藤の台球場）","province":"東京都","city":"町田市","address":"東京都町田市本町田3486","lat":35.56881998,"lon":139.44800563},{"name":"町田市立町田中央公園","province":"東京都","city":"町田市","address":"東京都町田市旭町3丁目20-60","lat":35.55634896,"lon":139.44662554},{"name":"町田市立リサイクルセンター","province":"東京都","city":"町田市","address":"東京都町田市下小山田町3160","lat":35.58679242,"lon":139.41140293},{"name":"子どもセンターただＯＮ","province":"東京都","city":"町田市","address":"東京都町田市忠生1-11-1","lat":35.574259,"lon":139.4219748},{"name":"子どもセンターつるっこ","province":"東京都","city":"町田市","address":"東京都町田市大蔵町1913","lat":35.58987883,"lon":139.4659195},{"name":"子どもセンターぱお","province":"東京都","city":"町田市","address":"東京都町田市相原町2025-2","lat":35.60829497,"lon":139.3215009},{"name":"子どもセンターぱお分館","province":"東京都","city":"町田市","address":"東京都町田市小山ヶ丘4-1-13ゲートヒルズ多摩境パークフロント3階","lat":35.60437775,"lon":139.3671777},{"name":"子どもセンターばあん","province":"東京都","city":"町田市","address":"東京都町田市金森4-5-7","lat":35.52387322,"lon":139.4670211},{"name":"子どもセンターまあち","province":"東京都","city":"町田市","address":"東京都町田市中町1-31-22","lat":35.54818772,"lon":139.4488871},{"name":"玉川学園子どもクラブころころ児童館","province":"東京都","city":"町田市","address":"東京都町田市玉川学園3-35-45","lat":35.56284289,"lon":139.4590611},{"name":"南大谷子どもクラブ","province":"東京都","city":"町田市","address":"東京都町田市南大谷264都営4号棟1階","lat":35.55361169,"lon":139.4578753},{"name":"木曽子どもクラブ「きそっち」","province":"東京都","city":"町田市","address":"東京都町田市木曽東1-6-40","lat":35.55776556,"lon":139.4307672},{"name":"小山子どもクラブ「さん」","province":"東京都","city":"町田市","address":"東京都町田市小山町1165-3","lat":35.59510767,"lon":139.3718709},{"name":"三輪子どもクラブ「MIWA～GO」","province":"東京都","city":"町田市","address":"東京都町田市三輪緑山3-25-2","lat":35.57380756,"lon":139.4886551},{"name":"南町田子どもクラブ「つみき」","province":"東京都","city":"町田市","address":"東京都町田市鶴間3-1-1パークライフ棟","lat":35.51004264,"lon":139.4693211},{"name":"市立こうさぎ保育園","province":"東京都","city":"町田市","address":"東京都町田市相原町792","lat":35.60436614,"lon":139.3337618},{"name":"市立山崎保育園（忠生地域子育て相談センター）","province":"東京都","city":"町田市","address":"東京都町田市山崎1-2-14","lat":35.56861997,"lon":139.4290261},{"name":"市立大蔵保育園（鶴川地域子育て相談センター）","province":"東京都","city":"町田市","address":"東京都町田市大蔵町1984","lat":35.58861389,"lon":139.467863},{"name":"市立町田保育園","province":"東京都","city":"町田市","address":"東京都町田市原町田6-26-15","lat":35.54451211,"lon":139.4477988},{"name":"市立金森保育園（南地域子育て相談センター）","province":"東京都","city":"町田市","address":"東京都町田市金森東1-12-16","lat":35.53504242,"lon":139.459747},{"name":"町田シバヒロ","province":"東京都","city":"町田市","address":"東京都町田市中町1-20-23","lat":35.54831906,"lon":139.4470388},{"name":"子ども創造キャンパスひなた村","province":"東京都","city":"町田市","address":"東京都町田市本町田2863","lat":35.56770522,"lon":139.4453662},{"name":"大地沢青少年センター","province":"東京都","city":"町田市","address":"東京都町田市相原町5307-2","lat":35.61227289,"lon":139.276446},{"name":"南市民センター","province":"東京都","city":"町田市","address":"東京都町田市金森4-5-6","lat":35.52364717,"lon":139.4667959},{"name":"小山市民センター","province":"東京都","city":"町田市","address":"東京都町田市小山町2507-1","lat":35.59714842,"lon":139.3689945},{"name":"忠生市民センター","province":"東京都","city":"町田市","address":"東京都町田市忠生3-14-2","lat":35.57833572,"lon":139.4161491},{"name":"木曽山崎コミュニティセンター","province":"東京都","city":"町田市","address":"東京都町田市山崎町2160-4","lat":35.56859619,"lon":139.4367346},{"name":"成瀬コミュニティセンター","province":"東京都","city":"町田市","address":"東京都町田市西成瀬2-49-1","lat":35.54352008,"lon":139.4728479},{"name":"和光大学ポプリホール鶴川","province":"東京都","city":"町田市","address":"東京都町田市能ヶ谷1-2-1","lat":35.58272153,"lon":139.4788655},{"name":"町田市役所","province":"東京都","city":"町田市","address":"東京都町田市森野2-2-22","lat":35.54674817,"lon":139.4385724},{"name":"町田GIONスタジアム（町田市立陸上競技場）","province":"東京都","city":"町田市","address":"東京都町田市野津田町2035","lat":35.59192333,"lon":139.4386049},{"name":"町田市生涯学習センター","province":"東京都","city":"町田市","address":"東京都町田市原町田6-8-1","lat":35.54297064,"lon":139.4472272},{"name":"町田市立総合体育館","province":"東京都","city":"町田市","address":"東京都町田市南成瀬5-12","lat":35.53622756,"lon":139.4789897},{"name":"サン町田旭体育館","province":"東京都","city":"町田市","address":"東京都町田市旭町3-20-60","lat":35.55668356,"lon":139.4470972},{"name":"市立室内プール","province":"東京都","city":"町田市","address":"東京都町田市図師町199-1","lat":35.58630764,"lon":139.4138148},{"name":"健康福祉会館","province":"東京都","city":"町田市","address":"東京都町田市原町田5-8-21","lat":35.54598961,"lon":139.4499538},{"name":"中央図書館","province":"東京都","city":"町田市","address":"東京都町田市原町田3-2-9","lat":35.54032636,"lon":139.4503274},{"name":"町田市民文学館ことばらんど","province":"東京都","city":"町田市","address":"東京都町田市原町田4-16-17","lat":35.54252644,"lon":139.4515091},{"name":"町田市民病院","province":"東京都","city":"町田市","address":"東京都町田市旭町2-15-41","lat":35.55714028,"lon":139.4384157},{"name":"町田合同庁舎","province":"東京都","city":"町田市","address":"東京都町田市森野2-28-14","lat":35.54984375,"lon":139.4415866},{"name":"町田市立相原中央公園","province":"東京都","city":"町田市","address":"東京都町田市相原町2018","lat":35.60933497,"lon":139.3196646},{"name":"小山保育園","province":"東京都","city":"町田市","address":"東京都町田市小山町954","lat":35.59302269,"lon":139.376952},{"name":"小山内裏公園","province":"東京都","city":"町田市","address":"東京都町田市小山ヶ丘4-4","lat":35.60704361,"lon":139.3680304},{"name":"町田リス園","province":"東京都","city":"町田市","address":"東京都町田市薬師台1-733-1","lat":35.57809886,"lon":139.4497414},{"name":"三沢こどもクリニック","province":"東京都","city":"町田市","address":"東京都町田市木曽西2-18-10","lat":35.56914644,"lon":139.4166011},{"name":"あったかなるせ（町田わかくさ保育園内）","province":"東京都","city":"町田市","address":"東京都町田市成瀬7-10-7","lat":35.54073358,"lon":139.4754992},{"name":"かえで保育園","province":"東京都","city":"町田市","address":"東京都町田市小山町775","lat":35.59122853,"lon":139.3807892},{"name":"幼保連携型認定こども園　町田自然幼稚園","province":"東京都","city":"町田市","address":"東京都町田市忠生2-7-5","lat":35.57924486,"lon":139.4257973},{"name":"認定こども園　正和幼稚園","province":"東京都","city":"町田市","address":"東京都町田市山崎町2261-1","lat":35.56828283,"lon":139.4316809},{"name":"ききょう保育園","province":"東京都","city":"町田市","address":"東京都町田市鶴川1-16-7","lat":35.58749856,"lon":139.4782692},{"name":"しぜんの国保育園","province":"東京都","city":"町田市","address":"東京都町田市忠生2-5-3","lat":35.57739406,"lon":139.4249326},{"name":"みどりの森保育園","province":"東京都","city":"町田市","address":"東京都町田市能ヶ谷4-7-19","lat":35.58755839,"lon":139.4818157},{"name":"井の花保育園","province":"東京都","city":"町田市","address":"東京都町田市大蔵町530-1","lat":35.589389,"lon":139.4606067},{"name":"南つくし野保育園","province":"東京都","city":"町田市","address":"東京都町田市南つくし野2-17-1","lat":35.51698656,"lon":139.4749992},{"name":"ひかりの子保育園（コミュニティルーム　ノエル）","province":"東京都","city":"町田市","address":"東京都町田市木曽西1-34-1","lat":35.56687,"lon":139.4152701},{"name":"レイモンド南町田保育園","province":"東京都","city":"町田市","address":"東京都町田市鶴間8-4-30クレインドビル1階","lat":35.51123544,"lon":139.4744019},{"name":"第二わかくさ保育園","province":"東京都","city":"町田市","address":"東京都町田市木曽西5-1-1","lat":35.56666633,"lon":139.4241218},{"name":"ぽっぽの森保育園（かのんカフェ）","province":"東京都","city":"町田市","address":"東京都町田市大蔵町410","lat":35.58796989,"lon":139.4654126},{"name":"町田サレジオ幼稚園","province":"東京都","city":"町田市","address":"東京都町田市小山ヶ丘4丁目6-2","lat":35.60513925,"lon":139.3596335},{"name":"成瀬くりの家保育園","province":"東京都","city":"町田市","address":"東京都町田市成瀬1-5-1","lat":35.54832289,"lon":139.4723968},{"name":"花の木保育園","province":"東京都","city":"町田市","address":"東京都町田市真光寺3-1-6","lat":35.59768992,"lon":139.4632931},{"name":"カナリヤ保育園","province":"東京都","city":"町田市","address":"東京都町田市山崎町2130","lat":35.57123936,"lon":139.4361068},{"name":"たかね保育園","province":"東京都","city":"町田市","address":"東京都町田市山崎町2160-4","lat":35.56986036,"lon":139.4346376},{"name":"もりの聖愛保育園","province":"東京都","city":"町田市","address":"東京都町田市森野4-8-10","lat":35.55405919,"lon":139.4325},{"name":"アスク木曽西保育園","province":"東京都","city":"町田市","address":"東京都町田市木曽西3-18-2","lat":35.57301633,"lon":139.4191634},{"name":"認定こども園　開進幼稚園","province":"東京都","city":"町田市","address":"東京都町田市本町田3350-24","lat":35.56964253,"lon":139.443896},{"name":"開進こども保育園","province":"東京都","city":"町田市","address":"東京都町田市本町田3350-38","lat":35.57012839,"lon":139.4448633},{"name":"ゆうき山保育園","province":"東京都","city":"町田市","address":"東京都町田市金井ヶ丘1-10-24","lat":35.56812022,"lon":139.4545372},{"name":"住宅情報館（町田店）","province":"東京都","city":"町田市","address":"東京都町田市旭町1-25-20","lat":35.55432622,"lon":139.4433518},{"name":"トイザらス・ベビーザらス　町田多摩境店","province":"東京都","city":"町田市","address":"東京都町田市小山ヶ丘1-7-2","lat":35.59872631,"lon":139.3816645},{"name":"スーパースポーツゼビオ多摩境店","province":"東京都","city":"町田市","address":"東京都町田市小山ヶ丘3-5-1","lat":35.60077922,"lon":139.3779912},{"name":"スーパーアルプス多摩境店","province":"東京都","city":"町田市","address":"東京都町田市小山ヶ丘4-5-2","lat":35.60470181,"lon":139.3602021},{"name":"西松屋チェーン町田多摩境店","province":"東京都","city":"町田市","address":"東京都町田市小山ヶ丘5-1-1","lat":35.60237061,"lon":139.3653018},{"name":"ＭｒMax町田多摩境ショッピングセンター","province":"東京都","city":"町田市","address":"東京都町田市小山ヶ丘6-1-10","lat":35.60625489,"lon":139.3487601},{"name":"トヨタ西東京カローラ町田小山店","province":"東京都","city":"町田市","address":"東京都町田市小山町776-4","lat":35.59167761,"lon":139.3808414},{"name":"アメリア町田根岸ショッピングセンター","province":"東京都","city":"町田市","address":"東京都町田市根岸2-18-1","lat":35.57633619,"lon":139.4106731},{"name":"トヨタモビリティ東京株式会社　町田中町店","province":"東京都","city":"町田市","address":"東京都町田市中町2-14-15","lat":35.55222553,"lon":139.4437797},{"name":"ルミネ町田店","province":"東京都","city":"町田市","address":"東京都町田市原町田6-1-11","lat":35.54200658,"lon":139.4461013},{"name":"東急百貨店　町田東急ツインズ（EAST3階）","province":"東京都","city":"町田市","address":"東京都町田市原町田6-4-1","lat":35.54295294,"lon":139.4460716},{"name":"町田マルイ","province":"東京都","city":"町田市","address":"東京都町田市原町田6-1-6","lat":35.54266631,"lon":139.4448588},{"name":"町田モディ","province":"東京都","city":"町田市","address":"東京都町田市原町田6-2-6","lat":35.54335106,"lon":139.4452253},{"name":"小田急百貨店町田店","province":"東京都","city":"町田市","address":"東京都町田市原町田6-12-20","lat":35.54422158,"lon":139.4452953},{"name":"島忠ホームズ町田三輪店","province":"東京都","city":"町田市","address":"東京都町田市三輪町281-1","lat":35.57877061,"lon":139.5004549},{"name":"西松屋チェーン町田大蔵店","province":"東京都","city":"町田市","address":"東京都町田市大蔵557","lat":35.58916633,"lon":139.4597705},{"name":"そうてつローゼン成瀬店","province":"東京都","city":"町田市","address":"東京都町田市南成瀬1-3-5","lat":35.53596281,"lon":139.4723589},{"name":"西松屋チェーン南町田店","province":"東京都","city":"町田市","address":"東京都町田市南町田5-1-7","lat":35.51490444,"lon":139.4736831},{"name":"ケーユー本店","province":"東京都","city":"町田市","address":"東京都町田市鶴間8-17-1","lat":35.50912747,"lon":139.4776504},{"name":"社会福祉法人賛育会　第二清風園","province":"東京都","city":"町田市","address":"東京都町田市薬師台3-270-1","lat":35.58237856,"lon":139.4568184},{"name":"スズキアリーナ　多摩境","province":"東京都","city":"町田市","address":"東京都町田市小山ヶ丘2-2-9","lat":35.602702,"lon":139.3748042},{"name":"トヨタ西東京カローラ鶴川店","province":"東京都","city":"町田市","address":"東京都町田市金井8-24-21","lat":35.57965089,"lon":139.4693812},{"name":"玉川学園コミュニティセンター","province":"東京都","city":"町田市","address":"東京都町田市玉川学園2-19-12","lat":35.56374803,"lon":139.4625582},{"name":"鶴川市民センター（鶴川保健センター併設）","province":"東京都","city":"町田市","address":"東京都町田市大蔵町1981-4","lat":35.58888656,"lon":139.4673706},{"name":"町田市立町田市民球場","province":"東京都","city":"町田市","address":"東京都町田市旭町3丁目20-60","lat":35.55634896,"lon":139.44662554},{"name":"町田市鶴見川クリーンセンター","province":"東京都","city":"町田市","address":"東京都町田市三輪緑山1丁目1","lat":35.56975115,"lon":139.48945637},{"name":"日本大学第三高等学校運動場","province":"東京都","city":"町田市","address":"東京都町田市図師町11-2375","lat":35.59196136,"lon":139.41930483},{"name":"法政大学プレイグラウンド","province":"東京都","city":"町田市","address":"東京都町田市相原町4342","lat":35.61340443,"lon":139.29763694},{"name":"町田市立野津田公園陸上競技場","province":"東京都","city":"町田市","address":"東京都町田市野津田町2035","lat":35.59190908,"lon":139.43862536},{"name":"日向山公園野球場（藤の台球場）","province":"東京都","city":"町田市","address":"東京都町田市本町田3486","lat":35.56881998,"lon":139.44800563},{"name":"町田市立町田中央公園","province":"東京都","city":"町田市","address":"東京都町田市旭町3丁目20-60","lat":35.55634896,"lon":139.44662554},{"name":"町田市立リサイクルセンター","province":"東京都","city":"町田市","address":"東京都町田市下小山田町3160","lat":35.58679242,"lon":139.41140293},{"name":"子どもセンターただＯＮ","province":"東京都","city":"町田市","address":"東京都町田市忠生1-11-1","lat":35.574259,"lon":139.4219748},{"name":"子どもセンターつるっこ","province":"東京都","city":"町田市","address":"東京都町田市大蔵町1913","lat":35.58987883,"lon":139.4659195},{"name":"子どもセンターぱお","province":"東京都","city":"町田市","address":"東京都町田市相原町2025-2","lat":35.60829497,"lon":139.3215009},{"name":"子どもセンターぱお分館","province":"東京都","city":"町田市","address":"東京都町田市小山ヶ丘4-1-13ゲートヒルズ多摩境パークフロント3階","lat":35.60437775,"lon":139.3671777},{"name":"子どもセンターばあん","province":"東京都","city":"町田市","address":"東京都町田市金森4-5-7","lat":35.52387322,"lon":139.4670211},{"name":"子どもセンターまあち","province":"東京都","city":"町田市","address":"東京都町田市中町1-31-22","lat":35.54818772,"lon":139.4488871},{"name":"玉川学園子どもクラブころころ児童館","province":"東京都","city":"町田市","address":"東京都町田市玉川学園3-35-45","lat":35.56284289,"lon":139.4590611},{"name":"南大谷子どもクラブ","province":"東京都","city":"町田市","address":"東京都町田市南大谷264都営4号棟1階","lat":35.55361169,"lon":139.4578753},{"name":"木曽子どもクラブ「きそっち」","province":"東京都","city":"町田市","address":"東京都町田市木曽東1-6-40","lat":35.55776556,"lon":139.4307672},{"name":"小山子どもクラブ「さん」","province":"東京都","city":"町田市","address":"東京都町田市小山町1165-3","lat":35.59510767,"lon":139.3718709},{"name":"三輪子どもクラブ「MIWA～GO」","province":"東京都","city":"町田市","address":"東京都町田市三輪緑山3-25-2","lat":35.57380756,"lon":139.4886551},{"name":"南町田子どもクラブ「つみき」","province":"東京都","city":"町田市","address":"東京都町田市鶴間3-1-1パークライフ棟","lat":35.51004264,"lon":139.4693211},{"name":"市立こうさぎ保育園","province":"東京都","city":"町田市","address":"東京都町田市相原町792","lat":35.60436614,"lon":139.3337618},{"name":"市立山崎保育園（忠生地域子育て相談センター）","province":"東京都","city":"町田市","address":"東京都町田市山崎1-2-14","lat":35.56861997,"lon":139.4290261},{"name":"市立大蔵保育園（鶴川地域子育て相談センター）","province":"東京都","city":"町田市","address":"東京都町田市大蔵町1984","lat":35.58861389,"lon":139.467863},{"name":"市立町田保育園","province":"東京都","city":"町田市","address":"東京都町田市原町田6-26-15","lat":35.54451211,"lon":139.4477988},{"name":"市立金森保育園（南地域子育て相談センター）","province":"東京都","city":"町田市","address":"東京都町田市金森東1-12-16","lat":35.53504242,"lon":139.459747},{"name":"町田シバヒロ","province":"東京都","city":"町田市","address":"東京都町田市中町1-20-23","lat":35.54831906,"lon":139.4470388},{"name":"子ども創造キャンパスひなた村","province":"東京都","city":"町田市","address":"東京都町田市本町田2863","lat":35.56770522,"lon":139.4453662},{"name":"大地沢青少年センター","province":"東京都","city":"町田市","address":"東京都町田市相原町5307-2","lat":35.61227289,"lon":139.276446},{"name":"南市民センター","province":"東京都","city":"町田市","address":"東京都町田市金森4-5-6","lat":35.52364717,"lon":139.4667959},{"name":"小山市民センター","province":"東京都","city":"町田市","address":"東京都町田市小山町2507-1","lat":35.59714842,"lon":139.3689945},{"name":"忠生市民センター","province":"東京都","city":"町田市","address":"東京都町田市忠生3-14-2","lat":35.57833572,"lon":139.4161491},{"name":"木曽山崎コミュニティセンター","province":"東京都","city":"町田市","address":"東京都町田市山崎町2160-4","lat":35.56859619,"lon":139.4367346},{"name":"成瀬コミュニティセンター","province":"東京都","city":"町田市","address":"東京都町田市西成瀬2-49-1","lat":35.54352008,"lon":139.4728479},{"name":"和光大学ポプリホール鶴川","province":"東京都","city":"町田市","address":"東京都町田市能ヶ谷1-2-1","lat":35.58272153,"lon":139.4788655},{"name":"町田市役所","province":"東京都","city":"町田市","address":"東京都町田市森野2-2-22","lat":35.54674817,"lon":139.4385724},{"name":"町田GIONスタジアム（町田市立陸上競技場）","province":"東京都","city":"町田市","address":"東京都町田市野津田町2035","lat":35.59192333,"lon":139.4386049},{"name":"町田市生涯学習センター","province":"東京都","city":"町田市","address":"東京都町田市原町田6-8-1","lat":35.54297064,"lon":139.4472272},{"name":"町田市立総合体育館","province":"東京都","city":"町田市","address":"東京都町田市南成瀬5-12","lat":35.53622756,"lon":139.4789897},{"name":"サン町田旭体育館","province":"東京都","city":"町田市","address":"東京都町田市旭町3-20-60","lat":35.55668356,"lon":139.4470972},{"name":"市立室内プール","province":"東京都","city":"町田市","address":"東京都町田市図師町199-1","lat":35.58630764,"lon":139.4138148},{"name":"健康福祉会館","province":"東京都","city":"町田市","address":"東京都町田市原町田5-8-21","lat":35.54598961,"lon":139.4499538},{"name":"中央図書館","province":"東京都","city":"町田市","address":"東京都町田市原町田3-2-9","lat":35.54032636,"lon":139.4503274},{"name":"町田市民文学館ことばらんど","province":"東京都","city":"町田市","address":"東京都町田市原町田4-16-17","lat":35.54252644,"lon":139.4515091},{"name":"町田市民病院","province":"東京都","city":"町田市","address":"東京都町田市旭町2-15-41","lat":35.55714028,"lon":139.4384157},{"name":"町田合同庁舎","province":"東京都","city":"町田市","address":"東京都町田市森野2-28-14","lat":35.54984375,"lon":139.4415866},{"name":"町田市立相原中央公園","province":"東京都","city":"町田市","address":"東京都町田市相原町2018","lat":35.60933497,"lon":139.3196646},{"name":"小山保育園","province":"東京都","city":"町田市","address":"東京都町田市小山町954","lat":35.59302269,"lon":139.376952},{"name":"小山内裏公園","province":"東京都","city":"町田市","address":"東京都町田市小山ヶ丘4-4","lat":35.60704361,"lon":139.3680304},{"name":"町田リス園","province":"東京都","city":"町田市","address":"東京都町田市薬師台1-733-1","lat":35.57809886,"lon":139.4497414},{"name":"三沢こどもクリニック","province":"東京都","city":"町田市","address":"東京都町田市木曽西2-18-10","lat":35.56914644,"lon":139.4166011},