{"keyword":"集会","data":[{"name":"すずかけ会館","province":"東京都","city":"町田市","address":"東京都町田市南つくし野3丁目7-6","lat":35.51718439,"lon":139.4807583},{"name":"小川会館","province":"東京都","city":"町田市","address":"東京都町田市小川3丁目10-11","lat":35.5278534,"lon":139.47178855},{"name":"鶴間会館","province":"東京都","city":"町田市","address":"東京都町田市鶴間6丁目8-37","lat":35.50514179,"lon":139.47569792},{"name":"南町田会館","province":"東京都","city":"町田市","address":"東京都町田市鶴間3丁目16-1","lat":35.50882623,"lon":139.46933685},{"name":"原クラブ会館","province":"東京都","city":"町田市","address":"東京都町田市南町田1丁目9-20","lat":35.52275111,"lon":139.46758627},{"name":"成瀬が丘ふれあい会館","province":"東京都","city":"町田市","address":"東京都町田市成瀬が丘2丁目20-3","lat":35.53424709,"lon":139.47159952},{"name":"金森中央会館","province":"東京都","city":"町田市","address":"東京都町田市金森2丁目22-40","lat":35.53271582,"lon":139.4603669},{"name":"金森１丁目総合会館","province":"東京都","city":"町田市","address":"東京都町田市金森1丁目6-17","lat":35.5372789,"lon":139.45369227},{"name":"金森センターかわせみ","province":"東京都","city":"町田市","address":"東京都町田市金森3丁目36-13","lat":35.52646373,"lon":139.45921995},{"name":"高ヶ坂ふれあいセンター","province":"東京都","city":"町田市","address":"東京都町田市高ヶ坂6丁目1-20","lat":35.5420537,"lon":139.46053049},{"name":"新中町会館","province":"東京都","city":"町田市","address":"東京都町田市中町3丁目6-22","lat":35.55147169,"lon":139.44762283},{"name":"森野中央町内会館","province":"東京都","city":"町田市","address":"東京都町田市森野2丁目21-32","lat":35.54948015,"lon":139.43969026},{"name":"旭町地区会館","province":"東京都","city":"町田市","address":"東京都町田市旭町1丁目11-6","lat":35.55553513,"lon":139.43882903},{"name":"南大谷さくら会館","province":"東京都","city":"町田市","address":"東京都町田市南大谷439","lat":35.55354411,"lon":139.46028567},{"name":"今井会館","province":"東京都","city":"町田市","address":"東京都町田市本町田3220","lat":35.57262787,"lon":139.44400312},{"name":"コミニティセンター忠生","province":"東京都","city":"町田市","address":"東京都町田市忠生2丁目16-1","lat":35.57590772,"lon":139.42372989},{"name":"さかいがわ会館","province":"東京都","city":"町田市","address":"東京都町田市木曽東2丁目10-2","lat":35.56013998,"lon":139.4221721},{"name":"忠生木曽会館","province":"東京都","city":"町田市","address":"東京都町田市木曽西4丁目14-34","lat":35.56617818,"lon":139.42109427},{"name":"玉川学園さくらんぼホール","province":"東京都","city":"町田市","address":"東京都町田市玉川学園3丁目35-45","lat":35.56302635,"lon":139.4590521},{"name":"玉川学園こすもす会館","province":"東京都","city":"町田市","address":"東京都町田市東玉川学園4丁目3471-17","lat":35.55829961,"lon":139.46738785},{"name":"成瀬台ゆりの木会館","province":"東京都","city":"町田市","address":"東京都町田市成瀬台3丁目9-5","lat":35.55532891,"lon":139.4787181},{"name":"小山田会館","province":"東京都","city":"町田市","address":"東京都町田市下小山田町2600-1","lat":35.59682162,"lon":139.40859447},{"name":"坂下さくら会館","province":"東京都","city":"町田市","address":"東京都町田市相原町366-8","lat":35.60787475,"lon":139.34248017},{"name":"馬場さくら会館","province":"東京都","city":"町田市","address":"東京都町田市小山町4669","lat":35.59187424,"lon":139.38821019},{"name":"田端かたくり会館","province":"東京都","city":"町田市","address":"東京都町田市小山町3102-2","lat":35.60091724,"lon":139.36164266},{"name":"鶴川いちょう会館","province":"東京都","city":"町田市","address":"東京都町田市能ヶ谷2丁目26-8","lat":35.58757117,"lon":139.4800954},{"name":"能ヶ谷いこい会館","province":"東京都","city":"町田市","address":"東京都町田市能ヶ谷4丁目2-15","lat":35.58558015,"lon":139.48374535},{"name":"広袴会館","province":"東京都","city":"町田市","address":"東京都町田市広袴4丁目4-3","lat":35.59561424,"lon":139.47524536},{"name":"真光寺会館","province":"東京都","city":"町田市","address":"東京都町田市真光寺1丁目27-1","lat":35.60279558,"lon":139.46482328},{"name":"鶴川さるびあ会館","province":"東京都","city":"町田市","address":"東京都町田市鶴川5丁目5-12","lat":35.59425475,"lon":139.46375412},{"name":"大蔵会館","province":"東京都","city":"町田市","address":"東京都町田市大蔵町350-1","lat":35.58655295,"lon":139.46722353},{"name":"野津田公民館","province":"東京都","city":"町田市","address":"東京都町田市野津田町778-1","lat":35.588607,"lon":139.44778579},{"name":"金井クラブ","province":"東京都","city":"町田市","address":"東京都町田市金井5丁目20-3","lat":35.58043353,"lon":139.46307376}]}