{"keyword":"音響","data":[{"name":"多摩境駅北第二","province":"東京都","city":"町田市","address":"東京都町田市小山ヶ丘2丁目3","lat":35.60434457,"lon":139.37174163},{"name":"多摩境駅東入口","province":"東京都","city":"町田市","address":"東京都町田市小山ヶ丘2丁目5","lat":35.60380295,"lon":139.36942796},{"name":"多摩境駅前","province":"東京都","city":"町田市","address":"東京都町田市小山ヶ丘3丁目28","lat":35.60236145,"lon":139.36600054},{"name":"小山給水塔南","province":"東京都","city":"町田市","address":"東京都町田市小山ヶ丘4丁目5","lat":35.60429171,"lon":139.36036484},{"name":"多摩境駅西口","province":"東京都","city":"町田市","address":"東京都町田市小山ヶ丘5丁目2","lat":35.6029308,"lon":139.36432012},{"name":"小山ヶ丘町有","province":"東京都","city":"町田市","address":"東京都町田市小山ヶ丘5丁目7-1","lat":35.60249474,"lon":139.36200923},{"name":"町田馬場","province":"東京都","city":"町田市","address":"東京都町田市小山町177-3","lat":35.58924954,"lon":139.38815751},{"name":"多摩ニュータウン入口","province":"東京都","city":"町田市","address":"東京都町田市小山町3166-1","lat":35.59995627,"lon":139.36254262},{"name":"町田西郵便局前","province":"東京都","city":"町田市","address":"東京都町田市小山町3204-1","lat":35.60032567,"lon":139.36136215},{"name":"中村不動","province":"東京都","city":"町田市","address":"東京都町田市小山町704-1","lat":35.59071866,"lon":139.38379114},{"name":"坂本橋","province":"東京都","city":"町田市","address":"東京都町田市小山町2636","lat":35.59875644,"lon":139.36477302},{"name":"相原踏切西","province":"東京都","city":"町田市","address":"東京都町田市相原町1236","lat":35.60434479,"lon":139.33057865},{"name":"相原駅入口西","province":"東京都","city":"町田市","address":"東京都町田市相原町1261-31","lat":35.60419758,"lon":139.32890937},{"name":"圓林寺前","province":"東京都","city":"町田市","address":"東京都町田市相原町3729","lat":35.60797494,"lon":139.30163131},{"name":"１６号バイパス相原町","province":"東京都","city":"町田市","address":"東京都町田市相原町713","lat":35.60554462,"lon":139.33870563},{"name":"町田市立堺中学校入口","province":"東京都","city":"町田市","address":"東京都町田市相原町746","lat":35.60559739,"lon":139.33690857},{"name":"相原郵便局東","province":"東京都","city":"町田市","address":"東京都町田市相原町784","lat":35.6054002,"lon":139.33470878},{"name":"相原駅入口","province":"東京都","city":"町田市","address":"東京都町田市相原町796-12","lat":35.60440039,"lon":139.33282011},{"name":"小山中央小学校前","province":"東京都","city":"町田市","address":"東京都町田市小山ヶ丘3丁目7-1","lat":35.6020921,"lon":139.37327214},{"name":"ＪＲ町田駅横","province":"東京都","city":"町田市","address":"東京都町田市原町田6丁目6-17","lat":35.54194763,"lon":139.44704265},{"name":"忠生市民センター前","province":"東京都","city":"町田市","address":"東京都町田市忠生3丁目14-1","lat":35.5775796,"lon":139.41563336},{"name":"鶴川駅東口","province":"東京都","city":"町田市","address":"東京都町田市能ヶ谷4丁目3-7","lat":35.58494413,"lon":139.4841509},{"name":"木曽","province":"東京都","city":"町田市","address":"東京都町田市木曽東4丁目26-11","lat":35.56635043,"lon":139.42439395},{"name":"忠生第一調整池西","province":"東京都","city":"町田市","address":"東京都町田市木曽東4丁目28-29","lat":35.56772256,"lon":139.427152},{"name":"版画美術館入口","province":"東京都","city":"町田市","address":"東京都町田市原町田4丁目16-11","lat":35.54294492,"lon":139.45212277},{"name":"三塚","province":"東京都","city":"町田市","address":"東京都町田市原町田2丁目6-11","lat":35.53868708,"lon":139.45345614},{"name":"鶴川団地中央","province":"東京都","city":"町田市","address":"東京都町田市鶴川2丁目13-7","lat":35.58968335,"lon":139.46822344},{"name":"町田市立第一中学校前","province":"東京都","city":"町田市","address":"東京都町田市中町1丁目27-5","lat":35.55078284,"lon":139.44640907},{"name":"金森郵便局前","province":"東京都","city":"町田市","address":"東京都町田市金森東1丁目11-32","lat":35.53450443,"lon":139.45942525},{"name":"鶴間三丁目","province":"東京都","city":"町田市","address":"東京都町田市鶴間5丁目3-50","lat":35.50747444,"lon":139.47456728},{"name":"境川団地中央","province":"東京都","city":"町田市","address":"東京都町田市木曽東2丁目10-12","lat":35.55867073,"lon":139.42392198},{"name":"桜美林学園西","province":"東京都","city":"町田市","address":"東京都町田市常盤町3654","lat":35.58151777,"lon":139.404612},{"name":"玉川学園前駅前","province":"東京都","city":"町田市","address":"東京都町田市玉川学園2丁目20","lat":35.56350706,"lon":139.46286848},{"name":"町田市民ホール","province":"東京都","city":"町田市","address":"東京都町田市森野2丁目2-36","lat":35.54702482,"lon":139.43975979},{"name":"忠生第一小学校東","province":"東京都","city":"町田市","address":"東京都町田市忠生2丁目29","lat":35.57868235,"lon":139.42004403},{"name":"和光学園前","province":"東京都","city":"町田市","address":"東京都町田市真光寺町1338","lat":35.59720687,"lon":139.46034586},{"name":"町田市役所","province":"東京都","city":"町田市","address":"東京都町田市森野2丁目2-45","lat":35.54681096,"lon":139.4402542},{"name":"町田南農協会館前","province":"東京都","city":"町田市","address":"東京都町田市小川5丁目9-10","lat":35.52379825,"lon":139.46853061},{"name":"森野一丁目","province":"東京都","city":"町田市","address":"東京都町田市森野1丁目11-15","lat":35.54478338,"lon":139.44215687},{"name":"町田中町一丁目","province":"東京都","city":"町田市","address":"東京都町田市森野2丁目30-14","lat":35.54865246,"lon":139.44272892},{"name":"金森第一","province":"東京都","city":"町田市","address":"東京都町田市金森3丁目1","lat":35.52978296,"lon":139.46195856},{"name":"下根岸","province":"東京都","city":"町田市","address":"東京都町田市忠生3丁目14","lat":35.57753514,"lon":139.41520007},{"name":"南大谷","province":"東京都","city":"町田市","address":"東京都町田市南大谷219-26","lat":35.55517718,"lon":139.45872738},{"name":"町田郵便局前","province":"東京都","city":"町田市","address":"東京都町田市旭町3丁目2-22","lat":35.5554657,"lon":139.44482016},{"name":"小川柳谷戸","province":"東京都","city":"町田市","address":"東京都町田市つくし野2丁目37","lat":35.52512123,"lon":139.47643582},{"name":"成瀬鞍掛","province":"東京都","city":"町田市","address":"東京都町田市西成瀬1丁目51","lat":35.54322345,"lon":139.46596904},{"name":"町田一中角","province":"東京都","city":"町田市","address":"東京都町田市中町1丁目28","lat":35.54968296,"lon":139.44708127},{"name":"山崎団地センター","province":"東京都","city":"町田市","address":"東京都町田市本町田2507-7","lat":35.56682278,"lon":139.4354318},{"name":"町田南四小裏","province":"東京都","city":"町田市","address":"東京都町田市金森東3丁目5-1","lat":35.53341618,"lon":139.46589989},{"name":"鶴間公園北","province":"東京都","city":"町田市","address":"東京都町田市鶴間3丁目1","lat":35.51018964,"lon":139.46831181},{"name":"町田小川二丁目","province":"東京都","city":"町田市","address":"東京都町田市小川2丁目27-1","lat":35.53001417,"lon":139.47077745},{"name":"南町田北","province":"東京都","city":"町田市","address":"東京都町田市南町田4丁目14-35","lat":35.51395231,"lon":139.46495621},{"name":"忠生農協北","province":"東京都","city":"町田市","address":"東京都町田市忠生2丁目28-8","lat":35.57843793,"lon":139.42051623},{"name":"金森四丁目北","province":"東京都","city":"町田市","address":"東京都町田市金森4丁目2-18","lat":35.52561162,"lon":139.46582236},{"name":"町田保健所入口","province":"東京都","city":"町田市","address":"東京都町田市中町2丁目13-14","lat":35.55159942,"lon":139.44443699},{"name":"つくし野駅前","province":"東京都","city":"町田市","address":"東京都町田市つくし野1丁目22-1","lat":35.52844413,"lon":139.48440499},{"name":"成瀬駅東","province":"東京都","city":"町田市","address":"東京都町田市南成瀬5丁目1-10","lat":35.53696108,"lon":139.47457716},{"name":"町田税務署入口","province":"東京都","city":"町田市","address":"東京都町田市中町1丁目20-23","lat":35.5486636,"lon":139.44637303},{"name":"成瀬駅前","province":"東京都","city":"町田市","address":"東京都町田市南成瀬1丁目3-5","lat":35.53649414,"lon":139.47221611},{"name":"成瀬駅ガード北","province":"東京都","city":"町田市","address":"東京都町田市南成瀬5丁目1-8","lat":35.53642225,"lon":139.47461329},{"name":"成瀬駅ガード南","province":"東京都","city":"町田市","address":"東京都町田市成瀬が丘2丁目1-13","lat":35.53422792,"lon":139.47353558},{"name":"成瀬駅南","province":"東京都","city":"町田市","address":"東京都町田市成瀬が丘2丁目30-4","lat":35.53539407,"lon":139.47013291},{"name":"木曽三家","province":"東京都","city":"町田市","address":"東京都町田市木曽東4丁目21-43","lat":35.56541166,"lon":139.42524667},{"name":"鶴川三丁目東","province":"東京都","city":"町田市","address":"東京都町田市鶴川3丁目17-2","lat":35.59049975,"lon":139.46627352},{"name":"南つくし野小東","province":"東京都","city":"町田市","address":"東京都町田市南つくし野3丁目9-6","lat":35.51782566,"lon":139.47890832},{"name":"原町田境橋","province":"東京都","city":"町田市","address":"東京都町田市原町田1丁目6-23","lat":35.53973674,"lon":139.44696496},{"name":"すずかけ台駅西","province":"東京都","city":"町田市","address":"東京都町田市南つくし野3丁目2","lat":35.5164734,"lon":139.48068611},{"name":"木曽東四丁目","province":"東京都","city":"町田市","address":"東京都町田市木曽東4丁目28-19","lat":35.56753923,"lon":139.42647151},{"name":"町田駅ロータリー","province":"東京都","city":"町田市","address":"東京都町田市原町田6丁目2","lat":35.54308081,"lon":139.44485669},{"name":"鶴川駅広場前","province":"東京都","city":"町田市","address":"東京都町田市能ヶ谷1丁目6-9","lat":35.58386599,"lon":139.48138148},{"name":"成瀬駅前広場","province":"東京都","city":"町田市","address":"東京都町田市南成瀬1丁目2-1","lat":35.53615828,"lon":139.47381331},{"name":"町田バスターミナル","province":"東京都","city":"町田市","address":"東京都町田市原町田4丁目7-14","lat":35.54094225,"lon":139.44920918},{"name":"伝重寺北","province":"東京都","city":"町田市","address":"東京都町田市木曽西4丁目35-1","lat":35.56920564,"lon":139.42194689},{"name":"町田中央図書館前","province":"東京都","city":"町田市","address":"東京都町田市原町田2丁目1-1","lat":35.53988963,"lon":139.45077854},{"name":"玉川学園前","province":"東京都","city":"町田市","address":"東京都町田市玉川学園6丁目1-110","lat":35.56511247,"lon":139.46359893},{"name":"浄運寺前","province":"東京都","city":"町田市","address":"東京都町田市原町田6丁目23","lat":35.54390582,"lon":139.44905909},{"name":"南町田駅東","province":"東京都","city":"町田市","address":"東京都町田市鶴間6丁目23-8","lat":35.50315011,"lon":139.47170928},{"name":"栄通り中央","province":"東京都","city":"町田市","address":"東京都町田市森野1丁目32-12","lat":35.54787477,"lon":139.44345388},{"name":"鶴川駅","province":"東京都","city":"町田市","address":"東京都町田市能ヶ谷2丁目5-4","lat":35.58367131,"lon":139.47968429},{"name":"ＪＲ町田駅前","province":"東京都","city":"町田市","address":"東京都町田市原町田6丁目4-1","lat":35.54236979,"lon":139.446676},{"name":"原町田中央通り","province":"東京都","city":"町田市","address":"東京都町田市原町田6丁目8-1","lat":35.54301696,"lon":139.4471426},{"name":"ＪＲ町田駅前北","province":"東京都","city":"町田市","address":"東京都町田市原町田6丁目8-1","lat":35.54301696,"lon":139.4471426},{"name":"鶴川駅西口","province":"東京都","city":"町田市","address":"東京都町田市能ヶ谷2丁目4-6","lat":35.58345727,"lon":139.47859819},{"name":"南成瀬一丁目","province":"東京都","city":"町田市","address":"東京都町田市南成瀬1丁目8-1","lat":35.53716895,"lon":139.47108282},{"name":"森野新道","province":"東京都","city":"町田市","address":"東京都町田市森野1丁目30-11","lat":35.54697485,"lon":139.44197904},{"name":"桜美林大学前","province":"東京都","city":"町田市","address":"東京都町田市常盤町3758","lat":35.58053185,"lon":139.40685629},{"name":"森野二丁目","province":"東京都","city":"町田市","address":"東京都町田市森野2丁目31-17","lat":35.54805252,"lon":139.44306779},{"name":"町田市民フォーラム前","province":"東京都","city":"町田市","address":"東京都町田市原町田4丁目9-8","lat":35.54180052,"lon":139.44984799}]}