{"keyword":"食堂","data":[{"name":"にこにこ清風食堂","province":"東京都","city":"町田市","address":"東京都町田市金井6-15-1","lat":35.57641,"lon":139.46245},{"name":"みんなでごはん","province":"東京都","city":"町田市","address":"東京都町田市小川3-2-3","lat":35.525053,"lon":139.467785},{"name":"コミュニティキッチン鶴川","province":"東京都","city":"町田市","address":"東京都町田市能ヶ谷3-2-1","lat":35.584662,"lon":139.486155},{"name":"ふくちゃん食堂","province":"東京都","city":"町田市","address":"東京都町田市野津田町38-2","lat":35.584883,"lon":139.43348},{"name":"レッツごはん","province":"東京都","city":"町田市","address":"東京都町田市真光寺2-13-20","lat":35.602697,"lon":139.468947},{"name":"おむすび食堂＆冒険遊び場おむすび","province":"東京都","city":"町田市","address":"東京都町田市玉川学園6-2-16","lat":35.568379,"lon":139.46392},{"name":"キッチン南いただきます","province":"東京都","city":"町田市","address":"東京都町田市南町田1-9-20","lat":35.522782,"lon":139.467597},{"name":"めいちゃんの活き生き食堂","province":"東京都","city":"町田市","address":"東京都町田市小山町1729-1","lat":35.595145,"lon":139.381966},{"name":"きららボナペティこども食堂","province":"東京都","city":"町田市","address":"東京都町田市忠生1-5-3","lat":35.574021,"lon":139.424938},{"name":"みんなの子ども食堂さくらんぼう","province":"東京都","city":"町田市","address":"東京都町田市小山田桜台1-20","lat":35.590656,"lon":139.402832},{"name":"みんなの食堂","province":"東京都","city":"町田市","address":"東京都町田市高ヶ坂7-28-2","lat":35.539001,"lon":139.461769},{"name":"すまいるキッチン","province":"東京都","city":"町田市","address":"東京都町田市原町田4-18-3","lat":35.543317,"lon":139.450857},{"name":"こども食堂せかい","province":"東京都","city":"町田市","address":"東京都町田市小山町1149-17","lat":35.595005,"lon":139.374568},{"name":"こども・コミュニティ食堂あいはらごはん","province":"東京都","city":"町田市","address":"東京都町田市相原町547-14","lat":35.607238,"lon":139.33948},{"name":"寺子屋ごはん","province":"東京都","city":"町田市","address":"東京都町田市成瀬台2-34-12","lat":35.549972,"lon":139.480331},{"name":"しぜんの国食堂","province":"東京都","city":"町田市","address":"東京都町田市忠生2-5-3","lat":35.578024,"lon":139.424857},{"name":"SouZoo食堂","province":"東京都","city":"町田市","address":"東京都町田市小山ヶ丘1-14-1","lat":35.595422,"lon":139.389241},{"name":"東光寺いこいの広場","province":"東京都","city":"町田市","address":"東京都町田市南成瀬8-1-14","lat":35.535156,"lon":139.486718},{"name":"みんなdeごはん","province":"東京都","city":"町田市","address":"東京都町田市三輪町392","lat":35.578271,"lon":139.499809}]}