{"keyword":"館","data":[{"name":"木曽子どもクラブ","province":"東京都","city":"町田市","address":"町田市木曽東1-6-40","lat":35.557823,"lon":139.430771},{"name":"小山子どもクラブ","province":"東京都","city":"町田市","address":"町田市小山町1165-3","lat":35.595264,"lon":139.371873},{"name":"南大谷子どもクラブ","province":"東京都","city":"町田市","address":"町田市南大谷264","lat":35.55298,"lon":139.45758},{"name":"子どもセンター　ただＯＮ","province":"東京都","city":"町田市","address":"町田市忠生1-11-1","lat":35.57411,"lon":139.42217},{"name":"小山子どもクラブ","province":"東京都","city":"町田市","address":"町田市小山町1165-3","lat":35.59565,"lon":139.37705},{"name":"小山子どもクラブ","province":"東京都","city":"町田市","address":"町田市小山町1165-3","lat":35.58764,"lon":139.39058},{"name":"＊?町田市立金森図書館","province":"東京都","city":"町田市","address":"町田市金森東3-5-1","lat":35.533448,"lon":139.465968},{"name":"＊?町田市立さるびあ図書館","province":"東京都","city":"町田市","address":"町田市中町2-13-23","lat":35.551439,"lon":139.444204},{"name":"＊?町田市立中央図書館","province":"東京都","city":"町田市","address":"町田市原町田3-2-9","lat":35.540451,"lon":139.450363},{"name":"＊?町田市立鶴川図書館","province":"東京都","city":"町田市","address":"町田市鶴川6-7-2-1-101","lat":35.590544,"lon":139.469124},{"name":"＊?町田市立堺図書館","province":"東京都","city":"町田市","address":"町田市相原町795-1","lat":35.604272,"lon":139.333395},{"name":"＊?町田市立木曽山崎図書館","province":"東京都","city":"町田市","address":"町田市山崎町2160","lat":35.569874,"lon":139.435136},{"name":"＊?町田市立鶴川駅前図書館","province":"東京都","city":"町田市","address":"町田市能ヶ谷1-2-1和光大学ポプリホール鶴川2階","lat":35.582856,"lon":139.478917},{"name":"＊?忠生図書館","province":"東京都","city":"町田市","address":"町田市忠生3-14-2","lat":35.578447,"lon":139.416018}]}