{"keyword":"男女","data":[{"name":"品川荘","province":"静岡県","city":"伊東市","address":"静岡県伊東市広野1丁目3-17","lat":34.96279801,"lon":139.09145618},{"name":"伊東温泉品川荘","province":"静岡県","city":"伊東市","address":"静岡県伊東市広野1-3-17","lat":34.9627869,"lon":139.0914617},{"name":"伊豆高原荘","province":"静岡県","city":"伊東市","address":"静岡県伊東市八幡野1033-37","lat":34.88064472,"lon":139.1240853},{"name":"品川荘","province":"静岡県","city":"伊東市","address":"静岡県伊東市広野1丁目3-17","lat":34.96279801,"lon":139.09145618},{"name":"伊豆高原荘","province":"静岡県","city":"伊東市","address":"静岡県伊東市八幡野1033-37","lat":34.88064472,"lon":139.1240853},{"name":"品川荘","province":"静岡県","city":"伊東市","address":"静岡県伊東市広野1丁目3-17","lat":34.96279801,"lon":139.09145618},{"name":"伊豆高原荘","province":"静岡県","city":"伊東市","address":"静岡県伊東市八幡野1033-37","lat":34.88064472,"lon":139.1240853},{"name":"品川荘","province":"静岡県","city":"伊東市","address":"静岡県伊東市広野1丁目3-17","lat":34.96279801,"lon":139.09145618},{"name":"伊豆高原荘","province":"静岡県","city":"伊東市","address":"静岡県伊東市八幡野1033-37","lat":34.88064472,"lon":139.1240853},{"name":"品川荘","province":"静岡県","city":"伊東市","address":"静岡県伊東市広野1丁目3-17","lat":34.96279801,"lon":139.09145618},{"name":"伊豆高原荘","province":"静岡県","city":"伊東市","address":"静岡県伊東市八幡野1033-37","lat":34.88064472,"lon":139.1240853},{"name":"伊豆高原荘","province":"静岡県","city":"伊東市","address":"静岡県伊東市八幡野1033-37","lat":34.88064472,"lon":139.1240853},{"name":"伊豆高原荘","province":"静岡県","city":"伊東市","address":"静岡県伊東市八幡野1033-37","lat":34.88064472,"lon":139.1240853},{"name":"伊豆高原荘","province":"静岡県","city":"伊東市","address":"静岡県伊東市八幡野1033-37","lat":34.88064472,"lon":139.1240853},{"name":"伊豆高原荘","province":"静岡県","city":"伊東市","address":"静岡県伊東市八幡野1033-37","lat":34.88064472,"lon":139.1240853},{"name":"伊豆高原荘","province":"静岡県","city":"伊東市","address":"静岡県伊東市八幡野1033-37","lat":34.88064472,"lon":139.1240853}]}