{"keyword":"青少年","data":[{"name":"春日町青少年館","province":"東京都","city":"練馬区","address":"練馬区春日町4-16-9","lat":35.75254484,"lon":139.6391099},{"name":"南大泉青少年館","province":"東京都","city":"練馬区","address":"練馬区南大泉1-44-7","lat":35.74323972,"lon":139.574769},{"name":"(一社)ガールスカウト東京都連盟","province":"東京都","city":"新宿区","address":"東京都新宿区高田馬場4丁目4-18","lat":35.7126211,"lon":139.7014068},{"name":"ＳＹＤ青年部((公財)修養団)","province":"東京都","city":"渋谷区","address":"東京都渋谷区千駄ヶ谷4丁目25-2","lat":35.68103588,"lon":139.70502994},{"name":"主婦連合会","province":"東京都","city":"千代田区","address":"東京都千代田区六番町15","lat":35.68600539,"lon":139.73184959},{"name":"(特定非営利活動法人)東京少年少女センター","province":"東京都","city":"渋谷区","address":"東京都渋谷区代々木2丁目44-11","lat":35.68292713,"lon":139.69662785},{"name":"(特定非営利活動法人)全日本鼓笛バンド・フォームバトン連盟","province":"東京都","city":"武蔵野市","address":"東京都武蔵野市吉祥寺東町1丁目23-33","lat":35.7077796,"lon":139.58605557},{"name":"（公社）「小さな親切」運動本部","province":"東京都","city":"千代田区","address":"東京都千代田区神田三崎町2丁目20-4","lat":35.7016681,"lon":139.75315826},{"name":"（一社）東京工業団体連合会","province":"東京都","city":"中央区","address":"東京都中央区銀座2丁目10-18","lat":35.67279666,"lon":139.76867751},{"name":"東京更生保護女性連盟","province":"東京都","city":"千代田区","address":"東京都千代田区霞が関1丁目1-1","lat":35.67596261,"lon":139.75455081},{"name":"東京消防少年団連盟","province":"東京都","city":"千代田区","address":"東京都千代田区大手町1丁目3-5","lat":35.68855311,"lon":139.76171649},{"name":"東京私立初等学校協会","province":"東京都","city":"千代田区","address":"東京都千代田区九段北4丁目2-25","lat":35.69190767,"lon":139.73758774},{"name":"東京都私立幼稚園連合会","province":"東京都","city":"千代田区","address":"東京都千代田区九段北4丁目2-25","lat":35.69190767,"lon":139.73758774},{"name":"（公社）東京青年会議所","province":"東京都","city":"千代田区","address":"東京都千代田区平河町2丁目14-3","lat":35.68015905,"lon":139.74151564},{"name":"東京都公立高等学校ＰＴＡ連合会","province":"東京都","city":"杉並区","address":"東京都杉並区南荻窪4丁目29-10","lat":35.70262263,"lon":139.61618671},{"name":"東京都公立中学校ＰＴＡ協議会","province":"東京都","city":"荒川区","address":"東京都荒川区西日暮里1丁目5-2","lat":35.73371345,"lon":139.77830316},{"name":"(特定非営利活動法人)東京都子ども会連合会","province":"東京都","city":"文京区","address":"東京都文京区大塚6丁目1-14","lat":35.7254565,"lon":139.72843453},{"name":"（社福）東京都社会福祉協議会","province":"東京都","city":"新宿区","address":"東京都新宿区神楽河岸1-1","lat":35.70095405,"lon":139.74357574},{"name":"（一社）東京都小学校ＰＴＡ協議会","province":"東京都","city":"港区","address":"東京都港区東新橋2丁目2-10","lat":35.66327521,"lon":139.75799267},{"name":"（公社）東京のあすを創る協会","province":"東京都","city":"中央区","address":"東京都中央区八重洲2丁目11-7","lat":35.67560743,"lon":139.76750252},{"name":"東京都青年国際交流機構(東京都ＩＹＥＯ)","province":"東京都","city":"中央区","address":"東京都中央区日本橋人形町2丁目35-14","lat":35.68502368,"lon":139.7864602},{"name":"東京都青年団体連合","province":"東京都","city":"港区","address":"東京都港区赤坂1丁目1-14","lat":35.67085458,"lon":139.74415189},{"name":"（公財）東京都体育協会","province":"東京都","city":"渋谷区","address":"東京都渋谷区神南1丁目1-1","lat":35.66618747,"lon":139.70106977},{"name":"（公財）東京都体育協会東京都スポーツ少年団","province":"東京都","city":"渋谷区","address":"東京都渋谷区神南1丁目1-1","lat":35.66618747,"lon":139.70106977},{"name":"(特定非営利活動法人)東京都地域婦人団体連盟","province":"東京都","city":"渋谷区","address":"東京都渋谷区渋谷1丁目17-14","lat":35.66111586,"lon":139.70322257},{"name":"東京都民生児童委員連合会","province":"東京都","city":"新宿区","address":"東京都新宿区神楽河岸1-1","lat":35.70095405,"lon":139.74357574},{"name":"（一財）東京都ユースホステル協会","province":"東京都","city":"台東区","address":"東京都台東区柳橋2丁目21-4","lat":35.69911658,"lon":139.78933458},{"name":"（一社）東京母の会連合会","province":"東京都","city":"千代田区","address":"東京都千代田区丸の内3丁目8-1","lat":35.67635175,"lon":139.76564432},{"name":"（公財）東京ＹＭＣＡ","province":"東京都","city":"新宿区","address":"東京都新宿区西早稲田2丁目3-18","lat":35.70800259,"lon":139.71663343},{"name":"（公財）東京ＹＷＣＡ","province":"東京都","city":"千代田区","address":"東京都千代田区神田駿河台1丁目8-11","lat":35.69789379,"lon":139.76288553},{"name":"東京都保護司会連合会","province":"東京都","city":"千代田区","address":"東京都千代田区霞が関1丁目1-1","lat":35.67596261,"lon":139.75455081},{"name":"(一財)日本青年館","province":"東京都","city":"新宿区","address":"東京都新宿区霞ヶ丘町4-1","lat":35.67426467,"lon":139.71549317},{"name":"日本赤十字社東京都支部","province":"東京都","city":"新宿区","address":"東京都新宿区大久保1丁目2-15","lat":35.69949496,"lon":139.70744845},{"name":"(一社)日本善行会","province":"東京都","city":"千代田区","address":"東京都千代田区有楽町2丁目10-1","lat":35.67498242,"lon":139.76429726},{"name":"（公財）日本体育施設協会","province":"東京都","city":"豊島区","address":"東京都豊島区巣鴨2丁目7-14","lat":35.73505011,"lon":139.73964986},{"name":"日本ボーイスカウト東京連盟","province":"東京都","city":"杉並区","address":"東京都杉並区下井草4丁目4-3","lat":35.71935694,"lon":139.61846078},{"name":"(一社)倫理研究所","province":"東京都","city":"千代田区","address":"東京都千代田区紀尾井町4-5","lat":35.68183648,"lon":139.73468284},{"name":"（公財）交通道徳協会","province":"東京都","city":"千代田区","address":"東京都千代田区丸の内3丁目4-1","lat":35.67662663,"lon":139.76219459},{"name":"（公社）青少年交友協会","province":"東京都","city":"豊島区","address":"東京都豊島区池袋3丁目30-22","lat":35.73543531,"lon":139.70510277},{"name":"(公財)全国青少年教化協議会","province":"東京都","city":"中央区","address":"東京都中央区築地3丁目7-5","lat":35.66768902,"lon":139.77355509},{"name":"東京交通少年団","province":"東京都","city":"千代田区","address":"東京都千代田区霞が関2丁目1-1","lat":35.67684578,"lon":139.75210376},{"name":"（一財）東京私立中学高等学校協会","province":"東京都","city":"千代田区","address":"東京都千代田区九段北4丁目2-25","lat":35.69190767,"lon":139.73758774},{"name":"青少年ペンフレンドクラブ","province":"東京都","city":"千代田区","address":"東京都千代田区大手町2丁目3-1","lat":35.686784,"lon":139.76716063},{"name":"東京都ＢＢＳ連盟","province":"東京都","city":"千代田区","address":"東京都千代田区霞が関1丁目1-1","lat":35.67596261,"lon":139.75455081},{"name":"東京都青少年委員会連合会","province":"東京都","city":"目黒区","address":"東京都目黒区碑文谷6丁目7-19","lat":35.6273026,"lon":139.68367812},{"name":"日本青年団協議会","province":"東京都","city":"新宿区","address":"東京都新宿区霞ヶ丘町4-1","lat":35.67426467,"lon":139.71549317},{"name":"日本都市青年会議","province":"大阪府","city":"大阪市城東区","address":"大阪府大阪市城東区成育1丁目2-3","lat":34.70578654,"lon":135.54156456},{"name":"(一財)根っこの家・若い根っこの会","province":"埼玉県","city":"川越市","address":"埼玉県川越市元町2丁目8-17","lat":35.92585302,"lon":139.48087908},{"name":"（公財）ハーモニィセンター","province":"東京都","city":"渋谷区","address":"東京都渋谷区代々木神園町3-1","lat":35.67505296,"lon":139.69382284},{"name":"東京善意銀行友の会","province":"東京都","city":"千代田区","address":"東京都千代田区神田駿河台1丁目8-11","lat":35.69789379,"lon":139.76288553},{"name":"（特定非営利活動法人）日本ガーディアン・エンジェルス","province":"東京都","city":"中央区","address":"東京都中央区新川1丁目29-13","lat":35.67598566,"lon":139.78516219},{"name":"東京都商店街振興組合連合会","province":"東京都","city":"中央区","address":"東京都中央区銀座2丁目10-18","lat":35.67279666,"lon":139.76867751},{"name":"（一財）インターネット協会","province":"東京都","city":"文京区","address":"東京都文京区湯島2丁目21-1","lat":35.7051709,"lon":139.76638504},{"name":"東京都教育相談センター","province":"東京都","city":"新宿区","address":"新宿区北新宿4-6-1(東京都子供家庭総合センター4階)","lat":35.70498851,"lon":139.6969975},{"name":"東京都特別支援教育推進室","province":"東京都","city":"新宿区","address":"新宿区赤城元町1-3教育庁神楽坂庁舎内","lat":35.70108594,"lon":139.7395781},{"name":"独立行政法人日本学生支援機構　留学情報課","province":"東京都","city":"江東区","address":"江東区青海2-2-1","lat":35.61784436,"lon":139.7791032},{"name":"一般財団法人青少年国際交流推進センター","province":"東京都","city":"中央区","address":"中央区日本橋人形町2-35-14東京海苔会館6階","lat":35.68178843,"lon":139.7897102},{"name":"＊文京区青少年プラザ（b-lab）","province":"東京都","city":"文京区","address":"文京区湯島4-7-1","lat":35.708876,"lon":139.76564},{"name":"＊?台東区立少年自然の家霧が峰学園","province":"長野県","city":"諏訪市","address":"長野県諏訪市大字上諏訪字角間沢東13338-100","lat":36.100603,"lon":138.16458},{"name":"＊?わんぱく天国","province":"東京都","city":"墨田区","address":"墨田区押上1-47-8","lat":35.709276,"lon":139.817571},{"name":"＊?江東区青少年センター","province":"東京都","city":"江東区","address":"江東区亀戸7-41-16","lat":35.696754,"lon":139.837383},{"name":"＊?青少年プラザ","province":"東京都","city":"目黒区","address":"目黒区中目黒2-10-13","lat":35.6404,"lon":139.703088},{"name":"＊?大田区青少年交流センター（ゆいっつ）","province":"東京都","city":"大田区","address":"大田区平和島4-2-15","lat":35.583607,"lon":139.743062},{"name":"＊?青少年交流センター??池之上青少年会館","province":"東京都","city":"世田谷区","address":"世田谷区代沢2-37-18","lat":35.659385,"lon":139.673369},{"name":"＊?野毛青少年交流センター","province":"東京都","city":"世田谷区","address":"世田谷区野毛2-15-19","lat":35.603237,"lon":139.641674},{"name":"＊?アクティブ峰の原（峰の原青少年山の家）","province":"長野県","city":"須坂市","address":"須坂市大字仁礼字峰の原3153-539","lat":36.551252,"lon":138.358714},{"name":"＊?初台青年館","province":"東京都","city":"渋谷区","address":"渋谷区初台1ー33ー10","lat":35.679626,"lon":139.684877},{"name":"＊?新島青少年センター","province":"東京都","city":"新島村","address":"東京都新島村字瀬戸山","lat":34.363339,"lon":139.249216},{"name":"＊?清里高原少年自然の家","province":"山梨県","city":"北杜市","address":"山梨県北杜市高根町清里3545-5","lat":35.920634,"lon":138.442503},{"name":"＊?少年自然の家八ヶ岳荘","province":"長野県","city":"諏訪郡富士見町","address":"長野県諏訪郡富士見町立沢字広原1-1322","lat":35.954749,"lon":138.289235},{"name":"＊?春日町青少年館","province":"東京都","city":"練馬区","address":"練馬区春日町4-16-9","lat":35.752567,"lon":139.639232},{"name":"＊?南大泉青少年館","province":"東京都","city":"練馬区","address":"練馬区南大泉1-44-7","lat":35.743367,"lon":139.574898},{"name":"＊?軽井沢少年自然の家（ベルデ軽井沢）","province":"長野県","city":"北佐久郡軽井沢町","address":"長野県北佐久郡軽井沢町大字追分1341-1","lat":36.352078,"lon":138.549069},{"name":"＊?武石少年自然の家（ベルデ武石）","province":"長野県","city":"上田市","address":"長野県上田市武石上本入2469","lat":36.26771,"lon":138.140157},{"name":"＊?岩井少年自然の家（ベルデ岩井）","province":"千葉県","city":"南房総市","address":"千葉県南房総市久枝837","lat":35.099341,"lon":139.83991},{"name":"＊?下田少年自然の家（ベルデ下田）","province":"静岡県","city":"下田市","address":"静岡県下田市須崎73","lat":34.667198,"lon":138.971429},{"name":"＊?こども未来創造館","province":"東京都","city":"足立区","address":"足立区栗原1-3-1","lat":35.779785,"lon":139.790513},{"name":"＊?葛飾区子ども動物広場（ポニースクールかつしか）","province":"東京都","city":"葛飾区","address":"葛飾区水元1-19","lat":35.782023,"lon":139.856565},{"name":"＊?八王子市姫木平自然の家","province":"長野県","city":"小県郡長和町","address":"長野県小県郡長和町大門3515-29","lat":36.124226,"lon":138.233835},{"name":"＊?青少年交流センター","province":"東京都","city":"昭島市","address":"昭島市昭和町1-6-11","lat":35.710986,"lon":139.365562},{"name":"＊?調布市青少年交流館","province":"東京都","city":"調布市","address":"調布市飛田給1-52-1","lat":35.66117,"lon":139.525603},{"name":"＊?調布市八ヶ岳少年自然の家","province":"山梨県","city":"北杜市","address":"山梨県北杜市高根町清里3545-1","lat":35.940648,"lon":138.441172},{"name":"＊?町田市青少年施設｢ひなた村｣","province":"東京都","city":"町田市","address":"町田市本町田2863","lat":35.567766,"lon":139.445398},{"name":"＊?大地沢青少年センター","province":"東京都","city":"町田市","address":"町田市相原町5307-2","lat":35.612276,"lon":139.276564},{"name":"＊?小金井市立清里少年自然の家","province":"山梨県","city":"北杜市","address":"山梨県北杜市高根町清里字念場原3545-1","lat":35.939413,"lon":138.443365},{"name":"＊?多摩市立八ヶ岳少年自然の家","province":"長野県","city":"諏訪郡富士見町","address":"長野県諏訪郡富士見町立沢字広原1-1205","lat":35.949511,"lon":138.290437},{"name":"＊?羽村市自然休暇村八ヶ岳少年自然の家","province":"山梨県","city":"北杜市","address":"山梨県北杜市高根町清里3545-3877","lat":35.929175,"lon":138.429847},{"name":"＊??三宅村青年館","province":"東京都","city":"三宅村","address":"三宅村阿古700-4","lat":34.064638,"lon":139.482452},{"name":"独立行政法人日本学生支援機構　留学生事業部留学情報課","province":"東京都","city":"江東区","address":"江東区青海2-2-1青海事務所","lat":35.61784436,"lon":139.7791032}]}