{"keyword":"避難","data":[{"name":"第一小学校","province":"東京都","city":"調布市","address":"東京都調布市小島町1丁目8-1","lat":35.65514867,"lon":139.54352795},{"name":"第二小学校","province":"東京都","city":"調布市","address":"東京都調布市国領町4丁目19-1","lat":35.6463948,"lon":139.5564442},{"name":"第三小学校","province":"東京都","city":"調布市","address":"東京都調布市上石原2丁目19-13","lat":35.65473491,"lon":139.52783806},{"name":"八雲台小学校","province":"東京都","city":"調布市","address":"東京都調布市八雲台1丁目1-1","lat":35.65414334,"lon":139.5525688},{"name":"富士見台小学校","province":"東京都","city":"調布市","address":"東京都調布市小島町3丁目20-1","lat":35.64803625,"lon":139.53731278},{"name":"滝坂小学校","province":"東京都","city":"調布市","address":"東京都調布市東つつじケ丘1丁目4-1","lat":35.65943768,"lon":139.57669151},{"name":"深大寺小学校","province":"東京都","city":"調布市","address":"東京都調布市深大寺元町5丁目16-21","lat":35.66692511,"lon":139.55280439},{"name":"上ノ原小学校","province":"東京都","city":"調布市","address":"東京都調布市柴崎2丁目26-1","lat":35.66351466,"lon":139.56345083},{"name":"石原小学校","province":"東京都","city":"調布市","address":"東京都調布市富士見町1丁目37-1","lat":35.66061184,"lon":139.53842826},{"name":"若葉小学校","province":"東京都","city":"調布市","address":"東京都調布市若葉町3丁目17-5","lat":35.65534106,"lon":139.58297995},{"name":"緑ヶ丘小学校","province":"東京都","city":"調布市","address":"東京都調布市緑ケ丘2丁目16-1","lat":35.66996995,"lon":139.58474318},{"name":"染地小学校","province":"東京都","city":"調布市","address":"東京都調布市染地3丁目1-81","lat":35.64213444,"lon":139.56039141},{"name":"北ノ台小学校","province":"東京都","city":"調布市","address":"東京都調布市深大寺北町2丁目41-1","lat":35.67543247,"lon":139.55284301},{"name":"多摩川小学校","province":"東京都","city":"調布市","address":"東京都調布市多摩川3丁目21-1","lat":35.6470059,"lon":139.53246896},{"name":"杉森小学校","province":"東京都","city":"調布市","address":"東京都調布市染地2丁目25-4","lat":35.64201793,"lon":139.55487267},{"name":"飛田給小学校","province":"東京都","city":"調布市","address":"東京都調布市飛田給3丁目29-1","lat":35.65464318,"lon":139.52304406},{"name":"柏野小学校","province":"東京都","city":"調布市","address":"東京都調布市深大寺南町1丁目1-1","lat":35.66051206,"lon":139.55587103},{"name":"国領小学校","province":"東京都","city":"調布市","address":"東京都調布市国領町8丁目1-55","lat":35.64866387,"lon":139.56351548},{"name":"布田小学校","province":"東京都","city":"調布市","address":"東京都調布市染地1丁目1-85","lat":35.64330667,"lon":139.54542083},{"name":"調和小学校","province":"東京都","city":"調布市","address":"東京都調布市西つつじケ丘4丁目22-6","lat":35.6517774,"lon":139.57354484},{"name":"調布中学校","province":"東京都","city":"調布市","address":"東京都調布市富士見町4丁目17-1","lat":35.66535009,"lon":139.53516172},{"name":"神代中学校","province":"東京都","city":"調布市","address":"東京都調布市佐須町5丁目26-1","lat":35.66162316,"lon":139.5616816},{"name":"第三中学校","province":"東京都","city":"調布市","address":"東京都調布市染地3丁目2-7","lat":35.6414069,"lon":139.55643366},{"name":"第四中学校","province":"東京都","city":"調布市","address":"東京都調布市若葉町3丁目15-1","lat":35.65392455,"lon":139.58283002},{"name":"第五中学校","province":"東京都","city":"調布市","address":"東京都調布市上石原3丁目27-1","lat":35.6522742,"lon":139.5253996},{"name":"第六中学校","province":"東京都","city":"調布市","address":"東京都調布市国領町3丁目8-23","lat":35.65028305,"lon":139.56102951},{"name":"第七中学校","province":"東京都","city":"調布市","address":"東京都調布市八雲台2丁目16-1","lat":35.65411023,"lon":139.56001545},{"name":"第八中学校","province":"東京都","city":"調布市","address":"東京都調布市仙川町2丁目15-2","lat":35.66445108,"lon":139.58169365},{"name":"大町スポ-ツ施設","province":"東京都","city":"調布市","address":"東京都調布市菊野台3丁目27-40","lat":35.65252451,"lon":139.5724838},{"name":"都立神代高等学校","province":"東京都","city":"調布市","address":"東京都調布市若葉町1丁目46","lat":35.6567243,"lon":139.58601575},{"name":"都立調布北高等学校","province":"東京都","city":"調布市","address":"東京都調布市深大寺北町5丁目39-1","lat":35.67999023,"lon":139.54936542},{"name":"都立調布南高等学校","province":"東京都","city":"調布市","address":"東京都調布市多摩川6丁目2-1","lat":35.64401209,"lon":139.53953247},{"name":"金子地域福祉センター","province":"東京都","city":"調布市","address":"東京都調布市西つつじケ丘4丁目43-3","lat":35.65099983,"lon":139.57897493},{"name":"西部地域福祉センター","province":"東京都","city":"調布市","address":"東京都調布市上石原2丁目15-6","lat":35.65561806,"lon":139.52528822},{"name":"調布ケ丘地域福祉センター","province":"東京都","city":"調布市","address":"東京都調布市調布ケ丘3丁目58-2","lat":35.65984534,"lon":139.55029097},{"name":"染地地域福祉センター","province":"東京都","city":"調布市","address":"東京都調布市染地3丁目3-1","lat":35.6398517,"lon":139.55539232},{"name":"緑ケ丘地域福祉センター","province":"東京都","city":"調布市","address":"東京都調布市緑ケ丘2丁目18-49","lat":35.66934778,"lon":139.58393216},{"name":"菊野台地域福祉センター","province":"東京都","city":"調布市","address":"東京都調布市菊野台1丁目38-1","lat":35.6575349,"lon":139.56605641},{"name":"富士見地域福祉センター","province":"東京都","city":"調布市","address":"東京都調布市富士見町4丁目15-6","lat":35.66394193,"lon":139.53463406},{"name":"下石原地域福祉センター","province":"東京都","city":"調布市","address":"東京都調布市下石原3丁目72-1","lat":35.64757805,"lon":139.53469647},{"name":"入間地域福祉センター","province":"東京都","city":"調布市","address":"東京都調布市入間町1丁目13-2","lat":35.65381911,"lon":139.58733797},{"name":"深大寺地域福祉センター","province":"東京都","city":"調布市","address":"東京都調布市深大寺北町2丁目40-1","lat":35.67473531,"lon":139.55157926},{"name":"六義園","province":"東京都","city":"文京区","address":"東京都文京区本駒込6丁目16-3","lat":35.7323312,"lon":139.74696603},{"name":"東京大学","province":"東京都","city":"文京区","address":"東京都文京区本郷7丁目","lat":35.71343101,"lon":139.76231265},{"name":"後楽園一帯","province":"東京都","city":"文京区","address":"東京都文京区春日1丁目","lat":35.70791725,"lon":139.74644188},{"name":"お茶の水女子大学一帯・教育の森公園一帯","province":"東京都","city":"文京区","address":"東京都文京区大塚2丁目","lat":35.72012384,"lon":139.7304068},{"name":"護国寺一帯","province":"東京都","city":"文京区","address":"東京都文京区大塚5丁目","lat":35.72432056,"lon":139.72975112},{"name":"小石川植物園","province":"東京都","city":"文京区","address":"東京都文京区白山3丁目7-1","lat":35.71847994,"lon":139.74435284},{"name":"目白台運動公園付近一帯","province":"東京都","city":"文京区","address":"東京都文京区関口2丁目","lat":35.71124979,"lon":139.72915442},{"name":"礫川小学校","province":"東京都","city":"文京区","address":"文京区小石川2丁目13番2号","lat":35.710834,"lon":139.747575},{"name":"柳町小学校","province":"東京都","city":"文京区","address":"文京区小石川1丁目23番16号","lat":35.714459,"lon":139.750138},{"name":"指ケ谷小学校","province":"東京都","city":"文京区","address":"文京区白山2丁目28番4号","lat":35.717306,"lon":139.750767},{"name":"林町小学校","province":"東京都","city":"文京区","address":"文京区千石2丁目36番3号","lat":35.724322,"lon":139.742248},{"name":"明化小学校","province":"東京都","city":"文京区","address":"文京区千石1丁目13番9号","lat":35.724833,"lon":139.744881},{"name":"青柳小学校","province":"東京都","city":"文京区","address":"文京区大塚5丁目40番18号","lat":35.720417,"lon":139.725097},{"name":"関口台町小学校","province":"東京都","city":"文京区","address":"文京区関口2丁目6番1号","lat":35.711867,"lon":139.726757},{"name":"小日向台町小学校","province":"東京都","city":"文京区","address":"文京区小日向2丁目3番8号","lat":35.713213,"lon":139.735631},{"name":"金富小学校","province":"東京都","city":"文京区","address":"文京区春日2丁目6番15号","lat":35.710831,"lon":139.741619},{"name":"窪町小学校","province":"東京都","city":"文京区","address":"文京区大塚3丁目2番3号","lat":35.718877,"lon":139.735629},{"name":"大塚小学校","province":"東京都","city":"文京区","address":"文京区大塚4丁目1番7号","lat":35.723729,"lon":139.73638},{"name":"湯島小学校","province":"東京都","city":"文京区","address":"文京区湯島2丁目28番14号","lat":35.706572,"lon":139.766568},{"name":"誠之小学校","province":"東京都","city":"文京区","address":"文京区西片2丁目14番6号","lat":35.717943,"lon":139.754029},{"name":"根津小学校","province":"東京都","city":"文京区","address":"文京区根津1丁目14番3号","lat":35.718439,"lon":139.763222},{"name":"千駄木小学校","province":"東京都","city":"文京区","address":"文京区千駄木5丁目44番2号","lat":35.72914,"lon":139.758951},{"name":"汐見小学校","province":"東京都","city":"文京区","address":"文京区千駄木2丁目19番23号","lat":35.723733,"lon":139.760914},{"name":"昭和小学校","province":"東京都","city":"文京区","address":"文京区本駒込2丁目28番31号","lat":35.731554,"lon":139.749485},{"name":"駒本小学校","province":"東京都","city":"文京区","address":"文京区向丘2丁目37番5号","lat":35.724618,"lon":139.754577},{"name":"駕籠町小学校","province":"東京都","city":"文京区","address":"文京区本駒込2丁目29番6号","lat":35.728362,"lon":139.7458},{"name":"本郷小学校","province":"東京都","city":"文京区","address":"文京区本郷4丁目5番15号","lat":35.708093,"lon":139.758136},{"name":"旧元町小学校","province":"東京都","city":"文京区","address":"文京区本郷1丁目1番19号","lat":35.703038,"lon":139.757922},{"name":"第一中学校","province":"東京都","city":"文京区","address":"文京区小石川5丁目8番9号","lat":35.718013,"lon":139.738682},{"name":"第三中学校","province":"東京都","city":"文京区","address":"文京区春日1丁目9番31号","lat":35.709151,"lon":139.746671},{"name":"第六中学校","province":"東京都","city":"文京区","address":"文京区向丘1丁目2番2号","lat":35.717074,"lon":139.757726},{"name":"第八中学校","province":"東京都","city":"文京区","address":"文京区千駄木2丁目19番22号","lat":35.724322,"lon":139.761015},{"name":"第九中学校","province":"東京都","city":"文京区","address":"文京区本駒込3丁目28番9号","lat":35.729654,"lon":139.75278},{"name":"第十中学校","province":"東京都","city":"文京区","address":"文京区千石2丁目40番17号","lat":35.723516,"lon":139.742538},{"name":"文林中学校","province":"東京都","city":"文京区","address":"文京区千駄木5丁目25番10号","lat":35.728052,"lon":139.758572},{"name":"茗台中学校","province":"東京都","city":"文京区","address":"文京区春日2丁目9番5号","lat":35.713539,"lon":139.741205},{"name":"本郷台中学校","province":"東京都","city":"文京区","address":"文京区本郷2丁目38番23号","lat":35.706951,"lon":139.758938},{"name":"音羽中学校","province":"東京都","city":"文京区","address":"文京区大塚1丁目9番24号","lat":35.717217,"lon":139.73279},{"name":"文京江戸川橋体育館","province":"東京都","city":"文京区","address":"文京区小日向1丁目7番4号","lat":35.710603,"lon":139.73546},{"name":"教育センター","province":"東京都","city":"文京区","address":"文京区湯島4丁目7番10号","lat":35.708987,"lon":139.76575},{"name":"国立大学法人東京大学大学院農学生命科学研究科附属生態調和農学機構","province":"東京都","city":"西東京市","address":"東京都西東京市緑町1-1-1","lat":35.73263,"lon":139.540431},{"name":"国立大学法人東京大学大学院農学生命科学研究科附属田無演習林","province":"東京都","city":"西東京市","address":"東京都西東京市緑町1-1-8","lat":35.734344,"lon":139.539112},{"name":"芝久保調節池","province":"東京都","city":"西東京市","address":"東京都西東京市芝久保町1-18","lat":35.722936,"lon":139.524652},{"name":"向台調節池","province":"東京都","city":"西東京市","address":"東京都西東京市向台町5-4","lat":35.721136,"lon":139.52995},{"name":"都立小金井公園","province":"東京都","city":"西東京市","address":"東京都西東京市向台町6-4","lat":35.718332,"lon":139.524885},{"name":"都立東伏見公園","province":"東京都","city":"西東京市","address":"東京都西東京市東伏見1","lat":35.728449,"lon":139.559241},{"name":"早稲田大学東伏見キャンパス東伏見総合グラウンド","province":"東京都","city":"西東京市","address":"東京都西東京市東伏見2-7","lat":35.726844,"lon":139.561656},{"name":"MUFG PARK","province":"東京都","city":"西東京市","address":"東京都西東京市柳沢4-4","lat":35.718337,"lon":139.550842},{"name":"ひばりが丘総合運動場","province":"東京都","city":"西東京市","address":"東京都西東京市ひばりが丘3-1","lat":35.744816,"lon":139.53778},{"name":"岩倉高等学校総合運動場","province":"東京都","city":"西東京市","address":"東京都西東京市新町2-3-27","lat":35.713993,"lon":139.542077},{"name":"中原小学校","province":"東京都","city":"西東京市","address":"東京都西東京市ひばりが丘2-6-25","lat":35.746895,"lon":139.537761},{"name":"東京都立田無高等学校","province":"東京都","city":"西東京市","address":"東京都西東京市向台町5-4-34","lat":35.720209,"lon":139.529025},{"name":"東京都立保谷高等学校","province":"東京都","city":"西東京市","address":"東京都西東京市住吉町5-8-23","lat":35.745801,"lon":139.555429},{"name":"東京都立田無工業高等学校","province":"東京都","city":"西東京市","address":"東京都西東京市向台町1-9-1","lat":35.720514,"lon":139.548591},{"name":"学校法人武蔵野大学","province":"東京都","city":"西東京市","address":"東京都西東京市新町1-1-20","lat":35.716752,"lon":139.548918},{"name":"学校法人日本文華学園","province":"東京都","city":"西東京市","address":"東京都西東京市西原町4-5-85","lat":35.738298,"lon":139.53024},{"name":"特別養護老人ホーム 救世軍恵泉ホーム","province":"東京都","city":"清瀬市","address":"東京都清瀬市竹丘1-17-61","lat":35.769635,"lon":139.508107},{"name":"特別養護老人ホーム 上宮園","province":"東京都","city":"清瀬市","address":"東京都清瀬市竹丘3-3-31","lat":35.767543,"lon":139.502455},{"name":"特別養護老人ホーム 信愛の園","province":"東京都","city":"清瀬市","address":"東京都清瀬市梅園2-3-15","lat":35.772751,"lon":139.503522},{"name":"特別養護老人ホーム 清雅苑","province":"東京都","city":"清瀬市","address":"東京都清瀬市中里5-91-2","lat":35.789366,"lon":139.531891},{"name":"特別養護老人ホーム 聖ヨゼフ老人ホーム","province":"東京都","city":"清瀬市","address":"東京都清瀬市梅園3-14-72","lat":35.772165,"lon":139.501911},{"name":"清瀬どんぐりの家","province":"東京都","city":"清瀬市","address":"東京都清瀬市野塩4-230-1","lat":35.774754,"lon":139.500036},{"name":"工房わかば","province":"東京都","city":"清瀬市","address":"東京都清瀬市野塩4-59-8","lat":35.775592,"lon":139.506768},{"name":"清瀬療護園","province":"東京都","city":"清瀬市","address":"東京都清瀬市竹丘3-1-72","lat":35.765507,"lon":139.503219},{"name":"介護老人保健施設 たけおか","province":"東京都","city":"清瀬市","address":"東京都清瀬市竹丘2-3-21","lat":35.76518,"lon":139.50899},{"name":"介護老人保健施設 ラビアンローゼ","province":"東京都","city":"清瀬市","address":"東京都清瀬市下清戸3-385","lat":35.784884,"lon":139.538971},{"name":"介護老人保健施設 きよせ認知症ケアセンター","province":"東京都","city":"清瀬市","address":"東京都清瀬市中清戸5-27","lat":35.77695,"lon":139.536959},{"name":"介護老人福祉施設 すずらん※","province":"東京都","city":"清瀬市","address":"東京都清瀬市長野県北佐久郡立科町大字芦田720-1","lat":36.27413,"lon":138.32288},{"name":"障害者福祉センター","province":"東京都","city":"清瀬市","address":"東京都清瀬市上清戸1-16-62","lat":35.773273,"lon":139.527679},{"name":"子どもの発達支援・交流センターとことこ","province":"東京都","city":"清瀬市","address":"東京都清瀬市竹丘1-15-8","lat":35.768108,"lon":139.511079},{"name":"東京都立 清瀬特別支援学校","province":"東京都","city":"清瀬市","address":"東京都清瀬市松山3-1-97","lat":35.76896,"lon":139.511529},{"name":"ヒューマンライフケア清瀬","province":"東京都","city":"清瀬市","address":"東京都清瀬市元町1-8-25","lat":35.77412,"lon":139.519828},{"name":"ツクイ秋津","province":"東京都","city":"清瀬市","address":"東京都清瀬市野塩1-303-2","lat":35.779016,"lon":139.497067},{"name":"グループホーム清瀬","province":"東京都","city":"清瀬市","address":"東京都清瀬市中清戸5-132-1","lat":35.779676,"lon":139.532555},{"name":"グループホームさくらの苑","province":"東京都","city":"清瀬市","address":"東京都清瀬市中清戸5-27-3","lat":35.779659,"lon":139.532564},{"name":"しんあい清戸の里","province":"東京都","city":"清瀬市","address":"東京都清瀬市下清戸1-305-1","lat":35.780341,"lon":139.536013},{"name":"ホームステーションらいふ清瀬","province":"東京都","city":"清瀬市","address":"東京都清瀬市松山1-4-16","lat":35.770683,"lon":139.5207},{"name":"みどりの樹清瀬","province":"東京都","city":"清瀬市","address":"東京都清瀬市下清戸4-709-17","lat":35.786527,"lon":139.539276},{"name":"平成あおば上宮園","province":"東京都","city":"東村山市","address":"東京都東村山市青葉町1-7-75","lat":35.75954,"lon":139.49255},{"name":"清瀬小学校","province":"東京都","city":"清瀬市","address":"東京都清瀬市中里5-741","lat":35.785719,"lon":139.525573},{"name":"芝山小学校","province":"東京都","city":"清瀬市","address":"東京都清瀬市元町2-16-8","lat":35.775287,"lon":139.511307},{"name":"第三小学校","province":"東京都","city":"清瀬市","address":"東京都清瀬市竹丘1-15-4","lat":35.768423,"lon":139.510224},{"name":"第四小学校","province":"東京都","city":"清瀬市","address":"東京都清瀬市中里2-1471","lat":35.783011,"lon":139.510224},{"name":"第六小学校","province":"東京都","city":"清瀬市","address":"東京都清瀬市梅園2-9-45","lat":35.771657,"lon":139.503822},{"name":"第七小学校","province":"東京都","city":"清瀬市","address":"東京都清瀬市松山3-1-92","lat":35.767974,"lon":139.512557},{"name":"第八小学校","province":"東京都","city":"清瀬市","address":"東京都清瀬市中清戸4-1070","lat":35.781332,"lon":139.530545},{"name":"第十小学校","province":"東京都","city":"清瀬市","address":"東京都清瀬市中清戸1-454-14","lat":35.775219,"lon":139.527966},{"name":"清明小学校","province":"東京都","city":"清瀬市","address":"東京都清瀬市旭が丘2-8-1","lat":35.796663,"lon":139.539587},{"name":"清瀬中学校","province":"東京都","city":"清瀬市","address":"東京都清瀬市中里5-624","lat":35.784843,"lon":139.52496},{"name":"第二中学校","province":"東京都","city":"清瀬市","address":"東京都清瀬市梅園2-9-15","lat":35.773323,"lon":139.505105},{"name":"第三中学校","province":"東京都","city":"清瀬市","address":"東京都清瀬市旭が丘1-262","lat":35.791564,"lon":139.534861},{"name":"第四中学校","province":"東京都","city":"清瀬市","address":"東京都清瀬市野塩3-2-3","lat":35.778777,"lon":139.507985},{"name":"第五中学校","province":"東京都","city":"清瀬市","address":"東京都清瀬市中清戸3-258-1","lat":35.775094,"lon":139.534001},{"name":"清瀬けやきホール","province":"東京都","city":"清瀬市","address":"東京都清瀬市元町1-6-6","lat":35.774561,"lon":139.519556},{"name":"コミュニティプラザひまわり","province":"東京都","city":"清瀬市","address":"東京都清瀬市下清戸1-212-4","lat":35.77804,"lon":139.537766},{"name":"松山地域市民センター","province":"東京都","city":"清瀬市","address":"東京都清瀬市松山2-6-25","lat":35.770989,"lon":139.514809},{"name":"野塩地域市民センター","province":"東京都","city":"清瀬市","address":"東京都清瀬市野塩1-322-2","lat":35.779163,"lon":139.499466},{"name":"下宿地域市民センター","province":"東京都","city":"清瀬市","address":"東京都清瀬市下宿2-524-1","lat":35.797491,"lon":139.533321},{"name":"竹丘地域市民センター","province":"東京都","city":"清瀬市","address":"東京都清瀬市竹丘1-11-1","lat":35.765849,"lon":139.51142},{"name":"中清戸地域市民センター","province":"東京都","city":"清瀬市","address":"東京都清瀬市中清戸4-847-5","lat":35.784853,"lon":139.527671},{"name":"中里地域市民センター","province":"東京都","city":"清瀬市","address":"東京都清瀬市中里4-1301","lat":35.78652,"lon":139.514166},{"name":"郷土博物館","province":"東京都","city":"清瀬市","address":"東京都清瀬市上清戸2-6-41","lat":35.779741,"lon":139.521002},{"name":"児童センター","province":"東京都","city":"清瀬市","address":"東京都清瀬市中清戸3-235-5","lat":35.776371,"lon":139.530674},{"name":"きよせボランティア・市民活動センター","province":"東京都","city":"清瀬市","address":"東京都清瀬市上清戸2-6-10","lat":35.779175,"lon":139.521079},{"name":"消費生活センター","province":"東京都","city":"清瀬市","address":"東京都清瀬市元町1-4-17","lat":35.774417,"lon":139.520637},{"name":"清瀬小学校","province":"東京都","city":"清瀬市","address":"東京都清瀬市中里5丁目741","lat":35.78521086,"lon":139.52560538},{"name":"芝山小学校","province":"東京都","city":"清瀬市","address":"東京都清瀬市元町2丁目16-8","lat":35.77535899,"lon":139.511204},{"name":"第三小学校","province":"東京都","city":"清瀬市","address":"東京都清瀬市竹丘1丁目15-4","lat":35.76856813,"lon":139.50992645},{"name":"第四小学校","province":"東京都","city":"清瀬市","address":"東京都清瀬市中里2丁目1471","lat":35.78323576,"lon":139.51043456},{"name":"清明小学校","province":"東京都","city":"清瀬市","address":"東京都清瀬市旭が丘2丁目8-1","lat":35.79688461,"lon":139.539993},{"name":"第六小学校","province":"東京都","city":"清瀬市","address":"東京都清瀬市梅園2丁目9-45","lat":35.77171482,"lon":139.50441299},{"name":"第七小学校","province":"東京都","city":"清瀬市","address":"東京都清瀬市松山3丁目1-92","lat":35.7680377,"lon":139.51264842},{"name":"第八小学校","province":"東京都","city":"清瀬市","address":"東京都清瀬市中清戸4丁目1070","lat":35.78730514,"lon":139.53083267},{"name":"第十小学校","province":"東京都","city":"清瀬市","address":"東京都清瀬市中清戸1丁目454-14","lat":35.77514829,"lon":139.52753573},{"name":"清瀬中学校","province":"東京都","city":"清瀬市","address":"東京都清瀬市中里5丁目624","lat":35.78481922,"lon":139.52486379},{"name":"第二中学校","province":"東京都","city":"清瀬市","address":"東京都清瀬市梅園2丁目9-15","lat":35.7733202,"lon":139.50502681},{"name":"第三中学校","province":"東京都","city":"清瀬市","address":"東京都清瀬市旭が丘1丁目262","lat":35.79147967,"lon":139.53471843},{"name":"第四中学校","province":"東京都","city":"清瀬市","address":"東京都清瀬市野塩3丁目2-3","lat":35.77872237,"lon":139.50745708},{"name":"第五中学校","province":"東京都","city":"清瀬市","address":"東京都清瀬市中清戸3丁目258-1","lat":35.77498457,"lon":139.53371287},{"name":"東京都立清瀬高等学校グラウンド","province":"東京都","city":"清瀬市","address":"東京都清瀬市松山3丁目1-56","lat":35.76969866,"lon":139.51487318},{"name":"都職員共済組合清瀬グランド","province":"東京都","city":"清瀬市","address":"東京都清瀬市竹丘3丁目10-5","lat":35.76460172,"lon":139.5013023},{"name":"東星学園体育館前校庭・幼稚園園庭","province":"東京都","city":"清瀬市","address":"東京都清瀬市梅園3丁目14-47","lat":35.77403671,"lon":139.50180485},{"name":"日本社会事業大学駐車場","province":"東京都","city":"清瀬市","address":"東京都清瀬市竹丘3丁目1-30","lat":35.76642387,"lon":139.50676289},{"name":"明治薬科大学清瀬キャンパス正門アクセスモール","province":"東京都","city":"清瀬市","address":"東京都清瀬市野塩2丁目522-1","lat":35.78130535,"lon":139.50652658},{"name":"国立看護大学校内グラウンド","province":"東京都","city":"清瀬市","address":"東京都清瀬市梅園1丁目2-1","lat":35.77402019,"lon":139.50818485},{"name":"(工事期間中受け入れ不可）都立清瀬特別支援学校","province":"東京都","city":"清瀬市","address":"東京都清瀬市松山3丁目1-97","lat":35.76895978,"lon":139.51152906},{"name":"南秋留児童館","province":"東京都","city":"あきる野市","address":"東京都あきる野市雨間810-2","lat":35.720768,"lon":139.292057},{"name":"南秋留小学校校庭","province":"東京都","city":"あきる野市","address":"東京都あきる野市雨間810","lat":35.720445,"lon":139.292893},{"name":"南秋留小学校体育館","province":"東京都","city":"あきる野市","address":"東京都あきる野市雨間810","lat":35.721033,"lon":139.292765},{"name":"鳥居場会館","province":"東京都","city":"あきる野市","address":"東京都あきる野市雨間999-2","lat":35.71993,"lon":139.295949},{"name":"いきいきセンター","province":"東京都","city":"あきる野市","address":"東京都あきる野市雨間1946","lat":35.716691,"lon":139.291486},{"name":"東部図書館エル","province":"東京都","city":"あきる野市","address":"東京都あきる野市野辺39-27","lat":35.725409,"lon":139.315738},{"name":"前田小学校校庭","province":"東京都","city":"あきる野市","address":"東京都あきる野市野辺92","lat":35.723687,"lon":139.314779},{"name":"前田小学校体育館","province":"東京都","city":"あきる野市","address":"東京都あきる野市野辺92","lat":35.723992,"lon":139.314612},{"name":"前田児童館及び野辺地区会館","province":"東京都","city":"あきる野市","address":"東京都あきる野市野辺126-4","lat":35.723143,"lon":139.313696},{"name":"若竹児童館","province":"東京都","city":"あきる野市","address":"東京都あきる野市野辺1123","lat":35.724112,"lon":139.306609},{"name":"東秋留小学校校庭","province":"東京都","city":"あきる野市","address":"東京都あきる野市野辺1123","lat":35.724125,"lon":139.305684},{"name":"東秋留小学校体育館","province":"東京都","city":"あきる野市","address":"東京都あきる野市野辺1123","lat":35.724358,"lon":139.306392},{"name":"玉見会館","province":"東京都","city":"あきる野市","address":"東京都あきる野市小川東2-9-8","lat":35.719261,"lon":139.32101},{"name":"秋多中学校校庭","province":"東京都","city":"あきる野市","address":"東京都あきる野市二宮334","lat":35.730674,"lon":139.294331},{"name":"秋多中学校体育館","province":"東京都","city":"あきる野市","address":"東京都あきる野市二宮334","lat":35.73091,"lon":139.293449},{"name":"都立秋留台公園","province":"東京都","city":"あきる野市","address":"東京都あきる野市二宮673-1","lat":35.730472,"lon":139.298747},{"name":"秋川体育館","province":"東京都","city":"あきる野市","address":"東京都あきる野市二宮683","lat":35.730274,"lon":139.302358},{"name":"中央公民館","province":"東京都","city":"あきる野市","address":"東京都あきる野市二宮683","lat":35.730209,"lon":139.302605},{"name":"二宮地区会館","province":"東京都","city":"あきる野市","address":"東京都あきる野市二宮1151","lat":35.727411,"lon":139.313435},{"name":"総合グラウンド","province":"東京都","city":"あきる野市","address":"東京都あきる野市二宮東1-11-2","lat":35.724639,"lon":139.323336},{"name":"屋城小学校体育館","province":"東京都","city":"あきる野市","address":"東京都あきる野市二宮東1-12-1","lat":35.724442,"lon":139.323295},{"name":"屋城児童館","province":"東京都","city":"あきる野市","address":"東京都あきる野市二宮東1-13-1","lat":35.724095,"lon":139.322278},{"name":"都立秋留台高等学校校庭","province":"東京都","city":"あきる野市","address":"東京都あきる野市平沢153-4","lat":35.733064,"lon":139.300401},{"name":"東中学校校庭","province":"東京都","city":"あきる野市","address":"東京都あきる野市平沢200","lat":35.731872,"lon":139.302847},{"name":"東中学校体育館","province":"東京都","city":"あきる野市","address":"東京都あきる野市平沢200","lat":35.732764,"lon":139.302504},{"name":"農業会館","province":"東京都","city":"あきる野市","address":"東京都あきる野市平沢300-2","lat":35.731975,"lon":139.309202},{"name":"草花台会館","province":"東京都","city":"あきる野市","address":"東京都あきる野市草花1327-1","lat":35.736261,"lon":139.313947},{"name":"多西児童館","province":"東京都","city":"あきる野市","address":"東京都あきる野市草花2572","lat":35.743168,"lon":139.299136},{"name":"多西小学校校庭","province":"東京都","city":"あきる野市","address":"東京都あきる野市草花2885","lat":35.741667,"lon":139.300137},{"name":"多西小学校体育館","province":"東京都","city":"あきる野市","address":"東京都あきる野市草花2885","lat":35.742252,"lon":139.299321},{"name":"草花小学校校庭","province":"東京都","city":"あきる野市","address":"東京都あきる野市草花3130","lat":35.736689,"lon":139.305257},{"name":"草花小学校体育館","province":"東京都","city":"あきる野市","address":"東京都あきる野市草花3130","lat":35.736911,"lon":139.306212},{"name":"草花児童センター","province":"東京都","city":"あきる野市","address":"東京都あきる野市草花3130","lat":35.736036,"lon":139.305077},{"name":"御堂中学校校庭","province":"東京都","city":"あきる野市","address":"東京都あきる野市草花3322","lat":35.740516,"lon":139.296329},{"name":"御堂中学校体育館","province":"東京都","city":"あきる野市","address":"東京都あきる野市草花3322","lat":35.740951,"lon":139.296318},{"name":"御堂会館","province":"東京都","city":"あきる野市","address":"東京都あきる野市草花3482-16","lat":35.738915,"lon":139.30039},{"name":"菅生交流会館","province":"東京都","city":"あきる野市","address":"東京都あきる野市菅生582","lat":35.74385,"lon":139.289478},{"name":"市民球場","province":"東京都","city":"あきる野市","address":"東京都あきる野市原小宮353","lat":35.737139,"lon":35.737139},{"name":"楓ヶ原会館","province":"東京都","city":"あきる野市","address":"東京都あきる野市引田512-2","lat":35.723881,"lon":139.268548},{"name":"一の谷児童館","province":"東京都","city":"あきる野市","address":"東京都あきる野市引田928","lat":35.720108,"lon":139.270998},{"name":"一の谷小学校校庭","province":"東京都","city":"あきる野市","address":"東京都あきる野市引田980","lat":35.71994,"lon":139.272106},{"name":"一の谷小学校体育館","province":"東京都","city":"あきる野市","address":"東京都あきる野市引田980","lat":35.720716,"lon":139.272344},{"name":"西中学校校庭","province":"東京都","city":"あきる野市","address":"東京都あきる野市上代継190","lat":35.729566,"lon":139.27787},{"name":"西中学校体育館","province":"東京都","city":"あきる野市","address":"東京都あきる野市上代継190","lat":35.730092,"lon":139.277174},{"name":"西秋留小学校校庭","province":"東京都","city":"あきる野市","address":"東京都あきる野市上代継292","lat":35.72324,"lon":139.276374},{"name":"西秋留小学校体育館","province":"東京都","city":"あきる野市","address":"東京都あきる野市上代継292","lat":35.72314,"lon":139.27731},{"name":"若葉児童館","province":"東京都","city":"あきる野市","address":"東京都あきる野市上代継303-5","lat":35.723188,"lon":139.277674},{"name":"千代里会館","province":"東京都","city":"あきる野市","address":"東京都あきる野市上代継424","lat":35.720815,"lon":139.277704},{"name":"代継会館","province":"東京都","city":"あきる野市","address":"東京都あきる野市上代継693-1","lat":35.718869,"lon":139.280228},{"name":"油平クラブハウス","province":"東京都","city":"あきる野市","address":"東京都あきる野市油平92-7","lat":35.726655,"lon":139.287551},{"name":"あきる野ルピア３・４F","province":"東京都","city":"あきる野市","address":"東京都あきる野市秋川1-8","lat":35.729943,"lon":139.287079},{"name":"秋川キララホール","province":"東京都","city":"あきる野市","address":"東京都あきる野市秋川1-16-1","lat":35.731116,"lon":139.288312},{"name":"山田グラウンド","province":"東京都","city":"あきる野市","address":"東京都あきる野市山田1-1","lat":35.722229,"lon":139.257705},{"name":"森の下公園","province":"東京都","city":"あきる野市","address":"東京都あきる野市伊奈851-2","lat":35.729252,"lon":139.255804},{"name":"五日市ファインプラザ","province":"東京都","city":"あきる野市","address":"東京都あきる野市伊奈859-3","lat":35.729316,"lon":139.255367},{"name":"増戸会館","province":"東京都","city":"あきる野市","address":"東京都あきる野市伊奈1157-5","lat":35.727456,"lon":139.247595},{"name":"増戸小学校校庭","province":"東京都","city":"あきる野市","address":"東京都あきる野市伊奈1173","lat":35.727838,"lon":139.248499},{"name":"増戸小学校体育館","province":"東京都","city":"あきる野市","address":"東京都あきる野市伊奈1173","lat":35.727507,"lon":139.248027},{"name":"増戸中学校校庭","province":"東京都","city":"あきる野市","address":"東京都あきる野市伊奈1181","lat":35.727864,"lon":139.249507},{"name":"増戸中学校体育館","province":"東京都","city":"あきる野市","address":"東京都あきる野市伊奈1181","lat":35.72799,"lon":139.250411},{"name":"五日市小学校校庭","province":"東京都","city":"あきる野市","address":"東京都あきる野市五日市315","lat":35.731321,"lon":139.222369},{"name":"五日市小学校体育館","province":"東京都","city":"あきる野市","address":"東京都あきる野市五日市315","lat":35.731525,"lon":139.222975},{"name":"五日市中学校校庭","province":"東京都","city":"あきる野市","address":"東京都あきる野市五日市400","lat":35.729953,"lon":139.221355},{"name":"五日市中学校体育館","province":"東京都","city":"あきる野市","address":"東京都あきる野市五日市400","lat":35.73092,"lon":139.221505},{"name":"五日市地域交流センター","province":"東京都","city":"あきる野市","address":"東京都あきる野市五日市411","lat":35.729395,"lon":139.219959},{"name":"五日市会館","province":"東京都","city":"あきる野市","address":"東京都あきる野市五日市412","lat":35.729793,"lon":139.220094},{"name":"都立五日市高等学校校庭","province":"東京都","city":"あきる野市","address":"東京都あきる野市五日市894","lat":35.729385,"lon":139.218807},{"name":"小和田グラウンド","province":"東京都","city":"あきる野市","address":"東京都あきる野市小和田8","lat":35.722955,"lon":139.227264},{"name":"都立小峰公園","province":"東京都","city":"あきる野市","address":"東京都あきる野市留原284-1","lat":35.721067,"lon":139.231397},{"name":"小峰運動公園","province":"東京都","city":"あきる野市","address":"東京都あきる野市小峰台11","lat":35.720923,"lon":139.235503},{"name":"戸倉会館","province":"東京都","city":"あきる野市","address":"東京都あきる野市戸倉133-4","lat":35.726125,"lon":139.20471},{"name":"アートスタジオ五日市","province":"東京都","city":"あきる野市","address":"東京都あきる野市戸倉300","lat":35.727076,"lon":139.203973},{"name":"戸倉しろやまテラスグラウンド","province":"東京都","city":"あきる野市","address":"東京都あきる野市戸倉325","lat":35.725763,"lon":139.204292},{"name":"戸倉しろやまテラス体育館","province":"東京都","city":"あきる野市","address":"東京都あきる野市戸倉325","lat":35.725528,"lon":139.203936},{"name":"戸倉運動場","province":"東京都","city":"あきる野市","address":"東京都あきる野市戸倉611-1","lat":35.729824,"lon":139.199074},{"name":"ふるさと工房五日市","province":"東京都","city":"あきる野市","address":"東京都あきる野市乙津671","lat":35.723416,"lon":139.179061},{"name":"小宮ふるさと自然体験学校校庭","province":"東京都","city":"あきる野市","address":"東京都あきる野市乙津1984","lat":35.733999,"lon":139.1835},{"name":"小宮ふるさと自然体験学校2・3F","province":"東京都","city":"あきる野市","address":"東京都あきる野市乙津1984","lat":35.734153,"lon":139.183366},{"name":"小宮ふるさと自然体験学校体育館","province":"東京都","city":"あきる野市","address":"東京都あきる野市乙津1984","lat":35.734221,"lon":139.18401},{"name":"小宮会館","province":"東京都","city":"あきる野市","address":"東京都あきる野市乙津1997","lat":35.733729,"lon":139.18302},{"name":"養沢センター","province":"東京都","city":"あきる野市","address":"東京都あきる野市養沢290-1","lat":35.746541,"lon":139.185548},{"name":"上野公園","province":"東京都","city":"台東区","address":"東京都台東区上野公園8","lat":35.71706394,"lon":139.7751047},{"name":"隅田公園","province":"東京都","city":"台東区","address":"東京都台東区浅草7丁目1","lat":35.71514482,"lon":139.8029225},{"name":"谷中霊園","province":"東京都","city":"台東区","address":"東京都台東区谷中7丁目8","lat":35.72470318,"lon":139.7710148},{"name":"都立国際高校","province":"東京都","city":"目黒区","address":"東京都目黒区駒場2-19-59","lat":35.659293,"lon":139.678891},{"name":"駒場小学校","province":"東京都","city":"目黒区","address":"東京都目黒区駒場3-11-13","lat":35.65986,"lon":139.681936},{"name":"第一中学校","province":"東京都","city":"目黒区","address":"東京都目黒区大橋2-11-1","lat":35.654667,"lon":139.686633},{"name":"都立駒場高校","province":"東京都","city":"目黒区","address":"東京都目黒区大橋2-18-1","lat":35.654991,"lon":139.685451},{"name":"菅刈小学校","province":"東京都","city":"目黒区","address":"東京都目黒区青葉台3-3-26","lat":35.651673,"lon":139.692158},{"name":"菅刈公園","province":"東京都","city":"目黒区","address":"東京都目黒区青葉台2-11-25","lat":35.650203,"lon":139.693883},{"name":"東山中学校","province":"東京都","city":"目黒区","address":"東京都目黒区東山1-24-31","lat":35.646476,"lon":139.690227},{"name":"東山小学校","province":"東京都","city":"目黒区","address":"東京都目黒区東山2-24-25","lat":35.64692,"lon":139.685758},{"name":"鳥森小学校","province":"東京都","city":"目黒区","address":"東京都目黒区上目黒3-37-27","lat":35.644365,"lon":139.692883},{"name":"めぐろ学校サポートセンター","province":"東京都","city":"目黒区","address":"東京都目黒区中目黒3-6-10","lat":35.639384,"lon":139.702725},{"name":"中目黒小学校","province":"東京都","city":"目黒区","address":"東京都目黒区中目黒3-13-32","lat":35.640194,"lon":139.699171},{"name":"田道小学校","province":"東京都","city":"目黒区","address":"東京都目黒区目黒1-15-28","lat":35.637594,"lon":139.709168},{"name":"下目黒小学校","province":"東京都","city":"目黒区","address":"東京都目黒区目黒2-7-9","lat":35.634203,"lon":139.709154},{"name":"大鳥中学校","province":"東京都","city":"目黒区","address":"東京都目黒区下目黒3-23-18","lat":35.631092,"lon":139.707612},{"name":"不動小学校","province":"東京都","city":"目黒区","address":"東京都目黒区下目黒6-11-35","lat":35.627081,"lon":139.699099},{"name":"上目黒小学校","province":"東京都","city":"目黒区","address":"東京都目黒区五本木1-12-13","lat":35.638735,"lon":139.690425},{"name":"都立目黒高校","province":"東京都","city":"目黒区","address":"東京都目黒区祐天寺2-7-15","lat":35.636927,"lon":139.694616},{"name":"油面小学校","province":"東京都","city":"目黒区","address":"東京都目黒区中町1-5-4","lat":35.632395,"lon":139.698299},{"name":"目黒中央中学校","province":"東京都","city":"目黒区","address":"東京都目黒区中町2-37-38","lat":35.634678,"lon":139.693647},{"name":"五本木小学校","province":"東京都","city":"目黒区","address":"東京都目黒区五本木2-24-3","lat":35.634466,"lon":139.687889},{"name":"鷹番小学校","province":"東京都","city":"目黒区","address":"東京都目黒区中央町1-20-26","lat":35.627761,"lon":139.690222},{"name":"碑文谷公園","province":"東京都","city":"目黒区","address":"東京都目黒区碑文谷6-9-11","lat":35.62655,"lon":139.682084},{"name":"碑文谷体育館","province":"東京都","city":"目黒区","address":"東京都目黒区碑文谷6-12-43","lat":35.627225,"lon":139.682079},{"name":"月光原小学校","province":"東京都","city":"目黒区","address":"東京都目黒区目黒本町4-15-3","lat":35.62251,"lon":139.694586},{"name":"向原小学校","province":"東京都","city":"目黒区","address":"東京都目黒区目黒本町6-7-15","lat":35.618716,"lon":139.695783},{"name":"第七中学校","province":"東京都","city":"目黒区","address":"東京都目黒区碑文谷1-1-33","lat":35.622923,"lon":139.691764},{"name":"碑小学校","province":"東京都","city":"目黒区","address":"東京都目黒区碑文谷1-18-2","lat":35.619603,"lon":139.690579},{"name":"原町小学校","province":"東京都","city":"目黒区","address":"東京都目黒区原町2-18-12","lat":35.615752,"lon":139.690492},{"name":"第九中学校","province":"東京都","city":"目黒区","address":"東京都目黒区洗足1-29-26","lat":35.613508,"lon":139.69455},{"name":"第八中学校","province":"東京都","city":"目黒区","address":"東京都目黒区碑文谷4-19-25","lat":35.619685,"lon":139.682495},{"name":"大岡山小学校","province":"東京都","city":"目黒区","address":"東京都目黒区平町2-3-1","lat":35.615482,"lon":139.683004},{"name":"中根小学校","province":"東京都","city":"目黒区","address":"東京都目黒区緑が丘1-1-1","lat":35.61241,"lon":139.678527},{"name":"第十一中学校","province":"東京都","city":"目黒区","address":"東京都目黒区緑が丘1-8-1","lat":35.609469,"lon":139.679024},{"name":"緑ヶ丘小学校","province":"東京都","city":"目黒区","address":"東京都目黒区緑が丘2-13-1","lat":35.610299,"lon":139.673449},{"name":"宮前小学校","province":"東京都","city":"目黒区","address":"東京都目黒区八雲3-13-21","lat":35.615365,"lon":139.66688},{"name":"めぐろ区民キャンパス","province":"東京都","city":"目黒区","address":"東京都目黒区八雲1-1-1","lat":35.621542,"lon":139.672741},{"name":"都立桜修館中等教育学校","province":"東京都","city":"目黒区","address":"東京都目黒区八雲1-1-2","lat":35.621198,"lon":139.670993},{"name":"八雲小学校","province":"東京都","city":"目黒区","address":"東京都目黒区八雲2-5-1","lat":35.618062,"lon":139.671255},{"name":"第十中学校","province":"東京都","city":"目黒区","address":"東京都目黒区八雲5-2-1","lat":35.62432,"lon":139.668677},{"name":"東根小学校","province":"東京都","city":"目黒区","address":"東京都目黒区東が丘1-20-1","lat":35.627158,"lon":139.668027},{"name":"御成門小学校","province":"東京都","city":"港区","address":"東京都港区芝公園三丁目2番4号","lat":35.660982,"lon":139.749524,"分類":"区民避難所(地域防災拠点)","地区":"芝地区","構造":"鉄骨鉄筋コンクリート造","ふりがな":"おなりもんしょうがっこう","英語名称":"Onarimon Elementary School","電話番号1":"03-3431-2766","電話番号2":"","自治体コード":"131032","一時受入人員可能数":"2104","長期受入人員可能数":"1271"},{"name":"芝小学校","province":"東京都","city":"港区","address":"東京都港区芝二丁目21番3号","lat":35.651298,"lon":139.750139,"分類":"区民避難所(地域防災拠点)","地区":"芝地区","構造":"鉄骨鉄筋コンクリート造","ふりがな":"しばしょうがっこう","英語名称":"Shiba Elementary School","電話番号1":"03-3456-3072","電話番号2":"","自治体コード":"131032","一時受入人員可能数":"855","長期受入人員可能数":"513"},{"name":"札の辻スクエア(産業振興センター)","province":"東京都","city":"港区","address":"東京都港区芝五丁目36番4号","lat":35.645114,"lon":139.744617,"分類":"区民避難所(地域防災拠点)","地区":"芝地区","構造":"鉄筋コンクリート造","ふりがな":"ふだのつじすくえあ(さんぎょうしんこうせんたー)","英語名称":"","電話番号1":"03-6435-3670","電話番号2":"","自治体コード":"131032","一時受入人員可能数":"672","長期受入人員可能数":"407"},{"name":"赤羽小学校","province":"東京都","city":"港区","address":"東京都港区三田一丁目4番52号","lat":35.653237,"lon":139.74248,"分類":"区民避難所(地域防災拠点)","地区":"芝地区","構造":"鉄筋コンクリート造","ふりがな":"あかばねしょうがっこう","英語名称":"Akabane Elementary School","電話番号1":"03-3451-1988","電話番号2":"","自治体コード":"131032","一時受入人員可能数":"1597","長期受入人員可能数":"964"},{"name":"御成門中学校","province":"東京都","city":"港区","address":"東京都港区西新橋三丁目25番30号","lat":35.66164,"lon":139.750329,"分類":"区民避難所(地域防災拠点)","地区":"芝地区","構造":"鉄骨鉄筋コンクリート造","ふりがな":"おなりもんちゅうがっこう","英語名称":"Onarimon Junior High School","電話番号1":"03-3436-3568","電話番号2":"","自治体コード":"131032","一時受入人員可能数":"2536","長期受入人員可能数":"1528"},{"name":"生涯学習センター","province":"東京都","city":"港区","address":"東京都港区西新橋三丁目16番3号","lat":35.665575,"lon":139.757085,"分類":"区民避難所(地域防災拠点)","地区":"芝地区","構造":"鉄骨造","ふりがな":"しょうがいがくしゅうせんたー","英語名称":"Lifelong Learning Center","電話番号1":"03-3431-1606","電話番号2":"","自治体コード":"131032","一時受入人員可能数":"838","長期受入人員可能数":"504"},{"name":"エコプラザ","province":"東京都","city":"港区","address":"東京都港区浜松町一丁目13番1号","lat":35.658866,"lon":139.756851,"分類":"区民避難所(地域防災拠点)","地区":"芝地区","構造":"鉄骨鉄筋コンクリート造","ふりがな":"えこぷらざ","英語名称":"Eco Plaza","電話番号1":"03-5404-7764","電話番号2":"","自治体コード":"131032","一時受入人員可能数":"556","長期受入人員可能数":"335"},{"name":"福祉プラザさくら川","province":"東京都","city":"港区","address":"東京都港区浜松町六丁目19番2号","lat":35.661172,"lon":139.753823,"分類":"区民避難所(地域防災拠点)","地区":"芝地区","構造":"鉄骨鉄筋コンクリート造","ふりがな":"ふくしぷらざさくらがわ","英語名称":"Welfare Plaza Sakuragawa","電話番号1":"03-3433-0180","電話番号2":"","自治体コード":"131032","一時受入人員可能数":"144","長期受入人員可能数":"86"},{"name":"神明子ども中高生プラザ・神明いきいきプラザ","province":"東京都","city":"港区","address":"東京都港区浜松町一丁目6番7号","lat":35.65877,"lon":139.757557,"分類":"区民避難所(地域防災拠点)","地区":"芝地区","構造":"鉄骨鉄筋コンクリート造","ふりがな":"しんめいこどもちゅうこうせいぷらざ・しんめいいきいきぷらざ","英語名称":"Shimmei Kids-to-Teens Hall/Shimmei Iki-iki Plaza","電話番号1":"03-5733-5199","電話番号2":"03-3436-2500","自治体コード":"131032","一時受入人員可能数":"852","長期受入人員可能数":"511"},{"name":"虎ノ門いきいきプラザ","province":"東京都","city":"港区","address":"東京都港区虎ノ門一丁目21番10号","lat":35.667859,"lon":139.748668,"分類":"区民避難所(地域防災拠点)","地区":"芝地区","構造":"鉄骨鉄筋コンクリート造","ふりがな":"とらのもんいきいきぷらざ","英語名称":"Toranomon Iki-iki Plaza","電話番号1":"03-3539-2941","電話番号2":"","自治体コード":"131032","一時受入人員可能数":"132","長期受入人員可能数":"79"},{"name":"三田いきいきプラザ","province":"東京都","city":"港区","address":"東京都港区芝四丁目1番17号","lat":35.648781,"lon":139.749768,"分類":"区民避難所(地域防災拠点)","地区":"高輪地区","構造":"鉄筋コンクリート造","ふりがな":"みたいきいきぷらざ","英語名称":"Mita Iki-iki Plaza","電話番号1":"03-3452-9421","電話番号2":"","自治体コード":"131032","一時受入人員可能数":"332","長期受入人員可能数":"199"},{"name":"麻布小学校","province":"東京都","city":"港区","address":"東京都港区麻布台一丁目5番15号","lat":35.661832,"lon":139.738648,"分類":"区民避難所(地域防災拠点)","地区":"麻布地区","構造":"鉄筋コンクリート造","ふりがな":"あざぶしょうがっこう","英語名称":"Azabu Elementary School","電話番号1":"03-3583-0014","電話番号2":"","自治体コード":"131032","一時受入人員可能数":"1435","長期受入人員可能数":"865"},{"name":"旧飯倉小学校","province":"東京都","city":"港区","address":"東京都港区東麻布二丁目1番1号","lat":35.658162,"lon":139.742551,"分類":"区民避難所(地域防災拠点)","地区":"麻布地区","構造":"鉄筋コンクリート造","ふりがな":"きゅういいくらしょうがっこう","英語名称":"Former Iigura Elementary School","電話番号1":"","電話番号2":"","自治体コード":"131032","一時受入人員可能数":"419","長期受入人員可能数":"208"},{"name":"本村小学校","province":"東京都","city":"港区","address":"東京都港区麻布三丁目9番33号","lat":35.649829,"lon":139.72991,"分類":"区民避難所(地域防災拠点)","地区":"麻布地区","構造":"鉄骨鉄筋コンクリート造","ふりがな":"ほんむらしょうがっこう","英語名称":"Hommura Elementary School","電話番号1":"03-3473-1462","電話番号2":"","自治体コード":"131032","一時受入人員可能数":"2017","長期受入人員可能数":"1217"},{"name":"東町小学校","province":"東京都","city":"港区","address":"東京都港区南麻布一丁目8番11号","lat":35.650901,"lon":139.73584,"分類":"区民避難所(地域防災拠点)","地区":"麻布地区","構造":"鉄筋コンクリート造","ふりがな":"ひがしまちしょうがっこう","英語名称":"Higashimachi Elementary School","電話番号1":"03-3451-7726","電話番号2":"","自治体コード":"131032","一時受入人員可能数":"1073","長期受入人員可能数":"647"},{"name":"笄小学校","province":"東京都","city":"港区","address":"東京都港区西麻布三丁目11番16号","lat":35.65648,"lon":139.724891,"分類":"区民避難所(地域防災拠点)","地区":"麻布地区","構造":"鉄筋コンクリート造","ふりがな":"こうがいしょうがっこう","英語名称":"Kogai Elementary School","電話番号1":"03-3404-1530","電話番号2":"","自治体コード":"131032","一時受入人員可能数":"1412","長期受入人員可能数":"853"},{"name":"六本木中学校","province":"東京都","city":"港区","address":"東京都港区六本木六丁目8番16号","lat":35.660826,"lon":139.732266,"分類":"区民避難所(地域防災拠点)","地区":"麻布地区","構造":"鉄筋コンクリート造","ふりがな":"ろっぽんぎちゅうがっこう","英語名称":"Roppongi Junior High School","電話番号1":"03-3404-8855","電話番号2":"","自治体コード":"131032","一時受入人員可能数":"1534","長期受入人員可能数":"926"},{"name":"高陵中学校","province":"東京都","city":"港区","address":"東京都港区西麻布4-14-8","lat":35.656991,"lon":139.720539,"分類":"区民避難所(地域防災拠点)","地区":"麻布地区","構造":"鉄骨鉄筋コンクリート造","ふりがな":"こうりょうちゅうがっこう","英語名称":"Koryo Junior High School","電話番号1":"03-3409-7687","電話番号2":"","自治体コード":"131032","一時受入人員可能数":"1130","長期受入人員可能数":"565"},{"name":"南山小学校","province":"東京都","city":"港区","address":"東京都港区元麻布三丁目8番15号","lat":35.657271,"lon":139.731056,"分類":"区民避難所(地域防災拠点)","地区":"麻布地区","構造":"鉄筋コンクリート造","ふりがな":"なんざんしょうがっこう","英語名称":"Nanzan Elementary School","電話番号1":"03-3403-5773","電話番号2":"","自治体コード":"131032","一時受入人員可能数":"1173","長期受入人員可能数":"702"},{"name":"麻布区民センター","province":"東京都","city":"港区","address":"東京都港区六本木五丁目16番45号","lat":35.66067,"lon":139.735011,"分類":"区民避難所(地域防災拠点)","地区":"麻布地区","構造":"鉄骨鉄筋コンクリート造","ふりがな":"あざぶくみんせんたー","英語名称":"Azabu Civic Center","電話番号1":"03-3583-5487","電話番号2":"","自治体コード":"131032","一時受入人員可能数":"326","長期受入人員可能数":"195"},{"name":"南麻布いきいきプラザ","province":"東京都","city":"港区","address":"東京都港区南麻布一丁目5番26号","lat":35.651414,"lon":139.73509,"分類":"区民避難所(地域防災拠点)","地区":"麻布地区","構造":"鉄筋コンクリート造","ふりがな":"みなみあざぶいきいきぷらざ","英語名称":"Minami-azabu Iki-iki Plaza","電話番号1":"03-5232-9671","電話番号2":"","自治体コード":"131032","一時受入人員可能数":"224","長期受入人員可能数":"135"},{"name":"麻布子ども中高生プラザ・ありすいきいきプラザ","province":"東京都","city":"港区","address":"東京都港区南麻布四丁目6番7号","lat":35.651082,"lon":139.727468,"分類":"区民避難所(地域防災拠点)","地区":"麻布地区","構造":"鉄筋コンクリート造","ふりがな":"あざぶこどもちゅうこうせいぷらざ・ありすいきいきぷらざ","英語名称":"Azabu Kids-to-Teens Hall Arisu Iki-iki Plaza","電話番号1":"03-5447-0611","電話番号2":"","自治体コード":"131032","一時受入人員可能数":"1027","長期受入人員可能数":"619"},{"name":"西麻布いきいきプラザ","province":"東京都","city":"港区","address":"東京都港区西麻布二丁目13番3号","lat":35.660801,"lon":139.722696,"分類":"区民避難所(地域防災拠点)","地区":"麻布地区","構造":"鉄骨鉄筋コンクリート造","ふりがな":"にしあざぶいきいきぷらざ","英語名称":"Nishi-azabu Iki-iki Plaza","電話番号1":"03-3486-9166","電話番号2":"","自治体コード":"131032","一時受入人員可能数":"297","長期受入人員可能数":"180"},{"name":"飯倉いきいきプラザ","province":"東京都","city":"港区","address":"東京都港区東麻布二丁目16番11号","lat":35.65693,"lon":139.740929,"分類":"区民避難所(地域防災拠点)","地区":"麻布地区","構造":"鉄骨造","ふりがな":"いいくらいきいきぷらざ","英語名称":"Iigura Iki-iki Plaza","電話番号1":"03-3583-6366","電話番号2":"","自治体コード":"131032","一時受入人員可能数":"157","長期受入人員可能数":"92"},{"name":"赤坂小学校","province":"東京都","city":"港区","address":"東京都港区赤坂八丁目13番29号","lat":35.669305,"lon":139.731065,"分類":"区民避難所(地域防災拠点)","地区":"赤坂地区","構造":"鉄筋コンクリート造","ふりがな":"あかさかしょうがっこう","英語名称":"Akasaka Elementary School","電話番号1":"03-3404-8602","電話番号2":"","自治体コード":"131032","一時受入人員可能数":"2001","長期受入人員可能数":"1208"},{"name":"青山小学校","province":"東京都","city":"港区","address":"東京都港区南青山二丁目21番2号","lat":35.669882,"lon":139.719084,"分類":"区民避難所(地域防災拠点)","地区":"赤坂地区","構造":"鉄筋コンクリート造","ふりがな":"あおやましょうがっこう","英語名称":"Aoyama Elementary School","電話番号1":"03-3403-5588","電話番号2":"","自治体コード":"131032","一時受入人員可能数":"1691","長期受入人員可能数":"1020"},{"name":"青南小学校","province":"東京都","city":"港区","address":"東京都港区南青山四丁目21番15号","lat":35.663506,"lon":139.716153,"分類":"区民避難所(地域防災拠点)","地区":"赤坂地区","構造":"鉄筋コンクリート造","ふりがな":"せいなんしょうがっこう","英語名称":"Seinan Elementary School","電話番号1":"03-3404-8608","電話番号2":"","自治体コード":"131032","一時受入人員可能数":"1723","長期受入人員可能数":"1039"},{"name":"赤坂中学校","province":"東京都","city":"港区","address":"東京都港区赤坂九丁目2番3号","lat":35.668183,"lon":139.731405,"分類":"区民避難所(地域防災拠点)","地区":"赤坂地区","構造":"鉄筋コンクリート造","ふりがな":"あかさかちゅうがっこう","英語名称":"Akasaka Junior High School","電話番号1":"03-3402-9306","電話番号2":"","自治体コード":"131032","一時受入人員可能数":"1114","長期受入人員可能数":"672"},{"name":"青山中学校","province":"東京都","city":"港区","address":"東京都港区北青山一丁目1番9号","lat":35.674188,"lon":139.72218,"分類":"区民避難所(地域防災拠点)","地区":"赤坂地区","構造":"鉄骨鉄筋コンクリート造","ふりがな":"あおやまちゅうがっこう","英語名称":"Aoyama Junior High Shool","電話番号1":"03-3404-7522","電話番号2":"","自治体コード":"131032","一時受入人員可能数":"2621","長期受入人員可能数":"1581"},{"name":"赤坂区民センター","province":"東京都","city":"港区","address":"東京都港区北青山一丁目1番9号","lat":35.674759,"lon":139.731598,"分類":"区民避難所(地域防災拠点)","地区":"赤坂地区","構造":"鉄骨鉄筋コンクリート造","ふりがな":"あかさかくみんせんたー","英語名称":"Akasaka Civic Center","電話番号1":"03-5413-2711","電話番号2":"","自治体コード":"131032","一時受入人員可能数":"475","長期受入人員可能数":"285"},{"name":"サン・サン赤坂(赤坂子ども中高生プラザ)","province":"東京都","city":"港区","address":"東京都港区赤坂六丁目6番14号","lat":35.669966,"lon":139.737659,"分類":"区民避難所(地域防災拠点)","地区":"赤坂地区","構造":"鉄筋コンクリート造","ふりがな":"さん・さんあかさか(あかさかこどもちゅうこうせいぷらざ)","英語名称":"Sun-Sun Akasaka(Akasaka Kids-to-Teens Hall)","電話番号1":"03-5561-7833","電話番号2":"","自治体コード":"131032","一時受入人員可能数":"888","長期受入人員可能数":"535"},{"name":"赤坂いきいきプラザ","province":"東京都","city":"港区","address":"東京都港区赤坂六丁目4番8号","lat":35.670334,"lon":139.734952,"分類":"区民避難所(地域防災拠点)","地区":"赤坂地区","構造":"鉄筋コンクリート造","ふりがな":"あかさかいきいきぷらざ","英語名称":"Akasaka Iki-iki Plaza","電話番号1":"03-3583-1207","電話番号2":"","自治体コード":"131032","一時受入人員可能数":"118","長期受入人員可能数":"70"},{"name":"青山いきいきプラザ","province":"東京都","city":"港区","address":"東京都港区南青山二丁目16番5号","lat":35.669189,"lon":139.721262,"分類":"区民避難所(地域防災拠点)","地区":"赤坂地区","構造":"鉄骨鉄筋コンクリート造","ふりがな":"あおやまいきいきぷらざ","英語名称":"Aoyama Iki-iki Plaza","電話番号1":"03-3403-2011","電話番号2":"","自治体コード":"131032","一時受入人員可能数":"585","長期受入人員可能数":"350"},{"name":"青南いきいきプラザ","province":"東京都","city":"港区","address":"東京都港区南青山四丁目10番1号","lat":35.666464,"lon":139.717321,"分類":"区民避難所(地域防災拠点)","地区":"赤坂地区","構造":"鉄筋コンクリート造","ふりがな":"せいなんいきいきぷらざ","英語名称":"Seinan Iki-iki Plaza","電話番号1":"03-3423-4920","電話番号2":"","自治体コード":"131032","一時受入人員可能数":"138","長期受入人員可能数":"80"},{"name":"御田小学校","province":"東京都","city":"港区","address":"東京都港区三田四丁目11番38号","lat":35.643181,"lon":139.738044,"分類":"区民避難所(地域防災拠点)","地区":"高輪地区","構造":"鉄筋コンクリート造","ふりがな":"みたしょうがっこう","英語名称":"Mita Elementary School","電話番号1":"03-3451-3997","電話番号2":"","自治体コード":"131032","一時受入人員可能数":"1213","長期受入人員可能数":"732"},{"name":"高輪区民センター","province":"東京都","city":"港区","address":"東京都港区高輪一丁目16番25号","lat":35.641984,"lon":139.733975,"分類":"区民避難所(地域防災拠点)","地区":"高輪地区","構造":"鉄骨鉄筋コンクリート造","ふりがな":"たかなわくみんせんたー","英語名称":"Takanawa Civic Center","電話番号1":"03-5421-7616","電話番号2":"","自治体コード":"131032","一時受入人員可能数":"393","長期受入人員可能数":"235"},{"name":"白金小学校","province":"東京都","city":"港区","address":"東京都港区白金台一丁目4番26号","lat":35.636807,"lon":139.728541,"分類":"区民避難所(地域防災拠点)","地区":"高輪地区","構造":"鉄筋コンクリート造","ふりがな":"しろかねしょうがっこう","英語名称":"Shirokane Elementary School","電話番号1":"03-3441-5407","電話番号2":"","自治体コード":"131032","一時受入人員可能数":"1805","長期受入人員可能数":"1090"},{"name":"旧三光小学校","province":"東京都","city":"港区","address":"東京都港区白白金三丁目18番2号","lat":35.644328,"lon":139.729204,"分類":"区民避難所(地域防災拠点)","地区":"高輪地区","構造":"鉄筋コンクリート造","ふりがな":"きゅうさんこうしょうがっこう","英語名称":"Former Sanko Elementary School","電話番号1":"03-3441-1001","電話番号2":"","自治体コード":"131032","一時受入人員可能数":"1717","長期受入人員可能数":"1037"},{"name":"白金の丘学園白金の丘小・中学校","province":"東京都","city":"港区","address":"東京都港区白金四丁目1番12号","lat":35.643658,"lon":139.726753,"分類":"区民避難所(地域防災拠点)","地区":"高輪地区","構造":"鉄筋コンクリート造","ふりがな":"しろかねのおかがくえんしろかねのおかしょう・ちゅうがっこう","英語名称":"Shirokane-no-oka Gakuen Shirokane-no-oka Elementaryand Junior High School","電話番号1":"03-3441-5363","電話番号2":"03-3441-5631","自治体コード":"131032","一時受入人員可能数":"4556","長期受入人員可能数":"2756"},{"name":"旧神応小学校","province":"東京都","city":"港区","address":"東京都港区白金六丁目9番5号","lat":35.643633,"lon":139.724277,"分類":"区民避難所(地域防災拠点)","地区":"高輪地区","構造":"鉄筋コンクリート造","ふりがな":"きゅうしんのうしょうがっこう","英語名称":"Former Shinno Elementary School","電話番号1":"03-3441-8391","電話番号2":"","自治体コード":"131032","一時受入人員可能数":"1104","長期受入人員可能数":"660"},{"name":"三田中学校","province":"東京都","city":"港区","address":"東京都港区三田四丁目13番13号","lat":35.645242,"lon":139.740818,"分類":"区民避難所(地域防災拠点)","地区":"高輪地区","構造":"鉄骨鉄筋コンクリート造","ふりがな":"みたちゅうがっこう","英語名称":"Mita Junior High School","電話番号1":"03-5441-7348","電話番号2":"","自治体コード":"131032","一時受入人員可能数":"1443","長期受入人員可能数":"721"},{"name":"高松中学校","province":"東京都","city":"港区","address":"東京都港区高輪一丁目16番25号","lat":35.640624,"lon":139.733937,"分類":"区民避難所(地域防災拠点)","地区":"高輪地区","構造":"鉄骨鉄筋コンクリート造","ふりがな":"たかまつちゅうがっこう","英語名称":"Takamatsu Junior High School","電話番号1":"03-3441-6239","電話番号2":"","自治体コード":"131032","一時受入人員可能数":"2306","長期受入人員可能数":"1394"},{"name":"高輪台小学校","province":"東京都","city":"港区","address":"東京都港区高輪二丁目8番24号","lat":35.636383,"lon":139.734193,"分類":"区民避難所(地域防災拠点)","地区":"高輪地区","構造":"鉄筋コンクリート造","ふりがな":"たかなわだいしょうがっこう","英語名称":"Takanawadai Elementary School","電話番号1":"03-5447-0616","電話番号2":"","自治体コード":"131032","一時受入人員可能数":"943","長期受入人員可能数":"568"},{"name":"高輪子ども中高生プラザ","province":"東京都","city":"港区","address":"東京都港区高輪一丁目4番35号","lat":35.642437,"lon":139.734846,"分類":"区民避難所(地域防災拠点)","地区":"高輪地区","構造":"鉄骨鉄筋コンクリート造","ふりがな":"たかなわこどもちゅうこうせいぷらざ","英語名称":"Takanawa Kids-to-Teens Plaza","電話番号1":"03-3443-1555","電話番号2":"","自治体コード":"131032","一時受入人員可能数":"1005","長期受入人員可能数":"670"},{"name":"豊岡いきいきプラザ","province":"東京都","city":"港区","address":"東京都港区三田五丁目7番7号","lat":35.646517,"lon":139.739624,"分類":"区民避難所(地域防災拠点)","地区":"高輪地区","構造":"鉄筋コンクリート造","ふりがな":"とよおかいきいきぷらざ","英語名称":"Toyooka Iki-iki Plaza","電話番号1":"03-3453-1591","電話番号2":"","自治体コード":"131032","一時受入人員可能数":"121","長期受入人員可能数":"72"},{"name":"高輪いきいきプラザ","province":"東京都","city":"港区","address":"東京都港区高輪三丁目18番15号","lat":35.63322,"lon":139.73571,"分類":"区民避難所(地域防災拠点)","地区":"高輪地区","構造":"鉄筋コンクリート造","ふりがな":"たかなわいきいきぷらざ","英語名称":"Takanawa Iki-iki Plaza","電話番号1":"03-3449-1643","電話番号2":"","自治体コード":"131032","一時受入人員可能数":"138","長期受入人員可能数":"81"},{"name":"白金いきいきプラザ","province":"東京都","city":"港区","address":"東京都港区白金三丁目10番12号","lat":35.644875,"lon":139.731098,"分類":"区民避難所(地域防災拠点)","地区":"高輪地区","構造":"鉄筋コンクリート造","ふりがな":"しろかねいきいきぷらざ","英語名称":"Shirokane Iki-iki Plaza","電話番号1":"03-3441-3680","電話番号2":"","自治体コード":"131032","一時受入人員可能数":"129","長期受入人員可能数":"76"},{"name":"白金台いきいきプラザ","province":"東京都","city":"港区","address":"東京都港区白金台四丁目8番5号","lat":35.637738,"lon":139.724908,"分類":"区民避難所(地域防災拠点)","地区":"高輪地区","構造":"鉄骨鉄筋コンクリート造","ふりがな":"しろかねだいいきいきぷらざ","英語名称":"Shirokanedai Iki-iki Plaza","電話番号1":"03-3440-4627","電話番号2":"","自治体コード":"131032","一時受入人員可能数":"424","長期受入人員可能数":"255"},{"name":"芝浦小学校","province":"東京都","city":"港区","address":"東京都港区芝浦四丁目8番18号","lat":35.638124,"lon":139.746205,"分類":"区民避難所(地域防災拠点)","地区":"芝浦港南地区","構造":"鉄骨鉄筋コンクリート造","ふりがな":"しばうらしょうがっこう","英語名称":"Shibaura Elementary School","電話番号1":"03-3451-4992","電話番号2":"","自治体コード":"131032","一時受入人員可能数":"1339","長期受入人員可能数":"803"},{"name":"港南小学校","province":"東京都","city":"港区","address":"東京都港区港南四丁目3番28号","lat":35.629227,"lon":139.749657,"分類":"区民避難所(地域防災拠点)","地区":"芝浦港南地区","構造":"鉄筋コンクリート造","ふりがな":"こうなんしょうがっこう","英語名称":"Konan Elementary School","電話番号1":"03-3474-1501","電話番号2":"","自治体コード":"131032","一時受入人員可能数":"2427","長期受入人員可能数":"1468"},{"name":"港南中学校","province":"東京都","city":"港区","address":"東京都港区港南四丁目3番3号","lat":35.631207,"lon":139.749078,"分類":"区民避難所(地域防災拠点)","地区":"芝浦港南地区","構造":"鉄筋コンクリート造","ふりがな":"こうなんちゅうがっこう","英語名称":"Konan Junior High School","電話番号1":"03-3471-0238","電話番号2":"","自治体コード":"131032","一時受入人員可能数":"2236","長期受入人員可能数":"1351"},{"name":"芝浦港南区民センター","province":"東京都","city":"港区","address":"東京都港区芝浦四丁目13番1号","lat":35.640555,"lon":139.748687,"分類":"区民避難所(地域防災拠点)","地区":"芝浦港南地区","構造":"鉄筋コンクリート造","ふりがな":"しばうらこうなんくみんセンター","英語名称":"Shibaura-konan Civic Center","電話番号1":"03-3769-8864","電話番号2":"","自治体コード":"131032","一時受入人員可能数":"433","長期受入人員可能数":"259"},{"name":"みなとパーク芝浦(港区スポーツセンター・男女平等参画センター)","province":"東京都","city":"港区","address":"東京都港区芝浦一丁目16番1号","lat":35.646717,"lon":139.751751,"分類":"区民避難所(地域防災拠点)","地区":"芝浦港南地区","構造":"鉄骨造","ふりがな":"みなとぱーくしばうら(みなとくすぽーつせんたー・だんじょびょうどうさんかくせんたー)","英語名称":"Minato Park Shibaura(Minato City Sports Center Gender Equality Center)","電話番号1":"03-6400-0036","電話番号2":"","自治体コード":"131032","一時受入人員可能数":"7442","長期受入人員可能数":"4502"},{"name":"港南子ども中高生プラザ(港区スポーツセンター・男女平等参画センター)","province":"東京都","city":"港区","address":"東京都港区港南四丁目3番7号","lat":35.631063,"lon":139.749897,"分類":"区民避難所(地域防災拠点)","地区":"芝浦港南地区","構造":"鉄骨鉄筋コンクリート造","ふりがな":"こうなんこどもちゅうこうせいぷらざ(みなとくすぽーつせんたー・だんじょびょうどうさんかくせんたー)","英語名称":"Konan Kids-to-Teens Plaza","電話番号1":"03-3450-9576","電話番号2":"","自治体コード":"131032","一時受入人員可能数":"1218","長期受入人員可能数":"730"},{"name":"港南いきいきプラザ","province":"東京都","city":"港区","address":"東京都港区港南四丁目2番1号","lat":35.629624,"lon":139.747098,"分類":"区民避難所(地域防災拠点)","地区":"芝浦港南地区","構造":"鉄筋コンクリート造","ふりがな":"こうなんいきいきぷらざ","英語名称":"Konan Iki-iki Plaza","電話番号1":"03-3450-9915","電話番号2":"","自治体コード":"131032","一時受入人員可能数":"191","長期受入人員可能数":"112"},{"name":"お台場学園港陽小・中学校","province":"東京都","city":"港区","address":"東京都港区台場一丁目1番5号","lat":35.633775,"lon":139.77704,"分類":"区民避難所(地域防災拠点)","地区":"芝浦港南地区","構造":"鉄筋コンクリート造","ふりがな":"おだいばがくえんこうようしょう・ちゅうがっこう","英語名称":"Odaiba Gakuen Koyo Elementary and Junior High School","電話番号1":"03-5500-2575","電話番号2":"","自治体コード":"131032","一時受入人員可能数":"3360","長期受入人員可能数":"2026"},{"name":"台場区民センター","province":"東京都","city":"港区","address":"東京都港区台場一丁目5番1号","lat":35.629987,"lon":139.776995,"分類":"区民避難所(地域防災拠点)","地区":"芝浦港南地区","構造":"鉄骨鉄筋コンクリート造","ふりがな":"だいばくみんせんたー","英語名称":"Daiba Civic Center","電話番号1":"03-5500-2355","電話番号2":"","自治体コード":"131032","一時受入人員可能数":"298","長期受入人員可能数":"179"},{"name":"芝浜小学校","province":"東京都","city":"港区","address":"東京都港区芝浦1丁目16番31号","lat":35.645975,"lon":139.751472,"分類":"区民避難所(地域防災拠点)","地区":"芝浦港南地区","構造":"PcaPc造","ふりがな":"しばはましょうがっこう","英語名称":"Shibahama Elementary School","電話番号1":"03-3769-3051","電話番号2":"","自治体コード":"131032","一時受入人員可能数":"932","長期受入人員可能数":"563"},{"name":"障害保健福祉センター","province":"東京都","city":"港区","address":"東京都港区芝一丁目8番23号","lat":35.651557,"lon":139.755573,"分類":"福祉避難所","地区":"芝地区","構造":"鉄骨鉄筋コンクリート造","ふりがな":"しょうがいほけんふくしせんたー","英語名称":"Health and Welfare Center for the Disabled","電話番号1":"03-5439-2511","電話番号2":"","自治体コード":"131032","一時受入人員可能数":"90","長期受入人員可能数":""},{"name":"新橋はつらつ太陽","province":"東京都","city":"港区","address":"東京都港区新橋六丁目19番2号","lat":35.661205,"lon":139.754003,"分類":"福祉避難所","地区":"芝地区","構造":"鉄骨鉄筋コンクリート造","ふりがな":"しんばしはつらつたいよう","英語名称":"Shimbashi Hatsuratsu Taiyo","電話番号1":"03-3433-0180","電話番号2":"","自治体コード":"131032","一時受入人員可能数":"60","長期受入人員可能数":""},{"name":"特別養護老人ホーム白金の森","province":"東京都","city":"港区","address":"東京都港区白金台五丁目20番5号","lat":35.63709,"lon":139.722072,"分類":"福祉避難所","地区":"高輪地区","構造":"鉄筋コンクリート造","ふりがな":"とくべつようごろうじんほーむしろかねのもり","英語名称":"Shirokane no Mori","電話番号1":"03-3449-9611","電話番号2":"","自治体コード":"131032","一時受入人員可能数":"49","長期受入人員可能数":""},{"name":"特別養護老人ホーム港南の郷","province":"東京都","city":"港区","address":"東京都港区港南三丁目3番23号","lat":35.633266,"lon":139.749263,"分類":"福祉避難所","地区":"芝浦港南地区","構造":"鉄骨鉄筋コンクリート造","ふりがな":"とくべつようごろうじんほーむこうなんのさと","英語名称":"Konan-no-Sato","電話番号1":"03-3450-5571","電話番号2":"","自治体コード":"131032","一時受入人員可能数":"50","長期受入人員可能数":""},{"name":"特別養護老人ホームサン・サン赤坂","province":"東京都","city":"港区","address":"東京都港区赤坂六丁目6番14号","lat":35.669761,"lon":139.737559,"分類":"福祉避難所","地区":"赤坂地区","構造":"鉄筋コンクリート造","ふりがな":"とくべつようごろうじんほーむさん・さんあかさか","英語名称":"Sun-Sun Akasaka","電話番号1":"03-5561-7833","電話番号2":"","自治体コード":"131032","一時受入人員可能数":"50","長期受入人員可能数":""},{"name":"特別養護老人ホーム麻布慶福苑","province":"東京都","city":"港区","address":"東京都港区南麻布五丁目1番20号","lat":35.653668,"lon":139.721819,"分類":"福祉避難所","地区":"麻布地区","構造":"鉄筋コンクリート造","ふりがな":"とくべつようごろうじんほーむあざぶけいふくえん","英語名称":"Azabu Keifukuen","電話番号1":"03-3446-5501","電話番号2":"","自治体コード":"131032","一時受入人員可能数":"52","長期受入人員可能数":""},{"name":"特別養護老人ホームベル","province":"東京都","city":"港区","address":"東京都港区西麻布四丁目7番2号","lat":35.656127,"lon":139.722306,"分類":"福祉避難所","地区":"麻布地区","構造":"鉄筋コンクリート造","ふりがな":"とくべつようごろうじんほーむべる","英語名称":"Bell","電話番号1":"03-3499-2823","電話番号2":"","自治体コード":"131032","一時受入人員可能数":"28","長期受入人員可能数":""},{"name":"特別養護老人ホーム新橋さくらの園","province":"東京都","city":"港区","address":"東京都港区新橋六丁目19番2号","lat":35.661201,"lon":139.753707,"分類":"福祉避難所","地区":"芝地区","構造":"鉄骨鉄筋コンクリート造","ふりがな":"とくべつようごろうじんほーむしんばしさくらのその","英語名称":"Shimbashi Sakura-no-Sono","電話番号1":"03-3433-0183","電話番号2":"","自治体コード":"131032","一時受入人員可能数":"120","長期受入人員可能数":""},{"name":"特別養護老人ホームありすの杜きのこ南麻布","province":"東京都","city":"港区","address":"東京都港区南麻布四丁目6番1号","lat":35.650765,"lon":139.72666,"分類":"福祉避難所","地区":"麻布地区","構造":"鉄筋コンクリート造","ふりがな":"とくべつようごろうじんほーむありすのもりきのこみなみあざぶ","英語名称":"Arisu-no-mori Kinoko Minami-azabu","電話番号1":"03-5739-0585","電話番号2":"","自治体コード":"131032","一時受入人員可能数":"110","長期受入人員可能数":""},{"name":"特別養護老人ホーム洛和ヴィラ南麻布","province":"東京都","city":"港区","address":"東京都港区南麻布四丁目6番1号","lat":35.650244,"lon":139.72673,"分類":"福祉避難所","地区":"麻布地区","構造":"鉄筋コンクリート造","ふりがな":"とくべつようごろうじんほーむらくわヴぃらみなみあざぶ","英語名称":"Rakuwa Villa Minami-azabu","電話番号1":"03-6408-8677","電話番号2":"","自治体コード":"131032","一時受入人員可能数":"110","長期受入人員可能数":""},{"name":"老人保健施設ルネサンス麻布","province":"東京都","city":"港区","address":"東京都港区南麻布二丁目10番21号","lat":35.647927,"lon":139.735179,"分類":"福祉避難所","地区":"麻布地区","構造":"鉄筋コンクリート造","ふりがな":"ろうじんほけんしせつるねさんすあざぶ","英語名称":"Renaissance Azabu","電話番号1":"03-3453-5015","電話番号2":"","自治体コード":"131032","一時受入人員可能数":"50","長期受入人員可能数":""},{"name":"老人保健施設新橋ばらの園","province":"東京都","city":"港区","address":"東京都港区新橋六丁目19番2号","lat":35.661181,"lon":139.753838,"分類":"福祉避難所","地区":"芝地区","構造":"鉄筋コンクリート造","ふりがな":"ろうじんほけんしせつしんばしばらのその","英語名称":"Shimbashi Bara-no-Sono","電話番号1":"03-3433-0182","電話番号2":"","自治体コード":"131032","一時受入人員可能数":"100","長期受入人員可能数":""},{"name":"老人保健施設洛和ヴィラサラサ","province":"東京都","city":"港区","address":"東京都港区南麻布四丁目6番1号","lat":35.650309,"lon":139.726778,"分類":"福祉避難所","地区":"芝地区","構造":"鉄筋コンクリート造","ふりがな":"ろうじんほけんしせつらくわヴぃらさらさ","英語名称":"Rakuwa Villa Sarasa","電話番号1":"03-6408-8676","電話番号2":"","自治体コード":"131032","一時受入人員可能数":"50","長期受入人員可能数":""},{"name":"高齢者在宅サービスセンター白金の森","province":"東京都","city":"港区","address":"東京都港区白金台五丁目20番5号","lat":35.637094,"lon":139.722065,"分類":"福祉避難所","地区":"高輪地区","構造":"鉄筋コンクリート造","ふりがな":"こうれいしゃざいたくさーびすせんたーしろかねのもり","英語名称":"Shirokane-no-Mori","電話番号1":"03-3449-9615","電話番号2":"","自治体コード":"131032","一時受入人員可能数":"60","長期受入人員可能数":""},{"name":"高齢者在宅サービスセンター港南の郷","province":"東京都","city":"港区","address":"東京都港区港南三丁目3番23号","lat":35.633218,"lon":139.749097,"分類":"福祉避難所","地区":"高輪地区","構造":"鉄骨鉄筋コンクリート造","ふりがな":"こうれいしゃざいたくさーびすせんたーこうなんのさと","英語名称":"Konan-no-Sato","電話番号1":"03-3450-5571","電話番号2":"","自治体コード":"131032","一時受入人員可能数":"153","長期受入人員可能数":""},{"name":"高齢者在宅サービスセンターサン・サン赤坂","province":"東京都","city":"港区","address":"東京都港区赤坂六丁目6番14号","lat":35.669778,"lon":139.737515,"分類":"福祉避難所","地区":"赤坂地区","構造":"鉄筋コンクリート造","ふりがな":"こうれいしゃざいたくさーびすせんたーさん・さんあかさか","英語名称":"Sun-Sun Akasaka","電話番号1":"03-5561-7831","電話番号2":"","自治体コード":"131032","一時受入人員可能数":"83","長期受入人員可能数":""},{"name":"南麻布高齢者在宅サービスセンター","province":"東京都","city":"港区","address":"東京都港区南麻布一丁目5番26号","lat":35.651364,"lon":139.735194,"分類":"福祉避難所","地区":"麻布地区","構造":"鉄筋コンクリート造","ふりがな":"みなみあざぶこうれいしゃざいたくさーびすせんたー","英語名称":"Minami-azabu","電話番号1":"03-5232-9672","電話番号2":"","自治体コード":"131032","一時受入人員可能数":"56","長期受入人員可能数":""},{"name":"台場高齢者在宅サービスセンター","province":"東京都","city":"港区","address":"東京都港区台場一丁目5番5号","lat":35.630595,"lon":139.778018,"分類":"福祉避難所","地区":"芝浦港南地区","構造":"鉄骨鉄筋コンクリート造","ふりがな":"だいばこうれいしゃざいたくさーびすせんたー","英語名称":"Daiba","電話番号1":"03-5531-0520","電話番号2":"","自治体コード":"131032","一時受入人員可能数":"59","長期受入人員可能数":""},{"name":"北青山高齢者在宅サービスセンター","province":"東京都","city":"港区","address":"東京都港区北青山一丁目6番1号","lat":35.673546,"lon":139.721794,"分類":"福祉避難所","地区":"芝浦港南地区","構造":"鉄筋コンクリート造","ふりがな":"きたあおやまこうれいしゃざいたくさーびすせんたー","英語名称":"Kita-aoyama","電話番号1":"03-5410-3410","電話番号2":"","自治体コード":"131032","一時受入人員可能数":"116","長期受入人員可能数":""},{"name":"芝高齢者在宅サービスセンター","province":"東京都","city":"港区","address":"東京都港区芝三丁目24番5号","lat":35.651384,"lon":139.748125,"分類":"福祉避難所","地区":"芝地区","構造":"鉄骨造","ふりがな":"しばこうれいしゃざいたくさーびすせんたー","英語名称":"Shiba","電話番号1":"03-5232-0848","電話番号2":"","自治体コード":"131032","一時受入人員可能数":"53","長期受入人員可能数":""},{"name":"虎ノ門高齢者在宅サービスセンター","province":"東京都","city":"港区","address":"東京都港区虎ノ門一丁目21番10号","lat":35.667853,"lon":139.748728,"分類":"福祉避難所","地区":"芝地区","構造":"鉄筋コンクリート造","ふりがな":"とらのもんこうれいしゃざいたくさーびすせんたー","英語名称":"Toranomon","電話番号1":"03-3539-3710","電話番号2":"","自治体コード":"131032","一時受入人員可能数":"45","長期受入人員可能数":""},{"name":"特別養護老人ホーム南麻布シニアガーデンアリス","province":"東京都","city":"港区","address":"東京都港区南麻布四丁目6番13号","lat":35.650591,"lon":139.727203,"分類":"福祉避難所","地区":"麻布地区","構造":"鉄筋コンクリート造","ふりがな":"とくべつようごろうじんほーむみなみあざぶしにあがーでんありす","英語名称":"Minamiazabushiniaga-denarisu","電話番号1":"03-3578-2421","電話番号2":"","自治体コード":"131032","一時受入人員可能数":"","長期受入人員可能数":""},{"name":"区立障害者支援施設 港区立障害者支援ホーム南麻布","province":"東京都","city":"港区","address":"東京都港区南麻布四丁目6番13号","lat":35.650591,"lon":139.727203,"分類":"福祉避難所","地区":"麻布地区","構造":"鉄筋コンクリート造","ふりがな":"みなとくりつしょうがいしゃしえんほーむみなみあざぶ","英語名称":"Minatokuritu syougaisyasienho-muminamiazabu","電話番号1":"03-3578-2387","電話番号2":"","自治体コード":"131032","一時受入人員可能数":"","長期受入人員可能数":""},{"name":"児童発達支援センター","province":"東京都","city":"港区","address":"東京都港区南麻布四丁目6番13号","lat":35.650591,"lon":139.727203,"分類":"福祉避難所","地区":"麻布地区","構造":"鉄筋コンクリート造","ふりがな":"じどうはったつしえんせんたー","英語名称":"","電話番号1":"03-6277-3106","電話番号2":"","自治体コード":"131032","一時受入人員可能数":"","長期受入人員可能数":""}]}