{"keyword":"立川","data":[{"name":"錦図書館","province":"東京都","city":"立川市","address":"立川市錦町3-12-25","lat":35.691143,"lon":139.416611},{"name":"幸図書館","province":"東京都","city":"立川市","address":"立川市幸町5-83-1","lat":35.725845,"lon":139.418884},{"name":"高松図書館","province":"東京都","city":"立川市","address":"立川市高松町3-22-5","lat":35.702965,"lon":139.419037},{"name":"柴崎図書館","province":"東京都","city":"立川市","address":"立川市柴崎町1-1-43","lat":35.696419,"lon":139.406128},{"name":"若葉図書館","province":"東京都","city":"立川市","address":"立川市若葉町3-34-1","lat":35.720413,"lon":139.439346},{"name":"上砂図書館","province":"東京都","city":"立川市","address":"立川市上砂町1-13-1","lat":35.720753,"lon":139.388092},{"name":"西砂図書館","province":"東京都","city":"立川市","address":"立川市西砂町6-12-10","lat":35.729572,"lon":139.372147},{"name":"多摩川図書館","province":"東京都","city":"立川市","address":"立川市富士見町6-51-1","lat":35.691235,"lon":139.393234},{"name":"中央図書館","province":"東京都","city":"立川市","address":"立川市曙町2-36-2","lat":35.702438,"lon":139.414093},{"name":"川越道緑地古民家園","province":"東京都","city":"立川市","address":"立川市幸町4-65","lat":35.725407,"lon":139.426544},{"name":"立川市歴史民俗資料館","province":"東京都","city":"立川市","address":"立川市富士見町3-12-34","lat":35.696888,"lon":139.389633},{"name":"立川市女性総合センター・アイム","province":"東京都","city":"立川市","address":"立川市曙町2-36-2","lat":35.702438,"lon":139.414093},{"name":"こぶし会館","province":"東京都","city":"立川市","address":"立川市幸町5-83-1","lat":35.725845,"lon":139.418884},{"name":"こんぴら橋会館","province":"東京都","city":"立川市","address":"立川市砂川町3-26-1","lat":35.727898,"lon":139.399353},{"name":"さかえ会館","province":"東京都","city":"立川市","address":"立川市栄町4-6-2","lat":35.711086,"lon":139.424942},{"name":"羽衣中央会館","province":"東京都","city":"立川市","address":"立川市羽衣町2-26-7","lat":35.694225,"lon":139.428238},{"name":"錦学習館","province":"東京都","city":"立川市","address":"立川市錦町3-12-25","lat":35.691143,"lon":139.416611},{"name":"幸学習館","province":"東京都","city":"立川市","address":"立川市幸町2-1-3","lat":35.718868,"lon":139.425385},{"name":"高松会館","province":"東京都","city":"立川市","address":"立川市高松町2-25-26","lat":35.704758,"lon":139.419601},{"name":"高松学習館","province":"東京都","city":"立川市","address":"立川市高松町3-22-5","lat":35.702965,"lon":139.419037},{"name":"砂川学習館","province":"東京都","city":"立川市","address":"立川市砂川町1-52-7","lat":35.723061,"lon":139.403229},{"name":"柴崎会館","province":"東京都","city":"立川市","address":"立川市柴崎町1-16-3","lat":35.692467,"lon":139.407089},{"name":"柴崎学習館","province":"東京都","city":"立川市","address":"立川市柴崎町1-1-43","lat":35.696419,"lon":139.406128},{"name":"若葉会館","province":"東京都","city":"立川市","address":"立川市若葉町3-34-1","lat":35.720413,"lon":139.439346},{"name":"上砂会館","province":"東京都","city":"立川市","address":"立川市上砂町1-31-1","lat":35.717789,"lon":139.391754},{"name":"西砂会館","province":"東京都","city":"立川市","address":"立川市西砂町5-11-13","lat":35.731682,"lon":139.360687},{"name":"西砂学習館","province":"東京都","city":"立川市","address":"立川市西砂町6-12-10","lat":35.729572,"lon":139.372147},{"name":"滝ノ上会館","province":"東京都","city":"立川市","address":"立川市富士見町4-16-10","lat":35.695988,"lon":139.398514},{"name":"天王橋会館","province":"東京都","city":"立川市","address":"立川市一番町3-6-1","lat":35.72831,"lon":139.381058}]}