{"keyword":"保育","data":[{"name":"谷里保育園","province":"東京都","city":"東大和市","address":"東大和市狭山3-1349-4","lat":35.75534,"lon":139.43658},{"name":"狭山保育園","province":"東京都","city":"東大和市","address":"東大和市狭山1-849-1","lat":35.759156,"lon":139.436578},{"name":"紫水保育園","province":"東京都","city":"東大和市","address":"東大和市清水3-859-7","lat":35.752729,"lon":139.443502},{"name":"大和南保育園","province":"東京都","city":"東大和市","address":"東大和市清原3-1","lat":35.741461,"lon":139.449027},{"name":"大和東保育園","province":"東京都","city":"東大和市","address":"東大和市清原2-2-2","lat":35.744516,"lon":139.444305},{"name":"高木保育園","province":"東京都","city":"東大和市","address":"東大和市向原6-1","lat":35.738531,"lon":139.434348},{"name":"向原保育園","province":"東京都","city":"東大和市","address":"東大和市向原1-4-2","lat":35.741694,"lon":139.440178},{"name":"れんげ南街保育園","province":"東京都","city":"東大和市","address":"東大和市南街4-3-1","lat":35.738039,"lon":139.433181},{"name":"のぞみ保育園","province":"東京都","city":"東大和市","address":"東大和市中央2-858-1","lat":35.745302,"lon":139.429012},{"name":"明徳保育園","province":"東京都","city":"東大和市","address":"東大和市立野2-3-7","lat":35.744729,"lon":139.416283},{"name":"立野みどり保育園","province":"東京都","city":"東大和市","address":"東大和市立野3-587-7外","lat":35.739347,"lon":139.422382},{"name":"れんげ桜が丘保育園","province":"東京都","city":"東大和市","address":"東大和市桜が丘3-44-18","lat":35.734281,"lon":139.418108},{"name":"玉川上水保育園","province":"東京都","city":"東大和市","address":"東大和市桜が丘4-29-18","lat":35.735186,"lon":139.416327},{"name":"上北台こひつじ保育園","province":"東京都","city":"東大和市","address":"東大和市上北台2-886-36","lat":35.743541,"lon":139.411389},{"name":"れんげ上北台保育園","province":"東京都","city":"東大和市","address":"東大和市蔵敷3-691-2","lat":35.749432,"lon":139.417746},{"name":"れんげ保育園","province":"東京都","city":"東大和市","address":"東大和市芋窪3-1615","lat":35.752542,"lon":139.413366}]}