{"keyword":"医薬","data":[{"name":"東大和市","province":"東京都","city":"東大和市","address":"東大和市中央3-930","lat":35.7447136,"lon":139.4270378},{"name":"東大和南公園","province":"東京都","city":"東大和市","address":"東京都東大和市桜が丘3丁目","lat":35.733499,"lon":139.424419},{"name":"東大和南公園","province":"東京都","city":"東大和市","address":"東京都東大和市桜が丘3丁目","lat":35.733979,"lon":139.420752},{"name":"東大和南公園","province":"東京都","city":"東大和市","address":"東京都東大和市桜が丘3丁目","lat":35.734761,"lon":139.421813},{"name":"東大和南公園","province":"東京都","city":"東大和市","address":"東京都東大和市桜が丘3丁目","lat":35.733517,"lon":139.424177},{"name":"東大和サービスステーション","province":"東京都","city":"東大和市","address":"東京都東大和市上北台3丁目447","lat":35.741554,"lon":139.415828},{"name":"北多摩西部消防署","province":"東京都","city":"東大和市","address":"東京都東大和市上北台1丁目956-1","lat":35.747336,"lon":139.413359},{"name":"立川市玉川上水駅南口公衆便所","province":"東京都","city":"東大和市","address":"東京都東大和市桜が丘4丁目19","lat":35.731596,"lon":139.418157},{"name":"東大和市立保健センター","province":"東京都","city":"東大和市","address":"東京都東大和市中央3丁目918-1","lat":35.745728,"lon":139.427504},{"name":"東大和市役所本庁舎","province":"東京都","city":"東大和市","address":"東京都東大和市中央3丁目","lat":35.745384,"lon":139.426052},{"name":"東大和市役所本庁舎","province":"東京都","city":"東大和市","address":"東京都東大和市中央3丁目930","lat":35.745299,"lon":139.426405},{"name":"東大和市立中央公民館","province":"東京都","city":"東大和市","address":"東京都東大和市中央3丁目926","lat":35.744714,"lon":139.426469},{"name":"東大和市立蔵敷公民館","province":"東京都","city":"東大和市","address":"東京都東大和市蔵敷2丁目337","lat":35.754173,"lon":139.416278},{"name":"東大和市奈良橋市民センター","province":"東京都","city":"東大和市","address":"東京都東大和市奈良橋4丁目600","lat":35.75246,"lon":139.425755},{"name":"東大和市上北台市民センター","province":"東京都","city":"東大和市","address":"東京都東大和市上北台2丁目865-9","lat":35.742902,"lon":139.414666},{"name":"東大和市桜が丘市民センター","province":"東京都","city":"東大和市","address":"東京都東大和市桜が丘3丁目44-13","lat":35.734335,"lon":139.420303},{"name":"東大和市桜が丘市民センター","province":"東京都","city":"東大和市","address":"東京都東大和市桜が丘3丁目44-13","lat":35.73444,"lon":139.420301},{"name":"東大和市清原市民センター","province":"東京都","city":"東大和市","address":"東京都東大和市清原4丁目1-16","lat":35.740873,"lon":139.447282},{"name":"東大和市向原市民センター","province":"東京都","city":"東大和市","address":"東京都東大和市向原3丁目10","lat":35.740607,"lon":139.436537},{"name":"東大和市向原市民センター","province":"東京都","city":"東大和市","address":"東京都東大和市向原3丁目10","lat":35.740615,"lon":139.437047},{"name":"東大和市南街市民センター","province":"東京都","city":"東大和市","address":"東京都東大和市南街5丁目32","lat":35.737256,"lon":139.431597},{"name":"郷土博物館","province":"東京都","city":"東大和市","address":"東京都東大和市奈良橋1丁目260-2","lat":35.755095,"lon":139.422825},{"name":"東大和市立中央図書館","province":"東京都","city":"東大和市","address":"東京都東大和市中央3丁目930","lat":35.744823,"lon":139.427135},{"name":"東大和市立中央図書館","province":"東京都","city":"東大和市","address":"東京都東大和市中央3丁目930","lat":35.744783,"lon":139.427036},{"name":"桜が丘市民広場","province":"東京都","city":"東大和市","address":"東京都東大和市桜が丘2丁目","lat":35.735115,"lon":139.425575},{"name":"東大和市民会館（ハミングホール）","province":"東京都","city":"東大和市","address":"東京都東大和市向原6丁目1","lat":35.738646,"lon":139.434384},{"name":"東大和市民会館（ハミングホール）","province":"東京都","city":"東大和市","address":"東京都東大和市向原6丁目1","lat":35.738577,"lon":139.434208},{"name":"東大和市民会館（ハミングホール）","province":"東京都","city":"東大和市","address":"東京都東大和市向原6丁目1","lat":35.738926,"lon":139.434206},{"name":"東大和市民会館（ハミングホール）","province":"東京都","city":"東大和市","address":"東京都東大和市向原6丁目1","lat":35.738645,"lon":139.434223},{"name":"鹿島休憩場","province":"東京都","city":"東大和市","address":"東京都東大和市多摩湖6丁目","lat":35.760244,"lon":139.415032},{"name":"立野西公園","province":"東京都","city":"東大和市","address":"東京都東大和市立野2丁目6","lat":35.745366,"lon":139.417049},{"name":"立野中央公園","province":"東京都","city":"東大和市","address":"東京都東大和市立野1丁目9","lat":35.744862,"lon":139.421557},{"name":"向原西公園","province":"東京都","city":"東大和市","address":"東京都東大和市向原3丁目10","lat":35.739523,"lon":139.434457},{"name":"上仲原公園管理棟","province":"東京都","city":"東大和市","address":"東京都東大和市向原1丁目1-1","lat":35.742089,"lon":139.444319},{"name":"清原西公園","province":"東京都","city":"東大和市","address":"東京都東大和市清原2丁目1","lat":35.742871,"lon":139.444823},{"name":"桜が丘一丁目公園","province":"東京都","city":"東大和市","address":"東京都東大和市桜が丘1丁目","lat":35.731255,"lon":139.43067},{"name":"清原南公園","province":"東京都","city":"東大和市","address":"東京都東大和市清原3丁目1","lat":35.740254,"lon":139.448232},{"name":"立野東公園","province":"東京都","city":"東大和市","address":"東京都東大和市立野1丁目19","lat":35.743265,"lon":139.423341},{"name":"向原中央公園","province":"東京都","city":"東大和市","address":"東京都東大和市向原3丁目10","lat":35.73936,"lon":139.437138},{"name":"清原北公園","province":"東京都","city":"東大和市","address":"東京都東大和市清原1丁目1","lat":35.74496,"lon":139.446962},{"name":"東大和市立狭山緑地管理事務所","province":"東京都","city":"東大和市","address":"東京都東大和市奈良橋1丁目","lat":35.757992,"lon":139.421585},{"name":"東大和市駅前広場","province":"東京都","city":"東大和市","address":"東京都東大和市桜が丘1丁目","lat":35.733918,"lon":139.434499},{"name":"玉川上水駅前広場","province":"東京都","city":"東大和市","address":"東京都東大和市桜が丘4丁目19","lat":35.732447,"lon":139.418115},{"name":"きよはら児童館","province":"東京都","city":"東大和市","address":"東京都東大和市清原2丁目1-1-北17","lat":35.743095,"lon":139.446926},{"name":"市民プール","province":"東京都","city":"東大和市","address":"東京都東大和市桜が丘2丁目167-13","lat":35.736617,"lon":139.4215},{"name":"市民体育館","province":"東京都","city":"東大和市","address":"東京都東大和市桜が丘2丁目167-13","lat":35.735873,"lon":139.421302},{"name":"上北台給水所","province":"東京都","city":"東大和市","address":"東京都東大和市上北台1-801-1","lat":35.7466078,"lon":139.413939},{"name":"東大和給水所","province":"東京都","city":"東大和市","address":"東京都東大和市桜が丘3-44","lat":35.7312269,"lon":139.428196},{"name":"西武鉄道東大和市駅駐輪場","province":"東京都","city":"東大和市","address":"東京都東大和市桜が丘1丁目1415-1","lat":35.73288126,"lon":139.43434551},{"name":"西武スマイルパーク東大和市駅前第１","province":"東京都","city":"東大和市","address":"東京都東大和市桜が丘1丁目1330-19","lat":35.7330479,"lon":139.43404552},{"name":"西武スマイルパークBIGBOX東大和","province":"東京都","city":"東大和市","address":"東京都東大和市桜が丘1丁目1330-19","lat":35.7330479,"lon":139.43404552},{"name":"武蔵大和駅第2公共自転車等駐車場","province":"東京都","city":"東大和市","address":"東京都東大和市清水1丁目748-2","lat":35.75580662,"lon":139.44388817},{"name":"上北台駅第1公共自転車等駐車場","province":"東京都","city":"東大和市","address":"東京都東大和市上北台1丁目5-1","lat":35.7458127,"lon":139.4158048},{"name":"上北台駅第2公共自転車等駐車場","province":"東京都","city":"東大和市","address":"東京都東大和市上北台1丁目5-1","lat":35.7458127,"lon":139.4158048},{"name":"西武スマイルパークBIGBOX東大和第2","province":"東京都","city":"東大和市","address":"東京都東大和市桜が丘1丁目1330-19","lat":35.7330479,"lon":139.43404552},{"name":"Cycle DAICHI　武蔵大和駅前駐輪場","province":"東京都","city":"東大和市","address":"東京都東大和市清水2丁目802-1","lat":35.75551222,"lon":139.44397706},{"name":"上北台駅第7公共自転車等駐車場","province":"東京都","city":"東大和市","address":"東京都東大和市上北台1丁目5-1","lat":35.7458127,"lon":139.4158048},{"name":"上北台駅前駐輪場","province":"東京都","city":"東大和市","address":"東京都東大和市立野2丁目2-10","lat":35.74638765,"lon":139.41656581},{"name":"東大和市駅前","province":"東京都","city":"東大和市","address":"東京都東大和市向原6丁目1408-33","lat":35.73432834,"lon":139.43517869},{"name":"新堀","province":"東京都","city":"東大和市","address":"東京都東大和市清原3丁目1","lat":35.74144173,"lon":139.44908276},{"name":"東大和病院","province":"東京都","city":"東大和市","address":"東京都東大和市南街1丁目13-12","lat":35.74141631,"lon":139.43168419},{"name":"東大和給水所","province":"東京都","city":"東大和市","address":"東京都東大和市桜が丘3丁目44","lat":35.73125354,"lon":139.42818775},{"name":"東大和保育園","province":"東京都","city":"東大和市","address":"東京都東大和市新堀1-1435-33","lat":35.741073,"lon":139.449081},{"name":"ふたば保育園","province":"東京都","city":"東大和市","address":"東京都東大和市立野2-4-13","lat":35.746313,"lon":139.417341},{"name":"みつば保育園","province":"東京都","city":"東大和市","address":"東京都東大和市立野3-1293-10","lat":35.7388,"lon":139.422714},{"name":"向原第二保育園","province":"東京都","city":"東大和市","address":"東京都東大和市向原1-4-1","lat":35.741966,"lon":139.440063},{"name":"ひが保育ママ","province":"東京都","city":"東大和市","address":"東京都東大和市中央2-1101-12","lat":35.743881,"lon":139.430359},{"name":"木村保育ママ","province":"東京都","city":"東大和市","address":"東京都東大和市南街2-20-3","lat":35.741596,"lon":139.427917},{"name":"こども学園","province":"東京都","city":"東大和市","address":"東京都東大和市奈良橋2-409","lat":35.754368,"lon":139.426514},{"name":"東大和市保健センター","province":"東京都","city":"東大和市","address":"東京都東大和市中央3丁目918-1","lat":35.74572128,"lon":139.42737043},{"name":"東大和市本庁舎","province":"東京都","city":"東大和市","address":"東京都東大和市中央3丁目930","lat":35.74471306,"lon":139.42703715},{"name":"東大和市本庁舎","province":"東京都","city":"東大和市","address":"東大和市中央3-930","lat":35.744714,"lon":139.427038},{"name":"東大和警察署","province":"東京都","city":"東大和市","address":"東大和市芋窪6-1061-1","lat":35.74856,"lon":139.4107},{"name":"北多摩西部消防署","province":"東京都","city":"東大和市","address":"東大和市上北台1-956-1","lat":35.74732,"lon":139.4133},{"name":"都立東大和南公園（陸上競技場、野球場）","province":"東京都","city":"東大和市","address":"東大和市桜が丘2丁目地内","lat":35.73676,"lon":139.42},{"name":"都立東大和南公園","province":"東京都","city":"東大和市","address":"東大和市桜が丘2-106-2","lat":35.73351,"lon":139.4246},{"name":"※東大和市本庁舎","province":"東京都","city":"東大和市","address":"東京都東大和市中央3丁目930","lat":35.74471306,"lon":139.42703715},{"name":"東大和市","province":"東京都","city":"東大和市","address":"東大和市中央3-930","lat":35.7447136,"lon":139.4270378},{"name":"東大和南公園","province":"東京都","city":"東大和市","address":"東京都東大和市桜が丘3丁目","lat":35.733499,"lon":139.424419},{"name":"東大和南公園","province":"東京都","city":"東大和市","address":"東京都東大和市桜が丘3丁目","lat":35.733979,"lon":139.420752},{"name":"東大和南公園","province":"東京都","city":"東大和市","address":"東京都東大和市桜が丘3丁目","lat":35.734761,"lon":139.421813},{"name":"東大和南公園","province":"東京都","city":"東大和市","address":"東京都東大和市桜が丘3丁目","lat":35.733517,"lon":139.424177},{"name":"東大和サービスステーション","province":"東京都","city":"東大和市","address":"東京都東大和市上北台3丁目447","lat":35.741554,"lon":139.415828},{"name":"北多摩西部消防署","province":"東京都","city":"東大和市","address":"東京都東大和市上北台1丁目956-1","lat":35.747336,"lon":139.413359},{"name":"立川市玉川上水駅南口公衆便所","province":"東京都","city":"東大和市","address":"東京都東大和市桜が丘4丁目19","lat":35.731596,"lon":139.418157},{"name":"東大和市立保健センター","province":"東京都","city":"東大和市","address":"東京都東大和市中央3丁目918-1","lat":35.745728,"lon":139.427504},{"name":"東大和市役所本庁舎","province":"東京都","city":"東大和市","address":"東京都東大和市中央3丁目","lat":35.745384,"lon":139.426052},{"name":"東大和市役所本庁舎","province":"東京都","city":"東大和市","address":"東京都東大和市中央3丁目930","lat":35.745299,"lon":139.426405},{"name":"東大和市立中央公民館","province":"東京都","city":"東大和市","address":"東京都東大和市中央3丁目926","lat":35.744714,"lon":139.426469},{"name":"東大和市立蔵敷公民館","province":"東京都","city":"東大和市","address":"東京都東大和市蔵敷2丁目337","lat":35.754173,"lon":139.416278},{"name":"東大和市奈良橋市民センター","province":"東京都","city":"東大和市","address":"東京都東大和市奈良橋4丁目600","lat":35.75246,"lon":139.425755},{"name":"東大和市上北台市民センター","province":"東京都","city":"東大和市","address":"東京都東大和市上北台2丁目865-9","lat":35.742902,"lon":139.414666},{"name":"東大和市桜が丘市民センター","province":"東京都","city":"東大和市","address":"東京都東大和市桜が丘3丁目44-13","lat":35.734335,"lon":139.420303},{"name":"東大和市桜が丘市民センター","province":"東京都","city":"東大和市","address":"東京都東大和市桜が丘3丁目44-13","lat":35.73444,"lon":139.420301},{"name":"東大和市清原市民センター","province":"東京都","city":"東大和市","address":"東京都東大和市清原4丁目1-16","lat":35.740873,"lon":139.447282},{"name":"東大和市向原市民センター","province":"東京都","city":"東大和市","address":"東京都東大和市向原3丁目10","lat":35.740607,"lon":139.436537},{"name":"東大和市向原市民センター","province":"東京都","city":"東大和市","address":"東京都東大和市向原3丁目10","lat":35.740615,"lon":139.437047},{"name":"東大和市南街市民センター","province":"東京都","city":"東大和市","address":"東京都東大和市南街5丁目32","lat":35.737256,"lon":139.431597},{"name":"郷土博物館","province":"東京都","city":"東大和市","address":"東京都東大和市奈良橋1丁目260-2","lat":35.755095,"lon":139.422825},{"name":"東大和市立中央図書館","province":"東京都","city":"東大和市","address":"東京都東大和市中央3丁目930","lat":35.744823,"lon":139.427135},{"name":"東大和市立中央図書館","province":"東京都","city":"東大和市","address":"東京都東大和市中央3丁目930","lat":35.744783,"lon":139.427036},{"name":"桜が丘市民広場","province":"東京都","city":"東大和市","address":"東京都東大和市桜が丘2丁目","lat":35.735115,"lon":139.425575},{"name":"東大和市民会館（ハミングホール）","province":"東京都","city":"東大和市","address":"東京都東大和市向原6丁目1","lat":35.738646,"lon":139.434384},{"name":"東大和市民会館（ハミングホール）","province":"東京都","city":"東大和市","address":"東京都東大和市向原6丁目1","lat":35.738577,"lon":139.434208},{"name":"東大和市民会館（ハミングホール）","province":"東京都","city":"東大和市","address":"東京都東大和市向原6丁目1","lat":35.738926,"lon":139.434206},{"name":"東大和市民会館（ハミングホール）","province":"東京都","city":"東大和市","address":"東京都東大和市向原6丁目1","lat":35.738645,"lon":139.434223},{"name":"鹿島休憩場","province":"東京都","city":"東大和市","address":"東京都東大和市多摩湖6丁目","lat":35.760244,"lon":139.415032},{"name":"立野西公園","province":"東京都","city":"東大和市","address":"東京都東大和市立野2丁目6","lat":35.745366,"lon":139.417049},{"name":"立野中央公園","province":"東京都","city":"東大和市","address":"東京都東大和市立野1丁目9","lat":35.744862,"lon":139.421557},{"name":"向原西公園","province":"東京都","city":"東大和市","address":"東京都東大和市向原3丁目10","lat":35.739523,"lon":139.434457},{"name":"上仲原公園管理棟","province":"東京都","city":"東大和市","address":"東京都東大和市向原1丁目1-1","lat":35.742089,"lon":139.444319},{"name":"清原西公園","province":"東京都","city":"東大和市","address":"東京都東大和市清原2丁目1","lat":35.742871,"lon":139.444823},{"name":"桜が丘一丁目公園","province":"東京都","city":"東大和市","address":"東京都東大和市桜が丘1丁目","lat":35.731255,"lon":139.43067},{"name":"清原南公園","province":"東京都","city":"東大和市","address":"東京都東大和市清原3丁目1","lat":35.740254,"lon":139.448232},{"name":"立野東公園","province":"東京都","city":"東大和市","address":"東京都東大和市立野1丁目19","lat":35.743265,"lon":139.423341},{"name":"向原中央公園","province":"東京都","city":"東大和市","address":"東京都東大和市向原3丁目10","lat":35.73936,"lon":139.437138},{"name":"清原北公園","province":"東京都","city":"東大和市","address":"東京都東大和市清原1丁目1","lat":35.74496,"lon":139.446962},{"name":"東大和市立狭山緑地管理事務所","province":"東京都","city":"東大和市","address":"東京都東大和市奈良橋1丁目","lat":35.757992,"lon":139.421585},{"name":"東大和市駅前広場","province":"東京都","city":"東大和市","address":"東京都東大和市桜が丘1丁目","lat":35.733918,"lon":139.434499},{"name":"玉川上水駅前広場","province":"東京都","city":"東大和市","address":"東京都東大和市桜が丘4丁目19","lat":35.732447,"lon":139.418115},{"name":"きよはら児童館","province":"東京都","city":"東大和市","address":"東京都東大和市清原2丁目1-1-北17","lat":35.743095,"lon":139.446926},{"name":"市民プール","province":"東京都","city":"東大和市","address":"東京都東大和市桜が丘2丁目167-13","lat":35.736617,"lon":139.4215},{"name":"市民体育館","province":"東京都","city":"東大和市","address":"東京都東大和市桜が丘2丁目167-13","lat":35.735873,"lon":139.421302},{"name":"上北台給水所","province":"東京都","city":"東大和市","address":"東京都東大和市上北台1-801-1","lat":35.7466078,"lon":139.413939},{"name":"東大和給水所","province":"東京都","city":"東大和市","address":"東京都東大和市桜が丘3-44","lat":35.7312269,"lon":139.428196},{"name":"西武鉄道東大和市駅駐輪場","province":"東京都","city":"東大和市","address":"東京都東大和市桜が丘1丁目1415-1","lat":35.73288126,"lon":139.43434551},{"name":"西武スマイルパーク東大和市駅前第１","province":"東京都","city":"東大和市","address":"東京都東大和市桜が丘1丁目1330-19","lat":35.7330479,"lon":139.43404552},{"name":"西武スマイルパークBIGBOX東大和","province":"東京都","city":"東大和市","address":"東京都東大和市桜が丘1丁目1330-19","lat":35.7330479,"lon":139.43404552},{"name":"武蔵大和駅第2公共自転車等駐車場","province":"東京都","city":"東大和市","address":"東京都東大和市清水1丁目748-2","lat":35.75580662,"lon":139.44388817},{"name":"上北台駅第1公共自転車等駐車場","province":"東京都","city":"東大和市","address":"東京都東大和市上北台1丁目5-1","lat":35.7458127,"lon":139.4158048},{"name":"上北台駅第2公共自転車等駐車場","province":"東京都","city":"東大和市","address":"東京都東大和市上北台1丁目5-1","lat":35.7458127,"lon":139.4158048},{"name":"西武スマイルパークBIGBOX東大和第2","province":"東京都","city":"東大和市","address":"東京都東大和市桜が丘1丁目1330-19","lat":35.7330479,"lon":139.43404552},{"name":"Cycle DAICHI　武蔵大和駅前駐輪場","province":"東京都","city":"東大和市","address":"東京都東大和市清水2丁目802-1","lat":35.75551222,"lon":139.44397706},{"name":"上北台駅第7公共自転車等駐車場","province":"東京都","city":"東大和市","address":"東京都東大和市上北台1丁目5-1","lat":35.7458127,"lon":139.4158048},{"name":"上北台駅前駐輪場","province":"東京都","city":"東大和市","address":"東京都東大和市立野2丁目2-10","lat":35.74638765,"lon":139.41656581},{"name":"東大和市駅前","province":"東京都","city":"東大和市","address":"東京都東大和市向原6丁目1408-33","lat":35.73432834,"lon":139.43517869},{"name":"新堀","province":"東京都","city":"東大和市","address":"東京都東大和市清原3丁目1","lat":35.74144173,"lon":139.44908276},{"name":"東大和病院","province":"東京都","city":"東大和市","address":"東京都東大和市南街1丁目13-12","lat":35.74141631,"lon":139.43168419},{"name":"東大和保育園","province":"東京都","city":"東大和市","address":"東京都東大和市新堀1-1435-33","lat":35.741073,"lon":139.449081},{"name":"ふたば保育園","province":"東京都","city":"東大和市","address":"東京都東大和市立野2-4-13","lat":35.746313,"lon":139.417341},{"name":"みつば保育園","province":"東京都","city":"東大和市","address":"東京都東大和市立野3-1293-10","lat":35.7388,"lon":139.422714},{"name":"向原第二保育園","province":"東京都","city":"東大和市","address":"東京都東大和市向原1-4-1","lat":35.741966,"lon":139.440063},{"name":"ひが保育ママ","province":"東京都","city":"東大和市","address":"東京都東大和市中央2-1101-12","lat":35.743881,"lon":139.430359},{"name":"木村保育ママ","province":"東京都","city":"東大和市","address":"東京都東大和市南街2-20-3","lat":35.741596,"lon":139.427917},{"name":"こども学園","province":"東京都","city":"東大和市","address":"東京都東大和市奈良橋2-409","lat":35.754368,"lon":139.426514},{"name":"東大和市保健センター","province":"東京都","city":"東大和市","address":"東京都東大和市中央3丁目918-1","lat":35.74572128,"lon":139.42737043},{"name":"東大和市本庁舎","province":"東京都","city":"東大和市","address":"東京都東大和市中央3丁目930","lat":35.74471306,"lon":139.42703715},{"name":"東大和市本庁舎","province":"東京都","city":"東大和市","address":"東大和市中央3-930","lat":35.744714,"lon":139.427038},{"name":"東大和警察署","province":"東京都","city":"東大和市","address":"東大和市芋窪6-1061-1","lat":35.74856,"lon":139.4107},{"name":"北多摩西部消防署","province":"東京都","city":"東大和市","address":"東大和市上北台1-956-1","lat":35.74732,"lon":139.4133},{"name":"都立東大和南公園（陸上競技場、野球場）","province":"東京都","city":"東大和市","address":"東大和市桜が丘2丁目地内","lat":35.73676,"lon":139.42},{"name":"都立東大和南公園","province":"東京都","city":"東大和市","address":"東大和市桜が丘2-106-2","lat":35.73351,"lon":139.4246},{"name":"※東大和市本庁舎","province":"東京都","city":"東大和市","address":"東京都東大和市中央3丁目930","lat":35.74471306,"lon":139.42703715},{"name":"東大和市","province":"東京都","city":"東大和市","address":"東大和市中央3-930","lat":35.7447136,"lon":139.4270378},{"name":"東大和南公園","province":"東京都","city":"東大和市","address":"東京都東大和市桜が丘3丁目","lat":35.733499,"lon":139.424419},{"name":"東大和南公園","province":"東京都","city":"東大和市","address":"東京都東大和市桜が丘3丁目","lat":35.733979,"lon":139.420752},{"name":"東大和南公園","province":"東京都","city":"東大和市","address":"東京都東大和市桜が丘3丁目","lat":35.734761,"lon":139.421813},{"name":"東大和南公園","province":"東京都","city":"東大和市","address":"東京都東大和市桜が丘3丁目","lat":35.733517,"lon":139.424177},{"name":"東大和サービスステーション","province":"東京都","city":"東大和市","address":"東京都東大和市上北台3丁目447","lat":35.741554,"lon":139.415828},{"name":"北多摩西部消防署","province":"東京都","city":"東大和市","address":"東京都東大和市上北台1丁目956-1","lat":35.747336,"lon":139.413359},{"name":"立川市玉川上水駅南口公衆便所","province":"東京都","city":"東大和市","address":"東京都東大和市桜が丘4丁目19","lat":35.731596,"lon":139.418157},{"name":"東大和市立保健センター","province":"東京都","city":"東大和市","address":"東京都東大和市中央3丁目918-1","lat":35.745728,"lon":139.427504},{"name":"東大和市役所本庁舎","province":"東京都","city":"東大和市","address":"東京都東大和市中央3丁目","lat":35.745384,"lon":139.426052},{"name":"東大和市役所本庁舎","province":"東京都","city":"東大和市","address":"東京都東大和市中央3丁目930","lat":35.745299,"lon":139.426405},{"name":"東大和市立中央公民館","province":"東京都","city":"東大和市","address":"東京都東大和市中央3丁目926","lat":35.744714,"lon":139.426469},{"name":"東大和市立蔵敷公民館","province":"東京都","city":"東大和市","address":"東京都東大和市蔵敷2丁目337","lat":35.754173,"lon":139.416278},{"name":"東大和市奈良橋市民センター","province":"東京都","city":"東大和市","address":"東京都東大和市奈良橋4丁目600","lat":35.75246,"lon":139.425755},{"name":"東大和市上北台市民センター","province":"東京都","city":"東大和市","address":"東京都東大和市上北台2丁目865-9","lat":35.742902,"lon":139.414666},{"name":"東大和市桜が丘市民センター","province":"東京都","city":"東大和市","address":"東京都東大和市桜が丘3丁目44-13","lat":35.734335,"lon":139.420303},{"name":"東大和市桜が丘市民センター","province":"東京都","city":"東大和市","address":"東京都東大和市桜が丘3丁目44-13","lat":35.73444,"lon":139.420301},{"name":"東大和市清原市民センター","province":"東京都","city":"東大和市","address":"東京都東大和市清原4丁目1-16","lat":35.740873,"lon":139.447282},{"name":"東大和市向原市民センター","province":"東京都","city":"東大和市","address":"東京都東大和市向原3丁目10","lat":35.740607,"lon":139.436537},{"name":"東大和市向原市民センター","province":"東京都","city":"東大和市","address":"東京都東大和市向原3丁目10","lat":35.740615,"lon":139.437047},{"name":"東大和市南街市民センター","province":"東京都","city":"東大和市","address":"東京都東大和市南街5丁目32","lat":35.737256,"lon":139.431597},{"name":"郷土博物館","province":"東京都","city":"東大和市","address":"東京都東大和市奈良橋1丁目260-2","lat":35.755095,"lon":139.422825},{"name":"東大和市立中央図書館","province":"東京都","city":"東大和市","address":"東京都東大和市中央3丁目930","lat":35.744823,"lon":139.427135},{"name":"東大和市立中央図書館","province":"東京都","city":"東大和市","address":"東京都東大和市中央3丁目930","lat":35.744783,"lon":139.427036},{"name":"桜が丘市民広場","province":"東京都","city":"東大和市","address":"東京都東大和市桜が丘2丁目","lat":35.735115,"lon":139.425575},{"name":"東大和市民会館（ハミングホール）","province":"東京都","city":"東大和市","address":"東京都東大和市向原6丁目1","lat":35.738646,"lon":139.434384},{"name":"東大和市民会館（ハミングホール）","province":"東京都","city":"東大和市","address":"東京都東大和市向原6丁目1","lat":35.738577,"lon":139.434208},{"name":"東大和市民会館（ハミングホール）","province":"東京都","city":"東大和市","address":"東京都東大和市向原6丁目1","lat":35.738926,"lon":139.434206},{"name":"東大和市民会館（ハミングホール）","province":"東京都","city":"東大和市","address":"東京都東大和市向原6丁目1","lat":35.738645,"lon":139.434223},{"name":"鹿島休憩場","province":"東京都","city":"東大和市","address":"東京都東大和市多摩湖6丁目","lat":35.760244,"lon":139.415032},{"name":"立野西公園","province":"東京都","city":"東大和市","address":"東京都東大和市立野2丁目6","lat":35.745366,"lon":139.417049},{"name":"立野中央公園","province":"東京都","city":"東大和市","address":"東京都東大和市立野1丁目9","lat":35.744862,"lon":139.421557},{"name":"向原西公園","province":"東京都","city":"東大和市","address":"東京都東大和市向原3丁目10","lat":35.739523,"lon":139.434457},{"name":"上仲原公園管理棟","province":"東京都","city":"東大和市","address":"東京都東大和市向原1丁目1-1","lat":35.742089,"lon":139.444319},{"name":"清原西公園","province":"東京都","city":"東大和市","address":"東京都東大和市清原2丁目1","lat":35.742871,"lon":139.444823},{"name":"桜が丘一丁目公園","province":"東京都","city":"東大和市","address":"東京都東大和市桜が丘1丁目","lat":35.731255,"lon":139.43067},{"name":"清原南公園","province":"東京都","city":"東大和市","address":"東京都東大和市清原3丁目1","lat":35.740254,"lon":139.448232},{"name":"立野東公園","province":"東京都","city":"東大和市","address":"東京都東大和市立野1丁目19","lat":35.743265,"lon":139.423341},{"name":"向原中央公園","province":"東京都","city":"東大和市","address":"東京都東大和市向原3丁目10","lat":35.73936,"lon":139.437138},{"name":"清原北公園","province":"東京都","city":"東大和市","address":"東京都東大和市清原1丁目1","lat":35.74496,"lon":139.446962},{"name":"東大和市立狭山緑地管理事務所","province":"東京都","city":"東大和市","address":"東京都東大和市奈良橋1丁目","lat":35.757992,"lon":139.421585},{"name":"東大和市駅前広場","province":"東京都","city":"東大和市","address":"東京都東大和市桜が丘1丁目","lat":35.733918,"lon":139.434499},{"name":"玉川上水駅前広場","province":"東京都","city":"東大和市","address":"東京都東大和市桜が丘4丁目19","lat":35.732447,"lon":139.418115},{"name":"きよはら児童館","province":"東京都","city":"東大和市","address":"東京都東大和市清原2丁目1-1-北17","lat":35.743095,"lon":139.446926},{"name":"市民プール","province":"東京都","city":"東大和市","address":"東京都東大和市桜が丘2丁目167-13","lat":35.736617,"lon":139.4215},{"name":"市民体育館","province":"東京都","city":"東大和市","address":"東京都東大和市桜が丘2丁目167-13","lat":35.735873,"lon":139.421302},{"name":"西武鉄道東大和市駅駐輪場","province":"東京都","city":"東大和市","address":"東京都東大和市桜が丘1丁目1415-1","lat":35.73288126,"lon":139.43434551},{"name":"西武スマイルパーク東大和市駅前第１","province":"東京都","city":"東大和市","address":"東京都東大和市桜が丘1丁目1330-19","lat":35.7330479,"lon":139.43404552},{"name":"西武スマイルパークBIGBOX東大和","province":"東京都","city":"東大和市","address":"東京都東大和市桜が丘1丁目1330-19","lat":35.7330479,"lon":139.43404552},{"name":"武蔵大和駅第2公共自転車等駐車場","province":"東京都","city":"東大和市","address":"東京都東大和市清水1丁目748-2","lat":35.75580662,"lon":139.44388817},{"name":"上北台駅第1公共自転車等駐車場","province":"東京都","city":"東大和市","address":"東京都東大和市上北台1丁目5-1","lat":35.7458127,"lon":139.4158048},{"name":"上北台駅第2公共自転車等駐車場","province":"東京都","city":"東大和市","address":"東京都東大和市上北台1丁目5-1","lat":35.7458127,"lon":139.4158048},{"name":"西武スマイルパークBIGBOX東大和第2","province":"東京都","city":"東大和市","address":"東京都東大和市桜が丘1丁目1330-19","lat":35.7330479,"lon":139.43404552},{"name":"Cycle DAICHI　武蔵大和駅前駐輪場","province":"東京都","city":"東大和市","address":"東京都東大和市清水2丁目802-1","lat":35.75551222,"lon":139.44397706},{"name":"上北台駅第7公共自転車等駐車場","province":"東京都","city":"東大和市","address":"東京都東大和市上北台1丁目5-1","lat":35.7458127,"lon":139.4158048},{"name":"上北台駅前駐輪場","province":"東京都","city":"東大和市","address":"東京都東大和市立野2丁目2-10","lat":35.74638765,"lon":139.41656581},{"name":"東大和市駅前","province":"東京都","city":"東大和市","address":"東京都東大和市向原6丁目1408-33","lat":35.73432834,"lon":139.43517869},{"name":"新堀","province":"東京都","city":"東大和市","address":"東京都東大和市清原3丁目1","lat":35.74144173,"lon":139.44908276},{"name":"東大和保育園","province":"東京都","city":"東大和市","address":"東京都東大和市新堀1-1435-33","lat":35.741073,"lon":139.449081},{"name":"ふたば保育園","province":"東京都","city":"東大和市","address":"東京都東大和市立野2-4-13","lat":35.746313,"lon":139.417341},{"name":"みつば保育園","province":"東京都","city":"東大和市","address":"東京都東大和市立野3-1293-10","lat":35.7388,"lon":139.422714},{"name":"向原第二保育園","province":"東京都","city":"東大和市","address":"東京都東大和市向原1-4-1","lat":35.741966,"lon":139.440063},{"name":"ひが保育ママ","province":"東京都","city":"東大和市","address":"東京都東大和市中央2-1101-12","lat":35.743881,"lon":139.430359},{"name":"木村保育ママ","province":"東京都","city":"東大和市","address":"東京都東大和市南街2-20-3","lat":35.741596,"lon":139.427917},{"name":"こども学園","province":"東京都","city":"東大和市","address":"東京都東大和市奈良橋2-409","lat":35.754368,"lon":139.426514},{"name":"東大和市保健センター","province":"東京都","city":"東大和市","address":"東京都東大和市中央3丁目918-1","lat":35.74572128,"lon":139.42737043},{"name":"東大和市本庁舎","province":"東京都","city":"東大和市","address":"東京都東大和市中央3丁目930","lat":35.74471306,"lon":139.42703715},{"name":"東大和市本庁舎","province":"東京都","city":"東大和市","address":"東大和市中央3-930","lat":35.744714,"lon":139.427038},{"name":"東大和警察署","province":"東京都","city":"東大和市","address":"東大和市芋窪6-1061-1","lat":35.74856,"lon":139.4107},{"name":"北多摩西部消防署","province":"東京都","city":"東大和市","address":"東大和市上北台1-956-1","lat":35.74732,"lon":139.4133},{"name":"都立東大和南公園（陸上競技場、野球場）","province":"東京都","city":"東大和市","address":"東大和市桜が丘2丁目地内","lat":35.73676,"lon":139.42},{"name":"都立東大和南公園","province":"東京都","city":"東大和市","address":"東大和市桜が丘2-106-2","lat":35.73351,"lon":139.4246},{"name":"※東大和市本庁舎","province":"東京都","city":"東大和市","address":"東京都東大和市中央3丁目930","lat":35.74471306,"lon":139.42703715},{"name":"東大和市","province":"東京都","city":"東大和市","address":"東大和市中央3-930","lat":35.7447136,"lon":139.4270378},{"name":"東大和南公園","province":"東京都","city":"東大和市","address":"東京都東大和市桜が丘3丁目","lat":35.733499,"lon":139.424419},{"name":"東大和南公園","province":"東京都","city":"東大和市","address":"東京都東大和市桜が丘3丁目","lat":35.733979,"lon":139.420752},{"name":"東大和南公園","province":"東京都","city":"東大和市","address":"東京都東大和市桜が丘3丁目","lat":35.734761,"lon":139.421813},{"name":"東大和南公園","province":"東京都","city":"東大和市","address":"東京都東大和市桜が丘3丁目","lat":35.733517,"lon":139.424177},{"name":"東大和サービスステーション","province":"東京都","city":"東大和市","address":"東京都東大和市上北台3丁目447","lat":35.741554,"lon":139.415828},{"name":"北多摩西部消防署","province":"東京都","city":"東大和市","address":"東京都東大和市上北台1丁目956-1","lat":35.747336,"lon":139.413359},{"name":"立川市玉川上水駅南口公衆便所","province":"東京都","city":"東大和市","address":"東京都東大和市桜が丘4丁目19","lat":35.731596,"lon":139.418157},{"name":"東大和市立保健センター","province":"東京都","city":"東大和市","address":"東京都東大和市中央3丁目918-1","lat":35.745728,"lon":139.427504},{"name":"東大和市役所本庁舎","province":"東京都","city":"東大和市","address":"東京都東大和市中央3丁目","lat":35.745384,"lon":139.426052},{"name":"東大和市役所本庁舎","province":"東京都","city":"東大和市","address":"東京都東大和市中央3丁目930","lat":35.745299,"lon":139.426405},{"name":"東大和市立中央公民館","province":"東京都","city":"東大和市","address":"東京都東大和市中央3丁目926","lat":35.744714,"lon":139.426469},{"name":"東大和市立蔵敷公民館","province":"東京都","city":"東大和市","address":"東京都東大和市蔵敷2丁目337","lat":35.754173,"lon":139.416278},{"name":"東大和市奈良橋市民センター","province":"東京都","city":"東大和市","address":"東京都東大和市奈良橋4丁目600","lat":35.75246,"lon":139.425755},{"name":"東大和市上北台市民センター","province":"東京都","city":"東大和市","address":"東京都東大和市上北台2丁目865-9","lat":35.742902,"lon":139.414666},{"name":"東大和市桜が丘市民センター","province":"東京都","city":"東大和市","address":"東京都東大和市桜が丘3丁目44-13","lat":35.734335,"lon":139.420303},{"name":"東大和市桜が丘市民センター","province":"東京都","city":"東大和市","address":"東京都東大和市桜が丘3丁目44-13","lat":35.73444,"lon":139.420301},{"name":"東大和市清原市民センター","province":"東京都","city":"東大和市","address":"東京都東大和市清原4丁目1-16","lat":35.740873,"lon":139.447282},{"name":"東大和市向原市民センター","province":"東京都","city":"東大和市","address":"東京都東大和市向原3丁目10","lat":35.740607,"lon":139.436537},{"name":"東大和市向原市民センター","province":"東京都","city":"東大和市","address":"東京都東大和市向原3丁目10","lat":35.740615,"lon":139.437047},{"name":"東大和市南街市民センター","province":"東京都","city":"東大和市","address":"東京都東大和市南街5丁目32","lat":35.737256,"lon":139.431597},{"name":"郷土博物館","province":"東京都","city":"東大和市","address":"東京都東大和市奈良橋1丁目260-2","lat":35.755095,"lon":139.422825},{"name":"東大和市立中央図書館","province":"東京都","city":"東大和市","address":"東京都東大和市中央3丁目930","lat":35.744823,"lon":139.427135},{"name":"東大和市立中央図書館","province":"東京都","city":"東大和市","address":"東京都東大和市中央3丁目930","lat":35.744783,"lon":139.427036},{"name":"桜が丘市民広場","province":"東京都","city":"東大和市","address":"東京都東大和市桜が丘2丁目","lat":35.735115,"lon":139.425575},{"name":"東大和市民会館（ハミングホール）","province":"東京都","city":"東大和市","address":"東京都東大和市向原6丁目1","lat":35.738646,"lon":139.434384},{"name":"東大和市民会館（ハミングホール）","province":"東京都","city":"東大和市","address":"東京都東大和市向原6丁目1","lat":35.738577,"lon":139.434208},{"name":"東大和市民会館（ハミングホール）","province":"東京都","city":"東大和市","address":"東京都東大和市向原6丁目1","lat":35.738926,"lon":139.434206},{"name":"東大和市民会館（ハミングホール）","province":"東京都","city":"東大和市","address":"東京都東大和市向原6丁目1","lat":35.738645,"lon":139.434223},{"name":"鹿島休憩場","province":"東京都","city":"東大和市","address":"東京都東大和市多摩湖6丁目","lat":35.760244,"lon":139.415032},{"name":"立野西公園","province":"東京都","city":"東大和市","address":"東京都東大和市立野2丁目6","lat":35.745366,"lon":139.417049},{"name":"立野中央公園","province":"東京都","city":"東大和市","address":"東京都東大和市立野1丁目9","lat":35.744862,"lon":139.421557},{"name":"向原西公園","province":"東京都","city":"東大和市","address":"東京都東大和市向原3丁目10","lat":35.739523,"lon":139.434457},{"name":"上仲原公園管理棟","province":"東京都","city":"東大和市","address":"東京都東大和市向原1丁目1-1","lat":35.742089,"lon":139.444319},{"name":"清原西公園","province":"東京都","city":"東大和市","address":"東京都東大和市清原2丁目1","lat":35.742871,"lon":139.444823},{"name":"桜が丘一丁目公園","province":"東京都","city":"東大和市","address":"東京都東大和市桜が丘1丁目","lat":35.731255,"lon":139.43067},{"name":"清原南公園","province":"東京都","city":"東大和市","address":"東京都東大和市清原3丁目1","lat":35.740254,"lon":139.448232},{"name":"立野東公園","province":"東京都","city":"東大和市","address":"東京都東大和市立野1丁目19","lat":35.743265,"lon":139.423341},{"name":"向原中央公園","province":"東京都","city":"東大和市","address":"東京都東大和市向原3丁目10","lat":35.73936,"lon":139.437138},{"name":"清原北公園","province":"東京都","city":"東大和市","address":"東京都東大和市清原1丁目1","lat":35.74496,"lon":139.446962},{"name":"東大和市立狭山緑地管理事務所","province":"東京都","city":"東大和市","address":"東京都東大和市奈良橋1丁目","lat":35.757992,"lon":139.421585},{"name":"東大和市駅前広場","province":"東京都","city":"東大和市","address":"東京都東大和市桜が丘1丁目","lat":35.733918,"lon":139.434499},{"name":"玉川上水駅前広場","province":"東京都","city":"東大和市","address":"東京都東大和市桜が丘4丁目19","lat":35.732447,"lon":139.418115},{"name":"きよはら児童館","province":"東京都","city":"東大和市","address":"東京都東大和市清原2丁目1-1-北17","lat":35.743095,"lon":139.446926},{"name":"市民プール","province":"東京都","city":"東大和市","address":"東京都東大和市桜が丘2丁目167-13","lat":35.736617,"lon":139.4215},{"name":"市民体育館","province":"東京都","city":"東大和市","address":"東京都東大和市桜が丘2丁目167-13","lat":35.735873,"lon":139.421302},{"name":"西武鉄道東大和市駅駐輪場","province":"東京都","city":"東大和市","address":"東京都東大和市桜が丘1丁目1415-1","lat":35.73288126,"lon":139.43434551},{"name":"西武スマイルパーク東大和市駅前第１","province":"東京都","city":"東大和市","address":"東京都東大和市桜が丘1丁目1330-19","lat":35.7330479,"lon":139.43404552},{"name":"西武スマイルパークBIGBOX東大和","province":"東京都","city":"東大和市","address":"東京都東大和市桜が丘1丁目1330-19","lat":35.7330479,"lon":139.43404552},{"name":"武蔵大和駅第2公共自転車等駐車場","province":"東京都","city":"東大和市","address":"東京都東大和市清水1丁目748-2","lat":35.75580662,"lon":139.44388817},{"name":"上北台駅第1公共自転車等駐車場","province":"東京都","city":"東大和市","address":"東京都東大和市上北台1丁目5-1","lat":35.7458127,"lon":139.4158048},{"name":"上北台駅第2公共自転車等駐車場","province":"東京都","city":"東大和市","address":"東京都東大和市上北台1丁目5-1","lat":35.7458127,"lon":139.4158048},{"name":"西武スマイルパークBIGBOX東大和第2","province":"東京都","city":"東大和市","address":"東京都東大和市桜が丘1丁目1330-19","lat":35.7330479,"lon":139.43404552},{"name":"Cycle DAICHI　武蔵大和駅前駐輪場","province":"東京都","city":"東大和市","address":"東京都東大和市清水2丁目802-1","lat":35.75551222,"lon":139.44397706},{"name":"上北台駅第7公共自転車等駐車場","province":"東京都","city":"東大和市","address":"東京都東大和市上北台1丁目5-1","lat":35.7458127,"lon":139.4158048},{"name":"上北台駅前駐輪場","province":"東京都","city":"東大和市","address":"東京都東大和市立野2丁目2-10","lat":35.74638765,"lon":139.41656581},{"name":"東大和市駅前","province":"東京都","city":"東大和市","address":"東京都東大和市向原6丁目1408-33","lat":35.73432834,"lon":139.43517869},{"name":"新堀","province":"東京都","city":"東大和市","address":"東京都東大和市清原3丁目1","lat":35.74144173,"lon":139.44908276},{"name":"東大和保育園","province":"東京都","city":"東大和市","address":"東京都東大和市新堀1-1435-33","lat":35.741073,"lon":139.449081},{"name":"ふたば保育園","province":"東京都","city":"東大和市","address":"東京都東大和市立野2-4-13","lat":35.746313,"lon":139.417341},{"name":"みつば保育園","province":"東京都","city":"東大和市","address":"東京都東大和市立野3-1293-10","lat":35.7388,"lon":139.422714},{"name":"向原第二保育園","province":"東京都","city":"東大和市","address":"東京都東大和市向原1-4-1","lat":35.741966,"lon":139.440063},{"name":"ひが保育ママ","province":"東京都","city":"東大和市","address":"東京都東大和市中央2-1101-12","lat":35.743881,"lon":139.430359},{"name":"木村保育ママ","province":"東京都","city":"東大和市","address":"東京都東大和市南街2-20-3","lat":35.741596,"lon":139.427917},{"name":"こども学園","province":"東京都","city":"東大和市","address":"東京都東大和市奈良橋2-409","lat":35.754368,"lon":139.426514},{"name":"東大和市保健センター","province":"東京都","city":"東大和市","address":"東京都東大和市中央3丁目918-1","lat":35.74572128,"lon":139.42737043},{"name":"東大和市本庁舎","province":"東京都","city":"東大和市","address":"東京都東大和市中央3丁目930","lat":35.74471306,"lon":139.42703715},{"name":"東大和警察署","province":"東京都","city":"東大和市","address":"東大和市芋窪6-1061-1","lat":35.74856,"lon":139.4107},{"name":"北多摩西部消防署","province":"東京都","city":"東大和市","address":"東大和市上北台1-956-1","lat":35.74732,"lon":139.4133},{"name":"都立東大和南公園（陸上競技場、野球場）","province":"東京都","city":"東大和市","address":"東大和市桜が丘2丁目地内","lat":35.73676,"lon":139.42},{"name":"都立東大和南公園","province":"東京都","city":"東大和市","address":"東大和市桜が丘2-106-2","lat":35.73351,"lon":139.4246},{"name":"※東大和市本庁舎","province":"東京都","city":"東大和市","address":"東京都東大和市中央3丁目930","lat":35.74471306,"lon":139.42703715},{"name":"東大和市","province":"東京都","city":"東大和市","address":"東大和市中央3-930","lat":35.7447136,"lon":139.4270378},{"name":"西武鉄道東大和市駅駐輪場","province":"東京都","city":"東大和市","address":"東京都東大和市桜が丘1丁目1415-1","lat":35.73288126,"lon":139.43434551},{"name":"西武スマイルパーク東大和市駅前第１","province":"東京都","city":"東大和市","address":"東京都東大和市桜が丘1丁目1330-19","lat":35.7330479,"lon":139.43404552},{"name":"西武スマイルパークBIGBOX東大和","province":"東京都","city":"東大和市","address":"東京都東大和市桜が丘1丁目1330-19","lat":35.7330479,"lon":139.43404552},{"name":"武蔵大和駅第2公共自転車等駐車場","province":"東京都","city":"東大和市","address":"東京都東大和市清水1丁目748-2","lat":35.75580662,"lon":139.44388817},{"name":"上北台駅第1公共自転車等駐車場","province":"東京都","city":"東大和市","address":"東京都東大和市上北台1丁目5-1","lat":35.7458127,"lon":139.4158048},{"name":"上北台駅第2公共自転車等駐車場","province":"東京都","city":"東大和市","address":"東京都東大和市上北台1丁目5-1","lat":35.7458127,"lon":139.4158048},{"name":"西武スマイルパークBIGBOX東大和第2","province":"東京都","city":"東大和市","address":"東京都東大和市桜が丘1丁目1330-19","lat":35.7330479,"lon":139.43404552},{"name":"Cycle DAICHI　武蔵大和駅前駐輪場","province":"東京都","city":"東大和市","address":"東京都東大和市清水2丁目802-1","lat":35.75551222,"lon":139.44397706},{"name":"上北台駅第7公共自転車等駐車場","province":"東京都","city":"東大和市","address":"東京都東大和市上北台1丁目5-1","lat":35.7458127,"lon":139.4158048},{"name":"上北台駅前駐輪場","province":"東京都","city":"東大和市","address":"東京都東大和市立野2丁目2-10","lat":35.74638765,"lon":139.41656581},{"name":"東大和市駅前","province":"東京都","city":"東大和市","address":"東京都東大和市向原6丁目1408-33","lat":35.73432834,"lon":139.43517869},{"name":"新堀","province":"東京都","city":"東大和市","address":"東京都東大和市清原3丁目1","lat":35.74144173,"lon":139.44908276},{"name":"東大和保育園","province":"東京都","city":"東大和市","address":"東京都東大和市新堀1-1435-33","lat":35.741073,"lon":139.449081},{"name":"ふたば保育園","province":"東京都","city":"東大和市","address":"東京都東大和市立野2-4-13","lat":35.746313,"lon":139.417341},{"name":"みつば保育園","province":"東京都","city":"東大和市","address":"東京都東大和市立野3-1293-10","lat":35.7388,"lon":139.422714},{"name":"向原第二保育園","province":"東京都","city":"東大和市","address":"東京都東大和市向原1-4-1","lat":35.741966,"lon":139.440063},{"name":"ひが保育ママ","province":"東京都","city":"東大和市","address":"東京都東大和市中央2-1101-12","lat":35.743881,"lon":139.430359},{"name":"木村保育ママ","province":"東京都","city":"東大和市","address":"東京都東大和市南街2-20-3","lat":35.741596,"lon":139.427917},{"name":"こども学園","province":"東京都","city":"東大和市","address":"東京都東大和市奈良橋2-409","lat":35.754368,"lon":139.426514},{"name":"東大和市保健センター","province":"東京都","city":"東大和市","address":"東京都東大和市中央3丁目918-1","lat":35.74572128,"lon":139.42737043},{"name":"東大和市本庁舎","province":"東京都","city":"東大和市","address":"東京都東大和市中央3丁目930","lat":35.74471306,"lon":139.42703715},{"name":"東大和警察署","province":"東京都","city":"東大和市","address":"東大和市芋窪6-1061-1","lat":35.74856,"lon":139.4107},{"name":"北多摩西部消防署","province":"東京都","city":"東大和市","address":"東大和市上北台1-956-1","lat":35.74732,"lon":139.4133},{"name":"都立東大和南公園（陸上競技場、野球場）","province":"東京都","city":"東大和市","address":"東大和市桜が丘2丁目地内","lat":35.73676,"lon":139.42},{"name":"都立東大和南公園","province":"東京都","city":"東大和市","address":"東大和市桜が丘2-106-2","lat":35.73351,"lon":139.4246},{"name":"※東大和市本庁舎","province":"東京都","city":"東大和市","address":"東京都東大和市中央3丁目930","lat":35.74471306,"lon":139.42703715},{"name":"東大和市","province":"東京都","city":"東大和市","address":"東大和市中央3-930","lat":35.7447136,"lon":139.4270378},{"name":"西武鉄道東大和市駅駐輪場","province":"東京都","city":"東大和市","address":"東京都東大和市桜が丘1丁目1415-1","lat":35.73288126,"lon":139.43434551},{"name":"西武スマイルパーク東大和市駅前第１","province":"東京都","city":"東大和市","address":"東京都東大和市桜が丘1丁目1330-19","lat":35.7330479,"lon":139.43404552},{"name":"西武スマイルパークBIGBOX東大和","province":"東京都","city":"東大和市","address":"東京都東大和市桜が丘1丁目1330-19","lat":35.7330479,"lon":139.43404552},{"name":"武蔵大和駅第2公共自転車等駐車場","province":"東京都","city":"東大和市","address":"東京都東大和市清水1丁目748-2","lat":35.75580662,"lon":139.44388817},{"name":"上北台駅第1公共自転車等駐車場","province":"東京都","city":"東大和市","address":"東京都東大和市上北台1丁目5-1","lat":35.7458127,"lon":139.4158048},{"name":"上北台駅第2公共自転車等駐車場","province":"東京都","city":"東大和市","address":"東京都東大和市上北台1丁目5-1","lat":35.7458127,"lon":139.4158048},{"name":"西武スマイルパークBIGBOX東大和第2","province":"東京都","city":"東大和市","address":"東京都東大和市桜が丘1丁目1330-19","lat":35.7330479,"lon":139.43404552},{"name":"Cycle DAICHI　武蔵大和駅前駐輪場","province":"東京都","city":"東大和市","address":"東京都東大和市清水2丁目802-1","lat":35.75551222,"lon":139.44397706},{"name":"上北台駅第7公共自転車等駐車場","province":"東京都","city":"東大和市","address":"東京都東大和市上北台1丁目5-1","lat":35.7458127,"lon":139.4158048},{"name":"上北台駅前駐輪場","province":"東京都","city":"東大和市","address":"東京都東大和市立野2丁目2-10","lat":35.74638765,"lon":139.41656581},{"name":"東大和保育園","province":"東京都","city":"東大和市","address":"東京都東大和市新堀1-1435-33","lat":35.741073,"lon":139.449081},{"name":"ふたば保育園","province":"東京都","city":"東大和市","address":"東京都東大和市立野2-4-13","lat":35.746313,"lon":139.417341},{"name":"みつば保育園","province":"東京都","city":"東大和市","address":"東京都東大和市立野3-1293-10","lat":35.7388,"lon":139.422714},{"name":"向原第二保育園","province":"東京都","city":"東大和市","address":"東京都東大和市向原1-4-1","lat":35.741966,"lon":139.440063},{"name":"ひが保育ママ","province":"東京都","city":"東大和市","address":"東京都東大和市中央2-1101-12","lat":35.743881,"lon":139.430359},{"name":"木村保育ママ","province":"東京都","city":"東大和市","address":"東京都東大和市南街2-20-3","lat":35.741596,"lon":139.427917},{"name":"こども学園","province":"東京都","city":"東大和市","address":"東京都東大和市奈良橋2-409","lat":35.754368,"lon":139.426514},{"name":"東大和市保健センター","province":"東京都","city":"東大和市","address":"東京都東大和市中央3丁目918-1","lat":35.74572128,"lon":139.42737043},{"name":"東大和市本庁舎","province":"東京都","city":"東大和市","address":"東京都東大和市中央3丁目930","lat":35.74471306,"lon":139.42703715},{"name":"東大和警察署","province":"東京都","city":"東大和市","address":"東大和市芋窪6-1061-1","lat":35.74856,"lon":139.4107},{"name":"北多摩西部消防署","province":"東京都","city":"東大和市","address":"東大和市上北台1-956-1","lat":35.74732,"lon":139.4133},{"name":"都立東大和南公園（陸上競技場、野球場）","province":"東京都","city":"東大和市","address":"東大和市桜が丘2丁目地内","lat":35.73676,"lon":139.42},{"name":"都立東大和南公園","province":"東京都","city":"東大和市","address":"東大和市桜が丘2-106-2","lat":35.73351,"lon":139.4246},{"name":"※東大和市本庁舎","province":"東京都","city":"東大和市","address":"東京都東大和市中央3丁目930","lat":35.74471306,"lon":139.42703715},{"name":"西武鉄道東大和市駅駐輪場","province":"東京都","city":"東大和市","address":"東京都東大和市桜が丘1丁目1415-1","lat":35.73288126,"lon":139.43434551},{"name":"西武スマイルパーク東大和市駅前第１","province":"東京都","city":"東大和市","address":"東京都東大和市桜が丘1丁目1330-19","lat":35.7330479,"lon":139.43404552},{"name":"西武スマイルパークBIGBOX東大和","province":"東京都","city":"東大和市","address":"東京都東大和市桜が丘1丁目1330-19","lat":35.7330479,"lon":139.43404552},{"name":"武蔵大和駅第2公共自転車等駐車場","province":"東京都","city":"東大和市","address":"東京都東大和市清水1丁目748-2","lat":35.75580662,"lon":139.44388817},{"name":"上北台駅第1公共自転車等駐車場","province":"東京都","city":"東大和市","address":"東京都東大和市上北台1丁目5-1","lat":35.7458127,"lon":139.4158048},{"name":"上北台駅第2公共自転車等駐車場","province":"東京都","city":"東大和市","address":"東京都東大和市上北台1丁目5-1","lat":35.7458127,"lon":139.4158048},{"name":"西武スマイルパークBIGBOX東大和第2","province":"東京都","city":"東大和市","address":"東京都東大和市桜が丘1丁目1330-19","lat":35.7330479,"lon":139.43404552},{"name":"Cycle DAICHI　武蔵大和駅前駐輪場","province":"東京都","city":"東大和市","address":"東京都東大和市清水2丁目802-1","lat":35.75551222,"lon":139.44397706},{"name":"上北台駅第7公共自転車等駐車場","province":"東京都","city":"東大和市","address":"東京都東大和市上北台1丁目5-1","lat":35.7458127,"lon":139.4158048},{"name":"上北台駅前駐輪場","province":"東京都","city":"東大和市","address":"東京都東大和市立野2丁目2-10","lat":35.74638765,"lon":139.41656581},{"name":"東大和保育園","province":"東京都","city":"東大和市","address":"東京都東大和市新堀1-1435-33","lat":35.741073,"lon":139.449081},{"name":"ふたば保育園","province":"東京都","city":"東大和市","address":"東京都東大和市立野2-4-13","lat":35.746313,"lon":139.417341},{"name":"みつば保育園","province":"東京都","city":"東大和市","address":"東京都東大和市立野3-1293-10","lat":35.7388,"lon":139.422714},{"name":"向原第二保育園","province":"東京都","city":"東大和市","address":"東京都東大和市向原1-4-1","lat":35.741966,"lon":139.440063},{"name":"ひが保育ママ","province":"東京都","city":"東大和市","address":"東京都東大和市中央2-1101-12","lat":35.743881,"lon":139.430359},{"name":"木村保育ママ","province":"東京都","city":"東大和市","address":"東京都東大和市南街2-20-3","lat":35.741596,"lon":139.427917},{"name":"こども学園","province":"東京都","city":"東大和市","address":"東京都東大和市奈良橋2-409","lat":35.754368,"lon":139.426514},{"name":"東大和市保健センター","province":"東京都","city":"東大和市","address":"東京都東大和市中央3丁目918-1","lat":35.74572128,"lon":139.42737043},{"name":"東大和市本庁舎","province":"東京都","city":"東大和市","address":"東京都東大和市中央3丁目930","lat":35.74471306,"lon":139.42703715},{"name":"東大和警察署","province":"東京都","city":"東大和市","address":"東大和市芋窪6-1061-1","lat":35.74856,"lon":139.4107},{"name":"北多摩西部消防署","province":"東京都","city":"東大和市","address":"東大和市上北台1-956-1","lat":35.74732,"lon":139.4133},{"name":"都立東大和南公園（陸上競技場、野球場）","province":"東京都","city":"東大和市","address":"東大和市桜が丘2丁目地内","lat":35.73676,"lon":139.42},{"name":"都立東大和南公園","province":"東京都","city":"東大和市","address":"東大和市桜が丘2-106-2","lat":35.73351,"lon":139.4246},{"name":"※東大和市本庁舎","province":"東京都","city":"東大和市","address":"東京都東大和市中央3丁目930","lat":35.74471306,"lon":139.42703715},{"name":"西武鉄道東大和市駅駐輪場","province":"東京都","city":"東大和市","address":"東京都東大和市桜が丘1丁目1415-1","lat":35.73288126,"lon":139.43434551},{"name":"西武スマイルパーク東大和市駅前第１","province":"東京都","city":"東大和市","address":"東京都東大和市桜が丘1丁目1330-19","lat":35.7330479,"lon":139.43404552},{"name":"西武スマイルパークBIGBOX東大和","province":"東京都","city":"東大和市","address":"東京都東大和市桜が丘1丁目1330-19","lat":35.7330479,"lon":139.43404552},{"name":"武蔵大和駅第2公共自転車等駐車場","province":"東京都","city":"東大和市","address":"東京都東大和市清水1丁目748-2","lat":35.75580662,"lon":139.44388817},{"name":"上北台駅第1公共自転車等駐車場","province":"東京都","city":"東大和市","address":"東京都東大和市上北台1丁目5-1","lat":35.7458127,"lon":139.4158048},{"name":"上北台駅第2公共自転車等駐車場","province":"東京都","city":"東大和市","address":"東京都東大和市上北台1丁目5-1","lat":35.7458127,"lon":139.4158048},{"name":"西武スマイルパークBIGBOX東大和第2","province":"東京都","city":"東大和市","address":"東京都東大和市桜が丘1丁目1330-19","lat":35.7330479,"lon":139.43404552},{"name":"Cycle DAICHI　武蔵大和駅前駐輪場","province":"東京都","city":"東大和市","address":"東京都東大和市清水2丁目802-1","lat":35.75551222,"lon":139.44397706},{"name":"上北台駅第7公共自転車等駐車場","province":"東京都","city":"東大和市","address":"東京都東大和市上北台1丁目5-1","lat":35.7458127,"lon":139.4158048},{"name":"上北台駅前駐輪場","province":"東京都","city":"東大和市","address":"東京都東大和市立野2丁目2-10","lat":35.74638765,"lon":139.41656581},{"name":"東大和保育園","province":"東京都","city":"東大和市","address":"東京都東大和市新堀1-1435-33","lat":35.741073,"lon":139.449081},{"name":"ふたば保育園","province":"東京都","city":"東大和市","address":"東京都東大和市立野2-4-13","lat":35.746313,"lon":139.417341},{"name":"みつば保育園","province":"東京都","city":"東大和市","address":"東京都東大和市立野3-1293-10","lat":35.7388,"lon":139.422714},{"name":"向原第二保育園","province":"東京都","city":"東大和市","address":"東京都東大和市向原1-4-1","lat":35.741966,"lon":139.440063},{"name":"ひが保育ママ","province":"東京都","city":"東大和市","address":"東京都東大和市中央2-1101-12","lat":35.743881,"lon":139.430359},{"name":"木村保育ママ","province":"東京都","city":"東大和市","address":"東京都東大和市南街2-20-3","lat":35.741596,"lon":139.427917},{"name":"こども学園","province":"東京都","city":"東大和市","address":"東京都東大和市奈良橋2-409","lat":35.754368,"lon":139.426514},{"name":"東大和市保健センター","province":"東京都","city":"東大和市","address":"東京都東大和市中央3丁目918-1","lat":35.74572128,"lon":139.42737043},{"name":"東大和市本庁舎","province":"東京都","city":"東大和市","address":"東京都東大和市中央3丁目930","lat":35.74471306,"lon":139.42703715},{"name":"東大和警察署","province":"東京都","city":"東大和市","address":"東大和市芋窪6-1061-1","lat":35.74856,"lon":139.4107},{"name":"北多摩西部消防署","province":"東京都","city":"東大和市","address":"東大和市上北台1-956-1","lat":35.74732,"lon":139.4133},{"name":"都立東大和南公園（陸上競技場、野球場）","province":"東京都","city":"東大和市","address":"東大和市桜が丘2丁目地内","lat":35.73676,"lon":139.42},{"name":"都立東大和南公園","province":"東京都","city":"東大和市","address":"東大和市桜が丘2-106-2","lat":35.73351,"lon":139.4246},{"name":"※東大和市本庁舎","province":"東京都","city":"東大和市","address":"東京都東大和市中央3丁目930","lat":35.74471306,"lon":139.42703715},{"name":"西武鉄道東大和市駅駐輪場","province":"東京都","city":"東大和市","address":"東京都東大和市桜が丘1丁目1415-1","lat":35.73288126,"lon":139.43434551},{"name":"西武スマイルパーク東大和市駅前第１","province":"東京都","city":"東大和市","address":"東京都東大和市桜が丘1丁目1330-19","lat":35.7330479,"lon":139.43404552},{"name":"西武スマイルパークBIGBOX東大和","province":"東京都","city":"東大和市","address":"東京都東大和市桜が丘1丁目1330-19","lat":35.7330479,"lon":139.43404552},{"name":"武蔵大和駅第2公共自転車等駐車場","province":"東京都","city":"東大和市","address":"東京都東大和市清水1丁目748-2","lat":35.75580662,"lon":139.44388817},{"name":"上北台駅第1公共自転車等駐車場","province":"東京都","city":"東大和市","address":"東京都東大和市上北台1丁目5-1","lat":35.7458127,"lon":139.4158048},{"name":"上北台駅第2公共自転車等駐車場","province":"東京都","city":"東大和市","address":"東京都東大和市上北台1丁目5-1","lat":35.7458127,"lon":139.4158048},{"name":"西武スマイルパークBIGBOX東大和第2","province":"東京都","city":"東大和市","address":"東京都東大和市桜が丘1丁目1330-19","lat":35.7330479,"lon":139.43404552},{"name":"Cycle DAICHI　武蔵大和駅前駐輪場","province":"東京都","city":"東大和市","address":"東京都東大和市清水2丁目802-1","lat":35.75551222,"lon":139.44397706},{"name":"上北台駅第7公共自転車等駐車場","province":"東京都","city":"東大和市","address":"東京都東大和市上北台1丁目5-1","lat":35.7458127,"lon":139.4158048},{"name":"上北台駅前駐輪場","province":"東京都","city":"東大和市","address":"東京都東大和市立野2丁目2-10","lat":35.74638765,"lon":139.41656581},{"name":"東大和保育園","province":"東京都","city":"東大和市","address":"東京都東大和市新堀1-1435-33","lat":35.741073,"lon":139.449081},{"name":"ふたば保育園","province":"東京都","city":"東大和市","address":"東京都東大和市立野2-4-13","lat":35.746313,"lon":139.417341},{"name":"みつば保育園","province":"東京都","city":"東大和市","address":"東京都東大和市立野3-1293-10","lat":35.7388,"lon":139.422714},{"name":"向原第二保育園","province":"東京都","city":"東大和市","address":"東京都東大和市向原1-4-1","lat":35.741966,"lon":139.440063},{"name":"ひが保育ママ","province":"東京都","city":"東大和市","address":"東京都東大和市中央2-1101-12","lat":35.743881,"lon":139.430359},{"name":"木村保育ママ","province":"東京都","city":"東大和市","address":"東京都東大和市南街2-20-3","lat":35.741596,"lon":139.427917},{"name":"こども学園","province":"東京都","city":"東大和市","address":"東京都東大和市奈良橋2-409","lat":35.754368,"lon":139.426514},{"name":"東大和市保健センター","province":"東京都","city":"東大和市","address":"東京都東大和市中央3丁目918-1","lat":35.74572128,"lon":139.42737043},{"name":"東大和市本庁舎","province":"東京都","city":"東大和市","address":"東京都東大和市中央3丁目930","lat":35.74471306,"lon":139.42703715},{"name":"東大和警察署","province":"東京都","city":"東大和市","address":"東大和市芋窪6-1061-1","lat":35.74856,"lon":139.4107},{"name":"北多摩西部消防署","province":"東京都","city":"東大和市","address":"東大和市上北台1-956-1","lat":35.74732,"lon":139.4133},{"name":"都立東大和南公園（陸上競技場、野球場）","province":"東京都","city":"東大和市","address":"東大和市桜が丘2丁目地内","lat":35.73676,"lon":139.42},{"name":"都立東大和南公園","province":"東京都","city":"東大和市","address":"東大和市桜が丘2-106-2","lat":35.73351,"lon":139.4246},{"name":"※東大和市本庁舎","province":"東京都","city":"東大和市","address":"東京都東大和市中央3丁目930","lat":35.74471306,"lon":139.42703715},{"name":"西武鉄道東大和市駅駐輪場","province":"東京都","city":"東大和市","address":"東京都東大和市桜が丘1丁目1415-1","lat":35.73288126,"lon":139.43434551},{"name":"西武スマイルパーク東大和市駅前第１","province":"東京都","city":"東大和市","address":"東京都東大和市桜が丘1丁目1330-19","lat":35.7330479,"lon":139.43404552},{"name":"西武スマイルパークBIGBOX東大和","province":"東京都","city":"東大和市","address":"東京都東大和市桜が丘1丁目1330-19","lat":35.7330479,"lon":139.43404552},{"name":"武蔵大和駅第2公共自転車等駐車場","province":"東京都","city":"東大和市","address":"東京都東大和市清水1丁目748-2","lat":35.75580662,"lon":139.44388817},{"name":"上北台駅第1公共自転車等駐車場","province":"東京都","city":"東大和市","address":"東京都東大和市上北台1丁目5-1","lat":35.7458127,"lon":139.4158048},{"name":"上北台駅第2公共自転車等駐車場","province":"東京都","city":"東大和市","address":"東京都東大和市上北台1丁目5-1","lat":35.7458127,"lon":139.4158048},{"name":"西武スマイルパークBIGBOX東大和第2","province":"東京都","city":"東大和市","address":"東京都東大和市桜が丘1丁目1330-19","lat":35.7330479,"lon":139.43404552},{"name":"Cycle DAICHI　武蔵大和駅前駐輪場","province":"東京都","city":"東大和市","address":"東京都東大和市清水2丁目802-1","lat":35.75551222,"lon":139.44397706},{"name":"上北台駅第7公共自転車等駐車場","province":"東京都","city":"東大和市","address":"東京都東大和市上北台1丁目5-1","lat":35.7458127,"lon":139.4158048},{"name":"上北台駅前駐輪場","province":"東京都","city":"東大和市","address":"東京都東大和市立野2丁目2-10","lat":35.74638765,"lon":139.41656581},{"name":"東大和保育園","province":"東京都","city":"東大和市","address":"東京都東大和市新堀1-1435-33","lat":35.741073,"lon":139.449081},{"name":"ふたば保育園","province":"東京都","city":"東大和市","address":"東京都東大和市立野2-4-13","lat":35.746313,"lon":139.417341},{"name":"みつば保育園","province":"東京都","city":"東大和市","address":"東京都東大和市立野3-1293-10","lat":35.7388,"lon":139.422714},{"name":"向原第二保育園","province":"東京都","city":"東大和市","address":"東京都東大和市向原1-4-1","lat":35.741966,"lon":139.440063},{"name":"ひが保育ママ","province":"東京都","city":"東大和市","address":"東京都東大和市中央2-1101-12","lat":35.743881,"lon":139.430359},{"name":"木村保育ママ","province":"東京都","city":"東大和市","address":"東京都東大和市南街2-20-3","lat":35.741596,"lon":139.427917},{"name":"こども学園","province":"東京都","city":"東大和市","address":"東京都東大和市奈良橋2-409","lat":35.754368,"lon":139.426514},{"name":"東大和市保健センター","province":"東京都","city":"東大和市","address":"東京都東大和市中央3丁目918-1","lat":35.74572128,"lon":139.42737043},{"name":"東大和市本庁舎","province":"東京都","city":"東大和市","address":"東京都東大和市中央3丁目930","lat":35.74471306,"lon":139.42703715},{"name":"東大和警察署","province":"東京都","city":"東大和市","address":"東大和市芋窪6-1061-1","lat":35.74856,"lon":139.4107},{"name":"北多摩西部消防署","province":"東京都","city":"東大和市","address":"東大和市上北台1-956-1","lat":35.74732,"lon":139.4133},{"name":"都立東大和南公園（陸上競技場、野球場）","province":"東京都","city":"東大和市","address":"東大和市桜が丘2丁目地内","lat":35.73676,"lon":139.42},{"name":"都立東大和南公園","province":"東京都","city":"東大和市","address":"東大和市桜が丘2-106-2","lat":35.73351,"lon":139.4246},{"name":"※東大和市本庁舎","province":"東京都","city":"東大和市","address":"東京都東大和市中央3丁目930","lat":35.74471306,"lon":139.42703715},{"name":"西武鉄道東大和市駅駐輪場","province":"東京都","city":"東大和市","address":"東京都東大和市桜が丘1丁目1415-1","lat":35.73288126,"lon":139.43434551},{"name":"西武スマイルパーク東大和市駅前第１","province":"東京都","city":"東大和市","address":"東京都東大和市桜が丘1丁目1330-19","lat":35.7330479,"lon":139.43404552},{"name":"西武スマイルパークBIGBOX東大和","province":"東京都","city":"東大和市","address":"東京都東大和市桜が丘1丁目1330-19","lat":35.7330479,"lon":139.43404552},{"name":"武蔵大和駅第2公共自転車等駐車場","province":"東京都","city":"東大和市","address":"東京都東大和市清水1丁目748-2","lat":35.75580662,"lon":139.44388817},{"name":"上北台駅第1公共自転車等駐車場","province":"東京都","city":"東大和市","address":"東京都東大和市上北台1丁目5-1","lat":35.7458127,"lon":139.4158048},{"name":"上北台駅第2公共自転車等駐車場","province":"東京都","city":"東大和市","address":"東京都東大和市上北台1丁目5-1","lat":35.7458127,"lon":139.4158048},{"name":"西武スマイルパークBIGBOX東大和第2","province":"東京都","city":"東大和市","address":"東京都東大和市桜が丘1丁目1330-19","lat":35.7330479,"lon":139.43404552},{"name":"Cycle DAICHI　武蔵大和駅前駐輪場","province":"東京都","city":"東大和市","address":"東京都東大和市清水2丁目802-1","lat":35.75551222,"lon":139.44397706},{"name":"上北台駅第7公共自転車等駐車場","province":"東京都","city":"東大和市","address":"東京都東大和市上北台1丁目5-1","lat":35.7458127,"lon":139.4158048},{"name":"上北台駅前駐輪場","province":"東京都","city":"東大和市","address":"東京都東大和市立野2丁目2-10","lat":35.74638765,"lon":139.41656581},{"name":"東大和保育園","province":"東京都","city":"東大和市","address":"東京都東大和市新堀1-1435-33","lat":35.741073,"lon":139.449081},{"name":"ふたば保育園","province":"東京都","city":"東大和市","address":"東京都東大和市立野2-4-13","lat":35.746313,"lon":139.417341},{"name":"みつば保育園","province":"東京都","city":"東大和市","address":"東京都東大和市立野3-1293-10","lat":35.7388,"lon":139.422714},{"name":"向原第二保育園","province":"東京都","city":"東大和市","address":"東京都東大和市向原1-4-1","lat":35.741966,"lon":139.440063},{"name":"ひが保育ママ","province":"東京都","city":"東大和市","address":"東京都東大和市中央2-1101-12","lat":35.743881,"lon":139.430359},{"name":"木村保育ママ","province":"東京都","city":"東大和市","address":"東京都東大和市南街2-20-3","lat":35.741596,"lon":139.427917},{"name":"こども学園","province":"東京都","city":"東大和市","address":"東京都東大和市奈良橋2-409","lat":35.754368,"lon":139.426514},{"name":"東大和市保健センター","province":"東京都","city":"東大和市","address":"東京都東大和市中央3丁目918-1","lat":35.74572128,"lon":139.42737043},{"name":"東大和市本庁舎","province":"東京都","city":"東大和市","address":"東京都東大和市中央3丁目930","lat":35.74471306,"lon":139.42703715},{"name":"東大和警察署","province":"東京都","city":"東大和市","address":"東大和市芋窪6-1061-1","lat":35.74856,"lon":139.4107},{"name":"北多摩西部消防署","province":"東京都","city":"東大和市","address":"東大和市上北台1-956-1","lat":35.74732,"lon":139.4133},{"name":"都立東大和南公園（陸上競技場、野球場）","province":"東京都","city":"東大和市","address":"東大和市桜が丘2丁目地内","lat":35.73676,"lon":139.42},{"name":"都立東大和南公園","province":"東京都","city":"東大和市","address":"東大和市桜が丘2-106-2","lat":35.73351,"lon":139.4246},{"name":"※東大和市本庁舎","province":"東京都","city":"東大和市","address":"東京都東大和市中央3丁目930","lat":35.74471306,"lon":139.42703715},{"name":"西武鉄道東大和市駅駐輪場","province":"東京都","city":"東大和市","address":"東京都東大和市桜が丘1丁目1415-1","lat":35.73288126,"lon":139.43434551},{"name":"西武スマイルパーク東大和市駅前第１","province":"東京都","city":"東大和市","address":"東京都東大和市桜が丘1丁目1330-19","lat":35.7330479,"lon":139.43404552},{"name":"西武スマイルパークBIGBOX東大和","province":"東京都","city":"東大和市","address":"東京都東大和市桜が丘1丁目1330-19","lat":35.7330479,"lon":139.43404552},{"name":"武蔵大和駅第2公共自転車等駐車場","province":"東京都","city":"東大和市","address":"東京都東大和市清水1丁目748-2","lat":35.75580662,"lon":139.44388817},{"name":"上北台駅第1公共自転車等駐車場","province":"東京都","city":"東大和市","address":"東京都東大和市上北台1丁目5-1","lat":35.7458127,"lon":139.4158048},{"name":"上北台駅第2公共自転車等駐車場","province":"東京都","city":"東大和市","address":"東京都東大和市上北台1丁目5-1","lat":35.7458127,"lon":139.4158048},{"name":"西武スマイルパークBIGBOX東大和第2","province":"東京都","city":"東大和市","address":"東京都東大和市桜が丘1丁目1330-19","lat":35.7330479,"lon":139.43404552},{"name":"Cycle DAICHI　武蔵大和駅前駐輪場","province":"東京都","city":"東大和市","address":"東京都東大和市清水2丁目802-1","lat":35.75551222,"lon":139.44397706},{"name":"上北台駅第7公共自転車等駐車場","province":"東京都","city":"東大和市","address":"東京都東大和市上北台1丁目5-1","lat":35.7458127,"lon":139.4158048},{"name":"上北台駅前駐輪場","province":"東京都","city":"東大和市","address":"東京都東大和市立野2丁目2-10","lat":35.74638765,"lon":139.41656581},{"name":"東大和保育園","province":"東京都","city":"東大和市","address":"東京都東大和市新堀1-1435-33","lat":35.741073,"lon":139.449081},{"name":"ふたば保育園","province":"東京都","city":"東大和市","address":"東京都東大和市立野2-4-13","lat":35.746313,"lon":139.417341},{"name":"みつば保育園","province":"東京都","city":"東大和市","address":"東京都東大和市立野3-1293-10","lat":35.7388,"lon":139.422714},{"name":"向原第二保育園","province":"東京都","city":"東大和市","address":"東京都東大和市向原1-4-1","lat":35.741966,"lon":139.440063},{"name":"ひが保育ママ","province":"東京都","city":"東大和市","address":"東京都東大和市中央2-1101-12","lat":35.743881,"lon":139.430359},{"name":"木村保育ママ","province":"東京都","city":"東大和市","address":"東京都東大和市南街2-20-3","lat":35.741596,"lon":139.427917},{"name":"こども学園","province":"東京都","city":"東大和市","address":"東京都東大和市奈良橋2-409","lat":35.754368,"lon":139.426514},{"name":"東大和市保健センター","province":"東京都","city":"東大和市","address":"東京都東大和市中央3丁目918-1","lat":35.74572128,"lon":139.42737043},{"name":"東大和市本庁舎","province":"東京都","city":"東大和市","address":"東京都東大和市中央3丁目930","lat":35.74471306,"lon":139.42703715},{"name":"東大和警察署","province":"東京都","city":"東大和市","address":"東大和市芋窪6-1061-1","lat":35.74856,"lon":139.4107},{"name":"北多摩西部消防署","province":"東京都","city":"東大和市","address":"東大和市上北台1-956-1","lat":35.74732,"lon":139.4133},{"name":"都立東大和南公園（陸上競技場、野球場）","province":"東京都","city":"東大和市","address":"東大和市桜が丘2丁目地内","lat":35.73676,"lon":139.42},{"name":"都立東大和南公園","province":"東京都","city":"東大和市","address":"東大和市桜が丘2-106-2","lat":35.73351,"lon":139.4246},{"name":"※東大和市本庁舎","province":"東京都","city":"東大和市","address":"東京都東大和市中央3丁目930","lat":35.74471306,"lon":139.42703715},{"name":"西武鉄道東大和市駅駐輪場","province":"東京都","city":"東大和市","address":"東京都東大和市桜が丘1丁目1415-1","lat":35.73288126,"lon":139.43434551},{"name":"西武スマイルパーク東大和市駅前第１","province":"東京都","city":"東大和市","address":"東京都東大和市桜が丘1丁目1330-19","lat":35.7330479,"lon":139.43404552},{"name":"西武スマイルパークBIGBOX東大和","province":"東京都","city":"東大和市","address":"東京都東大和市桜が丘1丁目1330-19","lat":35.7330479,"lon":139.43404552},{"name":"武蔵大和駅第2公共自転車等駐車場","province":"東京都","city":"東大和市","address":"東京都東大和市清水1丁目748-2","lat":35.75580662,"lon":139.44388817},{"name":"上北台駅第1公共自転車等駐車場","province":"東京都","city":"東大和市","address":"東京都東大和市上北台1丁目5-1","lat":35.7458127,"lon":139.4158048},{"name":"上北台駅第2公共自転車等駐車場","province":"東京都","city":"東大和市","address":"東京都東大和市上北台1丁目5-1","lat":35.7458127,"lon":139.4158048},{"name":"西武スマイルパークBIGBOX東大和第2","province":"東京都","city":"東大和市","address":"東京都東大和市桜が丘1丁目1330-19","lat":35.7330479,"lon":139.43404552},{"name":"Cycle DAICHI　武蔵大和駅前駐輪場","province":"東京都","city":"東大和市","address":"東京都東大和市清水2丁目802-1","lat":35.75551222,"lon":139.44397706},{"name":"上北台駅第7公共自転車等駐車場","province":"東京都","city":"東大和市","address":"東京都東大和市上北台1丁目5-1","lat":35.7458127,"lon":139.4158048},{"name":"上北台駅前駐輪場","province":"東京都","city":"東大和市","address":"東京都東大和市立野2丁目2-10","lat":35.74638765,"lon":139.41656581},{"name":"東大和保育園","province":"東京都","city":"東大和市","address":"東京都東大和市新堀1-1435-33","lat":35.741073,"lon":139.449081},{"name":"ふたば保育園","province":"東京都","city":"東大和市","address":"東京都東大和市立野2-4-13","lat":35.746313,"lon":139.417341},{"name":"みつば保育園","province":"東京都","city":"東大和市","address":"東京都東大和市立野3-1293-10","lat":35.7388,"lon":139.422714},{"name":"向原第二保育園","province":"東京都","city":"東大和市","address":"東京都東大和市向原1-4-1","lat":35.741966,"lon":139.440063},{"name":"ひが保育ママ","province":"東京都","city":"東大和市","address":"東京都東大和市中央2-1101-12","lat":35.743881,"lon":139.430359},{"name":"木村保育ママ","province":"東京都","city":"東大和市","address":"東京都東大和市南街2-20-3","lat":35.741596,"lon":139.427917},{"name":"こども学園","province":"東京都","city":"東大和市","address":"東京都東大和市奈良橋2-409","lat":35.754368,"lon":139.426514},{"name":"東大和市保健センター","province":"東京都","city":"東大和市","address":"東京都東大和市中央3丁目918-1","lat":35.74572128,"lon":139.42737043},{"name":"東大和市本庁舎","province":"東京都","city":"東大和市","address":"東京都東大和市中央3丁目930","lat":35.74471306,"lon":139.42703715},{"name":"東大和警察署","province":"東京都","city":"東大和市","address":"東大和市芋窪6-1061-1","lat":35.74856,"lon":139.4107},{"name":"北多摩西部消防署","province":"東京都","city":"東大和市","address":"東大和市上北台1-956-1","lat":35.74732,"lon":139.4133},{"name":"都立東大和南公園（陸上競技場、野球場）","province":"東京都","city":"東大和市","address":"東大和市桜が丘2丁目地内","lat":35.73676,"lon":139.42},{"name":"都立東大和南公園","province":"東京都","city":"東大和市","address":"東大和市桜が丘2-106-2","lat":35.73351,"lon":139.4246},{"name":"※東大和市本庁舎","province":"東京都","city":"東大和市","address":"東京都東大和市中央3丁目930","lat":35.74471306,"lon":139.42703715},{"name":"西武鉄道東大和市駅駐輪場","province":"東京都","city":"東大和市","address":"東京都東大和市桜が丘1丁目1415-1","lat":35.73288126,"lon":139.43434551},{"name":"西武スマイルパーク東大和市駅前第１","province":"東京都","city":"東大和市","address":"東京都東大和市桜が丘1丁目1330-19","lat":35.7330479,"lon":139.43404552},{"name":"西武スマイルパークBIGBOX東大和","province":"東京都","city":"東大和市","address":"東京都東大和市桜が丘1丁目1330-19","lat":35.7330479,"lon":139.43404552},{"name":"武蔵大和駅第2公共自転車等駐車場","province":"東京都","city":"東大和市","address":"東京都東大和市清水1丁目748-2","lat":35.75580662,"lon":139.44388817},{"name":"上北台駅第1公共自転車等駐車場","province":"東京都","city":"東大和市","address":"東京都東大和市上北台1丁目5-1","lat":35.7458127,"lon":139.4158048},{"name":"上北台駅第2公共自転車等駐車場","province":"東京都","city":"東大和市","address":"東京都東大和市上北台1丁目5-1","lat":35.7458127,"lon":139.4158048},{"name":"西武スマイルパークBIGBOX東大和第2","province":"東京都","city":"東大和市","address":"東京都東大和市桜が丘1丁目1330-19","lat":35.7330479,"lon":139.43404552},{"name":"Cycle DAICHI　武蔵大和駅前駐輪場","province":"東京都","city":"東大和市","address":"東京都東大和市清水2丁目802-1","lat":35.75551222,"lon":139.44397706},{"name":"上北台駅第7公共自転車等駐車場","province":"東京都","city":"東大和市","address":"東京都東大和市上北台1丁目5-1","lat":35.7458127,"lon":139.4158048},{"name":"上北台駅前駐輪場","province":"東京都","city":"東大和市","address":"東京都東大和市立野2丁目2-10","lat":35.74638765,"lon":139.41656581},{"name":"東大和保育園","province":"東京都","city":"東大和市","address":"東京都東大和市新堀1-1435-33","lat":35.741073,"lon":139.449081},{"name":"ふたば保育園","province":"東京都","city":"東大和市","address":"東京都東大和市立野2-4-13","lat":35.746313,"lon":139.417341},{"name":"みつば保育園","province":"東京都","city":"東大和市","address":"東京都東大和市立野3-1293-10","lat":35.7388,"lon":139.422714},{"name":"向原第二保育園","province":"東京都","city":"東大和市","address":"東京都東大和市向原1-4-1","lat":35.741966,"lon":139.440063},{"name":"ひが保育ママ","province":"東京都","city":"東大和市","address":"東京都東大和市中央2-1101-12","lat":35.743881,"lon":139.430359},{"name":"木村保育ママ","province":"東京都","city":"東大和市","address":"東京都東大和市南街2-20-3","lat":35.741596,"lon":139.427917},{"name":"こども学園","province":"東京都","city":"東大和市","address":"東京都東大和市奈良橋2-409","lat":35.754368,"lon":139.426514},{"name":"東大和市保健センター","province":"東京都","city":"東大和市","address":"東京都東大和市中央3丁目918-1","lat":35.74572128,"lon":139.42737043},{"name":"東大和市本庁舎","province":"東京都","city":"東大和市","address":"東京都東大和市中央3丁目930","lat":35.74471306,"lon":139.42703715},{"name":"東大和警察署","province":"東京都","city":"東大和市","address":"東大和市芋窪6-1061-1","lat":35.74856,"lon":139.4107},{"name":"北多摩西部消防署","province":"東京都","city":"東大和市","address":"東大和市上北台1-956-1","lat":35.74732,"lon":139.4133},{"name":"都立東大和南公園（陸上競技場、野球場）","province":"東京都","city":"東大和市","address":"東大和市桜が丘2丁目地内","lat":35.73676,"lon":139.42},{"name":"都立東大和南公園","province":"東京都","city":"東大和市","address":"東大和市桜が丘2-106-2","lat":35.73351,"lon":139.4246},{"name":"※東大和市本庁舎","province":"東京都","city":"東大和市","address":"東京都東大和市中央3丁目930","lat":35.74471306,"lon":139.42703715},{"name":"西武鉄道東大和市駅駐輪場","province":"東京都","city":"東大和市","address":"東京都東大和市桜が丘1丁目1415-1","lat":35.73288126,"lon":139.43434551},{"name":"西武スマイルパーク東大和市駅前第１","province":"東京都","city":"東大和市","address":"東京都東大和市桜が丘1丁目1330-19","lat":35.7330479,"lon":139.43404552},{"name":"西武スマイルパークBIGBOX東大和","province":"東京都","city":"東大和市","address":"東京都東大和市桜が丘1丁目1330-19","lat":35.7330479,"lon":139.43404552},{"name":"武蔵大和駅第2公共自転車等駐車場","province":"東京都","city":"東大和市","address":"東京都東大和市清水1丁目748-2","lat":35.75580662,"lon":139.44388817},{"name":"上北台駅第1公共自転車等駐車場","province":"東京都","city":"東大和市","address":"東京都東大和市上北台1丁目5-1","lat":35.7458127,"lon":139.4158048},{"name":"上北台駅第2公共自転車等駐車場","province":"東京都","city":"東大和市","address":"東京都東大和市上北台1丁目5-1","lat":35.7458127,"lon":139.4158048},{"name":"西武スマイルパークBIGBOX東大和第2","province":"東京都","city":"東大和市","address":"東京都東大和市桜が丘1丁目1330-19","lat":35.7330479,"lon":139.43404552},{"name":"Cycle DAICHI　武蔵大和駅前駐輪場","province":"東京都","city":"東大和市","address":"東京都東大和市清水2丁目802-1","lat":35.75551222,"lon":139.44397706},{"name":"上北台駅第7公共自転車等駐車場","province":"東京都","city":"東大和市","address":"東京都東大和市上北台1丁目5-1","lat":35.7458127,"lon":139.4158048},{"name":"上北台駅前駐輪場","province":"東京都","city":"東大和市","address":"東京都東大和市立野2丁目2-10","lat":35.74638765,"lon":139.41656581},{"name":"東大和保育園","province":"東京都","city":"東大和市","address":"東京都東大和市新堀1-1435-33","lat":35.741073,"lon":139.449081},{"name":"ふたば保育園","province":"東京都","city":"東大和市","address":"東京都東大和市立野2-4-13","lat":35.746313,"lon":139.417341},{"name":"みつば保育園","province":"東京都","city":"東大和市","address":"東京都東大和市立野3-1293-10","lat":35.7388,"lon":139.422714},{"name":"向原第二保育園","province":"東京都","city":"東大和市","address":"東京都東大和市向原1-4-1","lat":35.741966,"lon":139.440063},{"name":"ひが保育ママ","province":"東京都","city":"東大和市","address":"東京都東大和市中央2-1101-12","lat":35.743881,"lon":139.430359},{"name":"木村保育ママ","province":"東京都","city":"東大和市","address":"東京都東大和市南街2-20-3","lat":35.741596,"lon":139.427917},{"name":"こども学園","province":"東京都","city":"東大和市","address":"東京都東大和市奈良橋2-409","lat":35.754368,"lon":139.426514},{"name":"東大和市保健センター","province":"東京都","city":"東大和市","address":"東京都東大和市中央3丁目918-1","lat":35.74572128,"lon":139.42737043},{"name":"東大和市本庁舎","province":"東京都","city":"東大和市","address":"東京都東大和市中央3丁目930","lat":35.74471306,"lon":139.42703715},{"name":"東大和警察署","province":"東京都","city":"東大和市","address":"東大和市芋窪6-1061-1","lat":35.74856,"lon":139.4107},{"name":"北多摩西部消防署","province":"東京都","city":"東大和市","address":"東大和市上北台1-956-1","lat":35.74732,"lon":139.4133},{"name":"都立東大和南公園（陸上競技場、野球場）","province":"東京都","city":"東大和市","address":"東大和市桜が丘2丁目地内","lat":35.73676,"lon":139.42},{"name":"都立東大和南公園","province":"東京都","city":"東大和市","address":"東大和市桜が丘2-106-2","lat":35.73351,"lon":139.4246},{"name":"※東大和市本庁舎","province":"東京都","city":"東大和市","address":"東京都東大和市中央3丁目930","lat":35.74471306,"lon":139.42703715},{"name":"西武鉄道東大和市駅駐輪場","province":"東京都","city":"東大和市","address":"東京都東大和市桜が丘1丁目1415-1","lat":35.73288126,"lon":139.43434551},{"name":"西武スマイルパーク東大和市駅前第１","province":"東京都","city":"東大和市","address":"東京都東大和市桜が丘1丁目1330-19","lat":35.7330479,"lon":139.43404552},{"name":"西武スマイルパークBIGBOX東大和","province":"東京都","city":"東大和市","address":"東京都東大和市桜が丘1丁目1330-19","lat":35.7330479,"lon":139.43404552},{"name":"武蔵大和駅第2公共自転車等駐車場","province":"東京都","city":"東大和市","address":"東京都東大和市清水1丁目748-2","lat":35.75580662,"lon":139.44388817},{"name":"上北台駅第1公共自転車等駐車場","province":"東京都","city":"東大和市","address":"東京都東大和市上北台1丁目5-1","lat":35.7458127,"lon":139.4158048},{"name":"上北台駅第2公共自転車等駐車場","province":"東京都","city":"東大和市","address":"東京都東大和市上北台1丁目5-1","lat":35.7458127,"lon":139.4158048},{"name":"西武スマイルパークBIGBOX東大和第2","province":"東京都","city":"東大和市","address":"東京都東大和市桜が丘1丁目1330-19","lat":35.7330479,"lon":139.43404552},{"name":"Cycle DAICHI　武蔵大和駅前駐輪場","province":"東京都","city":"東大和市","address":"東京都東大和市清水2丁目802-1","lat":35.75551222,"lon":139.44397706},{"name":"上北台駅第7公共自転車等駐車場","province":"東京都","city":"東大和市","address":"東京都東大和市上北台1丁目5-1","lat":35.7458127,"lon":139.4158048},{"name":"上北台駅前駐輪場","province":"東京都","city":"東大和市","address":"東京都東大和市立野2丁目2-10","lat":35.74638765,"lon":139.41656581},{"name":"東大和保育園","province":"東京都","city":"東大和市","address":"東京都東大和市新堀1-1435-33","lat":35.741073,"lon":139.449081},{"name":"ふたば保育園","province":"東京都","city":"東大和市","address":"東京都東大和市立野2-4-13","lat":35.746313,"lon":139.417341},{"name":"みつば保育園","province":"東京都","city":"東大和市","address":"東京都東大和市立野3-1293-10","lat":35.7388,"lon":139.422714},{"name":"向原第二保育園","province":"東京都","city":"東大和市","address":"東京都東大和市向原1-4-1","lat":35.741966,"lon":139.440063},{"name":"ひが保育ママ","province":"東京都","city":"東大和市","address":"東京都東大和市中央2-1101-12","lat":35.743881,"lon":139.430359},{"name":"木村保育ママ","province":"東京都","city":"東大和市","address":"東京都東大和市南街2-20-3","lat":35.741596,"lon":139.427917},{"name":"こども学園","province":"東京都","city":"東大和市","address":"東京都東大和市奈良橋2-409","lat":35.754368,"lon":139.426514},{"name":"東大和市保健センター","province":"東京都","city":"東大和市","address":"東京都東大和市中央3丁目918-1","lat":35.74572128,"lon":139.42737043},{"name":"東大和市本庁舎","province":"東京都","city":"東大和市","address":"東京都東大和市中央3丁目930","lat":35.74471306,"lon":139.42703715},{"name":"東大和警察署","province":"東京都","city":"東大和市","address":"東大和市芋窪6-1061-1","lat":35.74856,"lon":139.4107},{"name":"北多摩西部消防署","province":"東京都","city":"東大和市","address":"東大和市上北台1-956-1","lat":35.74732,"lon":139.4133},{"name":"都立東大和南公園（陸上競技場、野球場）","province":"東京都","city":"東大和市","address":"東大和市桜が丘2丁目地内","lat":35.73676,"lon":139.42},{"name":"都立東大和南公園","province":"東京都","city":"東大和市","address":"東大和市桜が丘2-106-2","lat":35.73351,"lon":139.4246},{"name":"※東大和市本庁舎","province":"東京都","city":"東大和市","address":"東京都東大和市中央3丁目930","lat":35.74471306,"lon":139.42703715},{"name":"西武鉄道東大和市駅駐輪場","province":"東京都","city":"東大和市","address":"東京都東大和市桜が丘1丁目1415-1","lat":35.73288126,"lon":139.43434551},{"name":"西武スマイルパーク東大和市駅前第１","province":"東京都","city":"東大和市","address":"東京都東大和市桜が丘1丁目1330-19","lat":35.7330479,"lon":139.43404552},{"name":"西武スマイルパークBIGBOX東大和","province":"東京都","city":"東大和市","address":"東京都東大和市桜が丘1丁目1330-19","lat":35.7330479,"lon":139.43404552},{"name":"武蔵大和駅第2公共自転車等駐車場","province":"東京都","city":"東大和市","address":"東京都東大和市清水1丁目748-2","lat":35.75580662,"lon":139.44388817},{"name":"上北台駅第1公共自転車等駐車場","province":"東京都","city":"東大和市","address":"東京都東大和市上北台1丁目5-1","lat":35.7458127,"lon":139.4158048},{"name":"上北台駅第2公共自転車等駐車場","province":"東京都","city":"東大和市","address":"東京都東大和市上北台1丁目5-1","lat":35.7458127,"lon":139.4158048},{"name":"西武スマイルパークBIGBOX東大和第2","province":"東京都","city":"東大和市","address":"東京都東大和市桜が丘1丁目1330-19","lat":35.7330479,"lon":139.43404552},{"name":"Cycle DAICHI　武蔵大和駅前駐輪場","province":"東京都","city":"東大和市","address":"東京都東大和市清水2丁目802-1","lat":35.75551222,"lon":139.44397706},{"name":"上北台駅第7公共自転車等駐車場","province":"東京都","city":"東大和市","address":"東京都東大和市上北台1丁目5-1","lat":35.7458127,"lon":139.4158048},{"name":"上北台駅前駐輪場","province":"東京都","city":"東大和市","address":"東京都東大和市立野2丁目2-10","lat":35.74638765,"lon":139.41656581},{"name":"東大和保育園","province":"東京都","city":"東大和市","address":"東京都東大和市新堀1-1435-33","lat":35.741073,"lon":139.449081},{"name":"ふたば保育園","province":"東京都","city":"東大和市","address":"東京都東大和市立野2-4-13","lat":35.746313,"lon":139.417341},{"name":"みつば保育園","province":"東京都","city":"東大和市","address":"東京都東大和市立野3-1293-10","lat":35.7388,"lon":139.422714},{"name":"向原第二保育園","province":"東京都","city":"東大和市","address":"東京都東大和市向原1-4-1","lat":35.741966,"lon":139.440063},{"name":"ひが保育ママ","province":"東京都","city":"東大和市","address":"東京都東大和市中央2-1101-12","lat":35.743881,"lon":139.430359},{"name":"木村保育ママ","province":"東京都","city":"東大和市","address":"東京都東大和市南街2-20-3","lat":35.741596,"lon":139.427917},{"name":"こども学園","province":"東京都","city":"東大和市","address":"東京都東大和市奈良橋2-409","lat":35.754368,"lon":139.426514},{"name":"東大和市保健センター","province":"東京都","city":"東大和市","address":"東京都東大和市中央3丁目918-1","lat":35.74572128,"lon":139.42737043},{"name":"東大和市本庁舎","province":"東京都","city":"東大和市","address":"東京都東大和市中央3丁目930","lat":35.74471306,"lon":139.42703715},{"name":"東大和警察署","province":"東京都","city":"東大和市","address":"東大和市芋窪6-1061-1","lat":35.74856,"lon":139.4107},{"name":"北多摩西部消防署","province":"東京都","city":"東大和市","address":"東大和市上北台1-956-1","lat":35.74732,"lon":139.4133},{"name":"都立東大和南公園（陸上競技場、野球場）","province":"東京都","city":"東大和市","address":"東大和市桜が丘2丁目地内","lat":35.73676,"lon":139.42},{"name":"都立東大和南公園","province":"東京都","city":"東大和市","address":"東大和市桜が丘2-106-2","lat":35.73351,"lon":139.4246},{"name":"※東大和市本庁舎","province":"東京都","city":"東大和市","address":"東京都東大和市中央3丁目930","lat":35.74471306,"lon":139.42703715},{"name":"西武鉄道東大和市駅駐輪場","province":"東京都","city":"東大和市","address":"東京都東大和市桜が丘1丁目1415-1","lat":35.73288126,"lon":139.43434551},{"name":"西武スマイルパーク東大和市駅前第１","province":"東京都","city":"東大和市","address":"東京都東大和市桜が丘1丁目1330-19","lat":35.7330479,"lon":139.43404552},{"name":"西武スマイルパークBIGBOX東大和","province":"東京都","city":"東大和市","address":"東京都東大和市桜が丘1丁目1330-19","lat":35.7330479,"lon":139.43404552},{"name":"武蔵大和駅第2公共自転車等駐車場","province":"東京都","city":"東大和市","address":"東京都東大和市清水1丁目748-2","lat":35.75580662,"lon":139.44388817},{"name":"上北台駅第1公共自転車等駐車場","province":"東京都","city":"東大和市","address":"東京都東大和市上北台1丁目5-1","lat":35.7458127,"lon":139.4158048},{"name":"上北台駅第2公共自転車等駐車場","province":"東京都","city":"東大和市","address":"東京都東大和市上北台1丁目5-1","lat":35.7458127,"lon":139.4158048},{"name":"西武スマイルパークBIGBOX東大和第2","province":"東京都","city":"東大和市","address":"東京都東大和市桜が丘1丁目1330-19","lat":35.7330479,"lon":139.43404552},{"name":"Cycle DAICHI　武蔵大和駅前駐輪場","province":"東京都","city":"東大和市","address":"東京都東大和市清水2丁目802-1","lat":35.75551222,"lon":139.44397706},{"name":"上北台駅第7公共自転車等駐車場","province":"東京都","city":"東大和市","address":"東京都東大和市上北台1丁目5-1","lat":35.7458127,"lon":139.4158048},{"name":"上北台駅前駐輪場","province":"東京都","city":"東大和市","address":"東京都東大和市立野2丁目2-10","lat":35.74638765,"lon":139.41656581},{"name":"東大和保育園","province":"東京都","city":"東大和市","address":"東京都東大和市新堀1-1435-33","lat":35.741073,"lon":139.449081},{"name":"ふたば保育園","province":"東京都","city":"東大和市","address":"東京都東大和市立野2-4-13","lat":35.746313,"lon":139.417341},{"name":"みつば保育園","province":"東京都","city":"東大和市","address":"東京都東大和市立野3-1293-10","lat":35.7388,"lon":139.422714},{"name":"向原第二保育園","province":"東京都","city":"東大和市","address":"東京都東大和市向原1-4-1","lat":35.741966,"lon":139.440063},{"name":"ひが保育ママ","province":"東京都","city":"東大和市","address":"東京都東大和市中央2-1101-12","lat":35.743881,"lon":139.430359},{"name":"木村保育ママ","province":"東京都","city":"東大和市","address":"東京都東大和市南街2-20-3","lat":35.741596,"lon":139.427917},{"name":"こども学園","province":"東京都","city":"東大和市","address":"東京都東大和市奈良橋2-409","lat":35.754368,"lon":139.426514},{"name":"東大和市保健センター","province":"東京都","city":"東大和市","address":"東京都東大和市中央3丁目918-1","lat":35.74572128,"lon":139.42737043},{"name":"東大和市本庁舎","province":"東京都","city":"東大和市","address":"東京都東大和市中央3丁目930","lat":35.74471306,"lon":139.42703715},{"name":"東大和警察署","province":"東京都","city":"東大和市","address":"東大和市芋窪6-1061-1","lat":35.74856,"lon":139.4107},{"name":"北多摩西部消防署","province":"東京都","city":"東大和市","address":"東大和市上北台1-956-1","lat":35.74732,"lon":139.4133},{"name":"都立東大和南公園（陸上競技場、野球場）","province":"東京都","city":"東大和市","address":"東大和市桜が丘2丁目地内","lat":35.73676,"lon":139.42},{"name":"都立東大和南公園","province":"東京都","city":"東大和市","address":"東大和市桜が丘2-106-2","lat":35.73351,"lon":139.4246},{"name":"※東大和市本庁舎","province":"東京都","city":"東大和市","address":"東京都東大和市中央3丁目930","lat":35.74471306,"lon":139.42703715},{"name":"西武鉄道東大和市駅駐輪場","province":"東京都","city":"東大和市","address":"東京都東大和市桜が丘1丁目1415-1","lat":35.73288126,"lon":139.43434551},{"name":"西武スマイルパーク東大和市駅前第１","province":"東京都","city":"東大和市","address":"東京都東大和市桜が丘1丁目1330-19","lat":35.7330479,"lon":139.43404552},{"name":"西武スマイルパークBIGBOX東大和","province":"東京都","city":"東大和市","address":"東京都東大和市桜が丘1丁目1330-19","lat":35.7330479,"lon":139.43404552},{"name":"武蔵大和駅第2公共自転車等駐車場","province":"東京都","city":"東大和市","address":"東京都東大和市清水1丁目748-2","lat":35.75580662,"lon":139.44388817},{"name":"上北台駅第1公共自転車等駐車場","province":"東京都","city":"東大和市","address":"東京都東大和市上北台1丁目5-1","lat":35.7458127,"lon":139.4158048},{"name":"上北台駅第2公共自転車等駐車場","province":"東京都","city":"東大和市","address":"東京都東大和市上北台1丁目5-1","lat":35.7458127,"lon":139.4158048},{"name":"西武スマイルパークBIGBOX東大和第2","province":"東京都","city":"東大和市","address":"東京都東大和市桜が丘1丁目1330-19","lat":35.7330479,"lon":139.43404552},{"name":"Cycle DAICHI　武蔵大和駅前駐輪場","province":"東京都","city":"東大和市","address":"東京都東大和市清水2丁目802-1","lat":35.75551222,"lon":139.44397706},{"name":"上北台駅第7公共自転車等駐車場","province":"東京都","city":"東大和市","address":"東京都東大和市上北台1丁目5-1","lat":35.7458127,"lon":139.4158048},{"name":"上北台駅前駐輪場","province":"東京都","city":"東大和市","address":"東京都東大和市立野2丁目2-10","lat":35.74638765,"lon":139.41656581},{"name":"東大和保育園","province":"東京都","city":"東大和市","address":"東京都東大和市新堀1-1435-33","lat":35.741073,"lon":139.449081},{"name":"ふたば保育園","province":"東京都","city":"東大和市","address":"東京都東大和市立野2-4-13","lat":35.746313,"lon":139.417341},{"name":"みつば保育園","province":"東京都","city":"東大和市","address":"東京都東大和市立野3-1293-10","lat":35.7388,"lon":139.422714},{"name":"向原第二保育園","province":"東京都","city":"東大和市","address":"東京都東大和市向原1-4-1","lat":35.741966,"lon":139.440063},{"name":"ひが保育ママ","province":"東京都","city":"東大和市","address":"東京都東大和市中央2-1101-12","lat":35.743881,"lon":139.430359},{"name":"木村保育ママ","province":"東京都","city":"東大和市","address":"東京都東大和市南街2-20-3","lat":35.741596,"lon":139.427917},{"name":"こども学園","province":"東京都","city":"東大和市","address":"東京都東大和市奈良橋2-409","lat":35.754368,"lon":139.426514},{"name":"東大和市保健センター","province":"東京都","city":"東大和市","address":"東京都東大和市中央3丁目918-1","lat":35.74572128,"lon":139.42737043},{"name":"東大和市本庁舎","province":"東京都","city":"東大和市","address":"東京都東大和市中央3丁目930","lat":35.74471306,"lon":139.42703715},{"name":"東大和警察署","province":"東京都","city":"東大和市","address":"東大和市芋窪6-1061-1","lat":35.74856,"lon":139.4107},{"name":"北多摩西部消防署","province":"東京都","city":"東大和市","address":"東大和市上北台1-956-1","lat":35.74732,"lon":139.4133},{"name":"都立東大和南公園（陸上競技場、野球場）","province":"東京都","city":"東大和市","address":"東大和市桜が丘2丁目地内","lat":35.73676,"lon":139.42},{"name":"都立東大和南公園","province":"東京都","city":"東大和市","address":"東大和市桜が丘2-106-2","lat":35.73351,"lon":139.4246},{"name":"※東大和市本庁舎","province":"東京都","city":"東大和市","address":"東京都東大和市中央3丁目930","lat":35.74471306,"lon":139.42703715},{"name":"西武鉄道東大和市駅駐輪場","province":"東京都","city":"東大和市","address":"東京都東大和市桜が丘1丁目1415-1","lat":35.73288126,"lon":139.43434551},{"name":"西武スマイルパーク東大和市駅前第１","province":"東京都","city":"東大和市","address":"東京都東大和市桜が丘1丁目1330-19","lat":35.7330479,"lon":139.43404552},{"name":"西武スマイルパークBIGBOX東大和","province":"東京都","city":"東大和市","address":"東京都東大和市桜が丘1丁目1330-19","lat":35.7330479,"lon":139.43404552},{"name":"武蔵大和駅第2公共自転車等駐車場","province":"東京都","city":"東大和市","address":"東京都東大和市清水1丁目748-2","lat":35.75580662,"lon":139.44388817},{"name":"上北台駅第1公共自転車等駐車場","province":"東京都","city":"東大和市","address":"東京都東大和市上北台1丁目5-1","lat":35.7458127,"lon":139.4158048},{"name":"上北台駅第2公共自転車等駐車場","province":"東京都","city":"東大和市","address":"東京都東大和市上北台1丁目5-1","lat":35.7458127,"lon":139.4158048},{"name":"西武スマイルパークBIGBOX東大和第2","province":"東京都","city":"東大和市","address":"東京都東大和市桜が丘1丁目1330-19","lat":35.7330479,"lon":139.43404552},{"name":"Cycle DAICHI　武蔵大和駅前駐輪場","province":"東京都","city":"東大和市","address":"東京都東大和市清水2丁目802-1","lat":35.75551222,"lon":139.44397706},{"name":"上北台駅第7公共自転車等駐車場","province":"東京都","city":"東大和市","address":"東京都東大和市上北台1丁目5-1","lat":35.7458127,"lon":139.4158048},{"name":"上北台駅前駐輪場","province":"東京都","city":"東大和市","address":"東京都東大和市立野2丁目2-10","lat":35.74638765,"lon":139.41656581},{"name":"東大和保育園","province":"東京都","city":"東大和市","address":"東京都東大和市新堀1-1435-33","lat":35.741073,"lon":139.449081},{"name":"ふたば保育園","province":"東京都","city":"東大和市","address":"東京都東大和市立野2-4-13","lat":35.746313,"lon":139.417341},{"name":"みつば保育園","province":"東京都","city":"東大和市","address":"東京都東大和市立野3-1293-10","lat":35.7388,"lon":139.422714},{"name":"向原第二保育園","province":"東京都","city":"東大和市","address":"東京都東大和市向原1-4-1","lat":35.741966,"lon":139.440063},{"name":"ひが保育ママ","province":"東京都","city":"東大和市","address":"東京都東大和市中央2-1101-12","lat":35.743881,"lon":139.430359},{"name":"木村保育ママ","province":"東京都","city":"東大和市","address":"東京都東大和市南街2-20-3","lat":35.741596,"lon":139.427917},{"name":"こども学園","province":"東京都","city":"東大和市","address":"東京都東大和市奈良橋2-409","lat":35.754368,"lon":139.426514},{"name":"東大和市保健センター","province":"東京都","city":"東大和市","address":"東京都東大和市中央3丁目918-1","lat":35.74572128,"lon":139.42737043},{"name":"東大和市本庁舎","province":"東京都","city":"東大和市","address":"東京都東大和市中央3丁目930","lat":35.74471306,"lon":139.42703715},{"name":"東大和警察署","province":"東京都","city":"東大和市","address":"東大和市芋窪6-1061-1","lat":35.74856,"lon":139.4107},{"name":"北多摩西部消防署","province":"東京都","city":"東大和市","address":"東大和市上北台1-956-1","lat":35.74732,"lon":139.4133},{"name":"都立東大和南公園（陸上競技場、野球場）","province":"東京都","city":"東大和市","address":"東大和市桜が丘2丁目地内","lat":35.73676,"lon":139.42},{"name":"都立東大和南公園","province":"東京都","city":"東大和市","address":"東大和市桜が丘2-106-2","lat":35.73351,"lon":139.4246},{"name":"※東大和市本庁舎","province":"東京都","city":"東大和市","address":"東京都東大和市中央3丁目930","lat":35.74471306,"lon":139.42703715},{"name":"西武鉄道東大和市駅駐輪場","province":"東京都","city":"東大和市","address":"東京都東大和市桜が丘1丁目1415-1","lat":35.73288126,"lon":139.43434551},{"name":"西武スマイルパーク東大和市駅前第１","province":"東京都","city":"東大和市","address":"東京都東大和市桜が丘1丁目1330-19","lat":35.7330479,"lon":139.43404552},{"name":"西武スマイルパークBIGBOX東大和","province":"東京都","city":"東大和市","address":"東京都東大和市桜が丘1丁目1330-19","lat":35.7330479,"lon":139.43404552},{"name":"武蔵大和駅第2公共自転車等駐車場","province":"東京都","city":"東大和市","address":"東京都東大和市清水1丁目748-2","lat":35.75580662,"lon":139.44388817},{"name":"上北台駅第1公共自転車等駐車場","province":"東京都","city":"東大和市","address":"東京都東大和市上北台1丁目5-1","lat":35.7458127,"lon":139.4158048},{"name":"上北台駅第2公共自転車等駐車場","province":"東京都","city":"東大和市","address":"東京都東大和市上北台1丁目5-1","lat":35.7458127,"lon":139.4158048},{"name":"西武スマイルパークBIGBOX東大和第2","province":"東京都","city":"東大和市","address":"東京都東大和市桜が丘1丁目1330-19","lat":35.7330479,"lon":139.43404552},{"name":"Cycle DAICHI　武蔵大和駅前駐輪場","province":"東京都","city":"東大和市","address":"東京都東大和市清水2丁目802-1","lat":35.75551222,"lon":139.44397706},{"name":"上北台駅第7公共自転車等駐車場","province":"東京都","city":"東大和市","address":"東京都東大和市上北台1丁目5-1","lat":35.7458127,"lon":139.4158048},{"name":"上北台駅前駐輪場","province":"東京都","city":"東大和市","address":"東京都東大和市立野2丁目2-10","lat":35.74638765,"lon":139.41656581},{"name":"東大和保育園","province":"東京都","city":"東大和市","address":"東京都東大和市新堀1-1435-33","lat":35.741073,"lon":139.449081},{"name":"ふたば保育園","province":"東京都","city":"東大和市","address":"東京都東大和市立野2-4-13","lat":35.746313,"lon":139.417341},{"name":"みつば保育園","province":"東京都","city":"東大和市","address":"東京都東大和市立野3-1293-10","lat":35.7388,"lon":139.422714},{"name":"向原第二保育園","province":"東京都","city":"東大和市","address":"東京都東大和市向原1-4-1","lat":35.741966,"lon":139.440063},{"name":"ひが保育ママ","province":"東京都","city":"東大和市","address":"東京都東大和市中央2-1101-12","lat":35.743881,"lon":139.430359},{"name":"木村保育ママ","province":"東京都","city":"東大和市","address":"東京都東大和市南街2-20-3","lat":35.741596,"lon":139.427917},{"name":"こども学園","province":"東京都","city":"東大和市","address":"東京都東大和市奈良橋2-409","lat":35.754368,"lon":139.426514},{"name":"東大和市保健センター","province":"東京都","city":"東大和市","address":"東京都東大和市中央3丁目918-1","lat":35.74572128,"lon":139.42737043},{"name":"東大和市本庁舎","province":"東京都","city":"東大和市","address":"東京都東大和市中央3丁目930","lat":35.74471306,"lon":139.42703715},{"name":"東大和警察署","province":"東京都","city":"東大和市","address":"東大和市芋窪6-1061-1","lat":35.74856,"lon":139.4107},{"name":"北多摩西部消防署","province":"東京都","city":"東大和市","address":"東大和市上北台1-956-1","lat":35.74732,"lon":139.4133},{"name":"都立東大和南公園（陸上競技場、野球場）","province":"東京都","city":"東大和市","address":"東大和市桜が丘2丁目地内","lat":35.73676,"lon":139.42},{"name":"都立東大和南公園","province":"東京都","city":"東大和市","address":"東大和市桜が丘2-106-2","lat":35.73351,"lon":139.4246},{"name":"※東大和市本庁舎","province":"東京都","city":"東大和市","address":"東京都東大和市中央3丁目930","lat":35.74471306,"lon":139.42703715},{"name":"西武鉄道東大和市駅駐輪場","province":"東京都","city":"東大和市","address":"東京都東大和市桜が丘1丁目1415-1","lat":35.73288126,"lon":139.43434551},{"name":"西武スマイルパーク東大和市駅前第１","province":"東京都","city":"東大和市","address":"東京都東大和市桜が丘1丁目1330-19","lat":35.7330479,"lon":139.43404552},{"name":"西武スマイルパークBIGBOX東大和","province":"東京都","city":"東大和市","address":"東京都東大和市桜が丘1丁目1330-19","lat":35.7330479,"lon":139.43404552},{"name":"武蔵大和駅第2公共自転車等駐車場","province":"東京都","city":"東大和市","address":"東京都東大和市清水1丁目748-2","lat":35.75580662,"lon":139.44388817},{"name":"上北台駅第1公共自転車等駐車場","province":"東京都","city":"東大和市","address":"東京都東大和市上北台1丁目5-1","lat":35.7458127,"lon":139.4158048},{"name":"上北台駅第2公共自転車等駐車場","province":"東京都","city":"東大和市","address":"東京都東大和市上北台1丁目5-1","lat":35.7458127,"lon":139.4158048},{"name":"西武スマイルパークBIGBOX東大和第2","province":"東京都","city":"東大和市","address":"東京都東大和市桜が丘1丁目1330-19","lat":35.7330479,"lon":139.43404552},{"name":"Cycle DAICHI　武蔵大和駅前駐輪場","province":"東京都","city":"東大和市","address":"東京都東大和市清水2丁目802-1","lat":35.75551222,"lon":139.44397706},{"name":"上北台駅第7公共自転車等駐車場","province":"東京都","city":"東大和市","address":"東京都東大和市上北台1丁目5-1","lat":35.7458127,"lon":139.4158048},{"name":"上北台駅前駐輪場","province":"東京都","city":"東大和市","address":"東京都東大和市立野2丁目2-10","lat":35.74638765,"lon":139.41656581},{"name":"東大和保育園","province":"東京都","city":"東大和市","address":"東京都東大和市新堀1-1435-33","lat":35.741073,"lon":139.449081},{"name":"ふたば保育園","province":"東京都","city":"東大和市","address":"東京都東大和市立野2-4-13","lat":35.746313,"lon":139.417341},{"name":"みつば保育園","province":"東京都","city":"東大和市","address":"東京都東大和市立野3-1293-10","lat":35.7388,"lon":139.422714},{"name":"向原第二保育園","province":"東京都","city":"東大和市","address":"東京都東大和市向原1-4-1","lat":35.741966,"lon":139.440063},{"name":"ひが保育ママ","province":"東京都","city":"東大和市","address":"東京都東大和市中央2-1101-12","lat":35.743881,"lon":139.430359},{"name":"木村保育ママ","province":"東京都","city":"東大和市","address":"東京都東大和市南街2-20-3","lat":35.741596,"lon":139.427917},{"name":"こども学園","province":"東京都","city":"東大和市","address":"東京都東大和市奈良橋2-409","lat":35.754368,"lon":139.426514},{"name":"東大和市保健センター","province":"東京都","city":"東大和市","address":"東京都東大和市中央3丁目918-1","lat":35.74572128,"lon":139.42737043},{"name":"東大和市本庁舎","province":"東京都","city":"東大和市","address":"東京都東大和市中央3丁目930","lat":35.74471306,"lon":139.42703715},{"name":"東大和警察署","province":"東京都","city":"東大和市","address":"東大和市芋窪6-1061-1","lat":35.74856,"lon":139.4107},{"name":"北多摩西部消防署","province":"東京都","city":"東大和市","address":"東大和市上北台1-956-1","lat":35.74732,"lon":139.4133},{"name":"都立東大和南公園（陸上競技場、野球場）","province":"東京都","city":"東大和市","address":"東大和市桜が丘2丁目地内","lat":35.73676,"lon":139.42},{"name":"都立東大和南公園","province":"東京都","city":"東大和市","address":"東大和市桜が丘2-106-2","lat":35.73351,"lon":139.4246},{"name":"※東大和市本庁舎","province":"東京都","city":"東大和市","address":"東京都東大和市中央3丁目930","lat":35.74471306,"lon":139.42703715},{"name":"西武鉄道東大和市駅駐輪場","province":"東京都","city":"東大和市","address":"東京都東大和市桜が丘1丁目1415-1","lat":35.73288126,"lon":139.43434551},{"name":"西武スマイルパーク東大和市駅前第１","province":"東京都","city":"東大和市","address":"東京都東大和市桜が丘1丁目1330-19","lat":35.7330479,"lon":139.43404552},{"name":"西武スマイルパークBIGBOX東大和","province":"東京都","city":"東大和市","address":"東京都東大和市桜が丘1丁目1330-19","lat":35.7330479,"lon":139.43404552},{"name":"武蔵大和駅第2公共自転車等駐車場","province":"東京都","city":"東大和市","address":"東京都東大和市清水1丁目748-2","lat":35.75580662,"lon":139.44388817},{"name":"上北台駅第1公共自転車等駐車場","province":"東京都","city":"東大和市","address":"東京都東大和市上北台1丁目5-1","lat":35.7458127,"lon":139.4158048},{"name":"上北台駅第2公共自転車等駐車場","province":"東京都","city":"東大和市","address":"東京都東大和市上北台1丁目5-1","lat":35.7458127,"lon":139.4158048},{"name":"西武スマイルパークBIGBOX東大和第2","province":"東京都","city":"東大和市","address":"東京都東大和市桜が丘1丁目1330-19","lat":35.7330479,"lon":139.43404552},{"name":"Cycle DAICHI　武蔵大和駅前駐輪場","province":"東京都","city":"東大和市","address":"東京都東大和市清水2丁目802-1","lat":35.75551222,"lon":139.44397706},{"name":"上北台駅第7公共自転車等駐車場","province":"東京都","city":"東大和市","address":"東京都東大和市上北台1丁目5-1","lat":35.7458127,"lon":139.4158048},{"name":"上北台駅前駐輪場","province":"東京都","city":"東大和市","address":"東京都東大和市立野2丁目2-10","lat":35.74638765,"lon":139.41656581},{"name":"東大和保育園","province":"東京都","city":"東大和市","address":"東京都東大和市新堀1-1435-33","lat":35.741073,"lon":139.449081},{"name":"ふたば保育園","province":"東京都","city":"東大和市","address":"東京都東大和市立野2-4-13","lat":35.746313,"lon":139.417341},{"name":"みつば保育園","province":"東京都","city":"東大和市","address":"東京都東大和市立野3-1293-10","lat":35.7388,"lon":139.422714},{"name":"向原第二保育園","province":"東京都","city":"東大和市","address":"東京都東大和市向原1-4-1","lat":35.741966,"lon":139.440063},{"name":"ひが保育ママ","province":"東京都","city":"東大和市","address":"東京都東大和市中央2-1101-12","lat":35.743881,"lon":139.430359},{"name":"木村保育ママ","province":"東京都","city":"東大和市","address":"東京都東大和市南街2-20-3","lat":35.741596,"lon":139.427917},{"name":"こども学園","province":"東京都","city":"東大和市","address":"東京都東大和市奈良橋2-409","lat":35.754368,"lon":139.426514},{"name":"東大和市保健センター","province":"東京都","city":"東大和市","address":"東京都東大和市中央3丁目918-1","lat":35.74572128,"lon":139.42737043},{"name":"東大和市本庁舎","province":"東京都","city":"東大和市","address":"東京都東大和市中央3丁目930","lat":35.74471306,"lon":139.42703715},{"name":"東大和警察署","province":"東京都","city":"東大和市","address":"東大和市芋窪6-1061-1","lat":35.74856,"lon":139.4107},{"name":"北多摩西部消防署","province":"東京都","city":"東大和市","address":"東大和市上北台1-956-1","lat":35.74732,"lon":139.4133},{"name":"都立東大和南公園（陸上競技場、野球場）","province":"東京都","city":"東大和市","address":"東大和市桜が丘2丁目地内","lat":35.73676,"lon":139.42},{"name":"都立東大和南公園","province":"東京都","city":"東大和市","address":"東大和市桜が丘2-106-2","lat":35.73351,"lon":139.4246},{"name":"※東大和市本庁舎","province":"東京都","city":"東大和市","address":"東京都東大和市中央3丁目930","lat":35.74471306,"lon":139.42703715},{"name":"西武鉄道東大和市駅駐輪場","province":"東京都","city":"東大和市","address":"東京都東大和市桜が丘1丁目1415-1","lat":35.73288126,"lon":139.43434551},{"name":"西武スマイルパーク東大和市駅前第１","province":"東京都","city":"東大和市","address":"東京都東大和市桜が丘1丁目1330-19","lat":35.7330479,"lon":139.43404552},{"name":"西武スマイルパークBIGBOX東大和","province":"東京都","city":"東大和市","address":"東京都東大和市桜が丘1丁目1330-19","lat":35.7330479,"lon":139.43404552},{"name":"武蔵大和駅第2公共自転車等駐車場","province":"東京都","city":"東大和市","address":"東京都東大和市清水1丁目748-2","lat":35.75580662,"lon":139.44388817},{"name":"上北台駅第1公共自転車等駐車場","province":"東京都","city":"東大和市","address":"東京都東大和市上北台1丁目5-1","lat":35.7458127,"lon":139.4158048},{"name":"上北台駅第2公共自転車等駐車場","province":"東京都","city":"東大和市","address":"東京都東大和市上北台1丁目5-1","lat":35.7458127,"lon":139.4158048},{"name":"西武スマイルパークBIGBOX東大和第2","province":"東京都","city":"東大和市","address":"東京都東大和市桜が丘1丁目1330-19","lat":35.7330479,"lon":139.43404552},{"name":"Cycle DAICHI　武蔵大和駅前駐輪場","province":"東京都","city":"東大和市","address":"東京都東大和市清水2丁目802-1","lat":35.75551222,"lon":139.44397706},{"name":"上北台駅第7公共自転車等駐車場","province":"東京都","city":"東大和市","address":"東京都東大和市上北台1丁目5-1","lat":35.7458127,"lon":139.4158048},{"name":"上北台駅前駐輪場","province":"東京都","city":"東大和市","address":"東京都東大和市立野2丁目2-10","lat":35.74638765,"lon":139.41656581},{"name":"東大和保育園","province":"東京都","city":"東大和市","address":"東京都東大和市新堀1-1435-33","lat":35.741073,"lon":139.449081},{"name":"ふたば保育園","province":"東京都","city":"東大和市","address":"東京都東大和市立野2-4-13","lat":35.746313,"lon":139.417341},{"name":"みつば保育園","province":"東京都","city":"東大和市","address":"東京都東大和市立野3-1293-10","lat":35.7388,"lon":139.422714},{"name":"向原第二保育園","province":"東京都","city":"東大和市","address":"東京都東大和市向原1-4-1","lat":35.741966,"lon":139.440063},{"name":"ひが保育ママ","province":"東京都","city":"東大和市","address":"東京都東大和市中央2-1101-12","lat":35.743881,"lon":139.430359},{"name":"木村保育ママ","province":"東京都","city":"東大和市","address":"東京都東大和市南街2-20-3","lat":35.741596,"lon":139.427917},{"name":"こども学園","province":"東京都","city":"東大和市","address":"東京都東大和市奈良橋2-409","lat":35.754368,"lon":139.426514},{"name":"東大和市保健センター","province":"東京都","city":"東大和市","address":"東京都東大和市中央3丁目918-1","lat":35.74572128,"lon":139.42737043},{"name":"東大和市本庁舎","province":"東京都","city":"東大和市","address":"東京都東大和市中央3丁目930","lat":35.74471306,"lon":139.42703715},{"name":"東大和警察署","province":"東京都","city":"東大和市","address":"東大和市芋窪6-1061-1","lat":35.74856,"lon":139.4107},{"name":"北多摩西部消防署","province":"東京都","city":"東大和市","address":"東大和市上北台1-956-1","lat":35.74732,"lon":139.4133},{"name":"都立東大和南公園（陸上競技場、野球場）","province":"東京都","city":"東大和市","address":"東大和市桜が丘2丁目地内","lat":35.73676,"lon":139.42},{"name":"都立東大和南公園","province":"東京都","city":"東大和市","address":"東大和市桜が丘2-106-2","lat":35.73351,"lon":139.4246},{"name":"※東大和市本庁舎","province":"東京都","city":"東大和市","address":"東京都東大和市中央3丁目930","lat":35.74471306,"lon":139.42703715},{"name":"西武鉄道東大和市駅駐輪場","province":"東京都","city":"東大和市","address":"東京都東大和市桜が丘1丁目1415-1","lat":35.73288126,"lon":139.43434551},{"name":"西武スマイルパーク東大和市駅前第１","province":"東京都","city":"東大和市","address":"東京都東大和市桜が丘1丁目1330-19","lat":35.7330479,"lon":139.43404552},{"name":"西武スマイルパークBIGBOX東大和","province":"東京都","city":"東大和市","address":"東京都東大和市桜が丘1丁目1330-19","lat":35.7330479,"lon":139.43404552},{"name":"武蔵大和駅第2公共自転車等駐車場","province":"東京都","city":"東大和市","address":"東京都東大和市清水1丁目748-2","lat":35.75580662,"lon":139.44388817},{"name":"上北台駅第1公共自転車等駐車場","province":"東京都","city":"東大和市","address":"東京都東大和市上北台1丁目5-1","lat":35.7458127,"lon":139.4158048},{"name":"上北台駅第2公共自転車等駐車場","province":"東京都","city":"東大和市","address":"東京都東大和市上北台1丁目5-1","lat":35.7458127,"lon":139.4158048},{"name":"西武スマイルパークBIGBOX東大和第2","province":"東京都","city":"東大和市","address":"東京都東大和市桜が丘1丁目1330-19","lat":35.7330479,"lon":139.43404552},{"name":"Cycle DAICHI　武蔵大和駅前駐輪場","province":"東京都","city":"東大和市","address":"東京都東大和市清水2丁目802-1","lat":35.75551222,"lon":139.44397706},{"name":"上北台駅第7公共自転車等駐車場","province":"東京都","city":"東大和市","address":"東京都東大和市上北台1丁目5-1","lat":35.7458127,"lon":139.4158048},{"name":"上北台駅前駐輪場","province":"東京都","city":"東大和市","address":"東京都東大和市立野2丁目2-10","lat":35.74638765,"lon":139.41656581},{"name":"東大和保育園","province":"東京都","city":"東大和市","address":"東京都東大和市新堀1-1435-33","lat":35.741073,"lon":139.449081},{"name":"ふたば保育園","province":"東京都","city":"東大和市","address":"東京都東大和市立野2-4-13","lat":35.746313,"lon":139.417341},{"name":"みつば保育園","province":"東京都","city":"東大和市","address":"東京都東大和市立野3-1293-10","lat":35.7388,"lon":139.422714},{"name":"向原第二保育園","province":"東京都","city":"東大和市","address":"東京都東大和市向原1-4-1","lat":35.741966,"lon":139.440063},{"name":"ひが保育ママ","province":"東京都","city":"東大和市","address":"東京都東大和市中央2-1101-12","lat":35.743881,"lon":139.430359},{"name":"木村保育ママ","province":"東京都","city":"東大和市","address":"東京都東大和市南街2-20-3","lat":35.741596,"lon":139.427917},{"name":"こども学園","province":"東京都","city":"東大和市","address":"東京都東大和市奈良橋2-409","lat":35.754368,"lon":139.426514},{"name":"東大和市保健センター","province":"東京都","city":"東大和市","address":"東京都東大和市中央3丁目918-1","lat":35.74572128,"lon":139.42737043},{"name":"東大和市本庁舎","province":"東京都","city":"東大和市","address":"東京都東大和市中央3丁目930","lat":35.74471306,"lon":139.42703715},{"name":"東大和警察署","province":"東京都","city":"東大和市","address":"東大和市芋窪6-1061-1","lat":35.74856,"lon":139.4107},{"name":"北多摩西部消防署","province":"東京都","city":"東大和市","address":"東大和市上北台1-956-1","lat":35.74732,"lon":139.4133},{"name":"都立東大和南公園（陸上競技場、野球場）","province":"東京都","city":"東大和市","address":"東大和市桜が丘2丁目地内","lat":35.73676,"lon":139.42},{"name":"都立東大和南公園","province":"東京都","city":"東大和市","address":"東大和市桜が丘2-106-2","lat":35.73351,"lon":139.4246},{"name":"※東大和市本庁舎","province":"東京都","city":"東大和市","address":"東京都東大和市中央3丁目930","lat":35.74471306,"lon":139.42703715},{"name":"西武鉄道東大和市駅駐輪場","province":"東京都","city":"東大和市","address":"東京都東大和市桜が丘1丁目1415-1","lat":35.73288126,"lon":139.43434551},{"name":"西武スマイルパーク東大和市駅前第１","province":"東京都","city":"東大和市","address":"東京都東大和市桜が丘1丁目1330-19","lat":35.7330479,"lon":139.43404552},{"name":"西武スマイルパークBIGBOX東大和","province":"東京都","city":"東大和市","address":"東京都東大和市桜が丘1丁目1330-19","lat":35.7330479,"lon":139.43404552},{"name":"武蔵大和駅第2公共自転車等駐車場","province":"東京都","city":"東大和市","address":"東京都東大和市清水1丁目748-2","lat":35.75580662,"lon":139.44388817},{"name":"上北台駅第1公共自転車等駐車場","province":"東京都","city":"東大和市","address":"東京都東大和市上北台1丁目5-1","lat":35.7458127,"lon":139.4158048},{"name":"上北台駅第2公共自転車等駐車場","province":"東京都","city":"東大和市","address":"東京都東大和市上北台1丁目5-1","lat":35.7458127,"lon":139.4158048},{"name":"西武スマイルパークBIGBOX東大和第2","province":"東京都","city":"東大和市","address":"東京都東大和市桜が丘1丁目1330-19","lat":35.7330479,"lon":139.43404552},{"name":"Cycle DAICHI　武蔵大和駅前駐輪場","province":"東京都","city":"東大和市","address":"東京都東大和市清水2丁目802-1","lat":35.75551222,"lon":139.44397706},{"name":"上北台駅第7公共自転車等駐車場","province":"東京都","city":"東大和市","address":"東京都東大和市上北台1丁目5-1","lat":35.7458127,"lon":139.4158048},{"name":"上北台駅前駐輪場","province":"東京都","city":"東大和市","address":"東京都東大和市立野2丁目2-10","lat":35.74638765,"lon":139.41656581},{"name":"東大和保育園","province":"東京都","city":"東大和市","address":"東京都東大和市新堀1-1435-33","lat":35.741073,"lon":139.449081},{"name":"ふたば保育園","province":"東京都","city":"東大和市","address":"東京都東大和市立野2-4-13","lat":35.746313,"lon":139.417341},{"name":"みつば保育園","province":"東京都","city":"東大和市","address":"東京都東大和市立野3-1293-10","lat":35.7388,"lon":139.422714},{"name":"向原第二保育園","province":"東京都","city":"東大和市","address":"東京都東大和市向原1-4-1","lat":35.741966,"lon":139.440063},{"name":"ひが保育ママ","province":"東京都","city":"東大和市","address":"東京都東大和市中央2-1101-12","lat":35.743881,"lon":139.430359},{"name":"木村保育ママ","province":"東京都","city":"東大和市","address":"東京都東大和市南街2-20-3","lat":35.741596,"lon":139.427917},{"name":"こども学園","province":"東京都","city":"東大和市","address":"東京都東大和市奈良橋2-409","lat":35.754368,"lon":139.426514},{"name":"東大和市保健センター","province":"東京都","city":"東大和市","address":"東京都東大和市中央3丁目918-1","lat":35.74572128,"lon":139.42737043},{"name":"東大和市本庁舎","province":"東京都","city":"東大和市","address":"東京都東大和市中央3丁目930","lat":35.74471306,"lon":139.42703715},{"name":"東大和警察署","province":"東京都","city":"東大和市","address":"東大和市芋窪6-1061-1","lat":35.74856,"lon":139.4107},{"name":"北多摩西部消防署","province":"東京都","city":"東大和市","address":"東大和市上北台1-956-1","lat":35.74732,"lon":139.4133},{"name":"都立東大和南公園（陸上競技場、野球場）","province":"東京都","city":"東大和市","address":"東大和市桜が丘2丁目地内","lat":35.73676,"lon":139.42},{"name":"都立東大和南公園","province":"東京都","city":"東大和市","address":"東大和市桜が丘2-106-2","lat":35.73351,"lon":139.4246},{"name":"※東大和市本庁舎","province":"東京都","city":"東大和市","address":"東京都東大和市中央3丁目930","lat":35.74471306,"lon":139.42703715},{"name":"西武鉄道東大和市駅駐輪場","province":"東京都","city":"東大和市","address":"東京都東大和市桜が丘1丁目1415-1","lat":35.73288126,"lon":139.43434551},{"name":"西武スマイルパーク東大和市駅前第１","province":"東京都","city":"東大和市","address":"東京都東大和市桜が丘1丁目1330-19","lat":35.7330479,"lon":139.43404552},{"name":"西武スマイルパークBIGBOX東大和","province":"東京都","city":"東大和市","address":"東京都東大和市桜が丘1丁目1330-19","lat":35.7330479,"lon":139.43404552},{"name":"武蔵大和駅第2公共自転車等駐車場","province":"東京都","city":"東大和市","address":"東京都東大和市清水1丁目748-2","lat":35.75580662,"lon":139.44388817},{"name":"上北台駅第1公共自転車等駐車場","province":"東京都","city":"東大和市","address":"東京都東大和市上北台1丁目5-1","lat":35.7458127,"lon":139.4158048},{"name":"上北台駅第2公共自転車等駐車場","province":"東京都","city":"東大和市","address":"東京都東大和市上北台1丁目5-1","lat":35.7458127,"lon":139.4158048},{"name":"西武スマイルパークBIGBOX東大和第2","province":"東京都","city":"東大和市","address":"東京都東大和市桜が丘1丁目1330-19","lat":35.7330479,"lon":139.43404552},{"name":"Cycle DAICHI　武蔵大和駅前駐輪場","province":"東京都","city":"東大和市","address":"東京都東大和市清水2丁目802-1","lat":35.75551222,"lon":139.44397706},{"name":"上北台駅第7公共自転車等駐車場","province":"東京都","city":"東大和市","address":"東京都東大和市上北台1丁目5-1","lat":35.7458127,"lon":139.4158048},{"name":"上北台駅前駐輪場","province":"東京都","city":"東大和市","address":"東京都東大和市立野2丁目2-10","lat":35.74638765,"lon":139.41656581},{"name":"東大和保育園","province":"東京都","city":"東大和市","address":"東京都東大和市新堀1-1435-33","lat":35.741073,"lon":139.449081},{"name":"ふたば保育園","province":"東京都","city":"東大和市","address":"東京都東大和市立野2-4-13","lat":35.746313,"lon":139.417341},{"name":"みつば保育園","province":"東京都","city":"東大和市","address":"東京都東大和市立野3-1293-10","lat":35.7388,"lon":139.422714},{"name":"向原第二保育園","province":"東京都","city":"東大和市","address":"東京都東大和市向原1-4-1","lat":35.741966,"lon":139.440063},{"name":"ひが保育ママ","province":"東京都","city":"東大和市","address":"東京都東大和市中央2-1101-12","lat":35.743881,"lon":139.430359},{"name":"木村保育ママ","province":"東京都","city":"東大和市","address":"東京都東大和市南街2-20-3","lat":35.741596,"lon":139.427917},{"name":"こども学園","province":"東京都","city":"東大和市","address":"東京都東大和市奈良橋2-409","lat":35.754368,"lon":139.426514},{"name":"東大和市保健センター","province":"東京都","city":"東大和市","address":"東京都東大和市中央3丁目918-1","lat":35.74572128,"lon":139.42737043},{"name":"東大和市本庁舎","province":"東京都","city":"東大和市","address":"東京都東大和市中央3丁目930","lat":35.74471306,"lon":139.42703715},{"name":"東大和警察署","province":"東京都","city":"東大和市","address":"東大和市芋窪6-1061-1","lat":35.74856,"lon":139.4107},{"name":"北多摩西部消防署","province":"東京都","city":"東大和市","address":"東大和市上北台1-956-1","lat":35.74732,"lon":139.4133},{"name":"都立東大和南公園（陸上競技場、野球場）","province":"東京都","city":"東大和市","address":"東大和市桜が丘2丁目地内","lat":35.73676,"lon":139.42},{"name":"都立東大和南公園","province":"東京都","city":"東大和市","address":"東大和市桜が丘2-106-2","lat":35.73351,"lon":139.4246},{"name":"※東大和市本庁舎","province":"東京都","city":"東大和市","address":"東京都東大和市中央3丁目930","lat":35.74471306,"lon":139.42703715},{"name":"西武鉄道東大和市駅駐輪場","province":"東京都","city":"東大和市","address":"東京都東大和市桜が丘1丁目1415-1","lat":35.73288126,"lon":139.43434551},{"name":"西武スマイルパーク東大和市駅前第１","province":"東京都","city":"東大和市","address":"東京都東大和市桜が丘1丁目1330-19","lat":35.7330479,"lon":139.43404552},{"name":"西武スマイルパークBIGBOX東大和","province":"東京都","city":"東大和市","address":"東京都東大和市桜が丘1丁目1330-19","lat":35.7330479,"lon":139.43404552},{"name":"武蔵大和駅第2公共自転車等駐車場","province":"東京都","city":"東大和市","address":"東京都東大和市清水1丁目748-2","lat":35.75580662,"lon":139.44388817},{"name":"上北台駅第1公共自転車等駐車場","province":"東京都","city":"東大和市","address":"東京都東大和市上北台1丁目5-1","lat":35.7458127,"lon":139.4158048},{"name":"上北台駅第2公共自転車等駐車場","province":"東京都","city":"東大和市","address":"東京都東大和市上北台1丁目5-1","lat":35.7458127,"lon":139.4158048},{"name":"西武スマイルパークBIGBOX東大和第2","province":"東京都","city":"東大和市","address":"東京都東大和市桜が丘1丁目1330-19","lat":35.7330479,"lon":139.43404552},{"name":"Cycle DAICHI　武蔵大和駅前駐輪場","province":"東京都","city":"東大和市","address":"東京都東大和市清水2丁目802-1","lat":35.75551222,"lon":139.44397706},{"name":"上北台駅第7公共自転車等駐車場","province":"東京都","city":"東大和市","address":"東京都東大和市上北台1丁目5-1","lat":35.7458127,"lon":139.4158048},{"name":"上北台駅前駐輪場","province":"東京都","city":"東大和市","address":"東京都東大和市立野2丁目2-10","lat":35.74638765,"lon":139.41656581},{"name":"東大和保育園","province":"東京都","city":"東大和市","address":"東京都東大和市新堀1-1435-33","lat":35.741073,"lon":139.449081},{"name":"ふたば保育園","province":"東京都","city":"東大和市","address":"東京都東大和市立野2-4-13","lat":35.746313,"lon":139.417341},{"name":"みつば保育園","province":"東京都","city":"東大和市","address":"東京都東大和市立野3-1293-10","lat":35.7388,"lon":139.422714},{"name":"向原第二保育園","province":"東京都","city":"東大和市","address":"東京都東大和市向原1-4-1","lat":35.741966,"lon":139.440063},{"name":"ひが保育ママ","province":"東京都","city":"東大和市","address":"東京都東大和市中央2-1101-12","lat":35.743881,"lon":139.430359},{"name":"木村保育ママ","province":"東京都","city":"東大和市","address":"東京都東大和市南街2-20-3","lat":35.741596,"lon":139.427917},{"name":"こども学園","province":"東京都","city":"東大和市","address":"東京都東大和市奈良橋2-409","lat":35.754368,"lon":139.426514},{"name":"東大和市保健センター","province":"東京都","city":"東大和市","address":"東京都東大和市中央3丁目918-1","lat":35.74572128,"lon":139.42737043},{"name":"東大和市本庁舎","province":"東京都","city":"東大和市","address":"東京都東大和市中央3丁目930","lat":35.74471306,"lon":139.42703715},{"name":"東大和警察署","province":"東京都","city":"東大和市","address":"東大和市芋窪6-1061-1","lat":35.74856,"lon":139.4107},{"name":"北多摩西部消防署","province":"東京都","city":"東大和市","address":"東大和市上北台1-956-1","lat":35.74732,"lon":139.4133},{"name":"都立東大和南公園（陸上競技場、野球場）","province":"東京都","city":"東大和市","address":"東大和市桜が丘2丁目地内","lat":35.73676,"lon":139.42},{"name":"都立東大和南公園","province":"東京都","city":"東大和市","address":"東大和市桜が丘2-106-2","lat":35.73351,"lon":139.4246},{"name":"※東大和市本庁舎","province":"東京都","city":"東大和市","address":"東京都東大和市中央3丁目930","lat":35.74471306,"lon":139.42703715},{"name":"西武鉄道東大和市駅駐輪場","province":"東京都","city":"東大和市","address":"東京都東大和市桜が丘1丁目1415-1","lat":35.73288126,"lon":139.43434551},{"name":"西武スマイルパーク東大和市駅前第１","province":"東京都","city":"東大和市","address":"東京都東大和市桜が丘1丁目1330-19","lat":35.7330479,"lon":139.43404552},{"name":"西武スマイルパークBIGBOX東大和","province":"東京都","city":"東大和市","address":"東京都東大和市桜が丘1丁目1330-19","lat":35.7330479,"lon":139.43404552},{"name":"武蔵大和駅第2公共自転車等駐車場","province":"東京都","city":"東大和市","address":"東京都東大和市清水1丁目748-2","lat":35.75580662,"lon":139.44388817},{"name":"上北台駅第1公共自転車等駐車場","province":"東京都","city":"東大和市","address":"東京都東大和市上北台1丁目5-1","lat":35.7458127,"lon":139.4158048},{"name":"上北台駅第2公共自転車等駐車場","province":"東京都","city":"東大和市","address":"東京都東大和市上北台1丁目5-1","lat":35.7458127,"lon":139.4158048},{"name":"西武スマイルパークBIGBOX東大和第2","province":"東京都","city":"東大和市","address":"東京都東大和市桜が丘1丁目1330-19","lat":35.7330479,"lon":139.43404552},{"name":"Cycle DAICHI　武蔵大和駅前駐輪場","province":"東京都","city":"東大和市","address":"東京都東大和市清水2丁目802-1","lat":35.75551222,"lon":139.44397706},{"name":"上北台駅第7公共自転車等駐車場","province":"東京都","city":"東大和市","address":"東京都東大和市上北台1丁目5-1","lat":35.7458127,"lon":139.4158048},{"name":"上北台駅前駐輪場","province":"東京都","city":"東大和市","address":"東京都東大和市立野2丁目2-10","lat":35.74638765,"lon":139.41656581},{"name":"東大和保育園","province":"東京都","city":"東大和市","address":"東京都東大和市新堀1-1435-33","lat":35.741073,"lon":139.449081},{"name":"ふたば保育園","province":"東京都","city":"東大和市","address":"東京都東大和市立野2-4-13","lat":35.746313,"lon":139.417341},{"name":"みつば保育園","province":"東京都","city":"東大和市","address":"東京都東大和市立野3-1293-10","lat":35.7388,"lon":139.422714},{"name":"向原第二保育園","province":"東京都","city":"東大和市","address":"東京都東大和市向原1-4-1","lat":35.741966,"lon":139.440063},{"name":"ひが保育ママ","province":"東京都","city":"東大和市","address":"東京都東大和市中央2-1101-12","lat":35.743881,"lon":139.430359},{"name":"木村保育ママ","province":"東京都","city":"東大和市","address":"東京都東大和市南街2-20-3","lat":35.741596,"lon":139.427917},{"name":"こども学園","province":"東京都","city":"東大和市","address":"東京都東大和市奈良橋2-409","lat":35.754368,"lon":139.426514},{"name":"東大和市保健センター","province":"東京都","city":"東大和市","address":"東京都東大和市中央3丁目918-1","lat":35.74572128,"lon":139.42737043},{"name":"東大和市本庁舎","province":"東京都","city":"東大和市","address":"東京都東大和市中央3丁目930","lat":35.74471306,"lon":139.42703715},{"name":"東大和警察署","province":"東京都","city":"東大和市","address":"東大和市芋窪6-1061-1","lat":35.74856,"lon":139.4107},{"name":"北多摩西部消防署","province":"東京都","city":"東大和市","address":"東大和市上北台1-956-1","lat":35.74732,"lon":139.4133},{"name":"都立東大和南公園（陸上競技場、野球場）","province":"東京都","city":"東大和市","address":"東大和市桜が丘2丁目地内","lat":35.73676,"lon":139.42},{"name":"都立東大和南公園","province":"東京都","city":"東大和市","address":"東大和市桜が丘2-106-2","lat":35.73351,"lon":139.4246},{"name":"※東大和市本庁舎","province":"東京都","city":"東大和市","address":"東京都東大和市中央3丁目930","lat":35.74471306,"lon":139.42703715},{"name":"西武鉄道東大和市駅駐輪場","province":"東京都","city":"東大和市","address":"東京都東大和市桜が丘1丁目1415-1","lat":35.73288126,"lon":139.43434551},{"name":"西武スマイルパーク東大和市駅前第１","province":"東京都","city":"東大和市","address":"東京都東大和市桜が丘1丁目1330-19","lat":35.7330479,"lon":139.43404552},{"name":"西武スマイルパークBIGBOX東大和","province":"東京都","city":"東大和市","address":"東京都東大和市桜が丘1丁目1330-19","lat":35.7330479,"lon":139.43404552},{"name":"武蔵大和駅第2公共自転車等駐車場","province":"東京都","city":"東大和市","address":"東京都東大和市清水1丁目748-2","lat":35.75580662,"lon":139.44388817},{"name":"上北台駅第1公共自転車等駐車場","province":"東京都","city":"東大和市","address":"東京都東大和市上北台1丁目5-1","lat":35.7458127,"lon":139.4158048},{"name":"上北台駅第2公共自転車等駐車場","province":"東京都","city":"東大和市","address":"東京都東大和市上北台1丁目5-1","lat":35.7458127,"lon":139.4158048},{"name":"西武スマイルパークBIGBOX東大和第2","province":"東京都","city":"東大和市","address":"東京都東大和市桜が丘1丁目1330-19","lat":35.7330479,"lon":139.43404552},{"name":"Cycle DAICHI　武蔵大和駅前駐輪場","province":"東京都","city":"東大和市","address":"東京都東大和市清水2丁目802-1","lat":35.75551222,"lon":139.44397706},{"name":"上北台駅第7公共自転車等駐車場","province":"東京都","city":"東大和市","address":"東京都東大和市上北台1丁目5-1","lat":35.7458127,"lon":139.4158048},{"name":"上北台駅前駐輪場","province":"東京都","city":"東大和市","address":"東京都東大和市立野2丁目2-10","lat":35.74638765,"lon":139.41656581},{"name":"東大和保育園","province":"東京都","city":"東大和市","address":"東京都東大和市新堀1-1435-33","lat":35.741073,"lon":139.449081},{"name":"ふたば保育園","province":"東京都","city":"東大和市","address":"東京都東大和市立野2-4-13","lat":35.746313,"lon":139.417341},{"name":"みつば保育園","province":"東京都","city":"東大和市","address":"東京都東大和市立野3-1293-10","lat":35.7388,"lon":139.422714},{"name":"向原第二保育園","province":"東京都","city":"東大和市","address":"東京都東大和市向原1-4-1","lat":35.741966,"lon":139.440063},{"name":"ひが保育ママ","province":"東京都","city":"東大和市","address":"東京都東大和市中央2-1101-12","lat":35.743881,"lon":139.430359},{"name":"木村保育ママ","province":"東京都","city":"東大和市","address":"東京都東大和市南街2-20-3","lat":35.741596,"lon":139.427917},{"name":"こども学園","province":"東京都","city":"東大和市","address":"東京都東大和市奈良橋2-409","lat":35.754368,"lon":139.426514},{"name":"東大和市保健センター","province":"東京都","city":"東大和市","address":"東京都東大和市中央3丁目918-1","lat":35.74572128,"lon":139.42737043},{"name":"東大和市本庁舎","province":"東京都","city":"東大和市","address":"東京都東大和市中央3丁目930","lat":35.74471306,"lon":139.42703715},{"name":"東大和警察署","province":"東京都","city":"東大和市","address":"東大和市芋窪6-1061-1","lat":35.74856,"lon":139.4107},{"name":"北多摩西部消防署","province":"東京都","city":"東大和市","address":"東大和市上北台1-956-1","lat":35.74732,"lon":139.4133},{"name":"都立東大和南公園（陸上競技場、野球場）","province":"東京都","city":"東大和市","address":"東大和市桜が丘2丁目地内","lat":35.73676,"lon":139.42},{"name":"都立東大和南公園","province":"東京都","city":"東大和市","address":"東大和市桜が丘2-106-2","lat":35.73351,"lon":139.4246},{"name":"※東大和市本庁舎","province":"東京都","city":"東大和市","address":"東京都東大和市中央3丁目930","lat":35.74471306,"lon":139.42703715},{"name":"西武鉄道東大和市駅駐輪場","province":"東京都","city":"東大和市","address":"東京都東大和市桜が丘1丁目1415-1","lat":35.73288126,"lon":139.43434551},{"name":"西武スマイルパーク東大和市駅前第１","province":"東京都","city":"東大和市","address":"東京都東大和市桜が丘1丁目1330-19","lat":35.7330479,"lon":139.43404552},{"name":"西武スマイルパークBIGBOX東大和","province":"東京都","city":"東大和市","address":"東京都東大和市桜が丘1丁目1330-19","lat":35.7330479,"lon":139.43404552},{"name":"武蔵大和駅第2公共自転車等駐車場","province":"東京都","city":"東大和市","address":"東京都東大和市清水1丁目748-2","lat":35.75580662,"lon":139.44388817},{"name":"上北台駅第1公共自転車等駐車場","province":"東京都","city":"東大和市","address":"東京都東大和市上北台1丁目5-1","lat":35.7458127,"lon":139.4158048},{"name":"上北台駅第2公共自転車等駐車場","province":"東京都","city":"東大和市","address":"東京都東大和市上北台1丁目5-1","lat":35.7458127,"lon":139.4158048},{"name":"西武スマイルパークBIGBOX東大和第2","province":"東京都","city":"東大和市","address":"東京都東大和市桜が丘1丁目1330-19","lat":35.7330479,"lon":139.43404552},{"name":"Cycle DAICHI　武蔵大和駅前駐輪場","province":"東京都","city":"東大和市","address":"東京都東大和市清水2丁目802-1","lat":35.75551222,"lon":139.44397706},{"name":"上北台駅第7公共自転車等駐車場","province":"東京都","city":"東大和市","address":"東京都東大和市上北台1丁目5-1","lat":35.7458127,"lon":139.4158048},{"name":"上北台駅前駐輪場","province":"東京都","city":"東大和市","address":"東京都東大和市立野2丁目2-10","lat":35.74638765,"lon":139.41656581},{"name":"東大和保育園","province":"東京都","city":"東大和市","address":"東京都東大和市新堀1-1435-33","lat":35.741073,"lon":139.449081},{"name":"ふたば保育園","province":"東京都","city":"東大和市","address":"東京都東大和市立野2-4-13","lat":35.746313,"lon":139.417341},{"name":"みつば保育園","province":"東京都","city":"東大和市","address":"東京都東大和市立野3-1293-10","lat":35.7388,"lon":139.422714},{"name":"向原第二保育園","province":"東京都","city":"東大和市","address":"東京都東大和市向原1-4-1","lat":35.741966,"lon":139.440063},{"name":"ひが保育ママ","province":"東京都","city":"東大和市","address":"東京都東大和市中央2-1101-12","lat":35.743881,"lon":139.430359},{"name":"木村保育ママ","province":"東京都","city":"東大和市","address":"東京都東大和市南街2-20-3","lat":35.741596,"lon":139.427917},{"name":"こども学園","province":"東京都","city":"東大和市","address":"東京都東大和市奈良橋2-409","lat":35.754368,"lon":139.426514},{"name":"東大和市保健センター","province":"東京都","city":"東大和市","address":"東京都東大和市中央3丁目918-1","lat":35.74572128,"lon":139.42737043},{"name":"東大和市本庁舎","province":"東京都","city":"東大和市","address":"東京都東大和市中央3丁目930","lat":35.74471306,"lon":139.42703715},{"name":"東大和警察署","province":"東京都","city":"東大和市","address":"東大和市芋窪6-1061-1","lat":35.74856,"lon":139.4107},{"name":"北多摩西部消防署","province":"東京都","city":"東大和市","address":"東大和市上北台1-956-1","lat":35.74732,"lon":139.4133},{"name":"都立東大和南公園（陸上競技場、野球場）","province":"東京都","city":"東大和市","address":"東大和市桜が丘2丁目地内","lat":35.73676,"lon":139.42},{"name":"都立東大和南公園","province":"東京都","city":"東大和市","address":"東大和市桜が丘2-106-2","lat":35.73351,"lon":139.4246},{"name":"※東大和市本庁舎","province":"東京都","city":"東大和市","address":"東京都東大和市中央3丁目930","lat":35.74471306,"lon":139.42703715},{"name":"西武鉄道東大和市駅駐輪場","province":"東京都","city":"東大和市","address":"東京都東大和市桜が丘1丁目1415-1","lat":35.73288126,"lon":139.43434551},{"name":"西武スマイルパーク東大和市駅前第１","province":"東京都","city":"東大和市","address":"東京都東大和市桜が丘1丁目1330-19","lat":35.7330479,"lon":139.43404552},{"name":"西武スマイルパークBIGBOX東大和","province":"東京都","city":"東大和市","address":"東京都東大和市桜が丘1丁目1330-19","lat":35.7330479,"lon":139.43404552},{"name":"武蔵大和駅第2公共自転車等駐車場","province":"東京都","city":"東大和市","address":"東京都東大和市清水1丁目748-2","lat":35.75580662,"lon":139.44388817},{"name":"上北台駅第1公共自転車等駐車場","province":"東京都","city":"東大和市","address":"東京都東大和市上北台1丁目5-1","lat":35.7458127,"lon":139.4158048},{"name":"上北台駅第2公共自転車等駐車場","province":"東京都","city":"東大和市","address":"東京都東大和市上北台1丁目5-1","lat":35.7458127,"lon":139.4158048},{"name":"西武スマイルパークBIGBOX東大和第2","province":"東京都","city":"東大和市","address":"東京都東大和市桜が丘1丁目1330-19","lat":35.7330479,"lon":139.43404552},{"name":"Cycle DAICHI　武蔵大和駅前駐輪場","province":"東京都","city":"東大和市","address":"東京都東大和市清水2丁目802-1","lat":35.75551222,"lon":139.44397706},{"name":"上北台駅第7公共自転車等駐車場","province":"東京都","city":"東大和市","address":"東京都東大和市上北台1丁目5-1","lat":35.7458127,"lon":139.4158048},{"name":"上北台駅前駐輪場","province":"東京都","city":"東大和市","address":"東京都東大和市立野2丁目2-10","lat":35.74638765,"lon":139.41656581},{"name":"東大和保育園","province":"東京都","city":"東大和市","address":"東京都東大和市新堀1-1435-33","lat":35.741073,"lon":139.449081},{"name":"ふたば保育園","province":"東京都","city":"東大和市","address":"東京都東大和市立野2-4-13","lat":35.746313,"lon":139.417341},{"name":"みつば保育園","province":"東京都","city":"東大和市","address":"東京都東大和市立野3-1293-10","lat":35.7388,"lon":139.422714},{"name":"向原第二保育園","province":"東京都","city":"東大和市","address":"東京都東大和市向原1-4-1","lat":35.741966,"lon":139.440063},{"name":"ひが保育ママ","province":"東京都","city":"東大和市","address":"東京都東大和市中央2-1101-12","lat":35.743881,"lon":139.430359},{"name":"木村保育ママ","province":"東京都","city":"東大和市","address":"東京都東大和市南街2-20-3","lat":35.741596,"lon":139.427917},{"name":"こども学園","province":"東京都","city":"東大和市","address":"東京都東大和市奈良橋2-409","lat":35.754368,"lon":139.426514},{"name":"東大和市保健センター","province":"東京都","city":"東大和市","address":"東京都東大和市中央3丁目918-1","lat":35.74572128,"lon":139.42737043},{"name":"東大和市本庁舎","province":"東京都","city":"東大和市","address":"東京都東大和市中央3丁目930","lat":35.74471306,"lon":139.42703715},{"name":"東大和警察署","province":"東京都","city":"東大和市","address":"東大和市芋窪6-1061-1","lat":35.74856,"lon":139.4107},{"name":"北多摩西部消防署","province":"東京都","city":"東大和市","address":"東大和市上北台1-956-1","lat":35.74732,"lon":139.4133},{"name":"都立東大和南公園（陸上競技場、野球場）","province":"東京都","city":"東大和市","address":"東大和市桜が丘2丁目地内","lat":35.73676,"lon":139.42},{"name":"都立東大和南公園","province":"東京都","city":"東大和市","address":"東大和市桜が丘2-106-2","lat":35.73351,"lon":139.4246},{"name":"※東大和市本庁舎","province":"東京都","city":"東大和市","address":"東京都東大和市中央3丁目930","lat":35.74471306,"lon":139.42703715},{"name":"西武鉄道東大和市駅駐輪場","province":"東京都","city":"東大和市","address":"東京都東大和市桜が丘1丁目1415-1","lat":35.73288126,"lon":139.43434551},{"name":"西武スマイルパーク東大和市駅前第１","province":"東京都","city":"東大和市","address":"東京都東大和市桜が丘1丁目1330-19","lat":35.7330479,"lon":139.43404552},{"name":"西武スマイルパークBIGBOX東大和","province":"東京都","city":"東大和市","address":"東京都東大和市桜が丘1丁目1330-19","lat":35.7330479,"lon":139.43404552},{"name":"武蔵大和駅第2公共自転車等駐車場","province":"東京都","city":"東大和市","address":"東京都東大和市清水1丁目748-2","lat":35.75580662,"lon":139.44388817},{"name":"上北台駅第1公共自転車等駐車場","province":"東京都","city":"東大和市","address":"東京都東大和市上北台1丁目5-1","lat":35.7458127,"lon":139.4158048},{"name":"上北台駅第2公共自転車等駐車場","province":"東京都","city":"東大和市","address":"東京都東大和市上北台1丁目5-1","lat":35.7458127,"lon":139.4158048},{"name":"西武スマイルパークBIGBOX東大和第2","province":"東京都","city":"東大和市","address":"東京都東大和市桜が丘1丁目1330-19","lat":35.7330479,"lon":139.43404552},{"name":"Cycle DAICHI　武蔵大和駅前駐輪場","province":"東京都","city":"東大和市","address":"東京都東大和市清水2丁目802-1","lat":35.75551222,"lon":139.44397706},{"name":"上北台駅第7公共自転車等駐車場","province":"東京都","city":"東大和市","address":"東京都東大和市上北台1丁目5-1","lat":35.7458127,"lon":139.4158048},{"name":"上北台駅前駐輪場","province":"東京都","city":"東大和市","address":"東京都東大和市立野2丁目2-10","lat":35.74638765,"lon":139.41656581},{"name":"東大和保育園","province":"東京都","city":"東大和市","address":"東京都東大和市新堀1-1435-33","lat":35.741073,"lon":139.449081},{"name":"ふたば保育園","province":"東京都","city":"東大和市","address":"東京都東大和市立野2-4-13","lat":35.746313,"lon":139.417341},{"name":"みつば保育園","province":"東京都","city":"東大和市","address":"東京都東大和市立野3-1293-10","lat":35.7388,"lon":139.422714},{"name":"向原第二保育園","province":"東京都","city":"東大和市","address":"東京都東大和市向原1-4-1","lat":35.741966,"lon":139.440063},{"name":"ひが保育ママ","province":"東京都","city":"東大和市","address":"東京都東大和市中央2-1101-12","lat":35.743881,"lon":139.430359},{"name":"木村保育ママ","province":"東京都","city":"東大和市","address":"東京都東大和市南街2-20-3","lat":35.741596,"lon":139.427917},{"name":"こども学園","province":"東京都","city":"東大和市","address":"東京都東大和市奈良橋2-409","lat":35.754368,"lon":139.426514},{"name":"東大和市保健センター","province":"東京都","city":"東大和市","address":"東京都東大和市中央3丁目918-1","lat":35.74572128,"lon":139.42737043},{"name":"東大和市本庁舎","province":"東京都","city":"東大和市","address":"東京都東大和市中央3丁目930","lat":35.74471306,"lon":139.42703715},{"name":"東大和警察署","province":"東京都","city":"東大和市","address":"東大和市芋窪6-1061-1","lat":35.74856,"lon":139.4107},{"name":"北多摩西部消防署","province":"東京都","city":"東大和市","address":"東大和市上北台1-956-1","lat":35.74732,"lon":139.4133},{"name":"都立東大和南公園（陸上競技場、野球場）","province":"東京都","city":"東大和市","address":"東大和市桜が丘2丁目地内","lat":35.73676,"lon":139.42},{"name":"都立東大和南公園","province":"東京都","city":"東大和市","address":"東大和市桜が丘2-106-2","lat":35.73351,"lon":139.4246},{"name":"※東大和市本庁舎","province":"東京都","city":"東大和市","address":"東京都東大和市中央3丁目930","lat":35.74471306,"lon":139.42703715},{"name":"西武鉄道東大和市駅駐輪場","province":"東京都","city":"東大和市","address":"東京都東大和市桜が丘1丁目1415-1","lat":35.73288126,"lon":139.43434551},{"name":"西武スマイルパーク東大和市駅前第１","province":"東京都","city":"東大和市","address":"東京都東大和市桜が丘1丁目1330-19","lat":35.7330479,"lon":139.43404552},{"name":"西武スマイルパークBIGBOX東大和","province":"東京都","city":"東大和市","address":"東京都東大和市桜が丘1丁目1330-19","lat":35.7330479,"lon":139.43404552},{"name":"武蔵大和駅第2公共自転車等駐車場","province":"東京都","city":"東大和市","address":"東京都東大和市清水1丁目748-2","lat":35.75580662,"lon":139.44388817},{"name":"上北台駅第1公共自転車等駐車場","province":"東京都","city":"東大和市","address":"東京都東大和市上北台1丁目5-1","lat":35.7458127,"lon":139.4158048},{"name":"上北台駅第2公共自転車等駐車場","province":"東京都","city":"東大和市","address":"東京都東大和市上北台1丁目5-1","lat":35.7458127,"lon":139.4158048},{"name":"西武スマイルパークBIGBOX東大和第2","province":"東京都","city":"東大和市","address":"東京都東大和市桜が丘1丁目1330-19","lat":35.7330479,"lon":139.43404552},{"name":"Cycle DAICHI　武蔵大和駅前駐輪場","province":"東京都","city":"東大和市","address":"東京都東大和市清水2丁目802-1","lat":35.75551222,"lon":139.44397706},{"name":"上北台駅第7公共自転車等駐車場","province":"東京都","city":"東大和市","address":"東京都東大和市上北台1丁目5-1","lat":35.7458127,"lon":139.4158048},{"name":"上北台駅前駐輪場","province":"東京都","city":"東大和市","address":"東京都東大和市立野2丁目2-10","lat":35.74638765,"lon":139.41656581},{"name":"東大和保育園","province":"東京都","city":"東大和市","address":"東京都東大和市新堀1-1435-33","lat":35.741073,"lon":139.449081},{"name":"ふたば保育園","province":"東京都","city":"東大和市","address":"東京都東大和市立野2-4-13","lat":35.746313,"lon":139.417341},{"name":"みつば保育園","province":"東京都","city":"東大和市","address":"東京都東大和市立野3-1293-10","lat":35.7388,"lon":139.422714},{"name":"向原第二保育園","province":"東京都","city":"東大和市","address":"東京都東大和市向原1-4-1","lat":35.741966,"lon":139.440063},{"name":"ひが保育ママ","province":"東京都","city":"東大和市","address":"東京都東大和市中央2-1101-12","lat":35.743881,"lon":139.430359},{"name":"木村保育ママ","province":"東京都","city":"東大和市","address":"東京都東大和市南街2-20-3","lat":35.741596,"lon":139.427917},{"name":"こども学園","province":"東京都","city":"東大和市","address":"東京都東大和市奈良橋2-409","lat":35.754368,"lon":139.426514},{"name":"東大和市保健センター","province":"東京都","city":"東大和市","address":"東京都東大和市中央3丁目918-1","lat":35.74572128,"lon":139.42737043},{"name":"東大和市本庁舎","province":"東京都","city":"東大和市","address":"東京都東大和市中央3丁目930","lat":35.74471306,"lon":139.42703715},{"name":"東大和警察署","province":"東京都","city":"東大和市","address":"東大和市芋窪6-1061-1","lat":35.74856,"lon":139.4107},{"name":"北多摩西部消防署","province":"東京都","city":"東大和市","address":"東大和市上北台1-956-1","lat":35.74732,"lon":139.4133},{"name":"都立東大和南公園（陸上競技場、野球場）","province":"東京都","city":"東大和市","address":"東大和市桜が丘2丁目地内","lat":35.73676,"lon":139.42},{"name":"都立東大和南公園","province":"東京都","city":"東大和市","address":"東大和市桜が丘2-106-2","lat":35.73351,"lon":139.4246},{"name":"※東大和市本庁舎","province":"東京都","city":"東大和市","address":"東京都東大和市中央3丁目930","lat":35.74471306,"lon":139.42703715},{"name":"西武鉄道東大和市駅駐輪場","province":"東京都","city":"東大和市","address":"東京都東大和市桜が丘1丁目1415-1","lat":35.73288126,"lon":139.43434551},{"name":"西武スマイルパーク東大和市駅前第１","province":"東京都","city":"東大和市","address":"東京都東大和市桜が丘1丁目1330-19","lat":35.7330479,"lon":139.43404552},{"name":"西武スマイルパークBIGBOX東大和","province":"東京都","city":"東大和市","address":"東京都東大和市桜が丘1丁目1330-19","lat":35.7330479,"lon":139.43404552},{"name":"武蔵大和駅第2公共自転車等駐車場","province":"東京都","city":"東大和市","address":"東京都東大和市清水1丁目748-2","lat":35.75580662,"lon":139.44388817},{"name":"上北台駅第1公共自転車等駐車場","province":"東京都","city":"東大和市","address":"東京都東大和市上北台1丁目5-1","lat":35.7458127,"lon":139.4158048},{"name":"上北台駅第2公共自転車等駐車場","province":"東京都","city":"東大和市","address":"東京都東大和市上北台1丁目5-1","lat":35.7458127,"lon":139.4158048},{"name":"西武スマイルパークBIGBOX東大和第2","province":"東京都","city":"東大和市","address":"東京都東大和市桜が丘1丁目1330-19","lat":35.7330479,"lon":139.43404552},{"name":"Cycle DAICHI　武蔵大和駅前駐輪場","province":"東京都","city":"東大和市","address":"東京都東大和市清水2丁目802-1","lat":35.75551222,"lon":139.44397706},{"name":"上北台駅第7公共自転車等駐車場","province":"東京都","city":"東大和市","address":"東京都東大和市上北台1丁目5-1","lat":35.7458127,"lon":139.4158048},{"name":"上北台駅前駐輪場","province":"東京都","city":"東大和市","address":"東京都東大和市立野2丁目2-10","lat":35.74638765,"lon":139.41656581},{"name":"東大和保育園","province":"東京都","city":"東大和市","address":"東京都東大和市新堀1-1435-33","lat":35.741073,"lon":139.449081},{"name":"ふたば保育園","province":"東京都","city":"東大和市","address":"東京都東大和市立野2-4-13","lat":35.746313,"lon":139.417341},{"name":"みつば保育園","province":"東京都","city":"東大和市","address":"東京都東大和市立野3-1293-10","lat":35.7388,"lon":139.422714},{"name":"向原第二保育園","province":"東京都","city":"東大和市","address":"東京都東大和市向原1-4-1","lat":35.741966,"lon":139.440063},{"name":"ひが保育ママ","province":"東京都","city":"東大和市","address":"東京都東大和市中央2-1101-12","lat":35.743881,"lon":139.430359},{"name":"木村保育ママ","province":"東京都","city":"東大和市","address":"東京都東大和市南街2-20-3","lat":35.741596,"lon":139.427917},{"name":"こども学園","province":"東京都","city":"東大和市","address":"東京都東大和市奈良橋2-409","lat":35.754368,"lon":139.426514},{"name":"東大和市本庁舎","province":"東京都","city":"東大和市","address":"東京都東大和市中央3丁目930","lat":35.74471306,"lon":139.42703715},{"name":"※東大和市本庁舎","province":"東京都","city":"東大和市","address":"東京都東大和市中央3丁目930","lat":35.74471306,"lon":139.42703715},{"name":"西武鉄道東大和市駅駐輪場","province":"東京都","city":"東大和市","address":"東京都東大和市桜が丘1丁目1415-1","lat":35.73288126,"lon":139.43434551},{"name":"西武スマイルパーク東大和市駅前第１","province":"東京都","city":"東大和市","address":"東京都東大和市桜が丘1丁目1330-19","lat":35.7330479,"lon":139.43404552},{"name":"西武スマイルパークBIGBOX東大和","province":"東京都","city":"東大和市","address":"東京都東大和市桜が丘1丁目1330-19","lat":35.7330479,"lon":139.43404552},{"name":"武蔵大和駅第2公共自転車等駐車場","province":"東京都","city":"東大和市","address":"東京都東大和市清水1丁目748-2","lat":35.75580662,"lon":139.44388817},{"name":"上北台駅第1公共自転車等駐車場","province":"東京都","city":"東大和市","address":"東京都東大和市上北台1丁目5-1","lat":35.7458127,"lon":139.4158048},{"name":"上北台駅第2公共自転車等駐車場","province":"東京都","city":"東大和市","address":"東京都東大和市上北台1丁目5-1","lat":35.7458127,"lon":139.4158048},{"name":"西武スマイルパークBIGBOX東大和第2","province":"東京都","city":"東大和市","address":"東京都東大和市桜が丘1丁目1330-19","lat":35.7330479,"lon":139.43404552},{"name":"Cycle DAICHI　武蔵大和駅前駐輪場","province":"東京都","city":"東大和市","address":"東京都東大和市清水2丁目802-1","lat":35.75551222,"lon":139.44397706},{"name":"上北台駅第7公共自転車等駐車場","province":"東京都","city":"東大和市","address":"東京都東大和市上北台1丁目5-1","lat":35.7458127,"lon":139.4158048},{"name":"上北台駅前駐輪場","province":"東京都","city":"東大和市","address":"東京都東大和市立野2丁目2-10","lat":35.74638765,"lon":139.41656581},{"name":"東大和保育園","province":"東京都","city":"東大和市","address":"東京都東大和市新堀1-1435-33","lat":35.741073,"lon":139.449081},{"name":"ふたば保育園","province":"東京都","city":"東大和市","address":"東京都東大和市立野2-4-13","lat":35.746313,"lon":139.417341},{"name":"みつば保育園","province":"東京都","city":"東大和市","address":"東京都東大和市立野3-1293-10","lat":35.7388,"lon":139.422714},{"name":"向原第二保育園","province":"東京都","city":"東大和市","address":"東京都東大和市向原1-4-1","lat":35.741966,"lon":139.440063},{"name":"ひが保育ママ","province":"東京都","city":"東大和市","address":"東京都東大和市中央2-1101-12","lat":35.743881,"lon":139.430359},{"name":"木村保育ママ","province":"東京都","city":"東大和市","address":"東京都東大和市南街2-20-3","lat":35.741596,"lon":139.427917},{"name":"こども学園","province":"東京都","city":"東大和市","address":"東京都東大和市奈良橋2-409","lat":35.754368,"lon":139.426514},{"name":"東大和市本庁舎","province":"東京都","city":"東大和市","address":"東京都東大和市中央3丁目930","lat":35.74471306,"lon":139.42703715},{"name":"※東大和市本庁舎","province":"東京都","city":"東大和市","address":"東京都東大和市中央3丁目930","lat":35.74471306,"lon":139.42703715},{"name":"西武鉄道東大和市駅駐輪場","province":"東京都","city":"東大和市","address":"東京都東大和市桜が丘1丁目1415-1","lat":35.73288126,"lon":139.43434551},{"name":"西武スマイルパーク東大和市駅前第１","province":"東京都","city":"東大和市","address":"東京都東大和市桜が丘1丁目1330-19","lat":35.7330479,"lon":139.43404552},{"name":"西武スマイルパークBIGBOX東大和","province":"東京都","city":"東大和市","address":"東京都東大和市桜が丘1丁目1330-19","lat":35.7330479,"lon":139.43404552},{"name":"武蔵大和駅第2公共自転車等駐車場","province":"東京都","city":"東大和市","address":"東京都東大和市清水1丁目748-2","lat":35.75580662,"lon":139.44388817},{"name":"上北台駅第1公共自転車等駐車場","province":"東京都","city":"東大和市","address":"東京都東大和市上北台1丁目5-1","lat":35.7458127,"lon":139.4158048},{"name":"上北台駅第2公共自転車等駐車場","province":"東京都","city":"東大和市","address":"東京都東大和市上北台1丁目5-1","lat":35.7458127,"lon":139.4158048},{"name":"西武スマイルパークBIGBOX東大和第2","province":"東京都","city":"東大和市","address":"東京都東大和市桜が丘1丁目1330-19","lat":35.7330479,"lon":139.43404552},{"name":"Cycle DAICHI　武蔵大和駅前駐輪場","province":"東京都","city":"東大和市","address":"東京都東大和市清水2丁目802-1","lat":35.75551222,"lon":139.44397706},{"name":"上北台駅第7公共自転車等駐車場","province":"東京都","city":"東大和市","address":"東京都東大和市上北台1丁目5-1","lat":35.7458127,"lon":139.4158048},{"name":"上北台駅前駐輪場","province":"東京都","city":"東大和市","address":"東京都東大和市立野2丁目2-10","lat":35.74638765,"lon":139.41656581},{"name":"東大和保育園","province":"東京都","city":"東大和市","address":"東京都東大和市新堀1-1435-33","lat":35.741073,"lon":139.449081},{"name":"ふたば保育園","province":"東京都","city":"東大和市","address":"東京都東大和市立野2-4-13","lat":35.746313,"lon":139.417341},{"name":"みつば保育園","province":"東京都","city":"東大和市","address":"東京都東大和市立野3-1293-10","lat":35.7388,"lon":139.422714},{"name":"向原第二保育園","province":"東京都","city":"東大和市","address":"東京都東大和市向原1-4-1","lat":35.741966,"lon":139.440063},{"name":"ひが保育ママ","province":"東京都","city":"東大和市","address":"東京都東大和市中央2-1101-12","lat":35.743881,"lon":139.430359},{"name":"木村保育ママ","province":"東京都","city":"東大和市","address":"東京都東大和市南街2-20-3","lat":35.741596,"lon":139.427917},{"name":"こども学園","province":"東京都","city":"東大和市","address":"東京都東大和市奈良橋2-409","lat":35.754368,"lon":139.426514},{"name":"東大和市本庁舎","province":"東京都","city":"東大和市","address":"東京都東大和市中央3丁目930","lat":35.74471306,"lon":139.42703715},{"name":"※東大和市本庁舎","province":"東京都","city":"東大和市","address":"東京都東大和市中央3丁目930","lat":35.74471306,"lon":139.42703715},{"name":"西武鉄道東大和市駅駐輪場","province":"東京都","city":"東大和市","address":"東京都東大和市桜が丘1丁目1415-1","lat":35.73288126,"lon":139.43434551},{"name":"西武スマイルパーク東大和市駅前第１","province":"東京都","city":"東大和市","address":"東京都東大和市桜が丘1丁目1330-19","lat":35.7330479,"lon":139.43404552},{"name":"西武スマイルパークBIGBOX東大和","province":"東京都","city":"東大和市","address":"東京都東大和市桜が丘1丁目1330-19","lat":35.7330479,"lon":139.43404552},{"name":"武蔵大和駅第2公共自転車等駐車場","province":"東京都","city":"東大和市","address":"東京都東大和市清水1丁目748-2","lat":35.75580662,"lon":139.44388817},{"name":"上北台駅第1公共自転車等駐車場","province":"東京都","city":"東大和市","address":"東京都東大和市上北台1丁目5-1","lat":35.7458127,"lon":139.4158048},{"name":"上北台駅第2公共自転車等駐車場","province":"東京都","city":"東大和市","address":"東京都東大和市上北台1丁目5-1","lat":35.7458127,"lon":139.4158048},{"name":"西武スマイルパークBIGBOX東大和第2","province":"東京都","city":"東大和市","address":"東京都東大和市桜が丘1丁目1330-19","lat":35.7330479,"lon":139.43404552},{"name":"Cycle DAICHI　武蔵大和駅前駐輪場","province":"東京都","city":"東大和市","address":"東京都東大和市清水2丁目802-1","lat":35.75551222,"lon":139.44397706},{"name":"上北台駅第7公共自転車等駐車場","province":"東京都","city":"東大和市","address":"東京都東大和市上北台1丁目5-1","lat":35.7458127,"lon":139.4158048},{"name":"上北台駅前駐輪場","province":"東京都","city":"東大和市","address":"東京都東大和市立野2丁目2-10","lat":35.74638765,"lon":139.41656581},{"name":"東大和保育園","province":"東京都","city":"東大和市","address":"東京都東大和市新堀1-1435-33","lat":35.741073,"lon":139.449081},{"name":"ふたば保育園","province":"東京都","city":"東大和市","address":"東京都東大和市立野2-4-13","lat":35.746313,"lon":139.417341},{"name":"みつば保育園","province":"東京都","city":"東大和市","address":"東京都東大和市立野3-1293-10","lat":35.7388,"lon":139.422714},{"name":"向原第二保育園","province":"東京都","city":"東大和市","address":"東京都東大和市向原1-4-1","lat":35.741966,"lon":139.440063},{"name":"ひが保育ママ","province":"東京都","city":"東大和市","address":"東京都東大和市中央2-1101-12","lat":35.743881,"lon":139.430359},{"name":"木村保育ママ","province":"東京都","city":"東大和市","address":"東京都東大和市南街2-20-3","lat":35.741596,"lon":139.427917},{"name":"こども学園","province":"東京都","city":"東大和市","address":"東京都東大和市奈良橋2-409","lat":35.754368,"lon":139.426514},{"name":"東大和市本庁舎","province":"東京都","city":"東大和市","address":"東京都東大和市中央3丁目930","lat":35.74471306,"lon":139.42703715},{"name":"※東大和市本庁舎","province":"東京都","city":"東大和市","address":"東京都東大和市中央3丁目930","lat":35.74471306,"lon":139.42703715},{"name":"西武鉄道東大和市駅駐輪場","province":"東京都","city":"東大和市","address":"東京都東大和市桜が丘1丁目1415-1","lat":35.73288126,"lon":139.43434551},{"name":"西武スマイルパーク東大和市駅前第１","province":"東京都","city":"東大和市","address":"東京都東大和市桜が丘1丁目1330-19","lat":35.7330479,"lon":139.43404552},{"name":"西武スマイルパークBIGBOX東大和","province":"東京都","city":"東大和市","address":"東京都東大和市桜が丘1丁目1330-19","lat":35.7330479,"lon":139.43404552},{"name":"武蔵大和駅第2公共自転車等駐車場","province":"東京都","city":"東大和市","address":"東京都東大和市清水1丁目748-2","lat":35.75580662,"lon":139.44388817},{"name":"上北台駅第1公共自転車等駐車場","province":"東京都","city":"東大和市","address":"東京都東大和市上北台1丁目5-1","lat":35.7458127,"lon":139.4158048},{"name":"上北台駅第2公共自転車等駐車場","province":"東京都","city":"東大和市","address":"東京都東大和市上北台1丁目5-1","lat":35.7458127,"lon":139.4158048},{"name":"西武スマイルパークBIGBOX東大和第2","province":"東京都","city":"東大和市","address":"東京都東大和市桜が丘1丁目1330-19","lat":35.7330479,"lon":139.43404552},{"name":"Cycle DAICHI　武蔵大和駅前駐輪場","province":"東京都","city":"東大和市","address":"東京都東大和市清水2丁目802-1","lat":35.75551222,"lon":139.44397706},{"name":"上北台駅第7公共自転車等駐車場","province":"東京都","city":"東大和市","address":"東京都東大和市上北台1丁目5-1","lat":35.7458127,"lon":139.4158048},{"name":"上北台駅前駐輪場","province":"東京都","city":"東大和市","address":"東京都東大和市立野2丁目2-10","lat":35.74638765,"lon":139.41656581},{"name":"東大和保育園","province":"東京都","city":"東大和市","address":"東京都東大和市新堀1-1435-33","lat":35.741073,"lon":139.449081},{"name":"ふたば保育園","province":"東京都","city":"東大和市","address":"東京都東大和市立野2-4-13","lat":35.746313,"lon":139.417341},{"name":"みつば保育園","province":"東京都","city":"東大和市","address":"東京都東大和市立野3-1293-10","lat":35.7388,"lon":139.422714},{"name":"向原第二保育園","province":"東京都","city":"東大和市","address":"東京都東大和市向原1-4-1","lat":35.741966,"lon":139.440063},{"name":"ひが保育ママ","province":"東京都","city":"東大和市","address":"東京都東大和市中央2-1101-12","lat":35.743881,"lon":139.430359},{"name":"木村保育ママ","province":"東京都","city":"東大和市","address":"東京都東大和市南街2-20-3","lat":35.741596,"lon":139.427917},{"name":"こども学園","province":"東京都","city":"東大和市","address":"東京都東大和市奈良橋2-409","lat":35.754368,"lon":139.426514},{"name":"東大和市本庁舎","province":"東京都","city":"東大和市","address":"東京都東大和市中央3丁目930","lat":35.74471306,"lon":139.42703715},{"name":"※東大和市本庁舎","province":"東京都","city":"東大和市","address":"東京都東大和市中央3丁目930","lat":35.74471306,"lon":139.42703715},{"name":"西武鉄道東大和市駅駐輪場","province":"東京都","city":"東大和市","address":"東京都東大和市桜が丘1丁目1415-1","lat":35.73288126,"lon":139.43434551},{"name":"西武スマイルパーク東大和市駅前第１","province":"東京都","city":"東大和市","address":"東京都東大和市桜が丘1丁目1330-19","lat":35.7330479,"lon":139.43404552},{"name":"西武スマイルパークBIGBOX東大和","province":"東京都","city":"東大和市","address":"東京都東大和市桜が丘1丁目1330-19","lat":35.7330479,"lon":139.43404552},{"name":"武蔵大和駅第2公共自転車等駐車場","province":"東京都","city":"東大和市","address":"東京都東大和市清水1丁目748-2","lat":35.75580662,"lon":139.44388817},{"name":"上北台駅第1公共自転車等駐車場","province":"東京都","city":"東大和市","address":"東京都東大和市上北台1丁目5-1","lat":35.7458127,"lon":139.4158048},{"name":"上北台駅第2公共自転車等駐車場","province":"東京都","city":"東大和市","address":"東京都東大和市上北台1丁目5-1","lat":35.7458127,"lon":139.4158048},{"name":"西武スマイルパークBIGBOX東大和第2","province":"東京都","city":"東大和市","address":"東京都東大和市桜が丘1丁目1330-19","lat":35.7330479,"lon":139.43404552},{"name":"Cycle DAICHI　武蔵大和駅前駐輪場","province":"東京都","city":"東大和市","address":"東京都東大和市清水2丁目802-1","lat":35.75551222,"lon":139.44397706},{"name":"上北台駅第7公共自転車等駐車場","province":"東京都","city":"東大和市","address":"東京都東大和市上北台1丁目5-1","lat":35.7458127,"lon":139.4158048},{"name":"上北台駅前駐輪場","province":"東京都","city":"東大和市","address":"東京都東大和市立野2丁目2-10","lat":35.74638765,"lon":139.41656581},{"name":"東大和保育園","province":"東京都","city":"東大和市","address":"東京都東大和市新堀1-1435-33","lat":35.741073,"lon":139.449081},{"name":"ふたば保育園","province":"東京都","city":"東大和市","address":"東京都東大和市立野2-4-13","lat":35.746313,"lon":139.417341},{"name":"みつば保育園","province":"東京都","city":"東大和市","address":"東京都東大和市立野3-1293-10","lat":35.7388,"lon":139.422714},{"name":"向原第二保育園","province":"東京都","city":"東大和市","address":"東京都東大和市向原1-4-1","lat":35.741966,"lon":139.440063},{"name":"ひが保育ママ","province":"東京都","city":"東大和市","address":"東京都東大和市中央2-1101-12","lat":35.743881,"lon":139.430359},{"name":"木村保育ママ","province":"東京都","city":"東大和市","address":"東京都東大和市南街2-20-3","lat":35.741596,"lon":139.427917},{"name":"こども学園","province":"東京都","city":"東大和市","address":"東京都東大和市奈良橋2-409","lat":35.754368,"lon":139.426514},{"name":"東大和市本庁舎","province":"東京都","city":"東大和市","address":"東京都東大和市中央3丁目930","lat":35.74471306,"lon":139.42703715},{"name":"※東大和市本庁舎","province":"東京都","city":"東大和市","address":"東京都東大和市中央3丁目930","lat":35.74471306,"lon":139.42703715},{"name":"西武鉄道東大和市駅駐輪場","province":"東京都","city":"東大和市","address":"東京都東大和市桜が丘1丁目1415-1","lat":35.73288126,"lon":139.43434551},{"name":"西武スマイルパーク東大和市駅前第１","province":"東京都","city":"東大和市","address":"東京都東大和市桜が丘1丁目1330-19","lat":35.7330479,"lon":139.43404552},{"name":"西武スマイルパークBIGBOX東大和","province":"東京都","city":"東大和市","address":"東京都東大和市桜が丘1丁目1330-19","lat":35.7330479,"lon":139.43404552},{"name":"武蔵大和駅第2公共自転車等駐車場","province":"東京都","city":"東大和市","address":"東京都東大和市清水1丁目748-2","lat":35.75580662,"lon":139.44388817},{"name":"上北台駅第1公共自転車等駐車場","province":"東京都","city":"東大和市","address":"東京都東大和市上北台1丁目5-1","lat":35.7458127,"lon":139.4158048},{"name":"上北台駅第2公共自転車等駐車場","province":"東京都","city":"東大和市","address":"東京都東大和市上北台1丁目5-1","lat":35.7458127,"lon":139.4158048},{"name":"西武スマイルパークBIGBOX東大和第2","province":"東京都","city":"東大和市","address":"東京都東大和市桜が丘1丁目1330-19","lat":35.7330479,"lon":139.43404552},{"name":"Cycle DAICHI　武蔵大和駅前駐輪場","province":"東京都","city":"東大和市","address":"東京都東大和市清水2丁目802-1","lat":35.75551222,"lon":139.44397706},{"name":"上北台駅第7公共自転車等駐車場","province":"東京都","city":"東大和市","address":"東京都東大和市上北台1丁目5-1","lat":35.7458127,"lon":139.4158048},{"name":"上北台駅前駐輪場","province":"東京都","city":"東大和市","address":"東京都東大和市立野2丁目2-10","lat":35.74638765,"lon":139.41656581},{"name":"東大和保育園","province":"東京都","city":"東大和市","address":"東京都東大和市新堀1-1435-33","lat":35.741073,"lon":139.449081},{"name":"ふたば保育園","province":"東京都","city":"東大和市","address":"東京都東大和市立野2-4-13","lat":35.746313,"lon":139.417341},{"name":"みつば保育園","province":"東京都","city":"東大和市","address":"東京都東大和市立野3-1293-10","lat":35.7388,"lon":139.422714},{"name":"向原第二保育園","province":"東京都","city":"東大和市","address":"東京都東大和市向原1-4-1","lat":35.741966,"lon":139.440063},{"name":"ひが保育ママ","province":"東京都","city":"東大和市","address":"東京都東大和市中央2-1101-12","lat":35.743881,"lon":139.430359},{"name":"木村保育ママ","province":"東京都","city":"東大和市","address":"東京都東大和市南街2-20-3","lat":35.741596,"lon":139.427917},{"name":"こども学園","province":"東京都","city":"東大和市","address":"東京都東大和市奈良橋2-409","lat":35.754368,"lon":139.426514},{"name":"東大和市本庁舎","province":"東京都","city":"東大和市","address":"東京都東大和市中央3丁目930","lat":35.74471306,"lon":139.42703715},{"name":"※東大和市本庁舎","province":"東京都","city":"東大和市","address":"東京都東大和市中央3丁目930","lat":35.74471306,"lon":139.42703715},{"name":"西武鉄道東大和市駅駐輪場","province":"東京都","city":"東大和市","address":"東京都東大和市桜が丘1丁目1415-1","lat":35.73288126,"lon":139.43434551},{"name":"西武スマイルパーク東大和市駅前第１","province":"東京都","city":"東大和市","address":"東京都東大和市桜が丘1丁目1330-19","lat":35.7330479,"lon":139.43404552},{"name":"西武スマイルパークBIGBOX東大和","province":"東京都","city":"東大和市","address":"東京都東大和市桜が丘1丁目1330-19","lat":35.7330479,"lon":139.43404552},{"name":"武蔵大和駅第2公共自転車等駐車場","province":"東京都","city":"東大和市","address":"東京都東大和市清水1丁目748-2","lat":35.75580662,"lon":139.44388817},{"name":"上北台駅第1公共自転車等駐車場","province":"東京都","city":"東大和市","address":"東京都東大和市上北台1丁目5-1","lat":35.7458127,"lon":139.4158048},{"name":"上北台駅第2公共自転車等駐車場","province":"東京都","city":"東大和市","address":"東京都東大和市上北台1丁目5-1","lat":35.7458127,"lon":139.4158048},{"name":"西武スマイルパークBIGBOX東大和第2","province":"東京都","city":"東大和市","address":"東京都東大和市桜が丘1丁目1330-19","lat":35.7330479,"lon":139.43404552},{"name":"Cycle DAICHI　武蔵大和駅前駐輪場","province":"東京都","city":"東大和市","address":"東京都東大和市清水2丁目802-1","lat":35.75551222,"lon":139.44397706},{"name":"上北台駅第7公共自転車等駐車場","province":"東京都","city":"東大和市","address":"東京都東大和市上北台1丁目5-1","lat":35.7458127,"lon":139.4158048},{"name":"上北台駅前駐輪場","province":"東京都","city":"東大和市","address":"東京都東大和市立野2丁目2-10","lat":35.74638765,"lon":139.41656581},{"name":"東大和保育園","province":"東京都","city":"東大和市","address":"東京都東大和市新堀1-1435-33","lat":35.741073,"lon":139.449081},{"name":"ふたば保育園","province":"東京都","city":"東大和市","address":"東京都東大和市立野2-4-13","lat":35.746313,"lon":139.417341},{"name":"みつば保育園","province":"東京都","city":"東大和市","address":"東京都東大和市立野3-1293-10","lat":35.7388,"lon":139.422714},{"name":"向原第二保育園","province":"東京都","city":"東大和市","address":"東京都東大和市向原1-4-1","lat":35.741966,"lon":139.440063},{"name":"ひが保育ママ","province":"東京都","city":"東大和市","address":"東京都東大和市中央2-1101-12","lat":35.743881,"lon":139.430359},{"name":"木村保育ママ","province":"東京都","city":"東大和市","address":"東京都東大和市南街2-20-3","lat":35.741596,"lon":139.427917},{"name":"こども学園","province":"東京都","city":"東大和市","address":"東京都東大和市奈良橋2-409","lat":35.754368,"lon":139.426514},{"name":"東大和市本庁舎","province":"東京都","city":"東大和市","address":"東京都東大和市中央3丁目930","lat":35.74471306,"lon":139.42703715},{"name":"※東大和市本庁舎","province":"東京都","city":"東大和市","address":"東京都東大和市中央3丁目930","lat":35.74471306,"lon":139.42703715},{"name":"西武鉄道東大和市駅駐輪場","province":"東京都","city":"東大和市","address":"東京都東大和市桜が丘1丁目1415-1","lat":35.73288126,"lon":139.43434551},{"name":"西武スマイルパーク東大和市駅前第１","province":"東京都","city":"東大和市","address":"東京都東大和市桜が丘1丁目1330-19","lat":35.7330479,"lon":139.43404552},{"name":"西武スマイルパークBIGBOX東大和","province":"東京都","city":"東大和市","address":"東京都東大和市桜が丘1丁目1330-19","lat":35.7330479,"lon":139.43404552},{"name":"武蔵大和駅第2公共自転車等駐車場","province":"東京都","city":"東大和市","address":"東京都東大和市清水1丁目748-2","lat":35.75580662,"lon":139.44388817},{"name":"上北台駅第1公共自転車等駐車場","province":"東京都","city":"東大和市","address":"東京都東大和市上北台1丁目5-1","lat":35.7458127,"lon":139.4158048},{"name":"上北台駅第2公共自転車等駐車場","province":"東京都","city":"東大和市","address":"東京都東大和市上北台1丁目5-1","lat":35.7458127,"lon":139.4158048},{"name":"西武スマイルパークBIGBOX東大和第2","province":"東京都","city":"東大和市","address":"東京都東大和市桜が丘1丁目1330-19","lat":35.7330479,"lon":139.43404552},{"name":"Cycle DAICHI　武蔵大和駅前駐輪場","province":"東京都","city":"東大和市","address":"東京都東大和市清水2丁目802-1","lat":35.75551222,"lon":139.44397706},{"name":"上北台駅第7公共自転車等駐車場","province":"東京都","city":"東大和市","address":"東京都東大和市上北台1丁目5-1","lat":35.7458127,"lon":139.4158048},{"name":"上北台駅前駐輪場","province":"東京都","city":"東大和市","address":"東京都東大和市立野2丁目2-10","lat":35.74638765,"lon":139.41656581},{"name":"東大和保育園","province":"東京都","city":"東大和市","address":"東京都東大和市新堀1-1435-33","lat":35.741073,"lon":139.449081},{"name":"ふたば保育園","province":"東京都","city":"東大和市","address":"東京都東大和市立野2-4-13","lat":35.746313,"lon":139.417341},{"name":"みつば保育園","province":"東京都","city":"東大和市","address":"東京都東大和市立野3-1293-10","lat":35.7388,"lon":139.422714},{"name":"向原第二保育園","province":"東京都","city":"東大和市","address":"東京都東大和市向原1-4-1","lat":35.741966,"lon":139.440063},{"name":"ひが保育ママ","province":"東京都","city":"東大和市","address":"東京都東大和市中央2-1101-12","lat":35.743881,"lon":139.430359},{"name":"木村保育ママ","province":"東京都","city":"東大和市","address":"東京都東大和市南街2-20-3","lat":35.741596,"lon":139.427917},{"name":"こども学園","province":"東京都","city":"東大和市","address":"東京都東大和市奈良橋2-409","lat":35.754368,"lon":139.426514},{"name":"東大和市本庁舎","province":"東京都","city":"東大和市","address":"東京都東大和市中央3丁目930","lat":35.74471306,"lon":139.42703715},{"name":"※東大和市本庁舎","province":"東京都","city":"東大和市","address":"東京都東大和市中央3丁目930","lat":35.74471306,"lon":139.42703715},{"name":"西武鉄道東大和市駅駐輪場","province":"東京都","city":"東大和市","address":"東京都東大和市桜が丘1丁目1415-1","lat":35.73288126,"lon":139.43434551},{"name":"西武スマイルパーク東大和市駅前第１","province":"東京都","city":"東大和市","address":"東京都東大和市桜が丘1丁目1330-19","lat":35.7330479,"lon":139.43404552},{"name":"西武スマイルパークBIGBOX東大和","province":"東京都","city":"東大和市","address":"東京都東大和市桜が丘1丁目1330-19","lat":35.7330479,"lon":139.43404552},{"name":"武蔵大和駅第2公共自転車等駐車場","province":"東京都","city":"東大和市","address":"東京都東大和市清水1丁目748-2","lat":35.75580662,"lon":139.44388817},{"name":"上北台駅第1公共自転車等駐車場","province":"東京都","city":"東大和市","address":"東京都東大和市上北台1丁目5-1","lat":35.7458127,"lon":139.4158048},{"name":"上北台駅第2公共自転車等駐車場","province":"東京都","city":"東大和市","address":"東京都東大和市上北台1丁目5-1","lat":35.7458127,"lon":139.4158048},{"name":"西武スマイルパークBIGBOX東大和第2","province":"東京都","city":"東大和市","address":"東京都東大和市桜が丘1丁目1330-19","lat":35.7330479,"lon":139.43404552},{"name":"Cycle DAICHI　武蔵大和駅前駐輪場","province":"東京都","city":"東大和市","address":"東京都東大和市清水2丁目802-1","lat":35.75551222,"lon":139.44397706},{"name":"上北台駅第7公共自転車等駐車場","province":"東京都","city":"東大和市","address":"東京都東大和市上北台1丁目5-1","lat":35.7458127,"lon":139.4158048},{"name":"上北台駅前駐輪場","province":"東京都","city":"東大和市","address":"東京都東大和市立野2丁目2-10","lat":35.74638765,"lon":139.41656581},{"name":"東大和保育園","province":"東京都","city":"東大和市","address":"東京都東大和市新堀1-1435-33","lat":35.741073,"lon":139.449081},{"name":"ふたば保育園","province":"東京都","city":"東大和市","address":"東京都東大和市立野2-4-13","lat":35.746313,"lon":139.417341},{"name":"みつば保育園","province":"東京都","city":"東大和市","address":"東京都東大和市立野3-1293-10","lat":35.7388,"lon":139.422714},{"name":"向原第二保育園","province":"東京都","city":"東大和市","address":"東京都東大和市向原1-4-1","lat":35.741966,"lon":139.440063},{"name":"ひが保育ママ","province":"東京都","city":"東大和市","address":"東京都東大和市中央2-1101-12","lat":35.743881,"lon":139.430359},{"name":"木村保育ママ","province":"東京都","city":"東大和市","address":"東京都東大和市南街2-20-3","lat":35.741596,"lon":139.427917},{"name":"こども学園","province":"東京都","city":"東大和市","address":"東京都東大和市奈良橋2-409","lat":35.754368,"lon":139.426514},{"name":"東大和市本庁舎","province":"東京都","city":"東大和市","address":"東京都東大和市中央3丁目930","lat":35.74471306,"lon":139.42703715},{"name":"※東大和市本庁舎","province":"東京都","city":"東大和市","address":"東京都東大和市中央3丁目930","lat":35.74471306,"lon":139.42703715},{"name":"西武鉄道東大和市駅駐輪場","province":"東京都","city":"東大和市","address":"東京都東大和市桜が丘1丁目1415-1","lat":35.73288126,"lon":139.43434551},{"name":"西武スマイルパーク東大和市駅前第１","province":"東京都","city":"東大和市","address":"東京都東大和市桜が丘1丁目1330-19","lat":35.7330479,"lon":139.43404552},{"name":"西武スマイルパークBIGBOX東大和","province":"東京都","city":"東大和市","address":"東京都東大和市桜が丘1丁目1330-19","lat":35.7330479,"lon":139.43404552},{"name":"武蔵大和駅第2公共自転車等駐車場","province":"東京都","city":"東大和市","address":"東京都東大和市清水1丁目748-2","lat":35.75580662,"lon":139.44388817},{"name":"上北台駅第1公共自転車等駐車場","province":"東京都","city":"東大和市","address":"東京都東大和市上北台1丁目5-1","lat":35.7458127,"lon":139.4158048},{"name":"上北台駅第2公共自転車等駐車場","province":"東京都","city":"東大和市","address":"東京都東大和市上北台1丁目5-1","lat":35.7458127,"lon":139.4158048},{"name":"西武スマイルパークBIGBOX東大和第2","province":"東京都","city":"東大和市","address":"東京都東大和市桜が丘1丁目1330-19","lat":35.7330479,"lon":139.43404552},{"name":"Cycle DAICHI　武蔵大和駅前駐輪場","province":"東京都","city":"東大和市","address":"東京都東大和市清水2丁目802-1","lat":35.75551222,"lon":139.44397706},{"name":"上北台駅第7公共自転車等駐車場","province":"東京都","city":"東大和市","address":"東京都東大和市上北台1丁目5-1","lat":35.7458127,"lon":139.4158048},{"name":"上北台駅前駐輪場","province":"東京都","city":"東大和市","address":"東京都東大和市立野2丁目2-10","lat":35.74638765,"lon":139.41656581},{"name":"東大和保育園","province":"東京都","city":"東大和市","address":"東京都東大和市新堀1-1435-33","lat":35.741073,"lon":139.449081},{"name":"ふたば保育園","province":"東京都","city":"東大和市","address":"東京都東大和市立野2-4-13","lat":35.746313,"lon":139.417341},{"name":"みつば保育園","province":"東京都","city":"東大和市","address":"東京都東大和市立野3-1293-10","lat":35.7388,"lon":139.422714},{"name":"向原第二保育園","province":"東京都","city":"東大和市","address":"東京都東大和市向原1-4-1","lat":35.741966,"lon":139.440063},{"name":"ひが保育ママ","province":"東京都","city":"東大和市","address":"東京都東大和市中央2-1101-12","lat":35.743881,"lon":139.430359},{"name":"木村保育ママ","province":"東京都","city":"東大和市","address":"東京都東大和市南街2-20-3","lat":35.741596,"lon":139.427917},{"name":"こども学園","province":"東京都","city":"東大和市","address":"東京都東大和市奈良橋2-409","lat":35.754368,"lon":139.426514},{"name":"東大和市本庁舎","province":"東京都","city":"東大和市","address":"東京都東大和市中央3丁目930","lat":35.74471306,"lon":139.42703715},{"name":"※東大和市本庁舎","province":"東京都","city":"東大和市","address":"東京都東大和市中央3丁目930","lat":35.74471306,"lon":139.42703715},{"name":"西武鉄道東大和市駅駐輪場","province":"東京都","city":"東大和市","address":"東京都東大和市桜が丘1丁目1415-1","lat":35.73288126,"lon":139.43434551},{"name":"西武スマイルパーク東大和市駅前第１","province":"東京都","city":"東大和市","address":"東京都東大和市桜が丘1丁目1330-19","lat":35.7330479,"lon":139.43404552},{"name":"西武スマイルパークBIGBOX東大和","province":"東京都","city":"東大和市","address":"東京都東大和市桜が丘1丁目1330-19","lat":35.7330479,"lon":139.43404552},{"name":"武蔵大和駅第2公共自転車等駐車場","province":"東京都","city":"東大和市","address":"東京都東大和市清水1丁目748-2","lat":35.75580662,"lon":139.44388817},{"name":"上北台駅第1公共自転車等駐車場","province":"東京都","city":"東大和市","address":"東京都東大和市上北台1丁目5-1","lat":35.7458127,"lon":139.4158048},{"name":"上北台駅第2公共自転車等駐車場","province":"東京都","city":"東大和市","address":"東京都東大和市上北台1丁目5-1","lat":35.7458127,"lon":139.4158048},{"name":"西武スマイルパークBIGBOX東大和第2","province":"東京都","city":"東大和市","address":"東京都東大和市桜が丘1丁目1330-19","lat":35.7330479,"lon":139.43404552},{"name":"Cycle DAICHI　武蔵大和駅前駐輪場","province":"東京都","city":"東大和市","address":"東京都東大和市清水2丁目802-1","lat":35.75551222,"lon":139.44397706},{"name":"上北台駅第7公共自転車等駐車場","province":"東京都","city":"東大和市","address":"東京都東大和市上北台1丁目5-1","lat":35.7458127,"lon":139.4158048},{"name":"上北台駅前駐輪場","province":"東京都","city":"東大和市","address":"東京都東大和市立野2丁目2-10","lat":35.74638765,"lon":139.41656581},{"name":"東大和保育園","province":"東京都","city":"東大和市","address":"東京都東大和市新堀1-1435-33","lat":35.741073,"lon":139.449081},{"name":"ふたば保育園","province":"東京都","city":"東大和市","address":"東京都東大和市立野2-4-13","lat":35.746313,"lon":139.417341},{"name":"みつば保育園","province":"東京都","city":"東大和市","address":"東京都東大和市立野3-1293-10","lat":35.7388,"lon":139.422714},{"name":"向原第二保育園","province":"東京都","city":"東大和市","address":"東京都東大和市向原1-4-1","lat":35.741966,"lon":139.440063},{"name":"ひが保育ママ","province":"東京都","city":"東大和市","address":"東京都東大和市中央2-1101-12","lat":35.743881,"lon":139.430359},{"name":"木村保育ママ","province":"東京都","city":"東大和市","address":"東京都東大和市南街2-20-3","lat":35.741596,"lon":139.427917},{"name":"こども学園","province":"東京都","city":"東大和市","address":"東京都東大和市奈良橋2-409","lat":35.754368,"lon":139.426514},{"name":"東大和市本庁舎","province":"東京都","city":"東大和市","address":"東京都東大和市中央3丁目930","lat":35.74471306,"lon":139.42703715},{"name":"※東大和市本庁舎","province":"東京都","city":"東大和市","address":"東京都東大和市中央3丁目930","lat":35.74471306,"lon":139.42703715},{"name":"西武鉄道東大和市駅駐輪場","province":"東京都","city":"東大和市","address":"東京都東大和市桜が丘1丁目1415-1","lat":35.73288126,"lon":139.43434551},{"name":"西武スマイルパーク東大和市駅前第１","province":"東京都","city":"東大和市","address":"東京都東大和市桜が丘1丁目1330-19","lat":35.7330479,"lon":139.43404552},{"name":"西武スマイルパークBIGBOX東大和","province":"東京都","city":"東大和市","address":"東京都東大和市桜が丘1丁目1330-19","lat":35.7330479,"lon":139.43404552},{"name":"武蔵大和駅第2公共自転車等駐車場","province":"東京都","city":"東大和市","address":"東京都東大和市清水1丁目748-2","lat":35.75580662,"lon":139.44388817},{"name":"上北台駅第1公共自転車等駐車場","province":"東京都","city":"東大和市","address":"東京都東大和市上北台1丁目5-1","lat":35.7458127,"lon":139.4158048},{"name":"上北台駅第2公共自転車等駐車場","province":"東京都","city":"東大和市","address":"東京都東大和市上北台1丁目5-1","lat":35.7458127,"lon":139.4158048},{"name":"西武スマイルパークBIGBOX東大和第2","province":"東京都","city":"東大和市","address":"東京都東大和市桜が丘1丁目1330-19","lat":35.7330479,"lon":139.43404552},{"name":"Cycle DAICHI　武蔵大和駅前駐輪場","province":"東京都","city":"東大和市","address":"東京都東大和市清水2丁目802-1","lat":35.75551222,"lon":139.44397706},{"name":"上北台駅第7公共自転車等駐車場","province":"東京都","city":"東大和市","address":"東京都東大和市上北台1丁目5-1","lat":35.7458127,"lon":139.4158048},{"name":"上北台駅前駐輪場","province":"東京都","city":"東大和市","address":"東京都東大和市立野2丁目2-10","lat":35.74638765,"lon":139.41656581},{"name":"東大和保育園","province":"東京都","city":"東大和市","address":"東京都東大和市新堀1-1435-33","lat":35.741073,"lon":139.449081},{"name":"ふたば保育園","province":"東京都","city":"東大和市","address":"東京都東大和市立野2-4-13","lat":35.746313,"lon":139.417341},{"name":"みつば保育園","province":"東京都","city":"東大和市","address":"東京都東大和市立野3-1293-10","lat":35.7388,"lon":139.422714},{"name":"向原第二保育園","province":"東京都","city":"東大和市","address":"東京都東大和市向原1-4-1","lat":35.741966,"lon":139.440063},{"name":"ひが保育ママ","province":"東京都","city":"東大和市","address":"東京都東大和市中央2-1101-12","lat":35.743881,"lon":139.430359},{"name":"木村保育ママ","province":"東京都","city":"東大和市","address":"東京都東大和市南街2-20-3","lat":35.741596,"lon":139.427917},{"name":"こども学園","province":"東京都","city":"東大和市","address":"東京都東大和市奈良橋2-409","lat":35.754368,"lon":139.426514},{"name":"東大和市本庁舎","province":"東京都","city":"東大和市","address":"東京都東大和市中央3丁目930","lat":35.74471306,"lon":139.42703715},{"name":"※東大和市本庁舎","province":"東京都","city":"東大和市","address":"東京都東大和市中央3丁目930","lat":35.74471306,"lon":139.42703715}]}