{"keyword":"収蔵","data":[{"name":"上北台給水所","province":"東京都","city":"東大和市","address":"東京都東大和市上北台1-801-1","lat":35.7466078,"lon":139.413939},{"name":"東大和給水所","province":"東京都","city":"東大和市","address":"東京都東大和市桜が丘3-44","lat":35.7312269,"lon":139.428196},{"name":"東大和病院","province":"東京都","city":"東大和市","address":"東京都東大和市南街1丁目13-12","lat":35.74141631,"lon":139.43168419},{"name":"東大和給水所","province":"東京都","city":"東大和市","address":"東京都東大和市桜が丘3丁目44","lat":35.73125354,"lon":139.42818775},{"name":"都立東大和南公園","province":"東京都","city":"東大和市","address":"東京都東大和市桜が丘2丁目106-2","lat":35.73352264,"lon":139.42463515},{"name":"東大和市立第６小学校校庭","province":"東京都","city":"東大和市","address":"東京都東大和市仲原1丁目5-1","lat":35.74447733,"lon":139.44344144},{"name":"＊?中央公民館","province":"東京都","city":"東大和市","address":"東大和市中央3-926","lat":35.744629,"lon":139.426497},{"name":"＊?南街公民館","province":"東京都","city":"東大和市","address":"東大和市南街5-32","lat":35.73718,"lon":139.431539},{"name":"＊?狭山公民館","province":"東京都","city":"東大和市","address":"東大和市狭山3-1344-1","lat":35.755845,"lon":139.437658},{"name":"＊?蔵敷公民館","province":"東京都","city":"東大和市","address":"東大和市蔵敷2-337","lat":35.754241,"lon":139.41623},{"name":"＊?上北台公民館","province":"東京都","city":"東大和市","address":"東大和市上北台2-865-9","lat":35.742872,"lon":139.414729},{"name":"上北台給水所","province":"東京都","city":"東大和市","address":"東京都東大和市上北台1-801-1","lat":35.7466078,"lon":139.413939},{"name":"東大和給水所","province":"東京都","city":"東大和市","address":"東京都東大和市桜が丘3-44","lat":35.7312269,"lon":139.428196},{"name":"東大和病院","province":"東京都","city":"東大和市","address":"東京都東大和市南街1丁目13-12","lat":35.74141631,"lon":139.43168419},{"name":"東大和給水所","province":"東京都","city":"東大和市","address":"東京都東大和市桜が丘3丁目44","lat":35.73125354,"lon":139.42818775},{"name":"都立東大和南公園","province":"東京都","city":"東大和市","address":"東京都東大和市桜が丘2丁目106-2","lat":35.73352264,"lon":139.42463515},{"name":"東大和市立第６小学校校庭","province":"東京都","city":"東大和市","address":"東京都東大和市仲原1丁目5-1","lat":35.74447733,"lon":139.44344144},{"name":"＊?中央公民館","province":"東京都","city":"東大和市","address":"東大和市中央3-926","lat":35.744629,"lon":139.426497},{"name":"＊?南街公民館","province":"東京都","city":"東大和市","address":"東大和市南街5-32","lat":35.73718,"lon":139.431539},{"name":"＊?狭山公民館","province":"東京都","city":"東大和市","address":"東大和市狭山3-1344-1","lat":35.755845,"lon":139.437658},{"name":"＊?蔵敷公民館","province":"東京都","city":"東大和市","address":"東大和市蔵敷2-337","lat":35.754241,"lon":139.41623},{"name":"＊?上北台公民館","province":"東京都","city":"東大和市","address":"東大和市上北台2-865-9","lat":35.742872,"lon":139.414729},{"name":"上北台給水所","province":"東京都","city":"東大和市","address":"東京都東大和市上北台1-801-1","lat":35.7466078,"lon":139.413939},{"name":"東大和給水所","province":"東京都","city":"東大和市","address":"東京都東大和市桜が丘3-44","lat":35.7312269,"lon":139.428196},{"name":"東大和病院","province":"東京都","city":"東大和市","address":"東京都東大和市南街1丁目13-12","lat":35.74141631,"lon":139.43168419},{"name":"東大和給水所","province":"東京都","city":"東大和市","address":"東京都東大和市桜が丘3丁目44","lat":35.73125354,"lon":139.42818775},{"name":"都立東大和南公園","province":"東京都","city":"東大和市","address":"東京都東大和市桜が丘2丁目106-2","lat":35.73352264,"lon":139.42463515},{"name":"東大和市立第６小学校校庭","province":"東京都","city":"東大和市","address":"東京都東大和市仲原1丁目5-1","lat":35.74447733,"lon":139.44344144},{"name":"＊?中央公民館","province":"東京都","city":"東大和市","address":"東大和市中央3-926","lat":35.744629,"lon":139.426497},{"name":"＊?南街公民館","province":"東京都","city":"東大和市","address":"東大和市南街5-32","lat":35.73718,"lon":139.431539},{"name":"＊?狭山公民館","province":"東京都","city":"東大和市","address":"東大和市狭山3-1344-1","lat":35.755845,"lon":139.437658},{"name":"＊?蔵敷公民館","province":"東京都","city":"東大和市","address":"東大和市蔵敷2-337","lat":35.754241,"lon":139.41623},{"name":"＊?上北台公民館","province":"東京都","city":"東大和市","address":"東大和市上北台2-865-9","lat":35.742872,"lon":139.414729},{"name":"上北台給水所","province":"東京都","city":"東大和市","address":"東京都東大和市上北台1-801-1","lat":35.7466078,"lon":139.413939},{"name":"東大和給水所","province":"東京都","city":"東大和市","address":"東京都東大和市桜が丘3-44","lat":35.7312269,"lon":139.428196},{"name":"東大和病院","province":"東京都","city":"東大和市","address":"東京都東大和市南街1丁目13-12","lat":35.74141631,"lon":139.43168419},{"name":"都立東大和南公園","province":"東京都","city":"東大和市","address":"東京都東大和市桜が丘2丁目106-2","lat":35.73352264,"lon":139.42463515},{"name":"東大和市立第６小学校校庭","province":"東京都","city":"東大和市","address":"東京都東大和市仲原1丁目5-1","lat":35.74447733,"lon":139.44344144},{"name":"＊?中央公民館","province":"東京都","city":"東大和市","address":"東大和市中央3-926","lat":35.744629,"lon":139.426497},{"name":"＊?南街公民館","province":"東京都","city":"東大和市","address":"東大和市南街5-32","lat":35.73718,"lon":139.431539},{"name":"＊?狭山公民館","province":"東京都","city":"東大和市","address":"東大和市狭山3-1344-1","lat":35.755845,"lon":139.437658},{"name":"＊?蔵敷公民館","province":"東京都","city":"東大和市","address":"東大和市蔵敷2-337","lat":35.754241,"lon":139.41623},{"name":"＊?上北台公民館","province":"東京都","city":"東大和市","address":"東大和市上北台2-865-9","lat":35.742872,"lon":139.414729},{"name":"上北台給水所","province":"東京都","city":"東大和市","address":"東京都東大和市上北台1-801-1","lat":35.7466078,"lon":139.413939},{"name":"東大和給水所","province":"東京都","city":"東大和市","address":"東京都東大和市桜が丘3-44","lat":35.7312269,"lon":139.428196},{"name":"東大和病院","province":"東京都","city":"東大和市","address":"東京都東大和市南街1丁目13-12","lat":35.74141631,"lon":139.43168419},{"name":"＊?中央公民館","province":"東京都","city":"東大和市","address":"東大和市中央3-926","lat":35.744629,"lon":139.426497},{"name":"＊?南街公民館","province":"東京都","city":"東大和市","address":"東大和市南街5-32","lat":35.73718,"lon":139.431539},{"name":"＊?狭山公民館","province":"東京都","city":"東大和市","address":"東大和市狭山3-1344-1","lat":35.755845,"lon":139.437658},{"name":"＊?蔵敷公民館","province":"東京都","city":"東大和市","address":"東大和市蔵敷2-337","lat":35.754241,"lon":139.41623},{"name":"＊?上北台公民館","province":"東京都","city":"東大和市","address":"東大和市上北台2-865-9","lat":35.742872,"lon":139.414729},{"name":"上北台給水所","province":"東京都","city":"東大和市","address":"東京都東大和市上北台1-801-1","lat":35.7466078,"lon":139.413939},{"name":"東大和給水所","province":"東京都","city":"東大和市","address":"東京都東大和市桜が丘3-44","lat":35.7312269,"lon":139.428196},{"name":"東大和病院","province":"東京都","city":"東大和市","address":"東京都東大和市南街1丁目13-12","lat":35.74141631,"lon":139.43168419},{"name":"＊?中央公民館","province":"東京都","city":"東大和市","address":"東大和市中央3-926","lat":35.744629,"lon":139.426497},{"name":"＊?南街公民館","province":"東京都","city":"東大和市","address":"東大和市南街5-32","lat":35.73718,"lon":139.431539},{"name":"＊?狭山公民館","province":"東京都","city":"東大和市","address":"東大和市狭山3-1344-1","lat":35.755845,"lon":139.437658},{"name":"＊?蔵敷公民館","province":"東京都","city":"東大和市","address":"東大和市蔵敷2-337","lat":35.754241,"lon":139.41623},{"name":"＊?上北台公民館","province":"東京都","city":"東大和市","address":"東大和市上北台2-865-9","lat":35.742872,"lon":139.414729},{"name":"上北台給水所","province":"東京都","city":"東大和市","address":"東京都東大和市上北台1-801-1","lat":35.7466078,"lon":139.413939},{"name":"東大和給水所","province":"東京都","city":"東大和市","address":"東京都東大和市桜が丘3-44","lat":35.7312269,"lon":139.428196},{"name":"東大和病院","province":"東京都","city":"東大和市","address":"東京都東大和市南街1丁目13-12","lat":35.74141631,"lon":139.43168419},{"name":"＊?中央公民館","province":"東京都","city":"東大和市","address":"東大和市中央3-926","lat":35.744629,"lon":139.426497},{"name":"＊?南街公民館","province":"東京都","city":"東大和市","address":"東大和市南街5-32","lat":35.73718,"lon":139.431539},{"name":"＊?狭山公民館","province":"東京都","city":"東大和市","address":"東大和市狭山3-1344-1","lat":35.755845,"lon":139.437658},{"name":"＊?蔵敷公民館","province":"東京都","city":"東大和市","address":"東大和市蔵敷2-337","lat":35.754241,"lon":139.41623},{"name":"＊?上北台公民館","province":"東京都","city":"東大和市","address":"東大和市上北台2-865-9","lat":35.742872,"lon":139.414729},{"name":"上北台給水所","province":"東京都","city":"東大和市","address":"東京都東大和市上北台1-801-1","lat":35.7466078,"lon":139.413939},{"name":"東大和給水所","province":"東京都","city":"東大和市","address":"東京都東大和市桜が丘3-44","lat":35.7312269,"lon":139.428196},{"name":"東大和病院","province":"東京都","city":"東大和市","address":"東京都東大和市南街1丁目13-12","lat":35.74141631,"lon":139.43168419},{"name":"＊?中央公民館","province":"東京都","city":"東大和市","address":"東大和市中央3-926","lat":35.744629,"lon":139.426497},{"name":"＊?南街公民館","province":"東京都","city":"東大和市","address":"東大和市南街5-32","lat":35.73718,"lon":139.431539},{"name":"＊?狭山公民館","province":"東京都","city":"東大和市","address":"東大和市狭山3-1344-1","lat":35.755845,"lon":139.437658},{"name":"＊?蔵敷公民館","province":"東京都","city":"東大和市","address":"東大和市蔵敷2-337","lat":35.754241,"lon":139.41623},{"name":"＊?上北台公民館","province":"東京都","city":"東大和市","address":"東大和市上北台2-865-9","lat":35.742872,"lon":139.414729},{"name":"上北台給水所","province":"東京都","city":"東大和市","address":"東京都東大和市上北台1-801-1","lat":35.7466078,"lon":139.413939},{"name":"東大和給水所","province":"東京都","city":"東大和市","address":"東京都東大和市桜が丘3-44","lat":35.7312269,"lon":139.428196},{"name":"東大和病院","province":"東京都","city":"東大和市","address":"東京都東大和市南街1丁目13-12","lat":35.74141631,"lon":139.43168419},{"name":"＊?中央公民館","province":"東京都","city":"東大和市","address":"東大和市中央3-926","lat":35.744629,"lon":139.426497},{"name":"＊?南街公民館","province":"東京都","city":"東大和市","address":"東大和市南街5-32","lat":35.73718,"lon":139.431539},{"name":"＊?狭山公民館","province":"東京都","city":"東大和市","address":"東大和市狭山3-1344-1","lat":35.755845,"lon":139.437658},{"name":"＊?蔵敷公民館","province":"東京都","city":"東大和市","address":"東大和市蔵敷2-337","lat":35.754241,"lon":139.41623},{"name":"＊?上北台公民館","province":"東京都","city":"東大和市","address":"東大和市上北台2-865-9","lat":35.742872,"lon":139.414729},{"name":"上北台給水所","province":"東京都","city":"東大和市","address":"東京都東大和市上北台1-801-1","lat":35.7466078,"lon":139.413939},{"name":"東大和給水所","province":"東京都","city":"東大和市","address":"東京都東大和市桜が丘3-44","lat":35.7312269,"lon":139.428196},{"name":"東大和病院","province":"東京都","city":"東大和市","address":"東京都東大和市南街1丁目13-12","lat":35.74141631,"lon":139.43168419},{"name":"＊?中央公民館","province":"東京都","city":"東大和市","address":"東大和市中央3-926","lat":35.744629,"lon":139.426497},{"name":"＊?南街公民館","province":"東京都","city":"東大和市","address":"東大和市南街5-32","lat":35.73718,"lon":139.431539},{"name":"＊?狭山公民館","province":"東京都","city":"東大和市","address":"東大和市狭山3-1344-1","lat":35.755845,"lon":139.437658},{"name":"＊?蔵敷公民館","province":"東京都","city":"東大和市","address":"東大和市蔵敷2-337","lat":35.754241,"lon":139.41623},{"name":"＊?上北台公民館","province":"東京都","city":"東大和市","address":"東大和市上北台2-865-9","lat":35.742872,"lon":139.414729},{"name":"上北台給水所","province":"東京都","city":"東大和市","address":"東京都東大和市上北台1-801-1","lat":35.7466078,"lon":139.413939},{"name":"東大和給水所","province":"東京都","city":"東大和市","address":"東京都東大和市桜が丘3-44","lat":35.7312269,"lon":139.428196},{"name":"＊?中央公民館","province":"東京都","city":"東大和市","address":"東大和市中央3-926","lat":35.744629,"lon":139.426497},{"name":"＊?南街公民館","province":"東京都","city":"東大和市","address":"東大和市南街5-32","lat":35.73718,"lon":139.431539},{"name":"＊?狭山公民館","province":"東京都","city":"東大和市","address":"東大和市狭山3-1344-1","lat":35.755845,"lon":139.437658},{"name":"＊?蔵敷公民館","province":"東京都","city":"東大和市","address":"東大和市蔵敷2-337","lat":35.754241,"lon":139.41623},{"name":"＊?上北台公民館","province":"東京都","city":"東大和市","address":"東大和市上北台2-865-9","lat":35.742872,"lon":139.414729},{"name":"上北台給水所","province":"東京都","city":"東大和市","address":"東京都東大和市上北台1-801-1","lat":35.7466078,"lon":139.413939},{"name":"東大和給水所","province":"東京都","city":"東大和市","address":"東京都東大和市桜が丘3-44","lat":35.7312269,"lon":139.428196},{"name":"＊?中央公民館","province":"東京都","city":"東大和市","address":"東大和市中央3-926","lat":35.744629,"lon":139.426497},{"name":"＊?南街公民館","province":"東京都","city":"東大和市","address":"東大和市南街5-32","lat":35.73718,"lon":139.431539},{"name":"＊?狭山公民館","province":"東京都","city":"東大和市","address":"東大和市狭山3-1344-1","lat":35.755845,"lon":139.437658},{"name":"＊?蔵敷公民館","province":"東京都","city":"東大和市","address":"東大和市蔵敷2-337","lat":35.754241,"lon":139.41623},{"name":"＊?上北台公民館","province":"東京都","city":"東大和市","address":"東大和市上北台2-865-9","lat":35.742872,"lon":139.414729},{"name":"上北台給水所","province":"東京都","city":"東大和市","address":"東京都東大和市上北台1-801-1","lat":35.7466078,"lon":139.413939},{"name":"東大和給水所","province":"東京都","city":"東大和市","address":"東京都東大和市桜が丘3-44","lat":35.7312269,"lon":139.428196},{"name":"＊?中央公民館","province":"東京都","city":"東大和市","address":"東大和市中央3-926","lat":35.744629,"lon":139.426497},{"name":"＊?南街公民館","province":"東京都","city":"東大和市","address":"東大和市南街5-32","lat":35.73718,"lon":139.431539},{"name":"＊?狭山公民館","province":"東京都","city":"東大和市","address":"東大和市狭山3-1344-1","lat":35.755845,"lon":139.437658},{"name":"＊?蔵敷公民館","province":"東京都","city":"東大和市","address":"東大和市蔵敷2-337","lat":35.754241,"lon":139.41623},{"name":"＊?上北台公民館","province":"東京都","city":"東大和市","address":"東大和市上北台2-865-9","lat":35.742872,"lon":139.414729},{"name":"上北台給水所","province":"東京都","city":"東大和市","address":"東京都東大和市上北台1-801-1","lat":35.7466078,"lon":139.413939},{"name":"東大和給水所","province":"東京都","city":"東大和市","address":"東京都東大和市桜が丘3-44","lat":35.7312269,"lon":139.428196},{"name":"＊?中央公民館","province":"東京都","city":"東大和市","address":"東大和市中央3-926","lat":35.744629,"lon":139.426497},{"name":"＊?南街公民館","province":"東京都","city":"東大和市","address":"東大和市南街5-32","lat":35.73718,"lon":139.431539},{"name":"＊?狭山公民館","province":"東京都","city":"東大和市","address":"東大和市狭山3-1344-1","lat":35.755845,"lon":139.437658},{"name":"＊?蔵敷公民館","province":"東京都","city":"東大和市","address":"東大和市蔵敷2-337","lat":35.754241,"lon":139.41623},{"name":"＊?上北台公民館","province":"東京都","city":"東大和市","address":"東大和市上北台2-865-9","lat":35.742872,"lon":139.414729},{"name":"上北台給水所","province":"東京都","city":"東大和市","address":"東京都東大和市上北台1-801-1","lat":35.7466078,"lon":139.413939},{"name":"東大和給水所","province":"東京都","city":"東大和市","address":"東京都東大和市桜が丘3-44","lat":35.7312269,"lon":139.428196},{"name":"＊?中央公民館","province":"東京都","city":"東大和市","address":"東大和市中央3-926","lat":35.744629,"lon":139.426497},{"name":"＊?南街公民館","province":"東京都","city":"東大和市","address":"東大和市南街5-32","lat":35.73718,"lon":139.431539},{"name":"＊?狭山公民館","province":"東京都","city":"東大和市","address":"東大和市狭山3-1344-1","lat":35.755845,"lon":139.437658},{"name":"＊?蔵敷公民館","province":"東京都","city":"東大和市","address":"東大和市蔵敷2-337","lat":35.754241,"lon":139.41623},{"name":"＊?上北台公民館","province":"東京都","city":"東大和市","address":"東大和市上北台2-865-9","lat":35.742872,"lon":139.414729},{"name":"上北台給水所","province":"東京都","city":"東大和市","address":"東京都東大和市上北台1-801-1","lat":35.7466078,"lon":139.413939},{"name":"東大和給水所","province":"東京都","city":"東大和市","address":"東京都東大和市桜が丘3-44","lat":35.7312269,"lon":139.428196},{"name":"＊?中央公民館","province":"東京都","city":"東大和市","address":"東大和市中央3-926","lat":35.744629,"lon":139.426497},{"name":"＊?南街公民館","province":"東京都","city":"東大和市","address":"東大和市南街5-32","lat":35.73718,"lon":139.431539},{"name":"＊?狭山公民館","province":"東京都","city":"東大和市","address":"東大和市狭山3-1344-1","lat":35.755845,"lon":139.437658},{"name":"＊?蔵敷公民館","province":"東京都","city":"東大和市","address":"東大和市蔵敷2-337","lat":35.754241,"lon":139.41623},{"name":"＊?上北台公民館","province":"東京都","city":"東大和市","address":"東大和市上北台2-865-9","lat":35.742872,"lon":139.414729},{"name":"上北台給水所","province":"東京都","city":"東大和市","address":"東京都東大和市上北台1-801-1","lat":35.7466078,"lon":139.413939},{"name":"東大和給水所","province":"東京都","city":"東大和市","address":"東京都東大和市桜が丘3-44","lat":35.7312269,"lon":139.428196},{"name":"＊?中央公民館","province":"東京都","city":"東大和市","address":"東大和市中央3-926","lat":35.744629,"lon":139.426497},{"name":"＊?南街公民館","province":"東京都","city":"東大和市","address":"東大和市南街5-32","lat":35.73718,"lon":139.431539},{"name":"＊?狭山公民館","province":"東京都","city":"東大和市","address":"東大和市狭山3-1344-1","lat":35.755845,"lon":139.437658},{"name":"＊?蔵敷公民館","province":"東京都","city":"東大和市","address":"東大和市蔵敷2-337","lat":35.754241,"lon":139.41623},{"name":"＊?上北台公民館","province":"東京都","city":"東大和市","address":"東大和市上北台2-865-9","lat":35.742872,"lon":139.414729},{"name":"上北台給水所","province":"東京都","city":"東大和市","address":"東京都東大和市上北台1-801-1","lat":35.7466078,"lon":139.413939},{"name":"東大和給水所","province":"東京都","city":"東大和市","address":"東京都東大和市桜が丘3-44","lat":35.7312269,"lon":139.428196},{"name":"＊?中央公民館","province":"東京都","city":"東大和市","address":"東大和市中央3-926","lat":35.744629,"lon":139.426497},{"name":"＊?南街公民館","province":"東京都","city":"東大和市","address":"東大和市南街5-32","lat":35.73718,"lon":139.431539},{"name":"＊?狭山公民館","province":"東京都","city":"東大和市","address":"東大和市狭山3-1344-1","lat":35.755845,"lon":139.437658},{"name":"＊?蔵敷公民館","province":"東京都","city":"東大和市","address":"東大和市蔵敷2-337","lat":35.754241,"lon":139.41623},{"name":"＊?上北台公民館","province":"東京都","city":"東大和市","address":"東大和市上北台2-865-9","lat":35.742872,"lon":139.414729},{"name":"上北台給水所","province":"東京都","city":"東大和市","address":"東京都東大和市上北台1-801-1","lat":35.7466078,"lon":139.413939},{"name":"東大和給水所","province":"東京都","city":"東大和市","address":"東京都東大和市桜が丘3-44","lat":35.7312269,"lon":139.428196},{"name":"＊?中央公民館","province":"東京都","city":"東大和市","address":"東大和市中央3-926","lat":35.744629,"lon":139.426497},{"name":"＊?南街公民館","province":"東京都","city":"東大和市","address":"東大和市南街5-32","lat":35.73718,"lon":139.431539},{"name":"＊?狭山公民館","province":"東京都","city":"東大和市","address":"東大和市狭山3-1344-1","lat":35.755845,"lon":139.437658},{"name":"＊?蔵敷公民館","province":"東京都","city":"東大和市","address":"東大和市蔵敷2-337","lat":35.754241,"lon":139.41623},{"name":"＊?上北台公民館","province":"東京都","city":"東大和市","address":"東大和市上北台2-865-9","lat":35.742872,"lon":139.414729},{"name":"上北台給水所","province":"東京都","city":"東大和市","address":"東京都東大和市上北台1-801-1","lat":35.7466078,"lon":139.413939},{"name":"東大和給水所","province":"東京都","city":"東大和市","address":"東京都東大和市桜が丘3-44","lat":35.7312269,"lon":139.428196},{"name":"＊?中央公民館","province":"東京都","city":"東大和市","address":"東大和市中央3-926","lat":35.744629,"lon":139.426497},{"name":"＊?南街公民館","province":"東京都","city":"東大和市","address":"東大和市南街5-32","lat":35.73718,"lon":139.431539},{"name":"＊?狭山公民館","province":"東京都","city":"東大和市","address":"東大和市狭山3-1344-1","lat":35.755845,"lon":139.437658},{"name":"＊?蔵敷公民館","province":"東京都","city":"東大和市","address":"東大和市蔵敷2-337","lat":35.754241,"lon":139.41623},{"name":"＊?上北台公民館","province":"東京都","city":"東大和市","address":"東大和市上北台2-865-9","lat":35.742872,"lon":139.414729},{"name":"上北台給水所","province":"東京都","city":"東大和市","address":"東京都東大和市上北台1-801-1","lat":35.7466078,"lon":139.413939},{"name":"東大和給水所","province":"東京都","city":"東大和市","address":"東京都東大和市桜が丘3-44","lat":35.7312269,"lon":139.428196},{"name":"＊?中央公民館","province":"東京都","city":"東大和市","address":"東大和市中央3-926","lat":35.744629,"lon":139.426497},{"name":"＊?南街公民館","province":"東京都","city":"東大和市","address":"東大和市南街5-32","lat":35.73718,"lon":139.431539},{"name":"＊?狭山公民館","province":"東京都","city":"東大和市","address":"東大和市狭山3-1344-1","lat":35.755845,"lon":139.437658},{"name":"＊?蔵敷公民館","province":"東京都","city":"東大和市","address":"東大和市蔵敷2-337","lat":35.754241,"lon":139.41623},{"name":"＊?上北台公民館","province":"東京都","city":"東大和市","address":"東大和市上北台2-865-9","lat":35.742872,"lon":139.414729},{"name":"上北台給水所","province":"東京都","city":"東大和市","address":"東京都東大和市上北台1-801-1","lat":35.7466078,"lon":139.413939},{"name":"東大和給水所","province":"東京都","city":"東大和市","address":"東京都東大和市桜が丘3-44","lat":35.7312269,"lon":139.428196},{"name":"＊?中央公民館","province":"東京都","city":"東大和市","address":"東大和市中央3-926","lat":35.744629,"lon":139.426497},{"name":"＊?南街公民館","province":"東京都","city":"東大和市","address":"東大和市南街5-32","lat":35.73718,"lon":139.431539},{"name":"＊?狭山公民館","province":"東京都","city":"東大和市","address":"東大和市狭山3-1344-1","lat":35.755845,"lon":139.437658},{"name":"＊?蔵敷公民館","province":"東京都","city":"東大和市","address":"東大和市蔵敷2-337","lat":35.754241,"lon":139.41623},{"name":"＊?上北台公民館","province":"東京都","city":"東大和市","address":"東大和市上北台2-865-9","lat":35.742872,"lon":139.414729},{"name":"上北台給水所","province":"東京都","city":"東大和市","address":"東京都東大和市上北台1-801-1","lat":35.7466078,"lon":139.413939},{"name":"東大和給水所","province":"東京都","city":"東大和市","address":"東京都東大和市桜が丘3-44","lat":35.7312269,"lon":139.428196},{"name":"＊?中央公民館","province":"東京都","city":"東大和市","address":"東大和市中央3-926","lat":35.744629,"lon":139.426497},{"name":"＊?南街公民館","province":"東京都","city":"東大和市","address":"東大和市南街5-32","lat":35.73718,"lon":139.431539},{"name":"＊?狭山公民館","province":"東京都","city":"東大和市","address":"東大和市狭山3-1344-1","lat":35.755845,"lon":139.437658},{"name":"＊?蔵敷公民館","province":"東京都","city":"東大和市","address":"東大和市蔵敷2-337","lat":35.754241,"lon":139.41623},{"name":"＊?上北台公民館","province":"東京都","city":"東大和市","address":"東大和市上北台2-865-9","lat":35.742872,"lon":139.414729},{"name":"上北台給水所","province":"東京都","city":"東大和市","address":"東京都東大和市上北台1-801-1","lat":35.7466078,"lon":139.413939},{"name":"東大和給水所","province":"東京都","city":"東大和市","address":"東京都東大和市桜が丘3-44","lat":35.7312269,"lon":139.428196},{"name":"＊?中央公民館","province":"東京都","city":"東大和市","address":"東大和市中央3-926","lat":35.744629,"lon":139.426497},{"name":"＊?南街公民館","province":"東京都","city":"東大和市","address":"東大和市南街5-32","lat":35.73718,"lon":139.431539},{"name":"＊?狭山公民館","province":"東京都","city":"東大和市","address":"東大和市狭山3-1344-1","lat":35.755845,"lon":139.437658},{"name":"＊?蔵敷公民館","province":"東京都","city":"東大和市","address":"東大和市蔵敷2-337","lat":35.754241,"lon":139.41623},{"name":"＊?上北台公民館","province":"東京都","city":"東大和市","address":"東大和市上北台2-865-9","lat":35.742872,"lon":139.414729},{"name":"上北台給水所","province":"東京都","city":"東大和市","address":"東京都東大和市上北台1-801-1","lat":35.7466078,"lon":139.413939},{"name":"東大和給水所","province":"東京都","city":"東大和市","address":"東京都東大和市桜が丘3-44","lat":35.7312269,"lon":139.428196},{"name":"＊?中央公民館","province":"東京都","city":"東大和市","address":"東大和市中央3-926","lat":35.744629,"lon":139.426497},{"name":"＊?南街公民館","province":"東京都","city":"東大和市","address":"東大和市南街5-32","lat":35.73718,"lon":139.431539},{"name":"＊?狭山公民館","province":"東京都","city":"東大和市","address":"東大和市狭山3-1344-1","lat":35.755845,"lon":139.437658},{"name":"＊?蔵敷公民館","province":"東京都","city":"東大和市","address":"東大和市蔵敷2-337","lat":35.754241,"lon":139.41623},{"name":"＊?上北台公民館","province":"東京都","city":"東大和市","address":"東大和市上北台2-865-9","lat":35.742872,"lon":139.414729},{"name":"上北台給水所","province":"東京都","city":"東大和市","address":"東京都東大和市上北台1-801-1","lat":35.7466078,"lon":139.413939},{"name":"東大和給水所","province":"東京都","city":"東大和市","address":"東京都東大和市桜が丘3-44","lat":35.7312269,"lon":139.428196},{"name":"＊?中央公民館","province":"東京都","city":"東大和市","address":"東大和市中央3-926","lat":35.744629,"lon":139.426497},{"name":"＊?南街公民館","province":"東京都","city":"東大和市","address":"東大和市南街5-32","lat":35.73718,"lon":139.431539},{"name":"＊?狭山公民館","province":"東京都","city":"東大和市","address":"東大和市狭山3-1344-1","lat":35.755845,"lon":139.437658},{"name":"＊?蔵敷公民館","province":"東京都","city":"東大和市","address":"東大和市蔵敷2-337","lat":35.754241,"lon":139.41623},{"name":"＊?上北台公民館","province":"東京都","city":"東大和市","address":"東大和市上北台2-865-9","lat":35.742872,"lon":139.414729},{"name":"上北台給水所","province":"東京都","city":"東大和市","address":"東京都東大和市上北台1-801-1","lat":35.7466078,"lon":139.413939},{"name":"東大和給水所","province":"東京都","city":"東大和市","address":"東京都東大和市桜が丘3-44","lat":35.7312269,"lon":139.428196},{"name":"＊?中央公民館","province":"東京都","city":"東大和市","address":"東大和市中央3-926","lat":35.744629,"lon":139.426497},{"name":"＊?南街公民館","province":"東京都","city":"東大和市","address":"東大和市南街5-32","lat":35.73718,"lon":139.431539},{"name":"＊?狭山公民館","province":"東京都","city":"東大和市","address":"東大和市狭山3-1344-1","lat":35.755845,"lon":139.437658},{"name":"＊?蔵敷公民館","province":"東京都","city":"東大和市","address":"東大和市蔵敷2-337","lat":35.754241,"lon":139.41623},{"name":"＊?上北台公民館","province":"東京都","city":"東大和市","address":"東大和市上北台2-865-9","lat":35.742872,"lon":139.414729},{"name":"上北台給水所","province":"東京都","city":"東大和市","address":"東京都東大和市上北台1-801-1","lat":35.7466078,"lon":139.413939},{"name":"東大和給水所","province":"東京都","city":"東大和市","address":"東京都東大和市桜が丘3-44","lat":35.7312269,"lon":139.428196},{"name":"＊?中央公民館","province":"東京都","city":"東大和市","address":"東大和市中央3-926","lat":35.744629,"lon":139.426497},{"name":"＊?南街公民館","province":"東京都","city":"東大和市","address":"東大和市南街5-32","lat":35.73718,"lon":139.431539},{"name":"＊?狭山公民館","province":"東京都","city":"東大和市","address":"東大和市狭山3-1344-1","lat":35.755845,"lon":139.437658},{"name":"＊?蔵敷公民館","province":"東京都","city":"東大和市","address":"東大和市蔵敷2-337","lat":35.754241,"lon":139.41623},{"name":"＊?上北台公民館","province":"東京都","city":"東大和市","address":"東大和市上北台2-865-9","lat":35.742872,"lon":139.414729},{"name":"上北台給水所","province":"東京都","city":"東大和市","address":"東京都東大和市上北台1-801-1","lat":35.7466078,"lon":139.413939},{"name":"東大和給水所","province":"東京都","city":"東大和市","address":"東京都東大和市桜が丘3-44","lat":35.7312269,"lon":139.428196},{"name":"＊?中央公民館","province":"東京都","city":"東大和市","address":"東大和市中央3-926","lat":35.744629,"lon":139.426497},{"name":"＊?南街公民館","province":"東京都","city":"東大和市","address":"東大和市南街5-32","lat":35.73718,"lon":139.431539},{"name":"＊?狭山公民館","province":"東京都","city":"東大和市","address":"東大和市狭山3-1344-1","lat":35.755845,"lon":139.437658},{"name":"＊?蔵敷公民館","province":"東京都","city":"東大和市","address":"東大和市蔵敷2-337","lat":35.754241,"lon":139.41623},{"name":"＊?上北台公民館","province":"東京都","city":"東大和市","address":"東大和市上北台2-865-9","lat":35.742872,"lon":139.414729},{"name":"上北台給水所","province":"東京都","city":"東大和市","address":"東京都東大和市上北台1-801-1","lat":35.7466078,"lon":139.413939},{"name":"東大和給水所","province":"東京都","city":"東大和市","address":"東京都東大和市桜が丘3-44","lat":35.7312269,"lon":139.428196},{"name":"＊?中央公民館","province":"東京都","city":"東大和市","address":"東大和市中央3-926","lat":35.744629,"lon":139.426497},{"name":"＊?南街公民館","province":"東京都","city":"東大和市","address":"東大和市南街5-32","lat":35.73718,"lon":139.431539},{"name":"＊?狭山公民館","province":"東京都","city":"東大和市","address":"東大和市狭山3-1344-1","lat":35.755845,"lon":139.437658},{"name":"＊?蔵敷公民館","province":"東京都","city":"東大和市","address":"東大和市蔵敷2-337","lat":35.754241,"lon":139.41623},{"name":"＊?上北台公民館","province":"東京都","city":"東大和市","address":"東大和市上北台2-865-9","lat":35.742872,"lon":139.414729},{"name":"上北台給水所","province":"東京都","city":"東大和市","address":"東京都東大和市上北台1-801-1","lat":35.7466078,"lon":139.413939},{"name":"東大和給水所","province":"東京都","city":"東大和市","address":"東京都東大和市桜が丘3-44","lat":35.7312269,"lon":139.428196},{"name":"＊?中央公民館","province":"東京都","city":"東大和市","address":"東大和市中央3-926","lat":35.744629,"lon":139.426497},{"name":"＊?南街公民館","province":"東京都","city":"東大和市","address":"東大和市南街5-32","lat":35.73718,"lon":139.431539},{"name":"＊?狭山公民館","province":"東京都","city":"東大和市","address":"東大和市狭山3-1344-1","lat":35.755845,"lon":139.437658},{"name":"＊?蔵敷公民館","province":"東京都","city":"東大和市","address":"東大和市蔵敷2-337","lat":35.754241,"lon":139.41623},{"name":"＊?上北台公民館","province":"東京都","city":"東大和市","address":"東大和市上北台2-865-9","lat":35.742872,"lon":139.414729},{"name":"上北台給水所","province":"東京都","city":"東大和市","address":"東京都東大和市上北台1-801-1","lat":35.7466078,"lon":139.413939},{"name":"東大和給水所","province":"東京都","city":"東大和市","address":"東京都東大和市桜が丘3-44","lat":35.7312269,"lon":139.428196},{"name":"＊?中央公民館","province":"東京都","city":"東大和市","address":"東大和市中央3-926","lat":35.744629,"lon":139.426497},{"name":"＊?南街公民館","province":"東京都","city":"東大和市","address":"東大和市南街5-32","lat":35.73718,"lon":139.431539},{"name":"＊?狭山公民館","province":"東京都","city":"東大和市","address":"東大和市狭山3-1344-1","lat":35.755845,"lon":139.437658},{"name":"＊?蔵敷公民館","province":"東京都","city":"東大和市","address":"東大和市蔵敷2-337","lat":35.754241,"lon":139.41623},{"name":"＊?上北台公民館","province":"東京都","city":"東大和市","address":"東大和市上北台2-865-9","lat":35.742872,"lon":139.414729},{"name":"上北台給水所","province":"東京都","city":"東大和市","address":"東京都東大和市上北台1-801-1","lat":35.7466078,"lon":139.413939},{"name":"東大和給水所","province":"東京都","city":"東大和市","address":"東京都東大和市桜が丘3-44","lat":35.7312269,"lon":139.428196},{"name":"＊?中央公民館","province":"東京都","city":"東大和市","address":"東大和市中央3-926","lat":35.744629,"lon":139.426497},{"name":"＊?南街公民館","province":"東京都","city":"東大和市","address":"東大和市南街5-32","lat":35.73718,"lon":139.431539},{"name":"＊?狭山公民館","province":"東京都","city":"東大和市","address":"東大和市狭山3-1344-1","lat":35.755845,"lon":139.437658},{"name":"＊?蔵敷公民館","province":"東京都","city":"東大和市","address":"東大和市蔵敷2-337","lat":35.754241,"lon":139.41623},{"name":"＊?上北台公民館","province":"東京都","city":"東大和市","address":"東大和市上北台2-865-9","lat":35.742872,"lon":139.414729},{"name":"上北台給水所","province":"東京都","city":"東大和市","address":"東京都東大和市上北台1-801-1","lat":35.7466078,"lon":139.413939},{"name":"東大和給水所","province":"東京都","city":"東大和市","address":"東京都東大和市桜が丘3-44","lat":35.7312269,"lon":139.428196},{"name":"＊?中央公民館","province":"東京都","city":"東大和市","address":"東大和市中央3-926","lat":35.744629,"lon":139.426497},{"name":"＊?南街公民館","province":"東京都","city":"東大和市","address":"東大和市南街5-32","lat":35.73718,"lon":139.431539},{"name":"＊?狭山公民館","province":"東京都","city":"東大和市","address":"東大和市狭山3-1344-1","lat":35.755845,"lon":139.437658},{"name":"＊?蔵敷公民館","province":"東京都","city":"東大和市","address":"東大和市蔵敷2-337","lat":35.754241,"lon":139.41623},{"name":"＊?上北台公民館","province":"東京都","city":"東大和市","address":"東大和市上北台2-865-9","lat":35.742872,"lon":139.414729},{"name":"上北台給水所","province":"東京都","city":"東大和市","address":"東京都東大和市上北台1-801-1","lat":35.7466078,"lon":139.413939},{"name":"東大和給水所","province":"東京都","city":"東大和市","address":"東京都東大和市桜が丘3-44","lat":35.7312269,"lon":139.428196},{"name":"＊?中央公民館","province":"東京都","city":"東大和市","address":"東大和市中央3-926","lat":35.744629,"lon":139.426497},{"name":"＊?南街公民館","province":"東京都","city":"東大和市","address":"東大和市南街5-32","lat":35.73718,"lon":139.431539},{"name":"＊?狭山公民館","province":"東京都","city":"東大和市","address":"東大和市狭山3-1344-1","lat":35.755845,"lon":139.437658},{"name":"＊?蔵敷公民館","province":"東京都","city":"東大和市","address":"東大和市蔵敷2-337","lat":35.754241,"lon":139.41623},{"name":"＊?上北台公民館","province":"東京都","city":"東大和市","address":"東大和市上北台2-865-9","lat":35.742872,"lon":139.414729},{"name":"上北台給水所","province":"東京都","city":"東大和市","address":"東京都東大和市上北台1-801-1","lat":35.7466078,"lon":139.413939},{"name":"東大和給水所","province":"東京都","city":"東大和市","address":"東京都東大和市桜が丘3-44","lat":35.7312269,"lon":139.428196},{"name":"＊?中央公民館","province":"東京都","city":"東大和市","address":"東大和市中央3-926","lat":35.744629,"lon":139.426497},{"name":"＊?南街公民館","province":"東京都","city":"東大和市","address":"東大和市南街5-32","lat":35.73718,"lon":139.431539},{"name":"＊?狭山公民館","province":"東京都","city":"東大和市","address":"東大和市狭山3-1344-1","lat":35.755845,"lon":139.437658},{"name":"＊?蔵敷公民館","province":"東京都","city":"東大和市","address":"東大和市蔵敷2-337","lat":35.754241,"lon":139.41623},{"name":"＊?上北台公民館","province":"東京都","city":"東大和市","address":"東大和市上北台2-865-9","lat":35.742872,"lon":139.414729},{"name":"上北台給水所","province":"東京都","city":"東大和市","address":"東京都東大和市上北台1-801-1","lat":35.7466078,"lon":139.413939},{"name":"東大和給水所","province":"東京都","city":"東大和市","address":"東京都東大和市桜が丘3-44","lat":35.7312269,"lon":139.428196},{"name":"＊?中央公民館","province":"東京都","city":"東大和市","address":"東大和市中央3-926","lat":35.744629,"lon":139.426497},{"name":"＊?南街公民館","province":"東京都","city":"東大和市","address":"東大和市南街5-32","lat":35.73718,"lon":139.431539},{"name":"＊?狭山公民館","province":"東京都","city":"東大和市","address":"東大和市狭山3-1344-1","lat":35.755845,"lon":139.437658},{"name":"＊?蔵敷公民館","province":"東京都","city":"東大和市","address":"東大和市蔵敷2-337","lat":35.754241,"lon":139.41623},{"name":"＊?上北台公民館","province":"東京都","city":"東大和市","address":"東大和市上北台2-865-9","lat":35.742872,"lon":139.414729},{"name":"上北台給水所","province":"東京都","city":"東大和市","address":"東京都東大和市上北台1-801-1","lat":35.7466078,"lon":139.413939},{"name":"東大和給水所","province":"東京都","city":"東大和市","address":"東京都東大和市桜が丘3-44","lat":35.7312269,"lon":139.428196},{"name":"＊?中央公民館","province":"東京都","city":"東大和市","address":"東大和市中央3-926","lat":35.744629,"lon":139.426497},{"name":"＊?南街公民館","province":"東京都","city":"東大和市","address":"東大和市南街5-32","lat":35.73718,"lon":139.431539},{"name":"＊?狭山公民館","province":"東京都","city":"東大和市","address":"東大和市狭山3-1344-1","lat":35.755845,"lon":139.437658},{"name":"＊?蔵敷公民館","province":"東京都","city":"東大和市","address":"東大和市蔵敷2-337","lat":35.754241,"lon":139.41623},{"name":"＊?上北台公民館","province":"東京都","city":"東大和市","address":"東大和市上北台2-865-9","lat":35.742872,"lon":139.414729},{"name":"上北台給水所","province":"東京都","city":"東大和市","address":"東京都東大和市上北台1-801-1","lat":35.7466078,"lon":139.413939},{"name":"東大和給水所","province":"東京都","city":"東大和市","address":"東京都東大和市桜が丘3-44","lat":35.7312269,"lon":139.428196},{"name":"＊?中央公民館","province":"東京都","city":"東大和市","address":"東大和市中央3-926","lat":35.744629,"lon":139.426497},{"name":"＊?南街公民館","province":"東京都","city":"東大和市","address":"東大和市南街5-32","lat":35.73718,"lon":139.431539},{"name":"＊?狭山公民館","province":"東京都","city":"東大和市","address":"東大和市狭山3-1344-1","lat":35.755845,"lon":139.437658},{"name":"＊?蔵敷公民館","province":"東京都","city":"東大和市","address":"東大和市蔵敷2-337","lat":35.754241,"lon":139.41623},{"name":"＊?上北台公民館","province":"東京都","city":"東大和市","address":"東大和市上北台2-865-9","lat":35.742872,"lon":139.414729},{"name":"上北台給水所","province":"東京都","city":"東大和市","address":"東京都東大和市上北台1-801-1","lat":35.7466078,"lon":139.413939},{"name":"東大和給水所","province":"東京都","city":"東大和市","address":"東京都東大和市桜が丘3-44","lat":35.7312269,"lon":139.428196},{"name":"＊?中央公民館","province":"東京都","city":"東大和市","address":"東大和市中央3-926","lat":35.744629,"lon":139.426497},{"name":"＊?南街公民館","province":"東京都","city":"東大和市","address":"東大和市南街5-32","lat":35.73718,"lon":139.431539},{"name":"＊?狭山公民館","province":"東京都","city":"東大和市","address":"東大和市狭山3-1344-1","lat":35.755845,"lon":139.437658},{"name":"＊?蔵敷公民館","province":"東京都","city":"東大和市","address":"東大和市蔵敷2-337","lat":35.754241,"lon":139.41623},{"name":"＊?上北台公民館","province":"東京都","city":"東大和市","address":"東大和市上北台2-865-9","lat":35.742872,"lon":139.414729},{"name":"上北台給水所","province":"東京都","city":"東大和市","address":"東京都東大和市上北台1-801-1","lat":35.7466078,"lon":139.413939},{"name":"東大和給水所","province":"東京都","city":"東大和市","address":"東京都東大和市桜が丘3-44","lat":35.7312269,"lon":139.428196},{"name":"＊?中央公民館","province":"東京都","city":"東大和市","address":"東大和市中央3-926","lat":35.744629,"lon":139.426497},{"name":"＊?南街公民館","province":"東京都","city":"東大和市","address":"東大和市南街5-32","lat":35.73718,"lon":139.431539},{"name":"＊?狭山公民館","province":"東京都","city":"東大和市","address":"東大和市狭山3-1344-1","lat":35.755845,"lon":139.437658},{"name":"＊?蔵敷公民館","province":"東京都","city":"東大和市","address":"東大和市蔵敷2-337","lat":35.754241,"lon":139.41623},{"name":"＊?上北台公民館","province":"東京都","city":"東大和市","address":"東大和市上北台2-865-9","lat":35.742872,"lon":139.414729},{"name":"上北台給水所","province":"東京都","city":"東大和市","address":"東京都東大和市上北台1-801-1","lat":35.7466078,"lon":139.413939},{"name":"東大和給水所","province":"東京都","city":"東大和市","address":"東京都東大和市桜が丘3-44","lat":35.7312269,"lon":139.428196},{"name":"＊?中央公民館","province":"東京都","city":"東大和市","address":"東大和市中央3-926","lat":35.744629,"lon":139.426497},{"name":"＊?南街公民館","province":"東京都","city":"東大和市","address":"東大和市南街5-32","lat":35.73718,"lon":139.431539},{"name":"＊?狭山公民館","province":"東京都","city":"東大和市","address":"東大和市狭山3-1344-1","lat":35.755845,"lon":139.437658},{"name":"＊?蔵敷公民館","province":"東京都","city":"東大和市","address":"東大和市蔵敷2-337","lat":35.754241,"lon":139.41623},{"name":"＊?上北台公民館","province":"東京都","city":"東大和市","address":"東大和市上北台2-865-9","lat":35.742872,"lon":139.414729},{"name":"上北台給水所","province":"東京都","city":"東大和市","address":"東京都東大和市上北台1-801-1","lat":35.7466078,"lon":139.413939},{"name":"東大和給水所","province":"東京都","city":"東大和市","address":"東京都東大和市桜が丘3-44","lat":35.7312269,"lon":139.428196},{"name":"＊?中央公民館","province":"東京都","city":"東大和市","address":"東大和市中央3-926","lat":35.744629,"lon":139.426497},{"name":"＊?南街公民館","province":"東京都","city":"東大和市","address":"東大和市南街5-32","lat":35.73718,"lon":139.431539},{"name":"＊?狭山公民館","province":"東京都","city":"東大和市","address":"東大和市狭山3-1344-1","lat":35.755845,"lon":139.437658},{"name":"＊?蔵敷公民館","province":"東京都","city":"東大和市","address":"東大和市蔵敷2-337","lat":35.754241,"lon":139.41623},{"name":"＊?上北台公民館","province":"東京都","city":"東大和市","address":"東大和市上北台2-865-9","lat":35.742872,"lon":139.414729},{"name":"上北台給水所","province":"東京都","city":"東大和市","address":"東京都東大和市上北台1-801-1","lat":35.7466078,"lon":139.413939},{"name":"東大和給水所","province":"東京都","city":"東大和市","address":"東京都東大和市桜が丘3-44","lat":35.7312269,"lon":139.428196},{"name":"＊?中央公民館","province":"東京都","city":"東大和市","address":"東大和市中央3-926","lat":35.744629,"lon":139.426497},{"name":"＊?南街公民館","province":"東京都","city":"東大和市","address":"東大和市南街5-32","lat":35.73718,"lon":139.431539},{"name":"＊?狭山公民館","province":"東京都","city":"東大和市","address":"東大和市狭山3-1344-1","lat":35.755845,"lon":139.437658},{"name":"＊?蔵敷公民館","province":"東京都","city":"東大和市","address":"東大和市蔵敷2-337","lat":35.754241,"lon":139.41623},{"name":"＊?上北台公民館","province":"東京都","city":"東大和市","address":"東大和市上北台2-865-9","lat":35.742872,"lon":139.414729},{"name":"上北台給水所","province":"東京都","city":"東大和市","address":"東京都東大和市上北台1-801-1","lat":35.7466078,"lon":139.413939},{"name":"東大和給水所","province":"東京都","city":"東大和市","address":"東京都東大和市桜が丘3-44","lat":35.7312269,"lon":139.428196},{"name":"＊?中央公民館","province":"東京都","city":"東大和市","address":"東大和市中央3-926","lat":35.744629,"lon":139.426497},{"name":"＊?南街公民館","province":"東京都","city":"東大和市","address":"東大和市南街5-32","lat":35.73718,"lon":139.431539},{"name":"＊?狭山公民館","province":"東京都","city":"東大和市","address":"東大和市狭山3-1344-1","lat":35.755845,"lon":139.437658},{"name":"＊?蔵敷公民館","province":"東京都","city":"東大和市","address":"東大和市蔵敷2-337","lat":35.754241,"lon":139.41623},{"name":"＊?上北台公民館","province":"東京都","city":"東大和市","address":"東大和市上北台2-865-9","lat":35.742872,"lon":139.414729}]}