{"keyword":"名木","data":[{"name":"東大和市","province":"東京都","city":"東大和市","address":"東大和市中央3-930","lat":35.7447136,"lon":139.4270378},{"name":"都立東大和南公園","province":"東京都","city":"東大和市","address":"東京都東大和市桜が丘2丁目106-2","lat":35.73352264,"lon":139.42463515},{"name":"東大和市立第６小学校校庭","province":"東京都","city":"東大和市","address":"東京都東大和市仲原1丁目5-1","lat":35.74447733,"lon":139.44344144},{"name":"東大和市狭山公民館","province":"東京都","city":"東大和市","address":"東大和市狭山3-1344-1","lat":35.755856,"lon":139.436737},{"name":"東大和市上北台公民館","province":"東京都","city":"東大和市","address":"東大和市上北台2-865-9","lat":35.743282,"lon":139.414459},{"name":"東大和市蔵敷公民館","province":"東京都","city":"東大和市","address":"東大和市蔵敷2-337","lat":35.753933,"lon":139.416504},{"name":"東大和市中央公民館","province":"東京都","city":"東大和市","address":"東大和市中央3-926","lat":35.744637,"lon":139.426392},{"name":"東大和市南街公民館","province":"東京都","city":"東大和市","address":"東大和市南街5-32","lat":35.737179,"lon":139.431503},{"name":"東大和市立桜が丘図書館","province":"東京都","city":"東大和市","address":"東大和市桜が丘3-44-13","lat":35.734173,"lon":139.418442},{"name":"東大和市立清原図書館","province":"東京都","city":"東大和市","address":"東大和市清原4-1","lat":35.74258,"lon":139.445419},{"name":"東大和市立中央図書館","province":"東京都","city":"東大和市","address":"東大和市中央3-930","lat":35.745262,"lon":139.426498},{"name":"東大和市立郷土博物館","province":"東京都","city":"東大和市","address":"東大和市奈良橋1-260-2","lat":35.756416,"lon":139.422241},{"name":"東大和市","province":"東京都","city":"東大和市","address":"東大和市中央3-930","lat":35.7447136,"lon":139.4270378},{"name":"都立東大和南公園","province":"東京都","city":"東大和市","address":"東京都東大和市桜が丘2丁目106-2","lat":35.73352264,"lon":139.42463515},{"name":"東大和市立第６小学校校庭","province":"東京都","city":"東大和市","address":"東京都東大和市仲原1丁目5-1","lat":35.74447733,"lon":139.44344144},{"name":"東大和市狭山公民館","province":"東京都","city":"東大和市","address":"東大和市狭山3-1344-1","lat":35.755856,"lon":139.436737},{"name":"東大和市上北台公民館","province":"東京都","city":"東大和市","address":"東大和市上北台2-865-9","lat":35.743282,"lon":139.414459},{"name":"東大和市蔵敷公民館","province":"東京都","city":"東大和市","address":"東大和市蔵敷2-337","lat":35.753933,"lon":139.416504},{"name":"東大和市中央公民館","province":"東京都","city":"東大和市","address":"東大和市中央3-926","lat":35.744637,"lon":139.426392},{"name":"東大和市南街公民館","province":"東京都","city":"東大和市","address":"東大和市南街5-32","lat":35.737179,"lon":139.431503},{"name":"東大和市立桜が丘図書館","province":"東京都","city":"東大和市","address":"東大和市桜が丘3-44-13","lat":35.734173,"lon":139.418442},{"name":"東大和市立清原図書館","province":"東京都","city":"東大和市","address":"東大和市清原4-1","lat":35.74258,"lon":139.445419},{"name":"東大和市立中央図書館","province":"東京都","city":"東大和市","address":"東大和市中央3-930","lat":35.745262,"lon":139.426498},{"name":"東大和市立郷土博物館","province":"東京都","city":"東大和市","address":"東大和市奈良橋1-260-2","lat":35.756416,"lon":139.422241},{"name":"東大和市","province":"東京都","city":"東大和市","address":"東大和市中央3-930","lat":35.7447136,"lon":139.4270378},{"name":"都立東大和南公園","province":"東京都","city":"東大和市","address":"東京都東大和市桜が丘2丁目106-2","lat":35.73352264,"lon":139.42463515},{"name":"東大和市立第６小学校校庭","province":"東京都","city":"東大和市","address":"東京都東大和市仲原1丁目5-1","lat":35.74447733,"lon":139.44344144},{"name":"東大和市狭山公民館","province":"東京都","city":"東大和市","address":"東大和市狭山3-1344-1","lat":35.755856,"lon":139.436737},{"name":"東大和市上北台公民館","province":"東京都","city":"東大和市","address":"東大和市上北台2-865-9","lat":35.743282,"lon":139.414459},{"name":"東大和市蔵敷公民館","province":"東京都","city":"東大和市","address":"東大和市蔵敷2-337","lat":35.753933,"lon":139.416504},{"name":"東大和市中央公民館","province":"東京都","city":"東大和市","address":"東大和市中央3-926","lat":35.744637,"lon":139.426392},{"name":"東大和市南街公民館","province":"東京都","city":"東大和市","address":"東大和市南街5-32","lat":35.737179,"lon":139.431503},{"name":"東大和市立桜が丘図書館","province":"東京都","city":"東大和市","address":"東大和市桜が丘3-44-13","lat":35.734173,"lon":139.418442},{"name":"東大和市立清原図書館","province":"東京都","city":"東大和市","address":"東大和市清原4-1","lat":35.74258,"lon":139.445419},{"name":"東大和市立中央図書館","province":"東京都","city":"東大和市","address":"東大和市中央3-930","lat":35.745262,"lon":139.426498},{"name":"東大和市立郷土博物館","province":"東京都","city":"東大和市","address":"東大和市奈良橋1-260-2","lat":35.756416,"lon":139.422241},{"name":"東大和市","province":"東京都","city":"東大和市","address":"東大和市中央3-930","lat":35.7447136,"lon":139.4270378},{"name":"都立東大和南公園","province":"東京都","city":"東大和市","address":"東京都東大和市桜が丘2丁目106-2","lat":35.73352264,"lon":139.42463515},{"name":"東大和市立第６小学校校庭","province":"東京都","city":"東大和市","address":"東京都東大和市仲原1丁目5-1","lat":35.74447733,"lon":139.44344144},{"name":"東大和市狭山公民館","province":"東京都","city":"東大和市","address":"東大和市狭山3-1344-1","lat":35.755856,"lon":139.436737},{"name":"東大和市上北台公民館","province":"東京都","city":"東大和市","address":"東大和市上北台2-865-9","lat":35.743282,"lon":139.414459},{"name":"東大和市蔵敷公民館","province":"東京都","city":"東大和市","address":"東大和市蔵敷2-337","lat":35.753933,"lon":139.416504},{"name":"東大和市中央公民館","province":"東京都","city":"東大和市","address":"東大和市中央3-926","lat":35.744637,"lon":139.426392},{"name":"東大和市南街公民館","province":"東京都","city":"東大和市","address":"東大和市南街5-32","lat":35.737179,"lon":139.431503},{"name":"東大和市立桜が丘図書館","province":"東京都","city":"東大和市","address":"東大和市桜が丘3-44-13","lat":35.734173,"lon":139.418442},{"name":"東大和市立清原図書館","province":"東京都","city":"東大和市","address":"東大和市清原4-1","lat":35.74258,"lon":139.445419},{"name":"東大和市立中央図書館","province":"東京都","city":"東大和市","address":"東大和市中央3-930","lat":35.745262,"lon":139.426498},{"name":"東大和市立郷土博物館","province":"東京都","city":"東大和市","address":"東大和市奈良橋1-260-2","lat":35.756416,"lon":139.422241},{"name":"東大和市","province":"東京都","city":"東大和市","address":"東大和市中央3-930","lat":35.7447136,"lon":139.4270378},{"name":"都立東大和南公園","province":"東京都","city":"東大和市","address":"東京都東大和市桜が丘2丁目106-2","lat":35.73352264,"lon":139.42463515},{"name":"東大和市立第６小学校校庭","province":"東京都","city":"東大和市","address":"東京都東大和市仲原1丁目5-1","lat":35.74447733,"lon":139.44344144},{"name":"東大和市狭山公民館","province":"東京都","city":"東大和市","address":"東大和市狭山3-1344-1","lat":35.755856,"lon":139.436737},{"name":"東大和市上北台公民館","province":"東京都","city":"東大和市","address":"東大和市上北台2-865-9","lat":35.743282,"lon":139.414459},{"name":"東大和市蔵敷公民館","province":"東京都","city":"東大和市","address":"東大和市蔵敷2-337","lat":35.753933,"lon":139.416504},{"name":"東大和市中央公民館","province":"東京都","city":"東大和市","address":"東大和市中央3-926","lat":35.744637,"lon":139.426392},{"name":"東大和市南街公民館","province":"東京都","city":"東大和市","address":"東大和市南街5-32","lat":35.737179,"lon":139.431503},{"name":"東大和市立桜が丘図書館","province":"東京都","city":"東大和市","address":"東大和市桜が丘3-44-13","lat":35.734173,"lon":139.418442},{"name":"東大和市立清原図書館","province":"東京都","city":"東大和市","address":"東大和市清原4-1","lat":35.74258,"lon":139.445419},{"name":"東大和市立中央図書館","province":"東京都","city":"東大和市","address":"東大和市中央3-930","lat":35.745262,"lon":139.426498},{"name":"東大和市立郷土博物館","province":"東京都","city":"東大和市","address":"東大和市奈良橋1-260-2","lat":35.756416,"lon":139.422241},{"name":"東大和市","province":"東京都","city":"東大和市","address":"東大和市中央3-930","lat":35.7447136,"lon":139.4270378},{"name":"都立東大和南公園","province":"東京都","city":"東大和市","address":"東京都東大和市桜が丘2丁目106-2","lat":35.73352264,"lon":139.42463515},{"name":"東大和市立第６小学校校庭","province":"東京都","city":"東大和市","address":"東京都東大和市仲原1丁目5-1","lat":35.74447733,"lon":139.44344144},{"name":"東大和市狭山公民館","province":"東京都","city":"東大和市","address":"東大和市狭山3-1344-1","lat":35.755856,"lon":139.436737},{"name":"東大和市上北台公民館","province":"東京都","city":"東大和市","address":"東大和市上北台2-865-9","lat":35.743282,"lon":139.414459},{"name":"東大和市蔵敷公民館","province":"東京都","city":"東大和市","address":"東大和市蔵敷2-337","lat":35.753933,"lon":139.416504},{"name":"東大和市中央公民館","province":"東京都","city":"東大和市","address":"東大和市中央3-926","lat":35.744637,"lon":139.426392},{"name":"東大和市南街公民館","province":"東京都","city":"東大和市","address":"東大和市南街5-32","lat":35.737179,"lon":139.431503},{"name":"東大和市立桜が丘図書館","province":"東京都","city":"東大和市","address":"東大和市桜が丘3-44-13","lat":35.734173,"lon":139.418442},{"name":"東大和市立清原図書館","province":"東京都","city":"東大和市","address":"東大和市清原4-1","lat":35.74258,"lon":139.445419},{"name":"東大和市立中央図書館","province":"東京都","city":"東大和市","address":"東大和市中央3-930","lat":35.745262,"lon":139.426498},{"name":"東大和市立郷土博物館","province":"東京都","city":"東大和市","address":"東大和市奈良橋1-260-2","lat":35.756416,"lon":139.422241},{"name":"東大和市","province":"東京都","city":"東大和市","address":"東大和市中央3-930","lat":35.7447136,"lon":139.4270378},{"name":"東大和市狭山公民館","province":"東京都","city":"東大和市","address":"東大和市狭山3-1344-1","lat":35.755856,"lon":139.436737},{"name":"東大和市上北台公民館","province":"東京都","city":"東大和市","address":"東大和市上北台2-865-9","lat":35.743282,"lon":139.414459},{"name":"東大和市蔵敷公民館","province":"東京都","city":"東大和市","address":"東大和市蔵敷2-337","lat":35.753933,"lon":139.416504},{"name":"東大和市中央公民館","province":"東京都","city":"東大和市","address":"東大和市中央3-926","lat":35.744637,"lon":139.426392},{"name":"東大和市南街公民館","province":"東京都","city":"東大和市","address":"東大和市南街5-32","lat":35.737179,"lon":139.431503},{"name":"東大和市立桜が丘図書館","province":"東京都","city":"東大和市","address":"東大和市桜が丘3-44-13","lat":35.734173,"lon":139.418442},{"name":"東大和市立清原図書館","province":"東京都","city":"東大和市","address":"東大和市清原4-1","lat":35.74258,"lon":139.445419},{"name":"東大和市立中央図書館","province":"東京都","city":"東大和市","address":"東大和市中央3-930","lat":35.745262,"lon":139.426498},{"name":"東大和市立郷土博物館","province":"東京都","city":"東大和市","address":"東大和市奈良橋1-260-2","lat":35.756416,"lon":139.422241},{"name":"東大和市","province":"東京都","city":"東大和市","address":"東大和市中央3-930","lat":35.7447136,"lon":139.4270378},{"name":"東大和市狭山公民館","province":"東京都","city":"東大和市","address":"東大和市狭山3-1344-1","lat":35.755856,"lon":139.436737},{"name":"東大和市上北台公民館","province":"東京都","city":"東大和市","address":"東大和市上北台2-865-9","lat":35.743282,"lon":139.414459},{"name":"東大和市蔵敷公民館","province":"東京都","city":"東大和市","address":"東大和市蔵敷2-337","lat":35.753933,"lon":139.416504},{"name":"東大和市中央公民館","province":"東京都","city":"東大和市","address":"東大和市中央3-926","lat":35.744637,"lon":139.426392},{"name":"東大和市南街公民館","province":"東京都","city":"東大和市","address":"東大和市南街5-32","lat":35.737179,"lon":139.431503},{"name":"東大和市立桜が丘図書館","province":"東京都","city":"東大和市","address":"東大和市桜が丘3-44-13","lat":35.734173,"lon":139.418442},{"name":"東大和市立清原図書館","province":"東京都","city":"東大和市","address":"東大和市清原4-1","lat":35.74258,"lon":139.445419},{"name":"東大和市立中央図書館","province":"東京都","city":"東大和市","address":"東大和市中央3-930","lat":35.745262,"lon":139.426498},{"name":"東大和市立郷土博物館","province":"東京都","city":"東大和市","address":"東大和市奈良橋1-260-2","lat":35.756416,"lon":139.422241},{"name":"東大和市","province":"東京都","city":"東大和市","address":"東大和市中央3-930","lat":35.7447136,"lon":139.4270378},{"name":"東大和市狭山公民館","province":"東京都","city":"東大和市","address":"東大和市狭山3-1344-1","lat":35.755856,"lon":139.436737},{"name":"東大和市上北台公民館","province":"東京都","city":"東大和市","address":"東大和市上北台2-865-9","lat":35.743282,"lon":139.414459},{"name":"東大和市蔵敷公民館","province":"東京都","city":"東大和市","address":"東大和市蔵敷2-337","lat":35.753933,"lon":139.416504},{"name":"東大和市中央公民館","province":"東京都","city":"東大和市","address":"東大和市中央3-926","lat":35.744637,"lon":139.426392},{"name":"東大和市南街公民館","province":"東京都","city":"東大和市","address":"東大和市南街5-32","lat":35.737179,"lon":139.431503},{"name":"東大和市立桜が丘図書館","province":"東京都","city":"東大和市","address":"東大和市桜が丘3-44-13","lat":35.734173,"lon":139.418442},{"name":"東大和市立清原図書館","province":"東京都","city":"東大和市","address":"東大和市清原4-1","lat":35.74258,"lon":139.445419},{"name":"東大和市立中央図書館","province":"東京都","city":"東大和市","address":"東大和市中央3-930","lat":35.745262,"lon":139.426498},{"name":"東大和市立郷土博物館","province":"東京都","city":"東大和市","address":"東大和市奈良橋1-260-2","lat":35.756416,"lon":139.422241},{"name":"東大和市","province":"東京都","city":"東大和市","address":"東大和市中央3-930","lat":35.7447136,"lon":139.4270378},{"name":"東大和市狭山公民館","province":"東京都","city":"東大和市","address":"東大和市狭山3-1344-1","lat":35.755856,"lon":139.436737},{"name":"東大和市上北台公民館","province":"東京都","city":"東大和市","address":"東大和市上北台2-865-9","lat":35.743282,"lon":139.414459},{"name":"東大和市蔵敷公民館","province":"東京都","city":"東大和市","address":"東大和市蔵敷2-337","lat":35.753933,"lon":139.416504},{"name":"東大和市中央公民館","province":"東京都","city":"東大和市","address":"東大和市中央3-926","lat":35.744637,"lon":139.426392},{"name":"東大和市南街公民館","province":"東京都","city":"東大和市","address":"東大和市南街5-32","lat":35.737179,"lon":139.431503},{"name":"東大和市立桜が丘図書館","province":"東京都","city":"東大和市","address":"東大和市桜が丘3-44-13","lat":35.734173,"lon":139.418442},{"name":"東大和市立清原図書館","province":"東京都","city":"東大和市","address":"東大和市清原4-1","lat":35.74258,"lon":139.445419},{"name":"東大和市立中央図書館","province":"東京都","city":"東大和市","address":"東大和市中央3-930","lat":35.745262,"lon":139.426498},{"name":"東大和市立郷土博物館","province":"東京都","city":"東大和市","address":"東大和市奈良橋1-260-2","lat":35.756416,"lon":139.422241},{"name":"東大和市","province":"東京都","city":"東大和市","address":"東大和市中央3-930","lat":35.7447136,"lon":139.4270378},{"name":"東大和市狭山公民館","province":"東京都","city":"東大和市","address":"東大和市狭山3-1344-1","lat":35.755856,"lon":139.436737},{"name":"東大和市上北台公民館","province":"東京都","city":"東大和市","address":"東大和市上北台2-865-9","lat":35.743282,"lon":139.414459},{"name":"東大和市蔵敷公民館","province":"東京都","city":"東大和市","address":"東大和市蔵敷2-337","lat":35.753933,"lon":139.416504},{"name":"東大和市中央公民館","province":"東京都","city":"東大和市","address":"東大和市中央3-926","lat":35.744637,"lon":139.426392},{"name":"東大和市南街公民館","province":"東京都","city":"東大和市","address":"東大和市南街5-32","lat":35.737179,"lon":139.431503},{"name":"東大和市立桜が丘図書館","province":"東京都","city":"東大和市","address":"東大和市桜が丘3-44-13","lat":35.734173,"lon":139.418442},{"name":"東大和市立清原図書館","province":"東京都","city":"東大和市","address":"東大和市清原4-1","lat":35.74258,"lon":139.445419},{"name":"東大和市立中央図書館","province":"東京都","city":"東大和市","address":"東大和市中央3-930","lat":35.745262,"lon":139.426498},{"name":"東大和市立郷土博物館","province":"東京都","city":"東大和市","address":"東大和市奈良橋1-260-2","lat":35.756416,"lon":139.422241},{"name":"東大和市","province":"東京都","city":"東大和市","address":"東大和市中央3-930","lat":35.7447136,"lon":139.4270378},{"name":"東大和市狭山公民館","province":"東京都","city":"東大和市","address":"東大和市狭山3-1344-1","lat":35.755856,"lon":139.436737},{"name":"東大和市上北台公民館","province":"東京都","city":"東大和市","address":"東大和市上北台2-865-9","lat":35.743282,"lon":139.414459},{"name":"東大和市蔵敷公民館","province":"東京都","city":"東大和市","address":"東大和市蔵敷2-337","lat":35.753933,"lon":139.416504},{"name":"東大和市中央公民館","province":"東京都","city":"東大和市","address":"東大和市中央3-926","lat":35.744637,"lon":139.426392},{"name":"東大和市南街公民館","province":"東京都","city":"東大和市","address":"東大和市南街5-32","lat":35.737179,"lon":139.431503},{"name":"東大和市立桜が丘図書館","province":"東京都","city":"東大和市","address":"東大和市桜が丘3-44-13","lat":35.734173,"lon":139.418442},{"name":"東大和市立清原図書館","province":"東京都","city":"東大和市","address":"東大和市清原4-1","lat":35.74258,"lon":139.445419},{"name":"東大和市立中央図書館","province":"東京都","city":"東大和市","address":"東大和市中央3-930","lat":35.745262,"lon":139.426498},{"name":"東大和市立郷土博物館","province":"東京都","city":"東大和市","address":"東大和市奈良橋1-260-2","lat":35.756416,"lon":139.422241},{"name":"東大和市","province":"東京都","city":"東大和市","address":"東大和市中央3-930","lat":35.7447136,"lon":139.4270378},{"name":"東大和市狭山公民館","province":"東京都","city":"東大和市","address":"東大和市狭山3-1344-1","lat":35.755856,"lon":139.436737},{"name":"東大和市上北台公民館","province":"東京都","city":"東大和市","address":"東大和市上北台2-865-9","lat":35.743282,"lon":139.414459},{"name":"東大和市蔵敷公民館","province":"東京都","city":"東大和市","address":"東大和市蔵敷2-337","lat":35.753933,"lon":139.416504},{"name":"東大和市中央公民館","province":"東京都","city":"東大和市","address":"東大和市中央3-926","lat":35.744637,"lon":139.426392},{"name":"東大和市南街公民館","province":"東京都","city":"東大和市","address":"東大和市南街5-32","lat":35.737179,"lon":139.431503},{"name":"東大和市立桜が丘図書館","province":"東京都","city":"東大和市","address":"東大和市桜が丘3-44-13","lat":35.734173,"lon":139.418442},{"name":"東大和市立清原図書館","province":"東京都","city":"東大和市","address":"東大和市清原4-1","lat":35.74258,"lon":139.445419},{"name":"東大和市立中央図書館","province":"東京都","city":"東大和市","address":"東大和市中央3-930","lat":35.745262,"lon":139.426498},{"name":"東大和市立郷土博物館","province":"東京都","city":"東大和市","address":"東大和市奈良橋1-260-2","lat":35.756416,"lon":139.422241},{"name":"東大和市","province":"東京都","city":"東大和市","address":"東大和市中央3-930","lat":35.7447136,"lon":139.4270378},{"name":"東大和市狭山公民館","province":"東京都","city":"東大和市","address":"東大和市狭山3-1344-1","lat":35.755856,"lon":139.436737},{"name":"東大和市上北台公民館","province":"東京都","city":"東大和市","address":"東大和市上北台2-865-9","lat":35.743282,"lon":139.414459},{"name":"東大和市蔵敷公民館","province":"東京都","city":"東大和市","address":"東大和市蔵敷2-337","lat":35.753933,"lon":139.416504},{"name":"東大和市中央公民館","province":"東京都","city":"東大和市","address":"東大和市中央3-926","lat":35.744637,"lon":139.426392},{"name":"東大和市南街公民館","province":"東京都","city":"東大和市","address":"東大和市南街5-32","lat":35.737179,"lon":139.431503},{"name":"東大和市立桜が丘図書館","province":"東京都","city":"東大和市","address":"東大和市桜が丘3-44-13","lat":35.734173,"lon":139.418442},{"name":"東大和市立清原図書館","province":"東京都","city":"東大和市","address":"東大和市清原4-1","lat":35.74258,"lon":139.445419},{"name":"東大和市立中央図書館","province":"東京都","city":"東大和市","address":"東大和市中央3-930","lat":35.745262,"lon":139.426498},{"name":"東大和市立郷土博物館","province":"東京都","city":"東大和市","address":"東大和市奈良橋1-260-2","lat":35.756416,"lon":139.422241},{"name":"東大和市","province":"東京都","city":"東大和市","address":"東大和市中央3-930","lat":35.7447136,"lon":139.4270378},{"name":"東大和市狭山公民館","province":"東京都","city":"東大和市","address":"東大和市狭山3-1344-1","lat":35.755856,"lon":139.436737},{"name":"東大和市上北台公民館","province":"東京都","city":"東大和市","address":"東大和市上北台2-865-9","lat":35.743282,"lon":139.414459},{"name":"東大和市蔵敷公民館","province":"東京都","city":"東大和市","address":"東大和市蔵敷2-337","lat":35.753933,"lon":139.416504},{"name":"東大和市中央公民館","province":"東京都","city":"東大和市","address":"東大和市中央3-926","lat":35.744637,"lon":139.426392},{"name":"東大和市南街公民館","province":"東京都","city":"東大和市","address":"東大和市南街5-32","lat":35.737179,"lon":139.431503},{"name":"東大和市立桜が丘図書館","province":"東京都","city":"東大和市","address":"東大和市桜が丘3-44-13","lat":35.734173,"lon":139.418442},{"name":"東大和市立清原図書館","province":"東京都","city":"東大和市","address":"東大和市清原4-1","lat":35.74258,"lon":139.445419},{"name":"東大和市立中央図書館","province":"東京都","city":"東大和市","address":"東大和市中央3-930","lat":35.745262,"lon":139.426498},{"name":"東大和市立郷土博物館","province":"東京都","city":"東大和市","address":"東大和市奈良橋1-260-2","lat":35.756416,"lon":139.422241},{"name":"東大和市","province":"東京都","city":"東大和市","address":"東大和市中央3-930","lat":35.7447136,"lon":139.4270378},{"name":"東大和市狭山公民館","province":"東京都","city":"東大和市","address":"東大和市狭山3-1344-1","lat":35.755856,"lon":139.436737},{"name":"東大和市上北台公民館","province":"東京都","city":"東大和市","address":"東大和市上北台2-865-9","lat":35.743282,"lon":139.414459},{"name":"東大和市蔵敷公民館","province":"東京都","city":"東大和市","address":"東大和市蔵敷2-337","lat":35.753933,"lon":139.416504},{"name":"東大和市中央公民館","province":"東京都","city":"東大和市","address":"東大和市中央3-926","lat":35.744637,"lon":139.426392},{"name":"東大和市南街公民館","province":"東京都","city":"東大和市","address":"東大和市南街5-32","lat":35.737179,"lon":139.431503},{"name":"東大和市立桜が丘図書館","province":"東京都","city":"東大和市","address":"東大和市桜が丘3-44-13","lat":35.734173,"lon":139.418442},{"name":"東大和市立清原図書館","province":"東京都","city":"東大和市","address":"東大和市清原4-1","lat":35.74258,"lon":139.445419},{"name":"東大和市立中央図書館","province":"東京都","city":"東大和市","address":"東大和市中央3-930","lat":35.745262,"lon":139.426498},{"name":"東大和市立郷土博物館","province":"東京都","city":"東大和市","address":"東大和市奈良橋1-260-2","lat":35.756416,"lon":139.422241},{"name":"東大和市","province":"東京都","city":"東大和市","address":"東大和市中央3-930","lat":35.7447136,"lon":139.4270378},{"name":"東大和市狭山公民館","province":"東京都","city":"東大和市","address":"東大和市狭山3-1344-1","lat":35.755856,"lon":139.436737},{"name":"東大和市上北台公民館","province":"東京都","city":"東大和市","address":"東大和市上北台2-865-9","lat":35.743282,"lon":139.414459},{"name":"東大和市蔵敷公民館","province":"東京都","city":"東大和市","address":"東大和市蔵敷2-337","lat":35.753933,"lon":139.416504},{"name":"東大和市中央公民館","province":"東京都","city":"東大和市","address":"東大和市中央3-926","lat":35.744637,"lon":139.426392},{"name":"東大和市南街公民館","province":"東京都","city":"東大和市","address":"東大和市南街5-32","lat":35.737179,"lon":139.431503},{"name":"東大和市立桜が丘図書館","province":"東京都","city":"東大和市","address":"東大和市桜が丘3-44-13","lat":35.734173,"lon":139.418442},{"name":"東大和市立清原図書館","province":"東京都","city":"東大和市","address":"東大和市清原4-1","lat":35.74258,"lon":139.445419},{"name":"東大和市立中央図書館","province":"東京都","city":"東大和市","address":"東大和市中央3-930","lat":35.745262,"lon":139.426498},{"name":"東大和市立郷土博物館","province":"東京都","city":"東大和市","address":"東大和市奈良橋1-260-2","lat":35.756416,"lon":139.422241},{"name":"東大和市","province":"東京都","city":"東大和市","address":"東大和市中央3-930","lat":35.7447136,"lon":139.4270378},{"name":"東大和市狭山公民館","province":"東京都","city":"東大和市","address":"東大和市狭山3-1344-1","lat":35.755856,"lon":139.436737},{"name":"東大和市上北台公民館","province":"東京都","city":"東大和市","address":"東大和市上北台2-865-9","lat":35.743282,"lon":139.414459},{"name":"東大和市蔵敷公民館","province":"東京都","city":"東大和市","address":"東大和市蔵敷2-337","lat":35.753933,"lon":139.416504},{"name":"東大和市中央公民館","province":"東京都","city":"東大和市","address":"東大和市中央3-926","lat":35.744637,"lon":139.426392},{"name":"東大和市南街公民館","province":"東京都","city":"東大和市","address":"東大和市南街5-32","lat":35.737179,"lon":139.431503},{"name":"東大和市立桜が丘図書館","province":"東京都","city":"東大和市","address":"東大和市桜が丘3-44-13","lat":35.734173,"lon":139.418442},{"name":"東大和市立清原図書館","province":"東京都","city":"東大和市","address":"東大和市清原4-1","lat":35.74258,"lon":139.445419},{"name":"東大和市立中央図書館","province":"東京都","city":"東大和市","address":"東大和市中央3-930","lat":35.745262,"lon":139.426498},{"name":"東大和市立郷土博物館","province":"東京都","city":"東大和市","address":"東大和市奈良橋1-260-2","lat":35.756416,"lon":139.422241},{"name":"東大和市","province":"東京都","city":"東大和市","address":"東大和市中央3-930","lat":35.7447136,"lon":139.4270378},{"name":"東大和市狭山公民館","province":"東京都","city":"東大和市","address":"東大和市狭山3-1344-1","lat":35.755856,"lon":139.436737},{"name":"東大和市上北台公民館","province":"東京都","city":"東大和市","address":"東大和市上北台2-865-9","lat":35.743282,"lon":139.414459},{"name":"東大和市蔵敷公民館","province":"東京都","city":"東大和市","address":"東大和市蔵敷2-337","lat":35.753933,"lon":139.416504},{"name":"東大和市中央公民館","province":"東京都","city":"東大和市","address":"東大和市中央3-926","lat":35.744637,"lon":139.426392},{"name":"東大和市南街公民館","province":"東京都","city":"東大和市","address":"東大和市南街5-32","lat":35.737179,"lon":139.431503},{"name":"東大和市立桜が丘図書館","province":"東京都","city":"東大和市","address":"東大和市桜が丘3-44-13","lat":35.734173,"lon":139.418442},{"name":"東大和市立清原図書館","province":"東京都","city":"東大和市","address":"東大和市清原4-1","lat":35.74258,"lon":139.445419},{"name":"東大和市立中央図書館","province":"東京都","city":"東大和市","address":"東大和市中央3-930","lat":35.745262,"lon":139.426498},{"name":"東大和市立郷土博物館","province":"東京都","city":"東大和市","address":"東大和市奈良橋1-260-2","lat":35.756416,"lon":139.422241},{"name":"東大和市","province":"東京都","city":"東大和市","address":"東大和市中央3-930","lat":35.7447136,"lon":139.4270378},{"name":"東大和市狭山公民館","province":"東京都","city":"東大和市","address":"東大和市狭山3-1344-1","lat":35.755856,"lon":139.436737},{"name":"東大和市上北台公民館","province":"東京都","city":"東大和市","address":"東大和市上北台2-865-9","lat":35.743282,"lon":139.414459},{"name":"東大和市蔵敷公民館","province":"東京都","city":"東大和市","address":"東大和市蔵敷2-337","lat":35.753933,"lon":139.416504},{"name":"東大和市中央公民館","province":"東京都","city":"東大和市","address":"東大和市中央3-926","lat":35.744637,"lon":139.426392},{"name":"東大和市南街公民館","province":"東京都","city":"東大和市","address":"東大和市南街5-32","lat":35.737179,"lon":139.431503},{"name":"東大和市立桜が丘図書館","province":"東京都","city":"東大和市","address":"東大和市桜が丘3-44-13","lat":35.734173,"lon":139.418442},{"name":"東大和市立清原図書館","province":"東京都","city":"東大和市","address":"東大和市清原4-1","lat":35.74258,"lon":139.445419},{"name":"東大和市立中央図書館","province":"東京都","city":"東大和市","address":"東大和市中央3-930","lat":35.745262,"lon":139.426498},{"name":"東大和市立郷土博物館","province":"東京都","city":"東大和市","address":"東大和市奈良橋1-260-2","lat":35.756416,"lon":139.422241},{"name":"東大和市","province":"東京都","city":"東大和市","address":"東大和市中央3-930","lat":35.7447136,"lon":139.4270378},{"name":"東大和市狭山公民館","province":"東京都","city":"東大和市","address":"東大和市狭山3-1344-1","lat":35.755856,"lon":139.436737},{"name":"東大和市上北台公民館","province":"東京都","city":"東大和市","address":"東大和市上北台2-865-9","lat":35.743282,"lon":139.414459},{"name":"東大和市蔵敷公民館","province":"東京都","city":"東大和市","address":"東大和市蔵敷2-337","lat":35.753933,"lon":139.416504},{"name":"東大和市中央公民館","province":"東京都","city":"東大和市","address":"東大和市中央3-926","lat":35.744637,"lon":139.426392},{"name":"東大和市南街公民館","province":"東京都","city":"東大和市","address":"東大和市南街5-32","lat":35.737179,"lon":139.431503},{"name":"東大和市立桜が丘図書館","province":"東京都","city":"東大和市","address":"東大和市桜が丘3-44-13","lat":35.734173,"lon":139.418442},{"name":"東大和市立清原図書館","province":"東京都","city":"東大和市","address":"東大和市清原4-1","lat":35.74258,"lon":139.445419},{"name":"東大和市立中央図書館","province":"東京都","city":"東大和市","address":"東大和市中央3-930","lat":35.745262,"lon":139.426498},{"name":"東大和市立郷土博物館","province":"東京都","city":"東大和市","address":"東大和市奈良橋1-260-2","lat":35.756416,"lon":139.422241},{"name":"東大和市","province":"東京都","city":"東大和市","address":"東大和市中央3-930","lat":35.7447136,"lon":139.4270378},{"name":"東大和市狭山公民館","province":"東京都","city":"東大和市","address":"東大和市狭山3-1344-1","lat":35.755856,"lon":139.436737},{"name":"東大和市上北台公民館","province":"東京都","city":"東大和市","address":"東大和市上北台2-865-9","lat":35.743282,"lon":139.414459},{"name":"東大和市蔵敷公民館","province":"東京都","city":"東大和市","address":"東大和市蔵敷2-337","lat":35.753933,"lon":139.416504},{"name":"東大和市中央公民館","province":"東京都","city":"東大和市","address":"東大和市中央3-926","lat":35.744637,"lon":139.426392},{"name":"東大和市南街公民館","province":"東京都","city":"東大和市","address":"東大和市南街5-32","lat":35.737179,"lon":139.431503},{"name":"東大和市立桜が丘図書館","province":"東京都","city":"東大和市","address":"東大和市桜が丘3-44-13","lat":35.734173,"lon":139.418442},{"name":"東大和市立清原図書館","province":"東京都","city":"東大和市","address":"東大和市清原4-1","lat":35.74258,"lon":139.445419},{"name":"東大和市立中央図書館","province":"東京都","city":"東大和市","address":"東大和市中央3-930","lat":35.745262,"lon":139.426498},{"name":"東大和市立郷土博物館","province":"東京都","city":"東大和市","address":"東大和市奈良橋1-260-2","lat":35.756416,"lon":139.422241},{"name":"東大和市","province":"東京都","city":"東大和市","address":"東大和市中央3-930","lat":35.7447136,"lon":139.4270378},{"name":"東大和市狭山公民館","province":"東京都","city":"東大和市","address":"東大和市狭山3-1344-1","lat":35.755856,"lon":139.436737},{"name":"東大和市上北台公民館","province":"東京都","city":"東大和市","address":"東大和市上北台2-865-9","lat":35.743282,"lon":139.414459},{"name":"東大和市蔵敷公民館","province":"東京都","city":"東大和市","address":"東大和市蔵敷2-337","lat":35.753933,"lon":139.416504},{"name":"東大和市中央公民館","province":"東京都","city":"東大和市","address":"東大和市中央3-926","lat":35.744637,"lon":139.426392},{"name":"東大和市南街公民館","province":"東京都","city":"東大和市","address":"東大和市南街5-32","lat":35.737179,"lon":139.431503},{"name":"東大和市立桜が丘図書館","province":"東京都","city":"東大和市","address":"東大和市桜が丘3-44-13","lat":35.734173,"lon":139.418442},{"name":"東大和市立清原図書館","province":"東京都","city":"東大和市","address":"東大和市清原4-1","lat":35.74258,"lon":139.445419},{"name":"東大和市立中央図書館","province":"東京都","city":"東大和市","address":"東大和市中央3-930","lat":35.745262,"lon":139.426498},{"name":"東大和市立郷土博物館","province":"東京都","city":"東大和市","address":"東大和市奈良橋1-260-2","lat":35.756416,"lon":139.422241},{"name":"東大和市","province":"東京都","city":"東大和市","address":"東大和市中央3-930","lat":35.7447136,"lon":139.4270378},{"name":"東大和市狭山公民館","province":"東京都","city":"東大和市","address":"東大和市狭山3-1344-1","lat":35.755856,"lon":139.436737},{"name":"東大和市上北台公民館","province":"東京都","city":"東大和市","address":"東大和市上北台2-865-9","lat":35.743282,"lon":139.414459},{"name":"東大和市蔵敷公民館","province":"東京都","city":"東大和市","address":"東大和市蔵敷2-337","lat":35.753933,"lon":139.416504},{"name":"東大和市中央公民館","province":"東京都","city":"東大和市","address":"東大和市中央3-926","lat":35.744637,"lon":139.426392},{"name":"東大和市南街公民館","province":"東京都","city":"東大和市","address":"東大和市南街5-32","lat":35.737179,"lon":139.431503},{"name":"東大和市立桜が丘図書館","province":"東京都","city":"東大和市","address":"東大和市桜が丘3-44-13","lat":35.734173,"lon":139.418442},{"name":"東大和市立清原図書館","province":"東京都","city":"東大和市","address":"東大和市清原4-1","lat":35.74258,"lon":139.445419},{"name":"東大和市立中央図書館","province":"東京都","city":"東大和市","address":"東大和市中央3-930","lat":35.745262,"lon":139.426498},{"name":"東大和市立郷土博物館","province":"東京都","city":"東大和市","address":"東大和市奈良橋1-260-2","lat":35.756416,"lon":139.422241},{"name":"東大和市","province":"東京都","city":"東大和市","address":"東大和市中央3-930","lat":35.7447136,"lon":139.4270378},{"name":"東大和市狭山公民館","province":"東京都","city":"東大和市","address":"東大和市狭山3-1344-1","lat":35.755856,"lon":139.436737},{"name":"東大和市上北台公民館","province":"東京都","city":"東大和市","address":"東大和市上北台2-865-9","lat":35.743282,"lon":139.414459},{"name":"東大和市蔵敷公民館","province":"東京都","city":"東大和市","address":"東大和市蔵敷2-337","lat":35.753933,"lon":139.416504},{"name":"東大和市中央公民館","province":"東京都","city":"東大和市","address":"東大和市中央3-926","lat":35.744637,"lon":139.426392},{"name":"東大和市南街公民館","province":"東京都","city":"東大和市","address":"東大和市南街5-32","lat":35.737179,"lon":139.431503},{"name":"東大和市立桜が丘図書館","province":"東京都","city":"東大和市","address":"東大和市桜が丘3-44-13","lat":35.734173,"lon":139.418442},{"name":"東大和市立清原図書館","province":"東京都","city":"東大和市","address":"東大和市清原4-1","lat":35.74258,"lon":139.445419},{"name":"東大和市立中央図書館","province":"東京都","city":"東大和市","address":"東大和市中央3-930","lat":35.745262,"lon":139.426498},{"name":"東大和市立郷土博物館","province":"東京都","city":"東大和市","address":"東大和市奈良橋1-260-2","lat":35.756416,"lon":139.422241},{"name":"東大和市","province":"東京都","city":"東大和市","address":"東大和市中央3-930","lat":35.7447136,"lon":139.4270378},{"name":"東大和市狭山公民館","province":"東京都","city":"東大和市","address":"東大和市狭山3-1344-1","lat":35.755856,"lon":139.436737},{"name":"東大和市上北台公民館","province":"東京都","city":"東大和市","address":"東大和市上北台2-865-9","lat":35.743282,"lon":139.414459},{"name":"東大和市蔵敷公民館","province":"東京都","city":"東大和市","address":"東大和市蔵敷2-337","lat":35.753933,"lon":139.416504},{"name":"東大和市中央公民館","province":"東京都","city":"東大和市","address":"東大和市中央3-926","lat":35.744637,"lon":139.426392},{"name":"東大和市南街公民館","province":"東京都","city":"東大和市","address":"東大和市南街5-32","lat":35.737179,"lon":139.431503},{"name":"東大和市立桜が丘図書館","province":"東京都","city":"東大和市","address":"東大和市桜が丘3-44-13","lat":35.734173,"lon":139.418442},{"name":"東大和市立清原図書館","province":"東京都","city":"東大和市","address":"東大和市清原4-1","lat":35.74258,"lon":139.445419},{"name":"東大和市立中央図書館","province":"東京都","city":"東大和市","address":"東大和市中央3-930","lat":35.745262,"lon":139.426498},{"name":"東大和市立郷土博物館","province":"東京都","city":"東大和市","address":"東大和市奈良橋1-260-2","lat":35.756416,"lon":139.422241},{"name":"東大和市","province":"東京都","city":"東大和市","address":"東大和市中央3-930","lat":35.7447136,"lon":139.4270378},{"name":"東大和市狭山公民館","province":"東京都","city":"東大和市","address":"東大和市狭山3-1344-1","lat":35.755856,"lon":139.436737},{"name":"東大和市上北台公民館","province":"東京都","city":"東大和市","address":"東大和市上北台2-865-9","lat":35.743282,"lon":139.414459},{"name":"東大和市蔵敷公民館","province":"東京都","city":"東大和市","address":"東大和市蔵敷2-337","lat":35.753933,"lon":139.416504},{"name":"東大和市中央公民館","province":"東京都","city":"東大和市","address":"東大和市中央3-926","lat":35.744637,"lon":139.426392},{"name":"東大和市南街公民館","province":"東京都","city":"東大和市","address":"東大和市南街5-32","lat":35.737179,"lon":139.431503},{"name":"東大和市立桜が丘図書館","province":"東京都","city":"東大和市","address":"東大和市桜が丘3-44-13","lat":35.734173,"lon":139.418442},{"name":"東大和市立清原図書館","province":"東京都","city":"東大和市","address":"東大和市清原4-1","lat":35.74258,"lon":139.445419},{"name":"東大和市立中央図書館","province":"東京都","city":"東大和市","address":"東大和市中央3-930","lat":35.745262,"lon":139.426498},{"name":"東大和市立郷土博物館","province":"東京都","city":"東大和市","address":"東大和市奈良橋1-260-2","lat":35.756416,"lon":139.422241},{"name":"東大和市","province":"東京都","city":"東大和市","address":"東大和市中央3-930","lat":35.7447136,"lon":139.4270378},{"name":"東大和市狭山公民館","province":"東京都","city":"東大和市","address":"東大和市狭山3-1344-1","lat":35.755856,"lon":139.436737},{"name":"東大和市上北台公民館","province":"東京都","city":"東大和市","address":"東大和市上北台2-865-9","lat":35.743282,"lon":139.414459},{"name":"東大和市蔵敷公民館","province":"東京都","city":"東大和市","address":"東大和市蔵敷2-337","lat":35.753933,"lon":139.416504},{"name":"東大和市中央公民館","province":"東京都","city":"東大和市","address":"東大和市中央3-926","lat":35.744637,"lon":139.426392},{"name":"東大和市南街公民館","province":"東京都","city":"東大和市","address":"東大和市南街5-32","lat":35.737179,"lon":139.431503},{"name":"東大和市立桜が丘図書館","province":"東京都","city":"東大和市","address":"東大和市桜が丘3-44-13","lat":35.734173,"lon":139.418442},{"name":"東大和市立清原図書館","province":"東京都","city":"東大和市","address":"東大和市清原4-1","lat":35.74258,"lon":139.445419},{"name":"東大和市立中央図書館","province":"東京都","city":"東大和市","address":"東大和市中央3-930","lat":35.745262,"lon":139.426498},{"name":"東大和市立郷土博物館","province":"東京都","city":"東大和市","address":"東大和市奈良橋1-260-2","lat":35.756416,"lon":139.422241},{"name":"東大和市","province":"東京都","city":"東大和市","address":"東大和市中央3-930","lat":35.7447136,"lon":139.4270378},{"name":"東大和市狭山公民館","province":"東京都","city":"東大和市","address":"東大和市狭山3-1344-1","lat":35.755856,"lon":139.436737},{"name":"東大和市上北台公民館","province":"東京都","city":"東大和市","address":"東大和市上北台2-865-9","lat":35.743282,"lon":139.414459},{"name":"東大和市蔵敷公民館","province":"東京都","city":"東大和市","address":"東大和市蔵敷2-337","lat":35.753933,"lon":139.416504},{"name":"東大和市中央公民館","province":"東京都","city":"東大和市","address":"東大和市中央3-926","lat":35.744637,"lon":139.426392},{"name":"東大和市南街公民館","province":"東京都","city":"東大和市","address":"東大和市南街5-32","lat":35.737179,"lon":139.431503},{"name":"東大和市立桜が丘図書館","province":"東京都","city":"東大和市","address":"東大和市桜が丘3-44-13","lat":35.734173,"lon":139.418442},{"name":"東大和市立清原図書館","province":"東京都","city":"東大和市","address":"東大和市清原4-1","lat":35.74258,"lon":139.445419},{"name":"東大和市立中央図書館","province":"東京都","city":"東大和市","address":"東大和市中央3-930","lat":35.745262,"lon":139.426498},{"name":"東大和市立郷土博物館","province":"東京都","city":"東大和市","address":"東大和市奈良橋1-260-2","lat":35.756416,"lon":139.422241},{"name":"東大和市","province":"東京都","city":"東大和市","address":"東大和市中央3-930","lat":35.7447136,"lon":139.4270378},{"name":"東大和市狭山公民館","province":"東京都","city":"東大和市","address":"東大和市狭山3-1344-1","lat":35.755856,"lon":139.436737},{"name":"東大和市上北台公民館","province":"東京都","city":"東大和市","address":"東大和市上北台2-865-9","lat":35.743282,"lon":139.414459},{"name":"東大和市蔵敷公民館","province":"東京都","city":"東大和市","address":"東大和市蔵敷2-337","lat":35.753933,"lon":139.416504},{"name":"東大和市中央公民館","province":"東京都","city":"東大和市","address":"東大和市中央3-926","lat":35.744637,"lon":139.426392},{"name":"東大和市南街公民館","province":"東京都","city":"東大和市","address":"東大和市南街5-32","lat":35.737179,"lon":139.431503},{"name":"東大和市立桜が丘図書館","province":"東京都","city":"東大和市","address":"東大和市桜が丘3-44-13","lat":35.734173,"lon":139.418442},{"name":"東大和市立清原図書館","province":"東京都","city":"東大和市","address":"東大和市清原4-1","lat":35.74258,"lon":139.445419},{"name":"東大和市立中央図書館","province":"東京都","city":"東大和市","address":"東大和市中央3-930","lat":35.745262,"lon":139.426498},{"name":"東大和市立郷土博物館","province":"東京都","city":"東大和市","address":"東大和市奈良橋1-260-2","lat":35.756416,"lon":139.422241},{"name":"東大和市","province":"東京都","city":"東大和市","address":"東大和市中央3-930","lat":35.7447136,"lon":139.4270378},{"name":"東大和市狭山公民館","province":"東京都","city":"東大和市","address":"東大和市狭山3-1344-1","lat":35.755856,"lon":139.436737},{"name":"東大和市上北台公民館","province":"東京都","city":"東大和市","address":"東大和市上北台2-865-9","lat":35.743282,"lon":139.414459},{"name":"東大和市蔵敷公民館","province":"東京都","city":"東大和市","address":"東大和市蔵敷2-337","lat":35.753933,"lon":139.416504},{"name":"東大和市中央公民館","province":"東京都","city":"東大和市","address":"東大和市中央3-926","lat":35.744637,"lon":139.426392},{"name":"東大和市南街公民館","province":"東京都","city":"東大和市","address":"東大和市南街5-32","lat":35.737179,"lon":139.431503},{"name":"東大和市立桜が丘図書館","province":"東京都","city":"東大和市","address":"東大和市桜が丘3-44-13","lat":35.734173,"lon":139.418442},{"name":"東大和市立清原図書館","province":"東京都","city":"東大和市","address":"東大和市清原4-1","lat":35.74258,"lon":139.445419},{"name":"東大和市立中央図書館","province":"東京都","city":"東大和市","address":"東大和市中央3-930","lat":35.745262,"lon":139.426498},{"name":"東大和市立郷土博物館","province":"東京都","city":"東大和市","address":"東大和市奈良橋1-260-2","lat":35.756416,"lon":139.422241},{"name":"東大和市","province":"東京都","city":"東大和市","address":"東大和市中央3-930","lat":35.7447136,"lon":139.4270378},{"name":"東大和市狭山公民館","province":"東京都","city":"東大和市","address":"東大和市狭山3-1344-1","lat":35.755856,"lon":139.436737},{"name":"東大和市上北台公民館","province":"東京都","city":"東大和市","address":"東大和市上北台2-865-9","lat":35.743282,"lon":139.414459},{"name":"東大和市蔵敷公民館","province":"東京都","city":"東大和市","address":"東大和市蔵敷2-337","lat":35.753933,"lon":139.416504},{"name":"東大和市中央公民館","province":"東京都","city":"東大和市","address":"東大和市中央3-926","lat":35.744637,"lon":139.426392},{"name":"東大和市南街公民館","province":"東京都","city":"東大和市","address":"東大和市南街5-32","lat":35.737179,"lon":139.431503},{"name":"東大和市立桜が丘図書館","province":"東京都","city":"東大和市","address":"東大和市桜が丘3-44-13","lat":35.734173,"lon":139.418442},{"name":"東大和市立清原図書館","province":"東京都","city":"東大和市","address":"東大和市清原4-1","lat":35.74258,"lon":139.445419},{"name":"東大和市立中央図書館","province":"東京都","city":"東大和市","address":"東大和市中央3-930","lat":35.745262,"lon":139.426498},{"name":"東大和市立郷土博物館","province":"東京都","city":"東大和市","address":"東大和市奈良橋1-260-2","lat":35.756416,"lon":139.422241},{"name":"東大和市","province":"東京都","city":"東大和市","address":"東大和市中央3-930","lat":35.7447136,"lon":139.4270378},{"name":"東大和市狭山公民館","province":"東京都","city":"東大和市","address":"東大和市狭山3-1344-1","lat":35.755856,"lon":139.436737},{"name":"東大和市上北台公民館","province":"東京都","city":"東大和市","address":"東大和市上北台2-865-9","lat":35.743282,"lon":139.414459},{"name":"東大和市蔵敷公民館","province":"東京都","city":"東大和市","address":"東大和市蔵敷2-337","lat":35.753933,"lon":139.416504},{"name":"東大和市中央公民館","province":"東京都","city":"東大和市","address":"東大和市中央3-926","lat":35.744637,"lon":139.426392},{"name":"東大和市南街公民館","province":"東京都","city":"東大和市","address":"東大和市南街5-32","lat":35.737179,"lon":139.431503},{"name":"東大和市立桜が丘図書館","province":"東京都","city":"東大和市","address":"東大和市桜が丘3-44-13","lat":35.734173,"lon":139.418442},{"name":"東大和市立清原図書館","province":"東京都","city":"東大和市","address":"東大和市清原4-1","lat":35.74258,"lon":139.445419},{"name":"東大和市立中央図書館","province":"東京都","city":"東大和市","address":"東大和市中央3-930","lat":35.745262,"lon":139.426498},{"name":"東大和市立郷土博物館","province":"東京都","city":"東大和市","address":"東大和市奈良橋1-260-2","lat":35.756416,"lon":139.422241},{"name":"東大和市","province":"東京都","city":"東大和市","address":"東大和市中央3-930","lat":35.7447136,"lon":139.4270378},{"name":"東大和市狭山公民館","province":"東京都","city":"東大和市","address":"東大和市狭山3-1344-1","lat":35.755856,"lon":139.436737},{"name":"東大和市上北台公民館","province":"東京都","city":"東大和市","address":"東大和市上北台2-865-9","lat":35.743282,"lon":139.414459},{"name":"東大和市蔵敷公民館","province":"東京都","city":"東大和市","address":"東大和市蔵敷2-337","lat":35.753933,"lon":139.416504},{"name":"東大和市中央公民館","province":"東京都","city":"東大和市","address":"東大和市中央3-926","lat":35.744637,"lon":139.426392},{"name":"東大和市南街公民館","province":"東京都","city":"東大和市","address":"東大和市南街5-32","lat":35.737179,"lon":139.431503},{"name":"東大和市立桜が丘図書館","province":"東京都","city":"東大和市","address":"東大和市桜が丘3-44-13","lat":35.734173,"lon":139.418442},{"name":"東大和市立清原図書館","province":"東京都","city":"東大和市","address":"東大和市清原4-1","lat":35.74258,"lon":139.445419},{"name":"東大和市立中央図書館","province":"東京都","city":"東大和市","address":"東大和市中央3-930","lat":35.745262,"lon":139.426498},{"name":"東大和市立郷土博物館","province":"東京都","city":"東大和市","address":"東大和市奈良橋1-260-2","lat":35.756416,"lon":139.422241},{"name":"東大和市","province":"東京都","city":"東大和市","address":"東大和市中央3-930","lat":35.7447136,"lon":139.4270378},{"name":"東大和市狭山公民館","province":"東京都","city":"東大和市","address":"東大和市狭山3-1344-1","lat":35.755856,"lon":139.436737},{"name":"東大和市上北台公民館","province":"東京都","city":"東大和市","address":"東大和市上北台2-865-9","lat":35.743282,"lon":139.414459},{"name":"東大和市蔵敷公民館","province":"東京都","city":"東大和市","address":"東大和市蔵敷2-337","lat":35.753933,"lon":139.416504},{"name":"東大和市中央公民館","province":"東京都","city":"東大和市","address":"東大和市中央3-926","lat":35.744637,"lon":139.426392},{"name":"東大和市南街公民館","province":"東京都","city":"東大和市","address":"東大和市南街5-32","lat":35.737179,"lon":139.431503},{"name":"東大和市立桜が丘図書館","province":"東京都","city":"東大和市","address":"東大和市桜が丘3-44-13","lat":35.734173,"lon":139.418442},{"name":"東大和市立清原図書館","province":"東京都","city":"東大和市","address":"東大和市清原4-1","lat":35.74258,"lon":139.445419},{"name":"東大和市立中央図書館","province":"東京都","city":"東大和市","address":"東大和市中央3-930","lat":35.745262,"lon":139.426498},{"name":"東大和市立郷土博物館","province":"東京都","city":"東大和市","address":"東大和市奈良橋1-260-2","lat":35.756416,"lon":139.422241},{"name":"東大和市","province":"東京都","city":"東大和市","address":"東大和市中央3-930","lat":35.7447136,"lon":139.4270378},{"name":"東大和市狭山公民館","province":"東京都","city":"東大和市","address":"東大和市狭山3-1344-1","lat":35.755856,"lon":139.436737},{"name":"東大和市上北台公民館","province":"東京都","city":"東大和市","address":"東大和市上北台2-865-9","lat":35.743282,"lon":139.414459},{"name":"東大和市蔵敷公民館","province":"東京都","city":"東大和市","address":"東大和市蔵敷2-337","lat":35.753933,"lon":139.416504},{"name":"東大和市中央公民館","province":"東京都","city":"東大和市","address":"東大和市中央3-926","lat":35.744637,"lon":139.426392},{"name":"東大和市南街公民館","province":"東京都","city":"東大和市","address":"東大和市南街5-32","lat":35.737179,"lon":139.431503},{"name":"東大和市立桜が丘図書館","province":"東京都","city":"東大和市","address":"東大和市桜が丘3-44-13","lat":35.734173,"lon":139.418442},{"name":"東大和市立清原図書館","province":"東京都","city":"東大和市","address":"東大和市清原4-1","lat":35.74258,"lon":139.445419},{"name":"東大和市立中央図書館","province":"東京都","city":"東大和市","address":"東大和市中央3-930","lat":35.745262,"lon":139.426498},{"name":"東大和市立郷土博物館","province":"東京都","city":"東大和市","address":"東大和市奈良橋1-260-2","lat":35.756416,"lon":139.422241},{"name":"東大和市","province":"東京都","city":"東大和市","address":"東大和市中央3-930","lat":35.7447136,"lon":139.4270378},{"name":"東大和市狭山公民館","province":"東京都","city":"東大和市","address":"東大和市狭山3-1344-1","lat":35.755856,"lon":139.436737},{"name":"東大和市上北台公民館","province":"東京都","city":"東大和市","address":"東大和市上北台2-865-9","lat":35.743282,"lon":139.414459},{"name":"東大和市蔵敷公民館","province":"東京都","city":"東大和市","address":"東大和市蔵敷2-337","lat":35.753933,"lon":139.416504},{"name":"東大和市中央公民館","province":"東京都","city":"東大和市","address":"東大和市中央3-926","lat":35.744637,"lon":139.426392},{"name":"東大和市南街公民館","province":"東京都","city":"東大和市","address":"東大和市南街5-32","lat":35.737179,"lon":139.431503},{"name":"東大和市立桜が丘図書館","province":"東京都","city":"東大和市","address":"東大和市桜が丘3-44-13","lat":35.734173,"lon":139.418442},{"name":"東大和市立清原図書館","province":"東京都","city":"東大和市","address":"東大和市清原4-1","lat":35.74258,"lon":139.445419},{"name":"東大和市立中央図書館","province":"東京都","city":"東大和市","address":"東大和市中央3-930","lat":35.745262,"lon":139.426498},{"name":"東大和市立郷土博物館","province":"東京都","city":"東大和市","address":"東大和市奈良橋1-260-2","lat":35.756416,"lon":139.422241},{"name":"東大和市","province":"東京都","city":"東大和市","address":"東大和市中央3-930","lat":35.7447136,"lon":139.4270378},{"name":"東大和市狭山公民館","province":"東京都","city":"東大和市","address":"東大和市狭山3-1344-1","lat":35.755856,"lon":139.436737},{"name":"東大和市上北台公民館","province":"東京都","city":"東大和市","address":"東大和市上北台2-865-9","lat":35.743282,"lon":139.414459},{"name":"東大和市蔵敷公民館","province":"東京都","city":"東大和市","address":"東大和市蔵敷2-337","lat":35.753933,"lon":139.416504},{"name":"東大和市中央公民館","province":"東京都","city":"東大和市","address":"東大和市中央3-926","lat":35.744637,"lon":139.426392},{"name":"東大和市南街公民館","province":"東京都","city":"東大和市","address":"東大和市南街5-32","lat":35.737179,"lon":139.431503},{"name":"東大和市立桜が丘図書館","province":"東京都","city":"東大和市","address":"東大和市桜が丘3-44-13","lat":35.734173,"lon":139.418442},{"name":"東大和市立清原図書館","province":"東京都","city":"東大和市","address":"東大和市清原4-1","lat":35.74258,"lon":139.445419},{"name":"東大和市立中央図書館","province":"東京都","city":"東大和市","address":"東大和市中央3-930","lat":35.745262,"lon":139.426498},{"name":"東大和市立郷土博物館","province":"東京都","city":"東大和市","address":"東大和市奈良橋1-260-2","lat":35.756416,"lon":139.422241},{"name":"東大和市","province":"東京都","city":"東大和市","address":"東大和市中央3-930","lat":35.7447136,"lon":139.4270378},{"name":"東大和市狭山公民館","province":"東京都","city":"東大和市","address":"東大和市狭山3-1344-1","lat":35.755856,"lon":139.436737},{"name":"東大和市上北台公民館","province":"東京都","city":"東大和市","address":"東大和市上北台2-865-9","lat":35.743282,"lon":139.414459},{"name":"東大和市蔵敷公民館","province":"東京都","city":"東大和市","address":"東大和市蔵敷2-337","lat":35.753933,"lon":139.416504},{"name":"東大和市中央公民館","province":"東京都","city":"東大和市","address":"東大和市中央3-926","lat":35.744637,"lon":139.426392},{"name":"東大和市南街公民館","province":"東京都","city":"東大和市","address":"東大和市南街5-32","lat":35.737179,"lon":139.431503},{"name":"東大和市立桜が丘図書館","province":"東京都","city":"東大和市","address":"東大和市桜が丘3-44-13","lat":35.734173,"lon":139.418442},{"name":"東大和市立清原図書館","province":"東京都","city":"東大和市","address":"東大和市清原4-1","lat":35.74258,"lon":139.445419},{"name":"東大和市立中央図書館","province":"東京都","city":"東大和市","address":"東大和市中央3-930","lat":35.745262,"lon":139.426498},{"name":"東大和市立郷土博物館","province":"東京都","city":"東大和市","address":"東大和市奈良橋1-260-2","lat":35.756416,"lon":139.422241},{"name":"東大和市","province":"東京都","city":"東大和市","address":"東大和市中央3-930","lat":35.7447136,"lon":139.4270378},{"name":"東大和市狭山公民館","province":"東京都","city":"東大和市","address":"東大和市狭山3-1344-1","lat":35.755856,"lon":139.436737},{"name":"東大和市上北台公民館","province":"東京都","city":"東大和市","address":"東大和市上北台2-865-9","lat":35.743282,"lon":139.414459},{"name":"東大和市蔵敷公民館","province":"東京都","city":"東大和市","address":"東大和市蔵敷2-337","lat":35.753933,"lon":139.416504},{"name":"東大和市中央公民館","province":"東京都","city":"東大和市","address":"東大和市中央3-926","lat":35.744637,"lon":139.426392},{"name":"東大和市南街公民館","province":"東京都","city":"東大和市","address":"東大和市南街5-32","lat":35.737179,"lon":139.431503},{"name":"東大和市立桜が丘図書館","province":"東京都","city":"東大和市","address":"東大和市桜が丘3-44-13","lat":35.734173,"lon":139.418442},{"name":"東大和市立清原図書館","province":"東京都","city":"東大和市","address":"東大和市清原4-1","lat":35.74258,"lon":139.445419},{"name":"東大和市立中央図書館","province":"東京都","city":"東大和市","address":"東大和市中央3-930","lat":35.745262,"lon":139.426498},{"name":"東大和市立郷土博物館","province":"東京都","city":"東大和市","address":"東大和市奈良橋1-260-2","lat":35.756416,"lon":139.422241},{"name":"東大和市","province":"東京都","city":"東大和市","address":"東大和市中央3-930","lat":35.7447136,"lon":139.4270378},{"name":"東大和市狭山公民館","province":"東京都","city":"東大和市","address":"東大和市狭山3-1344-1","lat":35.755856,"lon":139.436737},{"name":"東大和市上北台公民館","province":"東京都","city":"東大和市","address":"東大和市上北台2-865-9","lat":35.743282,"lon":139.414459},{"name":"東大和市蔵敷公民館","province":"東京都","city":"東大和市","address":"東大和市蔵敷2-337","lat":35.753933,"lon":139.416504},{"name":"東大和市中央公民館","province":"東京都","city":"東大和市","address":"東大和市中央3-926","lat":35.744637,"lon":139.426392},{"name":"東大和市南街公民館","province":"東京都","city":"東大和市","address":"東大和市南街5-32","lat":35.737179,"lon":139.431503},{"name":"東大和市立桜が丘図書館","province":"東京都","city":"東大和市","address":"東大和市桜が丘3-44-13","lat":35.734173,"lon":139.418442},{"name":"東大和市立清原図書館","province":"東京都","city":"東大和市","address":"東大和市清原4-1","lat":35.74258,"lon":139.445419},{"name":"東大和市立中央図書館","province":"東京都","city":"東大和市","address":"東大和市中央3-930","lat":35.745262,"lon":139.426498},{"name":"東大和市立郷土博物館","province":"東京都","city":"東大和市","address":"東大和市奈良橋1-260-2","lat":35.756416,"lon":139.422241}]}