{"keyword":"戸数","data":[{"name":"東大和市社会福祉協議会","province":"東京都","city":"東大和市","address":"東大和市中央3-912-3","lat":35.746638,"lon":139.427398},{"name":"東大和市","province":"東京都","city":"東大和市","address":"東大和市中央3-930","lat":35.7447136,"lon":139.4270378},{"name":"合縁","province":"東京都","city":"東大和市","address":"東京都東大和市清原3丁目1-21","lat":35.74138622,"lon":139.45006601},{"name":"株式会社 あんしん葬祭","province":"東京都","city":"東大和市","address":"東京都東大和市南街2丁目1-4","lat":35.74206621,"lon":139.43043702},{"name":"東大和市社会福祉協議会","province":"東京都","city":"東大和市","address":"東大和市中央3-912-3","lat":35.74623,"lon":139.42656},{"name":"高齢者見守りぼっくすならはし","province":"東京都","city":"東大和市","address":"東大和市奈良橋4-600/奈良橋市民センター2階老人福祉センター内","lat":35.754078,"lon":139.427856},{"name":"高齢者見守りぼっくすしんぼり","province":"東京都","city":"東大和市","address":"東大和市新堀3-6-1/新堀地区会館2階","lat":35.737888,"lon":139.448288},{"name":"高齢者見守りぼっくすなんがい","province":"東京都","city":"東大和市","address":"東大和市南街2-49-3/在宅サポートセンター1階","lat":35.740234,"lon":139.431412},{"name":"高齢者ほっと支援センターいもくぼ","province":"東京都","city":"東大和市","address":"東大和市芋窪3-1611-1/在宅サービスセンター向台内","lat":35.752773,"lon":139.413635},{"name":"高齢者ほっと支援センターきよはら","province":"東京都","city":"東大和市","address":"東大和市清原1-1-34号/棟1階在宅サービスセンターきよはら内","lat":35.745159,"lon":139.447495},{"name":"高齢者ほっと支援センターなんがい","province":"東京都","city":"東大和市","address":"東大和市南街2-49-3/在宅サポートセンター1階","lat":35.740234,"lon":139.431412},{"name":"東大和市役所高齢介護課","province":"東京都","city":"東大和市","address":"東大和市中央3-930","lat":35.745262,"lon":139.426498},{"name":"東大和市社会福祉協議会","province":"東京都","city":"東大和市","address":"東大和市中央3-912-3","lat":35.74624,"lon":139.42656},{"name":"東大和病院","province":"東京都","city":"東大和市","address":"東京都東大和市南街1丁目13-12","lat":35.74141631,"lon":139.43168419},{"name":"東大和給水所","province":"東京都","city":"東大和市","address":"東京都東大和市桜が丘3丁目44","lat":35.73125354,"lon":139.42818775},{"name":"都立東大和南公園","province":"東京都","city":"東大和市","address":"東京都東大和市桜が丘2丁目106-2","lat":35.73352264,"lon":139.42463515},{"name":"東大和市立第６小学校校庭","province":"東京都","city":"東大和市","address":"東京都東大和市仲原1丁目5-1","lat":35.74447733,"lon":139.44344144},{"name":"東大和市選挙管理委員会","province":"東京都","city":"東大和市","address":"東大和市中央3-930","lat":35.745371,"lon":139.42635},{"name":"東大和高等学校","province":"東京都","city":"東大和市","address":"東京都東大和市中央3丁目945","lat":35.74553514,"lon":139.42458175},{"name":"東大和南高等学校","province":"東京都","city":"東大和市","address":"東京都東大和市桜が丘3丁目44-8","lat":35.73181724,"lon":139.42322979},{"name":"東大和市社会福祉協議会","province":"東京都","city":"東大和市","address":"東大和市中央3-912-3","lat":35.746638,"lon":139.427398},{"name":"東大和市社会福祉協議会","province":"東京都","city":"東大和市","address":"東大和市中央3-912-3","lat":35.74623,"lon":139.42656},{"name":"高齢者見守りぼっくすならはし","province":"東京都","city":"東大和市","address":"東大和市奈良橋4-600/奈良橋市民センター2階老人福祉センター内","lat":35.754078,"lon":139.427856},{"name":"高齢者見守りぼっくすしんぼり","province":"東京都","city":"東大和市","address":"東大和市新堀3-6-1/新堀地区会館2階","lat":35.737888,"lon":139.448288},{"name":"高齢者見守りぼっくすなんがい","province":"東京都","city":"東大和市","address":"東大和市南街2-49-3/在宅サポートセンター1階","lat":35.740234,"lon":139.431412},{"name":"高齢者ほっと支援センターいもくぼ","province":"東京都","city":"東大和市","address":"東大和市芋窪3-1611-1/在宅サービスセンター向台内","lat":35.752773,"lon":139.413635},{"name":"高齢者ほっと支援センターきよはら","province":"東京都","city":"東大和市","address":"東大和市清原1-1-34号/棟1階在宅サービスセンターきよはら内","lat":35.745159,"lon":139.447495},{"name":"高齢者ほっと支援センターなんがい","province":"東京都","city":"東大和市","address":"東大和市南街2-49-3/在宅サポートセンター1階","lat":35.740234,"lon":139.431412},{"name":"東大和市役所高齢介護課","province":"東京都","city":"東大和市","address":"東大和市中央3-930","lat":35.745262,"lon":139.426498},{"name":"東大和市社会福祉協議会","province":"東京都","city":"東大和市","address":"東大和市中央3-912-3","lat":35.74624,"lon":139.42656},{"name":"東大和病院","province":"東京都","city":"東大和市","address":"東京都東大和市南街1丁目13-12","lat":35.74141631,"lon":139.43168419},{"name":"東大和給水所","province":"東京都","city":"東大和市","address":"東京都東大和市桜が丘3丁目44","lat":35.73125354,"lon":139.42818775},{"name":"都立東大和南公園","province":"東京都","city":"東大和市","address":"東京都東大和市桜が丘2丁目106-2","lat":35.73352264,"lon":139.42463515},{"name":"東大和市立第６小学校校庭","province":"東京都","city":"東大和市","address":"東京都東大和市仲原1丁目5-1","lat":35.74447733,"lon":139.44344144},{"name":"東大和高等学校","province":"東京都","city":"東大和市","address":"東京都東大和市中央3丁目945","lat":35.74553514,"lon":139.42458175},{"name":"東大和南高等学校","province":"東京都","city":"東大和市","address":"東京都東大和市桜が丘3丁目44-8","lat":35.73181724,"lon":139.42322979},{"name":"高齢者見守りぼっくすならはし","province":"東京都","city":"東大和市","address":"東大和市奈良橋4-600/奈良橋市民センター2階老人福祉センター内","lat":35.754078,"lon":139.427856},{"name":"高齢者見守りぼっくすしんぼり","province":"東京都","city":"東大和市","address":"東大和市新堀3-6-1/新堀地区会館2階","lat":35.737888,"lon":139.448288},{"name":"高齢者見守りぼっくすなんがい","province":"東京都","city":"東大和市","address":"東大和市南街2-49-3/在宅サポートセンター1階","lat":35.740234,"lon":139.431412},{"name":"高齢者ほっと支援センターいもくぼ","province":"東京都","city":"東大和市","address":"東大和市芋窪3-1611-1/在宅サービスセンター向台内","lat":35.752773,"lon":139.413635},{"name":"高齢者ほっと支援センターきよはら","province":"東京都","city":"東大和市","address":"東大和市清原1-1-34号/棟1階在宅サービスセンターきよはら内","lat":35.745159,"lon":139.447495},{"name":"高齢者ほっと支援センターなんがい","province":"東京都","city":"東大和市","address":"東大和市南街2-49-3/在宅サポートセンター1階","lat":35.740234,"lon":139.431412},{"name":"東大和市役所高齢介護課","province":"東京都","city":"東大和市","address":"東大和市中央3-930","lat":35.745262,"lon":139.426498},{"name":"東大和病院","province":"東京都","city":"東大和市","address":"東京都東大和市南街1丁目13-12","lat":35.74141631,"lon":139.43168419},{"name":"東大和高等学校","province":"東京都","city":"東大和市","address":"東京都東大和市中央3丁目945","lat":35.74553514,"lon":139.42458175},{"name":"東大和南高等学校","province":"東京都","city":"東大和市","address":"東京都東大和市桜が丘3丁目44-8","lat":35.73181724,"lon":139.42322979},{"name":"高齢者見守りぼっくすならはし","province":"東京都","city":"東大和市","address":"東大和市奈良橋4-600/奈良橋市民センター2階老人福祉センター内","lat":35.754078,"lon":139.427856},{"name":"高齢者見守りぼっくすしんぼり","province":"東京都","city":"東大和市","address":"東大和市新堀3-6-1/新堀地区会館2階","lat":35.737888,"lon":139.448288},{"name":"高齢者見守りぼっくすなんがい","province":"東京都","city":"東大和市","address":"東大和市南街2-49-3/在宅サポートセンター1階","lat":35.740234,"lon":139.431412},{"name":"高齢者ほっと支援センターいもくぼ","province":"東京都","city":"東大和市","address":"東大和市芋窪3-1611-1/在宅サービスセンター向台内","lat":35.752773,"lon":139.413635},{"name":"高齢者ほっと支援センターきよはら","province":"東京都","city":"東大和市","address":"東大和市清原1-1-34号/棟1階在宅サービスセンターきよはら内","lat":35.745159,"lon":139.447495},{"name":"高齢者ほっと支援センターなんがい","province":"東京都","city":"東大和市","address":"東大和市南街2-49-3/在宅サポートセンター1階","lat":35.740234,"lon":139.431412},{"name":"東大和市役所高齢介護課","province":"東京都","city":"東大和市","address":"東大和市中央3-930","lat":35.745262,"lon":139.426498},{"name":"東大和病院","province":"東京都","city":"東大和市","address":"東京都東大和市南街1丁目13-12","lat":35.74141631,"lon":139.43168419},{"name":"東大和高等学校","province":"東京都","city":"東大和市","address":"東京都東大和市中央3丁目945","lat":35.74553514,"lon":139.42458175},{"name":"東大和南高等学校","province":"東京都","city":"東大和市","address":"東京都東大和市桜が丘3丁目44-8","lat":35.73181724,"lon":139.42322979},{"name":"高齢者見守りぼっくすならはし","province":"東京都","city":"東大和市","address":"東大和市奈良橋4-600/奈良橋市民センター2階老人福祉センター内","lat":35.754078,"lon":139.427856},{"name":"高齢者見守りぼっくすしんぼり","province":"東京都","city":"東大和市","address":"東大和市新堀3-6-1/新堀地区会館2階","lat":35.737888,"lon":139.448288},{"name":"高齢者見守りぼっくすなんがい","province":"東京都","city":"東大和市","address":"東大和市南街2-49-3/在宅サポートセンター1階","lat":35.740234,"lon":139.431412},{"name":"高齢者ほっと支援センターいもくぼ","province":"東京都","city":"東大和市","address":"東大和市芋窪3-1611-1/在宅サービスセンター向台内","lat":35.752773,"lon":139.413635},{"name":"高齢者ほっと支援センターきよはら","province":"東京都","city":"東大和市","address":"東大和市清原1-1-34号/棟1階在宅サービスセンターきよはら内","lat":35.745159,"lon":139.447495},{"name":"高齢者ほっと支援センターなんがい","province":"東京都","city":"東大和市","address":"東大和市南街2-49-3/在宅サポートセンター1階","lat":35.740234,"lon":139.431412},{"name":"東大和市役所高齢介護課","province":"東京都","city":"東大和市","address":"東大和市中央3-930","lat":35.745262,"lon":139.426498},{"name":"高齢者見守りぼっくすならはし","province":"東京都","city":"東大和市","address":"東大和市奈良橋4-600/奈良橋市民センター2階老人福祉センター内","lat":35.754078,"lon":139.427856},{"name":"高齢者見守りぼっくすしんぼり","province":"東京都","city":"東大和市","address":"東大和市新堀3-6-1/新堀地区会館2階","lat":35.737888,"lon":139.448288},{"name":"高齢者見守りぼっくすなんがい","province":"東京都","city":"東大和市","address":"東大和市南街2-49-3/在宅サポートセンター1階","lat":35.740234,"lon":139.431412},{"name":"高齢者ほっと支援センターいもくぼ","province":"東京都","city":"東大和市","address":"東大和市芋窪3-1611-1/在宅サービスセンター向台内","lat":35.752773,"lon":139.413635},{"name":"高齢者ほっと支援センターきよはら","province":"東京都","city":"東大和市","address":"東大和市清原1-1-34号/棟1階在宅サービスセンターきよはら内","lat":35.745159,"lon":139.447495},{"name":"高齢者ほっと支援センターなんがい","province":"東京都","city":"東大和市","address":"東大和市南街2-49-3/在宅サポートセンター1階","lat":35.740234,"lon":139.431412},{"name":"東大和市役所高齢介護課","province":"東京都","city":"東大和市","address":"東大和市中央3-930","lat":35.745262,"lon":139.426498},{"name":"高齢者見守りぼっくすならはし","province":"東京都","city":"東大和市","address":"東大和市奈良橋4-600/奈良橋市民センター2階老人福祉センター内","lat":35.754078,"lon":139.427856},{"name":"高齢者見守りぼっくすしんぼり","province":"東京都","city":"東大和市","address":"東大和市新堀3-6-1/新堀地区会館2階","lat":35.737888,"lon":139.448288},{"name":"高齢者見守りぼっくすなんがい","province":"東京都","city":"東大和市","address":"東大和市南街2-49-3/在宅サポートセンター1階","lat":35.740234,"lon":139.431412},{"name":"高齢者ほっと支援センターいもくぼ","province":"東京都","city":"東大和市","address":"東大和市芋窪3-1611-1/在宅サービスセンター向台内","lat":35.752773,"lon":139.413635},{"name":"高齢者ほっと支援センターきよはら","province":"東京都","city":"東大和市","address":"東大和市清原1-1-34号/棟1階在宅サービスセンターきよはら内","lat":35.745159,"lon":139.447495},{"name":"高齢者ほっと支援センターなんがい","province":"東京都","city":"東大和市","address":"東大和市南街2-49-3/在宅サポートセンター1階","lat":35.740234,"lon":139.431412},{"name":"東大和市役所高齢介護課","province":"東京都","city":"東大和市","address":"東大和市中央3-930","lat":35.745262,"lon":139.426498},{"name":"高齢者見守りぼっくすならはし","province":"東京都","city":"東大和市","address":"東大和市奈良橋4-600/奈良橋市民センター2階老人福祉センター内","lat":35.754078,"lon":139.427856},{"name":"高齢者見守りぼっくすしんぼり","province":"東京都","city":"東大和市","address":"東大和市新堀3-6-1/新堀地区会館2階","lat":35.737888,"lon":139.448288},{"name":"高齢者見守りぼっくすなんがい","province":"東京都","city":"東大和市","address":"東大和市南街2-49-3/在宅サポートセンター1階","lat":35.740234,"lon":139.431412},{"name":"高齢者ほっと支援センターいもくぼ","province":"東京都","city":"東大和市","address":"東大和市芋窪3-1611-1/在宅サービスセンター向台内","lat":35.752773,"lon":139.413635},{"name":"高齢者ほっと支援センターきよはら","province":"東京都","city":"東大和市","address":"東大和市清原1-1-34号/棟1階在宅サービスセンターきよはら内","lat":35.745159,"lon":139.447495},{"name":"高齢者ほっと支援センターなんがい","province":"東京都","city":"東大和市","address":"東大和市南街2-49-3/在宅サポートセンター1階","lat":35.740234,"lon":139.431412},{"name":"東大和市役所高齢介護課","province":"東京都","city":"東大和市","address":"東大和市中央3-930","lat":35.745262,"lon":139.426498},{"name":"高齢者見守りぼっくすならはし","province":"東京都","city":"東大和市","address":"東大和市奈良橋4-600/奈良橋市民センター2階老人福祉センター内","lat":35.754078,"lon":139.427856},{"name":"高齢者見守りぼっくすしんぼり","province":"東京都","city":"東大和市","address":"東大和市新堀3-6-1/新堀地区会館2階","lat":35.737888,"lon":139.448288},{"name":"高齢者見守りぼっくすなんがい","province":"東京都","city":"東大和市","address":"東大和市南街2-49-3/在宅サポートセンター1階","lat":35.740234,"lon":139.431412},{"name":"高齢者ほっと支援センターいもくぼ","province":"東京都","city":"東大和市","address":"東大和市芋窪3-1611-1/在宅サービスセンター向台内","lat":35.752773,"lon":139.413635},{"name":"高齢者ほっと支援センターきよはら","province":"東京都","city":"東大和市","address":"東大和市清原1-1-34号/棟1階在宅サービスセンターきよはら内","lat":35.745159,"lon":139.447495},{"name":"高齢者ほっと支援センターなんがい","province":"東京都","city":"東大和市","address":"東大和市南街2-49-3/在宅サポートセンター1階","lat":35.740234,"lon":139.431412},{"name":"東大和市役所高齢介護課","province":"東京都","city":"東大和市","address":"東大和市中央3-930","lat":35.745262,"lon":139.426498},{"name":"高齢者見守りぼっくすならはし","province":"東京都","city":"東大和市","address":"東大和市奈良橋4-600/奈良橋市民センター2階老人福祉センター内","lat":35.754078,"lon":139.427856},{"name":"高齢者見守りぼっくすしんぼり","province":"東京都","city":"東大和市","address":"東大和市新堀3-6-1/新堀地区会館2階","lat":35.737888,"lon":139.448288},{"name":"高齢者見守りぼっくすなんがい","province":"東京都","city":"東大和市","address":"東大和市南街2-49-3/在宅サポートセンター1階","lat":35.740234,"lon":139.431412},{"name":"高齢者ほっと支援センターいもくぼ","province":"東京都","city":"東大和市","address":"東大和市芋窪3-1611-1/在宅サービスセンター向台内","lat":35.752773,"lon":139.413635},{"name":"高齢者ほっと支援センターきよはら","province":"東京都","city":"東大和市","address":"東大和市清原1-1-34号/棟1階在宅サービスセンターきよはら内","lat":35.745159,"lon":139.447495},{"name":"高齢者ほっと支援センターなんがい","province":"東京都","city":"東大和市","address":"東大和市南街2-49-3/在宅サポートセンター1階","lat":35.740234,"lon":139.431412},{"name":"東大和市役所高齢介護課","province":"東京都","city":"東大和市","address":"東大和市中央3-930","lat":35.745262,"lon":139.426498},{"name":"高齢者見守りぼっくすならはし","province":"東京都","city":"東大和市","address":"東大和市奈良橋4-600/奈良橋市民センター2階老人福祉センター内","lat":35.754078,"lon":139.427856},{"name":"高齢者見守りぼっくすしんぼり","province":"東京都","city":"東大和市","address":"東大和市新堀3-6-1/新堀地区会館2階","lat":35.737888,"lon":139.448288},{"name":"高齢者見守りぼっくすなんがい","province":"東京都","city":"東大和市","address":"東大和市南街2-49-3/在宅サポートセンター1階","lat":35.740234,"lon":139.431412},{"name":"高齢者ほっと支援センターいもくぼ","province":"東京都","city":"東大和市","address":"東大和市芋窪3-1611-1/在宅サービスセンター向台内","lat":35.752773,"lon":139.413635},{"name":"高齢者ほっと支援センターきよはら","province":"東京都","city":"東大和市","address":"東大和市清原1-1-34号/棟1階在宅サービスセンターきよはら内","lat":35.745159,"lon":139.447495},{"name":"高齢者ほっと支援センターなんがい","province":"東京都","city":"東大和市","address":"東大和市南街2-49-3/在宅サポートセンター1階","lat":35.740234,"lon":139.431412},{"name":"東大和市役所高齢介護課","province":"東京都","city":"東大和市","address":"東大和市中央3-930","lat":35.745262,"lon":139.426498},{"name":"高齢者見守りぼっくすならはし","province":"東京都","city":"東大和市","address":"東大和市奈良橋4-600/奈良橋市民センター2階老人福祉センター内","lat":35.754078,"lon":139.427856},{"name":"高齢者見守りぼっくすしんぼり","province":"東京都","city":"東大和市","address":"東大和市新堀3-6-1/新堀地区会館2階","lat":35.737888,"lon":139.448288},{"name":"高齢者見守りぼっくすなんがい","province":"東京都","city":"東大和市","address":"東大和市南街2-49-3/在宅サポートセンター1階","lat":35.740234,"lon":139.431412},{"name":"高齢者ほっと支援センターいもくぼ","province":"東京都","city":"東大和市","address":"東大和市芋窪3-1611-1/在宅サービスセンター向台内","lat":35.752773,"lon":139.413635},{"name":"高齢者ほっと支援センターきよはら","province":"東京都","city":"東大和市","address":"東大和市清原1-1-34号/棟1階在宅サービスセンターきよはら内","lat":35.745159,"lon":139.447495},{"name":"高齢者ほっと支援センターなんがい","province":"東京都","city":"東大和市","address":"東大和市南街2-49-3/在宅サポートセンター1階","lat":35.740234,"lon":139.431412},{"name":"東大和市役所高齢介護課","province":"東京都","city":"東大和市","address":"東大和市中央3-930","lat":35.745262,"lon":139.426498},{"name":"高齢者見守りぼっくすならはし","province":"東京都","city":"東大和市","address":"東大和市奈良橋4-600/奈良橋市民センター2階老人福祉センター内","lat":35.754078,"lon":139.427856},{"name":"高齢者見守りぼっくすしんぼり","province":"東京都","city":"東大和市","address":"東大和市新堀3-6-1/新堀地区会館2階","lat":35.737888,"lon":139.448288},{"name":"高齢者見守りぼっくすなんがい","province":"東京都","city":"東大和市","address":"東大和市南街2-49-3/在宅サポートセンター1階","lat":35.740234,"lon":139.431412},{"name":"高齢者ほっと支援センターいもくぼ","province":"東京都","city":"東大和市","address":"東大和市芋窪3-1611-1/在宅サービスセンター向台内","lat":35.752773,"lon":139.413635},{"name":"高齢者ほっと支援センターきよはら","province":"東京都","city":"東大和市","address":"東大和市清原1-1-34号/棟1階在宅サービスセンターきよはら内","lat":35.745159,"lon":139.447495},{"name":"高齢者ほっと支援センターなんがい","province":"東京都","city":"東大和市","address":"東大和市南街2-49-3/在宅サポートセンター1階","lat":35.740234,"lon":139.431412},{"name":"東大和市役所高齢介護課","province":"東京都","city":"東大和市","address":"東大和市中央3-930","lat":35.745262,"lon":139.426498},{"name":"高齢者見守りぼっくすならはし","province":"東京都","city":"東大和市","address":"東大和市奈良橋4-600/奈良橋市民センター2階老人福祉センター内","lat":35.754078,"lon":139.427856},{"name":"高齢者見守りぼっくすしんぼり","province":"東京都","city":"東大和市","address":"東大和市新堀3-6-1/新堀地区会館2階","lat":35.737888,"lon":139.448288},{"name":"高齢者見守りぼっくすなんがい","province":"東京都","city":"東大和市","address":"東大和市南街2-49-3/在宅サポートセンター1階","lat":35.740234,"lon":139.431412},{"name":"高齢者ほっと支援センターいもくぼ","province":"東京都","city":"東大和市","address":"東大和市芋窪3-1611-1/在宅サービスセンター向台内","lat":35.752773,"lon":139.413635},{"name":"高齢者ほっと支援センターきよはら","province":"東京都","city":"東大和市","address":"東大和市清原1-1-34号/棟1階在宅サービスセンターきよはら内","lat":35.745159,"lon":139.447495},{"name":"高齢者ほっと支援センターなんがい","province":"東京都","city":"東大和市","address":"東大和市南街2-49-3/在宅サポートセンター1階","lat":35.740234,"lon":139.431412},{"name":"東大和市役所高齢介護課","province":"東京都","city":"東大和市","address":"東大和市中央3-930","lat":35.745262,"lon":139.426498},{"name":"高齢者見守りぼっくすならはし","province":"東京都","city":"東大和市","address":"東大和市奈良橋4-600/奈良橋市民センター2階老人福祉センター内","lat":35.754078,"lon":139.427856},{"name":"高齢者見守りぼっくすしんぼり","province":"東京都","city":"東大和市","address":"東大和市新堀3-6-1/新堀地区会館2階","lat":35.737888,"lon":139.448288},{"name":"高齢者見守りぼっくすなんがい","province":"東京都","city":"東大和市","address":"東大和市南街2-49-3/在宅サポートセンター1階","lat":35.740234,"lon":139.431412},{"name":"高齢者ほっと支援センターいもくぼ","province":"東京都","city":"東大和市","address":"東大和市芋窪3-1611-1/在宅サービスセンター向台内","lat":35.752773,"lon":139.413635},{"name":"高齢者ほっと支援センターきよはら","province":"東京都","city":"東大和市","address":"東大和市清原1-1-34号/棟1階在宅サービスセンターきよはら内","lat":35.745159,"lon":139.447495},{"name":"高齢者ほっと支援センターなんがい","province":"東京都","city":"東大和市","address":"東大和市南街2-49-3/在宅サポートセンター1階","lat":35.740234,"lon":139.431412},{"name":"東大和市役所高齢介護課","province":"東京都","city":"東大和市","address":"東大和市中央3-930","lat":35.745262,"lon":139.426498},{"name":"高齢者見守りぼっくすならはし","province":"東京都","city":"東大和市","address":"東大和市奈良橋4-600/奈良橋市民センター2階老人福祉センター内","lat":35.754078,"lon":139.427856},{"name":"高齢者見守りぼっくすしんぼり","province":"東京都","city":"東大和市","address":"東大和市新堀3-6-1/新堀地区会館2階","lat":35.737888,"lon":139.448288},{"name":"高齢者見守りぼっくすなんがい","province":"東京都","city":"東大和市","address":"東大和市南街2-49-3/在宅サポートセンター1階","lat":35.740234,"lon":139.431412},{"name":"高齢者ほっと支援センターいもくぼ","province":"東京都","city":"東大和市","address":"東大和市芋窪3-1611-1/在宅サービスセンター向台内","lat":35.752773,"lon":139.413635},{"name":"高齢者ほっと支援センターきよはら","province":"東京都","city":"東大和市","address":"東大和市清原1-1-34号/棟1階在宅サービスセンターきよはら内","lat":35.745159,"lon":139.447495},{"name":"高齢者ほっと支援センターなんがい","province":"東京都","city":"東大和市","address":"東大和市南街2-49-3/在宅サポートセンター1階","lat":35.740234,"lon":139.431412},{"name":"東大和市役所高齢介護課","province":"東京都","city":"東大和市","address":"東大和市中央3-930","lat":35.745262,"lon":139.426498},{"name":"高齢者見守りぼっくすならはし","province":"東京都","city":"東大和市","address":"東大和市奈良橋4-600/奈良橋市民センター2階老人福祉センター内","lat":35.754078,"lon":139.427856},{"name":"高齢者見守りぼっくすしんぼり","province":"東京都","city":"東大和市","address":"東大和市新堀3-6-1/新堀地区会館2階","lat":35.737888,"lon":139.448288},{"name":"高齢者見守りぼっくすなんがい","province":"東京都","city":"東大和市","address":"東大和市南街2-49-3/在宅サポートセンター1階","lat":35.740234,"lon":139.431412},{"name":"高齢者ほっと支援センターいもくぼ","province":"東京都","city":"東大和市","address":"東大和市芋窪3-1611-1/在宅サービスセンター向台内","lat":35.752773,"lon":139.413635},{"name":"高齢者ほっと支援センターきよはら","province":"東京都","city":"東大和市","address":"東大和市清原1-1-34号/棟1階在宅サービスセンターきよはら内","lat":35.745159,"lon":139.447495},{"name":"高齢者ほっと支援センターなんがい","province":"東京都","city":"東大和市","address":"東大和市南街2-49-3/在宅サポートセンター1階","lat":35.740234,"lon":139.431412},{"name":"東大和市役所高齢介護課","province":"東京都","city":"東大和市","address":"東大和市中央3-930","lat":35.745262,"lon":139.426498},{"name":"高齢者見守りぼっくすならはし","province":"東京都","city":"東大和市","address":"東大和市奈良橋4-600/奈良橋市民センター2階老人福祉センター内","lat":35.754078,"lon":139.427856},{"name":"高齢者見守りぼっくすしんぼり","province":"東京都","city":"東大和市","address":"東大和市新堀3-6-1/新堀地区会館2階","lat":35.737888,"lon":139.448288},{"name":"高齢者見守りぼっくすなんがい","province":"東京都","city":"東大和市","address":"東大和市南街2-49-3/在宅サポートセンター1階","lat":35.740234,"lon":139.431412},{"name":"高齢者ほっと支援センターいもくぼ","province":"東京都","city":"東大和市","address":"東大和市芋窪3-1611-1/在宅サービスセンター向台内","lat":35.752773,"lon":139.413635},{"name":"高齢者ほっと支援センターきよはら","province":"東京都","city":"東大和市","address":"東大和市清原1-1-34号/棟1階在宅サービスセンターきよはら内","lat":35.745159,"lon":139.447495},{"name":"高齢者ほっと支援センターなんがい","province":"東京都","city":"東大和市","address":"東大和市南街2-49-3/在宅サポートセンター1階","lat":35.740234,"lon":139.431412},{"name":"東大和市役所高齢介護課","province":"東京都","city":"東大和市","address":"東大和市中央3-930","lat":35.745262,"lon":139.426498},{"name":"高齢者見守りぼっくすならはし","province":"東京都","city":"東大和市","address":"東大和市奈良橋4-600/奈良橋市民センター2階老人福祉センター内","lat":35.754078,"lon":139.427856},{"name":"高齢者見守りぼっくすしんぼり","province":"東京都","city":"東大和市","address":"東大和市新堀3-6-1/新堀地区会館2階","lat":35.737888,"lon":139.448288},{"name":"高齢者見守りぼっくすなんがい","province":"東京都","city":"東大和市","address":"東大和市南街2-49-3/在宅サポートセンター1階","lat":35.740234,"lon":139.431412},{"name":"高齢者ほっと支援センターいもくぼ","province":"東京都","city":"東大和市","address":"東大和市芋窪3-1611-1/在宅サービスセンター向台内","lat":35.752773,"lon":139.413635},{"name":"高齢者ほっと支援センターきよはら","province":"東京都","city":"東大和市","address":"東大和市清原1-1-34号/棟1階在宅サービスセンターきよはら内","lat":35.745159,"lon":139.447495},{"name":"高齢者ほっと支援センターなんがい","province":"東京都","city":"東大和市","address":"東大和市南街2-49-3/在宅サポートセンター1階","lat":35.740234,"lon":139.431412},{"name":"東大和市役所高齢介護課","province":"東京都","city":"東大和市","address":"東大和市中央3-930","lat":35.745262,"lon":139.426498},{"name":"高齢者見守りぼっくすならはし","province":"東京都","city":"東大和市","address":"東大和市奈良橋4-600/奈良橋市民センター2階老人福祉センター内","lat":35.754078,"lon":139.427856},{"name":"高齢者見守りぼっくすしんぼり","province":"東京都","city":"東大和市","address":"東大和市新堀3-6-1/新堀地区会館2階","lat":35.737888,"lon":139.448288},{"name":"高齢者見守りぼっくすなんがい","province":"東京都","city":"東大和市","address":"東大和市南街2-49-3/在宅サポートセンター1階","lat":35.740234,"lon":139.431412},{"name":"高齢者ほっと支援センターいもくぼ","province":"東京都","city":"東大和市","address":"東大和市芋窪3-1611-1/在宅サービスセンター向台内","lat":35.752773,"lon":139.413635},{"name":"高齢者ほっと支援センターきよはら","province":"東京都","city":"東大和市","address":"東大和市清原1-1-34号/棟1階在宅サービスセンターきよはら内","lat":35.745159,"lon":139.447495},{"name":"高齢者ほっと支援センターなんがい","province":"東京都","city":"東大和市","address":"東大和市南街2-49-3/在宅サポートセンター1階","lat":35.740234,"lon":139.431412},{"name":"東大和市役所高齢介護課","province":"東京都","city":"東大和市","address":"東大和市中央3-930","lat":35.745262,"lon":139.426498},{"name":"高齢者見守りぼっくすならはし","province":"東京都","city":"東大和市","address":"東大和市奈良橋4-600/奈良橋市民センター2階老人福祉センター内","lat":35.754078,"lon":139.427856},{"name":"高齢者見守りぼっくすしんぼり","province":"東京都","city":"東大和市","address":"東大和市新堀3-6-1/新堀地区会館2階","lat":35.737888,"lon":139.448288},{"name":"高齢者見守りぼっくすなんがい","province":"東京都","city":"東大和市","address":"東大和市南街2-49-3/在宅サポートセンター1階","lat":35.740234,"lon":139.431412},{"name":"高齢者ほっと支援センターいもくぼ","province":"東京都","city":"東大和市","address":"東大和市芋窪3-1611-1/在宅サービスセンター向台内","lat":35.752773,"lon":139.413635},{"name":"高齢者ほっと支援センターきよはら","province":"東京都","city":"東大和市","address":"東大和市清原1-1-34号/棟1階在宅サービスセンターきよはら内","lat":35.745159,"lon":139.447495},{"name":"高齢者ほっと支援センターなんがい","province":"東京都","city":"東大和市","address":"東大和市南街2-49-3/在宅サポートセンター1階","lat":35.740234,"lon":139.431412},{"name":"東大和市役所高齢介護課","province":"東京都","city":"東大和市","address":"東大和市中央3-930","lat":35.745262,"lon":139.426498}]}