{"keyword":"文化","data":[{"name":"石皿","province":"東京都","city":"東大和市","address":"東京都東大和市清水","lat":35.75158492,"lon":139.44579928},{"name":"徳川氏御朱印状","province":"東京都","city":"東大和市","address":"東京都東大和市清水4-1132","lat":35.748619,"lon":139.446777},{"name":"里正日誌","province":"東京都","city":"東大和市","address":"東京都東大和市蔵敷","lat":35.75053446,"lon":139.42005979},{"name":"上の台遺跡の石器","province":"東京都","city":"東大和市","address":"東京都東大和市清水","lat":35.75158492,"lon":139.44579928},{"name":"上の台遺跡の石器","province":"東京都","city":"東大和市","address":"東京都東大和市奈良橋1-260-2","lat":35.756416,"lon":139.422241},{"name":"八幡谷戸遺跡第4・5号住居跡の出土遺物（一括）","province":"東京都","city":"東大和市","address":"東京都東大和市奈良橋1-260-2","lat":35.756416,"lon":139.422241},{"name":"豊鹿島神社本殿の木製狛犬","province":"東京都","city":"東大和市","address":"東京都東大和市芋窪1-2067","lat":35.757317,"lon":139.413345},{"name":"豊鹿島神社の獅子頭","province":"東京都","city":"東大和市","address":"東京都東大和市芋窪1-2067","lat":35.757317,"lon":139.413345},{"name":"慶性院の水天像","province":"東京都","city":"東大和市","address":"東京都東大和市芋窪6-1352","lat":35.750076,"lon":139.41011},{"name":"高木獅子舞の旧獅子頭","province":"東京都","city":"東大和市","address":"東京都東大和市奈良橋1-260-2","lat":35.756416,"lon":139.422241},{"name":"鹿島台遺跡住居跡の出土遺物（一括）","province":"東京都","city":"東大和市","address":"東京都東大和市奈良橋1-260-2","lat":35.756416,"lon":139.422241},{"name":"徳川氏御朱印状（氷川神社宛8通）","province":"東京都","city":"東大和市","address":"東京都東大和市清水","lat":35.75158492,"lon":139.44579928},{"name":"永仁二年銘の弥陀種子板碑","province":"東京都","city":"東大和市","address":"東京都東大和市奈良橋1-260-2","lat":35.756416,"lon":139.422241},{"name":"旧高木村名主宮鍋家文書","province":"東京都","city":"東大和市","address":"東京都東大和市高木","lat":35.74792111,"lon":139.4313756},{"name":"狭山の栞　紙型（しけい）及び挿図判（一括）","province":"東京都","city":"東大和市","address":"東京都東大和市狭山","lat":35.75673132,"lon":139.43643321},{"name":"名号塔婆","province":"東京都","city":"東大和市","address":"東京都東大和市清水6-1140","lat":35.74691,"lon":139.446823},{"name":"高木獅子舞の道具及び衣裳一式","province":"東京都","city":"東大和市","address":"東京都東大和市高木2-106","lat":35.75206,"lon":139.433228},{"name":"庚申塔（清水3丁目）","province":"東京都","city":"東大和市","address":"東京都東大和市清水3-869","lat":35.752808,"lon":139.442963},{"name":"庚申塔（芋窪6丁目）","province":"東京都","city":"東大和市","address":"東京都東大和市芋窪6-1318","lat":35.751465,"lon":139.410492},{"name":"清水本村橋の石橋供養塔","province":"東京都","city":"東大和市","address":"東京都東大和市清水1-755(清水観音堂敷地内)","lat":35.755527,"lon":139.442566},{"name":"砂の橋の石橋供養塔","province":"東京都","city":"東大和市","address":"東京都東大和市清水1-755(清水観音堂敷地内)","lat":35.755527,"lon":139.442566},{"name":"徳治二年銘の板碑","province":"東京都","city":"東大和市","address":"東京都東大和市狭山3-1354","lat":35.754997,"lon":139.435898},{"name":"庚申塔（阿字庚申）","province":"東京都","city":"東大和市","address":"東京都東大和市奈良橋1-363","lat":35.755196,"lon":139.425003},{"name":"清水囃子","province":"東京都","city":"東大和市","address":"東京都東大和市清水3-786-1","lat":35.752808,"lon":139.442963},{"name":"庚申塚","province":"東京都","city":"東大和市","address":"東京都東大和市蔵敷2-508-3","lat":35.752041,"lon":139.42067},{"name":"八幡谷戸遺跡","province":"東京都","city":"東大和市","address":"東京都東大和市奈良橋1-257ほか","lat":35.756325,"lon":139.423431},{"name":"鹿島台遺跡","province":"東京都","city":"東大和市","address":"東京都東大和市芋窪1-1998ほか","lat":35.757317,"lon":139.413345},{"name":"蔵敷太子堂跡","province":"東京都","city":"東大和市","address":"東京都東大和市蔵敷1-436","lat":35.755863,"lon":139.418884},{"name":"青梅橋跡","province":"東京都","city":"東大和市","address":"東京都東大和市桜が丘1-1415付近","lat":35.732685,"lon":139.431732},{"name":"旧日立航空機株式会社変電所","province":"東京都","city":"東大和市","address":"東京都東大和市桜が丘2-167-18","lat":35.736725,"lon":139.420883},{"name":"高木村外五ヶ村連合戸長役場跡","province":"東京都","city":"東大和市","address":"東京都東大和市高木2-106","lat":35.75206,"lon":139.433228},{"name":"蔵敷調連場跡","province":"東京都","city":"東大和市","address":"東京都東大和市蔵敷2-535付近","lat":35.752499,"lon":139.419189},{"name":"旧吉岡家住宅","province":"東京都","city":"東大和市","address":"東京都東大和市清水3-779","lat":35.7544,"lon":139.442845}]}