{"keyword":"月間","data":[{"name":"デイグループほっと","province":"東京都","city":"東大和市","address":"東大和市清水3-785-2","lat":35.753785,"lon":139.442872},{"name":"デイグループぱーく","province":"東京都","city":"東大和市","address":"東大和市清水3-855-2","lat":35.753549,"lon":139.443224},{"name":"放課後等デイサービス　ぽっぷ","province":"東京都","city":"東大和市","address":"東大和市南街2-110-7","lat":35.738519,"lon":139.432059},{"name":"放課後デイ　ゆうハウス","province":"東京都","city":"東大和市","address":"東大和市中央3-855-10中央ビル1階AD号室","lat":35.744846,"lon":139.42827},{"name":"東大和市子ども家庭支援センター","province":"東京都","city":"東大和市","address":"東大和市立野1-1034-2","lat":35.744346,"lon":139.423146},{"name":"東大和市子ども家庭支援センター","province":"東京都","city":"東大和市","address":"東大和市立野1-16-1","lat":35.74454,"lon":139.42163},{"name":"東大和市子ども家庭支援センター","province":"東京都","city":"東大和市","address":"東大和市立野1-16-1","lat":35.744261,"lon":139.423228},{"name":"東大和市駅前","province":"東京都","city":"東大和市","address":"東京都東大和市向原6丁目1408-33","lat":35.73432834,"lon":139.43517869},{"name":"新堀","province":"東京都","city":"東大和市","address":"東京都東大和市清原3丁目1","lat":35.74144173,"lon":139.44908276},{"name":"東大和病院","province":"東京都","city":"東大和市","address":"東京都東大和市南街1丁目13-12","lat":35.74141631,"lon":139.43168419},{"name":"東大和給水所","province":"東京都","city":"東大和市","address":"東京都東大和市桜が丘3丁目44","lat":35.73125354,"lon":139.42818775},{"name":"都立東大和南公園","province":"東京都","city":"東大和市","address":"東京都東大和市桜が丘2丁目106-2","lat":35.73352264,"lon":139.42463515},{"name":"東大和市立第６小学校校庭","province":"東京都","city":"東大和市","address":"東京都東大和市仲原1丁目5-1","lat":35.74447733,"lon":139.44344144},{"name":"東大和市保健センター","province":"東京都","city":"東大和市","address":"東京都東大和市中央3丁目918-1","lat":35.74572128,"lon":139.42737043},{"name":"東大和高等学校","province":"東京都","city":"東大和市","address":"東京都東大和市中央3丁目945","lat":35.74553514,"lon":139.42458175},{"name":"東大和南高等学校","province":"東京都","city":"東大和市","address":"東京都東大和市桜が丘3丁目44-8","lat":35.73181724,"lon":139.42322979},{"name":"東大和市本庁舎","province":"東京都","city":"東大和市","address":"東京都東大和市中央3丁目930","lat":35.74471306,"lon":139.42703715},{"name":"東大和市本庁舎","province":"東京都","city":"東大和市","address":"東大和市中央3-930","lat":35.744714,"lon":139.427038},{"name":"東大和警察署","province":"東京都","city":"東大和市","address":"東大和市芋窪6-1061-1","lat":35.74856,"lon":139.4107},{"name":"北多摩西部消防署","province":"東京都","city":"東大和市","address":"東大和市上北台1-956-1","lat":35.74732,"lon":139.4133},{"name":"都立東大和南公園（陸上競技場、野球場）","province":"東京都","city":"東大和市","address":"東大和市桜が丘2丁目地内","lat":35.73676,"lon":139.42},{"name":"都立東大和南公園","province":"東京都","city":"東大和市","address":"東大和市桜が丘2-106-2","lat":35.73351,"lon":139.4246},{"name":"※東大和市本庁舎","province":"東京都","city":"東大和市","address":"東京都東大和市中央3丁目930","lat":35.74471306,"lon":139.42703715},{"name":"デイグループほっと","province":"東京都","city":"東大和市","address":"東大和市清水3-785-2","lat":35.753785,"lon":139.442872},{"name":"デイグループぱーく","province":"東京都","city":"東大和市","address":"東大和市清水3-855-2","lat":35.753549,"lon":139.443224},{"name":"放課後等デイサービス　ぽっぷ","province":"東京都","city":"東大和市","address":"東大和市南街2-110-7","lat":35.738519,"lon":139.432059},{"name":"放課後デイ　ゆうハウス","province":"東京都","city":"東大和市","address":"東大和市中央3-855-10中央ビル1階AD号室","lat":35.744846,"lon":139.42827},{"name":"東大和市子ども家庭支援センター","province":"東京都","city":"東大和市","address":"東大和市立野1-1034-2","lat":35.744346,"lon":139.423146},{"name":"東大和市子ども家庭支援センター","province":"東京都","city":"東大和市","address":"東大和市立野1-16-1","lat":35.74454,"lon":139.42163},{"name":"東大和市子ども家庭支援センター","province":"東京都","city":"東大和市","address":"東大和市立野1-16-1","lat":35.744261,"lon":139.423228},{"name":"東大和市駅前","province":"東京都","city":"東大和市","address":"東京都東大和市向原6丁目1408-33","lat":35.73432834,"lon":139.43517869},{"name":"新堀","province":"東京都","city":"東大和市","address":"東京都東大和市清原3丁目1","lat":35.74144173,"lon":139.44908276},{"name":"東大和病院","province":"東京都","city":"東大和市","address":"東京都東大和市南街1丁目13-12","lat":35.74141631,"lon":139.43168419},{"name":"東大和給水所","province":"東京都","city":"東大和市","address":"東京都東大和市桜が丘3丁目44","lat":35.73125354,"lon":139.42818775},{"name":"都立東大和南公園","province":"東京都","city":"東大和市","address":"東京都東大和市桜が丘2丁目106-2","lat":35.73352264,"lon":139.42463515},{"name":"東大和市立第６小学校校庭","province":"東京都","city":"東大和市","address":"東京都東大和市仲原1丁目5-1","lat":35.74447733,"lon":139.44344144},{"name":"東大和高等学校","province":"東京都","city":"東大和市","address":"東京都東大和市中央3丁目945","lat":35.74553514,"lon":139.42458175},{"name":"東大和南高等学校","province":"東京都","city":"東大和市","address":"東京都東大和市桜が丘3丁目44-8","lat":35.73181724,"lon":139.42322979},{"name":"デイグループほっと","province":"東京都","city":"東大和市","address":"東大和市清水3-785-2","lat":35.753785,"lon":139.442872},{"name":"デイグループぱーく","province":"東京都","city":"東大和市","address":"東大和市清水3-855-2","lat":35.753549,"lon":139.443224},{"name":"放課後等デイサービス　ぽっぷ","province":"東京都","city":"東大和市","address":"東大和市南街2-110-7","lat":35.738519,"lon":139.432059},{"name":"放課後デイ　ゆうハウス","province":"東京都","city":"東大和市","address":"東大和市中央3-855-10中央ビル1階AD号室","lat":35.744846,"lon":139.42827},{"name":"東大和市子ども家庭支援センター","province":"東京都","city":"東大和市","address":"東大和市立野1-1034-2","lat":35.744346,"lon":139.423146},{"name":"東大和市子ども家庭支援センター","province":"東京都","city":"東大和市","address":"東大和市立野1-16-1","lat":35.74454,"lon":139.42163},{"name":"東大和市子ども家庭支援センター","province":"東京都","city":"東大和市","address":"東大和市立野1-16-1","lat":35.744261,"lon":139.423228},{"name":"東大和市駅前","province":"東京都","city":"東大和市","address":"東京都東大和市向原6丁目1408-33","lat":35.73432834,"lon":139.43517869},{"name":"新堀","province":"東京都","city":"東大和市","address":"東京都東大和市清原3丁目1","lat":35.74144173,"lon":139.44908276},{"name":"東大和病院","province":"東京都","city":"東大和市","address":"東京都東大和市南街1丁目13-12","lat":35.74141631,"lon":139.43168419},{"name":"東大和給水所","province":"東京都","city":"東大和市","address":"東京都東大和市桜が丘3丁目44","lat":35.73125354,"lon":139.42818775},{"name":"都立東大和南公園","province":"東京都","city":"東大和市","address":"東京都東大和市桜が丘2丁目106-2","lat":35.73352264,"lon":139.42463515},{"name":"東大和市立第６小学校校庭","province":"東京都","city":"東大和市","address":"東京都東大和市仲原1丁目5-1","lat":35.74447733,"lon":139.44344144},{"name":"東大和高等学校","province":"東京都","city":"東大和市","address":"東京都東大和市中央3丁目945","lat":35.74553514,"lon":139.42458175},{"name":"東大和南高等学校","province":"東京都","city":"東大和市","address":"東京都東大和市桜が丘3丁目44-8","lat":35.73181724,"lon":139.42322979},{"name":"デイグループほっと","province":"東京都","city":"東大和市","address":"東大和市清水3-785-2","lat":35.753785,"lon":139.442872},{"name":"デイグループぱーく","province":"東京都","city":"東大和市","address":"東大和市清水3-855-2","lat":35.753549,"lon":139.443224},{"name":"放課後等デイサービス　ぽっぷ","province":"東京都","city":"東大和市","address":"東大和市南街2-110-7","lat":35.738519,"lon":139.432059},{"name":"放課後デイ　ゆうハウス","province":"東京都","city":"東大和市","address":"東大和市中央3-855-10中央ビル1階AD号室","lat":35.744846,"lon":139.42827},{"name":"東大和市子ども家庭支援センター","province":"東京都","city":"東大和市","address":"東大和市立野1-1034-2","lat":35.744346,"lon":139.423146},{"name":"東大和市子ども家庭支援センター","province":"東京都","city":"東大和市","address":"東大和市立野1-16-1","lat":35.74454,"lon":139.42163},{"name":"東大和市子ども家庭支援センター","province":"東京都","city":"東大和市","address":"東大和市立野1-16-1","lat":35.744261,"lon":139.423228},{"name":"都立東大和南公園","province":"東京都","city":"東大和市","address":"東京都東大和市桜が丘2丁目106-2","lat":35.73352264,"lon":139.42463515},{"name":"東大和市立第６小学校校庭","province":"東京都","city":"東大和市","address":"東京都東大和市仲原1丁目5-1","lat":35.74447733,"lon":139.44344144},{"name":"東大和高等学校","province":"東京都","city":"東大和市","address":"東京都東大和市中央3丁目945","lat":35.74553514,"lon":139.42458175},{"name":"東大和南高等学校","province":"東京都","city":"東大和市","address":"東京都東大和市桜が丘3丁目44-8","lat":35.73181724,"lon":139.42322979},{"name":"デイグループほっと","province":"東京都","city":"東大和市","address":"東大和市清水3-785-2","lat":35.753785,"lon":139.442872},{"name":"デイグループぱーく","province":"東京都","city":"東大和市","address":"東大和市清水3-855-2","lat":35.753549,"lon":139.443224},{"name":"放課後等デイサービス　ぽっぷ","province":"東京都","city":"東大和市","address":"東大和市南街2-110-7","lat":35.738519,"lon":139.432059},{"name":"放課後デイ　ゆうハウス","province":"東京都","city":"東大和市","address":"東大和市中央3-855-10中央ビル1階AD号室","lat":35.744846,"lon":139.42827},{"name":"東大和市子ども家庭支援センター","province":"東京都","city":"東大和市","address":"東大和市立野1-1034-2","lat":35.744346,"lon":139.423146},{"name":"東大和市子ども家庭支援センター","province":"東京都","city":"東大和市","address":"東大和市立野1-16-1","lat":35.74454,"lon":139.42163},{"name":"東大和市子ども家庭支援センター","province":"東京都","city":"東大和市","address":"東大和市立野1-16-1","lat":35.744261,"lon":139.423228},{"name":"東大和高等学校","province":"東京都","city":"東大和市","address":"東京都東大和市中央3丁目945","lat":35.74553514,"lon":139.42458175},{"name":"東大和南高等学校","province":"東京都","city":"東大和市","address":"東京都東大和市桜が丘3丁目44-8","lat":35.73181724,"lon":139.42322979},{"name":"デイグループほっと","province":"東京都","city":"東大和市","address":"東大和市清水3-785-2","lat":35.753785,"lon":139.442872},{"name":"デイグループぱーく","province":"東京都","city":"東大和市","address":"東大和市清水3-855-2","lat":35.753549,"lon":139.443224},{"name":"放課後等デイサービス　ぽっぷ","province":"東京都","city":"東大和市","address":"東大和市南街2-110-7","lat":35.738519,"lon":139.432059},{"name":"放課後デイ　ゆうハウス","province":"東京都","city":"東大和市","address":"東大和市中央3-855-10中央ビル1階AD号室","lat":35.744846,"lon":139.42827},{"name":"東大和市子ども家庭支援センター","province":"東京都","city":"東大和市","address":"東大和市立野1-1034-2","lat":35.744346,"lon":139.423146},{"name":"東大和市子ども家庭支援センター","province":"東京都","city":"東大和市","address":"東大和市立野1-16-1","lat":35.74454,"lon":139.42163},{"name":"東大和市子ども家庭支援センター","province":"東京都","city":"東大和市","address":"東大和市立野1-16-1","lat":35.744261,"lon":139.423228},{"name":"東大和高等学校","province":"東京都","city":"東大和市","address":"東京都東大和市中央3丁目945","lat":35.74553514,"lon":139.42458175},{"name":"東大和南高等学校","province":"東京都","city":"東大和市","address":"東京都東大和市桜が丘3丁目44-8","lat":35.73181724,"lon":139.42322979},{"name":"デイグループほっと","province":"東京都","city":"東大和市","address":"東大和市清水3-785-2","lat":35.753785,"lon":139.442872},{"name":"デイグループぱーく","province":"東京都","city":"東大和市","address":"東大和市清水3-855-2","lat":35.753549,"lon":139.443224},{"name":"放課後等デイサービス　ぽっぷ","province":"東京都","city":"東大和市","address":"東大和市南街2-110-7","lat":35.738519,"lon":139.432059},{"name":"放課後デイ　ゆうハウス","province":"東京都","city":"東大和市","address":"東大和市中央3-855-10中央ビル1階AD号室","lat":35.744846,"lon":139.42827},{"name":"東大和市子ども家庭支援センター","province":"東京都","city":"東大和市","address":"東大和市立野1-1034-2","lat":35.744346,"lon":139.423146},{"name":"東大和市子ども家庭支援センター","province":"東京都","city":"東大和市","address":"東大和市立野1-16-1","lat":35.74454,"lon":139.42163},{"name":"東大和市子ども家庭支援センター","province":"東京都","city":"東大和市","address":"東大和市立野1-16-1","lat":35.744261,"lon":139.423228},{"name":"東大和高等学校","province":"東京都","city":"東大和市","address":"東京都東大和市中央3丁目945","lat":35.74553514,"lon":139.42458175},{"name":"東大和南高等学校","province":"東京都","city":"東大和市","address":"東京都東大和市桜が丘3丁目44-8","lat":35.73181724,"lon":139.42322979},{"name":"デイグループほっと","province":"東京都","city":"東大和市","address":"東大和市清水3-785-2","lat":35.753785,"lon":139.442872},{"name":"デイグループぱーく","province":"東京都","city":"東大和市","address":"東大和市清水3-855-2","lat":35.753549,"lon":139.443224},{"name":"放課後等デイサービス　ぽっぷ","province":"東京都","city":"東大和市","address":"東大和市南街2-110-7","lat":35.738519,"lon":139.432059},{"name":"放課後デイ　ゆうハウス","province":"東京都","city":"東大和市","address":"東大和市中央3-855-10中央ビル1階AD号室","lat":35.744846,"lon":139.42827},{"name":"東大和市子ども家庭支援センター","province":"東京都","city":"東大和市","address":"東大和市立野1-1034-2","lat":35.744346,"lon":139.423146},{"name":"東大和市子ども家庭支援センター","province":"東京都","city":"東大和市","address":"東大和市立野1-16-1","lat":35.74454,"lon":139.42163},{"name":"東大和市子ども家庭支援センター","province":"東京都","city":"東大和市","address":"東大和市立野1-16-1","lat":35.744261,"lon":139.423228},{"name":"東大和高等学校","province":"東京都","city":"東大和市","address":"東京都東大和市中央3丁目945","lat":35.74553514,"lon":139.42458175},{"name":"東大和南高等学校","province":"東京都","city":"東大和市","address":"東京都東大和市桜が丘3丁目44-8","lat":35.73181724,"lon":139.42322979},{"name":"デイグループほっと","province":"東京都","city":"東大和市","address":"東大和市清水3-785-2","lat":35.753785,"lon":139.442872},{"name":"デイグループぱーく","province":"東京都","city":"東大和市","address":"東大和市清水3-855-2","lat":35.753549,"lon":139.443224},{"name":"放課後等デイサービス　ぽっぷ","province":"東京都","city":"東大和市","address":"東大和市南街2-110-7","lat":35.738519,"lon":139.432059},{"name":"放課後デイ　ゆうハウス","province":"東京都","city":"東大和市","address":"東大和市中央3-855-10中央ビル1階AD号室","lat":35.744846,"lon":139.42827},{"name":"東大和市子ども家庭支援センター","province":"東京都","city":"東大和市","address":"東大和市立野1-1034-2","lat":35.744346,"lon":139.423146},{"name":"東大和市子ども家庭支援センター","province":"東京都","city":"東大和市","address":"東大和市立野1-16-1","lat":35.74454,"lon":139.42163},{"name":"東大和市子ども家庭支援センター","province":"東京都","city":"東大和市","address":"東大和市立野1-16-1","lat":35.744261,"lon":139.423228},{"name":"東大和高等学校","province":"東京都","city":"東大和市","address":"東京都東大和市中央3丁目945","lat":35.74553514,"lon":139.42458175},{"name":"東大和南高等学校","province":"東京都","city":"東大和市","address":"東京都東大和市桜が丘3丁目44-8","lat":35.73181724,"lon":139.42322979},{"name":"デイグループほっと","province":"東京都","city":"東大和市","address":"東大和市清水3-785-2","lat":35.753785,"lon":139.442872},{"name":"デイグループぱーく","province":"東京都","city":"東大和市","address":"東大和市清水3-855-2","lat":35.753549,"lon":139.443224},{"name":"放課後等デイサービス　ぽっぷ","province":"東京都","city":"東大和市","address":"東大和市南街2-110-7","lat":35.738519,"lon":139.432059},{"name":"放課後デイ　ゆうハウス","province":"東京都","city":"東大和市","address":"東大和市中央3-855-10中央ビル1階AD号室","lat":35.744846,"lon":139.42827},{"name":"東大和市子ども家庭支援センター","province":"東京都","city":"東大和市","address":"東大和市立野1-1034-2","lat":35.744346,"lon":139.423146},{"name":"東大和市子ども家庭支援センター","province":"東京都","city":"東大和市","address":"東大和市立野1-16-1","lat":35.74454,"lon":139.42163},{"name":"東大和市子ども家庭支援センター","province":"東京都","city":"東大和市","address":"東大和市立野1-16-1","lat":35.744261,"lon":139.423228},{"name":"東大和高等学校","province":"東京都","city":"東大和市","address":"東京都東大和市中央3丁目945","lat":35.74553514,"lon":139.42458175},{"name":"東大和南高等学校","province":"東京都","city":"東大和市","address":"東京都東大和市桜が丘3丁目44-8","lat":35.73181724,"lon":139.42322979},{"name":"デイグループほっと","province":"東京都","city":"東大和市","address":"東大和市清水3-785-2","lat":35.753785,"lon":139.442872},{"name":"デイグループぱーく","province":"東京都","city":"東大和市","address":"東大和市清水3-855-2","lat":35.753549,"lon":139.443224},{"name":"放課後等デイサービス　ぽっぷ","province":"東京都","city":"東大和市","address":"東大和市南街2-110-7","lat":35.738519,"lon":139.432059},{"name":"放課後デイ　ゆうハウス","province":"東京都","city":"東大和市","address":"東大和市中央3-855-10中央ビル1階AD号室","lat":35.744846,"lon":139.42827},{"name":"東大和市子ども家庭支援センター","province":"東京都","city":"東大和市","address":"東大和市立野1-1034-2","lat":35.744346,"lon":139.423146},{"name":"東大和市子ども家庭支援センター","province":"東京都","city":"東大和市","address":"東大和市立野1-16-1","lat":35.74454,"lon":139.42163},{"name":"東大和市子ども家庭支援センター","province":"東京都","city":"東大和市","address":"東大和市立野1-16-1","lat":35.744261,"lon":139.423228},{"name":"東大和高等学校","province":"東京都","city":"東大和市","address":"東京都東大和市中央3丁目945","lat":35.74553514,"lon":139.42458175},{"name":"東大和南高等学校","province":"東京都","city":"東大和市","address":"東京都東大和市桜が丘3丁目44-8","lat":35.73181724,"lon":139.42322979},{"name":"デイグループほっと","province":"東京都","city":"東大和市","address":"東大和市清水3-785-2","lat":35.753785,"lon":139.442872},{"name":"デイグループぱーく","province":"東京都","city":"東大和市","address":"東大和市清水3-855-2","lat":35.753549,"lon":139.443224},{"name":"放課後等デイサービス　ぽっぷ","province":"東京都","city":"東大和市","address":"東大和市南街2-110-7","lat":35.738519,"lon":139.432059},{"name":"放課後デイ　ゆうハウス","province":"東京都","city":"東大和市","address":"東大和市中央3-855-10中央ビル1階AD号室","lat":35.744846,"lon":139.42827},{"name":"東大和市子ども家庭支援センター","province":"東京都","city":"東大和市","address":"東大和市立野1-1034-2","lat":35.744346,"lon":139.423146},{"name":"東大和市子ども家庭支援センター","province":"東京都","city":"東大和市","address":"東大和市立野1-16-1","lat":35.74454,"lon":139.42163},{"name":"東大和市子ども家庭支援センター","province":"東京都","city":"東大和市","address":"東大和市立野1-16-1","lat":35.744261,"lon":139.423228},{"name":"東大和高等学校","province":"東京都","city":"東大和市","address":"東京都東大和市中央3丁目945","lat":35.74553514,"lon":139.42458175},{"name":"東大和南高等学校","province":"東京都","city":"東大和市","address":"東京都東大和市桜が丘3丁目44-8","lat":35.73181724,"lon":139.42322979},{"name":"デイグループほっと","province":"東京都","city":"東大和市","address":"東大和市清水3-785-2","lat":35.753785,"lon":139.442872},{"name":"デイグループぱーく","province":"東京都","city":"東大和市","address":"東大和市清水3-855-2","lat":35.753549,"lon":139.443224},{"name":"放課後等デイサービス　ぽっぷ","province":"東京都","city":"東大和市","address":"東大和市南街2-110-7","lat":35.738519,"lon":139.432059},{"name":"放課後デイ　ゆうハウス","province":"東京都","city":"東大和市","address":"東大和市中央3-855-10中央ビル1階AD号室","lat":35.744846,"lon":139.42827},{"name":"東大和市子ども家庭支援センター","province":"東京都","city":"東大和市","address":"東大和市立野1-1034-2","lat":35.744346,"lon":139.423146},{"name":"東大和市子ども家庭支援センター","province":"東京都","city":"東大和市","address":"東大和市立野1-16-1","lat":35.74454,"lon":139.42163},{"name":"東大和市子ども家庭支援センター","province":"東京都","city":"東大和市","address":"東大和市立野1-16-1","lat":35.744261,"lon":139.423228},{"name":"東大和高等学校","province":"東京都","city":"東大和市","address":"東京都東大和市中央3丁目945","lat":35.74553514,"lon":139.42458175},{"name":"東大和南高等学校","province":"東京都","city":"東大和市","address":"東京都東大和市桜が丘3丁目44-8","lat":35.73181724,"lon":139.42322979},{"name":"デイグループほっと","province":"東京都","city":"東大和市","address":"東大和市清水3-785-2","lat":35.753785,"lon":139.442872},{"name":"デイグループぱーく","province":"東京都","city":"東大和市","address":"東大和市清水3-855-2","lat":35.753549,"lon":139.443224},{"name":"放課後等デイサービス　ぽっぷ","province":"東京都","city":"東大和市","address":"東大和市南街2-110-7","lat":35.738519,"lon":139.432059},{"name":"放課後デイ　ゆうハウス","province":"東京都","city":"東大和市","address":"東大和市中央3-855-10中央ビル1階AD号室","lat":35.744846,"lon":139.42827},{"name":"東大和市子ども家庭支援センター","province":"東京都","city":"東大和市","address":"東大和市立野1-1034-2","lat":35.744346,"lon":139.423146},{"name":"東大和市子ども家庭支援センター","province":"東京都","city":"東大和市","address":"東大和市立野1-16-1","lat":35.74454,"lon":139.42163},{"name":"東大和市子ども家庭支援センター","province":"東京都","city":"東大和市","address":"東大和市立野1-16-1","lat":35.744261,"lon":139.423228},{"name":"東大和高等学校","province":"東京都","city":"東大和市","address":"東京都東大和市中央3丁目945","lat":35.74553514,"lon":139.42458175},{"name":"東大和南高等学校","province":"東京都","city":"東大和市","address":"東京都東大和市桜が丘3丁目44-8","lat":35.73181724,"lon":139.42322979},{"name":"デイグループほっと","province":"東京都","city":"東大和市","address":"東大和市清水3-785-2","lat":35.753785,"lon":139.442872},{"name":"デイグループぱーく","province":"東京都","city":"東大和市","address":"東大和市清水3-855-2","lat":35.753549,"lon":139.443224},{"name":"放課後等デイサービス　ぽっぷ","province":"東京都","city":"東大和市","address":"東大和市南街2-110-7","lat":35.738519,"lon":139.432059},{"name":"放課後デイ　ゆうハウス","province":"東京都","city":"東大和市","address":"東大和市中央3-855-10中央ビル1階AD号室","lat":35.744846,"lon":139.42827},{"name":"東大和市子ども家庭支援センター","province":"東京都","city":"東大和市","address":"東大和市立野1-1034-2","lat":35.744346,"lon":139.423146},{"name":"東大和市子ども家庭支援センター","province":"東京都","city":"東大和市","address":"東大和市立野1-16-1","lat":35.74454,"lon":139.42163},{"name":"東大和市子ども家庭支援センター","province":"東京都","city":"東大和市","address":"東大和市立野1-16-1","lat":35.744261,"lon":139.423228},{"name":"東大和高等学校","province":"東京都","city":"東大和市","address":"東京都東大和市中央3丁目945","lat":35.74553514,"lon":139.42458175},{"name":"東大和南高等学校","province":"東京都","city":"東大和市","address":"東京都東大和市桜が丘3丁目44-8","lat":35.73181724,"lon":139.42322979},{"name":"デイグループほっと","province":"東京都","city":"東大和市","address":"東大和市清水3-785-2","lat":35.753785,"lon":139.442872},{"name":"デイグループぱーく","province":"東京都","city":"東大和市","address":"東大和市清水3-855-2","lat":35.753549,"lon":139.443224},{"name":"放課後等デイサービス　ぽっぷ","province":"東京都","city":"東大和市","address":"東大和市南街2-110-7","lat":35.738519,"lon":139.432059},{"name":"放課後デイ　ゆうハウス","province":"東京都","city":"東大和市","address":"東大和市中央3-855-10中央ビル1階AD号室","lat":35.744846,"lon":139.42827},{"name":"東大和市子ども家庭支援センター","province":"東京都","city":"東大和市","address":"東大和市立野1-1034-2","lat":35.744346,"lon":139.423146},{"name":"東大和市子ども家庭支援センター","province":"東京都","city":"東大和市","address":"東大和市立野1-16-1","lat":35.74454,"lon":139.42163},{"name":"東大和市子ども家庭支援センター","province":"東京都","city":"東大和市","address":"東大和市立野1-16-1","lat":35.744261,"lon":139.423228},{"name":"東大和高等学校","province":"東京都","city":"東大和市","address":"東京都東大和市中央3丁目945","lat":35.74553514,"lon":139.42458175},{"name":"東大和南高等学校","province":"東京都","city":"東大和市","address":"東京都東大和市桜が丘3丁目44-8","lat":35.73181724,"lon":139.42322979},{"name":"デイグループほっと","province":"東京都","city":"東大和市","address":"東大和市清水3-785-2","lat":35.753785,"lon":139.442872},{"name":"デイグループぱーく","province":"東京都","city":"東大和市","address":"東大和市清水3-855-2","lat":35.753549,"lon":139.443224},{"name":"放課後等デイサービス　ぽっぷ","province":"東京都","city":"東大和市","address":"東大和市南街2-110-7","lat":35.738519,"lon":139.432059},{"name":"放課後デイ　ゆうハウス","province":"東京都","city":"東大和市","address":"東大和市中央3-855-10中央ビル1階AD号室","lat":35.744846,"lon":139.42827},{"name":"東大和市子ども家庭支援センター","province":"東京都","city":"東大和市","address":"東大和市立野1-1034-2","lat":35.744346,"lon":139.423146},{"name":"東大和市子ども家庭支援センター","province":"東京都","city":"東大和市","address":"東大和市立野1-16-1","lat":35.74454,"lon":139.42163},{"name":"東大和市子ども家庭支援センター","province":"東京都","city":"東大和市","address":"東大和市立野1-16-1","lat":35.744261,"lon":139.423228},{"name":"東大和高等学校","province":"東京都","city":"東大和市","address":"東京都東大和市中央3丁目945","lat":35.74553514,"lon":139.42458175},{"name":"東大和南高等学校","province":"東京都","city":"東大和市","address":"東京都東大和市桜が丘3丁目44-8","lat":35.73181724,"lon":139.42322979},{"name":"デイグループほっと","province":"東京都","city":"東大和市","address":"東大和市清水3-785-2","lat":35.753785,"lon":139.442872},{"name":"デイグループぱーく","province":"東京都","city":"東大和市","address":"東大和市清水3-855-2","lat":35.753549,"lon":139.443224},{"name":"放課後等デイサービス　ぽっぷ","province":"東京都","city":"東大和市","address":"東大和市南街2-110-7","lat":35.738519,"lon":139.432059},{"name":"放課後デイ　ゆうハウス","province":"東京都","city":"東大和市","address":"東大和市中央3-855-10中央ビル1階AD号室","lat":35.744846,"lon":139.42827},{"name":"東大和市子ども家庭支援センター","province":"東京都","city":"東大和市","address":"東大和市立野1-1034-2","lat":35.744346,"lon":139.423146},{"name":"東大和市子ども家庭支援センター","province":"東京都","city":"東大和市","address":"東大和市立野1-16-1","lat":35.74454,"lon":139.42163},{"name":"東大和市子ども家庭支援センター","province":"東京都","city":"東大和市","address":"東大和市立野1-16-1","lat":35.744261,"lon":139.423228},{"name":"東大和高等学校","province":"東京都","city":"東大和市","address":"東京都東大和市中央3丁目945","lat":35.74553514,"lon":139.42458175},{"name":"東大和南高等学校","province":"東京都","city":"東大和市","address":"東京都東大和市桜が丘3丁目44-8","lat":35.73181724,"lon":139.42322979},{"name":"デイグループほっと","province":"東京都","city":"東大和市","address":"東大和市清水3-785-2","lat":35.753785,"lon":139.442872},{"name":"デイグループぱーく","province":"東京都","city":"東大和市","address":"東大和市清水3-855-2","lat":35.753549,"lon":139.443224},{"name":"放課後等デイサービス　ぽっぷ","province":"東京都","city":"東大和市","address":"東大和市南街2-110-7","lat":35.738519,"lon":139.432059},{"name":"放課後デイ　ゆうハウス","province":"東京都","city":"東大和市","address":"東大和市中央3-855-10中央ビル1階AD号室","lat":35.744846,"lon":139.42827},{"name":"東大和市子ども家庭支援センター","province":"東京都","city":"東大和市","address":"東大和市立野1-1034-2","lat":35.744346,"lon":139.423146},{"name":"東大和市子ども家庭支援センター","province":"東京都","city":"東大和市","address":"東大和市立野1-16-1","lat":35.74454,"lon":139.42163},{"name":"東大和市子ども家庭支援センター","province":"東京都","city":"東大和市","address":"東大和市立野1-16-1","lat":35.744261,"lon":139.423228},{"name":"デイグループほっと","province":"東京都","city":"東大和市","address":"東大和市清水3-785-2","lat":35.753785,"lon":139.442872},{"name":"デイグループぱーく","province":"東京都","city":"東大和市","address":"東大和市清水3-855-2","lat":35.753549,"lon":139.443224},{"name":"放課後等デイサービス　ぽっぷ","province":"東京都","city":"東大和市","address":"東大和市南街2-110-7","lat":35.738519,"lon":139.432059},{"name":"放課後デイ　ゆうハウス","province":"東京都","city":"東大和市","address":"東大和市中央3-855-10中央ビル1階AD号室","lat":35.744846,"lon":139.42827},{"name":"東大和市子ども家庭支援センター","province":"東京都","city":"東大和市","address":"東大和市立野1-1034-2","lat":35.744346,"lon":139.423146},{"name":"東大和市子ども家庭支援センター","province":"東京都","city":"東大和市","address":"東大和市立野1-16-1","lat":35.74454,"lon":139.42163},{"name":"東大和市子ども家庭支援センター","province":"東京都","city":"東大和市","address":"東大和市立野1-16-1","lat":35.744261,"lon":139.423228},{"name":"デイグループほっと","province":"東京都","city":"東大和市","address":"東大和市清水3-785-2","lat":35.753785,"lon":139.442872},{"name":"デイグループぱーく","province":"東京都","city":"東大和市","address":"東大和市清水3-855-2","lat":35.753549,"lon":139.443224},{"name":"放課後等デイサービス　ぽっぷ","province":"東京都","city":"東大和市","address":"東大和市南街2-110-7","lat":35.738519,"lon":139.432059},{"name":"放課後デイ　ゆうハウス","province":"東京都","city":"東大和市","address":"東大和市中央3-855-10中央ビル1階AD号室","lat":35.744846,"lon":139.42827},{"name":"東大和市子ども家庭支援センター","province":"東京都","city":"東大和市","address":"東大和市立野1-1034-2","lat":35.744346,"lon":139.423146},{"name":"東大和市子ども家庭支援センター","province":"東京都","city":"東大和市","address":"東大和市立野1-16-1","lat":35.74454,"lon":139.42163},{"name":"東大和市子ども家庭支援センター","province":"東京都","city":"東大和市","address":"東大和市立野1-16-1","lat":35.744261,"lon":139.423228},{"name":"デイグループほっと","province":"東京都","city":"東大和市","address":"東大和市清水3-785-2","lat":35.753785,"lon":139.442872},{"name":"デイグループぱーく","province":"東京都","city":"東大和市","address":"東大和市清水3-855-2","lat":35.753549,"lon":139.443224},{"name":"放課後等デイサービス　ぽっぷ","province":"東京都","city":"東大和市","address":"東大和市南街2-110-7","lat":35.738519,"lon":139.432059},{"name":"放課後デイ　ゆうハウス","province":"東京都","city":"東大和市","address":"東大和市中央3-855-10中央ビル1階AD号室","lat":35.744846,"lon":139.42827},{"name":"東大和市子ども家庭支援センター","province":"東京都","city":"東大和市","address":"東大和市立野1-1034-2","lat":35.744346,"lon":139.423146},{"name":"東大和市子ども家庭支援センター","province":"東京都","city":"東大和市","address":"東大和市立野1-16-1","lat":35.74454,"lon":139.42163},{"name":"東大和市子ども家庭支援センター","province":"東京都","city":"東大和市","address":"東大和市立野1-16-1","lat":35.744261,"lon":139.423228},{"name":"デイグループほっと","province":"東京都","city":"東大和市","address":"東大和市清水3-785-2","lat":35.753785,"lon":139.442872},{"name":"デイグループぱーく","province":"東京都","city":"東大和市","address":"東大和市清水3-855-2","lat":35.753549,"lon":139.443224},{"name":"放課後等デイサービス　ぽっぷ","province":"東京都","city":"東大和市","address":"東大和市南街2-110-7","lat":35.738519,"lon":139.432059},{"name":"放課後デイ　ゆうハウス","province":"東京都","city":"東大和市","address":"東大和市中央3-855-10中央ビル1階AD号室","lat":35.744846,"lon":139.42827},{"name":"東大和市子ども家庭支援センター","province":"東京都","city":"東大和市","address":"東大和市立野1-1034-2","lat":35.744346,"lon":139.423146},{"name":"東大和市子ども家庭支援センター","province":"東京都","city":"東大和市","address":"東大和市立野1-16-1","lat":35.74454,"lon":139.42163},{"name":"東大和市子ども家庭支援センター","province":"東京都","city":"東大和市","address":"東大和市立野1-16-1","lat":35.744261,"lon":139.423228},{"name":"デイグループほっと","province":"東京都","city":"東大和市","address":"東大和市清水3-785-2","lat":35.753785,"lon":139.442872},{"name":"デイグループぱーく","province":"東京都","city":"東大和市","address":"東大和市清水3-855-2","lat":35.753549,"lon":139.443224},{"name":"放課後等デイサービス　ぽっぷ","province":"東京都","city":"東大和市","address":"東大和市南街2-110-7","lat":35.738519,"lon":139.432059},{"name":"放課後デイ　ゆうハウス","province":"東京都","city":"東大和市","address":"東大和市中央3-855-10中央ビル1階AD号室","lat":35.744846,"lon":139.42827},{"name":"東大和市子ども家庭支援センター","province":"東京都","city":"東大和市","address":"東大和市立野1-1034-2","lat":35.744346,"lon":139.423146},{"name":"東大和市子ども家庭支援センター","province":"東京都","city":"東大和市","address":"東大和市立野1-16-1","lat":35.74454,"lon":139.42163},{"name":"東大和市子ども家庭支援センター","province":"東京都","city":"東大和市","address":"東大和市立野1-16-1","lat":35.744261,"lon":139.423228},{"name":"デイグループほっと","province":"東京都","city":"東大和市","address":"東大和市清水3-785-2","lat":35.753785,"lon":139.442872},{"name":"デイグループぱーく","province":"東京都","city":"東大和市","address":"東大和市清水3-855-2","lat":35.753549,"lon":139.443224},{"name":"放課後等デイサービス　ぽっぷ","province":"東京都","city":"東大和市","address":"東大和市南街2-110-7","lat":35.738519,"lon":139.432059},{"name":"放課後デイ　ゆうハウス","province":"東京都","city":"東大和市","address":"東大和市中央3-855-10中央ビル1階AD号室","lat":35.744846,"lon":139.42827},{"name":"東大和市子ども家庭支援センター","province":"東京都","city":"東大和市","address":"東大和市立野1-1034-2","lat":35.744346,"lon":139.423146},{"name":"東大和市子ども家庭支援センター","province":"東京都","city":"東大和市","address":"東大和市立野1-16-1","lat":35.74454,"lon":139.42163},{"name":"東大和市子ども家庭支援センター","province":"東京都","city":"東大和市","address":"東大和市立野1-16-1","lat":35.744261,"lon":139.423228},{"name":"デイグループほっと","province":"東京都","city":"東大和市","address":"東大和市清水3-785-2","lat":35.753785,"lon":139.442872},{"name":"デイグループぱーく","province":"東京都","city":"東大和市","address":"東大和市清水3-855-2","lat":35.753549,"lon":139.443224},{"name":"放課後等デイサービス　ぽっぷ","province":"東京都","city":"東大和市","address":"東大和市南街2-110-7","lat":35.738519,"lon":139.432059},{"name":"放課後デイ　ゆうハウス","province":"東京都","city":"東大和市","address":"東大和市中央3-855-10中央ビル1階AD号室","lat":35.744846,"lon":139.42827},{"name":"東大和市子ども家庭支援センター","province":"東京都","city":"東大和市","address":"東大和市立野1-1034-2","lat":35.744346,"lon":139.423146},{"name":"東大和市子ども家庭支援センター","province":"東京都","city":"東大和市","address":"東大和市立野1-16-1","lat":35.74454,"lon":139.42163},{"name":"東大和市子ども家庭支援センター","province":"東京都","city":"東大和市","address":"東大和市立野1-16-1","lat":35.744261,"lon":139.423228},{"name":"デイグループほっと","province":"東京都","city":"東大和市","address":"東大和市清水3-785-2","lat":35.753785,"lon":139.442872},{"name":"デイグループぱーく","province":"東京都","city":"東大和市","address":"東大和市清水3-855-2","lat":35.753549,"lon":139.443224},{"name":"放課後等デイサービス　ぽっぷ","province":"東京都","city":"東大和市","address":"東大和市南街2-110-7","lat":35.738519,"lon":139.432059},{"name":"放課後デイ　ゆうハウス","province":"東京都","city":"東大和市","address":"東大和市中央3-855-10中央ビル1階AD号室","lat":35.744846,"lon":139.42827},{"name":"東大和市子ども家庭支援センター","province":"東京都","city":"東大和市","address":"東大和市立野1-1034-2","lat":35.744346,"lon":139.423146},{"name":"東大和市子ども家庭支援センター","province":"東京都","city":"東大和市","address":"東大和市立野1-16-1","lat":35.74454,"lon":139.42163},{"name":"東大和市子ども家庭支援センター","province":"東京都","city":"東大和市","address":"東大和市立野1-16-1","lat":35.744261,"lon":139.423228},{"name":"デイグループほっと","province":"東京都","city":"東大和市","address":"東大和市清水3-785-2","lat":35.753785,"lon":139.442872},{"name":"デイグループぱーく","province":"東京都","city":"東大和市","address":"東大和市清水3-855-2","lat":35.753549,"lon":139.443224},{"name":"放課後等デイサービス　ぽっぷ","province":"東京都","city":"東大和市","address":"東大和市南街2-110-7","lat":35.738519,"lon":139.432059},{"name":"放課後デイ　ゆうハウス","province":"東京都","city":"東大和市","address":"東大和市中央3-855-10中央ビル1階AD号室","lat":35.744846,"lon":139.42827},{"name":"東大和市子ども家庭支援センター","province":"東京都","city":"東大和市","address":"東大和市立野1-1034-2","lat":35.744346,"lon":139.423146},{"name":"東大和市子ども家庭支援センター","province":"東京都","city":"東大和市","address":"東大和市立野1-16-1","lat":35.74454,"lon":139.42163},{"name":"東大和市子ども家庭支援センター","province":"東京都","city":"東大和市","address":"東大和市立野1-16-1","lat":35.744261,"lon":139.423228},{"name":"デイグループほっと","province":"東京都","city":"東大和市","address":"東大和市清水3-785-2","lat":35.753785,"lon":139.442872},{"name":"デイグループぱーく","province":"東京都","city":"東大和市","address":"東大和市清水3-855-2","lat":35.753549,"lon":139.443224},{"name":"放課後等デイサービス　ぽっぷ","province":"東京都","city":"東大和市","address":"東大和市南街2-110-7","lat":35.738519,"lon":139.432059},{"name":"放課後デイ　ゆうハウス","province":"東京都","city":"東大和市","address":"東大和市中央3-855-10中央ビル1階AD号室","lat":35.744846,"lon":139.42827},{"name":"東大和市子ども家庭支援センター","province":"東京都","city":"東大和市","address":"東大和市立野1-1034-2","lat":35.744346,"lon":139.423146},{"name":"東大和市子ども家庭支援センター","province":"東京都","city":"東大和市","address":"東大和市立野1-16-1","lat":35.74454,"lon":139.42163},{"name":"東大和市子ども家庭支援センター","province":"東京都","city":"東大和市","address":"東大和市立野1-16-1","lat":35.744261,"lon":139.423228},{"name":"デイグループほっと","province":"東京都","city":"東大和市","address":"東大和市清水3-785-2","lat":35.753785,"lon":139.442872},{"name":"デイグループぱーく","province":"東京都","city":"東大和市","address":"東大和市清水3-855-2","lat":35.753549,"lon":139.443224},{"name":"放課後等デイサービス　ぽっぷ","province":"東京都","city":"東大和市","address":"東大和市南街2-110-7","lat":35.738519,"lon":139.432059},{"name":"放課後デイ　ゆうハウス","province":"東京都","city":"東大和市","address":"東大和市中央3-855-10中央ビル1階AD号室","lat":35.744846,"lon":139.42827},{"name":"東大和市子ども家庭支援センター","province":"東京都","city":"東大和市","address":"東大和市立野1-1034-2","lat":35.744346,"lon":139.423146},{"name":"東大和市子ども家庭支援センター","province":"東京都","city":"東大和市","address":"東大和市立野1-16-1","lat":35.74454,"lon":139.42163},{"name":"東大和市子ども家庭支援センター","province":"東京都","city":"東大和市","address":"東大和市立野1-16-1","lat":35.744261,"lon":139.423228},{"name":"デイグループほっと","province":"東京都","city":"東大和市","address":"東大和市清水3-785-2","lat":35.753785,"lon":139.442872},{"name":"デイグループぱーく","province":"東京都","city":"東大和市","address":"東大和市清水3-855-2","lat":35.753549,"lon":139.443224},{"name":"放課後等デイサービス　ぽっぷ","province":"東京都","city":"東大和市","address":"東大和市南街2-110-7","lat":35.738519,"lon":139.432059},{"name":"放課後デイ　ゆうハウス","province":"東京都","city":"東大和市","address":"東大和市中央3-855-10中央ビル1階AD号室","lat":35.744846,"lon":139.42827},{"name":"東大和市子ども家庭支援センター","province":"東京都","city":"東大和市","address":"東大和市立野1-1034-2","lat":35.744346,"lon":139.423146},{"name":"東大和市子ども家庭支援センター","province":"東京都","city":"東大和市","address":"東大和市立野1-16-1","lat":35.74454,"lon":139.42163},{"name":"東大和市子ども家庭支援センター","province":"東京都","city":"東大和市","address":"東大和市立野1-16-1","lat":35.744261,"lon":139.423228},{"name":"デイグループほっと","province":"東京都","city":"東大和市","address":"東大和市清水3-785-2","lat":35.753785,"lon":139.442872},{"name":"デイグループぱーく","province":"東京都","city":"東大和市","address":"東大和市清水3-855-2","lat":35.753549,"lon":139.443224},{"name":"放課後等デイサービス　ぽっぷ","province":"東京都","city":"東大和市","address":"東大和市南街2-110-7","lat":35.738519,"lon":139.432059},{"name":"放課後デイ　ゆうハウス","province":"東京都","city":"東大和市","address":"東大和市中央3-855-10中央ビル1階AD号室","lat":35.744846,"lon":139.42827},{"name":"東大和市子ども家庭支援センター","province":"東京都","city":"東大和市","address":"東大和市立野1-1034-2","lat":35.744346,"lon":139.423146},{"name":"東大和市子ども家庭支援センター","province":"東京都","city":"東大和市","address":"東大和市立野1-16-1","lat":35.74454,"lon":139.42163},{"name":"東大和市子ども家庭支援センター","province":"東京都","city":"東大和市","address":"東大和市立野1-16-1","lat":35.744261,"lon":139.423228},{"name":"デイグループほっと","province":"東京都","city":"東大和市","address":"東大和市清水3-785-2","lat":35.753785,"lon":139.442872},{"name":"デイグループぱーく","province":"東京都","city":"東大和市","address":"東大和市清水3-855-2","lat":35.753549,"lon":139.443224},{"name":"放課後等デイサービス　ぽっぷ","province":"東京都","city":"東大和市","address":"東大和市南街2-110-7","lat":35.738519,"lon":139.432059},{"name":"放課後デイ　ゆうハウス","province":"東京都","city":"東大和市","address":"東大和市中央3-855-10中央ビル1階AD号室","lat":35.744846,"lon":139.42827},{"name":"東大和市子ども家庭支援センター","province":"東京都","city":"東大和市","address":"東大和市立野1-1034-2","lat":35.744346,"lon":139.423146},{"name":"東大和市子ども家庭支援センター","province":"東京都","city":"東大和市","address":"東大和市立野1-16-1","lat":35.74454,"lon":139.42163},{"name":"東大和市子ども家庭支援センター","province":"東京都","city":"東大和市","address":"東大和市立野1-16-1","lat":35.744261,"lon":139.423228},{"name":"デイグループほっと","province":"東京都","city":"東大和市","address":"東大和市清水3-785-2","lat":35.753785,"lon":139.442872},{"name":"デイグループぱーく","province":"東京都","city":"東大和市","address":"東大和市清水3-855-2","lat":35.753549,"lon":139.443224},{"name":"放課後等デイサービス　ぽっぷ","province":"東京都","city":"東大和市","address":"東大和市南街2-110-7","lat":35.738519,"lon":139.432059},{"name":"放課後デイ　ゆうハウス","province":"東京都","city":"東大和市","address":"東大和市中央3-855-10中央ビル1階AD号室","lat":35.744846,"lon":139.42827},{"name":"東大和市子ども家庭支援センター","province":"東京都","city":"東大和市","address":"東大和市立野1-1034-2","lat":35.744346,"lon":139.423146},{"name":"東大和市子ども家庭支援センター","province":"東京都","city":"東大和市","address":"東大和市立野1-16-1","lat":35.74454,"lon":139.42163},{"name":"東大和市子ども家庭支援センター","province":"東京都","city":"東大和市","address":"東大和市立野1-16-1","lat":35.744261,"lon":139.423228},{"name":"デイグループほっと","province":"東京都","city":"東大和市","address":"東大和市清水3-785-2","lat":35.753785,"lon":139.442872},{"name":"デイグループぱーく","province":"東京都","city":"東大和市","address":"東大和市清水3-855-2","lat":35.753549,"lon":139.443224},{"name":"放課後等デイサービス　ぽっぷ","province":"東京都","city":"東大和市","address":"東大和市南街2-110-7","lat":35.738519,"lon":139.432059},{"name":"放課後デイ　ゆうハウス","province":"東京都","city":"東大和市","address":"東大和市中央3-855-10中央ビル1階AD号室","lat":35.744846,"lon":139.42827},{"name":"東大和市子ども家庭支援センター","province":"東京都","city":"東大和市","address":"東大和市立野1-1034-2","lat":35.744346,"lon":139.423146},{"name":"東大和市子ども家庭支援センター","province":"東京都","city":"東大和市","address":"東大和市立野1-16-1","lat":35.74454,"lon":139.42163},{"name":"東大和市子ども家庭支援センター","province":"東京都","city":"東大和市","address":"東大和市立野1-16-1","lat":35.744261,"lon":139.423228},{"name":"デイグループほっと","province":"東京都","city":"東大和市","address":"東大和市清水3-785-2","lat":35.753785,"lon":139.442872},{"name":"デイグループぱーく","province":"東京都","city":"東大和市","address":"東大和市清水3-855-2","lat":35.753549,"lon":139.443224},{"name":"放課後等デイサービス　ぽっぷ","province":"東京都","city":"東大和市","address":"東大和市南街2-110-7","lat":35.738519,"lon":139.432059},{"name":"放課後デイ　ゆうハウス","province":"東京都","city":"東大和市","address":"東大和市中央3-855-10中央ビル1階AD号室","lat":35.744846,"lon":139.42827},{"name":"東大和市子ども家庭支援センター","province":"東京都","city":"東大和市","address":"東大和市立野1-1034-2","lat":35.744346,"lon":139.423146},{"name":"東大和市子ども家庭支援センター","province":"東京都","city":"東大和市","address":"東大和市立野1-16-1","lat":35.74454,"lon":139.42163},{"name":"東大和市子ども家庭支援センター","province":"東京都","city":"東大和市","address":"東大和市立野1-16-1","lat":35.744261,"lon":139.423228},{"name":"デイグループほっと","province":"東京都","city":"東大和市","address":"東大和市清水3-785-2","lat":35.753785,"lon":139.442872},{"name":"デイグループぱーく","province":"東京都","city":"東大和市","address":"東大和市清水3-855-2","lat":35.753549,"lon":139.443224},{"name":"放課後等デイサービス　ぽっぷ","province":"東京都","city":"東大和市","address":"東大和市南街2-110-7","lat":35.738519,"lon":139.432059},{"name":"放課後デイ　ゆうハウス","province":"東京都","city":"東大和市","address":"東大和市中央3-855-10中央ビル1階AD号室","lat":35.744846,"lon":139.42827},{"name":"東大和市子ども家庭支援センター","province":"東京都","city":"東大和市","address":"東大和市立野1-1034-2","lat":35.744346,"lon":139.423146},{"name":"東大和市子ども家庭支援センター","province":"東京都","city":"東大和市","address":"東大和市立野1-16-1","lat":35.74454,"lon":139.42163},{"name":"東大和市子ども家庭支援センター","province":"東京都","city":"東大和市","address":"東大和市立野1-16-1","lat":35.744261,"lon":139.423228},{"name":"デイグループほっと","province":"東京都","city":"東大和市","address":"東大和市清水3-785-2","lat":35.753785,"lon":139.442872},{"name":"デイグループぱーく","province":"東京都","city":"東大和市","address":"東大和市清水3-855-2","lat":35.753549,"lon":139.443224},{"name":"放課後等デイサービス　ぽっぷ","province":"東京都","city":"東大和市","address":"東大和市南街2-110-7","lat":35.738519,"lon":139.432059},{"name":"放課後デイ　ゆうハウス","province":"東京都","city":"東大和市","address":"東大和市中央3-855-10中央ビル1階AD号室","lat":35.744846,"lon":139.42827},{"name":"東大和市子ども家庭支援センター","province":"東京都","city":"東大和市","address":"東大和市立野1-1034-2","lat":35.744346,"lon":139.423146},{"name":"東大和市子ども家庭支援センター","province":"東京都","city":"東大和市","address":"東大和市立野1-16-1","lat":35.74454,"lon":139.42163},{"name":"東大和市子ども家庭支援センター","province":"東京都","city":"東大和市","address":"東大和市立野1-16-1","lat":35.744261,"lon":139.423228},{"name":"デイグループほっと","province":"東京都","city":"東大和市","address":"東大和市清水3-785-2","lat":35.753785,"lon":139.442872},{"name":"デイグループぱーく","province":"東京都","city":"東大和市","address":"東大和市清水3-855-2","lat":35.753549,"lon":139.443224},{"name":"放課後等デイサービス　ぽっぷ","province":"東京都","city":"東大和市","address":"東大和市南街2-110-7","lat":35.738519,"lon":139.432059},{"name":"放課後デイ　ゆうハウス","province":"東京都","city":"東大和市","address":"東大和市中央3-855-10中央ビル1階AD号室","lat":35.744846,"lon":139.42827},{"name":"東大和市子ども家庭支援センター","province":"東京都","city":"東大和市","address":"東大和市立野1-1034-2","lat":35.744346,"lon":139.423146},{"name":"東大和市子ども家庭支援センター","province":"東京都","city":"東大和市","address":"東大和市立野1-16-1","lat":35.74454,"lon":139.42163},{"name":"東大和市子ども家庭支援センター","province":"東京都","city":"東大和市","address":"東大和市立野1-16-1","lat":35.744261,"lon":139.423228},{"name":"デイグループほっと","province":"東京都","city":"東大和市","address":"東大和市清水3-785-2","lat":35.753785,"lon":139.442872},{"name":"デイグループぱーく","province":"東京都","city":"東大和市","address":"東大和市清水3-855-2","lat":35.753549,"lon":139.443224},{"name":"放課後等デイサービス　ぽっぷ","province":"東京都","city":"東大和市","address":"東大和市南街2-110-7","lat":35.738519,"lon":139.432059},{"name":"放課後デイ　ゆうハウス","province":"東京都","city":"東大和市","address":"東大和市中央3-855-10中央ビル1階AD号室","lat":35.744846,"lon":139.42827},{"name":"東大和市子ども家庭支援センター","province":"東京都","city":"東大和市","address":"東大和市立野1-1034-2","lat":35.744346,"lon":139.423146},{"name":"東大和市子ども家庭支援センター","province":"東京都","city":"東大和市","address":"東大和市立野1-16-1","lat":35.74454,"lon":139.42163},{"name":"東大和市子ども家庭支援センター","province":"東京都","city":"東大和市","address":"東大和市立野1-16-1","lat":35.744261,"lon":139.423228},{"name":"デイグループほっと","province":"東京都","city":"東大和市","address":"東大和市清水3-785-2","lat":35.753785,"lon":139.442872},{"name":"デイグループぱーく","province":"東京都","city":"東大和市","address":"東大和市清水3-855-2","lat":35.753549,"lon":139.443224},{"name":"放課後等デイサービス　ぽっぷ","province":"東京都","city":"東大和市","address":"東大和市南街2-110-7","lat":35.738519,"lon":139.432059},{"name":"放課後デイ　ゆうハウス","province":"東京都","city":"東大和市","address":"東大和市中央3-855-10中央ビル1階AD号室","lat":35.744846,"lon":139.42827},{"name":"東大和市子ども家庭支援センター","province":"東京都","city":"東大和市","address":"東大和市立野1-1034-2","lat":35.744346,"lon":139.423146},{"name":"東大和市子ども家庭支援センター","province":"東京都","city":"東大和市","address":"東大和市立野1-16-1","lat":35.74454,"lon":139.42163},{"name":"東大和市子ども家庭支援センター","province":"東京都","city":"東大和市","address":"東大和市立野1-16-1","lat":35.744261,"lon":139.423228},{"name":"デイグループほっと","province":"東京都","city":"東大和市","address":"東大和市清水3-785-2","lat":35.753785,"lon":139.442872},{"name":"デイグループぱーく","province":"東京都","city":"東大和市","address":"東大和市清水3-855-2","lat":35.753549,"lon":139.443224},{"name":"放課後等デイサービス　ぽっぷ","province":"東京都","city":"東大和市","address":"東大和市南街2-110-7","lat":35.738519,"lon":139.432059},{"name":"放課後デイ　ゆうハウス","province":"東京都","city":"東大和市","address":"東大和市中央3-855-10中央ビル1階AD号室","lat":35.744846,"lon":139.42827},{"name":"東大和市子ども家庭支援センター","province":"東京都","city":"東大和市","address":"東大和市立野1-1034-2","lat":35.744346,"lon":139.423146},{"name":"東大和市子ども家庭支援センター","province":"東京都","city":"東大和市","address":"東大和市立野1-16-1","lat":35.74454,"lon":139.42163},{"name":"東大和市子ども家庭支援センター","province":"東京都","city":"東大和市","address":"東大和市立野1-16-1","lat":35.744261,"lon":139.423228},{"name":"デイグループほっと","province":"東京都","city":"東大和市","address":"東大和市清水3-785-2","lat":35.753785,"lon":139.442872},{"name":"デイグループぱーく","province":"東京都","city":"東大和市","address":"東大和市清水3-855-2","lat":35.753549,"lon":139.443224},{"name":"放課後等デイサービス　ぽっぷ","province":"東京都","city":"東大和市","address":"東大和市南街2-110-7","lat":35.738519,"lon":139.432059},{"name":"放課後デイ　ゆうハウス","province":"東京都","city":"東大和市","address":"東大和市中央3-855-10中央ビル1階AD号室","lat":35.744846,"lon":139.42827},{"name":"東大和市子ども家庭支援センター","province":"東京都","city":"東大和市","address":"東大和市立野1-1034-2","lat":35.744346,"lon":139.423146},{"name":"東大和市子ども家庭支援センター","province":"東京都","city":"東大和市","address":"東大和市立野1-16-1","lat":35.74454,"lon":139.42163},{"name":"東大和市子ども家庭支援センター","province":"東京都","city":"東大和市","address":"東大和市立野1-16-1","lat":35.744261,"lon":139.423228},{"name":"デイグループほっと","province":"東京都","city":"東大和市","address":"東大和市清水3-785-2","lat":35.753785,"lon":139.442872},{"name":"デイグループぱーく","province":"東京都","city":"東大和市","address":"東大和市清水3-855-2","lat":35.753549,"lon":139.443224},{"name":"放課後等デイサービス　ぽっぷ","province":"東京都","city":"東大和市","address":"東大和市南街2-110-7","lat":35.738519,"lon":139.432059},{"name":"放課後デイ　ゆうハウス","province":"東京都","city":"東大和市","address":"東大和市中央3-855-10中央ビル1階AD号室","lat":35.744846,"lon":139.42827},{"name":"東大和市子ども家庭支援センター","province":"東京都","city":"東大和市","address":"東大和市立野1-1034-2","lat":35.744346,"lon":139.423146},{"name":"東大和市子ども家庭支援センター","province":"東京都","city":"東大和市","address":"東大和市立野1-16-1","lat":35.74454,"lon":139.42163},{"name":"東大和市子ども家庭支援センター","province":"東京都","city":"東大和市","address":"東大和市立野1-16-1","lat":35.744261,"lon":139.423228},{"name":"デイグループほっと","province":"東京都","city":"東大和市","address":"東大和市清水3-785-2","lat":35.753785,"lon":139.442872},{"name":"デイグループぱーく","province":"東京都","city":"東大和市","address":"東大和市清水3-855-2","lat":35.753549,"lon":139.443224},{"name":"放課後等デイサービス　ぽっぷ","province":"東京都","city":"東大和市","address":"東大和市南街2-110-7","lat":35.738519,"lon":139.432059},{"name":"放課後デイ　ゆうハウス","province":"東京都","city":"東大和市","address":"東大和市中央3-855-10中央ビル1階AD号室","lat":35.744846,"lon":139.42827},{"name":"東大和市子ども家庭支援センター","province":"東京都","city":"東大和市","address":"東大和市立野1-1034-2","lat":35.744346,"lon":139.423146},{"name":"東大和市子ども家庭支援センター","province":"東京都","city":"東大和市","address":"東大和市立野1-16-1","lat":35.74454,"lon":139.42163},{"name":"東大和市子ども家庭支援センター","province":"東京都","city":"東大和市","address":"東大和市立野1-16-1","lat":35.744261,"lon":139.423228},{"name":"デイグループほっと","province":"東京都","city":"東大和市","address":"東大和市清水3-785-2","lat":35.753785,"lon":139.442872},{"name":"デイグループぱーく","province":"東京都","city":"東大和市","address":"東大和市清水3-855-2","lat":35.753549,"lon":139.443224},{"name":"放課後等デイサービス　ぽっぷ","province":"東京都","city":"東大和市","address":"東大和市南街2-110-7","lat":35.738519,"lon":139.432059},{"name":"放課後デイ　ゆうハウス","province":"東京都","city":"東大和市","address":"東大和市中央3-855-10中央ビル1階AD号室","lat":35.744846,"lon":139.42827},{"name":"東大和市子ども家庭支援センター","province":"東京都","city":"東大和市","address":"東大和市立野1-1034-2","lat":35.744346,"lon":139.423146},{"name":"東大和市子ども家庭支援センター","province":"東京都","city":"東大和市","address":"東大和市立野1-16-1","lat":35.74454,"lon":139.42163},{"name":"東大和市子ども家庭支援センター","province":"東京都","city":"東大和市","address":"東大和市立野1-16-1","lat":35.744261,"lon":139.423228},{"name":"デイグループほっと","province":"東京都","city":"東大和市","address":"東大和市清水3-785-2","lat":35.753785,"lon":139.442872},{"name":"デイグループぱーく","province":"東京都","city":"東大和市","address":"東大和市清水3-855-2","lat":35.753549,"lon":139.443224},{"name":"放課後等デイサービス　ぽっぷ","province":"東京都","city":"東大和市","address":"東大和市南街2-110-7","lat":35.738519,"lon":139.432059},{"name":"放課後デイ　ゆうハウス","province":"東京都","city":"東大和市","address":"東大和市中央3-855-10中央ビル1階AD号室","lat":35.744846,"lon":139.42827},{"name":"東大和市子ども家庭支援センター","province":"東京都","city":"東大和市","address":"東大和市立野1-1034-2","lat":35.744346,"lon":139.423146},{"name":"東大和市子ども家庭支援センター","province":"東京都","city":"東大和市","address":"東大和市立野1-16-1","lat":35.74454,"lon":139.42163},{"name":"東大和市子ども家庭支援センター","province":"東京都","city":"東大和市","address":"東大和市立野1-16-1","lat":35.744261,"lon":139.423228},{"name":"デイグループほっと","province":"東京都","city":"東大和市","address":"東大和市清水3-785-2","lat":35.753785,"lon":139.442872},{"name":"デイグループぱーく","province":"東京都","city":"東大和市","address":"東大和市清水3-855-2","lat":35.753549,"lon":139.443224},{"name":"放課後等デイサービス　ぽっぷ","province":"東京都","city":"東大和市","address":"東大和市南街2-110-7","lat":35.738519,"lon":139.432059},{"name":"放課後デイ　ゆうハウス","province":"東京都","city":"東大和市","address":"東大和市中央3-855-10中央ビル1階AD号室","lat":35.744846,"lon":139.42827},{"name":"東大和市子ども家庭支援センター","province":"東京都","city":"東大和市","address":"東大和市立野1-1034-2","lat":35.744346,"lon":139.423146},{"name":"東大和市子ども家庭支援センター","province":"東京都","city":"東大和市","address":"東大和市立野1-16-1","lat":35.74454,"lon":139.42163},{"name":"東大和市子ども家庭支援センター","province":"東京都","city":"東大和市","address":"東大和市立野1-16-1","lat":35.744261,"lon":139.423228},{"name":"デイグループほっと","province":"東京都","city":"東大和市","address":"東大和市清水3-785-2","lat":35.753785,"lon":139.442872},{"name":"デイグループぱーく","province":"東京都","city":"東大和市","address":"東大和市清水3-855-2","lat":35.753549,"lon":139.443224},{"name":"放課後等デイサービス　ぽっぷ","province":"東京都","city":"東大和市","address":"東大和市南街2-110-7","lat":35.738519,"lon":139.432059},{"name":"放課後デイ　ゆうハウス","province":"東京都","city":"東大和市","address":"東大和市中央3-855-10中央ビル1階AD号室","lat":35.744846,"lon":139.42827},{"name":"東大和市子ども家庭支援センター","province":"東京都","city":"東大和市","address":"東大和市立野1-1034-2","lat":35.744346,"lon":139.423146},{"name":"東大和市子ども家庭支援センター","province":"東京都","city":"東大和市","address":"東大和市立野1-16-1","lat":35.74454,"lon":139.42163},{"name":"東大和市子ども家庭支援センター","province":"東京都","city":"東大和市","address":"東大和市立野1-16-1","lat":35.744261,"lon":139.423228},{"name":"デイグループほっと","province":"東京都","city":"東大和市","address":"東大和市清水3-785-2","lat":35.753785,"lon":139.442872},{"name":"デイグループぱーく","province":"東京都","city":"東大和市","address":"東大和市清水3-855-2","lat":35.753549,"lon":139.443224},{"name":"放課後等デイサービス　ぽっぷ","province":"東京都","city":"東大和市","address":"東大和市南街2-110-7","lat":35.738519,"lon":139.432059},{"name":"放課後デイ　ゆうハウス","province":"東京都","city":"東大和市","address":"東大和市中央3-855-10中央ビル1階AD号室","lat":35.744846,"lon":139.42827},{"name":"東大和市子ども家庭支援センター","province":"東京都","city":"東大和市","address":"東大和市立野1-1034-2","lat":35.744346,"lon":139.423146},{"name":"東大和市子ども家庭支援センター","province":"東京都","city":"東大和市","address":"東大和市立野1-16-1","lat":35.74454,"lon":139.42163},{"name":"東大和市子ども家庭支援センター","province":"東京都","city":"東大和市","address":"東大和市立野1-16-1","lat":35.744261,"lon":139.423228}]}