{"keyword":"構築","data":[{"name":"東大和市駅前","province":"東京都","city":"東大和市","address":"東京都東大和市向原6丁目1408-33","lat":35.73432834,"lon":139.43517869},{"name":"新堀","province":"東京都","city":"東大和市","address":"東京都東大和市清原3丁目1","lat":35.74144173,"lon":139.44908276},{"name":"東大和給水所","province":"東京都","city":"東大和市","address":"東京都東大和市桜が丘3丁目44","lat":35.73125354,"lon":139.42818775},{"name":"東大和市保健センター","province":"東京都","city":"東大和市","address":"東京都東大和市中央3丁目918-1","lat":35.74572128,"lon":139.42737043},{"name":"東大和警察署","province":"東京都","city":"東大和市","address":"東大和市芋窪6-1061-1","lat":35.74856,"lon":139.4107},{"name":"北多摩西部消防署","province":"東京都","city":"東大和市","address":"東大和市上北台1-956-1","lat":35.74732,"lon":139.4133},{"name":"都立東大和南公園（陸上競技場、野球場）","province":"東京都","city":"東大和市","address":"東大和市桜が丘2丁目地内","lat":35.73676,"lon":139.42},{"name":"都立東大和南公園","province":"東京都","city":"東大和市","address":"東大和市桜が丘2-106-2","lat":35.73351,"lon":139.4246},{"name":"東大和市駅前","province":"東京都","city":"東大和市","address":"東京都東大和市向原6丁目1408-33","lat":35.73432834,"lon":139.43517869},{"name":"新堀","province":"東京都","city":"東大和市","address":"東京都東大和市清原3丁目1","lat":35.74144173,"lon":139.44908276},{"name":"東大和給水所","province":"東京都","city":"東大和市","address":"東京都東大和市桜が丘3丁目44","lat":35.73125354,"lon":139.42818775},{"name":"東大和市保健センター","province":"東京都","city":"東大和市","address":"東京都東大和市中央3丁目918-1","lat":35.74572128,"lon":139.42737043},{"name":"東大和警察署","province":"東京都","city":"東大和市","address":"東大和市芋窪6-1061-1","lat":35.74856,"lon":139.4107},{"name":"北多摩西部消防署","province":"東京都","city":"東大和市","address":"東大和市上北台1-956-1","lat":35.74732,"lon":139.4133},{"name":"東大和市駅前","province":"東京都","city":"東大和市","address":"東京都東大和市向原6丁目1408-33","lat":35.73432834,"lon":139.43517869},{"name":"新堀","province":"東京都","city":"東大和市","address":"東京都東大和市清原3丁目1","lat":35.74144173,"lon":139.44908276},{"name":"東大和給水所","province":"東京都","city":"東大和市","address":"東京都東大和市桜が丘3丁目44","lat":35.73125354,"lon":139.42818775},{"name":"東大和市保健センター","province":"東京都","city":"東大和市","address":"東京都東大和市中央3丁目918-1","lat":35.74572128,"lon":139.42737043},{"name":"東大和警察署","province":"東京都","city":"東大和市","address":"東大和市芋窪6-1061-1","lat":35.74856,"lon":139.4107},{"name":"北多摩西部消防署","province":"東京都","city":"東大和市","address":"東大和市上北台1-956-1","lat":35.74732,"lon":139.4133},{"name":"東大和市駅前","province":"東京都","city":"東大和市","address":"東京都東大和市向原6丁目1408-33","lat":35.73432834,"lon":139.43517869},{"name":"新堀","province":"東京都","city":"東大和市","address":"東京都東大和市清原3丁目1","lat":35.74144173,"lon":139.44908276},{"name":"東大和給水所","province":"東京都","city":"東大和市","address":"東京都東大和市桜が丘3丁目44","lat":35.73125354,"lon":139.42818775},{"name":"東大和市保健センター","province":"東京都","city":"東大和市","address":"東京都東大和市中央3丁目918-1","lat":35.74572128,"lon":139.42737043},{"name":"東大和警察署","province":"東京都","city":"東大和市","address":"東大和市芋窪6-1061-1","lat":35.74856,"lon":139.4107},{"name":"北多摩西部消防署","province":"東京都","city":"東大和市","address":"東大和市上北台1-956-1","lat":35.74732,"lon":139.4133},{"name":"東大和市駅前","province":"東京都","city":"東大和市","address":"東京都東大和市向原6丁目1408-33","lat":35.73432834,"lon":139.43517869},{"name":"新堀","province":"東京都","city":"東大和市","address":"東京都東大和市清原3丁目1","lat":35.74144173,"lon":139.44908276},{"name":"東大和給水所","province":"東京都","city":"東大和市","address":"東京都東大和市桜が丘3丁目44","lat":35.73125354,"lon":139.42818775},{"name":"東大和市保健センター","province":"東京都","city":"東大和市","address":"東京都東大和市中央3丁目918-1","lat":35.74572128,"lon":139.42737043},{"name":"東大和警察署","province":"東京都","city":"東大和市","address":"東大和市芋窪6-1061-1","lat":35.74856,"lon":139.4107},{"name":"北多摩西部消防署","province":"東京都","city":"東大和市","address":"東大和市上北台1-956-1","lat":35.74732,"lon":139.4133},{"name":"東大和市駅前","province":"東京都","city":"東大和市","address":"東京都東大和市向原6丁目1408-33","lat":35.73432834,"lon":139.43517869},{"name":"新堀","province":"東京都","city":"東大和市","address":"東京都東大和市清原3丁目1","lat":35.74144173,"lon":139.44908276},{"name":"東大和給水所","province":"東京都","city":"東大和市","address":"東京都東大和市桜が丘3丁目44","lat":35.73125354,"lon":139.42818775},{"name":"東大和市保健センター","province":"東京都","city":"東大和市","address":"東京都東大和市中央3丁目918-1","lat":35.74572128,"lon":139.42737043},{"name":"東大和警察署","province":"東京都","city":"東大和市","address":"東大和市芋窪6-1061-1","lat":35.74856,"lon":139.4107},{"name":"北多摩西部消防署","province":"東京都","city":"東大和市","address":"東大和市上北台1-956-1","lat":35.74732,"lon":139.4133},{"name":"東大和市駅前","province":"東京都","city":"東大和市","address":"東京都東大和市向原6丁目1408-33","lat":35.73432834,"lon":139.43517869},{"name":"新堀","province":"東京都","city":"東大和市","address":"東京都東大和市清原3丁目1","lat":35.74144173,"lon":139.44908276},{"name":"東大和給水所","province":"東京都","city":"東大和市","address":"東京都東大和市桜が丘3丁目44","lat":35.73125354,"lon":139.42818775},{"name":"東大和市保健センター","province":"東京都","city":"東大和市","address":"東京都東大和市中央3丁目918-1","lat":35.74572128,"lon":139.42737043},{"name":"東大和警察署","province":"東京都","city":"東大和市","address":"東大和市芋窪6-1061-1","lat":35.74856,"lon":139.4107},{"name":"北多摩西部消防署","province":"東京都","city":"東大和市","address":"東大和市上北台1-956-1","lat":35.74732,"lon":139.4133},{"name":"東大和市駅前","province":"東京都","city":"東大和市","address":"東京都東大和市向原6丁目1408-33","lat":35.73432834,"lon":139.43517869},{"name":"新堀","province":"東京都","city":"東大和市","address":"東京都東大和市清原3丁目1","lat":35.74144173,"lon":139.44908276},{"name":"東大和給水所","province":"東京都","city":"東大和市","address":"東京都東大和市桜が丘3丁目44","lat":35.73125354,"lon":139.42818775},{"name":"東大和市保健センター","province":"東京都","city":"東大和市","address":"東京都東大和市中央3丁目918-1","lat":35.74572128,"lon":139.42737043},{"name":"東大和警察署","province":"東京都","city":"東大和市","address":"東大和市芋窪6-1061-1","lat":35.74856,"lon":139.4107},{"name":"北多摩西部消防署","province":"東京都","city":"東大和市","address":"東大和市上北台1-956-1","lat":35.74732,"lon":139.4133},{"name":"東大和市駅前","province":"東京都","city":"東大和市","address":"東京都東大和市向原6丁目1408-33","lat":35.73432834,"lon":139.43517869},{"name":"新堀","province":"東京都","city":"東大和市","address":"東京都東大和市清原3丁目1","lat":35.74144173,"lon":139.44908276},{"name":"東大和給水所","province":"東京都","city":"東大和市","address":"東京都東大和市桜が丘3丁目44","lat":35.73125354,"lon":139.42818775},{"name":"東大和市保健センター","province":"東京都","city":"東大和市","address":"東京都東大和市中央3丁目918-1","lat":35.74572128,"lon":139.42737043},{"name":"東大和警察署","province":"東京都","city":"東大和市","address":"東大和市芋窪6-1061-1","lat":35.74856,"lon":139.4107},{"name":"北多摩西部消防署","province":"東京都","city":"東大和市","address":"東大和市上北台1-956-1","lat":35.74732,"lon":139.4133},{"name":"東大和市駅前","province":"東京都","city":"東大和市","address":"東京都東大和市向原6丁目1408-33","lat":35.73432834,"lon":139.43517869},{"name":"新堀","province":"東京都","city":"東大和市","address":"東京都東大和市清原3丁目1","lat":35.74144173,"lon":139.44908276},{"name":"東大和給水所","province":"東京都","city":"東大和市","address":"東京都東大和市桜が丘3丁目44","lat":35.73125354,"lon":139.42818775},{"name":"東大和市保健センター","province":"東京都","city":"東大和市","address":"東京都東大和市中央3丁目918-1","lat":35.74572128,"lon":139.42737043},{"name":"東大和警察署","province":"東京都","city":"東大和市","address":"東大和市芋窪6-1061-1","lat":35.74856,"lon":139.4107},{"name":"北多摩西部消防署","province":"東京都","city":"東大和市","address":"東大和市上北台1-956-1","lat":35.74732,"lon":139.4133},{"name":"東大和市駅前","province":"東京都","city":"東大和市","address":"東京都東大和市向原6丁目1408-33","lat":35.73432834,"lon":139.43517869},{"name":"新堀","province":"東京都","city":"東大和市","address":"東京都東大和市清原3丁目1","lat":35.74144173,"lon":139.44908276},{"name":"東大和給水所","province":"東京都","city":"東大和市","address":"東京都東大和市桜が丘3丁目44","lat":35.73125354,"lon":139.42818775},{"name":"東大和市保健センター","province":"東京都","city":"東大和市","address":"東京都東大和市中央3丁目918-1","lat":35.74572128,"lon":139.42737043},{"name":"東大和警察署","province":"東京都","city":"東大和市","address":"東大和市芋窪6-1061-1","lat":35.74856,"lon":139.4107},{"name":"北多摩西部消防署","province":"東京都","city":"東大和市","address":"東大和市上北台1-956-1","lat":35.74732,"lon":139.4133},{"name":"東大和市駅前","province":"東京都","city":"東大和市","address":"東京都東大和市向原6丁目1408-33","lat":35.73432834,"lon":139.43517869},{"name":"新堀","province":"東京都","city":"東大和市","address":"東京都東大和市清原3丁目1","lat":35.74144173,"lon":139.44908276},{"name":"東大和給水所","province":"東京都","city":"東大和市","address":"東京都東大和市桜が丘3丁目44","lat":35.73125354,"lon":139.42818775},{"name":"東大和市保健センター","province":"東京都","city":"東大和市","address":"東京都東大和市中央3丁目918-1","lat":35.74572128,"lon":139.42737043},{"name":"東大和警察署","province":"東京都","city":"東大和市","address":"東大和市芋窪6-1061-1","lat":35.74856,"lon":139.4107},{"name":"北多摩西部消防署","province":"東京都","city":"東大和市","address":"東大和市上北台1-956-1","lat":35.74732,"lon":139.4133},{"name":"東大和市駅前","province":"東京都","city":"東大和市","address":"東京都東大和市向原6丁目1408-33","lat":35.73432834,"lon":139.43517869},{"name":"新堀","province":"東京都","city":"東大和市","address":"東京都東大和市清原3丁目1","lat":35.74144173,"lon":139.44908276},{"name":"東大和給水所","province":"東京都","city":"東大和市","address":"東京都東大和市桜が丘3丁目44","lat":35.73125354,"lon":139.42818775},{"name":"東大和市保健センター","province":"東京都","city":"東大和市","address":"東京都東大和市中央3丁目918-1","lat":35.74572128,"lon":139.42737043},{"name":"東大和警察署","province":"東京都","city":"東大和市","address":"東大和市芋窪6-1061-1","lat":35.74856,"lon":139.4107},{"name":"北多摩西部消防署","province":"東京都","city":"東大和市","address":"東大和市上北台1-956-1","lat":35.74732,"lon":139.4133}]}