{"keyword":"男女","data":[{"name":"谷里保育園","province":"東京都","city":"東大和市","address":"東大和市狭山3-1349-4","lat":35.75534,"lon":139.43658},{"name":"狭山保育園","province":"東京都","city":"東大和市","address":"東大和市狭山1-849-1","lat":35.759156,"lon":139.436578},{"name":"紫水保育園","province":"東京都","city":"東大和市","address":"東大和市清水3-859-7","lat":35.752729,"lon":139.443502},{"name":"大和南保育園","province":"東京都","city":"東大和市","address":"東大和市清原3-1","lat":35.741461,"lon":139.449027},{"name":"大和東保育園","province":"東京都","city":"東大和市","address":"東大和市清原2-2-2","lat":35.744516,"lon":139.444305},{"name":"高木保育園","province":"東京都","city":"東大和市","address":"東大和市向原6-1","lat":35.738531,"lon":139.434348},{"name":"向原保育園","province":"東京都","city":"東大和市","address":"東大和市向原1-4-2","lat":35.741694,"lon":139.440178},{"name":"れんげ南街保育園","province":"東京都","city":"東大和市","address":"東大和市南街4-3-1","lat":35.738039,"lon":139.433181},{"name":"のぞみ保育園","province":"東京都","city":"東大和市","address":"東大和市中央2-858-1","lat":35.745302,"lon":139.429012},{"name":"明徳保育園","province":"東京都","city":"東大和市","address":"東大和市立野2-3-7","lat":35.744729,"lon":139.416283},{"name":"立野みどり保育園","province":"東京都","city":"東大和市","address":"東大和市立野3-587-7外","lat":35.739347,"lon":139.422382},{"name":"れんげ桜が丘保育園","province":"東京都","city":"東大和市","address":"東大和市桜が丘3-44-18","lat":35.734281,"lon":139.418108},{"name":"玉川上水保育園","province":"東京都","city":"東大和市","address":"東大和市桜が丘4-29-18","lat":35.735186,"lon":139.416327},{"name":"上北台こひつじ保育園","province":"東京都","city":"東大和市","address":"東大和市上北台2-886-36","lat":35.743541,"lon":139.411389},{"name":"れんげ上北台保育園","province":"東京都","city":"東大和市","address":"東大和市蔵敷3-691-2","lat":35.749432,"lon":139.417746},{"name":"れんげ保育園","province":"東京都","city":"東大和市","address":"東大和市芋窪3-1615","lat":35.752542,"lon":139.413366},{"name":"デイグループほっと","province":"東京都","city":"東大和市","address":"東大和市清水3-785-2","lat":35.753785,"lon":139.442872},{"name":"デイグループぱーく","province":"東京都","city":"東大和市","address":"東大和市清水3-855-2","lat":35.753549,"lon":139.443224},{"name":"放課後等デイサービス　ぽっぷ","province":"東京都","city":"東大和市","address":"東大和市南街2-110-7","lat":35.738519,"lon":139.432059},{"name":"放課後デイ　ゆうハウス","province":"東京都","city":"東大和市","address":"東大和市中央3-855-10中央ビル1階AD号室","lat":35.744846,"lon":139.42827},{"name":"東大和市立保健センター","province":"東京都","city":"東大和市","address":"東大和市中央3-918-1","lat":35.745721,"lon":139.42737},{"name":"東大和南公園","province":"東京都","city":"東大和市","address":"東京都東大和市桜が丘3丁目","lat":35.733499,"lon":139.424419},{"name":"東大和南公園","province":"東京都","city":"東大和市","address":"東京都東大和市桜が丘3丁目","lat":35.733979,"lon":139.420752},{"name":"東大和南公園","province":"東京都","city":"東大和市","address":"東京都東大和市桜が丘3丁目","lat":35.734761,"lon":139.421813},{"name":"東大和南公園","province":"東京都","city":"東大和市","address":"東京都東大和市桜が丘3丁目","lat":35.733517,"lon":139.424177},{"name":"東大和サービスステーション","province":"東京都","city":"東大和市","address":"東京都東大和市上北台3丁目447","lat":35.741554,"lon":139.415828},{"name":"北多摩西部消防署","province":"東京都","city":"東大和市","address":"東京都東大和市上北台1丁目956-1","lat":35.747336,"lon":139.413359},{"name":"立川市玉川上水駅南口公衆便所","province":"東京都","city":"東大和市","address":"東京都東大和市桜が丘4丁目19","lat":35.731596,"lon":139.418157},{"name":"東大和市立保健センター","province":"東京都","city":"東大和市","address":"東京都東大和市中央3丁目918-1","lat":35.745728,"lon":139.427504},{"name":"東大和市役所本庁舎","province":"東京都","city":"東大和市","address":"東京都東大和市中央3丁目","lat":35.745384,"lon":139.426052},{"name":"東大和市役所本庁舎","province":"東京都","city":"東大和市","address":"東京都東大和市中央3丁目930","lat":35.745299,"lon":139.426405},{"name":"東大和市立中央公民館","province":"東京都","city":"東大和市","address":"東京都東大和市中央3丁目926","lat":35.744714,"lon":139.426469},{"name":"東大和市立蔵敷公民館","province":"東京都","city":"東大和市","address":"東京都東大和市蔵敷2丁目337","lat":35.754173,"lon":139.416278},{"name":"東大和市奈良橋市民センター","province":"東京都","city":"東大和市","address":"東京都東大和市奈良橋4丁目600","lat":35.75246,"lon":139.425755},{"name":"東大和市上北台市民センター","province":"東京都","city":"東大和市","address":"東京都東大和市上北台2丁目865-9","lat":35.742902,"lon":139.414666},{"name":"東大和市桜が丘市民センター","province":"東京都","city":"東大和市","address":"東京都東大和市桜が丘3丁目44-13","lat":35.734335,"lon":139.420303},{"name":"東大和市桜が丘市民センター","province":"東京都","city":"東大和市","address":"東京都東大和市桜が丘3丁目44-13","lat":35.73444,"lon":139.420301},{"name":"東大和市清原市民センター","province":"東京都","city":"東大和市","address":"東京都東大和市清原4丁目1-16","lat":35.740873,"lon":139.447282},{"name":"東大和市向原市民センター","province":"東京都","city":"東大和市","address":"東京都東大和市向原3丁目10","lat":35.740607,"lon":139.436537},{"name":"東大和市向原市民センター","province":"東京都","city":"東大和市","address":"東京都東大和市向原3丁目10","lat":35.740615,"lon":139.437047},{"name":"東大和市南街市民センター","province":"東京都","city":"東大和市","address":"東京都東大和市南街5丁目32","lat":35.737256,"lon":139.431597},{"name":"郷土博物館","province":"東京都","city":"東大和市","address":"東京都東大和市奈良橋1丁目260-2","lat":35.755095,"lon":139.422825},{"name":"東大和市立中央図書館","province":"東京都","city":"東大和市","address":"東京都東大和市中央3丁目930","lat":35.744823,"lon":139.427135},{"name":"東大和市立中央図書館","province":"東京都","city":"東大和市","address":"東京都東大和市中央3丁目930","lat":35.744783,"lon":139.427036},{"name":"桜が丘市民広場","province":"東京都","city":"東大和市","address":"東京都東大和市桜が丘2丁目","lat":35.735115,"lon":139.425575},{"name":"東大和市民会館（ハミングホール）","province":"東京都","city":"東大和市","address":"東京都東大和市向原6丁目1","lat":35.738646,"lon":139.434384},{"name":"東大和市民会館（ハミングホール）","province":"東京都","city":"東大和市","address":"東京都東大和市向原6丁目1","lat":35.738577,"lon":139.434208},{"name":"東大和市民会館（ハミングホール）","province":"東京都","city":"東大和市","address":"東京都東大和市向原6丁目1","lat":35.738926,"lon":139.434206},{"name":"東大和市民会館（ハミングホール）","province":"東京都","city":"東大和市","address":"東京都東大和市向原6丁目1","lat":35.738645,"lon":139.434223},{"name":"鹿島休憩場","province":"東京都","city":"東大和市","address":"東京都東大和市多摩湖6丁目","lat":35.760244,"lon":139.415032},{"name":"立野西公園","province":"東京都","city":"東大和市","address":"東京都東大和市立野2丁目6","lat":35.745366,"lon":139.417049},{"name":"立野中央公園","province":"東京都","city":"東大和市","address":"東京都東大和市立野1丁目9","lat":35.744862,"lon":139.421557},{"name":"向原西公園","province":"東京都","city":"東大和市","address":"東京都東大和市向原3丁目10","lat":35.739523,"lon":139.434457},{"name":"上仲原公園管理棟","province":"東京都","city":"東大和市","address":"東京都東大和市向原1丁目1-1","lat":35.742089,"lon":139.444319},{"name":"清原西公園","province":"東京都","city":"東大和市","address":"東京都東大和市清原2丁目1","lat":35.742871,"lon":139.444823},{"name":"桜が丘一丁目公園","province":"東京都","city":"東大和市","address":"東京都東大和市桜が丘1丁目","lat":35.731255,"lon":139.43067},{"name":"清原南公園","province":"東京都","city":"東大和市","address":"東京都東大和市清原3丁目1","lat":35.740254,"lon":139.448232},{"name":"立野東公園","province":"東京都","city":"東大和市","address":"東京都東大和市立野1丁目19","lat":35.743265,"lon":139.423341},{"name":"向原中央公園","province":"東京都","city":"東大和市","address":"東京都東大和市向原3丁目10","lat":35.73936,"lon":139.437138},{"name":"清原北公園","province":"東京都","city":"東大和市","address":"東京都東大和市清原1丁目1","lat":35.74496,"lon":139.446962},{"name":"東大和市立狭山緑地管理事務所","province":"東京都","city":"東大和市","address":"東京都東大和市奈良橋1丁目","lat":35.757992,"lon":139.421585},{"name":"東大和市駅前広場","province":"東京都","city":"東大和市","address":"東京都東大和市桜が丘1丁目","lat":35.733918,"lon":139.434499},{"name":"玉川上水駅前広場","province":"東京都","city":"東大和市","address":"東京都東大和市桜が丘4丁目19","lat":35.732447,"lon":139.418115},{"name":"きよはら児童館","province":"東京都","city":"東大和市","address":"東京都東大和市清原2丁目1-1-北17","lat":35.743095,"lon":139.446926},{"name":"市民プール","province":"東京都","city":"東大和市","address":"東京都東大和市桜が丘2丁目167-13","lat":35.736617,"lon":139.4215},{"name":"市民体育館","province":"東京都","city":"東大和市","address":"東京都東大和市桜が丘2丁目167-13","lat":35.735873,"lon":139.421302},{"name":"狭山自然公園","province":"東京都","city":"東大和市","address":"東京都東大和市、東村山市、武蔵村山市、瑞穂町","lat":35.763198,"lon":139.441582},{"name":"東大和公園","province":"東京都","city":"東大和市","address":"東京都東大和市湖畔3丁目、高木1丁目、狭山3丁目","lat":35.756214,"lon":139.430354},{"name":"東大和南公園","province":"東京都","city":"東大和市","address":"東京都東大和市桜が丘二・三丁目","lat":35.734226,"lon":139.42202},{"name":"上北台給水所","province":"東京都","city":"東大和市","address":"東京都東大和市上北台1-801-1","lat":35.7466078,"lon":139.413939},{"name":"東大和給水所","province":"東京都","city":"東大和市","address":"東京都東大和市桜が丘3-44","lat":35.7312269,"lon":139.428196},{"name":"狭山保育園","province":"東京都","city":"東大和市","address":"東大和市狭山1-849-1","lat":35.75928,"lon":139.43607},{"name":"谷里保育園","province":"東京都","city":"東大和市","address":"東大和市狭山3-1349-4","lat":35.75535,"lon":139.43721},{"name":"紫水保育園","province":"東京都","city":"東大和市","address":"東大和市清水3-859-7","lat":35.7525,"lon":139.44371},{"name":"大和東保育園","province":"東京都","city":"東大和市","address":"東大和市清原2-2-2","lat":35.74416,"lon":139.44559},{"name":"向原保育園","province":"東京都","city":"東大和市","address":"東大和市向原1-4-2","lat":35.74197,"lon":139.44006},{"name":"高木保育園","province":"東京都","city":"東大和市","address":"東大和市向原6-1","lat":35.73872,"lon":139.43536},{"name":"れんげ南街保育園","province":"東京都","city":"東大和市","address":"東大和市南街4-3-1","lat":35.73793,"lon":139.4333},{"name":"のぞみ保育園","province":"東京都","city":"東大和市","address":"東大和市中央2-858-1","lat":35.74482,"lon":139.43044},{"name":"明徳保育園","province":"東京都","city":"東大和市","address":"東大和市立野2-3-7","lat":35.74537,"lon":139.4164},{"name":"立野みどり保育園","province":"東京都","city":"東大和市","address":"東大和市立野3-580-2","lat":35.7388,"lon":139.42271},{"name":"れんげ桜が丘保育園","province":"東京都","city":"東大和市","address":"東大和市桜が丘3-44-18","lat":35.73417,"lon":139.41844},{"name":"玉川上水保育園","province":"東京都","city":"東大和市","address":"東大和市桜が丘4-29-18","lat":35.73589,"lon":139.41541},{"name":"上北台こひつじ保育園","province":"東京都","city":"東大和市","address":"東大和市上北台2-886-36","lat":35.74344,"lon":139.4118},{"name":"ならはし保育園","province":"東京都","city":"東大和市","address":"東大和市奈良橋6-882-1","lat":35.74851,"lon":139.42461},{"name":"れんげ上北台保育園","province":"東京都","city":"東大和市","address":"東大和市蔵敷3-691-2","lat":35.74935,"lon":139.41664},{"name":"れんげ保育園","province":"東京都","city":"東大和市","address":"東大和市芋窪3-1615","lat":35.75277,"lon":139.41364},{"name":"れんげ学園","province":"東京都","city":"東大和市","address":"東大和市芋窪5-1161-3","lat":35.74959,"lon":139.41428},{"name":"東大和市","province":"東京都","city":"東大和市","address":"東大和市中央3-930","lat":35.74526,"lon":139.4265},{"name":"西武鉄道東大和市駅駐輪場","province":"東京都","city":"東大和市","address":"東京都東大和市桜が丘1丁目1415-1","lat":35.73288126,"lon":139.43434551},{"name":"西武スマイルパーク東大和市駅前第１","province":"東京都","city":"東大和市","address":"東京都東大和市桜が丘1丁目1330-19","lat":35.7330479,"lon":139.43404552},{"name":"西武スマイルパークBIGBOX東大和","province":"東京都","city":"東大和市","address":"東京都東大和市桜が丘1丁目1330-19","lat":35.7330479,"lon":139.43404552},{"name":"武蔵大和駅第2公共自転車等駐車場","province":"東京都","city":"東大和市","address":"東京都東大和市清水1丁目748-2","lat":35.75580662,"lon":139.44388817},{"name":"上北台駅第1公共自転車等駐車場","province":"東京都","city":"東大和市","address":"東京都東大和市上北台1丁目5-1","lat":35.7458127,"lon":139.4158048},{"name":"上北台駅第2公共自転車等駐車場","province":"東京都","city":"東大和市","address":"東京都東大和市上北台1丁目5-1","lat":35.7458127,"lon":139.4158048},{"name":"西武スマイルパークBIGBOX東大和第2","province":"東京都","city":"東大和市","address":"東京都東大和市桜が丘1丁目1330-19","lat":35.7330479,"lon":139.43404552},{"name":"Cycle DAICHI　武蔵大和駅前駐輪場","province":"東京都","city":"東大和市","address":"東京都東大和市清水2丁目802-1","lat":35.75551222,"lon":139.44397706},{"name":"上北台駅第7公共自転車等駐車場","province":"東京都","city":"東大和市","address":"東京都東大和市上北台1丁目5-1","lat":35.7458127,"lon":139.4158048},{"name":"上北台駅前駐輪場","province":"東京都","city":"東大和市","address":"東京都東大和市立野2丁目2-10","lat":35.74638765,"lon":139.41656581},{"name":"高齢者見守りぼっくすならはし","province":"東京都","city":"東大和市","address":"東大和市奈良橋4-600/奈良橋市民センター2階老人福祉センター内","lat":35.754078,"lon":139.427856},{"name":"高齢者見守りぼっくすしんぼり","province":"東京都","city":"東大和市","address":"東大和市新堀3-6-1/新堀地区会館2階","lat":35.737888,"lon":139.448288},{"name":"高齢者見守りぼっくすなんがい","province":"東京都","city":"東大和市","address":"東大和市南街2-49-3/在宅サポートセンター1階","lat":35.740234,"lon":139.431412},{"name":"高齢者ほっと支援センターいもくぼ","province":"東京都","city":"東大和市","address":"東大和市芋窪3-1611-1/在宅サービスセンター向台内","lat":35.752773,"lon":139.413635},{"name":"高齢者ほっと支援センターきよはら","province":"東京都","city":"東大和市","address":"東大和市清原1-1-34号/棟1階在宅サービスセンターきよはら内","lat":35.745159,"lon":139.447495},{"name":"高齢者ほっと支援センターなんがい","province":"東京都","city":"東大和市","address":"東大和市南街2-49-3/在宅サポートセンター1階","lat":35.740234,"lon":139.431412},{"name":"東大和市役所高齢介護課","province":"東京都","city":"東大和市","address":"東大和市中央3-930","lat":35.745262,"lon":139.426498},{"name":"社会福祉法人友遊会東大和市総合福祉センターは～とふる","province":"東京都","city":"東大和市","address":"東京都東大和市桜が丘2丁目53-6","lat":35.73485848,"lon":139.41970495},{"name":"社会福祉法人みんなの会第一みんなの家","province":"東京都","city":"東大和市","address":"東京都東大和市奈良橋6丁目728-2","lat":35.74855423,"lon":139.42462611},{"name":"社会福祉法人みんなの会第二みんなの家","province":"東京都","city":"東大和市","address":"東京都東大和市奈良橋1丁目276-2","lat":35.75444519,"lon":139.4236427},{"name":"社会福祉法人みんなの会第三みんなの家","province":"東京都","city":"東大和市","address":"東京都東大和市中央2丁目1122-5","lat":35.7445076,"lon":139.43047302},{"name":"特定非営利活動法生活支援センター２０７第2あとりえトントン","province":"東京都","city":"東大和市","address":"東京都東大和市向原4丁目33-9","lat":35.73636165,"lon":139.44386398},{"name":"大和南保育園","province":"東京都","city":"東大和市","address":"東大和市清原3-1","lat":35.74162,"lon":139.44804},{"name":"れんげ学園","province":"東京都","city":"東大和市","address":"東大和市芋窪5-1161-3","lat":35.749134,"lon":139.41346},{"name":"れんげ桜が丘保育園","province":"東京都","city":"東大和市","address":"東大和市桜が丘3-44-1817-1","lat":35.73589,"lon":139.41541},{"name":"東大和市駅前","province":"東京都","city":"東大和市","address":"東京都東大和市向原6丁目1408-33","lat":35.73432834,"lon":139.43517869},{"name":"新堀","province":"東京都","city":"東大和市","address":"東京都東大和市清原3丁目1","lat":35.74144173,"lon":139.44908276},{"name":"東大和病院","province":"東京都","city":"東大和市","address":"東京都東大和市南街1丁目13-12","lat":35.74141631,"lon":139.43168419},{"name":"東大和給水所","province":"東京都","city":"東大和市","address":"東京都東大和市桜が丘3丁目44","lat":35.73125354,"lon":139.42818775},{"name":"都立東大和南公園","province":"東京都","city":"東大和市","address":"東京都東大和市桜が丘2丁目106-2","lat":35.73352264,"lon":139.42463515},{"name":"東大和市立第６小学校校庭","province":"東京都","city":"東大和市","address":"東京都東大和市仲原1丁目5-1","lat":35.74447733,"lon":139.44344144},{"name":"東大和市役所","province":"東京都","city":"東大和市","address":"東京都東大和市中央3-930","lat":35.745332,"lon":139.426299},{"name":"南街公民館","province":"東京都","city":"東大和市","address":"東京都東大和市南街5-32","lat":35.737795,"lon":139.431285},{"name":"中央公民館","province":"東京都","city":"東大和市","address":"東京都東大和市中央3-926","lat":35.744911,"lon":139.426384},{"name":"狭山公民館","province":"東京都","city":"東大和市","address":"東京都東大和市狭山3-1344-1","lat":35.756086,"lon":139.437632},{"name":"蔵敷公民館","province":"東京都","city":"東大和市","address":"東京都東大和市蔵敷2-337","lat":35.754477,"lon":139.416201},{"name":"上北台公民館","province":"東京都","city":"東大和市","address":"東京都東大和市上北台2-865-9","lat":35.743098,"lon":139.414718},{"name":"中央図書館","province":"東京都","city":"東大和市","address":"東京都東大和市中央3-930","lat":35.744916,"lon":139.42699},{"name":"桜が丘図書館","province":"東京都","city":"東大和市","address":"東京都東大和市桜が丘3-44-13","lat":35.734092,"lon":139.419935},{"name":"清原図書館","province":"東京都","city":"東大和市","address":"東京都東大和市清原4-1","lat":35.742769,"lon":139.446976},{"name":"むこうはら児童館","province":"東京都","city":"東大和市","address":"東京都東大和市向原3-10","lat":35.740581,"lon":139.436707},{"name":"きよはら児童館","province":"東京都","city":"東大和市","address":"東京都東大和市清原2-1","lat":35.743172,"lon":139.446909},{"name":"ならはし児童館","province":"東京都","city":"東大和市","address":"東京都東大和市奈良橋4-600","lat":35.752485,"lon":139.42576},{"name":"なんがい児童館","province":"東京都","city":"東大和市","address":"東京都東大和市南街5-32","lat":35.737142,"lon":139.4315},{"name":"かみきただい児童館","province":"東京都","city":"東大和市","address":"東京都東大和市上北台2-865-9","lat":35.742882,"lon":139.414742},{"name":"さくらがおか児童館","province":"東京都","city":"東大和市","address":"東京都東大和市桜が丘3-44-13","lat":35.734404,"lon":139.420337},{"name":"学童保育所第一クラブ","province":"東京都","city":"東大和市","address":"東京都東大和市奈良橋4-600","lat":35.752485,"lon":139.42576},{"name":"学童保育所第二クラブ","province":"東京都","city":"東大和市","address":"東京都東大和市南街5-32","lat":35.737142,"lon":139.4315},{"name":"学童保育所第三クラブ","province":"東京都","city":"東大和市","address":"東京都東大和市清原2-1","lat":35.743172,"lon":139.446909},{"name":"学童保育所第四クラブ","province":"東京都","city":"東大和市","address":"東京都東大和市狭山5-1054-1","lat":35.748683,"lon":139.441445},{"name":"学童保育所第五クラブ","province":"東京都","city":"東大和市","address":"東京都東大和市向原3-10","lat":35.740581,"lon":139.436707},{"name":"学童保育所第六クラブ","province":"東京都","city":"東大和市","address":"東京都東大和市清原2-1","lat":35.743172,"lon":139.446909},{"name":"学童保育所第七クラブ","province":"東京都","city":"東大和市","address":"東京都東大和市芋窪5-1183-1","lat":35.750249,"lon":139.415658},{"name":"学童保育所第八クラブ","province":"東京都","city":"東大和市","address":"東京都東大和市立野3-1246-1","lat":35.741798,"lon":139.421905},{"name":"学童保育所第九クラブ","province":"東京都","city":"東大和市","address":"東京都東大和市蔵敷2-546","lat":35.751715,"lon":139.420308},{"name":"学童保育所第十クラブ","province":"東京都","city":"東大和市","address":"東京都東大和市上北台2-865-9","lat":35.742882,"lon":139.414742},{"name":"学童保育所桜が丘クラブ","province":"東京都","city":"東大和市","address":"東京都東大和市桜が丘2-222-11","lat":35.735159,"lon":139.419503},{"name":"学童保育所立野第一学童クラブ","province":"東京都","city":"東大和市","address":"東京都東大和市立野3-1293-10","lat":35.738561,"lon":139.425101},{"name":"学童保育所立野第二学童クラブ","province":"東京都","city":"東大和市","address":"東京都東大和市立野3-1293-10","lat":35.738561,"lon":139.425101},{"name":"郷土博物館","province":"東京都","city":"東大和市","address":"東京都東大和市奈良橋1-260-2","lat":35.755437,"lon":139.423023},{"name":"上仲原公園運動施設","province":"東京都","city":"東大和市","address":"東京都東大和市向原1-1","lat":35.741861,"lon":139.444272},{"name":"清水ゲートボール場","province":"東京都","city":"東大和市","address":"東京都東大和市清水2-928-1","lat":35.752588,"lon":139.444562},{"name":"新堀ゲートボール場","province":"東京都","city":"東大和市","address":"東京都東大和市新堀3-6-1","lat":35.738436,"lon":139.446916},{"name":"芝中多目的広場","province":"東京都","city":"東大和市","address":"東京都東大和市蔵敷3-756-8","lat":35.748612,"lon":139.419087},{"name":"桜が丘市民広場","province":"東京都","city":"東大和市","address":"東京都東大和市桜が丘2-142-2","lat":35.73574,"lon":139.426252},{"name":"市民プール","province":"東京都","city":"東大和市","address":"東京都東大和市桜が丘2-167-13","lat":35.736036,"lon":139.421584},{"name":"市民体育館","province":"東京都","city":"東大和市","address":"東京都東大和市桜が丘2-167-13","lat":35.736036,"lon":139.421584},{"name":"奈良橋ゲートボール場","province":"東京都","city":"東大和市","address":"東京都東大和市奈良橋6-717","lat":35.749929,"lon":139.423741},{"name":"市民会館","province":"東京都","city":"東大和市","address":"東京都東大和市向原6-1","lat":35.738845,"lon":139.43406},{"name":"石皿","province":"東京都","city":"東大和市","address":"東京都東大和市清水","lat":35.75158492,"lon":139.44579928},{"name":"徳川氏御朱印状","province":"東京都","city":"東大和市","address":"東京都東大和市清水4-1132","lat":35.748619,"lon":139.446777},{"name":"里正日誌","province":"東京都","city":"東大和市","address":"東京都東大和市蔵敷","lat":35.75053446,"lon":139.42005979},{"name":"上の台遺跡の石器","province":"東京都","city":"東大和市","address":"東京都東大和市清水","lat":35.75158492,"lon":139.44579928},{"name":"上の台遺跡の石器","province":"東京都","city":"東大和市","address":"東京都東大和市奈良橋1-260-2","lat":35.756416,"lon":139.422241},{"name":"八幡谷戸遺跡第4・5号住居跡の出土遺物（一括）","province":"東京都","city":"東大和市","address":"東京都東大和市奈良橋1-260-2","lat":35.756416,"lon":139.422241},{"name":"豊鹿島神社本殿の木製狛犬","province":"東京都","city":"東大和市","address":"東京都東大和市芋窪1-2067","lat":35.757317,"lon":139.413345},{"name":"豊鹿島神社の獅子頭","province":"東京都","city":"東大和市","address":"東京都東大和市芋窪1-2067","lat":35.757317,"lon":139.413345},{"name":"慶性院の水天像","province":"東京都","city":"東大和市","address":"東京都東大和市芋窪6-1352","lat":35.750076,"lon":139.41011},{"name":"高木獅子舞の旧獅子頭","province":"東京都","city":"東大和市","address":"東京都東大和市奈良橋1-260-2","lat":35.756416,"lon":139.422241},{"name":"鹿島台遺跡住居跡の出土遺物（一括）","province":"東京都","city":"東大和市","address":"東京都東大和市奈良橋1-260-2","lat":35.756416,"lon":139.422241},{"name":"徳川氏御朱印状（氷川神社宛8通）","province":"東京都","city":"東大和市","address":"東京都東大和市清水","lat":35.75158492,"lon":139.44579928},{"name":"永仁二年銘の弥陀種子板碑","province":"東京都","city":"東大和市","address":"東京都東大和市奈良橋1-260-2","lat":35.756416,"lon":139.422241},{"name":"旧高木村名主宮鍋家文書","province":"東京都","city":"東大和市","address":"東京都東大和市高木","lat":35.74792111,"lon":139.4313756},{"name":"狭山の栞　紙型（しけい）及び挿図判（一括）","province":"東京都","city":"東大和市","address":"東京都東大和市狭山","lat":35.75673132,"lon":139.43643321},{"name":"名号塔婆","province":"東京都","city":"東大和市","address":"東京都東大和市清水6-1140","lat":35.74691,"lon":139.446823},{"name":"高木獅子舞の道具及び衣裳一式","province":"東京都","city":"東大和市","address":"東京都東大和市高木2-106","lat":35.75206,"lon":139.433228},{"name":"庚申塔（清水3丁目）","province":"東京都","city":"東大和市","address":"東京都東大和市清水3-869","lat":35.752808,"lon":139.442963},{"name":"庚申塔（芋窪6丁目）","province":"東京都","city":"東大和市","address":"東京都東大和市芋窪6-1318","lat":35.751465,"lon":139.410492},{"name":"清水本村橋の石橋供養塔","province":"東京都","city":"東大和市","address":"東京都東大和市清水1-755(清水観音堂敷地内)","lat":35.755527,"lon":139.442566},{"name":"砂の橋の石橋供養塔","province":"東京都","city":"東大和市","address":"東京都東大和市清水1-755(清水観音堂敷地内)","lat":35.755527,"lon":139.442566},{"name":"徳治二年銘の板碑","province":"東京都","city":"東大和市","address":"東京都東大和市狭山3-1354","lat":35.754997,"lon":139.435898},{"name":"庚申塔（阿字庚申）","province":"東京都","city":"東大和市","address":"東京都東大和市奈良橋1-363","lat":35.755196,"lon":139.425003},{"name":"清水囃子","province":"東京都","city":"東大和市","address":"東京都東大和市清水3-786-1","lat":35.752808,"lon":139.442963},{"name":"庚申塚","province":"東京都","city":"東大和市","address":"東京都東大和市蔵敷2-508-3","lat":35.752041,"lon":139.42067},{"name":"八幡谷戸遺跡","province":"東京都","city":"東大和市","address":"東京都東大和市奈良橋1-257ほか","lat":35.756325,"lon":139.423431},{"name":"鹿島台遺跡","province":"東京都","city":"東大和市","address":"東京都東大和市芋窪1-1998ほか","lat":35.757317,"lon":139.413345},{"name":"蔵敷太子堂跡","province":"東京都","city":"東大和市","address":"東京都東大和市蔵敷1-436","lat":35.755863,"lon":139.418884},{"name":"青梅橋跡","province":"東京都","city":"東大和市","address":"東京都東大和市桜が丘1-1415付近","lat":35.732685,"lon":139.431732},{"name":"旧日立航空機株式会社変電所","province":"東京都","city":"東大和市","address":"東京都東大和市桜が丘2-167-18","lat":35.736725,"lon":139.420883},{"name":"高木村外五ヶ村連合戸長役場跡","province":"東京都","city":"東大和市","address":"東京都東大和市高木2-106","lat":35.75206,"lon":139.433228},{"name":"蔵敷調連場跡","province":"東京都","city":"東大和市","address":"東京都東大和市蔵敷2-535付近","lat":35.752499,"lon":139.419189},{"name":"旧吉岡家住宅","province":"東京都","city":"東大和市","address":"東京都東大和市清水3-779","lat":35.7544,"lon":139.442845},{"name":"東大和保育園","province":"東京都","city":"東大和市","address":"東京都東大和市新堀1-1435-33","lat":35.741073,"lon":139.449081},{"name":"ふたば保育園","province":"東京都","city":"東大和市","address":"東京都東大和市立野2-4-13","lat":35.746313,"lon":139.417341},{"name":"みつば保育園","province":"東京都","city":"東大和市","address":"東京都東大和市立野3-1293-10","lat":35.7388,"lon":139.422714},{"name":"向原第二保育園","province":"東京都","city":"東大和市","address":"東京都東大和市向原1-4-1","lat":35.741966,"lon":139.440063},{"name":"ひが保育ママ","province":"東京都","city":"東大和市","address":"東京都東大和市中央2-1101-12","lat":35.743881,"lon":139.430359},{"name":"木村保育ママ","province":"東京都","city":"東大和市","address":"東京都東大和市南街2-20-3","lat":35.741596,"lon":139.427917},{"name":"こども学園","province":"東京都","city":"東大和市","address":"東京都東大和市奈良橋2-409","lat":35.754368,"lon":139.426514},{"name":"東大和市","province":"東京都","city":"東大和市","address":"東大和市中央3-930","lat":35.744713,"lon":139.427037},{"name":"水道局東大和サービスステーション","province":"東京都","city":"東大和市","address":"東京都東大和市上北台3丁目447","lat":35.74157152,"lon":139.41579944},{"name":"清原市民センター","province":"東京都","city":"東大和市","address":"東京都東大和市清原4丁目1-16","lat":35.7407973,"lon":139.44713296},{"name":"東大和市民体育館","province":"東京都","city":"東大和市","address":"東京都東大和市桜が丘2丁目167-13","lat":35.73666109,"lon":139.42152414},{"name":"東大和市役所","province":"東京都","city":"東大和市","address":"東京都東大和市中央3丁目930","lat":35.74471306,"lon":139.42703715},{"name":"東大和市立郷土博物館","province":"東京都","city":"東大和市","address":"東京都東大和市奈良橋1丁目260-2","lat":35.7551312,"lon":139.42296495},{"name":"東大和市民会館ハミングホール","province":"東京都","city":"東大和市","address":"東京都東大和市向原6丁目1","lat":35.7385306,"lon":139.43434801},{"name":"東大和市保健センター","province":"東京都","city":"東大和市","address":"東京都東大和市中央3丁目918-1","lat":35.74572128,"lon":139.42737043},{"name":"東大和高等学校","province":"東京都","city":"東大和市","address":"東京都東大和市中央3丁目945","lat":35.74553514,"lon":139.42458175},{"name":"東大和南高等学校","province":"東京都","city":"東大和市","address":"東京都東大和市桜が丘3丁目44-8","lat":35.73181724,"lon":139.42322979},{"name":"東大和市本庁舎","province":"東京都","city":"東大和市","address":"東京都東大和市中央3丁目930","lat":35.74471306,"lon":139.42703715},{"name":"東大和市本庁舎","province":"東京都","city":"東大和市","address":"東大和市中央3-930","lat":35.744714,"lon":139.427038},{"name":"東大和警察署","province":"東京都","city":"東大和市","address":"東大和市芋窪6-1061-1","lat":35.74856,"lon":139.4107},{"name":"北多摩西部消防署","province":"東京都","city":"東大和市","address":"東大和市上北台1-956-1","lat":35.74732,"lon":139.4133},{"name":"都立東大和南公園（陸上競技場、野球場）","province":"東京都","city":"東大和市","address":"東大和市桜が丘2丁目地内","lat":35.73676,"lon":139.42},{"name":"都立東大和南公園","province":"東京都","city":"東大和市","address":"東大和市桜が丘2-106-2","lat":35.73351,"lon":139.4246},{"name":"※東大和市本庁舎","province":"東京都","city":"東大和市","address":"東京都東大和市中央3丁目930","lat":35.74471306,"lon":139.42703715},{"name":"デイグループほっと","province":"東京都","city":"東大和市","address":"東大和市清水3-785-2","lat":35.753785,"lon":139.442872},{"name":"デイグループぱーく","province":"東京都","city":"東大和市","address":"東大和市清水3-855-2","lat":35.753549,"lon":139.443224},{"name":"放課後等デイサービス　ぽっぷ","province":"東京都","city":"東大和市","address":"東大和市南街2-110-7","lat":35.738519,"lon":139.432059},{"name":"放課後デイ　ゆうハウス","province":"東京都","city":"東大和市","address":"東大和市中央3-855-10中央ビル1階AD号室","lat":35.744846,"lon":139.42827},{"name":"狭山自然公園","province":"東京都","city":"東大和市","address":"東京都東大和市、東村山市、武蔵村山市、瑞穂町","lat":35.763198,"lon":139.441582},{"name":"東大和公園","province":"東京都","city":"東大和市","address":"東京都東大和市湖畔3丁目、高木1丁目、狭山3丁目","lat":35.756214,"lon":139.430354},{"name":"東大和南公園","province":"東京都","city":"東大和市","address":"東京都東大和市桜が丘二・三丁目","lat":35.734226,"lon":139.42202},{"name":"上北台給水所","province":"東京都","city":"東大和市","address":"東京都東大和市上北台1-801-1","lat":35.7466078,"lon":139.413939},{"name":"東大和給水所","province":"東京都","city":"東大和市","address":"東京都東大和市桜が丘3-44","lat":35.7312269,"lon":139.428196},{"name":"れんげ学園","province":"東京都","city":"東大和市","address":"東大和市芋窪5-1161-3","lat":35.74959,"lon":139.41428},{"name":"東大和市","province":"東京都","city":"東大和市","address":"東大和市中央3-930","lat":35.74526,"lon":139.4265},{"name":"西武鉄道東大和市駅駐輪場","province":"東京都","city":"東大和市","address":"東京都東大和市桜が丘1丁目1415-1","lat":35.73288126,"lon":139.43434551},{"name":"西武スマイルパーク東大和市駅前第１","province":"東京都","city":"東大和市","address":"東京都東大和市桜が丘1丁目1330-19","lat":35.7330479,"lon":139.43404552},{"name":"西武スマイルパークBIGBOX東大和","province":"東京都","city":"東大和市","address":"東京都東大和市桜が丘1丁目1330-19","lat":35.7330479,"lon":139.43404552},{"name":"武蔵大和駅第2公共自転車等駐車場","province":"東京都","city":"東大和市","address":"東京都東大和市清水1丁目748-2","lat":35.75580662,"lon":139.44388817},{"name":"上北台駅第1公共自転車等駐車場","province":"東京都","city":"東大和市","address":"東京都東大和市上北台1丁目5-1","lat":35.7458127,"lon":139.4158048},{"name":"上北台駅第2公共自転車等駐車場","province":"東京都","city":"東大和市","address":"東京都東大和市上北台1丁目5-1","lat":35.7458127,"lon":139.4158048},{"name":"西武スマイルパークBIGBOX東大和第2","province":"東京都","city":"東大和市","address":"東京都東大和市桜が丘1丁目1330-19","lat":35.7330479,"lon":139.43404552},{"name":"Cycle DAICHI　武蔵大和駅前駐輪場","province":"東京都","city":"東大和市","address":"東京都東大和市清水2丁目802-1","lat":35.75551222,"lon":139.44397706},{"name":"上北台駅第7公共自転車等駐車場","province":"東京都","city":"東大和市","address":"東京都東大和市上北台1丁目5-1","lat":35.7458127,"lon":139.4158048},{"name":"上北台駅前駐輪場","province":"東京都","city":"東大和市","address":"東京都東大和市立野2丁目2-10","lat":35.74638765,"lon":139.41656581},{"name":"高齢者見守りぼっくすならはし","province":"東京都","city":"東大和市","address":"東大和市奈良橋4-600/奈良橋市民センター2階老人福祉センター内","lat":35.754078,"lon":139.427856},{"name":"高齢者見守りぼっくすしんぼり","province":"東京都","city":"東大和市","address":"東大和市新堀3-6-1/新堀地区会館2階","lat":35.737888,"lon":139.448288},{"name":"高齢者見守りぼっくすなんがい","province":"東京都","city":"東大和市","address":"東大和市南街2-49-3/在宅サポートセンター1階","lat":35.740234,"lon":139.431412},{"name":"高齢者ほっと支援センターいもくぼ","province":"東京都","city":"東大和市","address":"東大和市芋窪3-1611-1/在宅サービスセンター向台内","lat":35.752773,"lon":139.413635},{"name":"高齢者ほっと支援センターきよはら","province":"東京都","city":"東大和市","address":"東大和市清原1-1-34号/棟1階在宅サービスセンターきよはら内","lat":35.745159,"lon":139.447495},{"name":"高齢者ほっと支援センターなんがい","province":"東京都","city":"東大和市","address":"東大和市南街2-49-3/在宅サポートセンター1階","lat":35.740234,"lon":139.431412},{"name":"東大和市役所高齢介護課","province":"東京都","city":"東大和市","address":"東大和市中央3-930","lat":35.745262,"lon":139.426498},{"name":"れんげ学園","province":"東京都","city":"東大和市","address":"東大和市芋窪5-1161-3","lat":35.749134,"lon":139.41346},{"name":"東大和市駅前","province":"東京都","city":"東大和市","address":"東京都東大和市向原6丁目1408-33","lat":35.73432834,"lon":139.43517869},{"name":"新堀","province":"東京都","city":"東大和市","address":"東京都東大和市清原3丁目1","lat":35.74144173,"lon":139.44908276},{"name":"東大和市役所","province":"東京都","city":"東大和市","address":"東京都東大和市中央3-930","lat":35.745332,"lon":139.426299},{"name":"南街公民館","province":"東京都","city":"東大和市","address":"東京都東大和市南街5-32","lat":35.737795,"lon":139.431285},{"name":"中央公民館","province":"東京都","city":"東大和市","address":"東京都東大和市中央3-926","lat":35.744911,"lon":139.426384},{"name":"狭山公民館","province":"東京都","city":"東大和市","address":"東京都東大和市狭山3-1344-1","lat":35.756086,"lon":139.437632},{"name":"蔵敷公民館","province":"東京都","city":"東大和市","address":"東京都東大和市蔵敷2-337","lat":35.754477,"lon":139.416201},{"name":"上北台公民館","province":"東京都","city":"東大和市","address":"東京都東大和市上北台2-865-9","lat":35.743098,"lon":139.414718},{"name":"中央図書館","province":"東京都","city":"東大和市","address":"東京都東大和市中央3-930","lat":35.744916,"lon":139.42699},{"name":"桜が丘図書館","province":"東京都","city":"東大和市","address":"東京都東大和市桜が丘3-44-13","lat":35.734092,"lon":139.419935},{"name":"清原図書館","province":"東京都","city":"東大和市","address":"東京都東大和市清原4-1","lat":35.742769,"lon":139.446976},{"name":"むこうはら児童館","province":"東京都","city":"東大和市","address":"東京都東大和市向原3-10","lat":35.740581,"lon":139.436707},{"name":"きよはら児童館","province":"東京都","city":"東大和市","address":"東京都東大和市清原2-1","lat":35.743172,"lon":139.446909},{"name":"ならはし児童館","province":"東京都","city":"東大和市","address":"東京都東大和市奈良橋4-600","lat":35.752485,"lon":139.42576},{"name":"なんがい児童館","province":"東京都","city":"東大和市","address":"東京都東大和市南街5-32","lat":35.737142,"lon":139.4315},{"name":"かみきただい児童館","province":"東京都","city":"東大和市","address":"東京都東大和市上北台2-865-9","lat":35.742882,"lon":139.414742},{"name":"さくらがおか児童館","province":"東京都","city":"東大和市","address":"東京都東大和市桜が丘3-44-13","lat":35.734404,"lon":139.420337},{"name":"学童保育所第一クラブ","province":"東京都","city":"東大和市","address":"東京都東大和市奈良橋4-600","lat":35.752485,"lon":139.42576},{"name":"学童保育所第二クラブ","province":"東京都","city":"東大和市","address":"東京都東大和市南街5-32","lat":35.737142,"lon":139.4315},{"name":"学童保育所第三クラブ","province":"東京都","city":"東大和市","address":"東京都東大和市清原2-1","lat":35.743172,"lon":139.446909},{"name":"学童保育所第四クラブ","province":"東京都","city":"東大和市","address":"東京都東大和市狭山5-1054-1","lat":35.748683,"lon":139.441445},{"name":"学童保育所第五クラブ","province":"東京都","city":"東大和市","address":"東京都東大和市向原3-10","lat":35.740581,"lon":139.436707},{"name":"学童保育所第六クラブ","province":"東京都","city":"東大和市","address":"東京都東大和市清原2-1","lat":35.743172,"lon":139.446909},{"name":"学童保育所第七クラブ","province":"東京都","city":"東大和市","address":"東京都東大和市芋窪5-1183-1","lat":35.750249,"lon":139.415658},{"name":"学童保育所第八クラブ","province":"東京都","city":"東大和市","address":"東京都東大和市立野3-1246-1","lat":35.741798,"lon":139.421905},{"name":"学童保育所第九クラブ","province":"東京都","city":"東大和市","address":"東京都東大和市蔵敷2-546","lat":35.751715,"lon":139.420308},{"name":"学童保育所第十クラブ","province":"東京都","city":"東大和市","address":"東京都東大和市上北台2-865-9","lat":35.742882,"lon":139.414742},{"name":"学童保育所桜が丘クラブ","province":"東京都","city":"東大和市","address":"東京都東大和市桜が丘2-222-11","lat":35.735159,"lon":139.419503},{"name":"学童保育所立野第一学童クラブ","province":"東京都","city":"東大和市","address":"東京都東大和市立野3-1293-10","lat":35.738561,"lon":139.425101},{"name":"学童保育所立野第二学童クラブ","province":"東京都","city":"東大和市","address":"東京都東大和市立野3-1293-10","lat":35.738561,"lon":139.425101},{"name":"郷土博物館","province":"東京都","city":"東大和市","address":"東京都東大和市奈良橋1-260-2","lat":35.755437,"lon":139.423023},{"name":"上仲原公園運動施設","province":"東京都","city":"東大和市","address":"東京都東大和市向原1-1","lat":35.741861,"lon":139.444272},{"name":"清水ゲートボール場","province":"東京都","city":"東大和市","address":"東京都東大和市清水2-928-1","lat":35.752588,"lon":139.444562},{"name":"新堀ゲートボール場","province":"東京都","city":"東大和市","address":"東京都東大和市新堀3-6-1","lat":35.738436,"lon":139.446916},{"name":"芝中多目的広場","province":"東京都","city":"東大和市","address":"東京都東大和市蔵敷3-756-8","lat":35.748612,"lon":139.419087},{"name":"桜が丘市民広場","province":"東京都","city":"東大和市","address":"東京都東大和市桜が丘2-142-2","lat":35.73574,"lon":139.426252},{"name":"市民プール","province":"東京都","city":"東大和市","address":"東京都東大和市桜が丘2-167-13","lat":35.736036,"lon":139.421584},{"name":"市民体育館","province":"東京都","city":"東大和市","address":"東京都東大和市桜が丘2-167-13","lat":35.736036,"lon":139.421584},{"name":"奈良橋ゲートボール場","province":"東京都","city":"東大和市","address":"東京都東大和市奈良橋6-717","lat":35.749929,"lon":139.423741},{"name":"市民会館","province":"東京都","city":"東大和市","address":"東京都東大和市向原6-1","lat":35.738845,"lon":139.43406},{"name":"東大和保育園","province":"東京都","city":"東大和市","address":"東京都東大和市新堀1-1435-33","lat":35.741073,"lon":139.449081},{"name":"ふたば保育園","province":"東京都","city":"東大和市","address":"東京都東大和市立野2-4-13","lat":35.746313,"lon":139.417341},{"name":"みつば保育園","province":"東京都","city":"東大和市","address":"東京都東大和市立野3-1293-10","lat":35.7388,"lon":139.422714},{"name":"向原第二保育園","province":"東京都","city":"東大和市","address":"東京都東大和市向原1-4-1","lat":35.741966,"lon":139.440063},{"name":"ひが保育ママ","province":"東京都","city":"東大和市","address":"東京都東大和市中央2-1101-12","lat":35.743881,"lon":139.430359},{"name":"木村保育ママ","province":"東京都","city":"東大和市","address":"東京都東大和市南街2-20-3","lat":35.741596,"lon":139.427917},{"name":"こども学園","province":"東京都","city":"東大和市","address":"東京都東大和市奈良橋2-409","lat":35.754368,"lon":139.426514},{"name":"東大和市","province":"東京都","city":"東大和市","address":"東大和市中央3-930","lat":35.744713,"lon":139.427037},{"name":"水道局東大和サービスステーション","province":"東京都","city":"東大和市","address":"東京都東大和市上北台3丁目447","lat":35.74157152,"lon":139.41579944},{"name":"清原市民センター","province":"東京都","city":"東大和市","address":"東京都東大和市清原4丁目1-16","lat":35.7407973,"lon":139.44713296},{"name":"東大和市民体育館","province":"東京都","city":"東大和市","address":"東京都東大和市桜が丘2丁目167-13","lat":35.73666109,"lon":139.42152414},{"name":"東大和市役所","province":"東京都","city":"東大和市","address":"東京都東大和市中央3丁目930","lat":35.74471306,"lon":139.42703715},{"name":"東大和市立郷土博物館","province":"東京都","city":"東大和市","address":"東京都東大和市奈良橋1丁目260-2","lat":35.7551312,"lon":139.42296495},{"name":"東大和市民会館ハミングホール","province":"東京都","city":"東大和市","address":"東京都東大和市向原6丁目1","lat":35.7385306,"lon":139.43434801},{"name":"東大和警察署","province":"東京都","city":"東大和市","address":"東大和市芋窪6-1061-1","lat":35.74856,"lon":139.4107},{"name":"北多摩西部消防署","province":"東京都","city":"東大和市","address":"東大和市上北台1-956-1","lat":35.74732,"lon":139.4133},{"name":"都立東大和南公園（陸上競技場、野球場）","province":"東京都","city":"東大和市","address":"東大和市桜が丘2丁目地内","lat":35.73676,"lon":139.42},{"name":"都立東大和南公園","province":"東京都","city":"東大和市","address":"東大和市桜が丘2-106-2","lat":35.73351,"lon":139.4246},{"name":"デイグループほっと","province":"東京都","city":"東大和市","address":"東大和市清水3-785-2","lat":35.753785,"lon":139.442872},{"name":"デイグループぱーく","province":"東京都","city":"東大和市","address":"東大和市清水3-855-2","lat":35.753549,"lon":139.443224},{"name":"放課後等デイサービス　ぽっぷ","province":"東京都","city":"東大和市","address":"東大和市南街2-110-7","lat":35.738519,"lon":139.432059},{"name":"放課後デイ　ゆうハウス","province":"東京都","city":"東大和市","address":"東大和市中央3-855-10中央ビル1階AD号室","lat":35.744846,"lon":139.42827},{"name":"狭山自然公園","province":"東京都","city":"東大和市","address":"東京都東大和市、東村山市、武蔵村山市、瑞穂町","lat":35.763198,"lon":139.441582},{"name":"東大和公園","province":"東京都","city":"東大和市","address":"東京都東大和市湖畔3丁目、高木1丁目、狭山3丁目","lat":35.756214,"lon":139.430354},{"name":"東大和南公園","province":"東京都","city":"東大和市","address":"東京都東大和市桜が丘二・三丁目","lat":35.734226,"lon":139.42202},{"name":"上北台給水所","province":"東京都","city":"東大和市","address":"東京都東大和市上北台1-801-1","lat":35.7466078,"lon":139.413939},{"name":"東大和給水所","province":"東京都","city":"東大和市","address":"東京都東大和市桜が丘3-44","lat":35.7312269,"lon":139.428196},{"name":"西武鉄道東大和市駅駐輪場","province":"東京都","city":"東大和市","address":"東京都東大和市桜が丘1丁目1415-1","lat":35.73288126,"lon":139.43434551},{"name":"西武スマイルパーク東大和市駅前第１","province":"東京都","city":"東大和市","address":"東京都東大和市桜が丘1丁目1330-19","lat":35.7330479,"lon":139.43404552},{"name":"西武スマイルパークBIGBOX東大和","province":"東京都","city":"東大和市","address":"東京都東大和市桜が丘1丁目1330-19","lat":35.7330479,"lon":139.43404552},{"name":"武蔵大和駅第2公共自転車等駐車場","province":"東京都","city":"東大和市","address":"東京都東大和市清水1丁目748-2","lat":35.75580662,"lon":139.44388817},{"name":"上北台駅第1公共自転車等駐車場","province":"東京都","city":"東大和市","address":"東京都東大和市上北台1丁目5-1","lat":35.7458127,"lon":139.4158048},{"name":"上北台駅第2公共自転車等駐車場","province":"東京都","city":"東大和市","address":"東京都東大和市上北台1丁目5-1","lat":35.7458127,"lon":139.4158048},{"name":"西武スマイルパークBIGBOX東大和第2","province":"東京都","city":"東大和市","address":"東京都東大和市桜が丘1丁目1330-19","lat":35.7330479,"lon":139.43404552},{"name":"Cycle DAICHI　武蔵大和駅前駐輪場","province":"東京都","city":"東大和市","address":"東京都東大和市清水2丁目802-1","lat":35.75551222,"lon":139.44397706},{"name":"上北台駅第7公共自転車等駐車場","province":"東京都","city":"東大和市","address":"東京都東大和市上北台1丁目5-1","lat":35.7458127,"lon":139.4158048},{"name":"上北台駅前駐輪場","province":"東京都","city":"東大和市","address":"東京都東大和市立野2丁目2-10","lat":35.74638765,"lon":139.41656581},{"name":"高齢者見守りぼっくすならはし","province":"東京都","city":"東大和市","address":"東大和市奈良橋4-600/奈良橋市民センター2階老人福祉センター内","lat":35.754078,"lon":139.427856},{"name":"高齢者見守りぼっくすしんぼり","province":"東京都","city":"東大和市","address":"東大和市新堀3-6-1/新堀地区会館2階","lat":35.737888,"lon":139.448288},{"name":"高齢者見守りぼっくすなんがい","province":"東京都","city":"東大和市","address":"東大和市南街2-49-3/在宅サポートセンター1階","lat":35.740234,"lon":139.431412},{"name":"高齢者ほっと支援センターいもくぼ","province":"東京都","city":"東大和市","address":"東大和市芋窪3-1611-1/在宅サービスセンター向台内","lat":35.752773,"lon":139.413635},{"name":"高齢者ほっと支援センターきよはら","province":"東京都","city":"東大和市","address":"東大和市清原1-1-34号/棟1階在宅サービスセンターきよはら内","lat":35.745159,"lon":139.447495},{"name":"高齢者ほっと支援センターなんがい","province":"東京都","city":"東大和市","address":"東大和市南街2-49-3/在宅サポートセンター1階","lat":35.740234,"lon":139.431412},{"name":"東大和市役所高齢介護課","province":"東京都","city":"東大和市","address":"東大和市中央3-930","lat":35.745262,"lon":139.426498},{"name":"東大和市駅前","province":"東京都","city":"東大和市","address":"東京都東大和市向原6丁目1408-33","lat":35.73432834,"lon":139.43517869},{"name":"新堀","province":"東京都","city":"東大和市","address":"東京都東大和市清原3丁目1","lat":35.74144173,"lon":139.44908276},{"name":"東大和市役所","province":"東京都","city":"東大和市","address":"東京都東大和市中央3-930","lat":35.745332,"lon":139.426299},{"name":"南街公民館","province":"東京都","city":"東大和市","address":"東京都東大和市南街5-32","lat":35.737795,"lon":139.431285},{"name":"中央公民館","province":"東京都","city":"東大和市","address":"東京都東大和市中央3-926","lat":35.744911,"lon":139.426384},{"name":"狭山公民館","province":"東京都","city":"東大和市","address":"東京都東大和市狭山3-1344-1","lat":35.756086,"lon":139.437632},{"name":"蔵敷公民館","province":"東京都","city":"東大和市","address":"東京都東大和市蔵敷2-337","lat":35.754477,"lon":139.416201},{"name":"上北台公民館","province":"東京都","city":"東大和市","address":"東京都東大和市上北台2-865-9","lat":35.743098,"lon":139.414718},{"name":"中央図書館","province":"東京都","city":"東大和市","address":"東京都東大和市中央3-930","lat":35.744916,"lon":139.42699},{"name":"桜が丘図書館","province":"東京都","city":"東大和市","address":"東京都東大和市桜が丘3-44-13","lat":35.734092,"lon":139.419935},{"name":"清原図書館","province":"東京都","city":"東大和市","address":"東京都東大和市清原4-1","lat":35.742769,"lon":139.446976},{"name":"むこうはら児童館","province":"東京都","city":"東大和市","address":"東京都東大和市向原3-10","lat":35.740581,"lon":139.436707},{"name":"きよはら児童館","province":"東京都","city":"東大和市","address":"東京都東大和市清原2-1","lat":35.743172,"lon":139.446909},{"name":"ならはし児童館","province":"東京都","city":"東大和市","address":"東京都東大和市奈良橋4-600","lat":35.752485,"lon":139.42576},{"name":"なんがい児童館","province":"東京都","city":"東大和市","address":"東京都東大和市南街5-32","lat":35.737142,"lon":139.4315},{"name":"かみきただい児童館","province":"東京都","city":"東大和市","address":"東京都東大和市上北台2-865-9","lat":35.742882,"lon":139.414742},{"name":"さくらがおか児童館","province":"東京都","city":"東大和市","address":"東京都東大和市桜が丘3-44-13","lat":35.734404,"lon":139.420337},{"name":"学童保育所第一クラブ","province":"東京都","city":"東大和市","address":"東京都東大和市奈良橋4-600","lat":35.752485,"lon":139.42576},{"name":"学童保育所第二クラブ","province":"東京都","city":"東大和市","address":"東京都東大和市南街5-32","lat":35.737142,"lon":139.4315},{"name":"学童保育所第三クラブ","province":"東京都","city":"東大和市","address":"東京都東大和市清原2-1","lat":35.743172,"lon":139.446909},{"name":"学童保育所第四クラブ","province":"東京都","city":"東大和市","address":"東京都東大和市狭山5-1054-1","lat":35.748683,"lon":139.441445},{"name":"学童保育所第五クラブ","province":"東京都","city":"東大和市","address":"東京都東大和市向原3-10","lat":35.740581,"lon":139.436707},{"name":"学童保育所第六クラブ","province":"東京都","city":"東大和市","address":"東京都東大和市清原2-1","lat":35.743172,"lon":139.446909},{"name":"学童保育所第七クラブ","province":"東京都","city":"東大和市","address":"東京都東大和市芋窪5-1183-1","lat":35.750249,"lon":139.415658},{"name":"学童保育所第八クラブ","province":"東京都","city":"東大和市","address":"東京都東大和市立野3-1246-1","lat":35.741798,"lon":139.421905},{"name":"学童保育所第九クラブ","province":"東京都","city":"東大和市","address":"東京都東大和市蔵敷2-546","lat":35.751715,"lon":139.420308},{"name":"学童保育所第十クラブ","province":"東京都","city":"東大和市","address":"東京都東大和市上北台2-865-9","lat":35.742882,"lon":139.414742},{"name":"学童保育所桜が丘クラブ","province":"東京都","city":"東大和市","address":"東京都東大和市桜が丘2-222-11","lat":35.735159,"lon":139.419503},{"name":"学童保育所立野第一学童クラブ","province":"東京都","city":"東大和市","address":"東京都東大和市立野3-1293-10","lat":35.738561,"lon":139.425101},{"name":"学童保育所立野第二学童クラブ","province":"東京都","city":"東大和市","address":"東京都東大和市立野3-1293-10","lat":35.738561,"lon":139.425101},{"name":"郷土博物館","province":"東京都","city":"東大和市","address":"東京都東大和市奈良橋1-260-2","lat":35.755437,"lon":139.423023},{"name":"上仲原公園運動施設","province":"東京都","city":"東大和市","address":"東京都東大和市向原1-1","lat":35.741861,"lon":139.444272},{"name":"清水ゲートボール場","province":"東京都","city":"東大和市","address":"東京都東大和市清水2-928-1","lat":35.752588,"lon":139.444562},{"name":"新堀ゲートボール場","province":"東京都","city":"東大和市","address":"東京都東大和市新堀3-6-1","lat":35.738436,"lon":139.446916},{"name":"芝中多目的広場","province":"東京都","city":"東大和市","address":"東京都東大和市蔵敷3-756-8","lat":35.748612,"lon":139.419087},{"name":"桜が丘市民広場","province":"東京都","city":"東大和市","address":"東京都東大和市桜が丘2-142-2","lat":35.73574,"lon":139.426252},{"name":"市民プール","province":"東京都","city":"東大和市","address":"東京都東大和市桜が丘2-167-13","lat":35.736036,"lon":139.421584},{"name":"市民体育館","province":"東京都","city":"東大和市","address":"東京都東大和市桜が丘2-167-13","lat":35.736036,"lon":139.421584},{"name":"奈良橋ゲートボール場","province":"東京都","city":"東大和市","address":"東京都東大和市奈良橋6-717","lat":35.749929,"lon":139.423741},{"name":"市民会館","province":"東京都","city":"東大和市","address":"東京都東大和市向原6-1","lat":35.738845,"lon":139.43406},{"name":"東大和保育園","province":"東京都","city":"東大和市","address":"東京都東大和市新堀1-1435-33","lat":35.741073,"lon":139.449081},{"name":"ふたば保育園","province":"東京都","city":"東大和市","address":"東京都東大和市立野2-4-13","lat":35.746313,"lon":139.417341},{"name":"みつば保育園","province":"東京都","city":"東大和市","address":"東京都東大和市立野3-1293-10","lat":35.7388,"lon":139.422714},{"name":"向原第二保育園","province":"東京都","city":"東大和市","address":"東京都東大和市向原1-4-1","lat":35.741966,"lon":139.440063},{"name":"ひが保育ママ","province":"東京都","city":"東大和市","address":"東京都東大和市中央2-1101-12","lat":35.743881,"lon":139.430359},{"name":"木村保育ママ","province":"東京都","city":"東大和市","address":"東京都東大和市南街2-20-3","lat":35.741596,"lon":139.427917},{"name":"こども学園","province":"東京都","city":"東大和市","address":"東京都東大和市奈良橋2-409","lat":35.754368,"lon":139.426514},{"name":"水道局東大和サービスステーション","province":"東京都","city":"東大和市","address":"東京都東大和市上北台3丁目447","lat":35.74157152,"lon":139.41579944},{"name":"清原市民センター","province":"東京都","city":"東大和市","address":"東京都東大和市清原4丁目1-16","lat":35.7407973,"lon":139.44713296},{"name":"東大和市民体育館","province":"東京都","city":"東大和市","address":"東京都東大和市桜が丘2丁目167-13","lat":35.73666109,"lon":139.42152414},{"name":"東大和市役所","province":"東京都","city":"東大和市","address":"東京都東大和市中央3丁目930","lat":35.74471306,"lon":139.42703715},{"name":"東大和市立郷土博物館","province":"東京都","city":"東大和市","address":"東京都東大和市奈良橋1丁目260-2","lat":35.7551312,"lon":139.42296495},{"name":"東大和市民会館ハミングホール","province":"東京都","city":"東大和市","address":"東京都東大和市向原6丁目1","lat":35.7385306,"lon":139.43434801},{"name":"デイグループほっと","province":"東京都","city":"東大和市","address":"東大和市清水3-785-2","lat":35.753785,"lon":139.442872},{"name":"デイグループぱーく","province":"東京都","city":"東大和市","address":"東大和市清水3-855-2","lat":35.753549,"lon":139.443224},{"name":"放課後等デイサービス　ぽっぷ","province":"東京都","city":"東大和市","address":"東大和市南街2-110-7","lat":35.738519,"lon":139.432059},{"name":"放課後デイ　ゆうハウス","province":"東京都","city":"東大和市","address":"東大和市中央3-855-10中央ビル1階AD号室","lat":35.744846,"lon":139.42827},{"name":"狭山自然公園","province":"東京都","city":"東大和市","address":"東京都東大和市、東村山市、武蔵村山市、瑞穂町","lat":35.763198,"lon":139.441582},{"name":"東大和公園","province":"東京都","city":"東大和市","address":"東京都東大和市湖畔3丁目、高木1丁目、狭山3丁目","lat":35.756214,"lon":139.430354},{"name":"東大和南公園","province":"東京都","city":"東大和市","address":"東京都東大和市桜が丘二・三丁目","lat":35.734226,"lon":139.42202},{"name":"上北台給水所","province":"東京都","city":"東大和市","address":"東京都東大和市上北台1-801-1","lat":35.7466078,"lon":139.413939},{"name":"東大和給水所","province":"東京都","city":"東大和市","address":"東京都東大和市桜が丘3-44","lat":35.7312269,"lon":139.428196},{"name":"西武鉄道東大和市駅駐輪場","province":"東京都","city":"東大和市","address":"東京都東大和市桜が丘1丁目1415-1","lat":35.73288126,"lon":139.43434551},{"name":"西武スマイルパーク東大和市駅前第１","province":"東京都","city":"東大和市","address":"東京都東大和市桜が丘1丁目1330-19","lat":35.7330479,"lon":139.43404552},{"name":"西武スマイルパークBIGBOX東大和","province":"東京都","city":"東大和市","address":"東京都東大和市桜が丘1丁目1330-19","lat":35.7330479,"lon":139.43404552},{"name":"武蔵大和駅第2公共自転車等駐車場","province":"東京都","city":"東大和市","address":"東京都東大和市清水1丁目748-2","lat":35.75580662,"lon":139.44388817},{"name":"上北台駅第1公共自転車等駐車場","province":"東京都","city":"東大和市","address":"東京都東大和市上北台1丁目5-1","lat":35.7458127,"lon":139.4158048},{"name":"上北台駅第2公共自転車等駐車場","province":"東京都","city":"東大和市","address":"東京都東大和市上北台1丁目5-1","lat":35.7458127,"lon":139.4158048},{"name":"西武スマイルパークBIGBOX東大和第2","province":"東京都","city":"東大和市","address":"東京都東大和市桜が丘1丁目1330-19","lat":35.7330479,"lon":139.43404552},{"name":"Cycle DAICHI　武蔵大和駅前駐輪場","province":"東京都","city":"東大和市","address":"東京都東大和市清水2丁目802-1","lat":35.75551222,"lon":139.44397706},{"name":"上北台駅第7公共自転車等駐車場","province":"東京都","city":"東大和市","address":"東京都東大和市上北台1丁目5-1","lat":35.7458127,"lon":139.4158048},{"name":"上北台駅前駐輪場","province":"東京都","city":"東大和市","address":"東京都東大和市立野2丁目2-10","lat":35.74638765,"lon":139.41656581},{"name":"東大和市駅前","province":"東京都","city":"東大和市","address":"東京都東大和市向原6丁目1408-33","lat":35.73432834,"lon":139.43517869},{"name":"新堀","province":"東京都","city":"東大和市","address":"東京都東大和市清原3丁目1","lat":35.74144173,"lon":139.44908276},{"name":"東大和市役所","province":"東京都","city":"東大和市","address":"東京都東大和市中央3-930","lat":35.745332,"lon":139.426299},{"name":"南街公民館","province":"東京都","city":"東大和市","address":"東京都東大和市南街5-32","lat":35.737795,"lon":139.431285},{"name":"中央公民館","province":"東京都","city":"東大和市","address":"東京都東大和市中央3-926","lat":35.744911,"lon":139.426384},{"name":"狭山公民館","province":"東京都","city":"東大和市","address":"東京都東大和市狭山3-1344-1","lat":35.756086,"lon":139.437632},{"name":"蔵敷公民館","province":"東京都","city":"東大和市","address":"東京都東大和市蔵敷2-337","lat":35.754477,"lon":139.416201},{"name":"上北台公民館","province":"東京都","city":"東大和市","address":"東京都東大和市上北台2-865-9","lat":35.743098,"lon":139.414718},{"name":"中央図書館","province":"東京都","city":"東大和市","address":"東京都東大和市中央3-930","lat":35.744916,"lon":139.42699},{"name":"桜が丘図書館","province":"東京都","city":"東大和市","address":"東京都東大和市桜が丘3-44-13","lat":35.734092,"lon":139.419935},{"name":"清原図書館","province":"東京都","city":"東大和市","address":"東京都東大和市清原4-1","lat":35.742769,"lon":139.446976},{"name":"むこうはら児童館","province":"東京都","city":"東大和市","address":"東京都東大和市向原3-10","lat":35.740581,"lon":139.436707},{"name":"きよはら児童館","province":"東京都","city":"東大和市","address":"東京都東大和市清原2-1","lat":35.743172,"lon":139.446909},{"name":"ならはし児童館","province":"東京都","city":"東大和市","address":"東京都東大和市奈良橋4-600","lat":35.752485,"lon":139.42576},{"name":"なんがい児童館","province":"東京都","city":"東大和市","address":"東京都東大和市南街5-32","lat":35.737142,"lon":139.4315},{"name":"かみきただい児童館","province":"東京都","city":"東大和市","address":"東京都東大和市上北台2-865-9","lat":35.742882,"lon":139.414742},{"name":"さくらがおか児童館","province":"東京都","city":"東大和市","address":"東京都東大和市桜が丘3-44-13","lat":35.734404,"lon":139.420337},{"name":"学童保育所第一クラブ","province":"東京都","city":"東大和市","address":"東京都東大和市奈良橋4-600","lat":35.752485,"lon":139.42576},{"name":"学童保育所第二クラブ","province":"東京都","city":"東大和市","address":"東京都東大和市南街5-32","lat":35.737142,"lon":139.4315},{"name":"学童保育所第三クラブ","province":"東京都","city":"東大和市","address":"東京都東大和市清原2-1","lat":35.743172,"lon":139.446909},{"name":"学童保育所第四クラブ","province":"東京都","city":"東大和市","address":"東京都東大和市狭山5-1054-1","lat":35.748683,"lon":139.441445},{"name":"学童保育所第五クラブ","province":"東京都","city":"東大和市","address":"東京都東大和市向原3-10","lat":35.740581,"lon":139.436707},{"name":"学童保育所第六クラブ","province":"東京都","city":"東大和市","address":"東京都東大和市清原2-1","lat":35.743172,"lon":139.446909},{"name":"学童保育所第七クラブ","province":"東京都","city":"東大和市","address":"東京都東大和市芋窪5-1183-1","lat":35.750249,"lon":139.415658},{"name":"学童保育所第八クラブ","province":"東京都","city":"東大和市","address":"東京都東大和市立野3-1246-1","lat":35.741798,"lon":139.421905},{"name":"学童保育所第九クラブ","province":"東京都","city":"東大和市","address":"東京都東大和市蔵敷2-546","lat":35.751715,"lon":139.420308},{"name":"学童保育所第十クラブ","province":"東京都","city":"東大和市","address":"東京都東大和市上北台2-865-9","lat":35.742882,"lon":139.414742},{"name":"学童保育所桜が丘クラブ","province":"東京都","city":"東大和市","address":"東京都東大和市桜が丘2-222-11","lat":35.735159,"lon":139.419503},{"name":"学童保育所立野第一学童クラブ","province":"東京都","city":"東大和市","address":"東京都東大和市立野3-1293-10","lat":35.738561,"lon":139.425101},{"name":"学童保育所立野第二学童クラブ","province":"東京都","city":"東大和市","address":"東京都東大和市立野3-1293-10","lat":35.738561,"lon":139.425101},{"name":"郷土博物館","province":"東京都","city":"東大和市","address":"東京都東大和市奈良橋1-260-2","lat":35.755437,"lon":139.423023},{"name":"上仲原公園運動施設","province":"東京都","city":"東大和市","address":"東京都東大和市向原1-1","lat":35.741861,"lon":139.444272},{"name":"清水ゲートボール場","province":"東京都","city":"東大和市","address":"東京都東大和市清水2-928-1","lat":35.752588,"lon":139.444562},{"name":"新堀ゲートボール場","province":"東京都","city":"東大和市","address":"東京都東大和市新堀3-6-1","lat":35.738436,"lon":139.446916},{"name":"芝中多目的広場","province":"東京都","city":"東大和市","address":"東京都東大和市蔵敷3-756-8","lat":35.748612,"lon":139.419087},{"name":"桜が丘市民広場","province":"東京都","city":"東大和市","address":"東京都東大和市桜が丘2-142-2","lat":35.73574,"lon":139.426252},{"name":"市民プール","province":"東京都","city":"東大和市","address":"東京都東大和市桜が丘2-167-13","lat":35.736036,"lon":139.421584},{"name":"市民体育館","province":"東京都","city":"東大和市","address":"東京都東大和市桜が丘2-167-13","lat":35.736036,"lon":139.421584},{"name":"奈良橋ゲートボール場","province":"東京都","city":"東大和市","address":"東京都東大和市奈良橋6-717","lat":35.749929,"lon":139.423741},{"name":"市民会館","province":"東京都","city":"東大和市","address":"東京都東大和市向原6-1","lat":35.738845,"lon":139.43406},{"name":"東大和保育園","province":"東京都","city":"東大和市","address":"東京都東大和市新堀1-1435-33","lat":35.741073,"lon":139.449081},{"name":"ふたば保育園","province":"東京都","city":"東大和市","address":"東京都東大和市立野2-4-13","lat":35.746313,"lon":139.417341},{"name":"みつば保育園","province":"東京都","city":"東大和市","address":"東京都東大和市立野3-1293-10","lat":35.7388,"lon":139.422714},{"name":"向原第二保育園","province":"東京都","city":"東大和市","address":"東京都東大和市向原1-4-1","lat":35.741966,"lon":139.440063},{"name":"ひが保育ママ","province":"東京都","city":"東大和市","address":"東京都東大和市中央2-1101-12","lat":35.743881,"lon":139.430359},{"name":"木村保育ママ","province":"東京都","city":"東大和市","address":"東京都東大和市南街2-20-3","lat":35.741596,"lon":139.427917},{"name":"こども学園","province":"東京都","city":"東大和市","address":"東京都東大和市奈良橋2-409","lat":35.754368,"lon":139.426514},{"name":"水道局東大和サービスステーション","province":"東京都","city":"東大和市","address":"東京都東大和市上北台3丁目447","lat":35.74157152,"lon":139.41579944},{"name":"清原市民センター","province":"東京都","city":"東大和市","address":"東京都東大和市清原4丁目1-16","lat":35.7407973,"lon":139.44713296},{"name":"東大和市民体育館","province":"東京都","city":"東大和市","address":"東京都東大和市桜が丘2丁目167-13","lat":35.73666109,"lon":139.42152414},{"name":"東大和市役所","province":"東京都","city":"東大和市","address":"東京都東大和市中央3丁目930","lat":35.74471306,"lon":139.42703715},{"name":"東大和市立郷土博物館","province":"東京都","city":"東大和市","address":"東京都東大和市奈良橋1丁目260-2","lat":35.7551312,"lon":139.42296495},{"name":"東大和市民会館ハミングホール","province":"東京都","city":"東大和市","address":"東京都東大和市向原6丁目1","lat":35.7385306,"lon":139.43434801},{"name":"デイグループほっと","province":"東京都","city":"東大和市","address":"東大和市清水3-785-2","lat":35.753785,"lon":139.442872},{"name":"デイグループぱーく","province":"東京都","city":"東大和市","address":"東大和市清水3-855-2","lat":35.753549,"lon":139.443224},{"name":"放課後等デイサービス　ぽっぷ","province":"東京都","city":"東大和市","address":"東大和市南街2-110-7","lat":35.738519,"lon":139.432059},{"name":"放課後デイ　ゆうハウス","province":"東京都","city":"東大和市","address":"東大和市中央3-855-10中央ビル1階AD号室","lat":35.744846,"lon":139.42827},{"name":"狭山自然公園","province":"東京都","city":"東大和市","address":"東京都東大和市、東村山市、武蔵村山市、瑞穂町","lat":35.763198,"lon":139.441582},{"name":"東大和公園","province":"東京都","city":"東大和市","address":"東京都東大和市湖畔3丁目、高木1丁目、狭山3丁目","lat":35.756214,"lon":139.430354},{"name":"東大和南公園","province":"東京都","city":"東大和市","address":"東京都東大和市桜が丘二・三丁目","lat":35.734226,"lon":139.42202},{"name":"上北台給水所","province":"東京都","city":"東大和市","address":"東京都東大和市上北台1-801-1","lat":35.7466078,"lon":139.413939},{"name":"東大和給水所","province":"東京都","city":"東大和市","address":"東京都東大和市桜が丘3-44","lat":35.7312269,"lon":139.428196},{"name":"西武鉄道東大和市駅駐輪場","province":"東京都","city":"東大和市","address":"東京都東大和市桜が丘1丁目1415-1","lat":35.73288126,"lon":139.43434551},{"name":"西武スマイルパーク東大和市駅前第１","province":"東京都","city":"東大和市","address":"東京都東大和市桜が丘1丁目1330-19","lat":35.7330479,"lon":139.43404552},{"name":"西武スマイルパークBIGBOX東大和","province":"東京都","city":"東大和市","address":"東京都東大和市桜が丘1丁目1330-19","lat":35.7330479,"lon":139.43404552},{"name":"武蔵大和駅第2公共自転車等駐車場","province":"東京都","city":"東大和市","address":"東京都東大和市清水1丁目748-2","lat":35.75580662,"lon":139.44388817},{"name":"上北台駅第1公共自転車等駐車場","province":"東京都","city":"東大和市","address":"東京都東大和市上北台1丁目5-1","lat":35.7458127,"lon":139.4158048},{"name":"上北台駅第2公共自転車等駐車場","province":"東京都","city":"東大和市","address":"東京都東大和市上北台1丁目5-1","lat":35.7458127,"lon":139.4158048},{"name":"西武スマイルパークBIGBOX東大和第2","province":"東京都","city":"東大和市","address":"東京都東大和市桜が丘1丁目1330-19","lat":35.7330479,"lon":139.43404552},{"name":"Cycle DAICHI　武蔵大和駅前駐輪場","province":"東京都","city":"東大和市","address":"東京都東大和市清水2丁目802-1","lat":35.75551222,"lon":139.44397706},{"name":"上北台駅第7公共自転車等駐車場","province":"東京都","city":"東大和市","address":"東京都東大和市上北台1丁目5-1","lat":35.7458127,"lon":139.4158048},{"name":"上北台駅前駐輪場","province":"東京都","city":"東大和市","address":"東京都東大和市立野2丁目2-10","lat":35.74638765,"lon":139.41656581},{"name":"東大和市駅前","province":"東京都","city":"東大和市","address":"東京都東大和市向原6丁目1408-33","lat":35.73432834,"lon":139.43517869},{"name":"新堀","province":"東京都","city":"東大和市","address":"東京都東大和市清原3丁目1","lat":35.74144173,"lon":139.44908276},{"name":"東大和市役所","province":"東京都","city":"東大和市","address":"東京都東大和市中央3-930","lat":35.745332,"lon":139.426299},{"name":"南街公民館","province":"東京都","city":"東大和市","address":"東京都東大和市南街5-32","lat":35.737795,"lon":139.431285},{"name":"中央公民館","province":"東京都","city":"東大和市","address":"東京都東大和市中央3-926","lat":35.744911,"lon":139.426384},{"name":"狭山公民館","province":"東京都","city":"東大和市","address":"東京都東大和市狭山3-1344-1","lat":35.756086,"lon":139.437632},{"name":"蔵敷公民館","province":"東京都","city":"東大和市","address":"東京都東大和市蔵敷2-337","lat":35.754477,"lon":139.416201},{"name":"上北台公民館","province":"東京都","city":"東大和市","address":"東京都東大和市上北台2-865-9","lat":35.743098,"lon":139.414718},{"name":"中央図書館","province":"東京都","city":"東大和市","address":"東京都東大和市中央3-930","lat":35.744916,"lon":139.42699},{"name":"桜が丘図書館","province":"東京都","city":"東大和市","address":"東京都東大和市桜が丘3-44-13","lat":35.734092,"lon":139.419935},{"name":"清原図書館","province":"東京都","city":"東大和市","address":"東京都東大和市清原4-1","lat":35.742769,"lon":139.446976},{"name":"むこうはら児童館","province":"東京都","city":"東大和市","address":"東京都東大和市向原3-10","lat":35.740581,"lon":139.436707},{"name":"きよはら児童館","province":"東京都","city":"東大和市","address":"東京都東大和市清原2-1","lat":35.743172,"lon":139.446909},{"name":"ならはし児童館","province":"東京都","city":"東大和市","address":"東京都東大和市奈良橋4-600","lat":35.752485,"lon":139.42576},{"name":"なんがい児童館","province":"東京都","city":"東大和市","address":"東京都東大和市南街5-32","lat":35.737142,"lon":139.4315},{"name":"かみきただい児童館","province":"東京都","city":"東大和市","address":"東京都東大和市上北台2-865-9","lat":35.742882,"lon":139.414742},{"name":"さくらがおか児童館","province":"東京都","city":"東大和市","address":"東京都東大和市桜が丘3-44-13","lat":35.734404,"lon":139.420337},{"name":"学童保育所第一クラブ","province":"東京都","city":"東大和市","address":"東京都東大和市奈良橋4-600","lat":35.752485,"lon":139.42576},{"name":"学童保育所第二クラブ","province":"東京都","city":"東大和市","address":"東京都東大和市南街5-32","lat":35.737142,"lon":139.4315},{"name":"学童保育所第三クラブ","province":"東京都","city":"東大和市","address":"東京都東大和市清原2-1","lat":35.743172,"lon":139.446909},{"name":"学童保育所第四クラブ","province":"東京都","city":"東大和市","address":"東京都東大和市狭山5-1054-1","lat":35.748683,"lon":139.441445},{"name":"学童保育所第五クラブ","province":"東京都","city":"東大和市","address":"東京都東大和市向原3-10","lat":35.740581,"lon":139.436707},{"name":"学童保育所第六クラブ","province":"東京都","city":"東大和市","address":"東京都東大和市清原2-1","lat":35.743172,"lon":139.446909},{"name":"学童保育所第七クラブ","province":"東京都","city":"東大和市","address":"東京都東大和市芋窪5-1183-1","lat":35.750249,"lon":139.415658},{"name":"学童保育所第八クラブ","province":"東京都","city":"東大和市","address":"東京都東大和市立野3-1246-1","lat":35.741798,"lon":139.421905},{"name":"学童保育所第九クラブ","province":"東京都","city":"東大和市","address":"東京都東大和市蔵敷2-546","lat":35.751715,"lon":139.420308},{"name":"学童保育所第十クラブ","province":"東京都","city":"東大和市","address":"東京都東大和市上北台2-865-9","lat":35.742882,"lon":139.414742},{"name":"学童保育所桜が丘クラブ","province":"東京都","city":"東大和市","address":"東京都東大和市桜が丘2-222-11","lat":35.735159,"lon":139.419503},{"name":"学童保育所立野第一学童クラブ","province":"東京都","city":"東大和市","address":"東京都東大和市立野3-1293-10","lat":35.738561,"lon":139.425101},{"name":"学童保育所立野第二学童クラブ","province":"東京都","city":"東大和市","address":"東京都東大和市立野3-1293-10","lat":35.738561,"lon":139.425101},{"name":"郷土博物館","province":"東京都","city":"東大和市","address":"東京都東大和市奈良橋1-260-2","lat":35.755437,"lon":139.423023},{"name":"上仲原公園運動施設","province":"東京都","city":"東大和市","address":"東京都東大和市向原1-1","lat":35.741861,"lon":139.444272},{"name":"清水ゲートボール場","province":"東京都","city":"東大和市","address":"東京都東大和市清水2-928-1","lat":35.752588,"lon":139.444562},{"name":"新堀ゲートボール場","province":"東京都","city":"東大和市","address":"東京都東大和市新堀3-6-1","lat":35.738436,"lon":139.446916},{"name":"芝中多目的広場","province":"東京都","city":"東大和市","address":"東京都東大和市蔵敷3-756-8","lat":35.748612,"lon":139.419087},{"name":"桜が丘市民広場","province":"東京都","city":"東大和市","address":"東京都東大和市桜が丘2-142-2","lat":35.73574,"lon":139.426252},{"name":"市民プール","province":"東京都","city":"東大和市","address":"東京都東大和市桜が丘2-167-13","lat":35.736036,"lon":139.421584},{"name":"市民体育館","province":"東京都","city":"東大和市","address":"東京都東大和市桜が丘2-167-13","lat":35.736036,"lon":139.421584},{"name":"奈良橋ゲートボール場","province":"東京都","city":"東大和市","address":"東京都東大和市奈良橋6-717","lat":35.749929,"lon":139.423741},{"name":"市民会館","province":"東京都","city":"東大和市","address":"東京都東大和市向原6-1","lat":35.738845,"lon":139.43406},{"name":"東大和保育園","province":"東京都","city":"東大和市","address":"東京都東大和市新堀1-1435-33","lat":35.741073,"lon":139.449081},{"name":"ふたば保育園","province":"東京都","city":"東大和市","address":"東京都東大和市立野2-4-13","lat":35.746313,"lon":139.417341},{"name":"みつば保育園","province":"東京都","city":"東大和市","address":"東京都東大和市立野3-1293-10","lat":35.7388,"lon":139.422714},{"name":"向原第二保育園","province":"東京都","city":"東大和市","address":"東京都東大和市向原1-4-1","lat":35.741966,"lon":139.440063},{"name":"ひが保育ママ","province":"東京都","city":"東大和市","address":"東京都東大和市中央2-1101-12","lat":35.743881,"lon":139.430359},{"name":"木村保育ママ","province":"東京都","city":"東大和市","address":"東京都東大和市南街2-20-3","lat":35.741596,"lon":139.427917},{"name":"こども学園","province":"東京都","city":"東大和市","address":"東京都東大和市奈良橋2-409","lat":35.754368,"lon":139.426514},{"name":"水道局東大和サービスステーション","province":"東京都","city":"東大和市","address":"東京都東大和市上北台3丁目447","lat":35.74157152,"lon":139.41579944},{"name":"清原市民センター","province":"東京都","city":"東大和市","address":"東京都東大和市清原4丁目1-16","lat":35.7407973,"lon":139.44713296},{"name":"東大和市民体育館","province":"東京都","city":"東大和市","address":"東京都東大和市桜が丘2丁目167-13","lat":35.73666109,"lon":139.42152414},{"name":"東大和市役所","province":"東京都","city":"東大和市","address":"東京都東大和市中央3丁目930","lat":35.74471306,"lon":139.42703715},{"name":"東大和市立郷土博物館","province":"東京都","city":"東大和市","address":"東京都東大和市奈良橋1丁目260-2","lat":35.7551312,"lon":139.42296495},{"name":"東大和市民会館ハミングホール","province":"東京都","city":"東大和市","address":"東京都東大和市向原6丁目1","lat":35.7385306,"lon":139.43434801},{"name":"デイグループほっと","province":"東京都","city":"東大和市","address":"東大和市清水3-785-2","lat":35.753785,"lon":139.442872},{"name":"デイグループぱーく","province":"東京都","city":"東大和市","address":"東大和市清水3-855-2","lat":35.753549,"lon":139.443224},{"name":"放課後等デイサービス　ぽっぷ","province":"東京都","city":"東大和市","address":"東大和市南街2-110-7","lat":35.738519,"lon":139.432059},{"name":"放課後デイ　ゆうハウス","province":"東京都","city":"東大和市","address":"東大和市中央3-855-10中央ビル1階AD号室","lat":35.744846,"lon":139.42827},{"name":"狭山自然公園","province":"東京都","city":"東大和市","address":"東京都東大和市、東村山市、武蔵村山市、瑞穂町","lat":35.763198,"lon":139.441582},{"name":"東大和公園","province":"東京都","city":"東大和市","address":"東京都東大和市湖畔3丁目、高木1丁目、狭山3丁目","lat":35.756214,"lon":139.430354},{"name":"東大和南公園","province":"東京都","city":"東大和市","address":"東京都東大和市桜が丘二・三丁目","lat":35.734226,"lon":139.42202},{"name":"上北台給水所","province":"東京都","city":"東大和市","address":"東京都東大和市上北台1-801-1","lat":35.7466078,"lon":139.413939},{"name":"東大和給水所","province":"東京都","city":"東大和市","address":"東京都東大和市桜が丘3-44","lat":35.7312269,"lon":139.428196},{"name":"西武鉄道東大和市駅駐輪場","province":"東京都","city":"東大和市","address":"東京都東大和市桜が丘1丁目1415-1","lat":35.73288126,"lon":139.43434551},{"name":"西武スマイルパーク東大和市駅前第１","province":"東京都","city":"東大和市","address":"東京都東大和市桜が丘1丁目1330-19","lat":35.7330479,"lon":139.43404552},{"name":"西武スマイルパークBIGBOX東大和","province":"東京都","city":"東大和市","address":"東京都東大和市桜が丘1丁目1330-19","lat":35.7330479,"lon":139.43404552},{"name":"武蔵大和駅第2公共自転車等駐車場","province":"東京都","city":"東大和市","address":"東京都東大和市清水1丁目748-2","lat":35.75580662,"lon":139.44388817},{"name":"上北台駅第1公共自転車等駐車場","province":"東京都","city":"東大和市","address":"東京都東大和市上北台1丁目5-1","lat":35.7458127,"lon":139.4158048},{"name":"上北台駅第2公共自転車等駐車場","province":"東京都","city":"東大和市","address":"東京都東大和市上北台1丁目5-1","lat":35.7458127,"lon":139.4158048},{"name":"西武スマイルパークBIGBOX東大和第2","province":"東京都","city":"東大和市","address":"東京都東大和市桜が丘1丁目1330-19","lat":35.7330479,"lon":139.43404552},{"name":"Cycle DAICHI　武蔵大和駅前駐輪場","province":"東京都","city":"東大和市","address":"東京都東大和市清水2丁目802-1","lat":35.75551222,"lon":139.44397706},{"name":"上北台駅第7公共自転車等駐車場","province":"東京都","city":"東大和市","address":"東京都東大和市上北台1丁目5-1","lat":35.7458127,"lon":139.4158048},{"name":"上北台駅前駐輪場","province":"東京都","city":"東大和市","address":"東京都東大和市立野2丁目2-10","lat":35.74638765,"lon":139.41656581},{"name":"東大和市駅前","province":"東京都","city":"東大和市","address":"東京都東大和市向原6丁目1408-33","lat":35.73432834,"lon":139.43517869},{"name":"新堀","province":"東京都","city":"東大和市","address":"東京都東大和市清原3丁目1","lat":35.74144173,"lon":139.44908276},{"name":"東大和市役所","province":"東京都","city":"東大和市","address":"東京都東大和市中央3-930","lat":35.745332,"lon":139.426299},{"name":"南街公民館","province":"東京都","city":"東大和市","address":"東京都東大和市南街5-32","lat":35.737795,"lon":139.431285},{"name":"中央公民館","province":"東京都","city":"東大和市","address":"東京都東大和市中央3-926","lat":35.744911,"lon":139.426384},{"name":"狭山公民館","province":"東京都","city":"東大和市","address":"東京都東大和市狭山3-1344-1","lat":35.756086,"lon":139.437632},{"name":"蔵敷公民館","province":"東京都","city":"東大和市","address":"東京都東大和市蔵敷2-337","lat":35.754477,"lon":139.416201},{"name":"上北台公民館","province":"東京都","city":"東大和市","address":"東京都東大和市上北台2-865-9","lat":35.743098,"lon":139.414718},{"name":"中央図書館","province":"東京都","city":"東大和市","address":"東京都東大和市中央3-930","lat":35.744916,"lon":139.42699},{"name":"桜が丘図書館","province":"東京都","city":"東大和市","address":"東京都東大和市桜が丘3-44-13","lat":35.734092,"lon":139.419935},{"name":"清原図書館","province":"東京都","city":"東大和市","address":"東京都東大和市清原4-1","lat":35.742769,"lon":139.446976},{"name":"むこうはら児童館","province":"東京都","city":"東大和市","address":"東京都東大和市向原3-10","lat":35.740581,"lon":139.436707},{"name":"きよはら児童館","province":"東京都","city":"東大和市","address":"東京都東大和市清原2-1","lat":35.743172,"lon":139.446909},{"name":"ならはし児童館","province":"東京都","city":"東大和市","address":"東京都東大和市奈良橋4-600","lat":35.752485,"lon":139.42576},{"name":"なんがい児童館","province":"東京都","city":"東大和市","address":"東京都東大和市南街5-32","lat":35.737142,"lon":139.4315},{"name":"かみきただい児童館","province":"東京都","city":"東大和市","address":"東京都東大和市上北台2-865-9","lat":35.742882,"lon":139.414742},{"name":"さくらがおか児童館","province":"東京都","city":"東大和市","address":"東京都東大和市桜が丘3-44-13","lat":35.734404,"lon":139.420337},{"name":"学童保育所第一クラブ","province":"東京都","city":"東大和市","address":"東京都東大和市奈良橋4-600","lat":35.752485,"lon":139.42576},{"name":"学童保育所第二クラブ","province":"東京都","city":"東大和市","address":"東京都東大和市南街5-32","lat":35.737142,"lon":139.4315},{"name":"学童保育所第三クラブ","province":"東京都","city":"東大和市","address":"東京都東大和市清原2-1","lat":35.743172,"lon":139.446909},{"name":"学童保育所第四クラブ","province":"東京都","city":"東大和市","address":"東京都東大和市狭山5-1054-1","lat":35.748683,"lon":139.441445},{"name":"学童保育所第五クラブ","province":"東京都","city":"東大和市","address":"東京都東大和市向原3-10","lat":35.740581,"lon":139.436707},{"name":"学童保育所第六クラブ","province":"東京都","city":"東大和市","address":"東京都東大和市清原2-1","lat":35.743172,"lon":139.446909},{"name":"学童保育所第七クラブ","province":"東京都","city":"東大和市","address":"東京都東大和市芋窪5-1183-1","lat":35.750249,"lon":139.415658},{"name":"学童保育所第八クラブ","province":"東京都","city":"東大和市","address":"東京都東大和市立野3-1246-1","lat":35.741798,"lon":139.421905},{"name":"学童保育所第九クラブ","province":"東京都","city":"東大和市","address":"東京都東大和市蔵敷2-546","lat":35.751715,"lon":139.420308},{"name":"学童保育所第十クラブ","province":"東京都","city":"東大和市","address":"東京都東大和市上北台2-865-9","lat":35.742882,"lon":139.414742},{"name":"学童保育所桜が丘クラブ","province":"東京都","city":"東大和市","address":"東京都東大和市桜が丘2-222-11","lat":35.735159,"lon":139.419503},{"name":"学童保育所立野第一学童クラブ","province":"東京都","city":"東大和市","address":"東京都東大和市立野3-1293-10","lat":35.738561,"lon":139.425101},{"name":"学童保育所立野第二学童クラブ","province":"東京都","city":"東大和市","address":"東京都東大和市立野3-1293-10","lat":35.738561,"lon":139.425101},{"name":"郷土博物館","province":"東京都","city":"東大和市","address":"東京都東大和市奈良橋1-260-2","lat":35.755437,"lon":139.423023},{"name":"上仲原公園運動施設","province":"東京都","city":"東大和市","address":"東京都東大和市向原1-1","lat":35.741861,"lon":139.444272},{"name":"清水ゲートボール場","province":"東京都","city":"東大和市","address":"東京都東大和市清水2-928-1","lat":35.752588,"lon":139.444562},{"name":"新堀ゲートボール場","province":"東京都","city":"東大和市","address":"東京都東大和市新堀3-6-1","lat":35.738436,"lon":139.446916},{"name":"芝中多目的広場","province":"東京都","city":"東大和市","address":"東京都東大和市蔵敷3-756-8","lat":35.748612,"lon":139.419087},{"name":"桜が丘市民広場","province":"東京都","city":"東大和市","address":"東京都東大和市桜が丘2-142-2","lat":35.73574,"lon":139.426252},{"name":"市民プール","province":"東京都","city":"東大和市","address":"東京都東大和市桜が丘2-167-13","lat":35.736036,"lon":139.421584},{"name":"市民体育館","province":"東京都","city":"東大和市","address":"東京都東大和市桜が丘2-167-13","lat":35.736036,"lon":139.421584},{"name":"奈良橋ゲートボール場","province":"東京都","city":"東大和市","address":"東京都東大和市奈良橋6-717","lat":35.749929,"lon":139.423741},{"name":"市民会館","province":"東京都","city":"東大和市","address":"東京都東大和市向原6-1","lat":35.738845,"lon":139.43406},{"name":"東大和保育園","province":"東京都","city":"東大和市","address":"東京都東大和市新堀1-1435-33","lat":35.741073,"lon":139.449081},{"name":"ふたば保育園","province":"東京都","city":"東大和市","address":"東京都東大和市立野2-4-13","lat":35.746313,"lon":139.417341},{"name":"みつば保育園","province":"東京都","city":"東大和市","address":"東京都東大和市立野3-1293-10","lat":35.7388,"lon":139.422714},{"name":"向原第二保育園","province":"東京都","city":"東大和市","address":"東京都東大和市向原1-4-1","lat":35.741966,"lon":139.440063},{"name":"ひが保育ママ","province":"東京都","city":"東大和市","address":"東京都東大和市中央2-1101-12","lat":35.743881,"lon":139.430359},{"name":"木村保育ママ","province":"東京都","city":"東大和市","address":"東京都東大和市南街2-20-3","lat":35.741596,"lon":139.427917},{"name":"こども学園","province":"東京都","city":"東大和市","address":"東京都東大和市奈良橋2-409","lat":35.754368,"lon":139.426514},{"name":"水道局東大和サービスステーション","province":"東京都","city":"東大和市","address":"東京都東大和市上北台3丁目447","lat":35.74157152,"lon":139.41579944},{"name":"清原市民センター","province":"東京都","city":"東大和市","address":"東京都東大和市清原4丁目1-16","lat":35.7407973,"lon":139.44713296},{"name":"東大和市民体育館","province":"東京都","city":"東大和市","address":"東京都東大和市桜が丘2丁目167-13","lat":35.73666109,"lon":139.42152414},{"name":"東大和市役所","province":"東京都","city":"東大和市","address":"東京都東大和市中央3丁目930","lat":35.74471306,"lon":139.42703715},{"name":"東大和市立郷土博物館","province":"東京都","city":"東大和市","address":"東京都東大和市奈良橋1丁目260-2","lat":35.7551312,"lon":139.42296495},{"name":"東大和市民会館ハミングホール","province":"東京都","city":"東大和市","address":"東京都東大和市向原6丁目1","lat":35.7385306,"lon":139.43434801},{"name":"デイグループほっと","province":"東京都","city":"東大和市","address":"東大和市清水3-785-2","lat":35.753785,"lon":139.442872},{"name":"デイグループぱーく","province":"東京都","city":"東大和市","address":"東大和市清水3-855-2","lat":35.753549,"lon":139.443224},{"name":"放課後等デイサービス　ぽっぷ","province":"東京都","city":"東大和市","address":"東大和市南街2-110-7","lat":35.738519,"lon":139.432059},{"name":"放課後デイ　ゆうハウス","province":"東京都","city":"東大和市","address":"東大和市中央3-855-10中央ビル1階AD号室","lat":35.744846,"lon":139.42827},{"name":"狭山自然公園","province":"東京都","city":"東大和市","address":"東京都東大和市、東村山市、武蔵村山市、瑞穂町","lat":35.763198,"lon":139.441582},{"name":"東大和公園","province":"東京都","city":"東大和市","address":"東京都東大和市湖畔3丁目、高木1丁目、狭山3丁目","lat":35.756214,"lon":139.430354},{"name":"東大和南公園","province":"東京都","city":"東大和市","address":"東京都東大和市桜が丘二・三丁目","lat":35.734226,"lon":139.42202},{"name":"上北台給水所","province":"東京都","city":"東大和市","address":"東京都東大和市上北台1-801-1","lat":35.7466078,"lon":139.413939},{"name":"東大和給水所","province":"東京都","city":"東大和市","address":"東京都東大和市桜が丘3-44","lat":35.7312269,"lon":139.428196},{"name":"西武鉄道東大和市駅駐輪場","province":"東京都","city":"東大和市","address":"東京都東大和市桜が丘1丁目1415-1","lat":35.73288126,"lon":139.43434551},{"name":"西武スマイルパーク東大和市駅前第１","province":"東京都","city":"東大和市","address":"東京都東大和市桜が丘1丁目1330-19","lat":35.7330479,"lon":139.43404552},{"name":"西武スマイルパークBIGBOX東大和","province":"東京都","city":"東大和市","address":"東京都東大和市桜が丘1丁目1330-19","lat":35.7330479,"lon":139.43404552},{"name":"武蔵大和駅第2公共自転車等駐車場","province":"東京都","city":"東大和市","address":"東京都東大和市清水1丁目748-2","lat":35.75580662,"lon":139.44388817},{"name":"上北台駅第1公共自転車等駐車場","province":"東京都","city":"東大和市","address":"東京都東大和市上北台1丁目5-1","lat":35.7458127,"lon":139.4158048},{"name":"上北台駅第2公共自転車等駐車場","province":"東京都","city":"東大和市","address":"東京都東大和市上北台1丁目5-1","lat":35.7458127,"lon":139.4158048},{"name":"西武スマイルパークBIGBOX東大和第2","province":"東京都","city":"東大和市","address":"東京都東大和市桜が丘1丁目1330-19","lat":35.7330479,"lon":139.43404552},{"name":"Cycle DAICHI　武蔵大和駅前駐輪場","province":"東京都","city":"東大和市","address":"東京都東大和市清水2丁目802-1","lat":35.75551222,"lon":139.44397706},{"name":"上北台駅第7公共自転車等駐車場","province":"東京都","city":"東大和市","address":"東京都東大和市上北台1丁目5-1","lat":35.7458127,"lon":139.4158048},{"name":"上北台駅前駐輪場","province":"東京都","city":"東大和市","address":"東京都東大和市立野2丁目2-10","lat":35.74638765,"lon":139.41656581},{"name":"東大和市駅前","province":"東京都","city":"東大和市","address":"東京都東大和市向原6丁目1408-33","lat":35.73432834,"lon":139.43517869},{"name":"新堀","province":"東京都","city":"東大和市","address":"東京都東大和市清原3丁目1","lat":35.74144173,"lon":139.44908276},{"name":"東大和市役所","province":"東京都","city":"東大和市","address":"東京都東大和市中央3-930","lat":35.745332,"lon":139.426299},{"name":"南街公民館","province":"東京都","city":"東大和市","address":"東京都東大和市南街5-32","lat":35.737795,"lon":139.431285},{"name":"中央公民館","province":"東京都","city":"東大和市","address":"東京都東大和市中央3-926","lat":35.744911,"lon":139.426384},{"name":"狭山公民館","province":"東京都","city":"東大和市","address":"東京都東大和市狭山3-1344-1","lat":35.756086,"lon":139.437632},{"name":"蔵敷公民館","province":"東京都","city":"東大和市","address":"東京都東大和市蔵敷2-337","lat":35.754477,"lon":139.416201},{"name":"上北台公民館","province":"東京都","city":"東大和市","address":"東京都東大和市上北台2-865-9","lat":35.743098,"lon":139.414718},{"name":"中央図書館","province":"東京都","city":"東大和市","address":"東京都東大和市中央3-930","lat":35.744916,"lon":139.42699},{"name":"桜が丘図書館","province":"東京都","city":"東大和市","address":"東京都東大和市桜が丘3-44-13","lat":35.734092,"lon":139.419935},{"name":"清原図書館","province":"東京都","city":"東大和市","address":"東京都東大和市清原4-1","lat":35.742769,"lon":139.446976},{"name":"むこうはら児童館","province":"東京都","city":"東大和市","address":"東京都東大和市向原3-10","lat":35.740581,"lon":139.436707},{"name":"きよはら児童館","province":"東京都","city":"東大和市","address":"東京都東大和市清原2-1","lat":35.743172,"lon":139.446909},{"name":"ならはし児童館","province":"東京都","city":"東大和市","address":"東京都東大和市奈良橋4-600","lat":35.752485,"lon":139.42576},{"name":"なんがい児童館","province":"東京都","city":"東大和市","address":"東京都東大和市南街5-32","lat":35.737142,"lon":139.4315},{"name":"かみきただい児童館","province":"東京都","city":"東大和市","address":"東京都東大和市上北台2-865-9","lat":35.742882,"lon":139.414742},{"name":"さくらがおか児童館","province":"東京都","city":"東大和市","address":"東京都東大和市桜が丘3-44-13","lat":35.734404,"lon":139.420337},{"name":"学童保育所第一クラブ","province":"東京都","city":"東大和市","address":"東京都東大和市奈良橋4-600","lat":35.752485,"lon":139.42576},{"name":"学童保育所第二クラブ","province":"東京都","city":"東大和市","address":"東京都東大和市南街5-32","lat":35.737142,"lon":139.4315},{"name":"学童保育所第三クラブ","province":"東京都","city":"東大和市","address":"東京都東大和市清原2-1","lat":35.743172,"lon":139.446909},{"name":"学童保育所第四クラブ","province":"東京都","city":"東大和市","address":"東京都東大和市狭山5-1054-1","lat":35.748683,"lon":139.441445},{"name":"学童保育所第五クラブ","province":"東京都","city":"東大和市","address":"東京都東大和市向原3-10","lat":35.740581,"lon":139.436707},{"name":"学童保育所第六クラブ","province":"東京都","city":"東大和市","address":"東京都東大和市清原2-1","lat":35.743172,"lon":139.446909},{"name":"学童保育所第七クラブ","province":"東京都","city":"東大和市","address":"東京都東大和市芋窪5-1183-1","lat":35.750249,"lon":139.415658},{"name":"学童保育所第八クラブ","province":"東京都","city":"東大和市","address":"東京都東大和市立野3-1246-1","lat":35.741798,"lon":139.421905},{"name":"学童保育所第九クラブ","province":"東京都","city":"東大和市","address":"東京都東大和市蔵敷2-546","lat":35.751715,"lon":139.420308},{"name":"学童保育所第十クラブ","province":"東京都","city":"東大和市","address":"東京都東大和市上北台2-865-9","lat":35.742882,"lon":139.414742},{"name":"学童保育所桜が丘クラブ","province":"東京都","city":"東大和市","address":"東京都東大和市桜が丘2-222-11","lat":35.735159,"lon":139.419503},{"name":"学童保育所立野第一学童クラブ","province":"東京都","city":"東大和市","address":"東京都東大和市立野3-1293-10","lat":35.738561,"lon":139.425101},{"name":"学童保育所立野第二学童クラブ","province":"東京都","city":"東大和市","address":"東京都東大和市立野3-1293-10","lat":35.738561,"lon":139.425101},{"name":"郷土博物館","province":"東京都","city":"東大和市","address":"東京都東大和市奈良橋1-260-2","lat":35.755437,"lon":139.423023},{"name":"上仲原公園運動施設","province":"東京都","city":"東大和市","address":"東京都東大和市向原1-1","lat":35.741861,"lon":139.444272},{"name":"清水ゲートボール場","province":"東京都","city":"東大和市","address":"東京都東大和市清水2-928-1","lat":35.752588,"lon":139.444562},{"name":"新堀ゲートボール場","province":"東京都","city":"東大和市","address":"東京都東大和市新堀3-6-1","lat":35.738436,"lon":139.446916},{"name":"芝中多目的広場","province":"東京都","city":"東大和市","address":"東京都東大和市蔵敷3-756-8","lat":35.748612,"lon":139.419087},{"name":"桜が丘市民広場","province":"東京都","city":"東大和市","address":"東京都東大和市桜が丘2-142-2","lat":35.73574,"lon":139.426252},{"name":"市民プール","province":"東京都","city":"東大和市","address":"東京都東大和市桜が丘2-167-13","lat":35.736036,"lon":139.421584},{"name":"市民体育館","province":"東京都","city":"東大和市","address":"東京都東大和市桜が丘2-167-13","lat":35.736036,"lon":139.421584},{"name":"奈良橋ゲートボール場","province":"東京都","city":"東大和市","address":"東京都東大和市奈良橋6-717","lat":35.749929,"lon":139.423741},{"name":"市民会館","province":"東京都","city":"東大和市","address":"東京都東大和市向原6-1","lat":35.738845,"lon":139.43406},{"name":"東大和保育園","province":"東京都","city":"東大和市","address":"東京都東大和市新堀1-1435-33","lat":35.741073,"lon":139.449081},{"name":"ふたば保育園","province":"東京都","city":"東大和市","address":"東京都東大和市立野2-4-13","lat":35.746313,"lon":139.417341},{"name":"みつば保育園","province":"東京都","city":"東大和市","address":"東京都東大和市立野3-1293-10","lat":35.7388,"lon":139.422714},{"name":"向原第二保育園","province":"東京都","city":"東大和市","address":"東京都東大和市向原1-4-1","lat":35.741966,"lon":139.440063},{"name":"ひが保育ママ","province":"東京都","city":"東大和市","address":"東京都東大和市中央2-1101-12","lat":35.743881,"lon":139.430359},{"name":"木村保育ママ","province":"東京都","city":"東大和市","address":"東京都東大和市南街2-20-3","lat":35.741596,"lon":139.427917},{"name":"こども学園","province":"東京都","city":"東大和市","address":"東京都東大和市奈良橋2-409","lat":35.754368,"lon":139.426514},{"name":"水道局東大和サービスステーション","province":"東京都","city":"東大和市","address":"東京都東大和市上北台3丁目447","lat":35.74157152,"lon":139.41579944},{"name":"清原市民センター","province":"東京都","city":"東大和市","address":"東京都東大和市清原4丁目1-16","lat":35.7407973,"lon":139.44713296},{"name":"東大和市民体育館","province":"東京都","city":"東大和市","address":"東京都東大和市桜が丘2丁目167-13","lat":35.73666109,"lon":139.42152414},{"name":"東大和市役所","province":"東京都","city":"東大和市","address":"東京都東大和市中央3丁目930","lat":35.74471306,"lon":139.42703715},{"name":"東大和市立郷土博物館","province":"東京都","city":"東大和市","address":"東京都東大和市奈良橋1丁目260-2","lat":35.7551312,"lon":139.42296495},{"name":"東大和市民会館ハミングホール","province":"東京都","city":"東大和市","address":"東京都東大和市向原6丁目1","lat":35.7385306,"lon":139.43434801},{"name":"狭山自然公園","province":"東京都","city":"東大和市","address":"東京都東大和市、東村山市、武蔵村山市、瑞穂町","lat":35.763198,"lon":139.441582},{"name":"東大和公園","province":"東京都","city":"東大和市","address":"東京都東大和市湖畔3丁目、高木1丁目、狭山3丁目","lat":35.756214,"lon":139.430354},{"name":"東大和南公園","province":"東京都","city":"東大和市","address":"東京都東大和市桜が丘二・三丁目","lat":35.734226,"lon":139.42202},{"name":"上北台給水所","province":"東京都","city":"東大和市","address":"東京都東大和市上北台1-801-1","lat":35.7466078,"lon":139.413939},{"name":"東大和給水所","province":"東京都","city":"東大和市","address":"東京都東大和市桜が丘3-44","lat":35.7312269,"lon":139.428196},{"name":"西武鉄道東大和市駅駐輪場","province":"東京都","city":"東大和市","address":"東京都東大和市桜が丘1丁目1415-1","lat":35.73288126,"lon":139.43434551},{"name":"西武スマイルパーク東大和市駅前第１","province":"東京都","city":"東大和市","address":"東京都東大和市桜が丘1丁目1330-19","lat":35.7330479,"lon":139.43404552},{"name":"西武スマイルパークBIGBOX東大和","province":"東京都","city":"東大和市","address":"東京都東大和市桜が丘1丁目1330-19","lat":35.7330479,"lon":139.43404552},{"name":"武蔵大和駅第2公共自転車等駐車場","province":"東京都","city":"東大和市","address":"東京都東大和市清水1丁目748-2","lat":35.75580662,"lon":139.44388817},{"name":"上北台駅第1公共自転車等駐車場","province":"東京都","city":"東大和市","address":"東京都東大和市上北台1丁目5-1","lat":35.7458127,"lon":139.4158048},{"name":"上北台駅第2公共自転車等駐車場","province":"東京都","city":"東大和市","address":"東京都東大和市上北台1丁目5-1","lat":35.7458127,"lon":139.4158048},{"name":"西武スマイルパークBIGBOX東大和第2","province":"東京都","city":"東大和市","address":"東京都東大和市桜が丘1丁目1330-19","lat":35.7330479,"lon":139.43404552},{"name":"Cycle DAICHI　武蔵大和駅前駐輪場","province":"東京都","city":"東大和市","address":"東京都東大和市清水2丁目802-1","lat":35.75551222,"lon":139.44397706},{"name":"上北台駅第7公共自転車等駐車場","province":"東京都","city":"東大和市","address":"東京都東大和市上北台1丁目5-1","lat":35.7458127,"lon":139.4158048},{"name":"上北台駅前駐輪場","province":"東京都","city":"東大和市","address":"東京都東大和市立野2丁目2-10","lat":35.74638765,"lon":139.41656581},{"name":"東大和市役所","province":"東京都","city":"東大和市","address":"東京都東大和市中央3-930","lat":35.745332,"lon":139.426299},{"name":"南街公民館","province":"東京都","city":"東大和市","address":"東京都東大和市南街5-32","lat":35.737795,"lon":139.431285},{"name":"中央公民館","province":"東京都","city":"東大和市","address":"東京都東大和市中央3-926","lat":35.744911,"lon":139.426384},{"name":"狭山公民館","province":"東京都","city":"東大和市","address":"東京都東大和市狭山3-1344-1","lat":35.756086,"lon":139.437632},{"name":"蔵敷公民館","province":"東京都","city":"東大和市","address":"東京都東大和市蔵敷2-337","lat":35.754477,"lon":139.416201},{"name":"上北台公民館","province":"東京都","city":"東大和市","address":"東京都東大和市上北台2-865-9","lat":35.743098,"lon":139.414718},{"name":"中央図書館","province":"東京都","city":"東大和市","address":"東京都東大和市中央3-930","lat":35.744916,"lon":139.42699},{"name":"桜が丘図書館","province":"東京都","city":"東大和市","address":"東京都東大和市桜が丘3-44-13","lat":35.734092,"lon":139.419935},{"name":"清原図書館","province":"東京都","city":"東大和市","address":"東京都東大和市清原4-1","lat":35.742769,"lon":139.446976},{"name":"むこうはら児童館","province":"東京都","city":"東大和市","address":"東京都東大和市向原3-10","lat":35.740581,"lon":139.436707},{"name":"きよはら児童館","province":"東京都","city":"東大和市","address":"東京都東大和市清原2-1","lat":35.743172,"lon":139.446909},{"name":"ならはし児童館","province":"東京都","city":"東大和市","address":"東京都東大和市奈良橋4-600","lat":35.752485,"lon":139.42576},{"name":"なんがい児童館","province":"東京都","city":"東大和市","address":"東京都東大和市南街5-32","lat":35.737142,"lon":139.4315},{"name":"かみきただい児童館","province":"東京都","city":"東大和市","address":"東京都東大和市上北台2-865-9","lat":35.742882,"lon":139.414742},{"name":"さくらがおか児童館","province":"東京都","city":"東大和市","address":"東京都東大和市桜が丘3-44-13","lat":35.734404,"lon":139.420337},{"name":"学童保育所第一クラブ","province":"東京都","city":"東大和市","address":"東京都東大和市奈良橋4-600","lat":35.752485,"lon":139.42576},{"name":"学童保育所第二クラブ","province":"東京都","city":"東大和市","address":"東京都東大和市南街5-32","lat":35.737142,"lon":139.4315},{"name":"学童保育所第三クラブ","province":"東京都","city":"東大和市","address":"東京都東大和市清原2-1","lat":35.743172,"lon":139.446909},{"name":"学童保育所第四クラブ","province":"東京都","city":"東大和市","address":"東京都東大和市狭山5-1054-1","lat":35.748683,"lon":139.441445},{"name":"学童保育所第五クラブ","province":"東京都","city":"東大和市","address":"東京都東大和市向原3-10","lat":35.740581,"lon":139.436707},{"name":"学童保育所第六クラブ","province":"東京都","city":"東大和市","address":"東京都東大和市清原2-1","lat":35.743172,"lon":139.446909},{"name":"学童保育所第七クラブ","province":"東京都","city":"東大和市","address":"東京都東大和市芋窪5-1183-1","lat":35.750249,"lon":139.415658},{"name":"学童保育所第八クラブ","province":"東京都","city":"東大和市","address":"東京都東大和市立野3-1246-1","lat":35.741798,"lon":139.421905},{"name":"学童保育所第九クラブ","province":"東京都","city":"東大和市","address":"東京都東大和市蔵敷2-546","lat":35.751715,"lon":139.420308},{"name":"学童保育所第十クラブ","province":"東京都","city":"東大和市","address":"東京都東大和市上北台2-865-9","lat":35.742882,"lon":139.414742},{"name":"学童保育所桜が丘クラブ","province":"東京都","city":"東大和市","address":"東京都東大和市桜が丘2-222-11","lat":35.735159,"lon":139.419503},{"name":"学童保育所立野第一学童クラブ","province":"東京都","city":"東大和市","address":"東京都東大和市立野3-1293-10","lat":35.738561,"lon":139.425101},{"name":"学童保育所立野第二学童クラブ","province":"東京都","city":"東大和市","address":"東京都東大和市立野3-1293-10","lat":35.738561,"lon":139.425101},{"name":"郷土博物館","province":"東京都","city":"東大和市","address":"東京都東大和市奈良橋1-260-2","lat":35.755437,"lon":139.423023},{"name":"上仲原公園運動施設","province":"東京都","city":"東大和市","address":"東京都東大和市向原1-1","lat":35.741861,"lon":139.444272},{"name":"清水ゲートボール場","province":"東京都","city":"東大和市","address":"東京都東大和市清水2-928-1","lat":35.752588,"lon":139.444562},{"name":"新堀ゲートボール場","province":"東京都","city":"東大和市","address":"東京都東大和市新堀3-6-1","lat":35.738436,"lon":139.446916},{"name":"芝中多目的広場","province":"東京都","city":"東大和市","address":"東京都東大和市蔵敷3-756-8","lat":35.748612,"lon":139.419087},{"name":"桜が丘市民広場","province":"東京都","city":"東大和市","address":"東京都東大和市桜が丘2-142-2","lat":35.73574,"lon":139.426252},{"name":"市民プール","province":"東京都","city":"東大和市","address":"東京都東大和市桜が丘2-167-13","lat":35.736036,"lon":139.421584},{"name":"市民体育館","province":"東京都","city":"東大和市","address":"東京都東大和市桜が丘2-167-13","lat":35.736036,"lon":139.421584},{"name":"奈良橋ゲートボール場","province":"東京都","city":"東大和市","address":"東京都東大和市奈良橋6-717","lat":35.749929,"lon":139.423741},{"name":"市民会館","province":"東京都","city":"東大和市","address":"東京都東大和市向原6-1","lat":35.738845,"lon":139.43406},{"name":"東大和保育園","province":"東京都","city":"東大和市","address":"東京都東大和市新堀1-1435-33","lat":35.741073,"lon":139.449081},{"name":"ふたば保育園","province":"東京都","city":"東大和市","address":"東京都東大和市立野2-4-13","lat":35.746313,"lon":139.417341},{"name":"みつば保育園","province":"東京都","city":"東大和市","address":"東京都東大和市立野3-1293-10","lat":35.7388,"lon":139.422714},{"name":"向原第二保育園","province":"東京都","city":"東大和市","address":"東京都東大和市向原1-4-1","lat":35.741966,"lon":139.440063},{"name":"ひが保育ママ","province":"東京都","city":"東大和市","address":"東京都東大和市中央2-1101-12","lat":35.743881,"lon":139.430359},{"name":"木村保育ママ","province":"東京都","city":"東大和市","address":"東京都東大和市南街2-20-3","lat":35.741596,"lon":139.427917},{"name":"こども学園","province":"東京都","city":"東大和市","address":"東京都東大和市奈良橋2-409","lat":35.754368,"lon":139.426514},{"name":"水道局東大和サービスステーション","province":"東京都","city":"東大和市","address":"東京都東大和市上北台3丁目447","lat":35.74157152,"lon":139.41579944},{"name":"清原市民センター","province":"東京都","city":"東大和市","address":"東京都東大和市清原4丁目1-16","lat":35.7407973,"lon":139.44713296},{"name":"東大和市民体育館","province":"東京都","city":"東大和市","address":"東京都東大和市桜が丘2丁目167-13","lat":35.73666109,"lon":139.42152414},{"name":"東大和市役所","province":"東京都","city":"東大和市","address":"東京都東大和市中央3丁目930","lat":35.74471306,"lon":139.42703715},{"name":"東大和市立郷土博物館","province":"東京都","city":"東大和市","address":"東京都東大和市奈良橋1丁目260-2","lat":35.7551312,"lon":139.42296495},{"name":"東大和市民会館ハミングホール","province":"東京都","city":"東大和市","address":"東京都東大和市向原6丁目1","lat":35.7385306,"lon":139.43434801},{"name":"狭山自然公園","province":"東京都","city":"東大和市","address":"東京都東大和市、東村山市、武蔵村山市、瑞穂町","lat":35.763198,"lon":139.441582},{"name":"東大和公園","province":"東京都","city":"東大和市","address":"東京都東大和市湖畔3丁目、高木1丁目、狭山3丁目","lat":35.756214,"lon":139.430354},{"name":"東大和南公園","province":"東京都","city":"東大和市","address":"東京都東大和市桜が丘二・三丁目","lat":35.734226,"lon":139.42202},{"name":"上北台給水所","province":"東京都","city":"東大和市","address":"東京都東大和市上北台1-801-1","lat":35.7466078,"lon":139.413939},{"name":"東大和給水所","province":"東京都","city":"東大和市","address":"東京都東大和市桜が丘3-44","lat":35.7312269,"lon":139.428196},{"name":"西武鉄道東大和市駅駐輪場","province":"東京都","city":"東大和市","address":"東京都東大和市桜が丘1丁目1415-1","lat":35.73288126,"lon":139.43434551},{"name":"西武スマイルパーク東大和市駅前第１","province":"東京都","city":"東大和市","address":"東京都東大和市桜が丘1丁目1330-19","lat":35.7330479,"lon":139.43404552},{"name":"西武スマイルパークBIGBOX東大和","province":"東京都","city":"東大和市","address":"東京都東大和市桜が丘1丁目1330-19","lat":35.7330479,"lon":139.43404552},{"name":"武蔵大和駅第2公共自転車等駐車場","province":"東京都","city":"東大和市","address":"東京都東大和市清水1丁目748-2","lat":35.75580662,"lon":139.44388817},{"name":"上北台駅第1公共自転車等駐車場","province":"東京都","city":"東大和市","address":"東京都東大和市上北台1丁目5-1","lat":35.7458127,"lon":139.4158048},{"name":"上北台駅第2公共自転車等駐車場","province":"東京都","city":"東大和市","address":"東京都東大和市上北台1丁目5-1","lat":35.7458127,"lon":139.4158048},{"name":"西武スマイルパークBIGBOX東大和第2","province":"東京都","city":"東大和市","address":"東京都東大和市桜が丘1丁目1330-19","lat":35.7330479,"lon":139.43404552},{"name":"Cycle DAICHI　武蔵大和駅前駐輪場","province":"東京都","city":"東大和市","address":"東京都東大和市清水2丁目802-1","lat":35.75551222,"lon":139.44397706},{"name":"上北台駅第7公共自転車等駐車場","province":"東京都","city":"東大和市","address":"東京都東大和市上北台1丁目5-1","lat":35.7458127,"lon":139.4158048},{"name":"上北台駅前駐輪場","province":"東京都","city":"東大和市","address":"東京都東大和市立野2丁目2-10","lat":35.74638765,"lon":139.41656581},{"name":"東大和市役所","province":"東京都","city":"東大和市","address":"東京都東大和市中央3-930","lat":35.745332,"lon":139.426299},{"name":"南街公民館","province":"東京都","city":"東大和市","address":"東京都東大和市南街5-32","lat":35.737795,"lon":139.431285},{"name":"中央公民館","province":"東京都","city":"東大和市","address":"東京都東大和市中央3-926","lat":35.744911,"lon":139.426384},{"name":"狭山公民館","province":"東京都","city":"東大和市","address":"東京都東大和市狭山3-1344-1","lat":35.756086,"lon":139.437632},{"name":"蔵敷公民館","province":"東京都","city":"東大和市","address":"東京都東大和市蔵敷2-337","lat":35.754477,"lon":139.416201},{"name":"上北台公民館","province":"東京都","city":"東大和市","address":"東京都東大和市上北台2-865-9","lat":35.743098,"lon":139.414718},{"name":"中央図書館","province":"東京都","city":"東大和市","address":"東京都東大和市中央3-930","lat":35.744916,"lon":139.42699},{"name":"桜が丘図書館","province":"東京都","city":"東大和市","address":"東京都東大和市桜が丘3-44-13","lat":35.734092,"lon":139.419935},{"name":"清原図書館","province":"東京都","city":"東大和市","address":"東京都東大和市清原4-1","lat":35.742769,"lon":139.446976},{"name":"むこうはら児童館","province":"東京都","city":"東大和市","address":"東京都東大和市向原3-10","lat":35.740581,"lon":139.436707},{"name":"きよはら児童館","province":"東京都","city":"東大和市","address":"東京都東大和市清原2-1","lat":35.743172,"lon":139.446909},{"name":"ならはし児童館","province":"東京都","city":"東大和市","address":"東京都東大和市奈良橋4-600","lat":35.752485,"lon":139.42576},{"name":"なんがい児童館","province":"東京都","city":"東大和市","address":"東京都東大和市南街5-32","lat":35.737142,"lon":139.4315},{"name":"かみきただい児童館","province":"東京都","city":"東大和市","address":"東京都東大和市上北台2-865-9","lat":35.742882,"lon":139.414742},{"name":"さくらがおか児童館","province":"東京都","city":"東大和市","address":"東京都東大和市桜が丘3-44-13","lat":35.734404,"lon":139.420337},{"name":"学童保育所第一クラブ","province":"東京都","city":"東大和市","address":"東京都東大和市奈良橋4-600","lat":35.752485,"lon":139.42576},{"name":"学童保育所第二クラブ","province":"東京都","city":"東大和市","address":"東京都東大和市南街5-32","lat":35.737142,"lon":139.4315},{"name":"学童保育所第三クラブ","province":"東京都","city":"東大和市","address":"東京都東大和市清原2-1","lat":35.743172,"lon":139.446909},{"name":"学童保育所第四クラブ","province":"東京都","city":"東大和市","address":"東京都東大和市狭山5-1054-1","lat":35.748683,"lon":139.441445},{"name":"学童保育所第五クラブ","province":"東京都","city":"東大和市","address":"東京都東大和市向原3-10","lat":35.740581,"lon":139.436707},{"name":"学童保育所第六クラブ","province":"東京都","city":"東大和市","address":"東京都東大和市清原2-1","lat":35.743172,"lon":139.446909},{"name":"学童保育所第七クラブ","province":"東京都","city":"東大和市","address":"東京都東大和市芋窪5-1183-1","lat":35.750249,"lon":139.415658},{"name":"学童保育所第八クラブ","province":"東京都","city":"東大和市","address":"東京都東大和市立野3-1246-1","lat":35.741798,"lon":139.421905},{"name":"学童保育所第九クラブ","province":"東京都","city":"東大和市","address":"東京都東大和市蔵敷2-546","lat":35.751715,"lon":139.420308},{"name":"学童保育所第十クラブ","province":"東京都","city":"東大和市","address":"東京都東大和市上北台2-865-9","lat":35.742882,"lon":139.414742},{"name":"学童保育所桜が丘クラブ","province":"東京都","city":"東大和市","address":"東京都東大和市桜が丘2-222-11","lat":35.735159,"lon":139.419503},{"name":"学童保育所立野第一学童クラブ","province":"東京都","city":"東大和市","address":"東京都東大和市立野3-1293-10","lat":35.738561,"lon":139.425101},{"name":"学童保育所立野第二学童クラブ","province":"東京都","city":"東大和市","address":"東京都東大和市立野3-1293-10","lat":35.738561,"lon":139.425101},{"name":"郷土博物館","province":"東京都","city":"東大和市","address":"東京都東大和市奈良橋1-260-2","lat":35.755437,"lon":139.423023},{"name":"上仲原公園運動施設","province":"東京都","city":"東大和市","address":"東京都東大和市向原1-1","lat":35.741861,"lon":139.444272},{"name":"清水ゲートボール場","province":"東京都","city":"東大和市","address":"東京都東大和市清水2-928-1","lat":35.752588,"lon":139.444562},{"name":"新堀ゲートボール場","province":"東京都","city":"東大和市","address":"東京都東大和市新堀3-6-1","lat":35.738436,"lon":139.446916},{"name":"芝中多目的広場","province":"東京都","city":"東大和市","address":"東京都東大和市蔵敷3-756-8","lat":35.748612,"lon":139.419087},{"name":"桜が丘市民広場","province":"東京都","city":"東大和市","address":"東京都東大和市桜が丘2-142-2","lat":35.73574,"lon":139.426252},{"name":"市民プール","province":"東京都","city":"東大和市","address":"東京都東大和市桜が丘2-167-13","lat":35.736036,"lon":139.421584},{"name":"市民体育館","province":"東京都","city":"東大和市","address":"東京都東大和市桜が丘2-167-13","lat":35.736036,"lon":139.421584},{"name":"奈良橋ゲートボール場","province":"東京都","city":"東大和市","address":"東京都東大和市奈良橋6-717","lat":35.749929,"lon":139.423741},{"name":"市民会館","province":"東京都","city":"東大和市","address":"東京都東大和市向原6-1","lat":35.738845,"lon":139.43406},{"name":"東大和保育園","province":"東京都","city":"東大和市","address":"東京都東大和市新堀1-1435-33","lat":35.741073,"lon":139.449081},{"name":"ふたば保育園","province":"東京都","city":"東大和市","address":"東京都東大和市立野2-4-13","lat":35.746313,"lon":139.417341},{"name":"みつば保育園","province":"東京都","city":"東大和市","address":"東京都東大和市立野3-1293-10","lat":35.7388,"lon":139.422714},{"name":"向原第二保育園","province":"東京都","city":"東大和市","address":"東京都東大和市向原1-4-1","lat":35.741966,"lon":139.440063},{"name":"ひが保育ママ","province":"東京都","city":"東大和市","address":"東京都東大和市中央2-1101-12","lat":35.743881,"lon":139.430359},{"name":"木村保育ママ","province":"東京都","city":"東大和市","address":"東京都東大和市南街2-20-3","lat":35.741596,"lon":139.427917},{"name":"こども学園","province":"東京都","city":"東大和市","address":"東京都東大和市奈良橋2-409","lat":35.754368,"lon":139.426514},{"name":"水道局東大和サービスステーション","province":"東京都","city":"東大和市","address":"東京都東大和市上北台3丁目447","lat":35.74157152,"lon":139.41579944},{"name":"清原市民センター","province":"東京都","city":"東大和市","address":"東京都東大和市清原4丁目1-16","lat":35.7407973,"lon":139.44713296},{"name":"東大和市民体育館","province":"東京都","city":"東大和市","address":"東京都東大和市桜が丘2丁目167-13","lat":35.73666109,"lon":139.42152414},{"name":"東大和市役所","province":"東京都","city":"東大和市","address":"東京都東大和市中央3丁目930","lat":35.74471306,"lon":139.42703715},{"name":"東大和市立郷土博物館","province":"東京都","city":"東大和市","address":"東京都東大和市奈良橋1丁目260-2","lat":35.7551312,"lon":139.42296495},{"name":"東大和市民会館ハミングホール","province":"東京都","city":"東大和市","address":"東京都東大和市向原6丁目1","lat":35.7385306,"lon":139.43434801},{"name":"狭山自然公園","province":"東京都","city":"東大和市","address":"東京都東大和市、東村山市、武蔵村山市、瑞穂町","lat":35.763198,"lon":139.441582},{"name":"東大和公園","province":"東京都","city":"東大和市","address":"東京都東大和市湖畔3丁目、高木1丁目、狭山3丁目","lat":35.756214,"lon":139.430354},{"name":"東大和南公園","province":"東京都","city":"東大和市","address":"東京都東大和市桜が丘二・三丁目","lat":35.734226,"lon":139.42202},{"name":"上北台給水所","province":"東京都","city":"東大和市","address":"東京都東大和市上北台1-801-1","lat":35.7466078,"lon":139.413939},{"name":"東大和給水所","province":"東京都","city":"東大和市","address":"東京都東大和市桜が丘3-44","lat":35.7312269,"lon":139.428196},{"name":"西武鉄道東大和市駅駐輪場","province":"東京都","city":"東大和市","address":"東京都東大和市桜が丘1丁目1415-1","lat":35.73288126,"lon":139.43434551},{"name":"西武スマイルパーク東大和市駅前第１","province":"東京都","city":"東大和市","address":"東京都東大和市桜が丘1丁目1330-19","lat":35.7330479,"lon":139.43404552},{"name":"西武スマイルパークBIGBOX東大和","province":"東京都","city":"東大和市","address":"東京都東大和市桜が丘1丁目1330-19","lat":35.7330479,"lon":139.43404552},{"name":"武蔵大和駅第2公共自転車等駐車場","province":"東京都","city":"東大和市","address":"東京都東大和市清水1丁目748-2","lat":35.75580662,"lon":139.44388817},{"name":"上北台駅第1公共自転車等駐車場","province":"東京都","city":"東大和市","address":"東京都東大和市上北台1丁目5-1","lat":35.7458127,"lon":139.4158048},{"name":"上北台駅第2公共自転車等駐車場","province":"東京都","city":"東大和市","address":"東京都東大和市上北台1丁目5-1","lat":35.7458127,"lon":139.4158048},{"name":"西武スマイルパークBIGBOX東大和第2","province":"東京都","city":"東大和市","address":"東京都東大和市桜が丘1丁目1330-19","lat":35.7330479,"lon":139.43404552},{"name":"Cycle DAICHI　武蔵大和駅前駐輪場","province":"東京都","city":"東大和市","address":"東京都東大和市清水2丁目802-1","lat":35.75551222,"lon":139.44397706},{"name":"上北台駅第7公共自転車等駐車場","province":"東京都","city":"東大和市","address":"東京都東大和市上北台1丁目5-1","lat":35.7458127,"lon":139.4158048},{"name":"上北台駅前駐輪場","province":"東京都","city":"東大和市","address":"東京都東大和市立野2丁目2-10","lat":35.74638765,"lon":139.41656581},{"name":"東大和市役所","province":"東京都","city":"東大和市","address":"東京都東大和市中央3-930","lat":35.745332,"lon":139.426299},{"name":"南街公民館","province":"東京都","city":"東大和市","address":"東京都東大和市南街5-32","lat":35.737795,"lon":139.431285},{"name":"中央公民館","province":"東京都","city":"東大和市","address":"東京都東大和市中央3-926","lat":35.744911,"lon":139.426384},{"name":"狭山公民館","province":"東京都","city":"東大和市","address":"東京都東大和市狭山3-1344-1","lat":35.756086,"lon":139.437632},{"name":"蔵敷公民館","province":"東京都","city":"東大和市","address":"東京都東大和市蔵敷2-337","lat":35.754477,"lon":139.416201},{"name":"上北台公民館","province":"東京都","city":"東大和市","address":"東京都東大和市上北台2-865-9","lat":35.743098,"lon":139.414718},{"name":"中央図書館","province":"東京都","city":"東大和市","address":"東京都東大和市中央3-930","lat":35.744916,"lon":139.42699},{"name":"桜が丘図書館","province":"東京都","city":"東大和市","address":"東京都東大和市桜が丘3-44-13","lat":35.734092,"lon":139.419935},{"name":"清原図書館","province":"東京都","city":"東大和市","address":"東京都東大和市清原4-1","lat":35.742769,"lon":139.446976},{"name":"むこうはら児童館","province":"東京都","city":"東大和市","address":"東京都東大和市向原3-10","lat":35.740581,"lon":139.436707},{"name":"きよはら児童館","province":"東京都","city":"東大和市","address":"東京都東大和市清原2-1","lat":35.743172,"lon":139.446909},{"name":"ならはし児童館","province":"東京都","city":"東大和市","address":"東京都東大和市奈良橋4-600","lat":35.752485,"lon":139.42576},{"name":"なんがい児童館","province":"東京都","city":"東大和市","address":"東京都東大和市南街5-32","lat":35.737142,"lon":139.4315},{"name":"かみきただい児童館","province":"東京都","city":"東大和市","address":"東京都東大和市上北台2-865-9","lat":35.742882,"lon":139.414742},{"name":"さくらがおか児童館","province":"東京都","city":"東大和市","address":"東京都東大和市桜が丘3-44-13","lat":35.734404,"lon":139.420337},{"name":"学童保育所第一クラブ","province":"東京都","city":"東大和市","address":"東京都東大和市奈良橋4-600","lat":35.752485,"lon":139.42576},{"name":"学童保育所第二クラブ","province":"東京都","city":"東大和市","address":"東京都東大和市南街5-32","lat":35.737142,"lon":139.4315},{"name":"学童保育所第三クラブ","province":"東京都","city":"東大和市","address":"東京都東大和市清原2-1","lat":35.743172,"lon":139.446909},{"name":"学童保育所第四クラブ","province":"東京都","city":"東大和市","address":"東京都東大和市狭山5-1054-1","lat":35.748683,"lon":139.441445},{"name":"学童保育所第五クラブ","province":"東京都","city":"東大和市","address":"東京都東大和市向原3-10","lat":35.740581,"lon":139.436707},{"name":"学童保育所第六クラブ","province":"東京都","city":"東大和市","address":"東京都東大和市清原2-1","lat":35.743172,"lon":139.446909},{"name":"学童保育所第七クラブ","province":"東京都","city":"東大和市","address":"東京都東大和市芋窪5-1183-1","lat":35.750249,"lon":139.415658},{"name":"学童保育所第八クラブ","province":"東京都","city":"東大和市","address":"東京都東大和市立野3-1246-1","lat":35.741798,"lon":139.421905},{"name":"学童保育所第九クラブ","province":"東京都","city":"東大和市","address":"東京都東大和市蔵敷2-546","lat":35.751715,"lon":139.420308},{"name":"学童保育所第十クラブ","province":"東京都","city":"東大和市","address":"東京都東大和市上北台2-865-9","lat":35.742882,"lon":139.414742},{"name":"学童保育所桜が丘クラブ","province":"東京都","city":"東大和市","address":"東京都東大和市桜が丘2-222-11","lat":35.735159,"lon":139.419503},{"name":"学童保育所立野第一学童クラブ","province":"東京都","city":"東大和市","address":"東京都東大和市立野3-1293-10","lat":35.738561,"lon":139.425101},{"name":"学童保育所立野第二学童クラブ","province":"東京都","city":"東大和市","address":"東京都東大和市立野3-1293-10","lat":35.738561,"lon":139.425101},{"name":"郷土博物館","province":"東京都","city":"東大和市","address":"東京都東大和市奈良橋1-260-2","lat":35.755437,"lon":139.423023},{"name":"上仲原公園運動施設","province":"東京都","city":"東大和市","address":"東京都東大和市向原1-1","lat":35.741861,"lon":139.444272},{"name":"清水ゲートボール場","province":"東京都","city":"東大和市","address":"東京都東大和市清水2-928-1","lat":35.752588,"lon":139.444562},{"name":"新堀ゲートボール場","province":"東京都","city":"東大和市","address":"東京都東大和市新堀3-6-1","lat":35.738436,"lon":139.446916},{"name":"芝中多目的広場","province":"東京都","city":"東大和市","address":"東京都東大和市蔵敷3-756-8","lat":35.748612,"lon":139.419087},{"name":"桜が丘市民広場","province":"東京都","city":"東大和市","address":"東京都東大和市桜が丘2-142-2","lat":35.73574,"lon":139.426252},{"name":"市民プール","province":"東京都","city":"東大和市","address":"東京都東大和市桜が丘2-167-13","lat":35.736036,"lon":139.421584},{"name":"市民体育館","province":"東京都","city":"東大和市","address":"東京都東大和市桜が丘2-167-13","lat":35.736036,"lon":139.421584},{"name":"奈良橋ゲートボール場","province":"東京都","city":"東大和市","address":"東京都東大和市奈良橋6-717","lat":35.749929,"lon":139.423741},{"name":"市民会館","province":"東京都","city":"東大和市","address":"東京都東大和市向原6-1","lat":35.738845,"lon":139.43406},{"name":"東大和保育園","province":"東京都","city":"東大和市","address":"東京都東大和市新堀1-1435-33","lat":35.741073,"lon":139.449081},{"name":"ふたば保育園","province":"東京都","city":"東大和市","address":"東京都東大和市立野2-4-13","lat":35.746313,"lon":139.417341},{"name":"みつば保育園","province":"東京都","city":"東大和市","address":"東京都東大和市立野3-1293-10","lat":35.7388,"lon":139.422714},{"name":"向原第二保育園","province":"東京都","city":"東大和市","address":"東京都東大和市向原1-4-1","lat":35.741966,"lon":139.440063},{"name":"ひが保育ママ","province":"東京都","city":"東大和市","address":"東京都東大和市中央2-1101-12","lat":35.743881,"lon":139.430359},{"name":"木村保育ママ","province":"東京都","city":"東大和市","address":"東京都東大和市南街2-20-3","lat":35.741596,"lon":139.427917},{"name":"こども学園","province":"東京都","city":"東大和市","address":"東京都東大和市奈良橋2-409","lat":35.754368,"lon":139.426514},{"name":"水道局東大和サービスステーション","province":"東京都","city":"東大和市","address":"東京都東大和市上北台3丁目447","lat":35.74157152,"lon":139.41579944},{"name":"清原市民センター","province":"東京都","city":"東大和市","address":"東京都東大和市清原4丁目1-16","lat":35.7407973,"lon":139.44713296},{"name":"東大和市民体育館","province":"東京都","city":"東大和市","address":"東京都東大和市桜が丘2丁目167-13","lat":35.73666109,"lon":139.42152414},{"name":"東大和市役所","province":"東京都","city":"東大和市","address":"東京都東大和市中央3丁目930","lat":35.74471306,"lon":139.42703715},{"name":"東大和市立郷土博物館","province":"東京都","city":"東大和市","address":"東京都東大和市奈良橋1丁目260-2","lat":35.7551312,"lon":139.42296495},{"name":"東大和市民会館ハミングホール","province":"東京都","city":"東大和市","address":"東京都東大和市向原6丁目1","lat":35.7385306,"lon":139.43434801},{"name":"狭山自然公園","province":"東京都","city":"東大和市","address":"東京都東大和市、東村山市、武蔵村山市、瑞穂町","lat":35.763198,"lon":139.441582},{"name":"東大和公園","province":"東京都","city":"東大和市","address":"東京都東大和市湖畔3丁目、高木1丁目、狭山3丁目","lat":35.756214,"lon":139.430354},{"name":"東大和南公園","province":"東京都","city":"東大和市","address":"東京都東大和市桜が丘二・三丁目","lat":35.734226,"lon":139.42202},{"name":"東大和市役所","province":"東京都","city":"東大和市","address":"東京都東大和市中央3-930","lat":35.745332,"lon":139.426299},{"name":"南街公民館","province":"東京都","city":"東大和市","address":"東京都東大和市南街5-32","lat":35.737795,"lon":139.431285},{"name":"中央公民館","province":"東京都","city":"東大和市","address":"東京都東大和市中央3-926","lat":35.744911,"lon":139.426384},{"name":"狭山公民館","province":"東京都","city":"東大和市","address":"東京都東大和市狭山3-1344-1","lat":35.756086,"lon":139.437632},{"name":"蔵敷公民館","province":"東京都","city":"東大和市","address":"東京都東大和市蔵敷2-337","lat":35.754477,"lon":139.416201},{"name":"上北台公民館","province":"東京都","city":"東大和市","address":"東京都東大和市上北台2-865-9","lat":35.743098,"lon":139.414718},{"name":"中央図書館","province":"東京都","city":"東大和市","address":"東京都東大和市中央3-930","lat":35.744916,"lon":139.42699},{"name":"桜が丘図書館","province":"東京都","city":"東大和市","address":"東京都東大和市桜が丘3-44-13","lat":35.734092,"lon":139.419935},{"name":"清原図書館","province":"東京都","city":"東大和市","address":"東京都東大和市清原4-1","lat":35.742769,"lon":139.446976},{"name":"むこうはら児童館","province":"東京都","city":"東大和市","address":"東京都東大和市向原3-10","lat":35.740581,"lon":139.436707},{"name":"きよはら児童館","province":"東京都","city":"東大和市","address":"東京都東大和市清原2-1","lat":35.743172,"lon":139.446909},{"name":"ならはし児童館","province":"東京都","city":"東大和市","address":"東京都東大和市奈良橋4-600","lat":35.752485,"lon":139.42576},{"name":"なんがい児童館","province":"東京都","city":"東大和市","address":"東京都東大和市南街5-32","lat":35.737142,"lon":139.4315},{"name":"かみきただい児童館","province":"東京都","city":"東大和市","address":"東京都東大和市上北台2-865-9","lat":35.742882,"lon":139.414742},{"name":"さくらがおか児童館","province":"東京都","city":"東大和市","address":"東京都東大和市桜が丘3-44-13","lat":35.734404,"lon":139.420337},{"name":"学童保育所第一クラブ","province":"東京都","city":"東大和市","address":"東京都東大和市奈良橋4-600","lat":35.752485,"lon":139.42576},{"name":"学童保育所第二クラブ","province":"東京都","city":"東大和市","address":"東京都東大和市南街5-32","lat":35.737142,"lon":139.4315},{"name":"学童保育所第三クラブ","province":"東京都","city":"東大和市","address":"東京都東大和市清原2-1","lat":35.743172,"lon":139.446909},{"name":"学童保育所第四クラブ","province":"東京都","city":"東大和市","address":"東京都東大和市狭山5-1054-1","lat":35.748683,"lon":139.441445},{"name":"学童保育所第五クラブ","province":"東京都","city":"東大和市","address":"東京都東大和市向原3-10","lat":35.740581,"lon":139.436707},{"name":"学童保育所第六クラブ","province":"東京都","city":"東大和市","address":"東京都東大和市清原2-1","lat":35.743172,"lon":139.446909},{"name":"学童保育所第七クラブ","province":"東京都","city":"東大和市","address":"東京都東大和市芋窪5-1183-1","lat":35.750249,"lon":139.415658},{"name":"学童保育所第八クラブ","province":"東京都","city":"東大和市","address":"東京都東大和市立野3-1246-1","lat":35.741798,"lon":139.421905},{"name":"学童保育所第九クラブ","province":"東京都","city":"東大和市","address":"東京都東大和市蔵敷2-546","lat":35.751715,"lon":139.420308},{"name":"学童保育所第十クラブ","province":"東京都","city":"東大和市","address":"東京都東大和市上北台2-865-9","lat":35.742882,"lon":139.414742},{"name":"学童保育所桜が丘クラブ","province":"東京都","city":"東大和市","address":"東京都東大和市桜が丘2-222-11","lat":35.735159,"lon":139.419503},{"name":"学童保育所立野第一学童クラブ","province":"東京都","city":"東大和市","address":"東京都東大和市立野3-1293-10","lat":35.738561,"lon":139.425101},{"name":"学童保育所立野第二学童クラブ","province":"東京都","city":"東大和市","address":"東京都東大和市立野3-1293-10","lat":35.738561,"lon":139.425101},{"name":"郷土博物館","province":"東京都","city":"東大和市","address":"東京都東大和市奈良橋1-260-2","lat":35.755437,"lon":139.423023},{"name":"上仲原公園運動施設","province":"東京都","city":"東大和市","address":"東京都東大和市向原1-1","lat":35.741861,"lon":139.444272},{"name":"清水ゲートボール場","province":"東京都","city":"東大和市","address":"東京都東大和市清水2-928-1","lat":35.752588,"lon":139.444562},{"name":"新堀ゲートボール場","province":"東京都","city":"東大和市","address":"東京都東大和市新堀3-6-1","lat":35.738436,"lon":139.446916},{"name":"芝中多目的広場","province":"東京都","city":"東大和市","address":"東京都東大和市蔵敷3-756-8","lat":35.748612,"lon":139.419087},{"name":"桜が丘市民広場","province":"東京都","city":"東大和市","address":"東京都東大和市桜が丘2-142-2","lat":35.73574,"lon":139.426252},{"name":"市民プール","province":"東京都","city":"東大和市","address":"東京都東大和市桜が丘2-167-13","lat":35.736036,"lon":139.421584},{"name":"市民体育館","province":"東京都","city":"東大和市","address":"東京都東大和市桜が丘2-167-13","lat":35.736036,"lon":139.421584},{"name":"奈良橋ゲートボール場","province":"東京都","city":"東大和市","address":"東京都東大和市奈良橋6-717","lat":35.749929,"lon":139.423741},{"name":"市民会館","province":"東京都","city":"東大和市","address":"東京都東大和市向原6-1","lat":35.738845,"lon":139.43406},{"name":"水道局東大和サービスステーション","province":"東京都","city":"東大和市","address":"東京都東大和市上北台3丁目447","lat":35.74157152,"lon":139.41579944},{"name":"清原市民センター","province":"東京都","city":"東大和市","address":"東京都東大和市清原4丁目1-16","lat":35.7407973,"lon":139.44713296},{"name":"東大和市民体育館","province":"東京都","city":"東大和市","address":"東京都東大和市桜が丘2丁目167-13","lat":35.73666109,"lon":139.42152414},{"name":"東大和市役所","province":"東京都","city":"東大和市","address":"東京都東大和市中央3丁目930","lat":35.74471306,"lon":139.42703715},{"name":"東大和市立郷土博物館","province":"東京都","city":"東大和市","address":"東京都東大和市奈良橋1丁目260-2","lat":35.7551312,"lon":139.42296495},{"name":"東大和市民会館ハミングホール","province":"東京都","city":"東大和市","address":"東京都東大和市向原6丁目1","lat":35.7385306,"lon":139.43434801},{"name":"水道局東大和サービスステーション","province":"東京都","city":"東大和市","address":"東京都東大和市上北台3丁目447","lat":35.74157152,"lon":139.41579944},{"name":"清原市民センター","province":"東京都","city":"東大和市","address":"東京都東大和市清原4丁目1-16","lat":35.7407973,"lon":139.44713296},{"name":"東大和市民体育館","province":"東京都","city":"東大和市","address":"東京都東大和市桜が丘2丁目167-13","lat":35.73666109,"lon":139.42152414},{"name":"東大和市役所","province":"東京都","city":"東大和市","address":"東京都東大和市中央3丁目930","lat":35.74471306,"lon":139.42703715},{"name":"東大和市立郷土博物館","province":"東京都","city":"東大和市","address":"東京都東大和市奈良橋1丁目260-2","lat":35.7551312,"lon":139.42296495},{"name":"東大和市民会館ハミングホール","province":"東京都","city":"東大和市","address":"東京都東大和市向原6丁目1","lat":35.7385306,"lon":139.43434801},{"name":"水道局東大和サービスステーション","province":"東京都","city":"東大和市","address":"東京都東大和市上北台3丁目447","lat":35.74157152,"lon":139.41579944},{"name":"清原市民センター","province":"東京都","city":"東大和市","address":"東京都東大和市清原4丁目1-16","lat":35.7407973,"lon":139.44713296},{"name":"東大和市民体育館","province":"東京都","city":"東大和市","address":"東京都東大和市桜が丘2丁目167-13","lat":35.73666109,"lon":139.42152414},{"name":"東大和市役所","province":"東京都","city":"東大和市","address":"東京都東大和市中央3丁目930","lat":35.74471306,"lon":139.42703715},{"name":"東大和市立郷土博物館","province":"東京都","city":"東大和市","address":"東京都東大和市奈良橋1丁目260-2","lat":35.7551312,"lon":139.42296495},{"name":"東大和市民会館ハミングホール","province":"東京都","city":"東大和市","address":"東京都東大和市向原6丁目1","lat":35.7385306,"lon":139.43434801},{"name":"水道局東大和サービスステーション","province":"東京都","city":"東大和市","address":"東京都東大和市上北台3丁目447","lat":35.74157152,"lon":139.41579944},{"name":"清原市民センター","province":"東京都","city":"東大和市","address":"東京都東大和市清原4丁目1-16","lat":35.7407973,"lon":139.44713296},{"name":"東大和市民体育館","province":"東京都","city":"東大和市","address":"東京都東大和市桜が丘2丁目167-13","lat":35.73666109,"lon":139.42152414},{"name":"東大和市役所","province":"東京都","city":"東大和市","address":"東京都東大和市中央3丁目930","lat":35.74471306,"lon":139.42703715},{"name":"東大和市立郷土博物館","province":"東京都","city":"東大和市","address":"東京都東大和市奈良橋1丁目260-2","lat":35.7551312,"lon":139.42296495},{"name":"東大和市民会館ハミングホール","province":"東京都","city":"東大和市","address":"東京都東大和市向原6丁目1","lat":35.7385306,"lon":139.43434801},{"name":"水道局東大和サービスステーション","province":"東京都","city":"東大和市","address":"東京都東大和市上北台3丁目447","lat":35.74157152,"lon":139.41579944},{"name":"清原市民センター","province":"東京都","city":"東大和市","address":"東京都東大和市清原4丁目1-16","lat":35.7407973,"lon":139.44713296},{"name":"東大和市民体育館","province":"東京都","city":"東大和市","address":"東京都東大和市桜が丘2丁目167-13","lat":35.73666109,"lon":139.42152414},{"name":"東大和市役所","province":"東京都","city":"東大和市","address":"東京都東大和市中央3丁目930","lat":35.74471306,"lon":139.42703715},{"name":"東大和市立郷土博物館","province":"東京都","city":"東大和市","address":"東京都東大和市奈良橋1丁目260-2","lat":35.7551312,"lon":139.42296495},{"name":"東大和市民会館ハミングホール","province":"東京都","city":"東大和市","address":"東京都東大和市向原6丁目1","lat":35.7385306,"lon":139.43434801},{"name":"水道局東大和サービスステーション","province":"東京都","city":"東大和市","address":"東京都東大和市上北台3丁目447","lat":35.74157152,"lon":139.41579944},{"name":"清原市民センター","province":"東京都","city":"東大和市","address":"東京都東大和市清原4丁目1-16","lat":35.7407973,"lon":139.44713296},{"name":"東大和市民体育館","province":"東京都","city":"東大和市","address":"東京都東大和市桜が丘2丁目167-13","lat":35.73666109,"lon":139.42152414},{"name":"東大和市役所","province":"東京都","city":"東大和市","address":"東京都東大和市中央3丁目930","lat":35.74471306,"lon":139.42703715},{"name":"東大和市立郷土博物館","province":"東京都","city":"東大和市","address":"東京都東大和市奈良橋1丁目260-2","lat":35.7551312,"lon":139.42296495},{"name":"東大和市民会館ハミングホール","province":"東京都","city":"東大和市","address":"東京都東大和市向原6丁目1","lat":35.7385306,"lon":139.43434801},{"name":"水道局東大和サービスステーション","province":"東京都","city":"東大和市","address":"東京都東大和市上北台3丁目447","lat":35.74157152,"lon":139.41579944},{"name":"清原市民センター","province":"東京都","city":"東大和市","address":"東京都東大和市清原4丁目1-16","lat":35.7407973,"lon":139.44713296},{"name":"東大和市民体育館","province":"東京都","city":"東大和市","address":"東京都東大和市桜が丘2丁目167-13","lat":35.73666109,"lon":139.42152414},{"name":"東大和市役所","province":"東京都","city":"東大和市","address":"東京都東大和市中央3丁目930","lat":35.74471306,"lon":139.42703715},{"name":"東大和市立郷土博物館","province":"東京都","city":"東大和市","address":"東京都東大和市奈良橋1丁目260-2","lat":35.7551312,"lon":139.42296495},{"name":"東大和市民会館ハミングホール","province":"東京都","city":"東大和市","address":"東京都東大和市向原6丁目1","lat":35.7385306,"lon":139.43434801},{"name":"水道局東大和サービスステーション","province":"東京都","city":"東大和市","address":"東京都東大和市上北台3丁目447","lat":35.74157152,"lon":139.41579944},{"name":"清原市民センター","province":"東京都","city":"東大和市","address":"東京都東大和市清原4丁目1-16","lat":35.7407973,"lon":139.44713296},{"name":"東大和市民体育館","province":"東京都","city":"東大和市","address":"東京都東大和市桜が丘2丁目167-13","lat":35.73666109,"lon":139.42152414},{"name":"東大和市役所","province":"東京都","city":"東大和市","address":"東京都東大和市中央3丁目930","lat":35.74471306,"lon":139.42703715},{"name":"東大和市立郷土博物館","province":"東京都","city":"東大和市","address":"東京都東大和市奈良橋1丁目260-2","lat":35.7551312,"lon":139.42296495},{"name":"東大和市民会館ハミングホール","province":"東京都","city":"東大和市","address":"東京都東大和市向原6丁目1","lat":35.7385306,"lon":139.43434801},{"name":"水道局東大和サービスステーション","province":"東京都","city":"東大和市","address":"東京都東大和市上北台3丁目447","lat":35.74157152,"lon":139.41579944},{"name":"清原市民センター","province":"東京都","city":"東大和市","address":"東京都東大和市清原4丁目1-16","lat":35.7407973,"lon":139.44713296},{"name":"東大和市民体育館","province":"東京都","city":"東大和市","address":"東京都東大和市桜が丘2丁目167-13","lat":35.73666109,"lon":139.42152414},{"name":"東大和市役所","province":"東京都","city":"東大和市","address":"東京都東大和市中央3丁目930","lat":35.74471306,"lon":139.42703715},{"name":"東大和市立郷土博物館","province":"東京都","city":"東大和市","address":"東京都東大和市奈良橋1丁目260-2","lat":35.7551312,"lon":139.42296495},{"name":"東大和市民会館ハミングホール","province":"東京都","city":"東大和市","address":"東京都東大和市向原6丁目1","lat":35.7385306,"lon":139.43434801},{"name":"水道局東大和サービスステーション","province":"東京都","city":"東大和市","address":"東京都東大和市上北台3丁目447","lat":35.74157152,"lon":139.41579944},{"name":"清原市民センター","province":"東京都","city":"東大和市","address":"東京都東大和市清原4丁目1-16","lat":35.7407973,"lon":139.44713296},{"name":"東大和市民体育館","province":"東京都","city":"東大和市","address":"東京都東大和市桜が丘2丁目167-13","lat":35.73666109,"lon":139.42152414},{"name":"東大和市役所","province":"東京都","city":"東大和市","address":"東京都東大和市中央3丁目930","lat":35.74471306,"lon":139.42703715},{"name":"東大和市立郷土博物館","province":"東京都","city":"東大和市","address":"東京都東大和市奈良橋1丁目260-2","lat":35.7551312,"lon":139.42296495},{"name":"東大和市民会館ハミングホール","province":"東京都","city":"東大和市","address":"東京都東大和市向原6丁目1","lat":35.7385306,"lon":139.43434801},{"name":"水道局東大和サービスステーション","province":"東京都","city":"東大和市","address":"東京都東大和市上北台3丁目447","lat":35.74157152,"lon":139.41579944},{"name":"清原市民センター","province":"東京都","city":"東大和市","address":"東京都東大和市清原4丁目1-16","lat":35.7407973,"lon":139.44713296},{"name":"東大和市民体育館","province":"東京都","city":"東大和市","address":"東京都東大和市桜が丘2丁目167-13","lat":35.73666109,"lon":139.42152414},{"name":"東大和市役所","province":"東京都","city":"東大和市","address":"東京都東大和市中央3丁目930","lat":35.74471306,"lon":139.42703715},{"name":"東大和市立郷土博物館","province":"東京都","city":"東大和市","address":"東京都東大和市奈良橋1丁目260-2","lat":35.7551312,"lon":139.42296495},{"name":"東大和市民会館ハミングホール","province":"東京都","city":"東大和市","address":"東京都東大和市向原6丁目1","lat":35.7385306,"lon":139.43434801},{"name":"水道局東大和サービスステーション","province":"東京都","city":"東大和市","address":"東京都東大和市上北台3丁目447","lat":35.74157152,"lon":139.41579944},{"name":"清原市民センター","province":"東京都","city":"東大和市","address":"東京都東大和市清原4丁目1-16","lat":35.7407973,"lon":139.44713296},{"name":"東大和市民体育館","province":"東京都","city":"東大和市","address":"東京都東大和市桜が丘2丁目167-13","lat":35.73666109,"lon":139.42152414},{"name":"東大和市役所","province":"東京都","city":"東大和市","address":"東京都東大和市中央3丁目930","lat":35.74471306,"lon":139.42703715},{"name":"東大和市立郷土博物館","province":"東京都","city":"東大和市","address":"東京都東大和市奈良橋1丁目260-2","lat":35.7551312,"lon":139.42296495},{"name":"東大和市民会館ハミングホール","province":"東京都","city":"東大和市","address":"東京都東大和市向原6丁目1","lat":35.7385306,"lon":139.43434801},{"name":"水道局東大和サービスステーション","province":"東京都","city":"東大和市","address":"東京都東大和市上北台3丁目447","lat":35.74157152,"lon":139.41579944},{"name":"清原市民センター","province":"東京都","city":"東大和市","address":"東京都東大和市清原4丁目1-16","lat":35.7407973,"lon":139.44713296},{"name":"東大和市民体育館","province":"東京都","city":"東大和市","address":"東京都東大和市桜が丘2丁目167-13","lat":35.73666109,"lon":139.42152414},{"name":"東大和市役所","province":"東京都","city":"東大和市","address":"東京都東大和市中央3丁目930","lat":35.74471306,"lon":139.42703715},{"name":"東大和市立郷土博物館","province":"東京都","city":"東大和市","address":"東京都東大和市奈良橋1丁目260-2","lat":35.7551312,"lon":139.42296495},{"name":"東大和市民会館ハミングホール","province":"東京都","city":"東大和市","address":"東京都東大和市向原6丁目1","lat":35.7385306,"lon":139.43434801},{"name":"水道局東大和サービスステーション","province":"東京都","city":"東大和市","address":"東京都東大和市上北台3丁目447","lat":35.74157152,"lon":139.41579944},{"name":"清原市民センター","province":"東京都","city":"東大和市","address":"東京都東大和市清原4丁目1-16","lat":35.7407973,"lon":139.44713296},{"name":"東大和市民体育館","province":"東京都","city":"東大和市","address":"東京都東大和市桜が丘2丁目167-13","lat":35.73666109,"lon":139.42152414},{"name":"東大和市役所","province":"東京都","city":"東大和市","address":"東京都東大和市中央3丁目930","lat":35.74471306,"lon":139.42703715},{"name":"東大和市立郷土博物館","province":"東京都","city":"東大和市","address":"東京都東大和市奈良橋1丁目260-2","lat":35.7551312,"lon":139.42296495},{"name":"東大和市民会館ハミングホール","province":"東京都","city":"東大和市","address":"東京都東大和市向原6丁目1","lat":35.7385306,"lon":139.43434801},{"name":"水道局東大和サービスステーション","province":"東京都","city":"東大和市","address":"東京都東大和市上北台3丁目447","lat":35.74157152,"lon":139.41579944},{"name":"清原市民センター","province":"東京都","city":"東大和市","address":"東京都東大和市清原4丁目1-16","lat":35.7407973,"lon":139.44713296},{"name":"東大和市民体育館","province":"東京都","city":"東大和市","address":"東京都東大和市桜が丘2丁目167-13","lat":35.73666109,"lon":139.42152414},{"name":"東大和市役所","province":"東京都","city":"東大和市","address":"東京都東大和市中央3丁目930","lat":35.74471306,"lon":139.42703715},{"name":"東大和市立郷土博物館","province":"東京都","city":"東大和市","address":"東京都東大和市奈良橋1丁目260-2","lat":35.7551312,"lon":139.42296495},{"name":"東大和市民会館ハミングホール","province":"東京都","city":"東大和市","address":"東京都東大和市向原6丁目1","lat":35.7385306,"lon":139.43434801},{"name":"水道局東大和サービスステーション","province":"東京都","city":"東大和市","address":"東京都東大和市上北台3丁目447","lat":35.74157152,"lon":139.41579944},{"name":"清原市民センター","province":"東京都","city":"東大和市","address":"東京都東大和市清原4丁目1-16","lat":35.7407973,"lon":139.44713296},{"name":"東大和市民体育館","province":"東京都","city":"東大和市","address":"東京都東大和市桜が丘2丁目167-13","lat":35.73666109,"lon":139.42152414},{"name":"東大和市役所","province":"東京都","city":"東大和市","address":"東京都東大和市中央3丁目930","lat":35.74471306,"lon":139.42703715},{"name":"東大和市立郷土博物館","province":"東京都","city":"東大和市","address":"東京都東大和市奈良橋1丁目260-2","lat":35.7551312,"lon":139.42296495},{"name":"東大和市民会館ハミングホール","province":"東京都","city":"東大和市","address":"東京都東大和市向原6丁目1","lat":35.7385306,"lon":139.43434801},{"name":"水道局東大和サービスステーション","province":"東京都","city":"東大和市","address":"東京都東大和市上北台3丁目447","lat":35.74157152,"lon":139.41579944},{"name":"清原市民センター","province":"東京都","city":"東大和市","address":"東京都東大和市清原4丁目1-16","lat":35.7407973,"lon":139.44713296},{"name":"東大和市民体育館","province":"東京都","city":"東大和市","address":"東京都東大和市桜が丘2丁目167-13","lat":35.73666109,"lon":139.42152414},{"name":"東大和市役所","province":"東京都","city":"東大和市","address":"東京都東大和市中央3丁目930","lat":35.74471306,"lon":139.42703715},{"name":"東大和市立郷土博物館","province":"東京都","city":"東大和市","address":"東京都東大和市奈良橋1丁目260-2","lat":35.7551312,"lon":139.42296495},{"name":"東大和市民会館ハミングホール","province":"東京都","city":"東大和市","address":"東京都東大和市向原6丁目1","lat":35.7385306,"lon":139.43434801},{"name":"水道局東大和サービスステーション","province":"東京都","city":"東大和市","address":"東京都東大和市上北台3丁目447","lat":35.74157152,"lon":139.41579944},{"name":"清原市民センター","province":"東京都","city":"東大和市","address":"東京都東大和市清原4丁目1-16","lat":35.7407973,"lon":139.44713296},{"name":"東大和市民体育館","province":"東京都","city":"東大和市","address":"東京都東大和市桜が丘2丁目167-13","lat":35.73666109,"lon":139.42152414},{"name":"東大和市役所","province":"東京都","city":"東大和市","address":"東京都東大和市中央3丁目930","lat":35.74471306,"lon":139.42703715},{"name":"東大和市立郷土博物館","province":"東京都","city":"東大和市","address":"東京都東大和市奈良橋1丁目260-2","lat":35.7551312,"lon":139.42296495},{"name":"東大和市民会館ハミングホール","province":"東京都","city":"東大和市","address":"東京都東大和市向原6丁目1","lat":35.7385306,"lon":139.43434801},{"name":"水道局東大和サービスステーション","province":"東京都","city":"東大和市","address":"東京都東大和市上北台3丁目447","lat":35.74157152,"lon":139.41579944},{"name":"清原市民センター","province":"東京都","city":"東大和市","address":"東京都東大和市清原4丁目1-16","lat":35.7407973,"lon":139.44713296},{"name":"東大和市民体育館","province":"東京都","city":"東大和市","address":"東京都東大和市桜が丘2丁目167-13","lat":35.73666109,"lon":139.42152414},{"name":"東大和市役所","province":"東京都","city":"東大和市","address":"東京都東大和市中央3丁目930","lat":35.74471306,"lon":139.42703715},{"name":"東大和市立郷土博物館","province":"東京都","city":"東大和市","address":"東京都東大和市奈良橋1丁目260-2","lat":35.7551312,"lon":139.42296495},{"name":"東大和市民会館ハミングホール","province":"東京都","city":"東大和市","address":"東京都東大和市向原6丁目1","lat":35.7385306,"lon":139.43434801},{"name":"水道局東大和サービスステーション","province":"東京都","city":"東大和市","address":"東京都東大和市上北台3丁目447","lat":35.74157152,"lon":139.41579944},{"name":"清原市民センター","province":"東京都","city":"東大和市","address":"東京都東大和市清原4丁目1-16","lat":35.7407973,"lon":139.44713296},{"name":"東大和市民体育館","province":"東京都","city":"東大和市","address":"東京都東大和市桜が丘2丁目167-13","lat":35.73666109,"lon":139.42152414},{"name":"東大和市役所","province":"東京都","city":"東大和市","address":"東京都東大和市中央3丁目930","lat":35.74471306,"lon":139.42703715},{"name":"東大和市立郷土博物館","province":"東京都","city":"東大和市","address":"東京都東大和市奈良橋1丁目260-2","lat":35.7551312,"lon":139.42296495},{"name":"東大和市民会館ハミングホール","province":"東京都","city":"東大和市","address":"東京都東大和市向原6丁目1","lat":35.7385306,"lon":139.43434801},{"name":"水道局東大和サービスステーション","province":"東京都","city":"東大和市","address":"東京都東大和市上北台3丁目447","lat":35.74157152,"lon":139.41579944},{"name":"清原市民センター","province":"東京都","city":"東大和市","address":"東京都東大和市清原4丁目1-16","lat":35.7407973,"lon":139.44713296},{"name":"東大和市民体育館","province":"東京都","city":"東大和市","address":"東京都東大和市桜が丘2丁目167-13","lat":35.73666109,"lon":139.42152414},{"name":"東大和市役所","province":"東京都","city":"東大和市","address":"東京都東大和市中央3丁目930","lat":35.74471306,"lon":139.42703715},{"name":"東大和市立郷土博物館","province":"東京都","city":"東大和市","address":"東京都東大和市奈良橋1丁目260-2","lat":35.7551312,"lon":139.42296495},{"name":"東大和市民会館ハミングホール","province":"東京都","city":"東大和市","address":"東京都東大和市向原6丁目1","lat":35.7385306,"lon":139.43434801},{"name":"水道局東大和サービスステーション","province":"東京都","city":"東大和市","address":"東京都東大和市上北台3丁目447","lat":35.74157152,"lon":139.41579944},{"name":"清原市民センター","province":"東京都","city":"東大和市","address":"東京都東大和市清原4丁目1-16","lat":35.7407973,"lon":139.44713296},{"name":"東大和市民体育館","province":"東京都","city":"東大和市","address":"東京都東大和市桜が丘2丁目167-13","lat":35.73666109,"lon":139.42152414},{"name":"東大和市役所","province":"東京都","city":"東大和市","address":"東京都東大和市中央3丁目930","lat":35.74471306,"lon":139.42703715},{"name":"東大和市立郷土博物館","province":"東京都","city":"東大和市","address":"東京都東大和市奈良橋1丁目260-2","lat":35.7551312,"lon":139.42296495},{"name":"東大和市民会館ハミングホール","province":"東京都","city":"東大和市","address":"東京都東大和市向原6丁目1","lat":35.7385306,"lon":139.43434801},{"name":"水道局東大和サービスステーション","province":"東京都","city":"東大和市","address":"東京都東大和市上北台3丁目447","lat":35.74157152,"lon":139.41579944},{"name":"清原市民センター","province":"東京都","city":"東大和市","address":"東京都東大和市清原4丁目1-16","lat":35.7407973,"lon":139.44713296},{"name":"東大和市民体育館","province":"東京都","city":"東大和市","address":"東京都東大和市桜が丘2丁目167-13","lat":35.73666109,"lon":139.42152414},{"name":"東大和市役所","province":"東京都","city":"東大和市","address":"東京都東大和市中央3丁目930","lat":35.74471306,"lon":139.42703715},{"name":"東大和市立郷土博物館","province":"東京都","city":"東大和市","address":"東京都東大和市奈良橋1丁目260-2","lat":35.7551312,"lon":139.42296495},{"name":"東大和市民会館ハミングホール","province":"東京都","city":"東大和市","address":"東京都東大和市向原6丁目1","lat":35.7385306,"lon":139.43434801},{"name":"水道局東大和サービスステーション","province":"東京都","city":"東大和市","address":"東京都東大和市上北台3丁目447","lat":35.74157152,"lon":139.41579944},{"name":"清原市民センター","province":"東京都","city":"東大和市","address":"東京都東大和市清原4丁目1-16","lat":35.7407973,"lon":139.44713296},{"name":"東大和市民体育館","province":"東京都","city":"東大和市","address":"東京都東大和市桜が丘2丁目167-13","lat":35.73666109,"lon":139.42152414},{"name":"東大和市役所","province":"東京都","city":"東大和市","address":"東京都東大和市中央3丁目930","lat":35.74471306,"lon":139.42703715},{"name":"東大和市立郷土博物館","province":"東京都","city":"東大和市","address":"東京都東大和市奈良橋1丁目260-2","lat":35.7551312,"lon":139.42296495},{"name":"東大和市民会館ハミングホール","province":"東京都","city":"東大和市","address":"東京都東大和市向原6丁目1","lat":35.7385306,"lon":139.43434801},{"name":"水道局東大和サービスステーション","province":"東京都","city":"東大和市","address":"東京都東大和市上北台3丁目447","lat":35.74157152,"lon":139.41579944},{"name":"清原市民センター","province":"東京都","city":"東大和市","address":"東京都東大和市清原4丁目1-16","lat":35.7407973,"lon":139.44713296},{"name":"東大和市民体育館","province":"東京都","city":"東大和市","address":"東京都東大和市桜が丘2丁目167-13","lat":35.73666109,"lon":139.42152414},{"name":"東大和市役所","province":"東京都","city":"東大和市","address":"東京都東大和市中央3丁目930","lat":35.74471306,"lon":139.42703715},{"name":"東大和市立郷土博物館","province":"東京都","city":"東大和市","address":"東京都東大和市奈良橋1丁目260-2","lat":35.7551312,"lon":139.42296495},{"name":"東大和市民会館ハミングホール","province":"東京都","city":"東大和市","address":"東京都東大和市向原6丁目1","lat":35.7385306,"lon":139.43434801},{"name":"水道局東大和サービスステーション","province":"東京都","city":"東大和市","address":"東京都東大和市上北台3丁目447","lat":35.74157152,"lon":139.41579944},{"name":"清原市民センター","province":"東京都","city":"東大和市","address":"東京都東大和市清原4丁目1-16","lat":35.7407973,"lon":139.44713296},{"name":"東大和市民体育館","province":"東京都","city":"東大和市","address":"東京都東大和市桜が丘2丁目167-13","lat":35.73666109,"lon":139.42152414},{"name":"東大和市役所","province":"東京都","city":"東大和市","address":"東京都東大和市中央3丁目930","lat":35.74471306,"lon":139.42703715},{"name":"東大和市立郷土博物館","province":"東京都","city":"東大和市","address":"東京都東大和市奈良橋1丁目260-2","lat":35.7551312,"lon":139.42296495},{"name":"東大和市民会館ハミングホール","province":"東京都","city":"東大和市","address":"東京都東大和市向原6丁目1","lat":35.7385306,"lon":139.43434801},{"name":"水道局東大和サービスステーション","province":"東京都","city":"東大和市","address":"東京都東大和市上北台3丁目447","lat":35.74157152,"lon":139.41579944},{"name":"清原市民センター","province":"東京都","city":"東大和市","address":"東京都東大和市清原4丁目1-16","lat":35.7407973,"lon":139.44713296},{"name":"東大和市民体育館","province":"東京都","city":"東大和市","address":"東京都東大和市桜が丘2丁目167-13","lat":35.73666109,"lon":139.42152414},{"name":"東大和市役所","province":"東京都","city":"東大和市","address":"東京都東大和市中央3丁目930","lat":35.74471306,"lon":139.42703715},{"name":"東大和市立郷土博物館","province":"東京都","city":"東大和市","address":"東京都東大和市奈良橋1丁目260-2","lat":35.7551312,"lon":139.42296495},{"name":"東大和市民会館ハミングホール","province":"東京都","city":"東大和市","address":"東京都東大和市向原6丁目1","lat":35.7385306,"lon":139.43434801},{"name":"水道局東大和サービスステーション","province":"東京都","city":"東大和市","address":"東京都東大和市上北台3丁目447","lat":35.74157152,"lon":139.41579944},{"name":"清原市民センター","province":"東京都","city":"東大和市","address":"東京都東大和市清原4丁目1-16","lat":35.7407973,"lon":139.44713296},{"name":"東大和市民体育館","province":"東京都","city":"東大和市","address":"東京都東大和市桜が丘2丁目167-13","lat":35.73666109,"lon":139.42152414},{"name":"東大和市役所","province":"東京都","city":"東大和市","address":"東京都東大和市中央3丁目930","lat":35.74471306,"lon":139.42703715},{"name":"東大和市立郷土博物館","province":"東京都","city":"東大和市","address":"東京都東大和市奈良橋1丁目260-2","lat":35.7551312,"lon":139.42296495},{"name":"東大和市民会館ハミングホール","province":"東京都","city":"東大和市","address":"東京都東大和市向原6丁目1","lat":35.7385306,"lon":139.43434801},{"name":"水道局東大和サービスステーション","province":"東京都","city":"東大和市","address":"東京都東大和市上北台3丁目447","lat":35.74157152,"lon":139.41579944},{"name":"清原市民センター","province":"東京都","city":"東大和市","address":"東京都東大和市清原4丁目1-16","lat":35.7407973,"lon":139.44713296},{"name":"東大和市民体育館","province":"東京都","city":"東大和市","address":"東京都東大和市桜が丘2丁目167-13","lat":35.73666109,"lon":139.42152414},{"name":"東大和市役所","province":"東京都","city":"東大和市","address":"東京都東大和市中央3丁目930","lat":35.74471306,"lon":139.42703715},{"name":"東大和市立郷土博物館","province":"東京都","city":"東大和市","address":"東京都東大和市奈良橋1丁目260-2","lat":35.7551312,"lon":139.42296495},{"name":"東大和市民会館ハミングホール","province":"東京都","city":"東大和市","address":"東京都東大和市向原6丁目1","lat":35.7385306,"lon":139.43434801},{"name":"水道局東大和サービスステーション","province":"東京都","city":"東大和市","address":"東京都東大和市上北台3丁目447","lat":35.74157152,"lon":139.41579944},{"name":"清原市民センター","province":"東京都","city":"東大和市","address":"東京都東大和市清原4丁目1-16","lat":35.7407973,"lon":139.44713296},{"name":"東大和市民体育館","province":"東京都","city":"東大和市","address":"東京都東大和市桜が丘2丁目167-13","lat":35.73666109,"lon":139.42152414},{"name":"東大和市役所","province":"東京都","city":"東大和市","address":"東京都東大和市中央3丁目930","lat":35.74471306,"lon":139.42703715},{"name":"東大和市立郷土博物館","province":"東京都","city":"東大和市","address":"東京都東大和市奈良橋1丁目260-2","lat":35.7551312,"lon":139.42296495},{"name":"東大和市民会館ハミングホール","province":"東京都","city":"東大和市","address":"東京都東大和市向原6丁目1","lat":35.7385306,"lon":139.43434801},{"name":"水道局東大和サービスステーション","province":"東京都","city":"東大和市","address":"東京都東大和市上北台3丁目447","lat":35.74157152,"lon":139.41579944},{"name":"清原市民センター","province":"東京都","city":"東大和市","address":"東京都東大和市清原4丁目1-16","lat":35.7407973,"lon":139.44713296},{"name":"東大和市民体育館","province":"東京都","city":"東大和市","address":"東京都東大和市桜が丘2丁目167-13","lat":35.73666109,"lon":139.42152414},{"name":"東大和市役所","province":"東京都","city":"東大和市","address":"東京都東大和市中央3丁目930","lat":35.74471306,"lon":139.42703715},{"name":"東大和市立郷土博物館","province":"東京都","city":"東大和市","address":"東京都東大和市奈良橋1丁目260-2","lat":35.7551312,"lon":139.42296495},{"name":"東大和市民会館ハミングホール","province":"東京都","city":"東大和市","address":"東京都東大和市向原6丁目1","lat":35.7385306,"lon":139.43434801},{"name":"水道局東大和サービスステーション","province":"東京都","city":"東大和市","address":"東京都東大和市上北台3丁目447","lat":35.74157152,"lon":139.41579944},{"name":"清原市民センター","province":"東京都","city":"東大和市","address":"東京都東大和市清原4丁目1-16","lat":35.7407973,"lon":139.44713296},{"name":"東大和市民体育館","province":"東京都","city":"東大和市","address":"東京都東大和市桜が丘2丁目167-13","lat":35.73666109,"lon":139.42152414},{"name":"東大和市役所","province":"東京都","city":"東大和市","address":"東京都東大和市中央3丁目930","lat":35.74471306,"lon":139.42703715},{"name":"東大和市立郷土博物館","province":"東京都","city":"東大和市","address":"東京都東大和市奈良橋1丁目260-2","lat":35.7551312,"lon":139.42296495},{"name":"東大和市民会館ハミングホール","province":"東京都","city":"東大和市","address":"東京都東大和市向原6丁目1","lat":35.7385306,"lon":139.43434801},{"name":"水道局東大和サービスステーション","province":"東京都","city":"東大和市","address":"東京都東大和市上北台3丁目447","lat":35.74157152,"lon":139.41579944},{"name":"清原市民センター","province":"東京都","city":"東大和市","address":"東京都東大和市清原4丁目1-16","lat":35.7407973,"lon":139.44713296},{"name":"東大和市民体育館","province":"東京都","city":"東大和市","address":"東京都東大和市桜が丘2丁目167-13","lat":35.73666109,"lon":139.42152414},{"name":"東大和市役所","province":"東京都","city":"東大和市","address":"東京都東大和市中央3丁目930","lat":35.74471306,"lon":139.42703715},{"name":"東大和市立郷土博物館","province":"東京都","city":"東大和市","address":"東京都東大和市奈良橋1丁目260-2","lat":35.7551312,"lon":139.42296495},{"name":"東大和市民会館ハミングホール","province":"東京都","city":"東大和市","address":"東京都東大和市向原6丁目1","lat":35.7385306,"lon":139.43434801},{"name":"水道局東大和サービスステーション","province":"東京都","city":"東大和市","address":"東京都東大和市上北台3丁目447","lat":35.74157152,"lon":139.41579944},{"name":"清原市民センター","province":"東京都","city":"東大和市","address":"東京都東大和市清原4丁目1-16","lat":35.7407973,"lon":139.44713296},{"name":"東大和市民体育館","province":"東京都","city":"東大和市","address":"東京都東大和市桜が丘2丁目167-13","lat":35.73666109,"lon":139.42152414},{"name":"東大和市役所","province":"東京都","city":"東大和市","address":"東京都東大和市中央3丁目930","lat":35.74471306,"lon":139.42703715},{"name":"東大和市立郷土博物館","province":"東京都","city":"東大和市","address":"東京都東大和市奈良橋1丁目260-2","lat":35.7551312,"lon":139.42296495},{"name":"東大和市民会館ハミングホール","province":"東京都","city":"東大和市","address":"東京都東大和市向原6丁目1","lat":35.7385306,"lon":139.43434801},{"name":"水道局東大和サービスステーション","province":"東京都","city":"東大和市","address":"東京都東大和市上北台3丁目447","lat":35.74157152,"lon":139.41579944},{"name":"清原市民センター","province":"東京都","city":"東大和市","address":"東京都東大和市清原4丁目1-16","lat":35.7407973,"lon":139.44713296},{"name":"東大和市民体育館","province":"東京都","city":"東大和市","address":"東京都東大和市桜が丘2丁目167-13","lat":35.73666109,"lon":139.42152414},{"name":"東大和市役所","province":"東京都","city":"東大和市","address":"東京都東大和市中央3丁目930","lat":35.74471306,"lon":139.42703715},{"name":"東大和市立郷土博物館","province":"東京都","city":"東大和市","address":"東京都東大和市奈良橋1丁目260-2","lat":35.7551312,"lon":139.42296495},{"name":"東大和市民会館ハミングホール","province":"東京都","city":"東大和市","address":"東京都東大和市向原6丁目1","lat":35.7385306,"lon":139.43434801},{"name":"水道局東大和サービスステーション","province":"東京都","city":"東大和市","address":"東京都東大和市上北台3丁目447","lat":35.74157152,"lon":139.41579944},{"name":"清原市民センター","province":"東京都","city":"東大和市","address":"東京都東大和市清原4丁目1-16","lat":35.7407973,"lon":139.44713296},{"name":"東大和市民体育館","province":"東京都","city":"東大和市","address":"東京都東大和市桜が丘2丁目167-13","lat":35.73666109,"lon":139.42152414},{"name":"東大和市役所","province":"東京都","city":"東大和市","address":"東京都東大和市中央3丁目930","lat":35.74471306,"lon":139.42703715},{"name":"東大和市立郷土博物館","province":"東京都","city":"東大和市","address":"東京都東大和市奈良橋1丁目260-2","lat":35.7551312,"lon":139.42296495},{"name":"東大和市民会館ハミングホール","province":"東京都","city":"東大和市","address":"東京都東大和市向原6丁目1","lat":35.7385306,"lon":139.43434801},{"name":"水道局東大和サービスステーション","province":"東京都","city":"東大和市","address":"東京都東大和市上北台3丁目447","lat":35.74157152,"lon":139.41579944},{"name":"清原市民センター","province":"東京都","city":"東大和市","address":"東京都東大和市清原4丁目1-16","lat":35.7407973,"lon":139.44713296},{"name":"東大和市民体育館","province":"東京都","city":"東大和市","address":"東京都東大和市桜が丘2丁目167-13","lat":35.73666109,"lon":139.42152414},{"name":"東大和市役所","province":"東京都","city":"東大和市","address":"東京都東大和市中央3丁目930","lat":35.74471306,"lon":139.42703715},{"name":"東大和市立郷土博物館","province":"東京都","city":"東大和市","address":"東京都東大和市奈良橋1丁目260-2","lat":35.7551312,"lon":139.42296495},{"name":"東大和市民会館ハミングホール","province":"東京都","city":"東大和市","address":"東京都東大和市向原6丁目1","lat":35.7385306,"lon":139.43434801},{"name":"水道局東大和サービスステーション","province":"東京都","city":"東大和市","address":"東京都東大和市上北台3丁目447","lat":35.74157152,"lon":139.41579944},{"name":"清原市民センター","province":"東京都","city":"東大和市","address":"東京都東大和市清原4丁目1-16","lat":35.7407973,"lon":139.44713296},{"name":"東大和市民体育館","province":"東京都","city":"東大和市","address":"東京都東大和市桜が丘2丁目167-13","lat":35.73666109,"lon":139.42152414},{"name":"東大和市役所","province":"東京都","city":"東大和市","address":"東京都東大和市中央3丁目930","lat":35.74471306,"lon":139.42703715},{"name":"東大和市立郷土博物館","province":"東京都","city":"東大和市","address":"東京都東大和市奈良橋1丁目260-2","lat":35.7551312,"lon":139.42296495},{"name":"東大和市民会館ハミングホール","province":"東京都","city":"東大和市","address":"東京都東大和市向原6丁目1","lat":35.7385306,"lon":139.43434801},{"name":"水道局東大和サービスステーション","province":"東京都","city":"東大和市","address":"東京都東大和市上北台3丁目447","lat":35.74157152,"lon":139.41579944},{"name":"清原市民センター","province":"東京都","city":"東大和市","address":"東京都東大和市清原4丁目1-16","lat":35.7407973,"lon":139.44713296},{"name":"東大和市民体育館","province":"東京都","city":"東大和市","address":"東京都東大和市桜が丘2丁目167-13","lat":35.73666109,"lon":139.42152414},{"name":"東大和市役所","province":"東京都","city":"東大和市","address":"東京都東大和市中央3丁目930","lat":35.74471306,"lon":139.42703715},{"name":"東大和市立郷土博物館","province":"東京都","city":"東大和市","address":"東京都東大和市奈良橋1丁目260-2","lat":35.7551312,"lon":139.42296495},{"name":"東大和市民会館ハミングホール","province":"東京都","city":"東大和市","address":"東京都東大和市向原6丁目1","lat":35.7385306,"lon":139.43434801},{"name":"水道局東大和サービスステーション","province":"東京都","city":"東大和市","address":"東京都東大和市上北台3丁目447","lat":35.74157152,"lon":139.41579944},{"name":"清原市民センター","province":"東京都","city":"東大和市","address":"東京都東大和市清原4丁目1-16","lat":35.7407973,"lon":139.44713296},{"name":"東大和市民体育館","province":"東京都","city":"東大和市","address":"東京都東大和市桜が丘2丁目167-13","lat":35.73666109,"lon":139.42152414},{"name":"東大和市役所","province":"東京都","city":"東大和市","address":"東京都東大和市中央3丁目930","lat":35.74471306,"lon":139.42703715},{"name":"東大和市立郷土博物館","province":"東京都","city":"東大和市","address":"東京都東大和市奈良橋1丁目260-2","lat":35.7551312,"lon":139.42296495},{"name":"東大和市民会館ハミングホール","province":"東京都","city":"東大和市","address":"東京都東大和市向原6丁目1","lat":35.7385306,"lon":139.43434801},{"name":"水道局東大和サービスステーション","province":"東京都","city":"東大和市","address":"東京都東大和市上北台3丁目447","lat":35.74157152,"lon":139.41579944},{"name":"清原市民センター","province":"東京都","city":"東大和市","address":"東京都東大和市清原4丁目1-16","lat":35.7407973,"lon":139.44713296},{"name":"東大和市民体育館","province":"東京都","city":"東大和市","address":"東京都東大和市桜が丘2丁目167-13","lat":35.73666109,"lon":139.42152414},{"name":"東大和市役所","province":"東京都","city":"東大和市","address":"東京都東大和市中央3丁目930","lat":35.74471306,"lon":139.42703715},{"name":"東大和市立郷土博物館","province":"東京都","city":"東大和市","address":"東京都東大和市奈良橋1丁目260-2","lat":35.7551312,"lon":139.42296495},{"name":"東大和市民会館ハミングホール","province":"東京都","city":"東大和市","address":"東京都東大和市向原6丁目1","lat":35.7385306,"lon":139.43434801},{"name":"水道局東大和サービスステーション","province":"東京都","city":"東大和市","address":"東京都東大和市上北台3丁目447","lat":35.74157152,"lon":139.41579944},{"name":"清原市民センター","province":"東京都","city":"東大和市","address":"東京都東大和市清原4丁目1-16","lat":35.7407973,"lon":139.44713296},{"name":"東大和市民体育館","province":"東京都","city":"東大和市","address":"東京都東大和市桜が丘2丁目167-13","lat":35.73666109,"lon":139.42152414},{"name":"東大和市役所","province":"東京都","city":"東大和市","address":"東京都東大和市中央3丁目930","lat":35.74471306,"lon":139.42703715},{"name":"東大和市立郷土博物館","province":"東京都","city":"東大和市","address":"東京都東大和市奈良橋1丁目260-2","lat":35.7551312,"lon":139.42296495},{"name":"東大和市民会館ハミングホール","province":"東京都","city":"東大和市","address":"東京都東大和市向原6丁目1","lat":35.7385306,"lon":139.43434801},{"name":"水道局東大和サービスステーション","province":"東京都","city":"東大和市","address":"東京都東大和市上北台3丁目447","lat":35.74157152,"lon":139.41579944},{"name":"清原市民センター","province":"東京都","city":"東大和市","address":"東京都東大和市清原4丁目1-16","lat":35.7407973,"lon":139.44713296},{"name":"東大和市民体育館","province":"東京都","city":"東大和市","address":"東京都東大和市桜が丘2丁目167-13","lat":35.73666109,"lon":139.42152414},{"name":"東大和市役所","province":"東京都","city":"東大和市","address":"東京都東大和市中央3丁目930","lat":35.74471306,"lon":139.42703715},{"name":"東大和市立郷土博物館","province":"東京都","city":"東大和市","address":"東京都東大和市奈良橋1丁目260-2","lat":35.7551312,"lon":139.42296495},{"name":"東大和市民会館ハミングホール","province":"東京都","city":"東大和市","address":"東京都東大和市向原6丁目1","lat":35.7385306,"lon":139.43434801},{"name":"水道局東大和サービスステーション","province":"東京都","city":"東大和市","address":"東京都東大和市上北台3丁目447","lat":35.74157152,"lon":139.41579944},{"name":"清原市民センター","province":"東京都","city":"東大和市","address":"東京都東大和市清原4丁目1-16","lat":35.7407973,"lon":139.44713296},{"name":"東大和市民体育館","province":"東京都","city":"東大和市","address":"東京都東大和市桜が丘2丁目167-13","lat":35.73666109,"lon":139.42152414},{"name":"東大和市役所","province":"東京都","city":"東大和市","address":"東京都東大和市中央3丁目930","lat":35.74471306,"lon":139.42703715},{"name":"東大和市立郷土博物館","province":"東京都","city":"東大和市","address":"東京都東大和市奈良橋1丁目260-2","lat":35.7551312,"lon":139.42296495},{"name":"東大和市民会館ハミングホール","province":"東京都","city":"東大和市","address":"東京都東大和市向原6丁目1","lat":35.7385306,"lon":139.43434801},{"name":"水道局東大和サービスステーション","province":"東京都","city":"東大和市","address":"東京都東大和市上北台3丁目447","lat":35.74157152,"lon":139.41579944},{"name":"清原市民センター","province":"東京都","city":"東大和市","address":"東京都東大和市清原4丁目1-16","lat":35.7407973,"lon":139.44713296},{"name":"東大和市民体育館","province":"東京都","city":"東大和市","address":"東京都東大和市桜が丘2丁目167-13","lat":35.73666109,"lon":139.42152414},{"name":"東大和市役所","province":"東京都","city":"東大和市","address":"東京都東大和市中央3丁目930","lat":35.74471306,"lon":139.42703715},{"name":"東大和市立郷土博物館","province":"東京都","city":"東大和市","address":"東京都東大和市奈良橋1丁目260-2","lat":35.7551312,"lon":139.42296495},{"name":"東大和市民会館ハミングホール","province":"東京都","city":"東大和市","address":"東京都東大和市向原6丁目1","lat":35.7385306,"lon":139.43434801},{"name":"水道局東大和サービスステーション","province":"東京都","city":"東大和市","address":"東京都東大和市上北台3丁目447","lat":35.74157152,"lon":139.41579944},{"name":"清原市民センター","province":"東京都","city":"東大和市","address":"東京都東大和市清原4丁目1-16","lat":35.7407973,"lon":139.44713296},{"name":"東大和市民体育館","province":"東京都","city":"東大和市","address":"東京都東大和市桜が丘2丁目167-13","lat":35.73666109,"lon":139.42152414},{"name":"東大和市役所","province":"東京都","city":"東大和市","address":"東京都東大和市中央3丁目930","lat":35.74471306,"lon":139.42703715},{"name":"東大和市立郷土博物館","province":"東京都","city":"東大和市","address":"東京都東大和市奈良橋1丁目260-2","lat":35.7551312,"lon":139.42296495},{"name":"東大和市民会館ハミングホール","province":"東京都","city":"東大和市","address":"東京都東大和市向原6丁目1","lat":35.7385306,"lon":139.43434801},{"name":"水道局東大和サービスステーション","province":"東京都","city":"東大和市","address":"東京都東大和市上北台3丁目447","lat":35.74157152,"lon":139.41579944},{"name":"清原市民センター","province":"東京都","city":"東大和市","address":"東京都東大和市清原4丁目1-16","lat":35.7407973,"lon":139.44713296},{"name":"東大和市民体育館","province":"東京都","city":"東大和市","address":"東京都東大和市桜が丘2丁目167-13","lat":35.73666109,"lon":139.42152414},{"name":"東大和市役所","province":"東京都","city":"東大和市","address":"東京都東大和市中央3丁目930","lat":35.74471306,"lon":139.42703715},{"name":"東大和市立郷土博物館","province":"東京都","city":"東大和市","address":"東京都東大和市奈良橋1丁目260-2","lat":35.7551312,"lon":139.42296495},{"name":"東大和市民会館ハミングホール","province":"東京都","city":"東大和市","address":"東京都東大和市向原6丁目1","lat":35.7385306,"lon":139.43434801}]}