{"keyword":"破損","data":[{"name":"高齢者見守りぼっくすならはし","province":"東京都","city":"東大和市","address":"東大和市奈良橋4-600/奈良橋市民センター2階老人福祉センター内","lat":35.754078,"lon":139.427856},{"name":"高齢者見守りぼっくすしんぼり","province":"東京都","city":"東大和市","address":"東大和市新堀3-6-1/新堀地区会館2階","lat":35.737888,"lon":139.448288},{"name":"高齢者見守りぼっくすなんがい","province":"東京都","city":"東大和市","address":"東大和市南街2-49-3/在宅サポートセンター1階","lat":35.740234,"lon":139.431412},{"name":"高齢者ほっと支援センターいもくぼ","province":"東京都","city":"東大和市","address":"東大和市芋窪3-1611-1/在宅サービスセンター向台内","lat":35.752773,"lon":139.413635},{"name":"高齢者ほっと支援センターきよはら","province":"東京都","city":"東大和市","address":"東大和市清原1-1-34号/棟1階在宅サービスセンターきよはら内","lat":35.745159,"lon":139.447495},{"name":"高齢者ほっと支援センターなんがい","province":"東京都","city":"東大和市","address":"東大和市南街2-49-3/在宅サポートセンター1階","lat":35.740234,"lon":139.431412},{"name":"東大和市役所高齢介護課","province":"東京都","city":"東大和市","address":"東大和市中央3-930","lat":35.745262,"lon":139.426498},{"name":"東大和市駅前","province":"東京都","city":"東大和市","address":"東京都東大和市向原6丁目1408-33","lat":35.73432834,"lon":139.43517869},{"name":"新堀","province":"東京都","city":"東大和市","address":"東京都東大和市清原3丁目1","lat":35.74144173,"lon":139.44908276},{"name":"東大和給水所","province":"東京都","city":"東大和市","address":"東京都東大和市桜が丘3丁目44","lat":35.73125354,"lon":139.42818775},{"name":"高齢者見守りぼっくすならはし","province":"東京都","city":"東大和市","address":"東大和市奈良橋4-600/奈良橋市民センター2階老人福祉センター内","lat":35.754078,"lon":139.427856},{"name":"高齢者見守りぼっくすしんぼり","province":"東京都","city":"東大和市","address":"東大和市新堀3-6-1/新堀地区会館2階","lat":35.737888,"lon":139.448288},{"name":"高齢者見守りぼっくすなんがい","province":"東京都","city":"東大和市","address":"東大和市南街2-49-3/在宅サポートセンター1階","lat":35.740234,"lon":139.431412},{"name":"高齢者ほっと支援センターいもくぼ","province":"東京都","city":"東大和市","address":"東大和市芋窪3-1611-1/在宅サービスセンター向台内","lat":35.752773,"lon":139.413635},{"name":"高齢者ほっと支援センターきよはら","province":"東京都","city":"東大和市","address":"東大和市清原1-1-34号/棟1階在宅サービスセンターきよはら内","lat":35.745159,"lon":139.447495},{"name":"高齢者ほっと支援センターなんがい","province":"東京都","city":"東大和市","address":"東大和市南街2-49-3/在宅サポートセンター1階","lat":35.740234,"lon":139.431412},{"name":"東大和市役所高齢介護課","province":"東京都","city":"東大和市","address":"東大和市中央3-930","lat":35.745262,"lon":139.426498},{"name":"東大和市駅前","province":"東京都","city":"東大和市","address":"東京都東大和市向原6丁目1408-33","lat":35.73432834,"lon":139.43517869},{"name":"新堀","province":"東京都","city":"東大和市","address":"東京都東大和市清原3丁目1","lat":35.74144173,"lon":139.44908276},{"name":"東大和給水所","province":"東京都","city":"東大和市","address":"東京都東大和市桜が丘3丁目44","lat":35.73125354,"lon":139.42818775},{"name":"高齢者見守りぼっくすならはし","province":"東京都","city":"東大和市","address":"東大和市奈良橋4-600/奈良橋市民センター2階老人福祉センター内","lat":35.754078,"lon":139.427856},{"name":"高齢者見守りぼっくすしんぼり","province":"東京都","city":"東大和市","address":"東大和市新堀3-6-1/新堀地区会館2階","lat":35.737888,"lon":139.448288},{"name":"高齢者見守りぼっくすなんがい","province":"東京都","city":"東大和市","address":"東大和市南街2-49-3/在宅サポートセンター1階","lat":35.740234,"lon":139.431412},{"name":"高齢者ほっと支援センターいもくぼ","province":"東京都","city":"東大和市","address":"東大和市芋窪3-1611-1/在宅サービスセンター向台内","lat":35.752773,"lon":139.413635},{"name":"高齢者ほっと支援センターきよはら","province":"東京都","city":"東大和市","address":"東大和市清原1-1-34号/棟1階在宅サービスセンターきよはら内","lat":35.745159,"lon":139.447495},{"name":"高齢者ほっと支援センターなんがい","province":"東京都","city":"東大和市","address":"東大和市南街2-49-3/在宅サポートセンター1階","lat":35.740234,"lon":139.431412},{"name":"東大和市役所高齢介護課","province":"東京都","city":"東大和市","address":"東大和市中央3-930","lat":35.745262,"lon":139.426498},{"name":"東大和市駅前","province":"東京都","city":"東大和市","address":"東京都東大和市向原6丁目1408-33","lat":35.73432834,"lon":139.43517869},{"name":"新堀","province":"東京都","city":"東大和市","address":"東京都東大和市清原3丁目1","lat":35.74144173,"lon":139.44908276},{"name":"東大和給水所","province":"東京都","city":"東大和市","address":"東京都東大和市桜が丘3丁目44","lat":35.73125354,"lon":139.42818775},{"name":"高齢者見守りぼっくすならはし","province":"東京都","city":"東大和市","address":"東大和市奈良橋4-600/奈良橋市民センター2階老人福祉センター内","lat":35.754078,"lon":139.427856},{"name":"高齢者見守りぼっくすしんぼり","province":"東京都","city":"東大和市","address":"東大和市新堀3-6-1/新堀地区会館2階","lat":35.737888,"lon":139.448288},{"name":"高齢者見守りぼっくすなんがい","province":"東京都","city":"東大和市","address":"東大和市南街2-49-3/在宅サポートセンター1階","lat":35.740234,"lon":139.431412},{"name":"高齢者ほっと支援センターいもくぼ","province":"東京都","city":"東大和市","address":"東大和市芋窪3-1611-1/在宅サービスセンター向台内","lat":35.752773,"lon":139.413635},{"name":"高齢者ほっと支援センターきよはら","province":"東京都","city":"東大和市","address":"東大和市清原1-1-34号/棟1階在宅サービスセンターきよはら内","lat":35.745159,"lon":139.447495},{"name":"高齢者ほっと支援センターなんがい","province":"東京都","city":"東大和市","address":"東大和市南街2-49-3/在宅サポートセンター1階","lat":35.740234,"lon":139.431412},{"name":"東大和市役所高齢介護課","province":"東京都","city":"東大和市","address":"東大和市中央3-930","lat":35.745262,"lon":139.426498},{"name":"東大和市駅前","province":"東京都","city":"東大和市","address":"東京都東大和市向原6丁目1408-33","lat":35.73432834,"lon":139.43517869},{"name":"新堀","province":"東京都","city":"東大和市","address":"東京都東大和市清原3丁目1","lat":35.74144173,"lon":139.44908276},{"name":"東大和給水所","province":"東京都","city":"東大和市","address":"東京都東大和市桜が丘3丁目44","lat":35.73125354,"lon":139.42818775},{"name":"高齢者見守りぼっくすならはし","province":"東京都","city":"東大和市","address":"東大和市奈良橋4-600/奈良橋市民センター2階老人福祉センター内","lat":35.754078,"lon":139.427856},{"name":"高齢者見守りぼっくすしんぼり","province":"東京都","city":"東大和市","address":"東大和市新堀3-6-1/新堀地区会館2階","lat":35.737888,"lon":139.448288},{"name":"高齢者見守りぼっくすなんがい","province":"東京都","city":"東大和市","address":"東大和市南街2-49-3/在宅サポートセンター1階","lat":35.740234,"lon":139.431412},{"name":"高齢者ほっと支援センターいもくぼ","province":"東京都","city":"東大和市","address":"東大和市芋窪3-1611-1/在宅サービスセンター向台内","lat":35.752773,"lon":139.413635},{"name":"高齢者ほっと支援センターきよはら","province":"東京都","city":"東大和市","address":"東大和市清原1-1-34号/棟1階在宅サービスセンターきよはら内","lat":35.745159,"lon":139.447495},{"name":"高齢者ほっと支援センターなんがい","province":"東京都","city":"東大和市","address":"東大和市南街2-49-3/在宅サポートセンター1階","lat":35.740234,"lon":139.431412},{"name":"東大和市役所高齢介護課","province":"東京都","city":"東大和市","address":"東大和市中央3-930","lat":35.745262,"lon":139.426498},{"name":"東大和市駅前","province":"東京都","city":"東大和市","address":"東京都東大和市向原6丁目1408-33","lat":35.73432834,"lon":139.43517869},{"name":"新堀","province":"東京都","city":"東大和市","address":"東京都東大和市清原3丁目1","lat":35.74144173,"lon":139.44908276},{"name":"東大和給水所","province":"東京都","city":"東大和市","address":"東京都東大和市桜が丘3丁目44","lat":35.73125354,"lon":139.42818775},{"name":"高齢者見守りぼっくすならはし","province":"東京都","city":"東大和市","address":"東大和市奈良橋4-600/奈良橋市民センター2階老人福祉センター内","lat":35.754078,"lon":139.427856},{"name":"高齢者見守りぼっくすしんぼり","province":"東京都","city":"東大和市","address":"東大和市新堀3-6-1/新堀地区会館2階","lat":35.737888,"lon":139.448288},{"name":"高齢者見守りぼっくすなんがい","province":"東京都","city":"東大和市","address":"東大和市南街2-49-3/在宅サポートセンター1階","lat":35.740234,"lon":139.431412},{"name":"高齢者ほっと支援センターいもくぼ","province":"東京都","city":"東大和市","address":"東大和市芋窪3-1611-1/在宅サービスセンター向台内","lat":35.752773,"lon":139.413635},{"name":"高齢者ほっと支援センターきよはら","province":"東京都","city":"東大和市","address":"東大和市清原1-1-34号/棟1階在宅サービスセンターきよはら内","lat":35.745159,"lon":139.447495},{"name":"高齢者ほっと支援センターなんがい","province":"東京都","city":"東大和市","address":"東大和市南街2-49-3/在宅サポートセンター1階","lat":35.740234,"lon":139.431412},{"name":"東大和市役所高齢介護課","province":"東京都","city":"東大和市","address":"東大和市中央3-930","lat":35.745262,"lon":139.426498},{"name":"東大和市駅前","province":"東京都","city":"東大和市","address":"東京都東大和市向原6丁目1408-33","lat":35.73432834,"lon":139.43517869},{"name":"新堀","province":"東京都","city":"東大和市","address":"東京都東大和市清原3丁目1","lat":35.74144173,"lon":139.44908276},{"name":"東大和給水所","province":"東京都","city":"東大和市","address":"東京都東大和市桜が丘3丁目44","lat":35.73125354,"lon":139.42818775},{"name":"高齢者見守りぼっくすならはし","province":"東京都","city":"東大和市","address":"東大和市奈良橋4-600/奈良橋市民センター2階老人福祉センター内","lat":35.754078,"lon":139.427856},{"name":"高齢者見守りぼっくすしんぼり","province":"東京都","city":"東大和市","address":"東大和市新堀3-6-1/新堀地区会館2階","lat":35.737888,"lon":139.448288},{"name":"高齢者見守りぼっくすなんがい","province":"東京都","city":"東大和市","address":"東大和市南街2-49-3/在宅サポートセンター1階","lat":35.740234,"lon":139.431412},{"name":"高齢者ほっと支援センターいもくぼ","province":"東京都","city":"東大和市","address":"東大和市芋窪3-1611-1/在宅サービスセンター向台内","lat":35.752773,"lon":139.413635},{"name":"高齢者ほっと支援センターきよはら","province":"東京都","city":"東大和市","address":"東大和市清原1-1-34号/棟1階在宅サービスセンターきよはら内","lat":35.745159,"lon":139.447495},{"name":"高齢者ほっと支援センターなんがい","province":"東京都","city":"東大和市","address":"東大和市南街2-49-3/在宅サポートセンター1階","lat":35.740234,"lon":139.431412},{"name":"東大和市役所高齢介護課","province":"東京都","city":"東大和市","address":"東大和市中央3-930","lat":35.745262,"lon":139.426498},{"name":"東大和市駅前","province":"東京都","city":"東大和市","address":"東京都東大和市向原6丁目1408-33","lat":35.73432834,"lon":139.43517869},{"name":"新堀","province":"東京都","city":"東大和市","address":"東京都東大和市清原3丁目1","lat":35.74144173,"lon":139.44908276},{"name":"東大和給水所","province":"東京都","city":"東大和市","address":"東京都東大和市桜が丘3丁目44","lat":35.73125354,"lon":139.42818775},{"name":"高齢者見守りぼっくすならはし","province":"東京都","city":"東大和市","address":"東大和市奈良橋4-600/奈良橋市民センター2階老人福祉センター内","lat":35.754078,"lon":139.427856},{"name":"高齢者見守りぼっくすしんぼり","province":"東京都","city":"東大和市","address":"東大和市新堀3-6-1/新堀地区会館2階","lat":35.737888,"lon":139.448288},{"name":"高齢者見守りぼっくすなんがい","province":"東京都","city":"東大和市","address":"東大和市南街2-49-3/在宅サポートセンター1階","lat":35.740234,"lon":139.431412},{"name":"高齢者ほっと支援センターいもくぼ","province":"東京都","city":"東大和市","address":"東大和市芋窪3-1611-1/在宅サービスセンター向台内","lat":35.752773,"lon":139.413635},{"name":"高齢者ほっと支援センターきよはら","province":"東京都","city":"東大和市","address":"東大和市清原1-1-34号/棟1階在宅サービスセンターきよはら内","lat":35.745159,"lon":139.447495},{"name":"高齢者ほっと支援センターなんがい","province":"東京都","city":"東大和市","address":"東大和市南街2-49-3/在宅サポートセンター1階","lat":35.740234,"lon":139.431412},{"name":"東大和市役所高齢介護課","province":"東京都","city":"東大和市","address":"東大和市中央3-930","lat":35.745262,"lon":139.426498},{"name":"東大和市駅前","province":"東京都","city":"東大和市","address":"東京都東大和市向原6丁目1408-33","lat":35.73432834,"lon":139.43517869},{"name":"新堀","province":"東京都","city":"東大和市","address":"東京都東大和市清原3丁目1","lat":35.74144173,"lon":139.44908276},{"name":"東大和給水所","province":"東京都","city":"東大和市","address":"東京都東大和市桜が丘3丁目44","lat":35.73125354,"lon":139.42818775},{"name":"高齢者見守りぼっくすならはし","province":"東京都","city":"東大和市","address":"東大和市奈良橋4-600/奈良橋市民センター2階老人福祉センター内","lat":35.754078,"lon":139.427856},{"name":"高齢者見守りぼっくすしんぼり","province":"東京都","city":"東大和市","address":"東大和市新堀3-6-1/新堀地区会館2階","lat":35.737888,"lon":139.448288},{"name":"高齢者見守りぼっくすなんがい","province":"東京都","city":"東大和市","address":"東大和市南街2-49-3/在宅サポートセンター1階","lat":35.740234,"lon":139.431412},{"name":"高齢者ほっと支援センターいもくぼ","province":"東京都","city":"東大和市","address":"東大和市芋窪3-1611-1/在宅サービスセンター向台内","lat":35.752773,"lon":139.413635},{"name":"高齢者ほっと支援センターきよはら","province":"東京都","city":"東大和市","address":"東大和市清原1-1-34号/棟1階在宅サービスセンターきよはら内","lat":35.745159,"lon":139.447495},{"name":"高齢者ほっと支援センターなんがい","province":"東京都","city":"東大和市","address":"東大和市南街2-49-3/在宅サポートセンター1階","lat":35.740234,"lon":139.431412},{"name":"東大和市役所高齢介護課","province":"東京都","city":"東大和市","address":"東大和市中央3-930","lat":35.745262,"lon":139.426498},{"name":"東大和市駅前","province":"東京都","city":"東大和市","address":"東京都東大和市向原6丁目1408-33","lat":35.73432834,"lon":139.43517869},{"name":"新堀","province":"東京都","city":"東大和市","address":"東京都東大和市清原3丁目1","lat":35.74144173,"lon":139.44908276},{"name":"東大和給水所","province":"東京都","city":"東大和市","address":"東京都東大和市桜が丘3丁目44","lat":35.73125354,"lon":139.42818775},{"name":"高齢者見守りぼっくすならはし","province":"東京都","city":"東大和市","address":"東大和市奈良橋4-600/奈良橋市民センター2階老人福祉センター内","lat":35.754078,"lon":139.427856},{"name":"高齢者見守りぼっくすしんぼり","province":"東京都","city":"東大和市","address":"東大和市新堀3-6-1/新堀地区会館2階","lat":35.737888,"lon":139.448288},{"name":"高齢者見守りぼっくすなんがい","province":"東京都","city":"東大和市","address":"東大和市南街2-49-3/在宅サポートセンター1階","lat":35.740234,"lon":139.431412},{"name":"高齢者ほっと支援センターいもくぼ","province":"東京都","city":"東大和市","address":"東大和市芋窪3-1611-1/在宅サービスセンター向台内","lat":35.752773,"lon":139.413635},{"name":"高齢者ほっと支援センターきよはら","province":"東京都","city":"東大和市","address":"東大和市清原1-1-34号/棟1階在宅サービスセンターきよはら内","lat":35.745159,"lon":139.447495},{"name":"高齢者ほっと支援センターなんがい","province":"東京都","city":"東大和市","address":"東大和市南街2-49-3/在宅サポートセンター1階","lat":35.740234,"lon":139.431412},{"name":"東大和市役所高齢介護課","province":"東京都","city":"東大和市","address":"東大和市中央3-930","lat":35.745262,"lon":139.426498},{"name":"東大和市駅前","province":"東京都","city":"東大和市","address":"東京都東大和市向原6丁目1408-33","lat":35.73432834,"lon":139.43517869},{"name":"新堀","province":"東京都","city":"東大和市","address":"東京都東大和市清原3丁目1","lat":35.74144173,"lon":139.44908276},{"name":"東大和給水所","province":"東京都","city":"東大和市","address":"東京都東大和市桜が丘3丁目44","lat":35.73125354,"lon":139.42818775},{"name":"高齢者見守りぼっくすならはし","province":"東京都","city":"東大和市","address":"東大和市奈良橋4-600/奈良橋市民センター2階老人福祉センター内","lat":35.754078,"lon":139.427856},{"name":"高齢者見守りぼっくすしんぼり","province":"東京都","city":"東大和市","address":"東大和市新堀3-6-1/新堀地区会館2階","lat":35.737888,"lon":139.448288},{"name":"高齢者見守りぼっくすなんがい","province":"東京都","city":"東大和市","address":"東大和市南街2-49-3/在宅サポートセンター1階","lat":35.740234,"lon":139.431412},{"name":"高齢者ほっと支援センターいもくぼ","province":"東京都","city":"東大和市","address":"東大和市芋窪3-1611-1/在宅サービスセンター向台内","lat":35.752773,"lon":139.413635},{"name":"高齢者ほっと支援センターきよはら","province":"東京都","city":"東大和市","address":"東大和市清原1-1-34号/棟1階在宅サービスセンターきよはら内","lat":35.745159,"lon":139.447495},{"name":"高齢者ほっと支援センターなんがい","province":"東京都","city":"東大和市","address":"東大和市南街2-49-3/在宅サポートセンター1階","lat":35.740234,"lon":139.431412},{"name":"東大和市役所高齢介護課","province":"東京都","city":"東大和市","address":"東大和市中央3-930","lat":35.745262,"lon":139.426498},{"name":"東大和市駅前","province":"東京都","city":"東大和市","address":"東京都東大和市向原6丁目1408-33","lat":35.73432834,"lon":139.43517869},{"name":"新堀","province":"東京都","city":"東大和市","address":"東京都東大和市清原3丁目1","lat":35.74144173,"lon":139.44908276},{"name":"東大和給水所","province":"東京都","city":"東大和市","address":"東京都東大和市桜が丘3丁目44","lat":35.73125354,"lon":139.42818775},{"name":"高齢者見守りぼっくすならはし","province":"東京都","city":"東大和市","address":"東大和市奈良橋4-600/奈良橋市民センター2階老人福祉センター内","lat":35.754078,"lon":139.427856},{"name":"高齢者見守りぼっくすしんぼり","province":"東京都","city":"東大和市","address":"東大和市新堀3-6-1/新堀地区会館2階","lat":35.737888,"lon":139.448288},{"name":"高齢者見守りぼっくすなんがい","province":"東京都","city":"東大和市","address":"東大和市南街2-49-3/在宅サポートセンター1階","lat":35.740234,"lon":139.431412},{"name":"高齢者ほっと支援センターいもくぼ","province":"東京都","city":"東大和市","address":"東大和市芋窪3-1611-1/在宅サービスセンター向台内","lat":35.752773,"lon":139.413635},{"name":"高齢者ほっと支援センターきよはら","province":"東京都","city":"東大和市","address":"東大和市清原1-1-34号/棟1階在宅サービスセンターきよはら内","lat":35.745159,"lon":139.447495},{"name":"高齢者ほっと支援センターなんがい","province":"東京都","city":"東大和市","address":"東大和市南街2-49-3/在宅サポートセンター1階","lat":35.740234,"lon":139.431412},{"name":"東大和市役所高齢介護課","province":"東京都","city":"東大和市","address":"東大和市中央3-930","lat":35.745262,"lon":139.426498},{"name":"東大和市駅前","province":"東京都","city":"東大和市","address":"東京都東大和市向原6丁目1408-33","lat":35.73432834,"lon":139.43517869},{"name":"新堀","province":"東京都","city":"東大和市","address":"東京都東大和市清原3丁目1","lat":35.74144173,"lon":139.44908276},{"name":"東大和給水所","province":"東京都","city":"東大和市","address":"東京都東大和市桜が丘3丁目44","lat":35.73125354,"lon":139.42818775},{"name":"高齢者見守りぼっくすならはし","province":"東京都","city":"東大和市","address":"東大和市奈良橋4-600/奈良橋市民センター2階老人福祉センター内","lat":35.754078,"lon":139.427856},{"name":"高齢者見守りぼっくすしんぼり","province":"東京都","city":"東大和市","address":"東大和市新堀3-6-1/新堀地区会館2階","lat":35.737888,"lon":139.448288},{"name":"高齢者見守りぼっくすなんがい","province":"東京都","city":"東大和市","address":"東大和市南街2-49-3/在宅サポートセンター1階","lat":35.740234,"lon":139.431412},{"name":"高齢者ほっと支援センターいもくぼ","province":"東京都","city":"東大和市","address":"東大和市芋窪3-1611-1/在宅サービスセンター向台内","lat":35.752773,"lon":139.413635},{"name":"高齢者ほっと支援センターきよはら","province":"東京都","city":"東大和市","address":"東大和市清原1-1-34号/棟1階在宅サービスセンターきよはら内","lat":35.745159,"lon":139.447495},{"name":"高齢者ほっと支援センターなんがい","province":"東京都","city":"東大和市","address":"東大和市南街2-49-3/在宅サポートセンター1階","lat":35.740234,"lon":139.431412},{"name":"東大和市役所高齢介護課","province":"東京都","city":"東大和市","address":"東大和市中央3-930","lat":35.745262,"lon":139.426498},{"name":"東大和市駅前","province":"東京都","city":"東大和市","address":"東京都東大和市向原6丁目1408-33","lat":35.73432834,"lon":139.43517869},{"name":"新堀","province":"東京都","city":"東大和市","address":"東京都東大和市清原3丁目1","lat":35.74144173,"lon":139.44908276},{"name":"東大和給水所","province":"東京都","city":"東大和市","address":"東京都東大和市桜が丘3丁目44","lat":35.73125354,"lon":139.42818775},{"name":"高齢者見守りぼっくすならはし","province":"東京都","city":"東大和市","address":"東大和市奈良橋4-600/奈良橋市民センター2階老人福祉センター内","lat":35.754078,"lon":139.427856},{"name":"高齢者見守りぼっくすしんぼり","province":"東京都","city":"東大和市","address":"東大和市新堀3-6-1/新堀地区会館2階","lat":35.737888,"lon":139.448288},{"name":"高齢者見守りぼっくすなんがい","province":"東京都","city":"東大和市","address":"東大和市南街2-49-3/在宅サポートセンター1階","lat":35.740234,"lon":139.431412},{"name":"高齢者ほっと支援センターいもくぼ","province":"東京都","city":"東大和市","address":"東大和市芋窪3-1611-1/在宅サービスセンター向台内","lat":35.752773,"lon":139.413635},{"name":"高齢者ほっと支援センターきよはら","province":"東京都","city":"東大和市","address":"東大和市清原1-1-34号/棟1階在宅サービスセンターきよはら内","lat":35.745159,"lon":139.447495},{"name":"高齢者ほっと支援センターなんがい","province":"東京都","city":"東大和市","address":"東大和市南街2-49-3/在宅サポートセンター1階","lat":35.740234,"lon":139.431412},{"name":"東大和市役所高齢介護課","province":"東京都","city":"東大和市","address":"東大和市中央3-930","lat":35.745262,"lon":139.426498},{"name":"東大和市駅前","province":"東京都","city":"東大和市","address":"東京都東大和市向原6丁目1408-33","lat":35.73432834,"lon":139.43517869},{"name":"新堀","province":"東京都","city":"東大和市","address":"東京都東大和市清原3丁目1","lat":35.74144173,"lon":139.44908276},{"name":"東大和給水所","province":"東京都","city":"東大和市","address":"東京都東大和市桜が丘3丁目44","lat":35.73125354,"lon":139.42818775},{"name":"高齢者見守りぼっくすならはし","province":"東京都","city":"東大和市","address":"東大和市奈良橋4-600/奈良橋市民センター2階老人福祉センター内","lat":35.754078,"lon":139.427856},{"name":"高齢者見守りぼっくすしんぼり","province":"東京都","city":"東大和市","address":"東大和市新堀3-6-1/新堀地区会館2階","lat":35.737888,"lon":139.448288},{"name":"高齢者見守りぼっくすなんがい","province":"東京都","city":"東大和市","address":"東大和市南街2-49-3/在宅サポートセンター1階","lat":35.740234,"lon":139.431412},{"name":"高齢者ほっと支援センターいもくぼ","province":"東京都","city":"東大和市","address":"東大和市芋窪3-1611-1/在宅サービスセンター向台内","lat":35.752773,"lon":139.413635},{"name":"高齢者ほっと支援センターきよはら","province":"東京都","city":"東大和市","address":"東大和市清原1-1-34号/棟1階在宅サービスセンターきよはら内","lat":35.745159,"lon":139.447495},{"name":"高齢者ほっと支援センターなんがい","province":"東京都","city":"東大和市","address":"東大和市南街2-49-3/在宅サポートセンター1階","lat":35.740234,"lon":139.431412},{"name":"東大和市役所高齢介護課","province":"東京都","city":"東大和市","address":"東大和市中央3-930","lat":35.745262,"lon":139.426498},{"name":"東大和市駅前","province":"東京都","city":"東大和市","address":"東京都東大和市向原6丁目1408-33","lat":35.73432834,"lon":139.43517869},{"name":"新堀","province":"東京都","city":"東大和市","address":"東京都東大和市清原3丁目1","lat":35.74144173,"lon":139.44908276},{"name":"東大和給水所","province":"東京都","city":"東大和市","address":"東京都東大和市桜が丘3丁目44","lat":35.73125354,"lon":139.42818775},{"name":"高齢者見守りぼっくすならはし","province":"東京都","city":"東大和市","address":"東大和市奈良橋4-600/奈良橋市民センター2階老人福祉センター内","lat":35.754078,"lon":139.427856},{"name":"高齢者見守りぼっくすしんぼり","province":"東京都","city":"東大和市","address":"東大和市新堀3-6-1/新堀地区会館2階","lat":35.737888,"lon":139.448288},{"name":"高齢者見守りぼっくすなんがい","province":"東京都","city":"東大和市","address":"東大和市南街2-49-3/在宅サポートセンター1階","lat":35.740234,"lon":139.431412},{"name":"高齢者ほっと支援センターいもくぼ","province":"東京都","city":"東大和市","address":"東大和市芋窪3-1611-1/在宅サービスセンター向台内","lat":35.752773,"lon":139.413635},{"name":"高齢者ほっと支援センターきよはら","province":"東京都","city":"東大和市","address":"東大和市清原1-1-34号/棟1階在宅サービスセンターきよはら内","lat":35.745159,"lon":139.447495},{"name":"高齢者ほっと支援センターなんがい","province":"東京都","city":"東大和市","address":"東大和市南街2-49-3/在宅サポートセンター1階","lat":35.740234,"lon":139.431412},{"name":"東大和市役所高齢介護課","province":"東京都","city":"東大和市","address":"東大和市中央3-930","lat":35.745262,"lon":139.426498},{"name":"東大和市駅前","province":"東京都","city":"東大和市","address":"東京都東大和市向原6丁目1408-33","lat":35.73432834,"lon":139.43517869},{"name":"新堀","province":"東京都","city":"東大和市","address":"東京都東大和市清原3丁目1","lat":35.74144173,"lon":139.44908276},{"name":"東大和給水所","province":"東京都","city":"東大和市","address":"東京都東大和市桜が丘3丁目44","lat":35.73125354,"lon":139.42818775},{"name":"高齢者見守りぼっくすならはし","province":"東京都","city":"東大和市","address":"東大和市奈良橋4-600/奈良橋市民センター2階老人福祉センター内","lat":35.754078,"lon":139.427856},{"name":"高齢者見守りぼっくすしんぼり","province":"東京都","city":"東大和市","address":"東大和市新堀3-6-1/新堀地区会館2階","lat":35.737888,"lon":139.448288},{"name":"高齢者見守りぼっくすなんがい","province":"東京都","city":"東大和市","address":"東大和市南街2-49-3/在宅サポートセンター1階","lat":35.740234,"lon":139.431412},{"name":"高齢者ほっと支援センターいもくぼ","province":"東京都","city":"東大和市","address":"東大和市芋窪3-1611-1/在宅サービスセンター向台内","lat":35.752773,"lon":139.413635},{"name":"高齢者ほっと支援センターきよはら","province":"東京都","city":"東大和市","address":"東大和市清原1-1-34号/棟1階在宅サービスセンターきよはら内","lat":35.745159,"lon":139.447495},{"name":"高齢者ほっと支援センターなんがい","province":"東京都","city":"東大和市","address":"東大和市南街2-49-3/在宅サポートセンター1階","lat":35.740234,"lon":139.431412},{"name":"東大和市役所高齢介護課","province":"東京都","city":"東大和市","address":"東大和市中央3-930","lat":35.745262,"lon":139.426498},{"name":"東大和市駅前","province":"東京都","city":"東大和市","address":"東京都東大和市向原6丁目1408-33","lat":35.73432834,"lon":139.43517869},{"name":"新堀","province":"東京都","city":"東大和市","address":"東京都東大和市清原3丁目1","lat":35.74144173,"lon":139.44908276},{"name":"東大和給水所","province":"東京都","city":"東大和市","address":"東京都東大和市桜が丘3丁目44","lat":35.73125354,"lon":139.42818775},{"name":"高齢者見守りぼっくすならはし","province":"東京都","city":"東大和市","address":"東大和市奈良橋4-600/奈良橋市民センター2階老人福祉センター内","lat":35.754078,"lon":139.427856},{"name":"高齢者見守りぼっくすしんぼり","province":"東京都","city":"東大和市","address":"東大和市新堀3-6-1/新堀地区会館2階","lat":35.737888,"lon":139.448288},{"name":"高齢者見守りぼっくすなんがい","province":"東京都","city":"東大和市","address":"東大和市南街2-49-3/在宅サポートセンター1階","lat":35.740234,"lon":139.431412},{"name":"高齢者ほっと支援センターいもくぼ","province":"東京都","city":"東大和市","address":"東大和市芋窪3-1611-1/在宅サービスセンター向台内","lat":35.752773,"lon":139.413635},{"name":"高齢者ほっと支援センターきよはら","province":"東京都","city":"東大和市","address":"東大和市清原1-1-34号/棟1階在宅サービスセンターきよはら内","lat":35.745159,"lon":139.447495},{"name":"高齢者ほっと支援センターなんがい","province":"東京都","city":"東大和市","address":"東大和市南街2-49-3/在宅サポートセンター1階","lat":35.740234,"lon":139.431412},{"name":"東大和市役所高齢介護課","province":"東京都","city":"東大和市","address":"東大和市中央3-930","lat":35.745262,"lon":139.426498},{"name":"東大和市駅前","province":"東京都","city":"東大和市","address":"東京都東大和市向原6丁目1408-33","lat":35.73432834,"lon":139.43517869},{"name":"新堀","province":"東京都","city":"東大和市","address":"東京都東大和市清原3丁目1","lat":35.74144173,"lon":139.44908276},{"name":"東大和給水所","province":"東京都","city":"東大和市","address":"東京都東大和市桜が丘3丁目44","lat":35.73125354,"lon":139.42818775},{"name":"高齢者見守りぼっくすならはし","province":"東京都","city":"東大和市","address":"東大和市奈良橋4-600/奈良橋市民センター2階老人福祉センター内","lat":35.754078,"lon":139.427856},{"name":"高齢者見守りぼっくすしんぼり","province":"東京都","city":"東大和市","address":"東大和市新堀3-6-1/新堀地区会館2階","lat":35.737888,"lon":139.448288},{"name":"高齢者見守りぼっくすなんがい","province":"東京都","city":"東大和市","address":"東大和市南街2-49-3/在宅サポートセンター1階","lat":35.740234,"lon":139.431412},{"name":"高齢者ほっと支援センターいもくぼ","province":"東京都","city":"東大和市","address":"東大和市芋窪3-1611-1/在宅サービスセンター向台内","lat":35.752773,"lon":139.413635},{"name":"高齢者ほっと支援センターきよはら","province":"東京都","city":"東大和市","address":"東大和市清原1-1-34号/棟1階在宅サービスセンターきよはら内","lat":35.745159,"lon":139.447495},{"name":"高齢者ほっと支援センターなんがい","province":"東京都","city":"東大和市","address":"東大和市南街2-49-3/在宅サポートセンター1階","lat":35.740234,"lon":139.431412},{"name":"東大和市役所高齢介護課","province":"東京都","city":"東大和市","address":"東大和市中央3-930","lat":35.745262,"lon":139.426498},{"name":"東大和市駅前","province":"東京都","city":"東大和市","address":"東京都東大和市向原6丁目1408-33","lat":35.73432834,"lon":139.43517869},{"name":"新堀","province":"東京都","city":"東大和市","address":"東京都東大和市清原3丁目1","lat":35.74144173,"lon":139.44908276},{"name":"東大和給水所","province":"東京都","city":"東大和市","address":"東京都東大和市桜が丘3丁目44","lat":35.73125354,"lon":139.42818775},{"name":"高齢者見守りぼっくすならはし","province":"東京都","city":"東大和市","address":"東大和市奈良橋4-600/奈良橋市民センター2階老人福祉センター内","lat":35.754078,"lon":139.427856},{"name":"高齢者見守りぼっくすしんぼり","province":"東京都","city":"東大和市","address":"東大和市新堀3-6-1/新堀地区会館2階","lat":35.737888,"lon":139.448288},{"name":"高齢者見守りぼっくすなんがい","province":"東京都","city":"東大和市","address":"東大和市南街2-49-3/在宅サポートセンター1階","lat":35.740234,"lon":139.431412},{"name":"高齢者ほっと支援センターいもくぼ","province":"東京都","city":"東大和市","address":"東大和市芋窪3-1611-1/在宅サービスセンター向台内","lat":35.752773,"lon":139.413635},{"name":"高齢者ほっと支援センターきよはら","province":"東京都","city":"東大和市","address":"東大和市清原1-1-34号/棟1階在宅サービスセンターきよはら内","lat":35.745159,"lon":139.447495},{"name":"高齢者ほっと支援センターなんがい","province":"東京都","city":"東大和市","address":"東大和市南街2-49-3/在宅サポートセンター1階","lat":35.740234,"lon":139.431412},{"name":"東大和市役所高齢介護課","province":"東京都","city":"東大和市","address":"東大和市中央3-930","lat":35.745262,"lon":139.426498},{"name":"東大和市駅前","province":"東京都","city":"東大和市","address":"東京都東大和市向原6丁目1408-33","lat":35.73432834,"lon":139.43517869},{"name":"新堀","province":"東京都","city":"東大和市","address":"東京都東大和市清原3丁目1","lat":35.74144173,"lon":139.44908276},{"name":"東大和給水所","province":"東京都","city":"東大和市","address":"東京都東大和市桜が丘3丁目44","lat":35.73125354,"lon":139.42818775},{"name":"高齢者見守りぼっくすならはし","province":"東京都","city":"東大和市","address":"東大和市奈良橋4-600/奈良橋市民センター2階老人福祉センター内","lat":35.754078,"lon":139.427856},{"name":"高齢者見守りぼっくすしんぼり","province":"東京都","city":"東大和市","address":"東大和市新堀3-6-1/新堀地区会館2階","lat":35.737888,"lon":139.448288},{"name":"高齢者見守りぼっくすなんがい","province":"東京都","city":"東大和市","address":"東大和市南街2-49-3/在宅サポートセンター1階","lat":35.740234,"lon":139.431412},{"name":"高齢者ほっと支援センターいもくぼ","province":"東京都","city":"東大和市","address":"東大和市芋窪3-1611-1/在宅サービスセンター向台内","lat":35.752773,"lon":139.413635},{"name":"高齢者ほっと支援センターきよはら","province":"東京都","city":"東大和市","address":"東大和市清原1-1-34号/棟1階在宅サービスセンターきよはら内","lat":35.745159,"lon":139.447495},{"name":"高齢者ほっと支援センターなんがい","province":"東京都","city":"東大和市","address":"東大和市南街2-49-3/在宅サポートセンター1階","lat":35.740234,"lon":139.431412},{"name":"東大和市役所高齢介護課","province":"東京都","city":"東大和市","address":"東大和市中央3-930","lat":35.745262,"lon":139.426498},{"name":"高齢者見守りぼっくすならはし","province":"東京都","city":"東大和市","address":"東大和市奈良橋4-600/奈良橋市民センター2階老人福祉センター内","lat":35.754078,"lon":139.427856},{"name":"高齢者見守りぼっくすしんぼり","province":"東京都","city":"東大和市","address":"東大和市新堀3-6-1/新堀地区会館2階","lat":35.737888,"lon":139.448288},{"name":"高齢者見守りぼっくすなんがい","province":"東京都","city":"東大和市","address":"東大和市南街2-49-3/在宅サポートセンター1階","lat":35.740234,"lon":139.431412},{"name":"高齢者ほっと支援センターいもくぼ","province":"東京都","city":"東大和市","address":"東大和市芋窪3-1611-1/在宅サービスセンター向台内","lat":35.752773,"lon":139.413635},{"name":"高齢者ほっと支援センターきよはら","province":"東京都","city":"東大和市","address":"東大和市清原1-1-34号/棟1階在宅サービスセンターきよはら内","lat":35.745159,"lon":139.447495},{"name":"高齢者ほっと支援センターなんがい","province":"東京都","city":"東大和市","address":"東大和市南街2-49-3/在宅サポートセンター1階","lat":35.740234,"lon":139.431412},{"name":"東大和市役所高齢介護課","province":"東京都","city":"東大和市","address":"東大和市中央3-930","lat":35.745262,"lon":139.426498},{"name":"高齢者見守りぼっくすならはし","province":"東京都","city":"東大和市","address":"東大和市奈良橋4-600/奈良橋市民センター2階老人福祉センター内","lat":35.754078,"lon":139.427856},{"name":"高齢者見守りぼっくすしんぼり","province":"東京都","city":"東大和市","address":"東大和市新堀3-6-1/新堀地区会館2階","lat":35.737888,"lon":139.448288},{"name":"高齢者見守りぼっくすなんがい","province":"東京都","city":"東大和市","address":"東大和市南街2-49-3/在宅サポートセンター1階","lat":35.740234,"lon":139.431412},{"name":"高齢者ほっと支援センターいもくぼ","province":"東京都","city":"東大和市","address":"東大和市芋窪3-1611-1/在宅サービスセンター向台内","lat":35.752773,"lon":139.413635},{"name":"高齢者ほっと支援センターきよはら","province":"東京都","city":"東大和市","address":"東大和市清原1-1-34号/棟1階在宅サービスセンターきよはら内","lat":35.745159,"lon":139.447495},{"name":"高齢者ほっと支援センターなんがい","province":"東京都","city":"東大和市","address":"東大和市南街2-49-3/在宅サポートセンター1階","lat":35.740234,"lon":139.431412},{"name":"東大和市役所高齢介護課","province":"東京都","city":"東大和市","address":"東大和市中央3-930","lat":35.745262,"lon":139.426498},{"name":"高齢者見守りぼっくすならはし","province":"東京都","city":"東大和市","address":"東大和市奈良橋4-600/奈良橋市民センター2階老人福祉センター内","lat":35.754078,"lon":139.427856},{"name":"高齢者見守りぼっくすしんぼり","province":"東京都","city":"東大和市","address":"東大和市新堀3-6-1/新堀地区会館2階","lat":35.737888,"lon":139.448288},{"name":"高齢者見守りぼっくすなんがい","province":"東京都","city":"東大和市","address":"東大和市南街2-49-3/在宅サポートセンター1階","lat":35.740234,"lon":139.431412},{"name":"高齢者ほっと支援センターいもくぼ","province":"東京都","city":"東大和市","address":"東大和市芋窪3-1611-1/在宅サービスセンター向台内","lat":35.752773,"lon":139.413635},{"name":"高齢者ほっと支援センターきよはら","province":"東京都","city":"東大和市","address":"東大和市清原1-1-34号/棟1階在宅サービスセンターきよはら内","lat":35.745159,"lon":139.447495},{"name":"高齢者ほっと支援センターなんがい","province":"東京都","city":"東大和市","address":"東大和市南街2-49-3/在宅サポートセンター1階","lat":35.740234,"lon":139.431412},{"name":"東大和市役所高齢介護課","province":"東京都","city":"東大和市","address":"東大和市中央3-930","lat":35.745262,"lon":139.426498},{"name":"高齢者見守りぼっくすならはし","province":"東京都","city":"東大和市","address":"東大和市奈良橋4-600/奈良橋市民センター2階老人福祉センター内","lat":35.754078,"lon":139.427856},{"name":"高齢者見守りぼっくすしんぼり","province":"東京都","city":"東大和市","address":"東大和市新堀3-6-1/新堀地区会館2階","lat":35.737888,"lon":139.448288},{"name":"高齢者見守りぼっくすなんがい","province":"東京都","city":"東大和市","address":"東大和市南街2-49-3/在宅サポートセンター1階","lat":35.740234,"lon":139.431412},{"name":"高齢者ほっと支援センターいもくぼ","province":"東京都","city":"東大和市","address":"東大和市芋窪3-1611-1/在宅サービスセンター向台内","lat":35.752773,"lon":139.413635},{"name":"高齢者ほっと支援センターきよはら","province":"東京都","city":"東大和市","address":"東大和市清原1-1-34号/棟1階在宅サービスセンターきよはら内","lat":35.745159,"lon":139.447495},{"name":"高齢者ほっと支援センターなんがい","province":"東京都","city":"東大和市","address":"東大和市南街2-49-3/在宅サポートセンター1階","lat":35.740234,"lon":139.431412},{"name":"東大和市役所高齢介護課","province":"東京都","city":"東大和市","address":"東大和市中央3-930","lat":35.745262,"lon":139.426498},{"name":"高齢者見守りぼっくすならはし","province":"東京都","city":"東大和市","address":"東大和市奈良橋4-600/奈良橋市民センター2階老人福祉センター内","lat":35.754078,"lon":139.427856},{"name":"高齢者見守りぼっくすしんぼり","province":"東京都","city":"東大和市","address":"東大和市新堀3-6-1/新堀地区会館2階","lat":35.737888,"lon":139.448288},{"name":"高齢者見守りぼっくすなんがい","province":"東京都","city":"東大和市","address":"東大和市南街2-49-3/在宅サポートセンター1階","lat":35.740234,"lon":139.431412},{"name":"高齢者ほっと支援センターいもくぼ","province":"東京都","city":"東大和市","address":"東大和市芋窪3-1611-1/在宅サービスセンター向台内","lat":35.752773,"lon":139.413635},{"name":"高齢者ほっと支援センターきよはら","province":"東京都","city":"東大和市","address":"東大和市清原1-1-34号/棟1階在宅サービスセンターきよはら内","lat":35.745159,"lon":139.447495},{"name":"高齢者ほっと支援センターなんがい","province":"東京都","city":"東大和市","address":"東大和市南街2-49-3/在宅サポートセンター1階","lat":35.740234,"lon":139.431412},{"name":"東大和市役所高齢介護課","province":"東京都","city":"東大和市","address":"東大和市中央3-930","lat":35.745262,"lon":139.426498},{"name":"高齢者見守りぼっくすならはし","province":"東京都","city":"東大和市","address":"東大和市奈良橋4-600/奈良橋市民センター2階老人福祉センター内","lat":35.754078,"lon":139.427856},{"name":"高齢者見守りぼっくすしんぼり","province":"東京都","city":"東大和市","address":"東大和市新堀3-6-1/新堀地区会館2階","lat":35.737888,"lon":139.448288},{"name":"高齢者見守りぼっくすなんがい","province":"東京都","city":"東大和市","address":"東大和市南街2-49-3/在宅サポートセンター1階","lat":35.740234,"lon":139.431412},{"name":"高齢者ほっと支援センターいもくぼ","province":"東京都","city":"東大和市","address":"東大和市芋窪3-1611-1/在宅サービスセンター向台内","lat":35.752773,"lon":139.413635},{"name":"高齢者ほっと支援センターきよはら","province":"東京都","city":"東大和市","address":"東大和市清原1-1-34号/棟1階在宅サービスセンターきよはら内","lat":35.745159,"lon":139.447495},{"name":"高齢者ほっと支援センターなんがい","province":"東京都","city":"東大和市","address":"東大和市南街2-49-3/在宅サポートセンター1階","lat":35.740234,"lon":139.431412},{"name":"東大和市役所高齢介護課","province":"東京都","city":"東大和市","address":"東大和市中央3-930","lat":35.745262,"lon":139.426498},{"name":"高齢者見守りぼっくすならはし","province":"東京都","city":"東大和市","address":"東大和市奈良橋4-600/奈良橋市民センター2階老人福祉センター内","lat":35.754078,"lon":139.427856},{"name":"高齢者見守りぼっくすしんぼり","province":"東京都","city":"東大和市","address":"東大和市新堀3-6-1/新堀地区会館2階","lat":35.737888,"lon":139.448288},{"name":"高齢者見守りぼっくすなんがい","province":"東京都","city":"東大和市","address":"東大和市南街2-49-3/在宅サポートセンター1階","lat":35.740234,"lon":139.431412},{"name":"高齢者ほっと支援センターいもくぼ","province":"東京都","city":"東大和市","address":"東大和市芋窪3-1611-1/在宅サービスセンター向台内","lat":35.752773,"lon":139.413635},{"name":"高齢者ほっと支援センターきよはら","province":"東京都","city":"東大和市","address":"東大和市清原1-1-34号/棟1階在宅サービスセンターきよはら内","lat":35.745159,"lon":139.447495},{"name":"高齢者ほっと支援センターなんがい","province":"東京都","city":"東大和市","address":"東大和市南街2-49-3/在宅サポートセンター1階","lat":35.740234,"lon":139.431412},{"name":"東大和市役所高齢介護課","province":"東京都","city":"東大和市","address":"東大和市中央3-930","lat":35.745262,"lon":139.426498},{"name":"高齢者見守りぼっくすならはし","province":"東京都","city":"東大和市","address":"東大和市奈良橋4-600/奈良橋市民センター2階老人福祉センター内","lat":35.754078,"lon":139.427856},{"name":"高齢者見守りぼっくすしんぼり","province":"東京都","city":"東大和市","address":"東大和市新堀3-6-1/新堀地区会館2階","lat":35.737888,"lon":139.448288},{"name":"高齢者見守りぼっくすなんがい","province":"東京都","city":"東大和市","address":"東大和市南街2-49-3/在宅サポートセンター1階","lat":35.740234,"lon":139.431412},{"name":"高齢者ほっと支援センターいもくぼ","province":"東京都","city":"東大和市","address":"東大和市芋窪3-1611-1/在宅サービスセンター向台内","lat":35.752773,"lon":139.413635},{"name":"高齢者ほっと支援センターきよはら","province":"東京都","city":"東大和市","address":"東大和市清原1-1-34号/棟1階在宅サービスセンターきよはら内","lat":35.745159,"lon":139.447495},{"name":"高齢者ほっと支援センターなんがい","province":"東京都","city":"東大和市","address":"東大和市南街2-49-3/在宅サポートセンター1階","lat":35.740234,"lon":139.431412},{"name":"東大和市役所高齢介護課","province":"東京都","city":"東大和市","address":"東大和市中央3-930","lat":35.745262,"lon":139.426498},{"name":"高齢者見守りぼっくすならはし","province":"東京都","city":"東大和市","address":"東大和市奈良橋4-600/奈良橋市民センター2階老人福祉センター内","lat":35.754078,"lon":139.427856},{"name":"高齢者見守りぼっくすしんぼり","province":"東京都","city":"東大和市","address":"東大和市新堀3-6-1/新堀地区会館2階","lat":35.737888,"lon":139.448288},{"name":"高齢者見守りぼっくすなんがい","province":"東京都","city":"東大和市","address":"東大和市南街2-49-3/在宅サポートセンター1階","lat":35.740234,"lon":139.431412},{"name":"高齢者ほっと支援センターいもくぼ","province":"東京都","city":"東大和市","address":"東大和市芋窪3-1611-1/在宅サービスセンター向台内","lat":35.752773,"lon":139.413635},{"name":"高齢者ほっと支援センターきよはら","province":"東京都","city":"東大和市","address":"東大和市清原1-1-34号/棟1階在宅サービスセンターきよはら内","lat":35.745159,"lon":139.447495},{"name":"高齢者ほっと支援センターなんがい","province":"東京都","city":"東大和市","address":"東大和市南街2-49-3/在宅サポートセンター1階","lat":35.740234,"lon":139.431412},{"name":"東大和市役所高齢介護課","province":"東京都","city":"東大和市","address":"東大和市中央3-930","lat":35.745262,"lon":139.426498},{"name":"高齢者見守りぼっくすならはし","province":"東京都","city":"東大和市","address":"東大和市奈良橋4-600/奈良橋市民センター2階老人福祉センター内","lat":35.754078,"lon":139.427856},{"name":"高齢者見守りぼっくすしんぼり","province":"東京都","city":"東大和市","address":"東大和市新堀3-6-1/新堀地区会館2階","lat":35.737888,"lon":139.448288},{"name":"高齢者見守りぼっくすなんがい","province":"東京都","city":"東大和市","address":"東大和市南街2-49-3/在宅サポートセンター1階","lat":35.740234,"lon":139.431412},{"name":"高齢者ほっと支援センターいもくぼ","province":"東京都","city":"東大和市","address":"東大和市芋窪3-1611-1/在宅サービスセンター向台内","lat":35.752773,"lon":139.413635},{"name":"高齢者ほっと支援センターきよはら","province":"東京都","city":"東大和市","address":"東大和市清原1-1-34号/棟1階在宅サービスセンターきよはら内","lat":35.745159,"lon":139.447495},{"name":"高齢者ほっと支援センターなんがい","province":"東京都","city":"東大和市","address":"東大和市南街2-49-3/在宅サポートセンター1階","lat":35.740234,"lon":139.431412},{"name":"東大和市役所高齢介護課","province":"東京都","city":"東大和市","address":"東大和市中央3-930","lat":35.745262,"lon":139.426498},{"name":"高齢者見守りぼっくすならはし","province":"東京都","city":"東大和市","address":"東大和市奈良橋4-600/奈良橋市民センター2階老人福祉センター内","lat":35.754078,"lon":139.427856},{"name":"高齢者見守りぼっくすしんぼり","province":"東京都","city":"東大和市","address":"東大和市新堀3-6-1/新堀地区会館2階","lat":35.737888,"lon":139.448288},{"name":"高齢者見守りぼっくすなんがい","province":"東京都","city":"東大和市","address":"東大和市南街2-49-3/在宅サポートセンター1階","lat":35.740234,"lon":139.431412},{"name":"高齢者ほっと支援センターいもくぼ","province":"東京都","city":"東大和市","address":"東大和市芋窪3-1611-1/在宅サービスセンター向台内","lat":35.752773,"lon":139.413635},{"name":"高齢者ほっと支援センターきよはら","province":"東京都","city":"東大和市","address":"東大和市清原1-1-34号/棟1階在宅サービスセンターきよはら内","lat":35.745159,"lon":139.447495},{"name":"高齢者ほっと支援センターなんがい","province":"東京都","city":"東大和市","address":"東大和市南街2-49-3/在宅サポートセンター1階","lat":35.740234,"lon":139.431412},{"name":"東大和市役所高齢介護課","province":"東京都","city":"東大和市","address":"東大和市中央3-930","lat":35.745262,"lon":139.426498},{"name":"高齢者見守りぼっくすならはし","province":"東京都","city":"東大和市","address":"東大和市奈良橋4-600/奈良橋市民センター2階老人福祉センター内","lat":35.754078,"lon":139.427856},{"name":"高齢者見守りぼっくすしんぼり","province":"東京都","city":"東大和市","address":"東大和市新堀3-6-1/新堀地区会館2階","lat":35.737888,"lon":139.448288},{"name":"高齢者見守りぼっくすなんがい","province":"東京都","city":"東大和市","address":"東大和市南街2-49-3/在宅サポートセンター1階","lat":35.740234,"lon":139.431412},{"name":"高齢者ほっと支援センターいもくぼ","province":"東京都","city":"東大和市","address":"東大和市芋窪3-1611-1/在宅サービスセンター向台内","lat":35.752773,"lon":139.413635},{"name":"高齢者ほっと支援センターきよはら","province":"東京都","city":"東大和市","address":"東大和市清原1-1-34号/棟1階在宅サービスセンターきよはら内","lat":35.745159,"lon":139.447495},{"name":"高齢者ほっと支援センターなんがい","province":"東京都","city":"東大和市","address":"東大和市南街2-49-3/在宅サポートセンター1階","lat":35.740234,"lon":139.431412},{"name":"東大和市役所高齢介護課","province":"東京都","city":"東大和市","address":"東大和市中央3-930","lat":35.745262,"lon":139.426498}]}