{"keyword":"自転車","data":[{"name":"西武鉄道東大和市駅駐輪場","province":"東京都","city":"東大和市","address":"東京都東大和市桜が丘1丁目1415-1","lat":35.73288126,"lon":139.43434551},{"name":"西武スマイルパーク東大和市駅前第１","province":"東京都","city":"東大和市","address":"東京都東大和市桜が丘1丁目1330-19","lat":35.7330479,"lon":139.43404552},{"name":"西武スマイルパークBIGBOX東大和","province":"東京都","city":"東大和市","address":"東京都東大和市桜が丘1丁目1330-19","lat":35.7330479,"lon":139.43404552},{"name":"武蔵大和駅第2公共自転車等駐車場","province":"東京都","city":"東大和市","address":"東京都東大和市清水1丁目748-2","lat":35.75580662,"lon":139.44388817},{"name":"上北台駅第1公共自転車等駐車場","province":"東京都","city":"東大和市","address":"東京都東大和市上北台1丁目5-1","lat":35.7458127,"lon":139.4158048},{"name":"上北台駅第2公共自転車等駐車場","province":"東京都","city":"東大和市","address":"東京都東大和市上北台1丁目5-1","lat":35.7458127,"lon":139.4158048},{"name":"西武スマイルパークBIGBOX東大和第2","province":"東京都","city":"東大和市","address":"東京都東大和市桜が丘1丁目1330-19","lat":35.7330479,"lon":139.43404552},{"name":"Cycle DAICHI　武蔵大和駅前駐輪場","province":"東京都","city":"東大和市","address":"東京都東大和市清水2丁目802-1","lat":35.75551222,"lon":139.44397706},{"name":"上北台駅第7公共自転車等駐車場","province":"東京都","city":"東大和市","address":"東京都東大和市上北台1丁目5-1","lat":35.7458127,"lon":139.4158048},{"name":"上北台駅前駐輪場","province":"東京都","city":"東大和市","address":"東京都東大和市立野2丁目2-10","lat":35.74638765,"lon":139.41656581}]}