{"keyword":"認可","data":[{"name":"狭山保育園","province":"東京都","city":"東大和市","address":"東大和市狭山1-849-1","lat":35.75928,"lon":139.43607},{"name":"谷里保育園","province":"東京都","city":"東大和市","address":"東大和市狭山3-1349-4","lat":35.75535,"lon":139.43721},{"name":"紫水保育園","province":"東京都","city":"東大和市","address":"東大和市清水3-859-7","lat":35.7525,"lon":139.44371},{"name":"大和東保育園","province":"東京都","city":"東大和市","address":"東大和市清原2-2-2","lat":35.74416,"lon":139.44559},{"name":"向原保育園","province":"東京都","city":"東大和市","address":"東大和市向原1-4-2","lat":35.74197,"lon":139.44006},{"name":"高木保育園","province":"東京都","city":"東大和市","address":"東大和市向原6-1","lat":35.73872,"lon":139.43536},{"name":"れんげ南街保育園","province":"東京都","city":"東大和市","address":"東大和市南街4-3-1","lat":35.73793,"lon":139.4333},{"name":"のぞみ保育園","province":"東京都","city":"東大和市","address":"東大和市中央2-858-1","lat":35.74482,"lon":139.43044},{"name":"明徳保育園","province":"東京都","city":"東大和市","address":"東大和市立野2-3-7","lat":35.74537,"lon":139.4164},{"name":"立野みどり保育園","province":"東京都","city":"東大和市","address":"東大和市立野3-580-2","lat":35.7388,"lon":139.42271},{"name":"れんげ桜が丘保育園","province":"東京都","city":"東大和市","address":"東大和市桜が丘3-44-18","lat":35.73417,"lon":139.41844},{"name":"玉川上水保育園","province":"東京都","city":"東大和市","address":"東大和市桜が丘4-29-18","lat":35.73589,"lon":139.41541},{"name":"上北台こひつじ保育園","province":"東京都","city":"東大和市","address":"東大和市上北台2-886-36","lat":35.74344,"lon":139.4118},{"name":"ならはし保育園","province":"東京都","city":"東大和市","address":"東大和市奈良橋6-882-1","lat":35.74851,"lon":139.42461},{"name":"れんげ上北台保育園","province":"東京都","city":"東大和市","address":"東大和市蔵敷3-691-2","lat":35.74935,"lon":139.41664},{"name":"れんげ保育園","province":"東京都","city":"東大和市","address":"東大和市芋窪3-1615","lat":35.75277,"lon":139.41364},{"name":"大和南保育園","province":"東京都","city":"東大和市","address":"東大和市清原3-1","lat":35.74162,"lon":139.44804},{"name":"れんげ桜が丘保育園","province":"東京都","city":"東大和市","address":"東大和市桜が丘3-44-1817-1","lat":35.73589,"lon":139.41541}]}