{"keyword":"館","data":[{"name":"きよはら児童館","province":"東京都","city":"東大和市","address":"東大和市清原2-1","lat":35.74375,"lon":139.444952},{"name":"むこうはら児童館","province":"東京都","city":"東大和市","address":"東大和市向原3-10","lat":35.740203,"lon":139.43602},{"name":"なんがい児童館","province":"東京都","city":"東大和市","address":"東大和市南街5-32","lat":35.7373,"lon":139.431568},{"name":"さくらがおか児童館","province":"東京都","city":"東大和市","address":"東大和市桜が丘3-44-13","lat":35.734275,"lon":139.420077},{"name":"かみきただい児童館","province":"東京都","city":"東大和市","address":"東大和市上北台2-865-9","lat":35.742846,"lon":139.414663},{"name":"ならはし児童館","province":"東京都","city":"東大和市","address":"東大和市奈良橋4-600","lat":35.752423,"lon":139.425762},{"name":"きよはら児童館","province":"東京都","city":"東大和市","address":"東大和市清原2-1","lat":35.74486,"lon":139.44496},{"name":"むこうはら児童館","province":"東京都","city":"東大和市","address":"東大和市向原3-10","lat":35.73982,"lon":139.43553},{"name":"なんがい児童館","province":"東京都","city":"東大和市","address":"東大和市南街5-32","lat":35.73718,"lon":139.4315},{"name":"さくらがおか児童館","province":"東京都","city":"東大和市","address":"東大和市桜が丘3-44-13","lat":35.73417,"lon":139.41844},{"name":"かみきただい児童館","province":"東京都","city":"東大和市","address":"東大和市上北台2-865-9","lat":35.74328,"lon":139.41446},{"name":"ならはし児童館","province":"東京都","city":"東大和市","address":"東大和市奈良橋4-600","lat":35.75148,"lon":139.42589},{"name":"＊?東大和市立中央図書館","province":"東京都","city":"東大和市","address":"東大和市中央3-930","lat":35.745395,"lon":139.426625},{"name":"＊?東大和市立桜が丘図書館","province":"東京都","city":"東大和市","address":"東大和市桜が丘3-44-13","lat":35.733817,"lon":139.420084},{"name":"＊?東大和市立清原図書館","province":"東京都","city":"東大和市","address":"東大和市清原4-1","lat":35.740808,"lon":139.447211}]}