{"keyword":"保管","data":[{"name":"第１保管所（平和島陸橋下保管所）","province":"東京都","city":"大田区","address":"東京都大田区平和島1丁目2","lat":35.58593681,"lon":139.74109716},{"name":"浜松町駅北口自転車等駐車場","province":"東京都","city":"港区","address":"港区海岸一丁目2番34号","lat":35.65649,"lon":139.758469,"URL":"<a href='https://www.city.minato.tokyo.jp/shisetsu/chushajo/chushajo/01.html' target='_blank'>https://www.city.minato.tokyo.jp/shisetsu/chushajo/chushajo/01.html</a>","分類":"駐輪場","地区":"芝地区","連絡先":"電話番号:03-3434-3150"},{"name":"田町駅東口自転車等駐車場","province":"東京都","city":"港区","address":"港区芝浦三丁目3番先","lat":35.644315,"lon":139.748264,"URL":"<a href='https://www.city.minato.tokyo.jp/shisetsu/chushajo/chushajo/02.html' target='_blank'>https://www.city.minato.tokyo.jp/shisetsu/chushajo/chushajo/02.html</a>","分類":"駐輪場","地区":"芝浦港南地区","連絡先":"電話番号:03-5443-0590"},{"name":"こうなん星の公園自転車駐車場","province":"東京都","city":"港区","address":"港区港南一丁目9番24号港区立こうなん星の公園内","lat":35.629712,"lon":139.742583,"URL":"<a href='https://www.city.minato.tokyo.jp/shisetsu/chushajo/chushajo/03.html' target='_blank'>https://www.city.minato.tokyo.jp/shisetsu/chushajo/chushajo/03.html</a>","分類":"駐輪場","地区":"芝浦港南地区","連絡先":"電話番号:03-6712-9343"},{"name":"品川駅港南口自転車等駐車場","province":"","city":"","address":"港南二丁目14番6号港南ふれあい広場地下","lat":35.628635,"lon":139.74185,"URL":"<a href='https://www.city.minato.tokyo.jp/shisetsu/chushajo/chushajo/04.html' target='_blank'>https://www.city.minato.tokyo.jp/shisetsu/chushajo/chushajo/04.html</a>","分類":"駐輪場","地区":"芝浦港南地区","連絡先":"電話番号:03-3472-7931"},{"name":"品川駅港南口公共駐車場","province":"","city":"","address":"港南二丁目14番17号(港南ふれあい広場地下)","lat":35.628966,"lon":139.741682,"URL":"<a href='https://www.city.minato.tokyo.jp/shisetsu/chushajo/chushajo/05.html' target='_blank'>https://www.city.minato.tokyo.jp/shisetsu/chushajo/chushajo/05.html</a>","分類":"駐車場","地区":"芝浦港南地区","連絡先":"電話:03-3472-7921 ファックス:03-3472-2772 定期利用(月極利用):下記関連リンクをご参照ください。  管理・運営 タイムズ24株式会社・タイムズサービス株式会社グループ"},{"name":"麻布十番公共駐車場","province":"","city":"","address":"麻布十番一丁目4番10号","lat":35.657052,"lon":139.734507,"URL":"<a href='https://www.city.minato.tokyo.jp/shisetsu/chushajo/chushajo/06.html' target='_blank'>https://www.city.minato.tokyo.jp/shisetsu/chushajo/chushajo/06.html</a>","分類":"駐車場","地区":"麻布地区","連絡先":"問い合わせ 麻布十番公共駐車場 電話:03-3583-5910 ファックス:03-3583-5906 定期利用(月極利用):下記関連リンクをご参照ください。  管理・運営 タイムズ24株式会社・タイムズサービス株式会社"},{"name":"白金高輪駅自転車駐車場","province":"東京都","city":"港区","address":"港区高輪一丁目3番20号先","lat":35.643382,"lon":139.734595,"URL":"<a href='https://www.city.minato.tokyo.jp/shisetsu/chushajo/chushajo/07.html' target='_blank'>https://www.city.minato.tokyo.jp/shisetsu/chushajo/chushajo/07.html</a>","分類":"駐輪場","地区":"高輪地区","連絡先":"電話番号:03-3440-6191"},{"name":"海岸三丁目自転車等一時保管所","province":"東京都","city":"港区","address":"港区海岸三丁目23番3号","lat":35.643999,"lon":139.75763,"URL":"<a href='https://www.city.minato.tokyo.jp/shisetsu/chushajo/tekkyo/02.html' target='_blank'>https://www.city.minato.tokyo.jp/shisetsu/chushajo/tekkyo/02.html</a>","分類":"撤去自転車等一時保管所","地区":"芝浦港南地区","連絡先":"電話番号:03-3452-3710"},{"name":"東八ツ山自転車等一時保管所","province":"東京都","city":"港区","address":"港区港南二丁目10番20号","lat":35.623845,"lon":139.744318,"URL":"<a href='https://www.city.minato.tokyo.jp/shisetsu/chushajo/tekkyo/03.html' target='_blank'>https://www.city.minato.tokyo.jp/shisetsu/chushajo/tekkyo/03.html</a>","分類":"撤去自転車等一時保管所","地区":"芝浦港南地区","連絡先":"電話番号:03-3474-0031"},{"name":"白金高輪駅自転車一時保管所","province":"東京都","city":"港区","address":"港区高輪一丁目3番20先","lat":35.643391,"lon":139.734786,"URL":"<a href='https://www.city.minato.tokyo.jp/shisetsu/chushajo/tekkyo/04.html' target='_blank'>https://www.city.minato.tokyo.jp/shisetsu/chushajo/tekkyo/04.html</a>","分類":"撤去自転車等一時保管所","地区":"高輪地区","連絡先":"電話番号:03-3446-2783"},{"name":"青山一丁目駅前暫定自転車駐車場","province":"東京都","city":"港区","address":"港区南青山一丁目1番先","lat":35.672175,"lon":139.724851,"URL":"<a href='https://www.city.minato.tokyo.jp/shisetsu/chushajo/chushajo/aoyama.html' target='_blank'>https://www.city.minato.tokyo.jp/shisetsu/chushajo/chushajo/aoyama.html</a>","分類":"駐輪場","地区":"赤坂地区","連絡先":"電話番号:03-3667-4978 サイカパーキング(株)"},{"name":"芝浦ふ頭駅前暫定自転車駐車場","province":"東京都","city":"港区","address":"港区海岸三丁目22番先","lat":35.640618,"lon":139.757359,"URL":"<a href='https://www.city.minato.tokyo.jp/shisetsu/chushajo/chushajo/shibaurafuto.html' target='_blank'>https://www.city.minato.tokyo.jp/shisetsu/chushajo/chushajo/shibaurafuto.html</a>","分類":"駐輪場","地区":"芝浦港南地区","連絡先":"電話番号:0120-3566-21 NCDサポートセンター"},{"name":"田町駅西口第1暫定自転車等駐車場","province":"東京都","city":"港区","address":"港区芝五丁目37番先","lat":35.644033,"lon":139.744292,"URL":"<a href='https://www.city.minato.tokyo.jp/shisetsu/chushajo/chushajo/tamachi-nishi-01.html' target='_blank'>https://www.city.minato.tokyo.jp/shisetsu/chushajo/chushajo/tamachi-nishi-01.html</a>","分類":"駐輪場","地区":"芝地区","連絡先":"電話番号:0120-3566-21 NCDサポートセンター"},{"name":"田町駅西口第2・第3・第6暫定自転車駐車場","province":"東京都","city":"港区","address":"港区芝五丁目18番2号","lat":35.64809,"lon":139.748518,"URL":"<a href='https://www.city.minato.tokyo.jp/shisetsu/chushajo/chushajo/tamachi-nishi-02.html' target='_blank'>https://www.city.minato.tokyo.jp/shisetsu/chushajo/chushajo/tamachi-nishi-02.html</a>","分類":"駐輪場","地区":"芝地区","連絡先":"電話番号:0120-3566-21 NCDサポートセンター"},{"name":"表参道駅前暫定自転車駐車場","province":"東京都","city":"港区","address":"港区南青山三丁目13番","lat":35.665787,"lon":139.713349,"URL":"<a href='https://www.city.minato.tokyo.jp/shisetsu/chushajo/chushajo/omotesandou.html' target='_blank'>https://www.city.minato.tokyo.jp/shisetsu/chushajo/chushajo/omotesandou.html</a>","分類":"駐輪場","地区":"赤坂地区","連絡先":"電話番号:03-3667-4978 サイカパーキング(株)"},{"name":"赤坂見附駅前暫定自転車駐車場","province":"東京都","city":"港区","address":"港区元赤坂一丁目2番先","lat":35.67781,"lon":139.735714,"URL":"<a href='https://www.city.minato.tokyo.jp/shisetsu/chushajo/chushajo/akasaka.html' target='_blank'>https://www.city.minato.tokyo.jp/shisetsu/chushajo/chushajo/akasaka.html</a>","分類":"駐輪場","地区":"赤坂地区","連絡先":"電話番号:03-3667-4978 サイカパーキング(株)"},{"name":"乃木坂駅暫定自転車等置場","province":"東京都","city":"港区","address":"港区六本木七丁目1番先","lat":35.666057,"lon":139.725291,"URL":"<a href='https://www.city.minato.tokyo.jp/shisetsu/chushajo/chushajo/nogizaka.html' target='_blank'>https://www.city.minato.tokyo.jp/shisetsu/chushajo/chushajo/nogizaka.html</a>","分類":"駐輪場","地区":"赤坂地区","連絡先":"電話番号:03-5114-8815 麻布地区総合支所 まちづくり課"},{"name":"松ヶ丘暫定自転車置場","province":"東京都","city":"港区","address":"港区高輪一丁目4番35号","lat":35.642454,"lon":139.734198,"URL":"<a href='https://www.city.minato.tokyo.jp/shisetsu/chushajo/chushajo/matsugaoka.html' target='_blank'>https://www.city.minato.tokyo.jp/shisetsu/chushajo/chushajo/matsugaoka.html</a>","分類":"駐輪場","地区":"高輪地区","連絡先":"電話番号:03-5421-7664 高輪地区総合支所 まちづくり課"},{"name":"白金台駅自転車駐車場","province":"東京都","city":"港区","address":"港区白金台四丁目6番2号","lat":35.638334,"lon":139.726334,"URL":"<a href='https://www.city.minato.tokyo.jp/shisetsu/chushajo/chushajo/shirogane.html' target='_blank'>https://www.city.minato.tokyo.jp/shisetsu/chushajo/chushajo/shirogane.html</a>","分類":"駐輪場","地区":"高輪地区","連絡先":"電話番号:03-6450-4347"},{"name":"海岸二丁目自転車等一時保管所","province":"東京都","city":"港区","address":"港区海岸二丁目4番2号","lat":35.647005,"lon":139.757783,"URL":"<a href='https://www.city.minato.tokyo.jp/shisetsu/chushajo/tekkyo/kaigan2tyoume.html' target='_blank'>https://www.city.minato.tokyo.jp/shisetsu/chushajo/tekkyo/kaigan2tyoume.html</a>","分類":"撤去自転車等一時保管所","地区":"芝浦港南地区","連絡先":"電話番号:03-3454-5021"},{"name":"三河台公園自転車駐車場","province":"東京都","city":"港区","address":"港区六本木四丁目2番27号港区立三河台公園内","lat":35.664518,"lon":139.733836,"URL":"<a href='https://www.city.minato.tokyo.jp/shisetsu/chushajo/chushajo/mikawadai.html' target='_blank'>https://www.city.minato.tokyo.jp/shisetsu/chushajo/chushajo/mikawadai.html</a>","分類":"駐輪場","地区":"麻布地区","連絡先":"電話番号:03-3408-5135"},{"name":"品川駅高輪口自転車一時保管所","province":"東京都","city":"港区","address":"港区港南二丁目66番14号(地番)港区高輪三丁目26番先(住居表示)","lat":35.625864,"lon":139.738165,"URL":"<a href='https://www.city.minato.tokyo.jp/shisetsu/chushajo/tekkyo/05.html' target='_blank'>https://www.city.minato.tokyo.jp/shisetsu/chushajo/tekkyo/05.html</a>","分類":"撤去自転車等一時保管所","地区":"高輪地区","連絡先":"電話番号:03-3442-3508"},{"name":"品川駅高輪口第一暫定自転車等駐車場","province":"東京都","city":"港区","address":"港区港南二丁目66番14号(地番)港区高輪三丁目26番先(住居表示)","lat":35.625881,"lon":139.738197,"URL":"<a href='https://www.city.minato.tokyo.jp/shisetsu/chushajo/chushajo/shinagawa-takanawa-01.html' target='_blank'>https://www.city.minato.tokyo.jp/shisetsu/chushajo/chushajo/shinagawa-takanawa-01.html</a>","分類":"駐輪場","地区":"高輪地区","連絡先":"電話番号:0120-3566-21 NCDサポートセンター"},{"name":"品川駅高輪口第二暫定自転車等駐車場","province":"東京都","city":"港区","address":"港区高輪三丁目13番先","lat":35.629195,"lon":139.737167,"URL":"<a href='https://www.city.minato.tokyo.jp/shisetsu/chushajo/chushajo/shinagawa-takanawa-02.html' target='_blank'>https://www.city.minato.tokyo.jp/shisetsu/chushajo/chushajo/shinagawa-takanawa-02.html</a>","分類":"駐輪場","地区":"高輪地区","連絡先":"電話番号:0120-3566-21 NCDサポートセンター"},{"name":"田町駅西口第4暫定自転車駐車場","province":"東京都","city":"港区","address":"港区芝五丁目33番先","lat":35.645775,"lon":139.747676,"URL":"<a href='https://www.city.minato.tokyo.jp/shisetsu/chushajo/chushajo/tamachinishiguchi4-5.html' target='_blank'>https://www.city.minato.tokyo.jp/shisetsu/chushajo/chushajo/tamachinishiguchi4-5.html</a>","分類":"駐輪場","地区":"芝地区","連絡先":"電話番号:0120-3566-21 NCDサポートセンター"},{"name":"広尾駅自転車駐車場","province":"東京都","city":"港区","address":"港区南麻布五丁目1番25号","lat":35.65318,"lon":139.722061,"URL":"<a href='https://www.city.minato.tokyo.jp/shisetsu/chushajo/chushajo/12.html' target='_blank'>https://www.city.minato.tokyo.jp/shisetsu/chushajo/chushajo/12.html</a>","分類":"駐輪場","地区":"麻布地区","連絡先":"電話番号:03-5420-1171"},{"name":"桜田公園自転車駐車場","province":"東京都","city":"港区","address":"港区新橋三丁目16番15号","lat":35.665097,"lon":139.756518,"URL":"<a href='https://www.city.minato.tokyo.jp/shisetsu/chushajo/chushajo/13.html' target='_blank'>https://www.city.minato.tokyo.jp/shisetsu/chushajo/chushajo/13.html</a>","分類":"駐輪場","地区":"芝地区","連絡先":"電話番号:03-3432-9090"},{"name":"麻布十番駅自転車等駐車場","province":"東京都","city":"港区","address":"港区麻布十番一丁目4番14号","lat":35.657149,"lon":139.734004,"URL":"<a href='https://www.city.minato.tokyo.jp/shisetsu/chushajo/chushajo/15.html' target='_blank'>https://www.city.minato.tokyo.jp/shisetsu/chushajo/chushajo/15.html</a>","分類":"駐輪場","地区":"麻布地区","連絡先":"電話番号:4213-8016 ECOPOOLサポートセンター"},{"name":"六本木駅自転車駐車場","province":"東京都","city":"港区","address":"港区六本木六丁目5番19号","lat":35.661772,"lon":139.730681,"URL":"<a href='https://www.city.minato.tokyo.jp/shisetsu/chushajo/chushajo/16.html' target='_blank'>https://www.city.minato.tokyo.jp/shisetsu/chushajo/chushajo/16.html</a>","分類":"駐輪場","地区":"麻布地区","連絡先":"電話番号:03-3470-4186"},{"name":"お台場海浜公園駅自転車等一時保管所","province":"東京都","city":"港区","address":"港区台場二丁目3先(テレポートブリッジの下にあります。)","lat":35.628088,"lon":139.778594,"URL":"<a href='https://www.city.minato.tokyo.jp/shisetsu/chushajo/tekkyo/06.html' target='_blank'>https://www.city.minato.tokyo.jp/shisetsu/chushajo/tekkyo/06.html</a>","分類":"撤去自転車等一時保管所","地区":"芝浦港南地区","連絡先":"電話番号:03-3529-5150"},{"name":"新橋駅第1暫定自転車駐車場","province":"","city":"","address":"新橋二丁目7番先","lat":35.667614,"lon":139.75777,"URL":"<a href='https://www.city.minato.tokyo.jp/shisetsu/chushajo/chushajo/19.html' target='_blank'>https://www.city.minato.tokyo.jp/shisetsu/chushajo/chushajo/19.html</a>","分類":"駐輪場","地区":"芝地区","連絡先":"電話番号:0120-3566-21 NCDサポートセンター"},{"name":"新橋駅第2暫定自転車駐車場","province":"","city":"","address":"新橋三丁目25先","lat":35.665425,"lon":139.758626,"URL":"<a href='https://www.city.minato.tokyo.jp/shisetsu/chushajo/chushajo/20.html' target='_blank'>https://www.city.minato.tokyo.jp/shisetsu/chushajo/chushajo/20.html</a>","分類":"駐輪場","地区":"芝地区","連絡先":"電話番号:0120-3566-21 NCDサポートセンター"},{"name":"高輪ゲートウェイ駅第1暫定自転車駐車場","province":"東京都","city":"港区","address":"港区高輪二丁目21番地内","lat":35.63419337266489,"lon":139.7384410476636,"URL":"<a href='https://www.city.minato.tokyo.jp/shisetsu/chushajo/chushajo/21.html' target='_blank'>https://www.city.minato.tokyo.jp/shisetsu/chushajo/chushajo/21.html</a>","分類":"駐輪場","地区":"高輪地区","連絡先":"ビシクレット・NCD共同企業体 電話番号:0120-3566-21"},{"name":"高輪ゲートウェイ駅第2暫定自転車駐車場","province":"東京都","city":"港区","address":"港区高輪二丁目21番地内","lat":35.63419337266489,"lon":139.7384410476636,"URL":"<a href='https://www.city.minato.tokyo.jp/shisetsu/chushajo/chushajo/22.html' target='_blank'>https://www.city.minato.tokyo.jp/shisetsu/chushajo/chushajo/22.html</a>","分類":"駐輪場","地区":"高輪地区","連絡先":"ビシクレット・NCD共同企業体 電話番号:0120-3566-21"},{"name":"芝公園駅第1暫定自転車駐車場","province":"東京都","city":"港区","address":"港区芝二丁目7番先","lat":35.65271303747404,"lon":139.7499724010204,"URL":"<a href='https://www.city.minato.tokyo.jp/shisetsu/chushajo/chushajo/shibakoen-1.html' target='_blank'>https://www.city.minato.tokyo.jp/shisetsu/chushajo/chushajo/shibakoen-1.html</a>","分類":"駐輪場","地区":"芝地区","連絡先":"電話番号:0120-3566-21 NCDサポートセンター"},{"name":"芝公園駅第2暫定自転車駐車場","province":"","city":"","address":"芝公園四丁目8番先","lat":35.65436178857662,"lon":139.7497095445484,"URL":"<a href='https://www.city.minato.tokyo.jp/shisetsu/chushajo/chushajo/shibakoen-2.html' target='_blank'>https://www.city.minato.tokyo.jp/shisetsu/chushajo/chushajo/shibakoen-2.html</a>","分類":"駐輪場","地区":"芝地区","連絡先":"電話番号:0120-3566-21 NCDサポートセンター"},{"name":"日比谷フォートタワー駐輪場(民設民営自転車駐車場)","province":"東京都","city":"港区","address":"港区西新橋一丁目1番1号日比谷FORTTOWER(日比谷フォートタワー)内","lat":35.67016813440484,"lon":139.7526946355693,"URL":"<a href='https://www.city.minato.tokyo.jp/shisetsu/chushajo/chushajo/23.html' target='_blank'>https://www.city.minato.tokyo.jp/shisetsu/chushajo/chushajo/23.html</a>","分類":"駐輪場","地区":"芝地区","連絡先":""},{"name":"T-LITE地下2階公共的駐輪場(民設民営自転車駐車場)","province":"東京都","city":"港区","address":"港区虎ノ門二丁目4番7号T-LITE(トライト)地下2階","lat":35.6682658117744,"lon":139.7473119398898,"URL":"<a href='https://www.city.minato.tokyo.jp/shisetsu/chushajo/chushajo/24.html' target='_blank'>https://www.city.minato.tokyo.jp/shisetsu/chushajo/chushajo/24.html</a>","分類":"駐輪場","地区":"芝地区","連絡先":""},{"name":"一の橋公園自転車駐車場","province":"東京都","city":"港区","address":"港区東麻布三丁目9番1号港区立一の橋公園内","lat":35.65601561691724,"lon":139.7378509732211,"URL":"<a href='https://www.city.minato.tokyo.jp/shisetsu/chushajo/chushajo/25.html' target='_blank'>https://www.city.minato.tokyo.jp/shisetsu/chushajo/chushajo/25.html</a>","分類":"駐輪場","地区":"麻布地区","連絡先":"電話番号:03-3587-6653"},{"name":"田町タワー駐輪場(民設民営自転車駐車場)","province":"東京都","city":"港区","address":"港区芝五丁目33番11号田町タワー内","lat":35.64713812384016,"lon":139.7485596597526,"URL":"<a href='https://www.city.minato.tokyo.jp/shisetsu/chushajo/chushajo/26.html' target='_blank'>https://www.city.minato.tokyo.jp/shisetsu/chushajo/chushajo/26.html</a>","分類":"駐輪場","地区":"芝地区","連絡先":""},{"name":"北青山三丁目自転車暫定置場","province":"東京都","city":"港区","address":"港区北青山三丁目4番","lat":35.66837105911279,"lon":139.713066589641,"URL":"<a href='https://www.city.minato.tokyo.jp/shisetsu/chushajo/chushajo/27.html' target='_blank'>https://www.city.minato.tokyo.jp/shisetsu/chushajo/chushajo/27.html</a>","分類":"駐輪場","地区":"赤坂地区","連絡先":"電話番号:050-3539-5063(みんちゅう窓口) アイキューソフィア(株)"}]}