{"category":"wireless","data":[{"name":"立川地域防災センター","province":"東京都","city":"立川市","address":"東京都立川市緑町3233-2","lat":35.70626977,"lon":139.40773762},{"name":"国立病院機構災害医療センター","province":"東京都","city":"立川市","address":"東京都立川市緑町3256","lat":35.70745023,"lon":139.4092319},{"name":"立川・昭島・国立火葬場","province":"東京都","city":"立川市","address":"東京都立川市羽衣町3丁目20-18","lat":35.68886941,"lon":139.42420084},{"name":"柴崎浄水所","province":"東京都","city":"立川市","address":"東京都立川市柴崎町1丁目1-41","lat":35.69686245,"lon":139.40595201},{"name":"立川栄町浄水所","province":"東京都","city":"立川市","address":"東京都立川市栄町5丁目38-5","lat":35.71814941,"lon":139.42479141},{"name":"西砂第一浄水所","province":"東京都","city":"立川市","address":"東京都立川市西砂町2丁目53-14","lat":35.73083799,"lon":139.36059394},{"name":"立川砂川浄水所","province":"東京都","city":"立川市","address":"東京都立川市砂川町6丁目41-1","lat":35.72996987,"lon":139.407348},{"name":"西砂第一浄水所（注１）","province":"東京都","city":"立川市","address":"東京都立川市西砂町2丁目53-14","lat":35.73083799,"lon":139.36059394},{"name":"多摩立川保健所","province":"東京都","city":"立川市","address":"東京都立川市柴崎町2丁目21-19","lat":35.69408784,"lon":139.408638},{"name":"立川健康会館","province":"東京都","city":"立川市","address":"東京都立川市高松町3丁目22-9","lat":35.70288991,"lon":139.41920904},{"name":"東京都農林水産振興財団（立川庁舎）","province":"東京都","city":"立川市","address":"東京都立川市富士見町3丁目8-1","lat":35.6984897,"lon":139.39270029},{"name":"立川国際中等教育学校","province":"東京都","city":"立川市","address":"東京都立川市曙町3丁目29-37","lat":35.70278462,"lon":139.42823332},{"name":"多摩教育センター","province":"東京都","city":"立川市","address":"東京都立川市錦町6丁目3-1","lat":35.68951919,"lon":139.41899846},{"name":"立川高等学校","province":"東京都","city":"立川市","address":"東京都立川市錦町2丁目13-5","lat":35.69247702,"lon":139.41289327},{"name":"砂川高等学校","province":"東京都","city":"立川市","address":"東京都立川市泉町935-4","lat":35.71814365,"lon":139.41643375},{"name":"立川都民防災教育センター（立川防災館）","province":"東京都","city":"立川市","address":"東京都立川市泉町1156-1","lat":35.71589087,"lon":139.40621247},{"name":"立川市本庁舎","province":"東京都","city":"立川市","address":"東京都立川市泉町1156-9","lat":35.71399946,"lon":139.4078846},{"name":"柴崎市民体育館","province":"東京都","city":"立川市","address":"東京都立川市柴崎町6丁目15-9","lat":35.68827745,"lon":139.4111158},{"name":"泉市民体育館","province":"東京都","city":"立川市","address":"東京都立川市泉町786-11","lat":35.71897695,"lon":139.41870575}]}