{"keyword":"その他","data":[{"name":"＊?柴崎学習館","province":"東京都","city":"立川市","address":"立川市柴崎町1-1-43","lat":35.696668,"lon":139.406788},{"name":"＊?高松学習館","province":"東京都","city":"立川市","address":"立川市高松町3-22-5","lat":35.703007,"lon":139.419146},{"name":"＊?錦学習館","province":"東京都","city":"立川市","address":"立川市錦町3-12-25","lat":35.691166,"lon":139.416405},{"name":"＊?西砂学習館","province":"東京都","city":"立川市","address":"立川市西砂町6-12-10","lat":35.729611,"lon":139.372162},{"name":"＊?幸学習館","province":"東京都","city":"立川市","address":"立川市幸町2-1-3","lat":35.71924,"lon":139.423558},{"name":"＊?砂川学習館","province":"東京都","city":"立川市","address":"立川市砂川町1-52-7","lat":35.722836,"lon":139.403143},{"name":"＊?羽衣中央会館","province":"東京都","city":"立川市","address":"立川市羽衣町2-26-7","lat":35.694145,"lon":139.428577},{"name":"＊?滝ノ上会館","province":"東京都","city":"立川市","address":"立川市富士見町4-16-10","lat":35.695906,"lon":139.39902},{"name":"＊?高松会館","province":"東京都","city":"立川市","address":"立川市高松町2-25-26","lat":35.704184,"lon":139.420185},{"name":"＊?柴崎会館","province":"東京都","city":"立川市","address":"立川市柴崎町1-16-3","lat":35.692372,"lon":139.407383},{"name":"＊?さかえ会館","province":"東京都","city":"立川市","address":"立川市栄町4-6-2","lat":35.710967,"lon":139.424959},{"name":"＊?西砂会館","province":"東京都","city":"立川市","address":"立川市西砂町5-11-13","lat":35.73237,"lon":139.360661},{"name":"＊?天王橋会館","province":"東京都","city":"立川市","address":"立川市一番町3-6-1","lat":35.728235,"lon":139.381028},{"name":"＊?上砂会館","province":"東京都","city":"立川市","address":"立川市上砂町1-31-1","lat":35.720165,"lon":139.395635},{"name":"＊?若葉会館","province":"東京都","city":"立川市","address":"立川市若葉町3-34-1","lat":35.720211,"lon":139.439189},{"name":"＊?こんぴら橋会館","province":"東京都","city":"立川市","address":"立川市砂川町3-26-1","lat":35.727886,"lon":139.399503},{"name":"＊?こぶし会館","province":"東京都","city":"立川市","address":"立川市幸町5-83-1","lat":35.725742,"lon":139.418449}]}