{"keyword":"スモッグ","data":[{"name":"立川第2荘（2）","province":"東京都","city":"立川市","address":"立川市富士見町4-15-14","lat":35.69511,"lon":139.39961},{"name":"柴崎浄水所","province":"東京都","city":"立川市","address":"東京都立川市柴崎町1丁目1-41","lat":35.69686245,"lon":139.40595201},{"name":"立川栄町浄水所","province":"東京都","city":"立川市","address":"東京都立川市栄町5丁目38-5","lat":35.71814941,"lon":139.42479141},{"name":"西砂第一浄水所","province":"東京都","city":"立川市","address":"東京都立川市西砂町2丁目53-14","lat":35.73083799,"lon":139.36059394},{"name":"立川砂川浄水所","province":"東京都","city":"立川市","address":"東京都立川市砂川町6丁目41-1","lat":35.72996987,"lon":139.407348},{"name":"西砂第一浄水所（注１）","province":"東京都","city":"立川市","address":"東京都立川市西砂町2丁目53-14","lat":35.73083799,"lon":139.36059394},{"name":"国立病院機構災害医療センターヘリポート","province":"東京都","city":"立川市","address":"東京都立川市緑町3256","lat":35.70745023,"lon":139.4092319},{"name":"前田金属工業(株)","province":"東京都","city":"立川市","address":"立川市柴崎町6-19-28","lat":35.686832,"lon":139.409332},{"name":"高根商事(株)  富士見町支店","province":"東京都","city":"立川市","address":"立川市富士見町6-36-4","lat":35.692577,"lon":139.388947},{"name":"立川第2荘（2）","province":"東京都","city":"立川市","address":"立川市富士見町4-15-14","lat":35.69511,"lon":139.39961},{"name":"前田金属工業(株)","province":"東京都","city":"立川市","address":"立川市柴崎町6-19-28","lat":35.686832,"lon":139.409332},{"name":"高根商事(株)  富士見町支店","province":"東京都","city":"立川市","address":"立川市富士見町6-36-4","lat":35.692577,"lon":139.388947},{"name":"立川第2荘（2）","province":"東京都","city":"立川市","address":"立川市富士見町4-15-14","lat":35.69511,"lon":139.39961},{"name":"前田金属工業(株)","province":"東京都","city":"立川市","address":"立川市柴崎町6-19-28","lat":35.686832,"lon":139.409332},{"name":"高根商事(株)  富士見町支店","province":"東京都","city":"立川市","address":"立川市富士見町6-36-4","lat":35.692577,"lon":139.388947},{"name":"立川第2荘（2）","province":"東京都","city":"立川市","address":"立川市富士見町4-15-14","lat":35.69511,"lon":139.39961},{"name":"前田金属工業(株)","province":"東京都","city":"立川市","address":"立川市柴崎町6-19-28","lat":35.686832,"lon":139.409332},{"name":"高根商事(株)  富士見町支店","province":"東京都","city":"立川市","address":"立川市富士見町6-36-4","lat":35.692577,"lon":139.388947},{"name":"立川第2荘（2）","province":"東京都","city":"立川市","address":"立川市富士見町4-15-14","lat":35.69511,"lon":139.39961},{"name":"前田金属工業(株)","province":"東京都","city":"立川市","address":"立川市柴崎町6-19-28","lat":35.686832,"lon":139.409332},{"name":"高根商事(株)  富士見町支店","province":"東京都","city":"立川市","address":"立川市富士見町6-36-4","lat":35.692577,"lon":139.388947},{"name":"立川第2荘（2）","province":"東京都","city":"立川市","address":"立川市富士見町4-15-14","lat":35.69511,"lon":139.39961},{"name":"前田金属工業(株)","province":"東京都","city":"立川市","address":"立川市柴崎町6-19-28","lat":35.686832,"lon":139.409332},{"name":"高根商事(株)  富士見町支店","province":"東京都","city":"立川市","address":"立川市富士見町6-36-4","lat":35.692577,"lon":139.388947},{"name":"立川第2荘（2）","province":"東京都","city":"立川市","address":"立川市富士見町4-15-14","lat":35.69511,"lon":139.39961},{"name":"前田金属工業(株)","province":"東京都","city":"立川市","address":"立川市柴崎町6-19-28","lat":35.686832,"lon":139.409332},{"name":"高根商事(株)  富士見町支店","province":"東京都","city":"立川市","address":"立川市富士見町6-36-4","lat":35.692577,"lon":139.388947},{"name":"前田金属工業(株)","province":"東京都","city":"立川市","address":"立川市柴崎町6-19-28","lat":35.686832,"lon":139.409332},{"name":"高根商事(株)  富士見町支店","province":"東京都","city":"立川市","address":"立川市富士見町6-36-4","lat":35.692577,"lon":139.388947},{"name":"前田金属工業(株)","province":"東京都","city":"立川市","address":"立川市柴崎町6-19-28","lat":35.686832,"lon":139.409332},{"name":"高根商事(株)  富士見町支店","province":"東京都","city":"立川市","address":"立川市富士見町6-36-4","lat":35.692577,"lon":139.388947},{"name":"前田金属工業(株)","province":"東京都","city":"立川市","address":"立川市柴崎町6-19-28","lat":35.686832,"lon":139.409332},{"name":"高根商事(株)  富士見町支店","province":"東京都","city":"立川市","address":"立川市富士見町6-36-4","lat":35.692577,"lon":139.388947},{"name":"前田金属工業(株)","province":"東京都","city":"立川市","address":"立川市柴崎町6-19-28","lat":35.686832,"lon":139.409332},{"name":"高根商事(株)  富士見町支店","province":"東京都","city":"立川市","address":"立川市富士見町6-36-4","lat":35.692577,"lon":139.388947},{"name":"前田金属工業(株)","province":"東京都","city":"立川市","address":"立川市柴崎町6-19-28","lat":35.686832,"lon":139.409332},{"name":"高根商事(株)  富士見町支店","province":"東京都","city":"立川市","address":"立川市富士見町6-36-4","lat":35.692577,"lon":139.388947},{"name":"前田金属工業(株)","province":"東京都","city":"立川市","address":"立川市柴崎町6-19-28","lat":35.686832,"lon":139.409332},{"name":"高根商事(株)  富士見町支店","province":"東京都","city":"立川市","address":"立川市富士見町6-36-4","lat":35.692577,"lon":139.388947},{"name":"前田金属工業(株)","province":"東京都","city":"立川市","address":"立川市柴崎町6-19-28","lat":35.686832,"lon":139.409332},{"name":"高根商事(株)  富士見町支店","province":"東京都","city":"立川市","address":"立川市富士見町6-36-4","lat":35.692577,"lon":139.388947},{"name":"前田金属工業(株)","province":"東京都","city":"立川市","address":"立川市柴崎町6-19-28","lat":35.686832,"lon":139.409332},{"name":"高根商事(株)  富士見町支店","province":"東京都","city":"立川市","address":"立川市富士見町6-36-4","lat":35.692577,"lon":139.388947},{"name":"前田金属工業(株)","province":"東京都","city":"立川市","address":"立川市柴崎町6-19-28","lat":35.686832,"lon":139.409332},{"name":"高根商事(株)  富士見町支店","province":"東京都","city":"立川市","address":"立川市富士見町6-36-4","lat":35.692577,"lon":139.388947},{"name":"前田金属工業(株)","province":"東京都","city":"立川市","address":"立川市柴崎町6-19-28","lat":35.686832,"lon":139.409332},{"name":"高根商事(株)  富士見町支店","province":"東京都","city":"立川市","address":"立川市富士見町6-36-4","lat":35.692577,"lon":139.388947},{"name":"前田金属工業(株)","province":"東京都","city":"立川市","address":"立川市柴崎町6-19-28","lat":35.686832,"lon":139.409332},{"name":"高根商事(株)  富士見町支店","province":"東京都","city":"立川市","address":"立川市富士見町6-36-4","lat":35.692577,"lon":139.388947},{"name":"前田金属工業(株)","province":"東京都","city":"立川市","address":"立川市柴崎町6-19-28","lat":35.686832,"lon":139.409332},{"name":"高根商事(株)  富士見町支店","province":"東京都","city":"立川市","address":"立川市富士見町6-36-4","lat":35.692577,"lon":139.388947},{"name":"前田金属工業(株)","province":"東京都","city":"立川市","address":"立川市柴崎町6-19-28","lat":35.686832,"lon":139.409332},{"name":"高根商事(株)  富士見町支店","province":"東京都","city":"立川市","address":"立川市富士見町6-36-4","lat":35.692577,"lon":139.388947},{"name":"前田金属工業(株)","province":"東京都","city":"立川市","address":"立川市柴崎町6-19-28","lat":35.686832,"lon":139.409332},{"name":"高根商事(株)  富士見町支店","province":"東京都","city":"立川市","address":"立川市富士見町6-36-4","lat":35.692577,"lon":139.388947},{"name":"前田金属工業(株)","province":"東京都","city":"立川市","address":"立川市柴崎町6-19-28","lat":35.686832,"lon":139.409332},{"name":"高根商事(株)  富士見町支店","province":"東京都","city":"立川市","address":"立川市富士見町6-36-4","lat":35.692577,"lon":139.388947},{"name":"前田金属工業(株)","province":"東京都","city":"立川市","address":"立川市柴崎町6-19-28","lat":35.686832,"lon":139.409332},{"name":"高根商事(株)  富士見町支店","province":"東京都","city":"立川市","address":"立川市富士見町6-36-4","lat":35.692577,"lon":139.388947},{"name":"前田金属工業(株)","province":"東京都","city":"立川市","address":"立川市柴崎町6-19-28","lat":35.686832,"lon":139.409332},{"name":"高根商事(株)  富士見町支店","province":"東京都","city":"立川市","address":"立川市富士見町6-36-4","lat":35.692577,"lon":139.388947},{"name":"前田金属工業(株)","province":"東京都","city":"立川市","address":"立川市柴崎町6-19-28","lat":35.686832,"lon":139.409332},{"name":"高根商事(株)  富士見町支店","province":"東京都","city":"立川市","address":"立川市富士見町6-36-4","lat":35.692577,"lon":139.388947},{"name":"前田金属工業(株)","province":"東京都","city":"立川市","address":"立川市柴崎町6-19-28","lat":35.686832,"lon":139.409332},{"name":"高根商事(株)  富士見町支店","province":"東京都","city":"立川市","address":"立川市富士見町6-36-4","lat":35.692577,"lon":139.388947},{"name":"前田金属工業(株)","province":"東京都","city":"立川市","address":"立川市柴崎町6-19-28","lat":35.686832,"lon":139.409332},{"name":"高根商事(株)  富士見町支店","province":"東京都","city":"立川市","address":"立川市富士見町6-36-4","lat":35.692577,"lon":139.388947},{"name":"前田金属工業(株)","province":"東京都","city":"立川市","address":"立川市柴崎町6-19-28","lat":35.686832,"lon":139.409332},{"name":"高根商事(株)  富士見町支店","province":"東京都","city":"立川市","address":"立川市富士見町6-36-4","lat":35.692577,"lon":139.388947},{"name":"前田金属工業(株)","province":"東京都","city":"立川市","address":"立川市柴崎町6-19-28","lat":35.686832,"lon":139.409332},{"name":"高根商事(株)  富士見町支店","province":"東京都","city":"立川市","address":"立川市富士見町6-36-4","lat":35.692577,"lon":139.388947},{"name":"前田金属工業(株)","province":"東京都","city":"立川市","address":"立川市柴崎町6-19-28","lat":35.686832,"lon":139.409332},{"name":"高根商事(株)  富士見町支店","province":"東京都","city":"立川市","address":"立川市富士見町6-36-4","lat":35.692577,"lon":139.388947},{"name":"前田金属工業(株)","province":"東京都","city":"立川市","address":"立川市柴崎町6-19-28","lat":35.686832,"lon":139.409332},{"name":"高根商事(株)  富士見町支店","province":"東京都","city":"立川市","address":"立川市富士見町6-36-4","lat":35.692577,"lon":139.388947},{"name":"前田金属工業(株)","province":"東京都","city":"立川市","address":"立川市柴崎町6-19-28","lat":35.686832,"lon":139.409332},{"name":"高根商事(株)  富士見町支店","province":"東京都","city":"立川市","address":"立川市富士見町6-36-4","lat":35.692577,"lon":139.388947},{"name":"前田金属工業(株)","province":"東京都","city":"立川市","address":"立川市柴崎町6-19-28","lat":35.686832,"lon":139.409332},{"name":"高根商事(株)  富士見町支店","province":"東京都","city":"立川市","address":"立川市富士見町6-36-4","lat":35.692577,"lon":139.388947},{"name":"前田金属工業(株)","province":"東京都","city":"立川市","address":"立川市柴崎町6-19-28","lat":35.686832,"lon":139.409332},{"name":"高根商事(株)  富士見町支店","province":"東京都","city":"立川市","address":"立川市富士見町6-36-4","lat":35.692577,"lon":139.388947},{"name":"前田金属工業(株)","province":"東京都","city":"立川市","address":"立川市柴崎町6-19-28","lat":35.686832,"lon":139.409332},{"name":"高根商事(株)  富士見町支店","province":"東京都","city":"立川市","address":"立川市富士見町6-36-4","lat":35.692577,"lon":139.388947},{"name":"前田金属工業(株)","province":"東京都","city":"立川市","address":"立川市柴崎町6-19-28","lat":35.686832,"lon":139.409332},{"name":"高根商事(株)  富士見町支店","province":"東京都","city":"立川市","address":"立川市富士見町6-36-4","lat":35.692577,"lon":139.388947},{"name":"前田金属工業(株)","province":"東京都","city":"立川市","address":"立川市柴崎町6-19-28","lat":35.686832,"lon":139.409332},{"name":"高根商事(株)  富士見町支店","province":"東京都","city":"立川市","address":"立川市富士見町6-36-4","lat":35.692577,"lon":139.388947},{"name":"前田金属工業(株)","province":"東京都","city":"立川市","address":"立川市柴崎町6-19-28","lat":35.686832,"lon":139.409332},{"name":"高根商事(株)  富士見町支店","province":"東京都","city":"立川市","address":"立川市富士見町6-36-4","lat":35.692577,"lon":139.388947},{"name":"前田金属工業(株)","province":"東京都","city":"立川市","address":"立川市柴崎町6-19-28","lat":35.686832,"lon":139.409332},{"name":"高根商事(株)  富士見町支店","province":"東京都","city":"立川市","address":"立川市富士見町6-36-4","lat":35.692577,"lon":139.388947},{"name":"前田金属工業(株)","province":"東京都","city":"立川市","address":"立川市柴崎町6-19-28","lat":35.686832,"lon":139.409332},{"name":"高根商事(株)  富士見町支店","province":"東京都","city":"立川市","address":"立川市富士見町6-36-4","lat":35.692577,"lon":139.388947},{"name":"前田金属工業(株)","province":"東京都","city":"立川市","address":"立川市柴崎町6-19-28","lat":35.686832,"lon":139.409332},{"name":"高根商事(株)  富士見町支店","province":"東京都","city":"立川市","address":"立川市富士見町6-36-4","lat":35.692577,"lon":139.388947},{"name":"前田金属工業(株)","province":"東京都","city":"立川市","address":"立川市柴崎町6-19-28","lat":35.686832,"lon":139.409332},{"name":"高根商事(株)  富士見町支店","province":"東京都","city":"立川市","address":"立川市富士見町6-36-4","lat":35.692577,"lon":139.388947},{"name":"前田金属工業(株)","province":"東京都","city":"立川市","address":"立川市柴崎町6-19-28","lat":35.686832,"lon":139.409332},{"name":"高根商事(株)  富士見町支店","province":"東京都","city":"立川市","address":"立川市富士見町6-36-4","lat":35.692577,"lon":139.388947},{"name":"前田金属工業(株)","province":"東京都","city":"立川市","address":"立川市柴崎町6-19-28","lat":35.686832,"lon":139.409332},{"name":"高根商事(株)  富士見町支店","province":"東京都","city":"立川市","address":"立川市富士見町6-36-4","lat":35.692577,"lon":139.388947},{"name":"前田金属工業(株)","province":"東京都","city":"立川市","address":"立川市柴崎町6-19-28","lat":35.686832,"lon":139.409332},{"name":"高根商事(株)  富士見町支店","province":"東京都","city":"立川市","address":"立川市富士見町6-36-4","lat":35.692577,"lon":139.388947},{"name":"前田金属工業(株)","province":"東京都","city":"立川市","address":"立川市柴崎町6-19-28","lat":35.686832,"lon":139.409332},{"name":"高根商事(株)  富士見町支店","province":"東京都","city":"立川市","address":"立川市富士見町6-36-4","lat":35.692577,"lon":139.388947}]}