{"keyword":"伐採","data":[{"name":"国立病院機構災害医療センター","province":"東京都","city":"立川市","address":"東京都立川市緑町3256","lat":35.70745023,"lon":139.4092319},{"name":"国立病院機構災害医療センターヘリポート","province":"東京都","city":"立川市","address":"東京都立川市緑町3256","lat":35.70745023,"lon":139.4092319},{"name":"国立病院機構災害医療センター","province":"東京都","city":"立川市","address":"東京都立川市緑町3256","lat":35.70745023,"lon":139.4092319},{"name":"国立病院機構災害医療センターヘリポート","province":"東京都","city":"立川市","address":"東京都立川市緑町3256","lat":35.70745023,"lon":139.4092319},{"name":"国立病院機構災害医療センター","province":"東京都","city":"立川市","address":"東京都立川市緑町3256","lat":35.70745023,"lon":139.4092319},{"name":"国立病院機構災害医療センターヘリポート","province":"東京都","city":"立川市","address":"東京都立川市緑町3256","lat":35.70745023,"lon":139.4092319},{"name":"国立病院機構災害医療センター","province":"東京都","city":"立川市","address":"東京都立川市緑町3256","lat":35.70745023,"lon":139.4092319},{"name":"国立病院機構災害医療センター","province":"東京都","city":"立川市","address":"東京都立川市緑町3256","lat":35.70745023,"lon":139.4092319},{"name":"国立病院機構災害医療センター","province":"東京都","city":"立川市","address":"東京都立川市緑町3256","lat":35.70745023,"lon":139.4092319},{"name":"国立病院機構災害医療センター","province":"東京都","city":"立川市","address":"東京都立川市緑町3256","lat":35.70745023,"lon":139.4092319},{"name":"国立病院機構災害医療センター","province":"東京都","city":"立川市","address":"東京都立川市緑町3256","lat":35.70745023,"lon":139.4092319},{"name":"国立病院機構災害医療センター","province":"東京都","city":"立川市","address":"東京都立川市緑町3256","lat":35.70745023,"lon":139.4092319},{"name":"国立病院機構災害医療センター","province":"東京都","city":"立川市","address":"東京都立川市緑町3256","lat":35.70745023,"lon":139.4092319},{"name":"国立病院機構災害医療センター","province":"東京都","city":"立川市","address":"東京都立川市緑町3256","lat":35.70745023,"lon":139.4092319},{"name":"国立病院機構災害医療センター","province":"東京都","city":"立川市","address":"東京都立川市緑町3256","lat":35.70745023,"lon":139.4092319},{"name":"国立病院機構災害医療センター","province":"東京都","city":"立川市","address":"東京都立川市緑町3256","lat":35.70745023,"lon":139.4092319},{"name":"国立病院機構災害医療センター","province":"東京都","city":"立川市","address":"東京都立川市緑町3256","lat":35.70745023,"lon":139.4092319},{"name":"国立病院機構災害医療センター","province":"東京都","city":"立川市","address":"東京都立川市緑町3256","lat":35.70745023,"lon":139.4092319},{"name":"国立病院機構災害医療センター","province":"東京都","city":"立川市","address":"東京都立川市緑町3256","lat":35.70745023,"lon":139.4092319},{"name":"国立病院機構災害医療センター","province":"東京都","city":"立川市","address":"東京都立川市緑町3256","lat":35.70745023,"lon":139.4092319},{"name":"国立病院機構災害医療センター","province":"東京都","city":"立川市","address":"東京都立川市緑町3256","lat":35.70745023,"lon":139.4092319},{"name":"国立病院機構災害医療センター","province":"東京都","city":"立川市","address":"東京都立川市緑町3256","lat":35.70745023,"lon":139.4092319},{"name":"国立病院機構災害医療センター","province":"東京都","city":"立川市","address":"東京都立川市緑町3256","lat":35.70745023,"lon":139.4092319},{"name":"国立病院機構災害医療センター","province":"東京都","city":"立川市","address":"東京都立川市緑町3256","lat":35.70745023,"lon":139.4092319},{"name":"国立病院機構災害医療センター","province":"東京都","city":"立川市","address":"東京都立川市緑町3256","lat":35.70745023,"lon":139.4092319},{"name":"国立病院機構災害医療センター","province":"東京都","city":"立川市","address":"東京都立川市緑町3256","lat":35.70745023,"lon":139.4092319},{"name":"国立病院機構災害医療センター","province":"東京都","city":"立川市","address":"東京都立川市緑町3256","lat":35.70745023,"lon":139.4092319},{"name":"国立病院機構災害医療センター","province":"東京都","city":"立川市","address":"東京都立川市緑町3256","lat":35.70745023,"lon":139.4092319},{"name":"国立病院機構災害医療センター","province":"東京都","city":"立川市","address":"東京都立川市緑町3256","lat":35.70745023,"lon":139.4092319},{"name":"国立病院機構災害医療センター","province":"東京都","city":"立川市","address":"東京都立川市緑町3256","lat":35.70745023,"lon":139.4092319},{"name":"国立病院機構災害医療センター","province":"東京都","city":"立川市","address":"東京都立川市緑町3256","lat":35.70745023,"lon":139.4092319},{"name":"国立病院機構災害医療センター","province":"東京都","city":"立川市","address":"東京都立川市緑町3256","lat":35.70745023,"lon":139.4092319},{"name":"国立病院機構災害医療センター","province":"東京都","city":"立川市","address":"東京都立川市緑町3256","lat":35.70745023,"lon":139.4092319},{"name":"国立病院機構災害医療センター","province":"東京都","city":"立川市","address":"東京都立川市緑町3256","lat":35.70745023,"lon":139.4092319},{"name":"国立病院機構災害医療センター","province":"東京都","city":"立川市","address":"東京都立川市緑町3256","lat":35.70745023,"lon":139.4092319},{"name":"国立病院機構災害医療センター","province":"東京都","city":"立川市","address":"東京都立川市緑町3256","lat":35.70745023,"lon":139.4092319},{"name":"国立病院機構災害医療センター","province":"東京都","city":"立川市","address":"東京都立川市緑町3256","lat":35.70745023,"lon":139.4092319},{"name":"国立病院機構災害医療センター","province":"東京都","city":"立川市","address":"東京都立川市緑町3256","lat":35.70745023,"lon":139.4092319}]}