{"keyword":"保育","data":[{"name":"けやき台さくら保育園","province":"東京都","city":"立川市","address":"立川市若葉町1-13-2","lat":35.718241,"lon":139.436535},{"name":"れんげ砂川保育園","province":"東京都","city":"立川市","address":"立川市若葉町4-24-31","lat":35.722499,"lon":139.443076},{"name":"あおば保育園","province":"東京都","city":"立川市","address":"立川市幸町4-52-1","lat":35.727168,"lon":139.42913},{"name":"たかのみち保育園","province":"東京都","city":"立川市","address":"立川市幸町6-32-1","lat":35.728015,"lon":139.426099},{"name":"江の島保育園","province":"東京都","city":"立川市","address":"立川市栄町5-20-3","lat":35.714942,"lon":139.426622},{"name":"中砂保育園","province":"東京都","city":"立川市","address":"立川市栄町5-38-1","lat":35.718088,"lon":139.42408},{"name":"栄保育園","province":"東京都","city":"立川市","address":"立川市栄町3-33-3","lat":35.707851,"lon":139.429191},{"name":"柏保育園","province":"東京都","city":"立川市","address":"立川市柏町3-52-9","lat":35.724518,"lon":139.410803},{"name":"高松保育園","province":"東京都","city":"立川市","address":"立川市高松町1-18-7","lat":35.708734,"lon":139.416887},{"name":"愛光保育園","province":"東京都","city":"立川市","address":"立川市曙町3-24-22","lat":35.70194,"lon":139.421026},{"name":"愛光あけぼの保育園","province":"東京都","city":"立川市","address":"立川市曙町3-17-22","lat":35.699579,"lon":139.425373},{"name":"ぽけっとランド立川保育園","province":"東京都","city":"立川市","address":"立川市曙町2-18-15","lat":35.700473,"lon":139.416473},{"name":"冨士見保育園","province":"東京都","city":"立川市","address":"立川市富士見町1-26-1","lat":35.700101,"lon":139.394761},{"name":"玉川保育園","province":"東京都","city":"立川市","address":"立川市富士見町6-72-1","lat":35.694932,"lon":139.39102},{"name":"愛光第五保育園","province":"東京都","city":"立川市","address":"立川市富士見町7-23-5","lat":35.692299,"lon":139.396225},{"name":"立川たんぽぽ保育園","province":"東京都","city":"立川市","address":"立川市富士見町6-59-1","lat":35.692071,"lon":139.390542},{"name":"西立川保育園","province":"東京都","city":"立川市","address":"立川市富士見町1-18-16","lat":35.699504,"lon":139.396675},{"name":"愛光みどり保育園","province":"東京都","city":"立川市","address":"立川市緑町7-1","lat":35.709442,"lon":139.412295},{"name":"西国立保育園","province":"東京都","city":"立川市","address":"立川市羽衣町2-43-4","lat":35.69313,"lon":139.424684},{"name":"羽衣保育園","province":"東京都","city":"立川市","address":"立川市羽衣町2-51-7","lat":35.693275,"lon":139.429659},{"name":"至誠保育園","province":"東京都","city":"立川市","address":"立川市錦町6-26-13","lat":35.684739,"lon":139.417521},{"name":"小百合保育園","province":"東京都","city":"立川市","address":"立川市錦町6-6-3-101","lat":35.687256,"lon":139.420126},{"name":"ほほえみの森保育園","province":"東京都","city":"立川市","address":"立川市錦町3-1-20","lat":35.693738,"lon":139.418196},{"name":"諏訪の森保育園","province":"東京都","city":"立川市","address":"立川市柴崎町1-4-4","lat":35.695282,"lon":139.404952},{"name":"柴崎保育園","province":"東京都","city":"立川市","address":"立川市柴崎町1-16-23","lat":35.692755,"lon":139.407072},{"name":"森の子保育園","province":"東京都","city":"立川市","address":"立川市砂川町8-30-7","lat":35.732036,"lon":139.399599},{"name":"見影橋保育園","province":"東京都","city":"立川市","address":"立川市砂川町3-23-2","lat":35.727378,"lon":139.398752},{"name":"あおば第二保育園","province":"東京都","city":"立川市","address":"立川市上砂町2-40-5","lat":35.725298,"lon":139.39378},{"name":"上砂保育園","province":"東京都","city":"立川市","address":"立川市上砂町1-13-1","lat":35.719987,"lon":139.392125},{"name":"きらめきの森保育園","province":"東京都","city":"立川市","address":"立川市上砂町5-85-1","lat":35.730853,"lon":139.386978},{"name":"松中保育園","province":"東京都","city":"立川市","address":"立川市一番町5-8-25","lat":35.732819,"lon":139.374887},{"name":"立川ひかり保育園","province":"東京都","city":"立川市","address":"立川市一番町2-22-1","lat":35.726825,"lon":139.379787},{"name":"西砂保育園","province":"東京都","city":"立川市","address":"立川市西砂町2-63-2","lat":35.729669,"lon":139.364677},{"name":"西武立川きらり保育園","province":"東京都","city":"立川市","address":"立川市西砂町1-2-127","lat":35.725231,"lon":139.371543},{"name":"わんわん保育園","province":"東京都","city":"立川市","address":"立川市西砂町6-12-4","lat":35.729236,"lon":139.372182},{"name":"なすび保育園","province":"東京都","city":"立川市","address":"立川市西砂町6-75-9","lat":35.734507,"lon":139.367882}]}