{"keyword":"初動","data":[{"name":"多摩立川保健所","province":"東京都","city":"立川市","address":"東京都立川市柴崎町2丁目21-19","lat":35.69408784,"lon":139.408638},{"name":"立川健康会館","province":"東京都","city":"立川市","address":"東京都立川市高松町3丁目22-9","lat":35.70288991,"lon":139.41920904},{"name":"陸上自衛隊立川駐屯地","province":"東京都","city":"立川市","address":"立川市緑町5","lat":35.712357,"lon":139.402135},{"name":"陸上自衛隊東立川駐屯地","province":"東京都","city":"立川市","address":"立川市栄町1-2-10","lat":35.7052,"lon":139.4266},{"name":"警視庁多摩総合庁舎","province":"東京都","city":"立川市","address":"立川市緑町3280","lat":35.7065,"lon":139.4062},{"name":"第四機動隊","province":"東京都","city":"立川市","address":"立川市緑町3567","lat":35.7126,"lon":139.4064},{"name":"第八方面自動車警ら隊","province":"東京都","city":"立川市","address":"立川市緑町3280","lat":35.7065,"lon":139.4062},{"name":"第八方面交通機動隊","province":"東京都","city":"立川市","address":"立川市緑町3280","lat":35.7065,"lon":139.4062},{"name":"第八方面本部","province":"東京都","city":"立川市","address":"立川市緑町3280","lat":35.7065,"lon":139.4062},{"name":"立川警察署","province":"東京都","city":"立川市","address":"立川市緑町3233-2","lat":35.706271,"lon":139.407738},{"name":"立川消防署（東京消防庁多摩防災基地）","province":"東京都","city":"立川市","address":"立川市泉町1156-1","lat":35.71589,"lon":139.4062},{"name":"第八消防方面本部","province":"東京都","city":"立川市","address":"立川市泉町1156-1","lat":35.71589,"lon":139.4062},{"name":"第八方面訓練場","province":"東京都","city":"立川市","address":"立川市泉町1156-1","lat":35.71589,"lon":139.4062},{"name":"立川消防署","province":"東京都","city":"立川市","address":"立川市泉町1156-1","lat":35.71589,"lon":139.4062},{"name":"立川地域防災センター","province":"東京都","city":"立川市","address":"立川市緑町3233","lat":35.70627,"lon":139.4077},{"name":"市村酸素（株）","province":"東京都","city":"立川市","address":"立川市錦町2-11-5","lat":35.69225,"lon":139.4149},{"name":"東京都赤十字血液センター立川事業所","province":"東京都","city":"立川市","address":"立川市緑町3256","lat":35.70745,"lon":139.4092}]}