{"keyword":"園","data":[{"name":"愛光あけぼの保育園","province":"東京都","city":"立川市","address":"東京都立川市曙町3-17-22","lat":35.6996,"lon":139.42532},{"name":"愛光第五保育園サンクレール","province":"東京都","city":"立川市","address":"東京都立川市柴崎町3-11-25","lat":35.69676,"lon":139.41081},{"name":"愛光第五保育園","province":"東京都","city":"立川市","address":"東京都立川市富士見町7-23-5","lat":35.69234,"lon":139.39625},{"name":"愛光保育園","province":"東京都","city":"立川市","address":"東京都立川市曙町3-24-22","lat":35.70181,"lon":139.42094},{"name":"愛光みどり保育園","province":"東京都","city":"立川市","address":"東京都立川市緑町7-1","lat":35.70941,"lon":139.41224},{"name":"あおば第二保育園","province":"東京都","city":"立川市","address":"東京都立川市上砂町2-40-5","lat":35.72525,"lon":139.39376},{"name":"あおば保育園","province":"東京都","city":"立川市","address":"東京都立川市幸町4-52-1","lat":35.72606,"lon":139.43016},{"name":"江の島保育園","province":"東京都","city":"立川市","address":"東京都立川市栄町5-20-3","lat":35.715,"lon":139.42654},{"name":"柏保育園","province":"東京都","city":"立川市","address":"東京都立川市柏町3-52-9","lat":35.72446,"lon":139.41079},{"name":"上砂保育園","province":"東京都","city":"立川市","address":"東京都立川市上砂町1-13-1","lat":35.71849,"lon":139.39393},{"name":"きらめきの森保育園","province":"東京都","city":"立川市","address":"東京都立川市上砂町5-85-1","lat":35.73065,"lon":139.38716},{"name":"けやき台さくら保育園","province":"東京都","city":"立川市","address":"東京都立川市若葉町1-13-2","lat":35.71645,"lon":139.43591},{"name":"栄保育園","province":"東京都","city":"立川市","address":"東京都立川市栄町3-33-3","lat":35.70782,"lon":139.42921},{"name":"至誠保育園","province":"東京都","city":"立川市","address":"東京都立川市錦町6-26-13","lat":35.68477,"lon":139.41752},{"name":"柴崎保育園","province":"東京都","city":"立川市","address":"東京都立川市柴崎町1-16-23","lat":35.6923,"lon":139.4071},{"name":"小百合保育園","province":"東京都","city":"立川市","address":"東京都立川市錦町6-6-3-101","lat":35.68727,"lon":139.42016},{"name":"城南ルミナ保育園立川","province":"東京都","city":"立川市","address":"東京都立川市柴崎町2-3-18第二粂川ビル2F","lat":35.6968,"lon":139.41116},{"name":"すくすくワールド","province":"東京都","city":"立川市","address":"東京都立川市曙町2-34-6小杉ビル5階","lat":35.70184,"lon":139.41485},{"name":"諏訪の森保育園","province":"東京都","city":"立川市","address":"東京都立川市柴崎町1-4-4","lat":35.69524,"lon":139.40493},{"name":"西武立川きらり保育園","province":"東京都","city":"立川市","address":"東京都立川市西砂町1-2-127","lat":35.72525,"lon":139.37156},{"name":"たかのみち保育園（さいわい分園）","province":"東京都","city":"立川市","address":"東京都立川市幸町5-111-4","lat":35.72744,"lon":139.42614},{"name":"たかのみち保育園（さかえ分園）","province":"東京都","city":"立川市","address":"東京都立川市栄町6-13-1","lat":35.71686,"lon":139.42283},{"name":"たかのみち保育園","province":"東京都","city":"立川市","address":"東京都立川市幸町6-32-1","lat":35.72793,"lon":139.42608},{"name":"高松保育園","province":"東京都","city":"立川市","address":"東京都立川市高松町1-18-7","lat":35.70856,"lon":139.41674},{"name":"立川たんぽぽ保育園","province":"東京都","city":"立川市","address":"東京都立川市富士見町6-59-1","lat":35.6921,"lon":139.39064},{"name":"立川ひかり保育園","province":"東京都","city":"立川市","address":"東京都立川市一番町2-22-1","lat":35.7268,"lon":139.37986},{"name":"玉川保育園","province":"東京都","city":"立川市","address":"東京都立川市富士見町6-72-1","lat":35.69492,"lon":139.39102},{"name":"つくし保育園","province":"東京都","city":"立川市","address":"東京都立川市栄町3-24-12","lat":35.71085,"lon":139.42637},{"name":"中砂保育園","province":"東京都","city":"立川市","address":"東京都立川市栄町5-38-1","lat":35.71809,"lon":139.42407},{"name":"なすび保育園","province":"東京都","city":"立川市","address":"東京都立川市西砂町6-75-9","lat":35.73477,"lon":139.36808},{"name":"西国立保育園分園","province":"東京都","city":"立川市","address":"東京都立川市羽衣町1-21-11","lat":35.69552,"lon":139.42361},{"name":"西国立保育園","province":"東京都","city":"立川市","address":"東京都立川市羽衣町2-43-4","lat":35.69309,"lon":139.42471},{"name":"西砂保育園","province":"東京都","city":"立川市","address":"東京都立川市西砂町2-63-2","lat":35.72976,"lon":139.36467},{"name":"西立川保育園","province":"東京都","city":"立川市","address":"東京都立川市富士見町1-18-16","lat":35.69949,"lon":139.39668},{"name":"羽衣保育園","province":"東京都","city":"立川市","address":"東京都立川市羽衣町2-51-7","lat":35.69326,"lon":139.42967},{"name":"冨士見保育園","province":"東京都","city":"立川市","address":"東京都立川市富士見町2-26-1","lat":35.69922,"lon":139.4017},{"name":"保育室スマイルエッグス","province":"東京都","city":"立川市","address":"東京都立川市上砂町4-52-1","lat":35.72832,"lon":139.39267},{"name":"ほほえみの森保育園","province":"東京都","city":"立川市","address":"東京都立川市錦町3-1-20","lat":35.69372,"lon":139.41819},{"name":"ぽけっとランド立川保育園","province":"東京都","city":"立川市","address":"東京都立川市曙町2-18-15","lat":35.70046,"lon":139.41651},{"name":"ポピンズナーサリースクール立川","province":"東京都","city":"立川市","address":"東京都立川市柴崎町3-1-1ecute立川4F","lat":35.69732,"lon":139.41323},{"name":"松中保育園","province":"東京都","city":"立川市","address":"東京都立川市一番町5-8-25","lat":35.73283,"lon":139.37492},{"name":"見影橋保育園","province":"東京都","city":"立川市","address":"東京都立川市砂川町3-23-2","lat":35.72737,"lon":139.39871},{"name":"森の子こども園","province":"東京都","city":"立川市","address":"東京都立川市砂川町8-30-7","lat":35.73205,"lon":139.39964},{"name":"れんげ砂川保育園","province":"東京都","city":"立川市","address":"東京都立川市若葉町4-24-31","lat":35.72249,"lon":139.44308},{"name":"わんわん保育園","province":"東京都","city":"立川市","address":"東京都立川市西砂町6-12-4","lat":35.72924,"lon":139.37219}]}