{"keyword":"子ども","data":[{"name":"東京都多摩広域防災倉庫","province":"東京都","city":"立川市","address":"東京都立川市緑町3256","lat":35.708122,"lon":139.408036},{"name":"立川合同庁舎","province":"東京都","city":"立川市","address":"東京都立川市錦町4丁目6-3","lat":35.691872,"lon":139.420706},{"name":"東京都多摩立川保健所","province":"東京都","city":"立川市","address":"東京都立川市柴崎町2丁目21-19","lat":35.694076,"lon":139.40867},{"name":"労働相談情報センター多摩事務所","province":"東京都","city":"立川市","address":"東京都立川市柴崎町3丁目9-2","lat":35.695507,"lon":139.412061},{"name":"東京都農林水産振興財団立川庁舎","province":"東京都","city":"立川市","address":"東京都立川市富士見町3丁目8-1","lat":35.69865,"lon":139.392906},{"name":"東京しごとセンター多摩","province":"東京都","city":"立川市","address":"東京都立川市柴崎町3丁目9-2","lat":35.69553,"lon":139.411957},{"name":"東京都水道局多摩水道改革推進本部","province":"東京都","city":"立川市","address":"東京都立川市緑町6-7","lat":35.708756,"lon":139.412292},{"name":"立川消防署錦町出張所","province":"東京都","city":"立川市","address":"東京都立川市錦町3丁目6-18","lat":35.692916,"lon":139.417391},{"name":"立川市役所本庁舎","province":"東京都","city":"立川市","address":"東京都立川市泉町1156-9","lat":35.713742,"lon":139.408223},{"name":"立川市役所本庁舎","province":"東京都","city":"立川市","address":"東京都立川市泉町1156-9","lat":35.714049,"lon":139.407576},{"name":"歴史民俗資料館","province":"東京都","city":"立川市","address":"東京都立川市富士見町3丁目12-34","lat":35.696952,"lon":139.389968},{"name":"柴崎学習館","province":"東京都","city":"立川市","address":"東京都立川市柴崎町2丁目15-8","lat":35.694675,"lon":139.408111},{"name":"柴崎学習館","province":"東京都","city":"立川市","address":"東京都立川市柴崎町2丁目15-8","lat":35.694656,"lon":139.408129},{"name":"柴崎学習館","province":"東京都","city":"立川市","address":"東京都立川市柴崎町2丁目15-8","lat":35.694637,"lon":139.408116},{"name":"柴崎学習館","province":"東京都","city":"立川市","address":"東京都立川市柴崎町2丁目15-8","lat":35.694543,"lon":139.407988},{"name":"幸学習館","province":"東京都","city":"立川市","address":"東京都立川市幸町2丁目1-3","lat":35.719359,"lon":139.423562},{"name":"学習等供用施設　こんぴら橋会館","province":"東京都","city":"立川市","address":"東京都立川市砂川町3丁目26-1","lat":35.727899,"lon":139.399417},{"name":"学習等供用施設　こぶし会館","province":"東京都","city":"立川市","address":"東京都立川市幸町5丁目83-1","lat":35.725729,"lon":139.41845},{"name":"学習等供用施設　柴崎会館","province":"東京都","city":"立川市","address":"東京都立川市柴崎町1丁目16-3","lat":35.692461,"lon":139.407352},{"name":"学習等供用施設　西砂会館","province":"東京都","city":"立川市","address":"東京都立川市西砂町5丁目11-13","lat":35.732402,"lon":139.360686},{"name":"砂川学習館","province":"東京都","city":"立川市","address":"東京都立川市砂川町1丁目52-7","lat":35.722932,"lon":139.403145},{"name":"西砂学習館","province":"東京都","city":"立川市","address":"東京都立川市西砂町6丁目12-10","lat":35.729592,"lon":139.372141},{"name":"錦学習館","province":"東京都","city":"立川市","address":"東京都立川市錦町3丁目12-25","lat":35.6912,"lon":139.41644},{"name":"錦学習館","province":"東京都","city":"立川市","address":"東京都立川市錦町3丁目12-25","lat":35.691094,"lon":139.416334},{"name":"学習等供用施設　滝ノ上会館","province":"東京都","city":"立川市","address":"東京都立川市富士見町4丁目16-10","lat":35.695893,"lon":139.399022},{"name":"学習等供用施設　羽衣中央会館","province":"東京都","city":"立川市","address":"東京都立川市羽衣町2丁目26-7","lat":35.694145,"lon":139.428569},{"name":"学習等供用施設　天王橋会館","province":"東京都","city":"立川市","address":"東京都立川市一番町3丁目6-1","lat":35.728234,"lon":139.381},{"name":"学習等供用施設　さかえ会館","province":"東京都","city":"立川市","address":"東京都立川市栄町4丁目6-2","lat":35.710967,"lon":139.424958},{"name":"学習等供用施設上砂会館","province":"東京都","city":"立川市","address":"東京都立川市上砂町1丁目13-1","lat":35.720571,"lon":139.39151},{"name":"立川市健康会館","province":"東京都","city":"立川市","address":"東京都立川市高松町3丁目22-9","lat":35.702922,"lon":139.419238},{"name":"立川市柴崎図書館","province":"東京都","city":"立川市","address":"東京都立川市柴崎町2丁目20-3","lat":35.694538,"lon":139.40752},{"name":"立川市上砂図書館","province":"東京都","city":"立川市","address":"東京都立川市上砂町1丁目13-1","lat":35.720603,"lon":139.39171},{"name":"立川市多摩川図書館","province":"東京都","city":"立川市","address":"東京都立川市富士見町6丁目51-1","lat":35.691201,"lon":139.39322},{"name":"立川市若葉図書館","province":"東京都","city":"立川市","address":"東京都立川市若葉町3丁目34-1","lat":35.720187,"lon":139.439182},{"name":"立川市中央図書館","province":"東京都","city":"立川市","address":"東京都立川市曙町2丁目36-2","lat":35.702169,"lon":139.414096},{"name":"立川市子ども未来センター","province":"東京都","city":"立川市","address":"東京都立川市錦町3丁目2-26","lat":35.694266,"lon":139.419544},{"name":"川越道緑地古民家園","province":"東京都","city":"立川市","address":"東京都立川市幸町4丁目61","lat":35.725238,"lon":139.426912},{"name":"立川市総合福祉センター","province":"東京都","city":"立川市","address":"東京都立川市富士見町2丁目36-47","lat":35.701241,"lon":139.401907},{"name":"たましんRISURUホール(立川市市民会館)","province":"東京都","city":"立川市","address":"東京都立川市錦町3丁目3-20","lat":35.69319,"lon":139.420147},{"name":"たましんRISURUホール(立川市市民会館)","province":"東京都","city":"立川市","address":"東京都立川市錦町3丁目3-20","lat":35.693327,"lon":139.420254},{"name":"たましんRISURUホール(立川市市民会館)","province":"東京都","city":"立川市","address":"東京都立川市錦町3丁目3-20","lat":35.693284,"lon":139.420085},{"name":"たましんRISURUホール(立川市市民会館)","province":"東京都","city":"立川市","address":"東京都立川市錦町3丁目3-20","lat":35.693254,"lon":139.41994},{"name":"立川市市制50周年記念憩いの場","province":"東京都","city":"立川市","address":"東京都立川市曙町2丁目8","lat":35.701222,"lon":139.414638},{"name":"立川市緑町公園","province":"東京都","city":"立川市","address":"東京都立川市緑町","lat":35.705215,"lon":139.413008},{"name":"立川市緑町北公園","province":"東京都","city":"立川市","address":"東京都立川市緑町","lat":35.710293,"lon":139.411726},{"name":"立川市大山公園","province":"東京都","city":"立川市","address":"東京都立川市上砂町1丁目13","lat":35.720604,"lon":139.389689},{"name":"立川市立川公園","province":"東京都","city":"立川市","address":"東京都立川市柴崎町6丁目14","lat":35.689188,"lon":139.4103},{"name":"立川市立川公園","province":"東京都","city":"立川市","address":"東京都立川市柴崎町6丁目","lat":35.688975,"lon":139.408273},{"name":"立川市立川公園","province":"東京都","city":"立川市","address":"東京都立川市錦町6丁目29","lat":35.684593,"lon":139.415995},{"name":"立川市上砂公園","province":"東京都","city":"立川市","address":"東京都立川市上砂町1丁目14","lat":35.720433,"lon":139.392203},{"name":"立川市諏訪の森公園","province":"東京都","city":"立川市","address":"東京都立川市柴崎町1丁目1","lat":35.696094,"lon":139.406899},{"name":"立川市泉町西公園","province":"東京都","city":"立川市","address":"東京都立川市泉町","lat":35.718818,"lon":139.389377},{"name":"立川市錦第二公園","province":"東京都","city":"立川市","address":"東京都立川市錦町1丁目5","lat":35.697475,"lon":139.41853},{"name":"立川市若葉公園","province":"東京都","city":"立川市","address":"東京都立川市若葉町1丁目27","lat":35.717005,"lon":139.440225},{"name":"立川市砂川公園","province":"東京都","city":"立川市","address":"東京都立川市砂川町7丁目8","lat":35.730938,"lon":139.407735},{"name":"立川市西砂一みずたま公園","province":"東京都","city":"立川市","address":"東京都立川市西砂町1丁目2","lat":35.725214,"lon":139.37258},{"name":"立川市錦第三公園","province":"東京都","city":"立川市","address":"東京都立川市錦町3丁目9","lat":35.691037,"lon":139.419458},{"name":"立川市緑川第三公園","province":"東京都","city":"立川市","address":"東京都立川市羽衣町3丁目11","lat":35.690723,"lon":139.424032},{"name":"立川市緑川第一公園","province":"東京都","city":"立川市","address":"東京都立川市羽衣町1丁目","lat":35.697254,"lon":139.426396},{"name":"立川市富士見公園","province":"東京都","city":"立川市","address":"東京都立川市富士見町3丁目17","lat":35.69674,"lon":139.394978},{"name":"立川市富士見二さくら公園","province":"東京都","city":"立川市","address":"東京都立川市富士見町2丁目35","lat":35.701117,"lon":139.400442},{"name":"見影橋公園","province":"東京都","city":"立川市","address":"東京都立川市砂川町3丁目12","lat":35.727242,"lon":139.395487},{"name":"見影橋公園","province":"東京都","city":"立川市","address":"東京都立川市砂川町3丁目12","lat":35.728061,"lon":139.396421},{"name":"立川市柴崎中央公園","province":"東京都","city":"立川市","address":"東京都立川市柴崎町2丁目4","lat":35.696857,"lon":139.410513},{"name":"錦五南公園","province":"東京都","city":"立川市","address":"東京都立川市錦町5丁目15","lat":35.687497,"lon":139.413136},{"name":"羽衣東公園","province":"東京都","city":"立川市","address":"東京都立川市羽衣町2丁目55","lat":35.692147,"lon":139.430079},{"name":"立川市曙三第二公園","province":"東京都","city":"立川市","address":"東京都立川市曙町3丁目9","lat":35.699335,"lon":139.425393},{"name":"立川市立川駅南口公衆便所","province":"東京都","city":"立川市","address":"東京都立川市柴崎町3丁目2","lat":35.697266,"lon":139.413649},{"name":"立川市柴崎福祉会館","province":"東京都","city":"立川市","address":"東京都立川市柴崎町5丁目11-26","lat":35.688142,"lon":139.400855},{"name":"立川市柴崎福祉会館","province":"東京都","city":"立川市","address":"東京都立川市柴崎町5丁目11-26","lat":35.688153,"lon":139.401198},{"name":"立川市一番福祉会館","province":"東京都","city":"立川市","address":"東京都立川市一番町6丁目17-87","lat":35.734416,"lon":139.372642},{"name":"立川市一番福祉会館","province":"東京都","city":"立川市","address":"東京都立川市一番町6丁目17-87","lat":35.734394,"lon":139.372625},{"name":"立川市一番福祉会館","province":"東京都","city":"立川市","address":"東京都立川市一番町6丁目17","lat":35.734435,"lon":139.372607},{"name":"立川市一番福祉会館","province":"東京都","city":"立川市","address":"東京都立川市一番町6丁目17-87","lat":35.73441,"lon":139.372589},{"name":"立川市曙福祉会館","province":"東京都","city":"立川市","address":"東京都立川市曙町3丁目44-17","lat":35.705812,"lon":139.424894},{"name":"立川市幸福祉会館","province":"東京都","city":"立川市","address":"東京都立川市幸町5丁目57-14","lat":35.725813,"lon":139.423309},{"name":"立川市錦児童館","province":"東京都","city":"立川市","address":"東京都立川市錦町3丁目12-1","lat":35.691601,"lon":139.416429},{"name":"立川市若葉児童館","province":"東京都","city":"立川市","address":"東京都立川市若葉町4丁目25-114","lat":35.722271,"lon":139.443592},{"name":"立川市上砂児童館","province":"東京都","city":"立川市","address":"東京都立川市上砂町1丁目13-1","lat":35.720996,"lon":139.391579},{"name":"立川市西砂児童館","province":"東京都","city":"立川市","address":"東京都立川市一番町6丁目8-37","lat":35.732618,"lon":139.37625},{"name":"立川市総合リサイクルセンター","province":"東京都","city":"立川市","address":"東京都立川市西砂町4丁目77-1","lat":35.736423,"lon":139.35705},{"name":"立川市総合リサイクルセンター","province":"東京都","city":"立川市","address":"東京都立川市西砂町4丁目77-1","lat":35.73641,"lon":139.357043},{"name":"女性総合センターアイム","province":"東京都","city":"立川市","address":"東京都立川市曙町2丁目36-2","lat":35.702163,"lon":139.414102},{"name":"女性総合センターアイム","province":"東京都","city":"立川市","address":"東京都立川市曙町2丁目36-2","lat":35.702169,"lon":139.414096},{"name":"立川市魅力発信拠点施設コトリンク","province":"東京都","city":"立川市","address":"東京都立川市柴崎町3丁目9","lat":35.695609,"lon":139.411817},{"name":"クリーンセンターたちむにぃ","province":"東京都","city":"立川市","address":"東京都立川市泉町2002","lat":35.716991,"lon":139.388386},{"name":"クリーンセンターたちむにぃ","province":"東京都","city":"立川市","address":"東京都立川市泉町2002","lat":35.716935,"lon":139.38846},{"name":"立川市学校給食西共同調理場","province":"東京都","city":"立川市","address":"東京都立川市泉町1156-14","lat":35.720061,"lon":139.399967},{"name":"立川市学校給食東共同調理場","province":"東京都","city":"立川市","address":"東京都立川市泉町","lat":35.720038,"lon":139.401194},{"name":"立川地域防災センター","province":"東京都","city":"立川市","address":"東京都立川市緑町3233-2","lat":35.70626977,"lon":139.40773762},{"name":"国立病院機構災害医療センターヘリポート","province":"東京都","city":"立川市","address":"東京都立川市緑町3256","lat":35.70745023,"lon":139.4092319},{"name":"＊?柴崎学習館","province":"東京都","city":"立川市","address":"立川市柴崎町1-1-43","lat":35.696668,"lon":139.406788},{"name":"＊?高松学習館","province":"東京都","city":"立川市","address":"立川市高松町3-22-5","lat":35.703007,"lon":139.419146},{"name":"＊?錦学習館","province":"東京都","city":"立川市","address":"立川市錦町3-12-25","lat":35.691166,"lon":139.416405},{"name":"＊?西砂学習館","province":"東京都","city":"立川市","address":"立川市西砂町6-12-10","lat":35.729611,"lon":139.372162},{"name":"＊?幸学習館","province":"東京都","city":"立川市","address":"立川市幸町2-1-3","lat":35.71924,"lon":139.423558},{"name":"＊?砂川学習館","province":"東京都","city":"立川市","address":"立川市砂川町1-52-7","lat":35.722836,"lon":139.403143},{"name":"＊?羽衣中央会館","province":"東京都","city":"立川市","address":"立川市羽衣町2-26-7","lat":35.694145,"lon":139.428577},{"name":"＊?滝ノ上会館","province":"東京都","city":"立川市","address":"立川市富士見町4-16-10","lat":35.695906,"lon":139.39902},{"name":"＊?高松会館","province":"東京都","city":"立川市","address":"立川市高松町2-25-26","lat":35.704184,"lon":139.420185},{"name":"＊?柴崎会館","province":"東京都","city":"立川市","address":"立川市柴崎町1-16-3","lat":35.692372,"lon":139.407383},{"name":"＊?さかえ会館","province":"東京都","city":"立川市","address":"立川市栄町4-6-2","lat":35.710967,"lon":139.424959},{"name":"＊?西砂会館","province":"東京都","city":"立川市","address":"立川市西砂町5-11-13","lat":35.73237,"lon":139.360661},{"name":"＊?天王橋会館","province":"東京都","city":"立川市","address":"立川市一番町3-6-1","lat":35.728235,"lon":139.381028},{"name":"＊?上砂会館","province":"東京都","city":"立川市","address":"立川市上砂町1-31-1","lat":35.720165,"lon":139.395635},{"name":"＊?若葉会館","province":"東京都","city":"立川市","address":"立川市若葉町3-34-1","lat":35.720211,"lon":139.439189},{"name":"＊?こんぴら橋会館","province":"東京都","city":"立川市","address":"立川市砂川町3-26-1","lat":35.727886,"lon":139.399503},{"name":"＊?こぶし会館","province":"東京都","city":"立川市","address":"立川市幸町5-83-1","lat":35.725742,"lon":139.418449},{"name":"立川市本庁舎","province":"東京都","city":"立川市","address":"東京都立川市泉町1156-9","lat":35.71399946,"lon":139.4078846},{"name":"柴崎市民体育館","province":"東京都","city":"立川市","address":"東京都立川市柴崎町6丁目15-9","lat":35.68827745,"lon":139.4111158},{"name":"泉市民体育館","province":"東京都","city":"立川市","address":"東京都立川市泉町786-11","lat":35.71897695,"lon":139.41870575},{"name":"北多摩北部建設事務所","province":"東京都","city":"立川市","address":"立川市柴崎町2-15-19","lat":35.69497,"lon":139.4087},{"name":"多摩都市モノレール（株）","province":"東京都","city":"立川市","address":"立川市泉町1078-92","lat":35.71611,"lon":139.4094},{"name":"立川地域防災センター","province":"東京都","city":"立川市","address":"立川市緑町3233","lat":35.70627,"lon":139.4077},{"name":"市村酸素（株）","province":"東京都","city":"立川市","address":"立川市錦町2-11-5","lat":35.69225,"lon":139.4149},{"name":"立川地域防災センター","province":"東京都","city":"立川市","address":"東京都立川市緑町3233","lat":35.70626977,"lon":139.40773762},{"name":"※立川市本庁舎","province":"東京都","city":"立川市","address":"東京都立川市泉町1156-9","lat":35.71399946,"lon":139.4078846},{"name":"立川駅","province":"東京都","city":"立川市","address":"東京都立川市曙町2丁目1-1","lat":35.69811809,"lon":139.41402907},{"name":"※立川地域防災センター","province":"東京都","city":"立川市","address":"東京都立川市緑町3233","lat":35.70626977,"lon":139.40773762},{"name":"立川聖苑","province":"東京都","city":"立川市","address":"東京都立川市羽衣町3丁目20-18","lat":35.68886941,"lon":139.42420084},{"name":"東京都多摩広域防災倉庫","province":"東京都","city":"立川市","address":"東京都立川市緑町3256","lat":35.708122,"lon":139.408036},{"name":"立川合同庁舎","province":"東京都","city":"立川市","address":"東京都立川市錦町4丁目6-3","lat":35.691872,"lon":139.420706},{"name":"東京都多摩立川保健所","province":"東京都","city":"立川市","address":"東京都立川市柴崎町2丁目21-19","lat":35.694076,"lon":139.40867},{"name":"労働相談情報センター多摩事務所","province":"東京都","city":"立川市","address":"東京都立川市柴崎町3丁目9-2","lat":35.695507,"lon":139.412061},{"name":"東京都農林水産振興財団立川庁舎","province":"東京都","city":"立川市","address":"東京都立川市富士見町3丁目8-1","lat":35.69865,"lon":139.392906},{"name":"東京しごとセンター多摩","province":"東京都","city":"立川市","address":"東京都立川市柴崎町3丁目9-2","lat":35.69553,"lon":139.411957},{"name":"東京都水道局多摩水道改革推進本部","province":"東京都","city":"立川市","address":"東京都立川市緑町6-7","lat":35.708756,"lon":139.412292},{"name":"立川消防署錦町出張所","province":"東京都","city":"立川市","address":"東京都立川市錦町3丁目6-18","lat":35.692916,"lon":139.417391},{"name":"立川市役所本庁舎","province":"東京都","city":"立川市","address":"東京都立川市泉町1156-9","lat":35.713742,"lon":139.408223},{"name":"立川市役所本庁舎","province":"東京都","city":"立川市","address":"東京都立川市泉町1156-9","lat":35.714049,"lon":139.407576},{"name":"歴史民俗資料館","province":"東京都","city":"立川市","address":"東京都立川市富士見町3丁目12-34","lat":35.696952,"lon":139.389968},{"name":"柴崎学習館","province":"東京都","city":"立川市","address":"東京都立川市柴崎町2丁目15-8","lat":35.694675,"lon":139.408111},{"name":"柴崎学習館","province":"東京都","city":"立川市","address":"東京都立川市柴崎町2丁目15-8","lat":35.694656,"lon":139.408129},{"name":"柴崎学習館","province":"東京都","city":"立川市","address":"東京都立川市柴崎町2丁目15-8","lat":35.694637,"lon":139.408116},{"name":"柴崎学習館","province":"東京都","city":"立川市","address":"東京都立川市柴崎町2丁目15-8","lat":35.694543,"lon":139.407988},{"name":"幸学習館","province":"東京都","city":"立川市","address":"東京都立川市幸町2丁目1-3","lat":35.719359,"lon":139.423562},{"name":"学習等供用施設　こんぴら橋会館","province":"東京都","city":"立川市","address":"東京都立川市砂川町3丁目26-1","lat":35.727899,"lon":139.399417},{"name":"学習等供用施設　こぶし会館","province":"東京都","city":"立川市","address":"東京都立川市幸町5丁目83-1","lat":35.725729,"lon":139.41845},{"name":"学習等供用施設　柴崎会館","province":"東京都","city":"立川市","address":"東京都立川市柴崎町1丁目16-3","lat":35.692461,"lon":139.407352},{"name":"学習等供用施設　西砂会館","province":"東京都","city":"立川市","address":"東京都立川市西砂町5丁目11-13","lat":35.732402,"lon":139.360686},{"name":"砂川学習館","province":"東京都","city":"立川市","address":"東京都立川市砂川町1丁目52-7","lat":35.722932,"lon":139.403145},{"name":"西砂学習館","province":"東京都","city":"立川市","address":"東京都立川市西砂町6丁目12-10","lat":35.729592,"lon":139.372141},{"name":"錦学習館","province":"東京都","city":"立川市","address":"東京都立川市錦町3丁目12-25","lat":35.6912,"lon":139.41644},{"name":"錦学習館","province":"東京都","city":"立川市","address":"東京都立川市錦町3丁目12-25","lat":35.691094,"lon":139.416334},{"name":"学習等供用施設　滝ノ上会館","province":"東京都","city":"立川市","address":"東京都立川市富士見町4丁目16-10","lat":35.695893,"lon":139.399022},{"name":"学習等供用施設　羽衣中央会館","province":"東京都","city":"立川市","address":"東京都立川市羽衣町2丁目26-7","lat":35.694145,"lon":139.428569},{"name":"学習等供用施設　天王橋会館","province":"東京都","city":"立川市","address":"東京都立川市一番町3丁目6-1","lat":35.728234,"lon":139.381},{"name":"学習等供用施設　さかえ会館","province":"東京都","city":"立川市","address":"東京都立川市栄町4丁目6-2","lat":35.710967,"lon":139.424958},{"name":"学習等供用施設上砂会館","province":"東京都","city":"立川市","address":"東京都立川市上砂町1丁目13-1","lat":35.720571,"lon":139.39151},{"name":"立川市健康会館","province":"東京都","city":"立川市","address":"東京都立川市高松町3丁目22-9","lat":35.702922,"lon":139.419238},{"name":"立川市柴崎図書館","province":"東京都","city":"立川市","address":"東京都立川市柴崎町2丁目20-3","lat":35.694538,"lon":139.40752},{"name":"立川市上砂図書館","province":"東京都","city":"立川市","address":"東京都立川市上砂町1丁目13-1","lat":35.720603,"lon":139.39171},{"name":"立川市多摩川図書館","province":"東京都","city":"立川市","address":"東京都立川市富士見町6丁目51-1","lat":35.691201,"lon":139.39322},{"name":"立川市若葉図書館","province":"東京都","city":"立川市","address":"東京都立川市若葉町3丁目34-1","lat":35.720187,"lon":139.439182},{"name":"立川市中央図書館","province":"東京都","city":"立川市","address":"東京都立川市曙町2丁目36-2","lat":35.702169,"lon":139.414096},{"name":"立川市子ども未来センター","province":"東京都","city":"立川市","address":"東京都立川市錦町3丁目2-26","lat":35.694266,"lon":139.419544},{"name":"川越道緑地古民家園","province":"東京都","city":"立川市","address":"東京都立川市幸町4丁目61","lat":35.725238,"lon":139.426912},{"name":"立川市総合福祉センター","province":"東京都","city":"立川市","address":"東京都立川市富士見町2丁目36-47","lat":35.701241,"lon":139.401907},{"name":"たましんRISURUホール(立川市市民会館)","province":"東京都","city":"立川市","address":"東京都立川市錦町3丁目3-20","lat":35.69319,"lon":139.420147},{"name":"たましんRISURUホール(立川市市民会館)","province":"東京都","city":"立川市","address":"東京都立川市錦町3丁目3-20","lat":35.693327,"lon":139.420254},{"name":"たましんRISURUホール(立川市市民会館)","province":"東京都","city":"立川市","address":"東京都立川市錦町3丁目3-20","lat":35.693284,"lon":139.420085},{"name":"たましんRISURUホール(立川市市民会館)","province":"東京都","city":"立川市","address":"東京都立川市錦町3丁目3-20","lat":35.693254,"lon":139.41994},{"name":"立川市市制50周年記念憩いの場","province":"東京都","city":"立川市","address":"東京都立川市曙町2丁目8","lat":35.701222,"lon":139.414638},{"name":"立川市緑町公園","province":"東京都","city":"立川市","address":"東京都立川市緑町","lat":35.705215,"lon":139.413008},{"name":"立川市緑町北公園","province":"東京都","city":"立川市","address":"東京都立川市緑町","lat":35.710293,"lon":139.411726},{"name":"立川市大山公園","province":"東京都","city":"立川市","address":"東京都立川市上砂町1丁目13","lat":35.720604,"lon":139.389689},{"name":"立川市立川公園","province":"東京都","city":"立川市","address":"東京都立川市柴崎町6丁目14","lat":35.689188,"lon":139.4103},{"name":"立川市立川公園","province":"東京都","city":"立川市","address":"東京都立川市柴崎町6丁目","lat":35.688975,"lon":139.408273},{"name":"立川市立川公園","province":"東京都","city":"立川市","address":"東京都立川市錦町6丁目29","lat":35.684593,"lon":139.415995},{"name":"立川市上砂公園","province":"東京都","city":"立川市","address":"東京都立川市上砂町1丁目14","lat":35.720433,"lon":139.392203},{"name":"立川市諏訪の森公園","province":"東京都","city":"立川市","address":"東京都立川市柴崎町1丁目1","lat":35.696094,"lon":139.406899},{"name":"立川市泉町西公園","province":"東京都","city":"立川市","address":"東京都立川市泉町","lat":35.718818,"lon":139.389377},{"name":"立川市錦第二公園","province":"東京都","city":"立川市","address":"東京都立川市錦町1丁目5","lat":35.697475,"lon":139.41853},{"name":"立川市若葉公園","province":"東京都","city":"立川市","address":"東京都立川市若葉町1丁目27","lat":35.717005,"lon":139.440225},{"name":"立川市砂川公園","province":"東京都","city":"立川市","address":"東京都立川市砂川町7丁目8","lat":35.730938,"lon":139.407735},{"name":"立川市西砂一みずたま公園","province":"東京都","city":"立川市","address":"東京都立川市西砂町1丁目2","lat":35.725214,"lon":139.37258},{"name":"立川市錦第三公園","province":"東京都","city":"立川市","address":"東京都立川市錦町3丁目9","lat":35.691037,"lon":139.419458},{"name":"立川市緑川第三公園","province":"東京都","city":"立川市","address":"東京都立川市羽衣町3丁目11","lat":35.690723,"lon":139.424032},{"name":"立川市緑川第一公園","province":"東京都","city":"立川市","address":"東京都立川市羽衣町1丁目","lat":35.697254,"lon":139.426396},{"name":"立川市富士見公園","province":"東京都","city":"立川市","address":"東京都立川市富士見町3丁目17","lat":35.69674,"lon":139.394978},{"name":"立川市富士見二さくら公園","province":"東京都","city":"立川市","address":"東京都立川市富士見町2丁目35","lat":35.701117,"lon":139.400442},{"name":"見影橋公園","province":"東京都","city":"立川市","address":"東京都立川市砂川町3丁目12","lat":35.727242,"lon":139.395487},{"name":"見影橋公園","province":"東京都","city":"立川市","address":"東京都立川市砂川町3丁目12","lat":35.728061,"lon":139.396421},{"name":"立川市柴崎中央公園","province":"東京都","city":"立川市","address":"東京都立川市柴崎町2丁目4","lat":35.696857,"lon":139.410513},{"name":"錦五南公園","province":"東京都","city":"立川市","address":"東京都立川市錦町5丁目15","lat":35.687497,"lon":139.413136},{"name":"羽衣東公園","province":"東京都","city":"立川市","address":"東京都立川市羽衣町2丁目55","lat":35.692147,"lon":139.430079},{"name":"立川市曙三第二公園","province":"東京都","city":"立川市","address":"東京都立川市曙町3丁目9","lat":35.699335,"lon":139.425393},{"name":"立川市立川駅南口公衆便所","province":"東京都","city":"立川市","address":"東京都立川市柴崎町3丁目2","lat":35.697266,"lon":139.413649},{"name":"立川市柴崎福祉会館","province":"東京都","city":"立川市","address":"東京都立川市柴崎町5丁目11-26","lat":35.688142,"lon":139.400855},{"name":"立川市柴崎福祉会館","province":"東京都","city":"立川市","address":"東京都立川市柴崎町5丁目11-26","lat":35.688153,"lon":139.401198},{"name":"立川市一番福祉会館","province":"東京都","city":"立川市","address":"東京都立川市一番町6丁目17-87","lat":35.734416,"lon":139.372642},{"name":"立川市一番福祉会館","province":"東京都","city":"立川市","address":"東京都立川市一番町6丁目17-87","lat":35.734394,"lon":139.372625},{"name":"立川市一番福祉会館","province":"東京都","city":"立川市","address":"東京都立川市一番町6丁目17","lat":35.734435,"lon":139.372607},{"name":"立川市一番福祉会館","province":"東京都","city":"立川市","address":"東京都立川市一番町6丁目17-87","lat":35.73441,"lon":139.372589},{"name":"立川市曙福祉会館","province":"東京都","city":"立川市","address":"東京都立川市曙町3丁目44-17","lat":35.705812,"lon":139.424894},{"name":"立川市幸福祉会館","province":"東京都","city":"立川市","address":"東京都立川市幸町5丁目57-14","lat":35.725813,"lon":139.423309},{"name":"立川市錦児童館","province":"東京都","city":"立川市","address":"東京都立川市錦町3丁目12-1","lat":35.691601,"lon":139.416429},{"name":"立川市若葉児童館","province":"東京都","city":"立川市","address":"東京都立川市若葉町4丁目25-114","lat":35.722271,"lon":139.443592},{"name":"立川市上砂児童館","province":"東京都","city":"立川市","address":"東京都立川市上砂町1丁目13-1","lat":35.720996,"lon":139.391579},{"name":"立川市西砂児童館","province":"東京都","city":"立川市","address":"東京都立川市一番町6丁目8-37","lat":35.732618,"lon":139.37625},{"name":"立川市総合リサイクルセンター","province":"東京都","city":"立川市","address":"東京都立川市西砂町4丁目77-1","lat":35.736423,"lon":139.35705},{"name":"立川市総合リサイクルセンター","province":"東京都","city":"立川市","address":"東京都立川市西砂町4丁目77-1","lat":35.73641,"lon":139.357043},{"name":"女性総合センターアイム","province":"東京都","city":"立川市","address":"東京都立川市曙町2丁目36-2","lat":35.702163,"lon":139.414102},{"name":"女性総合センターアイム","province":"東京都","city":"立川市","address":"東京都立川市曙町2丁目36-2","lat":35.702169,"lon":139.414096},{"name":"立川市魅力発信拠点施設コトリンク","province":"東京都","city":"立川市","address":"東京都立川市柴崎町3丁目9","lat":35.695609,"lon":139.411817},{"name":"クリーンセンターたちむにぃ","province":"東京都","city":"立川市","address":"東京都立川市泉町2002","lat":35.716991,"lon":139.388386},{"name":"クリーンセンターたちむにぃ","province":"東京都","city":"立川市","address":"東京都立川市泉町2002","lat":35.716935,"lon":139.38846},{"name":"立川市学校給食西共同調理場","province":"東京都","city":"立川市","address":"東京都立川市泉町1156-14","lat":35.720061,"lon":139.399967},{"name":"立川市学校給食東共同調理場","province":"東京都","city":"立川市","address":"東京都立川市泉町","lat":35.720038,"lon":139.401194},{"name":"立川地域防災センター","province":"東京都","city":"立川市","address":"東京都立川市緑町3233-2","lat":35.70626977,"lon":139.40773762},{"name":"＊?柴崎学習館","province":"東京都","city":"立川市","address":"立川市柴崎町1-1-43","lat":35.696668,"lon":139.406788},{"name":"＊?高松学習館","province":"東京都","city":"立川市","address":"立川市高松町3-22-5","lat":35.703007,"lon":139.419146},{"name":"＊?錦学習館","province":"東京都","city":"立川市","address":"立川市錦町3-12-25","lat":35.691166,"lon":139.416405},{"name":"＊?西砂学習館","province":"東京都","city":"立川市","address":"立川市西砂町6-12-10","lat":35.729611,"lon":139.372162},{"name":"＊?幸学習館","province":"東京都","city":"立川市","address":"立川市幸町2-1-3","lat":35.71924,"lon":139.423558},{"name":"＊?砂川学習館","province":"東京都","city":"立川市","address":"立川市砂川町1-52-7","lat":35.722836,"lon":139.403143},{"name":"＊?羽衣中央会館","province":"東京都","city":"立川市","address":"立川市羽衣町2-26-7","lat":35.694145,"lon":139.428577},{"name":"＊?滝ノ上会館","province":"東京都","city":"立川市","address":"立川市富士見町4-16-10","lat":35.695906,"lon":139.39902},{"name":"＊?高松会館","province":"東京都","city":"立川市","address":"立川市高松町2-25-26","lat":35.704184,"lon":139.420185},{"name":"＊?柴崎会館","province":"東京都","city":"立川市","address":"立川市柴崎町1-16-3","lat":35.692372,"lon":139.407383},{"name":"＊?さかえ会館","province":"東京都","city":"立川市","address":"立川市栄町4-6-2","lat":35.710967,"lon":139.424959},{"name":"＊?西砂会館","province":"東京都","city":"立川市","address":"立川市西砂町5-11-13","lat":35.73237,"lon":139.360661},{"name":"＊?天王橋会館","province":"東京都","city":"立川市","address":"立川市一番町3-6-1","lat":35.728235,"lon":139.381028},{"name":"＊?上砂会館","province":"東京都","city":"立川市","address":"立川市上砂町1-31-1","lat":35.720165,"lon":139.395635},{"name":"＊?若葉会館","province":"東京都","city":"立川市","address":"立川市若葉町3-34-1","lat":35.720211,"lon":139.439189},{"name":"＊?こんぴら橋会館","province":"東京都","city":"立川市","address":"立川市砂川町3-26-1","lat":35.727886,"lon":139.399503},{"name":"＊?こぶし会館","province":"東京都","city":"立川市","address":"立川市幸町5-83-1","lat":35.725742,"lon":139.418449},{"name":"東京都多摩広域防災倉庫","province":"東京都","city":"立川市","address":"東京都立川市緑町3256","lat":35.708122,"lon":139.408036},{"name":"立川合同庁舎","province":"東京都","city":"立川市","address":"東京都立川市錦町4丁目6-3","lat":35.691872,"lon":139.420706},{"name":"東京都多摩立川保健所","province":"東京都","city":"立川市","address":"東京都立川市柴崎町2丁目21-19","lat":35.694076,"lon":139.40867},{"name":"労働相談情報センター多摩事務所","province":"東京都","city":"立川市","address":"東京都立川市柴崎町3丁目9-2","lat":35.695507,"lon":139.412061},{"name":"東京都農林水産振興財団立川庁舎","province":"東京都","city":"立川市","address":"東京都立川市富士見町3丁目8-1","lat":35.69865,"lon":139.392906},{"name":"東京しごとセンター多摩","province":"東京都","city":"立川市","address":"東京都立川市柴崎町3丁目9-2","lat":35.69553,"lon":139.411957},{"name":"東京都水道局多摩水道改革推進本部","province":"東京都","city":"立川市","address":"東京都立川市緑町6-7","lat":35.708756,"lon":139.412292},{"name":"立川消防署錦町出張所","province":"東京都","city":"立川市","address":"東京都立川市錦町3丁目6-18","lat":35.692916,"lon":139.417391},{"name":"立川市役所本庁舎","province":"東京都","city":"立川市","address":"東京都立川市泉町1156-9","lat":35.713742,"lon":139.408223},{"name":"立川市役所本庁舎","province":"東京都","city":"立川市","address":"東京都立川市泉町1156-9","lat":35.714049,"lon":139.407576},{"name":"歴史民俗資料館","province":"東京都","city":"立川市","address":"東京都立川市富士見町3丁目12-34","lat":35.696952,"lon":139.389968},{"name":"柴崎学習館","province":"東京都","city":"立川市","address":"東京都立川市柴崎町2丁目15-8","lat":35.694675,"lon":139.408111},{"name":"柴崎学習館","province":"東京都","city":"立川市","address":"東京都立川市柴崎町2丁目15-8","lat":35.694656,"lon":139.408129},{"name":"柴崎学習館","province":"東京都","city":"立川市","address":"東京都立川市柴崎町2丁目15-8","lat":35.694637,"lon":139.408116},{"name":"柴崎学習館","province":"東京都","city":"立川市","address":"東京都立川市柴崎町2丁目15-8","lat":35.694543,"lon":139.407988},{"name":"幸学習館","province":"東京都","city":"立川市","address":"東京都立川市幸町2丁目1-3","lat":35.719359,"lon":139.423562},{"name":"学習等供用施設　こんぴら橋会館","province":"東京都","city":"立川市","address":"東京都立川市砂川町3丁目26-1","lat":35.727899,"lon":139.399417},{"name":"学習等供用施設　こぶし会館","province":"東京都","city":"立川市","address":"東京都立川市幸町5丁目83-1","lat":35.725729,"lon":139.41845},{"name":"学習等供用施設　柴崎会館","province":"東京都","city":"立川市","address":"東京都立川市柴崎町1丁目16-3","lat":35.692461,"lon":139.407352},{"name":"学習等供用施設　西砂会館","province":"東京都","city":"立川市","address":"東京都立川市西砂町5丁目11-13","lat":35.732402,"lon":139.360686},{"name":"砂川学習館","province":"東京都","city":"立川市","address":"東京都立川市砂川町1丁目52-7","lat":35.722932,"lon":139.403145},{"name":"西砂学習館","province":"東京都","city":"立川市","address":"東京都立川市西砂町6丁目12-10","lat":35.729592,"lon":139.372141},{"name":"錦学習館","province":"東京都","city":"立川市","address":"東京都立川市錦町3丁目12-25","lat":35.6912,"lon":139.41644},{"name":"錦学習館","province":"東京都","city":"立川市","address":"東京都立川市錦町3丁目12-25","lat":35.691094,"lon":139.416334},{"name":"学習等供用施設　滝ノ上会館","province":"東京都","city":"立川市","address":"東京都立川市富士見町4丁目16-10","lat":35.695893,"lon":139.399022},{"name":"学習等供用施設　羽衣中央会館","province":"東京都","city":"立川市","address":"東京都立川市羽衣町2丁目26-7","lat":35.694145,"lon":139.428569},{"name":"学習等供用施設　天王橋会館","province":"東京都","city":"立川市","address":"東京都立川市一番町3丁目6-1","lat":35.728234,"lon":139.381},{"name":"学習等供用施設　さかえ会館","province":"東京都","city":"立川市","address":"東京都立川市栄町4丁目6-2","lat":35.710967,"lon":139.424958},{"name":"学習等供用施設上砂会館","province":"東京都","city":"立川市","address":"東京都立川市上砂町1丁目13-1","lat":35.720571,"lon":139.39151},{"name":"立川市健康会館","province":"東京都","city":"立川市","address":"東京都立川市高松町3丁目22-9","lat":35.702922,"lon":139.419238},{"name":"立川市柴崎図書館","province":"東京都","city":"立川市","address":"東京都立川市柴崎町2丁目20-3","lat":35.694538,"lon":139.40752},{"name":"立川市上砂図書館","province":"東京都","city":"立川市","address":"東京都立川市上砂町1丁目13-1","lat":35.720603,"lon":139.39171},{"name":"立川市多摩川図書館","province":"東京都","city":"立川市","address":"東京都立川市富士見町6丁目51-1","lat":35.691201,"lon":139.39322},{"name":"立川市若葉図書館","province":"東京都","city":"立川市","address":"東京都立川市若葉町3丁目34-1","lat":35.720187,"lon":139.439182},{"name":"立川市中央図書館","province":"東京都","city":"立川市","address":"東京都立川市曙町2丁目36-2","lat":35.702169,"lon":139.414096},{"name":"立川市子ども未来センター","province":"東京都","city":"立川市","address":"東京都立川市錦町3丁目2-26","lat":35.694266,"lon":139.419544},{"name":"川越道緑地古民家園","province":"東京都","city":"立川市","address":"東京都立川市幸町4丁目61","lat":35.725238,"lon":139.426912},{"name":"立川市総合福祉センター","province":"東京都","city":"立川市","address":"東京都立川市富士見町2丁目36-47","lat":35.701241,"lon":139.401907},{"name":"たましんRISURUホール(立川市市民会館)","province":"東京都","city":"立川市","address":"東京都立川市錦町3丁目3-20","lat":35.69319,"lon":139.420147},{"name":"たましんRISURUホール(立川市市民会館)","province":"東京都","city":"立川市","address":"東京都立川市錦町3丁目3-20","lat":35.693327,"lon":139.420254},{"name":"たましんRISURUホール(立川市市民会館)","province":"東京都","city":"立川市","address":"東京都立川市錦町3丁目3-20","lat":35.693284,"lon":139.420085},{"name":"たましんRISURUホール(立川市市民会館)","province":"東京都","city":"立川市","address":"東京都立川市錦町3丁目3-20","lat":35.693254,"lon":139.41994},{"name":"立川市市制50周年記念憩いの場","province":"東京都","city":"立川市","address":"東京都立川市曙町2丁目8","lat":35.701222,"lon":139.414638},{"name":"立川市緑町公園","province":"東京都","city":"立川市","address":"東京都立川市緑町","lat":35.705215,"lon":139.413008},{"name":"立川市緑町北公園","province":"東京都","city":"立川市","address":"東京都立川市緑町","lat":35.710293,"lon":139.411726},{"name":"立川市大山公園","province":"東京都","city":"立川市","address":"東京都立川市上砂町1丁目13","lat":35.720604,"lon":139.389689},{"name":"立川市立川公園","province":"東京都","city":"立川市","address":"東京都立川市柴崎町6丁目14","lat":35.689188,"lon":139.4103},{"name":"立川市立川公園","province":"東京都","city":"立川市","address":"東京都立川市柴崎町6丁目","lat":35.688975,"lon":139.408273},{"name":"立川市立川公園","province":"東京都","city":"立川市","address":"東京都立川市錦町6丁目29","lat":35.684593,"lon":139.415995},{"name":"立川市上砂公園","province":"東京都","city":"立川市","address":"東京都立川市上砂町1丁目14","lat":35.720433,"lon":139.392203},{"name":"立川市諏訪の森公園","province":"東京都","city":"立川市","address":"東京都立川市柴崎町1丁目1","lat":35.696094,"lon":139.406899},{"name":"立川市泉町西公園","province":"東京都","city":"立川市","address":"東京都立川市泉町","lat":35.718818,"lon":139.389377},{"name":"立川市錦第二公園","province":"東京都","city":"立川市","address":"東京都立川市錦町1丁目5","lat":35.697475,"lon":139.41853},{"name":"立川市若葉公園","province":"東京都","city":"立川市","address":"東京都立川市若葉町1丁目27","lat":35.717005,"lon":139.440225},{"name":"立川市砂川公園","province":"東京都","city":"立川市","address":"東京都立川市砂川町7丁目8","lat":35.730938,"lon":139.407735},{"name":"立川市西砂一みずたま公園","province":"東京都","city":"立川市","address":"東京都立川市西砂町1丁目2","lat":35.725214,"lon":139.37258},{"name":"立川市錦第三公園","province":"東京都","city":"立川市","address":"東京都立川市錦町3丁目9","lat":35.691037,"lon":139.419458},{"name":"立川市緑川第三公園","province":"東京都","city":"立川市","address":"東京都立川市羽衣町3丁目11","lat":35.690723,"lon":139.424032},{"name":"立川市緑川第一公園","province":"東京都","city":"立川市","address":"東京都立川市羽衣町1丁目","lat":35.697254,"lon":139.426396},{"name":"立川市富士見公園","province":"東京都","city":"立川市","address":"東京都立川市富士見町3丁目17","lat":35.69674,"lon":139.394978},{"name":"立川市富士見二さくら公園","province":"東京都","city":"立川市","address":"東京都立川市富士見町2丁目35","lat":35.701117,"lon":139.400442},{"name":"見影橋公園","province":"東京都","city":"立川市","address":"東京都立川市砂川町3丁目12","lat":35.727242,"lon":139.395487},{"name":"見影橋公園","province":"東京都","city":"立川市","address":"東京都立川市砂川町3丁目12","lat":35.728061,"lon":139.396421},{"name":"立川市柴崎中央公園","province":"東京都","city":"立川市","address":"東京都立川市柴崎町2丁目4","lat":35.696857,"lon":139.410513},{"name":"錦五南公園","province":"東京都","city":"立川市","address":"東京都立川市錦町5丁目15","lat":35.687497,"lon":139.413136},{"name":"羽衣東公園","province":"東京都","city":"立川市","address":"東京都立川市羽衣町2丁目55","lat":35.692147,"lon":139.430079},{"name":"立川市曙三第二公園","province":"東京都","city":"立川市","address":"東京都立川市曙町3丁目9","lat":35.699335,"lon":139.425393},{"name":"立川市立川駅南口公衆便所","province":"東京都","city":"立川市","address":"東京都立川市柴崎町3丁目2","lat":35.697266,"lon":139.413649},{"name":"立川市柴崎福祉会館","province":"東京都","city":"立川市","address":"東京都立川市柴崎町5丁目11-26","lat":35.688142,"lon":139.400855},{"name":"立川市柴崎福祉会館","province":"東京都","city":"立川市","address":"東京都立川市柴崎町5丁目11-26","lat":35.688153,"lon":139.401198},{"name":"立川市一番福祉会館","province":"東京都","city":"立川市","address":"東京都立川市一番町6丁目17-87","lat":35.734416,"lon":139.372642},{"name":"立川市一番福祉会館","province":"東京都","city":"立川市","address":"東京都立川市一番町6丁目17-87","lat":35.734394,"lon":139.372625},{"name":"立川市一番福祉会館","province":"東京都","city":"立川市","address":"東京都立川市一番町6丁目17","lat":35.734435,"lon":139.372607},{"name":"立川市一番福祉会館","province":"東京都","city":"立川市","address":"東京都立川市一番町6丁目17-87","lat":35.73441,"lon":139.372589},{"name":"立川市曙福祉会館","province":"東京都","city":"立川市","address":"東京都立川市曙町3丁目44-17","lat":35.705812,"lon":139.424894},{"name":"立川市幸福祉会館","province":"東京都","city":"立川市","address":"東京都立川市幸町5丁目57-14","lat":35.725813,"lon":139.423309},{"name":"立川市錦児童館","province":"東京都","city":"立川市","address":"東京都立川市錦町3丁目12-1","lat":35.691601,"lon":139.416429},{"name":"立川市若葉児童館","province":"東京都","city":"立川市","address":"東京都立川市若葉町4丁目25-114","lat":35.722271,"lon":139.443592},{"name":"立川市上砂児童館","province":"東京都","city":"立川市","address":"東京都立川市上砂町1丁目13-1","lat":35.720996,"lon":139.391579},{"name":"立川市西砂児童館","province":"東京都","city":"立川市","address":"東京都立川市一番町6丁目8-37","lat":35.732618,"lon":139.37625},{"name":"立川市総合リサイクルセンター","province":"東京都","city":"立川市","address":"東京都立川市西砂町4丁目77-1","lat":35.736423,"lon":139.35705},{"name":"立川市総合リサイクルセンター","province":"東京都","city":"立川市","address":"東京都立川市西砂町4丁目77-1","lat":35.73641,"lon":139.357043},{"name":"女性総合センターアイム","province":"東京都","city":"立川市","address":"東京都立川市曙町2丁目36-2","lat":35.702163,"lon":139.414102},{"name":"女性総合センターアイム","province":"東京都","city":"立川市","address":"東京都立川市曙町2丁目36-2","lat":35.702169,"lon":139.414096},{"name":"立川市魅力発信拠点施設コトリンク","province":"東京都","city":"立川市","address":"東京都立川市柴崎町3丁目9","lat":35.695609,"lon":139.411817},{"name":"クリーンセンターたちむにぃ","province":"東京都","city":"立川市","address":"東京都立川市泉町2002","lat":35.716991,"lon":139.388386},{"name":"クリーンセンターたちむにぃ","province":"東京都","city":"立川市","address":"東京都立川市泉町2002","lat":35.716935,"lon":139.38846},{"name":"立川市学校給食西共同調理場","province":"東京都","city":"立川市","address":"東京都立川市泉町1156-14","lat":35.720061,"lon":139.399967},{"name":"立川市学校給食東共同調理場","province":"東京都","city":"立川市","address":"東京都立川市泉町","lat":35.720038,"lon":139.401194},{"name":"立川地域防災センター","province":"東京都","city":"立川市","address":"東京都立川市緑町3233-2","lat":35.70626977,"lon":139.40773762},{"name":"＊?柴崎学習館","province":"東京都","city":"立川市","address":"立川市柴崎町1-1-43","lat":35.696668,"lon":139.406788},{"name":"＊?高松学習館","province":"東京都","city":"立川市","address":"立川市高松町3-22-5","lat":35.703007,"lon":139.419146},{"name":"＊?錦学習館","province":"東京都","city":"立川市","address":"立川市錦町3-12-25","lat":35.691166,"lon":139.416405},{"name":"＊?西砂学習館","province":"東京都","city":"立川市","address":"立川市西砂町6-12-10","lat":35.729611,"lon":139.372162},{"name":"＊?幸学習館","province":"東京都","city":"立川市","address":"立川市幸町2-1-3","lat":35.71924,"lon":139.423558},{"name":"＊?砂川学習館","province":"東京都","city":"立川市","address":"立川市砂川町1-52-7","lat":35.722836,"lon":139.403143},{"name":"＊?羽衣中央会館","province":"東京都","city":"立川市","address":"立川市羽衣町2-26-7","lat":35.694145,"lon":139.428577},{"name":"＊?滝ノ上会館","province":"東京都","city":"立川市","address":"立川市富士見町4-16-10","lat":35.695906,"lon":139.39902},{"name":"＊?高松会館","province":"東京都","city":"立川市","address":"立川市高松町2-25-26","lat":35.704184,"lon":139.420185},{"name":"＊?柴崎会館","province":"東京都","city":"立川市","address":"立川市柴崎町1-16-3","lat":35.692372,"lon":139.407383},{"name":"＊?さかえ会館","province":"東京都","city":"立川市","address":"立川市栄町4-6-2","lat":35.710967,"lon":139.424959},{"name":"＊?西砂会館","province":"東京都","city":"立川市","address":"立川市西砂町5-11-13","lat":35.73237,"lon":139.360661},{"name":"＊?天王橋会館","province":"東京都","city":"立川市","address":"立川市一番町3-6-1","lat":35.728235,"lon":139.381028},{"name":"＊?上砂会館","province":"東京都","city":"立川市","address":"立川市上砂町1-31-1","lat":35.720165,"lon":139.395635},{"name":"＊?若葉会館","province":"東京都","city":"立川市","address":"立川市若葉町3-34-1","lat":35.720211,"lon":139.439189},{"name":"＊?こんぴら橋会館","province":"東京都","city":"立川市","address":"立川市砂川町3-26-1","lat":35.727886,"lon":139.399503},{"name":"＊?こぶし会館","province":"東京都","city":"立川市","address":"立川市幸町5-83-1","lat":35.725742,"lon":139.418449},{"name":"東京都多摩広域防災倉庫","province":"東京都","city":"立川市","address":"東京都立川市緑町3256","lat":35.708122,"lon":139.408036},{"name":"立川合同庁舎","province":"東京都","city":"立川市","address":"東京都立川市錦町4丁目6-3","lat":35.691872,"lon":139.420706},{"name":"東京都多摩立川保健所","province":"東京都","city":"立川市","address":"東京都立川市柴崎町2丁目21-19","lat":35.694076,"lon":139.40867},{"name":"労働相談情報センター多摩事務所","province":"東京都","city":"立川市","address":"東京都立川市柴崎町3丁目9-2","lat":35.695507,"lon":139.412061},{"name":"東京都農林水産振興財団立川庁舎","province":"東京都","city":"立川市","address":"東京都立川市富士見町3丁目8-1","lat":35.69865,"lon":139.392906},{"name":"東京しごとセンター多摩","province":"東京都","city":"立川市","address":"東京都立川市柴崎町3丁目9-2","lat":35.69553,"lon":139.411957},{"name":"東京都水道局多摩水道改革推進本部","province":"東京都","city":"立川市","address":"東京都立川市緑町6-7","lat":35.708756,"lon":139.412292},{"name":"立川消防署錦町出張所","province":"東京都","city":"立川市","address":"東京都立川市錦町3丁目6-18","lat":35.692916,"lon":139.417391},{"name":"立川市役所本庁舎","province":"東京都","city":"立川市","address":"東京都立川市泉町1156-9","lat":35.713742,"lon":139.408223},{"name":"立川市役所本庁舎","province":"東京都","city":"立川市","address":"東京都立川市泉町1156-9","lat":35.714049,"lon":139.407576},{"name":"歴史民俗資料館","province":"東京都","city":"立川市","address":"東京都立川市富士見町3丁目12-34","lat":35.696952,"lon":139.389968},{"name":"柴崎学習館","province":"東京都","city":"立川市","address":"東京都立川市柴崎町2丁目15-8","lat":35.694675,"lon":139.408111},{"name":"柴崎学習館","province":"東京都","city":"立川市","address":"東京都立川市柴崎町2丁目15-8","lat":35.694656,"lon":139.408129},{"name":"柴崎学習館","province":"東京都","city":"立川市","address":"東京都立川市柴崎町2丁目15-8","lat":35.694637,"lon":139.408116},{"name":"柴崎学習館","province":"東京都","city":"立川市","address":"東京都立川市柴崎町2丁目15-8","lat":35.694543,"lon":139.407988},{"name":"幸学習館","province":"東京都","city":"立川市","address":"東京都立川市幸町2丁目1-3","lat":35.719359,"lon":139.423562},{"name":"学習等供用施設　こんぴら橋会館","province":"東京都","city":"立川市","address":"東京都立川市砂川町3丁目26-1","lat":35.727899,"lon":139.399417},{"name":"学習等供用施設　こぶし会館","province":"東京都","city":"立川市","address":"東京都立川市幸町5丁目83-1","lat":35.725729,"lon":139.41845},{"name":"学習等供用施設　柴崎会館","province":"東京都","city":"立川市","address":"東京都立川市柴崎町1丁目16-3","lat":35.692461,"lon":139.407352},{"name":"学習等供用施設　西砂会館","province":"東京都","city":"立川市","address":"東京都立川市西砂町5丁目11-13","lat":35.732402,"lon":139.360686},{"name":"砂川学習館","province":"東京都","city":"立川市","address":"東京都立川市砂川町1丁目52-7","lat":35.722932,"lon":139.403145},{"name":"西砂学習館","province":"東京都","city":"立川市","address":"東京都立川市西砂町6丁目12-10","lat":35.729592,"lon":139.372141},{"name":"錦学習館","province":"東京都","city":"立川市","address":"東京都立川市錦町3丁目12-25","lat":35.6912,"lon":139.41644},{"name":"錦学習館","province":"東京都","city":"立川市","address":"東京都立川市錦町3丁目12-25","lat":35.691094,"lon":139.416334},{"name":"学習等供用施設　滝ノ上会館","province":"東京都","city":"立川市","address":"東京都立川市富士見町4丁目16-10","lat":35.695893,"lon":139.399022},{"name":"学習等供用施設　羽衣中央会館","province":"東京都","city":"立川市","address":"東京都立川市羽衣町2丁目26-7","lat":35.694145,"lon":139.428569},{"name":"学習等供用施設　天王橋会館","province":"東京都","city":"立川市","address":"東京都立川市一番町3丁目6-1","lat":35.728234,"lon":139.381},{"name":"学習等供用施設　さかえ会館","province":"東京都","city":"立川市","address":"東京都立川市栄町4丁目6-2","lat":35.710967,"lon":139.424958},{"name":"学習等供用施設上砂会館","province":"東京都","city":"立川市","address":"東京都立川市上砂町1丁目13-1","lat":35.720571,"lon":139.39151},{"name":"立川市健康会館","province":"東京都","city":"立川市","address":"東京都立川市高松町3丁目22-9","lat":35.702922,"lon":139.419238},{"name":"立川市柴崎図書館","province":"東京都","city":"立川市","address":"東京都立川市柴崎町2丁目20-3","lat":35.694538,"lon":139.40752},{"name":"立川市上砂図書館","province":"東京都","city":"立川市","address":"東京都立川市上砂町1丁目13-1","lat":35.720603,"lon":139.39171},{"name":"立川市多摩川図書館","province":"東京都","city":"立川市","address":"東京都立川市富士見町6丁目51-1","lat":35.691201,"lon":139.39322},{"name":"立川市若葉図書館","province":"東京都","city":"立川市","address":"東京都立川市若葉町3丁目34-1","lat":35.720187,"lon":139.439182},{"name":"立川市中央図書館","province":"東京都","city":"立川市","address":"東京都立川市曙町2丁目36-2","lat":35.702169,"lon":139.414096},{"name":"立川市子ども未来センター","province":"東京都","city":"立川市","address":"東京都立川市錦町3丁目2-26","lat":35.694266,"lon":139.419544},{"name":"川越道緑地古民家園","province":"東京都","city":"立川市","address":"東京都立川市幸町4丁目61","lat":35.725238,"lon":139.426912},{"name":"立川市総合福祉センター","province":"東京都","city":"立川市","address":"東京都立川市富士見町2丁目36-47","lat":35.701241,"lon":139.401907},{"name":"たましんRISURUホール(立川市市民会館)","province":"東京都","city":"立川市","address":"東京都立川市錦町3丁目3-20","lat":35.69319,"lon":139.420147},{"name":"たましんRISURUホール(立川市市民会館)","province":"東京都","city":"立川市","address":"東京都立川市錦町3丁目3-20","lat":35.693327,"lon":139.420254},{"name":"たましんRISURUホール(立川市市民会館)","province":"東京都","city":"立川市","address":"東京都立川市錦町3丁目3-20","lat":35.693284,"lon":139.420085},{"name":"たましんRISURUホール(立川市市民会館)","province":"東京都","city":"立川市","address":"東京都立川市錦町3丁目3-20","lat":35.693254,"lon":139.41994},{"name":"立川市市制50周年記念憩いの場","province":"東京都","city":"立川市","address":"東京都立川市曙町2丁目8","lat":35.701222,"lon":139.414638},{"name":"立川市緑町公園","province":"東京都","city":"立川市","address":"東京都立川市緑町","lat":35.705215,"lon":139.413008},{"name":"立川市緑町北公園","province":"東京都","city":"立川市","address":"東京都立川市緑町","lat":35.710293,"lon":139.411726},{"name":"立川市大山公園","province":"東京都","city":"立川市","address":"東京都立川市上砂町1丁目13","lat":35.720604,"lon":139.389689},{"name":"立川市立川公園","province":"東京都","city":"立川市","address":"東京都立川市柴崎町6丁目14","lat":35.689188,"lon":139.4103},{"name":"立川市立川公園","province":"東京都","city":"立川市","address":"東京都立川市柴崎町6丁目","lat":35.688975,"lon":139.408273},{"name":"立川市立川公園","province":"東京都","city":"立川市","address":"東京都立川市錦町6丁目29","lat":35.684593,"lon":139.415995},{"name":"立川市上砂公園","province":"東京都","city":"立川市","address":"東京都立川市上砂町1丁目14","lat":35.720433,"lon":139.392203},{"name":"立川市諏訪の森公園","province":"東京都","city":"立川市","address":"東京都立川市柴崎町1丁目1","lat":35.696094,"lon":139.406899},{"name":"立川市泉町西公園","province":"東京都","city":"立川市","address":"東京都立川市泉町","lat":35.718818,"lon":139.389377},{"name":"立川市錦第二公園","province":"東京都","city":"立川市","address":"東京都立川市錦町1丁目5","lat":35.697475,"lon":139.41853},{"name":"立川市若葉公園","province":"東京都","city":"立川市","address":"東京都立川市若葉町1丁目27","lat":35.717005,"lon":139.440225},{"name":"立川市砂川公園","province":"東京都","city":"立川市","address":"東京都立川市砂川町7丁目8","lat":35.730938,"lon":139.407735},{"name":"立川市西砂一みずたま公園","province":"東京都","city":"立川市","address":"東京都立川市西砂町1丁目2","lat":35.725214,"lon":139.37258},{"name":"立川市錦第三公園","province":"東京都","city":"立川市","address":"東京都立川市錦町3丁目9","lat":35.691037,"lon":139.419458},{"name":"立川市緑川第三公園","province":"東京都","city":"立川市","address":"東京都立川市羽衣町3丁目11","lat":35.690723,"lon":139.424032},{"name":"立川市緑川第一公園","province":"東京都","city":"立川市","address":"東京都立川市羽衣町1丁目","lat":35.697254,"lon":139.426396},{"name":"立川市富士見公園","province":"東京都","city":"立川市","address":"東京都立川市富士見町3丁目17","lat":35.69674,"lon":139.394978},{"name":"立川市富士見二さくら公園","province":"東京都","city":"立川市","address":"東京都立川市富士見町2丁目35","lat":35.701117,"lon":139.400442},{"name":"見影橋公園","province":"東京都","city":"立川市","address":"東京都立川市砂川町3丁目12","lat":35.727242,"lon":139.395487},{"name":"見影橋公園","province":"東京都","city":"立川市","address":"東京都立川市砂川町3丁目12","lat":35.728061,"lon":139.396421},{"name":"立川市柴崎中央公園","province":"東京都","city":"立川市","address":"東京都立川市柴崎町2丁目4","lat":35.696857,"lon":139.410513},{"name":"錦五南公園","province":"東京都","city":"立川市","address":"東京都立川市錦町5丁目15","lat":35.687497,"lon":139.413136},{"name":"羽衣東公園","province":"東京都","city":"立川市","address":"東京都立川市羽衣町2丁目55","lat":35.692147,"lon":139.430079},{"name":"立川市曙三第二公園","province":"東京都","city":"立川市","address":"東京都立川市曙町3丁目9","lat":35.699335,"lon":139.425393},{"name":"立川市立川駅南口公衆便所","province":"東京都","city":"立川市","address":"東京都立川市柴崎町3丁目2","lat":35.697266,"lon":139.413649},{"name":"立川市柴崎福祉会館","province":"東京都","city":"立川市","address":"東京都立川市柴崎町5丁目11-26","lat":35.688142,"lon":139.400855},{"name":"立川市柴崎福祉会館","province":"東京都","city":"立川市","address":"東京都立川市柴崎町5丁目11-26","lat":35.688153,"lon":139.401198},{"name":"立川市一番福祉会館","province":"東京都","city":"立川市","address":"東京都立川市一番町6丁目17-87","lat":35.734416,"lon":139.372642},{"name":"立川市一番福祉会館","province":"東京都","city":"立川市","address":"東京都立川市一番町6丁目17-87","lat":35.734394,"lon":139.372625},{"name":"立川市一番福祉会館","province":"東京都","city":"立川市","address":"東京都立川市一番町6丁目17","lat":35.734435,"lon":139.372607},{"name":"立川市一番福祉会館","province":"東京都","city":"立川市","address":"東京都立川市一番町6丁目17-87","lat":35.73441,"lon":139.372589},{"name":"立川市曙福祉会館","province":"東京都","city":"立川市","address":"東京都立川市曙町3丁目44-17","lat":35.705812,"lon":139.424894},{"name":"立川市幸福祉会館","province":"東京都","city":"立川市","address":"東京都立川市幸町5丁目57-14","lat":35.725813,"lon":139.423309},{"name":"立川市錦児童館","province":"東京都","city":"立川市","address":"東京都立川市錦町3丁目12-1","lat":35.691601,"lon":139.416429},{"name":"立川市若葉児童館","province":"東京都","city":"立川市","address":"東京都立川市若葉町4丁目25-114","lat":35.722271,"lon":139.443592},{"name":"立川市上砂児童館","province":"東京都","city":"立川市","address":"東京都立川市上砂町1丁目13-1","lat":35.720996,"lon":139.391579},{"name":"立川市西砂児童館","province":"東京都","city":"立川市","address":"東京都立川市一番町6丁目8-37","lat":35.732618,"lon":139.37625},{"name":"立川市総合リサイクルセンター","province":"東京都","city":"立川市","address":"東京都立川市西砂町4丁目77-1","lat":35.736423,"lon":139.35705},{"name":"立川市総合リサイクルセンター","province":"東京都","city":"立川市","address":"東京都立川市西砂町4丁目77-1","lat":35.73641,"lon":139.357043},{"name":"女性総合センターアイム","province":"東京都","city":"立川市","address":"東京都立川市曙町2丁目36-2","lat":35.702163,"lon":139.414102},{"name":"女性総合センターアイム","province":"東京都","city":"立川市","address":"東京都立川市曙町2丁目36-2","lat":35.702169,"lon":139.414096},{"name":"立川市魅力発信拠点施設コトリンク","province":"東京都","city":"立川市","address":"東京都立川市柴崎町3丁目9","lat":35.695609,"lon":139.411817},{"name":"クリーンセンターたちむにぃ","province":"東京都","city":"立川市","address":"東京都立川市泉町2002","lat":35.716991,"lon":139.388386},{"name":"クリーンセンターたちむにぃ","province":"東京都","city":"立川市","address":"東京都立川市泉町2002","lat":35.716935,"lon":139.38846},{"name":"立川市学校給食西共同調理場","province":"東京都","city":"立川市","address":"東京都立川市泉町1156-14","lat":35.720061,"lon":139.399967},{"name":"立川市学校給食東共同調理場","province":"東京都","city":"立川市","address":"東京都立川市泉町","lat":35.720038,"lon":139.401194},{"name":"立川地域防災センター","province":"東京都","city":"立川市","address":"東京都立川市緑町3233-2","lat":35.70626977,"lon":139.40773762},{"name":"＊?柴崎学習館","province":"東京都","city":"立川市","address":"立川市柴崎町1-1-43","lat":35.696668,"lon":139.406788},{"name":"＊?高松学習館","province":"東京都","city":"立川市","address":"立川市高松町3-22-5","lat":35.703007,"lon":139.419146},{"name":"＊?錦学習館","province":"東京都","city":"立川市","address":"立川市錦町3-12-25","lat":35.691166,"lon":139.416405},{"name":"＊?西砂学習館","province":"東京都","city":"立川市","address":"立川市西砂町6-12-10","lat":35.729611,"lon":139.372162},{"name":"＊?幸学習館","province":"東京都","city":"立川市","address":"立川市幸町2-1-3","lat":35.71924,"lon":139.423558},{"name":"＊?砂川学習館","province":"東京都","city":"立川市","address":"立川市砂川町1-52-7","lat":35.722836,"lon":139.403143},{"name":"＊?羽衣中央会館","province":"東京都","city":"立川市","address":"立川市羽衣町2-26-7","lat":35.694145,"lon":139.428577},{"name":"＊?滝ノ上会館","province":"東京都","city":"立川市","address":"立川市富士見町4-16-10","lat":35.695906,"lon":139.39902},{"name":"＊?高松会館","province":"東京都","city":"立川市","address":"立川市高松町2-25-26","lat":35.704184,"lon":139.420185},{"name":"＊?柴崎会館","province":"東京都","city":"立川市","address":"立川市柴崎町1-16-3","lat":35.692372,"lon":139.407383},{"name":"＊?さかえ会館","province":"東京都","city":"立川市","address":"立川市栄町4-6-2","lat":35.710967,"lon":139.424959},{"name":"＊?西砂会館","province":"東京都","city":"立川市","address":"立川市西砂町5-11-13","lat":35.73237,"lon":139.360661},{"name":"＊?天王橋会館","province":"東京都","city":"立川市","address":"立川市一番町3-6-1","lat":35.728235,"lon":139.381028},{"name":"＊?上砂会館","province":"東京都","city":"立川市","address":"立川市上砂町1-31-1","lat":35.720165,"lon":139.395635},{"name":"＊?若葉会館","province":"東京都","city":"立川市","address":"立川市若葉町3-34-1","lat":35.720211,"lon":139.439189},{"name":"＊?こんぴら橋会館","province":"東京都","city":"立川市","address":"立川市砂川町3-26-1","lat":35.727886,"lon":139.399503},{"name":"＊?こぶし会館","province":"東京都","city":"立川市","address":"立川市幸町5-83-1","lat":35.725742,"lon":139.418449},{"name":"立川地域防災センター","province":"東京都","city":"立川市","address":"東京都立川市緑町3233-2","lat":35.70626977,"lon":139.40773762},{"name":"＊?柴崎学習館","province":"東京都","city":"立川市","address":"立川市柴崎町1-1-43","lat":35.696668,"lon":139.406788},{"name":"＊?高松学習館","province":"東京都","city":"立川市","address":"立川市高松町3-22-5","lat":35.703007,"lon":139.419146},{"name":"＊?錦学習館","province":"東京都","city":"立川市","address":"立川市錦町3-12-25","lat":35.691166,"lon":139.416405},{"name":"＊?西砂学習館","province":"東京都","city":"立川市","address":"立川市西砂町6-12-10","lat":35.729611,"lon":139.372162},{"name":"＊?幸学習館","province":"東京都","city":"立川市","address":"立川市幸町2-1-3","lat":35.71924,"lon":139.423558},{"name":"＊?砂川学習館","province":"東京都","city":"立川市","address":"立川市砂川町1-52-7","lat":35.722836,"lon":139.403143},{"name":"＊?羽衣中央会館","province":"東京都","city":"立川市","address":"立川市羽衣町2-26-7","lat":35.694145,"lon":139.428577},{"name":"＊?滝ノ上会館","province":"東京都","city":"立川市","address":"立川市富士見町4-16-10","lat":35.695906,"lon":139.39902},{"name":"＊?高松会館","province":"東京都","city":"立川市","address":"立川市高松町2-25-26","lat":35.704184,"lon":139.420185},{"name":"＊?柴崎会館","province":"東京都","city":"立川市","address":"立川市柴崎町1-16-3","lat":35.692372,"lon":139.407383},{"name":"＊?さかえ会館","province":"東京都","city":"立川市","address":"立川市栄町4-6-2","lat":35.710967,"lon":139.424959},{"name":"＊?西砂会館","province":"東京都","city":"立川市","address":"立川市西砂町5-11-13","lat":35.73237,"lon":139.360661},{"name":"＊?天王橋会館","province":"東京都","city":"立川市","address":"立川市一番町3-6-1","lat":35.728235,"lon":139.381028},{"name":"＊?上砂会館","province":"東京都","city":"立川市","address":"立川市上砂町1-31-1","lat":35.720165,"lon":139.395635},{"name":"＊?若葉会館","province":"東京都","city":"立川市","address":"立川市若葉町3-34-1","lat":35.720211,"lon":139.439189},{"name":"＊?こんぴら橋会館","province":"東京都","city":"立川市","address":"立川市砂川町3-26-1","lat":35.727886,"lon":139.399503},{"name":"＊?こぶし会館","province":"東京都","city":"立川市","address":"立川市幸町5-83-1","lat":35.725742,"lon":139.418449},{"name":"立川地域防災センター","province":"東京都","city":"立川市","address":"東京都立川市緑町3233-2","lat":35.70626977,"lon":139.40773762},{"name":"＊?柴崎学習館","province":"東京都","city":"立川市","address":"立川市柴崎町1-1-43","lat":35.696668,"lon":139.406788},{"name":"＊?高松学習館","province":"東京都","city":"立川市","address":"立川市高松町3-22-5","lat":35.703007,"lon":139.419146},{"name":"＊?錦学習館","province":"東京都","city":"立川市","address":"立川市錦町3-12-25","lat":35.691166,"lon":139.416405},{"name":"＊?西砂学習館","province":"東京都","city":"立川市","address":"立川市西砂町6-12-10","lat":35.729611,"lon":139.372162},{"name":"＊?幸学習館","province":"東京都","city":"立川市","address":"立川市幸町2-1-3","lat":35.71924,"lon":139.423558},{"name":"＊?砂川学習館","province":"東京都","city":"立川市","address":"立川市砂川町1-52-7","lat":35.722836,"lon":139.403143},{"name":"＊?羽衣中央会館","province":"東京都","city":"立川市","address":"立川市羽衣町2-26-7","lat":35.694145,"lon":139.428577},{"name":"＊?滝ノ上会館","province":"東京都","city":"立川市","address":"立川市富士見町4-16-10","lat":35.695906,"lon":139.39902},{"name":"＊?高松会館","province":"東京都","city":"立川市","address":"立川市高松町2-25-26","lat":35.704184,"lon":139.420185},{"name":"＊?柴崎会館","province":"東京都","city":"立川市","address":"立川市柴崎町1-16-3","lat":35.692372,"lon":139.407383},{"name":"＊?さかえ会館","province":"東京都","city":"立川市","address":"立川市栄町4-6-2","lat":35.710967,"lon":139.424959},{"name":"＊?西砂会館","province":"東京都","city":"立川市","address":"立川市西砂町5-11-13","lat":35.73237,"lon":139.360661},{"name":"＊?天王橋会館","province":"東京都","city":"立川市","address":"立川市一番町3-6-1","lat":35.728235,"lon":139.381028},{"name":"＊?上砂会館","province":"東京都","city":"立川市","address":"立川市上砂町1-31-1","lat":35.720165,"lon":139.395635},{"name":"＊?若葉会館","province":"東京都","city":"立川市","address":"立川市若葉町3-34-1","lat":35.720211,"lon":139.439189},{"name":"＊?こんぴら橋会館","province":"東京都","city":"立川市","address":"立川市砂川町3-26-1","lat":35.727886,"lon":139.399503},{"name":"＊?こぶし会館","province":"東京都","city":"立川市","address":"立川市幸町5-83-1","lat":35.725742,"lon":139.418449},{"name":"＊?柴崎学習館","province":"東京都","city":"立川市","address":"立川市柴崎町1-1-43","lat":35.696668,"lon":139.406788},{"name":"＊?高松学習館","province":"東京都","city":"立川市","address":"立川市高松町3-22-5","lat":35.703007,"lon":139.419146},{"name":"＊?錦学習館","province":"東京都","city":"立川市","address":"立川市錦町3-12-25","lat":35.691166,"lon":139.416405},{"name":"＊?西砂学習館","province":"東京都","city":"立川市","address":"立川市西砂町6-12-10","lat":35.729611,"lon":139.372162},{"name":"＊?幸学習館","province":"東京都","city":"立川市","address":"立川市幸町2-1-3","lat":35.71924,"lon":139.423558},{"name":"＊?砂川学習館","province":"東京都","city":"立川市","address":"立川市砂川町1-52-7","lat":35.722836,"lon":139.403143},{"name":"＊?羽衣中央会館","province":"東京都","city":"立川市","address":"立川市羽衣町2-26-7","lat":35.694145,"lon":139.428577},{"name":"＊?滝ノ上会館","province":"東京都","city":"立川市","address":"立川市富士見町4-16-10","lat":35.695906,"lon":139.39902},{"name":"＊?高松会館","province":"東京都","city":"立川市","address":"立川市高松町2-25-26","lat":35.704184,"lon":139.420185},{"name":"＊?柴崎会館","province":"東京都","city":"立川市","address":"立川市柴崎町1-16-3","lat":35.692372,"lon":139.407383},{"name":"＊?さかえ会館","province":"東京都","city":"立川市","address":"立川市栄町4-6-2","lat":35.710967,"lon":139.424959},{"name":"＊?西砂会館","province":"東京都","city":"立川市","address":"立川市西砂町5-11-13","lat":35.73237,"lon":139.360661},{"name":"＊?天王橋会館","province":"東京都","city":"立川市","address":"立川市一番町3-6-1","lat":35.728235,"lon":139.381028},{"name":"＊?上砂会館","province":"東京都","city":"立川市","address":"立川市上砂町1-31-1","lat":35.720165,"lon":139.395635},{"name":"＊?若葉会館","province":"東京都","city":"立川市","address":"立川市若葉町3-34-1","lat":35.720211,"lon":139.439189},{"name":"＊?こんぴら橋会館","province":"東京都","city":"立川市","address":"立川市砂川町3-26-1","lat":35.727886,"lon":139.399503},{"name":"＊?こぶし会館","province":"東京都","city":"立川市","address":"立川市幸町5-83-1","lat":35.725742,"lon":139.418449},{"name":"＊?柴崎学習館","province":"東京都","city":"立川市","address":"立川市柴崎町1-1-43","lat":35.696668,"lon":139.406788},{"name":"＊?高松学習館","province":"東京都","city":"立川市","address":"立川市高松町3-22-5","lat":35.703007,"lon":139.419146},{"name":"＊?錦学習館","province":"東京都","city":"立川市","address":"立川市錦町3-12-25","lat":35.691166,"lon":139.416405},{"name":"＊?西砂学習館","province":"東京都","city":"立川市","address":"立川市西砂町6-12-10","lat":35.729611,"lon":139.372162},{"name":"＊?幸学習館","province":"東京都","city":"立川市","address":"立川市幸町2-1-3","lat":35.71924,"lon":139.423558},{"name":"＊?砂川学習館","province":"東京都","city":"立川市","address":"立川市砂川町1-52-7","lat":35.722836,"lon":139.403143},{"name":"＊?羽衣中央会館","province":"東京都","city":"立川市","address":"立川市羽衣町2-26-7","lat":35.694145,"lon":139.428577},{"name":"＊?滝ノ上会館","province":"東京都","city":"立川市","address":"立川市富士見町4-16-10","lat":35.695906,"lon":139.39902},{"name":"＊?高松会館","province":"東京都","city":"立川市","address":"立川市高松町2-25-26","lat":35.704184,"lon":139.420185},{"name":"＊?柴崎会館","province":"東京都","city":"立川市","address":"立川市柴崎町1-16-3","lat":35.692372,"lon":139.407383},{"name":"＊?さかえ会館","province":"東京都","city":"立川市","address":"立川市栄町4-6-2","lat":35.710967,"lon":139.424959},{"name":"＊?西砂会館","province":"東京都","city":"立川市","address":"立川市西砂町5-11-13","lat":35.73237,"lon":139.360661},{"name":"＊?天王橋会館","province":"東京都","city":"立川市","address":"立川市一番町3-6-1","lat":35.728235,"lon":139.381028},{"name":"＊?上砂会館","province":"東京都","city":"立川市","address":"立川市上砂町1-31-1","lat":35.720165,"lon":139.395635},{"name":"＊?若葉会館","province":"東京都","city":"立川市","address":"立川市若葉町3-34-1","lat":35.720211,"lon":139.439189},{"name":"＊?こんぴら橋会館","province":"東京都","city":"立川市","address":"立川市砂川町3-26-1","lat":35.727886,"lon":139.399503},{"name":"＊?こぶし会館","province":"東京都","city":"立川市","address":"立川市幸町5-83-1","lat":35.725742,"lon":139.418449},{"name":"＊?柴崎学習館","province":"東京都","city":"立川市","address":"立川市柴崎町1-1-43","lat":35.696668,"lon":139.406788},{"name":"＊?高松学習館","province":"東京都","city":"立川市","address":"立川市高松町3-22-5","lat":35.703007,"lon":139.419146},{"name":"＊?錦学習館","province":"東京都","city":"立川市","address":"立川市錦町3-12-25","lat":35.691166,"lon":139.416405},{"name":"＊?西砂学習館","province":"東京都","city":"立川市","address":"立川市西砂町6-12-10","lat":35.729611,"lon":139.372162},{"name":"＊?幸学習館","province":"東京都","city":"立川市","address":"立川市幸町2-1-3","lat":35.71924,"lon":139.423558},{"name":"＊?砂川学習館","province":"東京都","city":"立川市","address":"立川市砂川町1-52-7","lat":35.722836,"lon":139.403143},{"name":"＊?羽衣中央会館","province":"東京都","city":"立川市","address":"立川市羽衣町2-26-7","lat":35.694145,"lon":139.428577},{"name":"＊?滝ノ上会館","province":"東京都","city":"立川市","address":"立川市富士見町4-16-10","lat":35.695906,"lon":139.39902},{"name":"＊?高松会館","province":"東京都","city":"立川市","address":"立川市高松町2-25-26","lat":35.704184,"lon":139.420185},{"name":"＊?柴崎会館","province":"東京都","city":"立川市","address":"立川市柴崎町1-16-3","lat":35.692372,"lon":139.407383},{"name":"＊?さかえ会館","province":"東京都","city":"立川市","address":"立川市栄町4-6-2","lat":35.710967,"lon":139.424959},{"name":"＊?西砂会館","province":"東京都","city":"立川市","address":"立川市西砂町5-11-13","lat":35.73237,"lon":139.360661},{"name":"＊?天王橋会館","province":"東京都","city":"立川市","address":"立川市一番町3-6-1","lat":35.728235,"lon":139.381028},{"name":"＊?上砂会館","province":"東京都","city":"立川市","address":"立川市上砂町1-31-1","lat":35.720165,"lon":139.395635},{"name":"＊?若葉会館","province":"東京都","city":"立川市","address":"立川市若葉町3-34-1","lat":35.720211,"lon":139.439189},{"name":"＊?こんぴら橋会館","province":"東京都","city":"立川市","address":"立川市砂川町3-26-1","lat":35.727886,"lon":139.399503},{"name":"＊?こぶし会館","province":"東京都","city":"立川市","address":"立川市幸町5-83-1","lat":35.725742,"lon":139.418449},{"name":"＊?柴崎学習館","province":"東京都","city":"立川市","address":"立川市柴崎町1-1-43","lat":35.696668,"lon":139.406788},{"name":"＊?高松学習館","province":"東京都","city":"立川市","address":"立川市高松町3-22-5","lat":35.703007,"lon":139.419146},{"name":"＊?錦学習館","province":"東京都","city":"立川市","address":"立川市錦町3-12-25","lat":35.691166,"lon":139.416405},{"name":"＊?西砂学習館","province":"東京都","city":"立川市","address":"立川市西砂町6-12-10","lat":35.729611,"lon":139.372162},{"name":"＊?幸学習館","province":"東京都","city":"立川市","address":"立川市幸町2-1-3","lat":35.71924,"lon":139.423558},{"name":"＊?砂川学習館","province":"東京都","city":"立川市","address":"立川市砂川町1-52-7","lat":35.722836,"lon":139.403143},{"name":"＊?羽衣中央会館","province":"東京都","city":"立川市","address":"立川市羽衣町2-26-7","lat":35.694145,"lon":139.428577},{"name":"＊?滝ノ上会館","province":"東京都","city":"立川市","address":"立川市富士見町4-16-10","lat":35.695906,"lon":139.39902},{"name":"＊?高松会館","province":"東京都","city":"立川市","address":"立川市高松町2-25-26","lat":35.704184,"lon":139.420185},{"name":"＊?柴崎会館","province":"東京都","city":"立川市","address":"立川市柴崎町1-16-3","lat":35.692372,"lon":139.407383},{"name":"＊?さかえ会館","province":"東京都","city":"立川市","address":"立川市栄町4-6-2","lat":35.710967,"lon":139.424959},{"name":"＊?西砂会館","province":"東京都","city":"立川市","address":"立川市西砂町5-11-13","lat":35.73237,"lon":139.360661},{"name":"＊?天王橋会館","province":"東京都","city":"立川市","address":"立川市一番町3-6-1","lat":35.728235,"lon":139.381028},{"name":"＊?上砂会館","province":"東京都","city":"立川市","address":"立川市上砂町1-31-1","lat":35.720165,"lon":139.395635},{"name":"＊?若葉会館","province":"東京都","city":"立川市","address":"立川市若葉町3-34-1","lat":35.720211,"lon":139.439189},{"name":"＊?こんぴら橋会館","province":"東京都","city":"立川市","address":"立川市砂川町3-26-1","lat":35.727886,"lon":139.399503},{"name":"＊?こぶし会館","province":"東京都","city":"立川市","address":"立川市幸町5-83-1","lat":35.725742,"lon":139.418449},{"name":"＊?柴崎学習館","province":"東京都","city":"立川市","address":"立川市柴崎町1-1-43","lat":35.696668,"lon":139.406788},{"name":"＊?高松学習館","province":"東京都","city":"立川市","address":"立川市高松町3-22-5","lat":35.703007,"lon":139.419146},{"name":"＊?錦学習館","province":"東京都","city":"立川市","address":"立川市錦町3-12-25","lat":35.691166,"lon":139.416405},{"name":"＊?西砂学習館","province":"東京都","city":"立川市","address":"立川市西砂町6-12-10","lat":35.729611,"lon":139.372162},{"name":"＊?幸学習館","province":"東京都","city":"立川市","address":"立川市幸町2-1-3","lat":35.71924,"lon":139.423558},{"name":"＊?砂川学習館","province":"東京都","city":"立川市","address":"立川市砂川町1-52-7","lat":35.722836,"lon":139.403143},{"name":"＊?羽衣中央会館","province":"東京都","city":"立川市","address":"立川市羽衣町2-26-7","lat":35.694145,"lon":139.428577},{"name":"＊?滝ノ上会館","province":"東京都","city":"立川市","address":"立川市富士見町4-16-10","lat":35.695906,"lon":139.39902},{"name":"＊?高松会館","province":"東京都","city":"立川市","address":"立川市高松町2-25-26","lat":35.704184,"lon":139.420185},{"name":"＊?柴崎会館","province":"東京都","city":"立川市","address":"立川市柴崎町1-16-3","lat":35.692372,"lon":139.407383},{"name":"＊?さかえ会館","province":"東京都","city":"立川市","address":"立川市栄町4-6-2","lat":35.710967,"lon":139.424959},{"name":"＊?西砂会館","province":"東京都","city":"立川市","address":"立川市西砂町5-11-13","lat":35.73237,"lon":139.360661},{"name":"＊?天王橋会館","province":"東京都","city":"立川市","address":"立川市一番町3-6-1","lat":35.728235,"lon":139.381028},{"name":"＊?上砂会館","province":"東京都","city":"立川市","address":"立川市上砂町1-31-1","lat":35.720165,"lon":139.395635},{"name":"＊?若葉会館","province":"東京都","city":"立川市","address":"立川市若葉町3-34-1","lat":35.720211,"lon":139.439189},{"name":"＊?こんぴら橋会館","province":"東京都","city":"立川市","address":"立川市砂川町3-26-1","lat":35.727886,"lon":139.399503},{"name":"＊?こぶし会館","province":"東京都","city":"立川市","address":"立川市幸町5-83-1","lat":35.725742,"lon":139.418449},{"name":"＊?柴崎学習館","province":"東京都","city":"立川市","address":"立川市柴崎町1-1-43","lat":35.696668,"lon":139.406788},{"name":"＊?高松学習館","province":"東京都","city":"立川市","address":"立川市高松町3-22-5","lat":35.703007,"lon":139.419146},{"name":"＊?錦学習館","province":"東京都","city":"立川市","address":"立川市錦町3-12-25","lat":35.691166,"lon":139.416405},{"name":"＊?西砂学習館","province":"東京都","city":"立川市","address":"立川市西砂町6-12-10","lat":35.729611,"lon":139.372162},{"name":"＊?幸学習館","province":"東京都","city":"立川市","address":"立川市幸町2-1-3","lat":35.71924,"lon":139.423558},{"name":"＊?砂川学習館","province":"東京都","city":"立川市","address":"立川市砂川町1-52-7","lat":35.722836,"lon":139.403143},{"name":"＊?羽衣中央会館","province":"東京都","city":"立川市","address":"立川市羽衣町2-26-7","lat":35.694145,"lon":139.428577},{"name":"＊?滝ノ上会館","province":"東京都","city":"立川市","address":"立川市富士見町4-16-10","lat":35.695906,"lon":139.39902},{"name":"＊?高松会館","province":"東京都","city":"立川市","address":"立川市高松町2-25-26","lat":35.704184,"lon":139.420185},{"name":"＊?柴崎会館","province":"東京都","city":"立川市","address":"立川市柴崎町1-16-3","lat":35.692372,"lon":139.407383},{"name":"＊?さかえ会館","province":"東京都","city":"立川市","address":"立川市栄町4-6-2","lat":35.710967,"lon":139.424959},{"name":"＊?西砂会館","province":"東京都","city":"立川市","address":"立川市西砂町5-11-13","lat":35.73237,"lon":139.360661},{"name":"＊?天王橋会館","province":"東京都","city":"立川市","address":"立川市一番町3-6-1","lat":35.728235,"lon":139.381028},{"name":"＊?上砂会館","province":"東京都","city":"立川市","address":"立川市上砂町1-31-1","lat":35.720165,"lon":139.395635},{"name":"＊?若葉会館","province":"東京都","city":"立川市","address":"立川市若葉町3-34-1","lat":35.720211,"lon":139.439189},{"name":"＊?こんぴら橋会館","province":"東京都","city":"立川市","address":"立川市砂川町3-26-1","lat":35.727886,"lon":139.399503},{"name":"＊?こぶし会館","province":"東京都","city":"立川市","address":"立川市幸町5-83-1","lat":35.725742,"lon":139.418449},{"name":"＊?柴崎学習館","province":"東京都","city":"立川市","address":"立川市柴崎町1-1-43","lat":35.696668,"lon":139.406788},{"name":"＊?高松学習館","province":"東京都","city":"立川市","address":"立川市高松町3-22-5","lat":35.703007,"lon":139.419146},{"name":"＊?錦学習館","province":"東京都","city":"立川市","address":"立川市錦町3-12-25","lat":35.691166,"lon":139.416405},{"name":"＊?西砂学習館","province":"東京都","city":"立川市","address":"立川市西砂町6-12-10","lat":35.729611,"lon":139.372162},{"name":"＊?幸学習館","province":"東京都","city":"立川市","address":"立川市幸町2-1-3","lat":35.71924,"lon":139.423558},{"name":"＊?砂川学習館","province":"東京都","city":"立川市","address":"立川市砂川町1-52-7","lat":35.722836,"lon":139.403143},{"name":"＊?羽衣中央会館","province":"東京都","city":"立川市","address":"立川市羽衣町2-26-7","lat":35.694145,"lon":139.428577},{"name":"＊?滝ノ上会館","province":"東京都","city":"立川市","address":"立川市富士見町4-16-10","lat":35.695906,"lon":139.39902},{"name":"＊?高松会館","province":"東京都","city":"立川市","address":"立川市高松町2-25-26","lat":35.704184,"lon":139.420185},{"name":"＊?柴崎会館","province":"東京都","city":"立川市","address":"立川市柴崎町1-16-3","lat":35.692372,"lon":139.407383},{"name":"＊?さかえ会館","province":"東京都","city":"立川市","address":"立川市栄町4-6-2","lat":35.710967,"lon":139.424959},{"name":"＊?西砂会館","province":"東京都","city":"立川市","address":"立川市西砂町5-11-13","lat":35.73237,"lon":139.360661},{"name":"＊?天王橋会館","province":"東京都","city":"立川市","address":"立川市一番町3-6-1","lat":35.728235,"lon":139.381028},{"name":"＊?上砂会館","province":"東京都","city":"立川市","address":"立川市上砂町1-31-1","lat":35.720165,"lon":139.395635},{"name":"＊?若葉会館","province":"東京都","city":"立川市","address":"立川市若葉町3-34-1","lat":35.720211,"lon":139.439189},{"name":"＊?こんぴら橋会館","province":"東京都","city":"立川市","address":"立川市砂川町3-26-1","lat":35.727886,"lon":139.399503},{"name":"＊?こぶし会館","province":"東京都","city":"立川市","address":"立川市幸町5-83-1","lat":35.725742,"lon":139.418449},{"name":"＊?柴崎学習館","province":"東京都","city":"立川市","address":"立川市柴崎町1-1-43","lat":35.696668,"lon":139.406788},{"name":"＊?高松学習館","province":"東京都","city":"立川市","address":"立川市高松町3-22-5","lat":35.703007,"lon":139.419146},{"name":"＊?錦学習館","province":"東京都","city":"立川市","address":"立川市錦町3-12-25","lat":35.691166,"lon":139.416405},{"name":"＊?西砂学習館","province":"東京都","city":"立川市","address":"立川市西砂町6-12-10","lat":35.729611,"lon":139.372162},{"name":"＊?幸学習館","province":"東京都","city":"立川市","address":"立川市幸町2-1-3","lat":35.71924,"lon":139.423558},{"name":"＊?砂川学習館","province":"東京都","city":"立川市","address":"立川市砂川町1-52-7","lat":35.722836,"lon":139.403143},{"name":"＊?羽衣中央会館","province":"東京都","city":"立川市","address":"立川市羽衣町2-26-7","lat":35.694145,"lon":139.428577},{"name":"＊?滝ノ上会館","province":"東京都","city":"立川市","address":"立川市富士見町4-16-10","lat":35.695906,"lon":139.39902},{"name":"＊?高松会館","province":"東京都","city":"立川市","address":"立川市高松町2-25-26","lat":35.704184,"lon":139.420185},{"name":"＊?柴崎会館","province":"東京都","city":"立川市","address":"立川市柴崎町1-16-3","lat":35.692372,"lon":139.407383},{"name":"＊?さかえ会館","province":"東京都","city":"立川市","address":"立川市栄町4-6-2","lat":35.710967,"lon":139.424959},{"name":"＊?西砂会館","province":"東京都","city":"立川市","address":"立川市西砂町5-11-13","lat":35.73237,"lon":139.360661},{"name":"＊?天王橋会館","province":"東京都","city":"立川市","address":"立川市一番町3-6-1","lat":35.728235,"lon":139.381028},{"name":"＊?上砂会館","province":"東京都","city":"立川市","address":"立川市上砂町1-31-1","lat":35.720165,"lon":139.395635},{"name":"＊?若葉会館","province":"東京都","city":"立川市","address":"立川市若葉町3-34-1","lat":35.720211,"lon":139.439189},{"name":"＊?こんぴら橋会館","province":"東京都","city":"立川市","address":"立川市砂川町3-26-1","lat":35.727886,"lon":139.399503},{"name":"＊?こぶし会館","province":"東京都","city":"立川市","address":"立川市幸町5-83-1","lat":35.725742,"lon":139.418449},{"name":"＊?柴崎学習館","province":"東京都","city":"立川市","address":"立川市柴崎町1-1-43","lat":35.696668,"lon":139.406788},{"name":"＊?高松学習館","province":"東京都","city":"立川市","address":"立川市高松町3-22-5","lat":35.703007,"lon":139.419146},{"name":"＊?錦学習館","province":"東京都","city":"立川市","address":"立川市錦町3-12-25","lat":35.691166,"lon":139.416405},{"name":"＊?西砂学習館","province":"東京都","city":"立川市","address":"立川市西砂町6-12-10","lat":35.729611,"lon":139.372162},{"name":"＊?幸学習館","province":"東京都","city":"立川市","address":"立川市幸町2-1-3","lat":35.71924,"lon":139.423558},{"name":"＊?砂川学習館","province":"東京都","city":"立川市","address":"立川市砂川町1-52-7","lat":35.722836,"lon":139.403143},{"name":"＊?羽衣中央会館","province":"東京都","city":"立川市","address":"立川市羽衣町2-26-7","lat":35.694145,"lon":139.428577},{"name":"＊?滝ノ上会館","province":"東京都","city":"立川市","address":"立川市富士見町4-16-10","lat":35.695906,"lon":139.39902},{"name":"＊?高松会館","province":"東京都","city":"立川市","address":"立川市高松町2-25-26","lat":35.704184,"lon":139.420185},{"name":"＊?柴崎会館","province":"東京都","city":"立川市","address":"立川市柴崎町1-16-3","lat":35.692372,"lon":139.407383},{"name":"＊?さかえ会館","province":"東京都","city":"立川市","address":"立川市栄町4-6-2","lat":35.710967,"lon":139.424959},{"name":"＊?西砂会館","province":"東京都","city":"立川市","address":"立川市西砂町5-11-13","lat":35.73237,"lon":139.360661},{"name":"＊?天王橋会館","province":"東京都","city":"立川市","address":"立川市一番町3-6-1","lat":35.728235,"lon":139.381028},{"name":"＊?上砂会館","province":"東京都","city":"立川市","address":"立川市上砂町1-31-1","lat":35.720165,"lon":139.395635},{"name":"＊?若葉会館","province":"東京都","city":"立川市","address":"立川市若葉町3-34-1","lat":35.720211,"lon":139.439189},{"name":"＊?こんぴら橋会館","province":"東京都","city":"立川市","address":"立川市砂川町3-26-1","lat":35.727886,"lon":139.399503},{"name":"＊?こぶし会館","province":"東京都","city":"立川市","address":"立川市幸町5-83-1","lat":35.725742,"lon":139.418449},{"name":"＊?柴崎学習館","province":"東京都","city":"立川市","address":"立川市柴崎町1-1-43","lat":35.696668,"lon":139.406788},{"name":"＊?高松学習館","province":"東京都","city":"立川市","address":"立川市高松町3-22-5","lat":35.703007,"lon":139.419146},{"name":"＊?錦学習館","province":"東京都","city":"立川市","address":"立川市錦町3-12-25","lat":35.691166,"lon":139.416405},{"name":"＊?西砂学習館","province":"東京都","city":"立川市","address":"立川市西砂町6-12-10","lat":35.729611,"lon":139.372162},{"name":"＊?幸学習館","province":"東京都","city":"立川市","address":"立川市幸町2-1-3","lat":35.71924,"lon":139.423558},{"name":"＊?砂川学習館","province":"東京都","city":"立川市","address":"立川市砂川町1-52-7","lat":35.722836,"lon":139.403143},{"name":"＊?羽衣中央会館","province":"東京都","city":"立川市","address":"立川市羽衣町2-26-7","lat":35.694145,"lon":139.428577},{"name":"＊?滝ノ上会館","province":"東京都","city":"立川市","address":"立川市富士見町4-16-10","lat":35.695906,"lon":139.39902},{"name":"＊?高松会館","province":"東京都","city":"立川市","address":"立川市高松町2-25-26","lat":35.704184,"lon":139.420185},{"name":"＊?柴崎会館","province":"東京都","city":"立川市","address":"立川市柴崎町1-16-3","lat":35.692372,"lon":139.407383},{"name":"＊?さかえ会館","province":"東京都","city":"立川市","address":"立川市栄町4-6-2","lat":35.710967,"lon":139.424959},{"name":"＊?西砂会館","province":"東京都","city":"立川市","address":"立川市西砂町5-11-13","lat":35.73237,"lon":139.360661},{"name":"＊?天王橋会館","province":"東京都","city":"立川市","address":"立川市一番町3-6-1","lat":35.728235,"lon":139.381028},{"name":"＊?上砂会館","province":"東京都","city":"立川市","address":"立川市上砂町1-31-1","lat":35.720165,"lon":139.395635},{"name":"＊?若葉会館","province":"東京都","city":"立川市","address":"立川市若葉町3-34-1","lat":35.720211,"lon":139.439189},{"name":"＊?こんぴら橋会館","province":"東京都","city":"立川市","address":"立川市砂川町3-26-1","lat":35.727886,"lon":139.399503},{"name":"＊?こぶし会館","province":"東京都","city":"立川市","address":"立川市幸町5-83-1","lat":35.725742,"lon":139.418449},{"name":"＊?柴崎学習館","province":"東京都","city":"立川市","address":"立川市柴崎町1-1-43","lat":35.696668,"lon":139.406788},{"name":"＊?高松学習館","province":"東京都","city":"立川市","address":"立川市高松町3-22-5","lat":35.703007,"lon":139.419146},{"name":"＊?錦学習館","province":"東京都","city":"立川市","address":"立川市錦町3-12-25","lat":35.691166,"lon":139.416405},{"name":"＊?西砂学習館","province":"東京都","city":"立川市","address":"立川市西砂町6-12-10","lat":35.729611,"lon":139.372162},{"name":"＊?幸学習館","province":"東京都","city":"立川市","address":"立川市幸町2-1-3","lat":35.71924,"lon":139.423558},{"name":"＊?砂川学習館","province":"東京都","city":"立川市","address":"立川市砂川町1-52-7","lat":35.722836,"lon":139.403143},{"name":"＊?羽衣中央会館","province":"東京都","city":"立川市","address":"立川市羽衣町2-26-7","lat":35.694145,"lon":139.428577},{"name":"＊?滝ノ上会館","province":"東京都","city":"立川市","address":"立川市富士見町4-16-10","lat":35.695906,"lon":139.39902},{"name":"＊?高松会館","province":"東京都","city":"立川市","address":"立川市高松町2-25-26","lat":35.704184,"lon":139.420185},{"name":"＊?柴崎会館","province":"東京都","city":"立川市","address":"立川市柴崎町1-16-3","lat":35.692372,"lon":139.407383},{"name":"＊?さかえ会館","province":"東京都","city":"立川市","address":"立川市栄町4-6-2","lat":35.710967,"lon":139.424959},{"name":"＊?西砂会館","province":"東京都","city":"立川市","address":"立川市西砂町5-11-13","lat":35.73237,"lon":139.360661},{"name":"＊?天王橋会館","province":"東京都","city":"立川市","address":"立川市一番町3-6-1","lat":35.728235,"lon":139.381028},{"name":"＊?上砂会館","province":"東京都","city":"立川市","address":"立川市上砂町1-31-1","lat":35.720165,"lon":139.395635},{"name":"＊?若葉会館","province":"東京都","city":"立川市","address":"立川市若葉町3-34-1","lat":35.720211,"lon":139.439189},{"name":"＊?こんぴら橋会館","province":"東京都","city":"立川市","address":"立川市砂川町3-26-1","lat":35.727886,"lon":139.399503},{"name":"＊?こぶし会館","province":"東京都","city":"立川市","address":"立川市幸町5-83-1","lat":35.725742,"lon":139.418449},{"name":"＊?柴崎学習館","province":"東京都","city":"立川市","address":"立川市柴崎町1-1-43","lat":35.696668,"lon":139.406788},{"name":"＊?高松学習館","province":"東京都","city":"立川市","address":"立川市高松町3-22-5","lat":35.703007,"lon":139.419146},{"name":"＊?錦学習館","province":"東京都","city":"立川市","address":"立川市錦町3-12-25","lat":35.691166,"lon":139.416405},{"name":"＊?西砂学習館","province":"東京都","city":"立川市","address":"立川市西砂町6-12-10","lat":35.729611,"lon":139.372162},{"name":"＊?幸学習館","province":"東京都","city":"立川市","address":"立川市幸町2-1-3","lat":35.71924,"lon":139.423558},{"name":"＊?砂川学習館","province":"東京都","city":"立川市","address":"立川市砂川町1-52-7","lat":35.722836,"lon":139.403143},{"name":"＊?羽衣中央会館","province":"東京都","city":"立川市","address":"立川市羽衣町2-26-7","lat":35.694145,"lon":139.428577},{"name":"＊?滝ノ上会館","province":"東京都","city":"立川市","address":"立川市富士見町4-16-10","lat":35.695906,"lon":139.39902},{"name":"＊?高松会館","province":"東京都","city":"立川市","address":"立川市高松町2-25-26","lat":35.704184,"lon":139.420185},{"name":"＊?柴崎会館","province":"東京都","city":"立川市","address":"立川市柴崎町1-16-3","lat":35.692372,"lon":139.407383},{"name":"＊?さかえ会館","province":"東京都","city":"立川市","address":"立川市栄町4-6-2","lat":35.710967,"lon":139.424959},{"name":"＊?西砂会館","province":"東京都","city":"立川市","address":"立川市西砂町5-11-13","lat":35.73237,"lon":139.360661},{"name":"＊?天王橋会館","province":"東京都","city":"立川市","address":"立川市一番町3-6-1","lat":35.728235,"lon":139.381028},{"name":"＊?上砂会館","province":"東京都","city":"立川市","address":"立川市上砂町1-31-1","lat":35.720165,"lon":139.395635},{"name":"＊?若葉会館","province":"東京都","city":"立川市","address":"立川市若葉町3-34-1","lat":35.720211,"lon":139.439189},{"name":"＊?こんぴら橋会館","province":"東京都","city":"立川市","address":"立川市砂川町3-26-1","lat":35.727886,"lon":139.399503},{"name":"＊?こぶし会館","province":"東京都","city":"立川市","address":"立川市幸町5-83-1","lat":35.725742,"lon":139.418449},{"name":"＊?柴崎学習館","province":"東京都","city":"立川市","address":"立川市柴崎町1-1-43","lat":35.696668,"lon":139.406788},{"name":"＊?高松学習館","province":"東京都","city":"立川市","address":"立川市高松町3-22-5","lat":35.703007,"lon":139.419146},{"name":"＊?錦学習館","province":"東京都","city":"立川市","address":"立川市錦町3-12-25","lat":35.691166,"lon":139.416405},{"name":"＊?西砂学習館","province":"東京都","city":"立川市","address":"立川市西砂町6-12-10","lat":35.729611,"lon":139.372162},{"name":"＊?幸学習館","province":"東京都","city":"立川市","address":"立川市幸町2-1-3","lat":35.71924,"lon":139.423558},{"name":"＊?砂川学習館","province":"東京都","city":"立川市","address":"立川市砂川町1-52-7","lat":35.722836,"lon":139.403143},{"name":"＊?羽衣中央会館","province":"東京都","city":"立川市","address":"立川市羽衣町2-26-7","lat":35.694145,"lon":139.428577},{"name":"＊?滝ノ上会館","province":"東京都","city":"立川市","address":"立川市富士見町4-16-10","lat":35.695906,"lon":139.39902},{"name":"＊?高松会館","province":"東京都","city":"立川市","address":"立川市高松町2-25-26","lat":35.704184,"lon":139.420185},{"name":"＊?柴崎会館","province":"東京都","city":"立川市","address":"立川市柴崎町1-16-3","lat":35.692372,"lon":139.407383},{"name":"＊?さかえ会館","province":"東京都","city":"立川市","address":"立川市栄町4-6-2","lat":35.710967,"lon":139.424959},{"name":"＊?西砂会館","province":"東京都","city":"立川市","address":"立川市西砂町5-11-13","lat":35.73237,"lon":139.360661},{"name":"＊?天王橋会館","province":"東京都","city":"立川市","address":"立川市一番町3-6-1","lat":35.728235,"lon":139.381028},{"name":"＊?上砂会館","province":"東京都","city":"立川市","address":"立川市上砂町1-31-1","lat":35.720165,"lon":139.395635},{"name":"＊?若葉会館","province":"東京都","city":"立川市","address":"立川市若葉町3-34-1","lat":35.720211,"lon":139.439189},{"name":"＊?こんぴら橋会館","province":"東京都","city":"立川市","address":"立川市砂川町3-26-1","lat":35.727886,"lon":139.399503},{"name":"＊?こぶし会館","province":"東京都","city":"立川市","address":"立川市幸町5-83-1","lat":35.725742,"lon":139.418449},{"name":"＊?柴崎学習館","province":"東京都","city":"立川市","address":"立川市柴崎町1-1-43","lat":35.696668,"lon":139.406788},{"name":"＊?高松学習館","province":"東京都","city":"立川市","address":"立川市高松町3-22-5","lat":35.703007,"lon":139.419146},{"name":"＊?錦学習館","province":"東京都","city":"立川市","address":"立川市錦町3-12-25","lat":35.691166,"lon":139.416405},{"name":"＊?西砂学習館","province":"東京都","city":"立川市","address":"立川市西砂町6-12-10","lat":35.729611,"lon":139.372162},{"name":"＊?幸学習館","province":"東京都","city":"立川市","address":"立川市幸町2-1-3","lat":35.71924,"lon":139.423558},{"name":"＊?砂川学習館","province":"東京都","city":"立川市","address":"立川市砂川町1-52-7","lat":35.722836,"lon":139.403143},{"name":"＊?羽衣中央会館","province":"東京都","city":"立川市","address":"立川市羽衣町2-26-7","lat":35.694145,"lon":139.428577},{"name":"＊?滝ノ上会館","province":"東京都","city":"立川市","address":"立川市富士見町4-16-10","lat":35.695906,"lon":139.39902},{"name":"＊?高松会館","province":"東京都","city":"立川市","address":"立川市高松町2-25-26","lat":35.704184,"lon":139.420185},{"name":"＊?柴崎会館","province":"東京都","city":"立川市","address":"立川市柴崎町1-16-3","lat":35.692372,"lon":139.407383},{"name":"＊?さかえ会館","province":"東京都","city":"立川市","address":"立川市栄町4-6-2","lat":35.710967,"lon":139.424959},{"name":"＊?西砂会館","province":"東京都","city":"立川市","address":"立川市西砂町5-11-13","lat":35.73237,"lon":139.360661},{"name":"＊?天王橋会館","province":"東京都","city":"立川市","address":"立川市一番町3-6-1","lat":35.728235,"lon":139.381028},{"name":"＊?上砂会館","province":"東京都","city":"立川市","address":"立川市上砂町1-31-1","lat":35.720165,"lon":139.395635},{"name":"＊?若葉会館","province":"東京都","city":"立川市","address":"立川市若葉町3-34-1","lat":35.720211,"lon":139.439189},{"name":"＊?こんぴら橋会館","province":"東京都","city":"立川市","address":"立川市砂川町3-26-1","lat":35.727886,"lon":139.399503},{"name":"＊?こぶし会館","province":"東京都","city":"立川市","address":"立川市幸町5-83-1","lat":35.725742,"lon":139.418449},{"name":"＊?柴崎学習館","province":"東京都","city":"立川市","address":"立川市柴崎町1-1-43","lat":35.696668,"lon":139.406788},{"name":"＊?高松学習館","province":"東京都","city":"立川市","address":"立川市高松町3-22-5","lat":35.703007,"lon":139.419146},{"name":"＊?錦学習館","province":"東京都","city":"立川市","address":"立川市錦町3-12-25","lat":35.691166,"lon":139.416405},{"name":"＊?西砂学習館","province":"東京都","city":"立川市","address":"立川市西砂町6-12-10","lat":35.729611,"lon":139.372162},{"name":"＊?幸学習館","province":"東京都","city":"立川市","address":"立川市幸町2-1-3","lat":35.71924,"lon":139.423558},{"name":"＊?砂川学習館","province":"東京都","city":"立川市","address":"立川市砂川町1-52-7","lat":35.722836,"lon":139.403143},{"name":"＊?羽衣中央会館","province":"東京都","city":"立川市","address":"立川市羽衣町2-26-7","lat":35.694145,"lon":139.428577},{"name":"＊?滝ノ上会館","province":"東京都","city":"立川市","address":"立川市富士見町4-16-10","lat":35.695906,"lon":139.39902},{"name":"＊?高松会館","province":"東京都","city":"立川市","address":"立川市高松町2-25-26","lat":35.704184,"lon":139.420185},{"name":"＊?柴崎会館","province":"東京都","city":"立川市","address":"立川市柴崎町1-16-3","lat":35.692372,"lon":139.407383},{"name":"＊?さかえ会館","province":"東京都","city":"立川市","address":"立川市栄町4-6-2","lat":35.710967,"lon":139.424959},{"name":"＊?西砂会館","province":"東京都","city":"立川市","address":"立川市西砂町5-11-13","lat":35.73237,"lon":139.360661},{"name":"＊?天王橋会館","province":"東京都","city":"立川市","address":"立川市一番町3-6-1","lat":35.728235,"lon":139.381028},{"name":"＊?上砂会館","province":"東京都","city":"立川市","address":"立川市上砂町1-31-1","lat":35.720165,"lon":139.395635},{"name":"＊?若葉会館","province":"東京都","city":"立川市","address":"立川市若葉町3-34-1","lat":35.720211,"lon":139.439189},{"name":"＊?こんぴら橋会館","province":"東京都","city":"立川市","address":"立川市砂川町3-26-1","lat":35.727886,"lon":139.399503},{"name":"＊?こぶし会館","province":"東京都","city":"立川市","address":"立川市幸町5-83-1","lat":35.725742,"lon":139.418449},{"name":"＊?柴崎学習館","province":"東京都","city":"立川市","address":"立川市柴崎町1-1-43","lat":35.696668,"lon":139.406788},{"name":"＊?高松学習館","province":"東京都","city":"立川市","address":"立川市高松町3-22-5","lat":35.703007,"lon":139.419146},{"name":"＊?錦学習館","province":"東京都","city":"立川市","address":"立川市錦町3-12-25","lat":35.691166,"lon":139.416405},{"name":"＊?西砂学習館","province":"東京都","city":"立川市","address":"立川市西砂町6-12-10","lat":35.729611,"lon":139.372162},{"name":"＊?幸学習館","province":"東京都","city":"立川市","address":"立川市幸町2-1-3","lat":35.71924,"lon":139.423558},{"name":"＊?砂川学習館","province":"東京都","city":"立川市","address":"立川市砂川町1-52-7","lat":35.722836,"lon":139.403143},{"name":"＊?羽衣中央会館","province":"東京都","city":"立川市","address":"立川市羽衣町2-26-7","lat":35.694145,"lon":139.428577},{"name":"＊?滝ノ上会館","province":"東京都","city":"立川市","address":"立川市富士見町4-16-10","lat":35.695906,"lon":139.39902},{"name":"＊?高松会館","province":"東京都","city":"立川市","address":"立川市高松町2-25-26","lat":35.704184,"lon":139.420185},{"name":"＊?柴崎会館","province":"東京都","city":"立川市","address":"立川市柴崎町1-16-3","lat":35.692372,"lon":139.407383},{"name":"＊?さかえ会館","province":"東京都","city":"立川市","address":"立川市栄町4-6-2","lat":35.710967,"lon":139.424959},{"name":"＊?西砂会館","province":"東京都","city":"立川市","address":"立川市西砂町5-11-13","lat":35.73237,"lon":139.360661},{"name":"＊?天王橋会館","province":"東京都","city":"立川市","address":"立川市一番町3-6-1","lat":35.728235,"lon":139.381028},{"name":"＊?上砂会館","province":"東京都","city":"立川市","address":"立川市上砂町1-31-1","lat":35.720165,"lon":139.395635},{"name":"＊?若葉会館","province":"東京都","city":"立川市","address":"立川市若葉町3-34-1","lat":35.720211,"lon":139.439189},{"name":"＊?こんぴら橋会館","province":"東京都","city":"立川市","address":"立川市砂川町3-26-1","lat":35.727886,"lon":139.399503},{"name":"＊?こぶし会館","province":"東京都","city":"立川市","address":"立川市幸町5-83-1","lat":35.725742,"lon":139.418449},{"name":"＊?柴崎学習館","province":"東京都","city":"立川市","address":"立川市柴崎町1-1-43","lat":35.696668,"lon":139.406788},{"name":"＊?高松学習館","province":"東京都","city":"立川市","address":"立川市高松町3-22-5","lat":35.703007,"lon":139.419146},{"name":"＊?錦学習館","province":"東京都","city":"立川市","address":"立川市錦町3-12-25","lat":35.691166,"lon":139.416405},{"name":"＊?西砂学習館","province":"東京都","city":"立川市","address":"立川市西砂町6-12-10","lat":35.729611,"lon":139.372162},{"name":"＊?幸学習館","province":"東京都","city":"立川市","address":"立川市幸町2-1-3","lat":35.71924,"lon":139.423558},{"name":"＊?砂川学習館","province":"東京都","city":"立川市","address":"立川市砂川町1-52-7","lat":35.722836,"lon":139.403143},{"name":"＊?羽衣中央会館","province":"東京都","city":"立川市","address":"立川市羽衣町2-26-7","lat":35.694145,"lon":139.428577},{"name":"＊?滝ノ上会館","province":"東京都","city":"立川市","address":"立川市富士見町4-16-10","lat":35.695906,"lon":139.39902},{"name":"＊?高松会館","province":"東京都","city":"立川市","address":"立川市高松町2-25-26","lat":35.704184,"lon":139.420185},{"name":"＊?柴崎会館","province":"東京都","city":"立川市","address":"立川市柴崎町1-16-3","lat":35.692372,"lon":139.407383},{"name":"＊?さかえ会館","province":"東京都","city":"立川市","address":"立川市栄町4-6-2","lat":35.710967,"lon":139.424959},{"name":"＊?西砂会館","province":"東京都","city":"立川市","address":"立川市西砂町5-11-13","lat":35.73237,"lon":139.360661},{"name":"＊?天王橋会館","province":"東京都","city":"立川市","address":"立川市一番町3-6-1","lat":35.728235,"lon":139.381028},{"name":"＊?上砂会館","province":"東京都","city":"立川市","address":"立川市上砂町1-31-1","lat":35.720165,"lon":139.395635},{"name":"＊?若葉会館","province":"東京都","city":"立川市","address":"立川市若葉町3-34-1","lat":35.720211,"lon":139.439189},{"name":"＊?こんぴら橋会館","province":"東京都","city":"立川市","address":"立川市砂川町3-26-1","lat":35.727886,"lon":139.399503},{"name":"＊?こぶし会館","province":"東京都","city":"立川市","address":"立川市幸町5-83-1","lat":35.725742,"lon":139.418449},{"name":"＊?柴崎学習館","province":"東京都","city":"立川市","address":"立川市柴崎町1-1-43","lat":35.696668,"lon":139.406788},{"name":"＊?高松学習館","province":"東京都","city":"立川市","address":"立川市高松町3-22-5","lat":35.703007,"lon":139.419146},{"name":"＊?錦学習館","province":"東京都","city":"立川市","address":"立川市錦町3-12-25","lat":35.691166,"lon":139.416405},{"name":"＊?西砂学習館","province":"東京都","city":"立川市","address":"立川市西砂町6-12-10","lat":35.729611,"lon":139.372162},{"name":"＊?幸学習館","province":"東京都","city":"立川市","address":"立川市幸町2-1-3","lat":35.71924,"lon":139.423558},{"name":"＊?砂川学習館","province":"東京都","city":"立川市","address":"立川市砂川町1-52-7","lat":35.722836,"lon":139.403143},{"name":"＊?羽衣中央会館","province":"東京都","city":"立川市","address":"立川市羽衣町2-26-7","lat":35.694145,"lon":139.428577},{"name":"＊?滝ノ上会館","province":"東京都","city":"立川市","address":"立川市富士見町4-16-10","lat":35.695906,"lon":139.39902},{"name":"＊?高松会館","province":"東京都","city":"立川市","address":"立川市高松町2-25-26","lat":35.704184,"lon":139.420185},{"name":"＊?柴崎会館","province":"東京都","city":"立川市","address":"立川市柴崎町1-16-3","lat":35.692372,"lon":139.407383},{"name":"＊?さかえ会館","province":"東京都","city":"立川市","address":"立川市栄町4-6-2","lat":35.710967,"lon":139.424959},{"name":"＊?西砂会館","province":"東京都","city":"立川市","address":"立川市西砂町5-11-13","lat":35.73237,"lon":139.360661},{"name":"＊?天王橋会館","province":"東京都","city":"立川市","address":"立川市一番町3-6-1","lat":35.728235,"lon":139.381028},{"name":"＊?上砂会館","province":"東京都","city":"立川市","address":"立川市上砂町1-31-1","lat":35.720165,"lon":139.395635},{"name":"＊?若葉会館","province":"東京都","city":"立川市","address":"立川市若葉町3-34-1","lat":35.720211,"lon":139.439189},{"name":"＊?こんぴら橋会館","province":"東京都","city":"立川市","address":"立川市砂川町3-26-1","lat":35.727886,"lon":139.399503},{"name":"＊?こぶし会館","province":"東京都","city":"立川市","address":"立川市幸町5-83-1","lat":35.725742,"lon":139.418449},{"name":"＊?柴崎学習館","province":"東京都","city":"立川市","address":"立川市柴崎町1-1-43","lat":35.696668,"lon":139.406788},{"name":"＊?高松学習館","province":"東京都","city":"立川市","address":"立川市高松町3-22-5","lat":35.703007,"lon":139.419146},{"name":"＊?錦学習館","province":"東京都","city":"立川市","address":"立川市錦町3-12-25","lat":35.691166,"lon":139.416405},{"name":"＊?西砂学習館","province":"東京都","city":"立川市","address":"立川市西砂町6-12-10","lat":35.729611,"lon":139.372162},{"name":"＊?幸学習館","province":"東京都","city":"立川市","address":"立川市幸町2-1-3","lat":35.71924,"lon":139.423558},{"name":"＊?砂川学習館","province":"東京都","city":"立川市","address":"立川市砂川町1-52-7","lat":35.722836,"lon":139.403143},{"name":"＊?羽衣中央会館","province":"東京都","city":"立川市","address":"立川市羽衣町2-26-7","lat":35.694145,"lon":139.428577},{"name":"＊?滝ノ上会館","province":"東京都","city":"立川市","address":"立川市富士見町4-16-10","lat":35.695906,"lon":139.39902},{"name":"＊?高松会館","province":"東京都","city":"立川市","address":"立川市高松町2-25-26","lat":35.704184,"lon":139.420185},{"name":"＊?柴崎会館","province":"東京都","city":"立川市","address":"立川市柴崎町1-16-3","lat":35.692372,"lon":139.407383},{"name":"＊?さかえ会館","province":"東京都","city":"立川市","address":"立川市栄町4-6-2","lat":35.710967,"lon":139.424959},{"name":"＊?西砂会館","province":"東京都","city":"立川市","address":"立川市西砂町5-11-13","lat":35.73237,"lon":139.360661},{"name":"＊?天王橋会館","province":"東京都","city":"立川市","address":"立川市一番町3-6-1","lat":35.728235,"lon":139.381028},{"name":"＊?上砂会館","province":"東京都","city":"立川市","address":"立川市上砂町1-31-1","lat":35.720165,"lon":139.395635},{"name":"＊?若葉会館","province":"東京都","city":"立川市","address":"立川市若葉町3-34-1","lat":35.720211,"lon":139.439189},{"name":"＊?こんぴら橋会館","province":"東京都","city":"立川市","address":"立川市砂川町3-26-1","lat":35.727886,"lon":139.399503},{"name":"＊?こぶし会館","province":"東京都","city":"立川市","address":"立川市幸町5-83-1","lat":35.725742,"lon":139.418449},{"name":"＊?柴崎学習館","province":"東京都","city":"立川市","address":"立川市柴崎町1-1-43","lat":35.696668,"lon":139.406788},{"name":"＊?高松学習館","province":"東京都","city":"立川市","address":"立川市高松町3-22-5","lat":35.703007,"lon":139.419146},{"name":"＊?錦学習館","province":"東京都","city":"立川市","address":"立川市錦町3-12-25","lat":35.691166,"lon":139.416405},{"name":"＊?西砂学習館","province":"東京都","city":"立川市","address":"立川市西砂町6-12-10","lat":35.729611,"lon":139.372162},{"name":"＊?幸学習館","province":"東京都","city":"立川市","address":"立川市幸町2-1-3","lat":35.71924,"lon":139.423558},{"name":"＊?砂川学習館","province":"東京都","city":"立川市","address":"立川市砂川町1-52-7","lat":35.722836,"lon":139.403143},{"name":"＊?羽衣中央会館","province":"東京都","city":"立川市","address":"立川市羽衣町2-26-7","lat":35.694145,"lon":139.428577},{"name":"＊?滝ノ上会館","province":"東京都","city":"立川市","address":"立川市富士見町4-16-10","lat":35.695906,"lon":139.39902},{"name":"＊?高松会館","province":"東京都","city":"立川市","address":"立川市高松町2-25-26","lat":35.704184,"lon":139.420185},{"name":"＊?柴崎会館","province":"東京都","city":"立川市","address":"立川市柴崎町1-16-3","lat":35.692372,"lon":139.407383},{"name":"＊?さかえ会館","province":"東京都","city":"立川市","address":"立川市栄町4-6-2","lat":35.710967,"lon":139.424959},{"name":"＊?西砂会館","province":"東京都","city":"立川市","address":"立川市西砂町5-11-13","lat":35.73237,"lon":139.360661},{"name":"＊?天王橋会館","province":"東京都","city":"立川市","address":"立川市一番町3-6-1","lat":35.728235,"lon":139.381028},{"name":"＊?上砂会館","province":"東京都","city":"立川市","address":"立川市上砂町1-31-1","lat":35.720165,"lon":139.395635},{"name":"＊?若葉会館","province":"東京都","city":"立川市","address":"立川市若葉町3-34-1","lat":35.720211,"lon":139.439189},{"name":"＊?こんぴら橋会館","province":"東京都","city":"立川市","address":"立川市砂川町3-26-1","lat":35.727886,"lon":139.399503},{"name":"＊?こぶし会館","province":"東京都","city":"立川市","address":"立川市幸町5-83-1","lat":35.725742,"lon":139.418449},{"name":"＊?柴崎学習館","province":"東京都","city":"立川市","address":"立川市柴崎町1-1-43","lat":35.696668,"lon":139.406788},{"name":"＊?高松学習館","province":"東京都","city":"立川市","address":"立川市高松町3-22-5","lat":35.703007,"lon":139.419146},{"name":"＊?錦学習館","province":"東京都","city":"立川市","address":"立川市錦町3-12-25","lat":35.691166,"lon":139.416405},{"name":"＊?西砂学習館","province":"東京都","city":"立川市","address":"立川市西砂町6-12-10","lat":35.729611,"lon":139.372162},{"name":"＊?幸学習館","province":"東京都","city":"立川市","address":"立川市幸町2-1-3","lat":35.71924,"lon":139.423558},{"name":"＊?砂川学習館","province":"東京都","city":"立川市","address":"立川市砂川町1-52-7","lat":35.722836,"lon":139.403143},{"name":"＊?羽衣中央会館","province":"東京都","city":"立川市","address":"立川市羽衣町2-26-7","lat":35.694145,"lon":139.428577},{"name":"＊?滝ノ上会館","province":"東京都","city":"立川市","address":"立川市富士見町4-16-10","lat":35.695906,"lon":139.39902},{"name":"＊?高松会館","province":"東京都","city":"立川市","address":"立川市高松町2-25-26","lat":35.704184,"lon":139.420185},{"name":"＊?柴崎会館","province":"東京都","city":"立川市","address":"立川市柴崎町1-16-3","lat":35.692372,"lon":139.407383},{"name":"＊?さかえ会館","province":"東京都","city":"立川市","address":"立川市栄町4-6-2","lat":35.710967,"lon":139.424959},{"name":"＊?西砂会館","province":"東京都","city":"立川市","address":"立川市西砂町5-11-13","lat":35.73237,"lon":139.360661},{"name":"＊?天王橋会館","province":"東京都","city":"立川市","address":"立川市一番町3-6-1","lat":35.728235,"lon":139.381028},{"name":"＊?上砂会館","province":"東京都","city":"立川市","address":"立川市上砂町1-31-1","lat":35.720165,"lon":139.395635},{"name":"＊?若葉会館","province":"東京都","city":"立川市","address":"立川市若葉町3-34-1","lat":35.720211,"lon":139.439189},{"name":"＊?こんぴら橋会館","province":"東京都","city":"立川市","address":"立川市砂川町3-26-1","lat":35.727886,"lon":139.399503},{"name":"＊?こぶし会館","province":"東京都","city":"立川市","address":"立川市幸町5-83-1","lat":35.725742,"lon":139.418449},{"name":"＊?柴崎学習館","province":"東京都","city":"立川市","address":"立川市柴崎町1-1-43","lat":35.696668,"lon":139.406788},{"name":"＊?高松学習館","province":"東京都","city":"立川市","address":"立川市高松町3-22-5","lat":35.703007,"lon":139.419146},{"name":"＊?錦学習館","province":"東京都","city":"立川市","address":"立川市錦町3-12-25","lat":35.691166,"lon":139.416405},{"name":"＊?西砂学習館","province":"東京都","city":"立川市","address":"立川市西砂町6-12-10","lat":35.729611,"lon":139.372162},{"name":"＊?幸学習館","province":"東京都","city":"立川市","address":"立川市幸町2-1-3","lat":35.71924,"lon":139.423558},{"name":"＊?砂川学習館","province":"東京都","city":"立川市","address":"立川市砂川町1-52-7","lat":35.722836,"lon":139.403143},{"name":"＊?羽衣中央会館","province":"東京都","city":"立川市","address":"立川市羽衣町2-26-7","lat":35.694145,"lon":139.428577},{"name":"＊?滝ノ上会館","province":"東京都","city":"立川市","address":"立川市富士見町4-16-10","lat":35.695906,"lon":139.39902},{"name":"＊?高松会館","province":"東京都","city":"立川市","address":"立川市高松町2-25-26","lat":35.704184,"lon":139.420185},{"name":"＊?柴崎会館","province":"東京都","city":"立川市","address":"立川市柴崎町1-16-3","lat":35.692372,"lon":139.407383},{"name":"＊?さかえ会館","province":"東京都","city":"立川市","address":"立川市栄町4-6-2","lat":35.710967,"lon":139.424959},{"name":"＊?西砂会館","province":"東京都","city":"立川市","address":"立川市西砂町5-11-13","lat":35.73237,"lon":139.360661},{"name":"＊?天王橋会館","province":"東京都","city":"立川市","address":"立川市一番町3-6-1","lat":35.728235,"lon":139.381028},{"name":"＊?上砂会館","province":"東京都","city":"立川市","address":"立川市上砂町1-31-1","lat":35.720165,"lon":139.395635},{"name":"＊?若葉会館","province":"東京都","city":"立川市","address":"立川市若葉町3-34-1","lat":35.720211,"lon":139.439189},{"name":"＊?こんぴら橋会館","province":"東京都","city":"立川市","address":"立川市砂川町3-26-1","lat":35.727886,"lon":139.399503},{"name":"＊?こぶし会館","province":"東京都","city":"立川市","address":"立川市幸町5-83-1","lat":35.725742,"lon":139.418449},{"name":"＊?柴崎学習館","province":"東京都","city":"立川市","address":"立川市柴崎町1-1-43","lat":35.696668,"lon":139.406788},{"name":"＊?高松学習館","province":"東京都","city":"立川市","address":"立川市高松町3-22-5","lat":35.703007,"lon":139.419146},{"name":"＊?錦学習館","province":"東京都","city":"立川市","address":"立川市錦町3-12-25","lat":35.691166,"lon":139.416405},{"name":"＊?西砂学習館","province":"東京都","city":"立川市","address":"立川市西砂町6-12-10","lat":35.729611,"lon":139.372162},{"name":"＊?幸学習館","province":"東京都","city":"立川市","address":"立川市幸町2-1-3","lat":35.71924,"lon":139.423558},{"name":"＊?砂川学習館","province":"東京都","city":"立川市","address":"立川市砂川町1-52-7","lat":35.722836,"lon":139.403143},{"name":"＊?羽衣中央会館","province":"東京都","city":"立川市","address":"立川市羽衣町2-26-7","lat":35.694145,"lon":139.428577},{"name":"＊?滝ノ上会館","province":"東京都","city":"立川市","address":"立川市富士見町4-16-10","lat":35.695906,"lon":139.39902},{"name":"＊?高松会館","province":"東京都","city":"立川市","address":"立川市高松町2-25-26","lat":35.704184,"lon":139.420185},{"name":"＊?柴崎会館","province":"東京都","city":"立川市","address":"立川市柴崎町1-16-3","lat":35.692372,"lon":139.407383},{"name":"＊?さかえ会館","province":"東京都","city":"立川市","address":"立川市栄町4-6-2","lat":35.710967,"lon":139.424959},{"name":"＊?西砂会館","province":"東京都","city":"立川市","address":"立川市西砂町5-11-13","lat":35.73237,"lon":139.360661},{"name":"＊?天王橋会館","province":"東京都","city":"立川市","address":"立川市一番町3-6-1","lat":35.728235,"lon":139.381028},{"name":"＊?上砂会館","province":"東京都","city":"立川市","address":"立川市上砂町1-31-1","lat":35.720165,"lon":139.395635},{"name":"＊?若葉会館","province":"東京都","city":"立川市","address":"立川市若葉町3-34-1","lat":35.720211,"lon":139.439189},{"name":"＊?こんぴら橋会館","province":"東京都","city":"立川市","address":"立川市砂川町3-26-1","lat":35.727886,"lon":139.399503},{"name":"＊?こぶし会館","province":"東京都","city":"立川市","address":"立川市幸町5-83-1","lat":35.725742,"lon":139.418449},{"name":"＊?柴崎学習館","province":"東京都","city":"立川市","address":"立川市柴崎町1-1-43","lat":35.696668,"lon":139.406788},{"name":"＊?高松学習館","province":"東京都","city":"立川市","address":"立川市高松町3-22-5","lat":35.703007,"lon":139.419146},{"name":"＊?錦学習館","province":"東京都","city":"立川市","address":"立川市錦町3-12-25","lat":35.691166,"lon":139.416405},{"name":"＊?西砂学習館","province":"東京都","city":"立川市","address":"立川市西砂町6-12-10","lat":35.729611,"lon":139.372162},{"name":"＊?幸学習館","province":"東京都","city":"立川市","address":"立川市幸町2-1-3","lat":35.71924,"lon":139.423558},{"name":"＊?砂川学習館","province":"東京都","city":"立川市","address":"立川市砂川町1-52-7","lat":35.722836,"lon":139.403143},{"name":"＊?羽衣中央会館","province":"東京都","city":"立川市","address":"立川市羽衣町2-26-7","lat":35.694145,"lon":139.428577},{"name":"＊?滝ノ上会館","province":"東京都","city":"立川市","address":"立川市富士見町4-16-10","lat":35.695906,"lon":139.39902},{"name":"＊?高松会館","province":"東京都","city":"立川市","address":"立川市高松町2-25-26","lat":35.704184,"lon":139.420185},{"name":"＊?柴崎会館","province":"東京都","city":"立川市","address":"立川市柴崎町1-16-3","lat":35.692372,"lon":139.407383},{"name":"＊?さかえ会館","province":"東京都","city":"立川市","address":"立川市栄町4-6-2","lat":35.710967,"lon":139.424959},{"name":"＊?西砂会館","province":"東京都","city":"立川市","address":"立川市西砂町5-11-13","lat":35.73237,"lon":139.360661},{"name":"＊?天王橋会館","province":"東京都","city":"立川市","address":"立川市一番町3-6-1","lat":35.728235,"lon":139.381028},{"name":"＊?上砂会館","province":"東京都","city":"立川市","address":"立川市上砂町1-31-1","lat":35.720165,"lon":139.395635},{"name":"＊?若葉会館","province":"東京都","city":"立川市","address":"立川市若葉町3-34-1","lat":35.720211,"lon":139.439189},{"name":"＊?こんぴら橋会館","province":"東京都","city":"立川市","address":"立川市砂川町3-26-1","lat":35.727886,"lon":139.399503},{"name":"＊?こぶし会館","province":"東京都","city":"立川市","address":"立川市幸町5-83-1","lat":35.725742,"lon":139.418449},{"name":"＊?柴崎学習館","province":"東京都","city":"立川市","address":"立川市柴崎町1-1-43","lat":35.696668,"lon":139.406788},{"name":"＊?高松学習館","province":"東京都","city":"立川市","address":"立川市高松町3-22-5","lat":35.703007,"lon":139.419146},{"name":"＊?錦学習館","province":"東京都","city":"立川市","address":"立川市錦町3-12-25","lat":35.691166,"lon":139.416405},{"name":"＊?西砂学習館","province":"東京都","city":"立川市","address":"立川市西砂町6-12-10","lat":35.729611,"lon":139.372162},{"name":"＊?幸学習館","province":"東京都","city":"立川市","address":"立川市幸町2-1-3","lat":35.71924,"lon":139.423558},{"name":"＊?砂川学習館","province":"東京都","city":"立川市","address":"立川市砂川町1-52-7","lat":35.722836,"lon":139.403143},{"name":"＊?羽衣中央会館","province":"東京都","city":"立川市","address":"立川市羽衣町2-26-7","lat":35.694145,"lon":139.428577},{"name":"＊?滝ノ上会館","province":"東京都","city":"立川市","address":"立川市富士見町4-16-10","lat":35.695906,"lon":139.39902},{"name":"＊?高松会館","province":"東京都","city":"立川市","address":"立川市高松町2-25-26","lat":35.704184,"lon":139.420185},{"name":"＊?柴崎会館","province":"東京都","city":"立川市","address":"立川市柴崎町1-16-3","lat":35.692372,"lon":139.407383},{"name":"＊?さかえ会館","province":"東京都","city":"立川市","address":"立川市栄町4-6-2","lat":35.710967,"lon":139.424959},{"name":"＊?西砂会館","province":"東京都","city":"立川市","address":"立川市西砂町5-11-13","lat":35.73237,"lon":139.360661},{"name":"＊?天王橋会館","province":"東京都","city":"立川市","address":"立川市一番町3-6-1","lat":35.728235,"lon":139.381028},{"name":"＊?上砂会館","province":"東京都","city":"立川市","address":"立川市上砂町1-31-1","lat":35.720165,"lon":139.395635},{"name":"＊?若葉会館","province":"東京都","city":"立川市","address":"立川市若葉町3-34-1","lat":35.720211,"lon":139.439189},{"name":"＊?こんぴら橋会館","province":"東京都","city":"立川市","address":"立川市砂川町3-26-1","lat":35.727886,"lon":139.399503},{"name":"＊?こぶし会館","province":"東京都","city":"立川市","address":"立川市幸町5-83-1","lat":35.725742,"lon":139.418449},{"name":"＊?柴崎学習館","province":"東京都","city":"立川市","address":"立川市柴崎町1-1-43","lat":35.696668,"lon":139.406788},{"name":"＊?高松学習館","province":"東京都","city":"立川市","address":"立川市高松町3-22-5","lat":35.703007,"lon":139.419146},{"name":"＊?錦学習館","province":"東京都","city":"立川市","address":"立川市錦町3-12-25","lat":35.691166,"lon":139.416405},{"name":"＊?西砂学習館","province":"東京都","city":"立川市","address":"立川市西砂町6-12-10","lat":35.729611,"lon":139.372162},{"name":"＊?幸学習館","province":"東京都","city":"立川市","address":"立川市幸町2-1-3","lat":35.71924,"lon":139.423558},{"name":"＊?砂川学習館","province":"東京都","city":"立川市","address":"立川市砂川町1-52-7","lat":35.722836,"lon":139.403143},{"name":"＊?羽衣中央会館","province":"東京都","city":"立川市","address":"立川市羽衣町2-26-7","lat":35.694145,"lon":139.428577},{"name":"＊?滝ノ上会館","province":"東京都","city":"立川市","address":"立川市富士見町4-16-10","lat":35.695906,"lon":139.39902},{"name":"＊?高松会館","province":"東京都","city":"立川市","address":"立川市高松町2-25-26","lat":35.704184,"lon":139.420185},{"name":"＊?柴崎会館","province":"東京都","city":"立川市","address":"立川市柴崎町1-16-3","lat":35.692372,"lon":139.407383},{"name":"＊?さかえ会館","province":"東京都","city":"立川市","address":"立川市栄町4-6-2","lat":35.710967,"lon":139.424959},{"name":"＊?西砂会館","province":"東京都","city":"立川市","address":"立川市西砂町5-11-13","lat":35.73237,"lon":139.360661},{"name":"＊?天王橋会館","province":"東京都","city":"立川市","address":"立川市一番町3-6-1","lat":35.728235,"lon":139.381028},{"name":"＊?上砂会館","province":"東京都","city":"立川市","address":"立川市上砂町1-31-1","lat":35.720165,"lon":139.395635},{"name":"＊?若葉会館","province":"東京都","city":"立川市","address":"立川市若葉町3-34-1","lat":35.720211,"lon":139.439189},{"name":"＊?こんぴら橋会館","province":"東京都","city":"立川市","address":"立川市砂川町3-26-1","lat":35.727886,"lon":139.399503},{"name":"＊?こぶし会館","province":"東京都","city":"立川市","address":"立川市幸町5-83-1","lat":35.725742,"lon":139.418449},{"name":"＊?柴崎学習館","province":"東京都","city":"立川市","address":"立川市柴崎町1-1-43","lat":35.696668,"lon":139.406788},{"name":"＊?高松学習館","province":"東京都","city":"立川市","address":"立川市高松町3-22-5","lat":35.703007,"lon":139.419146},{"name":"＊?錦学習館","province":"東京都","city":"立川市","address":"立川市錦町3-12-25","lat":35.691166,"lon":139.416405},{"name":"＊?西砂学習館","province":"東京都","city":"立川市","address":"立川市西砂町6-12-10","lat":35.729611,"lon":139.372162},{"name":"＊?幸学習館","province":"東京都","city":"立川市","address":"立川市幸町2-1-3","lat":35.71924,"lon":139.423558},{"name":"＊?砂川学習館","province":"東京都","city":"立川市","address":"立川市砂川町1-52-7","lat":35.722836,"lon":139.403143},{"name":"＊?羽衣中央会館","province":"東京都","city":"立川市","address":"立川市羽衣町2-26-7","lat":35.694145,"lon":139.428577},{"name":"＊?滝ノ上会館","province":"東京都","city":"立川市","address":"立川市富士見町4-16-10","lat":35.695906,"lon":139.39902},{"name":"＊?高松会館","province":"東京都","city":"立川市","address":"立川市高松町2-25-26","lat":35.704184,"lon":139.420185},{"name":"＊?柴崎会館","province":"東京都","city":"立川市","address":"立川市柴崎町1-16-3","lat":35.692372,"lon":139.407383},{"name":"＊?さかえ会館","province":"東京都","city":"立川市","address":"立川市栄町4-6-2","lat":35.710967,"lon":139.424959},{"name":"＊?西砂会館","province":"東京都","city":"立川市","address":"立川市西砂町5-11-13","lat":35.73237,"lon":139.360661},{"name":"＊?天王橋会館","province":"東京都","city":"立川市","address":"立川市一番町3-6-1","lat":35.728235,"lon":139.381028},{"name":"＊?上砂会館","province":"東京都","city":"立川市","address":"立川市上砂町1-31-1","lat":35.720165,"lon":139.395635},{"name":"＊?若葉会館","province":"東京都","city":"立川市","address":"立川市若葉町3-34-1","lat":35.720211,"lon":139.439189},{"name":"＊?こんぴら橋会館","province":"東京都","city":"立川市","address":"立川市砂川町3-26-1","lat":35.727886,"lon":139.399503},{"name":"＊?こぶし会館","province":"東京都","city":"立川市","address":"立川市幸町5-83-1","lat":35.725742,"lon":139.418449},{"name":"＊?柴崎学習館","province":"東京都","city":"立川市","address":"立川市柴崎町1-1-43","lat":35.696668,"lon":139.406788},{"name":"＊?高松学習館","province":"東京都","city":"立川市","address":"立川市高松町3-22-5","lat":35.703007,"lon":139.419146},{"name":"＊?錦学習館","province":"東京都","city":"立川市","address":"立川市錦町3-12-25","lat":35.691166,"lon":139.416405},{"name":"＊?西砂学習館","province":"東京都","city":"立川市","address":"立川市西砂町6-12-10","lat":35.729611,"lon":139.372162},{"name":"＊?幸学習館","province":"東京都","city":"立川市","address":"立川市幸町2-1-3","lat":35.71924,"lon":139.423558},{"name":"＊?砂川学習館","province":"東京都","city":"立川市","address":"立川市砂川町1-52-7","lat":35.722836,"lon":139.403143},{"name":"＊?羽衣中央会館","province":"東京都","city":"立川市","address":"立川市羽衣町2-26-7","lat":35.694145,"lon":139.428577},{"name":"＊?滝ノ上会館","province":"東京都","city":"立川市","address":"立川市富士見町4-16-10","lat":35.695906,"lon":139.39902},{"name":"＊?高松会館","province":"東京都","city":"立川市","address":"立川市高松町2-25-26","lat":35.704184,"lon":139.420185},{"name":"＊?柴崎会館","province":"東京都","city":"立川市","address":"立川市柴崎町1-16-3","lat":35.692372,"lon":139.407383},{"name":"＊?さかえ会館","province":"東京都","city":"立川市","address":"立川市栄町4-6-2","lat":35.710967,"lon":139.424959},{"name":"＊?西砂会館","province":"東京都","city":"立川市","address":"立川市西砂町5-11-13","lat":35.73237,"lon":139.360661},{"name":"＊?天王橋会館","province":"東京都","city":"立川市","address":"立川市一番町3-6-1","lat":35.728235,"lon":139.381028},{"name":"＊?上砂会館","province":"東京都","city":"立川市","address":"立川市上砂町1-31-1","lat":35.720165,"lon":139.395635},{"name":"＊?若葉会館","province":"東京都","city":"立川市","address":"立川市若葉町3-34-1","lat":35.720211,"lon":139.439189},{"name":"＊?こんぴら橋会館","province":"東京都","city":"立川市","address":"立川市砂川町3-26-1","lat":35.727886,"lon":139.399503},{"name":"＊?こぶし会館","province":"東京都","city":"立川市","address":"立川市幸町5-83-1","lat":35.725742,"lon":139.418449},{"name":"＊?柴崎学習館","province":"東京都","city":"立川市","address":"立川市柴崎町1-1-43","lat":35.696668,"lon":139.406788},{"name":"＊?高松学習館","province":"東京都","city":"立川市","address":"立川市高松町3-22-5","lat":35.703007,"lon":139.419146},{"name":"＊?錦学習館","province":"東京都","city":"立川市","address":"立川市錦町3-12-25","lat":35.691166,"lon":139.416405},{"name":"＊?西砂学習館","province":"東京都","city":"立川市","address":"立川市西砂町6-12-10","lat":35.729611,"lon":139.372162},{"name":"＊?幸学習館","province":"東京都","city":"立川市","address":"立川市幸町2-1-3","lat":35.71924,"lon":139.423558},{"name":"＊?砂川学習館","province":"東京都","city":"立川市","address":"立川市砂川町1-52-7","lat":35.722836,"lon":139.403143},{"name":"＊?羽衣中央会館","province":"東京都","city":"立川市","address":"立川市羽衣町2-26-7","lat":35.694145,"lon":139.428577},{"name":"＊?滝ノ上会館","province":"東京都","city":"立川市","address":"立川市富士見町4-16-10","lat":35.695906,"lon":139.39902},{"name":"＊?高松会館","province":"東京都","city":"立川市","address":"立川市高松町2-25-26","lat":35.704184,"lon":139.420185},{"name":"＊?柴崎会館","province":"東京都","city":"立川市","address":"立川市柴崎町1-16-3","lat":35.692372,"lon":139.407383},{"name":"＊?さかえ会館","province":"東京都","city":"立川市","address":"立川市栄町4-6-2","lat":35.710967,"lon":139.424959},{"name":"＊?西砂会館","province":"東京都","city":"立川市","address":"立川市西砂町5-11-13","lat":35.73237,"lon":139.360661},{"name":"＊?天王橋会館","province":"東京都","city":"立川市","address":"立川市一番町3-6-1","lat":35.728235,"lon":139.381028},{"name":"＊?上砂会館","province":"東京都","city":"立川市","address":"立川市上砂町1-31-1","lat":35.720165,"lon":139.395635},{"name":"＊?若葉会館","province":"東京都","city":"立川市","address":"立川市若葉町3-34-1","lat":35.720211,"lon":139.439189},{"name":"＊?こんぴら橋会館","province":"東京都","city":"立川市","address":"立川市砂川町3-26-1","lat":35.727886,"lon":139.399503},{"name":"＊?こぶし会館","province":"東京都","city":"立川市","address":"立川市幸町5-83-1","lat":35.725742,"lon":139.418449},{"name":"＊?柴崎学習館","province":"東京都","city":"立川市","address":"立川市柴崎町1-1-43","lat":35.696668,"lon":139.406788},{"name":"＊?高松学習館","province":"東京都","city":"立川市","address":"立川市高松町3-22-5","lat":35.703007,"lon":139.419146},{"name":"＊?錦学習館","province":"東京都","city":"立川市","address":"立川市錦町3-12-25","lat":35.691166,"lon":139.416405},{"name":"＊?西砂学習館","province":"東京都","city":"立川市","address":"立川市西砂町6-12-10","lat":35.729611,"lon":139.372162},{"name":"＊?幸学習館","province":"東京都","city":"立川市","address":"立川市幸町2-1-3","lat":35.71924,"lon":139.423558},{"name":"＊?砂川学習館","province":"東京都","city":"立川市","address":"立川市砂川町1-52-7","lat":35.722836,"lon":139.403143},{"name":"＊?羽衣中央会館","province":"東京都","city":"立川市","address":"立川市羽衣町2-26-7","lat":35.694145,"lon":139.428577},{"name":"＊?滝ノ上会館","province":"東京都","city":"立川市","address":"立川市富士見町4-16-10","lat":35.695906,"lon":139.39902},{"name":"＊?高松会館","province":"東京都","city":"立川市","address":"立川市高松町2-25-26","lat":35.704184,"lon":139.420185},{"name":"＊?柴崎会館","province":"東京都","city":"立川市","address":"立川市柴崎町1-16-3","lat":35.692372,"lon":139.407383},{"name":"＊?さかえ会館","province":"東京都","city":"立川市","address":"立川市栄町4-6-2","lat":35.710967,"lon":139.424959},{"name":"＊?西砂会館","province":"東京都","city":"立川市","address":"立川市西砂町5-11-13","lat":35.73237,"lon":139.360661},{"name":"＊?天王橋会館","province":"東京都","city":"立川市","address":"立川市一番町3-6-1","lat":35.728235,"lon":139.381028},{"name":"＊?上砂会館","province":"東京都","city":"立川市","address":"立川市上砂町1-31-1","lat":35.720165,"lon":139.395635},{"name":"＊?若葉会館","province":"東京都","city":"立川市","address":"立川市若葉町3-34-1","lat":35.720211,"lon":139.439189},{"name":"＊?こんぴら橋会館","province":"東京都","city":"立川市","address":"立川市砂川町3-26-1","lat":35.727886,"lon":139.399503},{"name":"＊?こぶし会館","province":"東京都","city":"立川市","address":"立川市幸町5-83-1","lat":35.725742,"lon":139.418449},{"name":"＊?柴崎学習館","province":"東京都","city":"立川市","address":"立川市柴崎町1-1-43","lat":35.696668,"lon":139.406788},{"name":"＊?高松学習館","province":"東京都","city":"立川市","address":"立川市高松町3-22-5","lat":35.703007,"lon":139.419146},{"name":"＊?錦学習館","province":"東京都","city":"立川市","address":"立川市錦町3-12-25","lat":35.691166,"lon":139.416405},{"name":"＊?西砂学習館","province":"東京都","city":"立川市","address":"立川市西砂町6-12-10","lat":35.729611,"lon":139.372162},{"name":"＊?幸学習館","province":"東京都","city":"立川市","address":"立川市幸町2-1-3","lat":35.71924,"lon":139.423558},{"name":"＊?砂川学習館","province":"東京都","city":"立川市","address":"立川市砂川町1-52-7","lat":35.722836,"lon":139.403143},{"name":"＊?羽衣中央会館","province":"東京都","city":"立川市","address":"立川市羽衣町2-26-7","lat":35.694145,"lon":139.428577},{"name":"＊?滝ノ上会館","province":"東京都","city":"立川市","address":"立川市富士見町4-16-10","lat":35.695906,"lon":139.39902},{"name":"＊?高松会館","province":"東京都","city":"立川市","address":"立川市高松町2-25-26","lat":35.704184,"lon":139.420185},{"name":"＊?柴崎会館","province":"東京都","city":"立川市","address":"立川市柴崎町1-16-3","lat":35.692372,"lon":139.407383},{"name":"＊?さかえ会館","province":"東京都","city":"立川市","address":"立川市栄町4-6-2","lat":35.710967,"lon":139.424959},{"name":"＊?西砂会館","province":"東京都","city":"立川市","address":"立川市西砂町5-11-13","lat":35.73237,"lon":139.360661},{"name":"＊?天王橋会館","province":"東京都","city":"立川市","address":"立川市一番町3-6-1","lat":35.728235,"lon":139.381028},{"name":"＊?上砂会館","province":"東京都","city":"立川市","address":"立川市上砂町1-31-1","lat":35.720165,"lon":139.395635},{"name":"＊?若葉会館","province":"東京都","city":"立川市","address":"立川市若葉町3-34-1","lat":35.720211,"lon":139.439189},{"name":"＊?こんぴら橋会館","province":"東京都","city":"立川市","address":"立川市砂川町3-26-1","lat":35.727886,"lon":139.399503},{"name":"＊?こぶし会館","province":"東京都","city":"立川市","address":"立川市幸町5-83-1","lat":35.725742,"lon":139.418449},{"name":"＊?柴崎学習館","province":"東京都","city":"立川市","address":"立川市柴崎町1-1-43","lat":35.696668,"lon":139.406788},{"name":"＊?高松学習館","province":"東京都","city":"立川市","address":"立川市高松町3-22-5","lat":35.703007,"lon":139.419146},{"name":"＊?錦学習館","province":"東京都","city":"立川市","address":"立川市錦町3-12-25","lat":35.691166,"lon":139.416405},{"name":"＊?西砂学習館","province":"東京都","city":"立川市","address":"立川市西砂町6-12-10","lat":35.729611,"lon":139.372162},{"name":"＊?幸学習館","province":"東京都","city":"立川市","address":"立川市幸町2-1-3","lat":35.71924,"lon":139.423558},{"name":"＊?砂川学習館","province":"東京都","city":"立川市","address":"立川市砂川町1-52-7","lat":35.722836,"lon":139.403143},{"name":"＊?羽衣中央会館","province":"東京都","city":"立川市","address":"立川市羽衣町2-26-7","lat":35.694145,"lon":139.428577},{"name":"＊?滝ノ上会館","province":"東京都","city":"立川市","address":"立川市富士見町4-16-10","lat":35.695906,"lon":139.39902},{"name":"＊?高松会館","province":"東京都","city":"立川市","address":"立川市高松町2-25-26","lat":35.704184,"lon":139.420185},{"name":"＊?柴崎会館","province":"東京都","city":"立川市","address":"立川市柴崎町1-16-3","lat":35.692372,"lon":139.407383},{"name":"＊?さかえ会館","province":"東京都","city":"立川市","address":"立川市栄町4-6-2","lat":35.710967,"lon":139.424959},{"name":"＊?西砂会館","province":"東京都","city":"立川市","address":"立川市西砂町5-11-13","lat":35.73237,"lon":139.360661},{"name":"＊?天王橋会館","province":"東京都","city":"立川市","address":"立川市一番町3-6-1","lat":35.728235,"lon":139.381028},{"name":"＊?上砂会館","province":"東京都","city":"立川市","address":"立川市上砂町1-31-1","lat":35.720165,"lon":139.395635},{"name":"＊?若葉会館","province":"東京都","city":"立川市","address":"立川市若葉町3-34-1","lat":35.720211,"lon":139.439189},{"name":"＊?こんぴら橋会館","province":"東京都","city":"立川市","address":"立川市砂川町3-26-1","lat":35.727886,"lon":139.399503},{"name":"＊?こぶし会館","province":"東京都","city":"立川市","address":"立川市幸町5-83-1","lat":35.725742,"lon":139.418449},{"name":"＊?柴崎学習館","province":"東京都","city":"立川市","address":"立川市柴崎町1-1-43","lat":35.696668,"lon":139.406788},{"name":"＊?高松学習館","province":"東京都","city":"立川市","address":"立川市高松町3-22-5","lat":35.703007,"lon":139.419146},{"name":"＊?錦学習館","province":"東京都","city":"立川市","address":"立川市錦町3-12-25","lat":35.691166,"lon":139.416405},{"name":"＊?西砂学習館","province":"東京都","city":"立川市","address":"立川市西砂町6-12-10","lat":35.729611,"lon":139.372162},{"name":"＊?幸学習館","province":"東京都","city":"立川市","address":"立川市幸町2-1-3","lat":35.71924,"lon":139.423558},{"name":"＊?砂川学習館","province":"東京都","city":"立川市","address":"立川市砂川町1-52-7","lat":35.722836,"lon":139.403143},{"name":"＊?羽衣中央会館","province":"東京都","city":"立川市","address":"立川市羽衣町2-26-7","lat":35.694145,"lon":139.428577},{"name":"＊?滝ノ上会館","province":"東京都","city":"立川市","address":"立川市富士見町4-16-10","lat":35.695906,"lon":139.39902},{"name":"＊?高松会館","province":"東京都","city":"立川市","address":"立川市高松町2-25-26","lat":35.704184,"lon":139.420185},{"name":"＊?柴崎会館","province":"東京都","city":"立川市","address":"立川市柴崎町1-16-3","lat":35.692372,"lon":139.407383},{"name":"＊?さかえ会館","province":"東京都","city":"立川市","address":"立川市栄町4-6-2","lat":35.710967,"lon":139.424959},{"name":"＊?西砂会館","province":"東京都","city":"立川市","address":"立川市西砂町5-11-13","lat":35.73237,"lon":139.360661},{"name":"＊?天王橋会館","province":"東京都","city":"立川市","address":"立川市一番町3-6-1","lat":35.728235,"lon":139.381028},{"name":"＊?上砂会館","province":"東京都","city":"立川市","address":"立川市上砂町1-31-1","lat":35.720165,"lon":139.395635},{"name":"＊?若葉会館","province":"東京都","city":"立川市","address":"立川市若葉町3-34-1","lat":35.720211,"lon":139.439189},{"name":"＊?こんぴら橋会館","province":"東京都","city":"立川市","address":"立川市砂川町3-26-1","lat":35.727886,"lon":139.399503},{"name":"＊?こぶし会館","province":"東京都","city":"立川市","address":"立川市幸町5-83-1","lat":35.725742,"lon":139.418449},{"name":"＊?柴崎学習館","province":"東京都","city":"立川市","address":"立川市柴崎町1-1-43","lat":35.696668,"lon":139.406788},{"name":"＊?高松学習館","province":"東京都","city":"立川市","address":"立川市高松町3-22-5","lat":35.703007,"lon":139.419146},{"name":"＊?錦学習館","province":"東京都","city":"立川市","address":"立川市錦町3-12-25","lat":35.691166,"lon":139.416405},{"name":"＊?西砂学習館","province":"東京都","city":"立川市","address":"立川市西砂町6-12-10","lat":35.729611,"lon":139.372162},{"name":"＊?幸学習館","province":"東京都","city":"立川市","address":"立川市幸町2-1-3","lat":35.71924,"lon":139.423558},{"name":"＊?砂川学習館","province":"東京都","city":"立川市","address":"立川市砂川町1-52-7","lat":35.722836,"lon":139.403143},{"name":"＊?羽衣中央会館","province":"東京都","city":"立川市","address":"立川市羽衣町2-26-7","lat":35.694145,"lon":139.428577},{"name":"＊?滝ノ上会館","province":"東京都","city":"立川市","address":"立川市富士見町4-16-10","lat":35.695906,"lon":139.39902},{"name":"＊?高松会館","province":"東京都","city":"立川市","address":"立川市高松町2-25-26","lat":35.704184,"lon":139.420185},{"name":"＊?柴崎会館","province":"東京都","city":"立川市","address":"立川市柴崎町1-16-3","lat":35.692372,"lon":139.407383},{"name":"＊?さかえ会館","province":"東京都","city":"立川市","address":"立川市栄町4-6-2","lat":35.710967,"lon":139.424959},{"name":"＊?西砂会館","province":"東京都","city":"立川市","address":"立川市西砂町5-11-13","lat":35.73237,"lon":139.360661},{"name":"＊?天王橋会館","province":"東京都","city":"立川市","address":"立川市一番町3-6-1","lat":35.728235,"lon":139.381028},{"name":"＊?上砂会館","province":"東京都","city":"立川市","address":"立川市上砂町1-31-1","lat":35.720165,"lon":139.395635},{"name":"＊?若葉会館","province":"東京都","city":"立川市","address":"立川市若葉町3-34-1","lat":35.720211,"lon":139.439189},{"name":"＊?こんぴら橋会館","province":"東京都","city":"立川市","address":"立川市砂川町3-26-1","lat":35.727886,"lon":139.399503},{"name":"＊?こぶし会館","province":"東京都","city":"立川市","address":"立川市幸町5-83-1","lat":35.725742,"lon":139.418449},{"name":"＊?柴崎学習館","province":"東京都","city":"立川市","address":"立川市柴崎町1-1-43","lat":35.696668,"lon":139.406788},{"name":"＊?高松学習館","province":"東京都","city":"立川市","address":"立川市高松町3-22-5","lat":35.703007,"lon":139.419146},{"name":"＊?錦学習館","province":"東京都","city":"立川市","address":"立川市錦町3-12-25","lat":35.691166,"lon":139.416405},{"name":"＊?西砂学習館","province":"東京都","city":"立川市","address":"立川市西砂町6-12-10","lat":35.729611,"lon":139.372162},{"name":"＊?幸学習館","province":"東京都","city":"立川市","address":"立川市幸町2-1-3","lat":35.71924,"lon":139.423558},{"name":"＊?砂川学習館","province":"東京都","city":"立川市","address":"立川市砂川町1-52-7","lat":35.722836,"lon":139.403143},{"name":"＊?羽衣中央会館","province":"東京都","city":"立川市","address":"立川市羽衣町2-26-7","lat":35.694145,"lon":139.428577},{"name":"＊?滝ノ上会館","province":"東京都","city":"立川市","address":"立川市富士見町4-16-10","lat":35.695906,"lon":139.39902},{"name":"＊?高松会館","province":"東京都","city":"立川市","address":"立川市高松町2-25-26","lat":35.704184,"lon":139.420185},{"name":"＊?柴崎会館","province":"東京都","city":"立川市","address":"立川市柴崎町1-16-3","lat":35.692372,"lon":139.407383},{"name":"＊?さかえ会館","province":"東京都","city":"立川市","address":"立川市栄町4-6-2","lat":35.710967,"lon":139.424959},{"name":"＊?西砂会館","province":"東京都","city":"立川市","address":"立川市西砂町5-11-13","lat":35.73237,"lon":139.360661},{"name":"＊?天王橋会館","province":"東京都","city":"立川市","address":"立川市一番町3-6-1","lat":35.728235,"lon":139.381028},{"name":"＊?上砂会館","province":"東京都","city":"立川市","address":"立川市上砂町1-31-1","lat":35.720165,"lon":139.395635},{"name":"＊?若葉会館","province":"東京都","city":"立川市","address":"立川市若葉町3-34-1","lat":35.720211,"lon":139.439189},{"name":"＊?こんぴら橋会館","province":"東京都","city":"立川市","address":"立川市砂川町3-26-1","lat":35.727886,"lon":139.399503},{"name":"＊?こぶし会館","province":"東京都","city":"立川市","address":"立川市幸町5-83-1","lat":35.725742,"lon":139.418449},{"name":"＊?柴崎学習館","province":"東京都","city":"立川市","address":"立川市柴崎町1-1-43","lat":35.696668,"lon":139.406788},{"name":"＊?高松学習館","province":"東京都","city":"立川市","address":"立川市高松町3-22-5","lat":35.703007,"lon":139.419146},{"name":"＊?錦学習館","province":"東京都","city":"立川市","address":"立川市錦町3-12-25","lat":35.691166,"lon":139.416405},{"name":"＊?西砂学習館","province":"東京都","city":"立川市","address":"立川市西砂町6-12-10","lat":35.729611,"lon":139.372162},{"name":"＊?幸学習館","province":"東京都","city":"立川市","address":"立川市幸町2-1-3","lat":35.71924,"lon":139.423558},{"name":"＊?砂川学習館","province":"東京都","city":"立川市","address":"立川市砂川町1-52-7","lat":35.722836,"lon":139.403143},{"name":"＊?羽衣中央会館","province":"東京都","city":"立川市","address":"立川市羽衣町2-26-7","lat":35.694145,"lon":139.428577},{"name":"＊?滝ノ上会館","province":"東京都","city":"立川市","address":"立川市富士見町4-16-10","lat":35.695906,"lon":139.39902},{"name":"＊?高松会館","province":"東京都","city":"立川市","address":"立川市高松町2-25-26","lat":35.704184,"lon":139.420185},{"name":"＊?柴崎会館","province":"東京都","city":"立川市","address":"立川市柴崎町1-16-3","lat":35.692372,"lon":139.407383},{"name":"＊?さかえ会館","province":"東京都","city":"立川市","address":"立川市栄町4-6-2","lat":35.710967,"lon":139.424959},{"name":"＊?西砂会館","province":"東京都","city":"立川市","address":"立川市西砂町5-11-13","lat":35.73237,"lon":139.360661},{"name":"＊?天王橋会館","province":"東京都","city":"立川市","address":"立川市一番町3-6-1","lat":35.728235,"lon":139.381028},{"name":"＊?上砂会館","province":"東京都","city":"立川市","address":"立川市上砂町1-31-1","lat":35.720165,"lon":139.395635},{"name":"＊?若葉会館","province":"東京都","city":"立川市","address":"立川市若葉町3-34-1","lat":35.720211,"lon":139.439189},{"name":"＊?こんぴら橋会館","province":"東京都","city":"立川市","address":"立川市砂川町3-26-1","lat":35.727886,"lon":139.399503},{"name":"＊?こぶし会館","province":"東京都","city":"立川市","address":"立川市幸町5-83-1","lat":35.725742,"lon":139.418449},{"name":"＊?柴崎学習館","province":"東京都","city":"立川市","address":"立川市柴崎町1-1-43","lat":35.696668,"lon":139.406788},{"name":"＊?高松学習館","province":"東京都","city":"立川市","address":"立川市高松町3-22-5","lat":35.703007,"lon":139.419146},{"name":"＊?錦学習館","province":"東京都","city":"立川市","address":"立川市錦町3-12-25","lat":35.691166,"lon":139.416405},{"name":"＊?西砂学習館","province":"東京都","city":"立川市","address":"立川市西砂町6-12-10","lat":35.729611,"lon":139.372162},{"name":"＊?幸学習館","province":"東京都","city":"立川市","address":"立川市幸町2-1-3","lat":35.71924,"lon":139.423558},{"name":"＊?砂川学習館","province":"東京都","city":"立川市","address":"立川市砂川町1-52-7","lat":35.722836,"lon":139.403143},{"name":"＊?羽衣中央会館","province":"東京都","city":"立川市","address":"立川市羽衣町2-26-7","lat":35.694145,"lon":139.428577},{"name":"＊?滝ノ上会館","province":"東京都","city":"立川市","address":"立川市富士見町4-16-10","lat":35.695906,"lon":139.39902},{"name":"＊?高松会館","province":"東京都","city":"立川市","address":"立川市高松町2-25-26","lat":35.704184,"lon":139.420185},{"name":"＊?柴崎会館","province":"東京都","city":"立川市","address":"立川市柴崎町1-16-3","lat":35.692372,"lon":139.407383},{"name":"＊?さかえ会館","province":"東京都","city":"立川市","address":"立川市栄町4-6-2","lat":35.710967,"lon":139.424959},{"name":"＊?西砂会館","province":"東京都","city":"立川市","address":"立川市西砂町5-11-13","lat":35.73237,"lon":139.360661},{"name":"＊?天王橋会館","province":"東京都","city":"立川市","address":"立川市一番町3-6-1","lat":35.728235,"lon":139.381028},{"name":"＊?上砂会館","province":"東京都","city":"立川市","address":"立川市上砂町1-31-1","lat":35.720165,"lon":139.395635},{"name":"＊?若葉会館","province":"東京都","city":"立川市","address":"立川市若葉町3-34-1","lat":35.720211,"lon":139.439189},{"name":"＊?こんぴら橋会館","province":"東京都","city":"立川市","address":"立川市砂川町3-26-1","lat":35.727886,"lon":139.399503},{"name":"＊?こぶし会館","province":"東京都","city":"立川市","address":"立川市幸町5-83-1","lat":35.725742,"lon":139.418449},{"name":"＊?柴崎学習館","province":"東京都","city":"立川市","address":"立川市柴崎町1-1-43","lat":35.696668,"lon":139.406788},{"name":"＊?高松学習館","province":"東京都","city":"立川市","address":"立川市高松町3-22-5","lat":35.703007,"lon":139.419146},{"name":"＊?錦学習館","province":"東京都","city":"立川市","address":"立川市錦町3-12-25","lat":35.691166,"lon":139.416405},{"name":"＊?西砂学習館","province":"東京都","city":"立川市","address":"立川市西砂町6-12-10","lat":35.729611,"lon":139.372162},{"name":"＊?幸学習館","province":"東京都","city":"立川市","address":"立川市幸町2-1-3","lat":35.71924,"lon":139.423558},{"name":"＊?砂川学習館","province":"東京都","city":"立川市","address":"立川市砂川町1-52-7","lat":35.722836,"lon":139.403143},{"name":"＊?羽衣中央会館","province":"東京都","city":"立川市","address":"立川市羽衣町2-26-7","lat":35.694145,"lon":139.428577},{"name":"＊?滝ノ上会館","province":"東京都","city":"立川市","address":"立川市富士見町4-16-10","lat":35.695906,"lon":139.39902},{"name":"＊?高松会館","province":"東京都","city":"立川市","address":"立川市高松町2-25-26","lat":35.704184,"lon":139.420185},{"name":"＊?柴崎会館","province":"東京都","city":"立川市","address":"立川市柴崎町1-16-3","lat":35.692372,"lon":139.407383},{"name":"＊?さかえ会館","province":"東京都","city":"立川市","address":"立川市栄町4-6-2","lat":35.710967,"lon":139.424959},{"name":"＊?西砂会館","province":"東京都","city":"立川市","address":"立川市西砂町5-11-13","lat":35.73237,"lon":139.360661},{"name":"＊?天王橋会館","province":"東京都","city":"立川市","address":"立川市一番町3-6-1","lat":35.728235,"lon":139.381028},{"name":"＊?上砂会館","province":"東京都","city":"立川市","address":"立川市上砂町1-31-1","lat":35.720165,"lon":139.395635},{"name":"＊?若葉会館","province":"東京都","city":"立川市","address":"立川市若葉町3-34-1","lat":35.720211,"lon":139.439189},{"name":"＊?こんぴら橋会館","province":"東京都","city":"立川市","address":"立川市砂川町3-26-1","lat":35.727886,"lon":139.399503},{"name":"＊?こぶし会館","province":"東京都","city":"立川市","address":"立川市幸町5-83-1","lat":35.725742,"lon":139.418449},{"name":"＊?柴崎学習館","province":"東京都","city":"立川市","address":"立川市柴崎町1-1-43","lat":35.696668,"lon":139.406788},{"name":"＊?高松学習館","province":"東京都","city":"立川市","address":"立川市高松町3-22-5","lat":35.703007,"lon":139.419146},{"name":"＊?錦学習館","province":"東京都","city":"立川市","address":"立川市錦町3-12-25","lat":35.691166,"lon":139.416405},{"name":"＊?西砂学習館","province":"東京都","city":"立川市","address":"立川市西砂町6-12-10","lat":35.729611,"lon":139.372162},{"name":"＊?幸学習館","province":"東京都","city":"立川市","address":"立川市幸町2-1-3","lat":35.71924,"lon":139.423558},{"name":"＊?砂川学習館","province":"東京都","city":"立川市","address":"立川市砂川町1-52-7","lat":35.722836,"lon":139.403143},{"name":"＊?羽衣中央会館","province":"東京都","city":"立川市","address":"立川市羽衣町2-26-7","lat":35.694145,"lon":139.428577},{"name":"＊?滝ノ上会館","province":"東京都","city":"立川市","address":"立川市富士見町4-16-10","lat":35.695906,"lon":139.39902},{"name":"＊?高松会館","province":"東京都","city":"立川市","address":"立川市高松町2-25-26","lat":35.704184,"lon":139.420185},{"name":"＊?柴崎会館","province":"東京都","city":"立川市","address":"立川市柴崎町1-16-3","lat":35.692372,"lon":139.407383},{"name":"＊?さかえ会館","province":"東京都","city":"立川市","address":"立川市栄町4-6-2","lat":35.710967,"lon":139.424959},{"name":"＊?西砂会館","province":"東京都","city":"立川市","address":"立川市西砂町5-11-13","lat":35.73237,"lon":139.360661},{"name":"＊?天王橋会館","province":"東京都","city":"立川市","address":"立川市一番町3-6-1","lat":35.728235,"lon":139.381028},{"name":"＊?上砂会館","province":"東京都","city":"立川市","address":"立川市上砂町1-31-1","lat":35.720165,"lon":139.395635},{"name":"＊?若葉会館","province":"東京都","city":"立川市","address":"立川市若葉町3-34-1","lat":35.720211,"lon":139.439189},{"name":"＊?こんぴら橋会館","province":"東京都","city":"立川市","address":"立川市砂川町3-26-1","lat":35.727886,"lon":139.399503},{"name":"＊?こぶし会館","province":"東京都","city":"立川市","address":"立川市幸町5-83-1","lat":35.725742,"lon":139.418449},{"name":"＊?柴崎学習館","province":"東京都","city":"立川市","address":"立川市柴崎町1-1-43","lat":35.696668,"lon":139.406788},{"name":"＊?高松学習館","province":"東京都","city":"立川市","address":"立川市高松町3-22-5","lat":35.703007,"lon":139.419146},{"name":"＊?錦学習館","province":"東京都","city":"立川市","address":"立川市錦町3-12-25","lat":35.691166,"lon":139.416405},{"name":"＊?西砂学習館","province":"東京都","city":"立川市","address":"立川市西砂町6-12-10","lat":35.729611,"lon":139.372162},{"name":"＊?幸学習館","province":"東京都","city":"立川市","address":"立川市幸町2-1-3","lat":35.71924,"lon":139.423558},{"name":"＊?砂川学習館","province":"東京都","city":"立川市","address":"立川市砂川町1-52-7","lat":35.722836,"lon":139.403143},{"name":"＊?羽衣中央会館","province":"東京都","city":"立川市","address":"立川市羽衣町2-26-7","lat":35.694145,"lon":139.428577},{"name":"＊?滝ノ上会館","province":"東京都","city":"立川市","address":"立川市富士見町4-16-10","lat":35.695906,"lon":139.39902},{"name":"＊?高松会館","province":"東京都","city":"立川市","address":"立川市高松町2-25-26","lat":35.704184,"lon":139.420185},{"name":"＊?柴崎会館","province":"東京都","city":"立川市","address":"立川市柴崎町1-16-3","lat":35.692372,"lon":139.407383},{"name":"＊?さかえ会館","province":"東京都","city":"立川市","address":"立川市栄町4-6-2","lat":35.710967,"lon":139.424959},{"name":"＊?西砂会館","province":"東京都","city":"立川市","address":"立川市西砂町5-11-13","lat":35.73237,"lon":139.360661},{"name":"＊?天王橋会館","province":"東京都","city":"立川市","address":"立川市一番町3-6-1","lat":35.728235,"lon":139.381028},{"name":"＊?上砂会館","province":"東京都","city":"立川市","address":"立川市上砂町1-31-1","lat":35.720165,"lon":139.395635},{"name":"＊?若葉会館","province":"東京都","city":"立川市","address":"立川市若葉町3-34-1","lat":35.720211,"lon":139.439189},{"name":"＊?こんぴら橋会館","province":"東京都","city":"立川市","address":"立川市砂川町3-26-1","lat":35.727886,"lon":139.399503},{"name":"＊?こぶし会館","province":"東京都","city":"立川市","address":"立川市幸町5-83-1","lat":35.725742,"lon":139.418449},{"name":"＊?柴崎学習館","province":"東京都","city":"立川市","address":"立川市柴崎町1-1-43","lat":35.696668,"lon":139.406788},{"name":"＊?高松学習館","province":"東京都","city":"立川市","address":"立川市高松町3-22-5","lat":35.703007,"lon":139.419146},{"name":"＊?錦学習館","province":"東京都","city":"立川市","address":"立川市錦町3-12-25","lat":35.691166,"lon":139.416405},{"name":"＊?西砂学習館","province":"東京都","city":"立川市","address":"立川市西砂町6-12-10","lat":35.729611,"lon":139.372162},{"name":"＊?幸学習館","province":"東京都","city":"立川市","address":"立川市幸町2-1-3","lat":35.71924,"lon":139.423558},{"name":"＊?砂川学習館","province":"東京都","city":"立川市","address":"立川市砂川町1-52-7","lat":35.722836,"lon":139.403143},{"name":"＊?羽衣中央会館","province":"東京都","city":"立川市","address":"立川市羽衣町2-26-7","lat":35.694145,"lon":139.428577},{"name":"＊?滝ノ上会館","province":"東京都","city":"立川市","address":"立川市富士見町4-16-10","lat":35.695906,"lon":139.39902},{"name":"＊?高松会館","province":"東京都","city":"立川市","address":"立川市高松町2-25-26","lat":35.704184,"lon":139.420185},{"name":"＊?柴崎会館","province":"東京都","city":"立川市","address":"立川市柴崎町1-16-3","lat":35.692372,"lon":139.407383},{"name":"＊?さかえ会館","province":"東京都","city":"立川市","address":"立川市栄町4-6-2","lat":35.710967,"lon":139.424959},{"name":"＊?西砂会館","province":"東京都","city":"立川市","address":"立川市西砂町5-11-13","lat":35.73237,"lon":139.360661},{"name":"＊?天王橋会館","province":"東京都","city":"立川市","address":"立川市一番町3-6-1","lat":35.728235,"lon":139.381028},{"name":"＊?上砂会館","province":"東京都","city":"立川市","address":"立川市上砂町1-31-1","lat":35.720165,"lon":139.395635},{"name":"＊?若葉会館","province":"東京都","city":"立川市","address":"立川市若葉町3-34-1","lat":35.720211,"lon":139.439189},{"name":"＊?こんぴら橋会館","province":"東京都","city":"立川市","address":"立川市砂川町3-26-1","lat":35.727886,"lon":139.399503},{"name":"＊?こぶし会館","province":"東京都","city":"立川市","address":"立川市幸町5-83-1","lat":35.725742,"lon":139.418449},{"name":"＊?柴崎学習館","province":"東京都","city":"立川市","address":"立川市柴崎町1-1-43","lat":35.696668,"lon":139.406788},{"name":"＊?高松学習館","province":"東京都","city":"立川市","address":"立川市高松町3-22-5","lat":35.703007,"lon":139.419146},{"name":"＊?錦学習館","province":"東京都","city":"立川市","address":"立川市錦町3-12-25","lat":35.691166,"lon":139.416405},{"name":"＊?西砂学習館","province":"東京都","city":"立川市","address":"立川市西砂町6-12-10","lat":35.729611,"lon":139.372162},{"name":"＊?幸学習館","province":"東京都","city":"立川市","address":"立川市幸町2-1-3","lat":35.71924,"lon":139.423558},{"name":"＊?砂川学習館","province":"東京都","city":"立川市","address":"立川市砂川町1-52-7","lat":35.722836,"lon":139.403143},{"name":"＊?羽衣中央会館","province":"東京都","city":"立川市","address":"立川市羽衣町2-26-7","lat":35.694145,"lon":139.428577},{"name":"＊?滝ノ上会館","province":"東京都","city":"立川市","address":"立川市富士見町4-16-10","lat":35.695906,"lon":139.39902},{"name":"＊?高松会館","province":"東京都","city":"立川市","address":"立川市高松町2-25-26","lat":35.704184,"lon":139.420185},{"name":"＊?柴崎会館","province":"東京都","city":"立川市","address":"立川市柴崎町1-16-3","lat":35.692372,"lon":139.407383},{"name":"＊?さかえ会館","province":"東京都","city":"立川市","address":"立川市栄町4-6-2","lat":35.710967,"lon":139.424959},{"name":"＊?西砂会館","province":"東京都","city":"立川市","address":"立川市西砂町5-11-13","lat":35.73237,"lon":139.360661},{"name":"＊?天王橋会館","province":"東京都","city":"立川市","address":"立川市一番町3-6-1","lat":35.728235,"lon":139.381028},{"name":"＊?上砂会館","province":"東京都","city":"立川市","address":"立川市上砂町1-31-1","lat":35.720165,"lon":139.395635},{"name":"＊?若葉会館","province":"東京都","city":"立川市","address":"立川市若葉町3-34-1","lat":35.720211,"lon":139.439189},{"name":"＊?こんぴら橋会館","province":"東京都","city":"立川市","address":"立川市砂川町3-26-1","lat":35.727886,"lon":139.399503},{"name":"＊?こぶし会館","province":"東京都","city":"立川市","address":"立川市幸町5-83-1","lat":35.725742,"lon":139.418449},{"name":"＊?柴崎学習館","province":"東京都","city":"立川市","address":"立川市柴崎町1-1-43","lat":35.696668,"lon":139.406788},{"name":"＊?高松学習館","province":"東京都","city":"立川市","address":"立川市高松町3-22-5","lat":35.703007,"lon":139.419146},{"name":"＊?錦学習館","province":"東京都","city":"立川市","address":"立川市錦町3-12-25","lat":35.691166,"lon":139.416405},{"name":"＊?西砂学習館","province":"東京都","city":"立川市","address":"立川市西砂町6-12-10","lat":35.729611,"lon":139.372162},{"name":"＊?幸学習館","province":"東京都","city":"立川市","address":"立川市幸町2-1-3","lat":35.71924,"lon":139.423558},{"name":"＊?砂川学習館","province":"東京都","city":"立川市","address":"立川市砂川町1-52-7","lat":35.722836,"lon":139.403143},{"name":"＊?羽衣中央会館","province":"東京都","city":"立川市","address":"立川市羽衣町2-26-7","lat":35.694145,"lon":139.428577},{"name":"＊?滝ノ上会館","province":"東京都","city":"立川市","address":"立川市富士見町4-16-10","lat":35.695906,"lon":139.39902},{"name":"＊?高松会館","province":"東京都","city":"立川市","address":"立川市高松町2-25-26","lat":35.704184,"lon":139.420185},{"name":"＊?柴崎会館","province":"東京都","city":"立川市","address":"立川市柴崎町1-16-3","lat":35.692372,"lon":139.407383},{"name":"＊?さかえ会館","province":"東京都","city":"立川市","address":"立川市栄町4-6-2","lat":35.710967,"lon":139.424959},{"name":"＊?西砂会館","province":"東京都","city":"立川市","address":"立川市西砂町5-11-13","lat":35.73237,"lon":139.360661},{"name":"＊?天王橋会館","province":"東京都","city":"立川市","address":"立川市一番町3-6-1","lat":35.728235,"lon":139.381028},{"name":"＊?上砂会館","province":"東京都","city":"立川市","address":"立川市上砂町1-31-1","lat":35.720165,"lon":139.395635},{"name":"＊?若葉会館","province":"東京都","city":"立川市","address":"立川市若葉町3-34-1","lat":35.720211,"lon":139.439189},{"name":"＊?こんぴら橋会館","province":"東京都","city":"立川市","address":"立川市砂川町3-26-1","lat":35.727886,"lon":139.399503},{"name":"＊?こぶし会館","province":"東京都","city":"立川市","address":"立川市幸町5-83-1","lat":35.725742,"lon":139.418449},{"name":"＊?柴崎学習館","province":"東京都","city":"立川市","address":"立川市柴崎町1-1-43","lat":35.696668,"lon":139.406788},{"name":"＊?高松学習館","province":"東京都","city":"立川市","address":"立川市高松町3-22-5","lat":35.703007,"lon":139.419146},{"name":"＊?錦学習館","province":"東京都","city":"立川市","address":"立川市錦町3-12-25","lat":35.691166,"lon":139.416405},{"name":"＊?西砂学習館","province":"東京都","city":"立川市","address":"立川市西砂町6-12-10","lat":35.729611,"lon":139.372162},{"name":"＊?幸学習館","province":"東京都","city":"立川市","address":"立川市幸町2-1-3","lat":35.71924,"lon":139.423558},{"name":"＊?砂川学習館","province":"東京都","city":"立川市","address":"立川市砂川町1-52-7","lat":35.722836,"lon":139.403143},{"name":"＊?羽衣中央会館","province":"東京都","city":"立川市","address":"立川市羽衣町2-26-7","lat":35.694145,"lon":139.428577},{"name":"＊?滝ノ上会館","province":"東京都","city":"立川市","address":"立川市富士見町4-16-10","lat":35.695906,"lon":139.39902},{"name":"＊?高松会館","province":"東京都","city":"立川市","address":"立川市高松町2-25-26","lat":35.704184,"lon":139.420185},{"name":"＊?柴崎会館","province":"東京都","city":"立川市","address":"立川市柴崎町1-16-3","lat":35.692372,"lon":139.407383},{"name":"＊?さかえ会館","province":"東京都","city":"立川市","address":"立川市栄町4-6-2","lat":35.710967,"lon":139.424959},{"name":"＊?西砂会館","province":"東京都","city":"立川市","address":"立川市西砂町5-11-13","lat":35.73237,"lon":139.360661},{"name":"＊?天王橋会館","province":"東京都","city":"立川市","address":"立川市一番町3-6-1","lat":35.728235,"lon":139.381028},{"name":"＊?上砂会館","province":"東京都","city":"立川市","address":"立川市上砂町1-31-1","lat":35.720165,"lon":139.395635},{"name":"＊?若葉会館","province":"東京都","city":"立川市","address":"立川市若葉町3-34-1","lat":35.720211,"lon":139.439189},{"name":"＊?こんぴら橋会館","province":"東京都","city":"立川市","address":"立川市砂川町3-26-1","lat":35.727886,"lon":139.399503},{"name":"＊?こぶし会館","province":"東京都","city":"立川市","address":"立川市幸町5-83-1","lat":35.725742,"lon":139.418449},{"name":"＊?柴崎学習館","province":"東京都","city":"立川市","address":"立川市柴崎町1-1-43","lat":35.696668,"lon":139.406788},{"name":"＊?高松学習館","province":"東京都","city":"立川市","address":"立川市高松町3-22-5","lat":35.703007,"lon":139.419146},{"name":"＊?錦学習館","province":"東京都","city":"立川市","address":"立川市錦町3-12-25","lat":35.691166,"lon":139.416405},{"name":"＊?西砂学習館","province":"東京都","city":"立川市","address":"立川市西砂町6-12-10","lat":35.729611,"lon":139.372162},{"name":"＊?幸学習館","province":"東京都","city":"立川市","address":"立川市幸町2-1-3","lat":35.71924,"lon":139.423558},{"name":"＊?砂川学習館","province":"東京都","city":"立川市","address":"立川市砂川町1-52-7","lat":35.722836,"lon":139.403143},{"name":"＊?羽衣中央会館","province":"東京都","city":"立川市","address":"立川市羽衣町2-26-7","lat":35.694145,"lon":139.428577},{"name":"＊?滝ノ上会館","province":"東京都","city":"立川市","address":"立川市富士見町4-16-10","lat":35.695906,"lon":139.39902},{"name":"＊?高松会館","province":"東京都","city":"立川市","address":"立川市高松町2-25-26","lat":35.704184,"lon":139.420185},{"name":"＊?柴崎会館","province":"東京都","city":"立川市","address":"立川市柴崎町1-16-3","lat":35.692372,"lon":139.407383},{"name":"＊?さかえ会館","province":"東京都","city":"立川市","address":"立川市栄町4-6-2","lat":35.710967,"lon":139.424959},{"name":"＊?西砂会館","province":"東京都","city":"立川市","address":"立川市西砂町5-11-13","lat":35.73237,"lon":139.360661},{"name":"＊?天王橋会館","province":"東京都","city":"立川市","address":"立川市一番町3-6-1","lat":35.728235,"lon":139.381028},{"name":"＊?上砂会館","province":"東京都","city":"立川市","address":"立川市上砂町1-31-1","lat":35.720165,"lon":139.395635},{"name":"＊?若葉会館","province":"東京都","city":"立川市","address":"立川市若葉町3-34-1","lat":35.720211,"lon":139.439189},{"name":"＊?こんぴら橋会館","province":"東京都","city":"立川市","address":"立川市砂川町3-26-1","lat":35.727886,"lon":139.399503},{"name":"＊?こぶし会館","province":"東京都","city":"立川市","address":"立川市幸町5-83-1","lat":35.725742,"lon":139.418449}]}