{"keyword":"店","data":[{"name":"まんまる助産院","province":"東京都","city":"立川市","address":"立川市若葉町2-1-1","lat":35.718989,"lon":139.439493},{"name":"立川相互病院","province":"東京都","city":"立川市","address":"立川市錦町1-16-15","lat":35.696666,"lon":139.422442},{"name":"コーポ立川","province":"東京都","city":"立川市","address":"立川市錦町6-9-8","lat":35.688636,"lon":139.418079},{"name":"コーポ立川錦町","province":"東京都","city":"立川市","address":"立川市錦町6-2-5","lat":35.689736,"lon":139.418421},{"name":"立川第２荘","province":"東京都","city":"立川市","address":"立川市富士見町4-15-14","lat":35.694865,"lon":139.399303},{"name":"相互歯科","province":"東京都","city":"立川市","address":"立川市錦町1-17-10健生会歯科ビル","lat":35.696671,"lon":139.421801},{"name":"立川相互ふれあいクリニック","province":"東京都","city":"立川市","address":"立川市錦町1-23-4","lat":35.695991,"lon":139.422562},{"name":"立川相互病院","province":"東京都","city":"立川市","address":"立川市緑町4-1","lat":35.703626,"lon":139.413293},{"name":"立川市社会福祉協議会","province":"東京都","city":"立川市","address":"立川市富士見町2-36-47立川市総合福祉センター内","lat":35.701298,"lon":139.401802},{"name":"東京都福祉人材センター人材情報室多摩支所","province":"東京都","city":"立川市","address":"立川市曙町2-34-13オリンピック第3ビル7階","lat":35.702556,"lon":139.414673},{"name":"立川第２荘","province":"東京都","city":"立川市","address":"立川市富士見町4-15-14","lat":35.69511,"lon":139.39961},{"name":"さくら立川ハウス","province":"東京都","city":"立川市","address":"立川市錦町6-9-8","lat":35.6885,"lon":139.41768},{"name":"さくら立川錦町ハウス","province":"東京都","city":"立川市","address":"立川市錦町6-2-5","lat":35.68947,"lon":139.41811},{"name":"株式会社クオーレ","province":"東京都","city":"立川市","address":"東京都立川市一番町1丁目41-11","lat":35.72505585,"lon":139.3829477},{"name":"多摩中央葬祭株式会社","province":"東京都","city":"立川市","address":"東京都立川市錦町4丁目8-3","lat":35.69109684,"lon":139.42126488},{"name":"有限会社成田屋","province":"東京都","city":"立川市","address":"東京都立川市羽衣町3丁目15-9","lat":35.68945263,"lon":139.42287593},{"name":"株式会社ハートフル葬祭","province":"東京都","city":"立川市","address":"東京都立川市若葉町1丁目3-27","lat":35.72089929,"lon":139.43267959},{"name":"株式会社ワイズセレモニー","province":"東京都","city":"立川市","address":"東京都立川市曙町3丁目11-20","lat":35.70087375,"lon":139.42909999},{"name":"株式会社　セレモア","province":"東京都","city":"立川市","address":"東京都立川市柏町1丁目26-4","lat":35.72092378,"lon":139.41187015},{"name":"株式会社 セレモア","province":"東京都","city":"立川市","address":"東京都立川市柏町1丁目26-4","lat":35.72092378,"lon":139.41187015},{"name":"有限会社 成田屋","province":"東京都","city":"立川市","address":"東京都立川市羽衣町3丁目15-9","lat":35.68945263,"lon":139.42287593},{"name":"株式会社 あさひセレモニー","province":"東京都","city":"立川市","address":"東京都立川市栄町6丁目1-13","lat":35.71380545,"lon":139.423475},{"name":"株式会社 ドリーミー","province":"東京都","city":"立川市","address":"東京都立川市富士見町6丁目36-27","lat":35.6929236,"lon":139.38921191},{"name":"まんまる助産院","province":"東京都","city":"立川市","address":"立川市若葉町2-1-1","lat":35.71925,"lon":139.43961},{"name":"立川相互病院","province":"東京都","city":"立川市","address":"立川市錦町1-16-15","lat":35.69665,"lon":139.42239},{"name":"立川第２荘（２）","province":"東京都","city":"立川市","address":"立川市富士見町4-15-14","lat":35.69511,"lon":139.39961},{"name":"グランドール立川","province":"東京都","city":"立川市","address":"東京都立川市","lat":35.71401612,"lon":139.40784571},{"name":"グランドール立川２","province":"東京都","city":"立川市","address":"東京都立川市","lat":35.71401612,"lon":139.40784571},{"name":"立川市社会福祉協議会","province":"東京都","city":"立川市","address":"立川市富士見町2-36-47立川市総合福祉センター内","lat":35.70138,"lon":139.40184},{"name":"東京都福祉人材センター多摩支所","province":"東京都","city":"立川市","address":"立川市曙町2-34-13オリンピック第3ビル7階","lat":35.70255,"lon":139.41466},{"name":"立川リハビリワークステーション立川","province":"東京都","city":"立川市","address":"東京都立川市富士見町7丁目33-3","lat":35.68979641,"lon":139.39872788},{"name":"一般社団法人栄福祉会就労継続支援Ｂ型キッチンさかえ","province":"東京都","city":"立川市","address":"東京都立川市栄町3丁目2","lat":35.7078311,"lon":139.42233085},{"name":"一般社団法人栄福祉会就労移行支援ソレイユ","province":"東京都","city":"立川市","address":"東京都立川市栄町3丁目2","lat":35.7078311,"lon":139.42233085},{"name":"一般社団法人栄福祉会サポーターズさかえ","province":"東京都","city":"立川市","address":"東京都立川市栄町3丁目2","lat":35.7078311,"lon":139.42233085},{"name":"株式会社友心就労継続支援Ｂ型わーくあっぷ立川","province":"東京都","city":"立川市","address":"東京都立川市曙町1丁目24-11","lat":35.70042046,"lon":139.4088405},{"name":"りは職人でい","province":"東京都","city":"立川市","address":"東京都立川市柴崎町3丁目18-29","lat":35.69289634,"lon":139.41026292},{"name":"東京都福祉人材センター多摩支所","province":"東京都","city":"立川市","address":"立川市曙町2-34-13オリンピック第3ビル7階","lat":35.702556,"lon":139.414673},{"name":"立川第２荘（2）","province":"東京都","city":"立川市","address":"立川市富士見町4-15-14","lat":35.69511,"lon":139.39961},{"name":"まんまる助産院","province":"東京都","city":"立川市","address":"立川市若葉町2-1-1","lat":35.718989,"lon":139.439493},{"name":"立川相互病院","province":"東京都","city":"立川市","address":"立川市錦町1-16-15","lat":35.696666,"lon":139.422442},{"name":"コーポ立川","province":"東京都","city":"立川市","address":"立川市錦町6-9-8","lat":35.688636,"lon":139.418079},{"name":"コーポ立川錦町","province":"東京都","city":"立川市","address":"立川市錦町6-2-5","lat":35.689736,"lon":139.418421},{"name":"立川第２荘","province":"東京都","city":"立川市","address":"立川市富士見町4-15-14","lat":35.694865,"lon":139.399303},{"name":"相互歯科","province":"東京都","city":"立川市","address":"立川市錦町1-17-10健生会歯科ビル","lat":35.696671,"lon":139.421801},{"name":"立川相互ふれあいクリニック","province":"東京都","city":"立川市","address":"立川市錦町1-23-4","lat":35.695991,"lon":139.422562},{"name":"立川相互病院","province":"東京都","city":"立川市","address":"立川市緑町4-1","lat":35.703626,"lon":139.413293},{"name":"立川市社会福祉協議会","province":"東京都","city":"立川市","address":"立川市富士見町2-36-47立川市総合福祉センター内","lat":35.701298,"lon":139.401802},{"name":"東京都福祉人材センター人材情報室多摩支所","province":"東京都","city":"立川市","address":"立川市曙町2-34-13オリンピック第3ビル7階","lat":35.702556,"lon":139.414673},{"name":"立川第２荘","province":"東京都","city":"立川市","address":"立川市富士見町4-15-14","lat":35.69511,"lon":139.39961},{"name":"さくら立川ハウス","province":"東京都","city":"立川市","address":"立川市錦町6-9-8","lat":35.6885,"lon":139.41768},{"name":"さくら立川錦町ハウス","province":"東京都","city":"立川市","address":"立川市錦町6-2-5","lat":35.68947,"lon":139.41811},{"name":"株式会社クオーレ","province":"東京都","city":"立川市","address":"東京都立川市一番町1丁目41-11","lat":35.72505585,"lon":139.3829477},{"name":"多摩中央葬祭株式会社","province":"東京都","city":"立川市","address":"東京都立川市錦町4丁目8-3","lat":35.69109684,"lon":139.42126488},{"name":"有限会社成田屋","province":"東京都","city":"立川市","address":"東京都立川市羽衣町3丁目15-9","lat":35.68945263,"lon":139.42287593},{"name":"株式会社ハートフル葬祭","province":"東京都","city":"立川市","address":"東京都立川市若葉町1丁目3-27","lat":35.72089929,"lon":139.43267959},{"name":"株式会社ワイズセレモニー","province":"東京都","city":"立川市","address":"東京都立川市曙町3丁目11-20","lat":35.70087375,"lon":139.42909999},{"name":"株式会社　セレモア","province":"東京都","city":"立川市","address":"東京都立川市柏町1丁目26-4","lat":35.72092378,"lon":139.41187015},{"name":"株式会社 セレモア","province":"東京都","city":"立川市","address":"東京都立川市柏町1丁目26-4","lat":35.72092378,"lon":139.41187015},{"name":"有限会社 成田屋","province":"東京都","city":"立川市","address":"東京都立川市羽衣町3丁目15-9","lat":35.68945263,"lon":139.42287593},{"name":"株式会社 あさひセレモニー","province":"東京都","city":"立川市","address":"東京都立川市栄町6丁目1-13","lat":35.71380545,"lon":139.423475},{"name":"株式会社 ドリーミー","province":"東京都","city":"立川市","address":"東京都立川市富士見町6丁目36-27","lat":35.6929236,"lon":139.38921191},{"name":"まんまる助産院","province":"東京都","city":"立川市","address":"立川市若葉町2-1-1","lat":35.71925,"lon":139.43961},{"name":"立川相互病院","province":"東京都","city":"立川市","address":"立川市錦町1-16-15","lat":35.69665,"lon":139.42239},{"name":"立川第２荘（２）","province":"東京都","city":"立川市","address":"立川市富士見町4-15-14","lat":35.69511,"lon":139.39961},{"name":"グランドール立川","province":"東京都","city":"立川市","address":"東京都立川市","lat":35.71401612,"lon":139.40784571},{"name":"グランドール立川２","province":"東京都","city":"立川市","address":"東京都立川市","lat":35.71401612,"lon":139.40784571},{"name":"立川市社会福祉協議会","province":"東京都","city":"立川市","address":"立川市富士見町2-36-47立川市総合福祉センター内","lat":35.70138,"lon":139.40184},{"name":"東京都福祉人材センター多摩支所","province":"東京都","city":"立川市","address":"立川市曙町2-34-13オリンピック第3ビル7階","lat":35.70255,"lon":139.41466},{"name":"立川リハビリワークステーション立川","province":"東京都","city":"立川市","address":"東京都立川市富士見町7丁目33-3","lat":35.68979641,"lon":139.39872788},{"name":"一般社団法人栄福祉会就労継続支援Ｂ型キッチンさかえ","province":"東京都","city":"立川市","address":"東京都立川市栄町3丁目2","lat":35.7078311,"lon":139.42233085},{"name":"一般社団法人栄福祉会就労移行支援ソレイユ","province":"東京都","city":"立川市","address":"東京都立川市栄町3丁目2","lat":35.7078311,"lon":139.42233085},{"name":"一般社団法人栄福祉会サポーターズさかえ","province":"東京都","city":"立川市","address":"東京都立川市栄町3丁目2","lat":35.7078311,"lon":139.42233085},{"name":"株式会社友心就労継続支援Ｂ型わーくあっぷ立川","province":"東京都","city":"立川市","address":"東京都立川市曙町1丁目24-11","lat":35.70042046,"lon":139.4088405},{"name":"りは職人でい","province":"東京都","city":"立川市","address":"東京都立川市柴崎町3丁目18-29","lat":35.69289634,"lon":139.41026292},{"name":"東京都福祉人材センター多摩支所","province":"東京都","city":"立川市","address":"立川市曙町2-34-13オリンピック第3ビル7階","lat":35.702556,"lon":139.414673},{"name":"立川第２荘（2）","province":"東京都","city":"立川市","address":"立川市富士見町4-15-14","lat":35.69511,"lon":139.39961},{"name":"まんまる助産院","province":"東京都","city":"立川市","address":"立川市若葉町2-1-1","lat":35.718989,"lon":139.439493},{"name":"立川相互病院","province":"東京都","city":"立川市","address":"立川市錦町1-16-15","lat":35.696666,"lon":139.422442},{"name":"コーポ立川","province":"東京都","city":"立川市","address":"立川市錦町6-9-8","lat":35.688636,"lon":139.418079},{"name":"コーポ立川錦町","province":"東京都","city":"立川市","address":"立川市錦町6-2-5","lat":35.689736,"lon":139.418421},{"name":"立川第２荘","province":"東京都","city":"立川市","address":"立川市富士見町4-15-14","lat":35.694865,"lon":139.399303},{"name":"相互歯科","province":"東京都","city":"立川市","address":"立川市錦町1-17-10健生会歯科ビル","lat":35.696671,"lon":139.421801},{"name":"立川相互ふれあいクリニック","province":"東京都","city":"立川市","address":"立川市錦町1-23-4","lat":35.695991,"lon":139.422562},{"name":"立川相互病院","province":"東京都","city":"立川市","address":"立川市緑町4-1","lat":35.703626,"lon":139.413293},{"name":"立川市社会福祉協議会","province":"東京都","city":"立川市","address":"立川市富士見町2-36-47立川市総合福祉センター内","lat":35.701298,"lon":139.401802},{"name":"東京都福祉人材センター人材情報室多摩支所","province":"東京都","city":"立川市","address":"立川市曙町2-34-13オリンピック第3ビル7階","lat":35.702556,"lon":139.414673},{"name":"立川第２荘","province":"東京都","city":"立川市","address":"立川市富士見町4-15-14","lat":35.69511,"lon":139.39961},{"name":"さくら立川ハウス","province":"東京都","city":"立川市","address":"立川市錦町6-9-8","lat":35.6885,"lon":139.41768},{"name":"さくら立川錦町ハウス","province":"東京都","city":"立川市","address":"立川市錦町6-2-5","lat":35.68947,"lon":139.41811},{"name":"株式会社クオーレ","province":"東京都","city":"立川市","address":"東京都立川市一番町1丁目41-11","lat":35.72505585,"lon":139.3829477},{"name":"多摩中央葬祭株式会社","province":"東京都","city":"立川市","address":"東京都立川市錦町4丁目8-3","lat":35.69109684,"lon":139.42126488},{"name":"有限会社成田屋","province":"東京都","city":"立川市","address":"東京都立川市羽衣町3丁目15-9","lat":35.68945263,"lon":139.42287593},{"name":"株式会社ハートフル葬祭","province":"東京都","city":"立川市","address":"東京都立川市若葉町1丁目3-27","lat":35.72089929,"lon":139.43267959},{"name":"株式会社ワイズセレモニー","province":"東京都","city":"立川市","address":"東京都立川市曙町3丁目11-20","lat":35.70087375,"lon":139.42909999},{"name":"株式会社　セレモア","province":"東京都","city":"立川市","address":"東京都立川市柏町1丁目26-4","lat":35.72092378,"lon":139.41187015},{"name":"株式会社 セレモア","province":"東京都","city":"立川市","address":"東京都立川市柏町1丁目26-4","lat":35.72092378,"lon":139.41187015},{"name":"有限会社 成田屋","province":"東京都","city":"立川市","address":"東京都立川市羽衣町3丁目15-9","lat":35.68945263,"lon":139.42287593},{"name":"株式会社 あさひセレモニー","province":"東京都","city":"立川市","address":"東京都立川市栄町6丁目1-13","lat":35.71380545,"lon":139.423475},{"name":"株式会社 ドリーミー","province":"東京都","city":"立川市","address":"東京都立川市富士見町6丁目36-27","lat":35.6929236,"lon":139.38921191},{"name":"まんまる助産院","province":"東京都","city":"立川市","address":"立川市若葉町2-1-1","lat":35.71925,"lon":139.43961},{"name":"立川相互病院","province":"東京都","city":"立川市","address":"立川市錦町1-16-15","lat":35.69665,"lon":139.42239},{"name":"立川第２荘（２）","province":"東京都","city":"立川市","address":"立川市富士見町4-15-14","lat":35.69511,"lon":139.39961},{"name":"グランドール立川","province":"東京都","city":"立川市","address":"東京都立川市","lat":35.71401612,"lon":139.40784571},{"name":"グランドール立川２","province":"東京都","city":"立川市","address":"東京都立川市","lat":35.71401612,"lon":139.40784571},{"name":"立川市社会福祉協議会","province":"東京都","city":"立川市","address":"立川市富士見町2-36-47立川市総合福祉センター内","lat":35.70138,"lon":139.40184},{"name":"東京都福祉人材センター多摩支所","province":"東京都","city":"立川市","address":"立川市曙町2-34-13オリンピック第3ビル7階","lat":35.70255,"lon":139.41466},{"name":"立川リハビリワークステーション立川","province":"東京都","city":"立川市","address":"東京都立川市富士見町7丁目33-3","lat":35.68979641,"lon":139.39872788},{"name":"一般社団法人栄福祉会就労継続支援Ｂ型キッチンさかえ","province":"東京都","city":"立川市","address":"東京都立川市栄町3丁目2","lat":35.7078311,"lon":139.42233085},{"name":"一般社団法人栄福祉会就労移行支援ソレイユ","province":"東京都","city":"立川市","address":"東京都立川市栄町3丁目2","lat":35.7078311,"lon":139.42233085},{"name":"一般社団法人栄福祉会サポーターズさかえ","province":"東京都","city":"立川市","address":"東京都立川市栄町3丁目2","lat":35.7078311,"lon":139.42233085},{"name":"株式会社友心就労継続支援Ｂ型わーくあっぷ立川","province":"東京都","city":"立川市","address":"東京都立川市曙町1丁目24-11","lat":35.70042046,"lon":139.4088405},{"name":"りは職人でい","province":"東京都","city":"立川市","address":"東京都立川市柴崎町3丁目18-29","lat":35.69289634,"lon":139.41026292},{"name":"東京都福祉人材センター多摩支所","province":"東京都","city":"立川市","address":"立川市曙町2-34-13オリンピック第3ビル7階","lat":35.702556,"lon":139.414673},{"name":"立川第２荘（2）","province":"東京都","city":"立川市","address":"立川市富士見町4-15-14","lat":35.69511,"lon":139.39961},{"name":"まんまる助産院","province":"東京都","city":"立川市","address":"立川市若葉町2-1-1","lat":35.718989,"lon":139.439493},{"name":"立川相互病院","province":"東京都","city":"立川市","address":"立川市錦町1-16-15","lat":35.696666,"lon":139.422442},{"name":"コーポ立川","province":"東京都","city":"立川市","address":"立川市錦町6-9-8","lat":35.688636,"lon":139.418079},{"name":"コーポ立川錦町","province":"東京都","city":"立川市","address":"立川市錦町6-2-5","lat":35.689736,"lon":139.418421},{"name":"立川第２荘","province":"東京都","city":"立川市","address":"立川市富士見町4-15-14","lat":35.694865,"lon":139.399303},{"name":"相互歯科","province":"東京都","city":"立川市","address":"立川市錦町1-17-10健生会歯科ビル","lat":35.696671,"lon":139.421801},{"name":"立川相互ふれあいクリニック","province":"東京都","city":"立川市","address":"立川市錦町1-23-4","lat":35.695991,"lon":139.422562},{"name":"立川相互病院","province":"東京都","city":"立川市","address":"立川市緑町4-1","lat":35.703626,"lon":139.413293},{"name":"立川市社会福祉協議会","province":"東京都","city":"立川市","address":"立川市富士見町2-36-47立川市総合福祉センター内","lat":35.701298,"lon":139.401802},{"name":"東京都福祉人材センター人材情報室多摩支所","province":"東京都","city":"立川市","address":"立川市曙町2-34-13オリンピック第3ビル7階","lat":35.702556,"lon":139.414673},{"name":"立川第２荘","province":"東京都","city":"立川市","address":"立川市富士見町4-15-14","lat":35.69511,"lon":139.39961},{"name":"さくら立川ハウス","province":"東京都","city":"立川市","address":"立川市錦町6-9-8","lat":35.6885,"lon":139.41768},{"name":"さくら立川錦町ハウス","province":"東京都","city":"立川市","address":"立川市錦町6-2-5","lat":35.68947,"lon":139.41811},{"name":"株式会社クオーレ","province":"東京都","city":"立川市","address":"東京都立川市一番町1丁目41-11","lat":35.72505585,"lon":139.3829477},{"name":"多摩中央葬祭株式会社","province":"東京都","city":"立川市","address":"東京都立川市錦町4丁目8-3","lat":35.69109684,"lon":139.42126488},{"name":"有限会社成田屋","province":"東京都","city":"立川市","address":"東京都立川市羽衣町3丁目15-9","lat":35.68945263,"lon":139.42287593},{"name":"株式会社ハートフル葬祭","province":"東京都","city":"立川市","address":"東京都立川市若葉町1丁目3-27","lat":35.72089929,"lon":139.43267959},{"name":"株式会社ワイズセレモニー","province":"東京都","city":"立川市","address":"東京都立川市曙町3丁目11-20","lat":35.70087375,"lon":139.42909999},{"name":"株式会社　セレモア","province":"東京都","city":"立川市","address":"東京都立川市柏町1丁目26-4","lat":35.72092378,"lon":139.41187015},{"name":"株式会社 セレモア","province":"東京都","city":"立川市","address":"東京都立川市柏町1丁目26-4","lat":35.72092378,"lon":139.41187015},{"name":"有限会社 成田屋","province":"東京都","city":"立川市","address":"東京都立川市羽衣町3丁目15-9","lat":35.68945263,"lon":139.42287593},{"name":"株式会社 あさひセレモニー","province":"東京都","city":"立川市","address":"東京都立川市栄町6丁目1-13","lat":35.71380545,"lon":139.423475},{"name":"株式会社 ドリーミー","province":"東京都","city":"立川市","address":"東京都立川市富士見町6丁目36-27","lat":35.6929236,"lon":139.38921191},{"name":"まんまる助産院","province":"東京都","city":"立川市","address":"立川市若葉町2-1-1","lat":35.71925,"lon":139.43961},{"name":"立川相互病院","province":"東京都","city":"立川市","address":"立川市錦町1-16-15","lat":35.69665,"lon":139.42239},{"name":"立川第２荘（２）","province":"東京都","city":"立川市","address":"立川市富士見町4-15-14","lat":35.69511,"lon":139.39961},{"name":"グランドール立川","province":"東京都","city":"立川市","address":"東京都立川市","lat":35.71401612,"lon":139.40784571},{"name":"グランドール立川２","province":"東京都","city":"立川市","address":"東京都立川市","lat":35.71401612,"lon":139.40784571},{"name":"立川市社会福祉協議会","province":"東京都","city":"立川市","address":"立川市富士見町2-36-47立川市総合福祉センター内","lat":35.70138,"lon":139.40184},{"name":"東京都福祉人材センター多摩支所","province":"東京都","city":"立川市","address":"立川市曙町2-34-13オリンピック第3ビル7階","lat":35.70255,"lon":139.41466},{"name":"立川リハビリワークステーション立川","province":"東京都","city":"立川市","address":"東京都立川市富士見町7丁目33-3","lat":35.68979641,"lon":139.39872788},{"name":"一般社団法人栄福祉会就労継続支援Ｂ型キッチンさかえ","province":"東京都","city":"立川市","address":"東京都立川市栄町3丁目2","lat":35.7078311,"lon":139.42233085},{"name":"一般社団法人栄福祉会就労移行支援ソレイユ","province":"東京都","city":"立川市","address":"東京都立川市栄町3丁目2","lat":35.7078311,"lon":139.42233085},{"name":"一般社団法人栄福祉会サポーターズさかえ","province":"東京都","city":"立川市","address":"東京都立川市栄町3丁目2","lat":35.7078311,"lon":139.42233085},{"name":"株式会社友心就労継続支援Ｂ型わーくあっぷ立川","province":"東京都","city":"立川市","address":"東京都立川市曙町1丁目24-11","lat":35.70042046,"lon":139.4088405},{"name":"りは職人でい","province":"東京都","city":"立川市","address":"東京都立川市柴崎町3丁目18-29","lat":35.69289634,"lon":139.41026292},{"name":"東京都福祉人材センター多摩支所","province":"東京都","city":"立川市","address":"立川市曙町2-34-13オリンピック第3ビル7階","lat":35.702556,"lon":139.414673},{"name":"立川第２荘（2）","province":"東京都","city":"立川市","address":"立川市富士見町4-15-14","lat":35.69511,"lon":139.39961},{"name":"まんまる助産院","province":"東京都","city":"立川市","address":"立川市若葉町2-1-1","lat":35.718989,"lon":139.439493},{"name":"立川相互病院","province":"東京都","city":"立川市","address":"立川市錦町1-16-15","lat":35.696666,"lon":139.422442},{"name":"コーポ立川","province":"東京都","city":"立川市","address":"立川市錦町6-9-8","lat":35.688636,"lon":139.418079},{"name":"コーポ立川錦町","province":"東京都","city":"立川市","address":"立川市錦町6-2-5","lat":35.689736,"lon":139.418421},{"name":"立川第２荘","province":"東京都","city":"立川市","address":"立川市富士見町4-15-14","lat":35.694865,"lon":139.399303},{"name":"相互歯科","province":"東京都","city":"立川市","address":"立川市錦町1-17-10健生会歯科ビル","lat":35.696671,"lon":139.421801},{"name":"立川相互ふれあいクリニック","province":"東京都","city":"立川市","address":"立川市錦町1-23-4","lat":35.695991,"lon":139.422562},{"name":"立川相互病院","province":"東京都","city":"立川市","address":"立川市緑町4-1","lat":35.703626,"lon":139.413293},{"name":"立川市社会福祉協議会","province":"東京都","city":"立川市","address":"立川市富士見町2-36-47立川市総合福祉センター内","lat":35.701298,"lon":139.401802},{"name":"東京都福祉人材センター人材情報室多摩支所","province":"東京都","city":"立川市","address":"立川市曙町2-34-13オリンピック第3ビル7階","lat":35.702556,"lon":139.414673},{"name":"立川第２荘","province":"東京都","city":"立川市","address":"立川市富士見町4-15-14","lat":35.69511,"lon":139.39961},{"name":"さくら立川ハウス","province":"東京都","city":"立川市","address":"立川市錦町6-9-8","lat":35.6885,"lon":139.41768},{"name":"さくら立川錦町ハウス","province":"東京都","city":"立川市","address":"立川市錦町6-2-5","lat":35.68947,"lon":139.41811},{"name":"株式会社クオーレ","province":"東京都","city":"立川市","address":"東京都立川市一番町1丁目41-11","lat":35.72505585,"lon":139.3829477},{"name":"多摩中央葬祭株式会社","province":"東京都","city":"立川市","address":"東京都立川市錦町4丁目8-3","lat":35.69109684,"lon":139.42126488},{"name":"有限会社成田屋","province":"東京都","city":"立川市","address":"東京都立川市羽衣町3丁目15-9","lat":35.68945263,"lon":139.42287593},{"name":"株式会社ハートフル葬祭","province":"東京都","city":"立川市","address":"東京都立川市若葉町1丁目3-27","lat":35.72089929,"lon":139.43267959},{"name":"株式会社ワイズセレモニー","province":"東京都","city":"立川市","address":"東京都立川市曙町3丁目11-20","lat":35.70087375,"lon":139.42909999},{"name":"株式会社　セレモア","province":"東京都","city":"立川市","address":"東京都立川市柏町1丁目26-4","lat":35.72092378,"lon":139.41187015},{"name":"株式会社 セレモア","province":"東京都","city":"立川市","address":"東京都立川市柏町1丁目26-4","lat":35.72092378,"lon":139.41187015},{"name":"有限会社 成田屋","province":"東京都","city":"立川市","address":"東京都立川市羽衣町3丁目15-9","lat":35.68945263,"lon":139.42287593},{"name":"株式会社 あさひセレモニー","province":"東京都","city":"立川市","address":"東京都立川市栄町6丁目1-13","lat":35.71380545,"lon":139.423475},{"name":"株式会社 ドリーミー","province":"東京都","city":"立川市","address":"東京都立川市富士見町6丁目36-27","lat":35.6929236,"lon":139.38921191},{"name":"まんまる助産院","province":"東京都","city":"立川市","address":"立川市若葉町2-1-1","lat":35.71925,"lon":139.43961},{"name":"立川相互病院","province":"東京都","city":"立川市","address":"立川市錦町1-16-15","lat":35.69665,"lon":139.42239},{"name":"立川第２荘（２）","province":"東京都","city":"立川市","address":"立川市富士見町4-15-14","lat":35.69511,"lon":139.39961},{"name":"グランドール立川","province":"東京都","city":"立川市","address":"東京都立川市","lat":35.71401612,"lon":139.40784571},{"name":"グランドール立川２","province":"東京都","city":"立川市","address":"東京都立川市","lat":35.71401612,"lon":139.40784571},{"name":"立川市社会福祉協議会","province":"東京都","city":"立川市","address":"立川市富士見町2-36-47立川市総合福祉センター内","lat":35.70138,"lon":139.40184},{"name":"東京都福祉人材センター多摩支所","province":"東京都","city":"立川市","address":"立川市曙町2-34-13オリンピック第3ビル7階","lat":35.70255,"lon":139.41466},{"name":"立川リハビリワークステーション立川","province":"東京都","city":"立川市","address":"東京都立川市富士見町7丁目33-3","lat":35.68979641,"lon":139.39872788},{"name":"一般社団法人栄福祉会就労継続支援Ｂ型キッチンさかえ","province":"東京都","city":"立川市","address":"東京都立川市栄町3丁目2","lat":35.7078311,"lon":139.42233085},{"name":"一般社団法人栄福祉会就労移行支援ソレイユ","province":"東京都","city":"立川市","address":"東京都立川市栄町3丁目2","lat":35.7078311,"lon":139.42233085},{"name":"一般社団法人栄福祉会サポーターズさかえ","province":"東京都","city":"立川市","address":"東京都立川市栄町3丁目2","lat":35.7078311,"lon":139.42233085},{"name":"株式会社友心就労継続支援Ｂ型わーくあっぷ立川","province":"東京都","city":"立川市","address":"東京都立川市曙町1丁目24-11","lat":35.70042046,"lon":139.4088405},{"name":"りは職人でい","province":"東京都","city":"立川市","address":"東京都立川市柴崎町3丁目18-29","lat":35.69289634,"lon":139.41026292},{"name":"東京都福祉人材センター多摩支所","province":"東京都","city":"立川市","address":"立川市曙町2-34-13オリンピック第3ビル7階","lat":35.702556,"lon":139.414673},{"name":"立川第２荘（2）","province":"東京都","city":"立川市","address":"立川市富士見町4-15-14","lat":35.69511,"lon":139.39961},{"name":"まんまる助産院","province":"東京都","city":"立川市","address":"立川市若葉町2-1-1","lat":35.718989,"lon":139.439493},{"name":"立川相互病院","province":"東京都","city":"立川市","address":"立川市錦町1-16-15","lat":35.696666,"lon":139.422442},{"name":"コーポ立川","province":"東京都","city":"立川市","address":"立川市錦町6-9-8","lat":35.688636,"lon":139.418079},{"name":"コーポ立川錦町","province":"東京都","city":"立川市","address":"立川市錦町6-2-5","lat":35.689736,"lon":139.418421},{"name":"立川第２荘","province":"東京都","city":"立川市","address":"立川市富士見町4-15-14","lat":35.694865,"lon":139.399303},{"name":"相互歯科","province":"東京都","city":"立川市","address":"立川市錦町1-17-10健生会歯科ビル","lat":35.696671,"lon":139.421801},{"name":"立川相互ふれあいクリニック","province":"東京都","city":"立川市","address":"立川市錦町1-23-4","lat":35.695991,"lon":139.422562},{"name":"立川相互病院","province":"東京都","city":"立川市","address":"立川市緑町4-1","lat":35.703626,"lon":139.413293},{"name":"立川市社会福祉協議会","province":"東京都","city":"立川市","address":"立川市富士見町2-36-47立川市総合福祉センター内","lat":35.701298,"lon":139.401802},{"name":"東京都福祉人材センター人材情報室多摩支所","province":"東京都","city":"立川市","address":"立川市曙町2-34-13オリンピック第3ビル7階","lat":35.702556,"lon":139.414673},{"name":"立川第２荘","province":"東京都","city":"立川市","address":"立川市富士見町4-15-14","lat":35.69511,"lon":139.39961},{"name":"さくら立川ハウス","province":"東京都","city":"立川市","address":"立川市錦町6-9-8","lat":35.6885,"lon":139.41768},{"name":"さくら立川錦町ハウス","province":"東京都","city":"立川市","address":"立川市錦町6-2-5","lat":35.68947,"lon":139.41811},{"name":"まんまる助産院","province":"東京都","city":"立川市","address":"立川市若葉町2-1-1","lat":35.71925,"lon":139.43961},{"name":"立川相互病院","province":"東京都","city":"立川市","address":"立川市錦町1-16-15","lat":35.69665,"lon":139.42239},{"name":"立川第２荘（２）","province":"東京都","city":"立川市","address":"立川市富士見町4-15-14","lat":35.69511,"lon":139.39961},{"name":"グランドール立川","province":"東京都","city":"立川市","address":"東京都立川市","lat":35.71401612,"lon":139.40784571},{"name":"グランドール立川２","province":"東京都","city":"立川市","address":"東京都立川市","lat":35.71401612,"lon":139.40784571},{"name":"立川市社会福祉協議会","province":"東京都","city":"立川市","address":"立川市富士見町2-36-47立川市総合福祉センター内","lat":35.70138,"lon":139.40184},{"name":"東京都福祉人材センター多摩支所","province":"東京都","city":"立川市","address":"立川市曙町2-34-13オリンピック第3ビル7階","lat":35.70255,"lon":139.41466},{"name":"立川リハビリワークステーション立川","province":"東京都","city":"立川市","address":"東京都立川市富士見町7丁目33-3","lat":35.68979641,"lon":139.39872788},{"name":"一般社団法人栄福祉会就労継続支援Ｂ型キッチンさかえ","province":"東京都","city":"立川市","address":"東京都立川市栄町3丁目2","lat":35.7078311,"lon":139.42233085},{"name":"一般社団法人栄福祉会就労移行支援ソレイユ","province":"東京都","city":"立川市","address":"東京都立川市栄町3丁目2","lat":35.7078311,"lon":139.42233085},{"name":"一般社団法人栄福祉会サポーターズさかえ","province":"東京都","city":"立川市","address":"東京都立川市栄町3丁目2","lat":35.7078311,"lon":139.42233085},{"name":"株式会社友心就労継続支援Ｂ型わーくあっぷ立川","province":"東京都","city":"立川市","address":"東京都立川市曙町1丁目24-11","lat":35.70042046,"lon":139.4088405},{"name":"りは職人でい","province":"東京都","city":"立川市","address":"東京都立川市柴崎町3丁目18-29","lat":35.69289634,"lon":139.41026292},{"name":"東京都福祉人材センター多摩支所","province":"東京都","city":"立川市","address":"立川市曙町2-34-13オリンピック第3ビル7階","lat":35.702556,"lon":139.414673},{"name":"立川第２荘（2）","province":"東京都","city":"立川市","address":"立川市富士見町4-15-14","lat":35.69511,"lon":139.39961},{"name":"まんまる助産院","province":"東京都","city":"立川市","address":"立川市若葉町2-1-1","lat":35.718989,"lon":139.439493},{"name":"立川相互病院","province":"東京都","city":"立川市","address":"立川市錦町1-16-15","lat":35.696666,"lon":139.422442},{"name":"コーポ立川","province":"東京都","city":"立川市","address":"立川市錦町6-9-8","lat":35.688636,"lon":139.418079},{"name":"コーポ立川錦町","province":"東京都","city":"立川市","address":"立川市錦町6-2-5","lat":35.689736,"lon":139.418421},{"name":"立川第２荘","province":"東京都","city":"立川市","address":"立川市富士見町4-15-14","lat":35.694865,"lon":139.399303},{"name":"相互歯科","province":"東京都","city":"立川市","address":"立川市錦町1-17-10健生会歯科ビル","lat":35.696671,"lon":139.421801},{"name":"立川相互ふれあいクリニック","province":"東京都","city":"立川市","address":"立川市錦町1-23-4","lat":35.695991,"lon":139.422562},{"name":"立川相互病院","province":"東京都","city":"立川市","address":"立川市緑町4-1","lat":35.703626,"lon":139.413293},{"name":"立川市社会福祉協議会","province":"東京都","city":"立川市","address":"立川市富士見町2-36-47立川市総合福祉センター内","lat":35.701298,"lon":139.401802},{"name":"東京都福祉人材センター人材情報室多摩支所","province":"東京都","city":"立川市","address":"立川市曙町2-34-13オリンピック第3ビル7階","lat":35.702556,"lon":139.414673},{"name":"立川第２荘","province":"東京都","city":"立川市","address":"立川市富士見町4-15-14","lat":35.69511,"lon":139.39961},{"name":"さくら立川ハウス","province":"東京都","city":"立川市","address":"立川市錦町6-9-8","lat":35.6885,"lon":139.41768},{"name":"さくら立川錦町ハウス","province":"東京都","city":"立川市","address":"立川市錦町6-2-5","lat":35.68947,"lon":139.41811},{"name":"まんまる助産院","province":"東京都","city":"立川市","address":"立川市若葉町2-1-1","lat":35.71925,"lon":139.43961},{"name":"立川相互病院","province":"東京都","city":"立川市","address":"立川市錦町1-16-15","lat":35.69665,"lon":139.42239},{"name":"立川第２荘（２）","province":"東京都","city":"立川市","address":"立川市富士見町4-15-14","lat":35.69511,"lon":139.39961},{"name":"グランドール立川","province":"東京都","city":"立川市","address":"東京都立川市","lat":35.71401612,"lon":139.40784571},{"name":"グランドール立川２","province":"東京都","city":"立川市","address":"東京都立川市","lat":35.71401612,"lon":139.40784571},{"name":"立川市社会福祉協議会","province":"東京都","city":"立川市","address":"立川市富士見町2-36-47立川市総合福祉センター内","lat":35.70138,"lon":139.40184},{"name":"東京都福祉人材センター多摩支所","province":"東京都","city":"立川市","address":"立川市曙町2-34-13オリンピック第3ビル7階","lat":35.70255,"lon":139.41466},{"name":"立川リハビリワークステーション立川","province":"東京都","city":"立川市","address":"東京都立川市富士見町7丁目33-3","lat":35.68979641,"lon":139.39872788},{"name":"一般社団法人栄福祉会就労継続支援Ｂ型キッチンさかえ","province":"東京都","city":"立川市","address":"東京都立川市栄町3丁目2","lat":35.7078311,"lon":139.42233085},{"name":"一般社団法人栄福祉会就労移行支援ソレイユ","province":"東京都","city":"立川市","address":"東京都立川市栄町3丁目2","lat":35.7078311,"lon":139.42233085},{"name":"一般社団法人栄福祉会サポーターズさかえ","province":"東京都","city":"立川市","address":"東京都立川市栄町3丁目2","lat":35.7078311,"lon":139.42233085},{"name":"株式会社友心就労継続支援Ｂ型わーくあっぷ立川","province":"東京都","city":"立川市","address":"東京都立川市曙町1丁目24-11","lat":35.70042046,"lon":139.4088405},{"name":"りは職人でい","province":"東京都","city":"立川市","address":"東京都立川市柴崎町3丁目18-29","lat":35.69289634,"lon":139.41026292},{"name":"東京都福祉人材センター多摩支所","province":"東京都","city":"立川市","address":"立川市曙町2-34-13オリンピック第3ビル7階","lat":35.702556,"lon":139.414673},{"name":"立川第２荘（2）","province":"東京都","city":"立川市","address":"立川市富士見町4-15-14","lat":35.69511,"lon":139.39961},{"name":"まんまる助産院","province":"東京都","city":"立川市","address":"立川市若葉町2-1-1","lat":35.718989,"lon":139.439493},{"name":"立川相互病院","province":"東京都","city":"立川市","address":"立川市錦町1-16-15","lat":35.696666,"lon":139.422442},{"name":"コーポ立川","province":"東京都","city":"立川市","address":"立川市錦町6-9-8","lat":35.688636,"lon":139.418079},{"name":"コーポ立川錦町","province":"東京都","city":"立川市","address":"立川市錦町6-2-5","lat":35.689736,"lon":139.418421},{"name":"立川第２荘","province":"東京都","city":"立川市","address":"立川市富士見町4-15-14","lat":35.694865,"lon":139.399303},{"name":"相互歯科","province":"東京都","city":"立川市","address":"立川市錦町1-17-10健生会歯科ビル","lat":35.696671,"lon":139.421801},{"name":"立川相互ふれあいクリニック","province":"東京都","city":"立川市","address":"立川市錦町1-23-4","lat":35.695991,"lon":139.422562},{"name":"立川相互病院","province":"東京都","city":"立川市","address":"立川市緑町4-1","lat":35.703626,"lon":139.413293},{"name":"立川市社会福祉協議会","province":"東京都","city":"立川市","address":"立川市富士見町2-36-47立川市総合福祉センター内","lat":35.701298,"lon":139.401802},{"name":"東京都福祉人材センター人材情報室多摩支所","province":"東京都","city":"立川市","address":"立川市曙町2-34-13オリンピック第3ビル7階","lat":35.702556,"lon":139.414673},{"name":"立川第２荘","province":"東京都","city":"立川市","address":"立川市富士見町4-15-14","lat":35.69511,"lon":139.39961},{"name":"さくら立川ハウス","province":"東京都","city":"立川市","address":"立川市錦町6-9-8","lat":35.6885,"lon":139.41768},{"name":"さくら立川錦町ハウス","province":"東京都","city":"立川市","address":"立川市錦町6-2-5","lat":35.68947,"lon":139.41811},{"name":"まんまる助産院","province":"東京都","city":"立川市","address":"立川市若葉町2-1-1","lat":35.71925,"lon":139.43961},{"name":"立川相互病院","province":"東京都","city":"立川市","address":"立川市錦町1-16-15","lat":35.69665,"lon":139.42239},{"name":"立川第２荘（２）","province":"東京都","city":"立川市","address":"立川市富士見町4-15-14","lat":35.69511,"lon":139.39961},{"name":"グランドール立川","province":"東京都","city":"立川市","address":"東京都立川市","lat":35.71401612,"lon":139.40784571},{"name":"グランドール立川２","province":"東京都","city":"立川市","address":"東京都立川市","lat":35.71401612,"lon":139.40784571},{"name":"立川市社会福祉協議会","province":"東京都","city":"立川市","address":"立川市富士見町2-36-47立川市総合福祉センター内","lat":35.70138,"lon":139.40184},{"name":"東京都福祉人材センター多摩支所","province":"東京都","city":"立川市","address":"立川市曙町2-34-13オリンピック第3ビル7階","lat":35.70255,"lon":139.41466},{"name":"立川リハビリワークステーション立川","province":"東京都","city":"立川市","address":"東京都立川市富士見町7丁目33-3","lat":35.68979641,"lon":139.39872788},{"name":"一般社団法人栄福祉会就労継続支援Ｂ型キッチンさかえ","province":"東京都","city":"立川市","address":"東京都立川市栄町3丁目2","lat":35.7078311,"lon":139.42233085},{"name":"一般社団法人栄福祉会就労移行支援ソレイユ","province":"東京都","city":"立川市","address":"東京都立川市栄町3丁目2","lat":35.7078311,"lon":139.42233085},{"name":"一般社団法人栄福祉会サポーターズさかえ","province":"東京都","city":"立川市","address":"東京都立川市栄町3丁目2","lat":35.7078311,"lon":139.42233085},{"name":"株式会社友心就労継続支援Ｂ型わーくあっぷ立川","province":"東京都","city":"立川市","address":"東京都立川市曙町1丁目24-11","lat":35.70042046,"lon":139.4088405},{"name":"りは職人でい","province":"東京都","city":"立川市","address":"東京都立川市柴崎町3丁目18-29","lat":35.69289634,"lon":139.41026292},{"name":"東京都福祉人材センター多摩支所","province":"東京都","city":"立川市","address":"立川市曙町2-34-13オリンピック第3ビル7階","lat":35.702556,"lon":139.414673},{"name":"立川第２荘（2）","province":"東京都","city":"立川市","address":"立川市富士見町4-15-14","lat":35.69511,"lon":139.39961},{"name":"まんまる助産院","province":"東京都","city":"立川市","address":"立川市若葉町2-1-1","lat":35.718989,"lon":139.439493},{"name":"立川相互病院","province":"東京都","city":"立川市","address":"立川市錦町1-16-15","lat":35.696666,"lon":139.422442},{"name":"コーポ立川","province":"東京都","city":"立川市","address":"立川市錦町6-9-8","lat":35.688636,"lon":139.418079},{"name":"コーポ立川錦町","province":"東京都","city":"立川市","address":"立川市錦町6-2-5","lat":35.689736,"lon":139.418421},{"name":"立川第２荘","province":"東京都","city":"立川市","address":"立川市富士見町4-15-14","lat":35.694865,"lon":139.399303},{"name":"相互歯科","province":"東京都","city":"立川市","address":"立川市錦町1-17-10健生会歯科ビル","lat":35.696671,"lon":139.421801},{"name":"立川相互ふれあいクリニック","province":"東京都","city":"立川市","address":"立川市錦町1-23-4","lat":35.695991,"lon":139.422562},{"name":"立川相互病院","province":"東京都","city":"立川市","address":"立川市緑町4-1","lat":35.703626,"lon":139.413293},{"name":"立川市社会福祉協議会","province":"東京都","city":"立川市","address":"立川市富士見町2-36-47立川市総合福祉センター内","lat":35.701298,"lon":139.401802},{"name":"東京都福祉人材センター人材情報室多摩支所","province":"東京都","city":"立川市","address":"立川市曙町2-34-13オリンピック第3ビル7階","lat":35.702556,"lon":139.414673},{"name":"立川第２荘","province":"東京都","city":"立川市","address":"立川市富士見町4-15-14","lat":35.69511,"lon":139.39961},{"name":"さくら立川ハウス","province":"東京都","city":"立川市","address":"立川市錦町6-9-8","lat":35.6885,"lon":139.41768},{"name":"さくら立川錦町ハウス","province":"東京都","city":"立川市","address":"立川市錦町6-2-5","lat":35.68947,"lon":139.41811},{"name":"まんまる助産院","province":"東京都","city":"立川市","address":"立川市若葉町2-1-1","lat":35.71925,"lon":139.43961},{"name":"立川相互病院","province":"東京都","city":"立川市","address":"立川市錦町1-16-15","lat":35.69665,"lon":139.42239},{"name":"立川第２荘（２）","province":"東京都","city":"立川市","address":"立川市富士見町4-15-14","lat":35.69511,"lon":139.39961},{"name":"グランドール立川","province":"東京都","city":"立川市","address":"東京都立川市","lat":35.71401612,"lon":139.40784571},{"name":"グランドール立川２","province":"東京都","city":"立川市","address":"東京都立川市","lat":35.71401612,"lon":139.40784571},{"name":"立川市社会福祉協議会","province":"東京都","city":"立川市","address":"立川市富士見町2-36-47立川市総合福祉センター内","lat":35.70138,"lon":139.40184},{"name":"東京都福祉人材センター多摩支所","province":"東京都","city":"立川市","address":"立川市曙町2-34-13オリンピック第3ビル7階","lat":35.70255,"lon":139.41466},{"name":"立川リハビリワークステーション立川","province":"東京都","city":"立川市","address":"東京都立川市富士見町7丁目33-3","lat":35.68979641,"lon":139.39872788},{"name":"一般社団法人栄福祉会就労継続支援Ｂ型キッチンさかえ","province":"東京都","city":"立川市","address":"東京都立川市栄町3丁目2","lat":35.7078311,"lon":139.42233085},{"name":"一般社団法人栄福祉会就労移行支援ソレイユ","province":"東京都","city":"立川市","address":"東京都立川市栄町3丁目2","lat":35.7078311,"lon":139.42233085},{"name":"一般社団法人栄福祉会サポーターズさかえ","province":"東京都","city":"立川市","address":"東京都立川市栄町3丁目2","lat":35.7078311,"lon":139.42233085},{"name":"株式会社友心就労継続支援Ｂ型わーくあっぷ立川","province":"東京都","city":"立川市","address":"東京都立川市曙町1丁目24-11","lat":35.70042046,"lon":139.4088405},{"name":"りは職人でい","province":"東京都","city":"立川市","address":"東京都立川市柴崎町3丁目18-29","lat":35.69289634,"lon":139.41026292},{"name":"東京都福祉人材センター多摩支所","province":"東京都","city":"立川市","address":"立川市曙町2-34-13オリンピック第3ビル7階","lat":35.702556,"lon":139.414673},{"name":"立川第２荘（2）","province":"東京都","city":"立川市","address":"立川市富士見町4-15-14","lat":35.69511,"lon":139.39961},{"name":"まんまる助産院","province":"東京都","city":"立川市","address":"立川市若葉町2-1-1","lat":35.718989,"lon":139.439493},{"name":"立川相互病院","province":"東京都","city":"立川市","address":"立川市錦町1-16-15","lat":35.696666,"lon":139.422442},{"name":"コーポ立川","province":"東京都","city":"立川市","address":"立川市錦町6-9-8","lat":35.688636,"lon":139.418079},{"name":"コーポ立川錦町","province":"東京都","city":"立川市","address":"立川市錦町6-2-5","lat":35.689736,"lon":139.418421},{"name":"立川第２荘","province":"東京都","city":"立川市","address":"立川市富士見町4-15-14","lat":35.694865,"lon":139.399303},{"name":"相互歯科","province":"東京都","city":"立川市","address":"立川市錦町1-17-10健生会歯科ビル","lat":35.696671,"lon":139.421801},{"name":"立川相互ふれあいクリニック","province":"東京都","city":"立川市","address":"立川市錦町1-23-4","lat":35.695991,"lon":139.422562},{"name":"立川相互病院","province":"東京都","city":"立川市","address":"立川市緑町4-1","lat":35.703626,"lon":139.413293},{"name":"立川市社会福祉協議会","province":"東京都","city":"立川市","address":"立川市富士見町2-36-47立川市総合福祉センター内","lat":35.701298,"lon":139.401802},{"name":"東京都福祉人材センター人材情報室多摩支所","province":"東京都","city":"立川市","address":"立川市曙町2-34-13オリンピック第3ビル7階","lat":35.702556,"lon":139.414673},{"name":"立川第２荘","province":"東京都","city":"立川市","address":"立川市富士見町4-15-14","lat":35.69511,"lon":139.39961},{"name":"さくら立川ハウス","province":"東京都","city":"立川市","address":"立川市錦町6-9-8","lat":35.6885,"lon":139.41768},{"name":"さくら立川錦町ハウス","province":"東京都","city":"立川市","address":"立川市錦町6-2-5","lat":35.68947,"lon":139.41811},{"name":"まんまる助産院","province":"東京都","city":"立川市","address":"立川市若葉町2-1-1","lat":35.71925,"lon":139.43961},{"name":"立川相互病院","province":"東京都","city":"立川市","address":"立川市錦町1-16-15","lat":35.69665,"lon":139.42239},{"name":"立川第２荘（２）","province":"東京都","city":"立川市","address":"立川市富士見町4-15-14","lat":35.69511,"lon":139.39961},{"name":"グランドール立川","province":"東京都","city":"立川市","address":"東京都立川市","lat":35.71401612,"lon":139.40784571},{"name":"グランドール立川２","province":"東京都","city":"立川市","address":"東京都立川市","lat":35.71401612,"lon":139.40784571},{"name":"立川市社会福祉協議会","province":"東京都","city":"立川市","address":"立川市富士見町2-36-47立川市総合福祉センター内","lat":35.70138,"lon":139.40184},{"name":"東京都福祉人材センター多摩支所","province":"東京都","city":"立川市","address":"立川市曙町2-34-13オリンピック第3ビル7階","lat":35.70255,"lon":139.41466},{"name":"立川リハビリワークステーション立川","province":"東京都","city":"立川市","address":"東京都立川市富士見町7丁目33-3","lat":35.68979641,"lon":139.39872788},{"name":"一般社団法人栄福祉会就労継続支援Ｂ型キッチンさかえ","province":"東京都","city":"立川市","address":"東京都立川市栄町3丁目2","lat":35.7078311,"lon":139.42233085},{"name":"一般社団法人栄福祉会就労移行支援ソレイユ","province":"東京都","city":"立川市","address":"東京都立川市栄町3丁目2","lat":35.7078311,"lon":139.42233085},{"name":"一般社団法人栄福祉会サポーターズさかえ","province":"東京都","city":"立川市","address":"東京都立川市栄町3丁目2","lat":35.7078311,"lon":139.42233085},{"name":"株式会社友心就労継続支援Ｂ型わーくあっぷ立川","province":"東京都","city":"立川市","address":"東京都立川市曙町1丁目24-11","lat":35.70042046,"lon":139.4088405},{"name":"りは職人でい","province":"東京都","city":"立川市","address":"東京都立川市柴崎町3丁目18-29","lat":35.69289634,"lon":139.41026292},{"name":"東京都福祉人材センター多摩支所","province":"東京都","city":"立川市","address":"立川市曙町2-34-13オリンピック第3ビル7階","lat":35.702556,"lon":139.414673},{"name":"立川第２荘（2）","province":"東京都","city":"立川市","address":"立川市富士見町4-15-14","lat":35.69511,"lon":139.39961},{"name":"まんまる助産院","province":"東京都","city":"立川市","address":"立川市若葉町2-1-1","lat":35.718989,"lon":139.439493},{"name":"立川相互病院","province":"東京都","city":"立川市","address":"立川市錦町1-16-15","lat":35.696666,"lon":139.422442},{"name":"コーポ立川","province":"東京都","city":"立川市","address":"立川市錦町6-9-8","lat":35.688636,"lon":139.418079},{"name":"コーポ立川錦町","province":"東京都","city":"立川市","address":"立川市錦町6-2-5","lat":35.689736,"lon":139.418421},{"name":"立川第２荘","province":"東京都","city":"立川市","address":"立川市富士見町4-15-14","lat":35.694865,"lon":139.399303},{"name":"相互歯科","province":"東京都","city":"立川市","address":"立川市錦町1-17-10健生会歯科ビル","lat":35.696671,"lon":139.421801},{"name":"立川相互ふれあいクリニック","province":"東京都","city":"立川市","address":"立川市錦町1-23-4","lat":35.695991,"lon":139.422562},{"name":"立川相互病院","province":"東京都","city":"立川市","address":"立川市緑町4-1","lat":35.703626,"lon":139.413293},{"name":"立川市社会福祉協議会","province":"東京都","city":"立川市","address":"立川市富士見町2-36-47立川市総合福祉センター内","lat":35.701298,"lon":139.401802},{"name":"東京都福祉人材センター人材情報室多摩支所","province":"東京都","city":"立川市","address":"立川市曙町2-34-13オリンピック第3ビル7階","lat":35.702556,"lon":139.414673},{"name":"立川第２荘","province":"東京都","city":"立川市","address":"立川市富士見町4-15-14","lat":35.69511,"lon":139.39961},{"name":"さくら立川ハウス","province":"東京都","city":"立川市","address":"立川市錦町6-9-8","lat":35.6885,"lon":139.41768},{"name":"さくら立川錦町ハウス","province":"東京都","city":"立川市","address":"立川市錦町6-2-5","lat":35.68947,"lon":139.41811},{"name":"まんまる助産院","province":"東京都","city":"立川市","address":"立川市若葉町2-1-1","lat":35.71925,"lon":139.43961},{"name":"立川相互病院","province":"東京都","city":"立川市","address":"立川市錦町1-16-15","lat":35.69665,"lon":139.42239},{"name":"立川第２荘（２）","province":"東京都","city":"立川市","address":"立川市富士見町4-15-14","lat":35.69511,"lon":139.39961},{"name":"グランドール立川","province":"東京都","city":"立川市","address":"東京都立川市","lat":35.71401612,"lon":139.40784571},{"name":"グランドール立川２","province":"東京都","city":"立川市","address":"東京都立川市","lat":35.71401612,"lon":139.40784571},{"name":"立川市社会福祉協議会","province":"東京都","city":"立川市","address":"立川市富士見町2-36-47立川市総合福祉センター内","lat":35.70138,"lon":139.40184},{"name":"東京都福祉人材センター多摩支所","province":"東京都","city":"立川市","address":"立川市曙町2-34-13オリンピック第3ビル7階","lat":35.70255,"lon":139.41466},{"name":"立川リハビリワークステーション立川","province":"東京都","city":"立川市","address":"東京都立川市富士見町7丁目33-3","lat":35.68979641,"lon":139.39872788},{"name":"一般社団法人栄福祉会就労継続支援Ｂ型キッチンさかえ","province":"東京都","city":"立川市","address":"東京都立川市栄町3丁目2","lat":35.7078311,"lon":139.42233085},{"name":"一般社団法人栄福祉会就労移行支援ソレイユ","province":"東京都","city":"立川市","address":"東京都立川市栄町3丁目2","lat":35.7078311,"lon":139.42233085},{"name":"一般社団法人栄福祉会サポーターズさかえ","province":"東京都","city":"立川市","address":"東京都立川市栄町3丁目2","lat":35.7078311,"lon":139.42233085},{"name":"株式会社友心就労継続支援Ｂ型わーくあっぷ立川","province":"東京都","city":"立川市","address":"東京都立川市曙町1丁目24-11","lat":35.70042046,"lon":139.4088405},{"name":"りは職人でい","province":"東京都","city":"立川市","address":"東京都立川市柴崎町3丁目18-29","lat":35.69289634,"lon":139.41026292},{"name":"東京都福祉人材センター多摩支所","province":"東京都","city":"立川市","address":"立川市曙町2-34-13オリンピック第3ビル7階","lat":35.702556,"lon":139.414673},{"name":"立川第２荘（2）","province":"東京都","city":"立川市","address":"立川市富士見町4-15-14","lat":35.69511,"lon":139.39961},{"name":"まんまる助産院","province":"東京都","city":"立川市","address":"立川市若葉町2-1-1","lat":35.718989,"lon":139.439493},{"name":"立川相互病院","province":"東京都","city":"立川市","address":"立川市錦町1-16-15","lat":35.696666,"lon":139.422442},{"name":"コーポ立川","province":"東京都","city":"立川市","address":"立川市錦町6-9-8","lat":35.688636,"lon":139.418079},{"name":"コーポ立川錦町","province":"東京都","city":"立川市","address":"立川市錦町6-2-5","lat":35.689736,"lon":139.418421},{"name":"立川第２荘","province":"東京都","city":"立川市","address":"立川市富士見町4-15-14","lat":35.694865,"lon":139.399303},{"name":"相互歯科","province":"東京都","city":"立川市","address":"立川市錦町1-17-10健生会歯科ビル","lat":35.696671,"lon":139.421801},{"name":"立川相互ふれあいクリニック","province":"東京都","city":"立川市","address":"立川市錦町1-23-4","lat":35.695991,"lon":139.422562},{"name":"立川相互病院","province":"東京都","city":"立川市","address":"立川市緑町4-1","lat":35.703626,"lon":139.413293},{"name":"立川市社会福祉協議会","province":"東京都","city":"立川市","address":"立川市富士見町2-36-47立川市総合福祉センター内","lat":35.701298,"lon":139.401802},{"name":"東京都福祉人材センター人材情報室多摩支所","province":"東京都","city":"立川市","address":"立川市曙町2-34-13オリンピック第3ビル7階","lat":35.702556,"lon":139.414673},{"name":"立川第２荘","province":"東京都","city":"立川市","address":"立川市富士見町4-15-14","lat":35.69511,"lon":139.39961},{"name":"さくら立川ハウス","province":"東京都","city":"立川市","address":"立川市錦町6-9-8","lat":35.6885,"lon":139.41768},{"name":"さくら立川錦町ハウス","province":"東京都","city":"立川市","address":"立川市錦町6-2-5","lat":35.68947,"lon":139.41811},{"name":"まんまる助産院","province":"東京都","city":"立川市","address":"立川市若葉町2-1-1","lat":35.71925,"lon":139.43961},{"name":"立川相互病院","province":"東京都","city":"立川市","address":"立川市錦町1-16-15","lat":35.69665,"lon":139.42239},{"name":"立川第２荘（２）","province":"東京都","city":"立川市","address":"立川市富士見町4-15-14","lat":35.69511,"lon":139.39961},{"name":"グランドール立川","province":"東京都","city":"立川市","address":"東京都立川市","lat":35.71401612,"lon":139.40784571},{"name":"グランドール立川２","province":"東京都","city":"立川市","address":"東京都立川市","lat":35.71401612,"lon":139.40784571},{"name":"立川市社会福祉協議会","province":"東京都","city":"立川市","address":"立川市富士見町2-36-47立川市総合福祉センター内","lat":35.70138,"lon":139.40184},{"name":"東京都福祉人材センター多摩支所","province":"東京都","city":"立川市","address":"立川市曙町2-34-13オリンピック第3ビル7階","lat":35.70255,"lon":139.41466},{"name":"立川リハビリワークステーション立川","province":"東京都","city":"立川市","address":"東京都立川市富士見町7丁目33-3","lat":35.68979641,"lon":139.39872788},{"name":"一般社団法人栄福祉会就労継続支援Ｂ型キッチンさかえ","province":"東京都","city":"立川市","address":"東京都立川市栄町3丁目2","lat":35.7078311,"lon":139.42233085},{"name":"一般社団法人栄福祉会就労移行支援ソレイユ","province":"東京都","city":"立川市","address":"東京都立川市栄町3丁目2","lat":35.7078311,"lon":139.42233085},{"name":"一般社団法人栄福祉会サポーターズさかえ","province":"東京都","city":"立川市","address":"東京都立川市栄町3丁目2","lat":35.7078311,"lon":139.42233085},{"name":"株式会社友心就労継続支援Ｂ型わーくあっぷ立川","province":"東京都","city":"立川市","address":"東京都立川市曙町1丁目24-11","lat":35.70042046,"lon":139.4088405},{"name":"りは職人でい","province":"東京都","city":"立川市","address":"東京都立川市柴崎町3丁目18-29","lat":35.69289634,"lon":139.41026292},{"name":"東京都福祉人材センター多摩支所","province":"東京都","city":"立川市","address":"立川市曙町2-34-13オリンピック第3ビル7階","lat":35.702556,"lon":139.414673},{"name":"立川第２荘（2）","province":"東京都","city":"立川市","address":"立川市富士見町4-15-14","lat":35.69511,"lon":139.39961},{"name":"まんまる助産院","province":"東京都","city":"立川市","address":"立川市若葉町2-1-1","lat":35.718989,"lon":139.439493},{"name":"立川相互病院","province":"東京都","city":"立川市","address":"立川市錦町1-16-15","lat":35.696666,"lon":139.422442},{"name":"コーポ立川","province":"東京都","city":"立川市","address":"立川市錦町6-9-8","lat":35.688636,"lon":139.418079},{"name":"コーポ立川錦町","province":"東京都","city":"立川市","address":"立川市錦町6-2-5","lat":35.689736,"lon":139.418421},{"name":"立川第２荘","province":"東京都","city":"立川市","address":"立川市富士見町4-15-14","lat":35.694865,"lon":139.399303},{"name":"相互歯科","province":"東京都","city":"立川市","address":"立川市錦町1-17-10健生会歯科ビル","lat":35.696671,"lon":139.421801},{"name":"立川相互ふれあいクリニック","province":"東京都","city":"立川市","address":"立川市錦町1-23-4","lat":35.695991,"lon":139.422562},{"name":"立川相互病院","province":"東京都","city":"立川市","address":"立川市緑町4-1","lat":35.703626,"lon":139.413293},{"name":"立川市社会福祉協議会","province":"東京都","city":"立川市","address":"立川市富士見町2-36-47立川市総合福祉センター内","lat":35.701298,"lon":139.401802},{"name":"東京都福祉人材センター人材情報室多摩支所","province":"東京都","city":"立川市","address":"立川市曙町2-34-13オリンピック第3ビル7階","lat":35.702556,"lon":139.414673},{"name":"立川第２荘","province":"東京都","city":"立川市","address":"立川市富士見町4-15-14","lat":35.69511,"lon":139.39961},{"name":"さくら立川ハウス","province":"東京都","city":"立川市","address":"立川市錦町6-9-8","lat":35.6885,"lon":139.41768},{"name":"さくら立川錦町ハウス","province":"東京都","city":"立川市","address":"立川市錦町6-2-5","lat":35.68947,"lon":139.41811},{"name":"まんまる助産院","province":"東京都","city":"立川市","address":"立川市若葉町2-1-1","lat":35.71925,"lon":139.43961},{"name":"立川相互病院","province":"東京都","city":"立川市","address":"立川市錦町1-16-15","lat":35.69665,"lon":139.42239},{"name":"立川第２荘（２）","province":"東京都","city":"立川市","address":"立川市富士見町4-15-14","lat":35.69511,"lon":139.39961},{"name":"グランドール立川","province":"東京都","city":"立川市","address":"東京都立川市","lat":35.71401612,"lon":139.40784571},{"name":"グランドール立川２","province":"東京都","city":"立川市","address":"東京都立川市","lat":35.71401612,"lon":139.40784571},{"name":"立川市社会福祉協議会","province":"東京都","city":"立川市","address":"立川市富士見町2-36-47立川市総合福祉センター内","lat":35.70138,"lon":139.40184},{"name":"東京都福祉人材センター多摩支所","province":"東京都","city":"立川市","address":"立川市曙町2-34-13オリンピック第3ビル7階","lat":35.70255,"lon":139.41466},{"name":"立川リハビリワークステーション立川","province":"東京都","city":"立川市","address":"東京都立川市富士見町7丁目33-3","lat":35.68979641,"lon":139.39872788},{"name":"一般社団法人栄福祉会就労継続支援Ｂ型キッチンさかえ","province":"東京都","city":"立川市","address":"東京都立川市栄町3丁目2","lat":35.7078311,"lon":139.42233085},{"name":"一般社団法人栄福祉会就労移行支援ソレイユ","province":"東京都","city":"立川市","address":"東京都立川市栄町3丁目2","lat":35.7078311,"lon":139.42233085},{"name":"一般社団法人栄福祉会サポーターズさかえ","province":"東京都","city":"立川市","address":"東京都立川市栄町3丁目2","lat":35.7078311,"lon":139.42233085},{"name":"株式会社友心就労継続支援Ｂ型わーくあっぷ立川","province":"東京都","city":"立川市","address":"東京都立川市曙町1丁目24-11","lat":35.70042046,"lon":139.4088405},{"name":"りは職人でい","province":"東京都","city":"立川市","address":"東京都立川市柴崎町3丁目18-29","lat":35.69289634,"lon":139.41026292},{"name":"東京都福祉人材センター多摩支所","province":"東京都","city":"立川市","address":"立川市曙町2-34-13オリンピック第3ビル7階","lat":35.702556,"lon":139.414673},{"name":"立川第２荘（2）","province":"東京都","city":"立川市","address":"立川市富士見町4-15-14","lat":35.69511,"lon":139.39961},{"name":"まんまる助産院","province":"東京都","city":"立川市","address":"立川市若葉町2-1-1","lat":35.718989,"lon":139.439493},{"name":"立川相互病院","province":"東京都","city":"立川市","address":"立川市錦町1-16-15","lat":35.696666,"lon":139.422442},{"name":"コーポ立川","province":"東京都","city":"立川市","address":"立川市錦町6-9-8","lat":35.688636,"lon":139.418079},{"name":"コーポ立川錦町","province":"東京都","city":"立川市","address":"立川市錦町6-2-5","lat":35.689736,"lon":139.418421},{"name":"立川第２荘","province":"東京都","city":"立川市","address":"立川市富士見町4-15-14","lat":35.694865,"lon":139.399303},{"name":"相互歯科","province":"東京都","city":"立川市","address":"立川市錦町1-17-10健生会歯科ビル","lat":35.696671,"lon":139.421801},{"name":"立川相互ふれあいクリニック","province":"東京都","city":"立川市","address":"立川市錦町1-23-4","lat":35.695991,"lon":139.422562},{"name":"立川相互病院","province":"東京都","city":"立川市","address":"立川市緑町4-1","lat":35.703626,"lon":139.413293},{"name":"立川市社会福祉協議会","province":"東京都","city":"立川市","address":"立川市富士見町2-36-47立川市総合福祉センター内","lat":35.701298,"lon":139.401802},{"name":"東京都福祉人材センター人材情報室多摩支所","province":"東京都","city":"立川市","address":"立川市曙町2-34-13オリンピック第3ビル7階","lat":35.702556,"lon":139.414673},{"name":"立川第２荘","province":"東京都","city":"立川市","address":"立川市富士見町4-15-14","lat":35.69511,"lon":139.39961},{"name":"さくら立川ハウス","province":"東京都","city":"立川市","address":"立川市錦町6-9-8","lat":35.6885,"lon":139.41768},{"name":"さくら立川錦町ハウス","province":"東京都","city":"立川市","address":"立川市錦町6-2-5","lat":35.68947,"lon":139.41811},{"name":"まんまる助産院","province":"東京都","city":"立川市","address":"立川市若葉町2-1-1","lat":35.71925,"lon":139.43961},{"name":"立川相互病院","province":"東京都","city":"立川市","address":"立川市錦町1-16-15","lat":35.69665,"lon":139.42239},{"name":"立川第２荘（２）","province":"東京都","city":"立川市","address":"立川市富士見町4-15-14","lat":35.69511,"lon":139.39961},{"name":"グランドール立川","province":"東京都","city":"立川市","address":"東京都立川市","lat":35.71401612,"lon":139.40784571},{"name":"グランドール立川２","province":"東京都","city":"立川市","address":"東京都立川市","lat":35.71401612,"lon":139.40784571},{"name":"立川市社会福祉協議会","province":"東京都","city":"立川市","address":"立川市富士見町2-36-47立川市総合福祉センター内","lat":35.70138,"lon":139.40184},{"name":"東京都福祉人材センター多摩支所","province":"東京都","city":"立川市","address":"立川市曙町2-34-13オリンピック第3ビル7階","lat":35.70255,"lon":139.41466},{"name":"立川リハビリワークステーション立川","province":"東京都","city":"立川市","address":"東京都立川市富士見町7丁目33-3","lat":35.68979641,"lon":139.39872788},{"name":"一般社団法人栄福祉会就労継続支援Ｂ型キッチンさかえ","province":"東京都","city":"立川市","address":"東京都立川市栄町3丁目2","lat":35.7078311,"lon":139.42233085},{"name":"一般社団法人栄福祉会就労移行支援ソレイユ","province":"東京都","city":"立川市","address":"東京都立川市栄町3丁目2","lat":35.7078311,"lon":139.42233085},{"name":"一般社団法人栄福祉会サポーターズさかえ","province":"東京都","city":"立川市","address":"東京都立川市栄町3丁目2","lat":35.7078311,"lon":139.42233085},{"name":"株式会社友心就労継続支援Ｂ型わーくあっぷ立川","province":"東京都","city":"立川市","address":"東京都立川市曙町1丁目24-11","lat":35.70042046,"lon":139.4088405},{"name":"りは職人でい","province":"東京都","city":"立川市","address":"東京都立川市柴崎町3丁目18-29","lat":35.69289634,"lon":139.41026292},{"name":"東京都福祉人材センター多摩支所","province":"東京都","city":"立川市","address":"立川市曙町2-34-13オリンピック第3ビル7階","lat":35.702556,"lon":139.414673},{"name":"立川第２荘（2）","province":"東京都","city":"立川市","address":"立川市富士見町4-15-14","lat":35.69511,"lon":139.39961},{"name":"まんまる助産院","province":"東京都","city":"立川市","address":"立川市若葉町2-1-1","lat":35.718989,"lon":139.439493},{"name":"立川相互病院","province":"東京都","city":"立川市","address":"立川市錦町1-16-15","lat":35.696666,"lon":139.422442},{"name":"コーポ立川","province":"東京都","city":"立川市","address":"立川市錦町6-9-8","lat":35.688636,"lon":139.418079},{"name":"コーポ立川錦町","province":"東京都","city":"立川市","address":"立川市錦町6-2-5","lat":35.689736,"lon":139.418421},{"name":"立川第２荘","province":"東京都","city":"立川市","address":"立川市富士見町4-15-14","lat":35.694865,"lon":139.399303},{"name":"相互歯科","province":"東京都","city":"立川市","address":"立川市錦町1-17-10健生会歯科ビル","lat":35.696671,"lon":139.421801},{"name":"立川相互ふれあいクリニック","province":"東京都","city":"立川市","address":"立川市錦町1-23-4","lat":35.695991,"lon":139.422562},{"name":"立川相互病院","province":"東京都","city":"立川市","address":"立川市緑町4-1","lat":35.703626,"lon":139.413293},{"name":"立川市社会福祉協議会","province":"東京都","city":"立川市","address":"立川市富士見町2-36-47立川市総合福祉センター内","lat":35.701298,"lon":139.401802},{"name":"東京都福祉人材センター人材情報室多摩支所","province":"東京都","city":"立川市","address":"立川市曙町2-34-13オリンピック第3ビル7階","lat":35.702556,"lon":139.414673},{"name":"立川第２荘","province":"東京都","city":"立川市","address":"立川市富士見町4-15-14","lat":35.69511,"lon":139.39961},{"name":"さくら立川ハウス","province":"東京都","city":"立川市","address":"立川市錦町6-9-8","lat":35.6885,"lon":139.41768},{"name":"さくら立川錦町ハウス","province":"東京都","city":"立川市","address":"立川市錦町6-2-5","lat":35.68947,"lon":139.41811},{"name":"まんまる助産院","province":"東京都","city":"立川市","address":"立川市若葉町2-1-1","lat":35.71925,"lon":139.43961},{"name":"立川相互病院","province":"東京都","city":"立川市","address":"立川市錦町1-16-15","lat":35.69665,"lon":139.42239},{"name":"立川第２荘（２）","province":"東京都","city":"立川市","address":"立川市富士見町4-15-14","lat":35.69511,"lon":139.39961},{"name":"グランドール立川","province":"東京都","city":"立川市","address":"東京都立川市","lat":35.71401612,"lon":139.40784571},{"name":"グランドール立川２","province":"東京都","city":"立川市","address":"東京都立川市","lat":35.71401612,"lon":139.40784571},{"name":"立川市社会福祉協議会","province":"東京都","city":"立川市","address":"立川市富士見町2-36-47立川市総合福祉センター内","lat":35.70138,"lon":139.40184},{"name":"東京都福祉人材センター多摩支所","province":"東京都","city":"立川市","address":"立川市曙町2-34-13オリンピック第3ビル7階","lat":35.70255,"lon":139.41466},{"name":"立川リハビリワークステーション立川","province":"東京都","city":"立川市","address":"東京都立川市富士見町7丁目33-3","lat":35.68979641,"lon":139.39872788},{"name":"一般社団法人栄福祉会就労継続支援Ｂ型キッチンさかえ","province":"東京都","city":"立川市","address":"東京都立川市栄町3丁目2","lat":35.7078311,"lon":139.42233085},{"name":"一般社団法人栄福祉会就労移行支援ソレイユ","province":"東京都","city":"立川市","address":"東京都立川市栄町3丁目2","lat":35.7078311,"lon":139.42233085},{"name":"一般社団法人栄福祉会サポーターズさかえ","province":"東京都","city":"立川市","address":"東京都立川市栄町3丁目2","lat":35.7078311,"lon":139.42233085},{"name":"株式会社友心就労継続支援Ｂ型わーくあっぷ立川","province":"東京都","city":"立川市","address":"東京都立川市曙町1丁目24-11","lat":35.70042046,"lon":139.4088405},{"name":"りは職人でい","province":"東京都","city":"立川市","address":"東京都立川市柴崎町3丁目18-29","lat":35.69289634,"lon":139.41026292},{"name":"東京都福祉人材センター多摩支所","province":"東京都","city":"立川市","address":"立川市曙町2-34-13オリンピック第3ビル7階","lat":35.702556,"lon":139.414673},{"name":"立川第２荘（2）","province":"東京都","city":"立川市","address":"立川市富士見町4-15-14","lat":35.69511,"lon":139.39961},{"name":"まんまる助産院","province":"東京都","city":"立川市","address":"立川市若葉町2-1-1","lat":35.718989,"lon":139.439493},{"name":"立川相互病院","province":"東京都","city":"立川市","address":"立川市錦町1-16-15","lat":35.696666,"lon":139.422442},{"name":"コーポ立川","province":"東京都","city":"立川市","address":"立川市錦町6-9-8","lat":35.688636,"lon":139.418079},{"name":"コーポ立川錦町","province":"東京都","city":"立川市","address":"立川市錦町6-2-5","lat":35.689736,"lon":139.418421},{"name":"立川第２荘","province":"東京都","city":"立川市","address":"立川市富士見町4-15-14","lat":35.694865,"lon":139.399303},{"name":"相互歯科","province":"東京都","city":"立川市","address":"立川市錦町1-17-10健生会歯科ビル","lat":35.696671,"lon":139.421801},{"name":"立川相互ふれあいクリニック","province":"東京都","city":"立川市","address":"立川市錦町1-23-4","lat":35.695991,"lon":139.422562},{"name":"立川相互病院","province":"東京都","city":"立川市","address":"立川市緑町4-1","lat":35.703626,"lon":139.413293},{"name":"立川市社会福祉協議会","province":"東京都","city":"立川市","address":"立川市富士見町2-36-47立川市総合福祉センター内","lat":35.701298,"lon":139.401802},{"name":"東京都福祉人材センター人材情報室多摩支所","province":"東京都","city":"立川市","address":"立川市曙町2-34-13オリンピック第3ビル7階","lat":35.702556,"lon":139.414673},{"name":"立川第２荘","province":"東京都","city":"立川市","address":"立川市富士見町4-15-14","lat":35.69511,"lon":139.39961},{"name":"さくら立川ハウス","province":"東京都","city":"立川市","address":"立川市錦町6-9-8","lat":35.6885,"lon":139.41768},{"name":"さくら立川錦町ハウス","province":"東京都","city":"立川市","address":"立川市錦町6-2-5","lat":35.68947,"lon":139.41811},{"name":"まんまる助産院","province":"東京都","city":"立川市","address":"立川市若葉町2-1-1","lat":35.71925,"lon":139.43961},{"name":"立川相互病院","province":"東京都","city":"立川市","address":"立川市錦町1-16-15","lat":35.69665,"lon":139.42239},{"name":"立川第２荘（２）","province":"東京都","city":"立川市","address":"立川市富士見町4-15-14","lat":35.69511,"lon":139.39961},{"name":"グランドール立川","province":"東京都","city":"立川市","address":"東京都立川市","lat":35.71401612,"lon":139.40784571},{"name":"グランドール立川２","province":"東京都","city":"立川市","address":"東京都立川市","lat":35.71401612,"lon":139.40784571},{"name":"立川市社会福祉協議会","province":"東京都","city":"立川市","address":"立川市富士見町2-36-47立川市総合福祉センター内","lat":35.70138,"lon":139.40184},{"name":"東京都福祉人材センター多摩支所","province":"東京都","city":"立川市","address":"立川市曙町2-34-13オリンピック第3ビル7階","lat":35.70255,"lon":139.41466},{"name":"立川リハビリワークステーション立川","province":"東京都","city":"立川市","address":"東京都立川市富士見町7丁目33-3","lat":35.68979641,"lon":139.39872788},{"name":"一般社団法人栄福祉会就労継続支援Ｂ型キッチンさかえ","province":"東京都","city":"立川市","address":"東京都立川市栄町3丁目2","lat":35.7078311,"lon":139.42233085},{"name":"一般社団法人栄福祉会就労移行支援ソレイユ","province":"東京都","city":"立川市","address":"東京都立川市栄町3丁目2","lat":35.7078311,"lon":139.42233085},{"name":"一般社団法人栄福祉会サポーターズさかえ","province":"東京都","city":"立川市","address":"東京都立川市栄町3丁目2","lat":35.7078311,"lon":139.42233085},{"name":"株式会社友心就労継続支援Ｂ型わーくあっぷ立川","province":"東京都","city":"立川市","address":"東京都立川市曙町1丁目24-11","lat":35.70042046,"lon":139.4088405},{"name":"りは職人でい","province":"東京都","city":"立川市","address":"東京都立川市柴崎町3丁目18-29","lat":35.69289634,"lon":139.41026292},{"name":"東京都福祉人材センター多摩支所","province":"東京都","city":"立川市","address":"立川市曙町2-34-13オリンピック第3ビル7階","lat":35.702556,"lon":139.414673},{"name":"立川第２荘（2）","province":"東京都","city":"立川市","address":"立川市富士見町4-15-14","lat":35.69511,"lon":139.39961},{"name":"まんまる助産院","province":"東京都","city":"立川市","address":"立川市若葉町2-1-1","lat":35.718989,"lon":139.439493},{"name":"立川相互病院","province":"東京都","city":"立川市","address":"立川市錦町1-16-15","lat":35.696666,"lon":139.422442},{"name":"コーポ立川","province":"東京都","city":"立川市","address":"立川市錦町6-9-8","lat":35.688636,"lon":139.418079},{"name":"コーポ立川錦町","province":"東京都","city":"立川市","address":"立川市錦町6-2-5","lat":35.689736,"lon":139.418421},{"name":"立川第２荘","province":"東京都","city":"立川市","address":"立川市富士見町4-15-14","lat":35.694865,"lon":139.399303},{"name":"相互歯科","province":"東京都","city":"立川市","address":"立川市錦町1-17-10健生会歯科ビル","lat":35.696671,"lon":139.421801},{"name":"立川相互ふれあいクリニック","province":"東京都","city":"立川市","address":"立川市錦町1-23-4","lat":35.695991,"lon":139.422562},{"name":"立川相互病院","province":"東京都","city":"立川市","address":"立川市緑町4-1","lat":35.703626,"lon":139.413293},{"name":"立川市社会福祉協議会","province":"東京都","city":"立川市","address":"立川市富士見町2-36-47立川市総合福祉センター内","lat":35.701298,"lon":139.401802},{"name":"東京都福祉人材センター人材情報室多摩支所","province":"東京都","city":"立川市","address":"立川市曙町2-34-13オリンピック第3ビル7階","lat":35.702556,"lon":139.414673},{"name":"立川第２荘","province":"東京都","city":"立川市","address":"立川市富士見町4-15-14","lat":35.69511,"lon":139.39961},{"name":"さくら立川ハウス","province":"東京都","city":"立川市","address":"立川市錦町6-9-8","lat":35.6885,"lon":139.41768},{"name":"さくら立川錦町ハウス","province":"東京都","city":"立川市","address":"立川市錦町6-2-5","lat":35.68947,"lon":139.41811},{"name":"まんまる助産院","province":"東京都","city":"立川市","address":"立川市若葉町2-1-1","lat":35.71925,"lon":139.43961},{"name":"立川相互病院","province":"東京都","city":"立川市","address":"立川市錦町1-16-15","lat":35.69665,"lon":139.42239},{"name":"立川第２荘（２）","province":"東京都","city":"立川市","address":"立川市富士見町4-15-14","lat":35.69511,"lon":139.39961},{"name":"グランドール立川","province":"東京都","city":"立川市","address":"東京都立川市","lat":35.71401612,"lon":139.40784571},{"name":"グランドール立川２","province":"東京都","city":"立川市","address":"東京都立川市","lat":35.71401612,"lon":139.40784571},{"name":"立川市社会福祉協議会","province":"東京都","city":"立川市","address":"立川市富士見町2-36-47立川市総合福祉センター内","lat":35.70138,"lon":139.40184},{"name":"東京都福祉人材センター多摩支所","province":"東京都","city":"立川市","address":"立川市曙町2-34-13オリンピック第3ビル7階","lat":35.70255,"lon":139.41466},{"name":"立川リハビリワークステーション立川","province":"東京都","city":"立川市","address":"東京都立川市富士見町7丁目33-3","lat":35.68979641,"lon":139.39872788},{"name":"一般社団法人栄福祉会就労継続支援Ｂ型キッチンさかえ","province":"東京都","city":"立川市","address":"東京都立川市栄町3丁目2","lat":35.7078311,"lon":139.42233085},{"name":"一般社団法人栄福祉会就労移行支援ソレイユ","province":"東京都","city":"立川市","address":"東京都立川市栄町3丁目2","lat":35.7078311,"lon":139.42233085},{"name":"一般社団法人栄福祉会サポーターズさかえ","province":"東京都","city":"立川市","address":"東京都立川市栄町3丁目2","lat":35.7078311,"lon":139.42233085},{"name":"株式会社友心就労継続支援Ｂ型わーくあっぷ立川","province":"東京都","city":"立川市","address":"東京都立川市曙町1丁目24-11","lat":35.70042046,"lon":139.4088405},{"name":"りは職人でい","province":"東京都","city":"立川市","address":"東京都立川市柴崎町3丁目18-29","lat":35.69289634,"lon":139.41026292},{"name":"東京都福祉人材センター多摩支所","province":"東京都","city":"立川市","address":"立川市曙町2-34-13オリンピック第3ビル7階","lat":35.702556,"lon":139.414673},{"name":"立川第２荘（2）","province":"東京都","city":"立川市","address":"立川市富士見町4-15-14","lat":35.69511,"lon":139.39961},{"name":"まんまる助産院","province":"東京都","city":"立川市","address":"立川市若葉町2-1-1","lat":35.718989,"lon":139.439493},{"name":"立川相互病院","province":"東京都","city":"立川市","address":"立川市錦町1-16-15","lat":35.696666,"lon":139.422442},{"name":"コーポ立川","province":"東京都","city":"立川市","address":"立川市錦町6-9-8","lat":35.688636,"lon":139.418079},{"name":"コーポ立川錦町","province":"東京都","city":"立川市","address":"立川市錦町6-2-5","lat":35.689736,"lon":139.418421},{"name":"立川第２荘","province":"東京都","city":"立川市","address":"立川市富士見町4-15-14","lat":35.694865,"lon":139.399303},{"name":"相互歯科","province":"東京都","city":"立川市","address":"立川市錦町1-17-10健生会歯科ビル","lat":35.696671,"lon":139.421801},{"name":"立川相互ふれあいクリニック","province":"東京都","city":"立川市","address":"立川市錦町1-23-4","lat":35.695991,"lon":139.422562},{"name":"立川相互病院","province":"東京都","city":"立川市","address":"立川市緑町4-1","lat":35.703626,"lon":139.413293},{"name":"立川市社会福祉協議会","province":"東京都","city":"立川市","address":"立川市富士見町2-36-47立川市総合福祉センター内","lat":35.701298,"lon":139.401802},{"name":"東京都福祉人材センター人材情報室多摩支所","province":"東京都","city":"立川市","address":"立川市曙町2-34-13オリンピック第3ビル7階","lat":35.702556,"lon":139.414673},{"name":"立川第２荘","province":"東京都","city":"立川市","address":"立川市富士見町4-15-14","lat":35.69511,"lon":139.39961},{"name":"さくら立川ハウス","province":"東京都","city":"立川市","address":"立川市錦町6-9-8","lat":35.6885,"lon":139.41768},{"name":"さくら立川錦町ハウス","province":"東京都","city":"立川市","address":"立川市錦町6-2-5","lat":35.68947,"lon":139.41811},{"name":"まんまる助産院","province":"東京都","city":"立川市","address":"立川市若葉町2-1-1","lat":35.71925,"lon":139.43961},{"name":"立川相互病院","province":"東京都","city":"立川市","address":"立川市錦町1-16-15","lat":35.69665,"lon":139.42239},{"name":"立川第２荘（２）","province":"東京都","city":"立川市","address":"立川市富士見町4-15-14","lat":35.69511,"lon":139.39961},{"name":"グランドール立川","province":"東京都","city":"立川市","address":"東京都立川市","lat":35.71401612,"lon":139.40784571},{"name":"グランドール立川２","province":"東京都","city":"立川市","address":"東京都立川市","lat":35.71401612,"lon":139.40784571},{"name":"立川市社会福祉協議会","province":"東京都","city":"立川市","address":"立川市富士見町2-36-47立川市総合福祉センター内","lat":35.70138,"lon":139.40184},{"name":"東京都福祉人材センター多摩支所","province":"東京都","city":"立川市","address":"立川市曙町2-34-13オリンピック第3ビル7階","lat":35.70255,"lon":139.41466},{"name":"立川リハビリワークステーション立川","province":"東京都","city":"立川市","address":"東京都立川市富士見町7丁目33-3","lat":35.68979641,"lon":139.39872788},{"name":"一般社団法人栄福祉会就労継続支援Ｂ型キッチンさかえ","province":"東京都","city":"立川市","address":"東京都立川市栄町3丁目2","lat":35.7078311,"lon":139.42233085},{"name":"一般社団法人栄福祉会就労移行支援ソレイユ","province":"東京都","city":"立川市","address":"東京都立川市栄町3丁目2","lat":35.7078311,"lon":139.42233085},{"name":"一般社団法人栄福祉会サポーターズさかえ","province":"東京都","city":"立川市","address":"東京都立川市栄町3丁目2","lat":35.7078311,"lon":139.42233085},{"name":"株式会社友心就労継続支援Ｂ型わーくあっぷ立川","province":"東京都","city":"立川市","address":"東京都立川市曙町1丁目24-11","lat":35.70042046,"lon":139.4088405},{"name":"りは職人でい","province":"東京都","city":"立川市","address":"東京都立川市柴崎町3丁目18-29","lat":35.69289634,"lon":139.41026292},{"name":"東京都福祉人材センター多摩支所","province":"東京都","city":"立川市","address":"立川市曙町2-34-13オリンピック第3ビル7階","lat":35.702556,"lon":139.414673},{"name":"立川第２荘（2）","province":"東京都","city":"立川市","address":"立川市富士見町4-15-14","lat":35.69511,"lon":139.39961},{"name":"まんまる助産院","province":"東京都","city":"立川市","address":"立川市若葉町2-1-1","lat":35.718989,"lon":139.439493},{"name":"立川相互病院","province":"東京都","city":"立川市","address":"立川市錦町1-16-15","lat":35.696666,"lon":139.422442},{"name":"コーポ立川","province":"東京都","city":"立川市","address":"立川市錦町6-9-8","lat":35.688636,"lon":139.418079},{"name":"コーポ立川錦町","province":"東京都","city":"立川市","address":"立川市錦町6-2-5","lat":35.689736,"lon":139.418421},{"name":"立川第２荘","province":"東京都","city":"立川市","address":"立川市富士見町4-15-14","lat":35.694865,"lon":139.399303},{"name":"相互歯科","province":"東京都","city":"立川市","address":"立川市錦町1-17-10健生会歯科ビル","lat":35.696671,"lon":139.421801},{"name":"立川相互ふれあいクリニック","province":"東京都","city":"立川市","address":"立川市錦町1-23-4","lat":35.695991,"lon":139.422562},{"name":"立川相互病院","province":"東京都","city":"立川市","address":"立川市緑町4-1","lat":35.703626,"lon":139.413293},{"name":"立川市社会福祉協議会","province":"東京都","city":"立川市","address":"立川市富士見町2-36-47立川市総合福祉センター内","lat":35.701298,"lon":139.401802},{"name":"東京都福祉人材センター人材情報室多摩支所","province":"東京都","city":"立川市","address":"立川市曙町2-34-13オリンピック第3ビル7階","lat":35.702556,"lon":139.414673},{"name":"立川第２荘","province":"東京都","city":"立川市","address":"立川市富士見町4-15-14","lat":35.69511,"lon":139.39961},{"name":"さくら立川ハウス","province":"東京都","city":"立川市","address":"立川市錦町6-9-8","lat":35.6885,"lon":139.41768},{"name":"さくら立川錦町ハウス","province":"東京都","city":"立川市","address":"立川市錦町6-2-5","lat":35.68947,"lon":139.41811},{"name":"まんまる助産院","province":"東京都","city":"立川市","address":"立川市若葉町2-1-1","lat":35.71925,"lon":139.43961},{"name":"立川相互病院","province":"東京都","city":"立川市","address":"立川市錦町1-16-15","lat":35.69665,"lon":139.42239},{"name":"立川第２荘（２）","province":"東京都","city":"立川市","address":"立川市富士見町4-15-14","lat":35.69511,"lon":139.39961},{"name":"グランドール立川","province":"東京都","city":"立川市","address":"東京都立川市","lat":35.71401612,"lon":139.40784571},{"name":"グランドール立川２","province":"東京都","city":"立川市","address":"東京都立川市","lat":35.71401612,"lon":139.40784571},{"name":"立川市社会福祉協議会","province":"東京都","city":"立川市","address":"立川市富士見町2-36-47立川市総合福祉センター内","lat":35.70138,"lon":139.40184},{"name":"東京都福祉人材センター多摩支所","province":"東京都","city":"立川市","address":"立川市曙町2-34-13オリンピック第3ビル7階","lat":35.70255,"lon":139.41466},{"name":"立川リハビリワークステーション立川","province":"東京都","city":"立川市","address":"東京都立川市富士見町7丁目33-3","lat":35.68979641,"lon":139.39872788},{"name":"一般社団法人栄福祉会就労継続支援Ｂ型キッチンさかえ","province":"東京都","city":"立川市","address":"東京都立川市栄町3丁目2","lat":35.7078311,"lon":139.42233085},{"name":"一般社団法人栄福祉会就労移行支援ソレイユ","province":"東京都","city":"立川市","address":"東京都立川市栄町3丁目2","lat":35.7078311,"lon":139.42233085},{"name":"一般社団法人栄福祉会サポーターズさかえ","province":"東京都","city":"立川市","address":"東京都立川市栄町3丁目2","lat":35.7078311,"lon":139.42233085},{"name":"株式会社友心就労継続支援Ｂ型わーくあっぷ立川","province":"東京都","city":"立川市","address":"東京都立川市曙町1丁目24-11","lat":35.70042046,"lon":139.4088405},{"name":"りは職人でい","province":"東京都","city":"立川市","address":"東京都立川市柴崎町3丁目18-29","lat":35.69289634,"lon":139.41026292},{"name":"東京都福祉人材センター多摩支所","province":"東京都","city":"立川市","address":"立川市曙町2-34-13オリンピック第3ビル7階","lat":35.702556,"lon":139.414673},{"name":"立川第２荘（2）","province":"東京都","city":"立川市","address":"立川市富士見町4-15-14","lat":35.69511,"lon":139.39961},{"name":"まんまる助産院","province":"東京都","city":"立川市","address":"立川市若葉町2-1-1","lat":35.718989,"lon":139.439493},{"name":"立川相互病院","province":"東京都","city":"立川市","address":"立川市錦町1-16-15","lat":35.696666,"lon":139.422442},{"name":"コーポ立川","province":"東京都","city":"立川市","address":"立川市錦町6-9-8","lat":35.688636,"lon":139.418079},{"name":"コーポ立川錦町","province":"東京都","city":"立川市","address":"立川市錦町6-2-5","lat":35.689736,"lon":139.418421},{"name":"立川第２荘","province":"東京都","city":"立川市","address":"立川市富士見町4-15-14","lat":35.694865,"lon":139.399303},{"name":"相互歯科","province":"東京都","city":"立川市","address":"立川市錦町1-17-10健生会歯科ビル","lat":35.696671,"lon":139.421801},{"name":"立川相互ふれあいクリニック","province":"東京都","city":"立川市","address":"立川市錦町1-23-4","lat":35.695991,"lon":139.422562},{"name":"立川相互病院","province":"東京都","city":"立川市","address":"立川市緑町4-1","lat":35.703626,"lon":139.413293},{"name":"立川市社会福祉協議会","province":"東京都","city":"立川市","address":"立川市富士見町2-36-47立川市総合福祉センター内","lat":35.701298,"lon":139.401802},{"name":"東京都福祉人材センター人材情報室多摩支所","province":"東京都","city":"立川市","address":"立川市曙町2-34-13オリンピック第3ビル7階","lat":35.702556,"lon":139.414673},{"name":"立川第２荘","province":"東京都","city":"立川市","address":"立川市富士見町4-15-14","lat":35.69511,"lon":139.39961},{"name":"さくら立川ハウス","province":"東京都","city":"立川市","address":"立川市錦町6-9-8","lat":35.6885,"lon":139.41768},{"name":"さくら立川錦町ハウス","province":"東京都","city":"立川市","address":"立川市錦町6-2-5","lat":35.68947,"lon":139.41811},{"name":"まんまる助産院","province":"東京都","city":"立川市","address":"立川市若葉町2-1-1","lat":35.71925,"lon":139.43961},{"name":"立川相互病院","province":"東京都","city":"立川市","address":"立川市錦町1-16-15","lat":35.69665,"lon":139.42239},{"name":"立川第２荘（２）","province":"東京都","city":"立川市","address":"立川市富士見町4-15-14","lat":35.69511,"lon":139.39961},{"name":"グランドール立川","province":"東京都","city":"立川市","address":"東京都立川市","lat":35.71401612,"lon":139.40784571},{"name":"グランドール立川２","province":"東京都","city":"立川市","address":"東京都立川市","lat":35.71401612,"lon":139.40784571},{"name":"立川市社会福祉協議会","province":"東京都","city":"立川市","address":"立川市富士見町2-36-47立川市総合福祉センター内","lat":35.70138,"lon":139.40184},{"name":"東京都福祉人材センター多摩支所","province":"東京都","city":"立川市","address":"立川市曙町2-34-13オリンピック第3ビル7階","lat":35.70255,"lon":139.41466},{"name":"立川リハビリワークステーション立川","province":"東京都","city":"立川市","address":"東京都立川市富士見町7丁目33-3","lat":35.68979641,"lon":139.39872788},{"name":"一般社団法人栄福祉会就労継続支援Ｂ型キッチンさかえ","province":"東京都","city":"立川市","address":"東京都立川市栄町3丁目2","lat":35.7078311,"lon":139.42233085},{"name":"一般社団法人栄福祉会就労移行支援ソレイユ","province":"東京都","city":"立川市","address":"東京都立川市栄町3丁目2","lat":35.7078311,"lon":139.42233085},{"name":"一般社団法人栄福祉会サポーターズさかえ","province":"東京都","city":"立川市","address":"東京都立川市栄町3丁目2","lat":35.7078311,"lon":139.42233085},{"name":"株式会社友心就労継続支援Ｂ型わーくあっぷ立川","province":"東京都","city":"立川市","address":"東京都立川市曙町1丁目24-11","lat":35.70042046,"lon":139.4088405},{"name":"りは職人でい","province":"東京都","city":"立川市","address":"東京都立川市柴崎町3丁目18-29","lat":35.69289634,"lon":139.41026292},{"name":"東京都福祉人材センター多摩支所","province":"東京都","city":"立川市","address":"立川市曙町2-34-13オリンピック第3ビル7階","lat":35.702556,"lon":139.414673},{"name":"立川第２荘（2）","province":"東京都","city":"立川市","address":"立川市富士見町4-15-14","lat":35.69511,"lon":139.39961},{"name":"まんまる助産院","province":"東京都","city":"立川市","address":"立川市若葉町2-1-1","lat":35.718989,"lon":139.439493},{"name":"立川相互病院","province":"東京都","city":"立川市","address":"立川市錦町1-16-15","lat":35.696666,"lon":139.422442},{"name":"コーポ立川","province":"東京都","city":"立川市","address":"立川市錦町6-9-8","lat":35.688636,"lon":139.418079},{"name":"コーポ立川錦町","province":"東京都","city":"立川市","address":"立川市錦町6-2-5","lat":35.689736,"lon":139.418421},{"name":"立川第２荘","province":"東京都","city":"立川市","address":"立川市富士見町4-15-14","lat":35.694865,"lon":139.399303},{"name":"相互歯科","province":"東京都","city":"立川市","address":"立川市錦町1-17-10健生会歯科ビル","lat":35.696671,"lon":139.421801},{"name":"立川相互ふれあいクリニック","province":"東京都","city":"立川市","address":"立川市錦町1-23-4","lat":35.695991,"lon":139.422562},{"name":"立川相互病院","province":"東京都","city":"立川市","address":"立川市緑町4-1","lat":35.703626,"lon":139.413293},{"name":"立川市社会福祉協議会","province":"東京都","city":"立川市","address":"立川市富士見町2-36-47立川市総合福祉センター内","lat":35.701298,"lon":139.401802},{"name":"東京都福祉人材センター人材情報室多摩支所","province":"東京都","city":"立川市","address":"立川市曙町2-34-13オリンピック第3ビル7階","lat":35.702556,"lon":139.414673},{"name":"立川第２荘","province":"東京都","city":"立川市","address":"立川市富士見町4-15-14","lat":35.69511,"lon":139.39961},{"name":"さくら立川ハウス","province":"東京都","city":"立川市","address":"立川市錦町6-9-8","lat":35.6885,"lon":139.41768},{"name":"さくら立川錦町ハウス","province":"東京都","city":"立川市","address":"立川市錦町6-2-5","lat":35.68947,"lon":139.41811},{"name":"まんまる助産院","province":"東京都","city":"立川市","address":"立川市若葉町2-1-1","lat":35.71925,"lon":139.43961},{"name":"立川相互病院","province":"東京都","city":"立川市","address":"立川市錦町1-16-15","lat":35.69665,"lon":139.42239},{"name":"立川第２荘（２）","province":"東京都","city":"立川市","address":"立川市富士見町4-15-14","lat":35.69511,"lon":139.39961},{"name":"グランドール立川","province":"東京都","city":"立川市","address":"東京都立川市","lat":35.71401612,"lon":139.40784571},{"name":"グランドール立川２","province":"東京都","city":"立川市","address":"東京都立川市","lat":35.71401612,"lon":139.40784571},{"name":"立川市社会福祉協議会","province":"東京都","city":"立川市","address":"立川市富士見町2-36-47立川市総合福祉センター内","lat":35.70138,"lon":139.40184},{"name":"東京都福祉人材センター多摩支所","province":"東京都","city":"立川市","address":"立川市曙町2-34-13オリンピック第3ビル7階","lat":35.70255,"lon":139.41466},{"name":"立川リハビリワークステーション立川","province":"東京都","city":"立川市","address":"東京都立川市富士見町7丁目33-3","lat":35.68979641,"lon":139.39872788},{"name":"一般社団法人栄福祉会就労継続支援Ｂ型キッチンさかえ","province":"東京都","city":"立川市","address":"東京都立川市栄町3丁目2","lat":35.7078311,"lon":139.42233085},{"name":"一般社団法人栄福祉会就労移行支援ソレイユ","province":"東京都","city":"立川市","address":"東京都立川市栄町3丁目2","lat":35.7078311,"lon":139.42233085},{"name":"一般社団法人栄福祉会サポーターズさかえ","province":"東京都","city":"立川市","address":"東京都立川市栄町3丁目2","lat":35.7078311,"lon":139.42233085},{"name":"株式会社友心就労継続支援Ｂ型わーくあっぷ立川","province":"東京都","city":"立川市","address":"東京都立川市曙町1丁目24-11","lat":35.70042046,"lon":139.4088405},{"name":"りは職人でい","province":"東京都","city":"立川市","address":"東京都立川市柴崎町3丁目18-29","lat":35.69289634,"lon":139.41026292},{"name":"東京都福祉人材センター多摩支所","province":"東京都","city":"立川市","address":"立川市曙町2-34-13オリンピック第3ビル7階","lat":35.702556,"lon":139.414673},{"name":"立川第２荘（2）","province":"東京都","city":"立川市","address":"立川市富士見町4-15-14","lat":35.69511,"lon":139.39961},{"name":"まんまる助産院","province":"東京都","city":"立川市","address":"立川市若葉町2-1-1","lat":35.718989,"lon":139.439493},{"name":"立川相互病院","province":"東京都","city":"立川市","address":"立川市錦町1-16-15","lat":35.696666,"lon":139.422442},{"name":"コーポ立川","province":"東京都","city":"立川市","address":"立川市錦町6-9-8","lat":35.688636,"lon":139.418079},{"name":"コーポ立川錦町","province":"東京都","city":"立川市","address":"立川市錦町6-2-5","lat":35.689736,"lon":139.418421},{"name":"立川第２荘","province":"東京都","city":"立川市","address":"立川市富士見町4-15-14","lat":35.694865,"lon":139.399303},{"name":"相互歯科","province":"東京都","city":"立川市","address":"立川市錦町1-17-10健生会歯科ビル","lat":35.696671,"lon":139.421801},{"name":"立川相互ふれあいクリニック","province":"東京都","city":"立川市","address":"立川市錦町1-23-4","lat":35.695991,"lon":139.422562},{"name":"立川相互病院","province":"東京都","city":"立川市","address":"立川市緑町4-1","lat":35.703626,"lon":139.413293},{"name":"立川市社会福祉協議会","province":"東京都","city":"立川市","address":"立川市富士見町2-36-47立川市総合福祉センター内","lat":35.701298,"lon":139.401802},{"name":"東京都福祉人材センター人材情報室多摩支所","province":"東京都","city":"立川市","address":"立川市曙町2-34-13オリンピック第3ビル7階","lat":35.702556,"lon":139.414673},{"name":"立川第２荘","province":"東京都","city":"立川市","address":"立川市富士見町4-15-14","lat":35.69511,"lon":139.39961},{"name":"さくら立川ハウス","province":"東京都","city":"立川市","address":"立川市錦町6-9-8","lat":35.6885,"lon":139.41768},{"name":"さくら立川錦町ハウス","province":"東京都","city":"立川市","address":"立川市錦町6-2-5","lat":35.68947,"lon":139.41811},{"name":"まんまる助産院","province":"東京都","city":"立川市","address":"立川市若葉町2-1-1","lat":35.71925,"lon":139.43961},{"name":"立川相互病院","province":"東京都","city":"立川市","address":"立川市錦町1-16-15","lat":35.69665,"lon":139.42239},{"name":"立川第２荘（２）","province":"東京都","city":"立川市","address":"立川市富士見町4-15-14","lat":35.69511,"lon":139.39961},{"name":"グランドール立川","province":"東京都","city":"立川市","address":"東京都立川市","lat":35.71401612,"lon":139.40784571},{"name":"グランドール立川２","province":"東京都","city":"立川市","address":"東京都立川市","lat":35.71401612,"lon":139.40784571},{"name":"立川市社会福祉協議会","province":"東京都","city":"立川市","address":"立川市富士見町2-36-47立川市総合福祉センター内","lat":35.70138,"lon":139.40184},{"name":"東京都福祉人材センター多摩支所","province":"東京都","city":"立川市","address":"立川市曙町2-34-13オリンピック第3ビル7階","lat":35.70255,"lon":139.41466},{"name":"立川リハビリワークステーション立川","province":"東京都","city":"立川市","address":"東京都立川市富士見町7丁目33-3","lat":35.68979641,"lon":139.39872788},{"name":"一般社団法人栄福祉会就労継続支援Ｂ型キッチンさかえ","province":"東京都","city":"立川市","address":"東京都立川市栄町3丁目2","lat":35.7078311,"lon":139.42233085},{"name":"一般社団法人栄福祉会就労移行支援ソレイユ","province":"東京都","city":"立川市","address":"東京都立川市栄町3丁目2","lat":35.7078311,"lon":139.42233085},{"name":"一般社団法人栄福祉会サポーターズさかえ","province":"東京都","city":"立川市","address":"東京都立川市栄町3丁目2","lat":35.7078311,"lon":139.42233085},{"name":"株式会社友心就労継続支援Ｂ型わーくあっぷ立川","province":"東京都","city":"立川市","address":"東京都立川市曙町1丁目24-11","lat":35.70042046,"lon":139.4088405},{"name":"りは職人でい","province":"東京都","city":"立川市","address":"東京都立川市柴崎町3丁目18-29","lat":35.69289634,"lon":139.41026292},{"name":"東京都福祉人材センター多摩支所","province":"東京都","city":"立川市","address":"立川市曙町2-34-13オリンピック第3ビル7階","lat":35.702556,"lon":139.414673},{"name":"立川第２荘（2）","province":"東京都","city":"立川市","address":"立川市富士見町4-15-14","lat":35.69511,"lon":139.39961},{"name":"まんまる助産院","province":"東京都","city":"立川市","address":"立川市若葉町2-1-1","lat":35.718989,"lon":139.439493},{"name":"立川相互病院","province":"東京都","city":"立川市","address":"立川市錦町1-16-15","lat":35.696666,"lon":139.422442},{"name":"コーポ立川","province":"東京都","city":"立川市","address":"立川市錦町6-9-8","lat":35.688636,"lon":139.418079},{"name":"コーポ立川錦町","province":"東京都","city":"立川市","address":"立川市錦町6-2-5","lat":35.689736,"lon":139.418421},{"name":"立川第２荘","province":"東京都","city":"立川市","address":"立川市富士見町4-15-14","lat":35.694865,"lon":139.399303},{"name":"相互歯科","province":"東京都","city":"立川市","address":"立川市錦町1-17-10健生会歯科ビル","lat":35.696671,"lon":139.421801},{"name":"立川相互ふれあいクリニック","province":"東京都","city":"立川市","address":"立川市錦町1-23-4","lat":35.695991,"lon":139.422562},{"name":"立川相互病院","province":"東京都","city":"立川市","address":"立川市緑町4-1","lat":35.703626,"lon":139.413293},{"name":"立川市社会福祉協議会","province":"東京都","city":"立川市","address":"立川市富士見町2-36-47立川市総合福祉センター内","lat":35.701298,"lon":139.401802},{"name":"東京都福祉人材センター人材情報室多摩支所","province":"東京都","city":"立川市","address":"立川市曙町2-34-13オリンピック第3ビル7階","lat":35.702556,"lon":139.414673},{"name":"立川第２荘","province":"東京都","city":"立川市","address":"立川市富士見町4-15-14","lat":35.69511,"lon":139.39961},{"name":"さくら立川ハウス","province":"東京都","city":"立川市","address":"立川市錦町6-9-8","lat":35.6885,"lon":139.41768},{"name":"さくら立川錦町ハウス","province":"東京都","city":"立川市","address":"立川市錦町6-2-5","lat":35.68947,"lon":139.41811},{"name":"まんまる助産院","province":"東京都","city":"立川市","address":"立川市若葉町2-1-1","lat":35.71925,"lon":139.43961},{"name":"立川相互病院","province":"東京都","city":"立川市","address":"立川市錦町1-16-15","lat":35.69665,"lon":139.42239},{"name":"立川第２荘（２）","province":"東京都","city":"立川市","address":"立川市富士見町4-15-14","lat":35.69511,"lon":139.39961},{"name":"グランドール立川","province":"東京都","city":"立川市","address":"東京都立川市","lat":35.71401612,"lon":139.40784571},{"name":"グランドール立川２","province":"東京都","city":"立川市","address":"東京都立川市","lat":35.71401612,"lon":139.40784571},{"name":"立川市社会福祉協議会","province":"東京都","city":"立川市","address":"立川市富士見町2-36-47立川市総合福祉センター内","lat":35.70138,"lon":139.40184},{"name":"東京都福祉人材センター多摩支所","province":"東京都","city":"立川市","address":"立川市曙町2-34-13オリンピック第3ビル7階","lat":35.70255,"lon":139.41466},{"name":"立川リハビリワークステーション立川","province":"東京都","city":"立川市","address":"東京都立川市富士見町7丁目33-3","lat":35.68979641,"lon":139.39872788},{"name":"一般社団法人栄福祉会就労継続支援Ｂ型キッチンさかえ","province":"東京都","city":"立川市","address":"東京都立川市栄町3丁目2","lat":35.7078311,"lon":139.42233085},{"name":"一般社団法人栄福祉会就労移行支援ソレイユ","province":"東京都","city":"立川市","address":"東京都立川市栄町3丁目2","lat":35.7078311,"lon":139.42233085},{"name":"一般社団法人栄福祉会サポーターズさかえ","province":"東京都","city":"立川市","address":"東京都立川市栄町3丁目2","lat":35.7078311,"lon":139.42233085},{"name":"株式会社友心就労継続支援Ｂ型わーくあっぷ立川","province":"東京都","city":"立川市","address":"東京都立川市曙町1丁目24-11","lat":35.70042046,"lon":139.4088405},{"name":"りは職人でい","province":"東京都","city":"立川市","address":"東京都立川市柴崎町3丁目18-29","lat":35.69289634,"lon":139.41026292},{"name":"東京都福祉人材センター多摩支所","province":"東京都","city":"立川市","address":"立川市曙町2-34-13オリンピック第3ビル7階","lat":35.702556,"lon":139.414673},{"name":"立川第２荘（2）","province":"東京都","city":"立川市","address":"立川市富士見町4-15-14","lat":35.69511,"lon":139.39961},{"name":"まんまる助産院","province":"東京都","city":"立川市","address":"立川市若葉町2-1-1","lat":35.718989,"lon":139.439493},{"name":"立川相互病院","province":"東京都","city":"立川市","address":"立川市錦町1-16-15","lat":35.696666,"lon":139.422442},{"name":"コーポ立川","province":"東京都","city":"立川市","address":"立川市錦町6-9-8","lat":35.688636,"lon":139.418079},{"name":"コーポ立川錦町","province":"東京都","city":"立川市","address":"立川市錦町6-2-5","lat":35.689736,"lon":139.418421},{"name":"立川第２荘","province":"東京都","city":"立川市","address":"立川市富士見町4-15-14","lat":35.694865,"lon":139.399303},{"name":"相互歯科","province":"東京都","city":"立川市","address":"立川市錦町1-17-10健生会歯科ビル","lat":35.696671,"lon":139.421801},{"name":"立川相互ふれあいクリニック","province":"東京都","city":"立川市","address":"立川市錦町1-23-4","lat":35.695991,"lon":139.422562},{"name":"立川相互病院","province":"東京都","city":"立川市","address":"立川市緑町4-1","lat":35.703626,"lon":139.413293},{"name":"立川市社会福祉協議会","province":"東京都","city":"立川市","address":"立川市富士見町2-36-47立川市総合福祉センター内","lat":35.701298,"lon":139.401802},{"name":"東京都福祉人材センター人材情報室多摩支所","province":"東京都","city":"立川市","address":"立川市曙町2-34-13オリンピック第3ビル7階","lat":35.702556,"lon":139.414673},{"name":"立川第２荘","province":"東京都","city":"立川市","address":"立川市富士見町4-15-14","lat":35.69511,"lon":139.39961},{"name":"さくら立川ハウス","province":"東京都","city":"立川市","address":"立川市錦町6-9-8","lat":35.6885,"lon":139.41768},{"name":"さくら立川錦町ハウス","province":"東京都","city":"立川市","address":"立川市錦町6-2-5","lat":35.68947,"lon":139.41811},{"name":"まんまる助産院","province":"東京都","city":"立川市","address":"立川市若葉町2-1-1","lat":35.71925,"lon":139.43961},{"name":"立川相互病院","province":"東京都","city":"立川市","address":"立川市錦町1-16-15","lat":35.69665,"lon":139.42239},{"name":"立川第２荘（２）","province":"東京都","city":"立川市","address":"立川市富士見町4-15-14","lat":35.69511,"lon":139.39961},{"name":"グランドール立川","province":"東京都","city":"立川市","address":"東京都立川市","lat":35.71401612,"lon":139.40784571},{"name":"グランドール立川２","province":"東京都","city":"立川市","address":"東京都立川市","lat":35.71401612,"lon":139.40784571},{"name":"立川市社会福祉協議会","province":"東京都","city":"立川市","address":"立川市富士見町2-36-47立川市総合福祉センター内","lat":35.70138,"lon":139.40184},{"name":"東京都福祉人材センター多摩支所","province":"東京都","city":"立川市","address":"立川市曙町2-34-13オリンピック第3ビル7階","lat":35.70255,"lon":139.41466},{"name":"立川リハビリワークステーション立川","province":"東京都","city":"立川市","address":"東京都立川市富士見町7丁目33-3","lat":35.68979641,"lon":139.39872788},{"name":"一般社団法人栄福祉会就労継続支援Ｂ型キッチンさかえ","province":"東京都","city":"立川市","address":"東京都立川市栄町3丁目2","lat":35.7078311,"lon":139.42233085},{"name":"一般社団法人栄福祉会就労移行支援ソレイユ","province":"東京都","city":"立川市","address":"東京都立川市栄町3丁目2","lat":35.7078311,"lon":139.42233085},{"name":"一般社団法人栄福祉会サポーターズさかえ","province":"東京都","city":"立川市","address":"東京都立川市栄町3丁目2","lat":35.7078311,"lon":139.42233085},{"name":"株式会社友心就労継続支援Ｂ型わーくあっぷ立川","province":"東京都","city":"立川市","address":"東京都立川市曙町1丁目24-11","lat":35.70042046,"lon":139.4088405},{"name":"りは職人でい","province":"東京都","city":"立川市","address":"東京都立川市柴崎町3丁目18-29","lat":35.69289634,"lon":139.41026292},{"name":"東京都福祉人材センター多摩支所","province":"東京都","city":"立川市","address":"立川市曙町2-34-13オリンピック第3ビル7階","lat":35.702556,"lon":139.414673},{"name":"立川第２荘（2）","province":"東京都","city":"立川市","address":"立川市富士見町4-15-14","lat":35.69511,"lon":139.39961},{"name":"まんまる助産院","province":"東京都","city":"立川市","address":"立川市若葉町2-1-1","lat":35.718989,"lon":139.439493},{"name":"立川相互病院","province":"東京都","city":"立川市","address":"立川市錦町1-16-15","lat":35.696666,"lon":139.422442},{"name":"コーポ立川","province":"東京都","city":"立川市","address":"立川市錦町6-9-8","lat":35.688636,"lon":139.418079},{"name":"コーポ立川錦町","province":"東京都","city":"立川市","address":"立川市錦町6-2-5","lat":35.689736,"lon":139.418421},{"name":"立川第２荘","province":"東京都","city":"立川市","address":"立川市富士見町4-15-14","lat":35.694865,"lon":139.399303},{"name":"相互歯科","province":"東京都","city":"立川市","address":"立川市錦町1-17-10健生会歯科ビル","lat":35.696671,"lon":139.421801},{"name":"立川相互ふれあいクリニック","province":"東京都","city":"立川市","address":"立川市錦町1-23-4","lat":35.695991,"lon":139.422562},{"name":"立川相互病院","province":"東京都","city":"立川市","address":"立川市緑町4-1","lat":35.703626,"lon":139.413293},{"name":"立川市社会福祉協議会","province":"東京都","city":"立川市","address":"立川市富士見町2-36-47立川市総合福祉センター内","lat":35.701298,"lon":139.401802},{"name":"東京都福祉人材センター人材情報室多摩支所","province":"東京都","city":"立川市","address":"立川市曙町2-34-13オリンピック第3ビル7階","lat":35.702556,"lon":139.414673},{"name":"立川第２荘","province":"東京都","city":"立川市","address":"立川市富士見町4-15-14","lat":35.69511,"lon":139.39961},{"name":"さくら立川ハウス","province":"東京都","city":"立川市","address":"立川市錦町6-9-8","lat":35.6885,"lon":139.41768},{"name":"さくら立川錦町ハウス","province":"東京都","city":"立川市","address":"立川市錦町6-2-5","lat":35.68947,"lon":139.41811},{"name":"まんまる助産院","province":"東京都","city":"立川市","address":"立川市若葉町2-1-1","lat":35.71925,"lon":139.43961},{"name":"立川相互病院","province":"東京都","city":"立川市","address":"立川市錦町1-16-15","lat":35.69665,"lon":139.42239},{"name":"立川第２荘（２）","province":"東京都","city":"立川市","address":"立川市富士見町4-15-14","lat":35.69511,"lon":139.39961},{"name":"グランドール立川","province":"東京都","city":"立川市","address":"東京都立川市","lat":35.71401612,"lon":139.40784571},{"name":"グランドール立川２","province":"東京都","city":"立川市","address":"東京都立川市","lat":35.71401612,"lon":139.40784571},{"name":"立川市社会福祉協議会","province":"東京都","city":"立川市","address":"立川市富士見町2-36-47立川市総合福祉センター内","lat":35.70138,"lon":139.40184},{"name":"東京都福祉人材センター多摩支所","province":"東京都","city":"立川市","address":"立川市曙町2-34-13オリンピック第3ビル7階","lat":35.70255,"lon":139.41466},{"name":"立川リハビリワークステーション立川","province":"東京都","city":"立川市","address":"東京都立川市富士見町7丁目33-3","lat":35.68979641,"lon":139.39872788},{"name":"一般社団法人栄福祉会就労継続支援Ｂ型キッチンさかえ","province":"東京都","city":"立川市","address":"東京都立川市栄町3丁目2","lat":35.7078311,"lon":139.42233085},{"name":"一般社団法人栄福祉会就労移行支援ソレイユ","province":"東京都","city":"立川市","address":"東京都立川市栄町3丁目2","lat":35.7078311,"lon":139.42233085},{"name":"一般社団法人栄福祉会サポーターズさかえ","province":"東京都","city":"立川市","address":"東京都立川市栄町3丁目2","lat":35.7078311,"lon":139.42233085},{"name":"株式会社友心就労継続支援Ｂ型わーくあっぷ立川","province":"東京都","city":"立川市","address":"東京都立川市曙町1丁目24-11","lat":35.70042046,"lon":139.4088405},{"name":"りは職人でい","province":"東京都","city":"立川市","address":"東京都立川市柴崎町3丁目18-29","lat":35.69289634,"lon":139.41026292},{"name":"東京都福祉人材センター多摩支所","province":"東京都","city":"立川市","address":"立川市曙町2-34-13オリンピック第3ビル7階","lat":35.702556,"lon":139.414673},{"name":"立川第２荘（2）","province":"東京都","city":"立川市","address":"立川市富士見町4-15-14","lat":35.69511,"lon":139.39961},{"name":"まんまる助産院","province":"東京都","city":"立川市","address":"立川市若葉町2-1-1","lat":35.718989,"lon":139.439493},{"name":"立川相互病院","province":"東京都","city":"立川市","address":"立川市錦町1-16-15","lat":35.696666,"lon":139.422442},{"name":"コーポ立川","province":"東京都","city":"立川市","address":"立川市錦町6-9-8","lat":35.688636,"lon":139.418079},{"name":"コーポ立川錦町","province":"東京都","city":"立川市","address":"立川市錦町6-2-5","lat":35.689736,"lon":139.418421},{"name":"立川第２荘","province":"東京都","city":"立川市","address":"立川市富士見町4-15-14","lat":35.694865,"lon":139.399303},{"name":"相互歯科","province":"東京都","city":"立川市","address":"立川市錦町1-17-10健生会歯科ビル","lat":35.696671,"lon":139.421801},{"name":"立川相互ふれあいクリニック","province":"東京都","city":"立川市","address":"立川市錦町1-23-4","lat":35.695991,"lon":139.422562},{"name":"立川相互病院","province":"東京都","city":"立川市","address":"立川市緑町4-1","lat":35.703626,"lon":139.413293},{"name":"立川市社会福祉協議会","province":"東京都","city":"立川市","address":"立川市富士見町2-36-47立川市総合福祉センター内","lat":35.701298,"lon":139.401802},{"name":"東京都福祉人材センター人材情報室多摩支所","province":"東京都","city":"立川市","address":"立川市曙町2-34-13オリンピック第3ビル7階","lat":35.702556,"lon":139.414673},{"name":"立川第２荘","province":"東京都","city":"立川市","address":"立川市富士見町4-15-14","lat":35.69511,"lon":139.39961},{"name":"さくら立川ハウス","province":"東京都","city":"立川市","address":"立川市錦町6-9-8","lat":35.6885,"lon":139.41768},{"name":"さくら立川錦町ハウス","province":"東京都","city":"立川市","address":"立川市錦町6-2-5","lat":35.68947,"lon":139.41811},{"name":"まんまる助産院","province":"東京都","city":"立川市","address":"立川市若葉町2-1-1","lat":35.71925,"lon":139.43961},{"name":"立川相互病院","province":"東京都","city":"立川市","address":"立川市錦町1-16-15","lat":35.69665,"lon":139.42239},{"name":"立川第２荘（２）","province":"東京都","city":"立川市","address":"立川市富士見町4-15-14","lat":35.69511,"lon":139.39961},{"name":"グランドール立川","province":"東京都","city":"立川市","address":"東京都立川市","lat":35.71401612,"lon":139.40784571},{"name":"グランドール立川２","province":"東京都","city":"立川市","address":"東京都立川市","lat":35.71401612,"lon":139.40784571},{"name":"立川市社会福祉協議会","province":"東京都","city":"立川市","address":"立川市富士見町2-36-47立川市総合福祉センター内","lat":35.70138,"lon":139.40184},{"name":"東京都福祉人材センター多摩支所","province":"東京都","city":"立川市","address":"立川市曙町2-34-13オリンピック第3ビル7階","lat":35.70255,"lon":139.41466},{"name":"立川リハビリワークステーション立川","province":"東京都","city":"立川市","address":"東京都立川市富士見町7丁目33-3","lat":35.68979641,"lon":139.39872788},{"name":"一般社団法人栄福祉会就労継続支援Ｂ型キッチンさかえ","province":"東京都","city":"立川市","address":"東京都立川市栄町3丁目2","lat":35.7078311,"lon":139.42233085},{"name":"一般社団法人栄福祉会就労移行支援ソレイユ","province":"東京都","city":"立川市","address":"東京都立川市栄町3丁目2","lat":35.7078311,"lon":139.42233085},{"name":"一般社団法人栄福祉会サポーターズさかえ","province":"東京都","city":"立川市","address":"東京都立川市栄町3丁目2","lat":35.7078311,"lon":139.42233085},{"name":"株式会社友心就労継続支援Ｂ型わーくあっぷ立川","province":"東京都","city":"立川市","address":"東京都立川市曙町1丁目24-11","lat":35.70042046,"lon":139.4088405},{"name":"りは職人でい","province":"東京都","city":"立川市","address":"東京都立川市柴崎町3丁目18-29","lat":35.69289634,"lon":139.41026292},{"name":"東京都福祉人材センター多摩支所","province":"東京都","city":"立川市","address":"立川市曙町2-34-13オリンピック第3ビル7階","lat":35.702556,"lon":139.414673},{"name":"立川第２荘（2）","province":"東京都","city":"立川市","address":"立川市富士見町4-15-14","lat":35.69511,"lon":139.39961},{"name":"まんまる助産院","province":"東京都","city":"立川市","address":"立川市若葉町2-1-1","lat":35.718989,"lon":139.439493},{"name":"立川相互病院","province":"東京都","city":"立川市","address":"立川市錦町1-16-15","lat":35.696666,"lon":139.422442},{"name":"コーポ立川","province":"東京都","city":"立川市","address":"立川市錦町6-9-8","lat":35.688636,"lon":139.418079},{"name":"コーポ立川錦町","province":"東京都","city":"立川市","address":"立川市錦町6-2-5","lat":35.689736,"lon":139.418421},{"name":"立川第２荘","province":"東京都","city":"立川市","address":"立川市富士見町4-15-14","lat":35.694865,"lon":139.399303},{"name":"相互歯科","province":"東京都","city":"立川市","address":"立川市錦町1-17-10健生会歯科ビル","lat":35.696671,"lon":139.421801},{"name":"立川相互ふれあいクリニック","province":"東京都","city":"立川市","address":"立川市錦町1-23-4","lat":35.695991,"lon":139.422562},{"name":"立川相互病院","province":"東京都","city":"立川市","address":"立川市緑町4-1","lat":35.703626,"lon":139.413293},{"name":"立川市社会福祉協議会","province":"東京都","city":"立川市","address":"立川市富士見町2-36-47立川市総合福祉センター内","lat":35.701298,"lon":139.401802},{"name":"東京都福祉人材センター人材情報室多摩支所","province":"東京都","city":"立川市","address":"立川市曙町2-34-13オリンピック第3ビル7階","lat":35.702556,"lon":139.414673},{"name":"立川第２荘","province":"東京都","city":"立川市","address":"立川市富士見町4-15-14","lat":35.69511,"lon":139.39961},{"name":"さくら立川ハウス","province":"東京都","city":"立川市","address":"立川市錦町6-9-8","lat":35.6885,"lon":139.41768},{"name":"さくら立川錦町ハウス","province":"東京都","city":"立川市","address":"立川市錦町6-2-5","lat":35.68947,"lon":139.41811},{"name":"まんまる助産院","province":"東京都","city":"立川市","address":"立川市若葉町2-1-1","lat":35.71925,"lon":139.43961},{"name":"立川相互病院","province":"東京都","city":"立川市","address":"立川市錦町1-16-15","lat":35.69665,"lon":139.42239},{"name":"立川第２荘（２）","province":"東京都","city":"立川市","address":"立川市富士見町4-15-14","lat":35.69511,"lon":139.39961},{"name":"グランドール立川","province":"東京都","city":"立川市","address":"東京都立川市","lat":35.71401612,"lon":139.40784571},{"name":"グランドール立川２","province":"東京都","city":"立川市","address":"東京都立川市","lat":35.71401612,"lon":139.40784571},{"name":"立川市社会福祉協議会","province":"東京都","city":"立川市","address":"立川市富士見町2-36-47立川市総合福祉センター内","lat":35.70138,"lon":139.40184},{"name":"東京都福祉人材センター多摩支所","province":"東京都","city":"立川市","address":"立川市曙町2-34-13オリンピック第3ビル7階","lat":35.70255,"lon":139.41466},{"name":"立川リハビリワークステーション立川","province":"東京都","city":"立川市","address":"東京都立川市富士見町7丁目33-3","lat":35.68979641,"lon":139.39872788},{"name":"一般社団法人栄福祉会就労継続支援Ｂ型キッチンさかえ","province":"東京都","city":"立川市","address":"東京都立川市栄町3丁目2","lat":35.7078311,"lon":139.42233085},{"name":"一般社団法人栄福祉会就労移行支援ソレイユ","province":"東京都","city":"立川市","address":"東京都立川市栄町3丁目2","lat":35.7078311,"lon":139.42233085},{"name":"一般社団法人栄福祉会サポーターズさかえ","province":"東京都","city":"立川市","address":"東京都立川市栄町3丁目2","lat":35.7078311,"lon":139.42233085},{"name":"株式会社友心就労継続支援Ｂ型わーくあっぷ立川","province":"東京都","city":"立川市","address":"東京都立川市曙町1丁目24-11","lat":35.70042046,"lon":139.4088405},{"name":"りは職人でい","province":"東京都","city":"立川市","address":"東京都立川市柴崎町3丁目18-29","lat":35.69289634,"lon":139.41026292},{"name":"東京都福祉人材センター多摩支所","province":"東京都","city":"立川市","address":"立川市曙町2-34-13オリンピック第3ビル7階","lat":35.702556,"lon":139.414673},{"name":"立川第２荘（2）","province":"東京都","city":"立川市","address":"立川市富士見町4-15-14","lat":35.69511,"lon":139.39961},{"name":"まんまる助産院","province":"東京都","city":"立川市","address":"立川市若葉町2-1-1","lat":35.718989,"lon":139.439493},{"name":"立川相互病院","province":"東京都","city":"立川市","address":"立川市錦町1-16-15","lat":35.696666,"lon":139.422442},{"name":"コーポ立川","province":"東京都","city":"立川市","address":"立川市錦町6-9-8","lat":35.688636,"lon":139.418079},{"name":"コーポ立川錦町","province":"東京都","city":"立川市","address":"立川市錦町6-2-5","lat":35.689736,"lon":139.418421},{"name":"立川第２荘","province":"東京都","city":"立川市","address":"立川市富士見町4-15-14","lat":35.694865,"lon":139.399303},{"name":"相互歯科","province":"東京都","city":"立川市","address":"立川市錦町1-17-10健生会歯科ビル","lat":35.696671,"lon":139.421801},{"name":"立川相互ふれあいクリニック","province":"東京都","city":"立川市","address":"立川市錦町1-23-4","lat":35.695991,"lon":139.422562},{"name":"立川相互病院","province":"東京都","city":"立川市","address":"立川市緑町4-1","lat":35.703626,"lon":139.413293},{"name":"立川市社会福祉協議会","province":"東京都","city":"立川市","address":"立川市富士見町2-36-47立川市総合福祉センター内","lat":35.701298,"lon":139.401802},{"name":"東京都福祉人材センター人材情報室多摩支所","province":"東京都","city":"立川市","address":"立川市曙町2-34-13オリンピック第3ビル7階","lat":35.702556,"lon":139.414673},{"name":"立川第２荘","province":"東京都","city":"立川市","address":"立川市富士見町4-15-14","lat":35.69511,"lon":139.39961},{"name":"さくら立川ハウス","province":"東京都","city":"立川市","address":"立川市錦町6-9-8","lat":35.6885,"lon":139.41768},{"name":"さくら立川錦町ハウス","province":"東京都","city":"立川市","address":"立川市錦町6-2-5","lat":35.68947,"lon":139.41811},{"name":"まんまる助産院","province":"東京都","city":"立川市","address":"立川市若葉町2-1-1","lat":35.71925,"lon":139.43961},{"name":"立川相互病院","province":"東京都","city":"立川市","address":"立川市錦町1-16-15","lat":35.69665,"lon":139.42239},{"name":"立川第２荘（２）","province":"東京都","city":"立川市","address":"立川市富士見町4-15-14","lat":35.69511,"lon":139.39961},{"name":"グランドール立川","province":"東京都","city":"立川市","address":"東京都立川市","lat":35.71401612,"lon":139.40784571},{"name":"グランドール立川２","province":"東京都","city":"立川市","address":"東京都立川市","lat":35.71401612,"lon":139.40784571},{"name":"立川市社会福祉協議会","province":"東京都","city":"立川市","address":"立川市富士見町2-36-47立川市総合福祉センター内","lat":35.70138,"lon":139.40184},{"name":"東京都福祉人材センター多摩支所","province":"東京都","city":"立川市","address":"立川市曙町2-34-13オリンピック第3ビル7階","lat":35.70255,"lon":139.41466},{"name":"立川リハビリワークステーション立川","province":"東京都","city":"立川市","address":"東京都立川市富士見町7丁目33-3","lat":35.68979641,"lon":139.39872788},{"name":"一般社団法人栄福祉会就労継続支援Ｂ型キッチンさかえ","province":"東京都","city":"立川市","address":"東京都立川市栄町3丁目2","lat":35.7078311,"lon":139.42233085},{"name":"一般社団法人栄福祉会就労移行支援ソレイユ","province":"東京都","city":"立川市","address":"東京都立川市栄町3丁目2","lat":35.7078311,"lon":139.42233085},{"name":"一般社団法人栄福祉会サポーターズさかえ","province":"東京都","city":"立川市","address":"東京都立川市栄町3丁目2","lat":35.7078311,"lon":139.42233085},{"name":"株式会社友心就労継続支援Ｂ型わーくあっぷ立川","province":"東京都","city":"立川市","address":"東京都立川市曙町1丁目24-11","lat":35.70042046,"lon":139.4088405},{"name":"りは職人でい","province":"東京都","city":"立川市","address":"東京都立川市柴崎町3丁目18-29","lat":35.69289634,"lon":139.41026292},{"name":"東京都福祉人材センター多摩支所","province":"東京都","city":"立川市","address":"立川市曙町2-34-13オリンピック第3ビル7階","lat":35.702556,"lon":139.414673},{"name":"立川第２荘（2）","province":"東京都","city":"立川市","address":"立川市富士見町4-15-14","lat":35.69511,"lon":139.39961},{"name":"まんまる助産院","province":"東京都","city":"立川市","address":"立川市若葉町2-1-1","lat":35.718989,"lon":139.439493},{"name":"立川相互病院","province":"東京都","city":"立川市","address":"立川市錦町1-16-15","lat":35.696666,"lon":139.422442},{"name":"コーポ立川","province":"東京都","city":"立川市","address":"立川市錦町6-9-8","lat":35.688636,"lon":139.418079},{"name":"コーポ立川錦町","province":"東京都","city":"立川市","address":"立川市錦町6-2-5","lat":35.689736,"lon":139.418421},{"name":"立川第２荘","province":"東京都","city":"立川市","address":"立川市富士見町4-15-14","lat":35.694865,"lon":139.399303},{"name":"相互歯科","province":"東京都","city":"立川市","address":"立川市錦町1-17-10健生会歯科ビル","lat":35.696671,"lon":139.421801},{"name":"立川相互ふれあいクリニック","province":"東京都","city":"立川市","address":"立川市錦町1-23-4","lat":35.695991,"lon":139.422562},{"name":"立川相互病院","province":"東京都","city":"立川市","address":"立川市緑町4-1","lat":35.703626,"lon":139.413293},{"name":"立川市社会福祉協議会","province":"東京都","city":"立川市","address":"立川市富士見町2-36-47立川市総合福祉センター内","lat":35.701298,"lon":139.401802},{"name":"東京都福祉人材センター人材情報室多摩支所","province":"東京都","city":"立川市","address":"立川市曙町2-34-13オリンピック第3ビル7階","lat":35.702556,"lon":139.414673},{"name":"立川第２荘","province":"東京都","city":"立川市","address":"立川市富士見町4-15-14","lat":35.69511,"lon":139.39961},{"name":"さくら立川ハウス","province":"東京都","city":"立川市","address":"立川市錦町6-9-8","lat":35.6885,"lon":139.41768},{"name":"さくら立川錦町ハウス","province":"東京都","city":"立川市","address":"立川市錦町6-2-5","lat":35.68947,"lon":139.41811},{"name":"まんまる助産院","province":"東京都","city":"立川市","address":"立川市若葉町2-1-1","lat":35.71925,"lon":139.43961},{"name":"立川相互病院","province":"東京都","city":"立川市","address":"立川市錦町1-16-15","lat":35.69665,"lon":139.42239},{"name":"立川第２荘（２）","province":"東京都","city":"立川市","address":"立川市富士見町4-15-14","lat":35.69511,"lon":139.39961},{"name":"グランドール立川","province":"東京都","city":"立川市","address":"東京都立川市","lat":35.71401612,"lon":139.40784571},{"name":"グランドール立川２","province":"東京都","city":"立川市","address":"東京都立川市","lat":35.71401612,"lon":139.40784571},{"name":"立川市社会福祉協議会","province":"東京都","city":"立川市","address":"立川市富士見町2-36-47立川市総合福祉センター内","lat":35.70138,"lon":139.40184},{"name":"東京都福祉人材センター多摩支所","province":"東京都","city":"立川市","address":"立川市曙町2-34-13オリンピック第3ビル7階","lat":35.70255,"lon":139.41466},{"name":"東京都福祉人材センター多摩支所","province":"東京都","city":"立川市","address":"立川市曙町2-34-13オリンピック第3ビル7階","lat":35.702556,"lon":139.414673},{"name":"立川第２荘（2）","province":"東京都","city":"立川市","address":"立川市富士見町4-15-14","lat":35.69511,"lon":139.39961},{"name":"まんまる助産院","province":"東京都","city":"立川市","address":"立川市若葉町2-1-1","lat":35.718989,"lon":139.439493},{"name":"立川相互病院","province":"東京都","city":"立川市","address":"立川市錦町1-16-15","lat":35.696666,"lon":139.422442},{"name":"コーポ立川","province":"東京都","city":"立川市","address":"立川市錦町6-9-8","lat":35.688636,"lon":139.418079},{"name":"コーポ立川錦町","province":"東京都","city":"立川市","address":"立川市錦町6-2-5","lat":35.689736,"lon":139.418421},{"name":"立川第２荘","province":"東京都","city":"立川市","address":"立川市富士見町4-15-14","lat":35.694865,"lon":139.399303},{"name":"相互歯科","province":"東京都","city":"立川市","address":"立川市錦町1-17-10健生会歯科ビル","lat":35.696671,"lon":139.421801},{"name":"立川相互ふれあいクリニック","province":"東京都","city":"立川市","address":"立川市錦町1-23-4","lat":35.695991,"lon":139.422562},{"name":"立川相互病院","province":"東京都","city":"立川市","address":"立川市緑町4-1","lat":35.703626,"lon":139.413293},{"name":"立川市社会福祉協議会","province":"東京都","city":"立川市","address":"立川市富士見町2-36-47立川市総合福祉センター内","lat":35.701298,"lon":139.401802},{"name":"東京都福祉人材センター人材情報室多摩支所","province":"東京都","city":"立川市","address":"立川市曙町2-34-13オリンピック第3ビル7階","lat":35.702556,"lon":139.414673},{"name":"立川第２荘","province":"東京都","city":"立川市","address":"立川市富士見町4-15-14","lat":35.69511,"lon":139.39961},{"name":"さくら立川ハウス","province":"東京都","city":"立川市","address":"立川市錦町6-9-8","lat":35.6885,"lon":139.41768},{"name":"さくら立川錦町ハウス","province":"東京都","city":"立川市","address":"立川市錦町6-2-5","lat":35.68947,"lon":139.41811},{"name":"まんまる助産院","province":"東京都","city":"立川市","address":"立川市若葉町2-1-1","lat":35.71925,"lon":139.43961},{"name":"立川相互病院","province":"東京都","city":"立川市","address":"立川市錦町1-16-15","lat":35.69665,"lon":139.42239},{"name":"立川第２荘（２）","province":"東京都","city":"立川市","address":"立川市富士見町4-15-14","lat":35.69511,"lon":139.39961},{"name":"グランドール立川","province":"東京都","city":"立川市","address":"東京都立川市","lat":35.71401612,"lon":139.40784571},{"name":"グランドール立川２","province":"東京都","city":"立川市","address":"東京都立川市","lat":35.71401612,"lon":139.40784571},{"name":"立川市社会福祉協議会","province":"東京都","city":"立川市","address":"立川市富士見町2-36-47立川市総合福祉センター内","lat":35.70138,"lon":139.40184},{"name":"東京都福祉人材センター多摩支所","province":"東京都","city":"立川市","address":"立川市曙町2-34-13オリンピック第3ビル7階","lat":35.70255,"lon":139.41466},{"name":"東京都福祉人材センター多摩支所","province":"東京都","city":"立川市","address":"立川市曙町2-34-13オリンピック第3ビル7階","lat":35.702556,"lon":139.414673},{"name":"立川第２荘（2）","province":"東京都","city":"立川市","address":"立川市富士見町4-15-14","lat":35.69511,"lon":139.39961},{"name":"まんまる助産院","province":"東京都","city":"立川市","address":"立川市若葉町2-1-1","lat":35.718989,"lon":139.439493},{"name":"立川相互病院","province":"東京都","city":"立川市","address":"立川市錦町1-16-15","lat":35.696666,"lon":139.422442},{"name":"コーポ立川","province":"東京都","city":"立川市","address":"立川市錦町6-9-8","lat":35.688636,"lon":139.418079},{"name":"コーポ立川錦町","province":"東京都","city":"立川市","address":"立川市錦町6-2-5","lat":35.689736,"lon":139.418421},{"name":"立川第２荘","province":"東京都","city":"立川市","address":"立川市富士見町4-15-14","lat":35.694865,"lon":139.399303},{"name":"相互歯科","province":"東京都","city":"立川市","address":"立川市錦町1-17-10健生会歯科ビル","lat":35.696671,"lon":139.421801},{"name":"立川相互ふれあいクリニック","province":"東京都","city":"立川市","address":"立川市錦町1-23-4","lat":35.695991,"lon":139.422562},{"name":"立川相互病院","province":"東京都","city":"立川市","address":"立川市緑町4-1","lat":35.703626,"lon":139.413293},{"name":"立川市社会福祉協議会","province":"東京都","city":"立川市","address":"立川市富士見町2-36-47立川市総合福祉センター内","lat":35.701298,"lon":139.401802},{"name":"東京都福祉人材センター人材情報室多摩支所","province":"東京都","city":"立川市","address":"立川市曙町2-34-13オリンピック第3ビル7階","lat":35.702556,"lon":139.414673},{"name":"立川第２荘","province":"東京都","city":"立川市","address":"立川市富士見町4-15-14","lat":35.69511,"lon":139.39961},{"name":"さくら立川ハウス","province":"東京都","city":"立川市","address":"立川市錦町6-9-8","lat":35.6885,"lon":139.41768},{"name":"さくら立川錦町ハウス","province":"東京都","city":"立川市","address":"立川市錦町6-2-5","lat":35.68947,"lon":139.41811},{"name":"まんまる助産院","province":"東京都","city":"立川市","address":"立川市若葉町2-1-1","lat":35.71925,"lon":139.43961},{"name":"立川相互病院","province":"東京都","city":"立川市","address":"立川市錦町1-16-15","lat":35.69665,"lon":139.42239},{"name":"立川第２荘（２）","province":"東京都","city":"立川市","address":"立川市富士見町4-15-14","lat":35.69511,"lon":139.39961},{"name":"グランドール立川","province":"東京都","city":"立川市","address":"東京都立川市","lat":35.71401612,"lon":139.40784571},{"name":"グランドール立川２","province":"東京都","city":"立川市","address":"東京都立川市","lat":35.71401612,"lon":139.40784571},{"name":"立川市社会福祉協議会","province":"東京都","city":"立川市","address":"立川市富士見町2-36-47立川市総合福祉センター内","lat":35.70138,"lon":139.40184},{"name":"東京都福祉人材センター多摩支所","province":"東京都","city":"立川市","address":"立川市曙町2-34-13オリンピック第3ビル7階","lat":35.70255,"lon":139.41466},{"name":"東京都福祉人材センター多摩支所","province":"東京都","city":"立川市","address":"立川市曙町2-34-13オリンピック第3ビル7階","lat":35.702556,"lon":139.414673},{"name":"立川第２荘（2）","province":"東京都","city":"立川市","address":"立川市富士見町4-15-14","lat":35.69511,"lon":139.39961},{"name":"まんまる助産院","province":"東京都","city":"立川市","address":"立川市若葉町2-1-1","lat":35.718989,"lon":139.439493},{"name":"立川相互病院","province":"東京都","city":"立川市","address":"立川市錦町1-16-15","lat":35.696666,"lon":139.422442},{"name":"コーポ立川","province":"東京都","city":"立川市","address":"立川市錦町6-9-8","lat":35.688636,"lon":139.418079},{"name":"コーポ立川錦町","province":"東京都","city":"立川市","address":"立川市錦町6-2-5","lat":35.689736,"lon":139.418421},{"name":"立川第２荘","province":"東京都","city":"立川市","address":"立川市富士見町4-15-14","lat":35.694865,"lon":139.399303},{"name":"相互歯科","province":"東京都","city":"立川市","address":"立川市錦町1-17-10健生会歯科ビル","lat":35.696671,"lon":139.421801},{"name":"立川相互ふれあいクリニック","province":"東京都","city":"立川市","address":"立川市錦町1-23-4","lat":35.695991,"lon":139.422562},{"name":"立川相互病院","province":"東京都","city":"立川市","address":"立川市緑町4-1","lat":35.703626,"lon":139.413293},{"name":"立川市社会福祉協議会","province":"東京都","city":"立川市","address":"立川市富士見町2-36-47立川市総合福祉センター内","lat":35.701298,"lon":139.401802},{"name":"東京都福祉人材センター人材情報室多摩支所","province":"東京都","city":"立川市","address":"立川市曙町2-34-13オリンピック第3ビル7階","lat":35.702556,"lon":139.414673},{"name":"立川第２荘","province":"東京都","city":"立川市","address":"立川市富士見町4-15-14","lat":35.69511,"lon":139.39961},{"name":"さくら立川ハウス","province":"東京都","city":"立川市","address":"立川市錦町6-9-8","lat":35.6885,"lon":139.41768},{"name":"さくら立川錦町ハウス","province":"東京都","city":"立川市","address":"立川市錦町6-2-5","lat":35.68947,"lon":139.41811},{"name":"まんまる助産院","province":"東京都","city":"立川市","address":"立川市若葉町2-1-1","lat":35.71925,"lon":139.43961},{"name":"立川相互病院","province":"東京都","city":"立川市","address":"立川市錦町1-16-15","lat":35.69665,"lon":139.42239},{"name":"立川第２荘（２）","province":"東京都","city":"立川市","address":"立川市富士見町4-15-14","lat":35.69511,"lon":139.39961},{"name":"グランドール立川","province":"東京都","city":"立川市","address":"東京都立川市","lat":35.71401612,"lon":139.40784571},{"name":"グランドール立川２","province":"東京都","city":"立川市","address":"東京都立川市","lat":35.71401612,"lon":139.40784571},{"name":"立川市社会福祉協議会","province":"東京都","city":"立川市","address":"立川市富士見町2-36-47立川市総合福祉センター内","lat":35.70138,"lon":139.40184},{"name":"東京都福祉人材センター多摩支所","province":"東京都","city":"立川市","address":"立川市曙町2-34-13オリンピック第3ビル7階","lat":35.70255,"lon":139.41466},{"name":"東京都福祉人材センター多摩支所","province":"東京都","city":"立川市","address":"立川市曙町2-34-13オリンピック第3ビル7階","lat":35.702556,"lon":139.414673},{"name":"立川第２荘（2）","province":"東京都","city":"立川市","address":"立川市富士見町4-15-14","lat":35.69511,"lon":139.39961},{"name":"まんまる助産院","province":"東京都","city":"立川市","address":"立川市若葉町2-1-1","lat":35.718989,"lon":139.439493},{"name":"立川相互病院","province":"東京都","city":"立川市","address":"立川市錦町1-16-15","lat":35.696666,"lon":139.422442},{"name":"コーポ立川","province":"東京都","city":"立川市","address":"立川市錦町6-9-8","lat":35.688636,"lon":139.418079},{"name":"コーポ立川錦町","province":"東京都","city":"立川市","address":"立川市錦町6-2-5","lat":35.689736,"lon":139.418421},{"name":"立川第２荘","province":"東京都","city":"立川市","address":"立川市富士見町4-15-14","lat":35.694865,"lon":139.399303},{"name":"相互歯科","province":"東京都","city":"立川市","address":"立川市錦町1-17-10健生会歯科ビル","lat":35.696671,"lon":139.421801},{"name":"立川相互ふれあいクリニック","province":"東京都","city":"立川市","address":"立川市錦町1-23-4","lat":35.695991,"lon":139.422562},{"name":"立川相互病院","province":"東京都","city":"立川市","address":"立川市緑町4-1","lat":35.703626,"lon":139.413293},{"name":"立川市社会福祉協議会","province":"東京都","city":"立川市","address":"立川市富士見町2-36-47立川市総合福祉センター内","lat":35.701298,"lon":139.401802},{"name":"東京都福祉人材センター人材情報室多摩支所","province":"東京都","city":"立川市","address":"立川市曙町2-34-13オリンピック第3ビル7階","lat":35.702556,"lon":139.414673},{"name":"立川第２荘","province":"東京都","city":"立川市","address":"立川市富士見町4-15-14","lat":35.69511,"lon":139.39961},{"name":"さくら立川ハウス","province":"東京都","city":"立川市","address":"立川市錦町6-9-8","lat":35.6885,"lon":139.41768},{"name":"さくら立川錦町ハウス","province":"東京都","city":"立川市","address":"立川市錦町6-2-5","lat":35.68947,"lon":139.41811},{"name":"まんまる助産院","province":"東京都","city":"立川市","address":"立川市若葉町2-1-1","lat":35.71925,"lon":139.43961},{"name":"立川相互病院","province":"東京都","city":"立川市","address":"立川市錦町1-16-15","lat":35.69665,"lon":139.42239},{"name":"立川第２荘（２）","province":"東京都","city":"立川市","address":"立川市富士見町4-15-14","lat":35.69511,"lon":139.39961},{"name":"グランドール立川","province":"東京都","city":"立川市","address":"東京都立川市","lat":35.71401612,"lon":139.40784571},{"name":"グランドール立川２","province":"東京都","city":"立川市","address":"東京都立川市","lat":35.71401612,"lon":139.40784571},{"name":"立川市社会福祉協議会","province":"東京都","city":"立川市","address":"立川市富士見町2-36-47立川市総合福祉センター内","lat":35.70138,"lon":139.40184},{"name":"東京都福祉人材センター多摩支所","province":"東京都","city":"立川市","address":"立川市曙町2-34-13オリンピック第3ビル7階","lat":35.70255,"lon":139.41466},{"name":"東京都福祉人材センター多摩支所","province":"東京都","city":"立川市","address":"立川市曙町2-34-13オリンピック第3ビル7階","lat":35.702556,"lon":139.414673},{"name":"立川第２荘（2）","province":"東京都","city":"立川市","address":"立川市富士見町4-15-14","lat":35.69511,"lon":139.39961},{"name":"まんまる助産院","province":"東京都","city":"立川市","address":"立川市若葉町2-1-1","lat":35.718989,"lon":139.439493},{"name":"立川相互病院","province":"東京都","city":"立川市","address":"立川市錦町1-16-15","lat":35.696666,"lon":139.422442},{"name":"コーポ立川","province":"東京都","city":"立川市","address":"立川市錦町6-9-8","lat":35.688636,"lon":139.418079},{"name":"コーポ立川錦町","province":"東京都","city":"立川市","address":"立川市錦町6-2-5","lat":35.689736,"lon":139.418421},{"name":"立川第２荘","province":"東京都","city":"立川市","address":"立川市富士見町4-15-14","lat":35.694865,"lon":139.399303},{"name":"相互歯科","province":"東京都","city":"立川市","address":"立川市錦町1-17-10健生会歯科ビル","lat":35.696671,"lon":139.421801},{"name":"立川相互ふれあいクリニック","province":"東京都","city":"立川市","address":"立川市錦町1-23-4","lat":35.695991,"lon":139.422562},{"name":"立川相互病院","province":"東京都","city":"立川市","address":"立川市緑町4-1","lat":35.703626,"lon":139.413293},{"name":"立川市社会福祉協議会","province":"東京都","city":"立川市","address":"立川市富士見町2-36-47立川市総合福祉センター内","lat":35.701298,"lon":139.401802},{"name":"東京都福祉人材センター人材情報室多摩支所","province":"東京都","city":"立川市","address":"立川市曙町2-34-13オリンピック第3ビル7階","lat":35.702556,"lon":139.414673},{"name":"立川第２荘","province":"東京都","city":"立川市","address":"立川市富士見町4-15-14","lat":35.69511,"lon":139.39961},{"name":"さくら立川ハウス","province":"東京都","city":"立川市","address":"立川市錦町6-9-8","lat":35.6885,"lon":139.41768},{"name":"さくら立川錦町ハウス","province":"東京都","city":"立川市","address":"立川市錦町6-2-5","lat":35.68947,"lon":139.41811},{"name":"まんまる助産院","province":"東京都","city":"立川市","address":"立川市若葉町2-1-1","lat":35.71925,"lon":139.43961},{"name":"立川相互病院","province":"東京都","city":"立川市","address":"立川市錦町1-16-15","lat":35.69665,"lon":139.42239},{"name":"立川第２荘（２）","province":"東京都","city":"立川市","address":"立川市富士見町4-15-14","lat":35.69511,"lon":139.39961},{"name":"グランドール立川","province":"東京都","city":"立川市","address":"東京都立川市","lat":35.71401612,"lon":139.40784571},{"name":"グランドール立川２","province":"東京都","city":"立川市","address":"東京都立川市","lat":35.71401612,"lon":139.40784571},{"name":"立川市社会福祉協議会","province":"東京都","city":"立川市","address":"立川市富士見町2-36-47立川市総合福祉センター内","lat":35.70138,"lon":139.40184},{"name":"東京都福祉人材センター多摩支所","province":"東京都","city":"立川市","address":"立川市曙町2-34-13オリンピック第3ビル7階","lat":35.70255,"lon":139.41466},{"name":"東京都福祉人材センター多摩支所","province":"東京都","city":"立川市","address":"立川市曙町2-34-13オリンピック第3ビル7階","lat":35.702556,"lon":139.414673},{"name":"立川第２荘（2）","province":"東京都","city":"立川市","address":"立川市富士見町4-15-14","lat":35.69511,"lon":139.39961},{"name":"まんまる助産院","province":"東京都","city":"立川市","address":"立川市若葉町2-1-1","lat":35.718989,"lon":139.439493},{"name":"立川相互病院","province":"東京都","city":"立川市","address":"立川市錦町1-16-15","lat":35.696666,"lon":139.422442},{"name":"コーポ立川","province":"東京都","city":"立川市","address":"立川市錦町6-9-8","lat":35.688636,"lon":139.418079},{"name":"コーポ立川錦町","province":"東京都","city":"立川市","address":"立川市錦町6-2-5","lat":35.689736,"lon":139.418421},{"name":"立川第２荘","province":"東京都","city":"立川市","address":"立川市富士見町4-15-14","lat":35.694865,"lon":139.399303},{"name":"相互歯科","province":"東京都","city":"立川市","address":"立川市錦町1-17-10健生会歯科ビル","lat":35.696671,"lon":139.421801},{"name":"立川相互ふれあいクリニック","province":"東京都","city":"立川市","address":"立川市錦町1-23-4","lat":35.695991,"lon":139.422562},{"name":"立川相互病院","province":"東京都","city":"立川市","address":"立川市緑町4-1","lat":35.703626,"lon":139.413293},{"name":"立川市社会福祉協議会","province":"東京都","city":"立川市","address":"立川市富士見町2-36-47立川市総合福祉センター内","lat":35.701298,"lon":139.401802},{"name":"東京都福祉人材センター人材情報室多摩支所","province":"東京都","city":"立川市","address":"立川市曙町2-34-13オリンピック第3ビル7階","lat":35.702556,"lon":139.414673},{"name":"立川第２荘","province":"東京都","city":"立川市","address":"立川市富士見町4-15-14","lat":35.69511,"lon":139.39961},{"name":"さくら立川ハウス","province":"東京都","city":"立川市","address":"立川市錦町6-9-8","lat":35.6885,"lon":139.41768},{"name":"さくら立川錦町ハウス","province":"東京都","city":"立川市","address":"立川市錦町6-2-5","lat":35.68947,"lon":139.41811},{"name":"まんまる助産院","province":"東京都","city":"立川市","address":"立川市若葉町2-1-1","lat":35.71925,"lon":139.43961},{"name":"立川相互病院","province":"東京都","city":"立川市","address":"立川市錦町1-16-15","lat":35.69665,"lon":139.42239},{"name":"立川第２荘（２）","province":"東京都","city":"立川市","address":"立川市富士見町4-15-14","lat":35.69511,"lon":139.39961},{"name":"グランドール立川","province":"東京都","city":"立川市","address":"東京都立川市","lat":35.71401612,"lon":139.40784571},{"name":"グランドール立川２","province":"東京都","city":"立川市","address":"東京都立川市","lat":35.71401612,"lon":139.40784571},{"name":"立川市社会福祉協議会","province":"東京都","city":"立川市","address":"立川市富士見町2-36-47立川市総合福祉センター内","lat":35.70138,"lon":139.40184},{"name":"東京都福祉人材センター多摩支所","province":"東京都","city":"立川市","address":"立川市曙町2-34-13オリンピック第3ビル7階","lat":35.70255,"lon":139.41466},{"name":"東京都福祉人材センター多摩支所","province":"東京都","city":"立川市","address":"立川市曙町2-34-13オリンピック第3ビル7階","lat":35.702556,"lon":139.414673},{"name":"立川第２荘（2）","province":"東京都","city":"立川市","address":"立川市富士見町4-15-14","lat":35.69511,"lon":139.39961},{"name":"まんまる助産院","province":"東京都","city":"立川市","address":"立川市若葉町2-1-1","lat":35.718989,"lon":139.439493},{"name":"立川相互病院","province":"東京都","city":"立川市","address":"立川市錦町1-16-15","lat":35.696666,"lon":139.422442},{"name":"コーポ立川","province":"東京都","city":"立川市","address":"立川市錦町6-9-8","lat":35.688636,"lon":139.418079},{"name":"コーポ立川錦町","province":"東京都","city":"立川市","address":"立川市錦町6-2-5","lat":35.689736,"lon":139.418421},{"name":"立川第２荘","province":"東京都","city":"立川市","address":"立川市富士見町4-15-14","lat":35.694865,"lon":139.399303},{"name":"相互歯科","province":"東京都","city":"立川市","address":"立川市錦町1-17-10健生会歯科ビル","lat":35.696671,"lon":139.421801},{"name":"立川相互ふれあいクリニック","province":"東京都","city":"立川市","address":"立川市錦町1-23-4","lat":35.695991,"lon":139.422562},{"name":"立川相互病院","province":"東京都","city":"立川市","address":"立川市緑町4-1","lat":35.703626,"lon":139.413293},{"name":"立川市社会福祉協議会","province":"東京都","city":"立川市","address":"立川市富士見町2-36-47立川市総合福祉センター内","lat":35.701298,"lon":139.401802},{"name":"東京都福祉人材センター人材情報室多摩支所","province":"東京都","city":"立川市","address":"立川市曙町2-34-13オリンピック第3ビル7階","lat":35.702556,"lon":139.414673},{"name":"立川第２荘","province":"東京都","city":"立川市","address":"立川市富士見町4-15-14","lat":35.69511,"lon":139.39961},{"name":"さくら立川ハウス","province":"東京都","city":"立川市","address":"立川市錦町6-9-8","lat":35.6885,"lon":139.41768},{"name":"さくら立川錦町ハウス","province":"東京都","city":"立川市","address":"立川市錦町6-2-5","lat":35.68947,"lon":139.41811},{"name":"まんまる助産院","province":"東京都","city":"立川市","address":"立川市若葉町2-1-1","lat":35.71925,"lon":139.43961},{"name":"立川相互病院","province":"東京都","city":"立川市","address":"立川市錦町1-16-15","lat":35.69665,"lon":139.42239},{"name":"立川第２荘（２）","province":"東京都","city":"立川市","address":"立川市富士見町4-15-14","lat":35.69511,"lon":139.39961},{"name":"グランドール立川","province":"東京都","city":"立川市","address":"東京都立川市","lat":35.71401612,"lon":139.40784571},{"name":"グランドール立川２","province":"東京都","city":"立川市","address":"東京都立川市","lat":35.71401612,"lon":139.40784571},{"name":"立川市社会福祉協議会","province":"東京都","city":"立川市","address":"立川市富士見町2-36-47立川市総合福祉センター内","lat":35.70138,"lon":139.40184},{"name":"東京都福祉人材センター多摩支所","province":"東京都","city":"立川市","address":"立川市曙町2-34-13オリンピック第3ビル7階","lat":35.70255,"lon":139.41466},{"name":"東京都福祉人材センター多摩支所","province":"東京都","city":"立川市","address":"立川市曙町2-34-13オリンピック第3ビル7階","lat":35.702556,"lon":139.414673},{"name":"立川第２荘（2）","province":"東京都","city":"立川市","address":"立川市富士見町4-15-14","lat":35.69511,"lon":139.39961},{"name":"まんまる助産院","province":"東京都","city":"立川市","address":"立川市若葉町2-1-1","lat":35.718989,"lon":139.439493},{"name":"立川相互病院","province":"東京都","city":"立川市","address":"立川市錦町1-16-15","lat":35.696666,"lon":139.422442},{"name":"コーポ立川","province":"東京都","city":"立川市","address":"立川市錦町6-9-8","lat":35.688636,"lon":139.418079},{"name":"コーポ立川錦町","province":"東京都","city":"立川市","address":"立川市錦町6-2-5","lat":35.689736,"lon":139.418421},{"name":"立川第２荘","province":"東京都","city":"立川市","address":"立川市富士見町4-15-14","lat":35.694865,"lon":139.399303},{"name":"相互歯科","province":"東京都","city":"立川市","address":"立川市錦町1-17-10健生会歯科ビル","lat":35.696671,"lon":139.421801},{"name":"立川相互ふれあいクリニック","province":"東京都","city":"立川市","address":"立川市錦町1-23-4","lat":35.695991,"lon":139.422562},{"name":"立川相互病院","province":"東京都","city":"立川市","address":"立川市緑町4-1","lat":35.703626,"lon":139.413293},{"name":"立川市社会福祉協議会","province":"東京都","city":"立川市","address":"立川市富士見町2-36-47立川市総合福祉センター内","lat":35.701298,"lon":139.401802},{"name":"東京都福祉人材センター人材情報室多摩支所","province":"東京都","city":"立川市","address":"立川市曙町2-34-13オリンピック第3ビル7階","lat":35.702556,"lon":139.414673},{"name":"立川第２荘","province":"東京都","city":"立川市","address":"立川市富士見町4-15-14","lat":35.69511,"lon":139.39961},{"name":"さくら立川ハウス","province":"東京都","city":"立川市","address":"立川市錦町6-9-8","lat":35.6885,"lon":139.41768},{"name":"さくら立川錦町ハウス","province":"東京都","city":"立川市","address":"立川市錦町6-2-5","lat":35.68947,"lon":139.41811},{"name":"まんまる助産院","province":"東京都","city":"立川市","address":"立川市若葉町2-1-1","lat":35.71925,"lon":139.43961},{"name":"立川相互病院","province":"東京都","city":"立川市","address":"立川市錦町1-16-15","lat":35.69665,"lon":139.42239},{"name":"立川第２荘（２）","province":"東京都","city":"立川市","address":"立川市富士見町4-15-14","lat":35.69511,"lon":139.39961},{"name":"グランドール立川","province":"東京都","city":"立川市","address":"東京都立川市","lat":35.71401612,"lon":139.40784571},{"name":"グランドール立川２","province":"東京都","city":"立川市","address":"東京都立川市","lat":35.71401612,"lon":139.40784571},{"name":"立川市社会福祉協議会","province":"東京都","city":"立川市","address":"立川市富士見町2-36-47立川市総合福祉センター内","lat":35.70138,"lon":139.40184},{"name":"東京都福祉人材センター多摩支所","province":"東京都","city":"立川市","address":"立川市曙町2-34-13オリンピック第3ビル7階","lat":35.70255,"lon":139.41466},{"name":"東京都福祉人材センター多摩支所","province":"東京都","city":"立川市","address":"立川市曙町2-34-13オリンピック第3ビル7階","lat":35.702556,"lon":139.414673},{"name":"立川第２荘（2）","province":"東京都","city":"立川市","address":"立川市富士見町4-15-14","lat":35.69511,"lon":139.39961},{"name":"まんまる助産院","province":"東京都","city":"立川市","address":"立川市若葉町2-1-1","lat":35.718989,"lon":139.439493},{"name":"立川相互病院","province":"東京都","city":"立川市","address":"立川市錦町1-16-15","lat":35.696666,"lon":139.422442},{"name":"コーポ立川","province":"東京都","city":"立川市","address":"立川市錦町6-9-8","lat":35.688636,"lon":139.418079},{"name":"コーポ立川錦町","province":"東京都","city":"立川市","address":"立川市錦町6-2-5","lat":35.689736,"lon":139.418421},{"name":"立川第２荘","province":"東京都","city":"立川市","address":"立川市富士見町4-15-14","lat":35.694865,"lon":139.399303},{"name":"相互歯科","province":"東京都","city":"立川市","address":"立川市錦町1-17-10健生会歯科ビル","lat":35.696671,"lon":139.421801},{"name":"立川相互ふれあいクリニック","province":"東京都","city":"立川市","address":"立川市錦町1-23-4","lat":35.695991,"lon":139.422562},{"name":"立川相互病院","province":"東京都","city":"立川市","address":"立川市緑町4-1","lat":35.703626,"lon":139.413293},{"name":"立川市社会福祉協議会","province":"東京都","city":"立川市","address":"立川市富士見町2-36-47立川市総合福祉センター内","lat":35.701298,"lon":139.401802},{"name":"東京都福祉人材センター人材情報室多摩支所","province":"東京都","city":"立川市","address":"立川市曙町2-34-13オリンピック第3ビル7階","lat":35.702556,"lon":139.414673},{"name":"立川第２荘","province":"東京都","city":"立川市","address":"立川市富士見町4-15-14","lat":35.69511,"lon":139.39961},{"name":"さくら立川ハウス","province":"東京都","city":"立川市","address":"立川市錦町6-9-8","lat":35.6885,"lon":139.41768},{"name":"さくら立川錦町ハウス","province":"東京都","city":"立川市","address":"立川市錦町6-2-5","lat":35.68947,"lon":139.41811},{"name":"まんまる助産院","province":"東京都","city":"立川市","address":"立川市若葉町2-1-1","lat":35.71925,"lon":139.43961},{"name":"立川相互病院","province":"東京都","city":"立川市","address":"立川市錦町1-16-15","lat":35.69665,"lon":139.42239},{"name":"立川第２荘（２）","province":"東京都","city":"立川市","address":"立川市富士見町4-15-14","lat":35.69511,"lon":139.39961},{"name":"グランドール立川","province":"東京都","city":"立川市","address":"東京都立川市","lat":35.71401612,"lon":139.40784571},{"name":"グランドール立川２","province":"東京都","city":"立川市","address":"東京都立川市","lat":35.71401612,"lon":139.40784571},{"name":"立川市社会福祉協議会","province":"東京都","city":"立川市","address":"立川市富士見町2-36-47立川市総合福祉センター内","lat":35.70138,"lon":139.40184},{"name":"東京都福祉人材センター多摩支所","province":"東京都","city":"立川市","address":"立川市曙町2-34-13オリンピック第3ビル7階","lat":35.70255,"lon":139.41466},{"name":"東京都福祉人材センター多摩支所","province":"東京都","city":"立川市","address":"立川市曙町2-34-13オリンピック第3ビル7階","lat":35.702556,"lon":139.414673},{"name":"立川第２荘（2）","province":"東京都","city":"立川市","address":"立川市富士見町4-15-14","lat":35.69511,"lon":139.39961},{"name":"まんまる助産院","province":"東京都","city":"立川市","address":"立川市若葉町2-1-1","lat":35.718989,"lon":139.439493},{"name":"立川相互病院","province":"東京都","city":"立川市","address":"立川市錦町1-16-15","lat":35.696666,"lon":139.422442},{"name":"コーポ立川","province":"東京都","city":"立川市","address":"立川市錦町6-9-8","lat":35.688636,"lon":139.418079},{"name":"コーポ立川錦町","province":"東京都","city":"立川市","address":"立川市錦町6-2-5","lat":35.689736,"lon":139.418421},{"name":"立川第２荘","province":"東京都","city":"立川市","address":"立川市富士見町4-15-14","lat":35.694865,"lon":139.399303},{"name":"相互歯科","province":"東京都","city":"立川市","address":"立川市錦町1-17-10健生会歯科ビル","lat":35.696671,"lon":139.421801},{"name":"立川相互ふれあいクリニック","province":"東京都","city":"立川市","address":"立川市錦町1-23-4","lat":35.695991,"lon":139.422562},{"name":"立川相互病院","province":"東京都","city":"立川市","address":"立川市緑町4-1","lat":35.703626,"lon":139.413293},{"name":"立川市社会福祉協議会","province":"東京都","city":"立川市","address":"立川市富士見町2-36-47立川市総合福祉センター内","lat":35.701298,"lon":139.401802},{"name":"東京都福祉人材センター人材情報室多摩支所","province":"東京都","city":"立川市","address":"立川市曙町2-34-13オリンピック第3ビル7階","lat":35.702556,"lon":139.414673},{"name":"立川第２荘","province":"東京都","city":"立川市","address":"立川市富士見町4-15-14","lat":35.69511,"lon":139.39961},{"name":"さくら立川ハウス","province":"東京都","city":"立川市","address":"立川市錦町6-9-8","lat":35.6885,"lon":139.41768},{"name":"さくら立川錦町ハウス","province":"東京都","city":"立川市","address":"立川市錦町6-2-5","lat":35.68947,"lon":139.41811},{"name":"まんまる助産院","province":"東京都","city":"立川市","address":"立川市若葉町2-1-1","lat":35.71925,"lon":139.43961},{"name":"立川相互病院","province":"東京都","city":"立川市","address":"立川市錦町1-16-15","lat":35.69665,"lon":139.42239},{"name":"立川第２荘（２）","province":"東京都","city":"立川市","address":"立川市富士見町4-15-14","lat":35.69511,"lon":139.39961},{"name":"グランドール立川","province":"東京都","city":"立川市","address":"東京都立川市","lat":35.71401612,"lon":139.40784571},{"name":"グランドール立川２","province":"東京都","city":"立川市","address":"東京都立川市","lat":35.71401612,"lon":139.40784571},{"name":"立川市社会福祉協議会","province":"東京都","city":"立川市","address":"立川市富士見町2-36-47立川市総合福祉センター内","lat":35.70138,"lon":139.40184},{"name":"東京都福祉人材センター多摩支所","province":"東京都","city":"立川市","address":"立川市曙町2-34-13オリンピック第3ビル7階","lat":35.70255,"lon":139.41466},{"name":"東京都福祉人材センター多摩支所","province":"東京都","city":"立川市","address":"立川市曙町2-34-13オリンピック第3ビル7階","lat":35.702556,"lon":139.414673},{"name":"立川第２荘（2）","province":"東京都","city":"立川市","address":"立川市富士見町4-15-14","lat":35.69511,"lon":139.39961},{"name":"まんまる助産院","province":"東京都","city":"立川市","address":"立川市若葉町2-1-1","lat":35.718989,"lon":139.439493},{"name":"立川相互病院","province":"東京都","city":"立川市","address":"立川市錦町1-16-15","lat":35.696666,"lon":139.422442},{"name":"コーポ立川","province":"東京都","city":"立川市","address":"立川市錦町6-9-8","lat":35.688636,"lon":139.418079},{"name":"コーポ立川錦町","province":"東京都","city":"立川市","address":"立川市錦町6-2-5","lat":35.689736,"lon":139.418421},{"name":"立川第２荘","province":"東京都","city":"立川市","address":"立川市富士見町4-15-14","lat":35.694865,"lon":139.399303},{"name":"相互歯科","province":"東京都","city":"立川市","address":"立川市錦町1-17-10健生会歯科ビル","lat":35.696671,"lon":139.421801},{"name":"立川相互ふれあいクリニック","province":"東京都","city":"立川市","address":"立川市錦町1-23-4","lat":35.695991,"lon":139.422562},{"name":"立川相互病院","province":"東京都","city":"立川市","address":"立川市緑町4-1","lat":35.703626,"lon":139.413293},{"name":"立川市社会福祉協議会","province":"東京都","city":"立川市","address":"立川市富士見町2-36-47立川市総合福祉センター内","lat":35.701298,"lon":139.401802},{"name":"東京都福祉人材センター人材情報室多摩支所","province":"東京都","city":"立川市","address":"立川市曙町2-34-13オリンピック第3ビル7階","lat":35.702556,"lon":139.414673},{"name":"立川第２荘","province":"東京都","city":"立川市","address":"立川市富士見町4-15-14","lat":35.69511,"lon":139.39961},{"name":"さくら立川ハウス","province":"東京都","city":"立川市","address":"立川市錦町6-9-8","lat":35.6885,"lon":139.41768},{"name":"さくら立川錦町ハウス","province":"東京都","city":"立川市","address":"立川市錦町6-2-5","lat":35.68947,"lon":139.41811},{"name":"まんまる助産院","province":"東京都","city":"立川市","address":"立川市若葉町2-1-1","lat":35.71925,"lon":139.43961},{"name":"立川相互病院","province":"東京都","city":"立川市","address":"立川市錦町1-16-15","lat":35.69665,"lon":139.42239},{"name":"立川第２荘（２）","province":"東京都","city":"立川市","address":"立川市富士見町4-15-14","lat":35.69511,"lon":139.39961},{"name":"グランドール立川","province":"東京都","city":"立川市","address":"東京都立川市","lat":35.71401612,"lon":139.40784571},{"name":"グランドール立川２","province":"東京都","city":"立川市","address":"東京都立川市","lat":35.71401612,"lon":139.40784571},{"name":"立川市社会福祉協議会","province":"東京都","city":"立川市","address":"立川市富士見町2-36-47立川市総合福祉センター内","lat":35.70138,"lon":139.40184},{"name":"東京都福祉人材センター多摩支所","province":"東京都","city":"立川市","address":"立川市曙町2-34-13オリンピック第3ビル7階","lat":35.70255,"lon":139.41466},{"name":"東京都福祉人材センター多摩支所","province":"東京都","city":"立川市","address":"立川市曙町2-34-13オリンピック第3ビル7階","lat":35.702556,"lon":139.414673},{"name":"立川第２荘（2）","province":"東京都","city":"立川市","address":"立川市富士見町4-15-14","lat":35.69511,"lon":139.39961},{"name":"まんまる助産院","province":"東京都","city":"立川市","address":"立川市若葉町2-1-1","lat":35.718989,"lon":139.439493},{"name":"立川相互病院","province":"東京都","city":"立川市","address":"立川市錦町1-16-15","lat":35.696666,"lon":139.422442},{"name":"コーポ立川","province":"東京都","city":"立川市","address":"立川市錦町6-9-8","lat":35.688636,"lon":139.418079},{"name":"コーポ立川錦町","province":"東京都","city":"立川市","address":"立川市錦町6-2-5","lat":35.689736,"lon":139.418421},{"name":"立川第２荘","province":"東京都","city":"立川市","address":"立川市富士見町4-15-14","lat":35.694865,"lon":139.399303},{"name":"相互歯科","province":"東京都","city":"立川市","address":"立川市錦町1-17-10健生会歯科ビル","lat":35.696671,"lon":139.421801},{"name":"立川相互ふれあいクリニック","province":"東京都","city":"立川市","address":"立川市錦町1-23-4","lat":35.695991,"lon":139.422562},{"name":"立川相互病院","province":"東京都","city":"立川市","address":"立川市緑町4-1","lat":35.703626,"lon":139.413293},{"name":"立川市社会福祉協議会","province":"東京都","city":"立川市","address":"立川市富士見町2-36-47立川市総合福祉センター内","lat":35.701298,"lon":139.401802},{"name":"東京都福祉人材センター人材情報室多摩支所","province":"東京都","city":"立川市","address":"立川市曙町2-34-13オリンピック第3ビル7階","lat":35.702556,"lon":139.414673},{"name":"立川第２荘","province":"東京都","city":"立川市","address":"立川市富士見町4-15-14","lat":35.69511,"lon":139.39961},{"name":"さくら立川ハウス","province":"東京都","city":"立川市","address":"立川市錦町6-9-8","lat":35.6885,"lon":139.41768},{"name":"さくら立川錦町ハウス","province":"東京都","city":"立川市","address":"立川市錦町6-2-5","lat":35.68947,"lon":139.41811},{"name":"まんまる助産院","province":"東京都","city":"立川市","address":"立川市若葉町2-1-1","lat":35.71925,"lon":139.43961},{"name":"立川相互病院","province":"東京都","city":"立川市","address":"立川市錦町1-16-15","lat":35.69665,"lon":139.42239},{"name":"立川第２荘（２）","province":"東京都","city":"立川市","address":"立川市富士見町4-15-14","lat":35.69511,"lon":139.39961},{"name":"グランドール立川","province":"東京都","city":"立川市","address":"東京都立川市","lat":35.71401612,"lon":139.40784571},{"name":"グランドール立川２","province":"東京都","city":"立川市","address":"東京都立川市","lat":35.71401612,"lon":139.40784571},{"name":"立川市社会福祉協議会","province":"東京都","city":"立川市","address":"立川市富士見町2-36-47立川市総合福祉センター内","lat":35.70138,"lon":139.40184},{"name":"東京都福祉人材センター多摩支所","province":"東京都","city":"立川市","address":"立川市曙町2-34-13オリンピック第3ビル7階","lat":35.70255,"lon":139.41466},{"name":"東京都福祉人材センター多摩支所","province":"東京都","city":"立川市","address":"立川市曙町2-34-13オリンピック第3ビル7階","lat":35.702556,"lon":139.414673},{"name":"立川第２荘（2）","province":"東京都","city":"立川市","address":"立川市富士見町4-15-14","lat":35.69511,"lon":139.39961},{"name":"まんまる助産院","province":"東京都","city":"立川市","address":"立川市若葉町2-1-1","lat":35.718989,"lon":139.439493},{"name":"立川相互病院","province":"東京都","city":"立川市","address":"立川市錦町1-16-15","lat":35.696666,"lon":139.422442},{"name":"コーポ立川","province":"東京都","city":"立川市","address":"立川市錦町6-9-8","lat":35.688636,"lon":139.418079},{"name":"コーポ立川錦町","province":"東京都","city":"立川市","address":"立川市錦町6-2-5","lat":35.689736,"lon":139.418421},{"name":"立川第２荘","province":"東京都","city":"立川市","address":"立川市富士見町4-15-14","lat":35.694865,"lon":139.399303},{"name":"相互歯科","province":"東京都","city":"立川市","address":"立川市錦町1-17-10健生会歯科ビル","lat":35.696671,"lon":139.421801},{"name":"立川相互ふれあいクリニック","province":"東京都","city":"立川市","address":"立川市錦町1-23-4","lat":35.695991,"lon":139.422562},{"name":"立川相互病院","province":"東京都","city":"立川市","address":"立川市緑町4-1","lat":35.703626,"lon":139.413293},{"name":"立川市社会福祉協議会","province":"東京都","city":"立川市","address":"立川市富士見町2-36-47立川市総合福祉センター内","lat":35.701298,"lon":139.401802},{"name":"東京都福祉人材センター人材情報室多摩支所","province":"東京都","city":"立川市","address":"立川市曙町2-34-13オリンピック第3ビル7階","lat":35.702556,"lon":139.414673},{"name":"立川第２荘","province":"東京都","city":"立川市","address":"立川市富士見町4-15-14","lat":35.69511,"lon":139.39961},{"name":"さくら立川ハウス","province":"東京都","city":"立川市","address":"立川市錦町6-9-8","lat":35.6885,"lon":139.41768},{"name":"さくら立川錦町ハウス","province":"東京都","city":"立川市","address":"立川市錦町6-2-5","lat":35.68947,"lon":139.41811},{"name":"まんまる助産院","province":"東京都","city":"立川市","address":"立川市若葉町2-1-1","lat":35.71925,"lon":139.43961},{"name":"立川相互病院","province":"東京都","city":"立川市","address":"立川市錦町1-16-15","lat":35.69665,"lon":139.42239},{"name":"立川第２荘（２）","province":"東京都","city":"立川市","address":"立川市富士見町4-15-14","lat":35.69511,"lon":139.39961},{"name":"グランドール立川","province":"東京都","city":"立川市","address":"東京都立川市","lat":35.71401612,"lon":139.40784571},{"name":"グランドール立川２","province":"東京都","city":"立川市","address":"東京都立川市","lat":35.71401612,"lon":139.40784571},{"name":"立川市社会福祉協議会","province":"東京都","city":"立川市","address":"立川市富士見町2-36-47立川市総合福祉センター内","lat":35.70138,"lon":139.40184},{"name":"東京都福祉人材センター多摩支所","province":"東京都","city":"立川市","address":"立川市曙町2-34-13オリンピック第3ビル7階","lat":35.70255,"lon":139.41466},{"name":"東京都福祉人材センター多摩支所","province":"東京都","city":"立川市","address":"立川市曙町2-34-13オリンピック第3ビル7階","lat":35.702556,"lon":139.414673},{"name":"立川第２荘（2）","province":"東京都","city":"立川市","address":"立川市富士見町4-15-14","lat":35.69511,"lon":139.39961},{"name":"まんまる助産院","province":"東京都","city":"立川市","address":"立川市若葉町2-1-1","lat":35.718989,"lon":139.439493},{"name":"立川相互病院","province":"東京都","city":"立川市","address":"立川市錦町1-16-15","lat":35.696666,"lon":139.422442},{"name":"コーポ立川","province":"東京都","city":"立川市","address":"立川市錦町6-9-8","lat":35.688636,"lon":139.418079},{"name":"コーポ立川錦町","province":"東京都","city":"立川市","address":"立川市錦町6-2-5","lat":35.689736,"lon":139.418421},{"name":"立川第２荘","province":"東京都","city":"立川市","address":"立川市富士見町4-15-14","lat":35.694865,"lon":139.399303},{"name":"相互歯科","province":"東京都","city":"立川市","address":"立川市錦町1-17-10健生会歯科ビル","lat":35.696671,"lon":139.421801},{"name":"立川相互ふれあいクリニック","province":"東京都","city":"立川市","address":"立川市錦町1-23-4","lat":35.695991,"lon":139.422562},{"name":"立川相互病院","province":"東京都","city":"立川市","address":"立川市緑町4-1","lat":35.703626,"lon":139.413293},{"name":"立川市社会福祉協議会","province":"東京都","city":"立川市","address":"立川市富士見町2-36-47立川市総合福祉センター内","lat":35.701298,"lon":139.401802},{"name":"東京都福祉人材センター人材情報室多摩支所","province":"東京都","city":"立川市","address":"立川市曙町2-34-13オリンピック第3ビル7階","lat":35.702556,"lon":139.414673},{"name":"立川第２荘","province":"東京都","city":"立川市","address":"立川市富士見町4-15-14","lat":35.69511,"lon":139.39961},{"name":"さくら立川ハウス","province":"東京都","city":"立川市","address":"立川市錦町6-9-8","lat":35.6885,"lon":139.41768},{"name":"さくら立川錦町ハウス","province":"東京都","city":"立川市","address":"立川市錦町6-2-5","lat":35.68947,"lon":139.41811},{"name":"まんまる助産院","province":"東京都","city":"立川市","address":"立川市若葉町2-1-1","lat":35.71925,"lon":139.43961},{"name":"立川相互病院","province":"東京都","city":"立川市","address":"立川市錦町1-16-15","lat":35.69665,"lon":139.42239},{"name":"立川第２荘（２）","province":"東京都","city":"立川市","address":"立川市富士見町4-15-14","lat":35.69511,"lon":139.39961},{"name":"グランドール立川","province":"東京都","city":"立川市","address":"東京都立川市","lat":35.71401612,"lon":139.40784571},{"name":"グランドール立川２","province":"東京都","city":"立川市","address":"東京都立川市","lat":35.71401612,"lon":139.40784571},{"name":"立川市社会福祉協議会","province":"東京都","city":"立川市","address":"立川市富士見町2-36-47立川市総合福祉センター内","lat":35.70138,"lon":139.40184},{"name":"東京都福祉人材センター多摩支所","province":"東京都","city":"立川市","address":"立川市曙町2-34-13オリンピック第3ビル7階","lat":35.70255,"lon":139.41466},{"name":"東京都福祉人材センター多摩支所","province":"東京都","city":"立川市","address":"立川市曙町2-34-13オリンピック第3ビル7階","lat":35.702556,"lon":139.414673},{"name":"立川第２荘（2）","province":"東京都","city":"立川市","address":"立川市富士見町4-15-14","lat":35.69511,"lon":139.39961},{"name":"まんまる助産院","province":"東京都","city":"立川市","address":"立川市若葉町2-1-1","lat":35.718989,"lon":139.439493},{"name":"立川相互病院","province":"東京都","city":"立川市","address":"立川市錦町1-16-15","lat":35.696666,"lon":139.422442},{"name":"コーポ立川","province":"東京都","city":"立川市","address":"立川市錦町6-9-8","lat":35.688636,"lon":139.418079},{"name":"コーポ立川錦町","province":"東京都","city":"立川市","address":"立川市錦町6-2-5","lat":35.689736,"lon":139.418421},{"name":"立川第２荘","province":"東京都","city":"立川市","address":"立川市富士見町4-15-14","lat":35.694865,"lon":139.399303},{"name":"相互歯科","province":"東京都","city":"立川市","address":"立川市錦町1-17-10健生会歯科ビル","lat":35.696671,"lon":139.421801},{"name":"立川相互ふれあいクリニック","province":"東京都","city":"立川市","address":"立川市錦町1-23-4","lat":35.695991,"lon":139.422562},{"name":"立川相互病院","province":"東京都","city":"立川市","address":"立川市緑町4-1","lat":35.703626,"lon":139.413293},{"name":"立川市社会福祉協議会","province":"東京都","city":"立川市","address":"立川市富士見町2-36-47立川市総合福祉センター内","lat":35.701298,"lon":139.401802},{"name":"東京都福祉人材センター人材情報室多摩支所","province":"東京都","city":"立川市","address":"立川市曙町2-34-13オリンピック第3ビル7階","lat":35.702556,"lon":139.414673},{"name":"立川第２荘","province":"東京都","city":"立川市","address":"立川市富士見町4-15-14","lat":35.69511,"lon":139.39961},{"name":"さくら立川ハウス","province":"東京都","city":"立川市","address":"立川市錦町6-9-8","lat":35.6885,"lon":139.41768},{"name":"さくら立川錦町ハウス","province":"東京都","city":"立川市","address":"立川市錦町6-2-5","lat":35.68947,"lon":139.41811},{"name":"まんまる助産院","province":"東京都","city":"立川市","address":"立川市若葉町2-1-1","lat":35.71925,"lon":139.43961},{"name":"立川相互病院","province":"東京都","city":"立川市","address":"立川市錦町1-16-15","lat":35.69665,"lon":139.42239},{"name":"立川第２荘（２）","province":"東京都","city":"立川市","address":"立川市富士見町4-15-14","lat":35.69511,"lon":139.39961},{"name":"グランドール立川","province":"東京都","city":"立川市","address":"東京都立川市","lat":35.71401612,"lon":139.40784571},{"name":"グランドール立川２","province":"東京都","city":"立川市","address":"東京都立川市","lat":35.71401612,"lon":139.40784571},{"name":"立川市社会福祉協議会","province":"東京都","city":"立川市","address":"立川市富士見町2-36-47立川市総合福祉センター内","lat":35.70138,"lon":139.40184},{"name":"東京都福祉人材センター多摩支所","province":"東京都","city":"立川市","address":"立川市曙町2-34-13オリンピック第3ビル7階","lat":35.70255,"lon":139.41466},{"name":"東京都福祉人材センター多摩支所","province":"東京都","city":"立川市","address":"立川市曙町2-34-13オリンピック第3ビル7階","lat":35.702556,"lon":139.414673},{"name":"立川第２荘（2）","province":"東京都","city":"立川市","address":"立川市富士見町4-15-14","lat":35.69511,"lon":139.39961},{"name":"まんまる助産院","province":"東京都","city":"立川市","address":"立川市若葉町2-1-1","lat":35.718989,"lon":139.439493},{"name":"立川相互病院","province":"東京都","city":"立川市","address":"立川市錦町1-16-15","lat":35.696666,"lon":139.422442},{"name":"コーポ立川","province":"東京都","city":"立川市","address":"立川市錦町6-9-8","lat":35.688636,"lon":139.418079},{"name":"コーポ立川錦町","province":"東京都","city":"立川市","address":"立川市錦町6-2-5","lat":35.689736,"lon":139.418421},{"name":"立川第２荘","province":"東京都","city":"立川市","address":"立川市富士見町4-15-14","lat":35.694865,"lon":139.399303},{"name":"相互歯科","province":"東京都","city":"立川市","address":"立川市錦町1-17-10健生会歯科ビル","lat":35.696671,"lon":139.421801},{"name":"立川相互ふれあいクリニック","province":"東京都","city":"立川市","address":"立川市錦町1-23-4","lat":35.695991,"lon":139.422562},{"name":"立川相互病院","province":"東京都","city":"立川市","address":"立川市緑町4-1","lat":35.703626,"lon":139.413293},{"name":"立川市社会福祉協議会","province":"東京都","city":"立川市","address":"立川市富士見町2-36-47立川市総合福祉センター内","lat":35.701298,"lon":139.401802},{"name":"東京都福祉人材センター人材情報室多摩支所","province":"東京都","city":"立川市","address":"立川市曙町2-34-13オリンピック第3ビル7階","lat":35.702556,"lon":139.414673},{"name":"立川第２荘","province":"東京都","city":"立川市","address":"立川市富士見町4-15-14","lat":35.69511,"lon":139.39961},{"name":"さくら立川ハウス","province":"東京都","city":"立川市","address":"立川市錦町6-9-8","lat":35.6885,"lon":139.41768},{"name":"さくら立川錦町ハウス","province":"東京都","city":"立川市","address":"立川市錦町6-2-5","lat":35.68947,"lon":139.41811},{"name":"まんまる助産院","province":"東京都","city":"立川市","address":"立川市若葉町2-1-1","lat":35.71925,"lon":139.43961},{"name":"立川相互病院","province":"東京都","city":"立川市","address":"立川市錦町1-16-15","lat":35.69665,"lon":139.42239},{"name":"立川第２荘（２）","province":"東京都","city":"立川市","address":"立川市富士見町4-15-14","lat":35.69511,"lon":139.39961},{"name":"グランドール立川","province":"東京都","city":"立川市","address":"東京都立川市","lat":35.71401612,"lon":139.40784571},{"name":"グランドール立川２","province":"東京都","city":"立川市","address":"東京都立川市","lat":35.71401612,"lon":139.40784571},{"name":"立川市社会福祉協議会","province":"東京都","city":"立川市","address":"立川市富士見町2-36-47立川市総合福祉センター内","lat":35.70138,"lon":139.40184},{"name":"東京都福祉人材センター多摩支所","province":"東京都","city":"立川市","address":"立川市曙町2-34-13オリンピック第3ビル7階","lat":35.70255,"lon":139.41466},{"name":"東京都福祉人材センター多摩支所","province":"東京都","city":"立川市","address":"立川市曙町2-34-13オリンピック第3ビル7階","lat":35.702556,"lon":139.414673},{"name":"立川第２荘（2）","province":"東京都","city":"立川市","address":"立川市富士見町4-15-14","lat":35.69511,"lon":139.39961},{"name":"まんまる助産院","province":"東京都","city":"立川市","address":"立川市若葉町2-1-1","lat":35.718989,"lon":139.439493},{"name":"立川相互病院","province":"東京都","city":"立川市","address":"立川市錦町1-16-15","lat":35.696666,"lon":139.422442},{"name":"コーポ立川","province":"東京都","city":"立川市","address":"立川市錦町6-9-8","lat":35.688636,"lon":139.418079},{"name":"コーポ立川錦町","province":"東京都","city":"立川市","address":"立川市錦町6-2-5","lat":35.689736,"lon":139.418421},{"name":"立川第２荘","province":"東京都","city":"立川市","address":"立川市富士見町4-15-14","lat":35.694865,"lon":139.399303},{"name":"相互歯科","province":"東京都","city":"立川市","address":"立川市錦町1-17-10健生会歯科ビル","lat":35.696671,"lon":139.421801},{"name":"立川相互ふれあいクリニック","province":"東京都","city":"立川市","address":"立川市錦町1-23-4","lat":35.695991,"lon":139.422562},{"name":"立川相互病院","province":"東京都","city":"立川市","address":"立川市緑町4-1","lat":35.703626,"lon":139.413293},{"name":"立川市社会福祉協議会","province":"東京都","city":"立川市","address":"立川市富士見町2-36-47立川市総合福祉センター内","lat":35.701298,"lon":139.401802},{"name":"東京都福祉人材センター人材情報室多摩支所","province":"東京都","city":"立川市","address":"立川市曙町2-34-13オリンピック第3ビル7階","lat":35.702556,"lon":139.414673},{"name":"立川第２荘","province":"東京都","city":"立川市","address":"立川市富士見町4-15-14","lat":35.69511,"lon":139.39961},{"name":"さくら立川ハウス","province":"東京都","city":"立川市","address":"立川市錦町6-9-8","lat":35.6885,"lon":139.41768},{"name":"さくら立川錦町ハウス","province":"東京都","city":"立川市","address":"立川市錦町6-2-5","lat":35.68947,"lon":139.41811},{"name":"まんまる助産院","province":"東京都","city":"立川市","address":"立川市若葉町2-1-1","lat":35.71925,"lon":139.43961},{"name":"立川相互病院","province":"東京都","city":"立川市","address":"立川市錦町1-16-15","lat":35.69665,"lon":139.42239},{"name":"立川第２荘（２）","province":"東京都","city":"立川市","address":"立川市富士見町4-15-14","lat":35.69511,"lon":139.39961},{"name":"グランドール立川","province":"東京都","city":"立川市","address":"東京都立川市","lat":35.71401612,"lon":139.40784571},{"name":"グランドール立川２","province":"東京都","city":"立川市","address":"東京都立川市","lat":35.71401612,"lon":139.40784571},{"name":"立川市社会福祉協議会","province":"東京都","city":"立川市","address":"立川市富士見町2-36-47立川市総合福祉センター内","lat":35.70138,"lon":139.40184},{"name":"東京都福祉人材センター多摩支所","province":"東京都","city":"立川市","address":"立川市曙町2-34-13オリンピック第3ビル7階","lat":35.70255,"lon":139.41466},{"name":"東京都福祉人材センター多摩支所","province":"東京都","city":"立川市","address":"立川市曙町2-34-13オリンピック第3ビル7階","lat":35.702556,"lon":139.414673},{"name":"立川第２荘（2）","province":"東京都","city":"立川市","address":"立川市富士見町4-15-14","lat":35.69511,"lon":139.39961},{"name":"まんまる助産院","province":"東京都","city":"立川市","address":"立川市若葉町2-1-1","lat":35.718989,"lon":139.439493},{"name":"立川相互病院","province":"東京都","city":"立川市","address":"立川市錦町1-16-15","lat":35.696666,"lon":139.422442},{"name":"コーポ立川","province":"東京都","city":"立川市","address":"立川市錦町6-9-8","lat":35.688636,"lon":139.418079},{"name":"コーポ立川錦町","province":"東京都","city":"立川市","address":"立川市錦町6-2-5","lat":35.689736,"lon":139.418421},{"name":"立川第２荘","province":"東京都","city":"立川市","address":"立川市富士見町4-15-14","lat":35.694865,"lon":139.399303},{"name":"相互歯科","province":"東京都","city":"立川市","address":"立川市錦町1-17-10健生会歯科ビル","lat":35.696671,"lon":139.421801},{"name":"立川相互ふれあいクリニック","province":"東京都","city":"立川市","address":"立川市錦町1-23-4","lat":35.695991,"lon":139.422562},{"name":"立川相互病院","province":"東京都","city":"立川市","address":"立川市緑町4-1","lat":35.703626,"lon":139.413293},{"name":"立川市社会福祉協議会","province":"東京都","city":"立川市","address":"立川市富士見町2-36-47立川市総合福祉センター内","lat":35.701298,"lon":139.401802},{"name":"東京都福祉人材センター人材情報室多摩支所","province":"東京都","city":"立川市","address":"立川市曙町2-34-13オリンピック第3ビル7階","lat":35.702556,"lon":139.414673},{"name":"立川第２荘","province":"東京都","city":"立川市","address":"立川市富士見町4-15-14","lat":35.69511,"lon":139.39961},{"name":"さくら立川ハウス","province":"東京都","city":"立川市","address":"立川市錦町6-9-8","lat":35.6885,"lon":139.41768},{"name":"さくら立川錦町ハウス","province":"東京都","city":"立川市","address":"立川市錦町6-2-5","lat":35.68947,"lon":139.41811},{"name":"まんまる助産院","province":"東京都","city":"立川市","address":"立川市若葉町2-1-1","lat":35.71925,"lon":139.43961},{"name":"立川相互病院","province":"東京都","city":"立川市","address":"立川市錦町1-16-15","lat":35.69665,"lon":139.42239},{"name":"立川第２荘（２）","province":"東京都","city":"立川市","address":"立川市富士見町4-15-14","lat":35.69511,"lon":139.39961},{"name":"グランドール立川","province":"東京都","city":"立川市","address":"東京都立川市","lat":35.71401612,"lon":139.40784571},{"name":"グランドール立川２","province":"東京都","city":"立川市","address":"東京都立川市","lat":35.71401612,"lon":139.40784571},{"name":"立川市社会福祉協議会","province":"東京都","city":"立川市","address":"立川市富士見町2-36-47立川市総合福祉センター内","lat":35.70138,"lon":139.40184},{"name":"東京都福祉人材センター多摩支所","province":"東京都","city":"立川市","address":"立川市曙町2-34-13オリンピック第3ビル7階","lat":35.70255,"lon":139.41466},{"name":"東京都福祉人材センター多摩支所","province":"東京都","city":"立川市","address":"立川市曙町2-34-13オリンピック第3ビル7階","lat":35.702556,"lon":139.414673},{"name":"立川第２荘（2）","province":"東京都","city":"立川市","address":"立川市富士見町4-15-14","lat":35.69511,"lon":139.39961},{"name":"まんまる助産院","province":"東京都","city":"立川市","address":"立川市若葉町2-1-1","lat":35.718989,"lon":139.439493},{"name":"立川相互病院","province":"東京都","city":"立川市","address":"立川市錦町1-16-15","lat":35.696666,"lon":139.422442},{"name":"コーポ立川","province":"東京都","city":"立川市","address":"立川市錦町6-9-8","lat":35.688636,"lon":139.418079},{"name":"コーポ立川錦町","province":"東京都","city":"立川市","address":"立川市錦町6-2-5","lat":35.689736,"lon":139.418421},{"name":"立川第２荘","province":"東京都","city":"立川市","address":"立川市富士見町4-15-14","lat":35.694865,"lon":139.399303},{"name":"相互歯科","province":"東京都","city":"立川市","address":"立川市錦町1-17-10健生会歯科ビル","lat":35.696671,"lon":139.421801},{"name":"立川相互ふれあいクリニック","province":"東京都","city":"立川市","address":"立川市錦町1-23-4","lat":35.695991,"lon":139.422562},{"name":"立川相互病院","province":"東京都","city":"立川市","address":"立川市緑町4-1","lat":35.703626,"lon":139.413293},{"name":"立川市社会福祉協議会","province":"東京都","city":"立川市","address":"立川市富士見町2-36-47立川市総合福祉センター内","lat":35.701298,"lon":139.401802},{"name":"東京都福祉人材センター人材情報室多摩支所","province":"東京都","city":"立川市","address":"立川市曙町2-34-13オリンピック第3ビル7階","lat":35.702556,"lon":139.414673},{"name":"立川第２荘","province":"東京都","city":"立川市","address":"立川市富士見町4-15-14","lat":35.69511,"lon":139.39961},{"name":"さくら立川ハウス","province":"東京都","city":"立川市","address":"立川市錦町6-9-8","lat":35.6885,"lon":139.41768},{"name":"さくら立川錦町ハウス","province":"東京都","city":"立川市","address":"立川市錦町6-2-5","lat":35.68947,"lon":139.41811},{"name":"まんまる助産院","province":"東京都","city":"立川市","address":"立川市若葉町2-1-1","lat":35.71925,"lon":139.43961},{"name":"立川相互病院","province":"東京都","city":"立川市","address":"立川市錦町1-16-15","lat":35.69665,"lon":139.42239},{"name":"立川第２荘（２）","province":"東京都","city":"立川市","address":"立川市富士見町4-15-14","lat":35.69511,"lon":139.39961},{"name":"グランドール立川","province":"東京都","city":"立川市","address":"東京都立川市","lat":35.71401612,"lon":139.40784571},{"name":"グランドール立川２","province":"東京都","city":"立川市","address":"東京都立川市","lat":35.71401612,"lon":139.40784571},{"name":"立川市社会福祉協議会","province":"東京都","city":"立川市","address":"立川市富士見町2-36-47立川市総合福祉センター内","lat":35.70138,"lon":139.40184},{"name":"東京都福祉人材センター多摩支所","province":"東京都","city":"立川市","address":"立川市曙町2-34-13オリンピック第3ビル7階","lat":35.70255,"lon":139.41466},{"name":"東京都福祉人材センター多摩支所","province":"東京都","city":"立川市","address":"立川市曙町2-34-13オリンピック第3ビル7階","lat":35.702556,"lon":139.414673},{"name":"立川第２荘（2）","province":"東京都","city":"立川市","address":"立川市富士見町4-15-14","lat":35.69511,"lon":139.39961}]}