{"keyword":"戸数","data":[{"name":"立川市社会福祉協議会","province":"東京都","city":"立川市","address":"立川市富士見町2-36-47立川市総合福祉センター内","lat":35.701298,"lon":139.401802},{"name":"立川市","province":"東京都","city":"立川市","address":"立川市泉町1156-9","lat":35.7140031,"lon":139.4078319},{"name":"株式会社クオーレ","province":"東京都","city":"立川市","address":"東京都立川市一番町1丁目41-11","lat":35.72505585,"lon":139.3829477},{"name":"多摩中央葬祭株式会社","province":"東京都","city":"立川市","address":"東京都立川市錦町4丁目8-3","lat":35.69109684,"lon":139.42126488},{"name":"有限会社成田屋","province":"東京都","city":"立川市","address":"東京都立川市羽衣町3丁目15-9","lat":35.68945263,"lon":139.42287593},{"name":"株式会社ハートフル葬祭","province":"東京都","city":"立川市","address":"東京都立川市若葉町1丁目3-27","lat":35.72089929,"lon":139.43267959},{"name":"株式会社ワイズセレモニー","province":"東京都","city":"立川市","address":"東京都立川市曙町3丁目11-20","lat":35.70087375,"lon":139.42909999},{"name":"株式会社　セレモア","province":"東京都","city":"立川市","address":"東京都立川市柏町1丁目26-4","lat":35.72092378,"lon":139.41187015},{"name":"株式会社 セレモア","province":"東京都","city":"立川市","address":"東京都立川市柏町1丁目26-4","lat":35.72092378,"lon":139.41187015},{"name":"有限会社 成田屋","province":"東京都","city":"立川市","address":"東京都立川市羽衣町3丁目15-9","lat":35.68945263,"lon":139.42287593},{"name":"株式会社 あさひセレモニー","province":"東京都","city":"立川市","address":"東京都立川市栄町6丁目1-13","lat":35.71380545,"lon":139.423475},{"name":"株式会社 ドリーミー","province":"東京都","city":"立川市","address":"東京都立川市富士見町6丁目36-27","lat":35.6929236,"lon":139.38921191},{"name":"立川市社会福祉協議会","province":"東京都","city":"立川市","address":"立川市富士見町2-36-47立川市総合福祉センター内","lat":35.70138,"lon":139.40184},{"name":"南部西ふじみ地域包括支援センター","province":"東京都","city":"立川市","address":"立川市富士見町2-36-47社会福祉協議会内","lat":35.70158,"lon":139.402008},{"name":"南部東はごろも地域包括支援センター","province":"東京都","city":"立川市","address":"立川市羽衣町1-12-18羽衣地域福祉サービスセンター内","lat":35.697369,"lon":139.425613},{"name":"中部たかまつ地域包括支援センター","province":"東京都","city":"立川市","address":"立川市高松町2-27-27TBK第2高松ビル105号","lat":35.704739,"lon":139.418625},{"name":"北部東わかば地域包括支援センター","province":"東京都","city":"立川市","address":"立川市若葉町3-45-2老人保健施設わかば内","lat":35.719658,"lon":139.441452},{"name":"北部中さいわい地域包括支援センター","province":"東京都","city":"立川市","address":"立川市幸町4-14-1至誠キートスホーム内","lat":35.724712,"lon":139.428299},{"name":"北部西かみすな地域包括支援センター","province":"東京都","city":"立川市","address":"立川市上砂町5-76-4砂川園内","lat":35.730007,"lon":139.389557},{"name":"にしき福祉相談センター","province":"東京都","city":"立川市","address":"立川市錦町6-28-15至誠ホーム内","lat":35.685169,"lon":139.416306},{"name":"かみすな福祉相談センター","province":"東京都","city":"立川市","address":"立川市上砂町1-13-1上砂地域福祉サービスセンター内","lat":35.720753,"lon":139.388092},{"name":"にしすな福祉相談センター","province":"東京都","city":"立川市","address":"立川市西砂町5-5-5西砂ホーム内","lat":35.731091,"lon":139.363205},{"name":"立川市見守りホットライン","province":"東京都","city":"立川市","address":"立川市泉町1156-9立川市役所","lat":35.715286,"lon":139.406281},{"name":"立川市役所","province":"東京都","city":"立川市","address":"立川市泉町1156-9","lat":35.715286,"lon":139.406281},{"name":"立川市消費生活センター","province":"東京都","city":"立川市","address":"立川市曙町2-36-2立川市女性総合センター5F","lat":35.701874,"lon":139.414169},{"name":"国立病院機構災害医療センター","province":"東京都","city":"立川市","address":"東京都立川市緑町3256","lat":35.70745023,"lon":139.4092319},{"name":"立川・昭島・国立火葬場","province":"東京都","city":"立川市","address":"東京都立川市羽衣町3丁目20-18","lat":35.68886941,"lon":139.42420084},{"name":"柴崎浄水所","province":"東京都","city":"立川市","address":"東京都立川市柴崎町1丁目1-41","lat":35.69686245,"lon":139.40595201},{"name":"立川栄町浄水所","province":"東京都","city":"立川市","address":"東京都立川市栄町5丁目38-5","lat":35.71814941,"lon":139.42479141},{"name":"西砂第一浄水所","province":"東京都","city":"立川市","address":"東京都立川市西砂町2丁目53-14","lat":35.73083799,"lon":139.36059394},{"name":"立川砂川浄水所","province":"東京都","city":"立川市","address":"東京都立川市砂川町6丁目41-1","lat":35.72996987,"lon":139.407348},{"name":"西砂第一浄水所（注１）","province":"東京都","city":"立川市","address":"東京都立川市西砂町2丁目53-14","lat":35.73083799,"lon":139.36059394},{"name":"国立病院機構災害医療センターヘリポート","province":"東京都","city":"立川市","address":"東京都立川市緑町3256","lat":35.70745023,"lon":139.4092319},{"name":"立川市選挙管理委員会","province":"東京都","city":"立川市","address":"立川市泉町1156-9","lat":35.714042,"lon":139.407759},{"name":"東京都農林水産振興財団（立川庁舎）","province":"東京都","city":"立川市","address":"東京都立川市富士見町3丁目8-1","lat":35.6984897,"lon":139.39270029},{"name":"立川国際中等教育学校","province":"東京都","city":"立川市","address":"東京都立川市曙町3丁目29-37","lat":35.70278462,"lon":139.42823332},{"name":"多摩教育センター","province":"東京都","city":"立川市","address":"東京都立川市錦町6丁目3-1","lat":35.68951919,"lon":139.41899846},{"name":"立川高等学校","province":"東京都","city":"立川市","address":"東京都立川市錦町2丁目13-5","lat":35.69247702,"lon":139.41289327},{"name":"砂川高等学校","province":"東京都","city":"立川市","address":"東京都立川市泉町935-4","lat":35.71814365,"lon":139.41643375},{"name":"立川都民防災教育センター（立川防災館）","province":"東京都","city":"立川市","address":"東京都立川市泉町1156-1","lat":35.71589087,"lon":139.40621247},{"name":"北多摩北部建設事務所","province":"東京都","city":"立川市","address":"立川市柴崎町2-15-19","lat":35.69497,"lon":139.4087},{"name":"多摩都市モノレール（株）","province":"東京都","city":"立川市","address":"立川市泉町1078-92","lat":35.71611,"lon":139.4094},{"name":"立川地域防災センター","province":"東京都","city":"立川市","address":"立川市緑町3233","lat":35.70627,"lon":139.4077},{"name":"市村酸素（株）","province":"東京都","city":"立川市","address":"立川市錦町2-11-5","lat":35.69225,"lon":139.4149},{"name":"東日本電信電話（株）錦町別館ビル","province":"東京都","city":"立川市","address":"立川市錦町4-12-6","lat":35.69015,"lon":139.4198},{"name":"（株）ＮＴＴドコモドコモ立川","province":"東京都","city":"立川市","address":"立川市曙町3-18-55","lat":35.70053,"lon":139.4241},{"name":"ＮＴＴコミュニケーションズ（株）立川ビル","province":"東京都","city":"立川市","address":"立川市曙町3-3-26","lat":35.69944,"lon":139.4193},{"name":"立川市社会福祉協議会","province":"東京都","city":"立川市","address":"立川市富士見町2-36-47立川市総合福祉センター内","lat":35.701298,"lon":139.401802},{"name":"立川市社会福祉協議会","province":"東京都","city":"立川市","address":"立川市富士見町2-36-47立川市総合福祉センター内","lat":35.70138,"lon":139.40184},{"name":"南部西ふじみ地域包括支援センター","province":"東京都","city":"立川市","address":"立川市富士見町2-36-47社会福祉協議会内","lat":35.70158,"lon":139.402008},{"name":"南部東はごろも地域包括支援センター","province":"東京都","city":"立川市","address":"立川市羽衣町1-12-18羽衣地域福祉サービスセンター内","lat":35.697369,"lon":139.425613},{"name":"中部たかまつ地域包括支援センター","province":"東京都","city":"立川市","address":"立川市高松町2-27-27TBK第2高松ビル105号","lat":35.704739,"lon":139.418625},{"name":"北部東わかば地域包括支援センター","province":"東京都","city":"立川市","address":"立川市若葉町3-45-2老人保健施設わかば内","lat":35.719658,"lon":139.441452},{"name":"北部中さいわい地域包括支援センター","province":"東京都","city":"立川市","address":"立川市幸町4-14-1至誠キートスホーム内","lat":35.724712,"lon":139.428299},{"name":"北部西かみすな地域包括支援センター","province":"東京都","city":"立川市","address":"立川市上砂町5-76-4砂川園内","lat":35.730007,"lon":139.389557},{"name":"にしき福祉相談センター","province":"東京都","city":"立川市","address":"立川市錦町6-28-15至誠ホーム内","lat":35.685169,"lon":139.416306},{"name":"かみすな福祉相談センター","province":"東京都","city":"立川市","address":"立川市上砂町1-13-1上砂地域福祉サービスセンター内","lat":35.720753,"lon":139.388092},{"name":"にしすな福祉相談センター","province":"東京都","city":"立川市","address":"立川市西砂町5-5-5西砂ホーム内","lat":35.731091,"lon":139.363205},{"name":"立川市見守りホットライン","province":"東京都","city":"立川市","address":"立川市泉町1156-9立川市役所","lat":35.715286,"lon":139.406281},{"name":"立川市役所","province":"東京都","city":"立川市","address":"立川市泉町1156-9","lat":35.715286,"lon":139.406281},{"name":"立川市消費生活センター","province":"東京都","city":"立川市","address":"立川市曙町2-36-2立川市女性総合センター5F","lat":35.701874,"lon":139.414169},{"name":"国立病院機構災害医療センター","province":"東京都","city":"立川市","address":"東京都立川市緑町3256","lat":35.70745023,"lon":139.4092319},{"name":"立川・昭島・国立火葬場","province":"東京都","city":"立川市","address":"東京都立川市羽衣町3丁目20-18","lat":35.68886941,"lon":139.42420084},{"name":"柴崎浄水所","province":"東京都","city":"立川市","address":"東京都立川市柴崎町1丁目1-41","lat":35.69686245,"lon":139.40595201},{"name":"立川栄町浄水所","province":"東京都","city":"立川市","address":"東京都立川市栄町5丁目38-5","lat":35.71814941,"lon":139.42479141},{"name":"西砂第一浄水所","province":"東京都","city":"立川市","address":"東京都立川市西砂町2丁目53-14","lat":35.73083799,"lon":139.36059394},{"name":"立川砂川浄水所","province":"東京都","city":"立川市","address":"東京都立川市砂川町6丁目41-1","lat":35.72996987,"lon":139.407348},{"name":"西砂第一浄水所（注１）","province":"東京都","city":"立川市","address":"東京都立川市西砂町2丁目53-14","lat":35.73083799,"lon":139.36059394},{"name":"国立病院機構災害医療センターヘリポート","province":"東京都","city":"立川市","address":"東京都立川市緑町3256","lat":35.70745023,"lon":139.4092319},{"name":"東京都農林水産振興財団（立川庁舎）","province":"東京都","city":"立川市","address":"東京都立川市富士見町3丁目8-1","lat":35.6984897,"lon":139.39270029},{"name":"立川国際中等教育学校","province":"東京都","city":"立川市","address":"東京都立川市曙町3丁目29-37","lat":35.70278462,"lon":139.42823332},{"name":"多摩教育センター","province":"東京都","city":"立川市","address":"東京都立川市錦町6丁目3-1","lat":35.68951919,"lon":139.41899846},{"name":"立川高等学校","province":"東京都","city":"立川市","address":"東京都立川市錦町2丁目13-5","lat":35.69247702,"lon":139.41289327},{"name":"砂川高等学校","province":"東京都","city":"立川市","address":"東京都立川市泉町935-4","lat":35.71814365,"lon":139.41643375},{"name":"立川都民防災教育センター（立川防災館）","province":"東京都","city":"立川市","address":"東京都立川市泉町1156-1","lat":35.71589087,"lon":139.40621247},{"name":"北多摩北部建設事務所","province":"東京都","city":"立川市","address":"立川市柴崎町2-15-19","lat":35.69497,"lon":139.4087},{"name":"多摩都市モノレール（株）","province":"東京都","city":"立川市","address":"立川市泉町1078-92","lat":35.71611,"lon":139.4094},{"name":"立川地域防災センター","province":"東京都","city":"立川市","address":"立川市緑町3233","lat":35.70627,"lon":139.4077},{"name":"市村酸素（株）","province":"東京都","city":"立川市","address":"立川市錦町2-11-5","lat":35.69225,"lon":139.4149},{"name":"東日本電信電話（株）錦町別館ビル","province":"東京都","city":"立川市","address":"立川市錦町4-12-6","lat":35.69015,"lon":139.4198},{"name":"（株）ＮＴＴドコモドコモ立川","province":"東京都","city":"立川市","address":"立川市曙町3-18-55","lat":35.70053,"lon":139.4241},{"name":"ＮＴＴコミュニケーションズ（株）立川ビル","province":"東京都","city":"立川市","address":"立川市曙町3-3-26","lat":35.69944,"lon":139.4193},{"name":"南部西ふじみ地域包括支援センター","province":"東京都","city":"立川市","address":"立川市富士見町2-36-47社会福祉協議会内","lat":35.70158,"lon":139.402008},{"name":"南部東はごろも地域包括支援センター","province":"東京都","city":"立川市","address":"立川市羽衣町1-12-18羽衣地域福祉サービスセンター内","lat":35.697369,"lon":139.425613},{"name":"中部たかまつ地域包括支援センター","province":"東京都","city":"立川市","address":"立川市高松町2-27-27TBK第2高松ビル105号","lat":35.704739,"lon":139.418625},{"name":"北部東わかば地域包括支援センター","province":"東京都","city":"立川市","address":"立川市若葉町3-45-2老人保健施設わかば内","lat":35.719658,"lon":139.441452},{"name":"北部中さいわい地域包括支援センター","province":"東京都","city":"立川市","address":"立川市幸町4-14-1至誠キートスホーム内","lat":35.724712,"lon":139.428299},{"name":"北部西かみすな地域包括支援センター","province":"東京都","city":"立川市","address":"立川市上砂町5-76-4砂川園内","lat":35.730007,"lon":139.389557},{"name":"にしき福祉相談センター","province":"東京都","city":"立川市","address":"立川市錦町6-28-15至誠ホーム内","lat":35.685169,"lon":139.416306},{"name":"かみすな福祉相談センター","province":"東京都","city":"立川市","address":"立川市上砂町1-13-1上砂地域福祉サービスセンター内","lat":35.720753,"lon":139.388092},{"name":"にしすな福祉相談センター","province":"東京都","city":"立川市","address":"立川市西砂町5-5-5西砂ホーム内","lat":35.731091,"lon":139.363205},{"name":"立川市見守りホットライン","province":"東京都","city":"立川市","address":"立川市泉町1156-9立川市役所","lat":35.715286,"lon":139.406281},{"name":"立川市役所","province":"東京都","city":"立川市","address":"立川市泉町1156-9","lat":35.715286,"lon":139.406281},{"name":"立川市消費生活センター","province":"東京都","city":"立川市","address":"立川市曙町2-36-2立川市女性総合センター5F","lat":35.701874,"lon":139.414169},{"name":"国立病院機構災害医療センター","province":"東京都","city":"立川市","address":"東京都立川市緑町3256","lat":35.70745023,"lon":139.4092319},{"name":"東京都農林水産振興財団（立川庁舎）","province":"東京都","city":"立川市","address":"東京都立川市富士見町3丁目8-1","lat":35.6984897,"lon":139.39270029},{"name":"立川国際中等教育学校","province":"東京都","city":"立川市","address":"東京都立川市曙町3丁目29-37","lat":35.70278462,"lon":139.42823332},{"name":"多摩教育センター","province":"東京都","city":"立川市","address":"東京都立川市錦町6丁目3-1","lat":35.68951919,"lon":139.41899846},{"name":"立川高等学校","province":"東京都","city":"立川市","address":"東京都立川市錦町2丁目13-5","lat":35.69247702,"lon":139.41289327},{"name":"砂川高等学校","province":"東京都","city":"立川市","address":"東京都立川市泉町935-4","lat":35.71814365,"lon":139.41643375},{"name":"立川都民防災教育センター（立川防災館）","province":"東京都","city":"立川市","address":"東京都立川市泉町1156-1","lat":35.71589087,"lon":139.40621247},{"name":"南部西ふじみ地域包括支援センター","province":"東京都","city":"立川市","address":"立川市富士見町2-36-47社会福祉協議会内","lat":35.70158,"lon":139.402008},{"name":"南部東はごろも地域包括支援センター","province":"東京都","city":"立川市","address":"立川市羽衣町1-12-18羽衣地域福祉サービスセンター内","lat":35.697369,"lon":139.425613},{"name":"中部たかまつ地域包括支援センター","province":"東京都","city":"立川市","address":"立川市高松町2-27-27TBK第2高松ビル105号","lat":35.704739,"lon":139.418625},{"name":"北部東わかば地域包括支援センター","province":"東京都","city":"立川市","address":"立川市若葉町3-45-2老人保健施設わかば内","lat":35.719658,"lon":139.441452},{"name":"北部中さいわい地域包括支援センター","province":"東京都","city":"立川市","address":"立川市幸町4-14-1至誠キートスホーム内","lat":35.724712,"lon":139.428299},{"name":"北部西かみすな地域包括支援センター","province":"東京都","city":"立川市","address":"立川市上砂町5-76-4砂川園内","lat":35.730007,"lon":139.389557},{"name":"にしき福祉相談センター","province":"東京都","city":"立川市","address":"立川市錦町6-28-15至誠ホーム内","lat":35.685169,"lon":139.416306},{"name":"かみすな福祉相談センター","province":"東京都","city":"立川市","address":"立川市上砂町1-13-1上砂地域福祉サービスセンター内","lat":35.720753,"lon":139.388092},{"name":"にしすな福祉相談センター","province":"東京都","city":"立川市","address":"立川市西砂町5-5-5西砂ホーム内","lat":35.731091,"lon":139.363205},{"name":"立川市見守りホットライン","province":"東京都","city":"立川市","address":"立川市泉町1156-9立川市役所","lat":35.715286,"lon":139.406281},{"name":"立川市役所","province":"東京都","city":"立川市","address":"立川市泉町1156-9","lat":35.715286,"lon":139.406281},{"name":"立川市消費生活センター","province":"東京都","city":"立川市","address":"立川市曙町2-36-2立川市女性総合センター5F","lat":35.701874,"lon":139.414169},{"name":"国立病院機構災害医療センター","province":"東京都","city":"立川市","address":"東京都立川市緑町3256","lat":35.70745023,"lon":139.4092319},{"name":"東京都農林水産振興財団（立川庁舎）","province":"東京都","city":"立川市","address":"東京都立川市富士見町3丁目8-1","lat":35.6984897,"lon":139.39270029},{"name":"立川国際中等教育学校","province":"東京都","city":"立川市","address":"東京都立川市曙町3丁目29-37","lat":35.70278462,"lon":139.42823332},{"name":"多摩教育センター","province":"東京都","city":"立川市","address":"東京都立川市錦町6丁目3-1","lat":35.68951919,"lon":139.41899846},{"name":"立川高等学校","province":"東京都","city":"立川市","address":"東京都立川市錦町2丁目13-5","lat":35.69247702,"lon":139.41289327},{"name":"砂川高等学校","province":"東京都","city":"立川市","address":"東京都立川市泉町935-4","lat":35.71814365,"lon":139.41643375},{"name":"立川都民防災教育センター（立川防災館）","province":"東京都","city":"立川市","address":"東京都立川市泉町1156-1","lat":35.71589087,"lon":139.40621247},{"name":"南部西ふじみ地域包括支援センター","province":"東京都","city":"立川市","address":"立川市富士見町2-36-47社会福祉協議会内","lat":35.70158,"lon":139.402008},{"name":"南部東はごろも地域包括支援センター","province":"東京都","city":"立川市","address":"立川市羽衣町1-12-18羽衣地域福祉サービスセンター内","lat":35.697369,"lon":139.425613},{"name":"中部たかまつ地域包括支援センター","province":"東京都","city":"立川市","address":"立川市高松町2-27-27TBK第2高松ビル105号","lat":35.704739,"lon":139.418625},{"name":"北部東わかば地域包括支援センター","province":"東京都","city":"立川市","address":"立川市若葉町3-45-2老人保健施設わかば内","lat":35.719658,"lon":139.441452},{"name":"北部中さいわい地域包括支援センター","province":"東京都","city":"立川市","address":"立川市幸町4-14-1至誠キートスホーム内","lat":35.724712,"lon":139.428299},{"name":"北部西かみすな地域包括支援センター","province":"東京都","city":"立川市","address":"立川市上砂町5-76-4砂川園内","lat":35.730007,"lon":139.389557},{"name":"にしき福祉相談センター","province":"東京都","city":"立川市","address":"立川市錦町6-28-15至誠ホーム内","lat":35.685169,"lon":139.416306},{"name":"かみすな福祉相談センター","province":"東京都","city":"立川市","address":"立川市上砂町1-13-1上砂地域福祉サービスセンター内","lat":35.720753,"lon":139.388092},{"name":"にしすな福祉相談センター","province":"東京都","city":"立川市","address":"立川市西砂町5-5-5西砂ホーム内","lat":35.731091,"lon":139.363205},{"name":"立川市見守りホットライン","province":"東京都","city":"立川市","address":"立川市泉町1156-9立川市役所","lat":35.715286,"lon":139.406281},{"name":"立川市役所","province":"東京都","city":"立川市","address":"立川市泉町1156-9","lat":35.715286,"lon":139.406281},{"name":"立川市消費生活センター","province":"東京都","city":"立川市","address":"立川市曙町2-36-2立川市女性総合センター5F","lat":35.701874,"lon":139.414169},{"name":"南部西ふじみ地域包括支援センター","province":"東京都","city":"立川市","address":"立川市富士見町2-36-47社会福祉協議会内","lat":35.70158,"lon":139.402008},{"name":"南部東はごろも地域包括支援センター","province":"東京都","city":"立川市","address":"立川市羽衣町1-12-18羽衣地域福祉サービスセンター内","lat":35.697369,"lon":139.425613},{"name":"中部たかまつ地域包括支援センター","province":"東京都","city":"立川市","address":"立川市高松町2-27-27TBK第2高松ビル105号","lat":35.704739,"lon":139.418625},{"name":"北部東わかば地域包括支援センター","province":"東京都","city":"立川市","address":"立川市若葉町3-45-2老人保健施設わかば内","lat":35.719658,"lon":139.441452},{"name":"北部中さいわい地域包括支援センター","province":"東京都","city":"立川市","address":"立川市幸町4-14-1至誠キートスホーム内","lat":35.724712,"lon":139.428299},{"name":"北部西かみすな地域包括支援センター","province":"東京都","city":"立川市","address":"立川市上砂町5-76-4砂川園内","lat":35.730007,"lon":139.389557},{"name":"にしき福祉相談センター","province":"東京都","city":"立川市","address":"立川市錦町6-28-15至誠ホーム内","lat":35.685169,"lon":139.416306},{"name":"かみすな福祉相談センター","province":"東京都","city":"立川市","address":"立川市上砂町1-13-1上砂地域福祉サービスセンター内","lat":35.720753,"lon":139.388092},{"name":"にしすな福祉相談センター","province":"東京都","city":"立川市","address":"立川市西砂町5-5-5西砂ホーム内","lat":35.731091,"lon":139.363205},{"name":"立川市見守りホットライン","province":"東京都","city":"立川市","address":"立川市泉町1156-9立川市役所","lat":35.715286,"lon":139.406281},{"name":"立川市役所","province":"東京都","city":"立川市","address":"立川市泉町1156-9","lat":35.715286,"lon":139.406281},{"name":"立川市消費生活センター","province":"東京都","city":"立川市","address":"立川市曙町2-36-2立川市女性総合センター5F","lat":35.701874,"lon":139.414169},{"name":"南部西ふじみ地域包括支援センター","province":"東京都","city":"立川市","address":"立川市富士見町2-36-47社会福祉協議会内","lat":35.70158,"lon":139.402008},{"name":"南部東はごろも地域包括支援センター","province":"東京都","city":"立川市","address":"立川市羽衣町1-12-18羽衣地域福祉サービスセンター内","lat":35.697369,"lon":139.425613},{"name":"中部たかまつ地域包括支援センター","province":"東京都","city":"立川市","address":"立川市高松町2-27-27TBK第2高松ビル105号","lat":35.704739,"lon":139.418625},{"name":"北部東わかば地域包括支援センター","province":"東京都","city":"立川市","address":"立川市若葉町3-45-2老人保健施設わかば内","lat":35.719658,"lon":139.441452},{"name":"北部中さいわい地域包括支援センター","province":"東京都","city":"立川市","address":"立川市幸町4-14-1至誠キートスホーム内","lat":35.724712,"lon":139.428299},{"name":"北部西かみすな地域包括支援センター","province":"東京都","city":"立川市","address":"立川市上砂町5-76-4砂川園内","lat":35.730007,"lon":139.389557},{"name":"にしき福祉相談センター","province":"東京都","city":"立川市","address":"立川市錦町6-28-15至誠ホーム内","lat":35.685169,"lon":139.416306},{"name":"かみすな福祉相談センター","province":"東京都","city":"立川市","address":"立川市上砂町1-13-1上砂地域福祉サービスセンター内","lat":35.720753,"lon":139.388092},{"name":"にしすな福祉相談センター","province":"東京都","city":"立川市","address":"立川市西砂町5-5-5西砂ホーム内","lat":35.731091,"lon":139.363205},{"name":"立川市見守りホットライン","province":"東京都","city":"立川市","address":"立川市泉町1156-9立川市役所","lat":35.715286,"lon":139.406281},{"name":"立川市役所","province":"東京都","city":"立川市","address":"立川市泉町1156-9","lat":35.715286,"lon":139.406281},{"name":"立川市消費生活センター","province":"東京都","city":"立川市","address":"立川市曙町2-36-2立川市女性総合センター5F","lat":35.701874,"lon":139.414169},{"name":"南部西ふじみ地域包括支援センター","province":"東京都","city":"立川市","address":"立川市富士見町2-36-47社会福祉協議会内","lat":35.70158,"lon":139.402008},{"name":"南部東はごろも地域包括支援センター","province":"東京都","city":"立川市","address":"立川市羽衣町1-12-18羽衣地域福祉サービスセンター内","lat":35.697369,"lon":139.425613},{"name":"中部たかまつ地域包括支援センター","province":"東京都","city":"立川市","address":"立川市高松町2-27-27TBK第2高松ビル105号","lat":35.704739,"lon":139.418625},{"name":"北部東わかば地域包括支援センター","province":"東京都","city":"立川市","address":"立川市若葉町3-45-2老人保健施設わかば内","lat":35.719658,"lon":139.441452},{"name":"北部中さいわい地域包括支援センター","province":"東京都","city":"立川市","address":"立川市幸町4-14-1至誠キートスホーム内","lat":35.724712,"lon":139.428299},{"name":"北部西かみすな地域包括支援センター","province":"東京都","city":"立川市","address":"立川市上砂町5-76-4砂川園内","lat":35.730007,"lon":139.389557},{"name":"にしき福祉相談センター","province":"東京都","city":"立川市","address":"立川市錦町6-28-15至誠ホーム内","lat":35.685169,"lon":139.416306},{"name":"かみすな福祉相談センター","province":"東京都","city":"立川市","address":"立川市上砂町1-13-1上砂地域福祉サービスセンター内","lat":35.720753,"lon":139.388092},{"name":"にしすな福祉相談センター","province":"東京都","city":"立川市","address":"立川市西砂町5-5-5西砂ホーム内","lat":35.731091,"lon":139.363205},{"name":"立川市見守りホットライン","province":"東京都","city":"立川市","address":"立川市泉町1156-9立川市役所","lat":35.715286,"lon":139.406281},{"name":"立川市役所","province":"東京都","city":"立川市","address":"立川市泉町1156-9","lat":35.715286,"lon":139.406281},{"name":"立川市消費生活センター","province":"東京都","city":"立川市","address":"立川市曙町2-36-2立川市女性総合センター5F","lat":35.701874,"lon":139.414169},{"name":"南部西ふじみ地域包括支援センター","province":"東京都","city":"立川市","address":"立川市富士見町2-36-47社会福祉協議会内","lat":35.70158,"lon":139.402008},{"name":"南部東はごろも地域包括支援センター","province":"東京都","city":"立川市","address":"立川市羽衣町1-12-18羽衣地域福祉サービスセンター内","lat":35.697369,"lon":139.425613},{"name":"中部たかまつ地域包括支援センター","province":"東京都","city":"立川市","address":"立川市高松町2-27-27TBK第2高松ビル105号","lat":35.704739,"lon":139.418625},{"name":"北部東わかば地域包括支援センター","province":"東京都","city":"立川市","address":"立川市若葉町3-45-2老人保健施設わかば内","lat":35.719658,"lon":139.441452},{"name":"北部中さいわい地域包括支援センター","province":"東京都","city":"立川市","address":"立川市幸町4-14-1至誠キートスホーム内","lat":35.724712,"lon":139.428299},{"name":"北部西かみすな地域包括支援センター","province":"東京都","city":"立川市","address":"立川市上砂町5-76-4砂川園内","lat":35.730007,"lon":139.389557},{"name":"にしき福祉相談センター","province":"東京都","city":"立川市","address":"立川市錦町6-28-15至誠ホーム内","lat":35.685169,"lon":139.416306},{"name":"かみすな福祉相談センター","province":"東京都","city":"立川市","address":"立川市上砂町1-13-1上砂地域福祉サービスセンター内","lat":35.720753,"lon":139.388092},{"name":"にしすな福祉相談センター","province":"東京都","city":"立川市","address":"立川市西砂町5-5-5西砂ホーム内","lat":35.731091,"lon":139.363205},{"name":"立川市見守りホットライン","province":"東京都","city":"立川市","address":"立川市泉町1156-9立川市役所","lat":35.715286,"lon":139.406281},{"name":"立川市役所","province":"東京都","city":"立川市","address":"立川市泉町1156-9","lat":35.715286,"lon":139.406281},{"name":"立川市消費生活センター","province":"東京都","city":"立川市","address":"立川市曙町2-36-2立川市女性総合センター5F","lat":35.701874,"lon":139.414169},{"name":"南部西ふじみ地域包括支援センター","province":"東京都","city":"立川市","address":"立川市富士見町2-36-47社会福祉協議会内","lat":35.70158,"lon":139.402008},{"name":"南部東はごろも地域包括支援センター","province":"東京都","city":"立川市","address":"立川市羽衣町1-12-18羽衣地域福祉サービスセンター内","lat":35.697369,"lon":139.425613},{"name":"中部たかまつ地域包括支援センター","province":"東京都","city":"立川市","address":"立川市高松町2-27-27TBK第2高松ビル105号","lat":35.704739,"lon":139.418625},{"name":"北部東わかば地域包括支援センター","province":"東京都","city":"立川市","address":"立川市若葉町3-45-2老人保健施設わかば内","lat":35.719658,"lon":139.441452},{"name":"北部中さいわい地域包括支援センター","province":"東京都","city":"立川市","address":"立川市幸町4-14-1至誠キートスホーム内","lat":35.724712,"lon":139.428299},{"name":"北部西かみすな地域包括支援センター","province":"東京都","city":"立川市","address":"立川市上砂町5-76-4砂川園内","lat":35.730007,"lon":139.389557},{"name":"にしき福祉相談センター","province":"東京都","city":"立川市","address":"立川市錦町6-28-15至誠ホーム内","lat":35.685169,"lon":139.416306},{"name":"かみすな福祉相談センター","province":"東京都","city":"立川市","address":"立川市上砂町1-13-1上砂地域福祉サービスセンター内","lat":35.720753,"lon":139.388092},{"name":"にしすな福祉相談センター","province":"東京都","city":"立川市","address":"立川市西砂町5-5-5西砂ホーム内","lat":35.731091,"lon":139.363205},{"name":"立川市見守りホットライン","province":"東京都","city":"立川市","address":"立川市泉町1156-9立川市役所","lat":35.715286,"lon":139.406281},{"name":"立川市役所","province":"東京都","city":"立川市","address":"立川市泉町1156-9","lat":35.715286,"lon":139.406281},{"name":"立川市消費生活センター","province":"東京都","city":"立川市","address":"立川市曙町2-36-2立川市女性総合センター5F","lat":35.701874,"lon":139.414169},{"name":"南部西ふじみ地域包括支援センター","province":"東京都","city":"立川市","address":"立川市富士見町2-36-47社会福祉協議会内","lat":35.70158,"lon":139.402008},{"name":"南部東はごろも地域包括支援センター","province":"東京都","city":"立川市","address":"立川市羽衣町1-12-18羽衣地域福祉サービスセンター内","lat":35.697369,"lon":139.425613},{"name":"中部たかまつ地域包括支援センター","province":"東京都","city":"立川市","address":"立川市高松町2-27-27TBK第2高松ビル105号","lat":35.704739,"lon":139.418625},{"name":"北部東わかば地域包括支援センター","province":"東京都","city":"立川市","address":"立川市若葉町3-45-2老人保健施設わかば内","lat":35.719658,"lon":139.441452},{"name":"北部中さいわい地域包括支援センター","province":"東京都","city":"立川市","address":"立川市幸町4-14-1至誠キートスホーム内","lat":35.724712,"lon":139.428299},{"name":"北部西かみすな地域包括支援センター","province":"東京都","city":"立川市","address":"立川市上砂町5-76-4砂川園内","lat":35.730007,"lon":139.389557},{"name":"にしき福祉相談センター","province":"東京都","city":"立川市","address":"立川市錦町6-28-15至誠ホーム内","lat":35.685169,"lon":139.416306},{"name":"かみすな福祉相談センター","province":"東京都","city":"立川市","address":"立川市上砂町1-13-1上砂地域福祉サービスセンター内","lat":35.720753,"lon":139.388092},{"name":"にしすな福祉相談センター","province":"東京都","city":"立川市","address":"立川市西砂町5-5-5西砂ホーム内","lat":35.731091,"lon":139.363205},{"name":"立川市見守りホットライン","province":"東京都","city":"立川市","address":"立川市泉町1156-9立川市役所","lat":35.715286,"lon":139.406281},{"name":"立川市役所","province":"東京都","city":"立川市","address":"立川市泉町1156-9","lat":35.715286,"lon":139.406281},{"name":"立川市消費生活センター","province":"東京都","city":"立川市","address":"立川市曙町2-36-2立川市女性総合センター5F","lat":35.701874,"lon":139.414169},{"name":"南部西ふじみ地域包括支援センター","province":"東京都","city":"立川市","address":"立川市富士見町2-36-47社会福祉協議会内","lat":35.70158,"lon":139.402008},{"name":"南部東はごろも地域包括支援センター","province":"東京都","city":"立川市","address":"立川市羽衣町1-12-18羽衣地域福祉サービスセンター内","lat":35.697369,"lon":139.425613},{"name":"中部たかまつ地域包括支援センター","province":"東京都","city":"立川市","address":"立川市高松町2-27-27TBK第2高松ビル105号","lat":35.704739,"lon":139.418625},{"name":"北部東わかば地域包括支援センター","province":"東京都","city":"立川市","address":"立川市若葉町3-45-2老人保健施設わかば内","lat":35.719658,"lon":139.441452},{"name":"北部中さいわい地域包括支援センター","province":"東京都","city":"立川市","address":"立川市幸町4-14-1至誠キートスホーム内","lat":35.724712,"lon":139.428299},{"name":"北部西かみすな地域包括支援センター","province":"東京都","city":"立川市","address":"立川市上砂町5-76-4砂川園内","lat":35.730007,"lon":139.389557},{"name":"にしき福祉相談センター","province":"東京都","city":"立川市","address":"立川市錦町6-28-15至誠ホーム内","lat":35.685169,"lon":139.416306},{"name":"かみすな福祉相談センター","province":"東京都","city":"立川市","address":"立川市上砂町1-13-1上砂地域福祉サービスセンター内","lat":35.720753,"lon":139.388092},{"name":"にしすな福祉相談センター","province":"東京都","city":"立川市","address":"立川市西砂町5-5-5西砂ホーム内","lat":35.731091,"lon":139.363205},{"name":"立川市見守りホットライン","province":"東京都","city":"立川市","address":"立川市泉町1156-9立川市役所","lat":35.715286,"lon":139.406281},{"name":"立川市役所","province":"東京都","city":"立川市","address":"立川市泉町1156-9","lat":35.715286,"lon":139.406281},{"name":"立川市消費生活センター","province":"東京都","city":"立川市","address":"立川市曙町2-36-2立川市女性総合センター5F","lat":35.701874,"lon":139.414169},{"name":"南部西ふじみ地域包括支援センター","province":"東京都","city":"立川市","address":"立川市富士見町2-36-47社会福祉協議会内","lat":35.70158,"lon":139.402008},{"name":"南部東はごろも地域包括支援センター","province":"東京都","city":"立川市","address":"立川市羽衣町1-12-18羽衣地域福祉サービスセンター内","lat":35.697369,"lon":139.425613},{"name":"中部たかまつ地域包括支援センター","province":"東京都","city":"立川市","address":"立川市高松町2-27-27TBK第2高松ビル105号","lat":35.704739,"lon":139.418625},{"name":"北部東わかば地域包括支援センター","province":"東京都","city":"立川市","address":"立川市若葉町3-45-2老人保健施設わかば内","lat":35.719658,"lon":139.441452},{"name":"北部中さいわい地域包括支援センター","province":"東京都","city":"立川市","address":"立川市幸町4-14-1至誠キートスホーム内","lat":35.724712,"lon":139.428299},{"name":"北部西かみすな地域包括支援センター","province":"東京都","city":"立川市","address":"立川市上砂町5-76-4砂川園内","lat":35.730007,"lon":139.389557},{"name":"にしき福祉相談センター","province":"東京都","city":"立川市","address":"立川市錦町6-28-15至誠ホーム内","lat":35.685169,"lon":139.416306},{"name":"かみすな福祉相談センター","province":"東京都","city":"立川市","address":"立川市上砂町1-13-1上砂地域福祉サービスセンター内","lat":35.720753,"lon":139.388092},{"name":"にしすな福祉相談センター","province":"東京都","city":"立川市","address":"立川市西砂町5-5-5西砂ホーム内","lat":35.731091,"lon":139.363205},{"name":"立川市見守りホットライン","province":"東京都","city":"立川市","address":"立川市泉町1156-9立川市役所","lat":35.715286,"lon":139.406281},{"name":"立川市役所","province":"東京都","city":"立川市","address":"立川市泉町1156-9","lat":35.715286,"lon":139.406281},{"name":"立川市消費生活センター","province":"東京都","city":"立川市","address":"立川市曙町2-36-2立川市女性総合センター5F","lat":35.701874,"lon":139.414169},{"name":"南部西ふじみ地域包括支援センター","province":"東京都","city":"立川市","address":"立川市富士見町2-36-47社会福祉協議会内","lat":35.70158,"lon":139.402008},{"name":"南部東はごろも地域包括支援センター","province":"東京都","city":"立川市","address":"立川市羽衣町1-12-18羽衣地域福祉サービスセンター内","lat":35.697369,"lon":139.425613},{"name":"中部たかまつ地域包括支援センター","province":"東京都","city":"立川市","address":"立川市高松町2-27-27TBK第2高松ビル105号","lat":35.704739,"lon":139.418625},{"name":"北部東わかば地域包括支援センター","province":"東京都","city":"立川市","address":"立川市若葉町3-45-2老人保健施設わかば内","lat":35.719658,"lon":139.441452},{"name":"北部中さいわい地域包括支援センター","province":"東京都","city":"立川市","address":"立川市幸町4-14-1至誠キートスホーム内","lat":35.724712,"lon":139.428299},{"name":"北部西かみすな地域包括支援センター","province":"東京都","city":"立川市","address":"立川市上砂町5-76-4砂川園内","lat":35.730007,"lon":139.389557},{"name":"にしき福祉相談センター","province":"東京都","city":"立川市","address":"立川市錦町6-28-15至誠ホーム内","lat":35.685169,"lon":139.416306},{"name":"かみすな福祉相談センター","province":"東京都","city":"立川市","address":"立川市上砂町1-13-1上砂地域福祉サービスセンター内","lat":35.720753,"lon":139.388092},{"name":"にしすな福祉相談センター","province":"東京都","city":"立川市","address":"立川市西砂町5-5-5西砂ホーム内","lat":35.731091,"lon":139.363205},{"name":"立川市見守りホットライン","province":"東京都","city":"立川市","address":"立川市泉町1156-9立川市役所","lat":35.715286,"lon":139.406281},{"name":"立川市役所","province":"東京都","city":"立川市","address":"立川市泉町1156-9","lat":35.715286,"lon":139.406281},{"name":"立川市消費生活センター","province":"東京都","city":"立川市","address":"立川市曙町2-36-2立川市女性総合センター5F","lat":35.701874,"lon":139.414169},{"name":"南部西ふじみ地域包括支援センター","province":"東京都","city":"立川市","address":"立川市富士見町2-36-47社会福祉協議会内","lat":35.70158,"lon":139.402008},{"name":"南部東はごろも地域包括支援センター","province":"東京都","city":"立川市","address":"立川市羽衣町1-12-18羽衣地域福祉サービスセンター内","lat":35.697369,"lon":139.425613},{"name":"中部たかまつ地域包括支援センター","province":"東京都","city":"立川市","address":"立川市高松町2-27-27TBK第2高松ビル105号","lat":35.704739,"lon":139.418625},{"name":"北部東わかば地域包括支援センター","province":"東京都","city":"立川市","address":"立川市若葉町3-45-2老人保健施設わかば内","lat":35.719658,"lon":139.441452},{"name":"北部中さいわい地域包括支援センター","province":"東京都","city":"立川市","address":"立川市幸町4-14-1至誠キートスホーム内","lat":35.724712,"lon":139.428299},{"name":"北部西かみすな地域包括支援センター","province":"東京都","city":"立川市","address":"立川市上砂町5-76-4砂川園内","lat":35.730007,"lon":139.389557},{"name":"にしき福祉相談センター","province":"東京都","city":"立川市","address":"立川市錦町6-28-15至誠ホーム内","lat":35.685169,"lon":139.416306},{"name":"かみすな福祉相談センター","province":"東京都","city":"立川市","address":"立川市上砂町1-13-1上砂地域福祉サービスセンター内","lat":35.720753,"lon":139.388092},{"name":"にしすな福祉相談センター","province":"東京都","city":"立川市","address":"立川市西砂町5-5-5西砂ホーム内","lat":35.731091,"lon":139.363205},{"name":"立川市見守りホットライン","province":"東京都","city":"立川市","address":"立川市泉町1156-9立川市役所","lat":35.715286,"lon":139.406281},{"name":"立川市役所","province":"東京都","city":"立川市","address":"立川市泉町1156-9","lat":35.715286,"lon":139.406281},{"name":"立川市消費生活センター","province":"東京都","city":"立川市","address":"立川市曙町2-36-2立川市女性総合センター5F","lat":35.701874,"lon":139.414169},{"name":"南部西ふじみ地域包括支援センター","province":"東京都","city":"立川市","address":"立川市富士見町2-36-47社会福祉協議会内","lat":35.70158,"lon":139.402008},{"name":"南部東はごろも地域包括支援センター","province":"東京都","city":"立川市","address":"立川市羽衣町1-12-18羽衣地域福祉サービスセンター内","lat":35.697369,"lon":139.425613},{"name":"中部たかまつ地域包括支援センター","province":"東京都","city":"立川市","address":"立川市高松町2-27-27TBK第2高松ビル105号","lat":35.704739,"lon":139.418625},{"name":"北部東わかば地域包括支援センター","province":"東京都","city":"立川市","address":"立川市若葉町3-45-2老人保健施設わかば内","lat":35.719658,"lon":139.441452},{"name":"北部中さいわい地域包括支援センター","province":"東京都","city":"立川市","address":"立川市幸町4-14-1至誠キートスホーム内","lat":35.724712,"lon":139.428299},{"name":"北部西かみすな地域包括支援センター","province":"東京都","city":"立川市","address":"立川市上砂町5-76-4砂川園内","lat":35.730007,"lon":139.389557},{"name":"にしき福祉相談センター","province":"東京都","city":"立川市","address":"立川市錦町6-28-15至誠ホーム内","lat":35.685169,"lon":139.416306},{"name":"かみすな福祉相談センター","province":"東京都","city":"立川市","address":"立川市上砂町1-13-1上砂地域福祉サービスセンター内","lat":35.720753,"lon":139.388092},{"name":"にしすな福祉相談センター","province":"東京都","city":"立川市","address":"立川市西砂町5-5-5西砂ホーム内","lat":35.731091,"lon":139.363205},{"name":"立川市見守りホットライン","province":"東京都","city":"立川市","address":"立川市泉町1156-9立川市役所","lat":35.715286,"lon":139.406281},{"name":"立川市役所","province":"東京都","city":"立川市","address":"立川市泉町1156-9","lat":35.715286,"lon":139.406281},{"name":"立川市消費生活センター","province":"東京都","city":"立川市","address":"立川市曙町2-36-2立川市女性総合センター5F","lat":35.701874,"lon":139.414169},{"name":"南部西ふじみ地域包括支援センター","province":"東京都","city":"立川市","address":"立川市富士見町2-36-47社会福祉協議会内","lat":35.70158,"lon":139.402008},{"name":"南部東はごろも地域包括支援センター","province":"東京都","city":"立川市","address":"立川市羽衣町1-12-18羽衣地域福祉サービスセンター内","lat":35.697369,"lon":139.425613},{"name":"中部たかまつ地域包括支援センター","province":"東京都","city":"立川市","address":"立川市高松町2-27-27TBK第2高松ビル105号","lat":35.704739,"lon":139.418625},{"name":"北部東わかば地域包括支援センター","province":"東京都","city":"立川市","address":"立川市若葉町3-45-2老人保健施設わかば内","lat":35.719658,"lon":139.441452},{"name":"北部中さいわい地域包括支援センター","province":"東京都","city":"立川市","address":"立川市幸町4-14-1至誠キートスホーム内","lat":35.724712,"lon":139.428299},{"name":"北部西かみすな地域包括支援センター","province":"東京都","city":"立川市","address":"立川市上砂町5-76-4砂川園内","lat":35.730007,"lon":139.389557},{"name":"にしき福祉相談センター","province":"東京都","city":"立川市","address":"立川市錦町6-28-15至誠ホーム内","lat":35.685169,"lon":139.416306},{"name":"かみすな福祉相談センター","province":"東京都","city":"立川市","address":"立川市上砂町1-13-1上砂地域福祉サービスセンター内","lat":35.720753,"lon":139.388092},{"name":"にしすな福祉相談センター","province":"東京都","city":"立川市","address":"立川市西砂町5-5-5西砂ホーム内","lat":35.731091,"lon":139.363205},{"name":"立川市見守りホットライン","province":"東京都","city":"立川市","address":"立川市泉町1156-9立川市役所","lat":35.715286,"lon":139.406281},{"name":"立川市役所","province":"東京都","city":"立川市","address":"立川市泉町1156-9","lat":35.715286,"lon":139.406281},{"name":"立川市消費生活センター","province":"東京都","city":"立川市","address":"立川市曙町2-36-2立川市女性総合センター5F","lat":35.701874,"lon":139.414169},{"name":"南部西ふじみ地域包括支援センター","province":"東京都","city":"立川市","address":"立川市富士見町2-36-47社会福祉協議会内","lat":35.70158,"lon":139.402008},{"name":"南部東はごろも地域包括支援センター","province":"東京都","city":"立川市","address":"立川市羽衣町1-12-18羽衣地域福祉サービスセンター内","lat":35.697369,"lon":139.425613},{"name":"中部たかまつ地域包括支援センター","province":"東京都","city":"立川市","address":"立川市高松町2-27-27TBK第2高松ビル105号","lat":35.704739,"lon":139.418625},{"name":"北部東わかば地域包括支援センター","province":"東京都","city":"立川市","address":"立川市若葉町3-45-2老人保健施設わかば内","lat":35.719658,"lon":139.441452},{"name":"北部中さいわい地域包括支援センター","province":"東京都","city":"立川市","address":"立川市幸町4-14-1至誠キートスホーム内","lat":35.724712,"lon":139.428299},{"name":"北部西かみすな地域包括支援センター","province":"東京都","city":"立川市","address":"立川市上砂町5-76-4砂川園内","lat":35.730007,"lon":139.389557},{"name":"にしき福祉相談センター","province":"東京都","city":"立川市","address":"立川市錦町6-28-15至誠ホーム内","lat":35.685169,"lon":139.416306},{"name":"かみすな福祉相談センター","province":"東京都","city":"立川市","address":"立川市上砂町1-13-1上砂地域福祉サービスセンター内","lat":35.720753,"lon":139.388092},{"name":"にしすな福祉相談センター","province":"東京都","city":"立川市","address":"立川市西砂町5-5-5西砂ホーム内","lat":35.731091,"lon":139.363205},{"name":"立川市見守りホットライン","province":"東京都","city":"立川市","address":"立川市泉町1156-9立川市役所","lat":35.715286,"lon":139.406281},{"name":"立川市役所","province":"東京都","city":"立川市","address":"立川市泉町1156-9","lat":35.715286,"lon":139.406281},{"name":"立川市消費生活センター","province":"東京都","city":"立川市","address":"立川市曙町2-36-2立川市女性総合センター5F","lat":35.701874,"lon":139.414169},{"name":"南部西ふじみ地域包括支援センター","province":"東京都","city":"立川市","address":"立川市富士見町2-36-47社会福祉協議会内","lat":35.70158,"lon":139.402008},{"name":"南部東はごろも地域包括支援センター","province":"東京都","city":"立川市","address":"立川市羽衣町1-12-18羽衣地域福祉サービスセンター内","lat":35.697369,"lon":139.425613},{"name":"中部たかまつ地域包括支援センター","province":"東京都","city":"立川市","address":"立川市高松町2-27-27TBK第2高松ビル105号","lat":35.704739,"lon":139.418625},{"name":"北部東わかば地域包括支援センター","province":"東京都","city":"立川市","address":"立川市若葉町3-45-2老人保健施設わかば内","lat":35.719658,"lon":139.441452},{"name":"北部中さいわい地域包括支援センター","province":"東京都","city":"立川市","address":"立川市幸町4-14-1至誠キートスホーム内","lat":35.724712,"lon":139.428299},{"name":"北部西かみすな地域包括支援センター","province":"東京都","city":"立川市","address":"立川市上砂町5-76-4砂川園内","lat":35.730007,"lon":139.389557},{"name":"にしき福祉相談センター","province":"東京都","city":"立川市","address":"立川市錦町6-28-15至誠ホーム内","lat":35.685169,"lon":139.416306},{"name":"かみすな福祉相談センター","province":"東京都","city":"立川市","address":"立川市上砂町1-13-1上砂地域福祉サービスセンター内","lat":35.720753,"lon":139.388092},{"name":"にしすな福祉相談センター","province":"東京都","city":"立川市","address":"立川市西砂町5-5-5西砂ホーム内","lat":35.731091,"lon":139.363205},{"name":"立川市見守りホットライン","province":"東京都","city":"立川市","address":"立川市泉町1156-9立川市役所","lat":35.715286,"lon":139.406281},{"name":"立川市役所","province":"東京都","city":"立川市","address":"立川市泉町1156-9","lat":35.715286,"lon":139.406281},{"name":"立川市消費生活センター","province":"東京都","city":"立川市","address":"立川市曙町2-36-2立川市女性総合センター5F","lat":35.701874,"lon":139.414169},{"name":"南部西ふじみ地域包括支援センター","province":"東京都","city":"立川市","address":"立川市富士見町2-36-47社会福祉協議会内","lat":35.70158,"lon":139.402008},{"name":"南部東はごろも地域包括支援センター","province":"東京都","city":"立川市","address":"立川市羽衣町1-12-18羽衣地域福祉サービスセンター内","lat":35.697369,"lon":139.425613},{"name":"中部たかまつ地域包括支援センター","province":"東京都","city":"立川市","address":"立川市高松町2-27-27TBK第2高松ビル105号","lat":35.704739,"lon":139.418625},{"name":"北部東わかば地域包括支援センター","province":"東京都","city":"立川市","address":"立川市若葉町3-45-2老人保健施設わかば内","lat":35.719658,"lon":139.441452},{"name":"北部中さいわい地域包括支援センター","province":"東京都","city":"立川市","address":"立川市幸町4-14-1至誠キートスホーム内","lat":35.724712,"lon":139.428299},{"name":"北部西かみすな地域包括支援センター","province":"東京都","city":"立川市","address":"立川市上砂町5-76-4砂川園内","lat":35.730007,"lon":139.389557},{"name":"にしき福祉相談センター","province":"東京都","city":"立川市","address":"立川市錦町6-28-15至誠ホーム内","lat":35.685169,"lon":139.416306},{"name":"かみすな福祉相談センター","province":"東京都","city":"立川市","address":"立川市上砂町1-13-1上砂地域福祉サービスセンター内","lat":35.720753,"lon":139.388092},{"name":"にしすな福祉相談センター","province":"東京都","city":"立川市","address":"立川市西砂町5-5-5西砂ホーム内","lat":35.731091,"lon":139.363205},{"name":"立川市見守りホットライン","province":"東京都","city":"立川市","address":"立川市泉町1156-9立川市役所","lat":35.715286,"lon":139.406281},{"name":"立川市役所","province":"東京都","city":"立川市","address":"立川市泉町1156-9","lat":35.715286,"lon":139.406281},{"name":"立川市消費生活センター","province":"東京都","city":"立川市","address":"立川市曙町2-36-2立川市女性総合センター5F","lat":35.701874,"lon":139.414169},{"name":"南部西ふじみ地域包括支援センター","province":"東京都","city":"立川市","address":"立川市富士見町2-36-47社会福祉協議会内","lat":35.70158,"lon":139.402008},{"name":"南部東はごろも地域包括支援センター","province":"東京都","city":"立川市","address":"立川市羽衣町1-12-18羽衣地域福祉サービスセンター内","lat":35.697369,"lon":139.425613},{"name":"中部たかまつ地域包括支援センター","province":"東京都","city":"立川市","address":"立川市高松町2-27-27TBK第2高松ビル105号","lat":35.704739,"lon":139.418625},{"name":"北部東わかば地域包括支援センター","province":"東京都","city":"立川市","address":"立川市若葉町3-45-2老人保健施設わかば内","lat":35.719658,"lon":139.441452},{"name":"北部中さいわい地域包括支援センター","province":"東京都","city":"立川市","address":"立川市幸町4-14-1至誠キートスホーム内","lat":35.724712,"lon":139.428299},{"name":"北部西かみすな地域包括支援センター","province":"東京都","city":"立川市","address":"立川市上砂町5-76-4砂川園内","lat":35.730007,"lon":139.389557},{"name":"にしき福祉相談センター","province":"東京都","city":"立川市","address":"立川市錦町6-28-15至誠ホーム内","lat":35.685169,"lon":139.416306},{"name":"かみすな福祉相談センター","province":"東京都","city":"立川市","address":"立川市上砂町1-13-1上砂地域福祉サービスセンター内","lat":35.720753,"lon":139.388092},{"name":"にしすな福祉相談センター","province":"東京都","city":"立川市","address":"立川市西砂町5-5-5西砂ホーム内","lat":35.731091,"lon":139.363205},{"name":"立川市見守りホットライン","province":"東京都","city":"立川市","address":"立川市泉町1156-9立川市役所","lat":35.715286,"lon":139.406281},{"name":"立川市役所","province":"東京都","city":"立川市","address":"立川市泉町1156-9","lat":35.715286,"lon":139.406281},{"name":"立川市消費生活センター","province":"東京都","city":"立川市","address":"立川市曙町2-36-2立川市女性総合センター5F","lat":35.701874,"lon":139.414169}]}