{"keyword":"放課後","data":[{"name":"立川らびっとくらぶ","province":"東京都","city":"立川市","address":"立川市幸町三丁目25番地1立川けやき台ハイツ1階","lat":35.722405,"lon":139.430171},{"name":"トライきっず・プロ","province":"東京都","city":"立川市","address":"立川市幸町1-10-6","lat":35.719996,"lon":139.422258},{"name":"こどもプラス立川幸町教室","province":"東京都","city":"立川市","address":"立川市幸町5-1-7フルミエールメゾン1階B","lat":35.723318,"lon":139.418386},{"name":"こぱんはうすさくら　立川幸町教室","province":"東京都","city":"立川市","address":"立川市幸町3-13-14矢島ビル1階","lat":35.720646,"lon":139.430252},{"name":"デイサービス事業　みんなの広場　１","province":"東京都","city":"立川市","address":"立川市栄町4-2-1ジュネスイトウ1階","lat":35.710745,"lon":139.423464},{"name":"スマイルJr","province":"東京都","city":"立川市","address":"立川市高松町3-25-10富士永ハイツ101","lat":35.701754,"lon":139.418376},{"name":"テイクオフ","province":"東京都","city":"立川市","address":"立川市高松町1-20-5","lat":35.709347,"lon":139.415695},{"name":"ジョブサＵ１８立川北口教室","province":"東京都","city":"立川市","address":"立川市曙町1-24-11橋本ビル7階","lat":35.700415,"lon":139.408838},{"name":"あにものいえ","province":"東京都","city":"立川市","address":"立川市羽衣町2-23-6","lat":35.694502,"lon":139.428589},{"name":"ゆいまーる","province":"東京都","city":"立川市","address":"立川市羽衣町1丁目6番10号小川ビル2階","lat":35.696324,"lon":139.423839},{"name":"ＬＩＴＡＬＩＣＯジュニア立川南口教室","province":"東京都","city":"立川市","address":"立川市柴崎町2-3-13エイティエイト立川デュオ2階","lat":35.696563,"lon":139.410807},{"name":"ドリームボックス立川","province":"東京都","city":"立川市","address":"立川市柴崎町5-8-1リバーサイドアプス1階","lat":35.689241,"lon":139.40123},{"name":"ジョブサＵ１８立川南口教室","province":"東京都","city":"立川市","address":"立川市柴崎町2-4-15ほまれ屋本社ビル201号室","lat":35.696849,"lon":139.409916},{"name":"デイサービス事業　みんなの広場　２","province":"東京都","city":"立川市","address":"立川市一番町3-17-11ローズシャトル2号館1階","lat":35.730344,"lon":139.378481},{"name":"児童デイサービス　サンフラワー","province":"東京都","city":"立川市","address":"立川市一番町5-1-5ネクサス立川1階","lat":35.73038,"lon":139.379831}]}