{"keyword":"月間","data":[{"name":"立川らびっとくらぶ","province":"東京都","city":"立川市","address":"立川市幸町三丁目25番地1立川けやき台ハイツ1階","lat":35.722405,"lon":139.430171},{"name":"トライきっず・プロ","province":"東京都","city":"立川市","address":"立川市幸町1-10-6","lat":35.719996,"lon":139.422258},{"name":"こどもプラス立川幸町教室","province":"東京都","city":"立川市","address":"立川市幸町5-1-7フルミエールメゾン1階B","lat":35.723318,"lon":139.418386},{"name":"こぱんはうすさくら　立川幸町教室","province":"東京都","city":"立川市","address":"立川市幸町3-13-14矢島ビル1階","lat":35.720646,"lon":139.430252},{"name":"デイサービス事業　みんなの広場　１","province":"東京都","city":"立川市","address":"立川市栄町4-2-1ジュネスイトウ1階","lat":35.710745,"lon":139.423464},{"name":"スマイルJr","province":"東京都","city":"立川市","address":"立川市高松町3-25-10富士永ハイツ101","lat":35.701754,"lon":139.418376},{"name":"テイクオフ","province":"東京都","city":"立川市","address":"立川市高松町1-20-5","lat":35.709347,"lon":139.415695},{"name":"ジョブサＵ１８立川北口教室","province":"東京都","city":"立川市","address":"立川市曙町1-24-11橋本ビル7階","lat":35.700415,"lon":139.408838},{"name":"あにものいえ","province":"東京都","city":"立川市","address":"立川市羽衣町2-23-6","lat":35.694502,"lon":139.428589},{"name":"ゆいまーる","province":"東京都","city":"立川市","address":"立川市羽衣町1丁目6番10号小川ビル2階","lat":35.696324,"lon":139.423839},{"name":"ＬＩＴＡＬＩＣＯジュニア立川南口教室","province":"東京都","city":"立川市","address":"立川市柴崎町2-3-13エイティエイト立川デュオ2階","lat":35.696563,"lon":139.410807},{"name":"ドリームボックス立川","province":"東京都","city":"立川市","address":"立川市柴崎町5-8-1リバーサイドアプス1階","lat":35.689241,"lon":139.40123},{"name":"ジョブサＵ１８立川南口教室","province":"東京都","city":"立川市","address":"立川市柴崎町2-4-15ほまれ屋本社ビル201号室","lat":35.696849,"lon":139.409916},{"name":"デイサービス事業　みんなの広場　２","province":"東京都","city":"立川市","address":"立川市一番町3-17-11ローズシャトル2号館1階","lat":35.730344,"lon":139.378481},{"name":"児童デイサービス　サンフラワー","province":"東京都","city":"立川市","address":"立川市一番町5-1-5ネクサス立川1階","lat":35.73038,"lon":139.379831},{"name":"立川市子ども家庭支援センター","province":"東京都","city":"立川市","address":"立川市錦町3-2-26","lat":35.694258,"lon":139.419698},{"name":"立川市子ども家庭支援センター","province":"東京都","city":"立川市","address":"立川市錦町3-2-26","lat":35.69389,"lon":139.41933},{"name":"市民会館西","province":"東京都","city":"立川市","address":"東京都立川市錦町3丁目5-1","lat":35.69314932,"lon":139.41859835},{"name":"曙橋","province":"東京都","city":"立川市","address":"東京都立川市曙町2丁目8-3","lat":35.7005817,"lon":139.41420952},{"name":"柴崎町二丁目","province":"東京都","city":"立川市","address":"東京都立川市柴崎町2丁目9-19","lat":35.69700691,"lon":139.4069158},{"name":"立川富士見町交番前","province":"東京都","city":"立川市","address":"東京都立川市富士見町6丁目19-1","lat":35.6924793,"lon":139.39275329},{"name":"立川駅北口","province":"東京都","city":"立川市","address":"東京都立川市曙町2丁目12-1","lat":35.6992013,"lon":139.41435956},{"name":"立川駅北口西","province":"東京都","city":"立川市","address":"東京都立川市曙町2丁目4-6","lat":35.69877907,"lon":139.41217364},{"name":"立川至誠老人ホーム前","province":"東京都","city":"立川市","address":"東京都立川市錦町6丁目28-15","lat":35.68536958,"lon":139.41604886},{"name":"災害医療センター前","province":"東京都","city":"立川市","address":"東京都立川市緑町3173","lat":35.70335899,"lon":139.40788769},{"name":"立川富士見町二丁目第二","province":"東京都","city":"立川市","address":"東京都立川市富士見町2丁目22-19","lat":35.70014809,"lon":139.40231607},{"name":"砂川九番北","province":"東京都","city":"立川市","address":"東京都立川市若葉町3丁目3-3","lat":35.72272686,"lon":139.43276005},{"name":"立川合同庁舎前","province":"東京都","city":"立川市","address":"東京都立川市錦町4丁目6","lat":35.69183285,"lon":139.42034548},{"name":"立川七中北","province":"東京都","city":"立川市","address":"東京都立川市西砂町5丁目34","lat":35.73520154,"lon":139.36785154},{"name":"地域センター前","province":"東京都","city":"立川市","address":"東京都立川市西砂町6丁目12-4","lat":35.72923562,"lon":139.37218204},{"name":"立川健康会館西","province":"東京都","city":"立川市","address":"東京都立川市高松町2丁目1-11","lat":35.70487018,"lon":139.41724524},{"name":"立川病院東","province":"東京都","city":"立川市","address":"東京都立川市錦町4丁目4-5","lat":35.69160795,"lon":139.42296472},{"name":"第四機動隊北","province":"東京都","city":"立川市","address":"東京都立川市緑町3567","lat":35.7125968,"lon":139.40643755},{"name":"昭和記念公園あけぼの口","province":"東京都","city":"立川市","address":"東京都立川市曙町2丁目42-23","lat":35.70177873,"lon":139.41185409},{"name":"立川市役所","province":"東京都","city":"立川市","address":"東京都立川市泉町1156-9","lat":35.71399946,"lon":139.4078846},{"name":"モノレール基地脇","province":"東京都","city":"立川市","address":"東京都立川市泉町935-1","lat":35.71253317,"lon":139.4161173},{"name":"裁判所前","province":"東京都","city":"立川市","address":"東京都立川市緑町10-4","lat":35.71203865,"lon":139.41090941},{"name":"西武立川駅南口","province":"東京都","city":"立川市","address":"東京都立川市西砂町1丁目2-27","lat":35.72528883,"lon":139.37091001},{"name":"国立病院機構災害医療センター","province":"東京都","city":"立川市","address":"東京都立川市緑町3256","lat":35.70745023,"lon":139.4092319},{"name":"立川・昭島・国立火葬場","province":"東京都","city":"立川市","address":"東京都立川市羽衣町3丁目20-18","lat":35.68886941,"lon":139.42420084},{"name":"柴崎浄水所","province":"東京都","city":"立川市","address":"東京都立川市柴崎町1丁目1-41","lat":35.69686245,"lon":139.40595201},{"name":"立川栄町浄水所","province":"東京都","city":"立川市","address":"東京都立川市栄町5丁目38-5","lat":35.71814941,"lon":139.42479141},{"name":"西砂第一浄水所","province":"東京都","city":"立川市","address":"東京都立川市西砂町2丁目53-14","lat":35.73083799,"lon":139.36059394},{"name":"立川砂川浄水所","province":"東京都","city":"立川市","address":"東京都立川市砂川町6丁目41-1","lat":35.72996987,"lon":139.407348},{"name":"西砂第一浄水所（注１）","province":"東京都","city":"立川市","address":"東京都立川市西砂町2丁目53-14","lat":35.73083799,"lon":139.36059394},{"name":"国立病院機構災害医療センターヘリポート","province":"東京都","city":"立川市","address":"東京都立川市緑町3256","lat":35.70745023,"lon":139.4092319},{"name":"＊?立川市女性総合センター・アイム","province":"東京都","city":"立川市","address":"立川市曙町2-36-2","lat":35.702202,"lon":139.414096},{"name":"多摩立川保健所","province":"東京都","city":"立川市","address":"東京都立川市柴崎町2丁目21-19","lat":35.69408784,"lon":139.408638},{"name":"立川健康会館","province":"東京都","city":"立川市","address":"東京都立川市高松町3丁目22-9","lat":35.70288991,"lon":139.41920904},{"name":"東京都農林水産振興財団（立川庁舎）","province":"東京都","city":"立川市","address":"東京都立川市富士見町3丁目8-1","lat":35.6984897,"lon":139.39270029},{"name":"立川国際中等教育学校","province":"東京都","city":"立川市","address":"東京都立川市曙町3丁目29-37","lat":35.70278462,"lon":139.42823332},{"name":"多摩教育センター","province":"東京都","city":"立川市","address":"東京都立川市錦町6丁目3-1","lat":35.68951919,"lon":139.41899846},{"name":"立川高等学校","province":"東京都","city":"立川市","address":"東京都立川市錦町2丁目13-5","lat":35.69247702,"lon":139.41289327},{"name":"砂川高等学校","province":"東京都","city":"立川市","address":"東京都立川市泉町935-4","lat":35.71814365,"lon":139.41643375},{"name":"立川都民防災教育センター（立川防災館）","province":"東京都","city":"立川市","address":"東京都立川市泉町1156-1","lat":35.71589087,"lon":139.40621247},{"name":"立川市本庁舎","province":"東京都","city":"立川市","address":"東京都立川市泉町1156-9","lat":35.71399946,"lon":139.4078846},{"name":"柴崎市民体育館","province":"東京都","city":"立川市","address":"東京都立川市柴崎町6丁目15-9","lat":35.68827745,"lon":139.4111158},{"name":"泉市民体育館","province":"東京都","city":"立川市","address":"東京都立川市泉町786-11","lat":35.71897695,"lon":139.41870575},{"name":"立川防災センター","province":"東京都","city":"立川市","address":"立川市緑町3233","lat":35.70627,"lon":139.4077},{"name":"立川市本庁舎","province":"東京都","city":"立川市","address":"立川市泉町1156-9","lat":35.714003,"lon":139.407832},{"name":"北多摩北部建設事務所","province":"東京都","city":"立川市","address":"立川市柴崎町2-15-19","lat":35.69497,"lon":139.4087},{"name":"多摩都市モノレール（株）","province":"東京都","city":"立川市","address":"立川市泉町1078-92","lat":35.71611,"lon":139.4094},{"name":"陸上自衛隊立川駐屯地","province":"東京都","city":"立川市","address":"立川市緑町5","lat":35.712357,"lon":139.402135},{"name":"陸上自衛隊東立川駐屯地","province":"東京都","city":"立川市","address":"立川市栄町1-2-10","lat":35.7052,"lon":139.4266},{"name":"警視庁多摩総合庁舎","province":"東京都","city":"立川市","address":"立川市緑町3280","lat":35.7065,"lon":139.4062},{"name":"第四機動隊","province":"東京都","city":"立川市","address":"立川市緑町3567","lat":35.7126,"lon":139.4064},{"name":"第八方面自動車警ら隊","province":"東京都","city":"立川市","address":"立川市緑町3280","lat":35.7065,"lon":139.4062},{"name":"第八方面交通機動隊","province":"東京都","city":"立川市","address":"立川市緑町3280","lat":35.7065,"lon":139.4062},{"name":"第八方面本部","province":"東京都","city":"立川市","address":"立川市緑町3280","lat":35.7065,"lon":139.4062},{"name":"立川警察署","province":"東京都","city":"立川市","address":"立川市緑町3233-2","lat":35.706271,"lon":139.407738},{"name":"立川消防署（東京消防庁多摩防災基地）","province":"東京都","city":"立川市","address":"立川市泉町1156-1","lat":35.71589,"lon":139.4062},{"name":"第八消防方面本部","province":"東京都","city":"立川市","address":"立川市泉町1156-1","lat":35.71589,"lon":139.4062},{"name":"第八方面訓練場","province":"東京都","city":"立川市","address":"立川市泉町1156-1","lat":35.71589,"lon":139.4062},{"name":"立川消防署","province":"東京都","city":"立川市","address":"立川市泉町1156-1","lat":35.71589,"lon":139.4062},{"name":"立川地域防災センター","province":"東京都","city":"立川市","address":"立川市緑町3233","lat":35.70627,"lon":139.4077},{"name":"市村酸素（株）","province":"東京都","city":"立川市","address":"立川市錦町2-11-5","lat":35.69225,"lon":139.4149},{"name":"東京都赤十字血液センター立川事業所","province":"東京都","city":"立川市","address":"立川市緑町3256","lat":35.70745,"lon":139.4092},{"name":"※立川地域防災センター","province":"東京都","city":"立川市","address":"立川市緑町3233","lat":35.70627,"lon":139.4077},{"name":"国立病院機構災害医療センターヘリポート","province":"東京都","city":"立川市","address":"立川市緑町3256","lat":35.70745,"lon":139.4092},{"name":"東日本電信電話（株）錦町別館ビル","province":"東京都","city":"立川市","address":"立川市錦町4-12-6","lat":35.69015,"lon":139.4198},{"name":"（株）ＮＴＴドコモドコモ立川","province":"東京都","city":"立川市","address":"立川市曙町3-18-55","lat":35.70053,"lon":139.4241},{"name":"ＮＴＴコミュニケーションズ（株）立川ビル","province":"東京都","city":"立川市","address":"立川市曙町3-3-26","lat":35.69944,"lon":139.4193},{"name":"東京電力（株）立川支社","province":"東京都","city":"立川市","address":"立川市緑町6-6","lat":35.70862,"lon":139.4115},{"name":"東京ガス（株）立川ビル","province":"東京都","city":"立川市","address":"立川市曙町3-6-13","lat":35.69969,"lon":139.4223},{"name":"水道局多摩水道改革推進本部／立川給水管理事務所","province":"東京都","city":"立川市","address":"立川市緑町6-7","lat":35.7086,"lon":139.4122},{"name":"流域下水道本部","province":"東京都","city":"立川市","address":"東京都立川市錦町1丁目7-26","lat":35.69556568,"lon":139.41734836},{"name":"立川地域防災センター","province":"東京都","city":"立川市","address":"東京都立川市緑町3233","lat":35.70626977,"lon":139.40773762},{"name":"※立川市本庁舎","province":"東京都","city":"立川市","address":"東京都立川市泉町1156-9","lat":35.71399946,"lon":139.4078846},{"name":"立川駅","province":"東京都","city":"立川市","address":"東京都立川市曙町2丁目1-1","lat":35.69811809,"lon":139.41402907},{"name":"※立川地域防災センター","province":"東京都","city":"立川市","address":"東京都立川市緑町3233","lat":35.70626977,"lon":139.40773762},{"name":"立川聖苑","province":"東京都","city":"立川市","address":"東京都立川市羽衣町3丁目20-18","lat":35.68886941,"lon":139.42420084},{"name":"立川らびっとくらぶ","province":"東京都","city":"立川市","address":"立川市幸町三丁目25番地1立川けやき台ハイツ1階","lat":35.722405,"lon":139.430171},{"name":"トライきっず・プロ","province":"東京都","city":"立川市","address":"立川市幸町1-10-6","lat":35.719996,"lon":139.422258},{"name":"こどもプラス立川幸町教室","province":"東京都","city":"立川市","address":"立川市幸町5-1-7フルミエールメゾン1階B","lat":35.723318,"lon":139.418386},{"name":"こぱんはうすさくら　立川幸町教室","province":"東京都","city":"立川市","address":"立川市幸町3-13-14矢島ビル1階","lat":35.720646,"lon":139.430252},{"name":"デイサービス事業　みんなの広場　１","province":"東京都","city":"立川市","address":"立川市栄町4-2-1ジュネスイトウ1階","lat":35.710745,"lon":139.423464},{"name":"スマイルJr","province":"東京都","city":"立川市","address":"立川市高松町3-25-10富士永ハイツ101","lat":35.701754,"lon":139.418376},{"name":"テイクオフ","province":"東京都","city":"立川市","address":"立川市高松町1-20-5","lat":35.709347,"lon":139.415695},{"name":"ジョブサＵ１８立川北口教室","province":"東京都","city":"立川市","address":"立川市曙町1-24-11橋本ビル7階","lat":35.700415,"lon":139.408838},{"name":"あにものいえ","province":"東京都","city":"立川市","address":"立川市羽衣町2-23-6","lat":35.694502,"lon":139.428589},{"name":"ゆいまーる","province":"東京都","city":"立川市","address":"立川市羽衣町1丁目6番10号小川ビル2階","lat":35.696324,"lon":139.423839},{"name":"ＬＩＴＡＬＩＣＯジュニア立川南口教室","province":"東京都","city":"立川市","address":"立川市柴崎町2-3-13エイティエイト立川デュオ2階","lat":35.696563,"lon":139.410807},{"name":"ドリームボックス立川","province":"東京都","city":"立川市","address":"立川市柴崎町5-8-1リバーサイドアプス1階","lat":35.689241,"lon":139.40123},{"name":"ジョブサＵ１８立川南口教室","province":"東京都","city":"立川市","address":"立川市柴崎町2-4-15ほまれ屋本社ビル201号室","lat":35.696849,"lon":139.409916},{"name":"デイサービス事業　みんなの広場　２","province":"東京都","city":"立川市","address":"立川市一番町3-17-11ローズシャトル2号館1階","lat":35.730344,"lon":139.378481},{"name":"児童デイサービス　サンフラワー","province":"東京都","city":"立川市","address":"立川市一番町5-1-5ネクサス立川1階","lat":35.73038,"lon":139.379831},{"name":"立川市子ども家庭支援センター","province":"東京都","city":"立川市","address":"立川市錦町3-2-26","lat":35.694258,"lon":139.419698},{"name":"立川市子ども家庭支援センター","province":"東京都","city":"立川市","address":"立川市錦町3-2-26","lat":35.69389,"lon":139.41933},{"name":"市民会館西","province":"東京都","city":"立川市","address":"東京都立川市錦町3丁目5-1","lat":35.69314932,"lon":139.41859835},{"name":"曙橋","province":"東京都","city":"立川市","address":"東京都立川市曙町2丁目8-3","lat":35.7005817,"lon":139.41420952},{"name":"柴崎町二丁目","province":"東京都","city":"立川市","address":"東京都立川市柴崎町2丁目9-19","lat":35.69700691,"lon":139.4069158},{"name":"立川富士見町交番前","province":"東京都","city":"立川市","address":"東京都立川市富士見町6丁目19-1","lat":35.6924793,"lon":139.39275329},{"name":"立川駅北口","province":"東京都","city":"立川市","address":"東京都立川市曙町2丁目12-1","lat":35.6992013,"lon":139.41435956},{"name":"立川駅北口西","province":"東京都","city":"立川市","address":"東京都立川市曙町2丁目4-6","lat":35.69877907,"lon":139.41217364},{"name":"立川至誠老人ホーム前","province":"東京都","city":"立川市","address":"東京都立川市錦町6丁目28-15","lat":35.68536958,"lon":139.41604886},{"name":"災害医療センター前","province":"東京都","city":"立川市","address":"東京都立川市緑町3173","lat":35.70335899,"lon":139.40788769},{"name":"立川富士見町二丁目第二","province":"東京都","city":"立川市","address":"東京都立川市富士見町2丁目22-19","lat":35.70014809,"lon":139.40231607},{"name":"砂川九番北","province":"東京都","city":"立川市","address":"東京都立川市若葉町3丁目3-3","lat":35.72272686,"lon":139.43276005},{"name":"立川合同庁舎前","province":"東京都","city":"立川市","address":"東京都立川市錦町4丁目6","lat":35.69183285,"lon":139.42034548},{"name":"立川七中北","province":"東京都","city":"立川市","address":"東京都立川市西砂町5丁目34","lat":35.73520154,"lon":139.36785154},{"name":"地域センター前","province":"東京都","city":"立川市","address":"東京都立川市西砂町6丁目12-4","lat":35.72923562,"lon":139.37218204},{"name":"立川健康会館西","province":"東京都","city":"立川市","address":"東京都立川市高松町2丁目1-11","lat":35.70487018,"lon":139.41724524},{"name":"立川病院東","province":"東京都","city":"立川市","address":"東京都立川市錦町4丁目4-5","lat":35.69160795,"lon":139.42296472},{"name":"第四機動隊北","province":"東京都","city":"立川市","address":"東京都立川市緑町3567","lat":35.7125968,"lon":139.40643755},{"name":"昭和記念公園あけぼの口","province":"東京都","city":"立川市","address":"東京都立川市曙町2丁目42-23","lat":35.70177873,"lon":139.41185409},{"name":"立川市役所","province":"東京都","city":"立川市","address":"東京都立川市泉町1156-9","lat":35.71399946,"lon":139.4078846},{"name":"モノレール基地脇","province":"東京都","city":"立川市","address":"東京都立川市泉町935-1","lat":35.71253317,"lon":139.4161173},{"name":"裁判所前","province":"東京都","city":"立川市","address":"東京都立川市緑町10-4","lat":35.71203865,"lon":139.41090941},{"name":"西武立川駅南口","province":"東京都","city":"立川市","address":"東京都立川市西砂町1丁目2-27","lat":35.72528883,"lon":139.37091001},{"name":"国立病院機構災害医療センター","province":"東京都","city":"立川市","address":"東京都立川市緑町3256","lat":35.70745023,"lon":139.4092319},{"name":"立川・昭島・国立火葬場","province":"東京都","city":"立川市","address":"東京都立川市羽衣町3丁目20-18","lat":35.68886941,"lon":139.42420084},{"name":"柴崎浄水所","province":"東京都","city":"立川市","address":"東京都立川市柴崎町1丁目1-41","lat":35.69686245,"lon":139.40595201},{"name":"立川栄町浄水所","province":"東京都","city":"立川市","address":"東京都立川市栄町5丁目38-5","lat":35.71814941,"lon":139.42479141},{"name":"西砂第一浄水所","province":"東京都","city":"立川市","address":"東京都立川市西砂町2丁目53-14","lat":35.73083799,"lon":139.36059394},{"name":"立川砂川浄水所","province":"東京都","city":"立川市","address":"東京都立川市砂川町6丁目41-1","lat":35.72996987,"lon":139.407348},{"name":"西砂第一浄水所（注１）","province":"東京都","city":"立川市","address":"東京都立川市西砂町2丁目53-14","lat":35.73083799,"lon":139.36059394},{"name":"国立病院機構災害医療センターヘリポート","province":"東京都","city":"立川市","address":"東京都立川市緑町3256","lat":35.70745023,"lon":139.4092319},{"name":"＊?立川市女性総合センター・アイム","province":"東京都","city":"立川市","address":"立川市曙町2-36-2","lat":35.702202,"lon":139.414096},{"name":"東京都農林水産振興財団（立川庁舎）","province":"東京都","city":"立川市","address":"東京都立川市富士見町3丁目8-1","lat":35.6984897,"lon":139.39270029},{"name":"立川国際中等教育学校","province":"東京都","city":"立川市","address":"東京都立川市曙町3丁目29-37","lat":35.70278462,"lon":139.42823332},{"name":"多摩教育センター","province":"東京都","city":"立川市","address":"東京都立川市錦町6丁目3-1","lat":35.68951919,"lon":139.41899846},{"name":"立川高等学校","province":"東京都","city":"立川市","address":"東京都立川市錦町2丁目13-5","lat":35.69247702,"lon":139.41289327},{"name":"砂川高等学校","province":"東京都","city":"立川市","address":"東京都立川市泉町935-4","lat":35.71814365,"lon":139.41643375},{"name":"立川都民防災教育センター（立川防災館）","province":"東京都","city":"立川市","address":"東京都立川市泉町1156-1","lat":35.71589087,"lon":139.40621247},{"name":"立川らびっとくらぶ","province":"東京都","city":"立川市","address":"立川市幸町三丁目25番地1立川けやき台ハイツ1階","lat":35.722405,"lon":139.430171},{"name":"トライきっず・プロ","province":"東京都","city":"立川市","address":"立川市幸町1-10-6","lat":35.719996,"lon":139.422258},{"name":"こどもプラス立川幸町教室","province":"東京都","city":"立川市","address":"立川市幸町5-1-7フルミエールメゾン1階B","lat":35.723318,"lon":139.418386},{"name":"こぱんはうすさくら　立川幸町教室","province":"東京都","city":"立川市","address":"立川市幸町3-13-14矢島ビル1階","lat":35.720646,"lon":139.430252},{"name":"デイサービス事業　みんなの広場　１","province":"東京都","city":"立川市","address":"立川市栄町4-2-1ジュネスイトウ1階","lat":35.710745,"lon":139.423464},{"name":"スマイルJr","province":"東京都","city":"立川市","address":"立川市高松町3-25-10富士永ハイツ101","lat":35.701754,"lon":139.418376},{"name":"テイクオフ","province":"東京都","city":"立川市","address":"立川市高松町1-20-5","lat":35.709347,"lon":139.415695},{"name":"ジョブサＵ１８立川北口教室","province":"東京都","city":"立川市","address":"立川市曙町1-24-11橋本ビル7階","lat":35.700415,"lon":139.408838},{"name":"あにものいえ","province":"東京都","city":"立川市","address":"立川市羽衣町2-23-6","lat":35.694502,"lon":139.428589},{"name":"ゆいまーる","province":"東京都","city":"立川市","address":"立川市羽衣町1丁目6番10号小川ビル2階","lat":35.696324,"lon":139.423839},{"name":"ＬＩＴＡＬＩＣＯジュニア立川南口教室","province":"東京都","city":"立川市","address":"立川市柴崎町2-3-13エイティエイト立川デュオ2階","lat":35.696563,"lon":139.410807},{"name":"ドリームボックス立川","province":"東京都","city":"立川市","address":"立川市柴崎町5-8-1リバーサイドアプス1階","lat":35.689241,"lon":139.40123},{"name":"ジョブサＵ１８立川南口教室","province":"東京都","city":"立川市","address":"立川市柴崎町2-4-15ほまれ屋本社ビル201号室","lat":35.696849,"lon":139.409916},{"name":"デイサービス事業　みんなの広場　２","province":"東京都","city":"立川市","address":"立川市一番町3-17-11ローズシャトル2号館1階","lat":35.730344,"lon":139.378481},{"name":"児童デイサービス　サンフラワー","province":"東京都","city":"立川市","address":"立川市一番町5-1-5ネクサス立川1階","lat":35.73038,"lon":139.379831},{"name":"立川市子ども家庭支援センター","province":"東京都","city":"立川市","address":"立川市錦町3-2-26","lat":35.694258,"lon":139.419698},{"name":"立川市子ども家庭支援センター","province":"東京都","city":"立川市","address":"立川市錦町3-2-26","lat":35.69389,"lon":139.41933},{"name":"市民会館西","province":"東京都","city":"立川市","address":"東京都立川市錦町3丁目5-1","lat":35.69314932,"lon":139.41859835},{"name":"曙橋","province":"東京都","city":"立川市","address":"東京都立川市曙町2丁目8-3","lat":35.7005817,"lon":139.41420952},{"name":"柴崎町二丁目","province":"東京都","city":"立川市","address":"東京都立川市柴崎町2丁目9-19","lat":35.69700691,"lon":139.4069158},{"name":"立川富士見町交番前","province":"東京都","city":"立川市","address":"東京都立川市富士見町6丁目19-1","lat":35.6924793,"lon":139.39275329},{"name":"立川駅北口","province":"東京都","city":"立川市","address":"東京都立川市曙町2丁目12-1","lat":35.6992013,"lon":139.41435956},{"name":"立川駅北口西","province":"東京都","city":"立川市","address":"東京都立川市曙町2丁目4-6","lat":35.69877907,"lon":139.41217364},{"name":"立川至誠老人ホーム前","province":"東京都","city":"立川市","address":"東京都立川市錦町6丁目28-15","lat":35.68536958,"lon":139.41604886},{"name":"災害医療センター前","province":"東京都","city":"立川市","address":"東京都立川市緑町3173","lat":35.70335899,"lon":139.40788769},{"name":"立川富士見町二丁目第二","province":"東京都","city":"立川市","address":"東京都立川市富士見町2丁目22-19","lat":35.70014809,"lon":139.40231607},{"name":"砂川九番北","province":"東京都","city":"立川市","address":"東京都立川市若葉町3丁目3-3","lat":35.72272686,"lon":139.43276005},{"name":"立川合同庁舎前","province":"東京都","city":"立川市","address":"東京都立川市錦町4丁目6","lat":35.69183285,"lon":139.42034548},{"name":"立川七中北","province":"東京都","city":"立川市","address":"東京都立川市西砂町5丁目34","lat":35.73520154,"lon":139.36785154},{"name":"地域センター前","province":"東京都","city":"立川市","address":"東京都立川市西砂町6丁目12-4","lat":35.72923562,"lon":139.37218204},{"name":"立川健康会館西","province":"東京都","city":"立川市","address":"東京都立川市高松町2丁目1-11","lat":35.70487018,"lon":139.41724524},{"name":"立川病院東","province":"東京都","city":"立川市","address":"東京都立川市錦町4丁目4-5","lat":35.69160795,"lon":139.42296472},{"name":"第四機動隊北","province":"東京都","city":"立川市","address":"東京都立川市緑町3567","lat":35.7125968,"lon":139.40643755},{"name":"昭和記念公園あけぼの口","province":"東京都","city":"立川市","address":"東京都立川市曙町2丁目42-23","lat":35.70177873,"lon":139.41185409},{"name":"立川市役所","province":"東京都","city":"立川市","address":"東京都立川市泉町1156-9","lat":35.71399946,"lon":139.4078846},{"name":"モノレール基地脇","province":"東京都","city":"立川市","address":"東京都立川市泉町935-1","lat":35.71253317,"lon":139.4161173},{"name":"裁判所前","province":"東京都","city":"立川市","address":"東京都立川市緑町10-4","lat":35.71203865,"lon":139.41090941},{"name":"西武立川駅南口","province":"東京都","city":"立川市","address":"東京都立川市西砂町1丁目2-27","lat":35.72528883,"lon":139.37091001},{"name":"国立病院機構災害医療センター","province":"東京都","city":"立川市","address":"東京都立川市緑町3256","lat":35.70745023,"lon":139.4092319},{"name":"立川・昭島・国立火葬場","province":"東京都","city":"立川市","address":"東京都立川市羽衣町3丁目20-18","lat":35.68886941,"lon":139.42420084},{"name":"柴崎浄水所","province":"東京都","city":"立川市","address":"東京都立川市柴崎町1丁目1-41","lat":35.69686245,"lon":139.40595201},{"name":"立川栄町浄水所","province":"東京都","city":"立川市","address":"東京都立川市栄町5丁目38-5","lat":35.71814941,"lon":139.42479141},{"name":"西砂第一浄水所","province":"東京都","city":"立川市","address":"東京都立川市西砂町2丁目53-14","lat":35.73083799,"lon":139.36059394},{"name":"立川砂川浄水所","province":"東京都","city":"立川市","address":"東京都立川市砂川町6丁目41-1","lat":35.72996987,"lon":139.407348},{"name":"西砂第一浄水所（注１）","province":"東京都","city":"立川市","address":"東京都立川市西砂町2丁目53-14","lat":35.73083799,"lon":139.36059394},{"name":"国立病院機構災害医療センターヘリポート","province":"東京都","city":"立川市","address":"東京都立川市緑町3256","lat":35.70745023,"lon":139.4092319},{"name":"＊?立川市女性総合センター・アイム","province":"東京都","city":"立川市","address":"立川市曙町2-36-2","lat":35.702202,"lon":139.414096},{"name":"東京都農林水産振興財団（立川庁舎）","province":"東京都","city":"立川市","address":"東京都立川市富士見町3丁目8-1","lat":35.6984897,"lon":139.39270029},{"name":"立川国際中等教育学校","province":"東京都","city":"立川市","address":"東京都立川市曙町3丁目29-37","lat":35.70278462,"lon":139.42823332},{"name":"多摩教育センター","province":"東京都","city":"立川市","address":"東京都立川市錦町6丁目3-1","lat":35.68951919,"lon":139.41899846},{"name":"立川高等学校","province":"東京都","city":"立川市","address":"東京都立川市錦町2丁目13-5","lat":35.69247702,"lon":139.41289327},{"name":"砂川高等学校","province":"東京都","city":"立川市","address":"東京都立川市泉町935-4","lat":35.71814365,"lon":139.41643375},{"name":"立川都民防災教育センター（立川防災館）","province":"東京都","city":"立川市","address":"東京都立川市泉町1156-1","lat":35.71589087,"lon":139.40621247},{"name":"立川らびっとくらぶ","province":"東京都","city":"立川市","address":"立川市幸町三丁目25番地1立川けやき台ハイツ1階","lat":35.722405,"lon":139.430171},{"name":"トライきっず・プロ","province":"東京都","city":"立川市","address":"立川市幸町1-10-6","lat":35.719996,"lon":139.422258},{"name":"こどもプラス立川幸町教室","province":"東京都","city":"立川市","address":"立川市幸町5-1-7フルミエールメゾン1階B","lat":35.723318,"lon":139.418386},{"name":"こぱんはうすさくら　立川幸町教室","province":"東京都","city":"立川市","address":"立川市幸町3-13-14矢島ビル1階","lat":35.720646,"lon":139.430252},{"name":"デイサービス事業　みんなの広場　１","province":"東京都","city":"立川市","address":"立川市栄町4-2-1ジュネスイトウ1階","lat":35.710745,"lon":139.423464},{"name":"スマイルJr","province":"東京都","city":"立川市","address":"立川市高松町3-25-10富士永ハイツ101","lat":35.701754,"lon":139.418376},{"name":"テイクオフ","province":"東京都","city":"立川市","address":"立川市高松町1-20-5","lat":35.709347,"lon":139.415695},{"name":"ジョブサＵ１８立川北口教室","province":"東京都","city":"立川市","address":"立川市曙町1-24-11橋本ビル7階","lat":35.700415,"lon":139.408838},{"name":"あにものいえ","province":"東京都","city":"立川市","address":"立川市羽衣町2-23-6","lat":35.694502,"lon":139.428589},{"name":"ゆいまーる","province":"東京都","city":"立川市","address":"立川市羽衣町1丁目6番10号小川ビル2階","lat":35.696324,"lon":139.423839},{"name":"ＬＩＴＡＬＩＣＯジュニア立川南口教室","province":"東京都","city":"立川市","address":"立川市柴崎町2-3-13エイティエイト立川デュオ2階","lat":35.696563,"lon":139.410807},{"name":"ドリームボックス立川","province":"東京都","city":"立川市","address":"立川市柴崎町5-8-1リバーサイドアプス1階","lat":35.689241,"lon":139.40123},{"name":"ジョブサＵ１８立川南口教室","province":"東京都","city":"立川市","address":"立川市柴崎町2-4-15ほまれ屋本社ビル201号室","lat":35.696849,"lon":139.409916},{"name":"デイサービス事業　みんなの広場　２","province":"東京都","city":"立川市","address":"立川市一番町3-17-11ローズシャトル2号館1階","lat":35.730344,"lon":139.378481},{"name":"児童デイサービス　サンフラワー","province":"東京都","city":"立川市","address":"立川市一番町5-1-5ネクサス立川1階","lat":35.73038,"lon":139.379831},{"name":"立川市子ども家庭支援センター","province":"東京都","city":"立川市","address":"立川市錦町3-2-26","lat":35.694258,"lon":139.419698},{"name":"立川市子ども家庭支援センター","province":"東京都","city":"立川市","address":"立川市錦町3-2-26","lat":35.69389,"lon":139.41933},{"name":"立川・昭島・国立火葬場","province":"東京都","city":"立川市","address":"東京都立川市羽衣町3丁目20-18","lat":35.68886941,"lon":139.42420084},{"name":"国立病院機構災害医療センターヘリポート","province":"東京都","city":"立川市","address":"東京都立川市緑町3256","lat":35.70745023,"lon":139.4092319},{"name":"＊?立川市女性総合センター・アイム","province":"東京都","city":"立川市","address":"立川市曙町2-36-2","lat":35.702202,"lon":139.414096},{"name":"東京都農林水産振興財団（立川庁舎）","province":"東京都","city":"立川市","address":"東京都立川市富士見町3丁目8-1","lat":35.6984897,"lon":139.39270029},{"name":"立川国際中等教育学校","province":"東京都","city":"立川市","address":"東京都立川市曙町3丁目29-37","lat":35.70278462,"lon":139.42823332},{"name":"多摩教育センター","province":"東京都","city":"立川市","address":"東京都立川市錦町6丁目3-1","lat":35.68951919,"lon":139.41899846},{"name":"立川高等学校","province":"東京都","city":"立川市","address":"東京都立川市錦町2丁目13-5","lat":35.69247702,"lon":139.41289327},{"name":"砂川高等学校","province":"東京都","city":"立川市","address":"東京都立川市泉町935-4","lat":35.71814365,"lon":139.41643375},{"name":"立川都民防災教育センター（立川防災館）","province":"東京都","city":"立川市","address":"東京都立川市泉町1156-1","lat":35.71589087,"lon":139.40621247},{"name":"立川らびっとくらぶ","province":"東京都","city":"立川市","address":"立川市幸町三丁目25番地1立川けやき台ハイツ1階","lat":35.722405,"lon":139.430171},{"name":"トライきっず・プロ","province":"東京都","city":"立川市","address":"立川市幸町1-10-6","lat":35.719996,"lon":139.422258},{"name":"こどもプラス立川幸町教室","province":"東京都","city":"立川市","address":"立川市幸町5-1-7フルミエールメゾン1階B","lat":35.723318,"lon":139.418386},{"name":"こぱんはうすさくら　立川幸町教室","province":"東京都","city":"立川市","address":"立川市幸町3-13-14矢島ビル1階","lat":35.720646,"lon":139.430252},{"name":"デイサービス事業　みんなの広場　１","province":"東京都","city":"立川市","address":"立川市栄町4-2-1ジュネスイトウ1階","lat":35.710745,"lon":139.423464},{"name":"スマイルJr","province":"東京都","city":"立川市","address":"立川市高松町3-25-10富士永ハイツ101","lat":35.701754,"lon":139.418376},{"name":"テイクオフ","province":"東京都","city":"立川市","address":"立川市高松町1-20-5","lat":35.709347,"lon":139.415695},{"name":"ジョブサＵ１８立川北口教室","province":"東京都","city":"立川市","address":"立川市曙町1-24-11橋本ビル7階","lat":35.700415,"lon":139.408838},{"name":"あにものいえ","province":"東京都","city":"立川市","address":"立川市羽衣町2-23-6","lat":35.694502,"lon":139.428589},{"name":"ゆいまーる","province":"東京都","city":"立川市","address":"立川市羽衣町1丁目6番10号小川ビル2階","lat":35.696324,"lon":139.423839},{"name":"ＬＩＴＡＬＩＣＯジュニア立川南口教室","province":"東京都","city":"立川市","address":"立川市柴崎町2-3-13エイティエイト立川デュオ2階","lat":35.696563,"lon":139.410807},{"name":"ドリームボックス立川","province":"東京都","city":"立川市","address":"立川市柴崎町5-8-1リバーサイドアプス1階","lat":35.689241,"lon":139.40123},{"name":"ジョブサＵ１８立川南口教室","province":"東京都","city":"立川市","address":"立川市柴崎町2-4-15ほまれ屋本社ビル201号室","lat":35.696849,"lon":139.409916},{"name":"デイサービス事業　みんなの広場　２","province":"東京都","city":"立川市","address":"立川市一番町3-17-11ローズシャトル2号館1階","lat":35.730344,"lon":139.378481},{"name":"児童デイサービス　サンフラワー","province":"東京都","city":"立川市","address":"立川市一番町5-1-5ネクサス立川1階","lat":35.73038,"lon":139.379831},{"name":"立川市子ども家庭支援センター","province":"東京都","city":"立川市","address":"立川市錦町3-2-26","lat":35.694258,"lon":139.419698},{"name":"立川市子ども家庭支援センター","province":"東京都","city":"立川市","address":"立川市錦町3-2-26","lat":35.69389,"lon":139.41933},{"name":"立川・昭島・国立火葬場","province":"東京都","city":"立川市","address":"東京都立川市羽衣町3丁目20-18","lat":35.68886941,"lon":139.42420084},{"name":"＊?立川市女性総合センター・アイム","province":"東京都","city":"立川市","address":"立川市曙町2-36-2","lat":35.702202,"lon":139.414096},{"name":"東京都農林水産振興財団（立川庁舎）","province":"東京都","city":"立川市","address":"東京都立川市富士見町3丁目8-1","lat":35.6984897,"lon":139.39270029},{"name":"立川国際中等教育学校","province":"東京都","city":"立川市","address":"東京都立川市曙町3丁目29-37","lat":35.70278462,"lon":139.42823332},{"name":"多摩教育センター","province":"東京都","city":"立川市","address":"東京都立川市錦町6丁目3-1","lat":35.68951919,"lon":139.41899846},{"name":"立川高等学校","province":"東京都","city":"立川市","address":"東京都立川市錦町2丁目13-5","lat":35.69247702,"lon":139.41289327},{"name":"砂川高等学校","province":"東京都","city":"立川市","address":"東京都立川市泉町935-4","lat":35.71814365,"lon":139.41643375},{"name":"立川都民防災教育センター（立川防災館）","province":"東京都","city":"立川市","address":"東京都立川市泉町1156-1","lat":35.71589087,"lon":139.40621247},{"name":"立川らびっとくらぶ","province":"東京都","city":"立川市","address":"立川市幸町三丁目25番地1立川けやき台ハイツ1階","lat":35.722405,"lon":139.430171},{"name":"トライきっず・プロ","province":"東京都","city":"立川市","address":"立川市幸町1-10-6","lat":35.719996,"lon":139.422258},{"name":"こどもプラス立川幸町教室","province":"東京都","city":"立川市","address":"立川市幸町5-1-7フルミエールメゾン1階B","lat":35.723318,"lon":139.418386},{"name":"こぱんはうすさくら　立川幸町教室","province":"東京都","city":"立川市","address":"立川市幸町3-13-14矢島ビル1階","lat":35.720646,"lon":139.430252},{"name":"デイサービス事業　みんなの広場　１","province":"東京都","city":"立川市","address":"立川市栄町4-2-1ジュネスイトウ1階","lat":35.710745,"lon":139.423464},{"name":"スマイルJr","province":"東京都","city":"立川市","address":"立川市高松町3-25-10富士永ハイツ101","lat":35.701754,"lon":139.418376},{"name":"テイクオフ","province":"東京都","city":"立川市","address":"立川市高松町1-20-5","lat":35.709347,"lon":139.415695},{"name":"ジョブサＵ１８立川北口教室","province":"東京都","city":"立川市","address":"立川市曙町1-24-11橋本ビル7階","lat":35.700415,"lon":139.408838},{"name":"あにものいえ","province":"東京都","city":"立川市","address":"立川市羽衣町2-23-6","lat":35.694502,"lon":139.428589},{"name":"ゆいまーる","province":"東京都","city":"立川市","address":"立川市羽衣町1丁目6番10号小川ビル2階","lat":35.696324,"lon":139.423839},{"name":"ＬＩＴＡＬＩＣＯジュニア立川南口教室","province":"東京都","city":"立川市","address":"立川市柴崎町2-3-13エイティエイト立川デュオ2階","lat":35.696563,"lon":139.410807},{"name":"ドリームボックス立川","province":"東京都","city":"立川市","address":"立川市柴崎町5-8-1リバーサイドアプス1階","lat":35.689241,"lon":139.40123},{"name":"ジョブサＵ１８立川南口教室","province":"東京都","city":"立川市","address":"立川市柴崎町2-4-15ほまれ屋本社ビル201号室","lat":35.696849,"lon":139.409916},{"name":"デイサービス事業　みんなの広場　２","province":"東京都","city":"立川市","address":"立川市一番町3-17-11ローズシャトル2号館1階","lat":35.730344,"lon":139.378481},{"name":"児童デイサービス　サンフラワー","province":"東京都","city":"立川市","address":"立川市一番町5-1-5ネクサス立川1階","lat":35.73038,"lon":139.379831},{"name":"立川市子ども家庭支援センター","province":"東京都","city":"立川市","address":"立川市錦町3-2-26","lat":35.694258,"lon":139.419698},{"name":"立川市子ども家庭支援センター","province":"東京都","city":"立川市","address":"立川市錦町3-2-26","lat":35.69389,"lon":139.41933},{"name":"立川・昭島・国立火葬場","province":"東京都","city":"立川市","address":"東京都立川市羽衣町3丁目20-18","lat":35.68886941,"lon":139.42420084},{"name":"＊?立川市女性総合センター・アイム","province":"東京都","city":"立川市","address":"立川市曙町2-36-2","lat":35.702202,"lon":139.414096},{"name":"東京都農林水産振興財団（立川庁舎）","province":"東京都","city":"立川市","address":"東京都立川市富士見町3丁目8-1","lat":35.6984897,"lon":139.39270029},{"name":"立川国際中等教育学校","province":"東京都","city":"立川市","address":"東京都立川市曙町3丁目29-37","lat":35.70278462,"lon":139.42823332},{"name":"多摩教育センター","province":"東京都","city":"立川市","address":"東京都立川市錦町6丁目3-1","lat":35.68951919,"lon":139.41899846},{"name":"立川高等学校","province":"東京都","city":"立川市","address":"東京都立川市錦町2丁目13-5","lat":35.69247702,"lon":139.41289327},{"name":"砂川高等学校","province":"東京都","city":"立川市","address":"東京都立川市泉町935-4","lat":35.71814365,"lon":139.41643375},{"name":"立川都民防災教育センター（立川防災館）","province":"東京都","city":"立川市","address":"東京都立川市泉町1156-1","lat":35.71589087,"lon":139.40621247},{"name":"立川らびっとくらぶ","province":"東京都","city":"立川市","address":"立川市幸町三丁目25番地1立川けやき台ハイツ1階","lat":35.722405,"lon":139.430171},{"name":"トライきっず・プロ","province":"東京都","city":"立川市","address":"立川市幸町1-10-6","lat":35.719996,"lon":139.422258},{"name":"こどもプラス立川幸町教室","province":"東京都","city":"立川市","address":"立川市幸町5-1-7フルミエールメゾン1階B","lat":35.723318,"lon":139.418386},{"name":"こぱんはうすさくら　立川幸町教室","province":"東京都","city":"立川市","address":"立川市幸町3-13-14矢島ビル1階","lat":35.720646,"lon":139.430252},{"name":"デイサービス事業　みんなの広場　１","province":"東京都","city":"立川市","address":"立川市栄町4-2-1ジュネスイトウ1階","lat":35.710745,"lon":139.423464},{"name":"スマイルJr","province":"東京都","city":"立川市","address":"立川市高松町3-25-10富士永ハイツ101","lat":35.701754,"lon":139.418376},{"name":"テイクオフ","province":"東京都","city":"立川市","address":"立川市高松町1-20-5","lat":35.709347,"lon":139.415695},{"name":"ジョブサＵ１８立川北口教室","province":"東京都","city":"立川市","address":"立川市曙町1-24-11橋本ビル7階","lat":35.700415,"lon":139.408838},{"name":"あにものいえ","province":"東京都","city":"立川市","address":"立川市羽衣町2-23-6","lat":35.694502,"lon":139.428589},{"name":"ゆいまーる","province":"東京都","city":"立川市","address":"立川市羽衣町1丁目6番10号小川ビル2階","lat":35.696324,"lon":139.423839},{"name":"ＬＩＴＡＬＩＣＯジュニア立川南口教室","province":"東京都","city":"立川市","address":"立川市柴崎町2-3-13エイティエイト立川デュオ2階","lat":35.696563,"lon":139.410807},{"name":"ドリームボックス立川","province":"東京都","city":"立川市","address":"立川市柴崎町5-8-1リバーサイドアプス1階","lat":35.689241,"lon":139.40123},{"name":"ジョブサＵ１８立川南口教室","province":"東京都","city":"立川市","address":"立川市柴崎町2-4-15ほまれ屋本社ビル201号室","lat":35.696849,"lon":139.409916},{"name":"デイサービス事業　みんなの広場　２","province":"東京都","city":"立川市","address":"立川市一番町3-17-11ローズシャトル2号館1階","lat":35.730344,"lon":139.378481},{"name":"児童デイサービス　サンフラワー","province":"東京都","city":"立川市","address":"立川市一番町5-1-5ネクサス立川1階","lat":35.73038,"lon":139.379831},{"name":"立川市子ども家庭支援センター","province":"東京都","city":"立川市","address":"立川市錦町3-2-26","lat":35.694258,"lon":139.419698},{"name":"立川市子ども家庭支援センター","province":"東京都","city":"立川市","address":"立川市錦町3-2-26","lat":35.69389,"lon":139.41933},{"name":"立川・昭島・国立火葬場","province":"東京都","city":"立川市","address":"東京都立川市羽衣町3丁目20-18","lat":35.68886941,"lon":139.42420084},{"name":"＊?立川市女性総合センター・アイム","province":"東京都","city":"立川市","address":"立川市曙町2-36-2","lat":35.702202,"lon":139.414096},{"name":"東京都農林水産振興財団（立川庁舎）","province":"東京都","city":"立川市","address":"東京都立川市富士見町3丁目8-1","lat":35.6984897,"lon":139.39270029},{"name":"立川国際中等教育学校","province":"東京都","city":"立川市","address":"東京都立川市曙町3丁目29-37","lat":35.70278462,"lon":139.42823332},{"name":"多摩教育センター","province":"東京都","city":"立川市","address":"東京都立川市錦町6丁目3-1","lat":35.68951919,"lon":139.41899846},{"name":"立川高等学校","province":"東京都","city":"立川市","address":"東京都立川市錦町2丁目13-5","lat":35.69247702,"lon":139.41289327},{"name":"砂川高等学校","province":"東京都","city":"立川市","address":"東京都立川市泉町935-4","lat":35.71814365,"lon":139.41643375},{"name":"立川都民防災教育センター（立川防災館）","province":"東京都","city":"立川市","address":"東京都立川市泉町1156-1","lat":35.71589087,"lon":139.40621247},{"name":"立川らびっとくらぶ","province":"東京都","city":"立川市","address":"立川市幸町三丁目25番地1立川けやき台ハイツ1階","lat":35.722405,"lon":139.430171},{"name":"トライきっず・プロ","province":"東京都","city":"立川市","address":"立川市幸町1-10-6","lat":35.719996,"lon":139.422258},{"name":"こどもプラス立川幸町教室","province":"東京都","city":"立川市","address":"立川市幸町5-1-7フルミエールメゾン1階B","lat":35.723318,"lon":139.418386},{"name":"こぱんはうすさくら　立川幸町教室","province":"東京都","city":"立川市","address":"立川市幸町3-13-14矢島ビル1階","lat":35.720646,"lon":139.430252},{"name":"デイサービス事業　みんなの広場　１","province":"東京都","city":"立川市","address":"立川市栄町4-2-1ジュネスイトウ1階","lat":35.710745,"lon":139.423464},{"name":"スマイルJr","province":"東京都","city":"立川市","address":"立川市高松町3-25-10富士永ハイツ101","lat":35.701754,"lon":139.418376},{"name":"テイクオフ","province":"東京都","city":"立川市","address":"立川市高松町1-20-5","lat":35.709347,"lon":139.415695},{"name":"ジョブサＵ１８立川北口教室","province":"東京都","city":"立川市","address":"立川市曙町1-24-11橋本ビル7階","lat":35.700415,"lon":139.408838},{"name":"あにものいえ","province":"東京都","city":"立川市","address":"立川市羽衣町2-23-6","lat":35.694502,"lon":139.428589},{"name":"ゆいまーる","province":"東京都","city":"立川市","address":"立川市羽衣町1丁目6番10号小川ビル2階","lat":35.696324,"lon":139.423839},{"name":"ＬＩＴＡＬＩＣＯジュニア立川南口教室","province":"東京都","city":"立川市","address":"立川市柴崎町2-3-13エイティエイト立川デュオ2階","lat":35.696563,"lon":139.410807},{"name":"ドリームボックス立川","province":"東京都","city":"立川市","address":"立川市柴崎町5-8-1リバーサイドアプス1階","lat":35.689241,"lon":139.40123},{"name":"ジョブサＵ１８立川南口教室","province":"東京都","city":"立川市","address":"立川市柴崎町2-4-15ほまれ屋本社ビル201号室","lat":35.696849,"lon":139.409916},{"name":"デイサービス事業　みんなの広場　２","province":"東京都","city":"立川市","address":"立川市一番町3-17-11ローズシャトル2号館1階","lat":35.730344,"lon":139.378481},{"name":"児童デイサービス　サンフラワー","province":"東京都","city":"立川市","address":"立川市一番町5-1-5ネクサス立川1階","lat":35.73038,"lon":139.379831},{"name":"立川市子ども家庭支援センター","province":"東京都","city":"立川市","address":"立川市錦町3-2-26","lat":35.694258,"lon":139.419698},{"name":"立川市子ども家庭支援センター","province":"東京都","city":"立川市","address":"立川市錦町3-2-26","lat":35.69389,"lon":139.41933},{"name":"立川・昭島・国立火葬場","province":"東京都","city":"立川市","address":"東京都立川市羽衣町3丁目20-18","lat":35.68886941,"lon":139.42420084},{"name":"＊?立川市女性総合センター・アイム","province":"東京都","city":"立川市","address":"立川市曙町2-36-2","lat":35.702202,"lon":139.414096},{"name":"東京都農林水産振興財団（立川庁舎）","province":"東京都","city":"立川市","address":"東京都立川市富士見町3丁目8-1","lat":35.6984897,"lon":139.39270029},{"name":"立川国際中等教育学校","province":"東京都","city":"立川市","address":"東京都立川市曙町3丁目29-37","lat":35.70278462,"lon":139.42823332},{"name":"多摩教育センター","province":"東京都","city":"立川市","address":"東京都立川市錦町6丁目3-1","lat":35.68951919,"lon":139.41899846},{"name":"立川高等学校","province":"東京都","city":"立川市","address":"東京都立川市錦町2丁目13-5","lat":35.69247702,"lon":139.41289327},{"name":"砂川高等学校","province":"東京都","city":"立川市","address":"東京都立川市泉町935-4","lat":35.71814365,"lon":139.41643375},{"name":"立川都民防災教育センター（立川防災館）","province":"東京都","city":"立川市","address":"東京都立川市泉町1156-1","lat":35.71589087,"lon":139.40621247},{"name":"立川らびっとくらぶ","province":"東京都","city":"立川市","address":"立川市幸町三丁目25番地1立川けやき台ハイツ1階","lat":35.722405,"lon":139.430171},{"name":"トライきっず・プロ","province":"東京都","city":"立川市","address":"立川市幸町1-10-6","lat":35.719996,"lon":139.422258},{"name":"こどもプラス立川幸町教室","province":"東京都","city":"立川市","address":"立川市幸町5-1-7フルミエールメゾン1階B","lat":35.723318,"lon":139.418386},{"name":"こぱんはうすさくら　立川幸町教室","province":"東京都","city":"立川市","address":"立川市幸町3-13-14矢島ビル1階","lat":35.720646,"lon":139.430252},{"name":"デイサービス事業　みんなの広場　１","province":"東京都","city":"立川市","address":"立川市栄町4-2-1ジュネスイトウ1階","lat":35.710745,"lon":139.423464},{"name":"スマイルJr","province":"東京都","city":"立川市","address":"立川市高松町3-25-10富士永ハイツ101","lat":35.701754,"lon":139.418376},{"name":"テイクオフ","province":"東京都","city":"立川市","address":"立川市高松町1-20-5","lat":35.709347,"lon":139.415695},{"name":"ジョブサＵ１８立川北口教室","province":"東京都","city":"立川市","address":"立川市曙町1-24-11橋本ビル7階","lat":35.700415,"lon":139.408838},{"name":"あにものいえ","province":"東京都","city":"立川市","address":"立川市羽衣町2-23-6","lat":35.694502,"lon":139.428589},{"name":"ゆいまーる","province":"東京都","city":"立川市","address":"立川市羽衣町1丁目6番10号小川ビル2階","lat":35.696324,"lon":139.423839},{"name":"ＬＩＴＡＬＩＣＯジュニア立川南口教室","province":"東京都","city":"立川市","address":"立川市柴崎町2-3-13エイティエイト立川デュオ2階","lat":35.696563,"lon":139.410807},{"name":"ドリームボックス立川","province":"東京都","city":"立川市","address":"立川市柴崎町5-8-1リバーサイドアプス1階","lat":35.689241,"lon":139.40123},{"name":"ジョブサＵ１８立川南口教室","province":"東京都","city":"立川市","address":"立川市柴崎町2-4-15ほまれ屋本社ビル201号室","lat":35.696849,"lon":139.409916},{"name":"デイサービス事業　みんなの広場　２","province":"東京都","city":"立川市","address":"立川市一番町3-17-11ローズシャトル2号館1階","lat":35.730344,"lon":139.378481},{"name":"児童デイサービス　サンフラワー","province":"東京都","city":"立川市","address":"立川市一番町5-1-5ネクサス立川1階","lat":35.73038,"lon":139.379831},{"name":"立川市子ども家庭支援センター","province":"東京都","city":"立川市","address":"立川市錦町3-2-26","lat":35.694258,"lon":139.419698},{"name":"立川市子ども家庭支援センター","province":"東京都","city":"立川市","address":"立川市錦町3-2-26","lat":35.69389,"lon":139.41933},{"name":"立川・昭島・国立火葬場","province":"東京都","city":"立川市","address":"東京都立川市羽衣町3丁目20-18","lat":35.68886941,"lon":139.42420084},{"name":"＊?立川市女性総合センター・アイム","province":"東京都","city":"立川市","address":"立川市曙町2-36-2","lat":35.702202,"lon":139.414096},{"name":"東京都農林水産振興財団（立川庁舎）","province":"東京都","city":"立川市","address":"東京都立川市富士見町3丁目8-1","lat":35.6984897,"lon":139.39270029},{"name":"立川国際中等教育学校","province":"東京都","city":"立川市","address":"東京都立川市曙町3丁目29-37","lat":35.70278462,"lon":139.42823332},{"name":"多摩教育センター","province":"東京都","city":"立川市","address":"東京都立川市錦町6丁目3-1","lat":35.68951919,"lon":139.41899846},{"name":"立川高等学校","province":"東京都","city":"立川市","address":"東京都立川市錦町2丁目13-5","lat":35.69247702,"lon":139.41289327},{"name":"砂川高等学校","province":"東京都","city":"立川市","address":"東京都立川市泉町935-4","lat":35.71814365,"lon":139.41643375},{"name":"立川都民防災教育センター（立川防災館）","province":"東京都","city":"立川市","address":"東京都立川市泉町1156-1","lat":35.71589087,"lon":139.40621247},{"name":"立川らびっとくらぶ","province":"東京都","city":"立川市","address":"立川市幸町三丁目25番地1立川けやき台ハイツ1階","lat":35.722405,"lon":139.430171},{"name":"トライきっず・プロ","province":"東京都","city":"立川市","address":"立川市幸町1-10-6","lat":35.719996,"lon":139.422258},{"name":"こどもプラス立川幸町教室","province":"東京都","city":"立川市","address":"立川市幸町5-1-7フルミエールメゾン1階B","lat":35.723318,"lon":139.418386},{"name":"こぱんはうすさくら　立川幸町教室","province":"東京都","city":"立川市","address":"立川市幸町3-13-14矢島ビル1階","lat":35.720646,"lon":139.430252},{"name":"デイサービス事業　みんなの広場　１","province":"東京都","city":"立川市","address":"立川市栄町4-2-1ジュネスイトウ1階","lat":35.710745,"lon":139.423464},{"name":"スマイルJr","province":"東京都","city":"立川市","address":"立川市高松町3-25-10富士永ハイツ101","lat":35.701754,"lon":139.418376},{"name":"テイクオフ","province":"東京都","city":"立川市","address":"立川市高松町1-20-5","lat":35.709347,"lon":139.415695},{"name":"ジョブサＵ１８立川北口教室","province":"東京都","city":"立川市","address":"立川市曙町1-24-11橋本ビル7階","lat":35.700415,"lon":139.408838},{"name":"あにものいえ","province":"東京都","city":"立川市","address":"立川市羽衣町2-23-6","lat":35.694502,"lon":139.428589},{"name":"ゆいまーる","province":"東京都","city":"立川市","address":"立川市羽衣町1丁目6番10号小川ビル2階","lat":35.696324,"lon":139.423839},{"name":"ＬＩＴＡＬＩＣＯジュニア立川南口教室","province":"東京都","city":"立川市","address":"立川市柴崎町2-3-13エイティエイト立川デュオ2階","lat":35.696563,"lon":139.410807},{"name":"ドリームボックス立川","province":"東京都","city":"立川市","address":"立川市柴崎町5-8-1リバーサイドアプス1階","lat":35.689241,"lon":139.40123},{"name":"ジョブサＵ１８立川南口教室","province":"東京都","city":"立川市","address":"立川市柴崎町2-4-15ほまれ屋本社ビル201号室","lat":35.696849,"lon":139.409916},{"name":"デイサービス事業　みんなの広場　２","province":"東京都","city":"立川市","address":"立川市一番町3-17-11ローズシャトル2号館1階","lat":35.730344,"lon":139.378481},{"name":"児童デイサービス　サンフラワー","province":"東京都","city":"立川市","address":"立川市一番町5-1-5ネクサス立川1階","lat":35.73038,"lon":139.379831},{"name":"立川市子ども家庭支援センター","province":"東京都","city":"立川市","address":"立川市錦町3-2-26","lat":35.694258,"lon":139.419698},{"name":"立川市子ども家庭支援センター","province":"東京都","city":"立川市","address":"立川市錦町3-2-26","lat":35.69389,"lon":139.41933},{"name":"立川・昭島・国立火葬場","province":"東京都","city":"立川市","address":"東京都立川市羽衣町3丁目20-18","lat":35.68886941,"lon":139.42420084},{"name":"＊?立川市女性総合センター・アイム","province":"東京都","city":"立川市","address":"立川市曙町2-36-2","lat":35.702202,"lon":139.414096},{"name":"東京都農林水産振興財団（立川庁舎）","province":"東京都","city":"立川市","address":"東京都立川市富士見町3丁目8-1","lat":35.6984897,"lon":139.39270029},{"name":"立川国際中等教育学校","province":"東京都","city":"立川市","address":"東京都立川市曙町3丁目29-37","lat":35.70278462,"lon":139.42823332},{"name":"多摩教育センター","province":"東京都","city":"立川市","address":"東京都立川市錦町6丁目3-1","lat":35.68951919,"lon":139.41899846},{"name":"立川高等学校","province":"東京都","city":"立川市","address":"東京都立川市錦町2丁目13-5","lat":35.69247702,"lon":139.41289327},{"name":"砂川高等学校","province":"東京都","city":"立川市","address":"東京都立川市泉町935-4","lat":35.71814365,"lon":139.41643375},{"name":"立川都民防災教育センター（立川防災館）","province":"東京都","city":"立川市","address":"東京都立川市泉町1156-1","lat":35.71589087,"lon":139.40621247},{"name":"立川らびっとくらぶ","province":"東京都","city":"立川市","address":"立川市幸町三丁目25番地1立川けやき台ハイツ1階","lat":35.722405,"lon":139.430171},{"name":"トライきっず・プロ","province":"東京都","city":"立川市","address":"立川市幸町1-10-6","lat":35.719996,"lon":139.422258},{"name":"こどもプラス立川幸町教室","province":"東京都","city":"立川市","address":"立川市幸町5-1-7フルミエールメゾン1階B","lat":35.723318,"lon":139.418386},{"name":"こぱんはうすさくら　立川幸町教室","province":"東京都","city":"立川市","address":"立川市幸町3-13-14矢島ビル1階","lat":35.720646,"lon":139.430252},{"name":"デイサービス事業　みんなの広場　１","province":"東京都","city":"立川市","address":"立川市栄町4-2-1ジュネスイトウ1階","lat":35.710745,"lon":139.423464},{"name":"スマイルJr","province":"東京都","city":"立川市","address":"立川市高松町3-25-10富士永ハイツ101","lat":35.701754,"lon":139.418376},{"name":"テイクオフ","province":"東京都","city":"立川市","address":"立川市高松町1-20-5","lat":35.709347,"lon":139.415695},{"name":"ジョブサＵ１８立川北口教室","province":"東京都","city":"立川市","address":"立川市曙町1-24-11橋本ビル7階","lat":35.700415,"lon":139.408838},{"name":"あにものいえ","province":"東京都","city":"立川市","address":"立川市羽衣町2-23-6","lat":35.694502,"lon":139.428589},{"name":"ゆいまーる","province":"東京都","city":"立川市","address":"立川市羽衣町1丁目6番10号小川ビル2階","lat":35.696324,"lon":139.423839},{"name":"ＬＩＴＡＬＩＣＯジュニア立川南口教室","province":"東京都","city":"立川市","address":"立川市柴崎町2-3-13エイティエイト立川デュオ2階","lat":35.696563,"lon":139.410807},{"name":"ドリームボックス立川","province":"東京都","city":"立川市","address":"立川市柴崎町5-8-1リバーサイドアプス1階","lat":35.689241,"lon":139.40123},{"name":"ジョブサＵ１８立川南口教室","province":"東京都","city":"立川市","address":"立川市柴崎町2-4-15ほまれ屋本社ビル201号室","lat":35.696849,"lon":139.409916},{"name":"デイサービス事業　みんなの広場　２","province":"東京都","city":"立川市","address":"立川市一番町3-17-11ローズシャトル2号館1階","lat":35.730344,"lon":139.378481},{"name":"児童デイサービス　サンフラワー","province":"東京都","city":"立川市","address":"立川市一番町5-1-5ネクサス立川1階","lat":35.73038,"lon":139.379831},{"name":"立川市子ども家庭支援センター","province":"東京都","city":"立川市","address":"立川市錦町3-2-26","lat":35.694258,"lon":139.419698},{"name":"立川市子ども家庭支援センター","province":"東京都","city":"立川市","address":"立川市錦町3-2-26","lat":35.69389,"lon":139.41933},{"name":"立川・昭島・国立火葬場","province":"東京都","city":"立川市","address":"東京都立川市羽衣町3丁目20-18","lat":35.68886941,"lon":139.42420084},{"name":"＊?立川市女性総合センター・アイム","province":"東京都","city":"立川市","address":"立川市曙町2-36-2","lat":35.702202,"lon":139.414096},{"name":"東京都農林水産振興財団（立川庁舎）","province":"東京都","city":"立川市","address":"東京都立川市富士見町3丁目8-1","lat":35.6984897,"lon":139.39270029},{"name":"立川国際中等教育学校","province":"東京都","city":"立川市","address":"東京都立川市曙町3丁目29-37","lat":35.70278462,"lon":139.42823332},{"name":"多摩教育センター","province":"東京都","city":"立川市","address":"東京都立川市錦町6丁目3-1","lat":35.68951919,"lon":139.41899846},{"name":"立川高等学校","province":"東京都","city":"立川市","address":"東京都立川市錦町2丁目13-5","lat":35.69247702,"lon":139.41289327},{"name":"砂川高等学校","province":"東京都","city":"立川市","address":"東京都立川市泉町935-4","lat":35.71814365,"lon":139.41643375},{"name":"立川都民防災教育センター（立川防災館）","province":"東京都","city":"立川市","address":"東京都立川市泉町1156-1","lat":35.71589087,"lon":139.40621247},{"name":"立川らびっとくらぶ","province":"東京都","city":"立川市","address":"立川市幸町三丁目25番地1立川けやき台ハイツ1階","lat":35.722405,"lon":139.430171},{"name":"トライきっず・プロ","province":"東京都","city":"立川市","address":"立川市幸町1-10-6","lat":35.719996,"lon":139.422258},{"name":"こどもプラス立川幸町教室","province":"東京都","city":"立川市","address":"立川市幸町5-1-7フルミエールメゾン1階B","lat":35.723318,"lon":139.418386},{"name":"こぱんはうすさくら　立川幸町教室","province":"東京都","city":"立川市","address":"立川市幸町3-13-14矢島ビル1階","lat":35.720646,"lon":139.430252},{"name":"デイサービス事業　みんなの広場　１","province":"東京都","city":"立川市","address":"立川市栄町4-2-1ジュネスイトウ1階","lat":35.710745,"lon":139.423464},{"name":"スマイルJr","province":"東京都","city":"立川市","address":"立川市高松町3-25-10富士永ハイツ101","lat":35.701754,"lon":139.418376},{"name":"テイクオフ","province":"東京都","city":"立川市","address":"立川市高松町1-20-5","lat":35.709347,"lon":139.415695},{"name":"ジョブサＵ１８立川北口教室","province":"東京都","city":"立川市","address":"立川市曙町1-24-11橋本ビル7階","lat":35.700415,"lon":139.408838},{"name":"あにものいえ","province":"東京都","city":"立川市","address":"立川市羽衣町2-23-6","lat":35.694502,"lon":139.428589},{"name":"ゆいまーる","province":"東京都","city":"立川市","address":"立川市羽衣町1丁目6番10号小川ビル2階","lat":35.696324,"lon":139.423839},{"name":"ＬＩＴＡＬＩＣＯジュニア立川南口教室","province":"東京都","city":"立川市","address":"立川市柴崎町2-3-13エイティエイト立川デュオ2階","lat":35.696563,"lon":139.410807},{"name":"ドリームボックス立川","province":"東京都","city":"立川市","address":"立川市柴崎町5-8-1リバーサイドアプス1階","lat":35.689241,"lon":139.40123},{"name":"ジョブサＵ１８立川南口教室","province":"東京都","city":"立川市","address":"立川市柴崎町2-4-15ほまれ屋本社ビル201号室","lat":35.696849,"lon":139.409916},{"name":"デイサービス事業　みんなの広場　２","province":"東京都","city":"立川市","address":"立川市一番町3-17-11ローズシャトル2号館1階","lat":35.730344,"lon":139.378481},{"name":"児童デイサービス　サンフラワー","province":"東京都","city":"立川市","address":"立川市一番町5-1-5ネクサス立川1階","lat":35.73038,"lon":139.379831},{"name":"立川市子ども家庭支援センター","province":"東京都","city":"立川市","address":"立川市錦町3-2-26","lat":35.694258,"lon":139.419698},{"name":"立川市子ども家庭支援センター","province":"東京都","city":"立川市","address":"立川市錦町3-2-26","lat":35.69389,"lon":139.41933},{"name":"立川・昭島・国立火葬場","province":"東京都","city":"立川市","address":"東京都立川市羽衣町3丁目20-18","lat":35.68886941,"lon":139.42420084},{"name":"＊?立川市女性総合センター・アイム","province":"東京都","city":"立川市","address":"立川市曙町2-36-2","lat":35.702202,"lon":139.414096},{"name":"東京都農林水産振興財団（立川庁舎）","province":"東京都","city":"立川市","address":"東京都立川市富士見町3丁目8-1","lat":35.6984897,"lon":139.39270029},{"name":"立川国際中等教育学校","province":"東京都","city":"立川市","address":"東京都立川市曙町3丁目29-37","lat":35.70278462,"lon":139.42823332},{"name":"多摩教育センター","province":"東京都","city":"立川市","address":"東京都立川市錦町6丁目3-1","lat":35.68951919,"lon":139.41899846},{"name":"立川高等学校","province":"東京都","city":"立川市","address":"東京都立川市錦町2丁目13-5","lat":35.69247702,"lon":139.41289327},{"name":"砂川高等学校","province":"東京都","city":"立川市","address":"東京都立川市泉町935-4","lat":35.71814365,"lon":139.41643375},{"name":"立川都民防災教育センター（立川防災館）","province":"東京都","city":"立川市","address":"東京都立川市泉町1156-1","lat":35.71589087,"lon":139.40621247},{"name":"立川らびっとくらぶ","province":"東京都","city":"立川市","address":"立川市幸町三丁目25番地1立川けやき台ハイツ1階","lat":35.722405,"lon":139.430171},{"name":"トライきっず・プロ","province":"東京都","city":"立川市","address":"立川市幸町1-10-6","lat":35.719996,"lon":139.422258},{"name":"こどもプラス立川幸町教室","province":"東京都","city":"立川市","address":"立川市幸町5-1-7フルミエールメゾン1階B","lat":35.723318,"lon":139.418386},{"name":"こぱんはうすさくら　立川幸町教室","province":"東京都","city":"立川市","address":"立川市幸町3-13-14矢島ビル1階","lat":35.720646,"lon":139.430252},{"name":"デイサービス事業　みんなの広場　１","province":"東京都","city":"立川市","address":"立川市栄町4-2-1ジュネスイトウ1階","lat":35.710745,"lon":139.423464},{"name":"スマイルJr","province":"東京都","city":"立川市","address":"立川市高松町3-25-10富士永ハイツ101","lat":35.701754,"lon":139.418376},{"name":"テイクオフ","province":"東京都","city":"立川市","address":"立川市高松町1-20-5","lat":35.709347,"lon":139.415695},{"name":"ジョブサＵ１８立川北口教室","province":"東京都","city":"立川市","address":"立川市曙町1-24-11橋本ビル7階","lat":35.700415,"lon":139.408838},{"name":"あにものいえ","province":"東京都","city":"立川市","address":"立川市羽衣町2-23-6","lat":35.694502,"lon":139.428589},{"name":"ゆいまーる","province":"東京都","city":"立川市","address":"立川市羽衣町1丁目6番10号小川ビル2階","lat":35.696324,"lon":139.423839},{"name":"ＬＩＴＡＬＩＣＯジュニア立川南口教室","province":"東京都","city":"立川市","address":"立川市柴崎町2-3-13エイティエイト立川デュオ2階","lat":35.696563,"lon":139.410807},{"name":"ドリームボックス立川","province":"東京都","city":"立川市","address":"立川市柴崎町5-8-1リバーサイドアプス1階","lat":35.689241,"lon":139.40123},{"name":"ジョブサＵ１８立川南口教室","province":"東京都","city":"立川市","address":"立川市柴崎町2-4-15ほまれ屋本社ビル201号室","lat":35.696849,"lon":139.409916},{"name":"デイサービス事業　みんなの広場　２","province":"東京都","city":"立川市","address":"立川市一番町3-17-11ローズシャトル2号館1階","lat":35.730344,"lon":139.378481},{"name":"児童デイサービス　サンフラワー","province":"東京都","city":"立川市","address":"立川市一番町5-1-5ネクサス立川1階","lat":35.73038,"lon":139.379831},{"name":"立川市子ども家庭支援センター","province":"東京都","city":"立川市","address":"立川市錦町3-2-26","lat":35.694258,"lon":139.419698},{"name":"立川市子ども家庭支援センター","province":"東京都","city":"立川市","address":"立川市錦町3-2-26","lat":35.69389,"lon":139.41933},{"name":"立川・昭島・国立火葬場","province":"東京都","city":"立川市","address":"東京都立川市羽衣町3丁目20-18","lat":35.68886941,"lon":139.42420084},{"name":"＊?立川市女性総合センター・アイム","province":"東京都","city":"立川市","address":"立川市曙町2-36-2","lat":35.702202,"lon":139.414096},{"name":"東京都農林水産振興財団（立川庁舎）","province":"東京都","city":"立川市","address":"東京都立川市富士見町3丁目8-1","lat":35.6984897,"lon":139.39270029},{"name":"立川国際中等教育学校","province":"東京都","city":"立川市","address":"東京都立川市曙町3丁目29-37","lat":35.70278462,"lon":139.42823332},{"name":"多摩教育センター","province":"東京都","city":"立川市","address":"東京都立川市錦町6丁目3-1","lat":35.68951919,"lon":139.41899846},{"name":"立川高等学校","province":"東京都","city":"立川市","address":"東京都立川市錦町2丁目13-5","lat":35.69247702,"lon":139.41289327},{"name":"砂川高等学校","province":"東京都","city":"立川市","address":"東京都立川市泉町935-4","lat":35.71814365,"lon":139.41643375},{"name":"立川都民防災教育センター（立川防災館）","province":"東京都","city":"立川市","address":"東京都立川市泉町1156-1","lat":35.71589087,"lon":139.40621247},{"name":"立川らびっとくらぶ","province":"東京都","city":"立川市","address":"立川市幸町三丁目25番地1立川けやき台ハイツ1階","lat":35.722405,"lon":139.430171},{"name":"トライきっず・プロ","province":"東京都","city":"立川市","address":"立川市幸町1-10-6","lat":35.719996,"lon":139.422258},{"name":"こどもプラス立川幸町教室","province":"東京都","city":"立川市","address":"立川市幸町5-1-7フルミエールメゾン1階B","lat":35.723318,"lon":139.418386},{"name":"こぱんはうすさくら　立川幸町教室","province":"東京都","city":"立川市","address":"立川市幸町3-13-14矢島ビル1階","lat":35.720646,"lon":139.430252},{"name":"デイサービス事業　みんなの広場　１","province":"東京都","city":"立川市","address":"立川市栄町4-2-1ジュネスイトウ1階","lat":35.710745,"lon":139.423464},{"name":"スマイルJr","province":"東京都","city":"立川市","address":"立川市高松町3-25-10富士永ハイツ101","lat":35.701754,"lon":139.418376},{"name":"テイクオフ","province":"東京都","city":"立川市","address":"立川市高松町1-20-5","lat":35.709347,"lon":139.415695},{"name":"ジョブサＵ１８立川北口教室","province":"東京都","city":"立川市","address":"立川市曙町1-24-11橋本ビル7階","lat":35.700415,"lon":139.408838},{"name":"あにものいえ","province":"東京都","city":"立川市","address":"立川市羽衣町2-23-6","lat":35.694502,"lon":139.428589},{"name":"ゆいまーる","province":"東京都","city":"立川市","address":"立川市羽衣町1丁目6番10号小川ビル2階","lat":35.696324,"lon":139.423839},{"name":"ＬＩＴＡＬＩＣＯジュニア立川南口教室","province":"東京都","city":"立川市","address":"立川市柴崎町2-3-13エイティエイト立川デュオ2階","lat":35.696563,"lon":139.410807},{"name":"ドリームボックス立川","province":"東京都","city":"立川市","address":"立川市柴崎町5-8-1リバーサイドアプス1階","lat":35.689241,"lon":139.40123},{"name":"ジョブサＵ１８立川南口教室","province":"東京都","city":"立川市","address":"立川市柴崎町2-4-15ほまれ屋本社ビル201号室","lat":35.696849,"lon":139.409916},{"name":"デイサービス事業　みんなの広場　２","province":"東京都","city":"立川市","address":"立川市一番町3-17-11ローズシャトル2号館1階","lat":35.730344,"lon":139.378481},{"name":"児童デイサービス　サンフラワー","province":"東京都","city":"立川市","address":"立川市一番町5-1-5ネクサス立川1階","lat":35.73038,"lon":139.379831},{"name":"立川市子ども家庭支援センター","province":"東京都","city":"立川市","address":"立川市錦町3-2-26","lat":35.694258,"lon":139.419698},{"name":"立川市子ども家庭支援センター","province":"東京都","city":"立川市","address":"立川市錦町3-2-26","lat":35.69389,"lon":139.41933},{"name":"立川・昭島・国立火葬場","province":"東京都","city":"立川市","address":"東京都立川市羽衣町3丁目20-18","lat":35.68886941,"lon":139.42420084},{"name":"＊?立川市女性総合センター・アイム","province":"東京都","city":"立川市","address":"立川市曙町2-36-2","lat":35.702202,"lon":139.414096},{"name":"東京都農林水産振興財団（立川庁舎）","province":"東京都","city":"立川市","address":"東京都立川市富士見町3丁目8-1","lat":35.6984897,"lon":139.39270029},{"name":"立川国際中等教育学校","province":"東京都","city":"立川市","address":"東京都立川市曙町3丁目29-37","lat":35.70278462,"lon":139.42823332},{"name":"多摩教育センター","province":"東京都","city":"立川市","address":"東京都立川市錦町6丁目3-1","lat":35.68951919,"lon":139.41899846},{"name":"立川高等学校","province":"東京都","city":"立川市","address":"東京都立川市錦町2丁目13-5","lat":35.69247702,"lon":139.41289327},{"name":"砂川高等学校","province":"東京都","city":"立川市","address":"東京都立川市泉町935-4","lat":35.71814365,"lon":139.41643375},{"name":"立川都民防災教育センター（立川防災館）","province":"東京都","city":"立川市","address":"東京都立川市泉町1156-1","lat":35.71589087,"lon":139.40621247},{"name":"立川らびっとくらぶ","province":"東京都","city":"立川市","address":"立川市幸町三丁目25番地1立川けやき台ハイツ1階","lat":35.722405,"lon":139.430171},{"name":"トライきっず・プロ","province":"東京都","city":"立川市","address":"立川市幸町1-10-6","lat":35.719996,"lon":139.422258},{"name":"こどもプラス立川幸町教室","province":"東京都","city":"立川市","address":"立川市幸町5-1-7フルミエールメゾン1階B","lat":35.723318,"lon":139.418386},{"name":"こぱんはうすさくら　立川幸町教室","province":"東京都","city":"立川市","address":"立川市幸町3-13-14矢島ビル1階","lat":35.720646,"lon":139.430252},{"name":"デイサービス事業　みんなの広場　１","province":"東京都","city":"立川市","address":"立川市栄町4-2-1ジュネスイトウ1階","lat":35.710745,"lon":139.423464},{"name":"スマイルJr","province":"東京都","city":"立川市","address":"立川市高松町3-25-10富士永ハイツ101","lat":35.701754,"lon":139.418376},{"name":"テイクオフ","province":"東京都","city":"立川市","address":"立川市高松町1-20-5","lat":35.709347,"lon":139.415695},{"name":"ジョブサＵ１８立川北口教室","province":"東京都","city":"立川市","address":"立川市曙町1-24-11橋本ビル7階","lat":35.700415,"lon":139.408838},{"name":"あにものいえ","province":"東京都","city":"立川市","address":"立川市羽衣町2-23-6","lat":35.694502,"lon":139.428589},{"name":"ゆいまーる","province":"東京都","city":"立川市","address":"立川市羽衣町1丁目6番10号小川ビル2階","lat":35.696324,"lon":139.423839},{"name":"ＬＩＴＡＬＩＣＯジュニア立川南口教室","province":"東京都","city":"立川市","address":"立川市柴崎町2-3-13エイティエイト立川デュオ2階","lat":35.696563,"lon":139.410807},{"name":"ドリームボックス立川","province":"東京都","city":"立川市","address":"立川市柴崎町5-8-1リバーサイドアプス1階","lat":35.689241,"lon":139.40123},{"name":"ジョブサＵ１８立川南口教室","province":"東京都","city":"立川市","address":"立川市柴崎町2-4-15ほまれ屋本社ビル201号室","lat":35.696849,"lon":139.409916},{"name":"デイサービス事業　みんなの広場　２","province":"東京都","city":"立川市","address":"立川市一番町3-17-11ローズシャトル2号館1階","lat":35.730344,"lon":139.378481},{"name":"児童デイサービス　サンフラワー","province":"東京都","city":"立川市","address":"立川市一番町5-1-5ネクサス立川1階","lat":35.73038,"lon":139.379831},{"name":"立川市子ども家庭支援センター","province":"東京都","city":"立川市","address":"立川市錦町3-2-26","lat":35.694258,"lon":139.419698},{"name":"立川市子ども家庭支援センター","province":"東京都","city":"立川市","address":"立川市錦町3-2-26","lat":35.69389,"lon":139.41933},{"name":"立川・昭島・国立火葬場","province":"東京都","city":"立川市","address":"東京都立川市羽衣町3丁目20-18","lat":35.68886941,"lon":139.42420084},{"name":"＊?立川市女性総合センター・アイム","province":"東京都","city":"立川市","address":"立川市曙町2-36-2","lat":35.702202,"lon":139.414096},{"name":"東京都農林水産振興財団（立川庁舎）","province":"東京都","city":"立川市","address":"東京都立川市富士見町3丁目8-1","lat":35.6984897,"lon":139.39270029},{"name":"立川国際中等教育学校","province":"東京都","city":"立川市","address":"東京都立川市曙町3丁目29-37","lat":35.70278462,"lon":139.42823332},{"name":"多摩教育センター","province":"東京都","city":"立川市","address":"東京都立川市錦町6丁目3-1","lat":35.68951919,"lon":139.41899846},{"name":"立川高等学校","province":"東京都","city":"立川市","address":"東京都立川市錦町2丁目13-5","lat":35.69247702,"lon":139.41289327},{"name":"砂川高等学校","province":"東京都","city":"立川市","address":"東京都立川市泉町935-4","lat":35.71814365,"lon":139.41643375},{"name":"立川都民防災教育センター（立川防災館）","province":"東京都","city":"立川市","address":"東京都立川市泉町1156-1","lat":35.71589087,"lon":139.40621247},{"name":"立川らびっとくらぶ","province":"東京都","city":"立川市","address":"立川市幸町三丁目25番地1立川けやき台ハイツ1階","lat":35.722405,"lon":139.430171},{"name":"トライきっず・プロ","province":"東京都","city":"立川市","address":"立川市幸町1-10-6","lat":35.719996,"lon":139.422258},{"name":"こどもプラス立川幸町教室","province":"東京都","city":"立川市","address":"立川市幸町5-1-7フルミエールメゾン1階B","lat":35.723318,"lon":139.418386},{"name":"こぱんはうすさくら　立川幸町教室","province":"東京都","city":"立川市","address":"立川市幸町3-13-14矢島ビル1階","lat":35.720646,"lon":139.430252},{"name":"デイサービス事業　みんなの広場　１","province":"東京都","city":"立川市","address":"立川市栄町4-2-1ジュネスイトウ1階","lat":35.710745,"lon":139.423464},{"name":"スマイルJr","province":"東京都","city":"立川市","address":"立川市高松町3-25-10富士永ハイツ101","lat":35.701754,"lon":139.418376},{"name":"テイクオフ","province":"東京都","city":"立川市","address":"立川市高松町1-20-5","lat":35.709347,"lon":139.415695},{"name":"ジョブサＵ１８立川北口教室","province":"東京都","city":"立川市","address":"立川市曙町1-24-11橋本ビル7階","lat":35.700415,"lon":139.408838},{"name":"あにものいえ","province":"東京都","city":"立川市","address":"立川市羽衣町2-23-6","lat":35.694502,"lon":139.428589},{"name":"ゆいまーる","province":"東京都","city":"立川市","address":"立川市羽衣町1丁目6番10号小川ビル2階","lat":35.696324,"lon":139.423839},{"name":"ＬＩＴＡＬＩＣＯジュニア立川南口教室","province":"東京都","city":"立川市","address":"立川市柴崎町2-3-13エイティエイト立川デュオ2階","lat":35.696563,"lon":139.410807},{"name":"ドリームボックス立川","province":"東京都","city":"立川市","address":"立川市柴崎町5-8-1リバーサイドアプス1階","lat":35.689241,"lon":139.40123},{"name":"ジョブサＵ１８立川南口教室","province":"東京都","city":"立川市","address":"立川市柴崎町2-4-15ほまれ屋本社ビル201号室","lat":35.696849,"lon":139.409916},{"name":"デイサービス事業　みんなの広場　２","province":"東京都","city":"立川市","address":"立川市一番町3-17-11ローズシャトル2号館1階","lat":35.730344,"lon":139.378481},{"name":"児童デイサービス　サンフラワー","province":"東京都","city":"立川市","address":"立川市一番町5-1-5ネクサス立川1階","lat":35.73038,"lon":139.379831},{"name":"立川市子ども家庭支援センター","province":"東京都","city":"立川市","address":"立川市錦町3-2-26","lat":35.694258,"lon":139.419698},{"name":"立川市子ども家庭支援センター","province":"東京都","city":"立川市","address":"立川市錦町3-2-26","lat":35.69389,"lon":139.41933},{"name":"立川・昭島・国立火葬場","province":"東京都","city":"立川市","address":"東京都立川市羽衣町3丁目20-18","lat":35.68886941,"lon":139.42420084},{"name":"＊?立川市女性総合センター・アイム","province":"東京都","city":"立川市","address":"立川市曙町2-36-2","lat":35.702202,"lon":139.414096},{"name":"東京都農林水産振興財団（立川庁舎）","province":"東京都","city":"立川市","address":"東京都立川市富士見町3丁目8-1","lat":35.6984897,"lon":139.39270029},{"name":"立川国際中等教育学校","province":"東京都","city":"立川市","address":"東京都立川市曙町3丁目29-37","lat":35.70278462,"lon":139.42823332},{"name":"多摩教育センター","province":"東京都","city":"立川市","address":"東京都立川市錦町6丁目3-1","lat":35.68951919,"lon":139.41899846},{"name":"立川高等学校","province":"東京都","city":"立川市","address":"東京都立川市錦町2丁目13-5","lat":35.69247702,"lon":139.41289327},{"name":"砂川高等学校","province":"東京都","city":"立川市","address":"東京都立川市泉町935-4","lat":35.71814365,"lon":139.41643375},{"name":"立川都民防災教育センター（立川防災館）","province":"東京都","city":"立川市","address":"東京都立川市泉町1156-1","lat":35.71589087,"lon":139.40621247},{"name":"立川らびっとくらぶ","province":"東京都","city":"立川市","address":"立川市幸町三丁目25番地1立川けやき台ハイツ1階","lat":35.722405,"lon":139.430171},{"name":"トライきっず・プロ","province":"東京都","city":"立川市","address":"立川市幸町1-10-6","lat":35.719996,"lon":139.422258},{"name":"こどもプラス立川幸町教室","province":"東京都","city":"立川市","address":"立川市幸町5-1-7フルミエールメゾン1階B","lat":35.723318,"lon":139.418386},{"name":"こぱんはうすさくら　立川幸町教室","province":"東京都","city":"立川市","address":"立川市幸町3-13-14矢島ビル1階","lat":35.720646,"lon":139.430252},{"name":"デイサービス事業　みんなの広場　１","province":"東京都","city":"立川市","address":"立川市栄町4-2-1ジュネスイトウ1階","lat":35.710745,"lon":139.423464},{"name":"スマイルJr","province":"東京都","city":"立川市","address":"立川市高松町3-25-10富士永ハイツ101","lat":35.701754,"lon":139.418376},{"name":"テイクオフ","province":"東京都","city":"立川市","address":"立川市高松町1-20-5","lat":35.709347,"lon":139.415695},{"name":"ジョブサＵ１８立川北口教室","province":"東京都","city":"立川市","address":"立川市曙町1-24-11橋本ビル7階","lat":35.700415,"lon":139.408838},{"name":"あにものいえ","province":"東京都","city":"立川市","address":"立川市羽衣町2-23-6","lat":35.694502,"lon":139.428589},{"name":"ゆいまーる","province":"東京都","city":"立川市","address":"立川市羽衣町1丁目6番10号小川ビル2階","lat":35.696324,"lon":139.423839},{"name":"ＬＩＴＡＬＩＣＯジュニア立川南口教室","province":"東京都","city":"立川市","address":"立川市柴崎町2-3-13エイティエイト立川デュオ2階","lat":35.696563,"lon":139.410807},{"name":"ドリームボックス立川","province":"東京都","city":"立川市","address":"立川市柴崎町5-8-1リバーサイドアプス1階","lat":35.689241,"lon":139.40123},{"name":"ジョブサＵ１８立川南口教室","province":"東京都","city":"立川市","address":"立川市柴崎町2-4-15ほまれ屋本社ビル201号室","lat":35.696849,"lon":139.409916},{"name":"デイサービス事業　みんなの広場　２","province":"東京都","city":"立川市","address":"立川市一番町3-17-11ローズシャトル2号館1階","lat":35.730344,"lon":139.378481},{"name":"児童デイサービス　サンフラワー","province":"東京都","city":"立川市","address":"立川市一番町5-1-5ネクサス立川1階","lat":35.73038,"lon":139.379831},{"name":"立川市子ども家庭支援センター","province":"東京都","city":"立川市","address":"立川市錦町3-2-26","lat":35.694258,"lon":139.419698},{"name":"立川市子ども家庭支援センター","province":"東京都","city":"立川市","address":"立川市錦町3-2-26","lat":35.69389,"lon":139.41933},{"name":"立川・昭島・国立火葬場","province":"東京都","city":"立川市","address":"東京都立川市羽衣町3丁目20-18","lat":35.68886941,"lon":139.42420084},{"name":"＊?立川市女性総合センター・アイム","province":"東京都","city":"立川市","address":"立川市曙町2-36-2","lat":35.702202,"lon":139.414096},{"name":"東京都農林水産振興財団（立川庁舎）","province":"東京都","city":"立川市","address":"東京都立川市富士見町3丁目8-1","lat":35.6984897,"lon":139.39270029},{"name":"立川国際中等教育学校","province":"東京都","city":"立川市","address":"東京都立川市曙町3丁目29-37","lat":35.70278462,"lon":139.42823332},{"name":"多摩教育センター","province":"東京都","city":"立川市","address":"東京都立川市錦町6丁目3-1","lat":35.68951919,"lon":139.41899846},{"name":"立川高等学校","province":"東京都","city":"立川市","address":"東京都立川市錦町2丁目13-5","lat":35.69247702,"lon":139.41289327},{"name":"砂川高等学校","province":"東京都","city":"立川市","address":"東京都立川市泉町935-4","lat":35.71814365,"lon":139.41643375},{"name":"立川都民防災教育センター（立川防災館）","province":"東京都","city":"立川市","address":"東京都立川市泉町1156-1","lat":35.71589087,"lon":139.40621247},{"name":"立川らびっとくらぶ","province":"東京都","city":"立川市","address":"立川市幸町三丁目25番地1立川けやき台ハイツ1階","lat":35.722405,"lon":139.430171},{"name":"トライきっず・プロ","province":"東京都","city":"立川市","address":"立川市幸町1-10-6","lat":35.719996,"lon":139.422258},{"name":"こどもプラス立川幸町教室","province":"東京都","city":"立川市","address":"立川市幸町5-1-7フルミエールメゾン1階B","lat":35.723318,"lon":139.418386},{"name":"こぱんはうすさくら　立川幸町教室","province":"東京都","city":"立川市","address":"立川市幸町3-13-14矢島ビル1階","lat":35.720646,"lon":139.430252},{"name":"デイサービス事業　みんなの広場　１","province":"東京都","city":"立川市","address":"立川市栄町4-2-1ジュネスイトウ1階","lat":35.710745,"lon":139.423464},{"name":"スマイルJr","province":"東京都","city":"立川市","address":"立川市高松町3-25-10富士永ハイツ101","lat":35.701754,"lon":139.418376},{"name":"テイクオフ","province":"東京都","city":"立川市","address":"立川市高松町1-20-5","lat":35.709347,"lon":139.415695},{"name":"ジョブサＵ１８立川北口教室","province":"東京都","city":"立川市","address":"立川市曙町1-24-11橋本ビル7階","lat":35.700415,"lon":139.408838},{"name":"あにものいえ","province":"東京都","city":"立川市","address":"立川市羽衣町2-23-6","lat":35.694502,"lon":139.428589},{"name":"ゆいまーる","province":"東京都","city":"立川市","address":"立川市羽衣町1丁目6番10号小川ビル2階","lat":35.696324,"lon":139.423839},{"name":"ＬＩＴＡＬＩＣＯジュニア立川南口教室","province":"東京都","city":"立川市","address":"立川市柴崎町2-3-13エイティエイト立川デュオ2階","lat":35.696563,"lon":139.410807},{"name":"ドリームボックス立川","province":"東京都","city":"立川市","address":"立川市柴崎町5-8-1リバーサイドアプス1階","lat":35.689241,"lon":139.40123},{"name":"ジョブサＵ１８立川南口教室","province":"東京都","city":"立川市","address":"立川市柴崎町2-4-15ほまれ屋本社ビル201号室","lat":35.696849,"lon":139.409916},{"name":"デイサービス事業　みんなの広場　２","province":"東京都","city":"立川市","address":"立川市一番町3-17-11ローズシャトル2号館1階","lat":35.730344,"lon":139.378481},{"name":"児童デイサービス　サンフラワー","province":"東京都","city":"立川市","address":"立川市一番町5-1-5ネクサス立川1階","lat":35.73038,"lon":139.379831},{"name":"立川市子ども家庭支援センター","province":"東京都","city":"立川市","address":"立川市錦町3-2-26","lat":35.694258,"lon":139.419698},{"name":"立川市子ども家庭支援センター","province":"東京都","city":"立川市","address":"立川市錦町3-2-26","lat":35.69389,"lon":139.41933},{"name":"立川・昭島・国立火葬場","province":"東京都","city":"立川市","address":"東京都立川市羽衣町3丁目20-18","lat":35.68886941,"lon":139.42420084},{"name":"＊?立川市女性総合センター・アイム","province":"東京都","city":"立川市","address":"立川市曙町2-36-2","lat":35.702202,"lon":139.414096},{"name":"東京都農林水産振興財団（立川庁舎）","province":"東京都","city":"立川市","address":"東京都立川市富士見町3丁目8-1","lat":35.6984897,"lon":139.39270029},{"name":"立川国際中等教育学校","province":"東京都","city":"立川市","address":"東京都立川市曙町3丁目29-37","lat":35.70278462,"lon":139.42823332},{"name":"多摩教育センター","province":"東京都","city":"立川市","address":"東京都立川市錦町6丁目3-1","lat":35.68951919,"lon":139.41899846},{"name":"立川高等学校","province":"東京都","city":"立川市","address":"東京都立川市錦町2丁目13-5","lat":35.69247702,"lon":139.41289327},{"name":"砂川高等学校","province":"東京都","city":"立川市","address":"東京都立川市泉町935-4","lat":35.71814365,"lon":139.41643375},{"name":"立川都民防災教育センター（立川防災館）","province":"東京都","city":"立川市","address":"東京都立川市泉町1156-1","lat":35.71589087,"lon":139.40621247},{"name":"立川らびっとくらぶ","province":"東京都","city":"立川市","address":"立川市幸町三丁目25番地1立川けやき台ハイツ1階","lat":35.722405,"lon":139.430171},{"name":"トライきっず・プロ","province":"東京都","city":"立川市","address":"立川市幸町1-10-6","lat":35.719996,"lon":139.422258},{"name":"こどもプラス立川幸町教室","province":"東京都","city":"立川市","address":"立川市幸町5-1-7フルミエールメゾン1階B","lat":35.723318,"lon":139.418386},{"name":"こぱんはうすさくら　立川幸町教室","province":"東京都","city":"立川市","address":"立川市幸町3-13-14矢島ビル1階","lat":35.720646,"lon":139.430252},{"name":"デイサービス事業　みんなの広場　１","province":"東京都","city":"立川市","address":"立川市栄町4-2-1ジュネスイトウ1階","lat":35.710745,"lon":139.423464},{"name":"スマイルJr","province":"東京都","city":"立川市","address":"立川市高松町3-25-10富士永ハイツ101","lat":35.701754,"lon":139.418376},{"name":"テイクオフ","province":"東京都","city":"立川市","address":"立川市高松町1-20-5","lat":35.709347,"lon":139.415695},{"name":"ジョブサＵ１８立川北口教室","province":"東京都","city":"立川市","address":"立川市曙町1-24-11橋本ビル7階","lat":35.700415,"lon":139.408838},{"name":"あにものいえ","province":"東京都","city":"立川市","address":"立川市羽衣町2-23-6","lat":35.694502,"lon":139.428589},{"name":"ゆいまーる","province":"東京都","city":"立川市","address":"立川市羽衣町1丁目6番10号小川ビル2階","lat":35.696324,"lon":139.423839},{"name":"ＬＩＴＡＬＩＣＯジュニア立川南口教室","province":"東京都","city":"立川市","address":"立川市柴崎町2-3-13エイティエイト立川デュオ2階","lat":35.696563,"lon":139.410807},{"name":"ドリームボックス立川","province":"東京都","city":"立川市","address":"立川市柴崎町5-8-1リバーサイドアプス1階","lat":35.689241,"lon":139.40123},{"name":"ジョブサＵ１８立川南口教室","province":"東京都","city":"立川市","address":"立川市柴崎町2-4-15ほまれ屋本社ビル201号室","lat":35.696849,"lon":139.409916},{"name":"デイサービス事業　みんなの広場　２","province":"東京都","city":"立川市","address":"立川市一番町3-17-11ローズシャトル2号館1階","lat":35.730344,"lon":139.378481},{"name":"児童デイサービス　サンフラワー","province":"東京都","city":"立川市","address":"立川市一番町5-1-5ネクサス立川1階","lat":35.73038,"lon":139.379831},{"name":"立川市子ども家庭支援センター","province":"東京都","city":"立川市","address":"立川市錦町3-2-26","lat":35.694258,"lon":139.419698},{"name":"立川市子ども家庭支援センター","province":"東京都","city":"立川市","address":"立川市錦町3-2-26","lat":35.69389,"lon":139.41933},{"name":"立川・昭島・国立火葬場","province":"東京都","city":"立川市","address":"東京都立川市羽衣町3丁目20-18","lat":35.68886941,"lon":139.42420084},{"name":"＊?立川市女性総合センター・アイム","province":"東京都","city":"立川市","address":"立川市曙町2-36-2","lat":35.702202,"lon":139.414096},{"name":"立川らびっとくらぶ","province":"東京都","city":"立川市","address":"立川市幸町三丁目25番地1立川けやき台ハイツ1階","lat":35.722405,"lon":139.430171},{"name":"トライきっず・プロ","province":"東京都","city":"立川市","address":"立川市幸町1-10-6","lat":35.719996,"lon":139.422258},{"name":"こどもプラス立川幸町教室","province":"東京都","city":"立川市","address":"立川市幸町5-1-7フルミエールメゾン1階B","lat":35.723318,"lon":139.418386},{"name":"こぱんはうすさくら　立川幸町教室","province":"東京都","city":"立川市","address":"立川市幸町3-13-14矢島ビル1階","lat":35.720646,"lon":139.430252},{"name":"デイサービス事業　みんなの広場　１","province":"東京都","city":"立川市","address":"立川市栄町4-2-1ジュネスイトウ1階","lat":35.710745,"lon":139.423464},{"name":"スマイルJr","province":"東京都","city":"立川市","address":"立川市高松町3-25-10富士永ハイツ101","lat":35.701754,"lon":139.418376},{"name":"テイクオフ","province":"東京都","city":"立川市","address":"立川市高松町1-20-5","lat":35.709347,"lon":139.415695},{"name":"ジョブサＵ１８立川北口教室","province":"東京都","city":"立川市","address":"立川市曙町1-24-11橋本ビル7階","lat":35.700415,"lon":139.408838},{"name":"あにものいえ","province":"東京都","city":"立川市","address":"立川市羽衣町2-23-6","lat":35.694502,"lon":139.428589},{"name":"ゆいまーる","province":"東京都","city":"立川市","address":"立川市羽衣町1丁目6番10号小川ビル2階","lat":35.696324,"lon":139.423839},{"name":"ＬＩＴＡＬＩＣＯジュニア立川南口教室","province":"東京都","city":"立川市","address":"立川市柴崎町2-3-13エイティエイト立川デュオ2階","lat":35.696563,"lon":139.410807},{"name":"ドリームボックス立川","province":"東京都","city":"立川市","address":"立川市柴崎町5-8-1リバーサイドアプス1階","lat":35.689241,"lon":139.40123},{"name":"ジョブサＵ１８立川南口教室","province":"東京都","city":"立川市","address":"立川市柴崎町2-4-15ほまれ屋本社ビル201号室","lat":35.696849,"lon":139.409916},{"name":"デイサービス事業　みんなの広場　２","province":"東京都","city":"立川市","address":"立川市一番町3-17-11ローズシャトル2号館1階","lat":35.730344,"lon":139.378481},{"name":"児童デイサービス　サンフラワー","province":"東京都","city":"立川市","address":"立川市一番町5-1-5ネクサス立川1階","lat":35.73038,"lon":139.379831},{"name":"立川市子ども家庭支援センター","province":"東京都","city":"立川市","address":"立川市錦町3-2-26","lat":35.694258,"lon":139.419698},{"name":"立川市子ども家庭支援センター","province":"東京都","city":"立川市","address":"立川市錦町3-2-26","lat":35.69389,"lon":139.41933},{"name":"立川・昭島・国立火葬場","province":"東京都","city":"立川市","address":"東京都立川市羽衣町3丁目20-18","lat":35.68886941,"lon":139.42420084},{"name":"＊?立川市女性総合センター・アイム","province":"東京都","city":"立川市","address":"立川市曙町2-36-2","lat":35.702202,"lon":139.414096},{"name":"立川らびっとくらぶ","province":"東京都","city":"立川市","address":"立川市幸町三丁目25番地1立川けやき台ハイツ1階","lat":35.722405,"lon":139.430171},{"name":"トライきっず・プロ","province":"東京都","city":"立川市","address":"立川市幸町1-10-6","lat":35.719996,"lon":139.422258},{"name":"こどもプラス立川幸町教室","province":"東京都","city":"立川市","address":"立川市幸町5-1-7フルミエールメゾン1階B","lat":35.723318,"lon":139.418386},{"name":"こぱんはうすさくら　立川幸町教室","province":"東京都","city":"立川市","address":"立川市幸町3-13-14矢島ビル1階","lat":35.720646,"lon":139.430252},{"name":"デイサービス事業　みんなの広場　１","province":"東京都","city":"立川市","address":"立川市栄町4-2-1ジュネスイトウ1階","lat":35.710745,"lon":139.423464},{"name":"スマイルJr","province":"東京都","city":"立川市","address":"立川市高松町3-25-10富士永ハイツ101","lat":35.701754,"lon":139.418376},{"name":"テイクオフ","province":"東京都","city":"立川市","address":"立川市高松町1-20-5","lat":35.709347,"lon":139.415695},{"name":"ジョブサＵ１８立川北口教室","province":"東京都","city":"立川市","address":"立川市曙町1-24-11橋本ビル7階","lat":35.700415,"lon":139.408838},{"name":"あにものいえ","province":"東京都","city":"立川市","address":"立川市羽衣町2-23-6","lat":35.694502,"lon":139.428589},{"name":"ゆいまーる","province":"東京都","city":"立川市","address":"立川市羽衣町1丁目6番10号小川ビル2階","lat":35.696324,"lon":139.423839},{"name":"ＬＩＴＡＬＩＣＯジュニア立川南口教室","province":"東京都","city":"立川市","address":"立川市柴崎町2-3-13エイティエイト立川デュオ2階","lat":35.696563,"lon":139.410807},{"name":"ドリームボックス立川","province":"東京都","city":"立川市","address":"立川市柴崎町5-8-1リバーサイドアプス1階","lat":35.689241,"lon":139.40123},{"name":"ジョブサＵ１８立川南口教室","province":"東京都","city":"立川市","address":"立川市柴崎町2-4-15ほまれ屋本社ビル201号室","lat":35.696849,"lon":139.409916},{"name":"デイサービス事業　みんなの広場　２","province":"東京都","city":"立川市","address":"立川市一番町3-17-11ローズシャトル2号館1階","lat":35.730344,"lon":139.378481},{"name":"児童デイサービス　サンフラワー","province":"東京都","city":"立川市","address":"立川市一番町5-1-5ネクサス立川1階","lat":35.73038,"lon":139.379831},{"name":"立川市子ども家庭支援センター","province":"東京都","city":"立川市","address":"立川市錦町3-2-26","lat":35.694258,"lon":139.419698},{"name":"立川市子ども家庭支援センター","province":"東京都","city":"立川市","address":"立川市錦町3-2-26","lat":35.69389,"lon":139.41933},{"name":"立川・昭島・国立火葬場","province":"東京都","city":"立川市","address":"東京都立川市羽衣町3丁目20-18","lat":35.68886941,"lon":139.42420084},{"name":"＊?立川市女性総合センター・アイム","province":"東京都","city":"立川市","address":"立川市曙町2-36-2","lat":35.702202,"lon":139.414096},{"name":"立川らびっとくらぶ","province":"東京都","city":"立川市","address":"立川市幸町三丁目25番地1立川けやき台ハイツ1階","lat":35.722405,"lon":139.430171},{"name":"トライきっず・プロ","province":"東京都","city":"立川市","address":"立川市幸町1-10-6","lat":35.719996,"lon":139.422258},{"name":"こどもプラス立川幸町教室","province":"東京都","city":"立川市","address":"立川市幸町5-1-7フルミエールメゾン1階B","lat":35.723318,"lon":139.418386},{"name":"こぱんはうすさくら　立川幸町教室","province":"東京都","city":"立川市","address":"立川市幸町3-13-14矢島ビル1階","lat":35.720646,"lon":139.430252},{"name":"デイサービス事業　みんなの広場　１","province":"東京都","city":"立川市","address":"立川市栄町4-2-1ジュネスイトウ1階","lat":35.710745,"lon":139.423464},{"name":"スマイルJr","province":"東京都","city":"立川市","address":"立川市高松町3-25-10富士永ハイツ101","lat":35.701754,"lon":139.418376},{"name":"テイクオフ","province":"東京都","city":"立川市","address":"立川市高松町1-20-5","lat":35.709347,"lon":139.415695},{"name":"ジョブサＵ１８立川北口教室","province":"東京都","city":"立川市","address":"立川市曙町1-24-11橋本ビル7階","lat":35.700415,"lon":139.408838},{"name":"あにものいえ","province":"東京都","city":"立川市","address":"立川市羽衣町2-23-6","lat":35.694502,"lon":139.428589},{"name":"ゆいまーる","province":"東京都","city":"立川市","address":"立川市羽衣町1丁目6番10号小川ビル2階","lat":35.696324,"lon":139.423839},{"name":"ＬＩＴＡＬＩＣＯジュニア立川南口教室","province":"東京都","city":"立川市","address":"立川市柴崎町2-3-13エイティエイト立川デュオ2階","lat":35.696563,"lon":139.410807},{"name":"ドリームボックス立川","province":"東京都","city":"立川市","address":"立川市柴崎町5-8-1リバーサイドアプス1階","lat":35.689241,"lon":139.40123},{"name":"ジョブサＵ１８立川南口教室","province":"東京都","city":"立川市","address":"立川市柴崎町2-4-15ほまれ屋本社ビル201号室","lat":35.696849,"lon":139.409916},{"name":"デイサービス事業　みんなの広場　２","province":"東京都","city":"立川市","address":"立川市一番町3-17-11ローズシャトル2号館1階","lat":35.730344,"lon":139.378481},{"name":"児童デイサービス　サンフラワー","province":"東京都","city":"立川市","address":"立川市一番町5-1-5ネクサス立川1階","lat":35.73038,"lon":139.379831},{"name":"立川市子ども家庭支援センター","province":"東京都","city":"立川市","address":"立川市錦町3-2-26","lat":35.694258,"lon":139.419698},{"name":"立川市子ども家庭支援センター","province":"東京都","city":"立川市","address":"立川市錦町3-2-26","lat":35.69389,"lon":139.41933},{"name":"立川・昭島・国立火葬場","province":"東京都","city":"立川市","address":"東京都立川市羽衣町3丁目20-18","lat":35.68886941,"lon":139.42420084},{"name":"＊?立川市女性総合センター・アイム","province":"東京都","city":"立川市","address":"立川市曙町2-36-2","lat":35.702202,"lon":139.414096},{"name":"立川らびっとくらぶ","province":"東京都","city":"立川市","address":"立川市幸町三丁目25番地1立川けやき台ハイツ1階","lat":35.722405,"lon":139.430171},{"name":"トライきっず・プロ","province":"東京都","city":"立川市","address":"立川市幸町1-10-6","lat":35.719996,"lon":139.422258},{"name":"こどもプラス立川幸町教室","province":"東京都","city":"立川市","address":"立川市幸町5-1-7フルミエールメゾン1階B","lat":35.723318,"lon":139.418386},{"name":"こぱんはうすさくら　立川幸町教室","province":"東京都","city":"立川市","address":"立川市幸町3-13-14矢島ビル1階","lat":35.720646,"lon":139.430252},{"name":"デイサービス事業　みんなの広場　１","province":"東京都","city":"立川市","address":"立川市栄町4-2-1ジュネスイトウ1階","lat":35.710745,"lon":139.423464},{"name":"スマイルJr","province":"東京都","city":"立川市","address":"立川市高松町3-25-10富士永ハイツ101","lat":35.701754,"lon":139.418376},{"name":"テイクオフ","province":"東京都","city":"立川市","address":"立川市高松町1-20-5","lat":35.709347,"lon":139.415695},{"name":"ジョブサＵ１８立川北口教室","province":"東京都","city":"立川市","address":"立川市曙町1-24-11橋本ビル7階","lat":35.700415,"lon":139.408838},{"name":"あにものいえ","province":"東京都","city":"立川市","address":"立川市羽衣町2-23-6","lat":35.694502,"lon":139.428589},{"name":"ゆいまーる","province":"東京都","city":"立川市","address":"立川市羽衣町1丁目6番10号小川ビル2階","lat":35.696324,"lon":139.423839},{"name":"ＬＩＴＡＬＩＣＯジュニア立川南口教室","province":"東京都","city":"立川市","address":"立川市柴崎町2-3-13エイティエイト立川デュオ2階","lat":35.696563,"lon":139.410807},{"name":"ドリームボックス立川","province":"東京都","city":"立川市","address":"立川市柴崎町5-8-1リバーサイドアプス1階","lat":35.689241,"lon":139.40123},{"name":"ジョブサＵ１８立川南口教室","province":"東京都","city":"立川市","address":"立川市柴崎町2-4-15ほまれ屋本社ビル201号室","lat":35.696849,"lon":139.409916},{"name":"デイサービス事業　みんなの広場　２","province":"東京都","city":"立川市","address":"立川市一番町3-17-11ローズシャトル2号館1階","lat":35.730344,"lon":139.378481},{"name":"児童デイサービス　サンフラワー","province":"東京都","city":"立川市","address":"立川市一番町5-1-5ネクサス立川1階","lat":35.73038,"lon":139.379831},{"name":"立川市子ども家庭支援センター","province":"東京都","city":"立川市","address":"立川市錦町3-2-26","lat":35.694258,"lon":139.419698},{"name":"立川市子ども家庭支援センター","province":"東京都","city":"立川市","address":"立川市錦町3-2-26","lat":35.69389,"lon":139.41933},{"name":"立川・昭島・国立火葬場","province":"東京都","city":"立川市","address":"東京都立川市羽衣町3丁目20-18","lat":35.68886941,"lon":139.42420084},{"name":"＊?立川市女性総合センター・アイム","province":"東京都","city":"立川市","address":"立川市曙町2-36-2","lat":35.702202,"lon":139.414096},{"name":"立川らびっとくらぶ","province":"東京都","city":"立川市","address":"立川市幸町三丁目25番地1立川けやき台ハイツ1階","lat":35.722405,"lon":139.430171},{"name":"トライきっず・プロ","province":"東京都","city":"立川市","address":"立川市幸町1-10-6","lat":35.719996,"lon":139.422258},{"name":"こどもプラス立川幸町教室","province":"東京都","city":"立川市","address":"立川市幸町5-1-7フルミエールメゾン1階B","lat":35.723318,"lon":139.418386},{"name":"こぱんはうすさくら　立川幸町教室","province":"東京都","city":"立川市","address":"立川市幸町3-13-14矢島ビル1階","lat":35.720646,"lon":139.430252},{"name":"デイサービス事業　みんなの広場　１","province":"東京都","city":"立川市","address":"立川市栄町4-2-1ジュネスイトウ1階","lat":35.710745,"lon":139.423464},{"name":"スマイルJr","province":"東京都","city":"立川市","address":"立川市高松町3-25-10富士永ハイツ101","lat":35.701754,"lon":139.418376},{"name":"テイクオフ","province":"東京都","city":"立川市","address":"立川市高松町1-20-5","lat":35.709347,"lon":139.415695},{"name":"ジョブサＵ１８立川北口教室","province":"東京都","city":"立川市","address":"立川市曙町1-24-11橋本ビル7階","lat":35.700415,"lon":139.408838},{"name":"あにものいえ","province":"東京都","city":"立川市","address":"立川市羽衣町2-23-6","lat":35.694502,"lon":139.428589},{"name":"ゆいまーる","province":"東京都","city":"立川市","address":"立川市羽衣町1丁目6番10号小川ビル2階","lat":35.696324,"lon":139.423839},{"name":"ＬＩＴＡＬＩＣＯジュニア立川南口教室","province":"東京都","city":"立川市","address":"立川市柴崎町2-3-13エイティエイト立川デュオ2階","lat":35.696563,"lon":139.410807},{"name":"ドリームボックス立川","province":"東京都","city":"立川市","address":"立川市柴崎町5-8-1リバーサイドアプス1階","lat":35.689241,"lon":139.40123},{"name":"ジョブサＵ１８立川南口教室","province":"東京都","city":"立川市","address":"立川市柴崎町2-4-15ほまれ屋本社ビル201号室","lat":35.696849,"lon":139.409916},{"name":"デイサービス事業　みんなの広場　２","province":"東京都","city":"立川市","address":"立川市一番町3-17-11ローズシャトル2号館1階","lat":35.730344,"lon":139.378481},{"name":"児童デイサービス　サンフラワー","province":"東京都","city":"立川市","address":"立川市一番町5-1-5ネクサス立川1階","lat":35.73038,"lon":139.379831},{"name":"立川市子ども家庭支援センター","province":"東京都","city":"立川市","address":"立川市錦町3-2-26","lat":35.694258,"lon":139.419698},{"name":"立川市子ども家庭支援センター","province":"東京都","city":"立川市","address":"立川市錦町3-2-26","lat":35.69389,"lon":139.41933},{"name":"立川・昭島・国立火葬場","province":"東京都","city":"立川市","address":"東京都立川市羽衣町3丁目20-18","lat":35.68886941,"lon":139.42420084},{"name":"＊?立川市女性総合センター・アイム","province":"東京都","city":"立川市","address":"立川市曙町2-36-2","lat":35.702202,"lon":139.414096},{"name":"立川らびっとくらぶ","province":"東京都","city":"立川市","address":"立川市幸町三丁目25番地1立川けやき台ハイツ1階","lat":35.722405,"lon":139.430171},{"name":"トライきっず・プロ","province":"東京都","city":"立川市","address":"立川市幸町1-10-6","lat":35.719996,"lon":139.422258},{"name":"こどもプラス立川幸町教室","province":"東京都","city":"立川市","address":"立川市幸町5-1-7フルミエールメゾン1階B","lat":35.723318,"lon":139.418386},{"name":"こぱんはうすさくら　立川幸町教室","province":"東京都","city":"立川市","address":"立川市幸町3-13-14矢島ビル1階","lat":35.720646,"lon":139.430252},{"name":"デイサービス事業　みんなの広場　１","province":"東京都","city":"立川市","address":"立川市栄町4-2-1ジュネスイトウ1階","lat":35.710745,"lon":139.423464},{"name":"スマイルJr","province":"東京都","city":"立川市","address":"立川市高松町3-25-10富士永ハイツ101","lat":35.701754,"lon":139.418376},{"name":"テイクオフ","province":"東京都","city":"立川市","address":"立川市高松町1-20-5","lat":35.709347,"lon":139.415695},{"name":"ジョブサＵ１８立川北口教室","province":"東京都","city":"立川市","address":"立川市曙町1-24-11橋本ビル7階","lat":35.700415,"lon":139.408838},{"name":"あにものいえ","province":"東京都","city":"立川市","address":"立川市羽衣町2-23-6","lat":35.694502,"lon":139.428589},{"name":"ゆいまーる","province":"東京都","city":"立川市","address":"立川市羽衣町1丁目6番10号小川ビル2階","lat":35.696324,"lon":139.423839},{"name":"ＬＩＴＡＬＩＣＯジュニア立川南口教室","province":"東京都","city":"立川市","address":"立川市柴崎町2-3-13エイティエイト立川デュオ2階","lat":35.696563,"lon":139.410807},{"name":"ドリームボックス立川","province":"東京都","city":"立川市","address":"立川市柴崎町5-8-1リバーサイドアプス1階","lat":35.689241,"lon":139.40123},{"name":"ジョブサＵ１８立川南口教室","province":"東京都","city":"立川市","address":"立川市柴崎町2-4-15ほまれ屋本社ビル201号室","lat":35.696849,"lon":139.409916},{"name":"デイサービス事業　みんなの広場　２","province":"東京都","city":"立川市","address":"立川市一番町3-17-11ローズシャトル2号館1階","lat":35.730344,"lon":139.378481},{"name":"児童デイサービス　サンフラワー","province":"東京都","city":"立川市","address":"立川市一番町5-1-5ネクサス立川1階","lat":35.73038,"lon":139.379831},{"name":"立川市子ども家庭支援センター","province":"東京都","city":"立川市","address":"立川市錦町3-2-26","lat":35.694258,"lon":139.419698},{"name":"立川市子ども家庭支援センター","province":"東京都","city":"立川市","address":"立川市錦町3-2-26","lat":35.69389,"lon":139.41933},{"name":"立川・昭島・国立火葬場","province":"東京都","city":"立川市","address":"東京都立川市羽衣町3丁目20-18","lat":35.68886941,"lon":139.42420084},{"name":"＊?立川市女性総合センター・アイム","province":"東京都","city":"立川市","address":"立川市曙町2-36-2","lat":35.702202,"lon":139.414096},{"name":"立川らびっとくらぶ","province":"東京都","city":"立川市","address":"立川市幸町三丁目25番地1立川けやき台ハイツ1階","lat":35.722405,"lon":139.430171},{"name":"トライきっず・プロ","province":"東京都","city":"立川市","address":"立川市幸町1-10-6","lat":35.719996,"lon":139.422258},{"name":"こどもプラス立川幸町教室","province":"東京都","city":"立川市","address":"立川市幸町5-1-7フルミエールメゾン1階B","lat":35.723318,"lon":139.418386},{"name":"こぱんはうすさくら　立川幸町教室","province":"東京都","city":"立川市","address":"立川市幸町3-13-14矢島ビル1階","lat":35.720646,"lon":139.430252},{"name":"デイサービス事業　みんなの広場　１","province":"東京都","city":"立川市","address":"立川市栄町4-2-1ジュネスイトウ1階","lat":35.710745,"lon":139.423464},{"name":"スマイルJr","province":"東京都","city":"立川市","address":"立川市高松町3-25-10富士永ハイツ101","lat":35.701754,"lon":139.418376},{"name":"テイクオフ","province":"東京都","city":"立川市","address":"立川市高松町1-20-5","lat":35.709347,"lon":139.415695},{"name":"ジョブサＵ１８立川北口教室","province":"東京都","city":"立川市","address":"立川市曙町1-24-11橋本ビル7階","lat":35.700415,"lon":139.408838},{"name":"あにものいえ","province":"東京都","city":"立川市","address":"立川市羽衣町2-23-6","lat":35.694502,"lon":139.428589},{"name":"ゆいまーる","province":"東京都","city":"立川市","address":"立川市羽衣町1丁目6番10号小川ビル2階","lat":35.696324,"lon":139.423839},{"name":"ＬＩＴＡＬＩＣＯジュニア立川南口教室","province":"東京都","city":"立川市","address":"立川市柴崎町2-3-13エイティエイト立川デュオ2階","lat":35.696563,"lon":139.410807},{"name":"ドリームボックス立川","province":"東京都","city":"立川市","address":"立川市柴崎町5-8-1リバーサイドアプス1階","lat":35.689241,"lon":139.40123},{"name":"ジョブサＵ１８立川南口教室","province":"東京都","city":"立川市","address":"立川市柴崎町2-4-15ほまれ屋本社ビル201号室","lat":35.696849,"lon":139.409916},{"name":"デイサービス事業　みんなの広場　２","province":"東京都","city":"立川市","address":"立川市一番町3-17-11ローズシャトル2号館1階","lat":35.730344,"lon":139.378481},{"name":"児童デイサービス　サンフラワー","province":"東京都","city":"立川市","address":"立川市一番町5-1-5ネクサス立川1階","lat":35.73038,"lon":139.379831},{"name":"立川市子ども家庭支援センター","province":"東京都","city":"立川市","address":"立川市錦町3-2-26","lat":35.694258,"lon":139.419698},{"name":"立川市子ども家庭支援センター","province":"東京都","city":"立川市","address":"立川市錦町3-2-26","lat":35.69389,"lon":139.41933},{"name":"＊?立川市女性総合センター・アイム","province":"東京都","city":"立川市","address":"立川市曙町2-36-2","lat":35.702202,"lon":139.414096},{"name":"立川らびっとくらぶ","province":"東京都","city":"立川市","address":"立川市幸町三丁目25番地1立川けやき台ハイツ1階","lat":35.722405,"lon":139.430171},{"name":"トライきっず・プロ","province":"東京都","city":"立川市","address":"立川市幸町1-10-6","lat":35.719996,"lon":139.422258},{"name":"こどもプラス立川幸町教室","province":"東京都","city":"立川市","address":"立川市幸町5-1-7フルミエールメゾン1階B","lat":35.723318,"lon":139.418386},{"name":"こぱんはうすさくら　立川幸町教室","province":"東京都","city":"立川市","address":"立川市幸町3-13-14矢島ビル1階","lat":35.720646,"lon":139.430252},{"name":"デイサービス事業　みんなの広場　１","province":"東京都","city":"立川市","address":"立川市栄町4-2-1ジュネスイトウ1階","lat":35.710745,"lon":139.423464},{"name":"スマイルJr","province":"東京都","city":"立川市","address":"立川市高松町3-25-10富士永ハイツ101","lat":35.701754,"lon":139.418376},{"name":"テイクオフ","province":"東京都","city":"立川市","address":"立川市高松町1-20-5","lat":35.709347,"lon":139.415695},{"name":"ジョブサＵ１８立川北口教室","province":"東京都","city":"立川市","address":"立川市曙町1-24-11橋本ビル7階","lat":35.700415,"lon":139.408838},{"name":"あにものいえ","province":"東京都","city":"立川市","address":"立川市羽衣町2-23-6","lat":35.694502,"lon":139.428589},{"name":"ゆいまーる","province":"東京都","city":"立川市","address":"立川市羽衣町1丁目6番10号小川ビル2階","lat":35.696324,"lon":139.423839},{"name":"ＬＩＴＡＬＩＣＯジュニア立川南口教室","province":"東京都","city":"立川市","address":"立川市柴崎町2-3-13エイティエイト立川デュオ2階","lat":35.696563,"lon":139.410807},{"name":"ドリームボックス立川","province":"東京都","city":"立川市","address":"立川市柴崎町5-8-1リバーサイドアプス1階","lat":35.689241,"lon":139.40123},{"name":"ジョブサＵ１８立川南口教室","province":"東京都","city":"立川市","address":"立川市柴崎町2-4-15ほまれ屋本社ビル201号室","lat":35.696849,"lon":139.409916},{"name":"デイサービス事業　みんなの広場　２","province":"東京都","city":"立川市","address":"立川市一番町3-17-11ローズシャトル2号館1階","lat":35.730344,"lon":139.378481},{"name":"児童デイサービス　サンフラワー","province":"東京都","city":"立川市","address":"立川市一番町5-1-5ネクサス立川1階","lat":35.73038,"lon":139.379831},{"name":"立川市子ども家庭支援センター","province":"東京都","city":"立川市","address":"立川市錦町3-2-26","lat":35.694258,"lon":139.419698},{"name":"立川市子ども家庭支援センター","province":"東京都","city":"立川市","address":"立川市錦町3-2-26","lat":35.69389,"lon":139.41933},{"name":"＊?立川市女性総合センター・アイム","province":"東京都","city":"立川市","address":"立川市曙町2-36-2","lat":35.702202,"lon":139.414096},{"name":"立川らびっとくらぶ","province":"東京都","city":"立川市","address":"立川市幸町三丁目25番地1立川けやき台ハイツ1階","lat":35.722405,"lon":139.430171},{"name":"トライきっず・プロ","province":"東京都","city":"立川市","address":"立川市幸町1-10-6","lat":35.719996,"lon":139.422258},{"name":"こどもプラス立川幸町教室","province":"東京都","city":"立川市","address":"立川市幸町5-1-7フルミエールメゾン1階B","lat":35.723318,"lon":139.418386},{"name":"こぱんはうすさくら　立川幸町教室","province":"東京都","city":"立川市","address":"立川市幸町3-13-14矢島ビル1階","lat":35.720646,"lon":139.430252},{"name":"デイサービス事業　みんなの広場　１","province":"東京都","city":"立川市","address":"立川市栄町4-2-1ジュネスイトウ1階","lat":35.710745,"lon":139.423464},{"name":"スマイルJr","province":"東京都","city":"立川市","address":"立川市高松町3-25-10富士永ハイツ101","lat":35.701754,"lon":139.418376},{"name":"テイクオフ","province":"東京都","city":"立川市","address":"立川市高松町1-20-5","lat":35.709347,"lon":139.415695},{"name":"ジョブサＵ１８立川北口教室","province":"東京都","city":"立川市","address":"立川市曙町1-24-11橋本ビル7階","lat":35.700415,"lon":139.408838},{"name":"あにものいえ","province":"東京都","city":"立川市","address":"立川市羽衣町2-23-6","lat":35.694502,"lon":139.428589},{"name":"ゆいまーる","province":"東京都","city":"立川市","address":"立川市羽衣町1丁目6番10号小川ビル2階","lat":35.696324,"lon":139.423839},{"name":"ＬＩＴＡＬＩＣＯジュニア立川南口教室","province":"東京都","city":"立川市","address":"立川市柴崎町2-3-13エイティエイト立川デュオ2階","lat":35.696563,"lon":139.410807},{"name":"ドリームボックス立川","province":"東京都","city":"立川市","address":"立川市柴崎町5-8-1リバーサイドアプス1階","lat":35.689241,"lon":139.40123},{"name":"ジョブサＵ１８立川南口教室","province":"東京都","city":"立川市","address":"立川市柴崎町2-4-15ほまれ屋本社ビル201号室","lat":35.696849,"lon":139.409916},{"name":"デイサービス事業　みんなの広場　２","province":"東京都","city":"立川市","address":"立川市一番町3-17-11ローズシャトル2号館1階","lat":35.730344,"lon":139.378481},{"name":"児童デイサービス　サンフラワー","province":"東京都","city":"立川市","address":"立川市一番町5-1-5ネクサス立川1階","lat":35.73038,"lon":139.379831},{"name":"立川市子ども家庭支援センター","province":"東京都","city":"立川市","address":"立川市錦町3-2-26","lat":35.694258,"lon":139.419698},{"name":"立川市子ども家庭支援センター","province":"東京都","city":"立川市","address":"立川市錦町3-2-26","lat":35.69389,"lon":139.41933},{"name":"＊?立川市女性総合センター・アイム","province":"東京都","city":"立川市","address":"立川市曙町2-36-2","lat":35.702202,"lon":139.414096},{"name":"立川らびっとくらぶ","province":"東京都","city":"立川市","address":"立川市幸町三丁目25番地1立川けやき台ハイツ1階","lat":35.722405,"lon":139.430171},{"name":"トライきっず・プロ","province":"東京都","city":"立川市","address":"立川市幸町1-10-6","lat":35.719996,"lon":139.422258},{"name":"こどもプラス立川幸町教室","province":"東京都","city":"立川市","address":"立川市幸町5-1-7フルミエールメゾン1階B","lat":35.723318,"lon":139.418386},{"name":"こぱんはうすさくら　立川幸町教室","province":"東京都","city":"立川市","address":"立川市幸町3-13-14矢島ビル1階","lat":35.720646,"lon":139.430252},{"name":"デイサービス事業　みんなの広場　１","province":"東京都","city":"立川市","address":"立川市栄町4-2-1ジュネスイトウ1階","lat":35.710745,"lon":139.423464},{"name":"スマイルJr","province":"東京都","city":"立川市","address":"立川市高松町3-25-10富士永ハイツ101","lat":35.701754,"lon":139.418376},{"name":"テイクオフ","province":"東京都","city":"立川市","address":"立川市高松町1-20-5","lat":35.709347,"lon":139.415695},{"name":"ジョブサＵ１８立川北口教室","province":"東京都","city":"立川市","address":"立川市曙町1-24-11橋本ビル7階","lat":35.700415,"lon":139.408838},{"name":"あにものいえ","province":"東京都","city":"立川市","address":"立川市羽衣町2-23-6","lat":35.694502,"lon":139.428589},{"name":"ゆいまーる","province":"東京都","city":"立川市","address":"立川市羽衣町1丁目6番10号小川ビル2階","lat":35.696324,"lon":139.423839},{"name":"ＬＩＴＡＬＩＣＯジュニア立川南口教室","province":"東京都","city":"立川市","address":"立川市柴崎町2-3-13エイティエイト立川デュオ2階","lat":35.696563,"lon":139.410807},{"name":"ドリームボックス立川","province":"東京都","city":"立川市","address":"立川市柴崎町5-8-1リバーサイドアプス1階","lat":35.689241,"lon":139.40123},{"name":"ジョブサＵ１８立川南口教室","province":"東京都","city":"立川市","address":"立川市柴崎町2-4-15ほまれ屋本社ビル201号室","lat":35.696849,"lon":139.409916},{"name":"デイサービス事業　みんなの広場　２","province":"東京都","city":"立川市","address":"立川市一番町3-17-11ローズシャトル2号館1階","lat":35.730344,"lon":139.378481},{"name":"児童デイサービス　サンフラワー","province":"東京都","city":"立川市","address":"立川市一番町5-1-5ネクサス立川1階","lat":35.73038,"lon":139.379831},{"name":"立川市子ども家庭支援センター","province":"東京都","city":"立川市","address":"立川市錦町3-2-26","lat":35.694258,"lon":139.419698},{"name":"立川市子ども家庭支援センター","province":"東京都","city":"立川市","address":"立川市錦町3-2-26","lat":35.69389,"lon":139.41933},{"name":"＊?立川市女性総合センター・アイム","province":"東京都","city":"立川市","address":"立川市曙町2-36-2","lat":35.702202,"lon":139.414096},{"name":"立川らびっとくらぶ","province":"東京都","city":"立川市","address":"立川市幸町三丁目25番地1立川けやき台ハイツ1階","lat":35.722405,"lon":139.430171},{"name":"トライきっず・プロ","province":"東京都","city":"立川市","address":"立川市幸町1-10-6","lat":35.719996,"lon":139.422258},{"name":"こどもプラス立川幸町教室","province":"東京都","city":"立川市","address":"立川市幸町5-1-7フルミエールメゾン1階B","lat":35.723318,"lon":139.418386},{"name":"こぱんはうすさくら　立川幸町教室","province":"東京都","city":"立川市","address":"立川市幸町3-13-14矢島ビル1階","lat":35.720646,"lon":139.430252},{"name":"デイサービス事業　みんなの広場　１","province":"東京都","city":"立川市","address":"立川市栄町4-2-1ジュネスイトウ1階","lat":35.710745,"lon":139.423464},{"name":"スマイルJr","province":"東京都","city":"立川市","address":"立川市高松町3-25-10富士永ハイツ101","lat":35.701754,"lon":139.418376},{"name":"テイクオフ","province":"東京都","city":"立川市","address":"立川市高松町1-20-5","lat":35.709347,"lon":139.415695},{"name":"ジョブサＵ１８立川北口教室","province":"東京都","city":"立川市","address":"立川市曙町1-24-11橋本ビル7階","lat":35.700415,"lon":139.408838},{"name":"あにものいえ","province":"東京都","city":"立川市","address":"立川市羽衣町2-23-6","lat":35.694502,"lon":139.428589},{"name":"ゆいまーる","province":"東京都","city":"立川市","address":"立川市羽衣町1丁目6番10号小川ビル2階","lat":35.696324,"lon":139.423839},{"name":"ＬＩＴＡＬＩＣＯジュニア立川南口教室","province":"東京都","city":"立川市","address":"立川市柴崎町2-3-13エイティエイト立川デュオ2階","lat":35.696563,"lon":139.410807},{"name":"ドリームボックス立川","province":"東京都","city":"立川市","address":"立川市柴崎町5-8-1リバーサイドアプス1階","lat":35.689241,"lon":139.40123},{"name":"ジョブサＵ１８立川南口教室","province":"東京都","city":"立川市","address":"立川市柴崎町2-4-15ほまれ屋本社ビル201号室","lat":35.696849,"lon":139.409916},{"name":"デイサービス事業　みんなの広場　２","province":"東京都","city":"立川市","address":"立川市一番町3-17-11ローズシャトル2号館1階","lat":35.730344,"lon":139.378481},{"name":"児童デイサービス　サンフラワー","province":"東京都","city":"立川市","address":"立川市一番町5-1-5ネクサス立川1階","lat":35.73038,"lon":139.379831},{"name":"立川市子ども家庭支援センター","province":"東京都","city":"立川市","address":"立川市錦町3-2-26","lat":35.694258,"lon":139.419698},{"name":"立川市子ども家庭支援センター","province":"東京都","city":"立川市","address":"立川市錦町3-2-26","lat":35.69389,"lon":139.41933},{"name":"＊?立川市女性総合センター・アイム","province":"東京都","city":"立川市","address":"立川市曙町2-36-2","lat":35.702202,"lon":139.414096},{"name":"立川らびっとくらぶ","province":"東京都","city":"立川市","address":"立川市幸町三丁目25番地1立川けやき台ハイツ1階","lat":35.722405,"lon":139.430171},{"name":"トライきっず・プロ","province":"東京都","city":"立川市","address":"立川市幸町1-10-6","lat":35.719996,"lon":139.422258},{"name":"こどもプラス立川幸町教室","province":"東京都","city":"立川市","address":"立川市幸町5-1-7フルミエールメゾン1階B","lat":35.723318,"lon":139.418386},{"name":"こぱんはうすさくら　立川幸町教室","province":"東京都","city":"立川市","address":"立川市幸町3-13-14矢島ビル1階","lat":35.720646,"lon":139.430252},{"name":"デイサービス事業　みんなの広場　１","province":"東京都","city":"立川市","address":"立川市栄町4-2-1ジュネスイトウ1階","lat":35.710745,"lon":139.423464},{"name":"スマイルJr","province":"東京都","city":"立川市","address":"立川市高松町3-25-10富士永ハイツ101","lat":35.701754,"lon":139.418376},{"name":"テイクオフ","province":"東京都","city":"立川市","address":"立川市高松町1-20-5","lat":35.709347,"lon":139.415695},{"name":"ジョブサＵ１８立川北口教室","province":"東京都","city":"立川市","address":"立川市曙町1-24-11橋本ビル7階","lat":35.700415,"lon":139.408838},{"name":"あにものいえ","province":"東京都","city":"立川市","address":"立川市羽衣町2-23-6","lat":35.694502,"lon":139.428589},{"name":"ゆいまーる","province":"東京都","city":"立川市","address":"立川市羽衣町1丁目6番10号小川ビル2階","lat":35.696324,"lon":139.423839},{"name":"ＬＩＴＡＬＩＣＯジュニア立川南口教室","province":"東京都","city":"立川市","address":"立川市柴崎町2-3-13エイティエイト立川デュオ2階","lat":35.696563,"lon":139.410807},{"name":"ドリームボックス立川","province":"東京都","city":"立川市","address":"立川市柴崎町5-8-1リバーサイドアプス1階","lat":35.689241,"lon":139.40123},{"name":"ジョブサＵ１８立川南口教室","province":"東京都","city":"立川市","address":"立川市柴崎町2-4-15ほまれ屋本社ビル201号室","lat":35.696849,"lon":139.409916},{"name":"デイサービス事業　みんなの広場　２","province":"東京都","city":"立川市","address":"立川市一番町3-17-11ローズシャトル2号館1階","lat":35.730344,"lon":139.378481},{"name":"児童デイサービス　サンフラワー","province":"東京都","city":"立川市","address":"立川市一番町5-1-5ネクサス立川1階","lat":35.73038,"lon":139.379831},{"name":"立川市子ども家庭支援センター","province":"東京都","city":"立川市","address":"立川市錦町3-2-26","lat":35.694258,"lon":139.419698},{"name":"立川市子ども家庭支援センター","province":"東京都","city":"立川市","address":"立川市錦町3-2-26","lat":35.69389,"lon":139.41933},{"name":"＊?立川市女性総合センター・アイム","province":"東京都","city":"立川市","address":"立川市曙町2-36-2","lat":35.702202,"lon":139.414096},{"name":"立川らびっとくらぶ","province":"東京都","city":"立川市","address":"立川市幸町三丁目25番地1立川けやき台ハイツ1階","lat":35.722405,"lon":139.430171},{"name":"トライきっず・プロ","province":"東京都","city":"立川市","address":"立川市幸町1-10-6","lat":35.719996,"lon":139.422258},{"name":"こどもプラス立川幸町教室","province":"東京都","city":"立川市","address":"立川市幸町5-1-7フルミエールメゾン1階B","lat":35.723318,"lon":139.418386},{"name":"こぱんはうすさくら　立川幸町教室","province":"東京都","city":"立川市","address":"立川市幸町3-13-14矢島ビル1階","lat":35.720646,"lon":139.430252},{"name":"デイサービス事業　みんなの広場　１","province":"東京都","city":"立川市","address":"立川市栄町4-2-1ジュネスイトウ1階","lat":35.710745,"lon":139.423464},{"name":"スマイルJr","province":"東京都","city":"立川市","address":"立川市高松町3-25-10富士永ハイツ101","lat":35.701754,"lon":139.418376},{"name":"テイクオフ","province":"東京都","city":"立川市","address":"立川市高松町1-20-5","lat":35.709347,"lon":139.415695},{"name":"ジョブサＵ１８立川北口教室","province":"東京都","city":"立川市","address":"立川市曙町1-24-11橋本ビル7階","lat":35.700415,"lon":139.408838},{"name":"あにものいえ","province":"東京都","city":"立川市","address":"立川市羽衣町2-23-6","lat":35.694502,"lon":139.428589},{"name":"ゆいまーる","province":"東京都","city":"立川市","address":"立川市羽衣町1丁目6番10号小川ビル2階","lat":35.696324,"lon":139.423839},{"name":"ＬＩＴＡＬＩＣＯジュニア立川南口教室","province":"東京都","city":"立川市","address":"立川市柴崎町2-3-13エイティエイト立川デュオ2階","lat":35.696563,"lon":139.410807},{"name":"ドリームボックス立川","province":"東京都","city":"立川市","address":"立川市柴崎町5-8-1リバーサイドアプス1階","lat":35.689241,"lon":139.40123},{"name":"ジョブサＵ１８立川南口教室","province":"東京都","city":"立川市","address":"立川市柴崎町2-4-15ほまれ屋本社ビル201号室","lat":35.696849,"lon":139.409916},{"name":"デイサービス事業　みんなの広場　２","province":"東京都","city":"立川市","address":"立川市一番町3-17-11ローズシャトル2号館1階","lat":35.730344,"lon":139.378481},{"name":"児童デイサービス　サンフラワー","province":"東京都","city":"立川市","address":"立川市一番町5-1-5ネクサス立川1階","lat":35.73038,"lon":139.379831},{"name":"立川市子ども家庭支援センター","province":"東京都","city":"立川市","address":"立川市錦町3-2-26","lat":35.694258,"lon":139.419698},{"name":"立川市子ども家庭支援センター","province":"東京都","city":"立川市","address":"立川市錦町3-2-26","lat":35.69389,"lon":139.41933},{"name":"＊?立川市女性総合センター・アイム","province":"東京都","city":"立川市","address":"立川市曙町2-36-2","lat":35.702202,"lon":139.414096},{"name":"立川らびっとくらぶ","province":"東京都","city":"立川市","address":"立川市幸町三丁目25番地1立川けやき台ハイツ1階","lat":35.722405,"lon":139.430171},{"name":"トライきっず・プロ","province":"東京都","city":"立川市","address":"立川市幸町1-10-6","lat":35.719996,"lon":139.422258},{"name":"こどもプラス立川幸町教室","province":"東京都","city":"立川市","address":"立川市幸町5-1-7フルミエールメゾン1階B","lat":35.723318,"lon":139.418386},{"name":"こぱんはうすさくら　立川幸町教室","province":"東京都","city":"立川市","address":"立川市幸町3-13-14矢島ビル1階","lat":35.720646,"lon":139.430252},{"name":"デイサービス事業　みんなの広場　１","province":"東京都","city":"立川市","address":"立川市栄町4-2-1ジュネスイトウ1階","lat":35.710745,"lon":139.423464},{"name":"スマイルJr","province":"東京都","city":"立川市","address":"立川市高松町3-25-10富士永ハイツ101","lat":35.701754,"lon":139.418376},{"name":"テイクオフ","province":"東京都","city":"立川市","address":"立川市高松町1-20-5","lat":35.709347,"lon":139.415695},{"name":"ジョブサＵ１８立川北口教室","province":"東京都","city":"立川市","address":"立川市曙町1-24-11橋本ビル7階","lat":35.700415,"lon":139.408838},{"name":"あにものいえ","province":"東京都","city":"立川市","address":"立川市羽衣町2-23-6","lat":35.694502,"lon":139.428589},{"name":"ゆいまーる","province":"東京都","city":"立川市","address":"立川市羽衣町1丁目6番10号小川ビル2階","lat":35.696324,"lon":139.423839},{"name":"ＬＩＴＡＬＩＣＯジュニア立川南口教室","province":"東京都","city":"立川市","address":"立川市柴崎町2-3-13エイティエイト立川デュオ2階","lat":35.696563,"lon":139.410807},{"name":"ドリームボックス立川","province":"東京都","city":"立川市","address":"立川市柴崎町5-8-1リバーサイドアプス1階","lat":35.689241,"lon":139.40123},{"name":"ジョブサＵ１８立川南口教室","province":"東京都","city":"立川市","address":"立川市柴崎町2-4-15ほまれ屋本社ビル201号室","lat":35.696849,"lon":139.409916},{"name":"デイサービス事業　みんなの広場　２","province":"東京都","city":"立川市","address":"立川市一番町3-17-11ローズシャトル2号館1階","lat":35.730344,"lon":139.378481},{"name":"児童デイサービス　サンフラワー","province":"東京都","city":"立川市","address":"立川市一番町5-1-5ネクサス立川1階","lat":35.73038,"lon":139.379831},{"name":"立川市子ども家庭支援センター","province":"東京都","city":"立川市","address":"立川市錦町3-2-26","lat":35.694258,"lon":139.419698},{"name":"立川市子ども家庭支援センター","province":"東京都","city":"立川市","address":"立川市錦町3-2-26","lat":35.69389,"lon":139.41933},{"name":"＊?立川市女性総合センター・アイム","province":"東京都","city":"立川市","address":"立川市曙町2-36-2","lat":35.702202,"lon":139.414096},{"name":"立川らびっとくらぶ","province":"東京都","city":"立川市","address":"立川市幸町三丁目25番地1立川けやき台ハイツ1階","lat":35.722405,"lon":139.430171},{"name":"トライきっず・プロ","province":"東京都","city":"立川市","address":"立川市幸町1-10-6","lat":35.719996,"lon":139.422258},{"name":"こどもプラス立川幸町教室","province":"東京都","city":"立川市","address":"立川市幸町5-1-7フルミエールメゾン1階B","lat":35.723318,"lon":139.418386},{"name":"こぱんはうすさくら　立川幸町教室","province":"東京都","city":"立川市","address":"立川市幸町3-13-14矢島ビル1階","lat":35.720646,"lon":139.430252},{"name":"デイサービス事業　みんなの広場　１","province":"東京都","city":"立川市","address":"立川市栄町4-2-1ジュネスイトウ1階","lat":35.710745,"lon":139.423464},{"name":"スマイルJr","province":"東京都","city":"立川市","address":"立川市高松町3-25-10富士永ハイツ101","lat":35.701754,"lon":139.418376},{"name":"テイクオフ","province":"東京都","city":"立川市","address":"立川市高松町1-20-5","lat":35.709347,"lon":139.415695},{"name":"ジョブサＵ１８立川北口教室","province":"東京都","city":"立川市","address":"立川市曙町1-24-11橋本ビル7階","lat":35.700415,"lon":139.408838},{"name":"あにものいえ","province":"東京都","city":"立川市","address":"立川市羽衣町2-23-6","lat":35.694502,"lon":139.428589},{"name":"ゆいまーる","province":"東京都","city":"立川市","address":"立川市羽衣町1丁目6番10号小川ビル2階","lat":35.696324,"lon":139.423839},{"name":"ＬＩＴＡＬＩＣＯジュニア立川南口教室","province":"東京都","city":"立川市","address":"立川市柴崎町2-3-13エイティエイト立川デュオ2階","lat":35.696563,"lon":139.410807},{"name":"ドリームボックス立川","province":"東京都","city":"立川市","address":"立川市柴崎町5-8-1リバーサイドアプス1階","lat":35.689241,"lon":139.40123},{"name":"ジョブサＵ１８立川南口教室","province":"東京都","city":"立川市","address":"立川市柴崎町2-4-15ほまれ屋本社ビル201号室","lat":35.696849,"lon":139.409916},{"name":"デイサービス事業　みんなの広場　２","province":"東京都","city":"立川市","address":"立川市一番町3-17-11ローズシャトル2号館1階","lat":35.730344,"lon":139.378481},{"name":"児童デイサービス　サンフラワー","province":"東京都","city":"立川市","address":"立川市一番町5-1-5ネクサス立川1階","lat":35.73038,"lon":139.379831},{"name":"立川市子ども家庭支援センター","province":"東京都","city":"立川市","address":"立川市錦町3-2-26","lat":35.694258,"lon":139.419698},{"name":"立川市子ども家庭支援センター","province":"東京都","city":"立川市","address":"立川市錦町3-2-26","lat":35.69389,"lon":139.41933},{"name":"＊?立川市女性総合センター・アイム","province":"東京都","city":"立川市","address":"立川市曙町2-36-2","lat":35.702202,"lon":139.414096},{"name":"立川らびっとくらぶ","province":"東京都","city":"立川市","address":"立川市幸町三丁目25番地1立川けやき台ハイツ1階","lat":35.722405,"lon":139.430171},{"name":"トライきっず・プロ","province":"東京都","city":"立川市","address":"立川市幸町1-10-6","lat":35.719996,"lon":139.422258},{"name":"こどもプラス立川幸町教室","province":"東京都","city":"立川市","address":"立川市幸町5-1-7フルミエールメゾン1階B","lat":35.723318,"lon":139.418386},{"name":"こぱんはうすさくら　立川幸町教室","province":"東京都","city":"立川市","address":"立川市幸町3-13-14矢島ビル1階","lat":35.720646,"lon":139.430252},{"name":"デイサービス事業　みんなの広場　１","province":"東京都","city":"立川市","address":"立川市栄町4-2-1ジュネスイトウ1階","lat":35.710745,"lon":139.423464},{"name":"スマイルJr","province":"東京都","city":"立川市","address":"立川市高松町3-25-10富士永ハイツ101","lat":35.701754,"lon":139.418376},{"name":"テイクオフ","province":"東京都","city":"立川市","address":"立川市高松町1-20-5","lat":35.709347,"lon":139.415695},{"name":"ジョブサＵ１８立川北口教室","province":"東京都","city":"立川市","address":"立川市曙町1-24-11橋本ビル7階","lat":35.700415,"lon":139.408838},{"name":"あにものいえ","province":"東京都","city":"立川市","address":"立川市羽衣町2-23-6","lat":35.694502,"lon":139.428589},{"name":"ゆいまーる","province":"東京都","city":"立川市","address":"立川市羽衣町1丁目6番10号小川ビル2階","lat":35.696324,"lon":139.423839},{"name":"ＬＩＴＡＬＩＣＯジュニア立川南口教室","province":"東京都","city":"立川市","address":"立川市柴崎町2-3-13エイティエイト立川デュオ2階","lat":35.696563,"lon":139.410807},{"name":"ドリームボックス立川","province":"東京都","city":"立川市","address":"立川市柴崎町5-8-1リバーサイドアプス1階","lat":35.689241,"lon":139.40123},{"name":"ジョブサＵ１８立川南口教室","province":"東京都","city":"立川市","address":"立川市柴崎町2-4-15ほまれ屋本社ビル201号室","lat":35.696849,"lon":139.409916},{"name":"デイサービス事業　みんなの広場　２","province":"東京都","city":"立川市","address":"立川市一番町3-17-11ローズシャトル2号館1階","lat":35.730344,"lon":139.378481},{"name":"児童デイサービス　サンフラワー","province":"東京都","city":"立川市","address":"立川市一番町5-1-5ネクサス立川1階","lat":35.73038,"lon":139.379831},{"name":"立川市子ども家庭支援センター","province":"東京都","city":"立川市","address":"立川市錦町3-2-26","lat":35.694258,"lon":139.419698},{"name":"立川市子ども家庭支援センター","province":"東京都","city":"立川市","address":"立川市錦町3-2-26","lat":35.69389,"lon":139.41933},{"name":"＊?立川市女性総合センター・アイム","province":"東京都","city":"立川市","address":"立川市曙町2-36-2","lat":35.702202,"lon":139.414096},{"name":"立川らびっとくらぶ","province":"東京都","city":"立川市","address":"立川市幸町三丁目25番地1立川けやき台ハイツ1階","lat":35.722405,"lon":139.430171},{"name":"トライきっず・プロ","province":"東京都","city":"立川市","address":"立川市幸町1-10-6","lat":35.719996,"lon":139.422258},{"name":"こどもプラス立川幸町教室","province":"東京都","city":"立川市","address":"立川市幸町5-1-7フルミエールメゾン1階B","lat":35.723318,"lon":139.418386},{"name":"こぱんはうすさくら　立川幸町教室","province":"東京都","city":"立川市","address":"立川市幸町3-13-14矢島ビル1階","lat":35.720646,"lon":139.430252},{"name":"デイサービス事業　みんなの広場　１","province":"東京都","city":"立川市","address":"立川市栄町4-2-1ジュネスイトウ1階","lat":35.710745,"lon":139.423464},{"name":"スマイルJr","province":"東京都","city":"立川市","address":"立川市高松町3-25-10富士永ハイツ101","lat":35.701754,"lon":139.418376},{"name":"テイクオフ","province":"東京都","city":"立川市","address":"立川市高松町1-20-5","lat":35.709347,"lon":139.415695},{"name":"ジョブサＵ１８立川北口教室","province":"東京都","city":"立川市","address":"立川市曙町1-24-11橋本ビル7階","lat":35.700415,"lon":139.408838},{"name":"あにものいえ","province":"東京都","city":"立川市","address":"立川市羽衣町2-23-6","lat":35.694502,"lon":139.428589},{"name":"ゆいまーる","province":"東京都","city":"立川市","address":"立川市羽衣町1丁目6番10号小川ビル2階","lat":35.696324,"lon":139.423839},{"name":"ＬＩＴＡＬＩＣＯジュニア立川南口教室","province":"東京都","city":"立川市","address":"立川市柴崎町2-3-13エイティエイト立川デュオ2階","lat":35.696563,"lon":139.410807},{"name":"ドリームボックス立川","province":"東京都","city":"立川市","address":"立川市柴崎町5-8-1リバーサイドアプス1階","lat":35.689241,"lon":139.40123},{"name":"ジョブサＵ１８立川南口教室","province":"東京都","city":"立川市","address":"立川市柴崎町2-4-15ほまれ屋本社ビル201号室","lat":35.696849,"lon":139.409916},{"name":"デイサービス事業　みんなの広場　２","province":"東京都","city":"立川市","address":"立川市一番町3-17-11ローズシャトル2号館1階","lat":35.730344,"lon":139.378481},{"name":"児童デイサービス　サンフラワー","province":"東京都","city":"立川市","address":"立川市一番町5-1-5ネクサス立川1階","lat":35.73038,"lon":139.379831},{"name":"立川市子ども家庭支援センター","province":"東京都","city":"立川市","address":"立川市錦町3-2-26","lat":35.694258,"lon":139.419698},{"name":"立川市子ども家庭支援センター","province":"東京都","city":"立川市","address":"立川市錦町3-2-26","lat":35.69389,"lon":139.41933},{"name":"＊?立川市女性総合センター・アイム","province":"東京都","city":"立川市","address":"立川市曙町2-36-2","lat":35.702202,"lon":139.414096},{"name":"立川らびっとくらぶ","province":"東京都","city":"立川市","address":"立川市幸町三丁目25番地1立川けやき台ハイツ1階","lat":35.722405,"lon":139.430171},{"name":"トライきっず・プロ","province":"東京都","city":"立川市","address":"立川市幸町1-10-6","lat":35.719996,"lon":139.422258},{"name":"こどもプラス立川幸町教室","province":"東京都","city":"立川市","address":"立川市幸町5-1-7フルミエールメゾン1階B","lat":35.723318,"lon":139.418386},{"name":"こぱんはうすさくら　立川幸町教室","province":"東京都","city":"立川市","address":"立川市幸町3-13-14矢島ビル1階","lat":35.720646,"lon":139.430252},{"name":"デイサービス事業　みんなの広場　１","province":"東京都","city":"立川市","address":"立川市栄町4-2-1ジュネスイトウ1階","lat":35.710745,"lon":139.423464},{"name":"スマイルJr","province":"東京都","city":"立川市","address":"立川市高松町3-25-10富士永ハイツ101","lat":35.701754,"lon":139.418376},{"name":"テイクオフ","province":"東京都","city":"立川市","address":"立川市高松町1-20-5","lat":35.709347,"lon":139.415695},{"name":"ジョブサＵ１８立川北口教室","province":"東京都","city":"立川市","address":"立川市曙町1-24-11橋本ビル7階","lat":35.700415,"lon":139.408838},{"name":"あにものいえ","province":"東京都","city":"立川市","address":"立川市羽衣町2-23-6","lat":35.694502,"lon":139.428589},{"name":"ゆいまーる","province":"東京都","city":"立川市","address":"立川市羽衣町1丁目6番10号小川ビル2階","lat":35.696324,"lon":139.423839},{"name":"ＬＩＴＡＬＩＣＯジュニア立川南口教室","province":"東京都","city":"立川市","address":"立川市柴崎町2-3-13エイティエイト立川デュオ2階","lat":35.696563,"lon":139.410807},{"name":"ドリームボックス立川","province":"東京都","city":"立川市","address":"立川市柴崎町5-8-1リバーサイドアプス1階","lat":35.689241,"lon":139.40123},{"name":"ジョブサＵ１８立川南口教室","province":"東京都","city":"立川市","address":"立川市柴崎町2-4-15ほまれ屋本社ビル201号室","lat":35.696849,"lon":139.409916},{"name":"デイサービス事業　みんなの広場　２","province":"東京都","city":"立川市","address":"立川市一番町3-17-11ローズシャトル2号館1階","lat":35.730344,"lon":139.378481},{"name":"児童デイサービス　サンフラワー","province":"東京都","city":"立川市","address":"立川市一番町5-1-5ネクサス立川1階","lat":35.73038,"lon":139.379831},{"name":"立川市子ども家庭支援センター","province":"東京都","city":"立川市","address":"立川市錦町3-2-26","lat":35.694258,"lon":139.419698},{"name":"立川市子ども家庭支援センター","province":"東京都","city":"立川市","address":"立川市錦町3-2-26","lat":35.69389,"lon":139.41933},{"name":"＊?立川市女性総合センター・アイム","province":"東京都","city":"立川市","address":"立川市曙町2-36-2","lat":35.702202,"lon":139.414096},{"name":"立川らびっとくらぶ","province":"東京都","city":"立川市","address":"立川市幸町三丁目25番地1立川けやき台ハイツ1階","lat":35.722405,"lon":139.430171},{"name":"トライきっず・プロ","province":"東京都","city":"立川市","address":"立川市幸町1-10-6","lat":35.719996,"lon":139.422258},{"name":"こどもプラス立川幸町教室","province":"東京都","city":"立川市","address":"立川市幸町5-1-7フルミエールメゾン1階B","lat":35.723318,"lon":139.418386},{"name":"こぱんはうすさくら　立川幸町教室","province":"東京都","city":"立川市","address":"立川市幸町3-13-14矢島ビル1階","lat":35.720646,"lon":139.430252},{"name":"デイサービス事業　みんなの広場　１","province":"東京都","city":"立川市","address":"立川市栄町4-2-1ジュネスイトウ1階","lat":35.710745,"lon":139.423464},{"name":"スマイルJr","province":"東京都","city":"立川市","address":"立川市高松町3-25-10富士永ハイツ101","lat":35.701754,"lon":139.418376},{"name":"テイクオフ","province":"東京都","city":"立川市","address":"立川市高松町1-20-5","lat":35.709347,"lon":139.415695},{"name":"ジョブサＵ１８立川北口教室","province":"東京都","city":"立川市","address":"立川市曙町1-24-11橋本ビル7階","lat":35.700415,"lon":139.408838},{"name":"あにものいえ","province":"東京都","city":"立川市","address":"立川市羽衣町2-23-6","lat":35.694502,"lon":139.428589},{"name":"ゆいまーる","province":"東京都","city":"立川市","address":"立川市羽衣町1丁目6番10号小川ビル2階","lat":35.696324,"lon":139.423839},{"name":"ＬＩＴＡＬＩＣＯジュニア立川南口教室","province":"東京都","city":"立川市","address":"立川市柴崎町2-3-13エイティエイト立川デュオ2階","lat":35.696563,"lon":139.410807},{"name":"ドリームボックス立川","province":"東京都","city":"立川市","address":"立川市柴崎町5-8-1リバーサイドアプス1階","lat":35.689241,"lon":139.40123},{"name":"ジョブサＵ１８立川南口教室","province":"東京都","city":"立川市","address":"立川市柴崎町2-4-15ほまれ屋本社ビル201号室","lat":35.696849,"lon":139.409916},{"name":"デイサービス事業　みんなの広場　２","province":"東京都","city":"立川市","address":"立川市一番町3-17-11ローズシャトル2号館1階","lat":35.730344,"lon":139.378481},{"name":"児童デイサービス　サンフラワー","province":"東京都","city":"立川市","address":"立川市一番町5-1-5ネクサス立川1階","lat":35.73038,"lon":139.379831},{"name":"立川市子ども家庭支援センター","province":"東京都","city":"立川市","address":"立川市錦町3-2-26","lat":35.694258,"lon":139.419698},{"name":"立川市子ども家庭支援センター","province":"東京都","city":"立川市","address":"立川市錦町3-2-26","lat":35.69389,"lon":139.41933},{"name":"＊?立川市女性総合センター・アイム","province":"東京都","city":"立川市","address":"立川市曙町2-36-2","lat":35.702202,"lon":139.414096},{"name":"立川らびっとくらぶ","province":"東京都","city":"立川市","address":"立川市幸町三丁目25番地1立川けやき台ハイツ1階","lat":35.722405,"lon":139.430171},{"name":"トライきっず・プロ","province":"東京都","city":"立川市","address":"立川市幸町1-10-6","lat":35.719996,"lon":139.422258},{"name":"こどもプラス立川幸町教室","province":"東京都","city":"立川市","address":"立川市幸町5-1-7フルミエールメゾン1階B","lat":35.723318,"lon":139.418386},{"name":"こぱんはうすさくら　立川幸町教室","province":"東京都","city":"立川市","address":"立川市幸町3-13-14矢島ビル1階","lat":35.720646,"lon":139.430252},{"name":"デイサービス事業　みんなの広場　１","province":"東京都","city":"立川市","address":"立川市栄町4-2-1ジュネスイトウ1階","lat":35.710745,"lon":139.423464},{"name":"スマイルJr","province":"東京都","city":"立川市","address":"立川市高松町3-25-10富士永ハイツ101","lat":35.701754,"lon":139.418376},{"name":"テイクオフ","province":"東京都","city":"立川市","address":"立川市高松町1-20-5","lat":35.709347,"lon":139.415695},{"name":"ジョブサＵ１８立川北口教室","province":"東京都","city":"立川市","address":"立川市曙町1-24-11橋本ビル7階","lat":35.700415,"lon":139.408838},{"name":"あにものいえ","province":"東京都","city":"立川市","address":"立川市羽衣町2-23-6","lat":35.694502,"lon":139.428589},{"name":"ゆいまーる","province":"東京都","city":"立川市","address":"立川市羽衣町1丁目6番10号小川ビル2階","lat":35.696324,"lon":139.423839},{"name":"ＬＩＴＡＬＩＣＯジュニア立川南口教室","province":"東京都","city":"立川市","address":"立川市柴崎町2-3-13エイティエイト立川デュオ2階","lat":35.696563,"lon":139.410807},{"name":"ドリームボックス立川","province":"東京都","city":"立川市","address":"立川市柴崎町5-8-1リバーサイドアプス1階","lat":35.689241,"lon":139.40123},{"name":"ジョブサＵ１８立川南口教室","province":"東京都","city":"立川市","address":"立川市柴崎町2-4-15ほまれ屋本社ビル201号室","lat":35.696849,"lon":139.409916},{"name":"デイサービス事業　みんなの広場　２","province":"東京都","city":"立川市","address":"立川市一番町3-17-11ローズシャトル2号館1階","lat":35.730344,"lon":139.378481},{"name":"児童デイサービス　サンフラワー","province":"東京都","city":"立川市","address":"立川市一番町5-1-5ネクサス立川1階","lat":35.73038,"lon":139.379831},{"name":"立川市子ども家庭支援センター","province":"東京都","city":"立川市","address":"立川市錦町3-2-26","lat":35.694258,"lon":139.419698},{"name":"立川市子ども家庭支援センター","province":"東京都","city":"立川市","address":"立川市錦町3-2-26","lat":35.69389,"lon":139.41933},{"name":"＊?立川市女性総合センター・アイム","province":"東京都","city":"立川市","address":"立川市曙町2-36-2","lat":35.702202,"lon":139.414096},{"name":"立川らびっとくらぶ","province":"東京都","city":"立川市","address":"立川市幸町三丁目25番地1立川けやき台ハイツ1階","lat":35.722405,"lon":139.430171},{"name":"トライきっず・プロ","province":"東京都","city":"立川市","address":"立川市幸町1-10-6","lat":35.719996,"lon":139.422258},{"name":"こどもプラス立川幸町教室","province":"東京都","city":"立川市","address":"立川市幸町5-1-7フルミエールメゾン1階B","lat":35.723318,"lon":139.418386},{"name":"こぱんはうすさくら　立川幸町教室","province":"東京都","city":"立川市","address":"立川市幸町3-13-14矢島ビル1階","lat":35.720646,"lon":139.430252},{"name":"デイサービス事業　みんなの広場　１","province":"東京都","city":"立川市","address":"立川市栄町4-2-1ジュネスイトウ1階","lat":35.710745,"lon":139.423464},{"name":"スマイルJr","province":"東京都","city":"立川市","address":"立川市高松町3-25-10富士永ハイツ101","lat":35.701754,"lon":139.418376},{"name":"テイクオフ","province":"東京都","city":"立川市","address":"立川市高松町1-20-5","lat":35.709347,"lon":139.415695},{"name":"ジョブサＵ１８立川北口教室","province":"東京都","city":"立川市","address":"立川市曙町1-24-11橋本ビル7階","lat":35.700415,"lon":139.408838},{"name":"あにものいえ","province":"東京都","city":"立川市","address":"立川市羽衣町2-23-6","lat":35.694502,"lon":139.428589},{"name":"ゆいまーる","province":"東京都","city":"立川市","address":"立川市羽衣町1丁目6番10号小川ビル2階","lat":35.696324,"lon":139.423839},{"name":"ＬＩＴＡＬＩＣＯジュニア立川南口教室","province":"東京都","city":"立川市","address":"立川市柴崎町2-3-13エイティエイト立川デュオ2階","lat":35.696563,"lon":139.410807},{"name":"ドリームボックス立川","province":"東京都","city":"立川市","address":"立川市柴崎町5-8-1リバーサイドアプス1階","lat":35.689241,"lon":139.40123},{"name":"ジョブサＵ１８立川南口教室","province":"東京都","city":"立川市","address":"立川市柴崎町2-4-15ほまれ屋本社ビル201号室","lat":35.696849,"lon":139.409916},{"name":"デイサービス事業　みんなの広場　２","province":"東京都","city":"立川市","address":"立川市一番町3-17-11ローズシャトル2号館1階","lat":35.730344,"lon":139.378481},{"name":"児童デイサービス　サンフラワー","province":"東京都","city":"立川市","address":"立川市一番町5-1-5ネクサス立川1階","lat":35.73038,"lon":139.379831},{"name":"立川市子ども家庭支援センター","province":"東京都","city":"立川市","address":"立川市錦町3-2-26","lat":35.694258,"lon":139.419698},{"name":"立川市子ども家庭支援センター","province":"東京都","city":"立川市","address":"立川市錦町3-2-26","lat":35.69389,"lon":139.41933},{"name":"＊?立川市女性総合センター・アイム","province":"東京都","city":"立川市","address":"立川市曙町2-36-2","lat":35.702202,"lon":139.414096},{"name":"立川らびっとくらぶ","province":"東京都","city":"立川市","address":"立川市幸町三丁目25番地1立川けやき台ハイツ1階","lat":35.722405,"lon":139.430171},{"name":"トライきっず・プロ","province":"東京都","city":"立川市","address":"立川市幸町1-10-6","lat":35.719996,"lon":139.422258},{"name":"こどもプラス立川幸町教室","province":"東京都","city":"立川市","address":"立川市幸町5-1-7フルミエールメゾン1階B","lat":35.723318,"lon":139.418386},{"name":"こぱんはうすさくら　立川幸町教室","province":"東京都","city":"立川市","address":"立川市幸町3-13-14矢島ビル1階","lat":35.720646,"lon":139.430252},{"name":"デイサービス事業　みんなの広場　１","province":"東京都","city":"立川市","address":"立川市栄町4-2-1ジュネスイトウ1階","lat":35.710745,"lon":139.423464},{"name":"スマイルJr","province":"東京都","city":"立川市","address":"立川市高松町3-25-10富士永ハイツ101","lat":35.701754,"lon":139.418376},{"name":"テイクオフ","province":"東京都","city":"立川市","address":"立川市高松町1-20-5","lat":35.709347,"lon":139.415695},{"name":"ジョブサＵ１８立川北口教室","province":"東京都","city":"立川市","address":"立川市曙町1-24-11橋本ビル7階","lat":35.700415,"lon":139.408838},{"name":"あにものいえ","province":"東京都","city":"立川市","address":"立川市羽衣町2-23-6","lat":35.694502,"lon":139.428589},{"name":"ゆいまーる","province":"東京都","city":"立川市","address":"立川市羽衣町1丁目6番10号小川ビル2階","lat":35.696324,"lon":139.423839},{"name":"ＬＩＴＡＬＩＣＯジュニア立川南口教室","province":"東京都","city":"立川市","address":"立川市柴崎町2-3-13エイティエイト立川デュオ2階","lat":35.696563,"lon":139.410807},{"name":"ドリームボックス立川","province":"東京都","city":"立川市","address":"立川市柴崎町5-8-1リバーサイドアプス1階","lat":35.689241,"lon":139.40123},{"name":"ジョブサＵ１８立川南口教室","province":"東京都","city":"立川市","address":"立川市柴崎町2-4-15ほまれ屋本社ビル201号室","lat":35.696849,"lon":139.409916},{"name":"デイサービス事業　みんなの広場　２","province":"東京都","city":"立川市","address":"立川市一番町3-17-11ローズシャトル2号館1階","lat":35.730344,"lon":139.378481},{"name":"児童デイサービス　サンフラワー","province":"東京都","city":"立川市","address":"立川市一番町5-1-5ネクサス立川1階","lat":35.73038,"lon":139.379831},{"name":"立川市子ども家庭支援センター","province":"東京都","city":"立川市","address":"立川市錦町3-2-26","lat":35.694258,"lon":139.419698},{"name":"立川市子ども家庭支援センター","province":"東京都","city":"立川市","address":"立川市錦町3-2-26","lat":35.69389,"lon":139.41933},{"name":"＊?立川市女性総合センター・アイム","province":"東京都","city":"立川市","address":"立川市曙町2-36-2","lat":35.702202,"lon":139.414096},{"name":"立川らびっとくらぶ","province":"東京都","city":"立川市","address":"立川市幸町三丁目25番地1立川けやき台ハイツ1階","lat":35.722405,"lon":139.430171},{"name":"トライきっず・プロ","province":"東京都","city":"立川市","address":"立川市幸町1-10-6","lat":35.719996,"lon":139.422258},{"name":"こどもプラス立川幸町教室","province":"東京都","city":"立川市","address":"立川市幸町5-1-7フルミエールメゾン1階B","lat":35.723318,"lon":139.418386},{"name":"こぱんはうすさくら　立川幸町教室","province":"東京都","city":"立川市","address":"立川市幸町3-13-14矢島ビル1階","lat":35.720646,"lon":139.430252},{"name":"デイサービス事業　みんなの広場　１","province":"東京都","city":"立川市","address":"立川市栄町4-2-1ジュネスイトウ1階","lat":35.710745,"lon":139.423464},{"name":"スマイルJr","province":"東京都","city":"立川市","address":"立川市高松町3-25-10富士永ハイツ101","lat":35.701754,"lon":139.418376},{"name":"テイクオフ","province":"東京都","city":"立川市","address":"立川市高松町1-20-5","lat":35.709347,"lon":139.415695},{"name":"ジョブサＵ１８立川北口教室","province":"東京都","city":"立川市","address":"立川市曙町1-24-11橋本ビル7階","lat":35.700415,"lon":139.408838},{"name":"あにものいえ","province":"東京都","city":"立川市","address":"立川市羽衣町2-23-6","lat":35.694502,"lon":139.428589},{"name":"ゆいまーる","province":"東京都","city":"立川市","address":"立川市羽衣町1丁目6番10号小川ビル2階","lat":35.696324,"lon":139.423839},{"name":"ＬＩＴＡＬＩＣＯジュニア立川南口教室","province":"東京都","city":"立川市","address":"立川市柴崎町2-3-13エイティエイト立川デュオ2階","lat":35.696563,"lon":139.410807},{"name":"ドリームボックス立川","province":"東京都","city":"立川市","address":"立川市柴崎町5-8-1リバーサイドアプス1階","lat":35.689241,"lon":139.40123},{"name":"ジョブサＵ１８立川南口教室","province":"東京都","city":"立川市","address":"立川市柴崎町2-4-15ほまれ屋本社ビル201号室","lat":35.696849,"lon":139.409916},{"name":"デイサービス事業　みんなの広場　２","province":"東京都","city":"立川市","address":"立川市一番町3-17-11ローズシャトル2号館1階","lat":35.730344,"lon":139.378481},{"name":"児童デイサービス　サンフラワー","province":"東京都","city":"立川市","address":"立川市一番町5-1-5ネクサス立川1階","lat":35.73038,"lon":139.379831},{"name":"立川市子ども家庭支援センター","province":"東京都","city":"立川市","address":"立川市錦町3-2-26","lat":35.694258,"lon":139.419698},{"name":"立川市子ども家庭支援センター","province":"東京都","city":"立川市","address":"立川市錦町3-2-26","lat":35.69389,"lon":139.41933},{"name":"＊?立川市女性総合センター・アイム","province":"東京都","city":"立川市","address":"立川市曙町2-36-2","lat":35.702202,"lon":139.414096},{"name":"立川らびっとくらぶ","province":"東京都","city":"立川市","address":"立川市幸町三丁目25番地1立川けやき台ハイツ1階","lat":35.722405,"lon":139.430171},{"name":"トライきっず・プロ","province":"東京都","city":"立川市","address":"立川市幸町1-10-6","lat":35.719996,"lon":139.422258},{"name":"こどもプラス立川幸町教室","province":"東京都","city":"立川市","address":"立川市幸町5-1-7フルミエールメゾン1階B","lat":35.723318,"lon":139.418386},{"name":"こぱんはうすさくら　立川幸町教室","province":"東京都","city":"立川市","address":"立川市幸町3-13-14矢島ビル1階","lat":35.720646,"lon":139.430252},{"name":"デイサービス事業　みんなの広場　１","province":"東京都","city":"立川市","address":"立川市栄町4-2-1ジュネスイトウ1階","lat":35.710745,"lon":139.423464},{"name":"スマイルJr","province":"東京都","city":"立川市","address":"立川市高松町3-25-10富士永ハイツ101","lat":35.701754,"lon":139.418376},{"name":"テイクオフ","province":"東京都","city":"立川市","address":"立川市高松町1-20-5","lat":35.709347,"lon":139.415695},{"name":"ジョブサＵ１８立川北口教室","province":"東京都","city":"立川市","address":"立川市曙町1-24-11橋本ビル7階","lat":35.700415,"lon":139.408838},{"name":"あにものいえ","province":"東京都","city":"立川市","address":"立川市羽衣町2-23-6","lat":35.694502,"lon":139.428589},{"name":"ゆいまーる","province":"東京都","city":"立川市","address":"立川市羽衣町1丁目6番10号小川ビル2階","lat":35.696324,"lon":139.423839},{"name":"ＬＩＴＡＬＩＣＯジュニア立川南口教室","province":"東京都","city":"立川市","address":"立川市柴崎町2-3-13エイティエイト立川デュオ2階","lat":35.696563,"lon":139.410807},{"name":"ドリームボックス立川","province":"東京都","city":"立川市","address":"立川市柴崎町5-8-1リバーサイドアプス1階","lat":35.689241,"lon":139.40123},{"name":"ジョブサＵ１８立川南口教室","province":"東京都","city":"立川市","address":"立川市柴崎町2-4-15ほまれ屋本社ビル201号室","lat":35.696849,"lon":139.409916},{"name":"デイサービス事業　みんなの広場　２","province":"東京都","city":"立川市","address":"立川市一番町3-17-11ローズシャトル2号館1階","lat":35.730344,"lon":139.378481},{"name":"児童デイサービス　サンフラワー","province":"東京都","city":"立川市","address":"立川市一番町5-1-5ネクサス立川1階","lat":35.73038,"lon":139.379831},{"name":"立川市子ども家庭支援センター","province":"東京都","city":"立川市","address":"立川市錦町3-2-26","lat":35.694258,"lon":139.419698},{"name":"立川市子ども家庭支援センター","province":"東京都","city":"立川市","address":"立川市錦町3-2-26","lat":35.69389,"lon":139.41933},{"name":"＊?立川市女性総合センター・アイム","province":"東京都","city":"立川市","address":"立川市曙町2-36-2","lat":35.702202,"lon":139.414096},{"name":"立川らびっとくらぶ","province":"東京都","city":"立川市","address":"立川市幸町三丁目25番地1立川けやき台ハイツ1階","lat":35.722405,"lon":139.430171},{"name":"トライきっず・プロ","province":"東京都","city":"立川市","address":"立川市幸町1-10-6","lat":35.719996,"lon":139.422258},{"name":"こどもプラス立川幸町教室","province":"東京都","city":"立川市","address":"立川市幸町5-1-7フルミエールメゾン1階B","lat":35.723318,"lon":139.418386},{"name":"こぱんはうすさくら　立川幸町教室","province":"東京都","city":"立川市","address":"立川市幸町3-13-14矢島ビル1階","lat":35.720646,"lon":139.430252},{"name":"デイサービス事業　みんなの広場　１","province":"東京都","city":"立川市","address":"立川市栄町4-2-1ジュネスイトウ1階","lat":35.710745,"lon":139.423464},{"name":"スマイルJr","province":"東京都","city":"立川市","address":"立川市高松町3-25-10富士永ハイツ101","lat":35.701754,"lon":139.418376},{"name":"テイクオフ","province":"東京都","city":"立川市","address":"立川市高松町1-20-5","lat":35.709347,"lon":139.415695},{"name":"ジョブサＵ１８立川北口教室","province":"東京都","city":"立川市","address":"立川市曙町1-24-11橋本ビル7階","lat":35.700415,"lon":139.408838},{"name":"あにものいえ","province":"東京都","city":"立川市","address":"立川市羽衣町2-23-6","lat":35.694502,"lon":139.428589},{"name":"ゆいまーる","province":"東京都","city":"立川市","address":"立川市羽衣町1丁目6番10号小川ビル2階","lat":35.696324,"lon":139.423839},{"name":"ＬＩＴＡＬＩＣＯジュニア立川南口教室","province":"東京都","city":"立川市","address":"立川市柴崎町2-3-13エイティエイト立川デュオ2階","lat":35.696563,"lon":139.410807},{"name":"ドリームボックス立川","province":"東京都","city":"立川市","address":"立川市柴崎町5-8-1リバーサイドアプス1階","lat":35.689241,"lon":139.40123},{"name":"ジョブサＵ１８立川南口教室","province":"東京都","city":"立川市","address":"立川市柴崎町2-4-15ほまれ屋本社ビル201号室","lat":35.696849,"lon":139.409916},{"name":"デイサービス事業　みんなの広場　２","province":"東京都","city":"立川市","address":"立川市一番町3-17-11ローズシャトル2号館1階","lat":35.730344,"lon":139.378481},{"name":"児童デイサービス　サンフラワー","province":"東京都","city":"立川市","address":"立川市一番町5-1-5ネクサス立川1階","lat":35.73038,"lon":139.379831},{"name":"立川市子ども家庭支援センター","province":"東京都","city":"立川市","address":"立川市錦町3-2-26","lat":35.694258,"lon":139.419698},{"name":"立川市子ども家庭支援センター","province":"東京都","city":"立川市","address":"立川市錦町3-2-26","lat":35.69389,"lon":139.41933},{"name":"＊?立川市女性総合センター・アイム","province":"東京都","city":"立川市","address":"立川市曙町2-36-2","lat":35.702202,"lon":139.414096},{"name":"立川らびっとくらぶ","province":"東京都","city":"立川市","address":"立川市幸町三丁目25番地1立川けやき台ハイツ1階","lat":35.722405,"lon":139.430171},{"name":"トライきっず・プロ","province":"東京都","city":"立川市","address":"立川市幸町1-10-6","lat":35.719996,"lon":139.422258},{"name":"こどもプラス立川幸町教室","province":"東京都","city":"立川市","address":"立川市幸町5-1-7フルミエールメゾン1階B","lat":35.723318,"lon":139.418386},{"name":"こぱんはうすさくら　立川幸町教室","province":"東京都","city":"立川市","address":"立川市幸町3-13-14矢島ビル1階","lat":35.720646,"lon":139.430252},{"name":"デイサービス事業　みんなの広場　１","province":"東京都","city":"立川市","address":"立川市栄町4-2-1ジュネスイトウ1階","lat":35.710745,"lon":139.423464},{"name":"スマイルJr","province":"東京都","city":"立川市","address":"立川市高松町3-25-10富士永ハイツ101","lat":35.701754,"lon":139.418376},{"name":"テイクオフ","province":"東京都","city":"立川市","address":"立川市高松町1-20-5","lat":35.709347,"lon":139.415695},{"name":"ジョブサＵ１８立川北口教室","province":"東京都","city":"立川市","address":"立川市曙町1-24-11橋本ビル7階","lat":35.700415,"lon":139.408838},{"name":"あにものいえ","province":"東京都","city":"立川市","address":"立川市羽衣町2-23-6","lat":35.694502,"lon":139.428589},{"name":"ゆいまーる","province":"東京都","city":"立川市","address":"立川市羽衣町1丁目6番10号小川ビル2階","lat":35.696324,"lon":139.423839},{"name":"ＬＩＴＡＬＩＣＯジュニア立川南口教室","province":"東京都","city":"立川市","address":"立川市柴崎町2-3-13エイティエイト立川デュオ2階","lat":35.696563,"lon":139.410807},{"name":"ドリームボックス立川","province":"東京都","city":"立川市","address":"立川市柴崎町5-8-1リバーサイドアプス1階","lat":35.689241,"lon":139.40123},{"name":"ジョブサＵ１８立川南口教室","province":"東京都","city":"立川市","address":"立川市柴崎町2-4-15ほまれ屋本社ビル201号室","lat":35.696849,"lon":139.409916},{"name":"デイサービス事業　みんなの広場　２","province":"東京都","city":"立川市","address":"立川市一番町3-17-11ローズシャトル2号館1階","lat":35.730344,"lon":139.378481},{"name":"児童デイサービス　サンフラワー","province":"東京都","city":"立川市","address":"立川市一番町5-1-5ネクサス立川1階","lat":35.73038,"lon":139.379831},{"name":"立川市子ども家庭支援センター","province":"東京都","city":"立川市","address":"立川市錦町3-2-26","lat":35.694258,"lon":139.419698},{"name":"立川市子ども家庭支援センター","province":"東京都","city":"立川市","address":"立川市錦町3-2-26","lat":35.69389,"lon":139.41933},{"name":"＊?立川市女性総合センター・アイム","province":"東京都","city":"立川市","address":"立川市曙町2-36-2","lat":35.702202,"lon":139.414096},{"name":"立川らびっとくらぶ","province":"東京都","city":"立川市","address":"立川市幸町三丁目25番地1立川けやき台ハイツ1階","lat":35.722405,"lon":139.430171},{"name":"トライきっず・プロ","province":"東京都","city":"立川市","address":"立川市幸町1-10-6","lat":35.719996,"lon":139.422258},{"name":"こどもプラス立川幸町教室","province":"東京都","city":"立川市","address":"立川市幸町5-1-7フルミエールメゾン1階B","lat":35.723318,"lon":139.418386},{"name":"こぱんはうすさくら　立川幸町教室","province":"東京都","city":"立川市","address":"立川市幸町3-13-14矢島ビル1階","lat":35.720646,"lon":139.430252},{"name":"デイサービス事業　みんなの広場　１","province":"東京都","city":"立川市","address":"立川市栄町4-2-1ジュネスイトウ1階","lat":35.710745,"lon":139.423464},{"name":"スマイルJr","province":"東京都","city":"立川市","address":"立川市高松町3-25-10富士永ハイツ101","lat":35.701754,"lon":139.418376},{"name":"テイクオフ","province":"東京都","city":"立川市","address":"立川市高松町1-20-5","lat":35.709347,"lon":139.415695},{"name":"ジョブサＵ１８立川北口教室","province":"東京都","city":"立川市","address":"立川市曙町1-24-11橋本ビル7階","lat":35.700415,"lon":139.408838},{"name":"あにものいえ","province":"東京都","city":"立川市","address":"立川市羽衣町2-23-6","lat":35.694502,"lon":139.428589},{"name":"ゆいまーる","province":"東京都","city":"立川市","address":"立川市羽衣町1丁目6番10号小川ビル2階","lat":35.696324,"lon":139.423839},{"name":"ＬＩＴＡＬＩＣＯジュニア立川南口教室","province":"東京都","city":"立川市","address":"立川市柴崎町2-3-13エイティエイト立川デュオ2階","lat":35.696563,"lon":139.410807},{"name":"ドリームボックス立川","province":"東京都","city":"立川市","address":"立川市柴崎町5-8-1リバーサイドアプス1階","lat":35.689241,"lon":139.40123},{"name":"ジョブサＵ１８立川南口教室","province":"東京都","city":"立川市","address":"立川市柴崎町2-4-15ほまれ屋本社ビル201号室","lat":35.696849,"lon":139.409916},{"name":"デイサービス事業　みんなの広場　２","province":"東京都","city":"立川市","address":"立川市一番町3-17-11ローズシャトル2号館1階","lat":35.730344,"lon":139.378481},{"name":"児童デイサービス　サンフラワー","province":"東京都","city":"立川市","address":"立川市一番町5-1-5ネクサス立川1階","lat":35.73038,"lon":139.379831},{"name":"立川市子ども家庭支援センター","province":"東京都","city":"立川市","address":"立川市錦町3-2-26","lat":35.694258,"lon":139.419698},{"name":"立川市子ども家庭支援センター","province":"東京都","city":"立川市","address":"立川市錦町3-2-26","lat":35.69389,"lon":139.41933},{"name":"＊?立川市女性総合センター・アイム","province":"東京都","city":"立川市","address":"立川市曙町2-36-2","lat":35.702202,"lon":139.414096},{"name":"立川らびっとくらぶ","province":"東京都","city":"立川市","address":"立川市幸町三丁目25番地1立川けやき台ハイツ1階","lat":35.722405,"lon":139.430171},{"name":"トライきっず・プロ","province":"東京都","city":"立川市","address":"立川市幸町1-10-6","lat":35.719996,"lon":139.422258},{"name":"こどもプラス立川幸町教室","province":"東京都","city":"立川市","address":"立川市幸町5-1-7フルミエールメゾン1階B","lat":35.723318,"lon":139.418386},{"name":"こぱんはうすさくら　立川幸町教室","province":"東京都","city":"立川市","address":"立川市幸町3-13-14矢島ビル1階","lat":35.720646,"lon":139.430252},{"name":"デイサービス事業　みんなの広場　１","province":"東京都","city":"立川市","address":"立川市栄町4-2-1ジュネスイトウ1階","lat":35.710745,"lon":139.423464},{"name":"スマイルJr","province":"東京都","city":"立川市","address":"立川市高松町3-25-10富士永ハイツ101","lat":35.701754,"lon":139.418376},{"name":"テイクオフ","province":"東京都","city":"立川市","address":"立川市高松町1-20-5","lat":35.709347,"lon":139.415695},{"name":"ジョブサＵ１８立川北口教室","province":"東京都","city":"立川市","address":"立川市曙町1-24-11橋本ビル7階","lat":35.700415,"lon":139.408838},{"name":"あにものいえ","province":"東京都","city":"立川市","address":"立川市羽衣町2-23-6","lat":35.694502,"lon":139.428589},{"name":"ゆいまーる","province":"東京都","city":"立川市","address":"立川市羽衣町1丁目6番10号小川ビル2階","lat":35.696324,"lon":139.423839},{"name":"ＬＩＴＡＬＩＣＯジュニア立川南口教室","province":"東京都","city":"立川市","address":"立川市柴崎町2-3-13エイティエイト立川デュオ2階","lat":35.696563,"lon":139.410807},{"name":"ドリームボックス立川","province":"東京都","city":"立川市","address":"立川市柴崎町5-8-1リバーサイドアプス1階","lat":35.689241,"lon":139.40123},{"name":"ジョブサＵ１８立川南口教室","province":"東京都","city":"立川市","address":"立川市柴崎町2-4-15ほまれ屋本社ビル201号室","lat":35.696849,"lon":139.409916},{"name":"デイサービス事業　みんなの広場　２","province":"東京都","city":"立川市","address":"立川市一番町3-17-11ローズシャトル2号館1階","lat":35.730344,"lon":139.378481},{"name":"児童デイサービス　サンフラワー","province":"東京都","city":"立川市","address":"立川市一番町5-1-5ネクサス立川1階","lat":35.73038,"lon":139.379831},{"name":"立川市子ども家庭支援センター","province":"東京都","city":"立川市","address":"立川市錦町3-2-26","lat":35.694258,"lon":139.419698},{"name":"立川市子ども家庭支援センター","province":"東京都","city":"立川市","address":"立川市錦町3-2-26","lat":35.69389,"lon":139.41933},{"name":"＊?立川市女性総合センター・アイム","province":"東京都","city":"立川市","address":"立川市曙町2-36-2","lat":35.702202,"lon":139.414096},{"name":"立川らびっとくらぶ","province":"東京都","city":"立川市","address":"立川市幸町三丁目25番地1立川けやき台ハイツ1階","lat":35.722405,"lon":139.430171},{"name":"トライきっず・プロ","province":"東京都","city":"立川市","address":"立川市幸町1-10-6","lat":35.719996,"lon":139.422258},{"name":"こどもプラス立川幸町教室","province":"東京都","city":"立川市","address":"立川市幸町5-1-7フルミエールメゾン1階B","lat":35.723318,"lon":139.418386},{"name":"こぱんはうすさくら　立川幸町教室","province":"東京都","city":"立川市","address":"立川市幸町3-13-14矢島ビル1階","lat":35.720646,"lon":139.430252},{"name":"デイサービス事業　みんなの広場　１","province":"東京都","city":"立川市","address":"立川市栄町4-2-1ジュネスイトウ1階","lat":35.710745,"lon":139.423464},{"name":"スマイルJr","province":"東京都","city":"立川市","address":"立川市高松町3-25-10富士永ハイツ101","lat":35.701754,"lon":139.418376},{"name":"テイクオフ","province":"東京都","city":"立川市","address":"立川市高松町1-20-5","lat":35.709347,"lon":139.415695},{"name":"ジョブサＵ１８立川北口教室","province":"東京都","city":"立川市","address":"立川市曙町1-24-11橋本ビル7階","lat":35.700415,"lon":139.408838},{"name":"あにものいえ","province":"東京都","city":"立川市","address":"立川市羽衣町2-23-6","lat":35.694502,"lon":139.428589},{"name":"ゆいまーる","province":"東京都","city":"立川市","address":"立川市羽衣町1丁目6番10号小川ビル2階","lat":35.696324,"lon":139.423839},{"name":"ＬＩＴＡＬＩＣＯジュニア立川南口教室","province":"東京都","city":"立川市","address":"立川市柴崎町2-3-13エイティエイト立川デュオ2階","lat":35.696563,"lon":139.410807},{"name":"ドリームボックス立川","province":"東京都","city":"立川市","address":"立川市柴崎町5-8-1リバーサイドアプス1階","lat":35.689241,"lon":139.40123},{"name":"ジョブサＵ１８立川南口教室","province":"東京都","city":"立川市","address":"立川市柴崎町2-4-15ほまれ屋本社ビル201号室","lat":35.696849,"lon":139.409916},{"name":"デイサービス事業　みんなの広場　２","province":"東京都","city":"立川市","address":"立川市一番町3-17-11ローズシャトル2号館1階","lat":35.730344,"lon":139.378481},{"name":"児童デイサービス　サンフラワー","province":"東京都","city":"立川市","address":"立川市一番町5-1-5ネクサス立川1階","lat":35.73038,"lon":139.379831},{"name":"立川市子ども家庭支援センター","province":"東京都","city":"立川市","address":"立川市錦町3-2-26","lat":35.694258,"lon":139.419698},{"name":"立川市子ども家庭支援センター","province":"東京都","city":"立川市","address":"立川市錦町3-2-26","lat":35.69389,"lon":139.41933},{"name":"＊?立川市女性総合センター・アイム","province":"東京都","city":"立川市","address":"立川市曙町2-36-2","lat":35.702202,"lon":139.414096},{"name":"立川らびっとくらぶ","province":"東京都","city":"立川市","address":"立川市幸町三丁目25番地1立川けやき台ハイツ1階","lat":35.722405,"lon":139.430171},{"name":"トライきっず・プロ","province":"東京都","city":"立川市","address":"立川市幸町1-10-6","lat":35.719996,"lon":139.422258},{"name":"こどもプラス立川幸町教室","province":"東京都","city":"立川市","address":"立川市幸町5-1-7フルミエールメゾン1階B","lat":35.723318,"lon":139.418386},{"name":"こぱんはうすさくら　立川幸町教室","province":"東京都","city":"立川市","address":"立川市幸町3-13-14矢島ビル1階","lat":35.720646,"lon":139.430252},{"name":"デイサービス事業　みんなの広場　１","province":"東京都","city":"立川市","address":"立川市栄町4-2-1ジュネスイトウ1階","lat":35.710745,"lon":139.423464},{"name":"スマイルJr","province":"東京都","city":"立川市","address":"立川市高松町3-25-10富士永ハイツ101","lat":35.701754,"lon":139.418376},{"name":"テイクオフ","province":"東京都","city":"立川市","address":"立川市高松町1-20-5","lat":35.709347,"lon":139.415695},{"name":"ジョブサＵ１８立川北口教室","province":"東京都","city":"立川市","address":"立川市曙町1-24-11橋本ビル7階","lat":35.700415,"lon":139.408838},{"name":"あにものいえ","province":"東京都","city":"立川市","address":"立川市羽衣町2-23-6","lat":35.694502,"lon":139.428589},{"name":"ゆいまーる","province":"東京都","city":"立川市","address":"立川市羽衣町1丁目6番10号小川ビル2階","lat":35.696324,"lon":139.423839},{"name":"ＬＩＴＡＬＩＣＯジュニア立川南口教室","province":"東京都","city":"立川市","address":"立川市柴崎町2-3-13エイティエイト立川デュオ2階","lat":35.696563,"lon":139.410807},{"name":"ドリームボックス立川","province":"東京都","city":"立川市","address":"立川市柴崎町5-8-1リバーサイドアプス1階","lat":35.689241,"lon":139.40123},{"name":"ジョブサＵ１８立川南口教室","province":"東京都","city":"立川市","address":"立川市柴崎町2-4-15ほまれ屋本社ビル201号室","lat":35.696849,"lon":139.409916},{"name":"デイサービス事業　みんなの広場　２","province":"東京都","city":"立川市","address":"立川市一番町3-17-11ローズシャトル2号館1階","lat":35.730344,"lon":139.378481},{"name":"児童デイサービス　サンフラワー","province":"東京都","city":"立川市","address":"立川市一番町5-1-5ネクサス立川1階","lat":35.73038,"lon":139.379831},{"name":"立川市子ども家庭支援センター","province":"東京都","city":"立川市","address":"立川市錦町3-2-26","lat":35.694258,"lon":139.419698},{"name":"立川市子ども家庭支援センター","province":"東京都","city":"立川市","address":"立川市錦町3-2-26","lat":35.69389,"lon":139.41933},{"name":"＊?立川市女性総合センター・アイム","province":"東京都","city":"立川市","address":"立川市曙町2-36-2","lat":35.702202,"lon":139.414096},{"name":"立川らびっとくらぶ","province":"東京都","city":"立川市","address":"立川市幸町三丁目25番地1立川けやき台ハイツ1階","lat":35.722405,"lon":139.430171},{"name":"トライきっず・プロ","province":"東京都","city":"立川市","address":"立川市幸町1-10-6","lat":35.719996,"lon":139.422258},{"name":"こどもプラス立川幸町教室","province":"東京都","city":"立川市","address":"立川市幸町5-1-7フルミエールメゾン1階B","lat":35.723318,"lon":139.418386},{"name":"こぱんはうすさくら　立川幸町教室","province":"東京都","city":"立川市","address":"立川市幸町3-13-14矢島ビル1階","lat":35.720646,"lon":139.430252},{"name":"デイサービス事業　みんなの広場　１","province":"東京都","city":"立川市","address":"立川市栄町4-2-1ジュネスイトウ1階","lat":35.710745,"lon":139.423464},{"name":"スマイルJr","province":"東京都","city":"立川市","address":"立川市高松町3-25-10富士永ハイツ101","lat":35.701754,"lon":139.418376},{"name":"テイクオフ","province":"東京都","city":"立川市","address":"立川市高松町1-20-5","lat":35.709347,"lon":139.415695},{"name":"ジョブサＵ１８立川北口教室","province":"東京都","city":"立川市","address":"立川市曙町1-24-11橋本ビル7階","lat":35.700415,"lon":139.408838},{"name":"あにものいえ","province":"東京都","city":"立川市","address":"立川市羽衣町2-23-6","lat":35.694502,"lon":139.428589},{"name":"ゆいまーる","province":"東京都","city":"立川市","address":"立川市羽衣町1丁目6番10号小川ビル2階","lat":35.696324,"lon":139.423839},{"name":"ＬＩＴＡＬＩＣＯジュニア立川南口教室","province":"東京都","city":"立川市","address":"立川市柴崎町2-3-13エイティエイト立川デュオ2階","lat":35.696563,"lon":139.410807},{"name":"ドリームボックス立川","province":"東京都","city":"立川市","address":"立川市柴崎町5-8-1リバーサイドアプス1階","lat":35.689241,"lon":139.40123},{"name":"ジョブサＵ１８立川南口教室","province":"東京都","city":"立川市","address":"立川市柴崎町2-4-15ほまれ屋本社ビル201号室","lat":35.696849,"lon":139.409916},{"name":"デイサービス事業　みんなの広場　２","province":"東京都","city":"立川市","address":"立川市一番町3-17-11ローズシャトル2号館1階","lat":35.730344,"lon":139.378481},{"name":"児童デイサービス　サンフラワー","province":"東京都","city":"立川市","address":"立川市一番町5-1-5ネクサス立川1階","lat":35.73038,"lon":139.379831},{"name":"立川市子ども家庭支援センター","province":"東京都","city":"立川市","address":"立川市錦町3-2-26","lat":35.694258,"lon":139.419698},{"name":"立川市子ども家庭支援センター","province":"東京都","city":"立川市","address":"立川市錦町3-2-26","lat":35.69389,"lon":139.41933},{"name":"＊?立川市女性総合センター・アイム","province":"東京都","city":"立川市","address":"立川市曙町2-36-2","lat":35.702202,"lon":139.414096}]}