{"keyword":"男女","data":[{"name":"けやき台さくら保育園","province":"東京都","city":"立川市","address":"立川市若葉町1-13-2","lat":35.718241,"lon":139.436535},{"name":"れんげ砂川保育園","province":"東京都","city":"立川市","address":"立川市若葉町4-24-31","lat":35.722499,"lon":139.443076},{"name":"あおば保育園","province":"東京都","city":"立川市","address":"立川市幸町4-52-1","lat":35.727168,"lon":139.42913},{"name":"たかのみち保育園","province":"東京都","city":"立川市","address":"立川市幸町6-32-1","lat":35.728015,"lon":139.426099},{"name":"江の島保育園","province":"東京都","city":"立川市","address":"立川市栄町5-20-3","lat":35.714942,"lon":139.426622},{"name":"中砂保育園","province":"東京都","city":"立川市","address":"立川市栄町5-38-1","lat":35.718088,"lon":139.42408},{"name":"栄保育園","province":"東京都","city":"立川市","address":"立川市栄町3-33-3","lat":35.707851,"lon":139.429191},{"name":"柏保育園","province":"東京都","city":"立川市","address":"立川市柏町3-52-9","lat":35.724518,"lon":139.410803},{"name":"高松保育園","province":"東京都","city":"立川市","address":"立川市高松町1-18-7","lat":35.708734,"lon":139.416887},{"name":"愛光保育園","province":"東京都","city":"立川市","address":"立川市曙町3-24-22","lat":35.70194,"lon":139.421026},{"name":"愛光あけぼの保育園","province":"東京都","city":"立川市","address":"立川市曙町3-17-22","lat":35.699579,"lon":139.425373},{"name":"ぽけっとランド立川保育園","province":"東京都","city":"立川市","address":"立川市曙町2-18-15","lat":35.700473,"lon":139.416473},{"name":"冨士見保育園","province":"東京都","city":"立川市","address":"立川市富士見町1-26-1","lat":35.700101,"lon":139.394761},{"name":"玉川保育園","province":"東京都","city":"立川市","address":"立川市富士見町6-72-1","lat":35.694932,"lon":139.39102},{"name":"愛光第五保育園","province":"東京都","city":"立川市","address":"立川市富士見町7-23-5","lat":35.692299,"lon":139.396225},{"name":"立川たんぽぽ保育園","province":"東京都","city":"立川市","address":"立川市富士見町6-59-1","lat":35.692071,"lon":139.390542},{"name":"西立川保育園","province":"東京都","city":"立川市","address":"立川市富士見町1-18-16","lat":35.699504,"lon":139.396675},{"name":"愛光みどり保育園","province":"東京都","city":"立川市","address":"立川市緑町7-1","lat":35.709442,"lon":139.412295},{"name":"西国立保育園","province":"東京都","city":"立川市","address":"立川市羽衣町2-43-4","lat":35.69313,"lon":139.424684},{"name":"羽衣保育園","province":"東京都","city":"立川市","address":"立川市羽衣町2-51-7","lat":35.693275,"lon":139.429659},{"name":"至誠保育園","province":"東京都","city":"立川市","address":"立川市錦町6-26-13","lat":35.684739,"lon":139.417521},{"name":"小百合保育園","province":"東京都","city":"立川市","address":"立川市錦町6-6-3-101","lat":35.687256,"lon":139.420126},{"name":"ほほえみの森保育園","province":"東京都","city":"立川市","address":"立川市錦町3-1-20","lat":35.693738,"lon":139.418196},{"name":"諏訪の森保育園","province":"東京都","city":"立川市","address":"立川市柴崎町1-4-4","lat":35.695282,"lon":139.404952},{"name":"柴崎保育園","province":"東京都","city":"立川市","address":"立川市柴崎町1-16-23","lat":35.692755,"lon":139.407072},{"name":"森の子保育園","province":"東京都","city":"立川市","address":"立川市砂川町8-30-7","lat":35.732036,"lon":139.399599},{"name":"見影橋保育園","province":"東京都","city":"立川市","address":"立川市砂川町3-23-2","lat":35.727378,"lon":139.398752},{"name":"あおば第二保育園","province":"東京都","city":"立川市","address":"立川市上砂町2-40-5","lat":35.725298,"lon":139.39378},{"name":"上砂保育園","province":"東京都","city":"立川市","address":"立川市上砂町1-13-1","lat":35.719987,"lon":139.392125},{"name":"きらめきの森保育園","province":"東京都","city":"立川市","address":"立川市上砂町5-85-1","lat":35.730853,"lon":139.386978},{"name":"松中保育園","province":"東京都","city":"立川市","address":"立川市一番町5-8-25","lat":35.732819,"lon":139.374887},{"name":"立川ひかり保育園","province":"東京都","city":"立川市","address":"立川市一番町2-22-1","lat":35.726825,"lon":139.379787},{"name":"西砂保育園","province":"東京都","city":"立川市","address":"立川市西砂町2-63-2","lat":35.729669,"lon":139.364677},{"name":"西武立川きらり保育園","province":"東京都","city":"立川市","address":"立川市西砂町1-2-127","lat":35.725231,"lon":139.371543},{"name":"わんわん保育園","province":"東京都","city":"立川市","address":"立川市西砂町6-12-4","lat":35.729236,"lon":139.372182},{"name":"なすび保育園","province":"東京都","city":"立川市","address":"立川市西砂町6-75-9","lat":35.734507,"lon":139.367882},{"name":"まんまる助産院","province":"東京都","city":"立川市","address":"立川市若葉町2-1-1","lat":35.718989,"lon":139.439493},{"name":"立川相互病院","province":"東京都","city":"立川市","address":"立川市錦町1-16-15","lat":35.696666,"lon":139.422442},{"name":"立川らびっとくらぶ","province":"東京都","city":"立川市","address":"立川市幸町三丁目25番地1立川けやき台ハイツ1階","lat":35.722405,"lon":139.430171},{"name":"トライきっず・プロ","province":"東京都","city":"立川市","address":"立川市幸町1-10-6","lat":35.719996,"lon":139.422258},{"name":"こどもプラス立川幸町教室","province":"東京都","city":"立川市","address":"立川市幸町5-1-7フルミエールメゾン1階B","lat":35.723318,"lon":139.418386},{"name":"こぱんはうすさくら　立川幸町教室","province":"東京都","city":"立川市","address":"立川市幸町3-13-14矢島ビル1階","lat":35.720646,"lon":139.430252},{"name":"デイサービス事業　みんなの広場　１","province":"東京都","city":"立川市","address":"立川市栄町4-2-1ジュネスイトウ1階","lat":35.710745,"lon":139.423464},{"name":"スマイルJr","province":"東京都","city":"立川市","address":"立川市高松町3-25-10富士永ハイツ101","lat":35.701754,"lon":139.418376},{"name":"テイクオフ","province":"東京都","city":"立川市","address":"立川市高松町1-20-5","lat":35.709347,"lon":139.415695},{"name":"ジョブサＵ１８立川北口教室","province":"東京都","city":"立川市","address":"立川市曙町1-24-11橋本ビル7階","lat":35.700415,"lon":139.408838},{"name":"あにものいえ","province":"東京都","city":"立川市","address":"立川市羽衣町2-23-6","lat":35.694502,"lon":139.428589},{"name":"ゆいまーる","province":"東京都","city":"立川市","address":"立川市羽衣町1丁目6番10号小川ビル2階","lat":35.696324,"lon":139.423839},{"name":"ＬＩＴＡＬＩＣＯジュニア立川南口教室","province":"東京都","city":"立川市","address":"立川市柴崎町2-3-13エイティエイト立川デュオ2階","lat":35.696563,"lon":139.410807},{"name":"ドリームボックス立川","province":"東京都","city":"立川市","address":"立川市柴崎町5-8-1リバーサイドアプス1階","lat":35.689241,"lon":139.40123},{"name":"ジョブサＵ１８立川南口教室","province":"東京都","city":"立川市","address":"立川市柴崎町2-4-15ほまれ屋本社ビル201号室","lat":35.696849,"lon":139.409916},{"name":"デイサービス事業　みんなの広場　２","province":"東京都","city":"立川市","address":"立川市一番町3-17-11ローズシャトル2号館1階","lat":35.730344,"lon":139.378481},{"name":"児童デイサービス　サンフラワー","province":"東京都","city":"立川市","address":"立川市一番町5-1-5ネクサス立川1階","lat":35.73038,"lon":139.379831},{"name":"武蔵立川学園","province":"東京都","city":"立川市","address":"立川市西砂町4-75-4","lat":35.735968,"lon":139.356369},{"name":"コーポ立川","province":"東京都","city":"立川市","address":"立川市錦町6-9-8","lat":35.688636,"lon":139.418079},{"name":"コーポ立川錦町","province":"東京都","city":"立川市","address":"立川市錦町6-2-5","lat":35.689736,"lon":139.418421},{"name":"立川第２荘","province":"東京都","city":"立川市","address":"立川市富士見町4-15-14","lat":35.694865,"lon":139.399303},{"name":"相互歯科","province":"東京都","city":"立川市","address":"立川市錦町1-17-10健生会歯科ビル","lat":35.696671,"lon":139.421801},{"name":"立川相互ふれあいクリニック","province":"東京都","city":"立川市","address":"立川市錦町1-23-4","lat":35.695991,"lon":139.422562},{"name":"立川相互病院","province":"東京都","city":"立川市","address":"立川市緑町4-1","lat":35.703626,"lon":139.413293},{"name":"東京都立川児童相談所","province":"東京都","city":"立川市","address":"立川市曙町3-10-19","lat":35.700632,"lon":139.428967},{"name":"東京都福祉人材センター人材情報室多摩支所","province":"東京都","city":"立川市","address":"立川市曙町2-34-13オリンピック第3ビル7階","lat":35.702556,"lon":139.414673},{"name":"多摩立川保健所","province":"東京都","city":"立川市","address":"立川市羽衣町2-63東京都立川保健衛生仮庁舎内","lat":35.691736,"lon":139.430225},{"name":"立川市健康会館","province":"東京都","city":"立川市","address":"立川市高松町3-22-9","lat":35.70289,"lon":139.419209},{"name":"立川第２荘","province":"東京都","city":"立川市","address":"立川市富士見町4-15-14","lat":35.69511,"lon":139.39961},{"name":"さくら立川ハウス","province":"東京都","city":"立川市","address":"立川市錦町6-9-8","lat":35.6885,"lon":139.41768},{"name":"さくら立川錦町ハウス","province":"東京都","city":"立川市","address":"立川市錦町6-2-5","lat":35.68947,"lon":139.41811},{"name":"東京都多摩広域防災倉庫","province":"東京都","city":"立川市","address":"東京都立川市緑町3256","lat":35.708122,"lon":139.408036},{"name":"立川合同庁舎","province":"東京都","city":"立川市","address":"東京都立川市錦町4丁目6-3","lat":35.691872,"lon":139.420706},{"name":"東京都多摩立川保健所","province":"東京都","city":"立川市","address":"東京都立川市柴崎町2丁目21-19","lat":35.694076,"lon":139.40867},{"name":"労働相談情報センター多摩事務所","province":"東京都","city":"立川市","address":"東京都立川市柴崎町3丁目9-2","lat":35.695507,"lon":139.412061},{"name":"東京都農林水産振興財団立川庁舎","province":"東京都","city":"立川市","address":"東京都立川市富士見町3丁目8-1","lat":35.69865,"lon":139.392906},{"name":"東京しごとセンター多摩","province":"東京都","city":"立川市","address":"東京都立川市柴崎町3丁目9-2","lat":35.69553,"lon":139.411957},{"name":"東京都水道局多摩水道改革推進本部","province":"東京都","city":"立川市","address":"東京都立川市緑町6-7","lat":35.708756,"lon":139.412292},{"name":"立川消防署錦町出張所","province":"東京都","city":"立川市","address":"東京都立川市錦町3丁目6-18","lat":35.692916,"lon":139.417391},{"name":"立川市役所本庁舎","province":"東京都","city":"立川市","address":"東京都立川市泉町1156-9","lat":35.713742,"lon":139.408223},{"name":"立川市役所本庁舎","province":"東京都","city":"立川市","address":"東京都立川市泉町1156-9","lat":35.714049,"lon":139.407576},{"name":"歴史民俗資料館","province":"東京都","city":"立川市","address":"東京都立川市富士見町3丁目12-34","lat":35.696952,"lon":139.389968},{"name":"柴崎学習館","province":"東京都","city":"立川市","address":"東京都立川市柴崎町2丁目15-8","lat":35.694675,"lon":139.408111},{"name":"柴崎学習館","province":"東京都","city":"立川市","address":"東京都立川市柴崎町2丁目15-8","lat":35.694656,"lon":139.408129},{"name":"柴崎学習館","province":"東京都","city":"立川市","address":"東京都立川市柴崎町2丁目15-8","lat":35.694637,"lon":139.408116},{"name":"柴崎学習館","province":"東京都","city":"立川市","address":"東京都立川市柴崎町2丁目15-8","lat":35.694543,"lon":139.407988},{"name":"幸学習館","province":"東京都","city":"立川市","address":"東京都立川市幸町2丁目1-3","lat":35.719359,"lon":139.423562},{"name":"学習等供用施設　こんぴら橋会館","province":"東京都","city":"立川市","address":"東京都立川市砂川町3丁目26-1","lat":35.727899,"lon":139.399417},{"name":"学習等供用施設　こぶし会館","province":"東京都","city":"立川市","address":"東京都立川市幸町5丁目83-1","lat":35.725729,"lon":139.41845},{"name":"学習等供用施設　柴崎会館","province":"東京都","city":"立川市","address":"東京都立川市柴崎町1丁目16-3","lat":35.692461,"lon":139.407352},{"name":"学習等供用施設　西砂会館","province":"東京都","city":"立川市","address":"東京都立川市西砂町5丁目11-13","lat":35.732402,"lon":139.360686},{"name":"砂川学習館","province":"東京都","city":"立川市","address":"東京都立川市砂川町1丁目52-7","lat":35.722932,"lon":139.403145},{"name":"西砂学習館","province":"東京都","city":"立川市","address":"東京都立川市西砂町6丁目12-10","lat":35.729592,"lon":139.372141},{"name":"錦学習館","province":"東京都","city":"立川市","address":"東京都立川市錦町3丁目12-25","lat":35.6912,"lon":139.41644},{"name":"錦学習館","province":"東京都","city":"立川市","address":"東京都立川市錦町3丁目12-25","lat":35.691094,"lon":139.416334},{"name":"学習等供用施設　滝ノ上会館","province":"東京都","city":"立川市","address":"東京都立川市富士見町4丁目16-10","lat":35.695893,"lon":139.399022},{"name":"学習等供用施設　羽衣中央会館","province":"東京都","city":"立川市","address":"東京都立川市羽衣町2丁目26-7","lat":35.694145,"lon":139.428569},{"name":"学習等供用施設　天王橋会館","province":"東京都","city":"立川市","address":"東京都立川市一番町3丁目6-1","lat":35.728234,"lon":139.381},{"name":"学習等供用施設　さかえ会館","province":"東京都","city":"立川市","address":"東京都立川市栄町4丁目6-2","lat":35.710967,"lon":139.424958},{"name":"学習等供用施設上砂会館","province":"東京都","city":"立川市","address":"東京都立川市上砂町1丁目13-1","lat":35.720571,"lon":139.39151},{"name":"立川市健康会館","province":"東京都","city":"立川市","address":"東京都立川市高松町3丁目22-9","lat":35.702922,"lon":139.419238},{"name":"立川市柴崎図書館","province":"東京都","city":"立川市","address":"東京都立川市柴崎町2丁目20-3","lat":35.694538,"lon":139.40752},{"name":"立川市上砂図書館","province":"東京都","city":"立川市","address":"東京都立川市上砂町1丁目13-1","lat":35.720603,"lon":139.39171},{"name":"立川市多摩川図書館","province":"東京都","city":"立川市","address":"東京都立川市富士見町6丁目51-1","lat":35.691201,"lon":139.39322},{"name":"立川市若葉図書館","province":"東京都","city":"立川市","address":"東京都立川市若葉町3丁目34-1","lat":35.720187,"lon":139.439182},{"name":"立川市中央図書館","province":"東京都","city":"立川市","address":"東京都立川市曙町2丁目36-2","lat":35.702169,"lon":139.414096},{"name":"立川市子ども未来センター","province":"東京都","city":"立川市","address":"東京都立川市錦町3丁目2-26","lat":35.694266,"lon":139.419544},{"name":"川越道緑地古民家園","province":"東京都","city":"立川市","address":"東京都立川市幸町4丁目61","lat":35.725238,"lon":139.426912},{"name":"立川市総合福祉センター","province":"東京都","city":"立川市","address":"東京都立川市富士見町2丁目36-47","lat":35.701241,"lon":139.401907},{"name":"たましんRISURUホール(立川市市民会館)","province":"東京都","city":"立川市","address":"東京都立川市錦町3丁目3-20","lat":35.69319,"lon":139.420147},{"name":"たましんRISURUホール(立川市市民会館)","province":"東京都","city":"立川市","address":"東京都立川市錦町3丁目3-20","lat":35.693327,"lon":139.420254},{"name":"たましんRISURUホール(立川市市民会館)","province":"東京都","city":"立川市","address":"東京都立川市錦町3丁目3-20","lat":35.693284,"lon":139.420085},{"name":"たましんRISURUホール(立川市市民会館)","province":"東京都","city":"立川市","address":"東京都立川市錦町3丁目3-20","lat":35.693254,"lon":139.41994},{"name":"立川市市制50周年記念憩いの場","province":"東京都","city":"立川市","address":"東京都立川市曙町2丁目8","lat":35.701222,"lon":139.414638},{"name":"立川市緑町公園","province":"東京都","city":"立川市","address":"東京都立川市緑町","lat":35.705215,"lon":139.413008},{"name":"立川市緑町北公園","province":"東京都","city":"立川市","address":"東京都立川市緑町","lat":35.710293,"lon":139.411726},{"name":"立川市大山公園","province":"東京都","city":"立川市","address":"東京都立川市上砂町1丁目13","lat":35.720604,"lon":139.389689},{"name":"立川市立川公園","province":"東京都","city":"立川市","address":"東京都立川市柴崎町6丁目14","lat":35.689188,"lon":139.4103},{"name":"立川市立川公園","province":"東京都","city":"立川市","address":"東京都立川市柴崎町6丁目","lat":35.688975,"lon":139.408273},{"name":"立川市立川公園","province":"東京都","city":"立川市","address":"東京都立川市錦町6丁目29","lat":35.684593,"lon":139.415995},{"name":"立川市上砂公園","province":"東京都","city":"立川市","address":"東京都立川市上砂町1丁目14","lat":35.720433,"lon":139.392203},{"name":"立川市諏訪の森公園","province":"東京都","city":"立川市","address":"東京都立川市柴崎町1丁目1","lat":35.696094,"lon":139.406899},{"name":"立川市泉町西公園","province":"東京都","city":"立川市","address":"東京都立川市泉町","lat":35.718818,"lon":139.389377},{"name":"立川市錦第二公園","province":"東京都","city":"立川市","address":"東京都立川市錦町1丁目5","lat":35.697475,"lon":139.41853},{"name":"立川市若葉公園","province":"東京都","city":"立川市","address":"東京都立川市若葉町1丁目27","lat":35.717005,"lon":139.440225},{"name":"立川市砂川公園","province":"東京都","city":"立川市","address":"東京都立川市砂川町7丁目8","lat":35.730938,"lon":139.407735},{"name":"立川市西砂一みずたま公園","province":"東京都","city":"立川市","address":"東京都立川市西砂町1丁目2","lat":35.725214,"lon":139.37258},{"name":"立川市錦第三公園","province":"東京都","city":"立川市","address":"東京都立川市錦町3丁目9","lat":35.691037,"lon":139.419458},{"name":"立川市緑川第三公園","province":"東京都","city":"立川市","address":"東京都立川市羽衣町3丁目11","lat":35.690723,"lon":139.424032},{"name":"立川市緑川第一公園","province":"東京都","city":"立川市","address":"東京都立川市羽衣町1丁目","lat":35.697254,"lon":139.426396},{"name":"立川市富士見公園","province":"東京都","city":"立川市","address":"東京都立川市富士見町3丁目17","lat":35.69674,"lon":139.394978},{"name":"立川市富士見二さくら公園","province":"東京都","city":"立川市","address":"東京都立川市富士見町2丁目35","lat":35.701117,"lon":139.400442},{"name":"見影橋公園","province":"東京都","city":"立川市","address":"東京都立川市砂川町3丁目12","lat":35.727242,"lon":139.395487},{"name":"見影橋公園","province":"東京都","city":"立川市","address":"東京都立川市砂川町3丁目12","lat":35.728061,"lon":139.396421},{"name":"立川市柴崎中央公園","province":"東京都","city":"立川市","address":"東京都立川市柴崎町2丁目4","lat":35.696857,"lon":139.410513},{"name":"錦五南公園","province":"東京都","city":"立川市","address":"東京都立川市錦町5丁目15","lat":35.687497,"lon":139.413136},{"name":"羽衣東公園","province":"東京都","city":"立川市","address":"東京都立川市羽衣町2丁目55","lat":35.692147,"lon":139.430079},{"name":"立川市曙三第二公園","province":"東京都","city":"立川市","address":"東京都立川市曙町3丁目9","lat":35.699335,"lon":139.425393},{"name":"立川市立川駅南口公衆便所","province":"東京都","city":"立川市","address":"東京都立川市柴崎町3丁目2","lat":35.697266,"lon":139.413649},{"name":"立川市柴崎福祉会館","province":"東京都","city":"立川市","address":"東京都立川市柴崎町5丁目11-26","lat":35.688142,"lon":139.400855},{"name":"立川市柴崎福祉会館","province":"東京都","city":"立川市","address":"東京都立川市柴崎町5丁目11-26","lat":35.688153,"lon":139.401198},{"name":"立川市一番福祉会館","province":"東京都","city":"立川市","address":"東京都立川市一番町6丁目17-87","lat":35.734416,"lon":139.372642},{"name":"立川市一番福祉会館","province":"東京都","city":"立川市","address":"東京都立川市一番町6丁目17-87","lat":35.734394,"lon":139.372625},{"name":"立川市一番福祉会館","province":"東京都","city":"立川市","address":"東京都立川市一番町6丁目17","lat":35.734435,"lon":139.372607},{"name":"立川市一番福祉会館","province":"東京都","city":"立川市","address":"東京都立川市一番町6丁目17-87","lat":35.73441,"lon":139.372589},{"name":"立川市曙福祉会館","province":"東京都","city":"立川市","address":"東京都立川市曙町3丁目44-17","lat":35.705812,"lon":139.424894},{"name":"立川市幸福祉会館","province":"東京都","city":"立川市","address":"東京都立川市幸町5丁目57-14","lat":35.725813,"lon":139.423309},{"name":"立川市錦児童館","province":"東京都","city":"立川市","address":"東京都立川市錦町3丁目12-1","lat":35.691601,"lon":139.416429},{"name":"立川市若葉児童館","province":"東京都","city":"立川市","address":"東京都立川市若葉町4丁目25-114","lat":35.722271,"lon":139.443592},{"name":"立川市上砂児童館","province":"東京都","city":"立川市","address":"東京都立川市上砂町1丁目13-1","lat":35.720996,"lon":139.391579},{"name":"立川市西砂児童館","province":"東京都","city":"立川市","address":"東京都立川市一番町6丁目8-37","lat":35.732618,"lon":139.37625},{"name":"立川市総合リサイクルセンター","province":"東京都","city":"立川市","address":"東京都立川市西砂町4丁目77-1","lat":35.736423,"lon":139.35705},{"name":"立川市総合リサイクルセンター","province":"東京都","city":"立川市","address":"東京都立川市西砂町4丁目77-1","lat":35.73641,"lon":139.357043},{"name":"女性総合センターアイム","province":"東京都","city":"立川市","address":"東京都立川市曙町2丁目36-2","lat":35.702163,"lon":139.414102},{"name":"女性総合センターアイム","province":"東京都","city":"立川市","address":"東京都立川市曙町2丁目36-2","lat":35.702169,"lon":139.414096},{"name":"立川市魅力発信拠点施設コトリンク","province":"東京都","city":"立川市","address":"東京都立川市柴崎町3丁目9","lat":35.695609,"lon":139.411817},{"name":"クリーンセンターたちむにぃ","province":"東京都","city":"立川市","address":"東京都立川市泉町2002","lat":35.716991,"lon":139.388386},{"name":"クリーンセンターたちむにぃ","province":"東京都","city":"立川市","address":"東京都立川市泉町2002","lat":35.716935,"lon":139.38846},{"name":"立川市学校給食西共同調理場","province":"東京都","city":"立川市","address":"東京都立川市泉町1156-14","lat":35.720061,"lon":139.399967},{"name":"立川市学校給食東共同調理場","province":"東京都","city":"立川市","address":"東京都立川市泉町","lat":35.720038,"lon":139.401194},{"name":"中央図書館","province":"東京都","city":"立川市","address":"東京都立川市曙町2丁目36-2","lat":35.70254814,"lon":139.41413167},{"name":"柴崎図書館","province":"東京都","city":"立川市","address":"東京都立川市柴崎町2丁目20-5","lat":35.69442388,"lon":139.40761862},{"name":"上砂図書館","province":"東京都","city":"立川市","address":"東京都立川市上砂町1丁目13-1","lat":35.71998447,"lon":139.39214139},{"name":"幸図書館","province":"東京都","city":"立川市","address":"東京都立川市幸町5丁目83-1","lat":35.72562062,"lon":139.4184194},{"name":"西砂図書館","province":"東京都","city":"立川市","address":"東京都立川市西砂町6丁目12-10","lat":35.72957725,"lon":139.37204038},{"name":"多摩川図書館","province":"東京都","city":"立川市","address":"東京都立川市富士見町6丁目51-1","lat":35.69117668,"lon":139.39316442},{"name":"高松図書館","province":"東京都","city":"立川市","address":"東京都立川市高松町3丁目22-5","lat":35.70309543,"lon":139.41903683},{"name":"錦図書館","province":"東京都","city":"立川市","address":"東京都立川市錦町3丁目12-25","lat":35.69112448,"lon":139.4162264},{"name":"若葉図書館","province":"東京都","city":"立川市","address":"東京都立川市若葉町3丁目34-1","lat":35.72021344,"lon":139.43921515},{"name":"NewWork立川","province":"東京都","city":"立川市","address":"東京都立川市曙町1丁目27-10","lat":35.70001222,"lon":139.41070148},{"name":"柴崎給水所","province":"東京都","city":"立川市","address":"東京都立川市柴崎町1-1-41","lat":35.6968355,"lon":139.405944},{"name":"立川栄町浄水所","province":"東京都","city":"立川市","address":"東京都立川市栄町5-38-5","lat":35.7180059,"lon":139.424525},{"name":"立川砂川給水所","province":"東京都","city":"立川市","address":"東京都立川市砂川町6-41-1","lat":35.7299825,"lon":139.407448},{"name":"市立松中公園","province":"東京都","city":"立川市","address":"東京都立川市西砂町1-19-12","lat":35.72661,"lon":139.371352},{"name":"けやき台さくら保育園","province":"東京都","city":"立川市","address":"立川市若葉町1-13-2","lat":35.71737,"lon":139.4351},{"name":"れんげ砂川保育園","province":"東京都","city":"立川市","address":"立川市若葉町4-24-31","lat":35.72241,"lon":139.44301},{"name":"あおば保育園","province":"東京都","city":"立川市","address":"立川市幸町4-52-1","lat":35.72704,"lon":139.42732},{"name":"たかのみち保育園","province":"東京都","city":"立川市","address":"立川市幸町6-32-1","lat":35.7284,"lon":139.42619},{"name":"栄保育園","province":"東京都","city":"立川市","address":"立川市栄町3-33-3","lat":35.70792,"lon":139.42926},{"name":"江の島保育園","province":"東京都","city":"立川市","address":"立川市栄町5-20-3","lat":35.71488,"lon":139.42644},{"name":"中砂保育園","province":"東京都","city":"立川市","address":"立川市栄町5-38-1","lat":35.71812,"lon":139.4245},{"name":"柏保育園","province":"東京都","city":"立川市","address":"立川市柏町3-52-9","lat":35.72481,"lon":139.41101},{"name":"高松保育園","province":"東京都","city":"立川市","address":"立川市高松町1-18-7","lat":35.70834,"lon":139.41676},{"name":"ぽけっとランド立川保育園","province":"東京都","city":"立川市","address":"立川市曙町2-18-15","lat":35.70065,"lon":139.41621},{"name":"愛光あけぼの保育園","province":"東京都","city":"立川市","address":"立川市曙町3-17-22","lat":35.69987,"lon":139.4248},{"name":"愛光保育園","province":"東京都","city":"立川市","address":"立川市曙町3-24-22","lat":35.70215,"lon":139.42107},{"name":"西立川保育園","province":"東京都","city":"立川市","address":"立川市富士見町1-18-16","lat":35.699,"lon":139.39642},{"name":"冨士見保育園","province":"東京都","city":"立川市","address":"立川市富士見町2-26-1","lat":35.69892,"lon":139.40152},{"name":"立川たんぽぽ保育園","province":"東京都","city":"立川市","address":"立川市富士見町6-59-1","lat":35.69212,"lon":139.39049},{"name":"玉川保育園","province":"東京都","city":"立川市","address":"立川市富士見町6-72-1","lat":35.69491,"lon":139.39085},{"name":"愛光第五保育園","province":"東京都","city":"立川市","address":"立川市富士見町7-23-5","lat":35.69228,"lon":139.39629},{"name":"愛光みどり保育園","province":"東京都","city":"立川市","address":"立川市緑町7-1","lat":35.70945,"lon":139.41185},{"name":"西国立保育園","province":"東京都","city":"立川市","address":"立川市羽衣町2-43-4","lat":35.69297,"lon":139.42458},{"name":"羽衣保育園","province":"東京都","city":"立川市","address":"立川市羽衣町2-51-7","lat":35.69323,"lon":139.42915},{"name":"ほほえみの森保育園","province":"東京都","city":"立川市","address":"立川市錦町3-1-20","lat":35.69376,"lon":139.41803},{"name":"至誠保育園","province":"東京都","city":"立川市","address":"立川市錦町6-26-13","lat":35.68461,"lon":139.4174},{"name":"小百合保育園","province":"東京都","city":"立川市","address":"立川市錦町6-6-3-101","lat":35.68724,"lon":139.42015},{"name":"柴崎保育園","province":"東京都","city":"立川市","address":"立川市柴崎町1-16-23","lat":35.69247,"lon":139.40709},{"name":"諏訪の森保育園","province":"東京都","city":"立川市","address":"立川市柴崎町1-4-4","lat":35.69508,"lon":139.40482},{"name":"見影橋保育園","province":"東京都","city":"立川市","address":"立川市砂川町3-23-2","lat":35.72734,"lon":139.39879},{"name":"上砂保育園","province":"東京都","city":"立川市","address":"立川市上砂町1-13-1","lat":35.72075,"lon":139.38809},{"name":"あおば第二保育園","province":"東京都","city":"立川市","address":"立川市上砂町2-40-5","lat":35.72527,"lon":139.39407},{"name":"きらめきの森保育園","province":"東京都","city":"立川市","address":"立川市上砂町5-85-1","lat":35.73059,"lon":139.38721},{"name":"立川ひかり保育園","province":"東京都","city":"立川市","address":"立川市一番町2-22-1","lat":35.72679,"lon":139.37961},{"name":"松中保育園","province":"東京都","city":"立川市","address":"立川市一番町5-8-25","lat":35.73203,"lon":139.37299},{"name":"西武立川きらり保育園","province":"東京都","city":"立川市","address":"立川市西砂町1-2-127","lat":35.72544,"lon":139.37288},{"name":"西砂保育園","province":"東京都","city":"立川市","address":"立川市西砂町2-63-2","lat":35.72993,"lon":139.36478},{"name":"わんわん保育園","province":"東京都","city":"立川市","address":"立川市西砂町6-12-4","lat":35.72957,"lon":139.37215},{"name":"なすび保育園","province":"東京都","city":"立川市","address":"立川市西砂町6-75-9","lat":35.73447,"lon":139.36801},{"name":"まんまる助産院","province":"東京都","city":"立川市","address":"立川市若葉町2-1-1","lat":35.71925,"lon":139.43961},{"name":"立川相互病院","province":"東京都","city":"立川市","address":"立川市錦町1-16-15","lat":35.69665,"lon":139.42239},{"name":"至誠学園","province":"東京都","city":"立川市","address":"立川市錦町6-26-15","lat":35.68461,"lon":139.4174},{"name":"至誠大地の家","province":"東京都","city":"立川市","address":"立川市錦町6-26-17","lat":35.68461,"lon":139.4174},{"name":"立川第２荘（２）","province":"東京都","city":"立川市","address":"立川市富士見町4-15-14","lat":35.69511,"lon":139.39961},{"name":"グランドール立川","province":"東京都","city":"立川市","address":"東京都立川市","lat":35.71401612,"lon":139.40784571},{"name":"グランドール立川２","province":"東京都","city":"立川市","address":"東京都立川市","lat":35.71401612,"lon":139.40784571},{"name":"立川市","province":"東京都","city":"立川市","address":"立川市泉町1156-9","lat":35.71529,"lon":139.40628},{"name":"多摩立川保健所","province":"東京都","city":"立川市","address":"立川市柴崎町2-21-19東京都立川福祉保健庁舎内","lat":35.69401,"lon":139.40842},{"name":"東京都立川児童相談所","province":"東京都","city":"立川市","address":"立川市柴崎町2-21-19","lat":35.69401,"lon":139.40842},{"name":"東京都福祉人材センター多摩支所","province":"東京都","city":"立川市","address":"立川市曙町2-34-13オリンピック第3ビル7階","lat":35.70255,"lon":139.41466},{"name":"立川市立川駅南口立体有料自転車駐車場","province":"東京都","city":"立川市","address":"東京都立川市錦町2丁目1-4","lat":35.69606557,"lon":139.41512073},{"name":"立川市立川駅南口第三有料自転車駐車場","province":"東京都","city":"立川市","address":"東京都立川市柴崎町2丁目5-16","lat":35.69780963,"lon":139.40852397},{"name":"立川市立川駅南口第四有料自転車駐車場","province":"東京都","city":"立川市","address":"東京都立川市柴崎町3丁目5-27","lat":35.69638494,"lon":139.41410413},{"name":"立川市立川駅南口第一タワー有料自転車駐車場","province":"東京都","city":"立川市","address":"東京都立川市錦町1丁目3-19","lat":35.6965322,"lon":139.41552346},{"name":"立川市立川駅南口第二タワー有料自転車駐車場","province":"東京都","city":"立川市","address":"東京都立川市柴崎町2丁目3-20","lat":35.69677094,"lon":139.41137656},{"name":"立川市立川駅西地下道有料自転車駐車場","province":"東京都","city":"立川市","address":"東京都立川市曙町1丁目1-33","lat":35.69820687,"lon":139.41025992},{"name":"立川市柴崎体育館駅臨時自転車等駐車場","province":"東京都","city":"立川市","address":"東京都立川市柴崎町6丁目13-3","lat":35.68963557,"lon":139.40890482},{"name":"立川市柴崎体育館駅下自転車仮置場","province":"東京都","city":"立川市","address":"東京都立川市柴崎町6丁目13","lat":35.68969944,"lon":139.40857984},{"name":"立川市立川駅北口第一有料自転車駐車場","province":"東京都","city":"立川市","address":"東京都立川市曙町2丁目36-2","lat":35.70254814,"lon":139.41413167},{"name":"立川市立川北駅西臨時有料自転車駐車場","province":"東京都","city":"立川市","address":"東京都立川市曙町1丁目32-1","lat":35.7003872,"lon":139.41146252},{"name":"立川市立川北駅下有料自転車駐車場","province":"東京都","city":"立川市","address":"東京都立川市曙町2丁目5-1","lat":35.69952623,"lon":139.41295966},{"name":"立川市泉体育館駅臨時自転車駐車場","province":"東京都","city":"立川市","address":"東京都立川市泉町786-11","lat":35.71897695,"lon":139.41870575},{"name":"立川市玉川上水駅第二自転車駐車場","province":"東京都","city":"立川市","address":"東京都立川市幸町6丁目3","lat":35.73100611,"lon":139.41833583},{"name":"立川市玉川上水駅臨時自転車駐車場","province":"東京都","city":"立川市","address":"東京都立川市幸町6丁目1","lat":35.73045896,"lon":139.41857749},{"name":"立川市武蔵砂川駅第一有料自転車等駐車場","province":"東京都","city":"立川市","address":"東京都立川市上砂町4丁目52-1","lat":35.72839746,"lon":139.39264115},{"name":"立川市西国立駅第三有料自転車駐車場","province":"東京都","city":"立川市","address":"東京都立川市羽衣町1丁目25-23","lat":35.6933328,"lon":139.42423954},{"name":"立川市西武立川駅北口有料自転車駐車場","province":"東京都","city":"立川市","address":"東京都立川市西砂町1丁目23-8","lat":35.72687195,"lon":139.3698684},{"name":"立川市高松駅下自転車仮置場","province":"東京都","city":"立川市","address":"東京都立川市高松町1丁目100","lat":35.70810864,"lon":139.41487588},{"name":"立川市立川駅南口臨時自転車駐車場","province":"東京都","city":"立川市","address":"東京都立川市柴崎町3丁目10","lat":35.69521838,"lon":139.41267652},{"name":"立川市高松駅自転車駐車場","province":"東京都","city":"立川市","address":"東京都立川市高松町1丁目22-20","lat":35.71078888,"lon":139.41428696},{"name":"立川市立川駅南口西有料自転車駐車場","province":"東京都","city":"立川市","address":"東京都立川市柴崎町2丁目1-5","lat":35.6975542,"lon":139.41165151},{"name":"立川市立川駅南口東臨時有料原動機付自転車駐車場","province":"東京都","city":"立川市","address":"東京都立川市錦町1丁目1-21","lat":35.69775431,"lon":139.41662055},{"name":"立川市砂川七番駅西自転車駐車場","province":"東京都","city":"立川市","address":"東京都立川市柏町3丁目1-4","lat":35.7236875,"lon":139.41781953},{"name":"立川市立川駅南口第二臨時有料自転車駐車場","province":"東京都","city":"立川市","address":"東京都立川市柴崎町3丁目10-21","lat":35.69477674,"lon":139.4121488},{"name":"立川市西武立川駅北口臨時有料路上自転車駐車場","province":"東京都","city":"立川市","address":"東京都立川市西砂町1丁目23","lat":35.72662754,"lon":139.36969065},{"name":"立川市コトリンク有料自転車等駐車場","province":"東京都","city":"立川市","address":"東京都立川市柴崎町3丁目9-2","lat":35.69548499,"lon":139.4119599},{"name":"立川市曙陸橋東有料自転車等駐車場","province":"東京都","city":"立川市","address":"東京都立川市曙町3丁目2-12","lat":35.69836265,"lon":139.41953974},{"name":"南部西ふじみ地域包括支援センター","province":"東京都","city":"立川市","address":"立川市富士見町2-36-47社会福祉協議会内","lat":35.70158,"lon":139.402008},{"name":"南部東はごろも地域包括支援センター","province":"東京都","city":"立川市","address":"立川市羽衣町1-12-18羽衣地域福祉サービスセンター内","lat":35.697369,"lon":139.425613},{"name":"中部たかまつ地域包括支援センター","province":"東京都","city":"立川市","address":"立川市高松町2-27-27TBK第2高松ビル105号","lat":35.704739,"lon":139.418625},{"name":"北部東わかば地域包括支援センター","province":"東京都","city":"立川市","address":"立川市若葉町3-45-2老人保健施設わかば内","lat":35.719658,"lon":139.441452},{"name":"北部中さいわい地域包括支援センター","province":"東京都","city":"立川市","address":"立川市幸町4-14-1至誠キートスホーム内","lat":35.724712,"lon":139.428299},{"name":"北部西かみすな地域包括支援センター","province":"東京都","city":"立川市","address":"立川市上砂町5-76-4砂川園内","lat":35.730007,"lon":139.389557},{"name":"にしき福祉相談センター","province":"東京都","city":"立川市","address":"立川市錦町6-28-15至誠ホーム内","lat":35.685169,"lon":139.416306},{"name":"かみすな福祉相談センター","province":"東京都","city":"立川市","address":"立川市上砂町1-13-1上砂地域福祉サービスセンター内","lat":35.720753,"lon":139.388092},{"name":"にしすな福祉相談センター","province":"東京都","city":"立川市","address":"立川市西砂町5-5-5西砂ホーム内","lat":35.731091,"lon":139.363205},{"name":"立川市見守りホットライン","province":"東京都","city":"立川市","address":"立川市泉町1156-9立川市役所","lat":35.715286,"lon":139.406281},{"name":"立川市役所","province":"東京都","city":"立川市","address":"立川市泉町1156-9","lat":35.715286,"lon":139.406281},{"name":"立川市消費生活センター","province":"東京都","city":"立川市","address":"立川市曙町2-36-2立川市女性総合センター5F","lat":35.701874,"lon":139.414169},{"name":"立川リハビリワークステーション立川","province":"東京都","city":"立川市","address":"東京都立川市富士見町7丁目33-3","lat":35.68979641,"lon":139.39872788},{"name":"一般社団法人栄福祉会就労継続支援Ｂ型キッチンさかえ","province":"東京都","city":"立川市","address":"東京都立川市栄町3丁目2","lat":35.7078311,"lon":139.42233085},{"name":"一般社団法人栄福祉会就労移行支援ソレイユ","province":"東京都","city":"立川市","address":"東京都立川市栄町3丁目2","lat":35.7078311,"lon":139.42233085},{"name":"一般社団法人栄福祉会サポーターズさかえ","province":"東京都","city":"立川市","address":"東京都立川市栄町3丁目2","lat":35.7078311,"lon":139.42233085},{"name":"株式会社友心就労継続支援Ｂ型わーくあっぷ立川","province":"東京都","city":"立川市","address":"東京都立川市曙町1丁目24-11","lat":35.70042046,"lon":139.4088405},{"name":"りは職人でい","province":"東京都","city":"立川市","address":"東京都立川市柴崎町3丁目18-29","lat":35.69289634,"lon":139.41026292},{"name":"森の子保育園","province":"東京都","city":"立川市","address":"立川市砂川町8-30-7","lat":35.73216,"lon":139.39951},{"name":"至誠学園","province":"東京都","city":"立川市","address":"立川市錦町6-26-15","lat":35.684573,"lon":139.418182},{"name":"至誠大地の家","province":"東京都","city":"立川市","address":"立川市錦町6-26-17","lat":35.684547,"lon":139.417463},{"name":"東京都福祉人材センター多摩支所","province":"東京都","city":"立川市","address":"立川市曙町2-34-13オリンピック第3ビル7階","lat":35.702556,"lon":139.414673},{"name":"たかのみち保育園","province":"東京都","city":"立川市","address":"立川市幸町6-32-1","lat":35.72841,"lon":139.42619},{"name":"愛光あけぼの保育園","province":"東京都","city":"立川市","address":"立川市曙町3-17-22","lat":35.69987,"lon":139.42481},{"name":"見影橋保育園","province":"東京都","city":"立川市","address":"立川市砂川町3-23-2","lat":35.72735,"lon":139.39879},{"name":"西武立川きらり保育園","province":"東京都","city":"立川市","address":"立川市西砂町1-2-127","lat":35.72545,"lon":139.37288},{"name":"立川第２荘（2）","province":"東京都","city":"立川市","address":"立川市富士見町4-15-14","lat":35.69511,"lon":139.39961},{"name":"立川第2荘（2）","province":"東京都","city":"立川市","address":"立川市富士見町4-15-14","lat":35.69511,"lon":139.39961},{"name":"愛光あけぼの保育園","province":"東京都","city":"立川市","address":"東京都立川市曙町3-17-22","lat":35.6996,"lon":139.42532},{"name":"愛光第五保育園サンクレール","province":"東京都","city":"立川市","address":"東京都立川市柴崎町3-11-25","lat":35.69676,"lon":139.41081},{"name":"愛光第五保育園","province":"東京都","city":"立川市","address":"東京都立川市富士見町7-23-5","lat":35.69234,"lon":139.39625},{"name":"愛光保育園","province":"東京都","city":"立川市","address":"東京都立川市曙町3-24-22","lat":35.70181,"lon":139.42094},{"name":"愛光みどり保育園","province":"東京都","city":"立川市","address":"東京都立川市緑町7-1","lat":35.70941,"lon":139.41224},{"name":"あおば第二保育園","province":"東京都","city":"立川市","address":"東京都立川市上砂町2-40-5","lat":35.72525,"lon":139.39376},{"name":"あおば保育園","province":"東京都","city":"立川市","address":"東京都立川市幸町4-52-1","lat":35.72606,"lon":139.43016},{"name":"江の島保育園","province":"東京都","city":"立川市","address":"東京都立川市栄町5-20-3","lat":35.715,"lon":139.42654},{"name":"柏保育園","province":"東京都","city":"立川市","address":"東京都立川市柏町3-52-9","lat":35.72446,"lon":139.41079},{"name":"上砂保育園","province":"東京都","city":"立川市","address":"東京都立川市上砂町1-13-1","lat":35.71849,"lon":139.39393},{"name":"きらめきの森保育園","province":"東京都","city":"立川市","address":"東京都立川市上砂町5-85-1","lat":35.73065,"lon":139.38716},{"name":"けやき台さくら保育園","province":"東京都","city":"立川市","address":"東京都立川市若葉町1-13-2","lat":35.71645,"lon":139.43591},{"name":"栄保育園","province":"東京都","city":"立川市","address":"東京都立川市栄町3-33-3","lat":35.70782,"lon":139.42921},{"name":"至誠保育園","province":"東京都","city":"立川市","address":"東京都立川市錦町6-26-13","lat":35.68477,"lon":139.41752},{"name":"柴崎保育園","province":"東京都","city":"立川市","address":"東京都立川市柴崎町1-16-23","lat":35.6923,"lon":139.4071},{"name":"小百合保育園","province":"東京都","city":"立川市","address":"東京都立川市錦町6-6-3-101","lat":35.68727,"lon":139.42016},{"name":"城南ルミナ保育園立川","province":"東京都","city":"立川市","address":"東京都立川市柴崎町2-3-18第二粂川ビル2F","lat":35.6968,"lon":139.41116},{"name":"すくすくワールド","province":"東京都","city":"立川市","address":"東京都立川市曙町2-34-6小杉ビル5階","lat":35.70184,"lon":139.41485},{"name":"諏訪の森保育園","province":"東京都","city":"立川市","address":"東京都立川市柴崎町1-4-4","lat":35.69524,"lon":139.40493},{"name":"西武立川きらり保育園","province":"東京都","city":"立川市","address":"東京都立川市西砂町1-2-127","lat":35.72525,"lon":139.37156},{"name":"たかのみち保育園（さいわい分園）","province":"東京都","city":"立川市","address":"東京都立川市幸町5-111-4","lat":35.72744,"lon":139.42614},{"name":"たかのみち保育園（さかえ分園）","province":"東京都","city":"立川市","address":"東京都立川市栄町6-13-1","lat":35.71686,"lon":139.42283},{"name":"たかのみち保育園","province":"東京都","city":"立川市","address":"東京都立川市幸町6-32-1","lat":35.72793,"lon":139.42608},{"name":"高松保育園","province":"東京都","city":"立川市","address":"東京都立川市高松町1-18-7","lat":35.70856,"lon":139.41674},{"name":"立川たんぽぽ保育園","province":"東京都","city":"立川市","address":"東京都立川市富士見町6-59-1","lat":35.6921,"lon":139.39064},{"name":"立川ひかり保育園","province":"東京都","city":"立川市","address":"東京都立川市一番町2-22-1","lat":35.7268,"lon":139.37986},{"name":"玉川保育園","province":"東京都","city":"立川市","address":"東京都立川市富士見町6-72-1","lat":35.69492,"lon":139.39102},{"name":"つくし保育園","province":"東京都","city":"立川市","address":"東京都立川市栄町3-24-12","lat":35.71085,"lon":139.42637},{"name":"中砂保育園","province":"東京都","city":"立川市","address":"東京都立川市栄町5-38-1","lat":35.71809,"lon":139.42407},{"name":"なすび保育園","province":"東京都","city":"立川市","address":"東京都立川市西砂町6-75-9","lat":35.73477,"lon":139.36808},{"name":"西国立保育園分園","province":"東京都","city":"立川市","address":"東京都立川市羽衣町1-21-11","lat":35.69552,"lon":139.42361},{"name":"西国立保育園","province":"東京都","city":"立川市","address":"東京都立川市羽衣町2-43-4","lat":35.69309,"lon":139.42471},{"name":"西砂保育園","province":"東京都","city":"立川市","address":"東京都立川市西砂町2-63-2","lat":35.72976,"lon":139.36467},{"name":"西立川保育園","province":"東京都","city":"立川市","address":"東京都立川市富士見町1-18-16","lat":35.69949,"lon":139.39668},{"name":"羽衣保育園","province":"東京都","city":"立川市","address":"東京都立川市羽衣町2-51-7","lat":35.69326,"lon":139.42967},{"name":"冨士見保育園","province":"東京都","city":"立川市","address":"東京都立川市富士見町2-26-1","lat":35.69922,"lon":139.4017},{"name":"保育室スマイルエッグス","province":"東京都","city":"立川市","address":"東京都立川市上砂町4-52-1","lat":35.72832,"lon":139.39267},{"name":"ほほえみの森保育園","province":"東京都","city":"立川市","address":"東京都立川市錦町3-1-20","lat":35.69372,"lon":139.41819},{"name":"ぽけっとランド立川保育園","province":"東京都","city":"立川市","address":"東京都立川市曙町2-18-15","lat":35.70046,"lon":139.41651},{"name":"ポピンズナーサリースクール立川","province":"東京都","city":"立川市","address":"東京都立川市柴崎町3-1-1ecute立川4F","lat":35.69732,"lon":139.41323},{"name":"松中保育園","province":"東京都","city":"立川市","address":"東京都立川市一番町5-8-25","lat":35.73283,"lon":139.37492},{"name":"見影橋保育園","province":"東京都","city":"立川市","address":"東京都立川市砂川町3-23-2","lat":35.72737,"lon":139.39871},{"name":"森の子こども園","province":"東京都","city":"立川市","address":"東京都立川市砂川町8-30-7","lat":35.73205,"lon":139.39964},{"name":"れんげ砂川保育園","province":"東京都","city":"立川市","address":"東京都立川市若葉町4-24-31","lat":35.72249,"lon":139.44308},{"name":"わんわん保育園","province":"東京都","city":"立川市","address":"東京都立川市西砂町6-12-4","lat":35.72924,"lon":139.37219},{"name":"市民会館西","province":"東京都","city":"立川市","address":"東京都立川市錦町3丁目5-1","lat":35.69314932,"lon":139.41859835},{"name":"曙橋","province":"東京都","city":"立川市","address":"東京都立川市曙町2丁目8-3","lat":35.7005817,"lon":139.41420952},{"name":"柴崎町二丁目","province":"東京都","city":"立川市","address":"東京都立川市柴崎町2丁目9-19","lat":35.69700691,"lon":139.4069158},{"name":"立川富士見町交番前","province":"東京都","city":"立川市","address":"東京都立川市富士見町6丁目19-1","lat":35.6924793,"lon":139.39275329},{"name":"立川駅北口","province":"東京都","city":"立川市","address":"東京都立川市曙町2丁目12-1","lat":35.6992013,"lon":139.41435956},{"name":"立川駅北口西","province":"東京都","city":"立川市","address":"東京都立川市曙町2丁目4-6","lat":35.69877907,"lon":139.41217364},{"name":"立川至誠老人ホーム前","province":"東京都","city":"立川市","address":"東京都立川市錦町6丁目28-15","lat":35.68536958,"lon":139.41604886},{"name":"災害医療センター前","province":"東京都","city":"立川市","address":"東京都立川市緑町3173","lat":35.70335899,"lon":139.40788769},{"name":"立川富士見町二丁目第二","province":"東京都","city":"立川市","address":"東京都立川市富士見町2丁目22-19","lat":35.70014809,"lon":139.40231607},{"name":"砂川九番北","province":"東京都","city":"立川市","address":"東京都立川市若葉町3丁目3-3","lat":35.72272686,"lon":139.43276005},{"name":"立川合同庁舎前","province":"東京都","city":"立川市","address":"東京都立川市錦町4丁目6","lat":35.69183285,"lon":139.42034548},{"name":"立川七中北","province":"東京都","city":"立川市","address":"東京都立川市西砂町5丁目34","lat":35.73520154,"lon":139.36785154},{"name":"地域センター前","province":"東京都","city":"立川市","address":"東京都立川市西砂町6丁目12-4","lat":35.72923562,"lon":139.37218204},{"name":"立川健康会館西","province":"東京都","city":"立川市","address":"東京都立川市高松町2丁目1-11","lat":35.70487018,"lon":139.41724524},{"name":"立川病院東","province":"東京都","city":"立川市","address":"東京都立川市錦町4丁目4-5","lat":35.69160795,"lon":139.42296472},{"name":"第四機動隊北","province":"東京都","city":"立川市","address":"東京都立川市緑町3567","lat":35.7125968,"lon":139.40643755},{"name":"昭和記念公園あけぼの口","province":"東京都","city":"立川市","address":"東京都立川市曙町2丁目42-23","lat":35.70177873,"lon":139.41185409},{"name":"立川市役所","province":"東京都","city":"立川市","address":"東京都立川市泉町1156-9","lat":35.71399946,"lon":139.4078846},{"name":"モノレール基地脇","province":"東京都","city":"立川市","address":"東京都立川市泉町935-1","lat":35.71253317,"lon":139.4161173},{"name":"裁判所前","province":"東京都","city":"立川市","address":"東京都立川市緑町10-4","lat":35.71203865,"lon":139.41090941},{"name":"西武立川駅南口","province":"東京都","city":"立川市","address":"東京都立川市西砂町1丁目2-27","lat":35.72528883,"lon":139.37091001},{"name":"立川地域防災センター","province":"東京都","city":"立川市","address":"東京都立川市緑町3233-2","lat":35.70626977,"lon":139.40773762},{"name":"国立病院機構災害医療センター","province":"東京都","city":"立川市","address":"東京都立川市緑町3256","lat":35.70745023,"lon":139.4092319},{"name":"立川・昭島・国立火葬場","province":"東京都","city":"立川市","address":"東京都立川市羽衣町3丁目20-18","lat":35.68886941,"lon":139.42420084},{"name":"柴崎浄水所","province":"東京都","city":"立川市","address":"東京都立川市柴崎町1丁目1-41","lat":35.69686245,"lon":139.40595201},{"name":"立川栄町浄水所","province":"東京都","city":"立川市","address":"東京都立川市栄町5丁目38-5","lat":35.71814941,"lon":139.42479141},{"name":"西砂第一浄水所","province":"東京都","city":"立川市","address":"東京都立川市西砂町2丁目53-14","lat":35.73083799,"lon":139.36059394},{"name":"立川砂川浄水所","province":"東京都","city":"立川市","address":"東京都立川市砂川町6丁目41-1","lat":35.72996987,"lon":139.407348},{"name":"西砂第一浄水所（注１）","province":"東京都","city":"立川市","address":"東京都立川市西砂町2丁目53-14","lat":35.73083799,"lon":139.36059394},{"name":"国立病院機構災害医療センターヘリポート","province":"東京都","city":"立川市","address":"東京都立川市緑町3256","lat":35.70745023,"lon":139.4092319},{"name":"＊?立川市女性総合センター・アイム","province":"東京都","city":"立川市","address":"立川市曙町2-36-2","lat":35.702202,"lon":139.414096},{"name":"＊?立川市歴史民俗資料館","province":"東京都","city":"立川市","address":"立川市富士見町3-12-34","lat":35.696921,"lon":139.389952},{"name":"＊?川越道緑地古民家園","province":"東京都","city":"立川市","address":"立川市幸町4-65","lat":35.725468,"lon":139.426689},{"name":"＊?柴崎学習館","province":"東京都","city":"立川市","address":"立川市柴崎町1-1-43","lat":35.696668,"lon":139.406788},{"name":"＊?高松学習館","province":"東京都","city":"立川市","address":"立川市高松町3-22-5","lat":35.703007,"lon":139.419146},{"name":"＊?錦学習館","province":"東京都","city":"立川市","address":"立川市錦町3-12-25","lat":35.691166,"lon":139.416405},{"name":"＊?西砂学習館","province":"東京都","city":"立川市","address":"立川市西砂町6-12-10","lat":35.729611,"lon":139.372162},{"name":"＊?幸学習館","province":"東京都","city":"立川市","address":"立川市幸町2-1-3","lat":35.71924,"lon":139.423558},{"name":"＊?砂川学習館","province":"東京都","city":"立川市","address":"立川市砂川町1-52-7","lat":35.722836,"lon":139.403143},{"name":"＊?羽衣中央会館","province":"東京都","city":"立川市","address":"立川市羽衣町2-26-7","lat":35.694145,"lon":139.428577},{"name":"＊?滝ノ上会館","province":"東京都","city":"立川市","address":"立川市富士見町4-16-10","lat":35.695906,"lon":139.39902},{"name":"＊?高松会館","province":"東京都","city":"立川市","address":"立川市高松町2-25-26","lat":35.704184,"lon":139.420185},{"name":"＊?柴崎会館","province":"東京都","city":"立川市","address":"立川市柴崎町1-16-3","lat":35.692372,"lon":139.407383},{"name":"＊?さかえ会館","province":"東京都","city":"立川市","address":"立川市栄町4-6-2","lat":35.710967,"lon":139.424959},{"name":"＊?西砂会館","province":"東京都","city":"立川市","address":"立川市西砂町5-11-13","lat":35.73237,"lon":139.360661},{"name":"＊?天王橋会館","province":"東京都","city":"立川市","address":"立川市一番町3-6-1","lat":35.728235,"lon":139.381028},{"name":"＊?上砂会館","province":"東京都","city":"立川市","address":"立川市上砂町1-31-1","lat":35.720165,"lon":139.395635},{"name":"＊?若葉会館","province":"東京都","city":"立川市","address":"立川市若葉町3-34-1","lat":35.720211,"lon":139.439189},{"name":"＊?こんぴら橋会館","province":"東京都","city":"立川市","address":"立川市砂川町3-26-1","lat":35.727886,"lon":139.399503},{"name":"＊?こぶし会館","province":"東京都","city":"立川市","address":"立川市幸町5-83-1","lat":35.725742,"lon":139.418449},{"name":"前田金属工業(株)","province":"東京都","city":"立川市","address":"立川市柴崎町6-19-28","lat":35.686832,"lon":139.409332},{"name":"高根商事(株)  富士見町支店","province":"東京都","city":"立川市","address":"立川市富士見町6-36-4","lat":35.692577,"lon":139.388947},{"name":"立川市清掃工場","province":"東京都","city":"立川市","address":"東京都立川市若葉町4丁目11","lat":35.72504,"lon":139.433701},{"name":"立川市新清掃工場","province":"東京都","city":"立川市","address":"東京都立川市泉町","lat":35.715893,"lon":139.404343},{"name":"立川市","province":"東京都","city":"立川市","address":"立川市泉町1156-9","lat":35.714002,"lon":139.407832},{"name":"立川市総合福祉センター","province":"東京都","city":"立川市","address":"東京都立川市富士見町2丁目36-47","lat":35.70118685,"lon":139.4018633},{"name":"水道局多摩水道立川庁舎","province":"東京都","city":"立川市","address":"東京都立川市緑町6-7","lat":35.70858351,"lon":139.41213163},{"name":"若葉図書館","province":"東京都","city":"立川市","address":"東京都立川市若葉町3丁目34-1","lat":35.72021344,"lon":139.43921515},{"name":"多摩立川保健所","province":"東京都","city":"立川市","address":"東京都立川市柴崎町2丁目21-19","lat":35.69408784,"lon":139.408638},{"name":"立川健康会館","province":"東京都","city":"立川市","address":"東京都立川市高松町3丁目22-9","lat":35.70288991,"lon":139.41920904},{"name":"東京都農林水産振興財団（立川庁舎）","province":"東京都","city":"立川市","address":"東京都立川市富士見町3丁目8-1","lat":35.6984897,"lon":139.39270029},{"name":"立川国際中等教育学校","province":"東京都","city":"立川市","address":"東京都立川市曙町3丁目29-37","lat":35.70278462,"lon":139.42823332},{"name":"多摩教育センター","province":"東京都","city":"立川市","address":"東京都立川市錦町6丁目3-1","lat":35.68951919,"lon":139.41899846},{"name":"立川高等学校","province":"東京都","city":"立川市","address":"東京都立川市錦町2丁目13-5","lat":35.69247702,"lon":139.41289327},{"name":"砂川高等学校","province":"東京都","city":"立川市","address":"東京都立川市泉町935-4","lat":35.71814365,"lon":139.41643375},{"name":"立川都民防災教育センター（立川防災館）","province":"東京都","city":"立川市","address":"東京都立川市泉町1156-1","lat":35.71589087,"lon":139.40621247},{"name":"立川市本庁舎","province":"東京都","city":"立川市","address":"東京都立川市泉町1156-9","lat":35.71399946,"lon":139.4078846},{"name":"柴崎市民体育館","province":"東京都","city":"立川市","address":"東京都立川市柴崎町6丁目15-9","lat":35.68827745,"lon":139.4111158},{"name":"泉市民体育館","province":"東京都","city":"立川市","address":"東京都立川市泉町786-11","lat":35.71897695,"lon":139.41870575},{"name":"立川防災センター","province":"東京都","city":"立川市","address":"立川市緑町3233","lat":35.70627,"lon":139.4077},{"name":"立川市本庁舎","province":"東京都","city":"立川市","address":"立川市泉町1156-9","lat":35.714003,"lon":139.407832},{"name":"北多摩北部建設事務所","province":"東京都","city":"立川市","address":"立川市柴崎町2-15-19","lat":35.69497,"lon":139.4087},{"name":"多摩都市モノレール（株）","province":"東京都","city":"立川市","address":"立川市泉町1078-92","lat":35.71611,"lon":139.4094},{"name":"陸上自衛隊立川駐屯地","province":"東京都","city":"立川市","address":"立川市緑町5","lat":35.712357,"lon":139.402135},{"name":"陸上自衛隊東立川駐屯地","province":"東京都","city":"立川市","address":"立川市栄町1-2-10","lat":35.7052,"lon":139.4266},{"name":"警視庁多摩総合庁舎","province":"東京都","city":"立川市","address":"立川市緑町3280","lat":35.7065,"lon":139.4062},{"name":"第四機動隊","province":"東京都","city":"立川市","address":"立川市緑町3567","lat":35.7126,"lon":139.4064},{"name":"第八方面自動車警ら隊","province":"東京都","city":"立川市","address":"立川市緑町3280","lat":35.7065,"lon":139.4062},{"name":"第八方面交通機動隊","province":"東京都","city":"立川市","address":"立川市緑町3280","lat":35.7065,"lon":139.4062},{"name":"第八方面本部","province":"東京都","city":"立川市","address":"立川市緑町3280","lat":35.7065,"lon":139.4062},{"name":"立川警察署","province":"東京都","city":"立川市","address":"立川市緑町3233-2","lat":35.706271,"lon":139.407738},{"name":"立川消防署（東京消防庁多摩防災基地）","province":"東京都","city":"立川市","address":"立川市泉町1156-1","lat":35.71589,"lon":139.4062},{"name":"第八消防方面本部","province":"東京都","city":"立川市","address":"立川市泉町1156-1","lat":35.71589,"lon":139.4062},{"name":"第八方面訓練場","province":"東京都","city":"立川市","address":"立川市泉町1156-1","lat":35.71589,"lon":139.4062},{"name":"立川消防署","province":"東京都","city":"立川市","address":"立川市泉町1156-1","lat":35.71589,"lon":139.4062},{"name":"立川地域防災センター","province":"東京都","city":"立川市","address":"立川市緑町3233","lat":35.70627,"lon":139.4077},{"name":"市村酸素（株）","province":"東京都","city":"立川市","address":"立川市錦町2-11-5","lat":35.69225,"lon":139.4149},{"name":"東京都赤十字血液センター立川事業所","province":"東京都","city":"立川市","address":"立川市緑町3256","lat":35.70745,"lon":139.4092},{"name":"※立川地域防災センター","province":"東京都","city":"立川市","address":"立川市緑町3233","lat":35.70627,"lon":139.4077},{"name":"国立病院機構災害医療センターヘリポート","province":"東京都","city":"立川市","address":"立川市緑町3256","lat":35.70745,"lon":139.4092},{"name":"東日本電信電話（株）錦町別館ビル","province":"東京都","city":"立川市","address":"立川市錦町4-12-6","lat":35.69015,"lon":139.4198},{"name":"（株）ＮＴＴドコモドコモ立川","province":"東京都","city":"立川市","address":"立川市曙町3-18-55","lat":35.70053,"lon":139.4241},{"name":"ＮＴＴコミュニケーションズ（株）立川ビル","province":"東京都","city":"立川市","address":"立川市曙町3-3-26","lat":35.69944,"lon":139.4193},{"name":"東京電力（株）立川支社","province":"東京都","city":"立川市","address":"立川市緑町6-6","lat":35.70862,"lon":139.4115},{"name":"東京ガス（株）立川ビル","province":"東京都","city":"立川市","address":"立川市曙町3-6-13","lat":35.69969,"lon":139.4223},{"name":"水道局多摩水道改革推進本部／立川給水管理事務所","province":"東京都","city":"立川市","address":"立川市緑町6-7","lat":35.7086,"lon":139.4122},{"name":"流域下水道本部","province":"東京都","city":"立川市","address":"東京都立川市錦町1丁目7-26","lat":35.69556568,"lon":139.41734836},{"name":"立川地域防災センター","province":"東京都","city":"立川市","address":"東京都立川市緑町3233","lat":35.70626977,"lon":139.40773762},{"name":"※立川市本庁舎","province":"東京都","city":"立川市","address":"東京都立川市泉町1156-9","lat":35.71399946,"lon":139.4078846},{"name":"立川駅","province":"東京都","city":"立川市","address":"東京都立川市曙町2丁目1-1","lat":35.69811809,"lon":139.41402907},{"name":"※立川地域防災センター","province":"東京都","city":"立川市","address":"東京都立川市緑町3233","lat":35.70626977,"lon":139.40773762},{"name":"立川聖苑","province":"東京都","city":"立川市","address":"東京都立川市羽衣町3丁目20-18","lat":35.68886941,"lon":139.42420084},{"name":"まんまる助産院","province":"東京都","city":"立川市","address":"立川市若葉町2-1-1","lat":35.718989,"lon":139.439493},{"name":"立川相互病院","province":"東京都","city":"立川市","address":"立川市錦町1-16-15","lat":35.696666,"lon":139.422442},{"name":"立川らびっとくらぶ","province":"東京都","city":"立川市","address":"立川市幸町三丁目25番地1立川けやき台ハイツ1階","lat":35.722405,"lon":139.430171},{"name":"トライきっず・プロ","province":"東京都","city":"立川市","address":"立川市幸町1-10-6","lat":35.719996,"lon":139.422258},{"name":"こどもプラス立川幸町教室","province":"東京都","city":"立川市","address":"立川市幸町5-1-7フルミエールメゾン1階B","lat":35.723318,"lon":139.418386},{"name":"こぱんはうすさくら　立川幸町教室","province":"東京都","city":"立川市","address":"立川市幸町3-13-14矢島ビル1階","lat":35.720646,"lon":139.430252},{"name":"デイサービス事業　みんなの広場　１","province":"東京都","city":"立川市","address":"立川市栄町4-2-1ジュネスイトウ1階","lat":35.710745,"lon":139.423464},{"name":"スマイルJr","province":"東京都","city":"立川市","address":"立川市高松町3-25-10富士永ハイツ101","lat":35.701754,"lon":139.418376},{"name":"テイクオフ","province":"東京都","city":"立川市","address":"立川市高松町1-20-5","lat":35.709347,"lon":139.415695},{"name":"ジョブサＵ１８立川北口教室","province":"東京都","city":"立川市","address":"立川市曙町1-24-11橋本ビル7階","lat":35.700415,"lon":139.408838},{"name":"あにものいえ","province":"東京都","city":"立川市","address":"立川市羽衣町2-23-6","lat":35.694502,"lon":139.428589},{"name":"ゆいまーる","province":"東京都","city":"立川市","address":"立川市羽衣町1丁目6番10号小川ビル2階","lat":35.696324,"lon":139.423839},{"name":"ＬＩＴＡＬＩＣＯジュニア立川南口教室","province":"東京都","city":"立川市","address":"立川市柴崎町2-3-13エイティエイト立川デュオ2階","lat":35.696563,"lon":139.410807},{"name":"ドリームボックス立川","province":"東京都","city":"立川市","address":"立川市柴崎町5-8-1リバーサイドアプス1階","lat":35.689241,"lon":139.40123},{"name":"ジョブサＵ１８立川南口教室","province":"東京都","city":"立川市","address":"立川市柴崎町2-4-15ほまれ屋本社ビル201号室","lat":35.696849,"lon":139.409916},{"name":"デイサービス事業　みんなの広場　２","province":"東京都","city":"立川市","address":"立川市一番町3-17-11ローズシャトル2号館1階","lat":35.730344,"lon":139.378481},{"name":"児童デイサービス　サンフラワー","province":"東京都","city":"立川市","address":"立川市一番町5-1-5ネクサス立川1階","lat":35.73038,"lon":139.379831},{"name":"コーポ立川","province":"東京都","city":"立川市","address":"立川市錦町6-9-8","lat":35.688636,"lon":139.418079},{"name":"コーポ立川錦町","province":"東京都","city":"立川市","address":"立川市錦町6-2-5","lat":35.689736,"lon":139.418421},{"name":"立川第２荘","province":"東京都","city":"立川市","address":"立川市富士見町4-15-14","lat":35.694865,"lon":139.399303},{"name":"相互歯科","province":"東京都","city":"立川市","address":"立川市錦町1-17-10健生会歯科ビル","lat":35.696671,"lon":139.421801},{"name":"立川相互ふれあいクリニック","province":"東京都","city":"立川市","address":"立川市錦町1-23-4","lat":35.695991,"lon":139.422562},{"name":"立川相互病院","province":"東京都","city":"立川市","address":"立川市緑町4-1","lat":35.703626,"lon":139.413293},{"name":"東京都立川児童相談所","province":"東京都","city":"立川市","address":"立川市曙町3-10-19","lat":35.700632,"lon":139.428967},{"name":"東京都福祉人材センター人材情報室多摩支所","province":"東京都","city":"立川市","address":"立川市曙町2-34-13オリンピック第3ビル7階","lat":35.702556,"lon":139.414673},{"name":"立川第２荘","province":"東京都","city":"立川市","address":"立川市富士見町4-15-14","lat":35.69511,"lon":139.39961},{"name":"さくら立川ハウス","province":"東京都","city":"立川市","address":"立川市錦町6-9-8","lat":35.6885,"lon":139.41768},{"name":"さくら立川錦町ハウス","province":"東京都","city":"立川市","address":"立川市錦町6-2-5","lat":35.68947,"lon":139.41811},{"name":"中央図書館","province":"東京都","city":"立川市","address":"東京都立川市曙町2丁目36-2","lat":35.70254814,"lon":139.41413167},{"name":"柴崎図書館","province":"東京都","city":"立川市","address":"東京都立川市柴崎町2丁目20-5","lat":35.69442388,"lon":139.40761862},{"name":"上砂図書館","province":"東京都","city":"立川市","address":"東京都立川市上砂町1丁目13-1","lat":35.71998447,"lon":139.39214139},{"name":"幸図書館","province":"東京都","city":"立川市","address":"東京都立川市幸町5丁目83-1","lat":35.72562062,"lon":139.4184194},{"name":"西砂図書館","province":"東京都","city":"立川市","address":"東京都立川市西砂町6丁目12-10","lat":35.72957725,"lon":139.37204038},{"name":"多摩川図書館","province":"東京都","city":"立川市","address":"東京都立川市富士見町6丁目51-1","lat":35.69117668,"lon":139.39316442},{"name":"高松図書館","province":"東京都","city":"立川市","address":"東京都立川市高松町3丁目22-5","lat":35.70309543,"lon":139.41903683},{"name":"錦図書館","province":"東京都","city":"立川市","address":"東京都立川市錦町3丁目12-25","lat":35.69112448,"lon":139.4162264},{"name":"若葉図書館","province":"東京都","city":"立川市","address":"東京都立川市若葉町3丁目34-1","lat":35.72021344,"lon":139.43921515},{"name":"NewWork立川","province":"東京都","city":"立川市","address":"東京都立川市曙町1丁目27-10","lat":35.70001222,"lon":139.41070148},{"name":"柴崎給水所","province":"東京都","city":"立川市","address":"東京都立川市柴崎町1-1-41","lat":35.6968355,"lon":139.405944},{"name":"立川栄町浄水所","province":"東京都","city":"立川市","address":"東京都立川市栄町5-38-5","lat":35.7180059,"lon":139.424525},{"name":"立川砂川給水所","province":"東京都","city":"立川市","address":"東京都立川市砂川町6-41-1","lat":35.7299825,"lon":139.407448},{"name":"市立松中公園","province":"東京都","city":"立川市","address":"東京都立川市西砂町1-19-12","lat":35.72661,"lon":139.371352},{"name":"まんまる助産院","province":"東京都","city":"立川市","address":"立川市若葉町2-1-1","lat":35.71925,"lon":139.43961},{"name":"立川相互病院","province":"東京都","city":"立川市","address":"立川市錦町1-16-15","lat":35.69665,"lon":139.42239},{"name":"至誠学園","province":"東京都","city":"立川市","address":"立川市錦町6-26-15","lat":35.68461,"lon":139.4174},{"name":"至誠大地の家","province":"東京都","city":"立川市","address":"立川市錦町6-26-17","lat":35.68461,"lon":139.4174},{"name":"立川第２荘（２）","province":"東京都","city":"立川市","address":"立川市富士見町4-15-14","lat":35.69511,"lon":139.39961},{"name":"グランドール立川","province":"東京都","city":"立川市","address":"東京都立川市","lat":35.71401612,"lon":139.40784571},{"name":"グランドール立川２","province":"東京都","city":"立川市","address":"東京都立川市","lat":35.71401612,"lon":139.40784571},{"name":"立川市","province":"東京都","city":"立川市","address":"立川市泉町1156-9","lat":35.71529,"lon":139.40628},{"name":"東京都立川児童相談所","province":"東京都","city":"立川市","address":"立川市柴崎町2-21-19","lat":35.69401,"lon":139.40842},{"name":"東京都福祉人材センター多摩支所","province":"東京都","city":"立川市","address":"立川市曙町2-34-13オリンピック第3ビル7階","lat":35.70255,"lon":139.41466},{"name":"立川市立川駅南口立体有料自転車駐車場","province":"東京都","city":"立川市","address":"東京都立川市錦町2丁目1-4","lat":35.69606557,"lon":139.41512073},{"name":"立川市立川駅南口第三有料自転車駐車場","province":"東京都","city":"立川市","address":"東京都立川市柴崎町2丁目5-16","lat":35.69780963,"lon":139.40852397},{"name":"立川市立川駅南口第四有料自転車駐車場","province":"東京都","city":"立川市","address":"東京都立川市柴崎町3丁目5-27","lat":35.69638494,"lon":139.41410413},{"name":"立川市立川駅南口第一タワー有料自転車駐車場","province":"東京都","city":"立川市","address":"東京都立川市錦町1丁目3-19","lat":35.6965322,"lon":139.41552346},{"name":"立川市立川駅南口第二タワー有料自転車駐車場","province":"東京都","city":"立川市","address":"東京都立川市柴崎町2丁目3-20","lat":35.69677094,"lon":139.41137656},{"name":"立川市立川駅西地下道有料自転車駐車場","province":"東京都","city":"立川市","address":"東京都立川市曙町1丁目1-33","lat":35.69820687,"lon":139.41025992},{"name":"立川市柴崎体育館駅臨時自転車等駐車場","province":"東京都","city":"立川市","address":"東京都立川市柴崎町6丁目13-3","lat":35.68963557,"lon":139.40890482},{"name":"立川市柴崎体育館駅下自転車仮置場","province":"東京都","city":"立川市","address":"東京都立川市柴崎町6丁目13","lat":35.68969944,"lon":139.40857984},{"name":"立川市立川駅北口第一有料自転車駐車場","province":"東京都","city":"立川市","address":"東京都立川市曙町2丁目36-2","lat":35.70254814,"lon":139.41413167},{"name":"立川市立川北駅西臨時有料自転車駐車場","province":"東京都","city":"立川市","address":"東京都立川市曙町1丁目32-1","lat":35.7003872,"lon":139.41146252},{"name":"立川市立川北駅下有料自転車駐車場","province":"東京都","city":"立川市","address":"東京都立川市曙町2丁目5-1","lat":35.69952623,"lon":139.41295966},{"name":"立川市泉体育館駅臨時自転車駐車場","province":"東京都","city":"立川市","address":"東京都立川市泉町786-11","lat":35.71897695,"lon":139.41870575},{"name":"立川市玉川上水駅第二自転車駐車場","province":"東京都","city":"立川市","address":"東京都立川市幸町6丁目3","lat":35.73100611,"lon":139.41833583},{"name":"立川市玉川上水駅臨時自転車駐車場","province":"東京都","city":"立川市","address":"東京都立川市幸町6丁目1","lat":35.73045896,"lon":139.41857749},{"name":"立川市武蔵砂川駅第一有料自転車等駐車場","province":"東京都","city":"立川市","address":"東京都立川市上砂町4丁目52-1","lat":35.72839746,"lon":139.39264115},{"name":"立川市西国立駅第三有料自転車駐車場","province":"東京都","city":"立川市","address":"東京都立川市羽衣町1丁目25-23","lat":35.6933328,"lon":139.42423954},{"name":"立川市西武立川駅北口有料自転車駐車場","province":"東京都","city":"立川市","address":"東京都立川市西砂町1丁目23-8","lat":35.72687195,"lon":139.3698684},{"name":"立川市高松駅下自転車仮置場","province":"東京都","city":"立川市","address":"東京都立川市高松町1丁目100","lat":35.70810864,"lon":139.41487588},{"name":"立川市立川駅南口臨時自転車駐車場","province":"東京都","city":"立川市","address":"東京都立川市柴崎町3丁目10","lat":35.69521838,"lon":139.41267652},{"name":"立川市高松駅自転車駐車場","province":"東京都","city":"立川市","address":"東京都立川市高松町1丁目22-20","lat":35.71078888,"lon":139.41428696},{"name":"立川市立川駅南口西有料自転車駐車場","province":"東京都","city":"立川市","address":"東京都立川市柴崎町2丁目1-5","lat":35.6975542,"lon":139.41165151},{"name":"立川市立川駅南口東臨時有料原動機付自転車駐車場","province":"東京都","city":"立川市","address":"東京都立川市錦町1丁目1-21","lat":35.69775431,"lon":139.41662055},{"name":"立川市砂川七番駅西自転車駐車場","province":"東京都","city":"立川市","address":"東京都立川市柏町3丁目1-4","lat":35.7236875,"lon":139.41781953},{"name":"立川市立川駅南口第二臨時有料自転車駐車場","province":"東京都","city":"立川市","address":"東京都立川市柴崎町3丁目10-21","lat":35.69477674,"lon":139.4121488},{"name":"立川市西武立川駅北口臨時有料路上自転車駐車場","province":"東京都","city":"立川市","address":"東京都立川市西砂町1丁目23","lat":35.72662754,"lon":139.36969065},{"name":"立川市コトリンク有料自転車等駐車場","province":"東京都","city":"立川市","address":"東京都立川市柴崎町3丁目9-2","lat":35.69548499,"lon":139.4119599},{"name":"立川市曙陸橋東有料自転車等駐車場","province":"東京都","city":"立川市","address":"東京都立川市曙町3丁目2-12","lat":35.69836265,"lon":139.41953974},{"name":"南部西ふじみ地域包括支援センター","province":"東京都","city":"立川市","address":"立川市富士見町2-36-47社会福祉協議会内","lat":35.70158,"lon":139.402008},{"name":"南部東はごろも地域包括支援センター","province":"東京都","city":"立川市","address":"立川市羽衣町1-12-18羽衣地域福祉サービスセンター内","lat":35.697369,"lon":139.425613},{"name":"中部たかまつ地域包括支援センター","province":"東京都","city":"立川市","address":"立川市高松町2-27-27TBK第2高松ビル105号","lat":35.704739,"lon":139.418625},{"name":"北部東わかば地域包括支援センター","province":"東京都","city":"立川市","address":"立川市若葉町3-45-2老人保健施設わかば内","lat":35.719658,"lon":139.441452},{"name":"北部中さいわい地域包括支援センター","province":"東京都","city":"立川市","address":"立川市幸町4-14-1至誠キートスホーム内","lat":35.724712,"lon":139.428299},{"name":"北部西かみすな地域包括支援センター","province":"東京都","city":"立川市","address":"立川市上砂町5-76-4砂川園内","lat":35.730007,"lon":139.389557},{"name":"にしき福祉相談センター","province":"東京都","city":"立川市","address":"立川市錦町6-28-15至誠ホーム内","lat":35.685169,"lon":139.416306},{"name":"かみすな福祉相談センター","province":"東京都","city":"立川市","address":"立川市上砂町1-13-1上砂地域福祉サービスセンター内","lat":35.720753,"lon":139.388092},{"name":"にしすな福祉相談センター","province":"東京都","city":"立川市","address":"立川市西砂町5-5-5西砂ホーム内","lat":35.731091,"lon":139.363205},{"name":"立川市見守りホットライン","province":"東京都","city":"立川市","address":"立川市泉町1156-9立川市役所","lat":35.715286,"lon":139.406281},{"name":"立川市役所","province":"東京都","city":"立川市","address":"立川市泉町1156-9","lat":35.715286,"lon":139.406281},{"name":"立川市消費生活センター","province":"東京都","city":"立川市","address":"立川市曙町2-36-2立川市女性総合センター5F","lat":35.701874,"lon":139.414169},{"name":"至誠学園","province":"東京都","city":"立川市","address":"立川市錦町6-26-15","lat":35.684573,"lon":139.418182},{"name":"至誠大地の家","province":"東京都","city":"立川市","address":"立川市錦町6-26-17","lat":35.684547,"lon":139.417463},{"name":"東京都福祉人材センター多摩支所","province":"東京都","city":"立川市","address":"立川市曙町2-34-13オリンピック第3ビル7階","lat":35.702556,"lon":139.414673},{"name":"立川第２荘（2）","province":"東京都","city":"立川市","address":"立川市富士見町4-15-14","lat":35.69511,"lon":139.39961},{"name":"市民会館西","province":"東京都","city":"立川市","address":"東京都立川市錦町3丁目5-1","lat":35.69314932,"lon":139.41859835},{"name":"曙橋","province":"東京都","city":"立川市","address":"東京都立川市曙町2丁目8-3","lat":35.7005817,"lon":139.41420952},{"name":"柴崎町二丁目","province":"東京都","city":"立川市","address":"東京都立川市柴崎町2丁目9-19","lat":35.69700691,"lon":139.4069158},{"name":"立川富士見町交番前","province":"東京都","city":"立川市","address":"東京都立川市富士見町6丁目19-1","lat":35.6924793,"lon":139.39275329},{"name":"立川駅北口","province":"東京都","city":"立川市","address":"東京都立川市曙町2丁目12-1","lat":35.6992013,"lon":139.41435956},{"name":"立川駅北口西","province":"東京都","city":"立川市","address":"東京都立川市曙町2丁目4-6","lat":35.69877907,"lon":139.41217364},{"name":"立川至誠老人ホーム前","province":"東京都","city":"立川市","address":"東京都立川市錦町6丁目28-15","lat":35.68536958,"lon":139.41604886},{"name":"災害医療センター前","province":"東京都","city":"立川市","address":"東京都立川市緑町3173","lat":35.70335899,"lon":139.40788769},{"name":"立川富士見町二丁目第二","province":"東京都","city":"立川市","address":"東京都立川市富士見町2丁目22-19","lat":35.70014809,"lon":139.40231607},{"name":"砂川九番北","province":"東京都","city":"立川市","address":"東京都立川市若葉町3丁目3-3","lat":35.72272686,"lon":139.43276005},{"name":"立川合同庁舎前","province":"東京都","city":"立川市","address":"東京都立川市錦町4丁目6","lat":35.69183285,"lon":139.42034548},{"name":"立川七中北","province":"東京都","city":"立川市","address":"東京都立川市西砂町5丁目34","lat":35.73520154,"lon":139.36785154},{"name":"地域センター前","province":"東京都","city":"立川市","address":"東京都立川市西砂町6丁目12-4","lat":35.72923562,"lon":139.37218204},{"name":"立川健康会館西","province":"東京都","city":"立川市","address":"東京都立川市高松町2丁目1-11","lat":35.70487018,"lon":139.41724524},{"name":"立川病院東","province":"東京都","city":"立川市","address":"東京都立川市錦町4丁目4-5","lat":35.69160795,"lon":139.42296472},{"name":"第四機動隊北","province":"東京都","city":"立川市","address":"東京都立川市緑町3567","lat":35.7125968,"lon":139.40643755},{"name":"昭和記念公園あけぼの口","province":"東京都","city":"立川市","address":"東京都立川市曙町2丁目42-23","lat":35.70177873,"lon":139.41185409},{"name":"立川市役所","province":"東京都","city":"立川市","address":"東京都立川市泉町1156-9","lat":35.71399946,"lon":139.4078846},{"name":"モノレール基地脇","province":"東京都","city":"立川市","address":"東京都立川市泉町935-1","lat":35.71253317,"lon":139.4161173},{"name":"裁判所前","province":"東京都","city":"立川市","address":"東京都立川市緑町10-4","lat":35.71203865,"lon":139.41090941},{"name":"西武立川駅南口","province":"東京都","city":"立川市","address":"東京都立川市西砂町1丁目2-27","lat":35.72528883,"lon":139.37091001},{"name":"立川地域防災センター","province":"東京都","city":"立川市","address":"東京都立川市緑町3233-2","lat":35.70626977,"lon":139.40773762},{"name":"＊?立川市女性総合センター・アイム","province":"東京都","city":"立川市","address":"立川市曙町2-36-2","lat":35.702202,"lon":139.414096},{"name":"＊?立川市歴史民俗資料館","province":"東京都","city":"立川市","address":"立川市富士見町3-12-34","lat":35.696921,"lon":139.389952},{"name":"＊?川越道緑地古民家園","province":"東京都","city":"立川市","address":"立川市幸町4-65","lat":35.725468,"lon":139.426689},{"name":"＊?柴崎学習館","province":"東京都","city":"立川市","address":"立川市柴崎町1-1-43","lat":35.696668,"lon":139.406788},{"name":"＊?高松学習館","province":"東京都","city":"立川市","address":"立川市高松町3-22-5","lat":35.703007,"lon":139.419146},{"name":"＊?錦学習館","province":"東京都","city":"立川市","address":"立川市錦町3-12-25","lat":35.691166,"lon":139.416405},{"name":"＊?西砂学習館","province":"東京都","city":"立川市","address":"立川市西砂町6-12-10","lat":35.729611,"lon":139.372162},{"name":"＊?幸学習館","province":"東京都","city":"立川市","address":"立川市幸町2-1-3","lat":35.71924,"lon":139.423558},{"name":"＊?砂川学習館","province":"東京都","city":"立川市","address":"立川市砂川町1-52-7","lat":35.722836,"lon":139.403143},{"name":"＊?羽衣中央会館","province":"東京都","city":"立川市","address":"立川市羽衣町2-26-7","lat":35.694145,"lon":139.428577},{"name":"＊?滝ノ上会館","province":"東京都","city":"立川市","address":"立川市富士見町4-16-10","lat":35.695906,"lon":139.39902},{"name":"＊?高松会館","province":"東京都","city":"立川市","address":"立川市高松町2-25-26","lat":35.704184,"lon":139.420185},{"name":"＊?柴崎会館","province":"東京都","city":"立川市","address":"立川市柴崎町1-16-3","lat":35.692372,"lon":139.407383},{"name":"＊?さかえ会館","province":"東京都","city":"立川市","address":"立川市栄町4-6-2","lat":35.710967,"lon":139.424959},{"name":"＊?西砂会館","province":"東京都","city":"立川市","address":"立川市西砂町5-11-13","lat":35.73237,"lon":139.360661},{"name":"＊?天王橋会館","province":"東京都","city":"立川市","address":"立川市一番町3-6-1","lat":35.728235,"lon":139.381028},{"name":"＊?上砂会館","province":"東京都","city":"立川市","address":"立川市上砂町1-31-1","lat":35.720165,"lon":139.395635},{"name":"＊?若葉会館","province":"東京都","city":"立川市","address":"立川市若葉町3-34-1","lat":35.720211,"lon":139.439189},{"name":"＊?こんぴら橋会館","province":"東京都","city":"立川市","address":"立川市砂川町3-26-1","lat":35.727886,"lon":139.399503},{"name":"＊?こぶし会館","province":"東京都","city":"立川市","address":"立川市幸町5-83-1","lat":35.725742,"lon":139.418449},{"name":"前田金属工業(株)","province":"東京都","city":"立川市","address":"立川市柴崎町6-19-28","lat":35.686832,"lon":139.409332},{"name":"高根商事(株)  富士見町支店","province":"東京都","city":"立川市","address":"立川市富士見町6-36-4","lat":35.692577,"lon":139.388947},{"name":"立川市清掃工場","province":"東京都","city":"立川市","address":"東京都立川市若葉町4丁目11","lat":35.72504,"lon":139.433701},{"name":"立川市新清掃工場","province":"東京都","city":"立川市","address":"東京都立川市泉町","lat":35.715893,"lon":139.404343},{"name":"立川市","province":"東京都","city":"立川市","address":"立川市泉町1156-9","lat":35.714002,"lon":139.407832},{"name":"立川市総合福祉センター","province":"東京都","city":"立川市","address":"東京都立川市富士見町2丁目36-47","lat":35.70118685,"lon":139.4018633},{"name":"水道局多摩水道立川庁舎","province":"東京都","city":"立川市","address":"東京都立川市緑町6-7","lat":35.70858351,"lon":139.41213163},{"name":"若葉図書館","province":"東京都","city":"立川市","address":"東京都立川市若葉町3丁目34-1","lat":35.72021344,"lon":139.43921515},{"name":"北多摩北部建設事務所","province":"東京都","city":"立川市","address":"立川市柴崎町2-15-19","lat":35.69497,"lon":139.4087},{"name":"多摩都市モノレール（株）","province":"東京都","city":"立川市","address":"立川市泉町1078-92","lat":35.71611,"lon":139.4094},{"name":"陸上自衛隊立川駐屯地","province":"東京都","city":"立川市","address":"立川市緑町5","lat":35.712357,"lon":139.402135},{"name":"陸上自衛隊東立川駐屯地","province":"東京都","city":"立川市","address":"立川市栄町1-2-10","lat":35.7052,"lon":139.4266},{"name":"警視庁多摩総合庁舎","province":"東京都","city":"立川市","address":"立川市緑町3280","lat":35.7065,"lon":139.4062},{"name":"第四機動隊","province":"東京都","city":"立川市","address":"立川市緑町3567","lat":35.7126,"lon":139.4064},{"name":"第八方面自動車警ら隊","province":"東京都","city":"立川市","address":"立川市緑町3280","lat":35.7065,"lon":139.4062},{"name":"第八方面交通機動隊","province":"東京都","city":"立川市","address":"立川市緑町3280","lat":35.7065,"lon":139.4062},{"name":"第八方面本部","province":"東京都","city":"立川市","address":"立川市緑町3280","lat":35.7065,"lon":139.4062},{"name":"立川警察署","province":"東京都","city":"立川市","address":"立川市緑町3233-2","lat":35.706271,"lon":139.407738},{"name":"立川消防署（東京消防庁多摩防災基地）","province":"東京都","city":"立川市","address":"立川市泉町1156-1","lat":35.71589,"lon":139.4062},{"name":"第八消防方面本部","province":"東京都","city":"立川市","address":"立川市泉町1156-1","lat":35.71589,"lon":139.4062},{"name":"第八方面訓練場","province":"東京都","city":"立川市","address":"立川市泉町1156-1","lat":35.71589,"lon":139.4062},{"name":"立川消防署","province":"東京都","city":"立川市","address":"立川市泉町1156-1","lat":35.71589,"lon":139.4062},{"name":"立川地域防災センター","province":"東京都","city":"立川市","address":"立川市緑町3233","lat":35.70627,"lon":139.4077},{"name":"市村酸素（株）","province":"東京都","city":"立川市","address":"立川市錦町2-11-5","lat":35.69225,"lon":139.4149},{"name":"東京都赤十字血液センター立川事業所","province":"東京都","city":"立川市","address":"立川市緑町3256","lat":35.70745,"lon":139.4092},{"name":"※立川地域防災センター","province":"東京都","city":"立川市","address":"立川市緑町3233","lat":35.70627,"lon":139.4077},{"name":"国立病院機構災害医療センターヘリポート","province":"東京都","city":"立川市","address":"立川市緑町3256","lat":35.70745,"lon":139.4092},{"name":"東日本電信電話（株）錦町別館ビル","province":"東京都","city":"立川市","address":"立川市錦町4-12-6","lat":35.69015,"lon":139.4198},{"name":"（株）ＮＴＴドコモドコモ立川","province":"東京都","city":"立川市","address":"立川市曙町3-18-55","lat":35.70053,"lon":139.4241},{"name":"ＮＴＴコミュニケーションズ（株）立川ビル","province":"東京都","city":"立川市","address":"立川市曙町3-3-26","lat":35.69944,"lon":139.4193},{"name":"東京電力（株）立川支社","province":"東京都","city":"立川市","address":"立川市緑町6-6","lat":35.70862,"lon":139.4115},{"name":"水道局多摩水道改革推進本部／立川給水管理事務所","province":"東京都","city":"立川市","address":"立川市緑町6-7","lat":35.7086,"lon":139.4122},{"name":"立川地域防災センター","province":"東京都","city":"立川市","address":"東京都立川市緑町3233","lat":35.70626977,"lon":139.40773762},{"name":"立川駅","province":"東京都","city":"立川市","address":"東京都立川市曙町2丁目1-1","lat":35.69811809,"lon":139.41402907},{"name":"※立川地域防災センター","province":"東京都","city":"立川市","address":"東京都立川市緑町3233","lat":35.70626977,"lon":139.40773762},{"name":"立川聖苑","province":"東京都","city":"立川市","address":"東京都立川市羽衣町3丁目20-18","lat":35.68886941,"lon":139.42420084},{"name":"まんまる助産院","province":"東京都","city":"立川市","address":"立川市若葉町2-1-1","lat":35.718989,"lon":139.439493},{"name":"立川相互病院","province":"東京都","city":"立川市","address":"立川市錦町1-16-15","lat":35.696666,"lon":139.422442},{"name":"立川らびっとくらぶ","province":"東京都","city":"立川市","address":"立川市幸町三丁目25番地1立川けやき台ハイツ1階","lat":35.722405,"lon":139.430171},{"name":"トライきっず・プロ","province":"東京都","city":"立川市","address":"立川市幸町1-10-6","lat":35.719996,"lon":139.422258},{"name":"こどもプラス立川幸町教室","province":"東京都","city":"立川市","address":"立川市幸町5-1-7フルミエールメゾン1階B","lat":35.723318,"lon":139.418386},{"name":"こぱんはうすさくら　立川幸町教室","province":"東京都","city":"立川市","address":"立川市幸町3-13-14矢島ビル1階","lat":35.720646,"lon":139.430252},{"name":"デイサービス事業　みんなの広場　１","province":"東京都","city":"立川市","address":"立川市栄町4-2-1ジュネスイトウ1階","lat":35.710745,"lon":139.423464},{"name":"スマイルJr","province":"東京都","city":"立川市","address":"立川市高松町3-25-10富士永ハイツ101","lat":35.701754,"lon":139.418376},{"name":"テイクオフ","province":"東京都","city":"立川市","address":"立川市高松町1-20-5","lat":35.709347,"lon":139.415695},{"name":"ジョブサＵ１８立川北口教室","province":"東京都","city":"立川市","address":"立川市曙町1-24-11橋本ビル7階","lat":35.700415,"lon":139.408838},{"name":"あにものいえ","province":"東京都","city":"立川市","address":"立川市羽衣町2-23-6","lat":35.694502,"lon":139.428589},{"name":"ゆいまーる","province":"東京都","city":"立川市","address":"立川市羽衣町1丁目6番10号小川ビル2階","lat":35.696324,"lon":139.423839},{"name":"ＬＩＴＡＬＩＣＯジュニア立川南口教室","province":"東京都","city":"立川市","address":"立川市柴崎町2-3-13エイティエイト立川デュオ2階","lat":35.696563,"lon":139.410807},{"name":"ドリームボックス立川","province":"東京都","city":"立川市","address":"立川市柴崎町5-8-1リバーサイドアプス1階","lat":35.689241,"lon":139.40123},{"name":"ジョブサＵ１８立川南口教室","province":"東京都","city":"立川市","address":"立川市柴崎町2-4-15ほまれ屋本社ビル201号室","lat":35.696849,"lon":139.409916},{"name":"デイサービス事業　みんなの広場　２","province":"東京都","city":"立川市","address":"立川市一番町3-17-11ローズシャトル2号館1階","lat":35.730344,"lon":139.378481},{"name":"児童デイサービス　サンフラワー","province":"東京都","city":"立川市","address":"立川市一番町5-1-5ネクサス立川1階","lat":35.73038,"lon":139.379831},{"name":"コーポ立川","province":"東京都","city":"立川市","address":"立川市錦町6-9-8","lat":35.688636,"lon":139.418079},{"name":"コーポ立川錦町","province":"東京都","city":"立川市","address":"立川市錦町6-2-5","lat":35.689736,"lon":139.418421},{"name":"立川第２荘","province":"東京都","city":"立川市","address":"立川市富士見町4-15-14","lat":35.694865,"lon":139.399303},{"name":"相互歯科","province":"東京都","city":"立川市","address":"立川市錦町1-17-10健生会歯科ビル","lat":35.696671,"lon":139.421801},{"name":"立川相互ふれあいクリニック","province":"東京都","city":"立川市","address":"立川市錦町1-23-4","lat":35.695991,"lon":139.422562},{"name":"立川相互病院","province":"東京都","city":"立川市","address":"立川市緑町4-1","lat":35.703626,"lon":139.413293},{"name":"立川第２荘","province":"東京都","city":"立川市","address":"立川市富士見町4-15-14","lat":35.69511,"lon":139.39961},{"name":"さくら立川ハウス","province":"東京都","city":"立川市","address":"立川市錦町6-9-8","lat":35.6885,"lon":139.41768},{"name":"さくら立川錦町ハウス","province":"東京都","city":"立川市","address":"立川市錦町6-2-5","lat":35.68947,"lon":139.41811},{"name":"中央図書館","province":"東京都","city":"立川市","address":"東京都立川市曙町2丁目36-2","lat":35.70254814,"lon":139.41413167},{"name":"柴崎図書館","province":"東京都","city":"立川市","address":"東京都立川市柴崎町2丁目20-5","lat":35.69442388,"lon":139.40761862},{"name":"上砂図書館","province":"東京都","city":"立川市","address":"東京都立川市上砂町1丁目13-1","lat":35.71998447,"lon":139.39214139},{"name":"幸図書館","province":"東京都","city":"立川市","address":"東京都立川市幸町5丁目83-1","lat":35.72562062,"lon":139.4184194},{"name":"西砂図書館","province":"東京都","city":"立川市","address":"東京都立川市西砂町6丁目12-10","lat":35.72957725,"lon":139.37204038},{"name":"多摩川図書館","province":"東京都","city":"立川市","address":"東京都立川市富士見町6丁目51-1","lat":35.69117668,"lon":139.39316442},{"name":"高松図書館","province":"東京都","city":"立川市","address":"東京都立川市高松町3丁目22-5","lat":35.70309543,"lon":139.41903683},{"name":"錦図書館","province":"東京都","city":"立川市","address":"東京都立川市錦町3丁目12-25","lat":35.69112448,"lon":139.4162264},{"name":"若葉図書館","province":"東京都","city":"立川市","address":"東京都立川市若葉町3丁目34-1","lat":35.72021344,"lon":139.43921515},{"name":"NewWork立川","province":"東京都","city":"立川市","address":"東京都立川市曙町1丁目27-10","lat":35.70001222,"lon":139.41070148},{"name":"柴崎給水所","province":"東京都","city":"立川市","address":"東京都立川市柴崎町1-1-41","lat":35.6968355,"lon":139.405944},{"name":"立川栄町浄水所","province":"東京都","city":"立川市","address":"東京都立川市栄町5-38-5","lat":35.7180059,"lon":139.424525},{"name":"立川砂川給水所","province":"東京都","city":"立川市","address":"東京都立川市砂川町6-41-1","lat":35.7299825,"lon":139.407448},{"name":"市立松中公園","province":"東京都","city":"立川市","address":"東京都立川市西砂町1-19-12","lat":35.72661,"lon":139.371352},{"name":"まんまる助産院","province":"東京都","city":"立川市","address":"立川市若葉町2-1-1","lat":35.71925,"lon":139.43961},{"name":"立川相互病院","province":"東京都","city":"立川市","address":"立川市錦町1-16-15","lat":35.69665,"lon":139.42239},{"name":"立川第２荘（２）","province":"東京都","city":"立川市","address":"立川市富士見町4-15-14","lat":35.69511,"lon":139.39961},{"name":"グランドール立川","province":"東京都","city":"立川市","address":"東京都立川市","lat":35.71401612,"lon":139.40784571},{"name":"グランドール立川２","province":"東京都","city":"立川市","address":"東京都立川市","lat":35.71401612,"lon":139.40784571},{"name":"立川市立川駅南口立体有料自転車駐車場","province":"東京都","city":"立川市","address":"東京都立川市錦町2丁目1-4","lat":35.69606557,"lon":139.41512073},{"name":"立川市立川駅南口第三有料自転車駐車場","province":"東京都","city":"立川市","address":"東京都立川市柴崎町2丁目5-16","lat":35.69780963,"lon":139.40852397},{"name":"立川市立川駅南口第四有料自転車駐車場","province":"東京都","city":"立川市","address":"東京都立川市柴崎町3丁目5-27","lat":35.69638494,"lon":139.41410413},{"name":"立川市立川駅南口第一タワー有料自転車駐車場","province":"東京都","city":"立川市","address":"東京都立川市錦町1丁目3-19","lat":35.6965322,"lon":139.41552346},{"name":"立川市立川駅南口第二タワー有料自転車駐車場","province":"東京都","city":"立川市","address":"東京都立川市柴崎町2丁目3-20","lat":35.69677094,"lon":139.41137656},{"name":"立川市立川駅西地下道有料自転車駐車場","province":"東京都","city":"立川市","address":"東京都立川市曙町1丁目1-33","lat":35.69820687,"lon":139.41025992},{"name":"立川市柴崎体育館駅臨時自転車等駐車場","province":"東京都","city":"立川市","address":"東京都立川市柴崎町6丁目13-3","lat":35.68963557,"lon":139.40890482},{"name":"立川市柴崎体育館駅下自転車仮置場","province":"東京都","city":"立川市","address":"東京都立川市柴崎町6丁目13","lat":35.68969944,"lon":139.40857984},{"name":"立川市立川駅北口第一有料自転車駐車場","province":"東京都","city":"立川市","address":"東京都立川市曙町2丁目36-2","lat":35.70254814,"lon":139.41413167},{"name":"立川市立川北駅西臨時有料自転車駐車場","province":"東京都","city":"立川市","address":"東京都立川市曙町1丁目32-1","lat":35.7003872,"lon":139.41146252},{"name":"立川市立川北駅下有料自転車駐車場","province":"東京都","city":"立川市","address":"東京都立川市曙町2丁目5-1","lat":35.69952623,"lon":139.41295966},{"name":"立川市泉体育館駅臨時自転車駐車場","province":"東京都","city":"立川市","address":"東京都立川市泉町786-11","lat":35.71897695,"lon":139.41870575},{"name":"立川市玉川上水駅第二自転車駐車場","province":"東京都","city":"立川市","address":"東京都立川市幸町6丁目3","lat":35.73100611,"lon":139.41833583},{"name":"立川市玉川上水駅臨時自転車駐車場","province":"東京都","city":"立川市","address":"東京都立川市幸町6丁目1","lat":35.73045896,"lon":139.41857749},{"name":"立川市武蔵砂川駅第一有料自転車等駐車場","province":"東京都","city":"立川市","address":"東京都立川市上砂町4丁目52-1","lat":35.72839746,"lon":139.39264115},{"name":"立川市西国立駅第三有料自転車駐車場","province":"東京都","city":"立川市","address":"東京都立川市羽衣町1丁目25-23","lat":35.6933328,"lon":139.42423954},{"name":"立川市西武立川駅北口有料自転車駐車場","province":"東京都","city":"立川市","address":"東京都立川市西砂町1丁目23-8","lat":35.72687195,"lon":139.3698684},{"name":"立川市高松駅下自転車仮置場","province":"東京都","city":"立川市","address":"東京都立川市高松町1丁目100","lat":35.70810864,"lon":139.41487588},{"name":"立川市立川駅南口臨時自転車駐車場","province":"東京都","city":"立川市","address":"東京都立川市柴崎町3丁目10","lat":35.69521838,"lon":139.41267652},{"name":"立川市高松駅自転車駐車場","province":"東京都","city":"立川市","address":"東京都立川市高松町1丁目22-20","lat":35.71078888,"lon":139.41428696},{"name":"立川市立川駅南口西有料自転車駐車場","province":"東京都","city":"立川市","address":"東京都立川市柴崎町2丁目1-5","lat":35.6975542,"lon":139.41165151},{"name":"立川市立川駅南口東臨時有料原動機付自転車駐車場","province":"東京都","city":"立川市","address":"東京都立川市錦町1丁目1-21","lat":35.69775431,"lon":139.41662055},{"name":"立川市砂川七番駅西自転車駐車場","province":"東京都","city":"立川市","address":"東京都立川市柏町3丁目1-4","lat":35.7236875,"lon":139.41781953},{"name":"立川市立川駅南口第二臨時有料自転車駐車場","province":"東京都","city":"立川市","address":"東京都立川市柴崎町3丁目10-21","lat":35.69477674,"lon":139.4121488},{"name":"立川市西武立川駅北口臨時有料路上自転車駐車場","province":"東京都","city":"立川市","address":"東京都立川市西砂町1丁目23","lat":35.72662754,"lon":139.36969065},{"name":"立川市コトリンク有料自転車等駐車場","province":"東京都","city":"立川市","address":"東京都立川市柴崎町3丁目9-2","lat":35.69548499,"lon":139.4119599},{"name":"立川市曙陸橋東有料自転車等駐車場","province":"東京都","city":"立川市","address":"東京都立川市曙町3丁目2-12","lat":35.69836265,"lon":139.41953974},{"name":"南部西ふじみ地域包括支援センター","province":"東京都","city":"立川市","address":"立川市富士見町2-36-47社会福祉協議会内","lat":35.70158,"lon":139.402008},{"name":"南部東はごろも地域包括支援センター","province":"東京都","city":"立川市","address":"立川市羽衣町1-12-18羽衣地域福祉サービスセンター内","lat":35.697369,"lon":139.425613},{"name":"中部たかまつ地域包括支援センター","province":"東京都","city":"立川市","address":"立川市高松町2-27-27TBK第2高松ビル105号","lat":35.704739,"lon":139.418625},{"name":"北部東わかば地域包括支援センター","province":"東京都","city":"立川市","address":"立川市若葉町3-45-2老人保健施設わかば内","lat":35.719658,"lon":139.441452},{"name":"北部中さいわい地域包括支援センター","province":"東京都","city":"立川市","address":"立川市幸町4-14-1至誠キートスホーム内","lat":35.724712,"lon":139.428299},{"name":"北部西かみすな地域包括支援センター","province":"東京都","city":"立川市","address":"立川市上砂町5-76-4砂川園内","lat":35.730007,"lon":139.389557},{"name":"にしき福祉相談センター","province":"東京都","city":"立川市","address":"立川市錦町6-28-15至誠ホーム内","lat":35.685169,"lon":139.416306},{"name":"かみすな福祉相談センター","province":"東京都","city":"立川市","address":"立川市上砂町1-13-1上砂地域福祉サービスセンター内","lat":35.720753,"lon":139.388092},{"name":"にしすな福祉相談センター","province":"東京都","city":"立川市","address":"立川市西砂町5-5-5西砂ホーム内","lat":35.731091,"lon":139.363205},{"name":"立川市見守りホットライン","province":"東京都","city":"立川市","address":"立川市泉町1156-9立川市役所","lat":35.715286,"lon":139.406281},{"name":"立川市役所","province":"東京都","city":"立川市","address":"立川市泉町1156-9","lat":35.715286,"lon":139.406281},{"name":"立川市消費生活センター","province":"東京都","city":"立川市","address":"立川市曙町2-36-2立川市女性総合センター5F","lat":35.701874,"lon":139.414169},{"name":"立川第２荘（2）","province":"東京都","city":"立川市","address":"立川市富士見町4-15-14","lat":35.69511,"lon":139.39961},{"name":"市民会館西","province":"東京都","city":"立川市","address":"東京都立川市錦町3丁目5-1","lat":35.69314932,"lon":139.41859835},{"name":"曙橋","province":"東京都","city":"立川市","address":"東京都立川市曙町2丁目8-3","lat":35.7005817,"lon":139.41420952},{"name":"柴崎町二丁目","province":"東京都","city":"立川市","address":"東京都立川市柴崎町2丁目9-19","lat":35.69700691,"lon":139.4069158},{"name":"立川富士見町交番前","province":"東京都","city":"立川市","address":"東京都立川市富士見町6丁目19-1","lat":35.6924793,"lon":139.39275329},{"name":"立川駅北口","province":"東京都","city":"立川市","address":"東京都立川市曙町2丁目12-1","lat":35.6992013,"lon":139.41435956},{"name":"立川駅北口西","province":"東京都","city":"立川市","address":"東京都立川市曙町2丁目4-6","lat":35.69877907,"lon":139.41217364},{"name":"立川至誠老人ホーム前","province":"東京都","city":"立川市","address":"東京都立川市錦町6丁目28-15","lat":35.68536958,"lon":139.41604886},{"name":"災害医療センター前","province":"東京都","city":"立川市","address":"東京都立川市緑町3173","lat":35.70335899,"lon":139.40788769},{"name":"立川富士見町二丁目第二","province":"東京都","city":"立川市","address":"東京都立川市富士見町2丁目22-19","lat":35.70014809,"lon":139.40231607},{"name":"砂川九番北","province":"東京都","city":"立川市","address":"東京都立川市若葉町3丁目3-3","lat":35.72272686,"lon":139.43276005},{"name":"立川合同庁舎前","province":"東京都","city":"立川市","address":"東京都立川市錦町4丁目6","lat":35.69183285,"lon":139.42034548},{"name":"立川七中北","province":"東京都","city":"立川市","address":"東京都立川市西砂町5丁目34","lat":35.73520154,"lon":139.36785154},{"name":"地域センター前","province":"東京都","city":"立川市","address":"東京都立川市西砂町6丁目12-4","lat":35.72923562,"lon":139.37218204},{"name":"立川健康会館西","province":"東京都","city":"立川市","address":"東京都立川市高松町2丁目1-11","lat":35.70487018,"lon":139.41724524},{"name":"立川病院東","province":"東京都","city":"立川市","address":"東京都立川市錦町4丁目4-5","lat":35.69160795,"lon":139.42296472},{"name":"第四機動隊北","province":"東京都","city":"立川市","address":"東京都立川市緑町3567","lat":35.7125968,"lon":139.40643755},{"name":"昭和記念公園あけぼの口","province":"東京都","city":"立川市","address":"東京都立川市曙町2丁目42-23","lat":35.70177873,"lon":139.41185409},{"name":"立川市役所","province":"東京都","city":"立川市","address":"東京都立川市泉町1156-9","lat":35.71399946,"lon":139.4078846},{"name":"モノレール基地脇","province":"東京都","city":"立川市","address":"東京都立川市泉町935-1","lat":35.71253317,"lon":139.4161173},{"name":"裁判所前","province":"東京都","city":"立川市","address":"東京都立川市緑町10-4","lat":35.71203865,"lon":139.41090941},{"name":"西武立川駅南口","province":"東京都","city":"立川市","address":"東京都立川市西砂町1丁目2-27","lat":35.72528883,"lon":139.37091001},{"name":"立川地域防災センター","province":"東京都","city":"立川市","address":"東京都立川市緑町3233-2","lat":35.70626977,"lon":139.40773762},{"name":"＊?立川市歴史民俗資料館","province":"東京都","city":"立川市","address":"立川市富士見町3-12-34","lat":35.696921,"lon":139.389952},{"name":"＊?川越道緑地古民家園","province":"東京都","city":"立川市","address":"立川市幸町4-65","lat":35.725468,"lon":139.426689},{"name":"＊?柴崎学習館","province":"東京都","city":"立川市","address":"立川市柴崎町1-1-43","lat":35.696668,"lon":139.406788},{"name":"＊?高松学習館","province":"東京都","city":"立川市","address":"立川市高松町3-22-5","lat":35.703007,"lon":139.419146},{"name":"＊?錦学習館","province":"東京都","city":"立川市","address":"立川市錦町3-12-25","lat":35.691166,"lon":139.416405},{"name":"＊?西砂学習館","province":"東京都","city":"立川市","address":"立川市西砂町6-12-10","lat":35.729611,"lon":139.372162},{"name":"＊?幸学習館","province":"東京都","city":"立川市","address":"立川市幸町2-1-3","lat":35.71924,"lon":139.423558},{"name":"＊?砂川学習館","province":"東京都","city":"立川市","address":"立川市砂川町1-52-7","lat":35.722836,"lon":139.403143},{"name":"＊?羽衣中央会館","province":"東京都","city":"立川市","address":"立川市羽衣町2-26-7","lat":35.694145,"lon":139.428577},{"name":"＊?滝ノ上会館","province":"東京都","city":"立川市","address":"立川市富士見町4-16-10","lat":35.695906,"lon":139.39902},{"name":"＊?高松会館","province":"東京都","city":"立川市","address":"立川市高松町2-25-26","lat":35.704184,"lon":139.420185},{"name":"＊?柴崎会館","province":"東京都","city":"立川市","address":"立川市柴崎町1-16-3","lat":35.692372,"lon":139.407383},{"name":"＊?さかえ会館","province":"東京都","city":"立川市","address":"立川市栄町4-6-2","lat":35.710967,"lon":139.424959},{"name":"＊?西砂会館","province":"東京都","city":"立川市","address":"立川市西砂町5-11-13","lat":35.73237,"lon":139.360661},{"name":"＊?天王橋会館","province":"東京都","city":"立川市","address":"立川市一番町3-6-1","lat":35.728235,"lon":139.381028},{"name":"＊?上砂会館","province":"東京都","city":"立川市","address":"立川市上砂町1-31-1","lat":35.720165,"lon":139.395635},{"name":"＊?若葉会館","province":"東京都","city":"立川市","address":"立川市若葉町3-34-1","lat":35.720211,"lon":139.439189},{"name":"＊?こんぴら橋会館","province":"東京都","city":"立川市","address":"立川市砂川町3-26-1","lat":35.727886,"lon":139.399503},{"name":"＊?こぶし会館","province":"東京都","city":"立川市","address":"立川市幸町5-83-1","lat":35.725742,"lon":139.418449},{"name":"前田金属工業(株)","province":"東京都","city":"立川市","address":"立川市柴崎町6-19-28","lat":35.686832,"lon":139.409332},{"name":"高根商事(株)  富士見町支店","province":"東京都","city":"立川市","address":"立川市富士見町6-36-4","lat":35.692577,"lon":139.388947},{"name":"立川市清掃工場","province":"東京都","city":"立川市","address":"東京都立川市若葉町4丁目11","lat":35.72504,"lon":139.433701},{"name":"立川市新清掃工場","province":"東京都","city":"立川市","address":"東京都立川市泉町","lat":35.715893,"lon":139.404343},{"name":"立川市総合福祉センター","province":"東京都","city":"立川市","address":"東京都立川市富士見町2丁目36-47","lat":35.70118685,"lon":139.4018633},{"name":"水道局多摩水道立川庁舎","province":"東京都","city":"立川市","address":"東京都立川市緑町6-7","lat":35.70858351,"lon":139.41213163},{"name":"若葉図書館","province":"東京都","city":"立川市","address":"東京都立川市若葉町3丁目34-1","lat":35.72021344,"lon":139.43921515},{"name":"北多摩北部建設事務所","province":"東京都","city":"立川市","address":"立川市柴崎町2-15-19","lat":35.69497,"lon":139.4087},{"name":"多摩都市モノレール（株）","province":"東京都","city":"立川市","address":"立川市泉町1078-92","lat":35.71611,"lon":139.4094},{"name":"東日本電信電話（株）錦町別館ビル","province":"東京都","city":"立川市","address":"立川市錦町4-12-6","lat":35.69015,"lon":139.4198},{"name":"（株）ＮＴＴドコモドコモ立川","province":"東京都","city":"立川市","address":"立川市曙町3-18-55","lat":35.70053,"lon":139.4241},{"name":"ＮＴＴコミュニケーションズ（株）立川ビル","province":"東京都","city":"立川市","address":"立川市曙町3-3-26","lat":35.69944,"lon":139.4193},{"name":"東京電力（株）立川支社","province":"東京都","city":"立川市","address":"立川市緑町6-6","lat":35.70862,"lon":139.4115},{"name":"水道局多摩水道改革推進本部／立川給水管理事務所","province":"東京都","city":"立川市","address":"立川市緑町6-7","lat":35.7086,"lon":139.4122},{"name":"立川地域防災センター","province":"東京都","city":"立川市","address":"東京都立川市緑町3233","lat":35.70626977,"lon":139.40773762},{"name":"立川駅","province":"東京都","city":"立川市","address":"東京都立川市曙町2丁目1-1","lat":35.69811809,"lon":139.41402907},{"name":"※立川地域防災センター","province":"東京都","city":"立川市","address":"東京都立川市緑町3233","lat":35.70626977,"lon":139.40773762},{"name":"立川聖苑","province":"東京都","city":"立川市","address":"東京都立川市羽衣町3丁目20-18","lat":35.68886941,"lon":139.42420084},{"name":"まんまる助産院","province":"東京都","city":"立川市","address":"立川市若葉町2-1-1","lat":35.718989,"lon":139.439493},{"name":"立川相互病院","province":"東京都","city":"立川市","address":"立川市錦町1-16-15","lat":35.696666,"lon":139.422442},{"name":"立川らびっとくらぶ","province":"東京都","city":"立川市","address":"立川市幸町三丁目25番地1立川けやき台ハイツ1階","lat":35.722405,"lon":139.430171},{"name":"トライきっず・プロ","province":"東京都","city":"立川市","address":"立川市幸町1-10-6","lat":35.719996,"lon":139.422258},{"name":"こどもプラス立川幸町教室","province":"東京都","city":"立川市","address":"立川市幸町5-1-7フルミエールメゾン1階B","lat":35.723318,"lon":139.418386},{"name":"こぱんはうすさくら　立川幸町教室","province":"東京都","city":"立川市","address":"立川市幸町3-13-14矢島ビル1階","lat":35.720646,"lon":139.430252},{"name":"デイサービス事業　みんなの広場　１","province":"東京都","city":"立川市","address":"立川市栄町4-2-1ジュネスイトウ1階","lat":35.710745,"lon":139.423464},{"name":"スマイルJr","province":"東京都","city":"立川市","address":"立川市高松町3-25-10富士永ハイツ101","lat":35.701754,"lon":139.418376},{"name":"テイクオフ","province":"東京都","city":"立川市","address":"立川市高松町1-20-5","lat":35.709347,"lon":139.415695},{"name":"ジョブサＵ１８立川北口教室","province":"東京都","city":"立川市","address":"立川市曙町1-24-11橋本ビル7階","lat":35.700415,"lon":139.408838},{"name":"あにものいえ","province":"東京都","city":"立川市","address":"立川市羽衣町2-23-6","lat":35.694502,"lon":139.428589},{"name":"ゆいまーる","province":"東京都","city":"立川市","address":"立川市羽衣町1丁目6番10号小川ビル2階","lat":35.696324,"lon":139.423839},{"name":"ＬＩＴＡＬＩＣＯジュニア立川南口教室","province":"東京都","city":"立川市","address":"立川市柴崎町2-3-13エイティエイト立川デュオ2階","lat":35.696563,"lon":139.410807},{"name":"ドリームボックス立川","province":"東京都","city":"立川市","address":"立川市柴崎町5-8-1リバーサイドアプス1階","lat":35.689241,"lon":139.40123},{"name":"ジョブサＵ１８立川南口教室","province":"東京都","city":"立川市","address":"立川市柴崎町2-4-15ほまれ屋本社ビル201号室","lat":35.696849,"lon":139.409916},{"name":"デイサービス事業　みんなの広場　２","province":"東京都","city":"立川市","address":"立川市一番町3-17-11ローズシャトル2号館1階","lat":35.730344,"lon":139.378481},{"name":"児童デイサービス　サンフラワー","province":"東京都","city":"立川市","address":"立川市一番町5-1-5ネクサス立川1階","lat":35.73038,"lon":139.379831},{"name":"コーポ立川","province":"東京都","city":"立川市","address":"立川市錦町6-9-8","lat":35.688636,"lon":139.418079},{"name":"コーポ立川錦町","province":"東京都","city":"立川市","address":"立川市錦町6-2-5","lat":35.689736,"lon":139.418421},{"name":"立川第２荘","province":"東京都","city":"立川市","address":"立川市富士見町4-15-14","lat":35.694865,"lon":139.399303},{"name":"相互歯科","province":"東京都","city":"立川市","address":"立川市錦町1-17-10健生会歯科ビル","lat":35.696671,"lon":139.421801},{"name":"立川相互ふれあいクリニック","province":"東京都","city":"立川市","address":"立川市錦町1-23-4","lat":35.695991,"lon":139.422562},{"name":"立川相互病院","province":"東京都","city":"立川市","address":"立川市緑町4-1","lat":35.703626,"lon":139.413293},{"name":"立川第２荘","province":"東京都","city":"立川市","address":"立川市富士見町4-15-14","lat":35.69511,"lon":139.39961},{"name":"さくら立川ハウス","province":"東京都","city":"立川市","address":"立川市錦町6-9-8","lat":35.6885,"lon":139.41768},{"name":"さくら立川錦町ハウス","province":"東京都","city":"立川市","address":"立川市錦町6-2-5","lat":35.68947,"lon":139.41811},{"name":"中央図書館","province":"東京都","city":"立川市","address":"東京都立川市曙町2丁目36-2","lat":35.70254814,"lon":139.41413167},{"name":"柴崎図書館","province":"東京都","city":"立川市","address":"東京都立川市柴崎町2丁目20-5","lat":35.69442388,"lon":139.40761862},{"name":"上砂図書館","province":"東京都","city":"立川市","address":"東京都立川市上砂町1丁目13-1","lat":35.71998447,"lon":139.39214139},{"name":"幸図書館","province":"東京都","city":"立川市","address":"東京都立川市幸町5丁目83-1","lat":35.72562062,"lon":139.4184194},{"name":"西砂図書館","province":"東京都","city":"立川市","address":"東京都立川市西砂町6丁目12-10","lat":35.72957725,"lon":139.37204038},{"name":"多摩川図書館","province":"東京都","city":"立川市","address":"東京都立川市富士見町6丁目51-1","lat":35.69117668,"lon":139.39316442},{"name":"高松図書館","province":"東京都","city":"立川市","address":"東京都立川市高松町3丁目22-5","lat":35.70309543,"lon":139.41903683},{"name":"錦図書館","province":"東京都","city":"立川市","address":"東京都立川市錦町3丁目12-25","lat":35.69112448,"lon":139.4162264},{"name":"若葉図書館","province":"東京都","city":"立川市","address":"東京都立川市若葉町3丁目34-1","lat":35.72021344,"lon":139.43921515},{"name":"NewWork立川","province":"東京都","city":"立川市","address":"東京都立川市曙町1丁目27-10","lat":35.70001222,"lon":139.41070148},{"name":"柴崎給水所","province":"東京都","city":"立川市","address":"東京都立川市柴崎町1-1-41","lat":35.6968355,"lon":139.405944},{"name":"立川栄町浄水所","province":"東京都","city":"立川市","address":"東京都立川市栄町5-38-5","lat":35.7180059,"lon":139.424525},{"name":"立川砂川給水所","province":"東京都","city":"立川市","address":"東京都立川市砂川町6-41-1","lat":35.7299825,"lon":139.407448},{"name":"市立松中公園","province":"東京都","city":"立川市","address":"東京都立川市西砂町1-19-12","lat":35.72661,"lon":139.371352},{"name":"まんまる助産院","province":"東京都","city":"立川市","address":"立川市若葉町2-1-1","lat":35.71925,"lon":139.43961},{"name":"立川相互病院","province":"東京都","city":"立川市","address":"立川市錦町1-16-15","lat":35.69665,"lon":139.42239},{"name":"立川第２荘（２）","province":"東京都","city":"立川市","address":"立川市富士見町4-15-14","lat":35.69511,"lon":139.39961},{"name":"グランドール立川","province":"東京都","city":"立川市","address":"東京都立川市","lat":35.71401612,"lon":139.40784571},{"name":"グランドール立川２","province":"東京都","city":"立川市","address":"東京都立川市","lat":35.71401612,"lon":139.40784571},{"name":"立川市立川駅南口立体有料自転車駐車場","province":"東京都","city":"立川市","address":"東京都立川市錦町2丁目1-4","lat":35.69606557,"lon":139.41512073},{"name":"立川市立川駅南口第三有料自転車駐車場","province":"東京都","city":"立川市","address":"東京都立川市柴崎町2丁目5-16","lat":35.69780963,"lon":139.40852397},{"name":"立川市立川駅南口第四有料自転車駐車場","province":"東京都","city":"立川市","address":"東京都立川市柴崎町3丁目5-27","lat":35.69638494,"lon":139.41410413},{"name":"立川市立川駅南口第一タワー有料自転車駐車場","province":"東京都","city":"立川市","address":"東京都立川市錦町1丁目3-19","lat":35.6965322,"lon":139.41552346},{"name":"立川市立川駅南口第二タワー有料自転車駐車場","province":"東京都","city":"立川市","address":"東京都立川市柴崎町2丁目3-20","lat":35.69677094,"lon":139.41137656},{"name":"立川市立川駅西地下道有料自転車駐車場","province":"東京都","city":"立川市","address":"東京都立川市曙町1丁目1-33","lat":35.69820687,"lon":139.41025992},{"name":"立川市柴崎体育館駅臨時自転車等駐車場","province":"東京都","city":"立川市","address":"東京都立川市柴崎町6丁目13-3","lat":35.68963557,"lon":139.40890482},{"name":"立川市柴崎体育館駅下自転車仮置場","province":"東京都","city":"立川市","address":"東京都立川市柴崎町6丁目13","lat":35.68969944,"lon":139.40857984},{"name":"立川市立川駅北口第一有料自転車駐車場","province":"東京都","city":"立川市","address":"東京都立川市曙町2丁目36-2","lat":35.70254814,"lon":139.41413167},{"name":"立川市立川北駅西臨時有料自転車駐車場","province":"東京都","city":"立川市","address":"東京都立川市曙町1丁目32-1","lat":35.7003872,"lon":139.41146252},{"name":"立川市立川北駅下有料自転車駐車場","province":"東京都","city":"立川市","address":"東京都立川市曙町2丁目5-1","lat":35.69952623,"lon":139.41295966},{"name":"立川市泉体育館駅臨時自転車駐車場","province":"東京都","city":"立川市","address":"東京都立川市泉町786-11","lat":35.71897695,"lon":139.41870575},{"name":"立川市玉川上水駅第二自転車駐車場","province":"東京都","city":"立川市","address":"東京都立川市幸町6丁目3","lat":35.73100611,"lon":139.41833583},{"name":"立川市玉川上水駅臨時自転車駐車場","province":"東京都","city":"立川市","address":"東京都立川市幸町6丁目1","lat":35.73045896,"lon":139.41857749},{"name":"立川市武蔵砂川駅第一有料自転車等駐車場","province":"東京都","city":"立川市","address":"東京都立川市上砂町4丁目52-1","lat":35.72839746,"lon":139.39264115},{"name":"立川市西国立駅第三有料自転車駐車場","province":"東京都","city":"立川市","address":"東京都立川市羽衣町1丁目25-23","lat":35.6933328,"lon":139.42423954},{"name":"立川市西武立川駅北口有料自転車駐車場","province":"東京都","city":"立川市","address":"東京都立川市西砂町1丁目23-8","lat":35.72687195,"lon":139.3698684},{"name":"立川市高松駅下自転車仮置場","province":"東京都","city":"立川市","address":"東京都立川市高松町1丁目100","lat":35.70810864,"lon":139.41487588},{"name":"立川市立川駅南口臨時自転車駐車場","province":"東京都","city":"立川市","address":"東京都立川市柴崎町3丁目10","lat":35.69521838,"lon":139.41267652},{"name":"立川市高松駅自転車駐車場","province":"東京都","city":"立川市","address":"東京都立川市高松町1丁目22-20","lat":35.71078888,"lon":139.41428696},{"name":"立川市立川駅南口西有料自転車駐車場","province":"東京都","city":"立川市","address":"東京都立川市柴崎町2丁目1-5","lat":35.6975542,"lon":139.41165151},{"name":"立川市立川駅南口東臨時有料原動機付自転車駐車場","province":"東京都","city":"立川市","address":"東京都立川市錦町1丁目1-21","lat":35.69775431,"lon":139.41662055},{"name":"立川市砂川七番駅西自転車駐車場","province":"東京都","city":"立川市","address":"東京都立川市柏町3丁目1-4","lat":35.7236875,"lon":139.41781953},{"name":"立川市立川駅南口第二臨時有料自転車駐車場","province":"東京都","city":"立川市","address":"東京都立川市柴崎町3丁目10-21","lat":35.69477674,"lon":139.4121488},{"name":"立川市西武立川駅北口臨時有料路上自転車駐車場","province":"東京都","city":"立川市","address":"東京都立川市西砂町1丁目23","lat":35.72662754,"lon":139.36969065},{"name":"立川市コトリンク有料自転車等駐車場","province":"東京都","city":"立川市","address":"東京都立川市柴崎町3丁目9-2","lat":35.69548499,"lon":139.4119599},{"name":"立川市曙陸橋東有料自転車等駐車場","province":"東京都","city":"立川市","address":"東京都立川市曙町3丁目2-12","lat":35.69836265,"lon":139.41953974},{"name":"立川第２荘（2）","province":"東京都","city":"立川市","address":"立川市富士見町4-15-14","lat":35.69511,"lon":139.39961},{"name":"市民会館西","province":"東京都","city":"立川市","address":"東京都立川市錦町3丁目5-1","lat":35.69314932,"lon":139.41859835},{"name":"曙橋","province":"東京都","city":"立川市","address":"東京都立川市曙町2丁目8-3","lat":35.7005817,"lon":139.41420952},{"name":"柴崎町二丁目","province":"東京都","city":"立川市","address":"東京都立川市柴崎町2丁目9-19","lat":35.69700691,"lon":139.4069158},{"name":"立川富士見町交番前","province":"東京都","city":"立川市","address":"東京都立川市富士見町6丁目19-1","lat":35.6924793,"lon":139.39275329},{"name":"立川駅北口","province":"東京都","city":"立川市","address":"東京都立川市曙町2丁目12-1","lat":35.6992013,"lon":139.41435956},{"name":"立川駅北口西","province":"東京都","city":"立川市","address":"東京都立川市曙町2丁目4-6","lat":35.69877907,"lon":139.41217364},{"name":"立川至誠老人ホーム前","province":"東京都","city":"立川市","address":"東京都立川市錦町6丁目28-15","lat":35.68536958,"lon":139.41604886},{"name":"災害医療センター前","province":"東京都","city":"立川市","address":"東京都立川市緑町3173","lat":35.70335899,"lon":139.40788769},{"name":"立川富士見町二丁目第二","province":"東京都","city":"立川市","address":"東京都立川市富士見町2丁目22-19","lat":35.70014809,"lon":139.40231607},{"name":"砂川九番北","province":"東京都","city":"立川市","address":"東京都立川市若葉町3丁目3-3","lat":35.72272686,"lon":139.43276005},{"name":"立川合同庁舎前","province":"東京都","city":"立川市","address":"東京都立川市錦町4丁目6","lat":35.69183285,"lon":139.42034548},{"name":"立川七中北","province":"東京都","city":"立川市","address":"東京都立川市西砂町5丁目34","lat":35.73520154,"lon":139.36785154},{"name":"地域センター前","province":"東京都","city":"立川市","address":"東京都立川市西砂町6丁目12-4","lat":35.72923562,"lon":139.37218204},{"name":"立川健康会館西","province":"東京都","city":"立川市","address":"東京都立川市高松町2丁目1-11","lat":35.70487018,"lon":139.41724524},{"name":"立川病院東","province":"東京都","city":"立川市","address":"東京都立川市錦町4丁目4-5","lat":35.69160795,"lon":139.42296472},{"name":"第四機動隊北","province":"東京都","city":"立川市","address":"東京都立川市緑町3567","lat":35.7125968,"lon":139.40643755},{"name":"昭和記念公園あけぼの口","province":"東京都","city":"立川市","address":"東京都立川市曙町2丁目42-23","lat":35.70177873,"lon":139.41185409},{"name":"立川市役所","province":"東京都","city":"立川市","address":"東京都立川市泉町1156-9","lat":35.71399946,"lon":139.4078846},{"name":"モノレール基地脇","province":"東京都","city":"立川市","address":"東京都立川市泉町935-1","lat":35.71253317,"lon":139.4161173},{"name":"裁判所前","province":"東京都","city":"立川市","address":"東京都立川市緑町10-4","lat":35.71203865,"lon":139.41090941},{"name":"西武立川駅南口","province":"東京都","city":"立川市","address":"東京都立川市西砂町1丁目2-27","lat":35.72528883,"lon":139.37091001},{"name":"立川地域防災センター","province":"東京都","city":"立川市","address":"東京都立川市緑町3233-2","lat":35.70626977,"lon":139.40773762},{"name":"＊?立川市歴史民俗資料館","province":"東京都","city":"立川市","address":"立川市富士見町3-12-34","lat":35.696921,"lon":139.389952},{"name":"＊?川越道緑地古民家園","province":"東京都","city":"立川市","address":"立川市幸町4-65","lat":35.725468,"lon":139.426689},{"name":"＊?柴崎学習館","province":"東京都","city":"立川市","address":"立川市柴崎町1-1-43","lat":35.696668,"lon":139.406788},{"name":"＊?高松学習館","province":"東京都","city":"立川市","address":"立川市高松町3-22-5","lat":35.703007,"lon":139.419146},{"name":"＊?錦学習館","province":"東京都","city":"立川市","address":"立川市錦町3-12-25","lat":35.691166,"lon":139.416405},{"name":"＊?西砂学習館","province":"東京都","city":"立川市","address":"立川市西砂町6-12-10","lat":35.729611,"lon":139.372162},{"name":"＊?幸学習館","province":"東京都","city":"立川市","address":"立川市幸町2-1-3","lat":35.71924,"lon":139.423558},{"name":"＊?砂川学習館","province":"東京都","city":"立川市","address":"立川市砂川町1-52-7","lat":35.722836,"lon":139.403143},{"name":"＊?羽衣中央会館","province":"東京都","city":"立川市","address":"立川市羽衣町2-26-7","lat":35.694145,"lon":139.428577},{"name":"＊?滝ノ上会館","province":"東京都","city":"立川市","address":"立川市富士見町4-16-10","lat":35.695906,"lon":139.39902},{"name":"＊?高松会館","province":"東京都","city":"立川市","address":"立川市高松町2-25-26","lat":35.704184,"lon":139.420185},{"name":"＊?柴崎会館","province":"東京都","city":"立川市","address":"立川市柴崎町1-16-3","lat":35.692372,"lon":139.407383},{"name":"＊?さかえ会館","province":"東京都","city":"立川市","address":"立川市栄町4-6-2","lat":35.710967,"lon":139.424959},{"name":"＊?西砂会館","province":"東京都","city":"立川市","address":"立川市西砂町5-11-13","lat":35.73237,"lon":139.360661},{"name":"＊?天王橋会館","province":"東京都","city":"立川市","address":"立川市一番町3-6-1","lat":35.728235,"lon":139.381028},{"name":"＊?上砂会館","province":"東京都","city":"立川市","address":"立川市上砂町1-31-1","lat":35.720165,"lon":139.395635},{"name":"＊?若葉会館","province":"東京都","city":"立川市","address":"立川市若葉町3-34-1","lat":35.720211,"lon":139.439189},{"name":"＊?こんぴら橋会館","province":"東京都","city":"立川市","address":"立川市砂川町3-26-1","lat":35.727886,"lon":139.399503},{"name":"＊?こぶし会館","province":"東京都","city":"立川市","address":"立川市幸町5-83-1","lat":35.725742,"lon":139.418449},{"name":"前田金属工業(株)","province":"東京都","city":"立川市","address":"立川市柴崎町6-19-28","lat":35.686832,"lon":139.409332},{"name":"高根商事(株)  富士見町支店","province":"東京都","city":"立川市","address":"立川市富士見町6-36-4","lat":35.692577,"lon":139.388947},{"name":"立川市清掃工場","province":"東京都","city":"立川市","address":"東京都立川市若葉町4丁目11","lat":35.72504,"lon":139.433701},{"name":"立川市新清掃工場","province":"東京都","city":"立川市","address":"東京都立川市泉町","lat":35.715893,"lon":139.404343},{"name":"立川市総合福祉センター","province":"東京都","city":"立川市","address":"東京都立川市富士見町2丁目36-47","lat":35.70118685,"lon":139.4018633},{"name":"水道局多摩水道立川庁舎","province":"東京都","city":"立川市","address":"東京都立川市緑町6-7","lat":35.70858351,"lon":139.41213163},{"name":"若葉図書館","province":"東京都","city":"立川市","address":"東京都立川市若葉町3丁目34-1","lat":35.72021344,"lon":139.43921515},{"name":"東京電力（株）立川支社","province":"東京都","city":"立川市","address":"立川市緑町6-6","lat":35.70862,"lon":139.4115},{"name":"水道局多摩水道改革推進本部／立川給水管理事務所","province":"東京都","city":"立川市","address":"立川市緑町6-7","lat":35.7086,"lon":139.4122},{"name":"立川地域防災センター","province":"東京都","city":"立川市","address":"東京都立川市緑町3233","lat":35.70626977,"lon":139.40773762},{"name":"立川駅","province":"東京都","city":"立川市","address":"東京都立川市曙町2丁目1-1","lat":35.69811809,"lon":139.41402907},{"name":"※立川地域防災センター","province":"東京都","city":"立川市","address":"東京都立川市緑町3233","lat":35.70626977,"lon":139.40773762},{"name":"立川聖苑","province":"東京都","city":"立川市","address":"東京都立川市羽衣町3丁目20-18","lat":35.68886941,"lon":139.42420084},{"name":"まんまる助産院","province":"東京都","city":"立川市","address":"立川市若葉町2-1-1","lat":35.718989,"lon":139.439493},{"name":"立川相互病院","province":"東京都","city":"立川市","address":"立川市錦町1-16-15","lat":35.696666,"lon":139.422442},{"name":"立川らびっとくらぶ","province":"東京都","city":"立川市","address":"立川市幸町三丁目25番地1立川けやき台ハイツ1階","lat":35.722405,"lon":139.430171},{"name":"トライきっず・プロ","province":"東京都","city":"立川市","address":"立川市幸町1-10-6","lat":35.719996,"lon":139.422258},{"name":"こどもプラス立川幸町教室","province":"東京都","city":"立川市","address":"立川市幸町5-1-7フルミエールメゾン1階B","lat":35.723318,"lon":139.418386},{"name":"こぱんはうすさくら　立川幸町教室","province":"東京都","city":"立川市","address":"立川市幸町3-13-14矢島ビル1階","lat":35.720646,"lon":139.430252},{"name":"デイサービス事業　みんなの広場　１","province":"東京都","city":"立川市","address":"立川市栄町4-2-1ジュネスイトウ1階","lat":35.710745,"lon":139.423464},{"name":"スマイルJr","province":"東京都","city":"立川市","address":"立川市高松町3-25-10富士永ハイツ101","lat":35.701754,"lon":139.418376},{"name":"テイクオフ","province":"東京都","city":"立川市","address":"立川市高松町1-20-5","lat":35.709347,"lon":139.415695},{"name":"ジョブサＵ１８立川北口教室","province":"東京都","city":"立川市","address":"立川市曙町1-24-11橋本ビル7階","lat":35.700415,"lon":139.408838},{"name":"あにものいえ","province":"東京都","city":"立川市","address":"立川市羽衣町2-23-6","lat":35.694502,"lon":139.428589},{"name":"ゆいまーる","province":"東京都","city":"立川市","address":"立川市羽衣町1丁目6番10号小川ビル2階","lat":35.696324,"lon":139.423839},{"name":"ＬＩＴＡＬＩＣＯジュニア立川南口教室","province":"東京都","city":"立川市","address":"立川市柴崎町2-3-13エイティエイト立川デュオ2階","lat":35.696563,"lon":139.410807},{"name":"ドリームボックス立川","province":"東京都","city":"立川市","address":"立川市柴崎町5-8-1リバーサイドアプス1階","lat":35.689241,"lon":139.40123},{"name":"ジョブサＵ１８立川南口教室","province":"東京都","city":"立川市","address":"立川市柴崎町2-4-15ほまれ屋本社ビル201号室","lat":35.696849,"lon":139.409916},{"name":"デイサービス事業　みんなの広場　２","province":"東京都","city":"立川市","address":"立川市一番町3-17-11ローズシャトル2号館1階","lat":35.730344,"lon":139.378481},{"name":"児童デイサービス　サンフラワー","province":"東京都","city":"立川市","address":"立川市一番町5-1-5ネクサス立川1階","lat":35.73038,"lon":139.379831},{"name":"コーポ立川","province":"東京都","city":"立川市","address":"立川市錦町6-9-8","lat":35.688636,"lon":139.418079},{"name":"コーポ立川錦町","province":"東京都","city":"立川市","address":"立川市錦町6-2-5","lat":35.689736,"lon":139.418421},{"name":"立川第２荘","province":"東京都","city":"立川市","address":"立川市富士見町4-15-14","lat":35.694865,"lon":139.399303},{"name":"相互歯科","province":"東京都","city":"立川市","address":"立川市錦町1-17-10健生会歯科ビル","lat":35.696671,"lon":139.421801},{"name":"立川相互ふれあいクリニック","province":"東京都","city":"立川市","address":"立川市錦町1-23-4","lat":35.695991,"lon":139.422562},{"name":"立川相互病院","province":"東京都","city":"立川市","address":"立川市緑町4-1","lat":35.703626,"lon":139.413293},{"name":"立川第２荘","province":"東京都","city":"立川市","address":"立川市富士見町4-15-14","lat":35.69511,"lon":139.39961},{"name":"さくら立川ハウス","province":"東京都","city":"立川市","address":"立川市錦町6-9-8","lat":35.6885,"lon":139.41768},{"name":"さくら立川錦町ハウス","province":"東京都","city":"立川市","address":"立川市錦町6-2-5","lat":35.68947,"lon":139.41811},{"name":"中央図書館","province":"東京都","city":"立川市","address":"東京都立川市曙町2丁目36-2","lat":35.70254814,"lon":139.41413167},{"name":"柴崎図書館","province":"東京都","city":"立川市","address":"東京都立川市柴崎町2丁目20-5","lat":35.69442388,"lon":139.40761862},{"name":"上砂図書館","province":"東京都","city":"立川市","address":"東京都立川市上砂町1丁目13-1","lat":35.71998447,"lon":139.39214139},{"name":"幸図書館","province":"東京都","city":"立川市","address":"東京都立川市幸町5丁目83-1","lat":35.72562062,"lon":139.4184194},{"name":"西砂図書館","province":"東京都","city":"立川市","address":"東京都立川市西砂町6丁目12-10","lat":35.72957725,"lon":139.37204038},{"name":"多摩川図書館","province":"東京都","city":"立川市","address":"東京都立川市富士見町6丁目51-1","lat":35.69117668,"lon":139.39316442},{"name":"高松図書館","province":"東京都","city":"立川市","address":"東京都立川市高松町3丁目22-5","lat":35.70309543,"lon":139.41903683},{"name":"錦図書館","province":"東京都","city":"立川市","address":"東京都立川市錦町3丁目12-25","lat":35.69112448,"lon":139.4162264},{"name":"若葉図書館","province":"東京都","city":"立川市","address":"東京都立川市若葉町3丁目34-1","lat":35.72021344,"lon":139.43921515},{"name":"NewWork立川","province":"東京都","city":"立川市","address":"東京都立川市曙町1丁目27-10","lat":35.70001222,"lon":139.41070148},{"name":"柴崎給水所","province":"東京都","city":"立川市","address":"東京都立川市柴崎町1-1-41","lat":35.6968355,"lon":139.405944},{"name":"立川栄町浄水所","province":"東京都","city":"立川市","address":"東京都立川市栄町5-38-5","lat":35.7180059,"lon":139.424525},{"name":"立川砂川給水所","province":"東京都","city":"立川市","address":"東京都立川市砂川町6-41-1","lat":35.7299825,"lon":139.407448},{"name":"市立松中公園","province":"東京都","city":"立川市","address":"東京都立川市西砂町1-19-12","lat":35.72661,"lon":139.371352},{"name":"まんまる助産院","province":"東京都","city":"立川市","address":"立川市若葉町2-1-1","lat":35.71925,"lon":139.43961},{"name":"立川相互病院","province":"東京都","city":"立川市","address":"立川市錦町1-16-15","lat":35.69665,"lon":139.42239},{"name":"立川第２荘（２）","province":"東京都","city":"立川市","address":"立川市富士見町4-15-14","lat":35.69511,"lon":139.39961},{"name":"グランドール立川","province":"東京都","city":"立川市","address":"東京都立川市","lat":35.71401612,"lon":139.40784571},{"name":"グランドール立川２","province":"東京都","city":"立川市","address":"東京都立川市","lat":35.71401612,"lon":139.40784571},{"name":"立川市立川駅南口立体有料自転車駐車場","province":"東京都","city":"立川市","address":"東京都立川市錦町2丁目1-4","lat":35.69606557,"lon":139.41512073},{"name":"立川市立川駅南口第三有料自転車駐車場","province":"東京都","city":"立川市","address":"東京都立川市柴崎町2丁目5-16","lat":35.69780963,"lon":139.40852397},{"name":"立川市立川駅南口第四有料自転車駐車場","province":"東京都","city":"立川市","address":"東京都立川市柴崎町3丁目5-27","lat":35.69638494,"lon":139.41410413},{"name":"立川市立川駅南口第一タワー有料自転車駐車場","province":"東京都","city":"立川市","address":"東京都立川市錦町1丁目3-19","lat":35.6965322,"lon":139.41552346},{"name":"立川市立川駅南口第二タワー有料自転車駐車場","province":"東京都","city":"立川市","address":"東京都立川市柴崎町2丁目3-20","lat":35.69677094,"lon":139.41137656},{"name":"立川市立川駅西地下道有料自転車駐車場","province":"東京都","city":"立川市","address":"東京都立川市曙町1丁目1-33","lat":35.69820687,"lon":139.41025992},{"name":"立川市柴崎体育館駅臨時自転車等駐車場","province":"東京都","city":"立川市","address":"東京都立川市柴崎町6丁目13-3","lat":35.68963557,"lon":139.40890482},{"name":"立川市柴崎体育館駅下自転車仮置場","province":"東京都","city":"立川市","address":"東京都立川市柴崎町6丁目13","lat":35.68969944,"lon":139.40857984},{"name":"立川市立川駅北口第一有料自転車駐車場","province":"東京都","city":"立川市","address":"東京都立川市曙町2丁目36-2","lat":35.70254814,"lon":139.41413167},{"name":"立川市立川北駅西臨時有料自転車駐車場","province":"東京都","city":"立川市","address":"東京都立川市曙町1丁目32-1","lat":35.7003872,"lon":139.41146252},{"name":"立川市立川北駅下有料自転車駐車場","province":"東京都","city":"立川市","address":"東京都立川市曙町2丁目5-1","lat":35.69952623,"lon":139.41295966},{"name":"立川市泉体育館駅臨時自転車駐車場","province":"東京都","city":"立川市","address":"東京都立川市泉町786-11","lat":35.71897695,"lon":139.41870575},{"name":"立川市玉川上水駅第二自転車駐車場","province":"東京都","city":"立川市","address":"東京都立川市幸町6丁目3","lat":35.73100611,"lon":139.41833583},{"name":"立川市玉川上水駅臨時自転車駐車場","province":"東京都","city":"立川市","address":"東京都立川市幸町6丁目1","lat":35.73045896,"lon":139.41857749},{"name":"立川市武蔵砂川駅第一有料自転車等駐車場","province":"東京都","city":"立川市","address":"東京都立川市上砂町4丁目52-1","lat":35.72839746,"lon":139.39264115},{"name":"立川市西国立駅第三有料自転車駐車場","province":"東京都","city":"立川市","address":"東京都立川市羽衣町1丁目25-23","lat":35.6933328,"lon":139.42423954},{"name":"立川市西武立川駅北口有料自転車駐車場","province":"東京都","city":"立川市","address":"東京都立川市西砂町1丁目23-8","lat":35.72687195,"lon":139.3698684},{"name":"立川市高松駅下自転車仮置場","province":"東京都","city":"立川市","address":"東京都立川市高松町1丁目100","lat":35.70810864,"lon":139.41487588},{"name":"立川市立川駅南口臨時自転車駐車場","province":"東京都","city":"立川市","address":"東京都立川市柴崎町3丁目10","lat":35.69521838,"lon":139.41267652},{"name":"立川市高松駅自転車駐車場","province":"東京都","city":"立川市","address":"東京都立川市高松町1丁目22-20","lat":35.71078888,"lon":139.41428696},{"name":"立川市立川駅南口西有料自転車駐車場","province":"東京都","city":"立川市","address":"東京都立川市柴崎町2丁目1-5","lat":35.6975542,"lon":139.41165151},{"name":"立川市立川駅南口東臨時有料原動機付自転車駐車場","province":"東京都","city":"立川市","address":"東京都立川市錦町1丁目1-21","lat":35.69775431,"lon":139.41662055},{"name":"立川市砂川七番駅西自転車駐車場","province":"東京都","city":"立川市","address":"東京都立川市柏町3丁目1-4","lat":35.7236875,"lon":139.41781953},{"name":"立川市立川駅南口第二臨時有料自転車駐車場","province":"東京都","city":"立川市","address":"東京都立川市柴崎町3丁目10-21","lat":35.69477674,"lon":139.4121488},{"name":"立川市西武立川駅北口臨時有料路上自転車駐車場","province":"東京都","city":"立川市","address":"東京都立川市西砂町1丁目23","lat":35.72662754,"lon":139.36969065},{"name":"立川市コトリンク有料自転車等駐車場","province":"東京都","city":"立川市","address":"東京都立川市柴崎町3丁目9-2","lat":35.69548499,"lon":139.4119599},{"name":"立川市曙陸橋東有料自転車等駐車場","province":"東京都","city":"立川市","address":"東京都立川市曙町3丁目2-12","lat":35.69836265,"lon":139.41953974},{"name":"立川第２荘（2）","province":"東京都","city":"立川市","address":"立川市富士見町4-15-14","lat":35.69511,"lon":139.39961},{"name":"市民会館西","province":"東京都","city":"立川市","address":"東京都立川市錦町3丁目5-1","lat":35.69314932,"lon":139.41859835},{"name":"曙橋","province":"東京都","city":"立川市","address":"東京都立川市曙町2丁目8-3","lat":35.7005817,"lon":139.41420952},{"name":"柴崎町二丁目","province":"東京都","city":"立川市","address":"東京都立川市柴崎町2丁目9-19","lat":35.69700691,"lon":139.4069158},{"name":"立川富士見町交番前","province":"東京都","city":"立川市","address":"東京都立川市富士見町6丁目19-1","lat":35.6924793,"lon":139.39275329},{"name":"立川駅北口","province":"東京都","city":"立川市","address":"東京都立川市曙町2丁目12-1","lat":35.6992013,"lon":139.41435956},{"name":"立川駅北口西","province":"東京都","city":"立川市","address":"東京都立川市曙町2丁目4-6","lat":35.69877907,"lon":139.41217364},{"name":"立川至誠老人ホーム前","province":"東京都","city":"立川市","address":"東京都立川市錦町6丁目28-15","lat":35.68536958,"lon":139.41604886},{"name":"災害医療センター前","province":"東京都","city":"立川市","address":"東京都立川市緑町3173","lat":35.70335899,"lon":139.40788769},{"name":"立川富士見町二丁目第二","province":"東京都","city":"立川市","address":"東京都立川市富士見町2丁目22-19","lat":35.70014809,"lon":139.40231607},{"name":"砂川九番北","province":"東京都","city":"立川市","address":"東京都立川市若葉町3丁目3-3","lat":35.72272686,"lon":139.43276005},{"name":"立川合同庁舎前","province":"東京都","city":"立川市","address":"東京都立川市錦町4丁目6","lat":35.69183285,"lon":139.42034548},{"name":"立川七中北","province":"東京都","city":"立川市","address":"東京都立川市西砂町5丁目34","lat":35.73520154,"lon":139.36785154},{"name":"地域センター前","province":"東京都","city":"立川市","address":"東京都立川市西砂町6丁目12-4","lat":35.72923562,"lon":139.37218204},{"name":"立川健康会館西","province":"東京都","city":"立川市","address":"東京都立川市高松町2丁目1-11","lat":35.70487018,"lon":139.41724524},{"name":"立川病院東","province":"東京都","city":"立川市","address":"東京都立川市錦町4丁目4-5","lat":35.69160795,"lon":139.42296472},{"name":"第四機動隊北","province":"東京都","city":"立川市","address":"東京都立川市緑町3567","lat":35.7125968,"lon":139.40643755},{"name":"昭和記念公園あけぼの口","province":"東京都","city":"立川市","address":"東京都立川市曙町2丁目42-23","lat":35.70177873,"lon":139.41185409},{"name":"立川市役所","province":"東京都","city":"立川市","address":"東京都立川市泉町1156-9","lat":35.71399946,"lon":139.4078846},{"name":"モノレール基地脇","province":"東京都","city":"立川市","address":"東京都立川市泉町935-1","lat":35.71253317,"lon":139.4161173},{"name":"裁判所前","province":"東京都","city":"立川市","address":"東京都立川市緑町10-4","lat":35.71203865,"lon":139.41090941},{"name":"西武立川駅南口","province":"東京都","city":"立川市","address":"東京都立川市西砂町1丁目2-27","lat":35.72528883,"lon":139.37091001},{"name":"立川地域防災センター","province":"東京都","city":"立川市","address":"東京都立川市緑町3233-2","lat":35.70626977,"lon":139.40773762},{"name":"＊?立川市歴史民俗資料館","province":"東京都","city":"立川市","address":"立川市富士見町3-12-34","lat":35.696921,"lon":139.389952},{"name":"＊?川越道緑地古民家園","province":"東京都","city":"立川市","address":"立川市幸町4-65","lat":35.725468,"lon":139.426689},{"name":"＊?柴崎学習館","province":"東京都","city":"立川市","address":"立川市柴崎町1-1-43","lat":35.696668,"lon":139.406788},{"name":"＊?高松学習館","province":"東京都","city":"立川市","address":"立川市高松町3-22-5","lat":35.703007,"lon":139.419146},{"name":"＊?錦学習館","province":"東京都","city":"立川市","address":"立川市錦町3-12-25","lat":35.691166,"lon":139.416405},{"name":"＊?西砂学習館","province":"東京都","city":"立川市","address":"立川市西砂町6-12-10","lat":35.729611,"lon":139.372162},{"name":"＊?幸学習館","province":"東京都","city":"立川市","address":"立川市幸町2-1-3","lat":35.71924,"lon":139.423558},{"name":"＊?砂川学習館","province":"東京都","city":"立川市","address":"立川市砂川町1-52-7","lat":35.722836,"lon":139.403143},{"name":"＊?羽衣中央会館","province":"東京都","city":"立川市","address":"立川市羽衣町2-26-7","lat":35.694145,"lon":139.428577},{"name":"＊?滝ノ上会館","province":"東京都","city":"立川市","address":"立川市富士見町4-16-10","lat":35.695906,"lon":139.39902},{"name":"＊?高松会館","province":"東京都","city":"立川市","address":"立川市高松町2-25-26","lat":35.704184,"lon":139.420185},{"name":"＊?柴崎会館","province":"東京都","city":"立川市","address":"立川市柴崎町1-16-3","lat":35.692372,"lon":139.407383},{"name":"＊?さかえ会館","province":"東京都","city":"立川市","address":"立川市栄町4-6-2","lat":35.710967,"lon":139.424959},{"name":"＊?西砂会館","province":"東京都","city":"立川市","address":"立川市西砂町5-11-13","lat":35.73237,"lon":139.360661},{"name":"＊?天王橋会館","province":"東京都","city":"立川市","address":"立川市一番町3-6-1","lat":35.728235,"lon":139.381028},{"name":"＊?上砂会館","province":"東京都","city":"立川市","address":"立川市上砂町1-31-1","lat":35.720165,"lon":139.395635},{"name":"＊?若葉会館","province":"東京都","city":"立川市","address":"立川市若葉町3-34-1","lat":35.720211,"lon":139.439189},{"name":"＊?こんぴら橋会館","province":"東京都","city":"立川市","address":"立川市砂川町3-26-1","lat":35.727886,"lon":139.399503},{"name":"＊?こぶし会館","province":"東京都","city":"立川市","address":"立川市幸町5-83-1","lat":35.725742,"lon":139.418449},{"name":"立川市清掃工場","province":"東京都","city":"立川市","address":"東京都立川市若葉町4丁目11","lat":35.72504,"lon":139.433701},{"name":"立川市新清掃工場","province":"東京都","city":"立川市","address":"東京都立川市泉町","lat":35.715893,"lon":139.404343},{"name":"立川市総合福祉センター","province":"東京都","city":"立川市","address":"東京都立川市富士見町2丁目36-47","lat":35.70118685,"lon":139.4018633},{"name":"水道局多摩水道立川庁舎","province":"東京都","city":"立川市","address":"東京都立川市緑町6-7","lat":35.70858351,"lon":139.41213163},{"name":"若葉図書館","province":"東京都","city":"立川市","address":"東京都立川市若葉町3丁目34-1","lat":35.72021344,"lon":139.43921515},{"name":"東京電力（株）立川支社","province":"東京都","city":"立川市","address":"立川市緑町6-6","lat":35.70862,"lon":139.4115},{"name":"水道局多摩水道改革推進本部／立川給水管理事務所","province":"東京都","city":"立川市","address":"立川市緑町6-7","lat":35.7086,"lon":139.4122},{"name":"立川地域防災センター","province":"東京都","city":"立川市","address":"東京都立川市緑町3233","lat":35.70626977,"lon":139.40773762},{"name":"立川駅","province":"東京都","city":"立川市","address":"東京都立川市曙町2丁目1-1","lat":35.69811809,"lon":139.41402907},{"name":"※立川地域防災センター","province":"東京都","city":"立川市","address":"東京都立川市緑町3233","lat":35.70626977,"lon":139.40773762},{"name":"立川聖苑","province":"東京都","city":"立川市","address":"東京都立川市羽衣町3丁目20-18","lat":35.68886941,"lon":139.42420084},{"name":"まんまる助産院","province":"東京都","city":"立川市","address":"立川市若葉町2-1-1","lat":35.718989,"lon":139.439493},{"name":"立川相互病院","province":"東京都","city":"立川市","address":"立川市錦町1-16-15","lat":35.696666,"lon":139.422442},{"name":"立川らびっとくらぶ","province":"東京都","city":"立川市","address":"立川市幸町三丁目25番地1立川けやき台ハイツ1階","lat":35.722405,"lon":139.430171},{"name":"トライきっず・プロ","province":"東京都","city":"立川市","address":"立川市幸町1-10-6","lat":35.719996,"lon":139.422258},{"name":"こどもプラス立川幸町教室","province":"東京都","city":"立川市","address":"立川市幸町5-1-7フルミエールメゾン1階B","lat":35.723318,"lon":139.418386},{"name":"こぱんはうすさくら　立川幸町教室","province":"東京都","city":"立川市","address":"立川市幸町3-13-14矢島ビル1階","lat":35.720646,"lon":139.430252},{"name":"デイサービス事業　みんなの広場　１","province":"東京都","city":"立川市","address":"立川市栄町4-2-1ジュネスイトウ1階","lat":35.710745,"lon":139.423464},{"name":"スマイルJr","province":"東京都","city":"立川市","address":"立川市高松町3-25-10富士永ハイツ101","lat":35.701754,"lon":139.418376},{"name":"テイクオフ","province":"東京都","city":"立川市","address":"立川市高松町1-20-5","lat":35.709347,"lon":139.415695},{"name":"ジョブサＵ１８立川北口教室","province":"東京都","city":"立川市","address":"立川市曙町1-24-11橋本ビル7階","lat":35.700415,"lon":139.408838},{"name":"あにものいえ","province":"東京都","city":"立川市","address":"立川市羽衣町2-23-6","lat":35.694502,"lon":139.428589},{"name":"ゆいまーる","province":"東京都","city":"立川市","address":"立川市羽衣町1丁目6番10号小川ビル2階","lat":35.696324,"lon":139.423839},{"name":"ＬＩＴＡＬＩＣＯジュニア立川南口教室","province":"東京都","city":"立川市","address":"立川市柴崎町2-3-13エイティエイト立川デュオ2階","lat":35.696563,"lon":139.410807},{"name":"ドリームボックス立川","province":"東京都","city":"立川市","address":"立川市柴崎町5-8-1リバーサイドアプス1階","lat":35.689241,"lon":139.40123},{"name":"ジョブサＵ１８立川南口教室","province":"東京都","city":"立川市","address":"立川市柴崎町2-4-15ほまれ屋本社ビル201号室","lat":35.696849,"lon":139.409916},{"name":"デイサービス事業　みんなの広場　２","province":"東京都","city":"立川市","address":"立川市一番町3-17-11ローズシャトル2号館1階","lat":35.730344,"lon":139.378481},{"name":"児童デイサービス　サンフラワー","province":"東京都","city":"立川市","address":"立川市一番町5-1-5ネクサス立川1階","lat":35.73038,"lon":139.379831},{"name":"コーポ立川","province":"東京都","city":"立川市","address":"立川市錦町6-9-8","lat":35.688636,"lon":139.418079},{"name":"コーポ立川錦町","province":"東京都","city":"立川市","address":"立川市錦町6-2-5","lat":35.689736,"lon":139.418421},{"name":"立川第２荘","province":"東京都","city":"立川市","address":"立川市富士見町4-15-14","lat":35.694865,"lon":139.399303},{"name":"相互歯科","province":"東京都","city":"立川市","address":"立川市錦町1-17-10健生会歯科ビル","lat":35.696671,"lon":139.421801},{"name":"立川相互ふれあいクリニック","province":"東京都","city":"立川市","address":"立川市錦町1-23-4","lat":35.695991,"lon":139.422562},{"name":"立川相互病院","province":"東京都","city":"立川市","address":"立川市緑町4-1","lat":35.703626,"lon":139.413293},{"name":"立川第２荘","province":"東京都","city":"立川市","address":"立川市富士見町4-15-14","lat":35.69511,"lon":139.39961},{"name":"さくら立川ハウス","province":"東京都","city":"立川市","address":"立川市錦町6-9-8","lat":35.6885,"lon":139.41768},{"name":"さくら立川錦町ハウス","province":"東京都","city":"立川市","address":"立川市錦町6-2-5","lat":35.68947,"lon":139.41811},{"name":"NewWork立川","province":"東京都","city":"立川市","address":"東京都立川市曙町1丁目27-10","lat":35.70001222,"lon":139.41070148},{"name":"柴崎給水所","province":"東京都","city":"立川市","address":"東京都立川市柴崎町1-1-41","lat":35.6968355,"lon":139.405944},{"name":"立川栄町浄水所","province":"東京都","city":"立川市","address":"東京都立川市栄町5-38-5","lat":35.7180059,"lon":139.424525},{"name":"立川砂川給水所","province":"東京都","city":"立川市","address":"東京都立川市砂川町6-41-1","lat":35.7299825,"lon":139.407448},{"name":"市立松中公園","province":"東京都","city":"立川市","address":"東京都立川市西砂町1-19-12","lat":35.72661,"lon":139.371352},{"name":"まんまる助産院","province":"東京都","city":"立川市","address":"立川市若葉町2-1-1","lat":35.71925,"lon":139.43961},{"name":"立川相互病院","province":"東京都","city":"立川市","address":"立川市錦町1-16-15","lat":35.69665,"lon":139.42239},{"name":"立川第２荘（２）","province":"東京都","city":"立川市","address":"立川市富士見町4-15-14","lat":35.69511,"lon":139.39961},{"name":"グランドール立川","province":"東京都","city":"立川市","address":"東京都立川市","lat":35.71401612,"lon":139.40784571},{"name":"グランドール立川２","province":"東京都","city":"立川市","address":"東京都立川市","lat":35.71401612,"lon":139.40784571},{"name":"立川市立川駅南口立体有料自転車駐車場","province":"東京都","city":"立川市","address":"東京都立川市錦町2丁目1-4","lat":35.69606557,"lon":139.41512073},{"name":"立川市立川駅南口第三有料自転車駐車場","province":"東京都","city":"立川市","address":"東京都立川市柴崎町2丁目5-16","lat":35.69780963,"lon":139.40852397},{"name":"立川市立川駅南口第四有料自転車駐車場","province":"東京都","city":"立川市","address":"東京都立川市柴崎町3丁目5-27","lat":35.69638494,"lon":139.41410413},{"name":"立川市立川駅南口第一タワー有料自転車駐車場","province":"東京都","city":"立川市","address":"東京都立川市錦町1丁目3-19","lat":35.6965322,"lon":139.41552346},{"name":"立川市立川駅南口第二タワー有料自転車駐車場","province":"東京都","city":"立川市","address":"東京都立川市柴崎町2丁目3-20","lat":35.69677094,"lon":139.41137656},{"name":"立川市立川駅西地下道有料自転車駐車場","province":"東京都","city":"立川市","address":"東京都立川市曙町1丁目1-33","lat":35.69820687,"lon":139.41025992},{"name":"立川市柴崎体育館駅臨時自転車等駐車場","province":"東京都","city":"立川市","address":"東京都立川市柴崎町6丁目13-3","lat":35.68963557,"lon":139.40890482},{"name":"立川市柴崎体育館駅下自転車仮置場","province":"東京都","city":"立川市","address":"東京都立川市柴崎町6丁目13","lat":35.68969944,"lon":139.40857984},{"name":"立川市立川駅北口第一有料自転車駐車場","province":"東京都","city":"立川市","address":"東京都立川市曙町2丁目36-2","lat":35.70254814,"lon":139.41413167},{"name":"立川市立川北駅西臨時有料自転車駐車場","province":"東京都","city":"立川市","address":"東京都立川市曙町1丁目32-1","lat":35.7003872,"lon":139.41146252},{"name":"立川市立川北駅下有料自転車駐車場","province":"東京都","city":"立川市","address":"東京都立川市曙町2丁目5-1","lat":35.69952623,"lon":139.41295966},{"name":"立川市泉体育館駅臨時自転車駐車場","province":"東京都","city":"立川市","address":"東京都立川市泉町786-11","lat":35.71897695,"lon":139.41870575},{"name":"立川市玉川上水駅第二自転車駐車場","province":"東京都","city":"立川市","address":"東京都立川市幸町6丁目3","lat":35.73100611,"lon":139.41833583},{"name":"立川市玉川上水駅臨時自転車駐車場","province":"東京都","city":"立川市","address":"東京都立川市幸町6丁目1","lat":35.73045896,"lon":139.41857749},{"name":"立川市武蔵砂川駅第一有料自転車等駐車場","province":"東京都","city":"立川市","address":"東京都立川市上砂町4丁目52-1","lat":35.72839746,"lon":139.39264115},{"name":"立川市西国立駅第三有料自転車駐車場","province":"東京都","city":"立川市","address":"東京都立川市羽衣町1丁目25-23","lat":35.6933328,"lon":139.42423954},{"name":"立川市西武立川駅北口有料自転車駐車場","province":"東京都","city":"立川市","address":"東京都立川市西砂町1丁目23-8","lat":35.72687195,"lon":139.3698684},{"name":"立川市高松駅下自転車仮置場","province":"東京都","city":"立川市","address":"東京都立川市高松町1丁目100","lat":35.70810864,"lon":139.41487588},{"name":"立川市立川駅南口臨時自転車駐車場","province":"東京都","city":"立川市","address":"東京都立川市柴崎町3丁目10","lat":35.69521838,"lon":139.41267652},{"name":"立川市高松駅自転車駐車場","province":"東京都","city":"立川市","address":"東京都立川市高松町1丁目22-20","lat":35.71078888,"lon":139.41428696},{"name":"立川市立川駅南口西有料自転車駐車場","province":"東京都","city":"立川市","address":"東京都立川市柴崎町2丁目1-5","lat":35.6975542,"lon":139.41165151},{"name":"立川市立川駅南口東臨時有料原動機付自転車駐車場","province":"東京都","city":"立川市","address":"東京都立川市錦町1丁目1-21","lat":35.69775431,"lon":139.41662055},{"name":"立川市砂川七番駅西自転車駐車場","province":"東京都","city":"立川市","address":"東京都立川市柏町3丁目1-4","lat":35.7236875,"lon":139.41781953},{"name":"立川市立川駅南口第二臨時有料自転車駐車場","province":"東京都","city":"立川市","address":"東京都立川市柴崎町3丁目10-21","lat":35.69477674,"lon":139.4121488},{"name":"立川市西武立川駅北口臨時有料路上自転車駐車場","province":"東京都","city":"立川市","address":"東京都立川市西砂町1丁目23","lat":35.72662754,"lon":139.36969065},{"name":"立川市コトリンク有料自転車等駐車場","province":"東京都","city":"立川市","address":"東京都立川市柴崎町3丁目9-2","lat":35.69548499,"lon":139.4119599},{"name":"立川市曙陸橋東有料自転車等駐車場","province":"東京都","city":"立川市","address":"東京都立川市曙町3丁目2-12","lat":35.69836265,"lon":139.41953974},{"name":"立川第２荘（2）","province":"東京都","city":"立川市","address":"立川市富士見町4-15-14","lat":35.69511,"lon":139.39961},{"name":"市民会館西","province":"東京都","city":"立川市","address":"東京都立川市錦町3丁目5-1","lat":35.69314932,"lon":139.41859835},{"name":"曙橋","province":"東京都","city":"立川市","address":"東京都立川市曙町2丁目8-3","lat":35.7005817,"lon":139.41420952},{"name":"柴崎町二丁目","province":"東京都","city":"立川市","address":"東京都立川市柴崎町2丁目9-19","lat":35.69700691,"lon":139.4069158},{"name":"立川富士見町交番前","province":"東京都","city":"立川市","address":"東京都立川市富士見町6丁目19-1","lat":35.6924793,"lon":139.39275329},{"name":"立川駅北口","province":"東京都","city":"立川市","address":"東京都立川市曙町2丁目12-1","lat":35.6992013,"lon":139.41435956},{"name":"立川駅北口西","province":"東京都","city":"立川市","address":"東京都立川市曙町2丁目4-6","lat":35.69877907,"lon":139.41217364},{"name":"立川至誠老人ホーム前","province":"東京都","city":"立川市","address":"東京都立川市錦町6丁目28-15","lat":35.68536958,"lon":139.41604886},{"name":"災害医療センター前","province":"東京都","city":"立川市","address":"東京都立川市緑町3173","lat":35.70335899,"lon":139.40788769},{"name":"立川富士見町二丁目第二","province":"東京都","city":"立川市","address":"東京都立川市富士見町2丁目22-19","lat":35.70014809,"lon":139.40231607},{"name":"砂川九番北","province":"東京都","city":"立川市","address":"東京都立川市若葉町3丁目3-3","lat":35.72272686,"lon":139.43276005},{"name":"立川合同庁舎前","province":"東京都","city":"立川市","address":"東京都立川市錦町4丁目6","lat":35.69183285,"lon":139.42034548},{"name":"立川七中北","province":"東京都","city":"立川市","address":"東京都立川市西砂町5丁目34","lat":35.73520154,"lon":139.36785154},{"name":"地域センター前","province":"東京都","city":"立川市","address":"東京都立川市西砂町6丁目12-4","lat":35.72923562,"lon":139.37218204},{"name":"立川健康会館西","province":"東京都","city":"立川市","address":"東京都立川市高松町2丁目1-11","lat":35.70487018,"lon":139.41724524},{"name":"立川病院東","province":"東京都","city":"立川市","address":"東京都立川市錦町4丁目4-5","lat":35.69160795,"lon":139.42296472},{"name":"第四機動隊北","province":"東京都","city":"立川市","address":"東京都立川市緑町3567","lat":35.7125968,"lon":139.40643755},{"name":"昭和記念公園あけぼの口","province":"東京都","city":"立川市","address":"東京都立川市曙町2丁目42-23","lat":35.70177873,"lon":139.41185409},{"name":"立川市役所","province":"東京都","city":"立川市","address":"東京都立川市泉町1156-9","lat":35.71399946,"lon":139.4078846},{"name":"モノレール基地脇","province":"東京都","city":"立川市","address":"東京都立川市泉町935-1","lat":35.71253317,"lon":139.4161173},{"name":"裁判所前","province":"東京都","city":"立川市","address":"東京都立川市緑町10-4","lat":35.71203865,"lon":139.41090941},{"name":"西武立川駅南口","province":"東京都","city":"立川市","address":"東京都立川市西砂町1丁目2-27","lat":35.72528883,"lon":139.37091001},{"name":"立川地域防災センター","province":"東京都","city":"立川市","address":"東京都立川市緑町3233-2","lat":35.70626977,"lon":139.40773762},{"name":"＊?柴崎学習館","province":"東京都","city":"立川市","address":"立川市柴崎町1-1-43","lat":35.696668,"lon":139.406788},{"name":"＊?高松学習館","province":"東京都","city":"立川市","address":"立川市高松町3-22-5","lat":35.703007,"lon":139.419146},{"name":"＊?錦学習館","province":"東京都","city":"立川市","address":"立川市錦町3-12-25","lat":35.691166,"lon":139.416405},{"name":"＊?西砂学習館","province":"東京都","city":"立川市","address":"立川市西砂町6-12-10","lat":35.729611,"lon":139.372162},{"name":"＊?幸学習館","province":"東京都","city":"立川市","address":"立川市幸町2-1-3","lat":35.71924,"lon":139.423558},{"name":"＊?砂川学習館","province":"東京都","city":"立川市","address":"立川市砂川町1-52-7","lat":35.722836,"lon":139.403143},{"name":"＊?羽衣中央会館","province":"東京都","city":"立川市","address":"立川市羽衣町2-26-7","lat":35.694145,"lon":139.428577},{"name":"＊?滝ノ上会館","province":"東京都","city":"立川市","address":"立川市富士見町4-16-10","lat":35.695906,"lon":139.39902},{"name":"＊?高松会館","province":"東京都","city":"立川市","address":"立川市高松町2-25-26","lat":35.704184,"lon":139.420185},{"name":"＊?柴崎会館","province":"東京都","city":"立川市","address":"立川市柴崎町1-16-3","lat":35.692372,"lon":139.407383},{"name":"＊?さかえ会館","province":"東京都","city":"立川市","address":"立川市栄町4-6-2","lat":35.710967,"lon":139.424959},{"name":"＊?西砂会館","province":"東京都","city":"立川市","address":"立川市西砂町5-11-13","lat":35.73237,"lon":139.360661},{"name":"＊?天王橋会館","province":"東京都","city":"立川市","address":"立川市一番町3-6-1","lat":35.728235,"lon":139.381028},{"name":"＊?上砂会館","province":"東京都","city":"立川市","address":"立川市上砂町1-31-1","lat":35.720165,"lon":139.395635},{"name":"＊?若葉会館","province":"東京都","city":"立川市","address":"立川市若葉町3-34-1","lat":35.720211,"lon":139.439189},{"name":"＊?こんぴら橋会館","province":"東京都","city":"立川市","address":"立川市砂川町3-26-1","lat":35.727886,"lon":139.399503},{"name":"＊?こぶし会館","province":"東京都","city":"立川市","address":"立川市幸町5-83-1","lat":35.725742,"lon":139.418449},{"name":"立川市清掃工場","province":"東京都","city":"立川市","address":"東京都立川市若葉町4丁目11","lat":35.72504,"lon":139.433701},{"name":"立川市新清掃工場","province":"東京都","city":"立川市","address":"東京都立川市泉町","lat":35.715893,"lon":139.404343},{"name":"立川市総合福祉センター","province":"東京都","city":"立川市","address":"東京都立川市富士見町2丁目36-47","lat":35.70118685,"lon":139.4018633},{"name":"水道局多摩水道立川庁舎","province":"東京都","city":"立川市","address":"東京都立川市緑町6-7","lat":35.70858351,"lon":139.41213163},{"name":"若葉図書館","province":"東京都","city":"立川市","address":"東京都立川市若葉町3丁目34-1","lat":35.72021344,"lon":139.43921515},{"name":"まんまる助産院","province":"東京都","city":"立川市","address":"立川市若葉町2-1-1","lat":35.718989,"lon":139.439493},{"name":"立川相互病院","province":"東京都","city":"立川市","address":"立川市錦町1-16-15","lat":35.696666,"lon":139.422442},{"name":"立川らびっとくらぶ","province":"東京都","city":"立川市","address":"立川市幸町三丁目25番地1立川けやき台ハイツ1階","lat":35.722405,"lon":139.430171},{"name":"トライきっず・プロ","province":"東京都","city":"立川市","address":"立川市幸町1-10-6","lat":35.719996,"lon":139.422258},{"name":"こどもプラス立川幸町教室","province":"東京都","city":"立川市","address":"立川市幸町5-1-7フルミエールメゾン1階B","lat":35.723318,"lon":139.418386},{"name":"こぱんはうすさくら　立川幸町教室","province":"東京都","city":"立川市","address":"立川市幸町3-13-14矢島ビル1階","lat":35.720646,"lon":139.430252},{"name":"デイサービス事業　みんなの広場　１","province":"東京都","city":"立川市","address":"立川市栄町4-2-1ジュネスイトウ1階","lat":35.710745,"lon":139.423464},{"name":"スマイルJr","province":"東京都","city":"立川市","address":"立川市高松町3-25-10富士永ハイツ101","lat":35.701754,"lon":139.418376},{"name":"テイクオフ","province":"東京都","city":"立川市","address":"立川市高松町1-20-5","lat":35.709347,"lon":139.415695},{"name":"ジョブサＵ１８立川北口教室","province":"東京都","city":"立川市","address":"立川市曙町1-24-11橋本ビル7階","lat":35.700415,"lon":139.408838},{"name":"あにものいえ","province":"東京都","city":"立川市","address":"立川市羽衣町2-23-6","lat":35.694502,"lon":139.428589},{"name":"ゆいまーる","province":"東京都","city":"立川市","address":"立川市羽衣町1丁目6番10号小川ビル2階","lat":35.696324,"lon":139.423839},{"name":"ＬＩＴＡＬＩＣＯジュニア立川南口教室","province":"東京都","city":"立川市","address":"立川市柴崎町2-3-13エイティエイト立川デュオ2階","lat":35.696563,"lon":139.410807},{"name":"ドリームボックス立川","province":"東京都","city":"立川市","address":"立川市柴崎町5-8-1リバーサイドアプス1階","lat":35.689241,"lon":139.40123},{"name":"ジョブサＵ１８立川南口教室","province":"東京都","city":"立川市","address":"立川市柴崎町2-4-15ほまれ屋本社ビル201号室","lat":35.696849,"lon":139.409916},{"name":"デイサービス事業　みんなの広場　２","province":"東京都","city":"立川市","address":"立川市一番町3-17-11ローズシャトル2号館1階","lat":35.730344,"lon":139.378481},{"name":"児童デイサービス　サンフラワー","province":"東京都","city":"立川市","address":"立川市一番町5-1-5ネクサス立川1階","lat":35.73038,"lon":139.379831},{"name":"コーポ立川","province":"東京都","city":"立川市","address":"立川市錦町6-9-8","lat":35.688636,"lon":139.418079},{"name":"コーポ立川錦町","province":"東京都","city":"立川市","address":"立川市錦町6-2-5","lat":35.689736,"lon":139.418421},{"name":"立川第２荘","province":"東京都","city":"立川市","address":"立川市富士見町4-15-14","lat":35.694865,"lon":139.399303},{"name":"相互歯科","province":"東京都","city":"立川市","address":"立川市錦町1-17-10健生会歯科ビル","lat":35.696671,"lon":139.421801},{"name":"立川相互ふれあいクリニック","province":"東京都","city":"立川市","address":"立川市錦町1-23-4","lat":35.695991,"lon":139.422562},{"name":"立川相互病院","province":"東京都","city":"立川市","address":"立川市緑町4-1","lat":35.703626,"lon":139.413293},{"name":"立川第２荘","province":"東京都","city":"立川市","address":"立川市富士見町4-15-14","lat":35.69511,"lon":139.39961},{"name":"さくら立川ハウス","province":"東京都","city":"立川市","address":"立川市錦町6-9-8","lat":35.6885,"lon":139.41768},{"name":"さくら立川錦町ハウス","province":"東京都","city":"立川市","address":"立川市錦町6-2-5","lat":35.68947,"lon":139.41811},{"name":"NewWork立川","province":"東京都","city":"立川市","address":"東京都立川市曙町1丁目27-10","lat":35.70001222,"lon":139.41070148},{"name":"柴崎給水所","province":"東京都","city":"立川市","address":"東京都立川市柴崎町1-1-41","lat":35.6968355,"lon":139.405944},{"name":"立川栄町浄水所","province":"東京都","city":"立川市","address":"東京都立川市栄町5-38-5","lat":35.7180059,"lon":139.424525},{"name":"立川砂川給水所","province":"東京都","city":"立川市","address":"東京都立川市砂川町6-41-1","lat":35.7299825,"lon":139.407448},{"name":"市立松中公園","province":"東京都","city":"立川市","address":"東京都立川市西砂町1-19-12","lat":35.72661,"lon":139.371352},{"name":"まんまる助産院","province":"東京都","city":"立川市","address":"立川市若葉町2-1-1","lat":35.71925,"lon":139.43961},{"name":"立川相互病院","province":"東京都","city":"立川市","address":"立川市錦町1-16-15","lat":35.69665,"lon":139.42239},{"name":"立川第２荘（２）","province":"東京都","city":"立川市","address":"立川市富士見町4-15-14","lat":35.69511,"lon":139.39961},{"name":"グランドール立川","province":"東京都","city":"立川市","address":"東京都立川市","lat":35.71401612,"lon":139.40784571},{"name":"グランドール立川２","province":"東京都","city":"立川市","address":"東京都立川市","lat":35.71401612,"lon":139.40784571},{"name":"立川市立川駅南口立体有料自転車駐車場","province":"東京都","city":"立川市","address":"東京都立川市錦町2丁目1-4","lat":35.69606557,"lon":139.41512073},{"name":"立川市立川駅南口第三有料自転車駐車場","province":"東京都","city":"立川市","address":"東京都立川市柴崎町2丁目5-16","lat":35.69780963,"lon":139.40852397},{"name":"立川市立川駅南口第四有料自転車駐車場","province":"東京都","city":"立川市","address":"東京都立川市柴崎町3丁目5-27","lat":35.69638494,"lon":139.41410413},{"name":"立川市立川駅南口第一タワー有料自転車駐車場","province":"東京都","city":"立川市","address":"東京都立川市錦町1丁目3-19","lat":35.6965322,"lon":139.41552346},{"name":"立川市立川駅南口第二タワー有料自転車駐車場","province":"東京都","city":"立川市","address":"東京都立川市柴崎町2丁目3-20","lat":35.69677094,"lon":139.41137656},{"name":"立川市立川駅西地下道有料自転車駐車場","province":"東京都","city":"立川市","address":"東京都立川市曙町1丁目1-33","lat":35.69820687,"lon":139.41025992},{"name":"立川市柴崎体育館駅臨時自転車等駐車場","province":"東京都","city":"立川市","address":"東京都立川市柴崎町6丁目13-3","lat":35.68963557,"lon":139.40890482},{"name":"立川市柴崎体育館駅下自転車仮置場","province":"東京都","city":"立川市","address":"東京都立川市柴崎町6丁目13","lat":35.68969944,"lon":139.40857984},{"name":"立川市立川駅北口第一有料自転車駐車場","province":"東京都","city":"立川市","address":"東京都立川市曙町2丁目36-2","lat":35.70254814,"lon":139.41413167},{"name":"立川市立川北駅西臨時有料自転車駐車場","province":"東京都","city":"立川市","address":"東京都立川市曙町1丁目32-1","lat":35.7003872,"lon":139.41146252},{"name":"立川市立川北駅下有料自転車駐車場","province":"東京都","city":"立川市","address":"東京都立川市曙町2丁目5-1","lat":35.69952623,"lon":139.41295966},{"name":"立川市泉体育館駅臨時自転車駐車場","province":"東京都","city":"立川市","address":"東京都立川市泉町786-11","lat":35.71897695,"lon":139.41870575},{"name":"立川市玉川上水駅第二自転車駐車場","province":"東京都","city":"立川市","address":"東京都立川市幸町6丁目3","lat":35.73100611,"lon":139.41833583},{"name":"立川市玉川上水駅臨時自転車駐車場","province":"東京都","city":"立川市","address":"東京都立川市幸町6丁目1","lat":35.73045896,"lon":139.41857749},{"name":"立川市武蔵砂川駅第一有料自転車等駐車場","province":"東京都","city":"立川市","address":"東京都立川市上砂町4丁目52-1","lat":35.72839746,"lon":139.39264115},{"name":"立川市西国立駅第三有料自転車駐車場","province":"東京都","city":"立川市","address":"東京都立川市羽衣町1丁目25-23","lat":35.6933328,"lon":139.42423954},{"name":"立川市西武立川駅北口有料自転車駐車場","province":"東京都","city":"立川市","address":"東京都立川市西砂町1丁目23-8","lat":35.72687195,"lon":139.3698684},{"name":"立川市高松駅下自転車仮置場","province":"東京都","city":"立川市","address":"東京都立川市高松町1丁目100","lat":35.70810864,"lon":139.41487588},{"name":"立川市立川駅南口臨時自転車駐車場","province":"東京都","city":"立川市","address":"東京都立川市柴崎町3丁目10","lat":35.69521838,"lon":139.41267652},{"name":"立川市高松駅自転車駐車場","province":"東京都","city":"立川市","address":"東京都立川市高松町1丁目22-20","lat":35.71078888,"lon":139.41428696},{"name":"立川市立川駅南口西有料自転車駐車場","province":"東京都","city":"立川市","address":"東京都立川市柴崎町2丁目1-5","lat":35.6975542,"lon":139.41165151},{"name":"立川市立川駅南口東臨時有料原動機付自転車駐車場","province":"東京都","city":"立川市","address":"東京都立川市錦町1丁目1-21","lat":35.69775431,"lon":139.41662055},{"name":"立川市砂川七番駅西自転車駐車場","province":"東京都","city":"立川市","address":"東京都立川市柏町3丁目1-4","lat":35.7236875,"lon":139.41781953},{"name":"立川市立川駅南口第二臨時有料自転車駐車場","province":"東京都","city":"立川市","address":"東京都立川市柴崎町3丁目10-21","lat":35.69477674,"lon":139.4121488},{"name":"立川市西武立川駅北口臨時有料路上自転車駐車場","province":"東京都","city":"立川市","address":"東京都立川市西砂町1丁目23","lat":35.72662754,"lon":139.36969065},{"name":"立川市コトリンク有料自転車等駐車場","province":"東京都","city":"立川市","address":"東京都立川市柴崎町3丁目9-2","lat":35.69548499,"lon":139.4119599},{"name":"立川市曙陸橋東有料自転車等駐車場","province":"東京都","city":"立川市","address":"東京都立川市曙町3丁目2-12","lat":35.69836265,"lon":139.41953974},{"name":"立川第２荘（2）","province":"東京都","city":"立川市","address":"立川市富士見町4-15-14","lat":35.69511,"lon":139.39961},{"name":"市民会館西","province":"東京都","city":"立川市","address":"東京都立川市錦町3丁目5-1","lat":35.69314932,"lon":139.41859835},{"name":"曙橋","province":"東京都","city":"立川市","address":"東京都立川市曙町2丁目8-3","lat":35.7005817,"lon":139.41420952},{"name":"柴崎町二丁目","province":"東京都","city":"立川市","address":"東京都立川市柴崎町2丁目9-19","lat":35.69700691,"lon":139.4069158},{"name":"立川富士見町交番前","province":"東京都","city":"立川市","address":"東京都立川市富士見町6丁目19-1","lat":35.6924793,"lon":139.39275329},{"name":"立川駅北口","province":"東京都","city":"立川市","address":"東京都立川市曙町2丁目12-1","lat":35.6992013,"lon":139.41435956},{"name":"立川駅北口西","province":"東京都","city":"立川市","address":"東京都立川市曙町2丁目4-6","lat":35.69877907,"lon":139.41217364},{"name":"立川至誠老人ホーム前","province":"東京都","city":"立川市","address":"東京都立川市錦町6丁目28-15","lat":35.68536958,"lon":139.41604886},{"name":"災害医療センター前","province":"東京都","city":"立川市","address":"東京都立川市緑町3173","lat":35.70335899,"lon":139.40788769},{"name":"立川富士見町二丁目第二","province":"東京都","city":"立川市","address":"東京都立川市富士見町2丁目22-19","lat":35.70014809,"lon":139.40231607},{"name":"砂川九番北","province":"東京都","city":"立川市","address":"東京都立川市若葉町3丁目3-3","lat":35.72272686,"lon":139.43276005},{"name":"立川合同庁舎前","province":"東京都","city":"立川市","address":"東京都立川市錦町4丁目6","lat":35.69183285,"lon":139.42034548},{"name":"立川七中北","province":"東京都","city":"立川市","address":"東京都立川市西砂町5丁目34","lat":35.73520154,"lon":139.36785154},{"name":"地域センター前","province":"東京都","city":"立川市","address":"東京都立川市西砂町6丁目12-4","lat":35.72923562,"lon":139.37218204},{"name":"立川健康会館西","province":"東京都","city":"立川市","address":"東京都立川市高松町2丁目1-11","lat":35.70487018,"lon":139.41724524},{"name":"立川病院東","province":"東京都","city":"立川市","address":"東京都立川市錦町4丁目4-5","lat":35.69160795,"lon":139.42296472},{"name":"第四機動隊北","province":"東京都","city":"立川市","address":"東京都立川市緑町3567","lat":35.7125968,"lon":139.40643755},{"name":"昭和記念公園あけぼの口","province":"東京都","city":"立川市","address":"東京都立川市曙町2丁目42-23","lat":35.70177873,"lon":139.41185409},{"name":"立川市役所","province":"東京都","city":"立川市","address":"東京都立川市泉町1156-9","lat":35.71399946,"lon":139.4078846},{"name":"モノレール基地脇","province":"東京都","city":"立川市","address":"東京都立川市泉町935-1","lat":35.71253317,"lon":139.4161173},{"name":"裁判所前","province":"東京都","city":"立川市","address":"東京都立川市緑町10-4","lat":35.71203865,"lon":139.41090941},{"name":"西武立川駅南口","province":"東京都","city":"立川市","address":"東京都立川市西砂町1丁目2-27","lat":35.72528883,"lon":139.37091001},{"name":"立川市清掃工場","province":"東京都","city":"立川市","address":"東京都立川市若葉町4丁目11","lat":35.72504,"lon":139.433701},{"name":"立川市新清掃工場","province":"東京都","city":"立川市","address":"東京都立川市泉町","lat":35.715893,"lon":139.404343},{"name":"立川市総合福祉センター","province":"東京都","city":"立川市","address":"東京都立川市富士見町2丁目36-47","lat":35.70118685,"lon":139.4018633},{"name":"水道局多摩水道立川庁舎","province":"東京都","city":"立川市","address":"東京都立川市緑町6-7","lat":35.70858351,"lon":139.41213163},{"name":"若葉図書館","province":"東京都","city":"立川市","address":"東京都立川市若葉町3丁目34-1","lat":35.72021344,"lon":139.43921515},{"name":"まんまる助産院","province":"東京都","city":"立川市","address":"立川市若葉町2-1-1","lat":35.718989,"lon":139.439493},{"name":"立川相互病院","province":"東京都","city":"立川市","address":"立川市錦町1-16-15","lat":35.696666,"lon":139.422442},{"name":"コーポ立川","province":"東京都","city":"立川市","address":"立川市錦町6-9-8","lat":35.688636,"lon":139.418079},{"name":"コーポ立川錦町","province":"東京都","city":"立川市","address":"立川市錦町6-2-5","lat":35.689736,"lon":139.418421},{"name":"立川第２荘","province":"東京都","city":"立川市","address":"立川市富士見町4-15-14","lat":35.694865,"lon":139.399303},{"name":"相互歯科","province":"東京都","city":"立川市","address":"立川市錦町1-17-10健生会歯科ビル","lat":35.696671,"lon":139.421801},{"name":"立川相互ふれあいクリニック","province":"東京都","city":"立川市","address":"立川市錦町1-23-4","lat":35.695991,"lon":139.422562},{"name":"立川相互病院","province":"東京都","city":"立川市","address":"立川市緑町4-1","lat":35.703626,"lon":139.413293},{"name":"立川第２荘","province":"東京都","city":"立川市","address":"立川市富士見町4-15-14","lat":35.69511,"lon":139.39961},{"name":"さくら立川ハウス","province":"東京都","city":"立川市","address":"立川市錦町6-9-8","lat":35.6885,"lon":139.41768},{"name":"さくら立川錦町ハウス","province":"東京都","city":"立川市","address":"立川市錦町6-2-5","lat":35.68947,"lon":139.41811},{"name":"NewWork立川","province":"東京都","city":"立川市","address":"東京都立川市曙町1丁目27-10","lat":35.70001222,"lon":139.41070148},{"name":"柴崎給水所","province":"東京都","city":"立川市","address":"東京都立川市柴崎町1-1-41","lat":35.6968355,"lon":139.405944},{"name":"立川栄町浄水所","province":"東京都","city":"立川市","address":"東京都立川市栄町5-38-5","lat":35.7180059,"lon":139.424525},{"name":"立川砂川給水所","province":"東京都","city":"立川市","address":"東京都立川市砂川町6-41-1","lat":35.7299825,"lon":139.407448},{"name":"市立松中公園","province":"東京都","city":"立川市","address":"東京都立川市西砂町1-19-12","lat":35.72661,"lon":139.371352},{"name":"まんまる助産院","province":"東京都","city":"立川市","address":"立川市若葉町2-1-1","lat":35.71925,"lon":139.43961},{"name":"立川相互病院","province":"東京都","city":"立川市","address":"立川市錦町1-16-15","lat":35.69665,"lon":139.42239},{"name":"立川第２荘（２）","province":"東京都","city":"立川市","address":"立川市富士見町4-15-14","lat":35.69511,"lon":139.39961},{"name":"グランドール立川","province":"東京都","city":"立川市","address":"東京都立川市","lat":35.71401612,"lon":139.40784571},{"name":"グランドール立川２","province":"東京都","city":"立川市","address":"東京都立川市","lat":35.71401612,"lon":139.40784571},{"name":"立川市立川駅南口立体有料自転車駐車場","province":"東京都","city":"立川市","address":"東京都立川市錦町2丁目1-4","lat":35.69606557,"lon":139.41512073},{"name":"立川市立川駅南口第三有料自転車駐車場","province":"東京都","city":"立川市","address":"東京都立川市柴崎町2丁目5-16","lat":35.69780963,"lon":139.40852397},{"name":"立川市立川駅南口第四有料自転車駐車場","province":"東京都","city":"立川市","address":"東京都立川市柴崎町3丁目5-27","lat":35.69638494,"lon":139.41410413},{"name":"立川市立川駅南口第一タワー有料自転車駐車場","province":"東京都","city":"立川市","address":"東京都立川市錦町1丁目3-19","lat":35.6965322,"lon":139.41552346},{"name":"立川市立川駅南口第二タワー有料自転車駐車場","province":"東京都","city":"立川市","address":"東京都立川市柴崎町2丁目3-20","lat":35.69677094,"lon":139.41137656},{"name":"立川市立川駅西地下道有料自転車駐車場","province":"東京都","city":"立川市","address":"東京都立川市曙町1丁目1-33","lat":35.69820687,"lon":139.41025992},{"name":"立川市柴崎体育館駅臨時自転車等駐車場","province":"東京都","city":"立川市","address":"東京都立川市柴崎町6丁目13-3","lat":35.68963557,"lon":139.40890482},{"name":"立川市柴崎体育館駅下自転車仮置場","province":"東京都","city":"立川市","address":"東京都立川市柴崎町6丁目13","lat":35.68969944,"lon":139.40857984},{"name":"立川市立川駅北口第一有料自転車駐車場","province":"東京都","city":"立川市","address":"東京都立川市曙町2丁目36-2","lat":35.70254814,"lon":139.41413167},{"name":"立川市立川北駅西臨時有料自転車駐車場","province":"東京都","city":"立川市","address":"東京都立川市曙町1丁目32-1","lat":35.7003872,"lon":139.41146252},{"name":"立川市立川北駅下有料自転車駐車場","province":"東京都","city":"立川市","address":"東京都立川市曙町2丁目5-1","lat":35.69952623,"lon":139.41295966},{"name":"立川市泉体育館駅臨時自転車駐車場","province":"東京都","city":"立川市","address":"東京都立川市泉町786-11","lat":35.71897695,"lon":139.41870575},{"name":"立川市玉川上水駅第二自転車駐車場","province":"東京都","city":"立川市","address":"東京都立川市幸町6丁目3","lat":35.73100611,"lon":139.41833583},{"name":"立川市玉川上水駅臨時自転車駐車場","province":"東京都","city":"立川市","address":"東京都立川市幸町6丁目1","lat":35.73045896,"lon":139.41857749},{"name":"立川市武蔵砂川駅第一有料自転車等駐車場","province":"東京都","city":"立川市","address":"東京都立川市上砂町4丁目52-1","lat":35.72839746,"lon":139.39264115},{"name":"立川市西国立駅第三有料自転車駐車場","province":"東京都","city":"立川市","address":"東京都立川市羽衣町1丁目25-23","lat":35.6933328,"lon":139.42423954},{"name":"立川市西武立川駅北口有料自転車駐車場","province":"東京都","city":"立川市","address":"東京都立川市西砂町1丁目23-8","lat":35.72687195,"lon":139.3698684},{"name":"立川市高松駅下自転車仮置場","province":"東京都","city":"立川市","address":"東京都立川市高松町1丁目100","lat":35.70810864,"lon":139.41487588},{"name":"立川市立川駅南口臨時自転車駐車場","province":"東京都","city":"立川市","address":"東京都立川市柴崎町3丁目10","lat":35.69521838,"lon":139.41267652},{"name":"立川市高松駅自転車駐車場","province":"東京都","city":"立川市","address":"東京都立川市高松町1丁目22-20","lat":35.71078888,"lon":139.41428696},{"name":"立川市立川駅南口西有料自転車駐車場","province":"東京都","city":"立川市","address":"東京都立川市柴崎町2丁目1-5","lat":35.6975542,"lon":139.41165151},{"name":"立川市立川駅南口東臨時有料原動機付自転車駐車場","province":"東京都","city":"立川市","address":"東京都立川市錦町1丁目1-21","lat":35.69775431,"lon":139.41662055},{"name":"立川市砂川七番駅西自転車駐車場","province":"東京都","city":"立川市","address":"東京都立川市柏町3丁目1-4","lat":35.7236875,"lon":139.41781953},{"name":"立川市立川駅南口第二臨時有料自転車駐車場","province":"東京都","city":"立川市","address":"東京都立川市柴崎町3丁目10-21","lat":35.69477674,"lon":139.4121488},{"name":"立川市西武立川駅北口臨時有料路上自転車駐車場","province":"東京都","city":"立川市","address":"東京都立川市西砂町1丁目23","lat":35.72662754,"lon":139.36969065},{"name":"立川市コトリンク有料自転車等駐車場","province":"東京都","city":"立川市","address":"東京都立川市柴崎町3丁目9-2","lat":35.69548499,"lon":139.4119599},{"name":"立川市曙陸橋東有料自転車等駐車場","province":"東京都","city":"立川市","address":"東京都立川市曙町3丁目2-12","lat":35.69836265,"lon":139.41953974},{"name":"立川第２荘（2）","province":"東京都","city":"立川市","address":"立川市富士見町4-15-14","lat":35.69511,"lon":139.39961},{"name":"立川市清掃工場","province":"東京都","city":"立川市","address":"東京都立川市若葉町4丁目11","lat":35.72504,"lon":139.433701},{"name":"立川市新清掃工場","province":"東京都","city":"立川市","address":"東京都立川市泉町","lat":35.715893,"lon":139.404343},{"name":"立川市総合福祉センター","province":"東京都","city":"立川市","address":"東京都立川市富士見町2丁目36-47","lat":35.70118685,"lon":139.4018633},{"name":"水道局多摩水道立川庁舎","province":"東京都","city":"立川市","address":"東京都立川市緑町6-7","lat":35.70858351,"lon":139.41213163},{"name":"若葉図書館","province":"東京都","city":"立川市","address":"東京都立川市若葉町3丁目34-1","lat":35.72021344,"lon":139.43921515},{"name":"まんまる助産院","province":"東京都","city":"立川市","address":"立川市若葉町2-1-1","lat":35.718989,"lon":139.439493},{"name":"立川相互病院","province":"東京都","city":"立川市","address":"立川市錦町1-16-15","lat":35.696666,"lon":139.422442},{"name":"コーポ立川","province":"東京都","city":"立川市","address":"立川市錦町6-9-8","lat":35.688636,"lon":139.418079},{"name":"コーポ立川錦町","province":"東京都","city":"立川市","address":"立川市錦町6-2-5","lat":35.689736,"lon":139.418421},{"name":"立川第２荘","province":"東京都","city":"立川市","address":"立川市富士見町4-15-14","lat":35.694865,"lon":139.399303},{"name":"相互歯科","province":"東京都","city":"立川市","address":"立川市錦町1-17-10健生会歯科ビル","lat":35.696671,"lon":139.421801},{"name":"立川相互ふれあいクリニック","province":"東京都","city":"立川市","address":"立川市錦町1-23-4","lat":35.695991,"lon":139.422562},{"name":"立川相互病院","province":"東京都","city":"立川市","address":"立川市緑町4-1","lat":35.703626,"lon":139.413293},{"name":"立川第２荘","province":"東京都","city":"立川市","address":"立川市富士見町4-15-14","lat":35.69511,"lon":139.39961},{"name":"さくら立川ハウス","province":"東京都","city":"立川市","address":"立川市錦町6-9-8","lat":35.6885,"lon":139.41768},{"name":"さくら立川錦町ハウス","province":"東京都","city":"立川市","address":"立川市錦町6-2-5","lat":35.68947,"lon":139.41811},{"name":"NewWork立川","province":"東京都","city":"立川市","address":"東京都立川市曙町1丁目27-10","lat":35.70001222,"lon":139.41070148},{"name":"柴崎給水所","province":"東京都","city":"立川市","address":"東京都立川市柴崎町1-1-41","lat":35.6968355,"lon":139.405944},{"name":"立川栄町浄水所","province":"東京都","city":"立川市","address":"東京都立川市栄町5-38-5","lat":35.7180059,"lon":139.424525},{"name":"立川砂川給水所","province":"東京都","city":"立川市","address":"東京都立川市砂川町6-41-1","lat":35.7299825,"lon":139.407448},{"name":"市立松中公園","province":"東京都","city":"立川市","address":"東京都立川市西砂町1-19-12","lat":35.72661,"lon":139.371352},{"name":"まんまる助産院","province":"東京都","city":"立川市","address":"立川市若葉町2-1-1","lat":35.71925,"lon":139.43961},{"name":"立川相互病院","province":"東京都","city":"立川市","address":"立川市錦町1-16-15","lat":35.69665,"lon":139.42239},{"name":"立川第２荘（２）","province":"東京都","city":"立川市","address":"立川市富士見町4-15-14","lat":35.69511,"lon":139.39961},{"name":"グランドール立川","province":"東京都","city":"立川市","address":"東京都立川市","lat":35.71401612,"lon":139.40784571},{"name":"グランドール立川２","province":"東京都","city":"立川市","address":"東京都立川市","lat":35.71401612,"lon":139.40784571},{"name":"立川市立川駅南口立体有料自転車駐車場","province":"東京都","city":"立川市","address":"東京都立川市錦町2丁目1-4","lat":35.69606557,"lon":139.41512073},{"name":"立川市立川駅南口第三有料自転車駐車場","province":"東京都","city":"立川市","address":"東京都立川市柴崎町2丁目5-16","lat":35.69780963,"lon":139.40852397},{"name":"立川市立川駅南口第四有料自転車駐車場","province":"東京都","city":"立川市","address":"東京都立川市柴崎町3丁目5-27","lat":35.69638494,"lon":139.41410413},{"name":"立川市立川駅南口第一タワー有料自転車駐車場","province":"東京都","city":"立川市","address":"東京都立川市錦町1丁目3-19","lat":35.6965322,"lon":139.41552346},{"name":"立川市立川駅南口第二タワー有料自転車駐車場","province":"東京都","city":"立川市","address":"東京都立川市柴崎町2丁目3-20","lat":35.69677094,"lon":139.41137656},{"name":"立川市立川駅西地下道有料自転車駐車場","province":"東京都","city":"立川市","address":"東京都立川市曙町1丁目1-33","lat":35.69820687,"lon":139.41025992},{"name":"立川市柴崎体育館駅臨時自転車等駐車場","province":"東京都","city":"立川市","address":"東京都立川市柴崎町6丁目13-3","lat":35.68963557,"lon":139.40890482},{"name":"立川市柴崎体育館駅下自転車仮置場","province":"東京都","city":"立川市","address":"東京都立川市柴崎町6丁目13","lat":35.68969944,"lon":139.40857984},{"name":"立川市立川駅北口第一有料自転車駐車場","province":"東京都","city":"立川市","address":"東京都立川市曙町2丁目36-2","lat":35.70254814,"lon":139.41413167},{"name":"立川市立川北駅西臨時有料自転車駐車場","province":"東京都","city":"立川市","address":"東京都立川市曙町1丁目32-1","lat":35.7003872,"lon":139.41146252},{"name":"立川市立川北駅下有料自転車駐車場","province":"東京都","city":"立川市","address":"東京都立川市曙町2丁目5-1","lat":35.69952623,"lon":139.41295966},{"name":"立川市泉体育館駅臨時自転車駐車場","province":"東京都","city":"立川市","address":"東京都立川市泉町786-11","lat":35.71897695,"lon":139.41870575},{"name":"立川市玉川上水駅第二自転車駐車場","province":"東京都","city":"立川市","address":"東京都立川市幸町6丁目3","lat":35.73100611,"lon":139.41833583},{"name":"立川市玉川上水駅臨時自転車駐車場","province":"東京都","city":"立川市","address":"東京都立川市幸町6丁目1","lat":35.73045896,"lon":139.41857749},{"name":"立川市武蔵砂川駅第一有料自転車等駐車場","province":"東京都","city":"立川市","address":"東京都立川市上砂町4丁目52-1","lat":35.72839746,"lon":139.39264115},{"name":"立川市西国立駅第三有料自転車駐車場","province":"東京都","city":"立川市","address":"東京都立川市羽衣町1丁目25-23","lat":35.6933328,"lon":139.42423954},{"name":"立川市西武立川駅北口有料自転車駐車場","province":"東京都","city":"立川市","address":"東京都立川市西砂町1丁目23-8","lat":35.72687195,"lon":139.3698684},{"name":"立川市高松駅下自転車仮置場","province":"東京都","city":"立川市","address":"東京都立川市高松町1丁目100","lat":35.70810864,"lon":139.41487588},{"name":"立川市立川駅南口臨時自転車駐車場","province":"東京都","city":"立川市","address":"東京都立川市柴崎町3丁目10","lat":35.69521838,"lon":139.41267652},{"name":"立川市高松駅自転車駐車場","province":"東京都","city":"立川市","address":"東京都立川市高松町1丁目22-20","lat":35.71078888,"lon":139.41428696},{"name":"立川市立川駅南口西有料自転車駐車場","province":"東京都","city":"立川市","address":"東京都立川市柴崎町2丁目1-5","lat":35.6975542,"lon":139.41165151},{"name":"立川市立川駅南口東臨時有料原動機付自転車駐車場","province":"東京都","city":"立川市","address":"東京都立川市錦町1丁目1-21","lat":35.69775431,"lon":139.41662055},{"name":"立川市砂川七番駅西自転車駐車場","province":"東京都","city":"立川市","address":"東京都立川市柏町3丁目1-4","lat":35.7236875,"lon":139.41781953},{"name":"立川市立川駅南口第二臨時有料自転車駐車場","province":"東京都","city":"立川市","address":"東京都立川市柴崎町3丁目10-21","lat":35.69477674,"lon":139.4121488},{"name":"立川市西武立川駅北口臨時有料路上自転車駐車場","province":"東京都","city":"立川市","address":"東京都立川市西砂町1丁目23","lat":35.72662754,"lon":139.36969065},{"name":"立川市コトリンク有料自転車等駐車場","province":"東京都","city":"立川市","address":"東京都立川市柴崎町3丁目9-2","lat":35.69548499,"lon":139.4119599},{"name":"立川市曙陸橋東有料自転車等駐車場","province":"東京都","city":"立川市","address":"東京都立川市曙町3丁目2-12","lat":35.69836265,"lon":139.41953974},{"name":"立川第２荘（2）","province":"東京都","city":"立川市","address":"立川市富士見町4-15-14","lat":35.69511,"lon":139.39961},{"name":"立川市清掃工場","province":"東京都","city":"立川市","address":"東京都立川市若葉町4丁目11","lat":35.72504,"lon":139.433701},{"name":"立川市新清掃工場","province":"東京都","city":"立川市","address":"東京都立川市泉町","lat":35.715893,"lon":139.404343},{"name":"立川市総合福祉センター","province":"東京都","city":"立川市","address":"東京都立川市富士見町2丁目36-47","lat":35.70118685,"lon":139.4018633},{"name":"水道局多摩水道立川庁舎","province":"東京都","city":"立川市","address":"東京都立川市緑町6-7","lat":35.70858351,"lon":139.41213163},{"name":"若葉図書館","province":"東京都","city":"立川市","address":"東京都立川市若葉町3丁目34-1","lat":35.72021344,"lon":139.43921515},{"name":"NewWork立川","province":"東京都","city":"立川市","address":"東京都立川市曙町1丁目27-10","lat":35.70001222,"lon":139.41070148},{"name":"柴崎給水所","province":"東京都","city":"立川市","address":"東京都立川市柴崎町1-1-41","lat":35.6968355,"lon":139.405944},{"name":"立川栄町浄水所","province":"東京都","city":"立川市","address":"東京都立川市栄町5-38-5","lat":35.7180059,"lon":139.424525},{"name":"立川砂川給水所","province":"東京都","city":"立川市","address":"東京都立川市砂川町6-41-1","lat":35.7299825,"lon":139.407448},{"name":"市立松中公園","province":"東京都","city":"立川市","address":"東京都立川市西砂町1-19-12","lat":35.72661,"lon":139.371352},{"name":"立川市立川駅南口立体有料自転車駐車場","province":"東京都","city":"立川市","address":"東京都立川市錦町2丁目1-4","lat":35.69606557,"lon":139.41512073},{"name":"立川市立川駅南口第三有料自転車駐車場","province":"東京都","city":"立川市","address":"東京都立川市柴崎町2丁目5-16","lat":35.69780963,"lon":139.40852397},{"name":"立川市立川駅南口第四有料自転車駐車場","province":"東京都","city":"立川市","address":"東京都立川市柴崎町3丁目5-27","lat":35.69638494,"lon":139.41410413},{"name":"立川市立川駅南口第一タワー有料自転車駐車場","province":"東京都","city":"立川市","address":"東京都立川市錦町1丁目3-19","lat":35.6965322,"lon":139.41552346},{"name":"立川市立川駅南口第二タワー有料自転車駐車場","province":"東京都","city":"立川市","address":"東京都立川市柴崎町2丁目3-20","lat":35.69677094,"lon":139.41137656},{"name":"立川市立川駅西地下道有料自転車駐車場","province":"東京都","city":"立川市","address":"東京都立川市曙町1丁目1-33","lat":35.69820687,"lon":139.41025992},{"name":"立川市柴崎体育館駅臨時自転車等駐車場","province":"東京都","city":"立川市","address":"東京都立川市柴崎町6丁目13-3","lat":35.68963557,"lon":139.40890482},{"name":"立川市柴崎体育館駅下自転車仮置場","province":"東京都","city":"立川市","address":"東京都立川市柴崎町6丁目13","lat":35.68969944,"lon":139.40857984},{"name":"立川市立川駅北口第一有料自転車駐車場","province":"東京都","city":"立川市","address":"東京都立川市曙町2丁目36-2","lat":35.70254814,"lon":139.41413167},{"name":"立川市立川北駅西臨時有料自転車駐車場","province":"東京都","city":"立川市","address":"東京都立川市曙町1丁目32-1","lat":35.7003872,"lon":139.41146252},{"name":"立川市立川北駅下有料自転車駐車場","province":"東京都","city":"立川市","address":"東京都立川市曙町2丁目5-1","lat":35.69952623,"lon":139.41295966},{"name":"立川市泉体育館駅臨時自転車駐車場","province":"東京都","city":"立川市","address":"東京都立川市泉町786-11","lat":35.71897695,"lon":139.41870575},{"name":"立川市玉川上水駅第二自転車駐車場","province":"東京都","city":"立川市","address":"東京都立川市幸町6丁目3","lat":35.73100611,"lon":139.41833583},{"name":"立川市玉川上水駅臨時自転車駐車場","province":"東京都","city":"立川市","address":"東京都立川市幸町6丁目1","lat":35.73045896,"lon":139.41857749},{"name":"立川市武蔵砂川駅第一有料自転車等駐車場","province":"東京都","city":"立川市","address":"東京都立川市上砂町4丁目52-1","lat":35.72839746,"lon":139.39264115},{"name":"立川市西国立駅第三有料自転車駐車場","province":"東京都","city":"立川市","address":"東京都立川市羽衣町1丁目25-23","lat":35.6933328,"lon":139.42423954},{"name":"立川市西武立川駅北口有料自転車駐車場","province":"東京都","city":"立川市","address":"東京都立川市西砂町1丁目23-8","lat":35.72687195,"lon":139.3698684},{"name":"立川市高松駅下自転車仮置場","province":"東京都","city":"立川市","address":"東京都立川市高松町1丁目100","lat":35.70810864,"lon":139.41487588},{"name":"立川市立川駅南口臨時自転車駐車場","province":"東京都","city":"立川市","address":"東京都立川市柴崎町3丁目10","lat":35.69521838,"lon":139.41267652},{"name":"立川市高松駅自転車駐車場","province":"東京都","city":"立川市","address":"東京都立川市高松町1丁目22-20","lat":35.71078888,"lon":139.41428696},{"name":"立川市立川駅南口西有料自転車駐車場","province":"東京都","city":"立川市","address":"東京都立川市柴崎町2丁目1-5","lat":35.6975542,"lon":139.41165151},{"name":"立川市立川駅南口東臨時有料原動機付自転車駐車場","province":"東京都","city":"立川市","address":"東京都立川市錦町1丁目1-21","lat":35.69775431,"lon":139.41662055},{"name":"立川市砂川七番駅西自転車駐車場","province":"東京都","city":"立川市","address":"東京都立川市柏町3丁目1-4","lat":35.7236875,"lon":139.41781953},{"name":"立川市立川駅南口第二臨時有料自転車駐車場","province":"東京都","city":"立川市","address":"東京都立川市柴崎町3丁目10-21","lat":35.69477674,"lon":139.4121488},{"name":"立川市西武立川駅北口臨時有料路上自転車駐車場","province":"東京都","city":"立川市","address":"東京都立川市西砂町1丁目23","lat":35.72662754,"lon":139.36969065},{"name":"立川市コトリンク有料自転車等駐車場","province":"東京都","city":"立川市","address":"東京都立川市柴崎町3丁目9-2","lat":35.69548499,"lon":139.4119599},{"name":"立川市曙陸橋東有料自転車等駐車場","province":"東京都","city":"立川市","address":"東京都立川市曙町3丁目2-12","lat":35.69836265,"lon":139.41953974},{"name":"立川市清掃工場","province":"東京都","city":"立川市","address":"東京都立川市若葉町4丁目11","lat":35.72504,"lon":139.433701},{"name":"立川市新清掃工場","province":"東京都","city":"立川市","address":"東京都立川市泉町","lat":35.715893,"lon":139.404343},{"name":"立川市総合福祉センター","province":"東京都","city":"立川市","address":"東京都立川市富士見町2丁目36-47","lat":35.70118685,"lon":139.4018633},{"name":"水道局多摩水道立川庁舎","province":"東京都","city":"立川市","address":"東京都立川市緑町6-7","lat":35.70858351,"lon":139.41213163},{"name":"若葉図書館","province":"東京都","city":"立川市","address":"東京都立川市若葉町3丁目34-1","lat":35.72021344,"lon":139.43921515},{"name":"NewWork立川","province":"東京都","city":"立川市","address":"東京都立川市曙町1丁目27-10","lat":35.70001222,"lon":139.41070148},{"name":"立川市清掃工場","province":"東京都","city":"立川市","address":"東京都立川市若葉町4丁目11","lat":35.72504,"lon":139.433701},{"name":"立川市新清掃工場","province":"東京都","city":"立川市","address":"東京都立川市泉町","lat":35.715893,"lon":139.404343},{"name":"立川市総合福祉センター","province":"東京都","city":"立川市","address":"東京都立川市富士見町2丁目36-47","lat":35.70118685,"lon":139.4018633},{"name":"水道局多摩水道立川庁舎","province":"東京都","city":"立川市","address":"東京都立川市緑町6-7","lat":35.70858351,"lon":139.41213163},{"name":"若葉図書館","province":"東京都","city":"立川市","address":"東京都立川市若葉町3丁目34-1","lat":35.72021344,"lon":139.43921515},{"name":"NewWork立川","province":"東京都","city":"立川市","address":"東京都立川市曙町1丁目27-10","lat":35.70001222,"lon":139.41070148},{"name":"立川市清掃工場","province":"東京都","city":"立川市","address":"東京都立川市若葉町4丁目11","lat":35.72504,"lon":139.433701},{"name":"立川市新清掃工場","province":"東京都","city":"立川市","address":"東京都立川市泉町","lat":35.715893,"lon":139.404343},{"name":"立川市総合福祉センター","province":"東京都","city":"立川市","address":"東京都立川市富士見町2丁目36-47","lat":35.70118685,"lon":139.4018633},{"name":"水道局多摩水道立川庁舎","province":"東京都","city":"立川市","address":"東京都立川市緑町6-7","lat":35.70858351,"lon":139.41213163},{"name":"若葉図書館","province":"東京都","city":"立川市","address":"東京都立川市若葉町3丁目34-1","lat":35.72021344,"lon":139.43921515},{"name":"NewWork立川","province":"東京都","city":"立川市","address":"東京都立川市曙町1丁目27-10","lat":35.70001222,"lon":139.41070148},{"name":"立川市清掃工場","province":"東京都","city":"立川市","address":"東京都立川市若葉町4丁目11","lat":35.72504,"lon":139.433701},{"name":"立川市新清掃工場","province":"東京都","city":"立川市","address":"東京都立川市泉町","lat":35.715893,"lon":139.404343},{"name":"立川市総合福祉センター","province":"東京都","city":"立川市","address":"東京都立川市富士見町2丁目36-47","lat":35.70118685,"lon":139.4018633},{"name":"水道局多摩水道立川庁舎","province":"東京都","city":"立川市","address":"東京都立川市緑町6-7","lat":35.70858351,"lon":139.41213163},{"name":"若葉図書館","province":"東京都","city":"立川市","address":"東京都立川市若葉町3丁目34-1","lat":35.72021344,"lon":139.43921515},{"name":"NewWork立川","province":"東京都","city":"立川市","address":"東京都立川市曙町1丁目27-10","lat":35.70001222,"lon":139.41070148},{"name":"立川市清掃工場","province":"東京都","city":"立川市","address":"東京都立川市若葉町4丁目11","lat":35.72504,"lon":139.433701},{"name":"立川市新清掃工場","province":"東京都","city":"立川市","address":"東京都立川市泉町","lat":35.715893,"lon":139.404343},{"name":"立川市総合福祉センター","province":"東京都","city":"立川市","address":"東京都立川市富士見町2丁目36-47","lat":35.70118685,"lon":139.4018633},{"name":"水道局多摩水道立川庁舎","province":"東京都","city":"立川市","address":"東京都立川市緑町6-7","lat":35.70858351,"lon":139.41213163},{"name":"若葉図書館","province":"東京都","city":"立川市","address":"東京都立川市若葉町3丁目34-1","lat":35.72021344,"lon":139.43921515},{"name":"NewWork立川","province":"東京都","city":"立川市","address":"東京都立川市曙町1丁目27-10","lat":35.70001222,"lon":139.41070148},{"name":"立川市清掃工場","province":"東京都","city":"立川市","address":"東京都立川市若葉町4丁目11","lat":35.72504,"lon":139.433701},{"name":"立川市新清掃工場","province":"東京都","city":"立川市","address":"東京都立川市泉町","lat":35.715893,"lon":139.404343},{"name":"立川市総合福祉センター","province":"東京都","city":"立川市","address":"東京都立川市富士見町2丁目36-47","lat":35.70118685,"lon":139.4018633},{"name":"水道局多摩水道立川庁舎","province":"東京都","city":"立川市","address":"東京都立川市緑町6-7","lat":35.70858351,"lon":139.41213163},{"name":"若葉図書館","province":"東京都","city":"立川市","address":"東京都立川市若葉町3丁目34-1","lat":35.72021344,"lon":139.43921515},{"name":"NewWork立川","province":"東京都","city":"立川市","address":"東京都立川市曙町1丁目27-10","lat":35.70001222,"lon":139.41070148},{"name":"立川市清掃工場","province":"東京都","city":"立川市","address":"東京都立川市若葉町4丁目11","lat":35.72504,"lon":139.433701},{"name":"立川市新清掃工場","province":"東京都","city":"立川市","address":"東京都立川市泉町","lat":35.715893,"lon":139.404343},{"name":"立川市総合福祉センター","province":"東京都","city":"立川市","address":"東京都立川市富士見町2丁目36-47","lat":35.70118685,"lon":139.4018633},{"name":"水道局多摩水道立川庁舎","province":"東京都","city":"立川市","address":"東京都立川市緑町6-7","lat":35.70858351,"lon":139.41213163},{"name":"若葉図書館","province":"東京都","city":"立川市","address":"東京都立川市若葉町3丁目34-1","lat":35.72021344,"lon":139.43921515},{"name":"NewWork立川","province":"東京都","city":"立川市","address":"東京都立川市曙町1丁目27-10","lat":35.70001222,"lon":139.41070148},{"name":"立川市清掃工場","province":"東京都","city":"立川市","address":"東京都立川市若葉町4丁目11","lat":35.72504,"lon":139.433701},{"name":"立川市新清掃工場","province":"東京都","city":"立川市","address":"東京都立川市泉町","lat":35.715893,"lon":139.404343},{"name":"立川市総合福祉センター","province":"東京都","city":"立川市","address":"東京都立川市富士見町2丁目36-47","lat":35.70118685,"lon":139.4018633},{"name":"水道局多摩水道立川庁舎","province":"東京都","city":"立川市","address":"東京都立川市緑町6-7","lat":35.70858351,"lon":139.41213163},{"name":"若葉図書館","province":"東京都","city":"立川市","address":"東京都立川市若葉町3丁目34-1","lat":35.72021344,"lon":139.43921515},{"name":"NewWork立川","province":"東京都","city":"立川市","address":"東京都立川市曙町1丁目27-10","lat":35.70001222,"lon":139.41070148},{"name":"立川市清掃工場","province":"東京都","city":"立川市","address":"東京都立川市若葉町4丁目11","lat":35.72504,"lon":139.433701},{"name":"立川市新清掃工場","province":"東京都","city":"立川市","address":"東京都立川市泉町","lat":35.715893,"lon":139.404343},{"name":"立川市総合福祉センター","province":"東京都","city":"立川市","address":"東京都立川市富士見町2丁目36-47","lat":35.70118685,"lon":139.4018633},{"name":"水道局多摩水道立川庁舎","province":"東京都","city":"立川市","address":"東京都立川市緑町6-7","lat":35.70858351,"lon":139.41213163},{"name":"若葉図書館","province":"東京都","city":"立川市","address":"東京都立川市若葉町3丁目34-1","lat":35.72021344,"lon":139.43921515},{"name":"NewWork立川","province":"東京都","city":"立川市","address":"東京都立川市曙町1丁目27-10","lat":35.70001222,"lon":139.41070148},{"name":"立川市清掃工場","province":"東京都","city":"立川市","address":"東京都立川市若葉町4丁目11","lat":35.72504,"lon":139.433701},{"name":"立川市新清掃工場","province":"東京都","city":"立川市","address":"東京都立川市泉町","lat":35.715893,"lon":139.404343},{"name":"立川市総合福祉センター","province":"東京都","city":"立川市","address":"東京都立川市富士見町2丁目36-47","lat":35.70118685,"lon":139.4018633},{"name":"水道局多摩水道立川庁舎","province":"東京都","city":"立川市","address":"東京都立川市緑町6-7","lat":35.70858351,"lon":139.41213163},{"name":"若葉図書館","province":"東京都","city":"立川市","address":"東京都立川市若葉町3丁目34-1","lat":35.72021344,"lon":139.43921515},{"name":"NewWork立川","province":"東京都","city":"立川市","address":"東京都立川市曙町1丁目27-10","lat":35.70001222,"lon":139.41070148},{"name":"立川市清掃工場","province":"東京都","city":"立川市","address":"東京都立川市若葉町4丁目11","lat":35.72504,"lon":139.433701},{"name":"立川市新清掃工場","province":"東京都","city":"立川市","address":"東京都立川市泉町","lat":35.715893,"lon":139.404343},{"name":"立川市総合福祉センター","province":"東京都","city":"立川市","address":"東京都立川市富士見町2丁目36-47","lat":35.70118685,"lon":139.4018633},{"name":"水道局多摩水道立川庁舎","province":"東京都","city":"立川市","address":"東京都立川市緑町6-7","lat":35.70858351,"lon":139.41213163},{"name":"若葉図書館","province":"東京都","city":"立川市","address":"東京都立川市若葉町3丁目34-1","lat":35.72021344,"lon":139.43921515},{"name":"NewWork立川","province":"東京都","city":"立川市","address":"東京都立川市曙町1丁目27-10","lat":35.70001222,"lon":139.41070148},{"name":"立川市清掃工場","province":"東京都","city":"立川市","address":"東京都立川市若葉町4丁目11","lat":35.72504,"lon":139.433701},{"name":"立川市新清掃工場","province":"東京都","city":"立川市","address":"東京都立川市泉町","lat":35.715893,"lon":139.404343},{"name":"立川市総合福祉センター","province":"東京都","city":"立川市","address":"東京都立川市富士見町2丁目36-47","lat":35.70118685,"lon":139.4018633},{"name":"水道局多摩水道立川庁舎","province":"東京都","city":"立川市","address":"東京都立川市緑町6-7","lat":35.70858351,"lon":139.41213163},{"name":"若葉図書館","province":"東京都","city":"立川市","address":"東京都立川市若葉町3丁目34-1","lat":35.72021344,"lon":139.43921515},{"name":"NewWork立川","province":"東京都","city":"立川市","address":"東京都立川市曙町1丁目27-10","lat":35.70001222,"lon":139.41070148},{"name":"立川市清掃工場","province":"東京都","city":"立川市","address":"東京都立川市若葉町4丁目11","lat":35.72504,"lon":139.433701},{"name":"立川市新清掃工場","province":"東京都","city":"立川市","address":"東京都立川市泉町","lat":35.715893,"lon":139.404343},{"name":"立川市総合福祉センター","province":"東京都","city":"立川市","address":"東京都立川市富士見町2丁目36-47","lat":35.70118685,"lon":139.4018633},{"name":"水道局多摩水道立川庁舎","province":"東京都","city":"立川市","address":"東京都立川市緑町6-7","lat":35.70858351,"lon":139.41213163},{"name":"若葉図書館","province":"東京都","city":"立川市","address":"東京都立川市若葉町3丁目34-1","lat":35.72021344,"lon":139.43921515},{"name":"NewWork立川","province":"東京都","city":"立川市","address":"東京都立川市曙町1丁目27-10","lat":35.70001222,"lon":139.41070148},{"name":"立川市清掃工場","province":"東京都","city":"立川市","address":"東京都立川市若葉町4丁目11","lat":35.72504,"lon":139.433701},{"name":"立川市新清掃工場","province":"東京都","city":"立川市","address":"東京都立川市泉町","lat":35.715893,"lon":139.404343},{"name":"立川市総合福祉センター","province":"東京都","city":"立川市","address":"東京都立川市富士見町2丁目36-47","lat":35.70118685,"lon":139.4018633},{"name":"水道局多摩水道立川庁舎","province":"東京都","city":"立川市","address":"東京都立川市緑町6-7","lat":35.70858351,"lon":139.41213163},{"name":"若葉図書館","province":"東京都","city":"立川市","address":"東京都立川市若葉町3丁目34-1","lat":35.72021344,"lon":139.43921515},{"name":"立川市清掃工場","province":"東京都","city":"立川市","address":"東京都立川市若葉町4丁目11","lat":35.72504,"lon":139.433701},{"name":"立川市新清掃工場","province":"東京都","city":"立川市","address":"東京都立川市泉町","lat":35.715893,"lon":139.404343},{"name":"立川市総合福祉センター","province":"東京都","city":"立川市","address":"東京都立川市富士見町2丁目36-47","lat":35.70118685,"lon":139.4018633},{"name":"水道局多摩水道立川庁舎","province":"東京都","city":"立川市","address":"東京都立川市緑町6-7","lat":35.70858351,"lon":139.41213163},{"name":"若葉図書館","province":"東京都","city":"立川市","address":"東京都立川市若葉町3丁目34-1","lat":35.72021344,"lon":139.43921515},{"name":"立川市清掃工場","province":"東京都","city":"立川市","address":"東京都立川市若葉町4丁目11","lat":35.72504,"lon":139.433701},{"name":"立川市新清掃工場","province":"東京都","city":"立川市","address":"東京都立川市泉町","lat":35.715893,"lon":139.404343},{"name":"立川市総合福祉センター","province":"東京都","city":"立川市","address":"東京都立川市富士見町2丁目36-47","lat":35.70118685,"lon":139.4018633},{"name":"水道局多摩水道立川庁舎","province":"東京都","city":"立川市","address":"東京都立川市緑町6-7","lat":35.70858351,"lon":139.41213163},{"name":"若葉図書館","province":"東京都","city":"立川市","address":"東京都立川市若葉町3丁目34-1","lat":35.72021344,"lon":139.43921515},{"name":"立川市清掃工場","province":"東京都","city":"立川市","address":"東京都立川市若葉町4丁目11","lat":35.72504,"lon":139.433701},{"name":"立川市新清掃工場","province":"東京都","city":"立川市","address":"東京都立川市泉町","lat":35.715893,"lon":139.404343},{"name":"立川市総合福祉センター","province":"東京都","city":"立川市","address":"東京都立川市富士見町2丁目36-47","lat":35.70118685,"lon":139.4018633},{"name":"水道局多摩水道立川庁舎","province":"東京都","city":"立川市","address":"東京都立川市緑町6-7","lat":35.70858351,"lon":139.41213163},{"name":"若葉図書館","province":"東京都","city":"立川市","address":"東京都立川市若葉町3丁目34-1","lat":35.72021344,"lon":139.43921515},{"name":"立川市清掃工場","province":"東京都","city":"立川市","address":"東京都立川市若葉町4丁目11","lat":35.72504,"lon":139.433701},{"name":"立川市新清掃工場","province":"東京都","city":"立川市","address":"東京都立川市泉町","lat":35.715893,"lon":139.404343},{"name":"立川市総合福祉センター","province":"東京都","city":"立川市","address":"東京都立川市富士見町2丁目36-47","lat":35.70118685,"lon":139.4018633},{"name":"水道局多摩水道立川庁舎","province":"東京都","city":"立川市","address":"東京都立川市緑町6-7","lat":35.70858351,"lon":139.41213163},{"name":"若葉図書館","province":"東京都","city":"立川市","address":"東京都立川市若葉町3丁目34-1","lat":35.72021344,"lon":139.43921515},{"name":"立川市清掃工場","province":"東京都","city":"立川市","address":"東京都立川市若葉町4丁目11","lat":35.72504,"lon":139.433701},{"name":"立川市新清掃工場","province":"東京都","city":"立川市","address":"東京都立川市泉町","lat":35.715893,"lon":139.404343},{"name":"立川市総合福祉センター","province":"東京都","city":"立川市","address":"東京都立川市富士見町2丁目36-47","lat":35.70118685,"lon":139.4018633},{"name":"水道局多摩水道立川庁舎","province":"東京都","city":"立川市","address":"東京都立川市緑町6-7","lat":35.70858351,"lon":139.41213163},{"name":"若葉図書館","province":"東京都","city":"立川市","address":"東京都立川市若葉町3丁目34-1","lat":35.72021344,"lon":139.43921515},{"name":"立川市清掃工場","province":"東京都","city":"立川市","address":"東京都立川市若葉町4丁目11","lat":35.72504,"lon":139.433701},{"name":"立川市新清掃工場","province":"東京都","city":"立川市","address":"東京都立川市泉町","lat":35.715893,"lon":139.404343},{"name":"立川市総合福祉センター","province":"東京都","city":"立川市","address":"東京都立川市富士見町2丁目36-47","lat":35.70118685,"lon":139.4018633},{"name":"水道局多摩水道立川庁舎","province":"東京都","city":"立川市","address":"東京都立川市緑町6-7","lat":35.70858351,"lon":139.41213163},{"name":"若葉図書館","province":"東京都","city":"立川市","address":"東京都立川市若葉町3丁目34-1","lat":35.72021344,"lon":139.43921515},{"name":"立川市清掃工場","province":"東京都","city":"立川市","address":"東京都立川市若葉町4丁目11","lat":35.72504,"lon":139.433701},{"name":"立川市新清掃工場","province":"東京都","city":"立川市","address":"東京都立川市泉町","lat":35.715893,"lon":139.404343},{"name":"立川市総合福祉センター","province":"東京都","city":"立川市","address":"東京都立川市富士見町2丁目36-47","lat":35.70118685,"lon":139.4018633},{"name":"水道局多摩水道立川庁舎","province":"東京都","city":"立川市","address":"東京都立川市緑町6-7","lat":35.70858351,"lon":139.41213163},{"name":"若葉図書館","province":"東京都","city":"立川市","address":"東京都立川市若葉町3丁目34-1","lat":35.72021344,"lon":139.43921515},{"name":"立川市清掃工場","province":"東京都","city":"立川市","address":"東京都立川市若葉町4丁目11","lat":35.72504,"lon":139.433701},{"name":"立川市新清掃工場","province":"東京都","city":"立川市","address":"東京都立川市泉町","lat":35.715893,"lon":139.404343},{"name":"立川市総合福祉センター","province":"東京都","city":"立川市","address":"東京都立川市富士見町2丁目36-47","lat":35.70118685,"lon":139.4018633},{"name":"水道局多摩水道立川庁舎","province":"東京都","city":"立川市","address":"東京都立川市緑町6-7","lat":35.70858351,"lon":139.41213163},{"name":"若葉図書館","province":"東京都","city":"立川市","address":"東京都立川市若葉町3丁目34-1","lat":35.72021344,"lon":139.43921515},{"name":"立川市清掃工場","province":"東京都","city":"立川市","address":"東京都立川市若葉町4丁目11","lat":35.72504,"lon":139.433701},{"name":"立川市新清掃工場","province":"東京都","city":"立川市","address":"東京都立川市泉町","lat":35.715893,"lon":139.404343},{"name":"立川市総合福祉センター","province":"東京都","city":"立川市","address":"東京都立川市富士見町2丁目36-47","lat":35.70118685,"lon":139.4018633},{"name":"水道局多摩水道立川庁舎","province":"東京都","city":"立川市","address":"東京都立川市緑町6-7","lat":35.70858351,"lon":139.41213163},{"name":"若葉図書館","province":"東京都","city":"立川市","address":"東京都立川市若葉町3丁目34-1","lat":35.72021344,"lon":139.43921515},{"name":"立川市清掃工場","province":"東京都","city":"立川市","address":"東京都立川市若葉町4丁目11","lat":35.72504,"lon":139.433701},{"name":"立川市新清掃工場","province":"東京都","city":"立川市","address":"東京都立川市泉町","lat":35.715893,"lon":139.404343},{"name":"立川市総合福祉センター","province":"東京都","city":"立川市","address":"東京都立川市富士見町2丁目36-47","lat":35.70118685,"lon":139.4018633},{"name":"水道局多摩水道立川庁舎","province":"東京都","city":"立川市","address":"東京都立川市緑町6-7","lat":35.70858351,"lon":139.41213163},{"name":"若葉図書館","province":"東京都","city":"立川市","address":"東京都立川市若葉町3丁目34-1","lat":35.72021344,"lon":139.43921515},{"name":"立川市清掃工場","province":"東京都","city":"立川市","address":"東京都立川市若葉町4丁目11","lat":35.72504,"lon":139.433701},{"name":"立川市新清掃工場","province":"東京都","city":"立川市","address":"東京都立川市泉町","lat":35.715893,"lon":139.404343},{"name":"立川市総合福祉センター","province":"東京都","city":"立川市","address":"東京都立川市富士見町2丁目36-47","lat":35.70118685,"lon":139.4018633},{"name":"水道局多摩水道立川庁舎","province":"東京都","city":"立川市","address":"東京都立川市緑町6-7","lat":35.70858351,"lon":139.41213163},{"name":"若葉図書館","province":"東京都","city":"立川市","address":"東京都立川市若葉町3丁目34-1","lat":35.72021344,"lon":139.43921515},{"name":"立川市清掃工場","province":"東京都","city":"立川市","address":"東京都立川市若葉町4丁目11","lat":35.72504,"lon":139.433701},{"name":"立川市新清掃工場","province":"東京都","city":"立川市","address":"東京都立川市泉町","lat":35.715893,"lon":139.404343},{"name":"立川市総合福祉センター","province":"東京都","city":"立川市","address":"東京都立川市富士見町2丁目36-47","lat":35.70118685,"lon":139.4018633},{"name":"水道局多摩水道立川庁舎","province":"東京都","city":"立川市","address":"東京都立川市緑町6-7","lat":35.70858351,"lon":139.41213163},{"name":"若葉図書館","province":"東京都","city":"立川市","address":"東京都立川市若葉町3丁目34-1","lat":35.72021344,"lon":139.43921515},{"name":"立川市清掃工場","province":"東京都","city":"立川市","address":"東京都立川市若葉町4丁目11","lat":35.72504,"lon":139.433701},{"name":"立川市新清掃工場","province":"東京都","city":"立川市","address":"東京都立川市泉町","lat":35.715893,"lon":139.404343},{"name":"立川市総合福祉センター","province":"東京都","city":"立川市","address":"東京都立川市富士見町2丁目36-47","lat":35.70118685,"lon":139.4018633},{"name":"水道局多摩水道立川庁舎","province":"東京都","city":"立川市","address":"東京都立川市緑町6-7","lat":35.70858351,"lon":139.41213163},{"name":"若葉図書館","province":"東京都","city":"立川市","address":"東京都立川市若葉町3丁目34-1","lat":35.72021344,"lon":139.43921515},{"name":"立川市総合福祉センター","province":"東京都","city":"立川市","address":"東京都立川市富士見町2丁目36-47","lat":35.70118685,"lon":139.4018633},{"name":"水道局多摩水道立川庁舎","province":"東京都","city":"立川市","address":"東京都立川市緑町6-7","lat":35.70858351,"lon":139.41213163},{"name":"若葉図書館","province":"東京都","city":"立川市","address":"東京都立川市若葉町3丁目34-1","lat":35.72021344,"lon":139.43921515},{"name":"立川市総合福祉センター","province":"東京都","city":"立川市","address":"東京都立川市富士見町2丁目36-47","lat":35.70118685,"lon":139.4018633},{"name":"水道局多摩水道立川庁舎","province":"東京都","city":"立川市","address":"東京都立川市緑町6-7","lat":35.70858351,"lon":139.41213163},{"name":"若葉図書館","province":"東京都","city":"立川市","address":"東京都立川市若葉町3丁目34-1","lat":35.72021344,"lon":139.43921515},{"name":"立川市総合福祉センター","province":"東京都","city":"立川市","address":"東京都立川市富士見町2丁目36-47","lat":35.70118685,"lon":139.4018633},{"name":"水道局多摩水道立川庁舎","province":"東京都","city":"立川市","address":"東京都立川市緑町6-7","lat":35.70858351,"lon":139.41213163},{"name":"若葉図書館","province":"東京都","city":"立川市","address":"東京都立川市若葉町3丁目34-1","lat":35.72021344,"lon":139.43921515},{"name":"立川市総合福祉センター","province":"東京都","city":"立川市","address":"東京都立川市富士見町2丁目36-47","lat":35.70118685,"lon":139.4018633},{"name":"水道局多摩水道立川庁舎","province":"東京都","city":"立川市","address":"東京都立川市緑町6-7","lat":35.70858351,"lon":139.41213163},{"name":"若葉図書館","province":"東京都","city":"立川市","address":"東京都立川市若葉町3丁目34-1","lat":35.72021344,"lon":139.43921515},{"name":"立川市総合福祉センター","province":"東京都","city":"立川市","address":"東京都立川市富士見町2丁目36-47","lat":35.70118685,"lon":139.4018633},{"name":"水道局多摩水道立川庁舎","province":"東京都","city":"立川市","address":"東京都立川市緑町6-7","lat":35.70858351,"lon":139.41213163},{"name":"若葉図書館","province":"東京都","city":"立川市","address":"東京都立川市若葉町3丁目34-1","lat":35.72021344,"lon":139.43921515},{"name":"立川市総合福祉センター","province":"東京都","city":"立川市","address":"東京都立川市富士見町2丁目36-47","lat":35.70118685,"lon":139.4018633},{"name":"水道局多摩水道立川庁舎","province":"東京都","city":"立川市","address":"東京都立川市緑町6-7","lat":35.70858351,"lon":139.41213163},{"name":"若葉図書館","province":"東京都","city":"立川市","address":"東京都立川市若葉町3丁目34-1","lat":35.72021344,"lon":139.43921515},{"name":"立川市総合福祉センター","province":"東京都","city":"立川市","address":"東京都立川市富士見町2丁目36-47","lat":35.70118685,"lon":139.4018633},{"name":"水道局多摩水道立川庁舎","province":"東京都","city":"立川市","address":"東京都立川市緑町6-7","lat":35.70858351,"lon":139.41213163},{"name":"若葉図書館","province":"東京都","city":"立川市","address":"東京都立川市若葉町3丁目34-1","lat":35.72021344,"lon":139.43921515},{"name":"立川市総合福祉センター","province":"東京都","city":"立川市","address":"東京都立川市富士見町2丁目36-47","lat":35.70118685,"lon":139.4018633},{"name":"水道局多摩水道立川庁舎","province":"東京都","city":"立川市","address":"東京都立川市緑町6-7","lat":35.70858351,"lon":139.41213163},{"name":"若葉図書館","province":"東京都","city":"立川市","address":"東京都立川市若葉町3丁目34-1","lat":35.72021344,"lon":139.43921515},{"name":"立川市総合福祉センター","province":"東京都","city":"立川市","address":"東京都立川市富士見町2丁目36-47","lat":35.70118685,"lon":139.4018633},{"name":"水道局多摩水道立川庁舎","province":"東京都","city":"立川市","address":"東京都立川市緑町6-7","lat":35.70858351,"lon":139.41213163},{"name":"若葉図書館","province":"東京都","city":"立川市","address":"東京都立川市若葉町3丁目34-1","lat":35.72021344,"lon":139.43921515},{"name":"立川市総合福祉センター","province":"東京都","city":"立川市","address":"東京都立川市富士見町2丁目36-47","lat":35.70118685,"lon":139.4018633},{"name":"水道局多摩水道立川庁舎","province":"東京都","city":"立川市","address":"東京都立川市緑町6-7","lat":35.70858351,"lon":139.41213163},{"name":"若葉図書館","province":"東京都","city":"立川市","address":"東京都立川市若葉町3丁目34-1","lat":35.72021344,"lon":139.43921515},{"name":"立川市総合福祉センター","province":"東京都","city":"立川市","address":"東京都立川市富士見町2丁目36-47","lat":35.70118685,"lon":139.4018633},{"name":"水道局多摩水道立川庁舎","province":"東京都","city":"立川市","address":"東京都立川市緑町6-7","lat":35.70858351,"lon":139.41213163},{"name":"若葉図書館","province":"東京都","city":"立川市","address":"東京都立川市若葉町3丁目34-1","lat":35.72021344,"lon":139.43921515},{"name":"立川市総合福祉センター","province":"東京都","city":"立川市","address":"東京都立川市富士見町2丁目36-47","lat":35.70118685,"lon":139.4018633},{"name":"水道局多摩水道立川庁舎","province":"東京都","city":"立川市","address":"東京都立川市緑町6-7","lat":35.70858351,"lon":139.41213163},{"name":"若葉図書館","province":"東京都","city":"立川市","address":"東京都立川市若葉町3丁目34-1","lat":35.72021344,"lon":139.43921515},{"name":"立川市総合福祉センター","province":"東京都","city":"立川市","address":"東京都立川市富士見町2丁目36-47","lat":35.70118685,"lon":139.4018633},{"name":"水道局多摩水道立川庁舎","province":"東京都","city":"立川市","address":"東京都立川市緑町6-7","lat":35.70858351,"lon":139.41213163},{"name":"若葉図書館","province":"東京都","city":"立川市","address":"東京都立川市若葉町3丁目34-1","lat":35.72021344,"lon":139.43921515},{"name":"立川市総合福祉センター","province":"東京都","city":"立川市","address":"東京都立川市富士見町2丁目36-47","lat":35.70118685,"lon":139.4018633},{"name":"水道局多摩水道立川庁舎","province":"東京都","city":"立川市","address":"東京都立川市緑町6-7","lat":35.70858351,"lon":139.41213163},{"name":"若葉図書館","province":"東京都","city":"立川市","address":"東京都立川市若葉町3丁目34-1","lat":35.72021344,"lon":139.43921515},{"name":"立川市総合福祉センター","province":"東京都","city":"立川市","address":"東京都立川市富士見町2丁目36-47","lat":35.70118685,"lon":139.4018633},{"name":"水道局多摩水道立川庁舎","province":"東京都","city":"立川市","address":"東京都立川市緑町6-7","lat":35.70858351,"lon":139.41213163},{"name":"若葉図書館","province":"東京都","city":"立川市","address":"東京都立川市若葉町3丁目34-1","lat":35.72021344,"lon":139.43921515},{"name":"立川市総合福祉センター","province":"東京都","city":"立川市","address":"東京都立川市富士見町2丁目36-47","lat":35.70118685,"lon":139.4018633},{"name":"水道局多摩水道立川庁舎","province":"東京都","city":"立川市","address":"東京都立川市緑町6-7","lat":35.70858351,"lon":139.41213163},{"name":"若葉図書館","province":"東京都","city":"立川市","address":"東京都立川市若葉町3丁目34-1","lat":35.72021344,"lon":139.43921515},{"name":"立川市総合福祉センター","province":"東京都","city":"立川市","address":"東京都立川市富士見町2丁目36-47","lat":35.70118685,"lon":139.4018633},{"name":"水道局多摩水道立川庁舎","province":"東京都","city":"立川市","address":"東京都立川市緑町6-7","lat":35.70858351,"lon":139.41213163},{"name":"若葉図書館","province":"東京都","city":"立川市","address":"東京都立川市若葉町3丁目34-1","lat":35.72021344,"lon":139.43921515},{"name":"立川市総合福祉センター","province":"東京都","city":"立川市","address":"東京都立川市富士見町2丁目36-47","lat":35.70118685,"lon":139.4018633},{"name":"水道局多摩水道立川庁舎","province":"東京都","city":"立川市","address":"東京都立川市緑町6-7","lat":35.70858351,"lon":139.41213163},{"name":"若葉図書館","province":"東京都","city":"立川市","address":"東京都立川市若葉町3丁目34-1","lat":35.72021344,"lon":139.43921515},{"name":"立川市総合福祉センター","province":"東京都","city":"立川市","address":"東京都立川市富士見町2丁目36-47","lat":35.70118685,"lon":139.4018633},{"name":"水道局多摩水道立川庁舎","province":"東京都","city":"立川市","address":"東京都立川市緑町6-7","lat":35.70858351,"lon":139.41213163},{"name":"若葉図書館","province":"東京都","city":"立川市","address":"東京都立川市若葉町3丁目34-1","lat":35.72021344,"lon":139.43921515},{"name":"立川市総合福祉センター","province":"東京都","city":"立川市","address":"東京都立川市富士見町2丁目36-47","lat":35.70118685,"lon":139.4018633},{"name":"水道局多摩水道立川庁舎","province":"東京都","city":"立川市","address":"東京都立川市緑町6-7","lat":35.70858351,"lon":139.41213163},{"name":"若葉図書館","province":"東京都","city":"立川市","address":"東京都立川市若葉町3丁目34-1","lat":35.72021344,"lon":139.43921515},{"name":"立川市総合福祉センター","province":"東京都","city":"立川市","address":"東京都立川市富士見町2丁目36-47","lat":35.70118685,"lon":139.4018633},{"name":"水道局多摩水道立川庁舎","province":"東京都","city":"立川市","address":"東京都立川市緑町6-7","lat":35.70858351,"lon":139.41213163},{"name":"若葉図書館","province":"東京都","city":"立川市","address":"東京都立川市若葉町3丁目34-1","lat":35.72021344,"lon":139.43921515}]}