{"keyword":"破損","data":[{"name":"南部西ふじみ地域包括支援センター","province":"東京都","city":"立川市","address":"立川市富士見町2-36-47社会福祉協議会内","lat":35.70158,"lon":139.402008},{"name":"南部東はごろも地域包括支援センター","province":"東京都","city":"立川市","address":"立川市羽衣町1-12-18羽衣地域福祉サービスセンター内","lat":35.697369,"lon":139.425613},{"name":"中部たかまつ地域包括支援センター","province":"東京都","city":"立川市","address":"立川市高松町2-27-27TBK第2高松ビル105号","lat":35.704739,"lon":139.418625},{"name":"北部東わかば地域包括支援センター","province":"東京都","city":"立川市","address":"立川市若葉町3-45-2老人保健施設わかば内","lat":35.719658,"lon":139.441452},{"name":"北部中さいわい地域包括支援センター","province":"東京都","city":"立川市","address":"立川市幸町4-14-1至誠キートスホーム内","lat":35.724712,"lon":139.428299},{"name":"北部西かみすな地域包括支援センター","province":"東京都","city":"立川市","address":"立川市上砂町5-76-4砂川園内","lat":35.730007,"lon":139.389557},{"name":"にしき福祉相談センター","province":"東京都","city":"立川市","address":"立川市錦町6-28-15至誠ホーム内","lat":35.685169,"lon":139.416306},{"name":"かみすな福祉相談センター","province":"東京都","city":"立川市","address":"立川市上砂町1-13-1上砂地域福祉サービスセンター内","lat":35.720753,"lon":139.388092},{"name":"にしすな福祉相談センター","province":"東京都","city":"立川市","address":"立川市西砂町5-5-5西砂ホーム内","lat":35.731091,"lon":139.363205},{"name":"立川市見守りホットライン","province":"東京都","city":"立川市","address":"立川市泉町1156-9立川市役所","lat":35.715286,"lon":139.406281},{"name":"立川市役所","province":"東京都","city":"立川市","address":"立川市泉町1156-9","lat":35.715286,"lon":139.406281},{"name":"立川市消費生活センター","province":"東京都","city":"立川市","address":"立川市曙町2-36-2立川市女性総合センター5F","lat":35.701874,"lon":139.414169},{"name":"市民会館西","province":"東京都","city":"立川市","address":"東京都立川市錦町3丁目5-1","lat":35.69314932,"lon":139.41859835},{"name":"曙橋","province":"東京都","city":"立川市","address":"東京都立川市曙町2丁目8-3","lat":35.7005817,"lon":139.41420952},{"name":"柴崎町二丁目","province":"東京都","city":"立川市","address":"東京都立川市柴崎町2丁目9-19","lat":35.69700691,"lon":139.4069158},{"name":"立川富士見町交番前","province":"東京都","city":"立川市","address":"東京都立川市富士見町6丁目19-1","lat":35.6924793,"lon":139.39275329},{"name":"立川駅北口","province":"東京都","city":"立川市","address":"東京都立川市曙町2丁目12-1","lat":35.6992013,"lon":139.41435956},{"name":"立川駅北口西","province":"東京都","city":"立川市","address":"東京都立川市曙町2丁目4-6","lat":35.69877907,"lon":139.41217364},{"name":"立川至誠老人ホーム前","province":"東京都","city":"立川市","address":"東京都立川市錦町6丁目28-15","lat":35.68536958,"lon":139.41604886},{"name":"災害医療センター前","province":"東京都","city":"立川市","address":"東京都立川市緑町3173","lat":35.70335899,"lon":139.40788769},{"name":"立川富士見町二丁目第二","province":"東京都","city":"立川市","address":"東京都立川市富士見町2丁目22-19","lat":35.70014809,"lon":139.40231607},{"name":"砂川九番北","province":"東京都","city":"立川市","address":"東京都立川市若葉町3丁目3-3","lat":35.72272686,"lon":139.43276005},{"name":"立川合同庁舎前","province":"東京都","city":"立川市","address":"東京都立川市錦町4丁目6","lat":35.69183285,"lon":139.42034548},{"name":"立川七中北","province":"東京都","city":"立川市","address":"東京都立川市西砂町5丁目34","lat":35.73520154,"lon":139.36785154},{"name":"地域センター前","province":"東京都","city":"立川市","address":"東京都立川市西砂町6丁目12-4","lat":35.72923562,"lon":139.37218204},{"name":"立川健康会館西","province":"東京都","city":"立川市","address":"東京都立川市高松町2丁目1-11","lat":35.70487018,"lon":139.41724524},{"name":"立川病院東","province":"東京都","city":"立川市","address":"東京都立川市錦町4丁目4-5","lat":35.69160795,"lon":139.42296472},{"name":"第四機動隊北","province":"東京都","city":"立川市","address":"東京都立川市緑町3567","lat":35.7125968,"lon":139.40643755},{"name":"昭和記念公園あけぼの口","province":"東京都","city":"立川市","address":"東京都立川市曙町2丁目42-23","lat":35.70177873,"lon":139.41185409},{"name":"立川市役所","province":"東京都","city":"立川市","address":"東京都立川市泉町1156-9","lat":35.71399946,"lon":139.4078846},{"name":"モノレール基地脇","province":"東京都","city":"立川市","address":"東京都立川市泉町935-1","lat":35.71253317,"lon":139.4161173},{"name":"裁判所前","province":"東京都","city":"立川市","address":"東京都立川市緑町10-4","lat":35.71203865,"lon":139.41090941},{"name":"西武立川駅南口","province":"東京都","city":"立川市","address":"東京都立川市西砂町1丁目2-27","lat":35.72528883,"lon":139.37091001},{"name":"柴崎浄水所","province":"東京都","city":"立川市","address":"東京都立川市柴崎町1丁目1-41","lat":35.69686245,"lon":139.40595201},{"name":"立川栄町浄水所","province":"東京都","city":"立川市","address":"東京都立川市栄町5丁目38-5","lat":35.71814941,"lon":139.42479141},{"name":"西砂第一浄水所","province":"東京都","city":"立川市","address":"東京都立川市西砂町2丁目53-14","lat":35.73083799,"lon":139.36059394},{"name":"立川砂川浄水所","province":"東京都","city":"立川市","address":"東京都立川市砂川町6丁目41-1","lat":35.72996987,"lon":139.407348},{"name":"西砂第一浄水所（注１）","province":"東京都","city":"立川市","address":"東京都立川市西砂町2丁目53-14","lat":35.73083799,"lon":139.36059394},{"name":"南部西ふじみ地域包括支援センター","province":"東京都","city":"立川市","address":"立川市富士見町2-36-47社会福祉協議会内","lat":35.70158,"lon":139.402008},{"name":"南部東はごろも地域包括支援センター","province":"東京都","city":"立川市","address":"立川市羽衣町1-12-18羽衣地域福祉サービスセンター内","lat":35.697369,"lon":139.425613},{"name":"中部たかまつ地域包括支援センター","province":"東京都","city":"立川市","address":"立川市高松町2-27-27TBK第2高松ビル105号","lat":35.704739,"lon":139.418625},{"name":"北部東わかば地域包括支援センター","province":"東京都","city":"立川市","address":"立川市若葉町3-45-2老人保健施設わかば内","lat":35.719658,"lon":139.441452},{"name":"北部中さいわい地域包括支援センター","province":"東京都","city":"立川市","address":"立川市幸町4-14-1至誠キートスホーム内","lat":35.724712,"lon":139.428299},{"name":"北部西かみすな地域包括支援センター","province":"東京都","city":"立川市","address":"立川市上砂町5-76-4砂川園内","lat":35.730007,"lon":139.389557},{"name":"にしき福祉相談センター","province":"東京都","city":"立川市","address":"立川市錦町6-28-15至誠ホーム内","lat":35.685169,"lon":139.416306},{"name":"かみすな福祉相談センター","province":"東京都","city":"立川市","address":"立川市上砂町1-13-1上砂地域福祉サービスセンター内","lat":35.720753,"lon":139.388092},{"name":"にしすな福祉相談センター","province":"東京都","city":"立川市","address":"立川市西砂町5-5-5西砂ホーム内","lat":35.731091,"lon":139.363205},{"name":"立川市見守りホットライン","province":"東京都","city":"立川市","address":"立川市泉町1156-9立川市役所","lat":35.715286,"lon":139.406281},{"name":"立川市役所","province":"東京都","city":"立川市","address":"立川市泉町1156-9","lat":35.715286,"lon":139.406281},{"name":"立川市消費生活センター","province":"東京都","city":"立川市","address":"立川市曙町2-36-2立川市女性総合センター5F","lat":35.701874,"lon":139.414169},{"name":"市民会館西","province":"東京都","city":"立川市","address":"東京都立川市錦町3丁目5-1","lat":35.69314932,"lon":139.41859835},{"name":"曙橋","province":"東京都","city":"立川市","address":"東京都立川市曙町2丁目8-3","lat":35.7005817,"lon":139.41420952},{"name":"柴崎町二丁目","province":"東京都","city":"立川市","address":"東京都立川市柴崎町2丁目9-19","lat":35.69700691,"lon":139.4069158},{"name":"立川富士見町交番前","province":"東京都","city":"立川市","address":"東京都立川市富士見町6丁目19-1","lat":35.6924793,"lon":139.39275329},{"name":"立川駅北口","province":"東京都","city":"立川市","address":"東京都立川市曙町2丁目12-1","lat":35.6992013,"lon":139.41435956},{"name":"立川駅北口西","province":"東京都","city":"立川市","address":"東京都立川市曙町2丁目4-6","lat":35.69877907,"lon":139.41217364},{"name":"立川至誠老人ホーム前","province":"東京都","city":"立川市","address":"東京都立川市錦町6丁目28-15","lat":35.68536958,"lon":139.41604886},{"name":"災害医療センター前","province":"東京都","city":"立川市","address":"東京都立川市緑町3173","lat":35.70335899,"lon":139.40788769},{"name":"立川富士見町二丁目第二","province":"東京都","city":"立川市","address":"東京都立川市富士見町2丁目22-19","lat":35.70014809,"lon":139.40231607},{"name":"砂川九番北","province":"東京都","city":"立川市","address":"東京都立川市若葉町3丁目3-3","lat":35.72272686,"lon":139.43276005},{"name":"立川合同庁舎前","province":"東京都","city":"立川市","address":"東京都立川市錦町4丁目6","lat":35.69183285,"lon":139.42034548},{"name":"立川七中北","province":"東京都","city":"立川市","address":"東京都立川市西砂町5丁目34","lat":35.73520154,"lon":139.36785154},{"name":"地域センター前","province":"東京都","city":"立川市","address":"東京都立川市西砂町6丁目12-4","lat":35.72923562,"lon":139.37218204},{"name":"立川健康会館西","province":"東京都","city":"立川市","address":"東京都立川市高松町2丁目1-11","lat":35.70487018,"lon":139.41724524},{"name":"立川病院東","province":"東京都","city":"立川市","address":"東京都立川市錦町4丁目4-5","lat":35.69160795,"lon":139.42296472},{"name":"第四機動隊北","province":"東京都","city":"立川市","address":"東京都立川市緑町3567","lat":35.7125968,"lon":139.40643755},{"name":"昭和記念公園あけぼの口","province":"東京都","city":"立川市","address":"東京都立川市曙町2丁目42-23","lat":35.70177873,"lon":139.41185409},{"name":"立川市役所","province":"東京都","city":"立川市","address":"東京都立川市泉町1156-9","lat":35.71399946,"lon":139.4078846},{"name":"モノレール基地脇","province":"東京都","city":"立川市","address":"東京都立川市泉町935-1","lat":35.71253317,"lon":139.4161173},{"name":"裁判所前","province":"東京都","city":"立川市","address":"東京都立川市緑町10-4","lat":35.71203865,"lon":139.41090941},{"name":"西武立川駅南口","province":"東京都","city":"立川市","address":"東京都立川市西砂町1丁目2-27","lat":35.72528883,"lon":139.37091001},{"name":"柴崎浄水所","province":"東京都","city":"立川市","address":"東京都立川市柴崎町1丁目1-41","lat":35.69686245,"lon":139.40595201},{"name":"立川栄町浄水所","province":"東京都","city":"立川市","address":"東京都立川市栄町5丁目38-5","lat":35.71814941,"lon":139.42479141},{"name":"西砂第一浄水所","province":"東京都","city":"立川市","address":"東京都立川市西砂町2丁目53-14","lat":35.73083799,"lon":139.36059394},{"name":"立川砂川浄水所","province":"東京都","city":"立川市","address":"東京都立川市砂川町6丁目41-1","lat":35.72996987,"lon":139.407348},{"name":"西砂第一浄水所（注１）","province":"東京都","city":"立川市","address":"東京都立川市西砂町2丁目53-14","lat":35.73083799,"lon":139.36059394},{"name":"南部西ふじみ地域包括支援センター","province":"東京都","city":"立川市","address":"立川市富士見町2-36-47社会福祉協議会内","lat":35.70158,"lon":139.402008},{"name":"南部東はごろも地域包括支援センター","province":"東京都","city":"立川市","address":"立川市羽衣町1-12-18羽衣地域福祉サービスセンター内","lat":35.697369,"lon":139.425613},{"name":"中部たかまつ地域包括支援センター","province":"東京都","city":"立川市","address":"立川市高松町2-27-27TBK第2高松ビル105号","lat":35.704739,"lon":139.418625},{"name":"北部東わかば地域包括支援センター","province":"東京都","city":"立川市","address":"立川市若葉町3-45-2老人保健施設わかば内","lat":35.719658,"lon":139.441452},{"name":"北部中さいわい地域包括支援センター","province":"東京都","city":"立川市","address":"立川市幸町4-14-1至誠キートスホーム内","lat":35.724712,"lon":139.428299},{"name":"北部西かみすな地域包括支援センター","province":"東京都","city":"立川市","address":"立川市上砂町5-76-4砂川園内","lat":35.730007,"lon":139.389557},{"name":"にしき福祉相談センター","province":"東京都","city":"立川市","address":"立川市錦町6-28-15至誠ホーム内","lat":35.685169,"lon":139.416306},{"name":"かみすな福祉相談センター","province":"東京都","city":"立川市","address":"立川市上砂町1-13-1上砂地域福祉サービスセンター内","lat":35.720753,"lon":139.388092},{"name":"にしすな福祉相談センター","province":"東京都","city":"立川市","address":"立川市西砂町5-5-5西砂ホーム内","lat":35.731091,"lon":139.363205},{"name":"立川市見守りホットライン","province":"東京都","city":"立川市","address":"立川市泉町1156-9立川市役所","lat":35.715286,"lon":139.406281},{"name":"立川市役所","province":"東京都","city":"立川市","address":"立川市泉町1156-9","lat":35.715286,"lon":139.406281},{"name":"立川市消費生活センター","province":"東京都","city":"立川市","address":"立川市曙町2-36-2立川市女性総合センター5F","lat":35.701874,"lon":139.414169},{"name":"市民会館西","province":"東京都","city":"立川市","address":"東京都立川市錦町3丁目5-1","lat":35.69314932,"lon":139.41859835},{"name":"曙橋","province":"東京都","city":"立川市","address":"東京都立川市曙町2丁目8-3","lat":35.7005817,"lon":139.41420952},{"name":"柴崎町二丁目","province":"東京都","city":"立川市","address":"東京都立川市柴崎町2丁目9-19","lat":35.69700691,"lon":139.4069158},{"name":"立川富士見町交番前","province":"東京都","city":"立川市","address":"東京都立川市富士見町6丁目19-1","lat":35.6924793,"lon":139.39275329},{"name":"立川駅北口","province":"東京都","city":"立川市","address":"東京都立川市曙町2丁目12-1","lat":35.6992013,"lon":139.41435956},{"name":"立川駅北口西","province":"東京都","city":"立川市","address":"東京都立川市曙町2丁目4-6","lat":35.69877907,"lon":139.41217364},{"name":"立川至誠老人ホーム前","province":"東京都","city":"立川市","address":"東京都立川市錦町6丁目28-15","lat":35.68536958,"lon":139.41604886},{"name":"災害医療センター前","province":"東京都","city":"立川市","address":"東京都立川市緑町3173","lat":35.70335899,"lon":139.40788769},{"name":"立川富士見町二丁目第二","province":"東京都","city":"立川市","address":"東京都立川市富士見町2丁目22-19","lat":35.70014809,"lon":139.40231607},{"name":"砂川九番北","province":"東京都","city":"立川市","address":"東京都立川市若葉町3丁目3-3","lat":35.72272686,"lon":139.43276005},{"name":"立川合同庁舎前","province":"東京都","city":"立川市","address":"東京都立川市錦町4丁目6","lat":35.69183285,"lon":139.42034548},{"name":"立川七中北","province":"東京都","city":"立川市","address":"東京都立川市西砂町5丁目34","lat":35.73520154,"lon":139.36785154},{"name":"地域センター前","province":"東京都","city":"立川市","address":"東京都立川市西砂町6丁目12-4","lat":35.72923562,"lon":139.37218204},{"name":"立川健康会館西","province":"東京都","city":"立川市","address":"東京都立川市高松町2丁目1-11","lat":35.70487018,"lon":139.41724524},{"name":"立川病院東","province":"東京都","city":"立川市","address":"東京都立川市錦町4丁目4-5","lat":35.69160795,"lon":139.42296472},{"name":"第四機動隊北","province":"東京都","city":"立川市","address":"東京都立川市緑町3567","lat":35.7125968,"lon":139.40643755},{"name":"昭和記念公園あけぼの口","province":"東京都","city":"立川市","address":"東京都立川市曙町2丁目42-23","lat":35.70177873,"lon":139.41185409},{"name":"立川市役所","province":"東京都","city":"立川市","address":"東京都立川市泉町1156-9","lat":35.71399946,"lon":139.4078846},{"name":"モノレール基地脇","province":"東京都","city":"立川市","address":"東京都立川市泉町935-1","lat":35.71253317,"lon":139.4161173},{"name":"裁判所前","province":"東京都","city":"立川市","address":"東京都立川市緑町10-4","lat":35.71203865,"lon":139.41090941},{"name":"西武立川駅南口","province":"東京都","city":"立川市","address":"東京都立川市西砂町1丁目2-27","lat":35.72528883,"lon":139.37091001},{"name":"柴崎浄水所","province":"東京都","city":"立川市","address":"東京都立川市柴崎町1丁目1-41","lat":35.69686245,"lon":139.40595201},{"name":"立川栄町浄水所","province":"東京都","city":"立川市","address":"東京都立川市栄町5丁目38-5","lat":35.71814941,"lon":139.42479141},{"name":"西砂第一浄水所","province":"東京都","city":"立川市","address":"東京都立川市西砂町2丁目53-14","lat":35.73083799,"lon":139.36059394},{"name":"立川砂川浄水所","province":"東京都","city":"立川市","address":"東京都立川市砂川町6丁目41-1","lat":35.72996987,"lon":139.407348},{"name":"西砂第一浄水所（注１）","province":"東京都","city":"立川市","address":"東京都立川市西砂町2丁目53-14","lat":35.73083799,"lon":139.36059394},{"name":"南部西ふじみ地域包括支援センター","province":"東京都","city":"立川市","address":"立川市富士見町2-36-47社会福祉協議会内","lat":35.70158,"lon":139.402008},{"name":"南部東はごろも地域包括支援センター","province":"東京都","city":"立川市","address":"立川市羽衣町1-12-18羽衣地域福祉サービスセンター内","lat":35.697369,"lon":139.425613},{"name":"中部たかまつ地域包括支援センター","province":"東京都","city":"立川市","address":"立川市高松町2-27-27TBK第2高松ビル105号","lat":35.704739,"lon":139.418625},{"name":"北部東わかば地域包括支援センター","province":"東京都","city":"立川市","address":"立川市若葉町3-45-2老人保健施設わかば内","lat":35.719658,"lon":139.441452},{"name":"北部中さいわい地域包括支援センター","province":"東京都","city":"立川市","address":"立川市幸町4-14-1至誠キートスホーム内","lat":35.724712,"lon":139.428299},{"name":"北部西かみすな地域包括支援センター","province":"東京都","city":"立川市","address":"立川市上砂町5-76-4砂川園内","lat":35.730007,"lon":139.389557},{"name":"にしき福祉相談センター","province":"東京都","city":"立川市","address":"立川市錦町6-28-15至誠ホーム内","lat":35.685169,"lon":139.416306},{"name":"かみすな福祉相談センター","province":"東京都","city":"立川市","address":"立川市上砂町1-13-1上砂地域福祉サービスセンター内","lat":35.720753,"lon":139.388092},{"name":"にしすな福祉相談センター","province":"東京都","city":"立川市","address":"立川市西砂町5-5-5西砂ホーム内","lat":35.731091,"lon":139.363205},{"name":"立川市見守りホットライン","province":"東京都","city":"立川市","address":"立川市泉町1156-9立川市役所","lat":35.715286,"lon":139.406281},{"name":"立川市役所","province":"東京都","city":"立川市","address":"立川市泉町1156-9","lat":35.715286,"lon":139.406281},{"name":"立川市消費生活センター","province":"東京都","city":"立川市","address":"立川市曙町2-36-2立川市女性総合センター5F","lat":35.701874,"lon":139.414169},{"name":"市民会館西","province":"東京都","city":"立川市","address":"東京都立川市錦町3丁目5-1","lat":35.69314932,"lon":139.41859835},{"name":"曙橋","province":"東京都","city":"立川市","address":"東京都立川市曙町2丁目8-3","lat":35.7005817,"lon":139.41420952},{"name":"柴崎町二丁目","province":"東京都","city":"立川市","address":"東京都立川市柴崎町2丁目9-19","lat":35.69700691,"lon":139.4069158},{"name":"立川富士見町交番前","province":"東京都","city":"立川市","address":"東京都立川市富士見町6丁目19-1","lat":35.6924793,"lon":139.39275329},{"name":"立川駅北口","province":"東京都","city":"立川市","address":"東京都立川市曙町2丁目12-1","lat":35.6992013,"lon":139.41435956},{"name":"立川駅北口西","province":"東京都","city":"立川市","address":"東京都立川市曙町2丁目4-6","lat":35.69877907,"lon":139.41217364},{"name":"立川至誠老人ホーム前","province":"東京都","city":"立川市","address":"東京都立川市錦町6丁目28-15","lat":35.68536958,"lon":139.41604886},{"name":"災害医療センター前","province":"東京都","city":"立川市","address":"東京都立川市緑町3173","lat":35.70335899,"lon":139.40788769},{"name":"立川富士見町二丁目第二","province":"東京都","city":"立川市","address":"東京都立川市富士見町2丁目22-19","lat":35.70014809,"lon":139.40231607},{"name":"砂川九番北","province":"東京都","city":"立川市","address":"東京都立川市若葉町3丁目3-3","lat":35.72272686,"lon":139.43276005},{"name":"立川合同庁舎前","province":"東京都","city":"立川市","address":"東京都立川市錦町4丁目6","lat":35.69183285,"lon":139.42034548},{"name":"立川七中北","province":"東京都","city":"立川市","address":"東京都立川市西砂町5丁目34","lat":35.73520154,"lon":139.36785154},{"name":"地域センター前","province":"東京都","city":"立川市","address":"東京都立川市西砂町6丁目12-4","lat":35.72923562,"lon":139.37218204},{"name":"立川健康会館西","province":"東京都","city":"立川市","address":"東京都立川市高松町2丁目1-11","lat":35.70487018,"lon":139.41724524},{"name":"立川病院東","province":"東京都","city":"立川市","address":"東京都立川市錦町4丁目4-5","lat":35.69160795,"lon":139.42296472},{"name":"第四機動隊北","province":"東京都","city":"立川市","address":"東京都立川市緑町3567","lat":35.7125968,"lon":139.40643755},{"name":"昭和記念公園あけぼの口","province":"東京都","city":"立川市","address":"東京都立川市曙町2丁目42-23","lat":35.70177873,"lon":139.41185409},{"name":"立川市役所","province":"東京都","city":"立川市","address":"東京都立川市泉町1156-9","lat":35.71399946,"lon":139.4078846},{"name":"モノレール基地脇","province":"東京都","city":"立川市","address":"東京都立川市泉町935-1","lat":35.71253317,"lon":139.4161173},{"name":"裁判所前","province":"東京都","city":"立川市","address":"東京都立川市緑町10-4","lat":35.71203865,"lon":139.41090941},{"name":"西武立川駅南口","province":"東京都","city":"立川市","address":"東京都立川市西砂町1丁目2-27","lat":35.72528883,"lon":139.37091001},{"name":"柴崎浄水所","province":"東京都","city":"立川市","address":"東京都立川市柴崎町1丁目1-41","lat":35.69686245,"lon":139.40595201},{"name":"立川栄町浄水所","province":"東京都","city":"立川市","address":"東京都立川市栄町5丁目38-5","lat":35.71814941,"lon":139.42479141},{"name":"西砂第一浄水所","province":"東京都","city":"立川市","address":"東京都立川市西砂町2丁目53-14","lat":35.73083799,"lon":139.36059394},{"name":"立川砂川浄水所","province":"東京都","city":"立川市","address":"東京都立川市砂川町6丁目41-1","lat":35.72996987,"lon":139.407348},{"name":"西砂第一浄水所（注１）","province":"東京都","city":"立川市","address":"東京都立川市西砂町2丁目53-14","lat":35.73083799,"lon":139.36059394},{"name":"南部西ふじみ地域包括支援センター","province":"東京都","city":"立川市","address":"立川市富士見町2-36-47社会福祉協議会内","lat":35.70158,"lon":139.402008},{"name":"南部東はごろも地域包括支援センター","province":"東京都","city":"立川市","address":"立川市羽衣町1-12-18羽衣地域福祉サービスセンター内","lat":35.697369,"lon":139.425613},{"name":"中部たかまつ地域包括支援センター","province":"東京都","city":"立川市","address":"立川市高松町2-27-27TBK第2高松ビル105号","lat":35.704739,"lon":139.418625},{"name":"北部東わかば地域包括支援センター","province":"東京都","city":"立川市","address":"立川市若葉町3-45-2老人保健施設わかば内","lat":35.719658,"lon":139.441452},{"name":"北部中さいわい地域包括支援センター","province":"東京都","city":"立川市","address":"立川市幸町4-14-1至誠キートスホーム内","lat":35.724712,"lon":139.428299},{"name":"北部西かみすな地域包括支援センター","province":"東京都","city":"立川市","address":"立川市上砂町5-76-4砂川園内","lat":35.730007,"lon":139.389557},{"name":"にしき福祉相談センター","province":"東京都","city":"立川市","address":"立川市錦町6-28-15至誠ホーム内","lat":35.685169,"lon":139.416306},{"name":"かみすな福祉相談センター","province":"東京都","city":"立川市","address":"立川市上砂町1-13-1上砂地域福祉サービスセンター内","lat":35.720753,"lon":139.388092},{"name":"にしすな福祉相談センター","province":"東京都","city":"立川市","address":"立川市西砂町5-5-5西砂ホーム内","lat":35.731091,"lon":139.363205},{"name":"立川市見守りホットライン","province":"東京都","city":"立川市","address":"立川市泉町1156-9立川市役所","lat":35.715286,"lon":139.406281},{"name":"立川市役所","province":"東京都","city":"立川市","address":"立川市泉町1156-9","lat":35.715286,"lon":139.406281},{"name":"立川市消費生活センター","province":"東京都","city":"立川市","address":"立川市曙町2-36-2立川市女性総合センター5F","lat":35.701874,"lon":139.414169},{"name":"市民会館西","province":"東京都","city":"立川市","address":"東京都立川市錦町3丁目5-1","lat":35.69314932,"lon":139.41859835},{"name":"曙橋","province":"東京都","city":"立川市","address":"東京都立川市曙町2丁目8-3","lat":35.7005817,"lon":139.41420952},{"name":"柴崎町二丁目","province":"東京都","city":"立川市","address":"東京都立川市柴崎町2丁目9-19","lat":35.69700691,"lon":139.4069158},{"name":"立川富士見町交番前","province":"東京都","city":"立川市","address":"東京都立川市富士見町6丁目19-1","lat":35.6924793,"lon":139.39275329},{"name":"立川駅北口","province":"東京都","city":"立川市","address":"東京都立川市曙町2丁目12-1","lat":35.6992013,"lon":139.41435956},{"name":"立川駅北口西","province":"東京都","city":"立川市","address":"東京都立川市曙町2丁目4-6","lat":35.69877907,"lon":139.41217364},{"name":"立川至誠老人ホーム前","province":"東京都","city":"立川市","address":"東京都立川市錦町6丁目28-15","lat":35.68536958,"lon":139.41604886},{"name":"災害医療センター前","province":"東京都","city":"立川市","address":"東京都立川市緑町3173","lat":35.70335899,"lon":139.40788769},{"name":"立川富士見町二丁目第二","province":"東京都","city":"立川市","address":"東京都立川市富士見町2丁目22-19","lat":35.70014809,"lon":139.40231607},{"name":"砂川九番北","province":"東京都","city":"立川市","address":"東京都立川市若葉町3丁目3-3","lat":35.72272686,"lon":139.43276005},{"name":"立川合同庁舎前","province":"東京都","city":"立川市","address":"東京都立川市錦町4丁目6","lat":35.69183285,"lon":139.42034548},{"name":"立川七中北","province":"東京都","city":"立川市","address":"東京都立川市西砂町5丁目34","lat":35.73520154,"lon":139.36785154},{"name":"地域センター前","province":"東京都","city":"立川市","address":"東京都立川市西砂町6丁目12-4","lat":35.72923562,"lon":139.37218204},{"name":"立川健康会館西","province":"東京都","city":"立川市","address":"東京都立川市高松町2丁目1-11","lat":35.70487018,"lon":139.41724524},{"name":"立川病院東","province":"東京都","city":"立川市","address":"東京都立川市錦町4丁目4-5","lat":35.69160795,"lon":139.42296472},{"name":"第四機動隊北","province":"東京都","city":"立川市","address":"東京都立川市緑町3567","lat":35.7125968,"lon":139.40643755},{"name":"昭和記念公園あけぼの口","province":"東京都","city":"立川市","address":"東京都立川市曙町2丁目42-23","lat":35.70177873,"lon":139.41185409},{"name":"立川市役所","province":"東京都","city":"立川市","address":"東京都立川市泉町1156-9","lat":35.71399946,"lon":139.4078846},{"name":"モノレール基地脇","province":"東京都","city":"立川市","address":"東京都立川市泉町935-1","lat":35.71253317,"lon":139.4161173},{"name":"裁判所前","province":"東京都","city":"立川市","address":"東京都立川市緑町10-4","lat":35.71203865,"lon":139.41090941},{"name":"西武立川駅南口","province":"東京都","city":"立川市","address":"東京都立川市西砂町1丁目2-27","lat":35.72528883,"lon":139.37091001},{"name":"柴崎浄水所","province":"東京都","city":"立川市","address":"東京都立川市柴崎町1丁目1-41","lat":35.69686245,"lon":139.40595201},{"name":"立川栄町浄水所","province":"東京都","city":"立川市","address":"東京都立川市栄町5丁目38-5","lat":35.71814941,"lon":139.42479141},{"name":"西砂第一浄水所","province":"東京都","city":"立川市","address":"東京都立川市西砂町2丁目53-14","lat":35.73083799,"lon":139.36059394},{"name":"立川砂川浄水所","province":"東京都","city":"立川市","address":"東京都立川市砂川町6丁目41-1","lat":35.72996987,"lon":139.407348},{"name":"西砂第一浄水所（注１）","province":"東京都","city":"立川市","address":"東京都立川市西砂町2丁目53-14","lat":35.73083799,"lon":139.36059394},{"name":"南部西ふじみ地域包括支援センター","province":"東京都","city":"立川市","address":"立川市富士見町2-36-47社会福祉協議会内","lat":35.70158,"lon":139.402008},{"name":"南部東はごろも地域包括支援センター","province":"東京都","city":"立川市","address":"立川市羽衣町1-12-18羽衣地域福祉サービスセンター内","lat":35.697369,"lon":139.425613},{"name":"中部たかまつ地域包括支援センター","province":"東京都","city":"立川市","address":"立川市高松町2-27-27TBK第2高松ビル105号","lat":35.704739,"lon":139.418625},{"name":"北部東わかば地域包括支援センター","province":"東京都","city":"立川市","address":"立川市若葉町3-45-2老人保健施設わかば内","lat":35.719658,"lon":139.441452},{"name":"北部中さいわい地域包括支援センター","province":"東京都","city":"立川市","address":"立川市幸町4-14-1至誠キートスホーム内","lat":35.724712,"lon":139.428299},{"name":"北部西かみすな地域包括支援センター","province":"東京都","city":"立川市","address":"立川市上砂町5-76-4砂川園内","lat":35.730007,"lon":139.389557},{"name":"にしき福祉相談センター","province":"東京都","city":"立川市","address":"立川市錦町6-28-15至誠ホーム内","lat":35.685169,"lon":139.416306},{"name":"かみすな福祉相談センター","province":"東京都","city":"立川市","address":"立川市上砂町1-13-1上砂地域福祉サービスセンター内","lat":35.720753,"lon":139.388092},{"name":"にしすな福祉相談センター","province":"東京都","city":"立川市","address":"立川市西砂町5-5-5西砂ホーム内","lat":35.731091,"lon":139.363205},{"name":"立川市見守りホットライン","province":"東京都","city":"立川市","address":"立川市泉町1156-9立川市役所","lat":35.715286,"lon":139.406281},{"name":"立川市役所","province":"東京都","city":"立川市","address":"立川市泉町1156-9","lat":35.715286,"lon":139.406281},{"name":"立川市消費生活センター","province":"東京都","city":"立川市","address":"立川市曙町2-36-2立川市女性総合センター5F","lat":35.701874,"lon":139.414169},{"name":"市民会館西","province":"東京都","city":"立川市","address":"東京都立川市錦町3丁目5-1","lat":35.69314932,"lon":139.41859835},{"name":"曙橋","province":"東京都","city":"立川市","address":"東京都立川市曙町2丁目8-3","lat":35.7005817,"lon":139.41420952},{"name":"柴崎町二丁目","province":"東京都","city":"立川市","address":"東京都立川市柴崎町2丁目9-19","lat":35.69700691,"lon":139.4069158},{"name":"立川富士見町交番前","province":"東京都","city":"立川市","address":"東京都立川市富士見町6丁目19-1","lat":35.6924793,"lon":139.39275329},{"name":"立川駅北口","province":"東京都","city":"立川市","address":"東京都立川市曙町2丁目12-1","lat":35.6992013,"lon":139.41435956},{"name":"立川駅北口西","province":"東京都","city":"立川市","address":"東京都立川市曙町2丁目4-6","lat":35.69877907,"lon":139.41217364},{"name":"立川至誠老人ホーム前","province":"東京都","city":"立川市","address":"東京都立川市錦町6丁目28-15","lat":35.68536958,"lon":139.41604886},{"name":"災害医療センター前","province":"東京都","city":"立川市","address":"東京都立川市緑町3173","lat":35.70335899,"lon":139.40788769},{"name":"立川富士見町二丁目第二","province":"東京都","city":"立川市","address":"東京都立川市富士見町2丁目22-19","lat":35.70014809,"lon":139.40231607},{"name":"砂川九番北","province":"東京都","city":"立川市","address":"東京都立川市若葉町3丁目3-3","lat":35.72272686,"lon":139.43276005},{"name":"立川合同庁舎前","province":"東京都","city":"立川市","address":"東京都立川市錦町4丁目6","lat":35.69183285,"lon":139.42034548},{"name":"立川七中北","province":"東京都","city":"立川市","address":"東京都立川市西砂町5丁目34","lat":35.73520154,"lon":139.36785154},{"name":"地域センター前","province":"東京都","city":"立川市","address":"東京都立川市西砂町6丁目12-4","lat":35.72923562,"lon":139.37218204},{"name":"立川健康会館西","province":"東京都","city":"立川市","address":"東京都立川市高松町2丁目1-11","lat":35.70487018,"lon":139.41724524},{"name":"立川病院東","province":"東京都","city":"立川市","address":"東京都立川市錦町4丁目4-5","lat":35.69160795,"lon":139.42296472},{"name":"第四機動隊北","province":"東京都","city":"立川市","address":"東京都立川市緑町3567","lat":35.7125968,"lon":139.40643755},{"name":"昭和記念公園あけぼの口","province":"東京都","city":"立川市","address":"東京都立川市曙町2丁目42-23","lat":35.70177873,"lon":139.41185409},{"name":"立川市役所","province":"東京都","city":"立川市","address":"東京都立川市泉町1156-9","lat":35.71399946,"lon":139.4078846},{"name":"モノレール基地脇","province":"東京都","city":"立川市","address":"東京都立川市泉町935-1","lat":35.71253317,"lon":139.4161173},{"name":"裁判所前","province":"東京都","city":"立川市","address":"東京都立川市緑町10-4","lat":35.71203865,"lon":139.41090941},{"name":"西武立川駅南口","province":"東京都","city":"立川市","address":"東京都立川市西砂町1丁目2-27","lat":35.72528883,"lon":139.37091001},{"name":"柴崎浄水所","province":"東京都","city":"立川市","address":"東京都立川市柴崎町1丁目1-41","lat":35.69686245,"lon":139.40595201},{"name":"立川栄町浄水所","province":"東京都","city":"立川市","address":"東京都立川市栄町5丁目38-5","lat":35.71814941,"lon":139.42479141},{"name":"西砂第一浄水所","province":"東京都","city":"立川市","address":"東京都立川市西砂町2丁目53-14","lat":35.73083799,"lon":139.36059394},{"name":"立川砂川浄水所","province":"東京都","city":"立川市","address":"東京都立川市砂川町6丁目41-1","lat":35.72996987,"lon":139.407348},{"name":"西砂第一浄水所（注１）","province":"東京都","city":"立川市","address":"東京都立川市西砂町2丁目53-14","lat":35.73083799,"lon":139.36059394},{"name":"南部西ふじみ地域包括支援センター","province":"東京都","city":"立川市","address":"立川市富士見町2-36-47社会福祉協議会内","lat":35.70158,"lon":139.402008},{"name":"南部東はごろも地域包括支援センター","province":"東京都","city":"立川市","address":"立川市羽衣町1-12-18羽衣地域福祉サービスセンター内","lat":35.697369,"lon":139.425613},{"name":"中部たかまつ地域包括支援センター","province":"東京都","city":"立川市","address":"立川市高松町2-27-27TBK第2高松ビル105号","lat":35.704739,"lon":139.418625},{"name":"北部東わかば地域包括支援センター","province":"東京都","city":"立川市","address":"立川市若葉町3-45-2老人保健施設わかば内","lat":35.719658,"lon":139.441452},{"name":"北部中さいわい地域包括支援センター","province":"東京都","city":"立川市","address":"立川市幸町4-14-1至誠キートスホーム内","lat":35.724712,"lon":139.428299},{"name":"北部西かみすな地域包括支援センター","province":"東京都","city":"立川市","address":"立川市上砂町5-76-4砂川園内","lat":35.730007,"lon":139.389557},{"name":"にしき福祉相談センター","province":"東京都","city":"立川市","address":"立川市錦町6-28-15至誠ホーム内","lat":35.685169,"lon":139.416306},{"name":"かみすな福祉相談センター","province":"東京都","city":"立川市","address":"立川市上砂町1-13-1上砂地域福祉サービスセンター内","lat":35.720753,"lon":139.388092},{"name":"にしすな福祉相談センター","province":"東京都","city":"立川市","address":"立川市西砂町5-5-5西砂ホーム内","lat":35.731091,"lon":139.363205},{"name":"立川市見守りホットライン","province":"東京都","city":"立川市","address":"立川市泉町1156-9立川市役所","lat":35.715286,"lon":139.406281},{"name":"立川市役所","province":"東京都","city":"立川市","address":"立川市泉町1156-9","lat":35.715286,"lon":139.406281},{"name":"立川市消費生活センター","province":"東京都","city":"立川市","address":"立川市曙町2-36-2立川市女性総合センター5F","lat":35.701874,"lon":139.414169},{"name":"市民会館西","province":"東京都","city":"立川市","address":"東京都立川市錦町3丁目5-1","lat":35.69314932,"lon":139.41859835},{"name":"曙橋","province":"東京都","city":"立川市","address":"東京都立川市曙町2丁目8-3","lat":35.7005817,"lon":139.41420952},{"name":"柴崎町二丁目","province":"東京都","city":"立川市","address":"東京都立川市柴崎町2丁目9-19","lat":35.69700691,"lon":139.4069158},{"name":"立川富士見町交番前","province":"東京都","city":"立川市","address":"東京都立川市富士見町6丁目19-1","lat":35.6924793,"lon":139.39275329},{"name":"立川駅北口","province":"東京都","city":"立川市","address":"東京都立川市曙町2丁目12-1","lat":35.6992013,"lon":139.41435956},{"name":"立川駅北口西","province":"東京都","city":"立川市","address":"東京都立川市曙町2丁目4-6","lat":35.69877907,"lon":139.41217364},{"name":"立川至誠老人ホーム前","province":"東京都","city":"立川市","address":"東京都立川市錦町6丁目28-15","lat":35.68536958,"lon":139.41604886},{"name":"災害医療センター前","province":"東京都","city":"立川市","address":"東京都立川市緑町3173","lat":35.70335899,"lon":139.40788769},{"name":"立川富士見町二丁目第二","province":"東京都","city":"立川市","address":"東京都立川市富士見町2丁目22-19","lat":35.70014809,"lon":139.40231607},{"name":"砂川九番北","province":"東京都","city":"立川市","address":"東京都立川市若葉町3丁目3-3","lat":35.72272686,"lon":139.43276005},{"name":"立川合同庁舎前","province":"東京都","city":"立川市","address":"東京都立川市錦町4丁目6","lat":35.69183285,"lon":139.42034548},{"name":"立川七中北","province":"東京都","city":"立川市","address":"東京都立川市西砂町5丁目34","lat":35.73520154,"lon":139.36785154},{"name":"地域センター前","province":"東京都","city":"立川市","address":"東京都立川市西砂町6丁目12-4","lat":35.72923562,"lon":139.37218204},{"name":"立川健康会館西","province":"東京都","city":"立川市","address":"東京都立川市高松町2丁目1-11","lat":35.70487018,"lon":139.41724524},{"name":"立川病院東","province":"東京都","city":"立川市","address":"東京都立川市錦町4丁目4-5","lat":35.69160795,"lon":139.42296472},{"name":"第四機動隊北","province":"東京都","city":"立川市","address":"東京都立川市緑町3567","lat":35.7125968,"lon":139.40643755},{"name":"昭和記念公園あけぼの口","province":"東京都","city":"立川市","address":"東京都立川市曙町2丁目42-23","lat":35.70177873,"lon":139.41185409},{"name":"立川市役所","province":"東京都","city":"立川市","address":"東京都立川市泉町1156-9","lat":35.71399946,"lon":139.4078846},{"name":"モノレール基地脇","province":"東京都","city":"立川市","address":"東京都立川市泉町935-1","lat":35.71253317,"lon":139.4161173},{"name":"裁判所前","province":"東京都","city":"立川市","address":"東京都立川市緑町10-4","lat":35.71203865,"lon":139.41090941},{"name":"西武立川駅南口","province":"東京都","city":"立川市","address":"東京都立川市西砂町1丁目2-27","lat":35.72528883,"lon":139.37091001},{"name":"柴崎浄水所","province":"東京都","city":"立川市","address":"東京都立川市柴崎町1丁目1-41","lat":35.69686245,"lon":139.40595201},{"name":"立川栄町浄水所","province":"東京都","city":"立川市","address":"東京都立川市栄町5丁目38-5","lat":35.71814941,"lon":139.42479141},{"name":"西砂第一浄水所","province":"東京都","city":"立川市","address":"東京都立川市西砂町2丁目53-14","lat":35.73083799,"lon":139.36059394},{"name":"立川砂川浄水所","province":"東京都","city":"立川市","address":"東京都立川市砂川町6丁目41-1","lat":35.72996987,"lon":139.407348},{"name":"西砂第一浄水所（注１）","province":"東京都","city":"立川市","address":"東京都立川市西砂町2丁目53-14","lat":35.73083799,"lon":139.36059394},{"name":"南部西ふじみ地域包括支援センター","province":"東京都","city":"立川市","address":"立川市富士見町2-36-47社会福祉協議会内","lat":35.70158,"lon":139.402008},{"name":"南部東はごろも地域包括支援センター","province":"東京都","city":"立川市","address":"立川市羽衣町1-12-18羽衣地域福祉サービスセンター内","lat":35.697369,"lon":139.425613},{"name":"中部たかまつ地域包括支援センター","province":"東京都","city":"立川市","address":"立川市高松町2-27-27TBK第2高松ビル105号","lat":35.704739,"lon":139.418625},{"name":"北部東わかば地域包括支援センター","province":"東京都","city":"立川市","address":"立川市若葉町3-45-2老人保健施設わかば内","lat":35.719658,"lon":139.441452},{"name":"北部中さいわい地域包括支援センター","province":"東京都","city":"立川市","address":"立川市幸町4-14-1至誠キートスホーム内","lat":35.724712,"lon":139.428299},{"name":"北部西かみすな地域包括支援センター","province":"東京都","city":"立川市","address":"立川市上砂町5-76-4砂川園内","lat":35.730007,"lon":139.389557},{"name":"にしき福祉相談センター","province":"東京都","city":"立川市","address":"立川市錦町6-28-15至誠ホーム内","lat":35.685169,"lon":139.416306},{"name":"かみすな福祉相談センター","province":"東京都","city":"立川市","address":"立川市上砂町1-13-1上砂地域福祉サービスセンター内","lat":35.720753,"lon":139.388092},{"name":"にしすな福祉相談センター","province":"東京都","city":"立川市","address":"立川市西砂町5-5-5西砂ホーム内","lat":35.731091,"lon":139.363205},{"name":"立川市見守りホットライン","province":"東京都","city":"立川市","address":"立川市泉町1156-9立川市役所","lat":35.715286,"lon":139.406281},{"name":"立川市役所","province":"東京都","city":"立川市","address":"立川市泉町1156-9","lat":35.715286,"lon":139.406281},{"name":"立川市消費生活センター","province":"東京都","city":"立川市","address":"立川市曙町2-36-2立川市女性総合センター5F","lat":35.701874,"lon":139.414169},{"name":"市民会館西","province":"東京都","city":"立川市","address":"東京都立川市錦町3丁目5-1","lat":35.69314932,"lon":139.41859835},{"name":"曙橋","province":"東京都","city":"立川市","address":"東京都立川市曙町2丁目8-3","lat":35.7005817,"lon":139.41420952},{"name":"柴崎町二丁目","province":"東京都","city":"立川市","address":"東京都立川市柴崎町2丁目9-19","lat":35.69700691,"lon":139.4069158},{"name":"立川富士見町交番前","province":"東京都","city":"立川市","address":"東京都立川市富士見町6丁目19-1","lat":35.6924793,"lon":139.39275329},{"name":"立川駅北口","province":"東京都","city":"立川市","address":"東京都立川市曙町2丁目12-1","lat":35.6992013,"lon":139.41435956},{"name":"立川駅北口西","province":"東京都","city":"立川市","address":"東京都立川市曙町2丁目4-6","lat":35.69877907,"lon":139.41217364},{"name":"立川至誠老人ホーム前","province":"東京都","city":"立川市","address":"東京都立川市錦町6丁目28-15","lat":35.68536958,"lon":139.41604886},{"name":"災害医療センター前","province":"東京都","city":"立川市","address":"東京都立川市緑町3173","lat":35.70335899,"lon":139.40788769},{"name":"立川富士見町二丁目第二","province":"東京都","city":"立川市","address":"東京都立川市富士見町2丁目22-19","lat":35.70014809,"lon":139.40231607},{"name":"砂川九番北","province":"東京都","city":"立川市","address":"東京都立川市若葉町3丁目3-3","lat":35.72272686,"lon":139.43276005},{"name":"立川合同庁舎前","province":"東京都","city":"立川市","address":"東京都立川市錦町4丁目6","lat":35.69183285,"lon":139.42034548},{"name":"立川七中北","province":"東京都","city":"立川市","address":"東京都立川市西砂町5丁目34","lat":35.73520154,"lon":139.36785154},{"name":"地域センター前","province":"東京都","city":"立川市","address":"東京都立川市西砂町6丁目12-4","lat":35.72923562,"lon":139.37218204},{"name":"立川健康会館西","province":"東京都","city":"立川市","address":"東京都立川市高松町2丁目1-11","lat":35.70487018,"lon":139.41724524},{"name":"立川病院東","province":"東京都","city":"立川市","address":"東京都立川市錦町4丁目4-5","lat":35.69160795,"lon":139.42296472},{"name":"第四機動隊北","province":"東京都","city":"立川市","address":"東京都立川市緑町3567","lat":35.7125968,"lon":139.40643755},{"name":"昭和記念公園あけぼの口","province":"東京都","city":"立川市","address":"東京都立川市曙町2丁目42-23","lat":35.70177873,"lon":139.41185409},{"name":"立川市役所","province":"東京都","city":"立川市","address":"東京都立川市泉町1156-9","lat":35.71399946,"lon":139.4078846},{"name":"モノレール基地脇","province":"東京都","city":"立川市","address":"東京都立川市泉町935-1","lat":35.71253317,"lon":139.4161173},{"name":"裁判所前","province":"東京都","city":"立川市","address":"東京都立川市緑町10-4","lat":35.71203865,"lon":139.41090941},{"name":"西武立川駅南口","province":"東京都","city":"立川市","address":"東京都立川市西砂町1丁目2-27","lat":35.72528883,"lon":139.37091001},{"name":"柴崎浄水所","province":"東京都","city":"立川市","address":"東京都立川市柴崎町1丁目1-41","lat":35.69686245,"lon":139.40595201},{"name":"立川栄町浄水所","province":"東京都","city":"立川市","address":"東京都立川市栄町5丁目38-5","lat":35.71814941,"lon":139.42479141},{"name":"西砂第一浄水所","province":"東京都","city":"立川市","address":"東京都立川市西砂町2丁目53-14","lat":35.73083799,"lon":139.36059394},{"name":"立川砂川浄水所","province":"東京都","city":"立川市","address":"東京都立川市砂川町6丁目41-1","lat":35.72996987,"lon":139.407348},{"name":"西砂第一浄水所（注１）","province":"東京都","city":"立川市","address":"東京都立川市西砂町2丁目53-14","lat":35.73083799,"lon":139.36059394},{"name":"南部西ふじみ地域包括支援センター","province":"東京都","city":"立川市","address":"立川市富士見町2-36-47社会福祉協議会内","lat":35.70158,"lon":139.402008},{"name":"南部東はごろも地域包括支援センター","province":"東京都","city":"立川市","address":"立川市羽衣町1-12-18羽衣地域福祉サービスセンター内","lat":35.697369,"lon":139.425613},{"name":"中部たかまつ地域包括支援センター","province":"東京都","city":"立川市","address":"立川市高松町2-27-27TBK第2高松ビル105号","lat":35.704739,"lon":139.418625},{"name":"北部東わかば地域包括支援センター","province":"東京都","city":"立川市","address":"立川市若葉町3-45-2老人保健施設わかば内","lat":35.719658,"lon":139.441452},{"name":"北部中さいわい地域包括支援センター","province":"東京都","city":"立川市","address":"立川市幸町4-14-1至誠キートスホーム内","lat":35.724712,"lon":139.428299},{"name":"北部西かみすな地域包括支援センター","province":"東京都","city":"立川市","address":"立川市上砂町5-76-4砂川園内","lat":35.730007,"lon":139.389557},{"name":"にしき福祉相談センター","province":"東京都","city":"立川市","address":"立川市錦町6-28-15至誠ホーム内","lat":35.685169,"lon":139.416306},{"name":"かみすな福祉相談センター","province":"東京都","city":"立川市","address":"立川市上砂町1-13-1上砂地域福祉サービスセンター内","lat":35.720753,"lon":139.388092},{"name":"にしすな福祉相談センター","province":"東京都","city":"立川市","address":"立川市西砂町5-5-5西砂ホーム内","lat":35.731091,"lon":139.363205},{"name":"立川市見守りホットライン","province":"東京都","city":"立川市","address":"立川市泉町1156-9立川市役所","lat":35.715286,"lon":139.406281},{"name":"立川市役所","province":"東京都","city":"立川市","address":"立川市泉町1156-9","lat":35.715286,"lon":139.406281},{"name":"立川市消費生活センター","province":"東京都","city":"立川市","address":"立川市曙町2-36-2立川市女性総合センター5F","lat":35.701874,"lon":139.414169},{"name":"市民会館西","province":"東京都","city":"立川市","address":"東京都立川市錦町3丁目5-1","lat":35.69314932,"lon":139.41859835},{"name":"曙橋","province":"東京都","city":"立川市","address":"東京都立川市曙町2丁目8-3","lat":35.7005817,"lon":139.41420952},{"name":"柴崎町二丁目","province":"東京都","city":"立川市","address":"東京都立川市柴崎町2丁目9-19","lat":35.69700691,"lon":139.4069158},{"name":"立川富士見町交番前","province":"東京都","city":"立川市","address":"東京都立川市富士見町6丁目19-1","lat":35.6924793,"lon":139.39275329},{"name":"立川駅北口","province":"東京都","city":"立川市","address":"東京都立川市曙町2丁目12-1","lat":35.6992013,"lon":139.41435956},{"name":"立川駅北口西","province":"東京都","city":"立川市","address":"東京都立川市曙町2丁目4-6","lat":35.69877907,"lon":139.41217364},{"name":"立川至誠老人ホーム前","province":"東京都","city":"立川市","address":"東京都立川市錦町6丁目28-15","lat":35.68536958,"lon":139.41604886},{"name":"災害医療センター前","province":"東京都","city":"立川市","address":"東京都立川市緑町3173","lat":35.70335899,"lon":139.40788769},{"name":"立川富士見町二丁目第二","province":"東京都","city":"立川市","address":"東京都立川市富士見町2丁目22-19","lat":35.70014809,"lon":139.40231607},{"name":"砂川九番北","province":"東京都","city":"立川市","address":"東京都立川市若葉町3丁目3-3","lat":35.72272686,"lon":139.43276005},{"name":"立川合同庁舎前","province":"東京都","city":"立川市","address":"東京都立川市錦町4丁目6","lat":35.69183285,"lon":139.42034548},{"name":"立川七中北","province":"東京都","city":"立川市","address":"東京都立川市西砂町5丁目34","lat":35.73520154,"lon":139.36785154},{"name":"地域センター前","province":"東京都","city":"立川市","address":"東京都立川市西砂町6丁目12-4","lat":35.72923562,"lon":139.37218204},{"name":"立川健康会館西","province":"東京都","city":"立川市","address":"東京都立川市高松町2丁目1-11","lat":35.70487018,"lon":139.41724524},{"name":"立川病院東","province":"東京都","city":"立川市","address":"東京都立川市錦町4丁目4-5","lat":35.69160795,"lon":139.42296472},{"name":"第四機動隊北","province":"東京都","city":"立川市","address":"東京都立川市緑町3567","lat":35.7125968,"lon":139.40643755},{"name":"昭和記念公園あけぼの口","province":"東京都","city":"立川市","address":"東京都立川市曙町2丁目42-23","lat":35.70177873,"lon":139.41185409},{"name":"立川市役所","province":"東京都","city":"立川市","address":"東京都立川市泉町1156-9","lat":35.71399946,"lon":139.4078846},{"name":"モノレール基地脇","province":"東京都","city":"立川市","address":"東京都立川市泉町935-1","lat":35.71253317,"lon":139.4161173},{"name":"裁判所前","province":"東京都","city":"立川市","address":"東京都立川市緑町10-4","lat":35.71203865,"lon":139.41090941},{"name":"西武立川駅南口","province":"東京都","city":"立川市","address":"東京都立川市西砂町1丁目2-27","lat":35.72528883,"lon":139.37091001},{"name":"柴崎浄水所","province":"東京都","city":"立川市","address":"東京都立川市柴崎町1丁目1-41","lat":35.69686245,"lon":139.40595201},{"name":"立川栄町浄水所","province":"東京都","city":"立川市","address":"東京都立川市栄町5丁目38-5","lat":35.71814941,"lon":139.42479141},{"name":"西砂第一浄水所","province":"東京都","city":"立川市","address":"東京都立川市西砂町2丁目53-14","lat":35.73083799,"lon":139.36059394},{"name":"立川砂川浄水所","province":"東京都","city":"立川市","address":"東京都立川市砂川町6丁目41-1","lat":35.72996987,"lon":139.407348},{"name":"西砂第一浄水所（注１）","province":"東京都","city":"立川市","address":"東京都立川市西砂町2丁目53-14","lat":35.73083799,"lon":139.36059394},{"name":"南部西ふじみ地域包括支援センター","province":"東京都","city":"立川市","address":"立川市富士見町2-36-47社会福祉協議会内","lat":35.70158,"lon":139.402008},{"name":"南部東はごろも地域包括支援センター","province":"東京都","city":"立川市","address":"立川市羽衣町1-12-18羽衣地域福祉サービスセンター内","lat":35.697369,"lon":139.425613},{"name":"中部たかまつ地域包括支援センター","province":"東京都","city":"立川市","address":"立川市高松町2-27-27TBK第2高松ビル105号","lat":35.704739,"lon":139.418625},{"name":"北部東わかば地域包括支援センター","province":"東京都","city":"立川市","address":"立川市若葉町3-45-2老人保健施設わかば内","lat":35.719658,"lon":139.441452},{"name":"北部中さいわい地域包括支援センター","province":"東京都","city":"立川市","address":"立川市幸町4-14-1至誠キートスホーム内","lat":35.724712,"lon":139.428299},{"name":"北部西かみすな地域包括支援センター","province":"東京都","city":"立川市","address":"立川市上砂町5-76-4砂川園内","lat":35.730007,"lon":139.389557},{"name":"にしき福祉相談センター","province":"東京都","city":"立川市","address":"立川市錦町6-28-15至誠ホーム内","lat":35.685169,"lon":139.416306},{"name":"かみすな福祉相談センター","province":"東京都","city":"立川市","address":"立川市上砂町1-13-1上砂地域福祉サービスセンター内","lat":35.720753,"lon":139.388092},{"name":"にしすな福祉相談センター","province":"東京都","city":"立川市","address":"立川市西砂町5-5-5西砂ホーム内","lat":35.731091,"lon":139.363205},{"name":"立川市見守りホットライン","province":"東京都","city":"立川市","address":"立川市泉町1156-9立川市役所","lat":35.715286,"lon":139.406281},{"name":"立川市役所","province":"東京都","city":"立川市","address":"立川市泉町1156-9","lat":35.715286,"lon":139.406281},{"name":"立川市消費生活センター","province":"東京都","city":"立川市","address":"立川市曙町2-36-2立川市女性総合センター5F","lat":35.701874,"lon":139.414169},{"name":"市民会館西","province":"東京都","city":"立川市","address":"東京都立川市錦町3丁目5-1","lat":35.69314932,"lon":139.41859835},{"name":"曙橋","province":"東京都","city":"立川市","address":"東京都立川市曙町2丁目8-3","lat":35.7005817,"lon":139.41420952},{"name":"柴崎町二丁目","province":"東京都","city":"立川市","address":"東京都立川市柴崎町2丁目9-19","lat":35.69700691,"lon":139.4069158},{"name":"立川富士見町交番前","province":"東京都","city":"立川市","address":"東京都立川市富士見町6丁目19-1","lat":35.6924793,"lon":139.39275329},{"name":"立川駅北口","province":"東京都","city":"立川市","address":"東京都立川市曙町2丁目12-1","lat":35.6992013,"lon":139.41435956},{"name":"立川駅北口西","province":"東京都","city":"立川市","address":"東京都立川市曙町2丁目4-6","lat":35.69877907,"lon":139.41217364},{"name":"立川至誠老人ホーム前","province":"東京都","city":"立川市","address":"東京都立川市錦町6丁目28-15","lat":35.68536958,"lon":139.41604886},{"name":"災害医療センター前","province":"東京都","city":"立川市","address":"東京都立川市緑町3173","lat":35.70335899,"lon":139.40788769},{"name":"立川富士見町二丁目第二","province":"東京都","city":"立川市","address":"東京都立川市富士見町2丁目22-19","lat":35.70014809,"lon":139.40231607},{"name":"砂川九番北","province":"東京都","city":"立川市","address":"東京都立川市若葉町3丁目3-3","lat":35.72272686,"lon":139.43276005},{"name":"立川合同庁舎前","province":"東京都","city":"立川市","address":"東京都立川市錦町4丁目6","lat":35.69183285,"lon":139.42034548},{"name":"立川七中北","province":"東京都","city":"立川市","address":"東京都立川市西砂町5丁目34","lat":35.73520154,"lon":139.36785154},{"name":"地域センター前","province":"東京都","city":"立川市","address":"東京都立川市西砂町6丁目12-4","lat":35.72923562,"lon":139.37218204},{"name":"立川健康会館西","province":"東京都","city":"立川市","address":"東京都立川市高松町2丁目1-11","lat":35.70487018,"lon":139.41724524},{"name":"立川病院東","province":"東京都","city":"立川市","address":"東京都立川市錦町4丁目4-5","lat":35.69160795,"lon":139.42296472},{"name":"第四機動隊北","province":"東京都","city":"立川市","address":"東京都立川市緑町3567","lat":35.7125968,"lon":139.40643755},{"name":"昭和記念公園あけぼの口","province":"東京都","city":"立川市","address":"東京都立川市曙町2丁目42-23","lat":35.70177873,"lon":139.41185409},{"name":"立川市役所","province":"東京都","city":"立川市","address":"東京都立川市泉町1156-9","lat":35.71399946,"lon":139.4078846},{"name":"モノレール基地脇","province":"東京都","city":"立川市","address":"東京都立川市泉町935-1","lat":35.71253317,"lon":139.4161173},{"name":"裁判所前","province":"東京都","city":"立川市","address":"東京都立川市緑町10-4","lat":35.71203865,"lon":139.41090941},{"name":"西武立川駅南口","province":"東京都","city":"立川市","address":"東京都立川市西砂町1丁目2-27","lat":35.72528883,"lon":139.37091001},{"name":"柴崎浄水所","province":"東京都","city":"立川市","address":"東京都立川市柴崎町1丁目1-41","lat":35.69686245,"lon":139.40595201},{"name":"立川栄町浄水所","province":"東京都","city":"立川市","address":"東京都立川市栄町5丁目38-5","lat":35.71814941,"lon":139.42479141},{"name":"西砂第一浄水所","province":"東京都","city":"立川市","address":"東京都立川市西砂町2丁目53-14","lat":35.73083799,"lon":139.36059394},{"name":"立川砂川浄水所","province":"東京都","city":"立川市","address":"東京都立川市砂川町6丁目41-1","lat":35.72996987,"lon":139.407348},{"name":"西砂第一浄水所（注１）","province":"東京都","city":"立川市","address":"東京都立川市西砂町2丁目53-14","lat":35.73083799,"lon":139.36059394},{"name":"南部西ふじみ地域包括支援センター","province":"東京都","city":"立川市","address":"立川市富士見町2-36-47社会福祉協議会内","lat":35.70158,"lon":139.402008},{"name":"南部東はごろも地域包括支援センター","province":"東京都","city":"立川市","address":"立川市羽衣町1-12-18羽衣地域福祉サービスセンター内","lat":35.697369,"lon":139.425613},{"name":"中部たかまつ地域包括支援センター","province":"東京都","city":"立川市","address":"立川市高松町2-27-27TBK第2高松ビル105号","lat":35.704739,"lon":139.418625},{"name":"北部東わかば地域包括支援センター","province":"東京都","city":"立川市","address":"立川市若葉町3-45-2老人保健施設わかば内","lat":35.719658,"lon":139.441452},{"name":"北部中さいわい地域包括支援センター","province":"東京都","city":"立川市","address":"立川市幸町4-14-1至誠キートスホーム内","lat":35.724712,"lon":139.428299},{"name":"北部西かみすな地域包括支援センター","province":"東京都","city":"立川市","address":"立川市上砂町5-76-4砂川園内","lat":35.730007,"lon":139.389557},{"name":"にしき福祉相談センター","province":"東京都","city":"立川市","address":"立川市錦町6-28-15至誠ホーム内","lat":35.685169,"lon":139.416306},{"name":"かみすな福祉相談センター","province":"東京都","city":"立川市","address":"立川市上砂町1-13-1上砂地域福祉サービスセンター内","lat":35.720753,"lon":139.388092},{"name":"にしすな福祉相談センター","province":"東京都","city":"立川市","address":"立川市西砂町5-5-5西砂ホーム内","lat":35.731091,"lon":139.363205},{"name":"立川市見守りホットライン","province":"東京都","city":"立川市","address":"立川市泉町1156-9立川市役所","lat":35.715286,"lon":139.406281},{"name":"立川市役所","province":"東京都","city":"立川市","address":"立川市泉町1156-9","lat":35.715286,"lon":139.406281},{"name":"立川市消費生活センター","province":"東京都","city":"立川市","address":"立川市曙町2-36-2立川市女性総合センター5F","lat":35.701874,"lon":139.414169},{"name":"市民会館西","province":"東京都","city":"立川市","address":"東京都立川市錦町3丁目5-1","lat":35.69314932,"lon":139.41859835},{"name":"曙橋","province":"東京都","city":"立川市","address":"東京都立川市曙町2丁目8-3","lat":35.7005817,"lon":139.41420952},{"name":"柴崎町二丁目","province":"東京都","city":"立川市","address":"東京都立川市柴崎町2丁目9-19","lat":35.69700691,"lon":139.4069158},{"name":"立川富士見町交番前","province":"東京都","city":"立川市","address":"東京都立川市富士見町6丁目19-1","lat":35.6924793,"lon":139.39275329},{"name":"立川駅北口","province":"東京都","city":"立川市","address":"東京都立川市曙町2丁目12-1","lat":35.6992013,"lon":139.41435956},{"name":"立川駅北口西","province":"東京都","city":"立川市","address":"東京都立川市曙町2丁目4-6","lat":35.69877907,"lon":139.41217364},{"name":"立川至誠老人ホーム前","province":"東京都","city":"立川市","address":"東京都立川市錦町6丁目28-15","lat":35.68536958,"lon":139.41604886},{"name":"災害医療センター前","province":"東京都","city":"立川市","address":"東京都立川市緑町3173","lat":35.70335899,"lon":139.40788769},{"name":"立川富士見町二丁目第二","province":"東京都","city":"立川市","address":"東京都立川市富士見町2丁目22-19","lat":35.70014809,"lon":139.40231607},{"name":"砂川九番北","province":"東京都","city":"立川市","address":"東京都立川市若葉町3丁目3-3","lat":35.72272686,"lon":139.43276005},{"name":"立川合同庁舎前","province":"東京都","city":"立川市","address":"東京都立川市錦町4丁目6","lat":35.69183285,"lon":139.42034548},{"name":"立川七中北","province":"東京都","city":"立川市","address":"東京都立川市西砂町5丁目34","lat":35.73520154,"lon":139.36785154},{"name":"地域センター前","province":"東京都","city":"立川市","address":"東京都立川市西砂町6丁目12-4","lat":35.72923562,"lon":139.37218204},{"name":"立川健康会館西","province":"東京都","city":"立川市","address":"東京都立川市高松町2丁目1-11","lat":35.70487018,"lon":139.41724524},{"name":"立川病院東","province":"東京都","city":"立川市","address":"東京都立川市錦町4丁目4-5","lat":35.69160795,"lon":139.42296472},{"name":"第四機動隊北","province":"東京都","city":"立川市","address":"東京都立川市緑町3567","lat":35.7125968,"lon":139.40643755},{"name":"昭和記念公園あけぼの口","province":"東京都","city":"立川市","address":"東京都立川市曙町2丁目42-23","lat":35.70177873,"lon":139.41185409},{"name":"立川市役所","province":"東京都","city":"立川市","address":"東京都立川市泉町1156-9","lat":35.71399946,"lon":139.4078846},{"name":"モノレール基地脇","province":"東京都","city":"立川市","address":"東京都立川市泉町935-1","lat":35.71253317,"lon":139.4161173},{"name":"裁判所前","province":"東京都","city":"立川市","address":"東京都立川市緑町10-4","lat":35.71203865,"lon":139.41090941},{"name":"西武立川駅南口","province":"東京都","city":"立川市","address":"東京都立川市西砂町1丁目2-27","lat":35.72528883,"lon":139.37091001},{"name":"柴崎浄水所","province":"東京都","city":"立川市","address":"東京都立川市柴崎町1丁目1-41","lat":35.69686245,"lon":139.40595201},{"name":"立川栄町浄水所","province":"東京都","city":"立川市","address":"東京都立川市栄町5丁目38-5","lat":35.71814941,"lon":139.42479141},{"name":"西砂第一浄水所","province":"東京都","city":"立川市","address":"東京都立川市西砂町2丁目53-14","lat":35.73083799,"lon":139.36059394},{"name":"立川砂川浄水所","province":"東京都","city":"立川市","address":"東京都立川市砂川町6丁目41-1","lat":35.72996987,"lon":139.407348},{"name":"西砂第一浄水所（注１）","province":"東京都","city":"立川市","address":"東京都立川市西砂町2丁目53-14","lat":35.73083799,"lon":139.36059394},{"name":"南部西ふじみ地域包括支援センター","province":"東京都","city":"立川市","address":"立川市富士見町2-36-47社会福祉協議会内","lat":35.70158,"lon":139.402008},{"name":"南部東はごろも地域包括支援センター","province":"東京都","city":"立川市","address":"立川市羽衣町1-12-18羽衣地域福祉サービスセンター内","lat":35.697369,"lon":139.425613},{"name":"中部たかまつ地域包括支援センター","province":"東京都","city":"立川市","address":"立川市高松町2-27-27TBK第2高松ビル105号","lat":35.704739,"lon":139.418625},{"name":"北部東わかば地域包括支援センター","province":"東京都","city":"立川市","address":"立川市若葉町3-45-2老人保健施設わかば内","lat":35.719658,"lon":139.441452},{"name":"北部中さいわい地域包括支援センター","province":"東京都","city":"立川市","address":"立川市幸町4-14-1至誠キートスホーム内","lat":35.724712,"lon":139.428299},{"name":"北部西かみすな地域包括支援センター","province":"東京都","city":"立川市","address":"立川市上砂町5-76-4砂川園内","lat":35.730007,"lon":139.389557},{"name":"にしき福祉相談センター","province":"東京都","city":"立川市","address":"立川市錦町6-28-15至誠ホーム内","lat":35.685169,"lon":139.416306},{"name":"かみすな福祉相談センター","province":"東京都","city":"立川市","address":"立川市上砂町1-13-1上砂地域福祉サービスセンター内","lat":35.720753,"lon":139.388092},{"name":"にしすな福祉相談センター","province":"東京都","city":"立川市","address":"立川市西砂町5-5-5西砂ホーム内","lat":35.731091,"lon":139.363205},{"name":"立川市見守りホットライン","province":"東京都","city":"立川市","address":"立川市泉町1156-9立川市役所","lat":35.715286,"lon":139.406281},{"name":"立川市役所","province":"東京都","city":"立川市","address":"立川市泉町1156-9","lat":35.715286,"lon":139.406281},{"name":"立川市消費生活センター","province":"東京都","city":"立川市","address":"立川市曙町2-36-2立川市女性総合センター5F","lat":35.701874,"lon":139.414169},{"name":"市民会館西","province":"東京都","city":"立川市","address":"東京都立川市錦町3丁目5-1","lat":35.69314932,"lon":139.41859835},{"name":"曙橋","province":"東京都","city":"立川市","address":"東京都立川市曙町2丁目8-3","lat":35.7005817,"lon":139.41420952},{"name":"柴崎町二丁目","province":"東京都","city":"立川市","address":"東京都立川市柴崎町2丁目9-19","lat":35.69700691,"lon":139.4069158},{"name":"立川富士見町交番前","province":"東京都","city":"立川市","address":"東京都立川市富士見町6丁目19-1","lat":35.6924793,"lon":139.39275329},{"name":"立川駅北口","province":"東京都","city":"立川市","address":"東京都立川市曙町2丁目12-1","lat":35.6992013,"lon":139.41435956},{"name":"立川駅北口西","province":"東京都","city":"立川市","address":"東京都立川市曙町2丁目4-6","lat":35.69877907,"lon":139.41217364},{"name":"立川至誠老人ホーム前","province":"東京都","city":"立川市","address":"東京都立川市錦町6丁目28-15","lat":35.68536958,"lon":139.41604886},{"name":"災害医療センター前","province":"東京都","city":"立川市","address":"東京都立川市緑町3173","lat":35.70335899,"lon":139.40788769},{"name":"立川富士見町二丁目第二","province":"東京都","city":"立川市","address":"東京都立川市富士見町2丁目22-19","lat":35.70014809,"lon":139.40231607},{"name":"砂川九番北","province":"東京都","city":"立川市","address":"東京都立川市若葉町3丁目3-3","lat":35.72272686,"lon":139.43276005},{"name":"立川合同庁舎前","province":"東京都","city":"立川市","address":"東京都立川市錦町4丁目6","lat":35.69183285,"lon":139.42034548},{"name":"立川七中北","province":"東京都","city":"立川市","address":"東京都立川市西砂町5丁目34","lat":35.73520154,"lon":139.36785154},{"name":"地域センター前","province":"東京都","city":"立川市","address":"東京都立川市西砂町6丁目12-4","lat":35.72923562,"lon":139.37218204},{"name":"立川健康会館西","province":"東京都","city":"立川市","address":"東京都立川市高松町2丁目1-11","lat":35.70487018,"lon":139.41724524},{"name":"立川病院東","province":"東京都","city":"立川市","address":"東京都立川市錦町4丁目4-5","lat":35.69160795,"lon":139.42296472},{"name":"第四機動隊北","province":"東京都","city":"立川市","address":"東京都立川市緑町3567","lat":35.7125968,"lon":139.40643755},{"name":"昭和記念公園あけぼの口","province":"東京都","city":"立川市","address":"東京都立川市曙町2丁目42-23","lat":35.70177873,"lon":139.41185409},{"name":"立川市役所","province":"東京都","city":"立川市","address":"東京都立川市泉町1156-9","lat":35.71399946,"lon":139.4078846},{"name":"モノレール基地脇","province":"東京都","city":"立川市","address":"東京都立川市泉町935-1","lat":35.71253317,"lon":139.4161173},{"name":"裁判所前","province":"東京都","city":"立川市","address":"東京都立川市緑町10-4","lat":35.71203865,"lon":139.41090941},{"name":"西武立川駅南口","province":"東京都","city":"立川市","address":"東京都立川市西砂町1丁目2-27","lat":35.72528883,"lon":139.37091001},{"name":"柴崎浄水所","province":"東京都","city":"立川市","address":"東京都立川市柴崎町1丁目1-41","lat":35.69686245,"lon":139.40595201},{"name":"立川栄町浄水所","province":"東京都","city":"立川市","address":"東京都立川市栄町5丁目38-5","lat":35.71814941,"lon":139.42479141},{"name":"西砂第一浄水所","province":"東京都","city":"立川市","address":"東京都立川市西砂町2丁目53-14","lat":35.73083799,"lon":139.36059394},{"name":"立川砂川浄水所","province":"東京都","city":"立川市","address":"東京都立川市砂川町6丁目41-1","lat":35.72996987,"lon":139.407348},{"name":"西砂第一浄水所（注１）","province":"東京都","city":"立川市","address":"東京都立川市西砂町2丁目53-14","lat":35.73083799,"lon":139.36059394},{"name":"南部西ふじみ地域包括支援センター","province":"東京都","city":"立川市","address":"立川市富士見町2-36-47社会福祉協議会内","lat":35.70158,"lon":139.402008},{"name":"南部東はごろも地域包括支援センター","province":"東京都","city":"立川市","address":"立川市羽衣町1-12-18羽衣地域福祉サービスセンター内","lat":35.697369,"lon":139.425613},{"name":"中部たかまつ地域包括支援センター","province":"東京都","city":"立川市","address":"立川市高松町2-27-27TBK第2高松ビル105号","lat":35.704739,"lon":139.418625},{"name":"北部東わかば地域包括支援センター","province":"東京都","city":"立川市","address":"立川市若葉町3-45-2老人保健施設わかば内","lat":35.719658,"lon":139.441452},{"name":"北部中さいわい地域包括支援センター","province":"東京都","city":"立川市","address":"立川市幸町4-14-1至誠キートスホーム内","lat":35.724712,"lon":139.428299},{"name":"北部西かみすな地域包括支援センター","province":"東京都","city":"立川市","address":"立川市上砂町5-76-4砂川園内","lat":35.730007,"lon":139.389557},{"name":"にしき福祉相談センター","province":"東京都","city":"立川市","address":"立川市錦町6-28-15至誠ホーム内","lat":35.685169,"lon":139.416306},{"name":"かみすな福祉相談センター","province":"東京都","city":"立川市","address":"立川市上砂町1-13-1上砂地域福祉サービスセンター内","lat":35.720753,"lon":139.388092},{"name":"にしすな福祉相談センター","province":"東京都","city":"立川市","address":"立川市西砂町5-5-5西砂ホーム内","lat":35.731091,"lon":139.363205},{"name":"立川市見守りホットライン","province":"東京都","city":"立川市","address":"立川市泉町1156-9立川市役所","lat":35.715286,"lon":139.406281},{"name":"立川市役所","province":"東京都","city":"立川市","address":"立川市泉町1156-9","lat":35.715286,"lon":139.406281},{"name":"立川市消費生活センター","province":"東京都","city":"立川市","address":"立川市曙町2-36-2立川市女性総合センター5F","lat":35.701874,"lon":139.414169},{"name":"市民会館西","province":"東京都","city":"立川市","address":"東京都立川市錦町3丁目5-1","lat":35.69314932,"lon":139.41859835},{"name":"曙橋","province":"東京都","city":"立川市","address":"東京都立川市曙町2丁目8-3","lat":35.7005817,"lon":139.41420952},{"name":"柴崎町二丁目","province":"東京都","city":"立川市","address":"東京都立川市柴崎町2丁目9-19","lat":35.69700691,"lon":139.4069158},{"name":"立川富士見町交番前","province":"東京都","city":"立川市","address":"東京都立川市富士見町6丁目19-1","lat":35.6924793,"lon":139.39275329},{"name":"立川駅北口","province":"東京都","city":"立川市","address":"東京都立川市曙町2丁目12-1","lat":35.6992013,"lon":139.41435956},{"name":"立川駅北口西","province":"東京都","city":"立川市","address":"東京都立川市曙町2丁目4-6","lat":35.69877907,"lon":139.41217364},{"name":"立川至誠老人ホーム前","province":"東京都","city":"立川市","address":"東京都立川市錦町6丁目28-15","lat":35.68536958,"lon":139.41604886},{"name":"災害医療センター前","province":"東京都","city":"立川市","address":"東京都立川市緑町3173","lat":35.70335899,"lon":139.40788769},{"name":"立川富士見町二丁目第二","province":"東京都","city":"立川市","address":"東京都立川市富士見町2丁目22-19","lat":35.70014809,"lon":139.40231607},{"name":"砂川九番北","province":"東京都","city":"立川市","address":"東京都立川市若葉町3丁目3-3","lat":35.72272686,"lon":139.43276005},{"name":"立川合同庁舎前","province":"東京都","city":"立川市","address":"東京都立川市錦町4丁目6","lat":35.69183285,"lon":139.42034548},{"name":"立川七中北","province":"東京都","city":"立川市","address":"東京都立川市西砂町5丁目34","lat":35.73520154,"lon":139.36785154},{"name":"地域センター前","province":"東京都","city":"立川市","address":"東京都立川市西砂町6丁目12-4","lat":35.72923562,"lon":139.37218204},{"name":"立川健康会館西","province":"東京都","city":"立川市","address":"東京都立川市高松町2丁目1-11","lat":35.70487018,"lon":139.41724524},{"name":"立川病院東","province":"東京都","city":"立川市","address":"東京都立川市錦町4丁目4-5","lat":35.69160795,"lon":139.42296472},{"name":"第四機動隊北","province":"東京都","city":"立川市","address":"東京都立川市緑町3567","lat":35.7125968,"lon":139.40643755},{"name":"昭和記念公園あけぼの口","province":"東京都","city":"立川市","address":"東京都立川市曙町2丁目42-23","lat":35.70177873,"lon":139.41185409},{"name":"立川市役所","province":"東京都","city":"立川市","address":"東京都立川市泉町1156-9","lat":35.71399946,"lon":139.4078846},{"name":"モノレール基地脇","province":"東京都","city":"立川市","address":"東京都立川市泉町935-1","lat":35.71253317,"lon":139.4161173},{"name":"裁判所前","province":"東京都","city":"立川市","address":"東京都立川市緑町10-4","lat":35.71203865,"lon":139.41090941},{"name":"西武立川駅南口","province":"東京都","city":"立川市","address":"東京都立川市西砂町1丁目2-27","lat":35.72528883,"lon":139.37091001},{"name":"柴崎浄水所","province":"東京都","city":"立川市","address":"東京都立川市柴崎町1丁目1-41","lat":35.69686245,"lon":139.40595201},{"name":"立川栄町浄水所","province":"東京都","city":"立川市","address":"東京都立川市栄町5丁目38-5","lat":35.71814941,"lon":139.42479141},{"name":"西砂第一浄水所","province":"東京都","city":"立川市","address":"東京都立川市西砂町2丁目53-14","lat":35.73083799,"lon":139.36059394},{"name":"立川砂川浄水所","province":"東京都","city":"立川市","address":"東京都立川市砂川町6丁目41-1","lat":35.72996987,"lon":139.407348},{"name":"西砂第一浄水所（注１）","province":"東京都","city":"立川市","address":"東京都立川市西砂町2丁目53-14","lat":35.73083799,"lon":139.36059394},{"name":"南部西ふじみ地域包括支援センター","province":"東京都","city":"立川市","address":"立川市富士見町2-36-47社会福祉協議会内","lat":35.70158,"lon":139.402008},{"name":"南部東はごろも地域包括支援センター","province":"東京都","city":"立川市","address":"立川市羽衣町1-12-18羽衣地域福祉サービスセンター内","lat":35.697369,"lon":139.425613},{"name":"中部たかまつ地域包括支援センター","province":"東京都","city":"立川市","address":"立川市高松町2-27-27TBK第2高松ビル105号","lat":35.704739,"lon":139.418625},{"name":"北部東わかば地域包括支援センター","province":"東京都","city":"立川市","address":"立川市若葉町3-45-2老人保健施設わかば内","lat":35.719658,"lon":139.441452},{"name":"北部中さいわい地域包括支援センター","province":"東京都","city":"立川市","address":"立川市幸町4-14-1至誠キートスホーム内","lat":35.724712,"lon":139.428299},{"name":"北部西かみすな地域包括支援センター","province":"東京都","city":"立川市","address":"立川市上砂町5-76-4砂川園内","lat":35.730007,"lon":139.389557},{"name":"にしき福祉相談センター","province":"東京都","city":"立川市","address":"立川市錦町6-28-15至誠ホーム内","lat":35.685169,"lon":139.416306},{"name":"かみすな福祉相談センター","province":"東京都","city":"立川市","address":"立川市上砂町1-13-1上砂地域福祉サービスセンター内","lat":35.720753,"lon":139.388092},{"name":"にしすな福祉相談センター","province":"東京都","city":"立川市","address":"立川市西砂町5-5-5西砂ホーム内","lat":35.731091,"lon":139.363205},{"name":"立川市見守りホットライン","province":"東京都","city":"立川市","address":"立川市泉町1156-9立川市役所","lat":35.715286,"lon":139.406281},{"name":"立川市役所","province":"東京都","city":"立川市","address":"立川市泉町1156-9","lat":35.715286,"lon":139.406281},{"name":"立川市消費生活センター","province":"東京都","city":"立川市","address":"立川市曙町2-36-2立川市女性総合センター5F","lat":35.701874,"lon":139.414169},{"name":"市民会館西","province":"東京都","city":"立川市","address":"東京都立川市錦町3丁目5-1","lat":35.69314932,"lon":139.41859835},{"name":"曙橋","province":"東京都","city":"立川市","address":"東京都立川市曙町2丁目8-3","lat":35.7005817,"lon":139.41420952},{"name":"柴崎町二丁目","province":"東京都","city":"立川市","address":"東京都立川市柴崎町2丁目9-19","lat":35.69700691,"lon":139.4069158},{"name":"立川富士見町交番前","province":"東京都","city":"立川市","address":"東京都立川市富士見町6丁目19-1","lat":35.6924793,"lon":139.39275329},{"name":"立川駅北口","province":"東京都","city":"立川市","address":"東京都立川市曙町2丁目12-1","lat":35.6992013,"lon":139.41435956},{"name":"立川駅北口西","province":"東京都","city":"立川市","address":"東京都立川市曙町2丁目4-6","lat":35.69877907,"lon":139.41217364},{"name":"立川至誠老人ホーム前","province":"東京都","city":"立川市","address":"東京都立川市錦町6丁目28-15","lat":35.68536958,"lon":139.41604886},{"name":"災害医療センター前","province":"東京都","city":"立川市","address":"東京都立川市緑町3173","lat":35.70335899,"lon":139.40788769},{"name":"立川富士見町二丁目第二","province":"東京都","city":"立川市","address":"東京都立川市富士見町2丁目22-19","lat":35.70014809,"lon":139.40231607},{"name":"砂川九番北","province":"東京都","city":"立川市","address":"東京都立川市若葉町3丁目3-3","lat":35.72272686,"lon":139.43276005},{"name":"立川合同庁舎前","province":"東京都","city":"立川市","address":"東京都立川市錦町4丁目6","lat":35.69183285,"lon":139.42034548},{"name":"立川七中北","province":"東京都","city":"立川市","address":"東京都立川市西砂町5丁目34","lat":35.73520154,"lon":139.36785154},{"name":"地域センター前","province":"東京都","city":"立川市","address":"東京都立川市西砂町6丁目12-4","lat":35.72923562,"lon":139.37218204},{"name":"立川健康会館西","province":"東京都","city":"立川市","address":"東京都立川市高松町2丁目1-11","lat":35.70487018,"lon":139.41724524},{"name":"立川病院東","province":"東京都","city":"立川市","address":"東京都立川市錦町4丁目4-5","lat":35.69160795,"lon":139.42296472},{"name":"第四機動隊北","province":"東京都","city":"立川市","address":"東京都立川市緑町3567","lat":35.7125968,"lon":139.40643755},{"name":"昭和記念公園あけぼの口","province":"東京都","city":"立川市","address":"東京都立川市曙町2丁目42-23","lat":35.70177873,"lon":139.41185409},{"name":"立川市役所","province":"東京都","city":"立川市","address":"東京都立川市泉町1156-9","lat":35.71399946,"lon":139.4078846},{"name":"モノレール基地脇","province":"東京都","city":"立川市","address":"東京都立川市泉町935-1","lat":35.71253317,"lon":139.4161173},{"name":"裁判所前","province":"東京都","city":"立川市","address":"東京都立川市緑町10-4","lat":35.71203865,"lon":139.41090941},{"name":"西武立川駅南口","province":"東京都","city":"立川市","address":"東京都立川市西砂町1丁目2-27","lat":35.72528883,"lon":139.37091001},{"name":"柴崎浄水所","province":"東京都","city":"立川市","address":"東京都立川市柴崎町1丁目1-41","lat":35.69686245,"lon":139.40595201},{"name":"立川栄町浄水所","province":"東京都","city":"立川市","address":"東京都立川市栄町5丁目38-5","lat":35.71814941,"lon":139.42479141},{"name":"西砂第一浄水所","province":"東京都","city":"立川市","address":"東京都立川市西砂町2丁目53-14","lat":35.73083799,"lon":139.36059394},{"name":"立川砂川浄水所","province":"東京都","city":"立川市","address":"東京都立川市砂川町6丁目41-1","lat":35.72996987,"lon":139.407348},{"name":"西砂第一浄水所（注１）","province":"東京都","city":"立川市","address":"東京都立川市西砂町2丁目53-14","lat":35.73083799,"lon":139.36059394},{"name":"南部西ふじみ地域包括支援センター","province":"東京都","city":"立川市","address":"立川市富士見町2-36-47社会福祉協議会内","lat":35.70158,"lon":139.402008},{"name":"南部東はごろも地域包括支援センター","province":"東京都","city":"立川市","address":"立川市羽衣町1-12-18羽衣地域福祉サービスセンター内","lat":35.697369,"lon":139.425613},{"name":"中部たかまつ地域包括支援センター","province":"東京都","city":"立川市","address":"立川市高松町2-27-27TBK第2高松ビル105号","lat":35.704739,"lon":139.418625},{"name":"北部東わかば地域包括支援センター","province":"東京都","city":"立川市","address":"立川市若葉町3-45-2老人保健施設わかば内","lat":35.719658,"lon":139.441452},{"name":"北部中さいわい地域包括支援センター","province":"東京都","city":"立川市","address":"立川市幸町4-14-1至誠キートスホーム内","lat":35.724712,"lon":139.428299},{"name":"北部西かみすな地域包括支援センター","province":"東京都","city":"立川市","address":"立川市上砂町5-76-4砂川園内","lat":35.730007,"lon":139.389557},{"name":"にしき福祉相談センター","province":"東京都","city":"立川市","address":"立川市錦町6-28-15至誠ホーム内","lat":35.685169,"lon":139.416306},{"name":"かみすな福祉相談センター","province":"東京都","city":"立川市","address":"立川市上砂町1-13-1上砂地域福祉サービスセンター内","lat":35.720753,"lon":139.388092},{"name":"にしすな福祉相談センター","province":"東京都","city":"立川市","address":"立川市西砂町5-5-5西砂ホーム内","lat":35.731091,"lon":139.363205},{"name":"立川市見守りホットライン","province":"東京都","city":"立川市","address":"立川市泉町1156-9立川市役所","lat":35.715286,"lon":139.406281},{"name":"立川市役所","province":"東京都","city":"立川市","address":"立川市泉町1156-9","lat":35.715286,"lon":139.406281},{"name":"立川市消費生活センター","province":"東京都","city":"立川市","address":"立川市曙町2-36-2立川市女性総合センター5F","lat":35.701874,"lon":139.414169},{"name":"市民会館西","province":"東京都","city":"立川市","address":"東京都立川市錦町3丁目5-1","lat":35.69314932,"lon":139.41859835},{"name":"曙橋","province":"東京都","city":"立川市","address":"東京都立川市曙町2丁目8-3","lat":35.7005817,"lon":139.41420952},{"name":"柴崎町二丁目","province":"東京都","city":"立川市","address":"東京都立川市柴崎町2丁目9-19","lat":35.69700691,"lon":139.4069158},{"name":"立川富士見町交番前","province":"東京都","city":"立川市","address":"東京都立川市富士見町6丁目19-1","lat":35.6924793,"lon":139.39275329},{"name":"立川駅北口","province":"東京都","city":"立川市","address":"東京都立川市曙町2丁目12-1","lat":35.6992013,"lon":139.41435956},{"name":"立川駅北口西","province":"東京都","city":"立川市","address":"東京都立川市曙町2丁目4-6","lat":35.69877907,"lon":139.41217364},{"name":"立川至誠老人ホーム前","province":"東京都","city":"立川市","address":"東京都立川市錦町6丁目28-15","lat":35.68536958,"lon":139.41604886},{"name":"災害医療センター前","province":"東京都","city":"立川市","address":"東京都立川市緑町3173","lat":35.70335899,"lon":139.40788769},{"name":"立川富士見町二丁目第二","province":"東京都","city":"立川市","address":"東京都立川市富士見町2丁目22-19","lat":35.70014809,"lon":139.40231607},{"name":"砂川九番北","province":"東京都","city":"立川市","address":"東京都立川市若葉町3丁目3-3","lat":35.72272686,"lon":139.43276005},{"name":"立川合同庁舎前","province":"東京都","city":"立川市","address":"東京都立川市錦町4丁目6","lat":35.69183285,"lon":139.42034548},{"name":"立川七中北","province":"東京都","city":"立川市","address":"東京都立川市西砂町5丁目34","lat":35.73520154,"lon":139.36785154},{"name":"地域センター前","province":"東京都","city":"立川市","address":"東京都立川市西砂町6丁目12-4","lat":35.72923562,"lon":139.37218204},{"name":"立川健康会館西","province":"東京都","city":"立川市","address":"東京都立川市高松町2丁目1-11","lat":35.70487018,"lon":139.41724524},{"name":"立川病院東","province":"東京都","city":"立川市","address":"東京都立川市錦町4丁目4-5","lat":35.69160795,"lon":139.42296472},{"name":"第四機動隊北","province":"東京都","city":"立川市","address":"東京都立川市緑町3567","lat":35.7125968,"lon":139.40643755},{"name":"昭和記念公園あけぼの口","province":"東京都","city":"立川市","address":"東京都立川市曙町2丁目42-23","lat":35.70177873,"lon":139.41185409},{"name":"立川市役所","province":"東京都","city":"立川市","address":"東京都立川市泉町1156-9","lat":35.71399946,"lon":139.4078846},{"name":"モノレール基地脇","province":"東京都","city":"立川市","address":"東京都立川市泉町935-1","lat":35.71253317,"lon":139.4161173},{"name":"裁判所前","province":"東京都","city":"立川市","address":"東京都立川市緑町10-4","lat":35.71203865,"lon":139.41090941},{"name":"西武立川駅南口","province":"東京都","city":"立川市","address":"東京都立川市西砂町1丁目2-27","lat":35.72528883,"lon":139.37091001},{"name":"柴崎浄水所","province":"東京都","city":"立川市","address":"東京都立川市柴崎町1丁目1-41","lat":35.69686245,"lon":139.40595201},{"name":"立川栄町浄水所","province":"東京都","city":"立川市","address":"東京都立川市栄町5丁目38-5","lat":35.71814941,"lon":139.42479141},{"name":"西砂第一浄水所","province":"東京都","city":"立川市","address":"東京都立川市西砂町2丁目53-14","lat":35.73083799,"lon":139.36059394},{"name":"立川砂川浄水所","province":"東京都","city":"立川市","address":"東京都立川市砂川町6丁目41-1","lat":35.72996987,"lon":139.407348},{"name":"西砂第一浄水所（注１）","province":"東京都","city":"立川市","address":"東京都立川市西砂町2丁目53-14","lat":35.73083799,"lon":139.36059394},{"name":"南部西ふじみ地域包括支援センター","province":"東京都","city":"立川市","address":"立川市富士見町2-36-47社会福祉協議会内","lat":35.70158,"lon":139.402008},{"name":"南部東はごろも地域包括支援センター","province":"東京都","city":"立川市","address":"立川市羽衣町1-12-18羽衣地域福祉サービスセンター内","lat":35.697369,"lon":139.425613},{"name":"中部たかまつ地域包括支援センター","province":"東京都","city":"立川市","address":"立川市高松町2-27-27TBK第2高松ビル105号","lat":35.704739,"lon":139.418625},{"name":"北部東わかば地域包括支援センター","province":"東京都","city":"立川市","address":"立川市若葉町3-45-2老人保健施設わかば内","lat":35.719658,"lon":139.441452},{"name":"北部中さいわい地域包括支援センター","province":"東京都","city":"立川市","address":"立川市幸町4-14-1至誠キートスホーム内","lat":35.724712,"lon":139.428299},{"name":"北部西かみすな地域包括支援センター","province":"東京都","city":"立川市","address":"立川市上砂町5-76-4砂川園内","lat":35.730007,"lon":139.389557},{"name":"にしき福祉相談センター","province":"東京都","city":"立川市","address":"立川市錦町6-28-15至誠ホーム内","lat":35.685169,"lon":139.416306},{"name":"かみすな福祉相談センター","province":"東京都","city":"立川市","address":"立川市上砂町1-13-1上砂地域福祉サービスセンター内","lat":35.720753,"lon":139.388092},{"name":"にしすな福祉相談センター","province":"東京都","city":"立川市","address":"立川市西砂町5-5-5西砂ホーム内","lat":35.731091,"lon":139.363205},{"name":"立川市見守りホットライン","province":"東京都","city":"立川市","address":"立川市泉町1156-9立川市役所","lat":35.715286,"lon":139.406281},{"name":"立川市役所","province":"東京都","city":"立川市","address":"立川市泉町1156-9","lat":35.715286,"lon":139.406281},{"name":"立川市消費生活センター","province":"東京都","city":"立川市","address":"立川市曙町2-36-2立川市女性総合センター5F","lat":35.701874,"lon":139.414169},{"name":"市民会館西","province":"東京都","city":"立川市","address":"東京都立川市錦町3丁目5-1","lat":35.69314932,"lon":139.41859835},{"name":"曙橋","province":"東京都","city":"立川市","address":"東京都立川市曙町2丁目8-3","lat":35.7005817,"lon":139.41420952},{"name":"柴崎町二丁目","province":"東京都","city":"立川市","address":"東京都立川市柴崎町2丁目9-19","lat":35.69700691,"lon":139.4069158},{"name":"立川富士見町交番前","province":"東京都","city":"立川市","address":"東京都立川市富士見町6丁目19-1","lat":35.6924793,"lon":139.39275329},{"name":"立川駅北口","province":"東京都","city":"立川市","address":"東京都立川市曙町2丁目12-1","lat":35.6992013,"lon":139.41435956},{"name":"立川駅北口西","province":"東京都","city":"立川市","address":"東京都立川市曙町2丁目4-6","lat":35.69877907,"lon":139.41217364},{"name":"立川至誠老人ホーム前","province":"東京都","city":"立川市","address":"東京都立川市錦町6丁目28-15","lat":35.68536958,"lon":139.41604886},{"name":"災害医療センター前","province":"東京都","city":"立川市","address":"東京都立川市緑町3173","lat":35.70335899,"lon":139.40788769},{"name":"立川富士見町二丁目第二","province":"東京都","city":"立川市","address":"東京都立川市富士見町2丁目22-19","lat":35.70014809,"lon":139.40231607},{"name":"砂川九番北","province":"東京都","city":"立川市","address":"東京都立川市若葉町3丁目3-3","lat":35.72272686,"lon":139.43276005},{"name":"立川合同庁舎前","province":"東京都","city":"立川市","address":"東京都立川市錦町4丁目6","lat":35.69183285,"lon":139.42034548},{"name":"立川七中北","province":"東京都","city":"立川市","address":"東京都立川市西砂町5丁目34","lat":35.73520154,"lon":139.36785154},{"name":"地域センター前","province":"東京都","city":"立川市","address":"東京都立川市西砂町6丁目12-4","lat":35.72923562,"lon":139.37218204},{"name":"立川健康会館西","province":"東京都","city":"立川市","address":"東京都立川市高松町2丁目1-11","lat":35.70487018,"lon":139.41724524},{"name":"立川病院東","province":"東京都","city":"立川市","address":"東京都立川市錦町4丁目4-5","lat":35.69160795,"lon":139.42296472},{"name":"第四機動隊北","province":"東京都","city":"立川市","address":"東京都立川市緑町3567","lat":35.7125968,"lon":139.40643755},{"name":"昭和記念公園あけぼの口","province":"東京都","city":"立川市","address":"東京都立川市曙町2丁目42-23","lat":35.70177873,"lon":139.41185409},{"name":"立川市役所","province":"東京都","city":"立川市","address":"東京都立川市泉町1156-9","lat":35.71399946,"lon":139.4078846},{"name":"モノレール基地脇","province":"東京都","city":"立川市","address":"東京都立川市泉町935-1","lat":35.71253317,"lon":139.4161173},{"name":"裁判所前","province":"東京都","city":"立川市","address":"東京都立川市緑町10-4","lat":35.71203865,"lon":139.41090941},{"name":"西武立川駅南口","province":"東京都","city":"立川市","address":"東京都立川市西砂町1丁目2-27","lat":35.72528883,"lon":139.37091001},{"name":"柴崎浄水所","province":"東京都","city":"立川市","address":"東京都立川市柴崎町1丁目1-41","lat":35.69686245,"lon":139.40595201},{"name":"立川栄町浄水所","province":"東京都","city":"立川市","address":"東京都立川市栄町5丁目38-5","lat":35.71814941,"lon":139.42479141},{"name":"西砂第一浄水所","province":"東京都","city":"立川市","address":"東京都立川市西砂町2丁目53-14","lat":35.73083799,"lon":139.36059394},{"name":"立川砂川浄水所","province":"東京都","city":"立川市","address":"東京都立川市砂川町6丁目41-1","lat":35.72996987,"lon":139.407348},{"name":"西砂第一浄水所（注１）","province":"東京都","city":"立川市","address":"東京都立川市西砂町2丁目53-14","lat":35.73083799,"lon":139.36059394},{"name":"南部西ふじみ地域包括支援センター","province":"東京都","city":"立川市","address":"立川市富士見町2-36-47社会福祉協議会内","lat":35.70158,"lon":139.402008},{"name":"南部東はごろも地域包括支援センター","province":"東京都","city":"立川市","address":"立川市羽衣町1-12-18羽衣地域福祉サービスセンター内","lat":35.697369,"lon":139.425613},{"name":"中部たかまつ地域包括支援センター","province":"東京都","city":"立川市","address":"立川市高松町2-27-27TBK第2高松ビル105号","lat":35.704739,"lon":139.418625},{"name":"北部東わかば地域包括支援センター","province":"東京都","city":"立川市","address":"立川市若葉町3-45-2老人保健施設わかば内","lat":35.719658,"lon":139.441452},{"name":"北部中さいわい地域包括支援センター","province":"東京都","city":"立川市","address":"立川市幸町4-14-1至誠キートスホーム内","lat":35.724712,"lon":139.428299},{"name":"北部西かみすな地域包括支援センター","province":"東京都","city":"立川市","address":"立川市上砂町5-76-4砂川園内","lat":35.730007,"lon":139.389557},{"name":"にしき福祉相談センター","province":"東京都","city":"立川市","address":"立川市錦町6-28-15至誠ホーム内","lat":35.685169,"lon":139.416306},{"name":"かみすな福祉相談センター","province":"東京都","city":"立川市","address":"立川市上砂町1-13-1上砂地域福祉サービスセンター内","lat":35.720753,"lon":139.388092},{"name":"にしすな福祉相談センター","province":"東京都","city":"立川市","address":"立川市西砂町5-5-5西砂ホーム内","lat":35.731091,"lon":139.363205},{"name":"立川市見守りホットライン","province":"東京都","city":"立川市","address":"立川市泉町1156-9立川市役所","lat":35.715286,"lon":139.406281},{"name":"立川市役所","province":"東京都","city":"立川市","address":"立川市泉町1156-9","lat":35.715286,"lon":139.406281},{"name":"立川市消費生活センター","province":"東京都","city":"立川市","address":"立川市曙町2-36-2立川市女性総合センター5F","lat":35.701874,"lon":139.414169},{"name":"市民会館西","province":"東京都","city":"立川市","address":"東京都立川市錦町3丁目5-1","lat":35.69314932,"lon":139.41859835},{"name":"曙橋","province":"東京都","city":"立川市","address":"東京都立川市曙町2丁目8-3","lat":35.7005817,"lon":139.41420952},{"name":"柴崎町二丁目","province":"東京都","city":"立川市","address":"東京都立川市柴崎町2丁目9-19","lat":35.69700691,"lon":139.4069158},{"name":"立川富士見町交番前","province":"東京都","city":"立川市","address":"東京都立川市富士見町6丁目19-1","lat":35.6924793,"lon":139.39275329},{"name":"立川駅北口","province":"東京都","city":"立川市","address":"東京都立川市曙町2丁目12-1","lat":35.6992013,"lon":139.41435956},{"name":"立川駅北口西","province":"東京都","city":"立川市","address":"東京都立川市曙町2丁目4-6","lat":35.69877907,"lon":139.41217364},{"name":"立川至誠老人ホーム前","province":"東京都","city":"立川市","address":"東京都立川市錦町6丁目28-15","lat":35.68536958,"lon":139.41604886},{"name":"災害医療センター前","province":"東京都","city":"立川市","address":"東京都立川市緑町3173","lat":35.70335899,"lon":139.40788769},{"name":"立川富士見町二丁目第二","province":"東京都","city":"立川市","address":"東京都立川市富士見町2丁目22-19","lat":35.70014809,"lon":139.40231607},{"name":"砂川九番北","province":"東京都","city":"立川市","address":"東京都立川市若葉町3丁目3-3","lat":35.72272686,"lon":139.43276005},{"name":"立川合同庁舎前","province":"東京都","city":"立川市","address":"東京都立川市錦町4丁目6","lat":35.69183285,"lon":139.42034548},{"name":"立川七中北","province":"東京都","city":"立川市","address":"東京都立川市西砂町5丁目34","lat":35.73520154,"lon":139.36785154},{"name":"地域センター前","province":"東京都","city":"立川市","address":"東京都立川市西砂町6丁目12-4","lat":35.72923562,"lon":139.37218204},{"name":"立川健康会館西","province":"東京都","city":"立川市","address":"東京都立川市高松町2丁目1-11","lat":35.70487018,"lon":139.41724524},{"name":"立川病院東","province":"東京都","city":"立川市","address":"東京都立川市錦町4丁目4-5","lat":35.69160795,"lon":139.42296472},{"name":"第四機動隊北","province":"東京都","city":"立川市","address":"東京都立川市緑町3567","lat":35.7125968,"lon":139.40643755},{"name":"昭和記念公園あけぼの口","province":"東京都","city":"立川市","address":"東京都立川市曙町2丁目42-23","lat":35.70177873,"lon":139.41185409},{"name":"立川市役所","province":"東京都","city":"立川市","address":"東京都立川市泉町1156-9","lat":35.71399946,"lon":139.4078846},{"name":"モノレール基地脇","province":"東京都","city":"立川市","address":"東京都立川市泉町935-1","lat":35.71253317,"lon":139.4161173},{"name":"裁判所前","province":"東京都","city":"立川市","address":"東京都立川市緑町10-4","lat":35.71203865,"lon":139.41090941},{"name":"西武立川駅南口","province":"東京都","city":"立川市","address":"東京都立川市西砂町1丁目2-27","lat":35.72528883,"lon":139.37091001},{"name":"柴崎浄水所","province":"東京都","city":"立川市","address":"東京都立川市柴崎町1丁目1-41","lat":35.69686245,"lon":139.40595201},{"name":"立川栄町浄水所","province":"東京都","city":"立川市","address":"東京都立川市栄町5丁目38-5","lat":35.71814941,"lon":139.42479141},{"name":"西砂第一浄水所","province":"東京都","city":"立川市","address":"東京都立川市西砂町2丁目53-14","lat":35.73083799,"lon":139.36059394},{"name":"立川砂川浄水所","province":"東京都","city":"立川市","address":"東京都立川市砂川町6丁目41-1","lat":35.72996987,"lon":139.407348},{"name":"西砂第一浄水所（注１）","province":"東京都","city":"立川市","address":"東京都立川市西砂町2丁目53-14","lat":35.73083799,"lon":139.36059394},{"name":"南部西ふじみ地域包括支援センター","province":"東京都","city":"立川市","address":"立川市富士見町2-36-47社会福祉協議会内","lat":35.70158,"lon":139.402008},{"name":"南部東はごろも地域包括支援センター","province":"東京都","city":"立川市","address":"立川市羽衣町1-12-18羽衣地域福祉サービスセンター内","lat":35.697369,"lon":139.425613},{"name":"中部たかまつ地域包括支援センター","province":"東京都","city":"立川市","address":"立川市高松町2-27-27TBK第2高松ビル105号","lat":35.704739,"lon":139.418625},{"name":"北部東わかば地域包括支援センター","province":"東京都","city":"立川市","address":"立川市若葉町3-45-2老人保健施設わかば内","lat":35.719658,"lon":139.441452},{"name":"北部中さいわい地域包括支援センター","province":"東京都","city":"立川市","address":"立川市幸町4-14-1至誠キートスホーム内","lat":35.724712,"lon":139.428299},{"name":"北部西かみすな地域包括支援センター","province":"東京都","city":"立川市","address":"立川市上砂町5-76-4砂川園内","lat":35.730007,"lon":139.389557},{"name":"にしき福祉相談センター","province":"東京都","city":"立川市","address":"立川市錦町6-28-15至誠ホーム内","lat":35.685169,"lon":139.416306},{"name":"かみすな福祉相談センター","province":"東京都","city":"立川市","address":"立川市上砂町1-13-1上砂地域福祉サービスセンター内","lat":35.720753,"lon":139.388092},{"name":"にしすな福祉相談センター","province":"東京都","city":"立川市","address":"立川市西砂町5-5-5西砂ホーム内","lat":35.731091,"lon":139.363205},{"name":"立川市見守りホットライン","province":"東京都","city":"立川市","address":"立川市泉町1156-9立川市役所","lat":35.715286,"lon":139.406281},{"name":"立川市役所","province":"東京都","city":"立川市","address":"立川市泉町1156-9","lat":35.715286,"lon":139.406281},{"name":"立川市消費生活センター","province":"東京都","city":"立川市","address":"立川市曙町2-36-2立川市女性総合センター5F","lat":35.701874,"lon":139.414169},{"name":"市民会館西","province":"東京都","city":"立川市","address":"東京都立川市錦町3丁目5-1","lat":35.69314932,"lon":139.41859835},{"name":"曙橋","province":"東京都","city":"立川市","address":"東京都立川市曙町2丁目8-3","lat":35.7005817,"lon":139.41420952},{"name":"柴崎町二丁目","province":"東京都","city":"立川市","address":"東京都立川市柴崎町2丁目9-19","lat":35.69700691,"lon":139.4069158},{"name":"立川富士見町交番前","province":"東京都","city":"立川市","address":"東京都立川市富士見町6丁目19-1","lat":35.6924793,"lon":139.39275329},{"name":"立川駅北口","province":"東京都","city":"立川市","address":"東京都立川市曙町2丁目12-1","lat":35.6992013,"lon":139.41435956},{"name":"立川駅北口西","province":"東京都","city":"立川市","address":"東京都立川市曙町2丁目4-6","lat":35.69877907,"lon":139.41217364},{"name":"立川至誠老人ホーム前","province":"東京都","city":"立川市","address":"東京都立川市錦町6丁目28-15","lat":35.68536958,"lon":139.41604886},{"name":"災害医療センター前","province":"東京都","city":"立川市","address":"東京都立川市緑町3173","lat":35.70335899,"lon":139.40788769},{"name":"立川富士見町二丁目第二","province":"東京都","city":"立川市","address":"東京都立川市富士見町2丁目22-19","lat":35.70014809,"lon":139.40231607},{"name":"砂川九番北","province":"東京都","city":"立川市","address":"東京都立川市若葉町3丁目3-3","lat":35.72272686,"lon":139.43276005},{"name":"立川合同庁舎前","province":"東京都","city":"立川市","address":"東京都立川市錦町4丁目6","lat":35.69183285,"lon":139.42034548},{"name":"立川七中北","province":"東京都","city":"立川市","address":"東京都立川市西砂町5丁目34","lat":35.73520154,"lon":139.36785154},{"name":"地域センター前","province":"東京都","city":"立川市","address":"東京都立川市西砂町6丁目12-4","lat":35.72923562,"lon":139.37218204},{"name":"立川健康会館西","province":"東京都","city":"立川市","address":"東京都立川市高松町2丁目1-11","lat":35.70487018,"lon":139.41724524},{"name":"立川病院東","province":"東京都","city":"立川市","address":"東京都立川市錦町4丁目4-5","lat":35.69160795,"lon":139.42296472},{"name":"第四機動隊北","province":"東京都","city":"立川市","address":"東京都立川市緑町3567","lat":35.7125968,"lon":139.40643755},{"name":"昭和記念公園あけぼの口","province":"東京都","city":"立川市","address":"東京都立川市曙町2丁目42-23","lat":35.70177873,"lon":139.41185409},{"name":"立川市役所","province":"東京都","city":"立川市","address":"東京都立川市泉町1156-9","lat":35.71399946,"lon":139.4078846},{"name":"モノレール基地脇","province":"東京都","city":"立川市","address":"東京都立川市泉町935-1","lat":35.71253317,"lon":139.4161173},{"name":"裁判所前","province":"東京都","city":"立川市","address":"東京都立川市緑町10-4","lat":35.71203865,"lon":139.41090941},{"name":"西武立川駅南口","province":"東京都","city":"立川市","address":"東京都立川市西砂町1丁目2-27","lat":35.72528883,"lon":139.37091001},{"name":"柴崎浄水所","province":"東京都","city":"立川市","address":"東京都立川市柴崎町1丁目1-41","lat":35.69686245,"lon":139.40595201},{"name":"立川栄町浄水所","province":"東京都","city":"立川市","address":"東京都立川市栄町5丁目38-5","lat":35.71814941,"lon":139.42479141},{"name":"西砂第一浄水所","province":"東京都","city":"立川市","address":"東京都立川市西砂町2丁目53-14","lat":35.73083799,"lon":139.36059394},{"name":"立川砂川浄水所","province":"東京都","city":"立川市","address":"東京都立川市砂川町6丁目41-1","lat":35.72996987,"lon":139.407348},{"name":"西砂第一浄水所（注１）","province":"東京都","city":"立川市","address":"東京都立川市西砂町2丁目53-14","lat":35.73083799,"lon":139.36059394},{"name":"南部西ふじみ地域包括支援センター","province":"東京都","city":"立川市","address":"立川市富士見町2-36-47社会福祉協議会内","lat":35.70158,"lon":139.402008},{"name":"南部東はごろも地域包括支援センター","province":"東京都","city":"立川市","address":"立川市羽衣町1-12-18羽衣地域福祉サービスセンター内","lat":35.697369,"lon":139.425613},{"name":"中部たかまつ地域包括支援センター","province":"東京都","city":"立川市","address":"立川市高松町2-27-27TBK第2高松ビル105号","lat":35.704739,"lon":139.418625},{"name":"北部東わかば地域包括支援センター","province":"東京都","city":"立川市","address":"立川市若葉町3-45-2老人保健施設わかば内","lat":35.719658,"lon":139.441452},{"name":"北部中さいわい地域包括支援センター","province":"東京都","city":"立川市","address":"立川市幸町4-14-1至誠キートスホーム内","lat":35.724712,"lon":139.428299},{"name":"北部西かみすな地域包括支援センター","province":"東京都","city":"立川市","address":"立川市上砂町5-76-4砂川園内","lat":35.730007,"lon":139.389557},{"name":"にしき福祉相談センター","province":"東京都","city":"立川市","address":"立川市錦町6-28-15至誠ホーム内","lat":35.685169,"lon":139.416306},{"name":"かみすな福祉相談センター","province":"東京都","city":"立川市","address":"立川市上砂町1-13-1上砂地域福祉サービスセンター内","lat":35.720753,"lon":139.388092},{"name":"にしすな福祉相談センター","province":"東京都","city":"立川市","address":"立川市西砂町5-5-5西砂ホーム内","lat":35.731091,"lon":139.363205},{"name":"立川市見守りホットライン","province":"東京都","city":"立川市","address":"立川市泉町1156-9立川市役所","lat":35.715286,"lon":139.406281},{"name":"立川市役所","province":"東京都","city":"立川市","address":"立川市泉町1156-9","lat":35.715286,"lon":139.406281},{"name":"立川市消費生活センター","province":"東京都","city":"立川市","address":"立川市曙町2-36-2立川市女性総合センター5F","lat":35.701874,"lon":139.414169},{"name":"市民会館西","province":"東京都","city":"立川市","address":"東京都立川市錦町3丁目5-1","lat":35.69314932,"lon":139.41859835},{"name":"曙橋","province":"東京都","city":"立川市","address":"東京都立川市曙町2丁目8-3","lat":35.7005817,"lon":139.41420952},{"name":"柴崎町二丁目","province":"東京都","city":"立川市","address":"東京都立川市柴崎町2丁目9-19","lat":35.69700691,"lon":139.4069158},{"name":"立川富士見町交番前","province":"東京都","city":"立川市","address":"東京都立川市富士見町6丁目19-1","lat":35.6924793,"lon":139.39275329},{"name":"立川駅北口","province":"東京都","city":"立川市","address":"東京都立川市曙町2丁目12-1","lat":35.6992013,"lon":139.41435956},{"name":"立川駅北口西","province":"東京都","city":"立川市","address":"東京都立川市曙町2丁目4-6","lat":35.69877907,"lon":139.41217364},{"name":"立川至誠老人ホーム前","province":"東京都","city":"立川市","address":"東京都立川市錦町6丁目28-15","lat":35.68536958,"lon":139.41604886},{"name":"災害医療センター前","province":"東京都","city":"立川市","address":"東京都立川市緑町3173","lat":35.70335899,"lon":139.40788769},{"name":"立川富士見町二丁目第二","province":"東京都","city":"立川市","address":"東京都立川市富士見町2丁目22-19","lat":35.70014809,"lon":139.40231607},{"name":"砂川九番北","province":"東京都","city":"立川市","address":"東京都立川市若葉町3丁目3-3","lat":35.72272686,"lon":139.43276005},{"name":"立川合同庁舎前","province":"東京都","city":"立川市","address":"東京都立川市錦町4丁目6","lat":35.69183285,"lon":139.42034548},{"name":"立川七中北","province":"東京都","city":"立川市","address":"東京都立川市西砂町5丁目34","lat":35.73520154,"lon":139.36785154},{"name":"地域センター前","province":"東京都","city":"立川市","address":"東京都立川市西砂町6丁目12-4","lat":35.72923562,"lon":139.37218204},{"name":"立川健康会館西","province":"東京都","city":"立川市","address":"東京都立川市高松町2丁目1-11","lat":35.70487018,"lon":139.41724524},{"name":"立川病院東","province":"東京都","city":"立川市","address":"東京都立川市錦町4丁目4-5","lat":35.69160795,"lon":139.42296472},{"name":"第四機動隊北","province":"東京都","city":"立川市","address":"東京都立川市緑町3567","lat":35.7125968,"lon":139.40643755},{"name":"昭和記念公園あけぼの口","province":"東京都","city":"立川市","address":"東京都立川市曙町2丁目42-23","lat":35.70177873,"lon":139.41185409},{"name":"立川市役所","province":"東京都","city":"立川市","address":"東京都立川市泉町1156-9","lat":35.71399946,"lon":139.4078846},{"name":"モノレール基地脇","province":"東京都","city":"立川市","address":"東京都立川市泉町935-1","lat":35.71253317,"lon":139.4161173},{"name":"裁判所前","province":"東京都","city":"立川市","address":"東京都立川市緑町10-4","lat":35.71203865,"lon":139.41090941},{"name":"西武立川駅南口","province":"東京都","city":"立川市","address":"東京都立川市西砂町1丁目2-27","lat":35.72528883,"lon":139.37091001},{"name":"柴崎浄水所","province":"東京都","city":"立川市","address":"東京都立川市柴崎町1丁目1-41","lat":35.69686245,"lon":139.40595201},{"name":"立川栄町浄水所","province":"東京都","city":"立川市","address":"東京都立川市栄町5丁目38-5","lat":35.71814941,"lon":139.42479141},{"name":"西砂第一浄水所","province":"東京都","city":"立川市","address":"東京都立川市西砂町2丁目53-14","lat":35.73083799,"lon":139.36059394},{"name":"立川砂川浄水所","province":"東京都","city":"立川市","address":"東京都立川市砂川町6丁目41-1","lat":35.72996987,"lon":139.407348},{"name":"西砂第一浄水所（注１）","province":"東京都","city":"立川市","address":"東京都立川市西砂町2丁目53-14","lat":35.73083799,"lon":139.36059394},{"name":"南部西ふじみ地域包括支援センター","province":"東京都","city":"立川市","address":"立川市富士見町2-36-47社会福祉協議会内","lat":35.70158,"lon":139.402008},{"name":"南部東はごろも地域包括支援センター","province":"東京都","city":"立川市","address":"立川市羽衣町1-12-18羽衣地域福祉サービスセンター内","lat":35.697369,"lon":139.425613},{"name":"中部たかまつ地域包括支援センター","province":"東京都","city":"立川市","address":"立川市高松町2-27-27TBK第2高松ビル105号","lat":35.704739,"lon":139.418625},{"name":"北部東わかば地域包括支援センター","province":"東京都","city":"立川市","address":"立川市若葉町3-45-2老人保健施設わかば内","lat":35.719658,"lon":139.441452},{"name":"北部中さいわい地域包括支援センター","province":"東京都","city":"立川市","address":"立川市幸町4-14-1至誠キートスホーム内","lat":35.724712,"lon":139.428299},{"name":"北部西かみすな地域包括支援センター","province":"東京都","city":"立川市","address":"立川市上砂町5-76-4砂川園内","lat":35.730007,"lon":139.389557},{"name":"にしき福祉相談センター","province":"東京都","city":"立川市","address":"立川市錦町6-28-15至誠ホーム内","lat":35.685169,"lon":139.416306},{"name":"かみすな福祉相談センター","province":"東京都","city":"立川市","address":"立川市上砂町1-13-1上砂地域福祉サービスセンター内","lat":35.720753,"lon":139.388092},{"name":"にしすな福祉相談センター","province":"東京都","city":"立川市","address":"立川市西砂町5-5-5西砂ホーム内","lat":35.731091,"lon":139.363205},{"name":"立川市見守りホットライン","province":"東京都","city":"立川市","address":"立川市泉町1156-9立川市役所","lat":35.715286,"lon":139.406281},{"name":"立川市役所","province":"東京都","city":"立川市","address":"立川市泉町1156-9","lat":35.715286,"lon":139.406281},{"name":"立川市消費生活センター","province":"東京都","city":"立川市","address":"立川市曙町2-36-2立川市女性総合センター5F","lat":35.701874,"lon":139.414169},{"name":"市民会館西","province":"東京都","city":"立川市","address":"東京都立川市錦町3丁目5-1","lat":35.69314932,"lon":139.41859835},{"name":"曙橋","province":"東京都","city":"立川市","address":"東京都立川市曙町2丁目8-3","lat":35.7005817,"lon":139.41420952},{"name":"柴崎町二丁目","province":"東京都","city":"立川市","address":"東京都立川市柴崎町2丁目9-19","lat":35.69700691,"lon":139.4069158},{"name":"立川富士見町交番前","province":"東京都","city":"立川市","address":"東京都立川市富士見町6丁目19-1","lat":35.6924793,"lon":139.39275329},{"name":"立川駅北口","province":"東京都","city":"立川市","address":"東京都立川市曙町2丁目12-1","lat":35.6992013,"lon":139.41435956},{"name":"立川駅北口西","province":"東京都","city":"立川市","address":"東京都立川市曙町2丁目4-6","lat":35.69877907,"lon":139.41217364},{"name":"立川至誠老人ホーム前","province":"東京都","city":"立川市","address":"東京都立川市錦町6丁目28-15","lat":35.68536958,"lon":139.41604886},{"name":"災害医療センター前","province":"東京都","city":"立川市","address":"東京都立川市緑町3173","lat":35.70335899,"lon":139.40788769},{"name":"立川富士見町二丁目第二","province":"東京都","city":"立川市","address":"東京都立川市富士見町2丁目22-19","lat":35.70014809,"lon":139.40231607},{"name":"砂川九番北","province":"東京都","city":"立川市","address":"東京都立川市若葉町3丁目3-3","lat":35.72272686,"lon":139.43276005},{"name":"立川合同庁舎前","province":"東京都","city":"立川市","address":"東京都立川市錦町4丁目6","lat":35.69183285,"lon":139.42034548},{"name":"立川七中北","province":"東京都","city":"立川市","address":"東京都立川市西砂町5丁目34","lat":35.73520154,"lon":139.36785154},{"name":"地域センター前","province":"東京都","city":"立川市","address":"東京都立川市西砂町6丁目12-4","lat":35.72923562,"lon":139.37218204},{"name":"立川健康会館西","province":"東京都","city":"立川市","address":"東京都立川市高松町2丁目1-11","lat":35.70487018,"lon":139.41724524},{"name":"立川病院東","province":"東京都","city":"立川市","address":"東京都立川市錦町4丁目4-5","lat":35.69160795,"lon":139.42296472},{"name":"第四機動隊北","province":"東京都","city":"立川市","address":"東京都立川市緑町3567","lat":35.7125968,"lon":139.40643755},{"name":"昭和記念公園あけぼの口","province":"東京都","city":"立川市","address":"東京都立川市曙町2丁目42-23","lat":35.70177873,"lon":139.41185409},{"name":"立川市役所","province":"東京都","city":"立川市","address":"東京都立川市泉町1156-9","lat":35.71399946,"lon":139.4078846},{"name":"モノレール基地脇","province":"東京都","city":"立川市","address":"東京都立川市泉町935-1","lat":35.71253317,"lon":139.4161173},{"name":"裁判所前","province":"東京都","city":"立川市","address":"東京都立川市緑町10-4","lat":35.71203865,"lon":139.41090941},{"name":"西武立川駅南口","province":"東京都","city":"立川市","address":"東京都立川市西砂町1丁目2-27","lat":35.72528883,"lon":139.37091001},{"name":"柴崎浄水所","province":"東京都","city":"立川市","address":"東京都立川市柴崎町1丁目1-41","lat":35.69686245,"lon":139.40595201},{"name":"立川栄町浄水所","province":"東京都","city":"立川市","address":"東京都立川市栄町5丁目38-5","lat":35.71814941,"lon":139.42479141},{"name":"西砂第一浄水所","province":"東京都","city":"立川市","address":"東京都立川市西砂町2丁目53-14","lat":35.73083799,"lon":139.36059394},{"name":"立川砂川浄水所","province":"東京都","city":"立川市","address":"東京都立川市砂川町6丁目41-1","lat":35.72996987,"lon":139.407348},{"name":"西砂第一浄水所（注１）","province":"東京都","city":"立川市","address":"東京都立川市西砂町2丁目53-14","lat":35.73083799,"lon":139.36059394},{"name":"南部西ふじみ地域包括支援センター","province":"東京都","city":"立川市","address":"立川市富士見町2-36-47社会福祉協議会内","lat":35.70158,"lon":139.402008},{"name":"南部東はごろも地域包括支援センター","province":"東京都","city":"立川市","address":"立川市羽衣町1-12-18羽衣地域福祉サービスセンター内","lat":35.697369,"lon":139.425613},{"name":"中部たかまつ地域包括支援センター","province":"東京都","city":"立川市","address":"立川市高松町2-27-27TBK第2高松ビル105号","lat":35.704739,"lon":139.418625},{"name":"北部東わかば地域包括支援センター","province":"東京都","city":"立川市","address":"立川市若葉町3-45-2老人保健施設わかば内","lat":35.719658,"lon":139.441452},{"name":"北部中さいわい地域包括支援センター","province":"東京都","city":"立川市","address":"立川市幸町4-14-1至誠キートスホーム内","lat":35.724712,"lon":139.428299},{"name":"北部西かみすな地域包括支援センター","province":"東京都","city":"立川市","address":"立川市上砂町5-76-4砂川園内","lat":35.730007,"lon":139.389557},{"name":"にしき福祉相談センター","province":"東京都","city":"立川市","address":"立川市錦町6-28-15至誠ホーム内","lat":35.685169,"lon":139.416306},{"name":"かみすな福祉相談センター","province":"東京都","city":"立川市","address":"立川市上砂町1-13-1上砂地域福祉サービスセンター内","lat":35.720753,"lon":139.388092},{"name":"にしすな福祉相談センター","province":"東京都","city":"立川市","address":"立川市西砂町5-5-5西砂ホーム内","lat":35.731091,"lon":139.363205},{"name":"立川市見守りホットライン","province":"東京都","city":"立川市","address":"立川市泉町1156-9立川市役所","lat":35.715286,"lon":139.406281},{"name":"立川市役所","province":"東京都","city":"立川市","address":"立川市泉町1156-9","lat":35.715286,"lon":139.406281},{"name":"立川市消費生活センター","province":"東京都","city":"立川市","address":"立川市曙町2-36-2立川市女性総合センター5F","lat":35.701874,"lon":139.414169},{"name":"南部西ふじみ地域包括支援センター","province":"東京都","city":"立川市","address":"立川市富士見町2-36-47社会福祉協議会内","lat":35.70158,"lon":139.402008},{"name":"南部東はごろも地域包括支援センター","province":"東京都","city":"立川市","address":"立川市羽衣町1-12-18羽衣地域福祉サービスセンター内","lat":35.697369,"lon":139.425613},{"name":"中部たかまつ地域包括支援センター","province":"東京都","city":"立川市","address":"立川市高松町2-27-27TBK第2高松ビル105号","lat":35.704739,"lon":139.418625},{"name":"北部東わかば地域包括支援センター","province":"東京都","city":"立川市","address":"立川市若葉町3-45-2老人保健施設わかば内","lat":35.719658,"lon":139.441452},{"name":"北部中さいわい地域包括支援センター","province":"東京都","city":"立川市","address":"立川市幸町4-14-1至誠キートスホーム内","lat":35.724712,"lon":139.428299},{"name":"北部西かみすな地域包括支援センター","province":"東京都","city":"立川市","address":"立川市上砂町5-76-4砂川園内","lat":35.730007,"lon":139.389557},{"name":"にしき福祉相談センター","province":"東京都","city":"立川市","address":"立川市錦町6-28-15至誠ホーム内","lat":35.685169,"lon":139.416306},{"name":"かみすな福祉相談センター","province":"東京都","city":"立川市","address":"立川市上砂町1-13-1上砂地域福祉サービスセンター内","lat":35.720753,"lon":139.388092},{"name":"にしすな福祉相談センター","province":"東京都","city":"立川市","address":"立川市西砂町5-5-5西砂ホーム内","lat":35.731091,"lon":139.363205},{"name":"立川市見守りホットライン","province":"東京都","city":"立川市","address":"立川市泉町1156-9立川市役所","lat":35.715286,"lon":139.406281},{"name":"立川市役所","province":"東京都","city":"立川市","address":"立川市泉町1156-9","lat":35.715286,"lon":139.406281},{"name":"立川市消費生活センター","province":"東京都","city":"立川市","address":"立川市曙町2-36-2立川市女性総合センター5F","lat":35.701874,"lon":139.414169},{"name":"南部西ふじみ地域包括支援センター","province":"東京都","city":"立川市","address":"立川市富士見町2-36-47社会福祉協議会内","lat":35.70158,"lon":139.402008},{"name":"南部東はごろも地域包括支援センター","province":"東京都","city":"立川市","address":"立川市羽衣町1-12-18羽衣地域福祉サービスセンター内","lat":35.697369,"lon":139.425613},{"name":"中部たかまつ地域包括支援センター","province":"東京都","city":"立川市","address":"立川市高松町2-27-27TBK第2高松ビル105号","lat":35.704739,"lon":139.418625},{"name":"北部東わかば地域包括支援センター","province":"東京都","city":"立川市","address":"立川市若葉町3-45-2老人保健施設わかば内","lat":35.719658,"lon":139.441452},{"name":"北部中さいわい地域包括支援センター","province":"東京都","city":"立川市","address":"立川市幸町4-14-1至誠キートスホーム内","lat":35.724712,"lon":139.428299},{"name":"北部西かみすな地域包括支援センター","province":"東京都","city":"立川市","address":"立川市上砂町5-76-4砂川園内","lat":35.730007,"lon":139.389557},{"name":"にしき福祉相談センター","province":"東京都","city":"立川市","address":"立川市錦町6-28-15至誠ホーム内","lat":35.685169,"lon":139.416306},{"name":"かみすな福祉相談センター","province":"東京都","city":"立川市","address":"立川市上砂町1-13-1上砂地域福祉サービスセンター内","lat":35.720753,"lon":139.388092},{"name":"にしすな福祉相談センター","province":"東京都","city":"立川市","address":"立川市西砂町5-5-5西砂ホーム内","lat":35.731091,"lon":139.363205},{"name":"立川市見守りホットライン","province":"東京都","city":"立川市","address":"立川市泉町1156-9立川市役所","lat":35.715286,"lon":139.406281},{"name":"立川市役所","province":"東京都","city":"立川市","address":"立川市泉町1156-9","lat":35.715286,"lon":139.406281},{"name":"立川市消費生活センター","province":"東京都","city":"立川市","address":"立川市曙町2-36-2立川市女性総合センター5F","lat":35.701874,"lon":139.414169},{"name":"南部西ふじみ地域包括支援センター","province":"東京都","city":"立川市","address":"立川市富士見町2-36-47社会福祉協議会内","lat":35.70158,"lon":139.402008},{"name":"南部東はごろも地域包括支援センター","province":"東京都","city":"立川市","address":"立川市羽衣町1-12-18羽衣地域福祉サービスセンター内","lat":35.697369,"lon":139.425613},{"name":"中部たかまつ地域包括支援センター","province":"東京都","city":"立川市","address":"立川市高松町2-27-27TBK第2高松ビル105号","lat":35.704739,"lon":139.418625},{"name":"北部東わかば地域包括支援センター","province":"東京都","city":"立川市","address":"立川市若葉町3-45-2老人保健施設わかば内","lat":35.719658,"lon":139.441452},{"name":"北部中さいわい地域包括支援センター","province":"東京都","city":"立川市","address":"立川市幸町4-14-1至誠キートスホーム内","lat":35.724712,"lon":139.428299},{"name":"北部西かみすな地域包括支援センター","province":"東京都","city":"立川市","address":"立川市上砂町5-76-4砂川園内","lat":35.730007,"lon":139.389557},{"name":"にしき福祉相談センター","province":"東京都","city":"立川市","address":"立川市錦町6-28-15至誠ホーム内","lat":35.685169,"lon":139.416306},{"name":"かみすな福祉相談センター","province":"東京都","city":"立川市","address":"立川市上砂町1-13-1上砂地域福祉サービスセンター内","lat":35.720753,"lon":139.388092},{"name":"にしすな福祉相談センター","province":"東京都","city":"立川市","address":"立川市西砂町5-5-5西砂ホーム内","lat":35.731091,"lon":139.363205},{"name":"立川市見守りホットライン","province":"東京都","city":"立川市","address":"立川市泉町1156-9立川市役所","lat":35.715286,"lon":139.406281},{"name":"立川市役所","province":"東京都","city":"立川市","address":"立川市泉町1156-9","lat":35.715286,"lon":139.406281},{"name":"立川市消費生活センター","province":"東京都","city":"立川市","address":"立川市曙町2-36-2立川市女性総合センター5F","lat":35.701874,"lon":139.414169},{"name":"南部西ふじみ地域包括支援センター","province":"東京都","city":"立川市","address":"立川市富士見町2-36-47社会福祉協議会内","lat":35.70158,"lon":139.402008},{"name":"南部東はごろも地域包括支援センター","province":"東京都","city":"立川市","address":"立川市羽衣町1-12-18羽衣地域福祉サービスセンター内","lat":35.697369,"lon":139.425613},{"name":"中部たかまつ地域包括支援センター","province":"東京都","city":"立川市","address":"立川市高松町2-27-27TBK第2高松ビル105号","lat":35.704739,"lon":139.418625},{"name":"北部東わかば地域包括支援センター","province":"東京都","city":"立川市","address":"立川市若葉町3-45-2老人保健施設わかば内","lat":35.719658,"lon":139.441452},{"name":"北部中さいわい地域包括支援センター","province":"東京都","city":"立川市","address":"立川市幸町4-14-1至誠キートスホーム内","lat":35.724712,"lon":139.428299},{"name":"北部西かみすな地域包括支援センター","province":"東京都","city":"立川市","address":"立川市上砂町5-76-4砂川園内","lat":35.730007,"lon":139.389557},{"name":"にしき福祉相談センター","province":"東京都","city":"立川市","address":"立川市錦町6-28-15至誠ホーム内","lat":35.685169,"lon":139.416306},{"name":"かみすな福祉相談センター","province":"東京都","city":"立川市","address":"立川市上砂町1-13-1上砂地域福祉サービスセンター内","lat":35.720753,"lon":139.388092},{"name":"にしすな福祉相談センター","province":"東京都","city":"立川市","address":"立川市西砂町5-5-5西砂ホーム内","lat":35.731091,"lon":139.363205},{"name":"立川市見守りホットライン","province":"東京都","city":"立川市","address":"立川市泉町1156-9立川市役所","lat":35.715286,"lon":139.406281},{"name":"立川市役所","province":"東京都","city":"立川市","address":"立川市泉町1156-9","lat":35.715286,"lon":139.406281},{"name":"立川市消費生活センター","province":"東京都","city":"立川市","address":"立川市曙町2-36-2立川市女性総合センター5F","lat":35.701874,"lon":139.414169},{"name":"南部西ふじみ地域包括支援センター","province":"東京都","city":"立川市","address":"立川市富士見町2-36-47社会福祉協議会内","lat":35.70158,"lon":139.402008},{"name":"南部東はごろも地域包括支援センター","province":"東京都","city":"立川市","address":"立川市羽衣町1-12-18羽衣地域福祉サービスセンター内","lat":35.697369,"lon":139.425613},{"name":"中部たかまつ地域包括支援センター","province":"東京都","city":"立川市","address":"立川市高松町2-27-27TBK第2高松ビル105号","lat":35.704739,"lon":139.418625},{"name":"北部東わかば地域包括支援センター","province":"東京都","city":"立川市","address":"立川市若葉町3-45-2老人保健施設わかば内","lat":35.719658,"lon":139.441452},{"name":"北部中さいわい地域包括支援センター","province":"東京都","city":"立川市","address":"立川市幸町4-14-1至誠キートスホーム内","lat":35.724712,"lon":139.428299},{"name":"北部西かみすな地域包括支援センター","province":"東京都","city":"立川市","address":"立川市上砂町5-76-4砂川園内","lat":35.730007,"lon":139.389557},{"name":"にしき福祉相談センター","province":"東京都","city":"立川市","address":"立川市錦町6-28-15至誠ホーム内","lat":35.685169,"lon":139.416306},{"name":"かみすな福祉相談センター","province":"東京都","city":"立川市","address":"立川市上砂町1-13-1上砂地域福祉サービスセンター内","lat":35.720753,"lon":139.388092},{"name":"にしすな福祉相談センター","province":"東京都","city":"立川市","address":"立川市西砂町5-5-5西砂ホーム内","lat":35.731091,"lon":139.363205},{"name":"立川市見守りホットライン","province":"東京都","city":"立川市","address":"立川市泉町1156-9立川市役所","lat":35.715286,"lon":139.406281},{"name":"立川市役所","province":"東京都","city":"立川市","address":"立川市泉町1156-9","lat":35.715286,"lon":139.406281},{"name":"立川市消費生活センター","province":"東京都","city":"立川市","address":"立川市曙町2-36-2立川市女性総合センター5F","lat":35.701874,"lon":139.414169},{"name":"南部西ふじみ地域包括支援センター","province":"東京都","city":"立川市","address":"立川市富士見町2-36-47社会福祉協議会内","lat":35.70158,"lon":139.402008},{"name":"南部東はごろも地域包括支援センター","province":"東京都","city":"立川市","address":"立川市羽衣町1-12-18羽衣地域福祉サービスセンター内","lat":35.697369,"lon":139.425613},{"name":"中部たかまつ地域包括支援センター","province":"東京都","city":"立川市","address":"立川市高松町2-27-27TBK第2高松ビル105号","lat":35.704739,"lon":139.418625},{"name":"北部東わかば地域包括支援センター","province":"東京都","city":"立川市","address":"立川市若葉町3-45-2老人保健施設わかば内","lat":35.719658,"lon":139.441452},{"name":"北部中さいわい地域包括支援センター","province":"東京都","city":"立川市","address":"立川市幸町4-14-1至誠キートスホーム内","lat":35.724712,"lon":139.428299},{"name":"北部西かみすな地域包括支援センター","province":"東京都","city":"立川市","address":"立川市上砂町5-76-4砂川園内","lat":35.730007,"lon":139.389557},{"name":"にしき福祉相談センター","province":"東京都","city":"立川市","address":"立川市錦町6-28-15至誠ホーム内","lat":35.685169,"lon":139.416306},{"name":"かみすな福祉相談センター","province":"東京都","city":"立川市","address":"立川市上砂町1-13-1上砂地域福祉サービスセンター内","lat":35.720753,"lon":139.388092},{"name":"にしすな福祉相談センター","province":"東京都","city":"立川市","address":"立川市西砂町5-5-5西砂ホーム内","lat":35.731091,"lon":139.363205},{"name":"立川市見守りホットライン","province":"東京都","city":"立川市","address":"立川市泉町1156-9立川市役所","lat":35.715286,"lon":139.406281},{"name":"立川市役所","province":"東京都","city":"立川市","address":"立川市泉町1156-9","lat":35.715286,"lon":139.406281},{"name":"立川市消費生活センター","province":"東京都","city":"立川市","address":"立川市曙町2-36-2立川市女性総合センター5F","lat":35.701874,"lon":139.414169},{"name":"南部西ふじみ地域包括支援センター","province":"東京都","city":"立川市","address":"立川市富士見町2-36-47社会福祉協議会内","lat":35.70158,"lon":139.402008},{"name":"南部東はごろも地域包括支援センター","province":"東京都","city":"立川市","address":"立川市羽衣町1-12-18羽衣地域福祉サービスセンター内","lat":35.697369,"lon":139.425613},{"name":"中部たかまつ地域包括支援センター","province":"東京都","city":"立川市","address":"立川市高松町2-27-27TBK第2高松ビル105号","lat":35.704739,"lon":139.418625},{"name":"北部東わかば地域包括支援センター","province":"東京都","city":"立川市","address":"立川市若葉町3-45-2老人保健施設わかば内","lat":35.719658,"lon":139.441452},{"name":"北部中さいわい地域包括支援センター","province":"東京都","city":"立川市","address":"立川市幸町4-14-1至誠キートスホーム内","lat":35.724712,"lon":139.428299},{"name":"北部西かみすな地域包括支援センター","province":"東京都","city":"立川市","address":"立川市上砂町5-76-4砂川園内","lat":35.730007,"lon":139.389557},{"name":"にしき福祉相談センター","province":"東京都","city":"立川市","address":"立川市錦町6-28-15至誠ホーム内","lat":35.685169,"lon":139.416306},{"name":"かみすな福祉相談センター","province":"東京都","city":"立川市","address":"立川市上砂町1-13-1上砂地域福祉サービスセンター内","lat":35.720753,"lon":139.388092},{"name":"にしすな福祉相談センター","province":"東京都","city":"立川市","address":"立川市西砂町5-5-5西砂ホーム内","lat":35.731091,"lon":139.363205},{"name":"立川市見守りホットライン","province":"東京都","city":"立川市","address":"立川市泉町1156-9立川市役所","lat":35.715286,"lon":139.406281},{"name":"立川市役所","province":"東京都","city":"立川市","address":"立川市泉町1156-9","lat":35.715286,"lon":139.406281},{"name":"立川市消費生活センター","province":"東京都","city":"立川市","address":"立川市曙町2-36-2立川市女性総合センター5F","lat":35.701874,"lon":139.414169},{"name":"南部西ふじみ地域包括支援センター","province":"東京都","city":"立川市","address":"立川市富士見町2-36-47社会福祉協議会内","lat":35.70158,"lon":139.402008},{"name":"南部東はごろも地域包括支援センター","province":"東京都","city":"立川市","address":"立川市羽衣町1-12-18羽衣地域福祉サービスセンター内","lat":35.697369,"lon":139.425613},{"name":"中部たかまつ地域包括支援センター","province":"東京都","city":"立川市","address":"立川市高松町2-27-27TBK第2高松ビル105号","lat":35.704739,"lon":139.418625},{"name":"北部東わかば地域包括支援センター","province":"東京都","city":"立川市","address":"立川市若葉町3-45-2老人保健施設わかば内","lat":35.719658,"lon":139.441452},{"name":"北部中さいわい地域包括支援センター","province":"東京都","city":"立川市","address":"立川市幸町4-14-1至誠キートスホーム内","lat":35.724712,"lon":139.428299},{"name":"北部西かみすな地域包括支援センター","province":"東京都","city":"立川市","address":"立川市上砂町5-76-4砂川園内","lat":35.730007,"lon":139.389557},{"name":"にしき福祉相談センター","province":"東京都","city":"立川市","address":"立川市錦町6-28-15至誠ホーム内","lat":35.685169,"lon":139.416306},{"name":"かみすな福祉相談センター","province":"東京都","city":"立川市","address":"立川市上砂町1-13-1上砂地域福祉サービスセンター内","lat":35.720753,"lon":139.388092},{"name":"にしすな福祉相談センター","province":"東京都","city":"立川市","address":"立川市西砂町5-5-5西砂ホーム内","lat":35.731091,"lon":139.363205},{"name":"立川市見守りホットライン","province":"東京都","city":"立川市","address":"立川市泉町1156-9立川市役所","lat":35.715286,"lon":139.406281},{"name":"立川市役所","province":"東京都","city":"立川市","address":"立川市泉町1156-9","lat":35.715286,"lon":139.406281},{"name":"立川市消費生活センター","province":"東京都","city":"立川市","address":"立川市曙町2-36-2立川市女性総合センター5F","lat":35.701874,"lon":139.414169},{"name":"南部西ふじみ地域包括支援センター","province":"東京都","city":"立川市","address":"立川市富士見町2-36-47社会福祉協議会内","lat":35.70158,"lon":139.402008},{"name":"南部東はごろも地域包括支援センター","province":"東京都","city":"立川市","address":"立川市羽衣町1-12-18羽衣地域福祉サービスセンター内","lat":35.697369,"lon":139.425613},{"name":"中部たかまつ地域包括支援センター","province":"東京都","city":"立川市","address":"立川市高松町2-27-27TBK第2高松ビル105号","lat":35.704739,"lon":139.418625},{"name":"北部東わかば地域包括支援センター","province":"東京都","city":"立川市","address":"立川市若葉町3-45-2老人保健施設わかば内","lat":35.719658,"lon":139.441452},{"name":"北部中さいわい地域包括支援センター","province":"東京都","city":"立川市","address":"立川市幸町4-14-1至誠キートスホーム内","lat":35.724712,"lon":139.428299},{"name":"北部西かみすな地域包括支援センター","province":"東京都","city":"立川市","address":"立川市上砂町5-76-4砂川園内","lat":35.730007,"lon":139.389557},{"name":"にしき福祉相談センター","province":"東京都","city":"立川市","address":"立川市錦町6-28-15至誠ホーム内","lat":35.685169,"lon":139.416306},{"name":"かみすな福祉相談センター","province":"東京都","city":"立川市","address":"立川市上砂町1-13-1上砂地域福祉サービスセンター内","lat":35.720753,"lon":139.388092},{"name":"にしすな福祉相談センター","province":"東京都","city":"立川市","address":"立川市西砂町5-5-5西砂ホーム内","lat":35.731091,"lon":139.363205},{"name":"立川市見守りホットライン","province":"東京都","city":"立川市","address":"立川市泉町1156-9立川市役所","lat":35.715286,"lon":139.406281},{"name":"立川市役所","province":"東京都","city":"立川市","address":"立川市泉町1156-9","lat":35.715286,"lon":139.406281},{"name":"立川市消費生活センター","province":"東京都","city":"立川市","address":"立川市曙町2-36-2立川市女性総合センター5F","lat":35.701874,"lon":139.414169},{"name":"南部西ふじみ地域包括支援センター","province":"東京都","city":"立川市","address":"立川市富士見町2-36-47社会福祉協議会内","lat":35.70158,"lon":139.402008},{"name":"南部東はごろも地域包括支援センター","province":"東京都","city":"立川市","address":"立川市羽衣町1-12-18羽衣地域福祉サービスセンター内","lat":35.697369,"lon":139.425613},{"name":"中部たかまつ地域包括支援センター","province":"東京都","city":"立川市","address":"立川市高松町2-27-27TBK第2高松ビル105号","lat":35.704739,"lon":139.418625},{"name":"北部東わかば地域包括支援センター","province":"東京都","city":"立川市","address":"立川市若葉町3-45-2老人保健施設わかば内","lat":35.719658,"lon":139.441452},{"name":"北部中さいわい地域包括支援センター","province":"東京都","city":"立川市","address":"立川市幸町4-14-1至誠キートスホーム内","lat":35.724712,"lon":139.428299},{"name":"北部西かみすな地域包括支援センター","province":"東京都","city":"立川市","address":"立川市上砂町5-76-4砂川園内","lat":35.730007,"lon":139.389557},{"name":"にしき福祉相談センター","province":"東京都","city":"立川市","address":"立川市錦町6-28-15至誠ホーム内","lat":35.685169,"lon":139.416306},{"name":"かみすな福祉相談センター","province":"東京都","city":"立川市","address":"立川市上砂町1-13-1上砂地域福祉サービスセンター内","lat":35.720753,"lon":139.388092},{"name":"にしすな福祉相談センター","province":"東京都","city":"立川市","address":"立川市西砂町5-5-5西砂ホーム内","lat":35.731091,"lon":139.363205},{"name":"立川市見守りホットライン","province":"東京都","city":"立川市","address":"立川市泉町1156-9立川市役所","lat":35.715286,"lon":139.406281},{"name":"立川市役所","province":"東京都","city":"立川市","address":"立川市泉町1156-9","lat":35.715286,"lon":139.406281},{"name":"立川市消費生活センター","province":"東京都","city":"立川市","address":"立川市曙町2-36-2立川市女性総合センター5F","lat":35.701874,"lon":139.414169},{"name":"南部西ふじみ地域包括支援センター","province":"東京都","city":"立川市","address":"立川市富士見町2-36-47社会福祉協議会内","lat":35.70158,"lon":139.402008},{"name":"南部東はごろも地域包括支援センター","province":"東京都","city":"立川市","address":"立川市羽衣町1-12-18羽衣地域福祉サービスセンター内","lat":35.697369,"lon":139.425613},{"name":"中部たかまつ地域包括支援センター","province":"東京都","city":"立川市","address":"立川市高松町2-27-27TBK第2高松ビル105号","lat":35.704739,"lon":139.418625},{"name":"北部東わかば地域包括支援センター","province":"東京都","city":"立川市","address":"立川市若葉町3-45-2老人保健施設わかば内","lat":35.719658,"lon":139.441452},{"name":"北部中さいわい地域包括支援センター","province":"東京都","city":"立川市","address":"立川市幸町4-14-1至誠キートスホーム内","lat":35.724712,"lon":139.428299},{"name":"北部西かみすな地域包括支援センター","province":"東京都","city":"立川市","address":"立川市上砂町5-76-4砂川園内","lat":35.730007,"lon":139.389557},{"name":"にしき福祉相談センター","province":"東京都","city":"立川市","address":"立川市錦町6-28-15至誠ホーム内","lat":35.685169,"lon":139.416306},{"name":"かみすな福祉相談センター","province":"東京都","city":"立川市","address":"立川市上砂町1-13-1上砂地域福祉サービスセンター内","lat":35.720753,"lon":139.388092},{"name":"にしすな福祉相談センター","province":"東京都","city":"立川市","address":"立川市西砂町5-5-5西砂ホーム内","lat":35.731091,"lon":139.363205},{"name":"立川市見守りホットライン","province":"東京都","city":"立川市","address":"立川市泉町1156-9立川市役所","lat":35.715286,"lon":139.406281},{"name":"立川市役所","province":"東京都","city":"立川市","address":"立川市泉町1156-9","lat":35.715286,"lon":139.406281},{"name":"立川市消費生活センター","province":"東京都","city":"立川市","address":"立川市曙町2-36-2立川市女性総合センター5F","lat":35.701874,"lon":139.414169},{"name":"南部西ふじみ地域包括支援センター","province":"東京都","city":"立川市","address":"立川市富士見町2-36-47社会福祉協議会内","lat":35.70158,"lon":139.402008},{"name":"南部東はごろも地域包括支援センター","province":"東京都","city":"立川市","address":"立川市羽衣町1-12-18羽衣地域福祉サービスセンター内","lat":35.697369,"lon":139.425613},{"name":"中部たかまつ地域包括支援センター","province":"東京都","city":"立川市","address":"立川市高松町2-27-27TBK第2高松ビル105号","lat":35.704739,"lon":139.418625},{"name":"北部東わかば地域包括支援センター","province":"東京都","city":"立川市","address":"立川市若葉町3-45-2老人保健施設わかば内","lat":35.719658,"lon":139.441452},{"name":"北部中さいわい地域包括支援センター","province":"東京都","city":"立川市","address":"立川市幸町4-14-1至誠キートスホーム内","lat":35.724712,"lon":139.428299},{"name":"北部西かみすな地域包括支援センター","province":"東京都","city":"立川市","address":"立川市上砂町5-76-4砂川園内","lat":35.730007,"lon":139.389557},{"name":"にしき福祉相談センター","province":"東京都","city":"立川市","address":"立川市錦町6-28-15至誠ホーム内","lat":35.685169,"lon":139.416306},{"name":"かみすな福祉相談センター","province":"東京都","city":"立川市","address":"立川市上砂町1-13-1上砂地域福祉サービスセンター内","lat":35.720753,"lon":139.388092},{"name":"にしすな福祉相談センター","province":"東京都","city":"立川市","address":"立川市西砂町5-5-5西砂ホーム内","lat":35.731091,"lon":139.363205},{"name":"立川市見守りホットライン","province":"東京都","city":"立川市","address":"立川市泉町1156-9立川市役所","lat":35.715286,"lon":139.406281},{"name":"立川市役所","province":"東京都","city":"立川市","address":"立川市泉町1156-9","lat":35.715286,"lon":139.406281},{"name":"立川市消費生活センター","province":"東京都","city":"立川市","address":"立川市曙町2-36-2立川市女性総合センター5F","lat":35.701874,"lon":139.414169}]}