{"keyword":"自転車","data":[{"name":"立川市立川駅南口立体有料自転車駐車場","province":"東京都","city":"立川市","address":"東京都立川市錦町2丁目1-4","lat":35.69606557,"lon":139.41512073},{"name":"立川市立川駅南口第三有料自転車駐車場","province":"東京都","city":"立川市","address":"東京都立川市柴崎町2丁目5-16","lat":35.69780963,"lon":139.40852397},{"name":"立川市立川駅南口第四有料自転車駐車場","province":"東京都","city":"立川市","address":"東京都立川市柴崎町3丁目5-27","lat":35.69638494,"lon":139.41410413},{"name":"立川市立川駅南口第一タワー有料自転車駐車場","province":"東京都","city":"立川市","address":"東京都立川市錦町1丁目3-19","lat":35.6965322,"lon":139.41552346},{"name":"立川市立川駅南口第二タワー有料自転車駐車場","province":"東京都","city":"立川市","address":"東京都立川市柴崎町2丁目3-20","lat":35.69677094,"lon":139.41137656},{"name":"立川市立川駅西地下道有料自転車駐車場","province":"東京都","city":"立川市","address":"東京都立川市曙町1丁目1-33","lat":35.69820687,"lon":139.41025992},{"name":"立川市柴崎体育館駅臨時自転車等駐車場","province":"東京都","city":"立川市","address":"東京都立川市柴崎町6丁目13-3","lat":35.68963557,"lon":139.40890482},{"name":"立川市柴崎体育館駅下自転車仮置場","province":"東京都","city":"立川市","address":"東京都立川市柴崎町6丁目13","lat":35.68969944,"lon":139.40857984},{"name":"立川市立川駅北口第一有料自転車駐車場","province":"東京都","city":"立川市","address":"東京都立川市曙町2丁目36-2","lat":35.70254814,"lon":139.41413167},{"name":"立川市立川北駅西臨時有料自転車駐車場","province":"東京都","city":"立川市","address":"東京都立川市曙町1丁目32-1","lat":35.7003872,"lon":139.41146252},{"name":"立川市立川北駅下有料自転車駐車場","province":"東京都","city":"立川市","address":"東京都立川市曙町2丁目5-1","lat":35.69952623,"lon":139.41295966},{"name":"立川市泉体育館駅臨時自転車駐車場","province":"東京都","city":"立川市","address":"東京都立川市泉町786-11","lat":35.71897695,"lon":139.41870575},{"name":"立川市玉川上水駅第二自転車駐車場","province":"東京都","city":"立川市","address":"東京都立川市幸町6丁目3","lat":35.73100611,"lon":139.41833583},{"name":"立川市玉川上水駅臨時自転車駐車場","province":"東京都","city":"立川市","address":"東京都立川市幸町6丁目1","lat":35.73045896,"lon":139.41857749},{"name":"立川市武蔵砂川駅第一有料自転車等駐車場","province":"東京都","city":"立川市","address":"東京都立川市上砂町4丁目52-1","lat":35.72839746,"lon":139.39264115},{"name":"立川市西国立駅第三有料自転車駐車場","province":"東京都","city":"立川市","address":"東京都立川市羽衣町1丁目25-23","lat":35.6933328,"lon":139.42423954},{"name":"立川市西武立川駅北口有料自転車駐車場","province":"東京都","city":"立川市","address":"東京都立川市西砂町1丁目23-8","lat":35.72687195,"lon":139.3698684},{"name":"立川市高松駅下自転車仮置場","province":"東京都","city":"立川市","address":"東京都立川市高松町1丁目100","lat":35.70810864,"lon":139.41487588},{"name":"立川市立川駅南口臨時自転車駐車場","province":"東京都","city":"立川市","address":"東京都立川市柴崎町3丁目10","lat":35.69521838,"lon":139.41267652},{"name":"立川市高松駅自転車駐車場","province":"東京都","city":"立川市","address":"東京都立川市高松町1丁目22-20","lat":35.71078888,"lon":139.41428696},{"name":"立川市立川駅南口西有料自転車駐車場","province":"東京都","city":"立川市","address":"東京都立川市柴崎町2丁目1-5","lat":35.6975542,"lon":139.41165151},{"name":"立川市立川駅南口東臨時有料原動機付自転車駐車場","province":"東京都","city":"立川市","address":"東京都立川市錦町1丁目1-21","lat":35.69775431,"lon":139.41662055},{"name":"立川市砂川七番駅西自転車駐車場","province":"東京都","city":"立川市","address":"東京都立川市柏町3丁目1-4","lat":35.7236875,"lon":139.41781953},{"name":"立川市立川駅南口第二臨時有料自転車駐車場","province":"東京都","city":"立川市","address":"東京都立川市柴崎町3丁目10-21","lat":35.69477674,"lon":139.4121488},{"name":"立川市西武立川駅北口臨時有料路上自転車駐車場","province":"東京都","city":"立川市","address":"東京都立川市西砂町1丁目23","lat":35.72662754,"lon":139.36969065},{"name":"立川市コトリンク有料自転車等駐車場","province":"東京都","city":"立川市","address":"東京都立川市柴崎町3丁目9-2","lat":35.69548499,"lon":139.4119599},{"name":"立川市曙陸橋東有料自転車等駐車場","province":"東京都","city":"立川市","address":"東京都立川市曙町3丁目2-12","lat":35.69836265,"lon":139.41953974}]}