{"keyword":"葬儀","data":[{"name":"株式会社クオーレ","province":"東京都","city":"立川市","address":"東京都立川市一番町1丁目41-11","lat":35.72505585,"lon":139.3829477},{"name":"多摩中央葬祭株式会社","province":"東京都","city":"立川市","address":"東京都立川市錦町4丁目8-3","lat":35.69109684,"lon":139.42126488},{"name":"有限会社成田屋","province":"東京都","city":"立川市","address":"東京都立川市羽衣町3丁目15-9","lat":35.68945263,"lon":139.42287593},{"name":"株式会社ハートフル葬祭","province":"東京都","city":"立川市","address":"東京都立川市若葉町1丁目3-27","lat":35.72089929,"lon":139.43267959},{"name":"株式会社ワイズセレモニー","province":"東京都","city":"立川市","address":"東京都立川市曙町3丁目11-20","lat":35.70087375,"lon":139.42909999},{"name":"株式会社　セレモア","province":"東京都","city":"立川市","address":"東京都立川市柏町1丁目26-4","lat":35.72092378,"lon":139.41187015},{"name":"株式会社 セレモア","province":"東京都","city":"立川市","address":"東京都立川市柏町1丁目26-4","lat":35.72092378,"lon":139.41187015},{"name":"有限会社 成田屋","province":"東京都","city":"立川市","address":"東京都立川市羽衣町3丁目15-9","lat":35.68945263,"lon":139.42287593},{"name":"株式会社 あさひセレモニー","province":"東京都","city":"立川市","address":"東京都立川市栄町6丁目1-13","lat":35.71380545,"lon":139.423475},{"name":"株式会社 ドリーミー","province":"東京都","city":"立川市","address":"東京都立川市富士見町6丁目36-27","lat":35.6929236,"lon":139.38921191}]}