{"keyword":"財団","data":[{"name":"NewWork立川","province":"東京都","city":"立川市","address":"東京都立川市曙町1丁目27-10","lat":35.70001222,"lon":139.41070148},{"name":"東京電力（株）立川支社","province":"東京都","city":"立川市","address":"立川市緑町6-6","lat":35.70862,"lon":139.4115},{"name":"NewWork立川","province":"東京都","city":"立川市","address":"東京都立川市曙町1丁目27-10","lat":35.70001222,"lon":139.41070148},{"name":"東京電力（株）立川支社","province":"東京都","city":"立川市","address":"立川市緑町6-6","lat":35.70862,"lon":139.4115},{"name":"NewWork立川","province":"東京都","city":"立川市","address":"東京都立川市曙町1丁目27-10","lat":35.70001222,"lon":139.41070148},{"name":"東京電力（株）立川支社","province":"東京都","city":"立川市","address":"立川市緑町6-6","lat":35.70862,"lon":139.4115},{"name":"NewWork立川","province":"東京都","city":"立川市","address":"東京都立川市曙町1丁目27-10","lat":35.70001222,"lon":139.41070148},{"name":"東京電力（株）立川支社","province":"東京都","city":"立川市","address":"立川市緑町6-6","lat":35.70862,"lon":139.4115},{"name":"東京電力（株）立川支社","province":"東京都","city":"立川市","address":"立川市緑町6-6","lat":35.70862,"lon":139.4115},{"name":"東京電力（株）立川支社","province":"東京都","city":"立川市","address":"立川市緑町6-6","lat":35.70862,"lon":139.4115},{"name":"東京電力（株）立川支社","province":"東京都","city":"立川市","address":"立川市緑町6-6","lat":35.70862,"lon":139.4115},{"name":"東京電力（株）立川支社","province":"東京都","city":"立川市","address":"立川市緑町6-6","lat":35.70862,"lon":139.4115},{"name":"東京電力（株）立川支社","province":"東京都","city":"立川市","address":"立川市緑町6-6","lat":35.70862,"lon":139.4115},{"name":"東京電力（株）立川支社","province":"東京都","city":"立川市","address":"立川市緑町6-6","lat":35.70862,"lon":139.4115},{"name":"東京電力（株）立川支社","province":"東京都","city":"立川市","address":"立川市緑町6-6","lat":35.70862,"lon":139.4115},{"name":"東京電力（株）立川支社","province":"東京都","city":"立川市","address":"立川市緑町6-6","lat":35.70862,"lon":139.4115},{"name":"東京電力（株）立川支社","province":"東京都","city":"立川市","address":"立川市緑町6-6","lat":35.70862,"lon":139.4115},{"name":"東京電力（株）立川支社","province":"東京都","city":"立川市","address":"立川市緑町6-6","lat":35.70862,"lon":139.4115},{"name":"東京電力（株）立川支社","province":"東京都","city":"立川市","address":"立川市緑町6-6","lat":35.70862,"lon":139.4115},{"name":"東京電力（株）立川支社","province":"東京都","city":"立川市","address":"立川市緑町6-6","lat":35.70862,"lon":139.4115},{"name":"東京電力（株）立川支社","province":"東京都","city":"立川市","address":"立川市緑町6-6","lat":35.70862,"lon":139.4115},{"name":"東京電力（株）立川支社","province":"東京都","city":"立川市","address":"立川市緑町6-6","lat":35.70862,"lon":139.4115},{"name":"東京電力（株）立川支社","province":"東京都","city":"立川市","address":"立川市緑町6-6","lat":35.70862,"lon":139.4115},{"name":"東京電力（株）立川支社","province":"東京都","city":"立川市","address":"立川市緑町6-6","lat":35.70862,"lon":139.4115},{"name":"東京電力（株）立川支社","province":"東京都","city":"立川市","address":"立川市緑町6-6","lat":35.70862,"lon":139.4115},{"name":"東京電力（株）立川支社","province":"東京都","city":"立川市","address":"立川市緑町6-6","lat":35.70862,"lon":139.4115},{"name":"東京電力（株）立川支社","province":"東京都","city":"立川市","address":"立川市緑町6-6","lat":35.70862,"lon":139.4115},{"name":"東京電力（株）立川支社","province":"東京都","city":"立川市","address":"立川市緑町6-6","lat":35.70862,"lon":139.4115},{"name":"東京電力（株）立川支社","province":"東京都","city":"立川市","address":"立川市緑町6-6","lat":35.70862,"lon":139.4115},{"name":"東京電力（株）立川支社","province":"東京都","city":"立川市","address":"立川市緑町6-6","lat":35.70862,"lon":139.4115},{"name":"東京電力（株）立川支社","province":"東京都","city":"立川市","address":"立川市緑町6-6","lat":35.70862,"lon":139.4115},{"name":"東京電力（株）立川支社","province":"東京都","city":"立川市","address":"立川市緑町6-6","lat":35.70862,"lon":139.4115},{"name":"東京電力（株）立川支社","province":"東京都","city":"立川市","address":"立川市緑町6-6","lat":35.70862,"lon":139.4115},{"name":"東京電力（株）立川支社","province":"東京都","city":"立川市","address":"立川市緑町6-6","lat":35.70862,"lon":139.4115},{"name":"東京電力（株）立川支社","province":"東京都","city":"立川市","address":"立川市緑町6-6","lat":35.70862,"lon":139.4115}]}