{"keyword":"連絡","data":[{"name":"南部西ふじみ地域包括支援センター","province":"東京都","city":"立川市","address":"立川市富士見町2-36-47社会福祉協議会内","lat":35.70158,"lon":139.402008},{"name":"南部東はごろも地域包括支援センター","province":"東京都","city":"立川市","address":"立川市羽衣町1-12-18羽衣地域福祉サービスセンター内","lat":35.697369,"lon":139.425613},{"name":"中部たかまつ地域包括支援センター","province":"東京都","city":"立川市","address":"立川市高松町2-27-27TBK第2高松ビル105号","lat":35.704739,"lon":139.418625},{"name":"北部東わかば地域包括支援センター","province":"東京都","city":"立川市","address":"立川市若葉町3-45-2老人保健施設わかば内","lat":35.719658,"lon":139.441452},{"name":"北部中さいわい地域包括支援センター","province":"東京都","city":"立川市","address":"立川市幸町4-14-1至誠キートスホーム内","lat":35.724712,"lon":139.428299},{"name":"北部西かみすな地域包括支援センター","province":"東京都","city":"立川市","address":"立川市上砂町5-76-4砂川園内","lat":35.730007,"lon":139.389557},{"name":"にしき福祉相談センター","province":"東京都","city":"立川市","address":"立川市錦町6-28-15至誠ホーム内","lat":35.685169,"lon":139.416306},{"name":"かみすな福祉相談センター","province":"東京都","city":"立川市","address":"立川市上砂町1-13-1上砂地域福祉サービスセンター内","lat":35.720753,"lon":139.388092},{"name":"にしすな福祉相談センター","province":"東京都","city":"立川市","address":"立川市西砂町5-5-5西砂ホーム内","lat":35.731091,"lon":139.363205},{"name":"立川市見守りホットライン","province":"東京都","city":"立川市","address":"立川市泉町1156-9立川市役所","lat":35.715286,"lon":139.406281},{"name":"立川市役所","province":"東京都","city":"立川市","address":"立川市泉町1156-9","lat":35.715286,"lon":139.406281},{"name":"立川市消費生活センター","province":"東京都","city":"立川市","address":"立川市曙町2-36-2立川市女性総合センター5F","lat":35.701874,"lon":139.414169}]}