{"keyword":"音響","data":[{"name":"市民会館西","province":"東京都","city":"立川市","address":"東京都立川市錦町3丁目5-1","lat":35.69314932,"lon":139.41859835},{"name":"曙橋","province":"東京都","city":"立川市","address":"東京都立川市曙町2丁目8-3","lat":35.7005817,"lon":139.41420952},{"name":"柴崎町二丁目","province":"東京都","city":"立川市","address":"東京都立川市柴崎町2丁目9-19","lat":35.69700691,"lon":139.4069158},{"name":"立川富士見町交番前","province":"東京都","city":"立川市","address":"東京都立川市富士見町6丁目19-1","lat":35.6924793,"lon":139.39275329},{"name":"立川駅北口","province":"東京都","city":"立川市","address":"東京都立川市曙町2丁目12-1","lat":35.6992013,"lon":139.41435956},{"name":"立川駅北口西","province":"東京都","city":"立川市","address":"東京都立川市曙町2丁目4-6","lat":35.69877907,"lon":139.41217364},{"name":"立川至誠老人ホーム前","province":"東京都","city":"立川市","address":"東京都立川市錦町6丁目28-15","lat":35.68536958,"lon":139.41604886},{"name":"災害医療センター前","province":"東京都","city":"立川市","address":"東京都立川市緑町3173","lat":35.70335899,"lon":139.40788769},{"name":"立川富士見町二丁目第二","province":"東京都","city":"立川市","address":"東京都立川市富士見町2丁目22-19","lat":35.70014809,"lon":139.40231607},{"name":"砂川九番北","province":"東京都","city":"立川市","address":"東京都立川市若葉町3丁目3-3","lat":35.72272686,"lon":139.43276005},{"name":"立川合同庁舎前","province":"東京都","city":"立川市","address":"東京都立川市錦町4丁目6","lat":35.69183285,"lon":139.42034548},{"name":"立川七中北","province":"東京都","city":"立川市","address":"東京都立川市西砂町5丁目34","lat":35.73520154,"lon":139.36785154},{"name":"地域センター前","province":"東京都","city":"立川市","address":"東京都立川市西砂町6丁目12-4","lat":35.72923562,"lon":139.37218204},{"name":"立川健康会館西","province":"東京都","city":"立川市","address":"東京都立川市高松町2丁目1-11","lat":35.70487018,"lon":139.41724524},{"name":"立川病院東","province":"東京都","city":"立川市","address":"東京都立川市錦町4丁目4-5","lat":35.69160795,"lon":139.42296472},{"name":"第四機動隊北","province":"東京都","city":"立川市","address":"東京都立川市緑町3567","lat":35.7125968,"lon":139.40643755},{"name":"昭和記念公園あけぼの口","province":"東京都","city":"立川市","address":"東京都立川市曙町2丁目42-23","lat":35.70177873,"lon":139.41185409},{"name":"立川市役所","province":"東京都","city":"立川市","address":"東京都立川市泉町1156-9","lat":35.71399946,"lon":139.4078846},{"name":"モノレール基地脇","province":"東京都","city":"立川市","address":"東京都立川市泉町935-1","lat":35.71253317,"lon":139.4161173},{"name":"裁判所前","province":"東京都","city":"立川市","address":"東京都立川市緑町10-4","lat":35.71203865,"lon":139.41090941},{"name":"西武立川駅南口","province":"東京都","city":"立川市","address":"東京都立川市西砂町1丁目2-27","lat":35.72528883,"lon":139.37091001}]}