{"keyword":"館","data":[{"name":"立川市若葉児童館","province":"東京都","city":"立川市","address":"立川市若葉町4-25-114","lat":35.722308,"lon":139.443529},{"name":"立川市幸児童館","province":"東京都","city":"立川市","address":"立川市幸町2-19-1","lat":35.719408,"lon":139.427641},{"name":"立川市高松児童館","province":"東京都","city":"立川市","address":"立川市高松町2-25-26","lat":35.704229,"lon":139.420198},{"name":"西立川児童会館","province":"東京都","city":"立川市","address":"立川市富士見町1-23-6","lat":35.701798,"lon":139.396439},{"name":"立川市富士見児童館","province":"東京都","city":"立川市","address":"立川市富士見町7-7-12","lat":35.693465,"lon":139.397383},{"name":"立川市羽衣児童館","province":"東京都","city":"立川市","address":"立川市羽衣町2-44-16","lat":35.692711,"lon":139.425078},{"name":"立川市錦児童館","province":"東京都","city":"立川市","address":"立川市錦町3-12-1","lat":35.691641,"lon":139.416401},{"name":"立川市上砂児童館","province":"東京都","city":"立川市","address":"立川市上砂町1-13-1","lat":35.719987,"lon":139.392125},{"name":"立川市西砂児童館","province":"東京都","city":"立川市","address":"立川市一番町6-8-37","lat":35.732627,"lon":139.376298},{"name":"中央図書館","province":"東京都","city":"立川市","address":"東京都立川市曙町2丁目36-2","lat":35.70254814,"lon":139.41413167},{"name":"柴崎図書館","province":"東京都","city":"立川市","address":"東京都立川市柴崎町2丁目20-5","lat":35.69442388,"lon":139.40761862},{"name":"上砂図書館","province":"東京都","city":"立川市","address":"東京都立川市上砂町1丁目13-1","lat":35.71998447,"lon":139.39214139},{"name":"幸図書館","province":"東京都","city":"立川市","address":"東京都立川市幸町5丁目83-1","lat":35.72562062,"lon":139.4184194},{"name":"西砂図書館","province":"東京都","city":"立川市","address":"東京都立川市西砂町6丁目12-10","lat":35.72957725,"lon":139.37204038},{"name":"多摩川図書館","province":"東京都","city":"立川市","address":"東京都立川市富士見町6丁目51-1","lat":35.69117668,"lon":139.39316442},{"name":"高松図書館","province":"東京都","city":"立川市","address":"東京都立川市高松町3丁目22-5","lat":35.70309543,"lon":139.41903683},{"name":"錦図書館","province":"東京都","city":"立川市","address":"東京都立川市錦町3丁目12-25","lat":35.69112448,"lon":139.4162264},{"name":"若葉図書館","province":"東京都","city":"立川市","address":"東京都立川市若葉町3丁目34-1","lat":35.72021344,"lon":139.43921515},{"name":"立川市若葉児童館","province":"東京都","city":"立川市","address":"立川市若葉町4-25-114","lat":35.72409,"lon":139.43663},{"name":"立川市幸児童館","province":"東京都","city":"立川市","address":"立川市幸町2-19-1","lat":35.71949,"lon":139.42761},{"name":"立川市高松児童館","province":"東京都","city":"立川市","address":"立川市高松町2-25-26","lat":35.70476,"lon":139.4196},{"name":"西立川児童会館","province":"東京都","city":"立川市","address":"立川市富士見町1-23-6","lat":35.70187,"lon":139.39536},{"name":"立川市富士見児童館","province":"東京都","city":"立川市","address":"立川市富士見町7-7-12","lat":35.69349,"lon":139.39725},{"name":"立川市羽衣児童館","province":"東京都","city":"立川市","address":"立川市羽衣町2-44-16","lat":35.69305,"lon":139.42502},{"name":"立川市錦児童館","province":"東京都","city":"立川市","address":"立川市錦町3-12-1","lat":35.69114,"lon":139.41661},{"name":"立川市上砂児童館","province":"東京都","city":"立川市","address":"立川市上砂町1-13-1","lat":35.72075,"lon":139.38809},{"name":"立川市西砂児童館","province":"東京都","city":"立川市","address":"立川市一番町6-8-37","lat":35.73307,"lon":139.3761},{"name":"＊?柴崎図書館","province":"東京都","city":"立川市","address":"立川市柴崎町1-1-43","lat":35.696668,"lon":139.406788},{"name":"＊?多摩川図書館","province":"東京都","city":"立川市","address":"立川市富士見町6-51-1","lat":35.69121,"lon":139.393237},{"name":"＊?錦図書館","province":"東京都","city":"立川市","address":"立川市錦町3-12-25","lat":35.691166,"lon":139.416413},{"name":"＊?高松図書館","province":"東京都","city":"立川市","address":"立川市高松町3-22-5","lat":35.703004,"lon":139.41915},{"name":"＊?中央図書館","province":"東京都","city":"立川市","address":"立川市曙町2-36-2","lat":35.702202,"lon":139.414096},{"name":"＊?西砂図書館","province":"東京都","city":"立川市","address":"立川市西砂町6-12-10","lat":35.729611,"lon":139.372162},{"name":"＊?上砂図書館","province":"東京都","city":"立川市","address":"立川市上砂町1-13-1","lat":35.720753,"lon":139.390496},{"name":"＊?若葉図書館","province":"東京都","city":"立川市","address":"立川市若葉町3-34-1","lat":35.720211,"lon":139.439189},{"name":"＊?幸図書館","province":"東京都","city":"立川市","address":"立川市幸町5-83-1","lat":35.725742,"lon":139.418449}]}