{"keyword":"その他","data":[{"name":"総合体育館","province":"","city":"","address":"東五反田2-11-2","lat":35.624531,"lon":139.728195},{"name":"品川健康センター","province":"","city":"","address":"北品川3-11-22","lat":35.616524,"lon":139.740676},{"name":"荏原健康センター","province":"","city":"","address":"荏原2-9-6","lat":35.617043,"lon":139.711019},{"name":"中小企業センター","province":"","city":"","address":"西品川1-28-3","lat":35.609268,"lon":139.727762},{"name":"文化センター","province":"大阪府","city":"大阪市中央区","address":"大阪府大阪市中央区","lat":34.68107502,"lon":135.50978711},{"name":"八潮地域センター","province":"","city":"","address":"八潮5-10-27","lat":35.600184,"lon":139.75145},{"name":"＊?九段生涯学習館","province":"東京都","city":"千代田区","address":"千代田区九段南1-5-10","lat":35.695164,"lon":139.75206},{"name":"＊?スポーツセンター(7･8階生涯学習施設部分）","province":"東京都","city":"千代田区","address":"千代田区内神田2-1-8","lat":35.689135,"lon":139.767584},{"name":"＊?戸山生涯学習館","province":"東京都","city":"新宿区","address":"新宿区戸山2-11-101","lat":35.701951,"lon":139.714195},{"name":"＊?赤城生涯学習館","province":"東京都","city":"新宿区","address":"新宿区赤城元町1-3","lat":35.704322,"lon":139.736335},{"name":"＊?住吉町生涯学習館","province":"東京都","city":"新宿区","address":"新宿区住吉町13-3","lat":35.694574,"lon":139.719843},{"name":"＊?北新宿生涯学習館","province":"東京都","city":"新宿区","address":"新宿区北新宿3-20-2","lat":35.702962,"lon":139.689461},{"name":"＊?西戸山生涯学習館","province":"東京都","city":"新宿区","address":"新宿区百人町4-7-1","lat":35.70895,"lon":139.695638},{"name":"＊?新宿区立区民ギャラリー","province":"東京都","city":"新宿区","address":"新宿区西新宿2-11-4","lat":35.691019,"lon":139.688613},{"name":"＊?台東区自然の村「あわ野山荘」","province":"栃木県","city":"鹿沼市","address":"栃木県鹿沼市入粟野991","lat":36.600821,"lon":139.552857},{"name":"＊?下町風俗資料館付設展示場?（旧吉田屋酒店）","province":"東京都","city":"台東区","address":"台東区上野桜木2-10-6","lat":35.721338,"lon":139.770924},{"name":"＊?旧東京音楽学校奏楽堂","province":"東京都","city":"台東区","address":"台東区上野公園8-43","lat":35.718064,"lon":139.773136},{"name":"＊?台東区立学習館","province":"東京都","city":"台東区","address":"台東区西浅草3-25-16","lat":35.717295,"lon":139.789901},{"name":"＊?浅草公会堂","province":"東京都","city":"台東区","address":"台東区浅草1-38-6","lat":35.71255,"lon":139.795293},{"name":"＊?こみゅにてぃぷらざ八潮（区民活動交流施設）","province":"東京都","city":"品川区","address":"品川区八潮5-9-11","lat":35.597916,"lon":139.752432},{"name":"＊?視聴覚ライブラリー（めぐろ学校サポートセンター内）","province":"東京都","city":"目黒区","address":"目黒区中目黒3-6-10","lat":35.63942,"lon":139.702855},{"name":"＊?次大夫堀公園民家園","province":"東京都","city":"世田谷区","address":"世田谷区喜多見5-27-14","lat":35.630669,"lon":139.599572},{"name":"＊?岡本公園民家園","province":"東京都","city":"世田谷区","address":"世田谷区岡本2-19-1","lat":35.622004,"lon":139.617962},{"name":"＊?中野区もみじ山文化センター","province":"東京都","city":"中野区","address":"中野区中野2-9-7","lat":35.704456,"lon":139.671765},{"name":"＊?中野区野方区民ホール","province":"東京都","city":"中野区","address":"中野区野方5-3-1","lat":35.718326,"lon":139.653388},{"name":"＊?なかの芸能小劇場","province":"東京都","city":"中野区","address":"中野区中野5-68-7","lat":35.709214,"lon":139.665287},{"name":"＊?西田小生涯学習振興室（西田ゆうゆうハウス）","province":"東京都","city":"杉並区","address":"杉並区荻窪1-38-15","lat":35.694729,"lon":139.622043},{"name":"＊?杉九小生涯学習振興室（杉九ゆうゆうハウス）","province":"東京都","city":"杉並区","address":"杉並区本天沼1-2-19","lat":35.713632,"lon":139.633072},{"name":"＊?杉並区立西田小学校郷土資料展示室","province":"東京都","city":"杉並区","address":"杉並区荻窪1-38-15","lat":35.694729,"lon":139.622043},{"name":"＊?郷土博物館松ノ木遺跡竪穴住居址･復原住居","province":"東京都","city":"杉並区","address":"杉並区松ノ木1-3-22","lat":35.685636,"lon":139.642062},{"name":"＊?駒込地域文化創造館","province":"東京都","city":"豊島区","address":"豊島区駒込2-2-2","lat":35.737238,"lon":139.74741},{"name":"＊?巣鴨地域文化創造館","province":"東京都","city":"豊島区","address":"豊島区巣鴨4-15-11","lat":35.737563,"lon":139.731769},{"name":"＊?雑司が谷地域文化創造館","province":"東京都","city":"豊島区","address":"豊島区雑司が谷3-1-7","lat":35.719723,"lon":139.713751},{"name":"＊?南大塚地域文化創造館","province":"東京都","city":"豊島区","address":"豊島区南大塚2-36-1","lat":35.728996,"lon":139.729568},{"name":"＊?千早地域文化創造館","province":"東京都","city":"豊島区","address":"豊島区千早2-35-12","lat":35.735275,"lon":139.688683},{"name":"＊?雑司が谷旧宣教師館","province":"東京都","city":"豊島区","address":"豊島区雑司が谷1-25-5","lat":35.720729,"lon":139.720601},{"name":"＊?清里高原ロッジ","province":"山梨県","city":"北杜市","address":"山梨県北杜市高根町清里3545-5","lat":35.920668,"lon":138.442568},{"name":"＊?町屋文化センター","province":"東京都","city":"荒川区","address":"荒川区荒川7-20-1","lat":35.741973,"lon":139.781864},{"name":"＊?ゆいの森あらかわ","province":"東京都","city":"荒川区","address":"荒川区荒川2-50-1","lat":35.73949,"lon":139.783823},{"name":"＊?郷土芸能伝承館","province":"東京都","city":"板橋区","address":"板橋区徳丸6-29-13","lat":35.778365,"lon":139.660649},{"name":"＊?成増アートギャラリー","province":"東京都","city":"板橋区","address":"板橋区成増3-13-1","lat":35.778846,"lon":139.63236},{"name":"＊?西新井文化ホール(ｷﾞｬﾗｸｼﾃｨ内)","province":"東京都","city":"足立区","address":"足立区栗原1-3-1","lat":35.779785,"lon":139.790513},{"name":"＊?足立区文化芸術劇場（THEATER?1010）","province":"東京都","city":"足立区","address":"足立区千住3-92千住ミルディス(1)番館10階","lat":35.75088,"lon":139.804575},{"name":"＊?亀有学び交流館（地域コミュニティ施設）","province":"東京都","city":"葛飾区","address":"葛飾区お花茶屋3-5-6","lat":35.756497,"lon":139.843131},{"name":"＊?水元学び交流館（地域コミュニティ施設）","province":"東京都","city":"葛飾区","address":"葛飾区南水元2-13-1","lat":35.779626,"lon":139.855621},{"name":"＊?柴又学び交流館（地域コミュニティ施設）","province":"東京都","city":"葛飾区","address":"葛飾区柴又5-33-8","lat":35.753715,"lon":139.881849},{"name":"＊?新小岩学び交流館（地域コミュニティ施設）","province":"東京都","city":"葛飾区","address":"葛飾区西新小岩4-33-10","lat":35.718649,"lon":139.853191},{"name":"＊?八王子城跡ガイダンス施設","province":"東京都","city":"八王子市","address":"八王子市元八王子町3-2664-2","lat":35.655875,"lon":139.261584},{"name":"＊?八王子市絹の道資料館","province":"東京都","city":"八王子市","address":"八王子市鑓水989-2","lat":35.618365,"lon":139.354723},{"name":"＊?柴崎学習館","province":"東京都","city":"立川市","address":"立川市柴崎町1-1-43","lat":35.696668,"lon":139.406788},{"name":"＊?高松学習館","province":"東京都","city":"立川市","address":"立川市高松町3-22-5","lat":35.703007,"lon":139.419146},{"name":"＊?錦学習館","province":"東京都","city":"立川市","address":"立川市錦町3-12-25","lat":35.691166,"lon":139.416405},{"name":"＊?西砂学習館","province":"東京都","city":"立川市","address":"立川市西砂町6-12-10","lat":35.729611,"lon":139.372162},{"name":"＊?幸学習館","province":"東京都","city":"立川市","address":"立川市幸町2-1-3","lat":35.71924,"lon":139.423558},{"name":"＊?砂川学習館","province":"東京都","city":"立川市","address":"立川市砂川町1-52-7","lat":35.722836,"lon":139.403143},{"name":"＊?羽衣中央会館","province":"東京都","city":"立川市","address":"立川市羽衣町2-26-7","lat":35.694145,"lon":139.428577},{"name":"＊?滝ノ上会館","province":"東京都","city":"立川市","address":"立川市富士見町4-16-10","lat":35.695906,"lon":139.39902},{"name":"＊?高松会館","province":"東京都","city":"立川市","address":"立川市高松町2-25-26","lat":35.704184,"lon":139.420185},{"name":"＊?柴崎会館","province":"東京都","city":"立川市","address":"立川市柴崎町1-16-3","lat":35.692372,"lon":139.407383},{"name":"＊?さかえ会館","province":"東京都","city":"立川市","address":"立川市栄町4-6-2","lat":35.710967,"lon":139.424959},{"name":"＊?西砂会館","province":"東京都","city":"立川市","address":"立川市西砂町5-11-13","lat":35.73237,"lon":139.360661},{"name":"＊?天王橋会館","province":"東京都","city":"立川市","address":"立川市一番町3-6-1","lat":35.728235,"lon":139.381028},{"name":"＊?上砂会館","province":"東京都","city":"立川市","address":"立川市上砂町1-31-1","lat":35.720165,"lon":139.395635},{"name":"＊?若葉会館","province":"東京都","city":"立川市","address":"立川市若葉町3-34-1","lat":35.720211,"lon":139.439189},{"name":"＊?こんぴら橋会館","province":"東京都","city":"立川市","address":"立川市砂川町3-26-1","lat":35.727886,"lon":139.399503},{"name":"＊?こぶし会館","province":"東京都","city":"立川市","address":"立川市幸町5-83-1","lat":35.725742,"lon":139.418449},{"name":"＊?武蔵野プレイス","province":"東京都","city":"武蔵野市","address":"武蔵野市境南2-3-18","lat":35.701098,"lon":139.543716},{"name":"＊?三鷹市西多世代交流センター","province":"東京都","city":"三鷹市","address":"三鷹市深大寺2-3-5","lat":35.688648,"lon":139.545131},{"name":"＊?三鷹市東多世代交流センター","province":"東京都","city":"三鷹市","address":"三鷹市牟礼2-13-19","lat":35.684243,"lon":139.584679},{"name":"＊?青梅市釜の淵市民館","province":"東京都","city":"青梅市","address":"青梅市大柳1392","lat":35.784837,"lon":139.253346},{"name":"＊?青梅市御岳山ふれあいセンター","province":"東京都","city":"青梅市","address":"青梅市御岳山38-2","lat":35.786892,"lon":139.150779},{"name":"＊?青梅市永山ふれあいセンター","province":"東京都","city":"青梅市","address":"青梅市勝沼2-160-2","lat":35.792566,"lon":139.265119},{"name":"＊?福島会館","province":"東京都","city":"昭島市","address":"昭島市福島町1-19-1","lat":35.696238,"lon":139.381918},{"name":"＊?玉川会館","province":"東京都","city":"昭島市","address":"昭島市玉川町3-10-15","lat":35.703704,"lon":139.382093},{"name":"＊?朝日会館","province":"東京都","city":"昭島市","address":"昭島市朝日町5-6-20","lat":35.705036,"lon":139.37283},{"name":"＊?堀向会館","province":"東京都","city":"昭島市","address":"昭島市美堀町2-6-11","lat":35.723033,"lon":139.363738},{"name":"＊?大神会館","province":"東京都","city":"昭島市","address":"昭島市大神町3-10-5","lat":35.700723,"lon":139.360759},{"name":"＊?昭和分館","province":"東京都","city":"昭島市","address":"昭島市松原町1-2-25","lat":35.712915,"lon":139.357675},{"name":"＊?緑分館","province":"東京都","city":"昭島市","address":"昭島市緑町4-13-26","lat":35.714198,"lon":139.34461},{"name":"＊?拝島会館","province":"東京都","city":"昭島市","address":"昭島市拝島町2-4-13","lat":35.707318,"lon":139.342086},{"name":"＊?やまのかみ会館","province":"東京都","city":"昭島市","address":"昭島市拝島町3-10-3","lat":35.711,"lon":139.335502},{"name":"＊?武蔵野会館","province":"東京都","city":"昭島市","address":"昭島市中神町1172-1","lat":35.711162,"lon":139.375787},{"name":"＊?富士見会館","province":"東京都","city":"昭島市","address":"昭島市中神町1282","lat":35.712306,"lon":139.382712},{"name":"＊?富士見高原野外活動施設","province":"長野県","city":"諏訪郡富士見町","address":"長野県諏訪郡富士見町立沢字広原1-392","lat":35.936499,"lon":138.294321},{"name":"生涯学習センター陶芸スタジオ","province":"東京都","city":"町田市","address":"町田市下小山田町4016","lat":35.589631,"lon":139.410365},{"name":"＊?町田市考古資料室","province":"東京都","city":"町田市","address":"町田市下小山田町4016","lat":35.589631,"lon":139.410365},{"name":"＊?町田市民文学館ことばらんど","province":"東京都","city":"町田市","address":"町田市原町田4-16-17","lat":35.542618,"lon":139.45147},{"name":"＊?町田市自然休暇村","province":"長野県","city":"南佐久郡川上村","address":"長野県南佐久郡川上村秋山53-15","lat":35.937455,"lon":138.673886},{"name":"＊?日野市中央公民館高幡台分室","province":"東京都","city":"日野市","address":"日野市程久保550教育センター内","lat":35.652463,"lon":139.411598},{"name":"＊?日野市立八ヶ岳高原大成荘","province":"山梨県","city":"北杜市","address":"山梨県北杜市高根町清里字念場原3545","lat":35.941678,"lon":138.439664},{"name":"＊?東村山市白卅山の家","province":"山梨県","city":"北杜市","address":"山梨県北杜市白卅町横手997","lat":35.786826,"lon":138.326988},{"name":"＊?八国山たいけんの里","province":"東京都","city":"東村山市","address":"東村山市野口町3-48-1","lat":35.766084,"lon":139.454207},{"name":"＊?いずみホール","province":"東京都","city":"国分寺市","address":"国分寺市泉町3-36-12","lat":35.698913,"lon":139.464936},{"name":"＊?文化財資料展示室","province":"東京都","city":"国分寺市","address":"国分寺市西元町3-10-17","lat":35.690764,"lon":139.469928},{"name":"＊?教育センター(ひかりプラザ内)","province":"東京都","city":"国分寺市","address":"国分寺市光町1-46-8","lat":35.70258,"lon":139.444651},{"name":"＊?国立市古民家","province":"東京都","city":"国立市","address":"国立市谷保1705-1","lat":35.678449,"lon":139.436665},{"name":"＊?福生市茶室「福庵」","province":"東京都","city":"福生市","address":"福生市熊川854-3","lat":35.732557,"lon":139.337557},{"name":"＊?福生市民会館","province":"東京都","city":"福生市","address":"福生市福生2455","lat":35.733906,"lon":139.337829},{"name":"＊?さくら会館","province":"東京都","city":"福生市","address":"福生市牛浜163","lat":35.733793,"lon":139.337233},{"name":"＊?かえで会館","province":"東京都","city":"福生市","address":"福生市加美平1-20-6","lat":35.75041,"lon":139.325447},{"name":"＊?扶桑会館","province":"東京都","city":"福生市","address":"福生市福生1069-1","lat":35.743941,"lon":139.324981},{"name":"＊?狛江市民ホール（エコルマ）","province":"東京都","city":"狛江市","address":"狛江市元和泉1-2-1","lat":35.633279,"lon":139.577995},{"name":"＊?清瀬市立科山荘","province":"長野県","city":"","address":"長野県北佐久郡立科大字芦田八ヶ野字蓼科牧場西1068","lat":36.124737,"lon":138.267381},{"name":"＊?旧多摩聖蹟記念館","province":"東京都","city":"多摩市","address":"多摩市連光寺5-1-1","lat":35.638052,"lon":139.460625},{"name":"＊?旧有山家","province":"東京都","city":"多摩市","address":"多摩市南野2-13","lat":35.606646,"lon":139.435109},{"name":"＊?旧加藤家","province":"東京都","city":"多摩市","address":"多摩市南野2-13","lat":35.606958,"lon":139.434661},{"name":"＊?旧富澤家","province":"東京都","city":"多摩市","address":"多摩市落合2-35","lat":35.619604,"lon":139.426081},{"name":"＊?二宮地区会館","province":"東京都","city":"あきる野市","address":"あきる野市二宮1151","lat":35.727477,"lon":139.313912},{"name":"＊?千代里会館","province":"東京都","city":"あきる野市","address":"あきる野市上代継424","lat":35.720806,"lon":139.277718},{"name":"＊?玉見会館","province":"東京都","city":"あきる野市","address":"あきる野市小川東2-9-8","lat":35.71925,"lon":139.321011},{"name":"＊?草花台会館","province":"東京都","city":"あきる野市","address":"あきる野市草花1327-1","lat":35.736293,"lon":139.313925},{"name":"＊?野辺地区会館","province":"東京都","city":"あきる野市","address":"あきる野市野辺126-4","lat":35.723138,"lon":139.313684},{"name":"＊?鳥居場会館","province":"東京都","city":"あきる野市","address":"あきる野市雨間999-2","lat":35.719883,"lon":139.295964},{"name":"＊?御堂会館","province":"東京都","city":"あきる野市","address":"あきる野市草花3482-16","lat":35.738911,"lon":139.300381},{"name":"＊?秋川キララホール","province":"東京都","city":"あきる野市","address":"あきる野市秋川1-16-1","lat":35.731087,"lon":139.28822},{"name":"＊?楓ヶ原会館","province":"東京都","city":"あきる野市","address":"あきる野市引田512-2","lat":35.723874,"lon":139.268532},{"name":"＊?増戸会館","province":"東京都","city":"あきる野市","address":"あきる野市伊奈1157-5","lat":35.727463,"lon":139.247615},{"name":"＊?小宮会館","province":"東京都","city":"あきる野市","address":"あきる野市乙津1997","lat":35.733569,"lon":139.183013},{"name":"＊?戸倉会館","province":"東京都","city":"あきる野市","address":"あきる野市戸倉133-4","lat":35.726122,"lon":139.204681},{"name":"＊?代継会館","province":"東京都","city":"あきる野市","address":"あきる野市上代継693-1","lat":35.718852,"lon":139.28021},{"name":"＊?北伊奈会館","province":"東京都","city":"あきる野市","address":"あきる野市伊奈412-11","lat":35.733093,"lon":139.253395},{"name":"＊?耕心館","province":"東京都","city":"西多摩郡瑞穂町","address":"瑞穂町駒形富士山317-1","lat":35.780957,"lon":139.352604},{"name":"＊?瑞穂ビューパーク・スカイホール","province":"東京都","city":"西多摩郡瑞穂町","address":"瑞穂町箱根ケ崎2475","lat":35.774473,"lon":139.355377},{"name":"＊?かやくぼ地区学習等供用施設","province":"東京都","city":"西多摩郡日の出町","address":"日の出町大字大久野1167","lat":35.745199,"lon":139.235803},{"name":"＊?本宿地区学習等供用施設","province":"東京都","city":"西多摩郡日の出町","address":"日の出町大字平井2144","lat":35.737783,"lon":139.256177},{"name":"＊?日の出町やまびこホール","province":"東京都","city":"西多摩郡日の出町","address":"日の出町大字大久野1165-2","lat":35.745776,"lon":139.235959},{"name":"＊?奥多摩町森林館","province":"東京都","city":"西多摩郡奥多摩町","address":"奥多摩町日原819","lat":35.841528,"lon":139.042877},{"name":"＊奥多摩文化会館","province":"東京都","city":"西多摩郡奥多摩町","address":"奥多摩町小丹波82","lat":35.815303,"lon":139.149913},{"name":"＊新島いきいき広場","province":"東京都","city":"新島村","address":"新島村字向山","lat":34.363089,"lon":139.257096},{"name":"神津島村開発総合センター","province":"東京都","city":"神津島村","address":"神津島村1761","lat":34.200323,"lon":139.13446},{"name":"＊?三宅村コミュニティセンター","province":"東京都","city":"三宅村","address":"三宅村伊ヶ谷330","lat":34.099897,"lon":139.491092},{"name":"＊?ロース記念館","province":"東京都","city":"小笠原村","address":"小笠原村母島字元地","lat":26.642533,"lon":142.160481}]}