{"keyword":"区民","data":[{"name":"区民・産業プラザ","province":"東京都","city":"練馬区","address":"練馬区練馬1-17-1","lat":35.73808686,"lon":139.653447},{"name":"光が丘区民事務所","province":"東京都","city":"練馬区","address":"練馬区光が丘2-9-6","lat":35.75938028,"lon":139.6292992},{"name":"練馬区民事務所","province":"東京都","city":"練馬区","address":"練馬区豊玉北6-12-1","lat":35.73565238,"lon":139.6515333},{"name":"石神井区民事務所","province":"東京都","city":"練馬区","address":"練馬区石神井町3-30-26","lat":35.74347838,"lon":139.6027374},{"name":"大泉区民事務所","province":"東京都","city":"練馬区","address":"練馬区東大泉1-28-1リズモ大泉学園4階","lat":35.74988367,"lon":139.5876007},{"name":"関区民事務所","province":"東京都","city":"練馬区","address":"練馬区関町北1-7-2","lat":35.72464045,"lon":139.5779981},{"name":"早宮区民事務所","province":"東京都","city":"練馬区","address":"練馬区早宮1-44-19","lat":35.75416576,"lon":139.6588122},{"name":"中村橋区民センター","province":"東京都","city":"練馬区","address":"練馬区貫井1-9-1","lat":35.73850505,"lon":139.6355559},{"name":"光が丘区民センター","province":"東京都","city":"練馬区","address":"練馬区練馬区光が丘2-9-6","lat":35.75953387,"lon":139.6292969},{"name":"関区民センター","province":"東京都","city":"練馬区","address":"練馬区関町北1-7-2","lat":35.72463255,"lon":139.5775053},{"name":"曳舟文化センター","province":"東京都","city":"墨田区","address":"墨田区京島一丁目38番11号","lat":35.718293,"lon":139.818762},{"name":"すみだリバーサイドホール","province":"東京都","city":"墨田区","address":"墨田区吾妻橋一丁目23番20号","lat":35.710228,"lon":139.801599},{"name":"東駒形コミュニティ会館","province":"東京都","city":"墨田区","address":"墨田区東駒形四丁目14番1号","lat":35.705517,"lon":139.807746},{"name":"梅若橋コミュニティ会館","province":"東京都","city":"墨田区","address":"墨田区堤通二丁目9番1号","lat":35.735335,"lon":139.816746},{"name":"横川コミュニティ会館","province":"東京都","city":"墨田区","address":"墨田区横川五丁目9番1号","lat":35.705116,"lon":139.81758},{"name":"東墨田会館","province":"東京都","city":"墨田区","address":"墨田区東墨田二丁目12番9号","lat":35.721384,"lon":139.832596},{"name":"ユートリヤ（すみだ生涯学習センター）","province":"東京都","city":"墨田区","address":"墨田区東向島二丁目38番7号","lat":35.721049,"lon":139.818306},{"name":"本所地域プラザ「BIG SHIP」","province":"東京都","city":"墨田区","address":"墨田区本所一丁目13番4号","lat":35.703121,"lon":139.798799},{"name":"社会福祉会館","province":"東京都","city":"墨田区","address":"東京都墨田区東墨田2丁目7-1","lat":35.71894898,"lon":139.83046514},{"name":"両国公会堂　※平成27.3.31廃止","province":"東京都","city":"墨田区","address":"東京都墨田区横網1丁目12-10","lat":35.698925,"lon":139.79354004},{"name":"曳舟文化センター","province":"東京都","city":"墨田区","address":"東京都墨田区京島1丁目38-11","lat":35.71831636,"lon":139.81876127},{"name":"すみだリバーサイドホール","province":"東京都","city":"墨田区","address":"東京都墨田区吾妻橋1丁目23-20","lat":35.71072382,"lon":139.80149602},{"name":"みどりコミュニティセンター","province":"東京都","city":"墨田区","address":"東京都墨田区緑3丁目7-3","lat":35.69361455,"lon":139.8032676},{"name":"すみだトリフォニーホール","province":"東京都","city":"墨田区","address":"東京都墨田区錦糸1丁目2-3","lat":35.69722513,"lon":139.81013565},{"name":"すみだ健康ハウス","province":"東京都","city":"墨田区","address":"東京都墨田区東墨田1丁目2-6","lat":35.71772695,"lon":139.82970417},{"name":"すみだスポーツ健康センター","province":"東京都","city":"墨田区","address":"東京都墨田区東墨田1丁目6-1","lat":35.71640756,"lon":139.83050134},{"name":"向島言問会館","province":"東京都","city":"墨田区","address":"東京都墨田区向島2丁目17-11","lat":35.71485174,"lon":139.80778149},{"name":"京島会館","province":"東京都","city":"墨田区","address":"東京都墨田区京島2丁目15-5","lat":35.71313356,"lon":139.82108025},{"name":"菊川分室","province":"東京都","city":"墨田区","address":"東京都墨田区菊川3丁目21-6","lat":35.68994,"lon":139.80762828},{"name":"柳島集会室","province":"東京都","city":"墨田区","address":"東京都墨田区横川5丁目2-17","lat":35.70357974,"lon":139.81667621},{"name":"すみだ生涯学習ｾﾝﾀｰ別館","province":"東京都","city":"墨田区","address":"東京都墨田区東向島2丁目28-5","lat":35.71893015,"lon":139.8171893},{"name":"東向島集会所","province":"東京都","city":"墨田区","address":"東京都墨田区東向島4丁目8-12","lat":35.72759893,"lon":139.8155317},{"name":"八広あおぎり集会所","province":"東京都","city":"墨田区","address":"東京都墨田区八広4丁目11-6","lat":35.72246307,"lon":139.82706574},{"name":"横川三丁目集会所","province":"東京都","city":"墨田区","address":"東京都墨田区横川3丁目12-12","lat":35.70530486,"lon":139.81359275},{"name":"墨田集会所","province":"東京都","city":"墨田区","address":"東京都墨田区墨田2丁目14-4","lat":35.73254268,"lon":139.81704765},{"name":"西あずま集会所","province":"東京都","city":"墨田区","address":"東京都墨田区文花1丁目19-1","lat":35.71053903,"lon":139.82370512},{"name":"伊豆高原荘","province":"静岡県","city":"伊東市","address":"静岡県伊東市八幡野1033-37","lat":34.88064472,"lon":139.1240853},{"name":"台場区民センター","province":"東京都","city":"港区","address":"港区台場一丁目5番1号台場コミュニティーぷらざ内","lat":35.630048,"lon":139.777081,"URL":"<a href='https://www.city.minato.tokyo.jp/shisetsu/kumincenter/kumincenter/01.html' target='_blank'>https://www.city.minato.tokyo.jp/shisetsu/kumincenter/kumincenter/01.html</a>","分類":"区民センター","地区":"芝浦港南地区","連絡先":"電話番号:03-5500-2355 ファックス番号:03-5500-2367"},{"name":"芝浦港南区民センター","province":"東京都","city":"港区","address":"港区芝浦四丁目13番1号トリニティー芝浦1・2階","lat":35.640607,"lon":139.748642,"URL":"<a href='https://www.city.minato.tokyo.jp/shisetsu/kumincenter/kumincenter/02.html' target='_blank'>https://www.city.minato.tokyo.jp/shisetsu/kumincenter/kumincenter/02.html</a>","分類":"区民センター","地区":"芝浦港南地区","連絡先":"電話番号:03-3769-8864 ファックス番号:03-3798-4553"},{"name":"麻布区民センター","province":"東京都","city":"港区","address":"港区六本木五丁目16番45号","lat":35.660753,"lon":139.735016,"URL":"<a href='https://www.city.minato.tokyo.jp/shisetsu/kumincenter/kumincenter/03.html' target='_blank'>https://www.city.minato.tokyo.jp/shisetsu/kumincenter/kumincenter/03.html</a>","分類":"区民センター","地区":"麻布地区","連絡先":"電話番号:03-3583-5487 ファックス番号:03-3583-5547"},{"name":"赤坂区民センター","province":"東京都","city":"港区","address":"港区赤坂四丁目18番13号赤坂コミュニティーぷらざ内","lat":35.674864,"lon":139.731621,"URL":"<a href='https://www.city.minato.tokyo.jp/shisetsu/kumincenter/kumincenter/04.html' target='_blank'>https://www.city.minato.tokyo.jp/shisetsu/kumincenter/kumincenter/04.html</a>","分類":"区民センター","地区":"赤坂地区","連絡先":"電話番号:03-5413-2711 ファックス番号:03-5413-2714"},{"name":"高輪区民センター","province":"東京都","city":"港区","address":"港区高輪一丁目16番25号高輪コミュニティーぷらざ内","lat":35.64217,"lon":139.734013,"URL":"<a href='https://www.city.minato.tokyo.jp/shisetsu/kumincenter/kumincenter/05.html' target='_blank'>https://www.city.minato.tokyo.jp/shisetsu/kumincenter/kumincenter/05.html</a>","分類":"区民センター","地区":"高輪地区","連絡先":"電話番号:03-5421-7616 ファックス番号:03-5421-7628"},{"name":"国際交流スペース","province":"東京都","city":"港区","address":"港区北青山一丁目6番3号都営北青山一丁目アパート3号棟地下1階","lat":35.674579,"lon":139.721404,"URL":"<a href='https://www.city.minato.tokyo.jp/shisetsu/kankekikan/kankekikan/01.html' target='_blank'>https://www.city.minato.tokyo.jp/shisetsu/kankekikan/kankekikan/01.html</a>","分類":"区民協働施設","地区":"赤坂地区","連絡先":"電話:03-3796-3309"},{"name":"芝の家","province":"東京都","city":"港区","address":"港区芝三丁目26番8号","lat":35.651372,"lon":139.746479,"URL":"<a href='https://www.city.minato.tokyo.jp/shisetsu/sonota/sonota/01.html' target='_blank'>https://www.city.minato.tokyo.jp/shisetsu/sonota/sonota/01.html</a>","分類":"区民協働施設","地区":"芝地区","連絡先":"電話・ファックス:03-3453-0474"},{"name":"芝区民協働スペース(芝コミュニティはうす)","province":"東京都","city":"港区","address":"港区芝五丁目13番15号芝三田森ビル2階","lat":35.649283,"lon":139.744917,"URL":"<a href='https://www.city.minato.tokyo.jp/shisetsu/kyoudou/space01.html' target='_blank'>https://www.city.minato.tokyo.jp/shisetsu/kyoudou/space01.html</a>","分類":"区民協働施設","地区":"芝地区","連絡先":""},{"name":"新橋区民協働スペース","province":"東京都","city":"港区","address":"港区新橋六丁目4番2号きらきらプラザ新橋1階・4階","lat":35.66234,"lon":139.754007,"URL":"<a href='https://www.city.minato.tokyo.jp/shisetsu/kyoudou/space02.html' target='_blank'>https://www.city.minato.tokyo.jp/shisetsu/kyoudou/space02.html</a>","分類":"区民協働施設","地区":"芝地区","連絡先":""},{"name":"芝公園区民協働スペース","province":"東京都","city":"港区","address":"港区芝公園ニ丁目7番3号芝公園保育園3階","lat":35.65417,"lon":139.750599,"URL":"<a href='https://www.city.minato.tokyo.jp/shisetsu/kyoudou/space03.html' target='_blank'>https://www.city.minato.tokyo.jp/shisetsu/kyoudou/space03.html</a>","分類":"区民協働施設","地区":"芝地区","連絡先":""},{"name":"愛宕区民協働スペース","province":"東京都","city":"港区","address":"港区虎ノ門三丁目19番15号ザ・パークハウス愛宕虎ノ門1階","lat":35.663343,"lon":139.747011,"URL":"<a href='https://www.city.minato.tokyo.jp/shisetsu/kyoudou/space04.html' target='_blank'>https://www.city.minato.tokyo.jp/shisetsu/kyoudou/space04.html</a>","分類":"区民協働施設","地区":"芝地区","連絡先":""},{"name":"東麻布区民協働スペース","province":"東京都","city":"港区","address":"港区東麻布ニ丁目1番1号東麻布二丁目複合施設3階","lat":35.658217,"lon":139.742558,"URL":"<a href='https://www.city.minato.tokyo.jp/shisetsu/kyoudou/space05.html' target='_blank'>https://www.city.minato.tokyo.jp/shisetsu/kyoudou/space05.html</a>","分類":"区民協働施設","地区":"麻布地区","連絡先":""},{"name":"麻布区民協働スペース","province":"東京都","city":"港区","address":"港区六本木五丁目16番46号麻布保育園3階","lat":35.66126125908505,"lon":139.7350372625683,"URL":"<a href='https://www.city.minato.tokyo.jp/shisetsu/kyoudou/space06.html' target='_blank'>https://www.city.minato.tokyo.jp/shisetsu/kyoudou/space06.html</a>","分類":"区民協働施設","地区":"麻布地区","連絡先":""},{"name":"六本木区民協働スペース","province":"東京都","city":"港区","address":"港区六本木六丁目5番19号シティハイツ六本木公共施設棟1階","lat":35.660958,"lon":139.730769,"URL":"<a href='https://www.city.minato.tokyo.jp/shisetsu/kyoudou/space07.html' target='_blank'>https://www.city.minato.tokyo.jp/shisetsu/kyoudou/space07.html</a>","分類":"区民協働施設","地区":"麻布地区","連絡先":""},{"name":"赤坂区民協働スペース","province":"東京都","city":"港区","address":"港区赤坂四丁目18番13号赤坂地区総合支所2階","lat":35.674714,"lon":139.7318,"URL":"<a href='https://www.city.minato.tokyo.jp/shisetsu/kyoudou/space08.html' target='_blank'>https://www.city.minato.tokyo.jp/shisetsu/kyoudou/space08.html</a>","分類":"区民協働施設","地区":"赤坂地区","連絡先":""},{"name":"高輪区民協働スペース","province":"東京都","city":"港区","address":"港区高輪一丁目5番38号HUG高輪2階","lat":35.641764,"lon":139.736806,"URL":"<a href='https://www.city.minato.tokyo.jp/shisetsu/kyoudou/space09.html' target='_blank'>https://www.city.minato.tokyo.jp/shisetsu/kyoudou/space09.html</a>","分類":"区民協働施設","地区":"高輪地区","連絡先":""},{"name":"高輪台区民協働スペース","province":"東京都","city":"港区","address":"港区高輪三丁目10番16号優っくり村高輪台1階","lat":35.6310012838376,"lon":139.7321635913482,"URL":"<a href='https://www.city.minato.tokyo.jp/shisetsu/kyoudou/space10.html' target='_blank'>https://www.city.minato.tokyo.jp/shisetsu/kyoudou/space10.html</a>","分類":"区民協働施設","地区":"高輪地区","連絡先":""},{"name":"白金台区民協働スペース","province":"東京都","city":"港区","address":"港区白金台四丁目6番2号ゆかしの杜6階","lat":35.639189,"lon":139.726725,"URL":"<a href='https://www.city.minato.tokyo.jp/shisetsu/kyoudou/space11.html' target='_blank'>https://www.city.minato.tokyo.jp/shisetsu/kyoudou/space11.html</a>","分類":"区民協働施設","地区":"高輪地区","連絡先":""},{"name":"芝浦区民協働スペース","province":"東京都","city":"港区","address":"港区芝浦一丁目16番1号みなとパーク芝浦1階","lat":35.64668,"lon":139.751847,"URL":"<a href='https://www.city.minato.tokyo.jp/shisetsu/kyoudou/space12.html' target='_blank'>https://www.city.minato.tokyo.jp/shisetsu/kyoudou/space12.html</a>","分類":"区民協働施設","地区":"芝浦港南地区","連絡先":""},{"name":"品川駅港南口協働スペース","province":"東京都","city":"港区","address":"港区港南ニ丁目3番13号品川フロントビルキッズ館1階","lat":35.629252,"lon":139.743192,"URL":"<a href='https://www.city.minato.tokyo.jp/shisetsu/kyoudou/space13.html' target='_blank'>https://www.city.minato.tokyo.jp/shisetsu/kyoudou/space13.html</a>","分類":"区民協働施設","地区":"芝浦港南地区","連絡先":""},{"name":"港南区民協働スペース","province":"東京都","city":"港区","address":"港区港南四丁目3番7号さんぽーと港南1階・2階","lat":35.631088,"lon":139.749802,"URL":"<a href='https://www.city.minato.tokyo.jp/shisetsu/kyoudou/space14.html' target='_blank'>https://www.city.minato.tokyo.jp/shisetsu/kyoudou/space14.html</a>","分類":"区民協働施設","地区":"芝浦港南地区","連絡先":""},{"name":"高輪コミュニティーぷらざ","province":"","city":"","address":"高輪1-16-25","lat":35.641905,"lon":139.734192,"URL":"<a href='https://www.city.minato.tokyo.jp/shisetsu/sonota/sonota05.html' target='_blank'>https://www.city.minato.tokyo.jp/shisetsu/sonota/sonota05.html</a>","分類":"区民協働施設","地区":"高輪地区","連絡先":""},{"name":"台場コミュニティーぷらざ","province":"","city":"","address":"台場1-5-1","lat":35.63005,"lon":139.776878,"URL":"<a href='https://www.city.minato.tokyo.jp/shisetsu/sonota/sonota07.html' target='_blank'>https://www.city.minato.tokyo.jp/shisetsu/sonota/sonota07.html</a>","分類":"区民協働施設","地区":"芝浦港南地区","連絡先":""},{"name":"神応区民協働スペース","province":"東京都","city":"港区","address":"港区白金六丁目9番5号神応ほっとプラザ4階・屋外","lat":35.6436049159968,"lon":139.724523566392,"URL":"<a href='https://www.city.minato.tokyo.jp/shisetsu/kyoudou/space15.html' target='_blank'>https://www.city.minato.tokyo.jp/shisetsu/kyoudou/space15.html</a>","分類":"区民協働施設","地区":"高輪地区","連絡先":""}]}