{"keyword":"特設","data":[{"name":"両国小学校","province":"東京都","city":"墨田区","address":"東京都墨田区両国4丁目26-6","lat":35.69372012,"lon":139.79519078},{"name":"緑小学校","province":"東京都","city":"墨田区","address":"東京都墨田区緑2丁目12-12","lat":35.69402562,"lon":139.80134284},{"name":"中和小学校","province":"東京都","city":"墨田区","address":"東京都墨田区菊川1丁目18-10","lat":35.6901567,"lon":139.80272644},{"name":"菊川小学校","province":"東京都","city":"墨田区","address":"東京都墨田区立川4丁目12-15","lat":35.69164531,"lon":139.8076726},{"name":"錦糸小学校","province":"東京都","city":"墨田区","address":"東京都墨田区錦糸1丁目9-12","lat":35.69876937,"lon":139.81137701},{"name":"柳島小学校","province":"東京都","city":"墨田区","address":"東京都墨田区横川5丁目2-30","lat":35.70359917,"lon":139.81754005},{"name":"業平小学校","province":"東京都","city":"墨田区","address":"東京都墨田区業平2丁目4-8","lat":35.70627427,"lon":139.81149546},{"name":"言問小学校","province":"東京都","city":"墨田区","address":"東京都墨田区向島5丁目40-14","lat":35.71843549,"lon":139.81134557},{"name":"墨田中学校","province":"東京都","city":"墨田区","address":"東京都墨田区向島4丁目25-22","lat":35.71493535,"lon":139.81152561},{"name":"小梅小学校","province":"東京都","city":"墨田区","address":"東京都墨田区向島2丁目4-10","lat":35.71444608,"lon":139.8059344},{"name":"本所中学校","province":"東京都","city":"墨田区","address":"東京都墨田区東駒形3丁目1-10","lat":35.70526321,"lon":139.80276048},{"name":"横川小学校","province":"東京都","city":"墨田区","address":"東京都墨田区東駒形4丁目18-4","lat":35.70716582,"lon":139.80624308},{"name":"外手小学校","province":"東京都","city":"墨田区","address":"東京都墨田区本所2丁目1-16","lat":35.7025968,"lon":139.80059167},{"name":"二葉小学校","province":"東京都","city":"墨田区","address":"東京都墨田区石原2丁目1-5","lat":35.69926388,"lon":139.80008668},{"name":"錦糸中学校","province":"東京都","city":"墨田区","address":"東京都墨田区石原4丁目33-14","lat":35.70140523,"lon":139.80693828},{"name":"竪川中学校","province":"東京都","city":"墨田区","address":"東京都墨田区亀沢4丁目11-15","lat":35.69700853,"lon":139.80583069},{"name":"立花吾嬬の森小学校","province":"東京都","city":"墨田区","address":"東京都墨田区立花1丁目18-6","lat":35.70622472,"lon":139.82971319},{"name":"東吾嬬小学校","province":"東京都","city":"墨田区","address":"東京都墨田区立花4丁目22-11","lat":35.70854692,"lon":139.83205434},{"name":"中川小学校","province":"東京都","city":"墨田区","address":"東京都墨田区立花5丁目49-4","lat":35.71334666,"lon":139.83150135},{"name":"桜堤中学校","province":"東京都","city":"墨田区","address":"東京都墨田区堤通2丁目19-1","lat":35.73056511,"lon":139.81190987},{"name":"八広地域プラザ","province":"東京都","city":"墨田区","address":"東京都墨田区八広4丁目35-17","lat":35.72349353,"lon":139.82925713},{"name":"八広小学校","province":"東京都","city":"墨田区","address":"東京都墨田区八広5丁目12-15","lat":35.72710192,"lon":139.82632158},{"name":"吾嬬第二中学校","province":"東京都","city":"墨田区","address":"東京都墨田区八広4丁目4-4","lat":35.72149362,"lon":139.8271268},{"name":"寺島中学校","province":"東京都","city":"墨田区","address":"東京都墨田区八広1丁目17-15","lat":35.72013008,"lon":139.82316626},{"name":"第三吾嬬小学校","province":"東京都","city":"墨田区","address":"東京都墨田区八広2丁目36-3","lat":35.71717161,"lon":139.82774891},{"name":"第四吾嬬小学校","province":"東京都","city":"墨田区","address":"東京都墨田区京島3丁目64-9","lat":35.7131389,"lon":139.82518538},{"name":"曳舟小学校","province":"東京都","city":"墨田区","address":"東京都墨田区京島1丁目28-2","lat":35.71662214,"lon":139.82089427},{"name":"文花中学校","province":"東京都","city":"墨田区","address":"東京都墨田区文花1丁目22-7","lat":35.71015294,"lon":139.82236367},{"name":"押上小学校","province":"東京都","city":"墨田区","address":"東京都墨田区押上3丁目46-17","lat":35.71201677,"lon":139.81932198},{"name":"第一寺島小学校","province":"東京都","city":"墨田区","address":"東京都墨田区東向島1丁目16-2","lat":35.72158271,"lon":139.81445099},{"name":"第三寺島小学校","province":"東京都","city":"墨田区","address":"東京都墨田区東向島6丁目8-1","lat":35.72140784,"lon":139.82042783},{"name":"旧向島中学校","province":"東京都","city":"墨田区","address":"東京都墨田区東向島4丁目18-9","lat":35.72607962,"lon":139.81685083},{"name":"第二寺島小学校","province":"東京都","city":"墨田区","address":"東京都墨田区東向島4丁目30-2","lat":35.72470754,"lon":139.81845881},{"name":"梅若小学校","province":"東京都","city":"墨田区","address":"東京都墨田区墨田2丁目25-1","lat":35.73053185,"lon":139.81560645},{"name":"旧隅田小学校","province":"東京都","city":"墨田区","address":"東京都墨田区墨田5丁目49-5","lat":35.73603672,"lon":139.82065239},{"name":"両国中学校","province":"東京都","city":"墨田区","address":"東京都墨田区横網1丁目8-1","lat":35.69748355,"lon":139.79611518},{"name":"隅田小学校","province":"東京都","city":"墨田区","address":"東京都墨田区墨田4丁目6-5","lat":35.73392317,"lon":139.82186348},{"name":"ありすの杜きのこ南麻布","province":"東京都","city":"港区","address":"東京都港区南麻布四丁目6番1号","lat":35.650254,"lon":139.726638,"利用場所":"B1階MDF内","設置台数":"3"},{"name":"エコプラザ","province":"東京都","city":"港区","address":"東京都港区浜松町一丁目13番1号","lat":35.658632,"lon":139.7568238,"利用場所":"1階事務室内IDF","設置台数":"4"},{"name":"お台場海浜公園マリンハウス","province":"東京都","city":"港区","address":"東京都港区台場一丁目4番","lat":35.629803,"lon":139.775275,"利用場所":"1階公衆電話横","設置台数":"5"},{"name":"お台場学園","province":"東京都","city":"港区","address":"東京都港区台場一丁目1番5号","lat":35.633775,"lon":139.77704,"利用場所":"校舎入口","設置台数":"15"},{"name":"ニューピア竹芝ノースタワー(ニューピアホール)","province":"東京都","city":"港区","address":"東京都港区海岸一丁目11番1号","lat":35.655729,"lon":139.763709,"利用場所":"出入口","設置台数":"5"},{"name":"ベル","province":"東京都","city":"港区","address":"東京都港区西麻布四丁目7番2号","lat":35.656239,"lon":139.722244,"利用場所":"施設入口","設置台数":"1"},{"name":"ホテルアジュール竹芝","province":"東京都","city":"港区","address":"東京都港区海岸一丁目11番2号","lat":35.655304,"lon":139.763265,"利用場所":"出入口","設置台数":"5"},{"name":"ホテルオークラ","province":"東京都","city":"港区","address":"東京都港区虎ノ門二丁目10番4号","lat":35.666749,"lon":139.743497,"利用場所":"","設置台数":"10"},{"name":"ルネサンス麻布","province":"東京都","city":"港区","address":"東京都港区南麻布二丁目10番21号","lat":35.647968,"lon":139.735206,"利用場所":"1階:受付わき","設置台数":"1"},{"name":"旧氷川小学校","province":"東京都","city":"港区","address":"東京都港区赤坂六丁目6番14号","lat":35.669966,"lon":139.737659,"利用場所":"出入り口横","設置台数":"5"},{"name":"虎ノ門いきいきプラザ","province":"東京都","city":"港区","address":"東京都港区港区虎ノ門一丁目21番10号","lat":35.667905,"lon":139.748713,"利用場所":"1階IDF内","設置台数":"2"},{"name":"港パーク芝浦1階リーブラホール","province":"東京都","city":"港区","address":"東京都港区芝浦一丁目16番1号","lat":35.646717,"lon":139.751751,"利用場所":"1階空調室","設置台数":"5"},{"name":"港パーク芝浦5階スポーツセンタ","province":"東京都","city":"港区","address":"東京都港区芝浦一丁目16番1号","lat":35.646717,"lon":139.751751,"利用場所":"5階空調室","設置台数":"5"},{"name":"港勤労福祉会館","province":"東京都","city":"港区","address":"東京都港区芝五丁目18番2号","lat":35.648013,"lon":139.748491,"利用場所":"1階ロビー","設置台数":"4"},{"name":"港南いきいきプラザ(ゆとりーむ)","province":"東京都","city":"港区","address":"東京都港区港南四丁目2番1号","lat":35.629624,"lon":139.747098,"利用場所":"出入り口横","設置台数":"5"},{"name":"港南の郷","province":"東京都","city":"港区","address":"東京都港区港南三丁目3番23号","lat":35.633266,"lon":139.749263,"利用場所":"1階事務室端子盤内","設置台数":"2"},{"name":"港南子ども中高生プラザ","province":"東京都","city":"港区","address":"東京都港区港南四丁目3番7号","lat":35.631006,"lon":139.749703,"利用場所":"1階:受付裏MDF内","設置台数":"8"},{"name":"国際医療福祉大学","province":"東京都","city":"港区","address":"東京都港区赤坂四丁目1番26号","lat":35.676527,"lon":139.7347778,"利用場所":"1F通路壁面ホール","設置台数":"5"},{"name":"三光小学校","province":"東京都","city":"港区","address":"東京都港区白金三丁目18番2号","lat":35.644328,"lon":139.729204,"利用場所":"校舎入口","設置台数":"9"},{"name":"三田高等学校","province":"東京都","city":"港区","address":"東京都港区三田一丁目4番46号","lat":35.652365,"lon":139.743455,"利用場所":"1Fエントランス","設置台数":"5"},{"name":"三田小学校","province":"東京都","city":"港区","address":"東京都港区三田四丁目13番13号","lat":35.645357,"lon":139.740831,"利用場所":"校舎入口","設置台数":"5"},{"name":"資生堂","province":"東京都","city":"港区","address":"東京都港区東新橋一丁目6番2号","lat":35.664383,"lon":139.760667,"利用場所":"汐留鹿島棟B4Fオフィス","設置台数":"1"},{"name":"芝浦港南区民センター","province":"東京都","city":"港区","address":"東京都港区芝浦四丁目13番1号","lat":35.640522,"lon":139.74863,"利用場所":"1階ホール","設置台数":"4"},{"name":"芝商業高等学校","province":"東京都","city":"港区","address":"東京都港区海岸一丁目8番25号","lat":35.656523,"lon":139.760548,"利用場所":"1Fエントランス","設置台数":"5"},{"name":"障害保険福祉センター","province":"東京都","city":"港区","address":"東京都港区芝一丁目8番23号","lat":35.651557,"lon":139.755573,"利用場所":"1階IDF内","設置台数":"5"},{"name":"神応小学校","province":"東京都","city":"港区","address":"東京都港区白金六丁目9番5号","lat":35.643722,"lon":139.724481,"利用場所":"校舎入口","設置台数":"10"},{"name":"神明いきいきプラザ","province":"東京都","city":"港区","address":"東京都港区浜松町一丁目6番7号","lat":35.658826,"lon":139.757554,"利用場所":"1階喫茶コーナー","設置台数":"8"},{"name":"赤羽小学校","province":"東京都","city":"港区","address":"東京都港区三田一丁目4番52号","lat":35.653347,"lon":139.742537,"利用場所":"出入り口横","設置台数":"5"},{"name":"赤坂いきいきプラザ","province":"東京都","city":"港区","address":"東京都港区赤坂六丁目4番8号","lat":35.669966,"lon":139.737659,"利用場所":"出入り口横","設置台数":"5"},{"name":"赤坂区民センター","province":"東京都","city":"港区","address":"東京都港区赤坂四丁目18番13号","lat":35.674749,"lon":139.731634,"利用場所":"出入り口横","設置台数":"5"},{"name":"台場フロンティアビル","province":"東京都","city":"港区","address":"東京都港区台場二丁目3番2号","lat":35.628671,"lon":139.777767,"利用場所":"出入口","設置台数":"5"},{"name":"台場高齢者在宅サービスセンター","province":"東京都","city":"港区","address":"東京都港区港区台場一丁目5番5号","lat":35.630566,"lon":139.777984,"利用場所":"1階:元公衆電話台","設置台数":"1"},{"name":"島しょ農林水産総合センター","province":"東京都","city":"港区","address":"東京都港区海岸二丁目7番104号","lat":35.650688,"lon":139.760473,"利用場所":"出入口","設置台数":"5"},{"name":"東京港建設事務所","province":"東京都","city":"港区","address":"東京都港区港南三丁目9番56号","lat":35.633409,"lon":139.751978,"利用場所":"出入口","設置台数":"5"},{"name":"東京都立中央図書館","province":"東京都","city":"港区","address":"東京都港区南麻布五丁目7番13号","lat":35.652115,"lon":139.726371,"利用場所":"1F廊下","設置台数":"5"},{"name":"東麻布保育園","province":"東京都","city":"港区","address":"東京都港区東麻布二丁目1番1号","lat":35.658162,"lon":139.742551,"利用場所":"校舎入口","設置台数":"4"},{"name":"白金いきいきプラザ","province":"東京都","city":"港区","address":"東京都港区白金三丁目10番12号","lat":35.645216,"lon":139.731238,"利用場所":"出入り口横","設置台数":"5"},{"name":"白金の丘学園","province":"東京都","city":"港区","address":"東京都港区白金四丁目1番12号","lat":35.6437,"lon":139.726835,"利用場所":"1階MDF","設置台数":"5"},{"name":"白金の森特別養護老人ホーム","province":"東京都","city":"港区","address":"東京都港区白金台五丁目20番5号","lat":35.637152,"lon":139.721938,"利用場所":"施設入口","設置台数":"1"},{"name":"飯倉いきいきプラザ","province":"東京都","city":"港区","address":"東京都港区東麻布二丁目16番11号","lat":35.656904,"lon":139.740889,"利用場所":"校舎入口","設置台数":"2"},{"name":"福祉プラザさくら川","province":"東京都","city":"港区","address":"東京都港区新橋六丁目19番2号","lat":35.661192,"lon":139.753738,"利用場所":"1階体育館","設置台数":"5"},{"name":"本村いきいきプラザ","province":"東京都","city":"港区","address":"東京都港区南麻布三丁目5番15号","lat":35.651087,"lon":139.730365,"利用場所":"施設入口","設置台数":"2"},{"name":"本村小学校","province":"東京都","city":"港区","address":"東京都港区南麻布三丁目9番33号","lat":35.649818,"lon":139.729959,"利用場所":"2階IDF内","設置台数":"5"},{"name":"麻布慶福苑","province":"東京都","city":"港区","address":"東京都港区南麻布五丁目1番20号","lat":35.653745,"lon":139.721924,"利用場所":"1階:元公衆電話台","設置台数":"1"},{"name":"六本木高等学校","province":"東京都","city":"港区","address":"東京都港区六本木六丁目16番36号","lat":35.657736,"lon":139.731209,"利用場所":"1Fエントランス","設置台数":"5"},{"name":"セブン-イレブン赤坂1丁目","province":"東京都","city":"港区","address":"東京都港区赤坂一丁目11番30号","lat":35.668991,"lon":139.741408,"利用場所":"","設置台数":"1"},{"name":"セブン-イレブン港区三田3丁目","province":"東京都","city":"港区","address":"東京都港区三田三丁目7番15号","lat":35.643099,"lon":139.741948,"利用場所":"","設置台数":"1"},{"name":"セブン-イレブン港区北青山3丁目","province":"東京都","city":"港区","address":"東京都港区北青山三丁目8番9号","lat":35.664996,"lon":139.710402,"利用場所":"","設置台数":"1"},{"name":"セブン-イレブン港区海岸3丁目","province":"東京都","city":"港区","address":"東京都港区海岸三丁目7番20号","lat":35.636709,"lon":139.752577,"利用場所":"","設置台数":"1"},{"name":"セブン-イレブン虎ノ門駅前","province":"東京都","city":"港区","address":"東京都港区虎ノ門一丁目1番23号","lat":35.670405,"lon":139.750149,"利用場所":"","設置台数":"1"},{"name":"セブン-イレブン港区麻布十番3丁目","province":"東京都","city":"港区","address":"東京都港区麻布十番三丁目5番7号","lat":35.653167,"lon":139.735789,"利用場所":"","設置台数":"1"},{"name":"セブン-イレブン芝大門1丁目","province":"東京都","city":"港区","address":"東京都港区芝大門一丁目14番6号","lat":35.657201,"lon":139.753699,"利用場所":"","設置台数":"1"},{"name":"セブン-イレブン白金台駅前","province":"東京都","city":"港区","address":"東京都港区白金台三丁目2番3号","lat":35.637491,"lon":139.725949,"利用場所":"","設置台数":"1"},{"name":"セブン-イレブン港区西麻布3丁目","province":"東京都","city":"港区","address":"東京都港区西麻布三丁目13番13号","lat":35.656961,"lon":139.72406,"利用場所":"","設置台数":"1"},{"name":"セブン-イレブン港区芝3丁目","province":"東京都","city":"港区","address":"東京都港区芝三丁目15番9号","lat":35.653115,"lon":139.745402,"利用場所":"","設置台数":"1"},{"name":"セブン-イレブン六本木5丁目","province":"東京都","city":"港区","address":"東京都港区六本木五丁目2番1号","lat":35.662408,"lon":139.733573,"利用場所":"","設置台数":"1"},{"name":"セブン-イレブン新橋第一京浜","province":"東京都","city":"港区","address":"東京都港区新橋五丁目13番1号","lat":35.663139,"lon":139.757082,"利用場所":"","設置台数":"1"},{"name":"セブン-イレブン赤坂5丁目","province":"東京都","city":"港区","address":"東京都港区赤坂五丁目4番8号","lat":35.67191,"lon":139.735758,"利用場所":"","設置台数":"1"},{"name":"セブン-イレブン六本木7丁目","province":"東京都","city":"港区","address":"東京都港区六本木七丁目10番3号","lat":35.664624,"lon":139.72912,"利用場所":"","設置台数":"1"},{"name":"セブン-イレブン港区汐彩橋","province":"東京都","city":"港区","address":"東京都港区海岸三丁目3番20号","lat":35.640575,"lon":139.753572,"利用場所":"","設置台数":"1"},{"name":"セブン-イレブン虎ノ門1丁目桜田通り","province":"東京都","city":"港区","address":"東京都港区虎ノ門一丁目22番15号","lat":35.667302,"lon":139.748096,"利用場所":"","設置台数":"1"},{"name":"セブン-イレブン港区南青山7丁目","province":"東京都","city":"港区","address":"東京都港区南青山七丁目3番1号","lat":35.658822,"lon":139.715691,"利用場所":"","設置台数":"1"},{"name":"セブン-イレブン虎ノ門4丁目","province":"東京都","city":"港区","address":"東京都港区虎ノ門四丁目3番10号虎ノ門きよしビル","lat":35.66435,"lon":139.744169,"利用場所":"","設置台数":"1"},{"name":"セブン-イレブン虎ノ門5丁目","province":"東京都","city":"港区","address":"東京都港区虎ノ門五丁目12番1号","lat":35.6628,"lon":139.745372,"利用場所":"","設置台数":"1"},{"name":"セブン-イレブン港区飯倉","province":"東京都","city":"港区","address":"東京都港区麻布台一丁目9番8号","lat":35.659856,"lon":139.742425,"利用場所":"","設置台数":"1"},{"name":"セブン-イレブン虎ノ門1丁目","province":"東京都","city":"港区","address":"東京都港区虎ノ門一丁目14番1号","lat":35.668888,"lon":139.74931,"利用場所":"","設置台数":"1"},{"name":"セブン-イレブン新橋5丁目","province":"東京都","city":"港区","address":"東京都港区新橋五丁目34番3号","lat":35.662981,"lon":139.753635,"利用場所":"","設置台数":"1"},{"name":"セブン-イレブン港区芝5丁目北","province":"東京都","city":"港区","address":"東京都港区芝五丁目3番2号","lat":35.650101,"lon":139.74595,"利用場所":"","設置台数":"1"},{"name":"セブン-イレブン芝浦ベイワード","province":"東京都","city":"港区","address":"東京都港区芝浦二丁目6番11号","lat":35.644055,"lon":139.75333,"利用場所":"","設置台数":"1"},{"name":"セブン-イレブン港区三田1丁目","province":"東京都","city":"港区","address":"東京都港区三田一丁目7番1号パ-クコ-ト麻布十番1階","lat":35.654651,"lon":139.739406,"利用場所":"","設置台数":"1"},{"name":"セブン-イレブン白金台プラチナ通り","province":"東京都","city":"港区","address":"東京都港区白金台五丁目14番1号","lat":35.638605,"lon":139.722694,"利用場所":"","設置台数":"1"},{"name":"セブン-イレブン日立ハイテクビル","province":"東京都","city":"港区","address":"東京都港区西新橋一丁目24番14号-B1F","lat":35.668377,"lon":139.751362,"利用場所":"","設置台数":"1"},{"name":"セブン-イレブン港区溜池山王","province":"東京都","city":"港区","address":"東京都港区赤坂一丁目4番1号","lat":35.670385,"lon":139.743391,"利用場所":"","設置台数":"1"},{"name":"セブン-イレブン赤坂4丁目","province":"東京都","city":"港区","address":"東京都港区赤坂四丁目9番9号","lat":35.675193,"lon":139.733003,"利用場所":"","設置台数":"1"},{"name":"セブン-イレブン新橋SL広場前","province":"東京都","city":"港区","address":"東京都港区新橋二丁目8番9号","lat":35.667108,"lon":139.756976,"利用場所":"","設置台数":"1"},{"name":"セブン-イレブン六本木駅北","province":"東京都","city":"港区","address":"東京都港区六本木七丁目14番23号","lat":35.663722,"lon":139.730764,"利用場所":"","設置台数":"1"},{"name":"セブン-イレブン新橋1丁目","province":"東京都","city":"港区","address":"東京都港区新橋一丁目16番4号","lat":35.668241,"lon":139.756912,"利用場所":"","設置台数":"1"},{"name":"セブン-イレブン赤坂6丁目","province":"東京都","city":"港区","address":"東京都港区赤坂六丁目14番15号","lat":35.669702,"lon":139.733286,"利用場所":"","設置台数":"1"},{"name":"セブン-イレブン芝浦4丁目","province":"東京都","city":"港区","address":"東京都港区芝浦四丁目15番33号","lat":35.638447,"lon":139.747517,"利用場所":"","設置台数":"1"},{"name":"セブン-イレブン浜松町1丁目北","province":"東京都","city":"港区","address":"東京都港区浜松町一丁目2番1号","lat":35.660039,"lon":139.755924,"利用場所":"","設置台数":"1"},{"name":"セブン-イレブン赤坂ガーデンシティ","province":"東京都","city":"港区","address":"東京都港区赤坂四丁目15番1号","lat":35.674057,"lon":139.731439,"利用場所":"","設置台数":"1"},{"name":"セブン-イレブン港区広尾駅北","province":"東京都","city":"港区","address":"東京都港区南麻布五丁目10番38号","lat":35.6543,"lon":139.722935,"利用場所":"","設置台数":"1"},{"name":"セブン-イレブン虎ノ門37森ビル","province":"東京都","city":"港区","address":"東京都港区虎ノ門三丁目5番1号","lat":35.666544,"lon":139.746149,"利用場所":"","設置台数":"1"},{"name":"セブン-イレブン新橋2丁目","province":"東京都","city":"港区","address":"東京都港区新橋二丁目10番3号","lat":35.667289,"lon":139.755873,"利用場所":"","設置台数":"1"},{"name":"セブン-イレブン港区芝浦ふ頭","province":"東京都","city":"港区","address":"東京都港区海岸三丁目12番7号","lat":35.640228,"lon":139.755905,"利用場所":"","設置台数":"1"},{"name":"セブン-イレブン西麻布3丁目六本木通り","province":"東京都","city":"港区","address":"東京都港区西麻布三丁目1番22号","lat":35.660647,"lon":139.727132,"利用場所":"","設置台数":"1"},{"name":"セブン-イレブン浜松町2丁目","province":"東京都","city":"港区","address":"東京都港区浜松町二丁目13番5号","lat":35.653279,"lon":139.754829,"利用場所":"","設置台数":"1"},{"name":"セブン-イレブン港区南青山7丁目中央","province":"東京都","city":"港区","address":"東京都港区南青山七丁目10番3号","lat":35.659102,"lon":139.718294,"利用場所":"","設置台数":"1"},{"name":"セブン-イレブン赤坂8丁目","province":"東京都","city":"港区","address":"東京都港区赤坂八丁目10番22号","lat":35.670379,"lon":139.726959,"利用場所":"","設置台数":"1"},{"name":"セブン-イレブン西新橋1丁目外堀通り","province":"東京都","city":"港区","address":"東京都港区西新橋一丁目6番13号","lat":35.669588,"lon":139.752826,"利用場所":"","設置台数":"1"},{"name":"セブン-イレブン芝フロントビル","province":"東京都","city":"港区","address":"東京都港区芝四丁目11番3号","lat":35.648135,"lon":139.750894,"利用場所":"","設置台数":"1"},{"name":"セブン-イレブン青山1丁目駅前","province":"東京都","city":"港区","address":"東京都港区赤坂八丁目4番23号","lat":35.673279,"lon":139.726692,"利用場所":"","設置台数":"1"},{"name":"セブン-イレブン赤坂3丁目みすじ通り","province":"東京都","city":"港区","address":"東京都港区赤坂三丁目10番12号","lat":35.675543,"lon":139.736863,"利用場所":"","設置台数":"1"},{"name":"セブン-イレブン芝浦3丁目","province":"東京都","city":"港区","address":"東京都港区芝浦三丁目14番15号","lat":35.642436,"lon":139.747,"利用場所":"","設置台数":"1"},{"name":"セブン-イレブン赤坂3丁目一ツ木通り","province":"東京都","city":"港区","address":"東京都港区赤坂三丁目16番7号","lat":35.674687,"lon":139.736422,"利用場所":"","設置台数":"1"},{"name":"セブン-イレブン品川駅前","province":"東京都","city":"港区","address":"東京都港区高輪三丁目25番20号","lat":35.630301,"lon":139.737793,"利用場所":"","設置台数":"1"},{"name":"セブン-イレブン六本木3丁目","province":"東京都","city":"港区","address":"東京都港区六本木三丁目4番31号","lat":35.664774,"lon":139.735833,"利用場所":"","設置台数":"1"},{"name":"セブン-イレブン芝公園1丁目","province":"東京都","city":"港区","address":"東京都港区芝公園一丁目7番6号","lat":35.657967,"lon":139.752402,"利用場所":"","設置台数":"1"},{"name":"セブン-イレブン港区白金1丁目南","province":"東京都","city":"港区","address":"東京都港区白金一丁目25番20号","lat":35.643832,"lon":139.732251,"利用場所":"","設置台数":"1"},{"name":"セブン-イレブングランドプリンスホテル新高輪","province":"東京都","city":"港区","address":"東京都港区高輪三丁目13番1号","lat":35.630959,"lon":139.735268,"利用場所":"","設置台数":"1"},{"name":"セブン-イレブン港区南青山3丁目","province":"東京都","city":"港区","address":"東京都港区南青山三丁目15番6号","lat":35.665121,"lon":139.715641,"利用場所":"","設置台数":"1"},{"name":"セブン-イレブンセレスティン芝三井ビル","province":"東京都","city":"港区","address":"東京都港区芝三丁目23番1号","lat":35.651112,"lon":139.748958,"利用場所":"","設置台数":"1"},{"name":"セブン-イレブン港区虎ノ門駅南","province":"東京都","city":"港区","address":"東京都港区虎ノ門一丁目2番4号","lat":35.669952,"lon":139.748807,"利用場所":"","設置台数":"1"},{"name":"セブン-イレブン港区一の橋","province":"東京都","city":"港区","address":"東京都港区麻布十番四丁目1番8号","lat":35.654914,"lon":139.737345,"利用場所":"","設置台数":"1"},{"name":"セブン-イレブン泉岳寺駅前","province":"東京都","city":"港区","address":"東京都港区三田三丁目11番22号","lat":35.640172,"lon":139.741251,"利用場所":"","設置台数":"1"},{"name":"セブン-イレブン南麻布","province":"東京都","city":"港区","address":"東京都港区南麻布二丁目8番10号ベルナール麻布1F","lat":35.648637,"lon":139.736492,"利用場所":"","設置台数":"1"},{"name":"セブン-イレブン高輪台駅前","province":"東京都","city":"港区","address":"東京都港区白金台二丁目26番8号ハイツ白金台1F","lat":35.632017,"lon":139.730243,"利用場所":"","設置台数":"1"},{"name":"セブン-イレブン浜松町1丁目中央","province":"東京都","city":"港区","address":"東京都港区浜松町一丁目20番8号山市ビル1F","lat":35.657745,"lon":139.756737,"利用場所":"","設置台数":"1"},{"name":"セブン-イレブン港区赤坂駅南","province":"東京都","city":"港区","address":"東京都港区赤坂二丁目17番54号グランドメゾン赤坂1F","lat":35.670185,"lon":139.738425,"利用場所":"","設置台数":"1"},{"name":"セブン-イレブンテレビ東京本社","province":"東京都","city":"港区","address":"東京都港区六本木三丁目2番1号住友不動産六本木グランドタワー<テレビ東京>11F","lat":35.664588,"lon":139.737767,"利用場所":"","設置台数":"1"},{"name":"セブン-イレブン六本木ティーキューブ","province":"東京都","city":"港区","address":"東京都港区六本木三丁目1番1号","lat":35.665638,"lon":139.738111,"利用場所":"","設置台数":"1"},{"name":"セブン-イレブン赤坂2丁目","province":"東京都","city":"港区","address":"東京都港区赤坂二丁目13番1号ルーセント赤坂1F","lat":35.673046,"lon":139.738266,"利用場所":"","設置台数":"1"},{"name":"セブン-イレブン港区芝2丁目","province":"東京都","city":"港区","address":"東京都港区芝二丁目16番7号-1F","lat":35.651235,"lon":139.752227,"利用場所":"","設置台数":"1"},{"name":"セブン-イレブン品川イーストワンタワー","province":"東京都","city":"港区","address":"東京都港区港南二丁目16番1号","lat":35.627765,"lon":139.740768,"利用場所":"","設置台数":"1"},{"name":"セブン-イレブン港区乃木坂駅南","province":"東京都","city":"港区","address":"東京都港区六本木七丁目3番12号","lat":35.665952,"lon":139.728417,"利用場所":"","設置台数":"1"},{"name":"セブン-イレブン港区芝浦3なぎさ通り","province":"東京都","city":"港区","address":"東京都港区芝浦三丁目11番8号","lat":35.642816,"lon":139.749786,"利用場所":"","設置台数":"1"},{"name":"セブン-イレブン外苑前駅前","province":"東京都","city":"港区","address":"東京都港区北青山二丁目7番19号","lat":35.670596,"lon":139.717004,"利用場所":"","設置台数":"1"},{"name":"セブン-イレブン7FS芝浦スクエアビル","province":"東京都","city":"港区","address":"東京都港区芝浦四丁目9番25号","lat":35.640097,"lon":139.745889,"利用場所":"","設置台数":"1"},{"name":"セブン-イレブン港区芝4丁目","province":"東京都","city":"港区","address":"東京都港区芝四丁目7番8号","lat":35.649035,"lon":139.752149,"利用場所":"","設置台数":"1"},{"name":"セブン-イレブン品川プリンスホテル","province":"東京都","city":"港区","address":"東京都港区高輪四丁目10番30号","lat":35.627923,"lon":139.735154,"利用場所":"","設置台数":"1"},{"name":"セブン-イレブン南青山5丁目","province":"東京都","city":"港区","address":"東京都港区南青山五丁目13番3号","lat":35.661119,"lon":139.713905,"利用場所":"","設置台数":"1"},{"name":"セブン-イレブン港区芝浦1丁目","province":"東京都","city":"港区","address":"東京都港区芝浦一丁目13番10号","lat":35.646357,"lon":139.752991,"利用場所":"","設置台数":"1"},{"name":"セブン-イレブン三田駅北","province":"東京都","city":"港区","address":"東京都港区芝四丁目3番5号","lat":35.649018,"lon":139.750285,"利用場所":"","設置台数":"1"},{"name":"セブン-イレブン三田国際ビル","province":"東京都","city":"港区","address":"東京都港区三田一丁目4番28号","lat":35.653656,"lon":139.744744,"利用場所":"","設置台数":"1"},{"name":"セブン-イレブン西新橋3丁目","province":"東京都","city":"港区","address":"東京都港区西新橋三丁目6番10号","lat":35.664855,"lon":139.751896,"利用場所":"","設置台数":"1"},{"name":"セブン-イレブン港区白金台1丁目","province":"東京都","city":"港区","address":"東京都港区白金台一丁目4番20号","lat":35.636372,"lon":139.728727,"利用場所":"","設置台数":"1"},{"name":"セブン-イレブンなぎさテラス","province":"東京都","city":"港区","address":"東京都港区芝浦三丁目1番32号","lat":35.644708,"lon":139.748655,"利用場所":"","設置台数":"1"},{"name":"セブン-イレブン神谷町駅東","province":"東京都","city":"港区","address":"東京都港区虎ノ門三丁目17番1号","lat":35.66408,"lon":139.746524,"利用場所":"","設置台数":"1"},{"name":"セブン-イレブン神谷町駅北","province":"東京都","city":"港区","address":"東京都港区虎ノ門四丁目3番13号","lat":35.663761,"lon":139.744202,"利用場所":"","設置台数":"1"},{"name":"セブン-イレブン港区芝1丁目","province":"東京都","city":"港区","address":"東京都港区芝一丁目12番7号","lat":35.650826,"lon":139.755027,"利用場所":"","設置台数":"1"},{"name":"セブン-イレブン南麻布5外苑西通り","province":"東京都","city":"港区","address":"東京都港区南麻布五丁目1番10号","lat":35.655222,"lon":139.722796,"利用場所":"","設置台数":"1"},{"name":"セブン-イレブン港区三田5丁目","province":"東京都","city":"港区","address":"東京都港区三田五丁目18番3号","lat":35.644763,"lon":139.737287,"利用場所":"","設置台数":"1"},{"name":"セブン-イレブン赤坂氷川坂下","province":"東京都","city":"港区","address":"東京都港区赤坂六丁目11番1号","lat":35.669561,"lon":139.734926,"利用場所":"","設置台数":"1"},{"name":"セブン-イレブン御成門駅北","province":"東京都","city":"港区","address":"東京都港区新橋六丁目16番10号","lat":35.66212,"lon":139.752254,"利用場所":"","設置台数":"1"}]}