{"keyword":"保健","data":[{"name":"港区立母子生活支援施設メゾン・ド・あじさい","province":"大阪府","city":"大阪市中央区","address":"大阪府大阪市中央区","lat":34.68107502,"lon":135.50978711},{"name":"のぞみ荘","province":"大阪府","city":"大阪市中央区","address":"大阪府大阪市中央区","lat":34.68107502,"lon":135.50978711},{"name":"新宿区立かしわヴィレッジ","province":"大阪府","city":"大阪市中央区","address":"大阪府大阪市中央区","lat":34.68107502,"lon":135.50978711},{"name":"台東区母子生活支援施設さくら荘","province":"大阪府","city":"大阪市中央区","address":"大阪府大阪市中央区","lat":34.68107502,"lon":135.50978711},{"name":"母子生活支援施設ベタニヤホーム","province":"大阪府","city":"大阪市中央区","address":"大阪府大阪市中央区","lat":34.68107502,"lon":135.50978711},{"name":"厚生館立花","province":"大阪府","city":"大阪市中央区","address":"大阪府大阪市中央区","lat":34.68107502,"lon":135.50978711},{"name":"墨田区墨田母子生活ホーム","province":"大阪府","city":"大阪市中央区","address":"大阪府大阪市中央区","lat":34.68107502,"lon":135.50978711},{"name":"パークサイド亀島","province":"大阪府","city":"大阪市中央区","address":"大阪府大阪市中央区","lat":34.68107502,"lon":135.50978711},{"name":"品川区立ひまわり荘","province":"大阪府","city":"大阪市中央区","address":"大阪府大阪市中央区","lat":34.68107502,"lon":135.50978711},{"name":"目黒区みどりハイム","province":"大阪府","city":"大阪市中央区","address":"大阪府大阪市中央区","lat":34.68107502,"lon":135.50978711},{"name":"大田区立ひまわり苑","province":"大阪府","city":"大阪市中央区","address":"大阪府大阪市中央区","lat":34.68107502,"lon":135.50978711},{"name":"大田区立コスモス苑","province":"大阪府","city":"大阪市中央区","address":"大阪府大阪市中央区","lat":34.68107502,"lon":135.50978711},{"name":"母子生活支援施設かわだ","province":"大阪府","city":"大阪市中央区","address":"大阪府大阪市中央区","lat":34.68107502,"lon":135.50978711},{"name":"世田谷区立パルメゾン上北沢","province":"大阪府","city":"大阪市中央区","address":"大阪府大阪市中央区","lat":34.68107502,"lon":135.50978711},{"name":"ナオミホーム","province":"大阪府","city":"大阪市中央区","address":"大阪府大阪市中央区","lat":34.68107502,"lon":135.50978711},{"name":"ブルーメ","province":"大阪府","city":"大阪市中央区","address":"大阪府大阪市中央区","lat":34.68107502,"lon":135.50978711},{"name":"中野区さつき寮","province":"大阪府","city":"大阪市中央区","address":"大阪府大阪市中央区","lat":34.68107502,"lon":135.50978711},{"name":"サンライズ武蔵野","province":"大阪府","city":"大阪市中央区","address":"大阪府大阪市中央区","lat":34.68107502,"lon":135.50978711},{"name":"愛の家ファミリーホーム","province":"大阪府","city":"大阪市中央区","address":"大阪府大阪市中央区","lat":34.68107502,"lon":135.50978711},{"name":"北区立浮間ハイマート","province":"大阪府","city":"大阪市中央区","address":"大阪府大阪市中央区","lat":34.68107502,"lon":135.50978711},{"name":"ハイツ尾竹","province":"大阪府","city":"大阪市中央区","address":"大阪府大阪市中央区","lat":34.68107502,"lon":135.50978711},{"name":"板橋区立カーサはるにれ","province":"大阪府","city":"大阪市中央区","address":"大阪府大阪市中央区","lat":34.68107502,"lon":135.50978711},{"name":"練馬区立母子生活支援施設","province":"大阪府","city":"大阪市中央区","address":"大阪府大阪市中央区","lat":34.68107502,"lon":135.50978711},{"name":"ポルテあすなろ","province":"大阪府","city":"大阪市中央区","address":"大阪府大阪市中央区","lat":34.68107502,"lon":135.50978711},{"name":"あゆみ苑","province":"大阪府","city":"大阪市中央区","address":"大阪府大阪市中央区","lat":34.68107502,"lon":135.50978711},{"name":"ふたばホーム","province":"大阪府","city":"大阪市中央区","address":"大阪府大阪市中央区","lat":34.68107502,"lon":135.50978711},{"name":"江戸川区そよ風松島荘","province":"大阪府","city":"大阪市中央区","address":"大阪府大阪市中央区","lat":34.68107502,"lon":135.50978711},{"name":"リフレここのえ","province":"大阪府","city":"大阪市中央区","address":"大阪府大阪市中央区","lat":34.68107502,"lon":135.50978711},{"name":"三鷹市立母子生活支援施設三鷹寮","province":"大阪府","city":"大阪市中央区","address":"大阪府大阪市中央区","lat":34.68107502,"lon":135.50978711},{"name":"白鳥寮","province":"大阪府","city":"大阪市中央区","address":"大阪府大阪市中央区","lat":34.68107502,"lon":135.50978711},{"name":"サンライズ万世","province":"大阪府","city":"大阪市中央区","address":"大阪府大阪市中央区","lat":34.68107502,"lon":135.50978711},{"name":"皐月","province":"大阪府","city":"大阪市中央区","address":"大阪府大阪市中央区","lat":34.68107502,"lon":135.50978711},{"name":"網代ホームきずな","province":"大阪府","city":"大阪市中央区","address":"大阪府大阪市中央区","lat":34.68107502,"lon":135.50978711},{"name":"ブルーメ笹塚","province":"大阪府","city":"大阪市中央区","address":"大阪府大阪市中央区","lat":34.68107502,"lon":135.50978711}]}