{"keyword":"病院","data":[{"name":"駿河台日本大学病院","province":"東京都","city":"千代田区","address":"東京都千代田区神田駿河台1丁目8-13","lat":35.69821877,"lon":139.76340494},{"name":"三井記念病院","province":"東京都","city":"千代田区","address":"東京都千代田区神田和泉町1","lat":35.69901632,"lon":139.77742103},{"name":"聖路加国際病院","province":"東京都","city":"中央区","address":"東京都中央区明石町9-1","lat":35.66741137,"lon":139.77705481},{"name":"東京都済生会中央病院","province":"東京都","city":"港区","address":"東京都港区三田1丁目4-17","lat":35.65404529,"lon":139.74356645},{"name":"東京慈恵会医科大学附属病院","province":"東京都","city":"港区","address":"東京都港区西新橋3丁目19-18","lat":35.6636611,"lon":139.75126545},{"name":"北里大学北里研究所病院","province":"東京都","city":"港区","address":"東京都港区白金5丁目9-1","lat":35.64559303,"lon":139.72544895},{"name":"日本医科大学付属病院","province":"東京都","city":"文京区","address":"東京都文京区千駄木1丁目1-5","lat":35.72107737,"lon":139.75886828},{"name":"都立駒込病院","province":"東京都","city":"文京区","address":"東京都文京区本駒込3丁目18-22","lat":35.72994856,"lon":139.75609048},{"name":"順天堂大学医学部附属順天堂医院","province":"東京都","city":"文京区","address":"東京都文京区本郷3丁目1-3","lat":35.70250161,"lon":139.76261313},{"name":"東京医科歯科大学医学部附属病院","province":"東京都","city":"文京区","address":"東京都文京区湯島1丁目5-45","lat":35.70099629,"lon":139.76491864},{"name":"東京大学医学部付属病院","province":"東京都","city":"文京区","address":"東京都文京区本郷7丁目3-1","lat":35.71203394,"lon":139.76277932},{"name":"永寿総合病院","province":"東京都","city":"台東区","address":"東京都台東区東上野2丁目23-16","lat":35.7097486,"lon":139.77962864},{"name":"昭和大学病院","province":"東京都","city":"品川区","address":"東京都品川区旗の台1丁目5-8","lat":35.60849688,"lon":139.70353258},{"name":"ＮＴＴ東日本関東病院","province":"東京都","city":"品川区","address":"東京都品川区東五反田5丁目9-22","lat":35.63091968,"lon":139.72494947},{"name":"東邦大学医療センター大森病院","province":"東京都","city":"大田区","address":"東京都大田区大森西6丁目11-1","lat":35.56903533,"lon":139.72396297},{"name":"大森赤十字病院","province":"東京都","city":"大田区","address":"東京都大田区中央4丁目30-1","lat":35.5787979,"lon":139.71718252},{"name":"東京都保健医療公社荏原病院","province":"東京都","city":"大田区","address":"東京都大田区東雪谷4丁目5-10","lat":35.59460659,"lon":139.69367561},{"name":"独立行政法人国立病院機構東京医療センター","province":"東京都","city":"目黒区","address":"東京都目黒区東が丘2丁目5-1","lat":35.62656333,"lon":139.66598239},{"name":"一般社団法人至誠会第二病院","province":"東京都","city":"世田谷区","address":"東京都世田谷区上祖師谷5丁目19-1","lat":35.65629949,"lon":139.59144587},{"name":"公立学校共済組合関東中央病院","province":"東京都","city":"世田谷区","address":"東京都世田谷区上用賀6丁目25-1","lat":35.63726677,"lon":139.62627992},{"name":"東京都立松沢病院","province":"東京都","city":"世田谷区","address":"東京都世田谷区上北沢2丁目1-1","lat":35.66712968,"lon":139.61960719},{"name":"東京都立広尾病院","province":"東京都","city":"渋谷区","address":"東京都渋谷区恵比寿2丁目34-10","lat":35.64707054,"lon":139.72073544},{"name":"日本赤十字社医療センター","province":"東京都","city":"渋谷区","address":"東京都渋谷区広尾4丁目1-22","lat":35.65443909,"lon":139.71794375},{"name":"東京医科大学病院","province":"東京都","city":"新宿区","address":"東京都新宿区西新宿6丁目7-1","lat":35.69402018,"lon":139.69221112},{"name":"慶応義塾大学病院","province":"東京都","city":"新宿区","address":"東京都新宿区信濃町35","lat":35.68258045,"lon":139.7181676},{"name":"東京女子医科大学病院","province":"東京都","city":"新宿区","address":"東京都新宿区河田町8-1","lat":35.69807045,"lon":139.72011683},{"name":"東京都保健医療公社大久保病院","province":"東京都","city":"新宿区","address":"東京都新宿区歌舞伎町2丁目44-1","lat":35.69691177,"lon":139.70156297},{"name":"国立国際医療研究センター病院","province":"東京都","city":"新宿区","address":"東京都新宿区戸山1丁目21-1","lat":35.70174214,"lon":139.71530878},{"name":"社会保険中央総合病院","province":"東京都","city":"新宿区","address":"東京都新宿区百人町3丁目22-1","lat":35.70470248,"lon":139.69904899},{"name":"立正佼成会附属佼成病院","province":"東京都","city":"中野区","address":"東京都中野区弥生町5丁目25-15","lat":35.69047273,"lon":139.66806618},{"name":"東京医療生活協同組合中野総合病院","province":"東京都","city":"中野区","address":"東京都中野区中央4丁目59-16","lat":35.70255736,"lon":139.66706576},{"name":"東京警察病院","province":"東京都","city":"中野区","address":"東京都中野区中野4丁目22-1","lat":35.70920915,"lon":139.65931337},{"name":"医療法人財団荻窪病院","province":"東京都","city":"杉並区","address":"東京都杉並区今川3丁目1-24","lat":35.71524321,"lon":139.607323},{"name":"東京都立大塚病院","province":"東京都","city":"豊島区","address":"東京都豊島区南大塚2丁目8-1","lat":35.72526774,"lon":139.73230087},{"name":"東京北医療センター","province":"東京都","city":"北区","address":"東京都北区赤羽台4丁目17-56","lat":35.78387391,"lon":139.71141424},{"name":"日本大学医学部附属板橋病院","province":"東京都","city":"板橋区","address":"東京都板橋区大谷口上町30-1","lat":35.74958888,"lon":139.69154496},{"name":"帝京大学医学部附属病院","province":"東京都","city":"板橋区","address":"東京都板橋区加賀2丁目11-1","lat":35.75922729,"lon":139.71498704},{"name":"東京都健康長寿医療センター","province":"東京都","city":"板橋区","address":"東京都板橋区栄町35-2","lat":35.75087794,"lon":139.70167185},{"name":"東京都保健医療公社豊島病院","province":"東京都","city":"板橋区","address":"東京都板橋区栄町33-1","lat":35.75269994,"lon":139.70097739},{"name":"練馬光が丘病院","province":"東京都","city":"練馬区","address":"東京都練馬区光が丘2丁目11-1","lat":35.76218581,"lon":139.63026637},{"name":"順天堂大学医学部附属練馬病院","province":"東京都","city":"練馬区","address":"東京都練馬区高野台3丁目1-10","lat":35.74213487,"lon":139.61499623},{"name":"東京女子医科大学東医療センター","province":"東京都","city":"荒川区","address":"東京都荒川区西尾久2丁目1-10","lat":35.74831628,"lon":139.7653279},{"name":"医療法人社団成和会西新井病院","province":"東京都","city":"足立区","address":"東京都足立区西新井本町5丁目7-14","lat":35.77566892,"lon":139.78197215},{"name":"苑田第一病院","province":"東京都","city":"足立区","address":"東京都足立区竹の塚4丁目1-12","lat":35.79351749,"lon":139.80198649},{"name":"博慈会記念総合病院","province":"東京都","city":"足立区","address":"東京都足立区鹿浜5丁目11-1","lat":35.78496118,"lon":139.74944417},{"name":"東京慈恵会医科大学葛飾医療センター","province":"東京都","city":"葛飾区","address":"東京都葛飾区青戸6丁目41-2","lat":35.75182053,"lon":139.85865266},{"name":"東京都保健医療公社東部地域病院","province":"東京都","city":"葛飾区","address":"東京都葛飾区亀有5丁目14-1","lat":35.7662352,"lon":139.84445332},{"name":"東京都立墨東病院","province":"東京都","city":"墨田区","address":"東京都墨田区江東橋4丁目23-15","lat":35.69530033,"lon":139.81879578},{"name":"白鬚橋病院","province":"東京都","city":"墨田区","address":"東京都墨田区東向島4丁目2-10","lat":35.72795443,"lon":139.81372652},{"name":"江東病院","province":"東京都","city":"江東区","address":"東京都江東区大島6丁目8-5","lat":35.69029344,"lon":139.83408508},{"name":"あそか病院","province":"東京都","city":"江東区","address":"東京都江東区住吉1丁目18-1","lat":35.68985944,"lon":139.81186088},{"name":"順天堂大学医学部附属順天堂江東高齢者医療センター","province":"東京都","city":"江東区","address":"東京都江東区新砂3丁目3-20","lat":35.66528245,"lon":139.8334721},{"name":"がん研究会有明病院","province":"東京都","city":"江東区","address":"東京都江東区有明3丁目8-31","lat":35.63434076,"lon":139.7949906},{"name":"東京臨海病院","province":"東京都","city":"江戸川区","address":"東京都江戸川区臨海町1丁目4-2","lat":35.65210677,"lon":139.85363487},{"name":"江戸川病院","province":"東京都","city":"江戸川区","address":"東京都江戸川区東小岩2丁目24-18","lat":35.72860723,"lon":139.89289248},{"name":"青梅市立総合病院","province":"東京都","city":"青梅市","address":"東京都青梅市東青梅4丁目16-5","lat":35.78202441,"lon":139.28118194},{"name":"公立阿伎留医療センター","province":"東京都","city":"あきる野市","address":"東京都あきる野市引田78-1","lat":35.73181875,"lon":139.27214005},{"name":"公立福生病院","province":"東京都","city":"福生市","address":"東京都福生市加美平1丁目6-1","lat":35.74701301,"lon":139.3266987},{"name":"東京医科大学八王子医療センター","province":"東京都","city":"八王子市","address":"東京都八王子市館町1163","lat":35.63195929,"lon":139.28900889},{"name":"東海大学八王子病院","province":"東京都","city":"八王子市","address":"東京都八王子市石川町1838","lat":35.67377242,"lon":139.35707362},{"name":"日本医科大学多摩永山病院","province":"東京都","city":"多摩市","address":"東京都多摩市永山1丁目7-1","lat":35.63113783,"lon":139.44665098},{"name":"東京都保健医療公社多摩南部地域病院","province":"東京都","city":"多摩市","address":"東京都多摩市中沢2丁目1-2","lat":35.622938,"lon":139.41525124},{"name":"稲城市立病院","province":"東京都","city":"稲城市","address":"東京都稲城市大丸1171","lat":35.64687587,"lon":139.48586645},{"name":"町田市民病院","province":"東京都","city":"町田市","address":"東京都町田市旭町2丁目15-41","lat":35.55694609,"lon":139.43883454},{"name":"日野市立病院","province":"東京都","city":"日野市","address":"東京都日野市多摩平4丁目3-1","lat":35.66706526,"lon":139.37837205},{"name":"国立病院機構災害医療センター","province":"東京都","city":"立川市","address":"東京都立川市緑町3256","lat":35.70745023,"lon":139.4092319},{"name":"東大和病院","province":"東京都","city":"東大和市","address":"東京都東大和市南街1丁目13-12","lat":35.74141631,"lon":139.43168419},{"name":"武蔵野赤十字病院","province":"東京都","city":"武蔵野市","address":"東京都武蔵野市境南町1丁目26-1","lat":35.69687727,"lon":139.54853159},{"name":"東京都立多摩・小児総合医療センター","province":"東京都","city":"府中市","address":"東京都府中市武蔵台2丁目8-29","lat":35.69188402,"lon":139.46098088},{"name":"杏林大学医学部付属病院","province":"東京都","city":"三鷹市","address":"東京都三鷹市新川6丁目20-2","lat":35.67747976,"lon":139.56650561},{"name":"公立昭和病院","province":"東京都","city":"小平市","address":"東京都小平市花小金井8丁目1-1","lat":35.7313167,"lon":139.50336445},{"name":"佐々総合病院","province":"東京都","city":"西東京市","address":"東京都西東京市田無町4丁目24-15","lat":35.72967884,"lon":139.53871701},{"name":"東京都保健医療公社多摩北部医療センター","province":"東京都","city":"東村山市","address":"東京都東村山市青葉町1丁目7-1","lat":35.76043805,"lon":139.49094217},{"name":"国立病院機構東京病院","province":"東京都","city":"清瀬市","address":"東京都清瀬市竹丘3丁目1-1","lat":35.76696263,"lon":139.5045714},{"name":"北里研究所病院","province":"東京都","city":"港区","address":"東京都港区白金5丁目9-1","lat":35.64559303,"lon":139.72544895},{"name":"東京医科歯科大学医学部付属病院","province":"東京都","city":"文京区","address":"東京都文京区湯島1丁目5-45","lat":35.70099629,"lon":139.76491864},{"name":"荏原病院","province":"東京都","city":"大田区","address":"東京都大田区東雪谷4丁目5-10","lat":35.59460659,"lon":139.69367561},{"name":"都立広尾病院","province":"東京都","city":"渋谷区","address":"東京都渋谷区恵比寿2丁目34-10","lat":35.64707054,"lon":139.72073544},{"name":"至誠会第二病院","province":"東京都","city":"世田谷区","address":"東京都世田谷区上祖師谷5丁目19-1","lat":35.65629949,"lon":139.59144587},{"name":"国立病院機構東京医療センター","province":"東京都","city":"目黒区","address":"東京都目黒区東が丘2丁目5-1","lat":35.62656333,"lon":139.66598239},{"name":"都立松沢病院","province":"東京都","city":"世田谷区","address":"東京都世田谷区上北沢2丁目1-1","lat":35.66712968,"lon":139.61960719},{"name":"荻窪病院","province":"東京都","city":"杉並区","address":"東京都杉並区今川3丁目1-24","lat":35.71524321,"lon":139.607323},{"name":"立正佼成会付属佼成病院","province":"東京都","city":"中野区","address":"東京都中野区弥生町5丁目25-15","lat":35.69047273,"lon":139.66806618},{"name":"大久保病院","province":"東京都","city":"新宿区","address":"東京都新宿区歌舞伎町2丁目44-1","lat":35.69691177,"lon":139.70156297},{"name":"国立国際医療センター","province":"東京都","city":"新宿区","address":"東京都新宿区戸山1丁目21-1","lat":35.70174214,"lon":139.71530878},{"name":"日本大学医学部附属練馬光が丘病院","province":"東京都","city":"練馬区","address":"東京都練馬区光が丘2丁目11-1","lat":35.76218581,"lon":139.63026637},{"name":"都立大塚病院","province":"東京都","city":"豊島区","address":"東京都豊島区南大塚2丁目8-1","lat":35.72526774,"lon":139.73230087},{"name":"都立豊島病院","province":"東京都","city":"板橋区","address":"東京都板橋区栄町33-1","lat":35.75269994,"lon":139.70097739},{"name":"西新井病院","province":"東京都","city":"足立区","address":"東京都足立区西新井本町5丁目7-14","lat":35.77566892,"lon":139.78197215},{"name":"東京慈恵会医科大学附属青戸病院","province":"東京都","city":"葛飾区","address":"東京都葛飾区青戸6丁目41-2","lat":35.75182053,"lon":139.85865266},{"name":"東部地域病院","province":"東京都","city":"葛飾区","address":"東京都葛飾区亀有5丁目14-1","lat":35.7662352,"lon":139.84445332},{"name":"都立墨東病院","province":"東京都","city":"墨田区","address":"東京都墨田区江東橋4丁目23-15","lat":35.69530033,"lon":139.81879578},{"name":"東海大学医学部付属八王子病院","province":"東京都","city":"八王子市","address":"東京都八王子市石川町1838","lat":35.67377242,"lon":139.35707362},{"name":"多摩南部地域病院","province":"東京都","city":"多摩市","address":"東京都多摩市中沢2丁目1-2","lat":35.622938,"lon":139.41525124},{"name":"都立府中病院","province":"東京都","city":"府中市","address":"東京都府中市武蔵台2丁目9-2","lat":35.6920563,"lon":139.4641806},{"name":"都立清瀬小児病院","province":"東京都","city":"清瀬市","address":"東京都清瀬市梅園1丁目3-1","lat":35.77061503,"lon":139.50738775},{"name":"多摩北部医療センター","province":"東京都","city":"東村山市","address":"東京都東村山市青葉町1丁目7-1","lat":35.76043805,"lon":139.49094217},{"name":"墨田区保健所","province":"東京都","city":"墨田区","address":"墨田区吾妻橋一丁目23番20号墨田区役所内","lat":35.710722,"lon":139.801497},{"name":"向島保健センター","province":"東京都","city":"墨田区","address":"墨田区東向島五丁目16番2号","lat":35.725863,"lon":139.821147},{"name":"本所保健センター","province":"東京都","city":"墨田区","address":"墨田区東駒形一丁目6番4号","lat":35.705436,"lon":139.798058},{"name":"墨田区休日応急診療所","province":"東京都","city":"墨田区","address":"墨田区向島三丁目36番7号すみだ福祉保健センター内","lat":35.713317,"lon":139.810828},{"name":"すみだ平日夜間救急こどもクリニック","province":"東京都","city":"墨田区","address":"墨田区横網二丁目1番11号同愛記念病院1階救急外来内","lat":35.699784,"lon":139.794502},{"name":"東京都立墨東病院","province":"東京都","city":"墨田区","address":"墨田区江東橋四丁目23番15号","lat":35.694673,"lon":139.818436},{"name":"社会福祉法人賛育会 賛育会病院","province":"東京都","city":"墨田区","address":"墨田区太平三丁目20番2号","lat":35.702404,"lon":139.814125},{"name":"同愛記念病院","province":"東京都","city":"墨田区","address":"墨田区横網二丁目1番11号","lat":35.699812,"lon":139.794349},{"name":"医療法人財団正明会 山田記念病院","province":"東京都","city":"墨田区","address":"墨田区石原二丁目20番1号","lat":35.700995,"lon":139.800764},{"name":"医療法人伯鳳会 東京曳舟病院","province":"東京都","city":"墨田区","address":"墨田区東向島二丁目27番1号","lat":35.717706,"lon":139.817028},{"name":"医療法人社団隆靖会 墨田中央病院","province":"東京都","city":"墨田区","address":"墨田区京島三丁目67番1号","lat":35.713006,"lon":139.826341},{"name":"東京都済生会 向島病院","province":"東京都","city":"墨田区","address":"墨田区八広一丁目5番10号","lat":35.720624,"lon":139.822283},{"name":"医療法人社団仁寿会 中村病院","province":"東京都","city":"墨田区","address":"墨田区八広二丁目1番1号","lat":35.717419,"lon":139.823686},{"name":"東京都リハビリテーション病院","province":"東京都","city":"墨田区","address":"墨田区堤通二丁目14番1号","lat":35.735863,"lon":139.815807},{"name":"湘南メディカル記念病院","province":"東京都","city":"墨田区","address":"墨田区両国二丁目21番1号","lat":35.695552,"lon":139.792458},{"name":"医療法人社団 中林病院","province":"東京都","city":"墨田区","address":"墨田区東向島三丁目29番9号","lat":35.723617,"lon":139.814957},{"name":"医療法人社団敬智会 梶原病院","province":"東京都","city":"墨田区","address":"墨田区墨田三丁目31番12号","lat":35.732322,"lon":139.820372}]}