{"category":"toilet","data":[{"name":"東秋留駅前","province":"東京都","city":"あきる野市","address":"東京都あきる野市野辺447-11","lat":35.726134,"lon":139.310591},{"name":"武蔵引田駅前","province":"東京都","city":"あきる野市","address":"東京都あきる野市引田246-2","lat":35.729968,"lon":139.270037},{"name":"大悲願寺前","province":"東京都","city":"あきる野市","address":"東京都あきる野市横沢48-1","lat":35.73197,"lon":139.241612},{"name":"武蔵五日市駅前","province":"東京都","city":"あきる野市","address":"東京都あきる野市舘谷台26","lat":35.732504,"lon":139.229064},{"name":"小和田橋下流","province":"東京都","city":"あきる野市","address":"東京都あきる野市小和田145","lat":35.723972,"lon":139.222095},{"name":"落合橋橋詰","province":"東京都","city":"あきる野市","address":"東京都あきる野市乙津222-5","lat":35.729446,"lon":139.189129},{"name":"網代会館","province":"東京都","city":"あきる野市","address":"東京都あきる野市網代202","lat":35.723042,"lon":139.250976},{"name":"佳月橋","province":"東京都","city":"あきる野市","address":"東京都あきる野市小和田300-イ","lat":35.725807,"lon":139.217253},{"name":"深沢・南澤宅","province":"東京都","city":"あきる野市","address":"東京都あきる野市深沢368","lat":35.742178,"lon":139.209244},{"name":"山田天神前","province":"東京都","city":"あきる野市","address":"東京都あきる野市山田822","lat":35.725866,"lon":139.262723},{"name":"秋川橋河川公園","province":"東京都","city":"あきる野市","address":"東京都あきる野市留原814","lat":35.728914,"lon":139.227576},{"name":"リバーサイドパーク一の谷","province":"東京都","city":"あきる野市","address":"東京都あきる野市引田776","lat":35.718408,"lon":139.267133},{"name":"子生神社","province":"東京都","city":"あきる野市","address":"東京都あきる野市小中野187","lat":35.725749,"lon":139.209283},{"name":"深沢・真光院前","province":"東京都","city":"あきる野市","address":"東京都あきる野市深沢23-3","lat":35.748625,"lon":139.207047},{"name":"岩走神社横","province":"東京都","city":"あきる野市","address":"東京都あきる野市伊奈1574-1","lat":35.730256,"lon":139.243291},{"name":"中村","province":"東京都","city":"あきる野市","address":"東京都あきる野市留原872-3","lat":35.729927,"lon":139.228136},{"name":"小庄水辺公園","province":"東京都","city":"あきる野市","address":"東京都あきる野市五日市1259","lat":35.725127,"lon":139.22729},{"name":"広徳寺","province":"東京都","city":"あきる野市","address":"東京都あきる野市小和田241-2","lat":35.7222,"lon":139.217779},{"name":"光厳寺","province":"東京都","city":"あきる野市","address":"東京都あきる野市戸倉331-4","lat":35.725961,"lon":139.202689},{"name":"星竹","province":"東京都","city":"あきる野市","address":"東京都あきる野市戸倉1093-1","lat":35.731886,"lon":139.199952},{"name":"木和田平","province":"東京都","city":"あきる野市","address":"東京都あきる野市養沢1223","lat":35.752204,"lon":139.181484},{"name":"荷田子","province":"東京都","city":"あきる野市","address":"東京都あきる野市乙津708-2","lat":35.724504,"lon":139.180318},{"name":"十里木駐車場","province":"東京都","city":"あきる野市","address":"東京都あきる野市戸倉1378-1","lat":35.72808,"lon":139.190144},{"name":"武蔵増戸駅前","province":"東京都","city":"あきる野市","address":"東京都あきる野市伊奈871-2","lat":35.730847,"lon":139.256085},{"name":"正光寺下","province":"東京都","city":"あきる野市","address":"東京都あきる野市舘谷12-1","lat":35.729032,"lon":139.236061},{"name":"盆堀大日影","province":"東京都","city":"あきる野市","address":"東京都あきる野市戸倉2088","lat":35.721706,"lon":139.203489},{"name":"馬頭刈山登山口","province":"東京都","city":"あきる野市","address":"東京都あきる野市乙津2124-2","lat":35.736085,"lon":139.182644},{"name":"追分下","province":"東京都","city":"あきる野市","address":"東京都あきる野市乙津605-1","lat":35.726979,"lon":139.183049},{"name":"青木平","province":"東京都","city":"あきる野市","address":"東京都あきる野市乙津973-2","lat":35.72505,"lon":139.17055},{"name":"下養沢会館前","province":"東京都","city":"あきる野市","address":"東京都あきる野市乙津2310-2","lat":35.743545,"lon":139.189199},{"name":"怒田畑","province":"東京都","city":"あきる野市","address":"東京都あきる野市養沢148-1","lat":35.746076,"lon":139.188077},{"name":"養沢神社前","province":"東京都","city":"あきる野市","address":"東京都あきる野市養沢1016","lat":35.758839,"lon":139.170226},{"name":"上養沢バス停","province":"東京都","city":"あきる野市","address":"東京都あきる野市養沢993","lat":35.760268,"lon":139.171582},{"name":"宝沢入口","province":"東京都","city":"あきる野市","address":"東京都あきる野市養沢1285","lat":35.748689,"lon":139.183623},{"name":"秋川ふれあいランド","province":"東京都","city":"あきる野市","address":"東京都あきる野市小川1343-102","lat":35.717018,"lon":139.317062},{"name":"盆堀ひかり小屋","province":"東京都","city":"あきる野市","address":"東京都あきる野市戸倉1514","lat":35.721613,"lon":139.196464},{"name":"小宮ふるさと自然体験学校横","province":"東京都","city":"あきる野市","address":"東京都あきる野市乙津1984-イ","lat":35.733919,"lon":139.183008}]}