{"category":"wireless","data":[{"name":"あきる野市役所本庁舎","province":"東京都","city":"あきる野市","address":"東京都あきる野市二宮350","lat":35.729817,"lon":139.294072},{"name":"二宮考古館","province":"東京都","city":"あきる野市","address":"東京都あきる野市二宮1151","lat":35.727622,"lon":139.313845},{"name":"JR秋川駅","province":"東京都","city":"あきる野市","address":"東京都あきる野市油平49","lat":35.728082,"lon":139.286624},{"name":"JR武蔵増戸駅","province":"東京都","city":"あきる野市","address":"東京都あきる野市伊奈873-2","lat":35.731012,"lon":139.256302},{"name":"JR武蔵五日市駅","province":"東京都","city":"あきる野市","address":"東京都あきる野市舘谷台16","lat":35.732538,"lon":139.228326},{"name":"観光案内所","province":"東京都","city":"あきる野市","address":"東京都あきる野市舘谷台16","lat":35.732696,"lon":139.228258},{"name":"五日市出張所","province":"東京都","city":"あきる野市","address":"東京都あきる野市五日市411","lat":35.729571,"lon":139.219939},{"name":"五日市郷土館","province":"東京都","city":"あきる野市","address":"東京都あきる野市五日市920-1","lat":35.728671,"lon":139.216936},{"name":"秋川渓谷瀬音の湯","province":"東京都","city":"あきる野市","address":"東京都あきる野市乙津565","lat":35.727518,"lon":139.187633},{"name":"ふるさと工房五日市","province":"東京都","city":"あきる野市","address":"東京都あきる野市乙津671","lat":35.723677,"lon":139.17949},{"name":"中央公民館","province":"東京都","city":"あきる野市","address":"東京都あきる野市二宮683","lat":35.73054,"lon":139.302321},{"name":"公立阿伎留医療センター","province":"東京都","city":"あきる野市","address":"東京都あきる野市引田78-1","lat":35.73181875,"lon":139.27214005},{"name":"秋留台給水所","province":"東京都","city":"あきる野市","address":"東京都あきる野市秋川3丁目2-10","lat":35.73175243,"lon":139.28428611},{"name":"上代継浄水所","province":"東京都","city":"あきる野市","address":"東京都あきる野市上代継407","lat":35.71915367,"lon":139.2783759},{"name":"戸倉給水所","province":"東京都","city":"あきる野市","address":"東京都あきる野市戸倉348-1","lat":35.72646632,"lon":139.20192062},{"name":"伊奈配水所","province":"東京都","city":"あきる野市","address":"東京都あきる野市伊奈372-3","lat":35.7348678,"lon":139.25221118},{"name":"秋留台高等学校","province":"東京都","city":"あきる野市","address":"東京都あきる野市平沢153-4","lat":35.73220291,"lon":139.30067627},{"name":"五日市高等学校","province":"東京都","city":"あきる野市","address":"東京都あきる野市五日市894","lat":35.72940142,"lon":139.21780665},{"name":"あきる野市本庁舎","province":"東京都","city":"あきる野市","address":"東京都あきる野市二宮350","lat":35.72920304,"lon":139.29349922}]}