{"keyword":"ポイント","data":[{"name":"あきる野市役所本庁舎","province":"東京都","city":"あきる野市","address":"東京都あきる野市二宮350","lat":35.729817,"lon":139.294072},{"name":"二宮考古館","province":"東京都","city":"あきる野市","address":"東京都あきる野市二宮1151","lat":35.727622,"lon":139.313845},{"name":"JR秋川駅","province":"東京都","city":"あきる野市","address":"東京都あきる野市油平49","lat":35.728082,"lon":139.286624},{"name":"JR武蔵増戸駅","province":"東京都","city":"あきる野市","address":"東京都あきる野市伊奈873-2","lat":35.731012,"lon":139.256302},{"name":"JR武蔵五日市駅","province":"東京都","city":"あきる野市","address":"東京都あきる野市舘谷台16","lat":35.732538,"lon":139.228326},{"name":"観光案内所","province":"東京都","city":"あきる野市","address":"東京都あきる野市舘谷台16","lat":35.732696,"lon":139.228258},{"name":"五日市出張所","province":"東京都","city":"あきる野市","address":"東京都あきる野市五日市411","lat":35.729571,"lon":139.219939},{"name":"五日市郷土館","province":"東京都","city":"あきる野市","address":"東京都あきる野市五日市920-1","lat":35.728671,"lon":139.216936},{"name":"秋川渓谷瀬音の湯","province":"東京都","city":"あきる野市","address":"東京都あきる野市乙津565","lat":35.727518,"lon":139.187633},{"name":"ふるさと工房五日市","province":"東京都","city":"あきる野市","address":"東京都あきる野市乙津671","lat":35.723677,"lon":139.17949},{"name":"中央公民館","province":"東京都","city":"あきる野市","address":"東京都あきる野市二宮683","lat":35.73054,"lon":139.302321}]}