{"keyword":"保健","data":[{"name":"増戸保育園","province":"東京都","city":"あきる野市","address":"あきる野市横沢134","lat":35.732374,"lon":139.241529},{"name":"誠和保育園","province":"東京都","city":"あきる野市","address":"あきる野市山田880","lat":35.725719,"lon":139.259691},{"name":"光明第六保育園","province":"東京都","city":"あきる野市","address":"あきる野市留原50","lat":35.723251,"lon":139.234511},{"name":"五日市保育園","province":"東京都","city":"あきる野市","address":"あきる野市五日市345","lat":35.731079,"lon":139.223733},{"name":"五日市わかば保育園","province":"東京都","city":"あきる野市","address":"あきる野市五日市98","lat":35.728829,"lon":139.224759},{"name":"すぎの子保育園","province":"東京都","city":"あきる野市","address":"あきる野市戸倉783","lat":35.731208,"lon":139.197998},{"name":"草花保育園","province":"東京都","city":"あきる野市","address":"あきる野市草花3056","lat":35.739188,"lon":139.30327},{"name":"神明保育園","province":"東京都","city":"あきる野市","address":"あきる野市瀬戸岡446","lat":35.738093,"lon":139.288399},{"name":"あきる野こどもの家","province":"東京都","city":"あきる野市","address":"あきる野市秋川三丁目7-9","lat":35.733474,"lon":139.284453},{"name":"秋川あすなろ保育園","province":"東京都","city":"あきる野市","address":"あきる野市原小宮二丁目6-6","lat":35.734006,"lon":139.301604},{"name":"屋城保育園","province":"東京都","city":"あきる野市","address":"あきる野市二宮東一丁目12-9","lat":35.724019,"lon":139.322605},{"name":"東秋留保育園","province":"東京都","city":"あきる野市","address":"あきる野市野辺1104","lat":35.724229,"lon":139.304785},{"name":"よつぎ第一保育園","province":"東京都","city":"あきる野市","address":"あきる野市雨間1067-6","lat":35.72026,"lon":139.298144},{"name":"よつぎ第二保育園","province":"東京都","city":"あきる野市","address":"あきる野市上代継218-1","lat":35.724178,"lon":139.278059},{"name":"西秋留保育園","province":"東京都","city":"あきる野市","address":"あきる野市上代継300","lat":35.722898,"lon":139.277112},{"name":"金木星の郷","province":"東京都","city":"あきる野市","address":"あきる野市三内489番地1","lat":35.737127,"lon":139.229241},{"name":"楽","province":"東京都","city":"あきる野市","address":"あきる野市上代継84-6","lat":35.730411,"lon":139.27824},{"name":"あきる野市あきる野保健相談所","province":"東京都","city":"あきる野市","address":"あきる野市秋川6-1-2","lat":35.728839,"lon":139.289816},{"name":"あきる野市五日市保健センター","province":"東京都","city":"あきる野市","address":"あきる野市五日市414-5","lat":35.729676,"lon":139.219487},{"name":"木造伝阿弥陀如来及び脇侍　千手観世音菩薩・勢至菩薩　坐像","province":"東京都","city":"あきる野市","address":"東京都あきる野市横沢134","lat":35.732374,"lon":139.241529},{"name":"西秋留石器時代住居跡","province":"東京都","city":"あきる野市","address":"東京都あきる野市牛沼265-2","lat":35.719679,"lon":139.288819},{"name":"真照寺薬師堂","province":"東京都","city":"あきる野市","address":"東京都あきる野市引田863","lat":35.721895,"lon":139.268324},{"name":"大悲願寺本堂","province":"東京都","city":"あきる野市","address":"東京都あきる野市横沢134","lat":35.732374,"lon":139.241529},{"name":"木造釈迦如来坐像","province":"東京都","city":"あきる野市","address":"東京都あきる野市戸倉328","lat":35.725616,"lon":139.20214},{"name":"大般若経","province":"東京都","city":"あきる野市","address":"東京都あきる野市横沢134","lat":35.732374,"lon":139.241529},{"name":"旧多摩郡油平村名主中村家文書","province":"東京都","city":"あきる野市","address":"東京都あきる野市五日市920-1","lat":35.728429,"lon":139.216982},{"name":"大悲願寺文書","province":"東京都","city":"あきる野市","address":"東京都あきる野市横沢134","lat":35.732374,"lon":139.241529},{"name":"五日市憲法草案","province":"東京都","city":"あきる野市","address":"東京都あきる野市秋川1-16-2","lat":35.730708,"lon":139.288733},{"name":"田中丘隅回向墓","province":"東京都","city":"あきる野市","address":"東京都あきる野市平沢732","lat":35.730489,"lon":139.315052},{"name":"軍道紙","province":"東京都","city":"あきる野市","address":"東京都あきる野市乙津266・あきる野市乙津671","lat":35.728618,"lon":139.187666},{"name":"菅生の組立舞台","province":"東京都","city":"あきる野市","address":"東京都あきる野市菅生1336","lat":35.746731,"lon":139.289732},{"name":"猿曳駒絵馬","province":"東京都","city":"あきる野市","address":"東京都あきる野市引田863","lat":35.721902,"lon":139.268241},{"name":"広徳寺境域","province":"東京都","city":"あきる野市","address":"東京都あきる野市小和田234","lat":35.721875,"lon":139.21736},{"name":"深沢家屋敷跡","province":"東京都","city":"あきる野市","address":"東京都あきる野市深沢7","lat":35.750161,"lon":139.205403},{"name":"前田耕地遺跡","province":"東京都","city":"あきる野市","address":"東京都あきる野市野辺1-1他","lat":35.723982,"lon":139.316109},{"name":"戸倉城跡","province":"東京都","city":"あきる野市","address":"東京都あきる野市戸倉328-1他","lat":35.725616,"lon":139.20214},{"name":"大塚古墳","province":"東京都","city":"あきる野市","address":"東京都あきる野市雨間232","lat":35.727323,"lon":139.289955},{"name":"二宮神社並びに城跡","province":"東京都","city":"あきる野市","address":"東京都あきる野市二宮2252","lat":35.726873,"lon":139.3136},{"name":"草花石器時代住居跡","province":"東京都","city":"あきる野市","address":"東京都あきる野市草花1371","lat":35.740299,"lon":139.30717},{"name":"羽ケ田石器時代住居跡","province":"東京都","city":"あきる野市","address":"東京都あきる野市草花2859・あきる野市草花2865","lat":35.74156,"lon":139.298237},{"name":"奥御岳景園地","province":"東京都","city":"あきる野市","address":"東京都あきる野市養沢1600-5他","lat":35.752585,"lon":139.180715},{"name":"広徳寺のタラヨウ","province":"東京都","city":"あきる野市","address":"東京都あきる野市小和田234","lat":35.721875,"lon":139.21736},{"name":"広徳寺のカヤ","province":"東京都","city":"あきる野市","address":"東京都あきる野市小和田234","lat":35.721875,"lon":139.21736},{"name":"大岳鍾乳洞","province":"東京都","city":"あきる野市","address":"東京都あきる野市養沢1587","lat":35.76245,"lon":139.155758},{"name":"南沢の鳥ノ巣石灰岩産地","province":"東京都","city":"あきる野市","address":"東京都あきる野市深沢376他","lat":35.750161,"lon":139.205403},{"name":"六枚屏風岩","province":"東京都","city":"あきる野市","address":"東京都あきる野市引田1774","lat":35.724439,"lon":139.268021},{"name":"慈勝寺のモッコク","province":"東京都","city":"あきる野市","address":"東京都あきる野市草花1811","lat":35.741641,"lon":139.312086},{"name":"光厳寺のヤマザクラ","province":"東京都","city":"あきる野市","address":"東京都あきる野市戸倉2102のイ他","lat":35.727333,"lon":139.205064},{"name":"地蔵院のカゴノキ","province":"東京都","city":"あきる野市","address":"東京都あきる野市雨間1109","lat":35.727323,"lon":139.289955},{"name":"広徳寺総門","province":"東京都","city":"あきる野市","address":"東京都あきる野市小和田234","lat":35.721875,"lon":139.21736},{"name":"広徳寺山門","province":"東京都","city":"あきる野市","address":"東京都あきる野市小和田234","lat":35.721875,"lon":139.21736},{"name":"開光院本堂・庫裏","province":"東京都","city":"あきる野市","address":"東京都あきる野市五日市691","lat":35.73111,"lon":139.216043},{"name":"三島神社本殿","province":"東京都","city":"あきる野市","address":"東京都あきる野市戸倉414","lat":35.726675,"lon":139.200724},{"name":"武多摩神社本殿","province":"東京都","city":"あきる野市","address":"東京都あきる野市戸倉414","lat":35.726675,"lon":139.200724},{"name":"八雲神社の五輪塔","province":"東京都","city":"あきる野市","address":"東京都あきる野市野辺316","lat":35.722927,"lon":139.311798},{"name":"花蔵院の山門","province":"東京都","city":"あきる野市","address":"東京都あきる野市草花1740","lat":35.742505,"lon":139.309853},{"name":"真照寺の山門","province":"東京都","city":"あきる野市","address":"東京都あきる野市引田863","lat":35.721895,"lon":139.268324},{"name":"福徳寺の山門","province":"東京都","city":"あきる野市","address":"東京都あきる野市油平246","lat":35.732374,"lon":139.241529},{"name":"大悲願寺観音堂","province":"東京都","city":"あきる野市","address":"東京都あきる野市横沢134","lat":35.732374,"lon":139.241529},{"name":"大悲願寺楼門（仁王門）","province":"東京都","city":"あきる野市","address":"東京都あきる野市横沢134","lat":35.732374,"lon":139.241529},{"name":"大悲願寺中門（朱雀門）","province":"東京都","city":"あきる野市","address":"東京都あきる野市横沢134","lat":35.732374,"lon":139.241529},{"name":"旧市倉家住宅","province":"東京都","city":"あきる野市","address":"東京都あきる野市五日市920-1","lat":35.728429,"lon":139.216982},{"name":"二宮神社本殿","province":"東京都","city":"あきる野市","address":"東京都あきる野市二宮2252","lat":35.726873,"lon":139.3136},{"name":"二宮神社宮殿","province":"東京都","city":"あきる野市","address":"東京都あきる野市二宮2252","lat":35.726873,"lon":139.3136},{"name":"雨武主神社本殿","province":"東京都","city":"あきる野市","address":"東京都あきる野市雨間1941","lat":35.714377,"lon":139.291836},{"name":"子生神社本殿","province":"東京都","city":"あきる野市","address":"東京都あきる野市小中野187","lat":35.725927,"lon":139.209386},{"name":"森山神社本殿","province":"東京都","city":"あきる野市","address":"東京都あきる野市草花275","lat":35.731654,"lon":139.318895},{"name":"阿伎留神社年中十二祭神事絵巻","province":"東京都","city":"あきる野市","address":"東京都あきる野市五日市1081","lat":35.725279,"lon":139.222695},{"name":"光厳寺絹本着色仏涅槃図","province":"東京都","city":"あきる野市","address":"東京都あきる野市戸倉328","lat":35.725616,"lon":139.20214},{"name":"大悲願寺仁王門天井絵","province":"東京都","city":"あきる野市","address":"東京都あきる野市横沢134","lat":35.732374,"lon":139.241529},{"name":"玉林寺本堂天井絵","province":"東京都","city":"あきる野市","address":"東京都あきる野市五日市926","lat":35.72706,"lon":139.217626},{"name":"光厳寺扁額","province":"東京都","city":"あきる野市","address":"東京都あきる野市戸倉328","lat":35.725616,"lon":139.20214},{"name":"貴志嶋神社石造大黒天像","province":"東京都","city":"あきる野市","address":"東京都あきる野市網代83","lat":35.721389,"lon":139.247309},{"name":"大悲願寺懐中仏","province":"東京都","city":"あきる野市","address":"東京都あきる野市横沢134","lat":35.732374,"lon":139.241529},{"name":"東町観音堂木造阿弥陀如来坐像","province":"東京都","city":"あきる野市","address":"東京都あきる野市五日市164","lat":35.729956,"lon":139.225992},{"name":"広徳寺山門木造十六羅漢像","province":"東京都","city":"あきる野市","address":"東京都あきる野市小和田234","lat":35.721875,"lon":139.21736},{"name":"楞厳寺薬師堂木造十二神将立像","province":"東京都","city":"あきる野市","address":"東京都あきる野市五日市576","lat":35.732515,"lon":139.214976},{"name":"足利尊氏坐像","province":"東京都","city":"あきる野市","address":"東京都あきる野市山田496","lat":35.723983,"lon":139.254575},{"name":"広徳寺本尊聖観音像","province":"東京都","city":"あきる野市","address":"東京都あきる野市小和田234","lat":35.721875,"lon":139.21736},{"name":"福徳寺の五輪六地蔵及び中尊","province":"東京都","city":"あきる野市","address":"東京都あきる野市油平246","lat":35.722306,"lon":139.286411},{"name":"大悲願寺の五輪地蔵","province":"東京都","city":"あきる野市","address":"東京都あきる野市横沢134","lat":35.732374,"lon":139.241529},{"name":"春日明神社和鏡","province":"東京都","city":"あきる野市","address":"東京都あきる野市乙津425","lat":35.730352,"lon":139.187268},{"name":"阿伎留神社懸仏台盤","province":"東京都","city":"あきる野市","address":"東京都あきる野市五日市1081","lat":35.725279,"lon":139.222695},{"name":"大悲願寺六角宝幢式経筒","province":"東京都","city":"あきる野市","address":"東京都あきる野市横沢134","lat":35.732374,"lon":139.241529},{"name":"大悲願寺梵鐘","province":"東京都","city":"あきる野市","address":"東京都あきる野市横沢134","lat":35.732374,"lon":139.241529},{"name":"三島神社石棒","province":"東京都","city":"あきる野市","address":"東京都あきる野市二宮1151","lat":35.727373,"lon":139.313475},{"name":"土製耳飾","province":"東京都","city":"あきる野市","address":"東京都あきる野市五日市920-1","lat":35.728429,"lon":139.216982},{"name":"縄文式壺型土器","province":"東京都","city":"あきる野市","address":"東京都あきる野市五日市920-1","lat":35.728429,"lon":139.216982},{"name":"縄文式釣手土器","province":"東京都","city":"あきる野市","address":"東京都あきる野市五日市920-1","lat":35.728429,"lon":139.216982},{"name":"五領式土器","province":"東京都","city":"あきる野市","address":"東京都あきる野市五日市920-1","lat":35.728429,"lon":139.216982},{"name":"雨間地区遺跡群出土の旧石器時代石器群","province":"東京都","city":"あきる野市","address":"東京都あきる野市二宮1151","lat":35.727373,"lon":139.313475},{"name":"大六天遺跡出土の石棒","province":"東京都","city":"あきる野市","address":"東京都あきる野市二宮1151","lat":35.727373,"lon":139.313475},{"name":"如環版木活字並びに活版本","province":"東京都","city":"あきる野市","address":"東京都あきる野市横沢134","lat":35.732374,"lon":139.241529},{"name":"武州南一揆文書","province":"東京都","city":"あきる野市","address":"東京都あきる野市五日市920-1","lat":35.727373,"lon":139.313475},{"name":"武州南一揆文書","province":"東京都","city":"あきる野市","address":"東京都あきる野市五日市1081","lat":35.725279,"lon":139.222695},{"name":"後北条氏虎印文書","province":"東京都","city":"あきる野市","address":"東京都あきる野市小和田234","lat":35.721875,"lon":139.21736},{"name":"後北条氏虎印文書","province":"東京都","city":"あきる野市","address":"東京都あきる野市五日市920-1","lat":35.728429,"lon":139.216982},{"name":"大悲願寺棟札","province":"東京都","city":"あきる野市","address":"東京都あきる野市横沢134","lat":35.732374,"lon":139.241529},{"name":"瑞雲寺板碑","province":"東京都","city":"あきる野市","address":"東京都あきる野市山田496","lat":35.723983,"lon":139.254575},{"name":"大悲願寺井戸枠","province":"東京都","city":"あきる野市","address":"東京都あきる野市横沢134","lat":35.732374,"lon":139.241529},{"name":"ところ芋の碑","province":"東京都","city":"あきる野市","address":"東京都あきる野市戸倉328","lat":35.725616,"lon":139.20214},{"name":"百番供養塔","province":"東京都","city":"あきる野市","address":"東京都あきる野市留原209","lat":35.722399,"lon":139.229384},{"name":"御嶽神社の懸仏","province":"東京都","city":"あきる野市","address":"東京都あきる野市小和田531","lat":35.721169,"lon":139.223449},{"name":"地蔵院の板碑","province":"東京都","city":"あきる野市","address":"東京都あきる野市雨間1101","lat":35.721535,"lon":139.300441},{"name":"福泉寺の板碑","province":"東京都","city":"あきる野市","address":"東京都あきる野市菅生629","lat":35.746731,"lon":139.289732},{"name":"塩野家の板碑","province":"東京都","city":"あきる野市","address":"東京都あきる野市二宮1151","lat":35.727373,"lon":139.313475},{"name":"東郷前の板碑","province":"東京都","city":"あきる野市","address":"東京都あきる野市二宮1151","lat":35.727373,"lon":139.313475},{"name":"珠陽院の巳待供養塔","province":"東京都","city":"あきる野市","address":"東京都あきる野市瀬戸岡511","lat":35.736947,"lon":139.29544},{"name":"五日市の市神様","province":"東京都","city":"あきる野市","address":"東京都あきる野市五日市110-1","lat":35.727874,"lon":139.222259},{"name":"二宮神社の算額絵馬","province":"東京都","city":"あきる野市","address":"東京都あきる野市五日市920-1","lat":35.728429,"lon":139.216982},{"name":"渕上の石積井戸","province":"東京都","city":"あきる野市","address":"東京都あきる野市渕上330","lat":35.722648,"lon":139.273418},{"name":"石神遺跡","province":"東京都","city":"あきる野市","address":"東京都あきる野市原小宮1-18","lat":35.734247,"lon":139.29906},{"name":"玉泉寺のエノキ","province":"東京都","city":"あきる野市","address":"東京都あきる野市二宮2265","lat":35.728962,"lon":139.31395},{"name":"戸田家のクスノキ","province":"東京都","city":"あきる野市","address":"東京都あきる野市二宮2259","lat":35.728768,"lon":139.314675},{"name":"二宮神社のフジ","province":"東京都","city":"あきる野市","address":"東京都あきる野市二宮1189","lat":35.726873,"lon":139.3136},{"name":"二宮神社のヤナギ","province":"東京都","city":"あきる野市","address":"東京都あきる野市二宮1189","lat":35.726873,"lon":139.3136},{"name":"杉田家のタワラグミ","province":"東京都","city":"あきる野市","address":"東京都あきる野市二宮2431","lat":35.729309,"lon":139.319189},{"name":"法林寺のシラカシ","province":"東京都","city":"あきる野市","address":"東京都あきる野市小川東2-12-10","lat":35.719216,"lon":139.319956},{"name":"熊野神社のケヤキ","province":"東京都","city":"あきる野市","address":"東京都あきる野市小川639","lat":35.721305,"lon":139.317081},{"name":"地蔵院のカヤ","province":"東京都","city":"あきる野市","address":"東京都あきる野市雨間1101","lat":35.721535,"lon":139.300441},{"name":"真城寺のシダレザクラ","province":"東京都","city":"あきる野市","address":"東京都あきる野市上代継344","lat":35.723012,"lon":139.278595},{"name":"秋川神明社のスギ","province":"東京都","city":"あきる野市","address":"東京都あきる野市牛沼88","lat":35.718485,"lon":139.285759},{"name":"正勝神社のサカキ","province":"東京都","city":"あきる野市","address":"東京都あきる野市菅生1819","lat":35.757397,"lon":139.277758},{"name":"堀部家のイトヒバ","province":"東京都","city":"あきる野市","address":"東京都あきる野市小川469","lat":35.717425,"lon":139.313951},{"name":"小山家のツルウメモドキ","province":"東京都","city":"あきる野市","address":"東京都あきる野市草花720","lat":35.738491,"lon":139.306901},{"name":"五柱神社のスギ","province":"東京都","city":"あきる野市","address":"東京都あきる野市養沢1392","lat":35.732043,"lon":139.180863},{"name":"山抱きの大カシ（ウラジロガシ）","province":"東京都","city":"あきる野市","address":"東京都あきる野市深沢472","lat":35.750161,"lon":139.205403},{"name":"森田家住宅主屋","province":"東京都","city":"あきる野市","address":"東京都あきる野市小川633-1","lat":35.721158,"lon":139.316364},{"name":"森田家住宅見世蔵","province":"東京都","city":"あきる野市","address":"東京都あきる野市小川633-1","lat":35.721158,"lon":139.316364},{"name":"森田家住宅前の蔵","province":"東京都","city":"あきる野市","address":"東京都あきる野市小川633-1","lat":35.721158,"lon":139.316364},{"name":"森田家住宅味噌蔵","province":"東京都","city":"あきる野市","address":"東京都あきる野市小川633-1","lat":35.721158,"lon":139.316364},{"name":"森田家住宅西蔵","province":"東京都","city":"あきる野市","address":"東京都あきる野市小川633-1","lat":35.721158,"lon":139.316364},{"name":"森田家住宅旧米蔵","province":"東京都","city":"あきる野市","address":"東京都あきる野市小川633-1","lat":35.721158,"lon":139.316364},{"name":"森田家住宅御看経堂","province":"東京都","city":"あきる野市","address":"東京都あきる野市小川633-1","lat":35.721158,"lon":139.316364},{"name":"森田家住宅門","province":"東京都","city":"あきる野市","address":"東京都あきる野市小川633-1","lat":35.721158,"lon":139.316364},{"name":"森田家住宅板塀","province":"東京都","city":"あきる野市","address":"東京都あきる野市小川633-1","lat":35.721158,"lon":139.316364},{"name":"小峰ビジターセンター","province":"東京都","city":"あきる野市","address":"東京都あきる野市留原284-1","lat":35.721006,"lon":139.231412},{"name":"小峰公園","province":"東京都","city":"あきる野市","address":"東京都あきる野市留原","lat":35.719777,"lon":139.230467},{"name":"小峰公園","province":"東京都","city":"あきる野市","address":"東京都あきる野市高尾","lat":35.720159,"lon":139.231763},{"name":"十里木駐車場","province":"東京都","city":"あきる野市","address":"東京都あきる野市戸倉","lat":35.72808,"lon":139.190136},{"name":"秋留台公園","province":"東京都","city":"あきる野市","address":"東京都あきる野市二宮","lat":35.730373,"lon":139.301635},{"name":"秋留台公園","province":"東京都","city":"あきる野市","address":"東京都あきる野市二宮","lat":35.729415,"lon":139.299866},{"name":"秋留台公園","province":"東京都","city":"あきる野市","address":"東京都あきる野市二宮673-1","lat":35.729435,"lon":139.301833},{"name":"あきる野サービスステーション","province":"東京都","city":"あきる野市","address":"東京都あきる野市秋川3丁目2-10","lat":35.731581,"lon":139.284098},{"name":"あきる野市庁舎","province":"東京都","city":"あきる野市","address":"東京都あきる野市二宮350","lat":35.729041,"lon":139.293779},{"name":"あきる野市庁舎","province":"東京都","city":"あきる野市","address":"東京都あきる野市二宮350","lat":35.728791,"lon":139.294496},{"name":"あきる野市庁舎","province":"東京都","city":"あきる野市","address":"東京都あきる野市二宮350","lat":35.728901,"lon":139.294174},{"name":"あきる野市役所五日市出張所","province":"東京都","city":"あきる野市","address":"東京都あきる野市五日市411","lat":35.729328,"lon":139.21977},{"name":"あきる野市五日市地域交流センター","province":"東京都","city":"あきる野市","address":"東京都あきる野市五日市411","lat":35.72931,"lon":139.219783},{"name":"あきる野市中央公民館","province":"東京都","city":"あきる野市","address":"東京都あきる野市二宮683","lat":35.73035,"lon":139.302504},{"name":"あきる野市五日市保健センター","province":"東京都","city":"あきる野市","address":"東京都あきる野市五日市414-5","lat":35.72966,"lon":139.21945},{"name":"あきる野市中央図書館","province":"東京都","city":"あきる野市","address":"東京都あきる野市秋川1丁目16-2","lat":35.730841,"lon":139.288724},{"name":"あきる野市中央図書館","province":"東京都","city":"あきる野市","address":"東京都あきる野市秋川1丁目16-2","lat":35.730672,"lon":139.288694},{"name":"あきる野市東部図書館エル","province":"東京都","city":"あきる野市","address":"東京都あきる野市野辺39-27","lat":35.725305,"lon":139.315806},{"name":"あきる野市中央図書館増戸分室","province":"東京都","city":"あきる野市","address":"東京都あきる野市伊奈","lat":35.727482,"lon":139.247726},{"name":"あきる野市五日市図書館","province":"東京都","city":"あきる野市","address":"東京都あきる野市五日市368","lat":35.72987,"lon":139.222344},{"name":"あきる野ルピア","province":"東京都","city":"あきる野市","address":"東京都あきる野市秋川1丁目8","lat":35.730178,"lon":139.286974},{"name":"五日市郷土館","province":"東京都","city":"あきる野市","address":"東京都あきる野市五日市920-1","lat":35.728437,"lon":139.216985},{"name":"あきる野市五日市会館","province":"東京都","city":"あきる野市","address":"東京都あきる野市五日市","lat":35.72989,"lon":139.220062},{"name":"あきる野市五日市会館","province":"東京都","city":"あきる野市","address":"東京都あきる野市五日市","lat":35.72995,"lon":139.220224},{"name":"秋川キララホール","province":"東京都","city":"あきる野市","address":"東京都あきる野市秋川1丁目16-1","lat":35.730969,"lon":139.288127},{"name":"高尾公園","province":"東京都","city":"あきる野市","address":"東京都あきる野市高尾","lat":35.726568,"lon":139.237816},{"name":"森ノ根公園","province":"東京都","city":"あきる野市","address":"東京都あきる野市原小宮2丁目8","lat":35.733992,"lon":139.302743},{"name":"JR東日本　秋川駅","province":"東京都","city":"あきる野市","address":"東京都あきる野市油平","lat":35.7282,"lon":139.286546},{"name":"第二水辺公衆トイレ","province":"東京都","city":"あきる野市","address":"東京都あきる野市下代継","lat":35.718709,"lon":139.280318},{"name":"森の下公園","province":"東京都","city":"あきる野市","address":"東京都あきる野市伊奈","lat":35.729522,"lon":139.255682},{"name":"東秋留駅前トイレ","province":"東京都","city":"あきる野市","address":"東京都あきる野市野辺","lat":35.726158,"lon":139.310592},{"name":"武蔵引田駅前トイレ","province":"東京都","city":"あきる野市","address":"東京都あきる野市引田","lat":35.729938,"lon":139.270002},{"name":"武蔵増戸駅前トイレ","province":"東京都","city":"あきる野市","address":"東京都あきる野市伊奈","lat":35.730844,"lon":139.256083},{"name":"五日市ひろば","province":"東京都","city":"あきる野市","address":"東京都あきる野市五日市","lat":35.729343,"lon":139.225216},{"name":"佳月橋トイレ","province":"東京都","city":"あきる野市","address":"東京都あきる野市小和田","lat":35.725803,"lon":139.217264},{"name":"山田天神前トイレ","province":"東京都","city":"あきる野市","address":"東京都あきる野市山田","lat":35.725851,"lon":139.262716},{"name":"武蔵五日市駅前トイレ","province":"東京都","city":"あきる野市","address":"東京都あきる野市舘谷台","lat":35.732475,"lon":139.229055},{"name":"秋川ふれあいランドトイレ","province":"東京都","city":"あきる野市","address":"東京都あきる野市小川","lat":35.717016,"lon":139.317057},{"name":"秋川橋河川公園トイレ","province":"東京都","city":"あきる野市","address":"東京都あきる野市留原","lat":35.728874,"lon":139.227569},{"name":"十里木トイレ","province":"東京都","city":"あきる野市","address":"東京都あきる野市戸倉","lat":35.728064,"lon":139.190148},{"name":"秋川体育館","province":"東京都","city":"あきる野市","address":"東京都あきる野市二宮683","lat":35.730173,"lon":139.30242},{"name":"五日市ファインプラザ","province":"東京都","city":"あきる野市","address":"東京都あきる野市伊奈859-3","lat":35.729172,"lon":139.255539},{"name":"五日市ファインプラザ","province":"東京都","city":"あきる野市","address":"東京都あきる野市伊奈859-3","lat":35.729165,"lon":139.255382},{"name":"五日市ファインプラザ","province":"東京都","city":"あきる野市","address":"東京都あきる野市伊奈859-3","lat":35.729304,"lon":139.255388},{"name":"あきる野市民プール","province":"東京都","city":"あきる野市","address":"東京都あきる野市原小宮353","lat":35.737372,"lon":139.299092},{"name":"いきいきセンター","province":"東京都","city":"あきる野市","address":"東京都あきる野市雨間1946","lat":35.716648,"lon":139.291517},{"name":"あきる野市民球場","province":"東京都","city":"あきる野市","address":"東京都あきる野市原小宮","lat":35.737653,"lon":139.300609},{"name":"あきる野市民球場","province":"東京都","city":"あきる野市","address":"東京都あきる野市原小宮","lat":35.737664,"lon":139.300116},{"name":"小和田グラウンド事務所","province":"東京都","city":"あきる野市","address":"東京都あきる野市小和田","lat":35.722343,"lon":139.225457},{"name":"油平クラブハウス","province":"東京都","city":"あきる野市","address":"東京都あきる野市油平92-7","lat":35.726691,"lon":139.287647},{"name":"せせらぎふれあいトイレ","province":"東京都","city":"あきる野市","address":"東京都あきる野市切欠","lat":35.71685,"lon":139.299575},{"name":"秋川ふれあいセンター","province":"東京都","city":"あきる野市","address":"東京都あきる野市平沢175-4","lat":35.732554,"lon":139.302052},{"name":"秋川ふれあいセンター","province":"東京都","city":"あきる野市","address":"東京都あきる野市平沢175-4","lat":35.732498,"lon":139.302005},{"name":"秋川ふれあいセンター","province":"東京都","city":"あきる野市","address":"東京都あきる野市平沢175-4","lat":35.732568,"lon":139.30172},{"name":"秋川ファーマーズセンター","province":"東京都","city":"あきる野市","address":"東京都あきる野市二宮811","lat":35.728669,"lon":139.307845},{"name":"秋川健康会館","province":"東京都","city":"あきる野市","address":"東京都あきる野市二宮670-5","lat":35.729433,"lon":139.302428},{"name":"あきる野市あきる野保健相談所","province":"東京都","city":"あきる野市","address":"東京都あきる野市秋川6丁目1-2","lat":35.72883906,"lon":139.28981625},{"name":"あきる野市五日市保健センター","province":"東京都","city":"あきる野市","address":"東京都あきる野市五日市414-5","lat":35.72967629,"lon":139.21948692},{"name":"増戸保育園","province":"東京都","city":"あきる野市","address":"あきる野市横沢134","lat":35.7345,"lon":139.23906},{"name":"誠和保育園","province":"東京都","city":"あきる野市","address":"あきる野市山田880","lat":35.72614,"lon":139.25955},{"name":"光明第六保育園","province":"東京都","city":"あきる野市","address":"あきる野市留原50","lat":35.72584,"lon":139.2328},{"name":"五日市保育園","province":"東京都","city":"あきる野市","address":"あきる野市五日市345","lat":35.73145,"lon":139.22261},{"name":"五日市わかば保育園","province":"東京都","city":"あきる野市","address":"あきる野市五日市98","lat":35.72849,"lon":139.22421},{"name":"すぎの子保育園","province":"東京都","city":"あきる野市","address":"あきる野市戸倉783","lat":35.73081,"lon":139.19795},{"name":"草花保育園","province":"東京都","city":"あきる野市","address":"あきる野市草花3056","lat":35.73984,"lon":139.30397},{"name":"神明保育園","province":"東京都","city":"あきる野市","address":"あきる野市瀬戸岡446","lat":35.73779,"lon":139.2878},{"name":"あきる野こどもの家","province":"東京都","city":"あきる野市","address":"あきる野市秋川三丁目7-9","lat":35.73357,"lon":139.28505},{"name":"秋川あすなろ保育園","province":"東京都","city":"あきる野市","address":"あきる野市原小宮二丁目6-6","lat":35.73383,"lon":139.3015},{"name":"屋城保育園","province":"東京都","city":"あきる野市","address":"あきる野市二宮東一丁目12-9","lat":35.72395,"lon":139.32265},{"name":"東秋留保育園","province":"東京都","city":"あきる野市","address":"あきる野市野辺1104","lat":35.72417,"lon":139.30569},{"name":"よつぎ第一保育園","province":"東京都","city":"あきる野市","address":"あきる野市雨間1067-6","lat":35.72025,"lon":139.29865},{"name":"よつぎ第二保育園","province":"東京都","city":"あきる野市","address":"あきる野市上代継218-1","lat":35.72375,"lon":139.27806},{"name":"西秋留保育園","province":"東京都","city":"あきる野市","address":"あきる野市上代継300","lat":35.72325,"lon":139.27663},{"name":"あきる野市あきる野保健相談所","province":"東京都","city":"あきる野市","address":"あきる野市秋川6-1-2","lat":35.72893,"lon":139.29012},{"name":"あきる野市五日市保健センター","province":"東京都","city":"あきる野市","address":"あきる野市五日市414-5","lat":35.72925,"lon":139.21956},{"name":"社会福祉法人緑水会精神障害者地域生活支援センターフィレ","province":"東京都","city":"あきる野市","address":"東京都あきる野市二宮670-5","lat":35.72939777,"lon":139.30240956},{"name":"一般社団法人こーゆうネットワーク就労継続支援Ｂ型事業所こーゆうハウス","province":"東京都","city":"あきる野市","address":"東京都あきる野市雨間322-12","lat":35.72840562,"lon":139.28494449},{"name":"よつぎ第二保育園","province":"東京都","city":"あきる野市","address":"あきる野市上代継218-1","lat":35.727583,"lon":139.279001},{"name":"あきる野市五日市保健センター","province":"東京都","city":"あきる野市","address":"あきる野市五日市414-5","lat":35.729248,"lon":139.219559},{"name":"東秋留保育園","province":"東京都","city":"あきる野市","address":"あきる野市野辺1104","lat":35.72417,"lon":139.3057},{"name":"よつぎ第二保育園","province":"東京都","city":"あきる野市","address":"あきる野市上代継218-1","lat":35.72861,"lon":139.28226},{"name":"公立阿伎留医療センター","province":"東京都","city":"あきる野市","address":"東京都あきる野市引田78-1","lat":35.73181875,"lon":139.27214005},{"name":"秋留台給水所","province":"東京都","city":"あきる野市","address":"東京都あきる野市秋川3丁目2-10","lat":35.73175243,"lon":139.28428611},{"name":"上代継浄水所","province":"東京都","city":"あきる野市","address":"東京都あきる野市上代継407","lat":35.71915367,"lon":139.2783759},{"name":"戸倉給水所","province":"東京都","city":"あきる野市","address":"東京都あきる野市戸倉348-1","lat":35.72646632,"lon":139.20192062},{"name":"伊奈配水所","province":"東京都","city":"あきる野市","address":"東京都あきる野市伊奈372-3","lat":35.7348678,"lon":139.25221118},{"name":"学校法人菅生学園初等学校校庭","province":"東京都","city":"あきる野市","address":"東京都あきる野市菅生1468","lat":35.7561553,"lon":139.28712116},{"name":"市民運動場","province":"東京都","city":"あきる野市","address":"東京都あきる野市二宮683","lat":35.73040042,"lon":139.30224009},{"name":"あきる野市立小和田グラウンド","province":"東京都","city":"あきる野市","address":"東京都あきる野市小和田8","lat":35.72234618,"lon":139.22531468},{"name":"富士通株式会社あきる野テクノロジーセンター駐車場","province":"東京都","city":"あきる野市","address":"東京都あきる野市渕上50","lat":35.73065782,"lon":139.27354552},{"name":"五日市カントリー","province":"東京都","city":"あきる野市","address":"東京都あきる野市網代745","lat":35.71640895,"lon":139.25022007},{"name":"立川国際カントリー","province":"東京都","city":"あきる野市","address":"東京都あきる野市草花2390","lat":35.75056749,"lon":139.30485031},{"name":"都立秋留台公園陸上競技場","province":"東京都","city":"あきる野市","address":"東京都あきる野市二宮","lat":35.72746496,"lon":139.31077004},{"name":"あきる野市選挙管理委員会","province":"東京都","city":"あきる野市","address":"あきる野市二宮350番地あきる野市役所内","lat":35.728894,"lon":139.294115},{"name":"秋留台高等学校","province":"東京都","city":"あきる野市","address":"東京都あきる野市平沢153-4","lat":35.73220291,"lon":139.30067627},{"name":"五日市高等学校","province":"東京都","city":"あきる野市","address":"東京都あきる野市五日市894","lat":35.72940142,"lon":139.21780665},{"name":"あきる野市本庁舎","province":"東京都","city":"あきる野市","address":"東京都あきる野市二宮350","lat":35.72920304,"lon":139.29349922},{"name":"あきる野市本庁舎","province":"東京都","city":"あきる野市","address":"あきる野市二宮350","lat":35.729114,"lon":139.293511},{"name":"※あきる野市本庁舎","province":"東京都","city":"あきる野市","address":"東京都あきる野市二宮350","lat":35.72920304,"lon":139.29349922},{"name":"高尾清掃センター","province":"東京都","city":"あきる野市","address":"あきる野市高尾521","lat":35.717209,"lon":139.239532},{"name":"増戸保育園","province":"東京都","city":"あきる野市","address":"あきる野市横沢134","lat":35.732374,"lon":139.241529},{"name":"誠和保育園","province":"東京都","city":"あきる野市","address":"あきる野市山田880","lat":35.725719,"lon":139.259691},{"name":"光明第六保育園","province":"東京都","city":"あきる野市","address":"あきる野市留原50","lat":35.723251,"lon":139.234511},{"name":"五日市保育園","province":"東京都","city":"あきる野市","address":"あきる野市五日市345","lat":35.731079,"lon":139.223733},{"name":"五日市わかば保育園","province":"東京都","city":"あきる野市","address":"あきる野市五日市98","lat":35.728829,"lon":139.224759},{"name":"すぎの子保育園","province":"東京都","city":"あきる野市","address":"あきる野市戸倉783","lat":35.731208,"lon":139.197998},{"name":"草花保育園","province":"東京都","city":"あきる野市","address":"あきる野市草花3056","lat":35.739188,"lon":139.30327},{"name":"神明保育園","province":"東京都","city":"あきる野市","address":"あきる野市瀬戸岡446","lat":35.738093,"lon":139.288399},{"name":"あきる野こどもの家","province":"東京都","city":"あきる野市","address":"あきる野市秋川三丁目7-9","lat":35.733474,"lon":139.284453},{"name":"秋川あすなろ保育園","province":"東京都","city":"あきる野市","address":"あきる野市原小宮二丁目6-6","lat":35.734006,"lon":139.301604},{"name":"屋城保育園","province":"東京都","city":"あきる野市","address":"あきる野市二宮東一丁目12-9","lat":35.724019,"lon":139.322605},{"name":"東秋留保育園","province":"東京都","city":"あきる野市","address":"あきる野市野辺1104","lat":35.724229,"lon":139.304785},{"name":"よつぎ第一保育園","province":"東京都","city":"あきる野市","address":"あきる野市雨間1067-6","lat":35.72026,"lon":139.298144},{"name":"よつぎ第二保育園","province":"東京都","city":"あきる野市","address":"あきる野市上代継218-1","lat":35.724178,"lon":139.278059},{"name":"西秋留保育園","province":"東京都","city":"あきる野市","address":"あきる野市上代継300","lat":35.722898,"lon":139.277112},{"name":"木造伝阿弥陀如来及び脇侍　千手観世音菩薩・勢至菩薩　坐像","province":"東京都","city":"あきる野市","address":"東京都あきる野市横沢134","lat":35.732374,"lon":139.241529},{"name":"西秋留石器時代住居跡","province":"東京都","city":"あきる野市","address":"東京都あきる野市牛沼265-2","lat":35.719679,"lon":139.288819},{"name":"真照寺薬師堂","province":"東京都","city":"あきる野市","address":"東京都あきる野市引田863","lat":35.721895,"lon":139.268324},{"name":"大悲願寺本堂","province":"東京都","city":"あきる野市","address":"東京都あきる野市横沢134","lat":35.732374,"lon":139.241529},{"name":"木造釈迦如来坐像","province":"東京都","city":"あきる野市","address":"東京都あきる野市戸倉328","lat":35.725616,"lon":139.20214},{"name":"大般若経","province":"東京都","city":"あきる野市","address":"東京都あきる野市横沢134","lat":35.732374,"lon":139.241529},{"name":"旧多摩郡油平村名主中村家文書","province":"東京都","city":"あきる野市","address":"東京都あきる野市五日市920-1","lat":35.728429,"lon":139.216982},{"name":"大悲願寺文書","province":"東京都","city":"あきる野市","address":"東京都あきる野市横沢134","lat":35.732374,"lon":139.241529},{"name":"五日市憲法草案","province":"東京都","city":"あきる野市","address":"東京都あきる野市秋川1-16-2","lat":35.730708,"lon":139.288733},{"name":"田中丘隅回向墓","province":"東京都","city":"あきる野市","address":"東京都あきる野市平沢732","lat":35.730489,"lon":139.315052},{"name":"軍道紙","province":"東京都","city":"あきる野市","address":"東京都あきる野市乙津266・あきる野市乙津671","lat":35.728618,"lon":139.187666},{"name":"菅生の組立舞台","province":"東京都","city":"あきる野市","address":"東京都あきる野市菅生1336","lat":35.746731,"lon":139.289732},{"name":"猿曳駒絵馬","province":"東京都","city":"あきる野市","address":"東京都あきる野市引田863","lat":35.721902,"lon":139.268241},{"name":"広徳寺境域","province":"東京都","city":"あきる野市","address":"東京都あきる野市小和田234","lat":35.721875,"lon":139.21736},{"name":"深沢家屋敷跡","province":"東京都","city":"あきる野市","address":"東京都あきる野市深沢7","lat":35.750161,"lon":139.205403},{"name":"前田耕地遺跡","province":"東京都","city":"あきる野市","address":"東京都あきる野市野辺1-1他","lat":35.723982,"lon":139.316109},{"name":"戸倉城跡","province":"東京都","city":"あきる野市","address":"東京都あきる野市戸倉328-1他","lat":35.725616,"lon":139.20214},{"name":"大塚古墳","province":"東京都","city":"あきる野市","address":"東京都あきる野市雨間232","lat":35.727323,"lon":139.289955},{"name":"二宮神社並びに城跡","province":"東京都","city":"あきる野市","address":"東京都あきる野市二宮2252","lat":35.726873,"lon":139.3136},{"name":"草花石器時代住居跡","province":"東京都","city":"あきる野市","address":"東京都あきる野市草花1371","lat":35.740299,"lon":139.30717},{"name":"羽ケ田石器時代住居跡","province":"東京都","city":"あきる野市","address":"東京都あきる野市草花2859・あきる野市草花2865","lat":35.74156,"lon":139.298237},{"name":"奥御岳景園地","province":"東京都","city":"あきる野市","address":"東京都あきる野市養沢1600-5他","lat":35.752585,"lon":139.180715},{"name":"広徳寺のタラヨウ","province":"東京都","city":"あきる野市","address":"東京都あきる野市小和田234","lat":35.721875,"lon":139.21736},{"name":"広徳寺のカヤ","province":"東京都","city":"あきる野市","address":"東京都あきる野市小和田234","lat":35.721875,"lon":139.21736},{"name":"大岳鍾乳洞","province":"東京都","city":"あきる野市","address":"東京都あきる野市養沢1587","lat":35.76245,"lon":139.155758},{"name":"南沢の鳥ノ巣石灰岩産地","province":"東京都","city":"あきる野市","address":"東京都あきる野市深沢376他","lat":35.750161,"lon":139.205403},{"name":"六枚屏風岩","province":"東京都","city":"あきる野市","address":"東京都あきる野市引田1774","lat":35.724439,"lon":139.268021},{"name":"慈勝寺のモッコク","province":"東京都","city":"あきる野市","address":"東京都あきる野市草花1811","lat":35.741641,"lon":139.312086},{"name":"光厳寺のヤマザクラ","province":"東京都","city":"あきる野市","address":"東京都あきる野市戸倉2102のイ他","lat":35.727333,"lon":139.205064},{"name":"地蔵院のカゴノキ","province":"東京都","city":"あきる野市","address":"東京都あきる野市雨間1109","lat":35.727323,"lon":139.289955},{"name":"広徳寺総門","province":"東京都","city":"あきる野市","address":"東京都あきる野市小和田234","lat":35.721875,"lon":139.21736},{"name":"広徳寺山門","province":"東京都","city":"あきる野市","address":"東京都あきる野市小和田234","lat":35.721875,"lon":139.21736},{"name":"開光院本堂・庫裏","province":"東京都","city":"あきる野市","address":"東京都あきる野市五日市691","lat":35.73111,"lon":139.216043},{"name":"三島神社本殿","province":"東京都","city":"あきる野市","address":"東京都あきる野市戸倉414","lat":35.726675,"lon":139.200724},{"name":"武多摩神社本殿","province":"東京都","city":"あきる野市","address":"東京都あきる野市戸倉414","lat":35.726675,"lon":139.200724},{"name":"八雲神社の五輪塔","province":"東京都","city":"あきる野市","address":"東京都あきる野市野辺316","lat":35.722927,"lon":139.311798},{"name":"花蔵院の山門","province":"東京都","city":"あきる野市","address":"東京都あきる野市草花1740","lat":35.742505,"lon":139.309853},{"name":"真照寺の山門","province":"東京都","city":"あきる野市","address":"東京都あきる野市引田863","lat":35.721895,"lon":139.268324},{"name":"福徳寺の山門","province":"東京都","city":"あきる野市","address":"東京都あきる野市油平246","lat":35.732374,"lon":139.241529},{"name":"大悲願寺観音堂","province":"東京都","city":"あきる野市","address":"東京都あきる野市横沢134","lat":35.732374,"lon":139.241529},{"name":"大悲願寺楼門（仁王門）","province":"東京都","city":"あきる野市","address":"東京都あきる野市横沢134","lat":35.732374,"lon":139.241529},{"name":"大悲願寺中門（朱雀門）","province":"東京都","city":"あきる野市","address":"東京都あきる野市横沢134","lat":35.732374,"lon":139.241529},{"name":"旧市倉家住宅","province":"東京都","city":"あきる野市","address":"東京都あきる野市五日市920-1","lat":35.728429,"lon":139.216982},{"name":"二宮神社本殿","province":"東京都","city":"あきる野市","address":"東京都あきる野市二宮2252","lat":35.726873,"lon":139.3136},{"name":"二宮神社宮殿","province":"東京都","city":"あきる野市","address":"東京都あきる野市二宮2252","lat":35.726873,"lon":139.3136},{"name":"雨武主神社本殿","province":"東京都","city":"あきる野市","address":"東京都あきる野市雨間1941","lat":35.714377,"lon":139.291836},{"name":"子生神社本殿","province":"東京都","city":"あきる野市","address":"東京都あきる野市小中野187","lat":35.725927,"lon":139.209386},{"name":"森山神社本殿","province":"東京都","city":"あきる野市","address":"東京都あきる野市草花275","lat":35.731654,"lon":139.318895},{"name":"阿伎留神社年中十二祭神事絵巻","province":"東京都","city":"あきる野市","address":"東京都あきる野市五日市1081","lat":35.725279,"lon":139.222695},{"name":"光厳寺絹本着色仏涅槃図","province":"東京都","city":"あきる野市","address":"東京都あきる野市戸倉328","lat":35.725616,"lon":139.20214},{"name":"大悲願寺仁王門天井絵","province":"東京都","city":"あきる野市","address":"東京都あきる野市横沢134","lat":35.732374,"lon":139.241529},{"name":"玉林寺本堂天井絵","province":"東京都","city":"あきる野市","address":"東京都あきる野市五日市926","lat":35.72706,"lon":139.217626},{"name":"光厳寺扁額","province":"東京都","city":"あきる野市","address":"東京都あきる野市戸倉328","lat":35.725616,"lon":139.20214},{"name":"貴志嶋神社石造大黒天像","province":"東京都","city":"あきる野市","address":"東京都あきる野市網代83","lat":35.721389,"lon":139.247309},{"name":"大悲願寺懐中仏","province":"東京都","city":"あきる野市","address":"東京都あきる野市横沢134","lat":35.732374,"lon":139.241529},{"name":"東町観音堂木造阿弥陀如来坐像","province":"東京都","city":"あきる野市","address":"東京都あきる野市五日市164","lat":35.729956,"lon":139.225992},{"name":"広徳寺山門木造十六羅漢像","province":"東京都","city":"あきる野市","address":"東京都あきる野市小和田234","lat":35.721875,"lon":139.21736},{"name":"楞厳寺薬師堂木造十二神将立像","province":"東京都","city":"あきる野市","address":"東京都あきる野市五日市576","lat":35.732515,"lon":139.214976},{"name":"足利尊氏坐像","province":"東京都","city":"あきる野市","address":"東京都あきる野市山田496","lat":35.723983,"lon":139.254575},{"name":"広徳寺本尊聖観音像","province":"東京都","city":"あきる野市","address":"東京都あきる野市小和田234","lat":35.721875,"lon":139.21736},{"name":"福徳寺の五輪六地蔵及び中尊","province":"東京都","city":"あきる野市","address":"東京都あきる野市油平246","lat":35.722306,"lon":139.286411},{"name":"大悲願寺の五輪地蔵","province":"東京都","city":"あきる野市","address":"東京都あきる野市横沢134","lat":35.732374,"lon":139.241529},{"name":"春日明神社和鏡","province":"東京都","city":"あきる野市","address":"東京都あきる野市乙津425","lat":35.730352,"lon":139.187268},{"name":"阿伎留神社懸仏台盤","province":"東京都","city":"あきる野市","address":"東京都あきる野市五日市1081","lat":35.725279,"lon":139.222695},{"name":"大悲願寺六角宝幢式経筒","province":"東京都","city":"あきる野市","address":"東京都あきる野市横沢134","lat":35.732374,"lon":139.241529},{"name":"大悲願寺梵鐘","province":"東京都","city":"あきる野市","address":"東京都あきる野市横沢134","lat":35.732374,"lon":139.241529},{"name":"三島神社石棒","province":"東京都","city":"あきる野市","address":"東京都あきる野市二宮1151","lat":35.727373,"lon":139.313475},{"name":"土製耳飾","province":"東京都","city":"あきる野市","address":"東京都あきる野市五日市920-1","lat":35.728429,"lon":139.216982},{"name":"縄文式壺型土器","province":"東京都","city":"あきる野市","address":"東京都あきる野市五日市920-1","lat":35.728429,"lon":139.216982},{"name":"縄文式釣手土器","province":"東京都","city":"あきる野市","address":"東京都あきる野市五日市920-1","lat":35.728429,"lon":139.216982},{"name":"五領式土器","province":"東京都","city":"あきる野市","address":"東京都あきる野市五日市920-1","lat":35.728429,"lon":139.216982},{"name":"雨間地区遺跡群出土の旧石器時代石器群","province":"東京都","city":"あきる野市","address":"東京都あきる野市二宮1151","lat":35.727373,"lon":139.313475},{"name":"大六天遺跡出土の石棒","province":"東京都","city":"あきる野市","address":"東京都あきる野市二宮1151","lat":35.727373,"lon":139.313475},{"name":"如環版木活字並びに活版本","province":"東京都","city":"あきる野市","address":"東京都あきる野市横沢134","lat":35.732374,"lon":139.241529},{"name":"武州南一揆文書","province":"東京都","city":"あきる野市","address":"東京都あきる野市五日市920-1","lat":35.727373,"lon":139.313475},{"name":"武州南一揆文書","province":"東京都","city":"あきる野市","address":"東京都あきる野市五日市1081","lat":35.725279,"lon":139.222695},{"name":"後北条氏虎印文書","province":"東京都","city":"あきる野市","address":"東京都あきる野市小和田234","lat":35.721875,"lon":139.21736},{"name":"後北条氏虎印文書","province":"東京都","city":"あきる野市","address":"東京都あきる野市五日市920-1","lat":35.728429,"lon":139.216982},{"name":"大悲願寺棟札","province":"東京都","city":"あきる野市","address":"東京都あきる野市横沢134","lat":35.732374,"lon":139.241529},{"name":"瑞雲寺板碑","province":"東京都","city":"あきる野市","address":"東京都あきる野市山田496","lat":35.723983,"lon":139.254575},{"name":"大悲願寺井戸枠","province":"東京都","city":"あきる野市","address":"東京都あきる野市横沢134","lat":35.732374,"lon":139.241529},{"name":"ところ芋の碑","province":"東京都","city":"あきる野市","address":"東京都あきる野市戸倉328","lat":35.725616,"lon":139.20214},{"name":"百番供養塔","province":"東京都","city":"あきる野市","address":"東京都あきる野市留原209","lat":35.722399,"lon":139.229384},{"name":"御嶽神社の懸仏","province":"東京都","city":"あきる野市","address":"東京都あきる野市小和田531","lat":35.721169,"lon":139.223449},{"name":"地蔵院の板碑","province":"東京都","city":"あきる野市","address":"東京都あきる野市雨間1101","lat":35.721535,"lon":139.300441},{"name":"福泉寺の板碑","province":"東京都","city":"あきる野市","address":"東京都あきる野市菅生629","lat":35.746731,"lon":139.289732},{"name":"塩野家の板碑","province":"東京都","city":"あきる野市","address":"東京都あきる野市二宮1151","lat":35.727373,"lon":139.313475},{"name":"東郷前の板碑","province":"東京都","city":"あきる野市","address":"東京都あきる野市二宮1151","lat":35.727373,"lon":139.313475},{"name":"珠陽院の巳待供養塔","province":"東京都","city":"あきる野市","address":"東京都あきる野市瀬戸岡511","lat":35.736947,"lon":139.29544},{"name":"五日市の市神様","province":"東京都","city":"あきる野市","address":"東京都あきる野市五日市110-1","lat":35.727874,"lon":139.222259},{"name":"二宮神社の算額絵馬","province":"東京都","city":"あきる野市","address":"東京都あきる野市五日市920-1","lat":35.728429,"lon":139.216982},{"name":"渕上の石積井戸","province":"東京都","city":"あきる野市","address":"東京都あきる野市渕上330","lat":35.722648,"lon":139.273418},{"name":"石神遺跡","province":"東京都","city":"あきる野市","address":"東京都あきる野市原小宮1-18","lat":35.734247,"lon":139.29906},{"name":"玉泉寺のエノキ","province":"東京都","city":"あきる野市","address":"東京都あきる野市二宮2265","lat":35.728962,"lon":139.31395},{"name":"戸田家のクスノキ","province":"東京都","city":"あきる野市","address":"東京都あきる野市二宮2259","lat":35.728768,"lon":139.314675},{"name":"二宮神社のフジ","province":"東京都","city":"あきる野市","address":"東京都あきる野市二宮1189","lat":35.726873,"lon":139.3136},{"name":"二宮神社のヤナギ","province":"東京都","city":"あきる野市","address":"東京都あきる野市二宮1189","lat":35.726873,"lon":139.3136},{"name":"杉田家のタワラグミ","province":"東京都","city":"あきる野市","address":"東京都あきる野市二宮2431","lat":35.729309,"lon":139.319189},{"name":"法林寺のシラカシ","province":"東京都","city":"あきる野市","address":"東京都あきる野市小川東2-12-10","lat":35.719216,"lon":139.319956},{"name":"熊野神社のケヤキ","province":"東京都","city":"あきる野市","address":"東京都あきる野市小川639","lat":35.721305,"lon":139.317081},{"name":"地蔵院のカヤ","province":"東京都","city":"あきる野市","address":"東京都あきる野市雨間1101","lat":35.721535,"lon":139.300441},{"name":"真城寺のシダレザクラ","province":"東京都","city":"あきる野市","address":"東京都あきる野市上代継344","lat":35.723012,"lon":139.278595},{"name":"秋川神明社のスギ","province":"東京都","city":"あきる野市","address":"東京都あきる野市牛沼88","lat":35.718485,"lon":139.285759},{"name":"正勝神社のサカキ","province":"東京都","city":"あきる野市","address":"東京都あきる野市菅生1819","lat":35.757397,"lon":139.277758},{"name":"堀部家のイトヒバ","province":"東京都","city":"あきる野市","address":"東京都あきる野市小川469","lat":35.717425,"lon":139.313951},{"name":"小山家のツルウメモドキ","province":"東京都","city":"あきる野市","address":"東京都あきる野市草花720","lat":35.738491,"lon":139.306901},{"name":"五柱神社のスギ","province":"東京都","city":"あきる野市","address":"東京都あきる野市養沢1392","lat":35.732043,"lon":139.180863},{"name":"山抱きの大カシ（ウラジロガシ）","province":"東京都","city":"あきる野市","address":"東京都あきる野市深沢472","lat":35.750161,"lon":139.205403},{"name":"森田家住宅主屋","province":"東京都","city":"あきる野市","address":"東京都あきる野市小川633-1","lat":35.721158,"lon":139.316364},{"name":"森田家住宅見世蔵","province":"東京都","city":"あきる野市","address":"東京都あきる野市小川633-1","lat":35.721158,"lon":139.316364},{"name":"森田家住宅前の蔵","province":"東京都","city":"あきる野市","address":"東京都あきる野市小川633-1","lat":35.721158,"lon":139.316364},{"name":"森田家住宅味噌蔵","province":"東京都","city":"あきる野市","address":"東京都あきる野市小川633-1","lat":35.721158,"lon":139.316364},{"name":"森田家住宅西蔵","province":"東京都","city":"あきる野市","address":"東京都あきる野市小川633-1","lat":35.721158,"lon":139.316364},{"name":"森田家住宅旧米蔵","province":"東京都","city":"あきる野市","address":"東京都あきる野市小川633-1","lat":35.721158,"lon":139.316364},{"name":"森田家住宅御看経堂","province":"東京都","city":"あきる野市","address":"東京都あきる野市小川633-1","lat":35.721158,"lon":139.316364},{"name":"森田家住宅門","province":"東京都","city":"あきる野市","address":"東京都あきる野市小川633-1","lat":35.721158,"lon":139.316364},{"name":"森田家住宅板塀","province":"東京都","city":"あきる野市","address":"東京都あきる野市小川633-1","lat":35.721158,"lon":139.316364},{"name":"増戸保育園","province":"東京都","city":"あきる野市","address":"あきる野市横沢134","lat":35.7345,"lon":139.23906},{"name":"誠和保育園","province":"東京都","city":"あきる野市","address":"あきる野市山田880","lat":35.72614,"lon":139.25955},{"name":"光明第六保育園","province":"東京都","city":"あきる野市","address":"あきる野市留原50","lat":35.72584,"lon":139.2328},{"name":"五日市保育園","province":"東京都","city":"あきる野市","address":"あきる野市五日市345","lat":35.73145,"lon":139.22261},{"name":"五日市わかば保育園","province":"東京都","city":"あきる野市","address":"あきる野市五日市98","lat":35.72849,"lon":139.22421},{"name":"すぎの子保育園","province":"東京都","city":"あきる野市","address":"あきる野市戸倉783","lat":35.73081,"lon":139.19795},{"name":"草花保育園","province":"東京都","city":"あきる野市","address":"あきる野市草花3056","lat":35.73984,"lon":139.30397},{"name":"神明保育園","province":"東京都","city":"あきる野市","address":"あきる野市瀬戸岡446","lat":35.73779,"lon":139.2878},{"name":"あきる野こどもの家","province":"東京都","city":"あきる野市","address":"あきる野市秋川三丁目7-9","lat":35.73357,"lon":139.28505},{"name":"秋川あすなろ保育園","province":"東京都","city":"あきる野市","address":"あきる野市原小宮二丁目6-6","lat":35.73383,"lon":139.3015},{"name":"屋城保育園","province":"東京都","city":"あきる野市","address":"あきる野市二宮東一丁目12-9","lat":35.72395,"lon":139.32265},{"name":"東秋留保育園","province":"東京都","city":"あきる野市","address":"あきる野市野辺1104","lat":35.72417,"lon":139.30569},{"name":"よつぎ第一保育園","province":"東京都","city":"あきる野市","address":"あきる野市雨間1067-6","lat":35.72025,"lon":139.29865},{"name":"よつぎ第二保育園","province":"東京都","city":"あきる野市","address":"あきる野市上代継218-1","lat":35.72375,"lon":139.27806},{"name":"西秋留保育園","province":"東京都","city":"あきる野市","address":"あきる野市上代継300","lat":35.72325,"lon":139.27663},{"name":"社会福祉法人緑水会精神障害者地域生活支援センターフィレ","province":"東京都","city":"あきる野市","address":"東京都あきる野市二宮670-5","lat":35.72939777,"lon":139.30240956},{"name":"一般社団法人こーゆうネットワーク就労継続支援Ｂ型事業所こーゆうハウス","province":"東京都","city":"あきる野市","address":"東京都あきる野市雨間322-12","lat":35.72840562,"lon":139.28494449},{"name":"よつぎ第二保育園","province":"東京都","city":"あきる野市","address":"あきる野市上代継218-1","lat":35.727583,"lon":139.279001},{"name":"東秋留保育園","province":"東京都","city":"あきる野市","address":"あきる野市野辺1104","lat":35.72417,"lon":139.3057},{"name":"よつぎ第二保育園","province":"東京都","city":"あきる野市","address":"あきる野市上代継218-1","lat":35.72861,"lon":139.28226},{"name":"秋留台給水所","province":"東京都","city":"あきる野市","address":"東京都あきる野市秋川3丁目2-10","lat":35.73175243,"lon":139.28428611},{"name":"上代継浄水所","province":"東京都","city":"あきる野市","address":"東京都あきる野市上代継407","lat":35.71915367,"lon":139.2783759},{"name":"戸倉給水所","province":"東京都","city":"あきる野市","address":"東京都あきる野市戸倉348-1","lat":35.72646632,"lon":139.20192062},{"name":"伊奈配水所","province":"東京都","city":"あきる野市","address":"東京都あきる野市伊奈372-3","lat":35.7348678,"lon":139.25221118},{"name":"学校法人菅生学園初等学校校庭","province":"東京都","city":"あきる野市","address":"東京都あきる野市菅生1468","lat":35.7561553,"lon":139.28712116},{"name":"市民運動場","province":"東京都","city":"あきる野市","address":"東京都あきる野市二宮683","lat":35.73040042,"lon":139.30224009},{"name":"あきる野市立小和田グラウンド","province":"東京都","city":"あきる野市","address":"東京都あきる野市小和田8","lat":35.72234618,"lon":139.22531468},{"name":"富士通株式会社あきる野テクノロジーセンター駐車場","province":"東京都","city":"あきる野市","address":"東京都あきる野市渕上50","lat":35.73065782,"lon":139.27354552},{"name":"五日市カントリー","province":"東京都","city":"あきる野市","address":"東京都あきる野市網代745","lat":35.71640895,"lon":139.25022007},{"name":"立川国際カントリー","province":"東京都","city":"あきる野市","address":"東京都あきる野市草花2390","lat":35.75056749,"lon":139.30485031},{"name":"都立秋留台公園陸上競技場","province":"東京都","city":"あきる野市","address":"東京都あきる野市二宮","lat":35.72746496,"lon":139.31077004},{"name":"あきる野市選挙管理委員会","province":"東京都","city":"あきる野市","address":"あきる野市二宮350番地あきる野市役所内","lat":35.728894,"lon":139.294115},{"name":"秋留台高等学校","province":"東京都","city":"あきる野市","address":"東京都あきる野市平沢153-4","lat":35.73220291,"lon":139.30067627},{"name":"五日市高等学校","province":"東京都","city":"あきる野市","address":"東京都あきる野市五日市894","lat":35.72940142,"lon":139.21780665},{"name":"あきる野市本庁舎","province":"東京都","city":"あきる野市","address":"東京都あきる野市二宮350","lat":35.72920304,"lon":139.29349922},{"name":"あきる野市本庁舎","province":"東京都","city":"あきる野市","address":"あきる野市二宮350","lat":35.729114,"lon":139.293511},{"name":"※あきる野市本庁舎","province":"東京都","city":"あきる野市","address":"東京都あきる野市二宮350","lat":35.72920304,"lon":139.29349922},{"name":"増戸保育園","province":"東京都","city":"あきる野市","address":"あきる野市横沢134","lat":35.732374,"lon":139.241529},{"name":"誠和保育園","province":"東京都","city":"あきる野市","address":"あきる野市山田880","lat":35.725719,"lon":139.259691},{"name":"光明第六保育園","province":"東京都","city":"あきる野市","address":"あきる野市留原50","lat":35.723251,"lon":139.234511},{"name":"五日市保育園","province":"東京都","city":"あきる野市","address":"あきる野市五日市345","lat":35.731079,"lon":139.223733},{"name":"五日市わかば保育園","province":"東京都","city":"あきる野市","address":"あきる野市五日市98","lat":35.728829,"lon":139.224759},{"name":"すぎの子保育園","province":"東京都","city":"あきる野市","address":"あきる野市戸倉783","lat":35.731208,"lon":139.197998},{"name":"草花保育園","province":"東京都","city":"あきる野市","address":"あきる野市草花3056","lat":35.739188,"lon":139.30327},{"name":"神明保育園","province":"東京都","city":"あきる野市","address":"あきる野市瀬戸岡446","lat":35.738093,"lon":139.288399},{"name":"あきる野こどもの家","province":"東京都","city":"あきる野市","address":"あきる野市秋川三丁目7-9","lat":35.733474,"lon":139.284453},{"name":"秋川あすなろ保育園","province":"東京都","city":"あきる野市","address":"あきる野市原小宮二丁目6-6","lat":35.734006,"lon":139.301604},{"name":"屋城保育園","province":"東京都","city":"あきる野市","address":"あきる野市二宮東一丁目12-9","lat":35.724019,"lon":139.322605},{"name":"東秋留保育園","province":"東京都","city":"あきる野市","address":"あきる野市野辺1104","lat":35.724229,"lon":139.304785},{"name":"よつぎ第一保育園","province":"東京都","city":"あきる野市","address":"あきる野市雨間1067-6","lat":35.72026,"lon":139.298144},{"name":"よつぎ第二保育園","province":"東京都","city":"あきる野市","address":"あきる野市上代継218-1","lat":35.724178,"lon":139.278059},{"name":"西秋留保育園","province":"東京都","city":"あきる野市","address":"あきる野市上代継300","lat":35.722898,"lon":139.277112},{"name":"木造伝阿弥陀如来及び脇侍　千手観世音菩薩・勢至菩薩　坐像","province":"東京都","city":"あきる野市","address":"東京都あきる野市横沢134","lat":35.732374,"lon":139.241529},{"name":"西秋留石器時代住居跡","province":"東京都","city":"あきる野市","address":"東京都あきる野市牛沼265-2","lat":35.719679,"lon":139.288819},{"name":"真照寺薬師堂","province":"東京都","city":"あきる野市","address":"東京都あきる野市引田863","lat":35.721895,"lon":139.268324},{"name":"大悲願寺本堂","province":"東京都","city":"あきる野市","address":"東京都あきる野市横沢134","lat":35.732374,"lon":139.241529},{"name":"木造釈迦如来坐像","province":"東京都","city":"あきる野市","address":"東京都あきる野市戸倉328","lat":35.725616,"lon":139.20214},{"name":"大般若経","province":"東京都","city":"あきる野市","address":"東京都あきる野市横沢134","lat":35.732374,"lon":139.241529},{"name":"旧多摩郡油平村名主中村家文書","province":"東京都","city":"あきる野市","address":"東京都あきる野市五日市920-1","lat":35.728429,"lon":139.216982},{"name":"大悲願寺文書","province":"東京都","city":"あきる野市","address":"東京都あきる野市横沢134","lat":35.732374,"lon":139.241529},{"name":"五日市憲法草案","province":"東京都","city":"あきる野市","address":"東京都あきる野市秋川1-16-2","lat":35.730708,"lon":139.288733},{"name":"田中丘隅回向墓","province":"東京都","city":"あきる野市","address":"東京都あきる野市平沢732","lat":35.730489,"lon":139.315052},{"name":"軍道紙","province":"東京都","city":"あきる野市","address":"東京都あきる野市乙津266・あきる野市乙津671","lat":35.728618,"lon":139.187666},{"name":"菅生の組立舞台","province":"東京都","city":"あきる野市","address":"東京都あきる野市菅生1336","lat":35.746731,"lon":139.289732},{"name":"猿曳駒絵馬","province":"東京都","city":"あきる野市","address":"東京都あきる野市引田863","lat":35.721902,"lon":139.268241},{"name":"広徳寺境域","province":"東京都","city":"あきる野市","address":"東京都あきる野市小和田234","lat":35.721875,"lon":139.21736},{"name":"深沢家屋敷跡","province":"東京都","city":"あきる野市","address":"東京都あきる野市深沢7","lat":35.750161,"lon":139.205403},{"name":"前田耕地遺跡","province":"東京都","city":"あきる野市","address":"東京都あきる野市野辺1-1他","lat":35.723982,"lon":139.316109},{"name":"戸倉城跡","province":"東京都","city":"あきる野市","address":"東京都あきる野市戸倉328-1他","lat":35.725616,"lon":139.20214},{"name":"大塚古墳","province":"東京都","city":"あきる野市","address":"東京都あきる野市雨間232","lat":35.727323,"lon":139.289955},{"name":"二宮神社並びに城跡","province":"東京都","city":"あきる野市","address":"東京都あきる野市二宮2252","lat":35.726873,"lon":139.3136},{"name":"草花石器時代住居跡","province":"東京都","city":"あきる野市","address":"東京都あきる野市草花1371","lat":35.740299,"lon":139.30717},{"name":"羽ケ田石器時代住居跡","province":"東京都","city":"あきる野市","address":"東京都あきる野市草花2859・あきる野市草花2865","lat":35.74156,"lon":139.298237},{"name":"奥御岳景園地","province":"東京都","city":"あきる野市","address":"東京都あきる野市養沢1600-5他","lat":35.752585,"lon":139.180715},{"name":"広徳寺のタラヨウ","province":"東京都","city":"あきる野市","address":"東京都あきる野市小和田234","lat":35.721875,"lon":139.21736},{"name":"広徳寺のカヤ","province":"東京都","city":"あきる野市","address":"東京都あきる野市小和田234","lat":35.721875,"lon":139.21736},{"name":"大岳鍾乳洞","province":"東京都","city":"あきる野市","address":"東京都あきる野市養沢1587","lat":35.76245,"lon":139.155758},{"name":"南沢の鳥ノ巣石灰岩産地","province":"東京都","city":"あきる野市","address":"東京都あきる野市深沢376他","lat":35.750161,"lon":139.205403},{"name":"六枚屏風岩","province":"東京都","city":"あきる野市","address":"東京都あきる野市引田1774","lat":35.724439,"lon":139.268021},{"name":"慈勝寺のモッコク","province":"東京都","city":"あきる野市","address":"東京都あきる野市草花1811","lat":35.741641,"lon":139.312086},{"name":"光厳寺のヤマザクラ","province":"東京都","city":"あきる野市","address":"東京都あきる野市戸倉2102のイ他","lat":35.727333,"lon":139.205064},{"name":"地蔵院のカゴノキ","province":"東京都","city":"あきる野市","address":"東京都あきる野市雨間1109","lat":35.727323,"lon":139.289955},{"name":"広徳寺総門","province":"東京都","city":"あきる野市","address":"東京都あきる野市小和田234","lat":35.721875,"lon":139.21736},{"name":"広徳寺山門","province":"東京都","city":"あきる野市","address":"東京都あきる野市小和田234","lat":35.721875,"lon":139.21736},{"name":"開光院本堂・庫裏","province":"東京都","city":"あきる野市","address":"東京都あきる野市五日市691","lat":35.73111,"lon":139.216043},{"name":"三島神社本殿","province":"東京都","city":"あきる野市","address":"東京都あきる野市戸倉414","lat":35.726675,"lon":139.200724},{"name":"武多摩神社本殿","province":"東京都","city":"あきる野市","address":"東京都あきる野市戸倉414","lat":35.726675,"lon":139.200724},{"name":"八雲神社の五輪塔","province":"東京都","city":"あきる野市","address":"東京都あきる野市野辺316","lat":35.722927,"lon":139.311798},{"name":"花蔵院の山門","province":"東京都","city":"あきる野市","address":"東京都あきる野市草花1740","lat":35.742505,"lon":139.309853},{"name":"真照寺の山門","province":"東京都","city":"あきる野市","address":"東京都あきる野市引田863","lat":35.721895,"lon":139.268324},{"name":"福徳寺の山門","province":"東京都","city":"あきる野市","address":"東京都あきる野市油平246","lat":35.732374,"lon":139.241529},{"name":"大悲願寺観音堂","province":"東京都","city":"あきる野市","address":"東京都あきる野市横沢134","lat":35.732374,"lon":139.241529},{"name":"大悲願寺楼門（仁王門）","province":"東京都","city":"あきる野市","address":"東京都あきる野市横沢134","lat":35.732374,"lon":139.241529},{"name":"大悲願寺中門（朱雀門）","province":"東京都","city":"あきる野市","address":"東京都あきる野市横沢134","lat":35.732374,"lon":139.241529},{"name":"旧市倉家住宅","province":"東京都","city":"あきる野市","address":"東京都あきる野市五日市920-1","lat":35.728429,"lon":139.216982},{"name":"二宮神社本殿","province":"東京都","city":"あきる野市","address":"東京都あきる野市二宮2252","lat":35.726873,"lon":139.3136},{"name":"二宮神社宮殿","province":"東京都","city":"あきる野市","address":"東京都あきる野市二宮2252","lat":35.726873,"lon":139.3136},{"name":"雨武主神社本殿","province":"東京都","city":"あきる野市","address":"東京都あきる野市雨間1941","lat":35.714377,"lon":139.291836},{"name":"子生神社本殿","province":"東京都","city":"あきる野市","address":"東京都あきる野市小中野187","lat":35.725927,"lon":139.209386},{"name":"森山神社本殿","province":"東京都","city":"あきる野市","address":"東京都あきる野市草花275","lat":35.731654,"lon":139.318895},{"name":"阿伎留神社年中十二祭神事絵巻","province":"東京都","city":"あきる野市","address":"東京都あきる野市五日市1081","lat":35.725279,"lon":139.222695},{"name":"光厳寺絹本着色仏涅槃図","province":"東京都","city":"あきる野市","address":"東京都あきる野市戸倉328","lat":35.725616,"lon":139.20214},{"name":"大悲願寺仁王門天井絵","province":"東京都","city":"あきる野市","address":"東京都あきる野市横沢134","lat":35.732374,"lon":139.241529},{"name":"玉林寺本堂天井絵","province":"東京都","city":"あきる野市","address":"東京都あきる野市五日市926","lat":35.72706,"lon":139.217626},{"name":"光厳寺扁額","province":"東京都","city":"あきる野市","address":"東京都あきる野市戸倉328","lat":35.725616,"lon":139.20214},{"name":"貴志嶋神社石造大黒天像","province":"東京都","city":"あきる野市","address":"東京都あきる野市網代83","lat":35.721389,"lon":139.247309},{"name":"大悲願寺懐中仏","province":"東京都","city":"あきる野市","address":"東京都あきる野市横沢134","lat":35.732374,"lon":139.241529},{"name":"東町観音堂木造阿弥陀如来坐像","province":"東京都","city":"あきる野市","address":"東京都あきる野市五日市164","lat":35.729956,"lon":139.225992},{"name":"広徳寺山門木造十六羅漢像","province":"東京都","city":"あきる野市","address":"東京都あきる野市小和田234","lat":35.721875,"lon":139.21736},{"name":"楞厳寺薬師堂木造十二神将立像","province":"東京都","city":"あきる野市","address":"東京都あきる野市五日市576","lat":35.732515,"lon":139.214976},{"name":"足利尊氏坐像","province":"東京都","city":"あきる野市","address":"東京都あきる野市山田496","lat":35.723983,"lon":139.254575},{"name":"広徳寺本尊聖観音像","province":"東京都","city":"あきる野市","address":"東京都あきる野市小和田234","lat":35.721875,"lon":139.21736},{"name":"福徳寺の五輪六地蔵及び中尊","province":"東京都","city":"あきる野市","address":"東京都あきる野市油平246","lat":35.722306,"lon":139.286411},{"name":"大悲願寺の五輪地蔵","province":"東京都","city":"あきる野市","address":"東京都あきる野市横沢134","lat":35.732374,"lon":139.241529},{"name":"春日明神社和鏡","province":"東京都","city":"あきる野市","address":"東京都あきる野市乙津425","lat":35.730352,"lon":139.187268},{"name":"阿伎留神社懸仏台盤","province":"東京都","city":"あきる野市","address":"東京都あきる野市五日市1081","lat":35.725279,"lon":139.222695},{"name":"大悲願寺六角宝幢式経筒","province":"東京都","city":"あきる野市","address":"東京都あきる野市横沢134","lat":35.732374,"lon":139.241529},{"name":"大悲願寺梵鐘","province":"東京都","city":"あきる野市","address":"東京都あきる野市横沢134","lat":35.732374,"lon":139.241529},{"name":"三島神社石棒","province":"東京都","city":"あきる野市","address":"東京都あきる野市二宮1151","lat":35.727373,"lon":139.313475},{"name":"土製耳飾","province":"東京都","city":"あきる野市","address":"東京都あきる野市五日市920-1","lat":35.728429,"lon":139.216982},{"name":"縄文式壺型土器","province":"東京都","city":"あきる野市","address":"東京都あきる野市五日市920-1","lat":35.728429,"lon":139.216982},{"name":"縄文式釣手土器","province":"東京都","city":"あきる野市","address":"東京都あきる野市五日市920-1","lat":35.728429,"lon":139.216982},{"name":"五領式土器","province":"東京都","city":"あきる野市","address":"東京都あきる野市五日市920-1","lat":35.728429,"lon":139.216982},{"name":"雨間地区遺跡群出土の旧石器時代石器群","province":"東京都","city":"あきる野市","address":"東京都あきる野市二宮1151","lat":35.727373,"lon":139.313475},{"name":"大六天遺跡出土の石棒","province":"東京都","city":"あきる野市","address":"東京都あきる野市二宮1151","lat":35.727373,"lon":139.313475},{"name":"如環版木活字並びに活版本","province":"東京都","city":"あきる野市","address":"東京都あきる野市横沢134","lat":35.732374,"lon":139.241529},{"name":"武州南一揆文書","province":"東京都","city":"あきる野市","address":"東京都あきる野市五日市920-1","lat":35.727373,"lon":139.313475},{"name":"武州南一揆文書","province":"東京都","city":"あきる野市","address":"東京都あきる野市五日市1081","lat":35.725279,"lon":139.222695},{"name":"後北条氏虎印文書","province":"東京都","city":"あきる野市","address":"東京都あきる野市小和田234","lat":35.721875,"lon":139.21736},{"name":"後北条氏虎印文書","province":"東京都","city":"あきる野市","address":"東京都あきる野市五日市920-1","lat":35.728429,"lon":139.216982},{"name":"大悲願寺棟札","province":"東京都","city":"あきる野市","address":"東京都あきる野市横沢134","lat":35.732374,"lon":139.241529},{"name":"瑞雲寺板碑","province":"東京都","city":"あきる野市","address":"東京都あきる野市山田496","lat":35.723983,"lon":139.254575},{"name":"大悲願寺井戸枠","province":"東京都","city":"あきる野市","address":"東京都あきる野市横沢134","lat":35.732374,"lon":139.241529},{"name":"ところ芋の碑","province":"東京都","city":"あきる野市","address":"東京都あきる野市戸倉328","lat":35.725616,"lon":139.20214},{"name":"百番供養塔","province":"東京都","city":"あきる野市","address":"東京都あきる野市留原209","lat":35.722399,"lon":139.229384},{"name":"御嶽神社の懸仏","province":"東京都","city":"あきる野市","address":"東京都あきる野市小和田531","lat":35.721169,"lon":139.223449},{"name":"地蔵院の板碑","province":"東京都","city":"あきる野市","address":"東京都あきる野市雨間1101","lat":35.721535,"lon":139.300441},{"name":"福泉寺の板碑","province":"東京都","city":"あきる野市","address":"東京都あきる野市菅生629","lat":35.746731,"lon":139.289732},{"name":"塩野家の板碑","province":"東京都","city":"あきる野市","address":"東京都あきる野市二宮1151","lat":35.727373,"lon":139.313475},{"name":"東郷前の板碑","province":"東京都","city":"あきる野市","address":"東京都あきる野市二宮1151","lat":35.727373,"lon":139.313475},{"name":"珠陽院の巳待供養塔","province":"東京都","city":"あきる野市","address":"東京都あきる野市瀬戸岡511","lat":35.736947,"lon":139.29544},{"name":"五日市の市神様","province":"東京都","city":"あきる野市","address":"東京都あきる野市五日市110-1","lat":35.727874,"lon":139.222259},{"name":"二宮神社の算額絵馬","province":"東京都","city":"あきる野市","address":"東京都あきる野市五日市920-1","lat":35.728429,"lon":139.216982},{"name":"渕上の石積井戸","province":"東京都","city":"あきる野市","address":"東京都あきる野市渕上330","lat":35.722648,"lon":139.273418},{"name":"石神遺跡","province":"東京都","city":"あきる野市","address":"東京都あきる野市原小宮1-18","lat":35.734247,"lon":139.29906},{"name":"玉泉寺のエノキ","province":"東京都","city":"あきる野市","address":"東京都あきる野市二宮2265","lat":35.728962,"lon":139.31395},{"name":"戸田家のクスノキ","province":"東京都","city":"あきる野市","address":"東京都あきる野市二宮2259","lat":35.728768,"lon":139.314675},{"name":"二宮神社のフジ","province":"東京都","city":"あきる野市","address":"東京都あきる野市二宮1189","lat":35.726873,"lon":139.3136},{"name":"二宮神社のヤナギ","province":"東京都","city":"あきる野市","address":"東京都あきる野市二宮1189","lat":35.726873,"lon":139.3136},{"name":"杉田家のタワラグミ","province":"東京都","city":"あきる野市","address":"東京都あきる野市二宮2431","lat":35.729309,"lon":139.319189},{"name":"法林寺のシラカシ","province":"東京都","city":"あきる野市","address":"東京都あきる野市小川東2-12-10","lat":35.719216,"lon":139.319956},{"name":"熊野神社のケヤキ","province":"東京都","city":"あきる野市","address":"東京都あきる野市小川639","lat":35.721305,"lon":139.317081},{"name":"地蔵院のカヤ","province":"東京都","city":"あきる野市","address":"東京都あきる野市雨間1101","lat":35.721535,"lon":139.300441},{"name":"真城寺のシダレザクラ","province":"東京都","city":"あきる野市","address":"東京都あきる野市上代継344","lat":35.723012,"lon":139.278595},{"name":"秋川神明社のスギ","province":"東京都","city":"あきる野市","address":"東京都あきる野市牛沼88","lat":35.718485,"lon":139.285759},{"name":"正勝神社のサカキ","province":"東京都","city":"あきる野市","address":"東京都あきる野市菅生1819","lat":35.757397,"lon":139.277758},{"name":"堀部家のイトヒバ","province":"東京都","city":"あきる野市","address":"東京都あきる野市小川469","lat":35.717425,"lon":139.313951},{"name":"小山家のツルウメモドキ","province":"東京都","city":"あきる野市","address":"東京都あきる野市草花720","lat":35.738491,"lon":139.306901},{"name":"五柱神社のスギ","province":"東京都","city":"あきる野市","address":"東京都あきる野市養沢1392","lat":35.732043,"lon":139.180863},{"name":"山抱きの大カシ（ウラジロガシ）","province":"東京都","city":"あきる野市","address":"東京都あきる野市深沢472","lat":35.750161,"lon":139.205403},{"name":"森田家住宅主屋","province":"東京都","city":"あきる野市","address":"東京都あきる野市小川633-1","lat":35.721158,"lon":139.316364},{"name":"森田家住宅見世蔵","province":"東京都","city":"あきる野市","address":"東京都あきる野市小川633-1","lat":35.721158,"lon":139.316364},{"name":"森田家住宅前の蔵","province":"東京都","city":"あきる野市","address":"東京都あきる野市小川633-1","lat":35.721158,"lon":139.316364},{"name":"森田家住宅味噌蔵","province":"東京都","city":"あきる野市","address":"東京都あきる野市小川633-1","lat":35.721158,"lon":139.316364},{"name":"森田家住宅西蔵","province":"東京都","city":"あきる野市","address":"東京都あきる野市小川633-1","lat":35.721158,"lon":139.316364},{"name":"森田家住宅旧米蔵","province":"東京都","city":"あきる野市","address":"東京都あきる野市小川633-1","lat":35.721158,"lon":139.316364},{"name":"森田家住宅御看経堂","province":"東京都","city":"あきる野市","address":"東京都あきる野市小川633-1","lat":35.721158,"lon":139.316364},{"name":"森田家住宅門","province":"東京都","city":"あきる野市","address":"東京都あきる野市小川633-1","lat":35.721158,"lon":139.316364},{"name":"森田家住宅板塀","province":"東京都","city":"あきる野市","address":"東京都あきる野市小川633-1","lat":35.721158,"lon":139.316364},{"name":"増戸保育園","province":"東京都","city":"あきる野市","address":"あきる野市横沢134","lat":35.7345,"lon":139.23906},{"name":"誠和保育園","province":"東京都","city":"あきる野市","address":"あきる野市山田880","lat":35.72614,"lon":139.25955},{"name":"光明第六保育園","province":"東京都","city":"あきる野市","address":"あきる野市留原50","lat":35.72584,"lon":139.2328},{"name":"五日市保育園","province":"東京都","city":"あきる野市","address":"あきる野市五日市345","lat":35.73145,"lon":139.22261},{"name":"五日市わかば保育園","province":"東京都","city":"あきる野市","address":"あきる野市五日市98","lat":35.72849,"lon":139.22421},{"name":"すぎの子保育園","province":"東京都","city":"あきる野市","address":"あきる野市戸倉783","lat":35.73081,"lon":139.19795},{"name":"草花保育園","province":"東京都","city":"あきる野市","address":"あきる野市草花3056","lat":35.73984,"lon":139.30397},{"name":"神明保育園","province":"東京都","city":"あきる野市","address":"あきる野市瀬戸岡446","lat":35.73779,"lon":139.2878},{"name":"あきる野こどもの家","province":"東京都","city":"あきる野市","address":"あきる野市秋川三丁目7-9","lat":35.73357,"lon":139.28505},{"name":"秋川あすなろ保育園","province":"東京都","city":"あきる野市","address":"あきる野市原小宮二丁目6-6","lat":35.73383,"lon":139.3015},{"name":"屋城保育園","province":"東京都","city":"あきる野市","address":"あきる野市二宮東一丁目12-9","lat":35.72395,"lon":139.32265},{"name":"東秋留保育園","province":"東京都","city":"あきる野市","address":"あきる野市野辺1104","lat":35.72417,"lon":139.30569},{"name":"よつぎ第一保育園","province":"東京都","city":"あきる野市","address":"あきる野市雨間1067-6","lat":35.72025,"lon":139.29865},{"name":"よつぎ第二保育園","province":"東京都","city":"あきる野市","address":"あきる野市上代継218-1","lat":35.72375,"lon":139.27806},{"name":"西秋留保育園","province":"東京都","city":"あきる野市","address":"あきる野市上代継300","lat":35.72325,"lon":139.27663},{"name":"社会福祉法人緑水会精神障害者地域生活支援センターフィレ","province":"東京都","city":"あきる野市","address":"東京都あきる野市二宮670-5","lat":35.72939777,"lon":139.30240956},{"name":"一般社団法人こーゆうネットワーク就労継続支援Ｂ型事業所こーゆうハウス","province":"東京都","city":"あきる野市","address":"東京都あきる野市雨間322-12","lat":35.72840562,"lon":139.28494449},{"name":"よつぎ第二保育園","province":"東京都","city":"あきる野市","address":"あきる野市上代継218-1","lat":35.727583,"lon":139.279001},{"name":"東秋留保育園","province":"東京都","city":"あきる野市","address":"あきる野市野辺1104","lat":35.72417,"lon":139.3057},{"name":"よつぎ第二保育園","province":"東京都","city":"あきる野市","address":"あきる野市上代継218-1","lat":35.72861,"lon":139.28226},{"name":"あきる野市本庁舎","province":"東京都","city":"あきる野市","address":"東京都あきる野市二宮350","lat":35.72920304,"lon":139.29349922},{"name":"あきる野市本庁舎","province":"東京都","city":"あきる野市","address":"あきる野市二宮350","lat":35.729114,"lon":139.293511},{"name":"※あきる野市本庁舎","province":"東京都","city":"あきる野市","address":"東京都あきる野市二宮350","lat":35.72920304,"lon":139.29349922},{"name":"増戸保育園","province":"東京都","city":"あきる野市","address":"あきる野市横沢134","lat":35.732374,"lon":139.241529},{"name":"誠和保育園","province":"東京都","city":"あきる野市","address":"あきる野市山田880","lat":35.725719,"lon":139.259691},{"name":"光明第六保育園","province":"東京都","city":"あきる野市","address":"あきる野市留原50","lat":35.723251,"lon":139.234511},{"name":"五日市保育園","province":"東京都","city":"あきる野市","address":"あきる野市五日市345","lat":35.731079,"lon":139.223733},{"name":"五日市わかば保育園","province":"東京都","city":"あきる野市","address":"あきる野市五日市98","lat":35.728829,"lon":139.224759},{"name":"すぎの子保育園","province":"東京都","city":"あきる野市","address":"あきる野市戸倉783","lat":35.731208,"lon":139.197998},{"name":"草花保育園","province":"東京都","city":"あきる野市","address":"あきる野市草花3056","lat":35.739188,"lon":139.30327},{"name":"神明保育園","province":"東京都","city":"あきる野市","address":"あきる野市瀬戸岡446","lat":35.738093,"lon":139.288399},{"name":"あきる野こどもの家","province":"東京都","city":"あきる野市","address":"あきる野市秋川三丁目7-9","lat":35.733474,"lon":139.284453},{"name":"秋川あすなろ保育園","province":"東京都","city":"あきる野市","address":"あきる野市原小宮二丁目6-6","lat":35.734006,"lon":139.301604},{"name":"屋城保育園","province":"東京都","city":"あきる野市","address":"あきる野市二宮東一丁目12-9","lat":35.724019,"lon":139.322605},{"name":"東秋留保育園","province":"東京都","city":"あきる野市","address":"あきる野市野辺1104","lat":35.724229,"lon":139.304785},{"name":"よつぎ第一保育園","province":"東京都","city":"あきる野市","address":"あきる野市雨間1067-6","lat":35.72026,"lon":139.298144},{"name":"よつぎ第二保育園","province":"東京都","city":"あきる野市","address":"あきる野市上代継218-1","lat":35.724178,"lon":139.278059},{"name":"西秋留保育園","province":"東京都","city":"あきる野市","address":"あきる野市上代継300","lat":35.722898,"lon":139.277112},{"name":"木造伝阿弥陀如来及び脇侍　千手観世音菩薩・勢至菩薩　坐像","province":"東京都","city":"あきる野市","address":"東京都あきる野市横沢134","lat":35.732374,"lon":139.241529},{"name":"西秋留石器時代住居跡","province":"東京都","city":"あきる野市","address":"東京都あきる野市牛沼265-2","lat":35.719679,"lon":139.288819},{"name":"真照寺薬師堂","province":"東京都","city":"あきる野市","address":"東京都あきる野市引田863","lat":35.721895,"lon":139.268324},{"name":"大悲願寺本堂","province":"東京都","city":"あきる野市","address":"東京都あきる野市横沢134","lat":35.732374,"lon":139.241529},{"name":"木造釈迦如来坐像","province":"東京都","city":"あきる野市","address":"東京都あきる野市戸倉328","lat":35.725616,"lon":139.20214},{"name":"大般若経","province":"東京都","city":"あきる野市","address":"東京都あきる野市横沢134","lat":35.732374,"lon":139.241529},{"name":"旧多摩郡油平村名主中村家文書","province":"東京都","city":"あきる野市","address":"東京都あきる野市五日市920-1","lat":35.728429,"lon":139.216982},{"name":"大悲願寺文書","province":"東京都","city":"あきる野市","address":"東京都あきる野市横沢134","lat":35.732374,"lon":139.241529},{"name":"五日市憲法草案","province":"東京都","city":"あきる野市","address":"東京都あきる野市秋川1-16-2","lat":35.730708,"lon":139.288733},{"name":"田中丘隅回向墓","province":"東京都","city":"あきる野市","address":"東京都あきる野市平沢732","lat":35.730489,"lon":139.315052},{"name":"軍道紙","province":"東京都","city":"あきる野市","address":"東京都あきる野市乙津266・あきる野市乙津671","lat":35.728618,"lon":139.187666},{"name":"菅生の組立舞台","province":"東京都","city":"あきる野市","address":"東京都あきる野市菅生1336","lat":35.746731,"lon":139.289732},{"name":"猿曳駒絵馬","province":"東京都","city":"あきる野市","address":"東京都あきる野市引田863","lat":35.721902,"lon":139.268241},{"name":"広徳寺境域","province":"東京都","city":"あきる野市","address":"東京都あきる野市小和田234","lat":35.721875,"lon":139.21736},{"name":"深沢家屋敷跡","province":"東京都","city":"あきる野市","address":"東京都あきる野市深沢7","lat":35.750161,"lon":139.205403},{"name":"前田耕地遺跡","province":"東京都","city":"あきる野市","address":"東京都あきる野市野辺1-1他","lat":35.723982,"lon":139.316109},{"name":"戸倉城跡","province":"東京都","city":"あきる野市","address":"東京都あきる野市戸倉328-1他","lat":35.725616,"lon":139.20214},{"name":"大塚古墳","province":"東京都","city":"あきる野市","address":"東京都あきる野市雨間232","lat":35.727323,"lon":139.289955},{"name":"二宮神社並びに城跡","province":"東京都","city":"あきる野市","address":"東京都あきる野市二宮2252","lat":35.726873,"lon":139.3136},{"name":"草花石器時代住居跡","province":"東京都","city":"あきる野市","address":"東京都あきる野市草花1371","lat":35.740299,"lon":139.30717},{"name":"羽ケ田石器時代住居跡","province":"東京都","city":"あきる野市","address":"東京都あきる野市草花2859・あきる野市草花2865","lat":35.74156,"lon":139.298237},{"name":"奥御岳景園地","province":"東京都","city":"あきる野市","address":"東京都あきる野市養沢1600-5他","lat":35.752585,"lon":139.180715},{"name":"広徳寺のタラヨウ","province":"東京都","city":"あきる野市","address":"東京都あきる野市小和田234","lat":35.721875,"lon":139.21736},{"name":"広徳寺のカヤ","province":"東京都","city":"あきる野市","address":"東京都あきる野市小和田234","lat":35.721875,"lon":139.21736},{"name":"大岳鍾乳洞","province":"東京都","city":"あきる野市","address":"東京都あきる野市養沢1587","lat":35.76245,"lon":139.155758},{"name":"南沢の鳥ノ巣石灰岩産地","province":"東京都","city":"あきる野市","address":"東京都あきる野市深沢376他","lat":35.750161,"lon":139.205403},{"name":"六枚屏風岩","province":"東京都","city":"あきる野市","address":"東京都あきる野市引田1774","lat":35.724439,"lon":139.268021},{"name":"慈勝寺のモッコク","province":"東京都","city":"あきる野市","address":"東京都あきる野市草花1811","lat":35.741641,"lon":139.312086},{"name":"光厳寺のヤマザクラ","province":"東京都","city":"あきる野市","address":"東京都あきる野市戸倉2102のイ他","lat":35.727333,"lon":139.205064},{"name":"地蔵院のカゴノキ","province":"東京都","city":"あきる野市","address":"東京都あきる野市雨間1109","lat":35.727323,"lon":139.289955},{"name":"広徳寺総門","province":"東京都","city":"あきる野市","address":"東京都あきる野市小和田234","lat":35.721875,"lon":139.21736},{"name":"広徳寺山門","province":"東京都","city":"あきる野市","address":"東京都あきる野市小和田234","lat":35.721875,"lon":139.21736},{"name":"開光院本堂・庫裏","province":"東京都","city":"あきる野市","address":"東京都あきる野市五日市691","lat":35.73111,"lon":139.216043},{"name":"三島神社本殿","province":"東京都","city":"あきる野市","address":"東京都あきる野市戸倉414","lat":35.726675,"lon":139.200724},{"name":"武多摩神社本殿","province":"東京都","city":"あきる野市","address":"東京都あきる野市戸倉414","lat":35.726675,"lon":139.200724},{"name":"八雲神社の五輪塔","province":"東京都","city":"あきる野市","address":"東京都あきる野市野辺316","lat":35.722927,"lon":139.311798},{"name":"花蔵院の山門","province":"東京都","city":"あきる野市","address":"東京都あきる野市草花1740","lat":35.742505,"lon":139.309853},{"name":"真照寺の山門","province":"東京都","city":"あきる野市","address":"東京都あきる野市引田863","lat":35.721895,"lon":139.268324},{"name":"福徳寺の山門","province":"東京都","city":"あきる野市","address":"東京都あきる野市油平246","lat":35.732374,"lon":139.241529},{"name":"大悲願寺観音堂","province":"東京都","city":"あきる野市","address":"東京都あきる野市横沢134","lat":35.732374,"lon":139.241529},{"name":"大悲願寺楼門（仁王門）","province":"東京都","city":"あきる野市","address":"東京都あきる野市横沢134","lat":35.732374,"lon":139.241529},{"name":"大悲願寺中門（朱雀門）","province":"東京都","city":"あきる野市","address":"東京都あきる野市横沢134","lat":35.732374,"lon":139.241529},{"name":"旧市倉家住宅","province":"東京都","city":"あきる野市","address":"東京都あきる野市五日市920-1","lat":35.728429,"lon":139.216982},{"name":"二宮神社本殿","province":"東京都","city":"あきる野市","address":"東京都あきる野市二宮2252","lat":35.726873,"lon":139.3136},{"name":"二宮神社宮殿","province":"東京都","city":"あきる野市","address":"東京都あきる野市二宮2252","lat":35.726873,"lon":139.3136},{"name":"雨武主神社本殿","province":"東京都","city":"あきる野市","address":"東京都あきる野市雨間1941","lat":35.714377,"lon":139.291836},{"name":"子生神社本殿","province":"東京都","city":"あきる野市","address":"東京都あきる野市小中野187","lat":35.725927,"lon":139.209386},{"name":"森山神社本殿","province":"東京都","city":"あきる野市","address":"東京都あきる野市草花275","lat":35.731654,"lon":139.318895},{"name":"阿伎留神社年中十二祭神事絵巻","province":"東京都","city":"あきる野市","address":"東京都あきる野市五日市1081","lat":35.725279,"lon":139.222695},{"name":"光厳寺絹本着色仏涅槃図","province":"東京都","city":"あきる野市","address":"東京都あきる野市戸倉328","lat":35.725616,"lon":139.20214},{"name":"大悲願寺仁王門天井絵","province":"東京都","city":"あきる野市","address":"東京都あきる野市横沢134","lat":35.732374,"lon":139.241529},{"name":"玉林寺本堂天井絵","province":"東京都","city":"あきる野市","address":"東京都あきる野市五日市926","lat":35.72706,"lon":139.217626},{"name":"光厳寺扁額","province":"東京都","city":"あきる野市","address":"東京都あきる野市戸倉328","lat":35.725616,"lon":139.20214},{"name":"貴志嶋神社石造大黒天像","province":"東京都","city":"あきる野市","address":"東京都あきる野市網代83","lat":35.721389,"lon":139.247309},{"name":"大悲願寺懐中仏","province":"東京都","city":"あきる野市","address":"東京都あきる野市横沢134","lat":35.732374,"lon":139.241529},{"name":"東町観音堂木造阿弥陀如来坐像","province":"東京都","city":"あきる野市","address":"東京都あきる野市五日市164","lat":35.729956,"lon":139.225992},{"name":"広徳寺山門木造十六羅漢像","province":"東京都","city":"あきる野市","address":"東京都あきる野市小和田234","lat":35.721875,"lon":139.21736},{"name":"楞厳寺薬師堂木造十二神将立像","province":"東京都","city":"あきる野市","address":"東京都あきる野市五日市576","lat":35.732515,"lon":139.214976},{"name":"足利尊氏坐像","province":"東京都","city":"あきる野市","address":"東京都あきる野市山田496","lat":35.723983,"lon":139.254575},{"name":"広徳寺本尊聖観音像","province":"東京都","city":"あきる野市","address":"東京都あきる野市小和田234","lat":35.721875,"lon":139.21736},{"name":"福徳寺の五輪六地蔵及び中尊","province":"東京都","city":"あきる野市","address":"東京都あきる野市油平246","lat":35.722306,"lon":139.286411},{"name":"大悲願寺の五輪地蔵","province":"東京都","city":"あきる野市","address":"東京都あきる野市横沢134","lat":35.732374,"lon":139.241529},{"name":"春日明神社和鏡","province":"東京都","city":"あきる野市","address":"東京都あきる野市乙津425","lat":35.730352,"lon":139.187268},{"name":"阿伎留神社懸仏台盤","province":"東京都","city":"あきる野市","address":"東京都あきる野市五日市1081","lat":35.725279,"lon":139.222695},{"name":"大悲願寺六角宝幢式経筒","province":"東京都","city":"あきる野市","address":"東京都あきる野市横沢134","lat":35.732374,"lon":139.241529},{"name":"大悲願寺梵鐘","province":"東京都","city":"あきる野市","address":"東京都あきる野市横沢134","lat":35.732374,"lon":139.241529},{"name":"三島神社石棒","province":"東京都","city":"あきる野市","address":"東京都あきる野市二宮1151","lat":35.727373,"lon":139.313475},{"name":"土製耳飾","province":"東京都","city":"あきる野市","address":"東京都あきる野市五日市920-1","lat":35.728429,"lon":139.216982},{"name":"縄文式壺型土器","province":"東京都","city":"あきる野市","address":"東京都あきる野市五日市920-1","lat":35.728429,"lon":139.216982},{"name":"縄文式釣手土器","province":"東京都","city":"あきる野市","address":"東京都あきる野市五日市920-1","lat":35.728429,"lon":139.216982},{"name":"五領式土器","province":"東京都","city":"あきる野市","address":"東京都あきる野市五日市920-1","lat":35.728429,"lon":139.216982},{"name":"雨間地区遺跡群出土の旧石器時代石器群","province":"東京都","city":"あきる野市","address":"東京都あきる野市二宮1151","lat":35.727373,"lon":139.313475},{"name":"大六天遺跡出土の石棒","province":"東京都","city":"あきる野市","address":"東京都あきる野市二宮1151","lat":35.727373,"lon":139.313475},{"name":"如環版木活字並びに活版本","province":"東京都","city":"あきる野市","address":"東京都あきる野市横沢134","lat":35.732374,"lon":139.241529},{"name":"武州南一揆文書","province":"東京都","city":"あきる野市","address":"東京都あきる野市五日市920-1","lat":35.727373,"lon":139.313475},{"name":"武州南一揆文書","province":"東京都","city":"あきる野市","address":"東京都あきる野市五日市1081","lat":35.725279,"lon":139.222695},{"name":"後北条氏虎印文書","province":"東京都","city":"あきる野市","address":"東京都あきる野市小和田234","lat":35.721875,"lon":139.21736},{"name":"後北条氏虎印文書","province":"東京都","city":"あきる野市","address":"東京都あきる野市五日市920-1","lat":35.728429,"lon":139.216982},{"name":"大悲願寺棟札","province":"東京都","city":"あきる野市","address":"東京都あきる野市横沢134","lat":35.732374,"lon":139.241529},{"name":"瑞雲寺板碑","province":"東京都","city":"あきる野市","address":"東京都あきる野市山田496","lat":35.723983,"lon":139.254575},{"name":"大悲願寺井戸枠","province":"東京都","city":"あきる野市","address":"東京都あきる野市横沢134","lat":35.732374,"lon":139.241529},{"name":"ところ芋の碑","province":"東京都","city":"あきる野市","address":"東京都あきる野市戸倉328","lat":35.725616,"lon":139.20214},{"name":"百番供養塔","province":"東京都","city":"あきる野市","address":"東京都あきる野市留原209","lat":35.722399,"lon":139.229384},{"name":"御嶽神社の懸仏","province":"東京都","city":"あきる野市","address":"東京都あきる野市小和田531","lat":35.721169,"lon":139.223449},{"name":"地蔵院の板碑","province":"東京都","city":"あきる野市","address":"東京都あきる野市雨間1101","lat":35.721535,"lon":139.300441},{"name":"福泉寺の板碑","province":"東京都","city":"あきる野市","address":"東京都あきる野市菅生629","lat":35.746731,"lon":139.289732},{"name":"塩野家の板碑","province":"東京都","city":"あきる野市","address":"東京都あきる野市二宮1151","lat":35.727373,"lon":139.313475},{"name":"東郷前の板碑","province":"東京都","city":"あきる野市","address":"東京都あきる野市二宮1151","lat":35.727373,"lon":139.313475},{"name":"珠陽院の巳待供養塔","province":"東京都","city":"あきる野市","address":"東京都あきる野市瀬戸岡511","lat":35.736947,"lon":139.29544},{"name":"五日市の市神様","province":"東京都","city":"あきる野市","address":"東京都あきる野市五日市110-1","lat":35.727874,"lon":139.222259},{"name":"二宮神社の算額絵馬","province":"東京都","city":"あきる野市","address":"東京都あきる野市五日市920-1","lat":35.728429,"lon":139.216982},{"name":"渕上の石積井戸","province":"東京都","city":"あきる野市","address":"東京都あきる野市渕上330","lat":35.722648,"lon":139.273418},{"name":"石神遺跡","province":"東京都","city":"あきる野市","address":"東京都あきる野市原小宮1-18","lat":35.734247,"lon":139.29906},{"name":"玉泉寺のエノキ","province":"東京都","city":"あきる野市","address":"東京都あきる野市二宮2265","lat":35.728962,"lon":139.31395},{"name":"戸田家のクスノキ","province":"東京都","city":"あきる野市","address":"東京都あきる野市二宮2259","lat":35.728768,"lon":139.314675},{"name":"二宮神社のフジ","province":"東京都","city":"あきる野市","address":"東京都あきる野市二宮1189","lat":35.726873,"lon":139.3136},{"name":"二宮神社のヤナギ","province":"東京都","city":"あきる野市","address":"東京都あきる野市二宮1189","lat":35.726873,"lon":139.3136},{"name":"杉田家のタワラグミ","province":"東京都","city":"あきる野市","address":"東京都あきる野市二宮2431","lat":35.729309,"lon":139.319189},{"name":"法林寺のシラカシ","province":"東京都","city":"あきる野市","address":"東京都あきる野市小川東2-12-10","lat":35.719216,"lon":139.319956},{"name":"熊野神社のケヤキ","province":"東京都","city":"あきる野市","address":"東京都あきる野市小川639","lat":35.721305,"lon":139.317081},{"name":"地蔵院のカヤ","province":"東京都","city":"あきる野市","address":"東京都あきる野市雨間1101","lat":35.721535,"lon":139.300441},{"name":"真城寺のシダレザクラ","province":"東京都","city":"あきる野市","address":"東京都あきる野市上代継344","lat":35.723012,"lon":139.278595},{"name":"秋川神明社のスギ","province":"東京都","city":"あきる野市","address":"東京都あきる野市牛沼88","lat":35.718485,"lon":139.285759},{"name":"正勝神社のサカキ","province":"東京都","city":"あきる野市","address":"東京都あきる野市菅生1819","lat":35.757397,"lon":139.277758},{"name":"堀部家のイトヒバ","province":"東京都","city":"あきる野市","address":"東京都あきる野市小川469","lat":35.717425,"lon":139.313951},{"name":"小山家のツルウメモドキ","province":"東京都","city":"あきる野市","address":"東京都あきる野市草花720","lat":35.738491,"lon":139.306901},{"name":"五柱神社のスギ","province":"東京都","city":"あきる野市","address":"東京都あきる野市養沢1392","lat":35.732043,"lon":139.180863},{"name":"山抱きの大カシ（ウラジロガシ）","province":"東京都","city":"あきる野市","address":"東京都あきる野市深沢472","lat":35.750161,"lon":139.205403},{"name":"森田家住宅主屋","province":"東京都","city":"あきる野市","address":"東京都あきる野市小川633-1","lat":35.721158,"lon":139.316364},{"name":"森田家住宅見世蔵","province":"東京都","city":"あきる野市","address":"東京都あきる野市小川633-1","lat":35.721158,"lon":139.316364},{"name":"森田家住宅前の蔵","province":"東京都","city":"あきる野市","address":"東京都あきる野市小川633-1","lat":35.721158,"lon":139.316364},{"name":"森田家住宅味噌蔵","province":"東京都","city":"あきる野市","address":"東京都あきる野市小川633-1","lat":35.721158,"lon":139.316364},{"name":"森田家住宅西蔵","province":"東京都","city":"あきる野市","address":"東京都あきる野市小川633-1","lat":35.721158,"lon":139.316364},{"name":"森田家住宅旧米蔵","province":"東京都","city":"あきる野市","address":"東京都あきる野市小川633-1","lat":35.721158,"lon":139.316364},{"name":"森田家住宅御看経堂","province":"東京都","city":"あきる野市","address":"東京都あきる野市小川633-1","lat":35.721158,"lon":139.316364},{"name":"森田家住宅門","province":"東京都","city":"あきる野市","address":"東京都あきる野市小川633-1","lat":35.721158,"lon":139.316364},{"name":"森田家住宅板塀","province":"東京都","city":"あきる野市","address":"東京都あきる野市小川633-1","lat":35.721158,"lon":139.316364},{"name":"増戸保育園","province":"東京都","city":"あきる野市","address":"あきる野市横沢134","lat":35.7345,"lon":139.23906},{"name":"誠和保育園","province":"東京都","city":"あきる野市","address":"あきる野市山田880","lat":35.72614,"lon":139.25955},{"name":"光明第六保育園","province":"東京都","city":"あきる野市","address":"あきる野市留原50","lat":35.72584,"lon":139.2328},{"name":"五日市保育園","province":"東京都","city":"あきる野市","address":"あきる野市五日市345","lat":35.73145,"lon":139.22261},{"name":"五日市わかば保育園","province":"東京都","city":"あきる野市","address":"あきる野市五日市98","lat":35.72849,"lon":139.22421},{"name":"すぎの子保育園","province":"東京都","city":"あきる野市","address":"あきる野市戸倉783","lat":35.73081,"lon":139.19795},{"name":"草花保育園","province":"東京都","city":"あきる野市","address":"あきる野市草花3056","lat":35.73984,"lon":139.30397},{"name":"神明保育園","province":"東京都","city":"あきる野市","address":"あきる野市瀬戸岡446","lat":35.73779,"lon":139.2878},{"name":"あきる野こどもの家","province":"東京都","city":"あきる野市","address":"あきる野市秋川三丁目7-9","lat":35.73357,"lon":139.28505},{"name":"秋川あすなろ保育園","province":"東京都","city":"あきる野市","address":"あきる野市原小宮二丁目6-6","lat":35.73383,"lon":139.3015},{"name":"屋城保育園","province":"東京都","city":"あきる野市","address":"あきる野市二宮東一丁目12-9","lat":35.72395,"lon":139.32265},{"name":"東秋留保育園","province":"東京都","city":"あきる野市","address":"あきる野市野辺1104","lat":35.72417,"lon":139.30569},{"name":"よつぎ第一保育園","province":"東京都","city":"あきる野市","address":"あきる野市雨間1067-6","lat":35.72025,"lon":139.29865},{"name":"よつぎ第二保育園","province":"東京都","city":"あきる野市","address":"あきる野市上代継218-1","lat":35.72375,"lon":139.27806},{"name":"西秋留保育園","province":"東京都","city":"あきる野市","address":"あきる野市上代継300","lat":35.72325,"lon":139.27663},{"name":"社会福祉法人緑水会精神障害者地域生活支援センターフィレ","province":"東京都","city":"あきる野市","address":"東京都あきる野市二宮670-5","lat":35.72939777,"lon":139.30240956},{"name":"一般社団法人こーゆうネットワーク就労継続支援Ｂ型事業所こーゆうハウス","province":"東京都","city":"あきる野市","address":"東京都あきる野市雨間322-12","lat":35.72840562,"lon":139.28494449},{"name":"よつぎ第二保育園","province":"東京都","city":"あきる野市","address":"あきる野市上代継218-1","lat":35.727583,"lon":139.279001},{"name":"東秋留保育園","province":"東京都","city":"あきる野市","address":"あきる野市野辺1104","lat":35.72417,"lon":139.3057},{"name":"よつぎ第二保育園","province":"東京都","city":"あきる野市","address":"あきる野市上代継218-1","lat":35.72861,"lon":139.28226},{"name":"あきる野市本庁舎","province":"東京都","city":"あきる野市","address":"東京都あきる野市二宮350","lat":35.72920304,"lon":139.29349922},{"name":"※あきる野市本庁舎","province":"東京都","city":"あきる野市","address":"東京都あきる野市二宮350","lat":35.72920304,"lon":139.29349922},{"name":"増戸保育園","province":"東京都","city":"あきる野市","address":"あきる野市横沢134","lat":35.732374,"lon":139.241529},{"name":"誠和保育園","province":"東京都","city":"あきる野市","address":"あきる野市山田880","lat":35.725719,"lon":139.259691},{"name":"光明第六保育園","province":"東京都","city":"あきる野市","address":"あきる野市留原50","lat":35.723251,"lon":139.234511},{"name":"五日市保育園","province":"東京都","city":"あきる野市","address":"あきる野市五日市345","lat":35.731079,"lon":139.223733},{"name":"五日市わかば保育園","province":"東京都","city":"あきる野市","address":"あきる野市五日市98","lat":35.728829,"lon":139.224759},{"name":"すぎの子保育園","province":"東京都","city":"あきる野市","address":"あきる野市戸倉783","lat":35.731208,"lon":139.197998},{"name":"草花保育園","province":"東京都","city":"あきる野市","address":"あきる野市草花3056","lat":35.739188,"lon":139.30327},{"name":"神明保育園","province":"東京都","city":"あきる野市","address":"あきる野市瀬戸岡446","lat":35.738093,"lon":139.288399},{"name":"あきる野こどもの家","province":"東京都","city":"あきる野市","address":"あきる野市秋川三丁目7-9","lat":35.733474,"lon":139.284453},{"name":"秋川あすなろ保育園","province":"東京都","city":"あきる野市","address":"あきる野市原小宮二丁目6-6","lat":35.734006,"lon":139.301604},{"name":"屋城保育園","province":"東京都","city":"あきる野市","address":"あきる野市二宮東一丁目12-9","lat":35.724019,"lon":139.322605},{"name":"東秋留保育園","province":"東京都","city":"あきる野市","address":"あきる野市野辺1104","lat":35.724229,"lon":139.304785},{"name":"よつぎ第一保育園","province":"東京都","city":"あきる野市","address":"あきる野市雨間1067-6","lat":35.72026,"lon":139.298144},{"name":"よつぎ第二保育園","province":"東京都","city":"あきる野市","address":"あきる野市上代継218-1","lat":35.724178,"lon":139.278059},{"name":"西秋留保育園","province":"東京都","city":"あきる野市","address":"あきる野市上代継300","lat":35.722898,"lon":139.277112},{"name":"増戸保育園","province":"東京都","city":"あきる野市","address":"あきる野市横沢134","lat":35.7345,"lon":139.23906},{"name":"誠和保育園","province":"東京都","city":"あきる野市","address":"あきる野市山田880","lat":35.72614,"lon":139.25955},{"name":"光明第六保育園","province":"東京都","city":"あきる野市","address":"あきる野市留原50","lat":35.72584,"lon":139.2328},{"name":"五日市保育園","province":"東京都","city":"あきる野市","address":"あきる野市五日市345","lat":35.73145,"lon":139.22261},{"name":"五日市わかば保育園","province":"東京都","city":"あきる野市","address":"あきる野市五日市98","lat":35.72849,"lon":139.22421},{"name":"すぎの子保育園","province":"東京都","city":"あきる野市","address":"あきる野市戸倉783","lat":35.73081,"lon":139.19795},{"name":"草花保育園","province":"東京都","city":"あきる野市","address":"あきる野市草花3056","lat":35.73984,"lon":139.30397},{"name":"神明保育園","province":"東京都","city":"あきる野市","address":"あきる野市瀬戸岡446","lat":35.73779,"lon":139.2878},{"name":"あきる野こどもの家","province":"東京都","city":"あきる野市","address":"あきる野市秋川三丁目7-9","lat":35.73357,"lon":139.28505},{"name":"秋川あすなろ保育園","province":"東京都","city":"あきる野市","address":"あきる野市原小宮二丁目6-6","lat":35.73383,"lon":139.3015},{"name":"屋城保育園","province":"東京都","city":"あきる野市","address":"あきる野市二宮東一丁目12-9","lat":35.72395,"lon":139.32265},{"name":"東秋留保育園","province":"東京都","city":"あきる野市","address":"あきる野市野辺1104","lat":35.72417,"lon":139.30569},{"name":"よつぎ第一保育園","province":"東京都","city":"あきる野市","address":"あきる野市雨間1067-6","lat":35.72025,"lon":139.29865},{"name":"よつぎ第二保育園","province":"東京都","city":"あきる野市","address":"あきる野市上代継218-1","lat":35.72375,"lon":139.27806},{"name":"西秋留保育園","province":"東京都","city":"あきる野市","address":"あきる野市上代継300","lat":35.72325,"lon":139.27663},{"name":"社会福祉法人緑水会精神障害者地域生活支援センターフィレ","province":"東京都","city":"あきる野市","address":"東京都あきる野市二宮670-5","lat":35.72939777,"lon":139.30240956},{"name":"一般社団法人こーゆうネットワーク就労継続支援Ｂ型事業所こーゆうハウス","province":"東京都","city":"あきる野市","address":"東京都あきる野市雨間322-12","lat":35.72840562,"lon":139.28494449},{"name":"よつぎ第二保育園","province":"東京都","city":"あきる野市","address":"あきる野市上代継218-1","lat":35.727583,"lon":139.279001},{"name":"東秋留保育園","province":"東京都","city":"あきる野市","address":"あきる野市野辺1104","lat":35.72417,"lon":139.3057},{"name":"よつぎ第二保育園","province":"東京都","city":"あきる野市","address":"あきる野市上代継218-1","lat":35.72861,"lon":139.28226},{"name":"あきる野市本庁舎","province":"東京都","city":"あきる野市","address":"東京都あきる野市二宮350","lat":35.72920304,"lon":139.29349922},{"name":"増戸保育園","province":"東京都","city":"あきる野市","address":"あきる野市横沢134","lat":35.732374,"lon":139.241529},{"name":"誠和保育園","province":"東京都","city":"あきる野市","address":"あきる野市山田880","lat":35.725719,"lon":139.259691},{"name":"光明第六保育園","province":"東京都","city":"あきる野市","address":"あきる野市留原50","lat":35.723251,"lon":139.234511},{"name":"五日市保育園","province":"東京都","city":"あきる野市","address":"あきる野市五日市345","lat":35.731079,"lon":139.223733},{"name":"五日市わかば保育園","province":"東京都","city":"あきる野市","address":"あきる野市五日市98","lat":35.728829,"lon":139.224759},{"name":"すぎの子保育園","province":"東京都","city":"あきる野市","address":"あきる野市戸倉783","lat":35.731208,"lon":139.197998},{"name":"草花保育園","province":"東京都","city":"あきる野市","address":"あきる野市草花3056","lat":35.739188,"lon":139.30327},{"name":"神明保育園","province":"東京都","city":"あきる野市","address":"あきる野市瀬戸岡446","lat":35.738093,"lon":139.288399},{"name":"あきる野こどもの家","province":"東京都","city":"あきる野市","address":"あきる野市秋川三丁目7-9","lat":35.733474,"lon":139.284453},{"name":"秋川あすなろ保育園","province":"東京都","city":"あきる野市","address":"あきる野市原小宮二丁目6-6","lat":35.734006,"lon":139.301604},{"name":"屋城保育園","province":"東京都","city":"あきる野市","address":"あきる野市二宮東一丁目12-9","lat":35.724019,"lon":139.322605},{"name":"東秋留保育園","province":"東京都","city":"あきる野市","address":"あきる野市野辺1104","lat":35.724229,"lon":139.304785},{"name":"よつぎ第一保育園","province":"東京都","city":"あきる野市","address":"あきる野市雨間1067-6","lat":35.72026,"lon":139.298144},{"name":"よつぎ第二保育園","province":"東京都","city":"あきる野市","address":"あきる野市上代継218-1","lat":35.724178,"lon":139.278059},{"name":"西秋留保育園","province":"東京都","city":"あきる野市","address":"あきる野市上代継300","lat":35.722898,"lon":139.277112},{"name":"増戸保育園","province":"東京都","city":"あきる野市","address":"あきる野市横沢134","lat":35.7345,"lon":139.23906},{"name":"誠和保育園","province":"東京都","city":"あきる野市","address":"あきる野市山田880","lat":35.72614,"lon":139.25955},{"name":"光明第六保育園","province":"東京都","city":"あきる野市","address":"あきる野市留原50","lat":35.72584,"lon":139.2328},{"name":"五日市保育園","province":"東京都","city":"あきる野市","address":"あきる野市五日市345","lat":35.73145,"lon":139.22261},{"name":"五日市わかば保育園","province":"東京都","city":"あきる野市","address":"あきる野市五日市98","lat":35.72849,"lon":139.22421},{"name":"すぎの子保育園","province":"東京都","city":"あきる野市","address":"あきる野市戸倉783","lat":35.73081,"lon":139.19795},{"name":"草花保育園","province":"東京都","city":"あきる野市","address":"あきる野市草花3056","lat":35.73984,"lon":139.30397},{"name":"神明保育園","province":"東京都","city":"あきる野市","address":"あきる野市瀬戸岡446","lat":35.73779,"lon":139.2878},{"name":"あきる野こどもの家","province":"東京都","city":"あきる野市","address":"あきる野市秋川三丁目7-9","lat":35.73357,"lon":139.28505},{"name":"秋川あすなろ保育園","province":"東京都","city":"あきる野市","address":"あきる野市原小宮二丁目6-6","lat":35.73383,"lon":139.3015},{"name":"屋城保育園","province":"東京都","city":"あきる野市","address":"あきる野市二宮東一丁目12-9","lat":35.72395,"lon":139.32265},{"name":"東秋留保育園","province":"東京都","city":"あきる野市","address":"あきる野市野辺1104","lat":35.72417,"lon":139.30569},{"name":"よつぎ第一保育園","province":"東京都","city":"あきる野市","address":"あきる野市雨間1067-6","lat":35.72025,"lon":139.29865},{"name":"よつぎ第二保育園","province":"東京都","city":"あきる野市","address":"あきる野市上代継218-1","lat":35.72375,"lon":139.27806},{"name":"西秋留保育園","province":"東京都","city":"あきる野市","address":"あきる野市上代継300","lat":35.72325,"lon":139.27663},{"name":"社会福祉法人緑水会精神障害者地域生活支援センターフィレ","province":"東京都","city":"あきる野市","address":"東京都あきる野市二宮670-5","lat":35.72939777,"lon":139.30240956},{"name":"一般社団法人こーゆうネットワーク就労継続支援Ｂ型事業所こーゆうハウス","province":"東京都","city":"あきる野市","address":"東京都あきる野市雨間322-12","lat":35.72840562,"lon":139.28494449},{"name":"よつぎ第二保育園","province":"東京都","city":"あきる野市","address":"あきる野市上代継218-1","lat":35.727583,"lon":139.279001},{"name":"東秋留保育園","province":"東京都","city":"あきる野市","address":"あきる野市野辺1104","lat":35.72417,"lon":139.3057},{"name":"よつぎ第二保育園","province":"東京都","city":"あきる野市","address":"あきる野市上代継218-1","lat":35.72861,"lon":139.28226},{"name":"増戸保育園","province":"東京都","city":"あきる野市","address":"あきる野市横沢134","lat":35.732374,"lon":139.241529},{"name":"誠和保育園","province":"東京都","city":"あきる野市","address":"あきる野市山田880","lat":35.725719,"lon":139.259691},{"name":"光明第六保育園","province":"東京都","city":"あきる野市","address":"あきる野市留原50","lat":35.723251,"lon":139.234511},{"name":"五日市保育園","province":"東京都","city":"あきる野市","address":"あきる野市五日市345","lat":35.731079,"lon":139.223733},{"name":"五日市わかば保育園","province":"東京都","city":"あきる野市","address":"あきる野市五日市98","lat":35.728829,"lon":139.224759},{"name":"すぎの子保育園","province":"東京都","city":"あきる野市","address":"あきる野市戸倉783","lat":35.731208,"lon":139.197998},{"name":"草花保育園","province":"東京都","city":"あきる野市","address":"あきる野市草花3056","lat":35.739188,"lon":139.30327},{"name":"神明保育園","province":"東京都","city":"あきる野市","address":"あきる野市瀬戸岡446","lat":35.738093,"lon":139.288399},{"name":"あきる野こどもの家","province":"東京都","city":"あきる野市","address":"あきる野市秋川三丁目7-9","lat":35.733474,"lon":139.284453},{"name":"秋川あすなろ保育園","province":"東京都","city":"あきる野市","address":"あきる野市原小宮二丁目6-6","lat":35.734006,"lon":139.301604},{"name":"屋城保育園","province":"東京都","city":"あきる野市","address":"あきる野市二宮東一丁目12-9","lat":35.724019,"lon":139.322605},{"name":"東秋留保育園","province":"東京都","city":"あきる野市","address":"あきる野市野辺1104","lat":35.724229,"lon":139.304785},{"name":"よつぎ第一保育園","province":"東京都","city":"あきる野市","address":"あきる野市雨間1067-6","lat":35.72026,"lon":139.298144},{"name":"よつぎ第二保育園","province":"東京都","city":"あきる野市","address":"あきる野市上代継218-1","lat":35.724178,"lon":139.278059},{"name":"西秋留保育園","province":"東京都","city":"あきる野市","address":"あきる野市上代継300","lat":35.722898,"lon":139.277112},{"name":"増戸保育園","province":"東京都","city":"あきる野市","address":"あきる野市横沢134","lat":35.7345,"lon":139.23906},{"name":"誠和保育園","province":"東京都","city":"あきる野市","address":"あきる野市山田880","lat":35.72614,"lon":139.25955},{"name":"光明第六保育園","province":"東京都","city":"あきる野市","address":"あきる野市留原50","lat":35.72584,"lon":139.2328},{"name":"五日市保育園","province":"東京都","city":"あきる野市","address":"あきる野市五日市345","lat":35.73145,"lon":139.22261},{"name":"五日市わかば保育園","province":"東京都","city":"あきる野市","address":"あきる野市五日市98","lat":35.72849,"lon":139.22421},{"name":"すぎの子保育園","province":"東京都","city":"あきる野市","address":"あきる野市戸倉783","lat":35.73081,"lon":139.19795},{"name":"草花保育園","province":"東京都","city":"あきる野市","address":"あきる野市草花3056","lat":35.73984,"lon":139.30397},{"name":"神明保育園","province":"東京都","city":"あきる野市","address":"あきる野市瀬戸岡446","lat":35.73779,"lon":139.2878},{"name":"あきる野こどもの家","province":"東京都","city":"あきる野市","address":"あきる野市秋川三丁目7-9","lat":35.73357,"lon":139.28505},{"name":"秋川あすなろ保育園","province":"東京都","city":"あきる野市","address":"あきる野市原小宮二丁目6-6","lat":35.73383,"lon":139.3015},{"name":"屋城保育園","province":"東京都","city":"あきる野市","address":"あきる野市二宮東一丁目12-9","lat":35.72395,"lon":139.32265},{"name":"東秋留保育園","province":"東京都","city":"あきる野市","address":"あきる野市野辺1104","lat":35.72417,"lon":139.30569},{"name":"よつぎ第一保育園","province":"東京都","city":"あきる野市","address":"あきる野市雨間1067-6","lat":35.72025,"lon":139.29865},{"name":"よつぎ第二保育園","province":"東京都","city":"あきる野市","address":"あきる野市上代継218-1","lat":35.72375,"lon":139.27806},{"name":"西秋留保育園","province":"東京都","city":"あきる野市","address":"あきる野市上代継300","lat":35.72325,"lon":139.27663},{"name":"社会福祉法人緑水会精神障害者地域生活支援センターフィレ","province":"東京都","city":"あきる野市","address":"東京都あきる野市二宮670-5","lat":35.72939777,"lon":139.30240956},{"name":"一般社団法人こーゆうネットワーク就労継続支援Ｂ型事業所こーゆうハウス","province":"東京都","city":"あきる野市","address":"東京都あきる野市雨間322-12","lat":35.72840562,"lon":139.28494449},{"name":"よつぎ第二保育園","province":"東京都","city":"あきる野市","address":"あきる野市上代継218-1","lat":35.727583,"lon":139.279001},{"name":"東秋留保育園","province":"東京都","city":"あきる野市","address":"あきる野市野辺1104","lat":35.72417,"lon":139.3057},{"name":"よつぎ第二保育園","province":"東京都","city":"あきる野市","address":"あきる野市上代継218-1","lat":35.72861,"lon":139.28226},{"name":"増戸保育園","province":"東京都","city":"あきる野市","address":"あきる野市横沢134","lat":35.732374,"lon":139.241529},{"name":"誠和保育園","province":"東京都","city":"あきる野市","address":"あきる野市山田880","lat":35.725719,"lon":139.259691},{"name":"光明第六保育園","province":"東京都","city":"あきる野市","address":"あきる野市留原50","lat":35.723251,"lon":139.234511},{"name":"五日市保育園","province":"東京都","city":"あきる野市","address":"あきる野市五日市345","lat":35.731079,"lon":139.223733},{"name":"五日市わかば保育園","province":"東京都","city":"あきる野市","address":"あきる野市五日市98","lat":35.728829,"lon":139.224759},{"name":"すぎの子保育園","province":"東京都","city":"あきる野市","address":"あきる野市戸倉783","lat":35.731208,"lon":139.197998},{"name":"草花保育園","province":"東京都","city":"あきる野市","address":"あきる野市草花3056","lat":35.739188,"lon":139.30327},{"name":"神明保育園","province":"東京都","city":"あきる野市","address":"あきる野市瀬戸岡446","lat":35.738093,"lon":139.288399},{"name":"あきる野こどもの家","province":"東京都","city":"あきる野市","address":"あきる野市秋川三丁目7-9","lat":35.733474,"lon":139.284453},{"name":"秋川あすなろ保育園","province":"東京都","city":"あきる野市","address":"あきる野市原小宮二丁目6-6","lat":35.734006,"lon":139.301604},{"name":"屋城保育園","province":"東京都","city":"あきる野市","address":"あきる野市二宮東一丁目12-9","lat":35.724019,"lon":139.322605},{"name":"東秋留保育園","province":"東京都","city":"あきる野市","address":"あきる野市野辺1104","lat":35.724229,"lon":139.304785},{"name":"よつぎ第一保育園","province":"東京都","city":"あきる野市","address":"あきる野市雨間1067-6","lat":35.72026,"lon":139.298144},{"name":"よつぎ第二保育園","province":"東京都","city":"あきる野市","address":"あきる野市上代継218-1","lat":35.724178,"lon":139.278059},{"name":"西秋留保育園","province":"東京都","city":"あきる野市","address":"あきる野市上代継300","lat":35.722898,"lon":139.277112},{"name":"社会福祉法人緑水会精神障害者地域生活支援センターフィレ","province":"東京都","city":"あきる野市","address":"東京都あきる野市二宮670-5","lat":35.72939777,"lon":139.30240956},{"name":"一般社団法人こーゆうネットワーク就労継続支援Ｂ型事業所こーゆうハウス","province":"東京都","city":"あきる野市","address":"東京都あきる野市雨間322-12","lat":35.72840562,"lon":139.28494449},{"name":"増戸保育園","province":"東京都","city":"あきる野市","address":"あきる野市横沢134","lat":35.732374,"lon":139.241529},{"name":"誠和保育園","province":"東京都","city":"あきる野市","address":"あきる野市山田880","lat":35.725719,"lon":139.259691},{"name":"光明第六保育園","province":"東京都","city":"あきる野市","address":"あきる野市留原50","lat":35.723251,"lon":139.234511},{"name":"五日市保育園","province":"東京都","city":"あきる野市","address":"あきる野市五日市345","lat":35.731079,"lon":139.223733},{"name":"五日市わかば保育園","province":"東京都","city":"あきる野市","address":"あきる野市五日市98","lat":35.728829,"lon":139.224759},{"name":"すぎの子保育園","province":"東京都","city":"あきる野市","address":"あきる野市戸倉783","lat":35.731208,"lon":139.197998},{"name":"草花保育園","province":"東京都","city":"あきる野市","address":"あきる野市草花3056","lat":35.739188,"lon":139.30327},{"name":"神明保育園","province":"東京都","city":"あきる野市","address":"あきる野市瀬戸岡446","lat":35.738093,"lon":139.288399},{"name":"あきる野こどもの家","province":"東京都","city":"あきる野市","address":"あきる野市秋川三丁目7-9","lat":35.733474,"lon":139.284453},{"name":"秋川あすなろ保育園","province":"東京都","city":"あきる野市","address":"あきる野市原小宮二丁目6-6","lat":35.734006,"lon":139.301604},{"name":"屋城保育園","province":"東京都","city":"あきる野市","address":"あきる野市二宮東一丁目12-9","lat":35.724019,"lon":139.322605},{"name":"東秋留保育園","province":"東京都","city":"あきる野市","address":"あきる野市野辺1104","lat":35.724229,"lon":139.304785},{"name":"よつぎ第一保育園","province":"東京都","city":"あきる野市","address":"あきる野市雨間1067-6","lat":35.72026,"lon":139.298144},{"name":"よつぎ第二保育園","province":"東京都","city":"あきる野市","address":"あきる野市上代継218-1","lat":35.724178,"lon":139.278059},{"name":"西秋留保育園","province":"東京都","city":"あきる野市","address":"あきる野市上代継300","lat":35.722898,"lon":139.277112},{"name":"増戸保育園","province":"東京都","city":"あきる野市","address":"あきる野市横沢134","lat":35.732374,"lon":139.241529},{"name":"誠和保育園","province":"東京都","city":"あきる野市","address":"あきる野市山田880","lat":35.725719,"lon":139.259691},{"name":"光明第六保育園","province":"東京都","city":"あきる野市","address":"あきる野市留原50","lat":35.723251,"lon":139.234511},{"name":"五日市保育園","province":"東京都","city":"あきる野市","address":"あきる野市五日市345","lat":35.731079,"lon":139.223733},{"name":"五日市わかば保育園","province":"東京都","city":"あきる野市","address":"あきる野市五日市98","lat":35.728829,"lon":139.224759},{"name":"すぎの子保育園","province":"東京都","city":"あきる野市","address":"あきる野市戸倉783","lat":35.731208,"lon":139.197998},{"name":"草花保育園","province":"東京都","city":"あきる野市","address":"あきる野市草花3056","lat":35.739188,"lon":139.30327},{"name":"神明保育園","province":"東京都","city":"あきる野市","address":"あきる野市瀬戸岡446","lat":35.738093,"lon":139.288399},{"name":"あきる野こどもの家","province":"東京都","city":"あきる野市","address":"あきる野市秋川三丁目7-9","lat":35.733474,"lon":139.284453},{"name":"秋川あすなろ保育園","province":"東京都","city":"あきる野市","address":"あきる野市原小宮二丁目6-6","lat":35.734006,"lon":139.301604},{"name":"屋城保育園","province":"東京都","city":"あきる野市","address":"あきる野市二宮東一丁目12-9","lat":35.724019,"lon":139.322605},{"name":"東秋留保育園","province":"東京都","city":"あきる野市","address":"あきる野市野辺1104","lat":35.724229,"lon":139.304785},{"name":"よつぎ第一保育園","province":"東京都","city":"あきる野市","address":"あきる野市雨間1067-6","lat":35.72026,"lon":139.298144},{"name":"よつぎ第二保育園","province":"東京都","city":"あきる野市","address":"あきる野市上代継218-1","lat":35.724178,"lon":139.278059},{"name":"西秋留保育園","province":"東京都","city":"あきる野市","address":"あきる野市上代継300","lat":35.722898,"lon":139.277112},{"name":"増戸保育園","province":"東京都","city":"あきる野市","address":"あきる野市横沢134","lat":35.732374,"lon":139.241529},{"name":"誠和保育園","province":"東京都","city":"あきる野市","address":"あきる野市山田880","lat":35.725719,"lon":139.259691},{"name":"光明第六保育園","province":"東京都","city":"あきる野市","address":"あきる野市留原50","lat":35.723251,"lon":139.234511},{"name":"五日市保育園","province":"東京都","city":"あきる野市","address":"あきる野市五日市345","lat":35.731079,"lon":139.223733},{"name":"五日市わかば保育園","province":"東京都","city":"あきる野市","address":"あきる野市五日市98","lat":35.728829,"lon":139.224759},{"name":"すぎの子保育園","province":"東京都","city":"あきる野市","address":"あきる野市戸倉783","lat":35.731208,"lon":139.197998},{"name":"草花保育園","province":"東京都","city":"あきる野市","address":"あきる野市草花3056","lat":35.739188,"lon":139.30327},{"name":"神明保育園","province":"東京都","city":"あきる野市","address":"あきる野市瀬戸岡446","lat":35.738093,"lon":139.288399},{"name":"あきる野こどもの家","province":"東京都","city":"あきる野市","address":"あきる野市秋川三丁目7-9","lat":35.733474,"lon":139.284453},{"name":"秋川あすなろ保育園","province":"東京都","city":"あきる野市","address":"あきる野市原小宮二丁目6-6","lat":35.734006,"lon":139.301604},{"name":"屋城保育園","province":"東京都","city":"あきる野市","address":"あきる野市二宮東一丁目12-9","lat":35.724019,"lon":139.322605},{"name":"東秋留保育園","province":"東京都","city":"あきる野市","address":"あきる野市野辺1104","lat":35.724229,"lon":139.304785},{"name":"よつぎ第一保育園","province":"東京都","city":"あきる野市","address":"あきる野市雨間1067-6","lat":35.72026,"lon":139.298144},{"name":"よつぎ第二保育園","province":"東京都","city":"あきる野市","address":"あきる野市上代継218-1","lat":35.724178,"lon":139.278059},{"name":"西秋留保育園","province":"東京都","city":"あきる野市","address":"あきる野市上代継300","lat":35.722898,"lon":139.277112},{"name":"増戸保育園","province":"東京都","city":"あきる野市","address":"あきる野市横沢134","lat":35.732374,"lon":139.241529},{"name":"誠和保育園","province":"東京都","city":"あきる野市","address":"あきる野市山田880","lat":35.725719,"lon":139.259691},{"name":"光明第六保育園","province":"東京都","city":"あきる野市","address":"あきる野市留原50","lat":35.723251,"lon":139.234511},{"name":"五日市保育園","province":"東京都","city":"あきる野市","address":"あきる野市五日市345","lat":35.731079,"lon":139.223733},{"name":"五日市わかば保育園","province":"東京都","city":"あきる野市","address":"あきる野市五日市98","lat":35.728829,"lon":139.224759},{"name":"すぎの子保育園","province":"東京都","city":"あきる野市","address":"あきる野市戸倉783","lat":35.731208,"lon":139.197998},{"name":"草花保育園","province":"東京都","city":"あきる野市","address":"あきる野市草花3056","lat":35.739188,"lon":139.30327},{"name":"神明保育園","province":"東京都","city":"あきる野市","address":"あきる野市瀬戸岡446","lat":35.738093,"lon":139.288399},{"name":"あきる野こどもの家","province":"東京都","city":"あきる野市","address":"あきる野市秋川三丁目7-9","lat":35.733474,"lon":139.284453},{"name":"秋川あすなろ保育園","province":"東京都","city":"あきる野市","address":"あきる野市原小宮二丁目6-6","lat":35.734006,"lon":139.301604},{"name":"屋城保育園","province":"東京都","city":"あきる野市","address":"あきる野市二宮東一丁目12-9","lat":35.724019,"lon":139.322605},{"name":"東秋留保育園","province":"東京都","city":"あきる野市","address":"あきる野市野辺1104","lat":35.724229,"lon":139.304785},{"name":"よつぎ第一保育園","province":"東京都","city":"あきる野市","address":"あきる野市雨間1067-6","lat":35.72026,"lon":139.298144},{"name":"よつぎ第二保育園","province":"東京都","city":"あきる野市","address":"あきる野市上代継218-1","lat":35.724178,"lon":139.278059},{"name":"西秋留保育園","province":"東京都","city":"あきる野市","address":"あきる野市上代継300","lat":35.722898,"lon":139.277112},{"name":"増戸保育園","province":"東京都","city":"あきる野市","address":"あきる野市横沢134","lat":35.732374,"lon":139.241529},{"name":"誠和保育園","province":"東京都","city":"あきる野市","address":"あきる野市山田880","lat":35.725719,"lon":139.259691},{"name":"光明第六保育園","province":"東京都","city":"あきる野市","address":"あきる野市留原50","lat":35.723251,"lon":139.234511},{"name":"五日市保育園","province":"東京都","city":"あきる野市","address":"あきる野市五日市345","lat":35.731079,"lon":139.223733},{"name":"五日市わかば保育園","province":"東京都","city":"あきる野市","address":"あきる野市五日市98","lat":35.728829,"lon":139.224759},{"name":"すぎの子保育園","province":"東京都","city":"あきる野市","address":"あきる野市戸倉783","lat":35.731208,"lon":139.197998},{"name":"草花保育園","province":"東京都","city":"あきる野市","address":"あきる野市草花3056","lat":35.739188,"lon":139.30327},{"name":"神明保育園","province":"東京都","city":"あきる野市","address":"あきる野市瀬戸岡446","lat":35.738093,"lon":139.288399},{"name":"あきる野こどもの家","province":"東京都","city":"あきる野市","address":"あきる野市秋川三丁目7-9","lat":35.733474,"lon":139.284453},{"name":"秋川あすなろ保育園","province":"東京都","city":"あきる野市","address":"あきる野市原小宮二丁目6-6","lat":35.734006,"lon":139.301604},{"name":"屋城保育園","province":"東京都","city":"あきる野市","address":"あきる野市二宮東一丁目12-9","lat":35.724019,"lon":139.322605},{"name":"東秋留保育園","province":"東京都","city":"あきる野市","address":"あきる野市野辺1104","lat":35.724229,"lon":139.304785},{"name":"よつぎ第一保育園","province":"東京都","city":"あきる野市","address":"あきる野市雨間1067-6","lat":35.72026,"lon":139.298144},{"name":"よつぎ第二保育園","province":"東京都","city":"あきる野市","address":"あきる野市上代継218-1","lat":35.724178,"lon":139.278059},{"name":"西秋留保育園","province":"東京都","city":"あきる野市","address":"あきる野市上代継300","lat":35.722898,"lon":139.277112},{"name":"増戸保育園","province":"東京都","city":"あきる野市","address":"あきる野市横沢134","lat":35.732374,"lon":139.241529},{"name":"誠和保育園","province":"東京都","city":"あきる野市","address":"あきる野市山田880","lat":35.725719,"lon":139.259691},{"name":"光明第六保育園","province":"東京都","city":"あきる野市","address":"あきる野市留原50","lat":35.723251,"lon":139.234511},{"name":"五日市保育園","province":"東京都","city":"あきる野市","address":"あきる野市五日市345","lat":35.731079,"lon":139.223733},{"name":"五日市わかば保育園","province":"東京都","city":"あきる野市","address":"あきる野市五日市98","lat":35.728829,"lon":139.224759},{"name":"すぎの子保育園","province":"東京都","city":"あきる野市","address":"あきる野市戸倉783","lat":35.731208,"lon":139.197998},{"name":"草花保育園","province":"東京都","city":"あきる野市","address":"あきる野市草花3056","lat":35.739188,"lon":139.30327},{"name":"神明保育園","province":"東京都","city":"あきる野市","address":"あきる野市瀬戸岡446","lat":35.738093,"lon":139.288399},{"name":"あきる野こどもの家","province":"東京都","city":"あきる野市","address":"あきる野市秋川三丁目7-9","lat":35.733474,"lon":139.284453},{"name":"秋川あすなろ保育園","province":"東京都","city":"あきる野市","address":"あきる野市原小宮二丁目6-6","lat":35.734006,"lon":139.301604},{"name":"屋城保育園","province":"東京都","city":"あきる野市","address":"あきる野市二宮東一丁目12-9","lat":35.724019,"lon":139.322605},{"name":"東秋留保育園","province":"東京都","city":"あきる野市","address":"あきる野市野辺1104","lat":35.724229,"lon":139.304785},{"name":"よつぎ第一保育園","province":"東京都","city":"あきる野市","address":"あきる野市雨間1067-6","lat":35.72026,"lon":139.298144},{"name":"よつぎ第二保育園","province":"東京都","city":"あきる野市","address":"あきる野市上代継218-1","lat":35.724178,"lon":139.278059},{"name":"西秋留保育園","province":"東京都","city":"あきる野市","address":"あきる野市上代継300","lat":35.722898,"lon":139.277112},{"name":"増戸保育園","province":"東京都","city":"あきる野市","address":"あきる野市横沢134","lat":35.732374,"lon":139.241529},{"name":"誠和保育園","province":"東京都","city":"あきる野市","address":"あきる野市山田880","lat":35.725719,"lon":139.259691},{"name":"光明第六保育園","province":"東京都","city":"あきる野市","address":"あきる野市留原50","lat":35.723251,"lon":139.234511},{"name":"五日市保育園","province":"東京都","city":"あきる野市","address":"あきる野市五日市345","lat":35.731079,"lon":139.223733},{"name":"五日市わかば保育園","province":"東京都","city":"あきる野市","address":"あきる野市五日市98","lat":35.728829,"lon":139.224759},{"name":"すぎの子保育園","province":"東京都","city":"あきる野市","address":"あきる野市戸倉783","lat":35.731208,"lon":139.197998},{"name":"草花保育園","province":"東京都","city":"あきる野市","address":"あきる野市草花3056","lat":35.739188,"lon":139.30327},{"name":"神明保育園","province":"東京都","city":"あきる野市","address":"あきる野市瀬戸岡446","lat":35.738093,"lon":139.288399},{"name":"あきる野こどもの家","province":"東京都","city":"あきる野市","address":"あきる野市秋川三丁目7-9","lat":35.733474,"lon":139.284453},{"name":"秋川あすなろ保育園","province":"東京都","city":"あきる野市","address":"あきる野市原小宮二丁目6-6","lat":35.734006,"lon":139.301604},{"name":"屋城保育園","province":"東京都","city":"あきる野市","address":"あきる野市二宮東一丁目12-9","lat":35.724019,"lon":139.322605},{"name":"東秋留保育園","province":"東京都","city":"あきる野市","address":"あきる野市野辺1104","lat":35.724229,"lon":139.304785},{"name":"よつぎ第一保育園","province":"東京都","city":"あきる野市","address":"あきる野市雨間1067-6","lat":35.72026,"lon":139.298144},{"name":"よつぎ第二保育園","province":"東京都","city":"あきる野市","address":"あきる野市上代継218-1","lat":35.724178,"lon":139.278059},{"name":"西秋留保育園","province":"東京都","city":"あきる野市","address":"あきる野市上代継300","lat":35.722898,"lon":139.277112},{"name":"増戸保育園","province":"東京都","city":"あきる野市","address":"あきる野市横沢134","lat":35.732374,"lon":139.241529},{"name":"誠和保育園","province":"東京都","city":"あきる野市","address":"あきる野市山田880","lat":35.725719,"lon":139.259691},{"name":"光明第六保育園","province":"東京都","city":"あきる野市","address":"あきる野市留原50","lat":35.723251,"lon":139.234511},{"name":"五日市保育園","province":"東京都","city":"あきる野市","address":"あきる野市五日市345","lat":35.731079,"lon":139.223733},{"name":"五日市わかば保育園","province":"東京都","city":"あきる野市","address":"あきる野市五日市98","lat":35.728829,"lon":139.224759},{"name":"すぎの子保育園","province":"東京都","city":"あきる野市","address":"あきる野市戸倉783","lat":35.731208,"lon":139.197998},{"name":"草花保育園","province":"東京都","city":"あきる野市","address":"あきる野市草花3056","lat":35.739188,"lon":139.30327},{"name":"神明保育園","province":"東京都","city":"あきる野市","address":"あきる野市瀬戸岡446","lat":35.738093,"lon":139.288399},{"name":"あきる野こどもの家","province":"東京都","city":"あきる野市","address":"あきる野市秋川三丁目7-9","lat":35.733474,"lon":139.284453},{"name":"秋川あすなろ保育園","province":"東京都","city":"あきる野市","address":"あきる野市原小宮二丁目6-6","lat":35.734006,"lon":139.301604},{"name":"屋城保育園","province":"東京都","city":"あきる野市","address":"あきる野市二宮東一丁目12-9","lat":35.724019,"lon":139.322605},{"name":"東秋留保育園","province":"東京都","city":"あきる野市","address":"あきる野市野辺1104","lat":35.724229,"lon":139.304785},{"name":"よつぎ第一保育園","province":"東京都","city":"あきる野市","address":"あきる野市雨間1067-6","lat":35.72026,"lon":139.298144},{"name":"よつぎ第二保育園","province":"東京都","city":"あきる野市","address":"あきる野市上代継218-1","lat":35.724178,"lon":139.278059},{"name":"西秋留保育園","province":"東京都","city":"あきる野市","address":"あきる野市上代継300","lat":35.722898,"lon":139.277112},{"name":"増戸保育園","province":"東京都","city":"あきる野市","address":"あきる野市横沢134","lat":35.732374,"lon":139.241529},{"name":"誠和保育園","province":"東京都","city":"あきる野市","address":"あきる野市山田880","lat":35.725719,"lon":139.259691},{"name":"光明第六保育園","province":"東京都","city":"あきる野市","address":"あきる野市留原50","lat":35.723251,"lon":139.234511},{"name":"五日市保育園","province":"東京都","city":"あきる野市","address":"あきる野市五日市345","lat":35.731079,"lon":139.223733},{"name":"五日市わかば保育園","province":"東京都","city":"あきる野市","address":"あきる野市五日市98","lat":35.728829,"lon":139.224759},{"name":"すぎの子保育園","province":"東京都","city":"あきる野市","address":"あきる野市戸倉783","lat":35.731208,"lon":139.197998},{"name":"草花保育園","province":"東京都","city":"あきる野市","address":"あきる野市草花3056","lat":35.739188,"lon":139.30327},{"name":"神明保育園","province":"東京都","city":"あきる野市","address":"あきる野市瀬戸岡446","lat":35.738093,"lon":139.288399},{"name":"あきる野こどもの家","province":"東京都","city":"あきる野市","address":"あきる野市秋川三丁目7-9","lat":35.733474,"lon":139.284453},{"name":"秋川あすなろ保育園","province":"東京都","city":"あきる野市","address":"あきる野市原小宮二丁目6-6","lat":35.734006,"lon":139.301604},{"name":"屋城保育園","province":"東京都","city":"あきる野市","address":"あきる野市二宮東一丁目12-9","lat":35.724019,"lon":139.322605},{"name":"東秋留保育園","province":"東京都","city":"あきる野市","address":"あきる野市野辺1104","lat":35.724229,"lon":139.304785},{"name":"よつぎ第一保育園","province":"東京都","city":"あきる野市","address":"あきる野市雨間1067-6","lat":35.72026,"lon":139.298144},{"name":"よつぎ第二保育園","province":"東京都","city":"あきる野市","address":"あきる野市上代継218-1","lat":35.724178,"lon":139.278059},{"name":"西秋留保育園","province":"東京都","city":"あきる野市","address":"あきる野市上代継300","lat":35.722898,"lon":139.277112},{"name":"増戸保育園","province":"東京都","city":"あきる野市","address":"あきる野市横沢134","lat":35.732374,"lon":139.241529},{"name":"誠和保育園","province":"東京都","city":"あきる野市","address":"あきる野市山田880","lat":35.725719,"lon":139.259691},{"name":"光明第六保育園","province":"東京都","city":"あきる野市","address":"あきる野市留原50","lat":35.723251,"lon":139.234511},{"name":"五日市保育園","province":"東京都","city":"あきる野市","address":"あきる野市五日市345","lat":35.731079,"lon":139.223733},{"name":"五日市わかば保育園","province":"東京都","city":"あきる野市","address":"あきる野市五日市98","lat":35.728829,"lon":139.224759},{"name":"すぎの子保育園","province":"東京都","city":"あきる野市","address":"あきる野市戸倉783","lat":35.731208,"lon":139.197998},{"name":"草花保育園","province":"東京都","city":"あきる野市","address":"あきる野市草花3056","lat":35.739188,"lon":139.30327},{"name":"神明保育園","province":"東京都","city":"あきる野市","address":"あきる野市瀬戸岡446","lat":35.738093,"lon":139.288399},{"name":"あきる野こどもの家","province":"東京都","city":"あきる野市","address":"あきる野市秋川三丁目7-9","lat":35.733474,"lon":139.284453},{"name":"秋川あすなろ保育園","province":"東京都","city":"あきる野市","address":"あきる野市原小宮二丁目6-6","lat":35.734006,"lon":139.301604},{"name":"屋城保育園","province":"東京都","city":"あきる野市","address":"あきる野市二宮東一丁目12-9","lat":35.724019,"lon":139.322605},{"name":"東秋留保育園","province":"東京都","city":"あきる野市","address":"あきる野市野辺1104","lat":35.724229,"lon":139.304785},{"name":"よつぎ第一保育園","province":"東京都","city":"あきる野市","address":"あきる野市雨間1067-6","lat":35.72026,"lon":139.298144},{"name":"よつぎ第二保育園","province":"東京都","city":"あきる野市","address":"あきる野市上代継218-1","lat":35.724178,"lon":139.278059},{"name":"西秋留保育園","province":"東京都","city":"あきる野市","address":"あきる野市上代継300","lat":35.722898,"lon":139.277112},{"name":"増戸保育園","province":"東京都","city":"あきる野市","address":"あきる野市横沢134","lat":35.732374,"lon":139.241529},{"name":"誠和保育園","province":"東京都","city":"あきる野市","address":"あきる野市山田880","lat":35.725719,"lon":139.259691},{"name":"光明第六保育園","province":"東京都","city":"あきる野市","address":"あきる野市留原50","lat":35.723251,"lon":139.234511},{"name":"五日市保育園","province":"東京都","city":"あきる野市","address":"あきる野市五日市345","lat":35.731079,"lon":139.223733},{"name":"五日市わかば保育園","province":"東京都","city":"あきる野市","address":"あきる野市五日市98","lat":35.728829,"lon":139.224759},{"name":"すぎの子保育園","province":"東京都","city":"あきる野市","address":"あきる野市戸倉783","lat":35.731208,"lon":139.197998},{"name":"草花保育園","province":"東京都","city":"あきる野市","address":"あきる野市草花3056","lat":35.739188,"lon":139.30327},{"name":"神明保育園","province":"東京都","city":"あきる野市","address":"あきる野市瀬戸岡446","lat":35.738093,"lon":139.288399},{"name":"あきる野こどもの家","province":"東京都","city":"あきる野市","address":"あきる野市秋川三丁目7-9","lat":35.733474,"lon":139.284453},{"name":"秋川あすなろ保育園","province":"東京都","city":"あきる野市","address":"あきる野市原小宮二丁目6-6","lat":35.734006,"lon":139.301604},{"name":"屋城保育園","province":"東京都","city":"あきる野市","address":"あきる野市二宮東一丁目12-9","lat":35.724019,"lon":139.322605},{"name":"東秋留保育園","province":"東京都","city":"あきる野市","address":"あきる野市野辺1104","lat":35.724229,"lon":139.304785},{"name":"よつぎ第一保育園","province":"東京都","city":"あきる野市","address":"あきる野市雨間1067-6","lat":35.72026,"lon":139.298144},{"name":"よつぎ第二保育園","province":"東京都","city":"あきる野市","address":"あきる野市上代継218-1","lat":35.724178,"lon":139.278059},{"name":"西秋留保育園","province":"東京都","city":"あきる野市","address":"あきる野市上代継300","lat":35.722898,"lon":139.277112},{"name":"増戸保育園","province":"東京都","city":"あきる野市","address":"あきる野市横沢134","lat":35.732374,"lon":139.241529},{"name":"誠和保育園","province":"東京都","city":"あきる野市","address":"あきる野市山田880","lat":35.725719,"lon":139.259691},{"name":"光明第六保育園","province":"東京都","city":"あきる野市","address":"あきる野市留原50","lat":35.723251,"lon":139.234511},{"name":"五日市保育園","province":"東京都","city":"あきる野市","address":"あきる野市五日市345","lat":35.731079,"lon":139.223733},{"name":"五日市わかば保育園","province":"東京都","city":"あきる野市","address":"あきる野市五日市98","lat":35.728829,"lon":139.224759},{"name":"すぎの子保育園","province":"東京都","city":"あきる野市","address":"あきる野市戸倉783","lat":35.731208,"lon":139.197998},{"name":"草花保育園","province":"東京都","city":"あきる野市","address":"あきる野市草花3056","lat":35.739188,"lon":139.30327},{"name":"神明保育園","province":"東京都","city":"あきる野市","address":"あきる野市瀬戸岡446","lat":35.738093,"lon":139.288399},{"name":"あきる野こどもの家","province":"東京都","city":"あきる野市","address":"あきる野市秋川三丁目7-9","lat":35.733474,"lon":139.284453},{"name":"秋川あすなろ保育園","province":"東京都","city":"あきる野市","address":"あきる野市原小宮二丁目6-6","lat":35.734006,"lon":139.301604},{"name":"屋城保育園","province":"東京都","city":"あきる野市","address":"あきる野市二宮東一丁目12-9","lat":35.724019,"lon":139.322605},{"name":"東秋留保育園","province":"東京都","city":"あきる野市","address":"あきる野市野辺1104","lat":35.724229,"lon":139.304785},{"name":"よつぎ第一保育園","province":"東京都","city":"あきる野市","address":"あきる野市雨間1067-6","lat":35.72026,"lon":139.298144},{"name":"よつぎ第二保育園","province":"東京都","city":"あきる野市","address":"あきる野市上代継218-1","lat":35.724178,"lon":139.278059},{"name":"西秋留保育園","province":"東京都","city":"あきる野市","address":"あきる野市上代継300","lat":35.722898,"lon":139.277112},{"name":"増戸保育園","province":"東京都","city":"あきる野市","address":"あきる野市横沢134","lat":35.732374,"lon":139.241529},{"name":"誠和保育園","province":"東京都","city":"あきる野市","address":"あきる野市山田880","lat":35.725719,"lon":139.259691},{"name":"光明第六保育園","province":"東京都","city":"あきる野市","address":"あきる野市留原50","lat":35.723251,"lon":139.234511},{"name":"五日市保育園","province":"東京都","city":"あきる野市","address":"あきる野市五日市345","lat":35.731079,"lon":139.223733},{"name":"五日市わかば保育園","province":"東京都","city":"あきる野市","address":"あきる野市五日市98","lat":35.728829,"lon":139.224759},{"name":"すぎの子保育園","province":"東京都","city":"あきる野市","address":"あきる野市戸倉783","lat":35.731208,"lon":139.197998},{"name":"草花保育園","province":"東京都","city":"あきる野市","address":"あきる野市草花3056","lat":35.739188,"lon":139.30327},{"name":"神明保育園","province":"東京都","city":"あきる野市","address":"あきる野市瀬戸岡446","lat":35.738093,"lon":139.288399},{"name":"あきる野こどもの家","province":"東京都","city":"あきる野市","address":"あきる野市秋川三丁目7-9","lat":35.733474,"lon":139.284453},{"name":"秋川あすなろ保育園","province":"東京都","city":"あきる野市","address":"あきる野市原小宮二丁目6-6","lat":35.734006,"lon":139.301604},{"name":"屋城保育園","province":"東京都","city":"あきる野市","address":"あきる野市二宮東一丁目12-9","lat":35.724019,"lon":139.322605},{"name":"東秋留保育園","province":"東京都","city":"あきる野市","address":"あきる野市野辺1104","lat":35.724229,"lon":139.304785},{"name":"よつぎ第一保育園","province":"東京都","city":"あきる野市","address":"あきる野市雨間1067-6","lat":35.72026,"lon":139.298144},{"name":"よつぎ第二保育園","province":"東京都","city":"あきる野市","address":"あきる野市上代継218-1","lat":35.724178,"lon":139.278059},{"name":"西秋留保育園","province":"東京都","city":"あきる野市","address":"あきる野市上代継300","lat":35.722898,"lon":139.277112},{"name":"増戸保育園","province":"東京都","city":"あきる野市","address":"あきる野市横沢134","lat":35.732374,"lon":139.241529},{"name":"誠和保育園","province":"東京都","city":"あきる野市","address":"あきる野市山田880","lat":35.725719,"lon":139.259691},{"name":"光明第六保育園","province":"東京都","city":"あきる野市","address":"あきる野市留原50","lat":35.723251,"lon":139.234511},{"name":"五日市保育園","province":"東京都","city":"あきる野市","address":"あきる野市五日市345","lat":35.731079,"lon":139.223733},{"name":"五日市わかば保育園","province":"東京都","city":"あきる野市","address":"あきる野市五日市98","lat":35.728829,"lon":139.224759},{"name":"すぎの子保育園","province":"東京都","city":"あきる野市","address":"あきる野市戸倉783","lat":35.731208,"lon":139.197998},{"name":"草花保育園","province":"東京都","city":"あきる野市","address":"あきる野市草花3056","lat":35.739188,"lon":139.30327},{"name":"神明保育園","province":"東京都","city":"あきる野市","address":"あきる野市瀬戸岡446","lat":35.738093,"lon":139.288399},{"name":"あきる野こどもの家","province":"東京都","city":"あきる野市","address":"あきる野市秋川三丁目7-9","lat":35.733474,"lon":139.284453},{"name":"秋川あすなろ保育園","province":"東京都","city":"あきる野市","address":"あきる野市原小宮二丁目6-6","lat":35.734006,"lon":139.301604},{"name":"屋城保育園","province":"東京都","city":"あきる野市","address":"あきる野市二宮東一丁目12-9","lat":35.724019,"lon":139.322605},{"name":"東秋留保育園","province":"東京都","city":"あきる野市","address":"あきる野市野辺1104","lat":35.724229,"lon":139.304785},{"name":"よつぎ第一保育園","province":"東京都","city":"あきる野市","address":"あきる野市雨間1067-6","lat":35.72026,"lon":139.298144},{"name":"よつぎ第二保育園","province":"東京都","city":"あきる野市","address":"あきる野市上代継218-1","lat":35.724178,"lon":139.278059},{"name":"西秋留保育園","province":"東京都","city":"あきる野市","address":"あきる野市上代継300","lat":35.722898,"lon":139.277112},{"name":"増戸保育園","province":"東京都","city":"あきる野市","address":"あきる野市横沢134","lat":35.732374,"lon":139.241529},{"name":"誠和保育園","province":"東京都","city":"あきる野市","address":"あきる野市山田880","lat":35.725719,"lon":139.259691},{"name":"光明第六保育園","province":"東京都","city":"あきる野市","address":"あきる野市留原50","lat":35.723251,"lon":139.234511},{"name":"五日市保育園","province":"東京都","city":"あきる野市","address":"あきる野市五日市345","lat":35.731079,"lon":139.223733},{"name":"五日市わかば保育園","province":"東京都","city":"あきる野市","address":"あきる野市五日市98","lat":35.728829,"lon":139.224759},{"name":"すぎの子保育園","province":"東京都","city":"あきる野市","address":"あきる野市戸倉783","lat":35.731208,"lon":139.197998},{"name":"草花保育園","province":"東京都","city":"あきる野市","address":"あきる野市草花3056","lat":35.739188,"lon":139.30327},{"name":"神明保育園","province":"東京都","city":"あきる野市","address":"あきる野市瀬戸岡446","lat":35.738093,"lon":139.288399},{"name":"あきる野こどもの家","province":"東京都","city":"あきる野市","address":"あきる野市秋川三丁目7-9","lat":35.733474,"lon":139.284453},{"name":"秋川あすなろ保育園","province":"東京都","city":"あきる野市","address":"あきる野市原小宮二丁目6-6","lat":35.734006,"lon":139.301604},{"name":"屋城保育園","province":"東京都","city":"あきる野市","address":"あきる野市二宮東一丁目12-9","lat":35.724019,"lon":139.322605},{"name":"東秋留保育園","province":"東京都","city":"あきる野市","address":"あきる野市野辺1104","lat":35.724229,"lon":139.304785},{"name":"よつぎ第一保育園","province":"東京都","city":"あきる野市","address":"あきる野市雨間1067-6","lat":35.72026,"lon":139.298144},{"name":"よつぎ第二保育園","province":"東京都","city":"あきる野市","address":"あきる野市上代継218-1","lat":35.724178,"lon":139.278059},{"name":"西秋留保育園","province":"東京都","city":"あきる野市","address":"あきる野市上代継300","lat":35.722898,"lon":139.277112},{"name":"増戸保育園","province":"東京都","city":"あきる野市","address":"あきる野市横沢134","lat":35.732374,"lon":139.241529},{"name":"誠和保育園","province":"東京都","city":"あきる野市","address":"あきる野市山田880","lat":35.725719,"lon":139.259691},{"name":"光明第六保育園","province":"東京都","city":"あきる野市","address":"あきる野市留原50","lat":35.723251,"lon":139.234511},{"name":"五日市保育園","province":"東京都","city":"あきる野市","address":"あきる野市五日市345","lat":35.731079,"lon":139.223733},{"name":"五日市わかば保育園","province":"東京都","city":"あきる野市","address":"あきる野市五日市98","lat":35.728829,"lon":139.224759},{"name":"すぎの子保育園","province":"東京都","city":"あきる野市","address":"あきる野市戸倉783","lat":35.731208,"lon":139.197998},{"name":"草花保育園","province":"東京都","city":"あきる野市","address":"あきる野市草花3056","lat":35.739188,"lon":139.30327},{"name":"神明保育園","province":"東京都","city":"あきる野市","address":"あきる野市瀬戸岡446","lat":35.738093,"lon":139.288399},{"name":"あきる野こどもの家","province":"東京都","city":"あきる野市","address":"あきる野市秋川三丁目7-9","lat":35.733474,"lon":139.284453},{"name":"秋川あすなろ保育園","province":"東京都","city":"あきる野市","address":"あきる野市原小宮二丁目6-6","lat":35.734006,"lon":139.301604},{"name":"屋城保育園","province":"東京都","city":"あきる野市","address":"あきる野市二宮東一丁目12-9","lat":35.724019,"lon":139.322605},{"name":"東秋留保育園","province":"東京都","city":"あきる野市","address":"あきる野市野辺1104","lat":35.724229,"lon":139.304785},{"name":"よつぎ第一保育園","province":"東京都","city":"あきる野市","address":"あきる野市雨間1067-6","lat":35.72026,"lon":139.298144},{"name":"よつぎ第二保育園","province":"東京都","city":"あきる野市","address":"あきる野市上代継218-1","lat":35.724178,"lon":139.278059},{"name":"西秋留保育園","province":"東京都","city":"あきる野市","address":"あきる野市上代継300","lat":35.722898,"lon":139.277112},{"name":"増戸保育園","province":"東京都","city":"あきる野市","address":"あきる野市横沢134","lat":35.732374,"lon":139.241529},{"name":"誠和保育園","province":"東京都","city":"あきる野市","address":"あきる野市山田880","lat":35.725719,"lon":139.259691},{"name":"光明第六保育園","province":"東京都","city":"あきる野市","address":"あきる野市留原50","lat":35.723251,"lon":139.234511},{"name":"五日市保育園","province":"東京都","city":"あきる野市","address":"あきる野市五日市345","lat":35.731079,"lon":139.223733},{"name":"五日市わかば保育園","province":"東京都","city":"あきる野市","address":"あきる野市五日市98","lat":35.728829,"lon":139.224759},{"name":"すぎの子保育園","province":"東京都","city":"あきる野市","address":"あきる野市戸倉783","lat":35.731208,"lon":139.197998},{"name":"草花保育園","province":"東京都","city":"あきる野市","address":"あきる野市草花3056","lat":35.739188,"lon":139.30327},{"name":"神明保育園","province":"東京都","city":"あきる野市","address":"あきる野市瀬戸岡446","lat":35.738093,"lon":139.288399},{"name":"あきる野こどもの家","province":"東京都","city":"あきる野市","address":"あきる野市秋川三丁目7-9","lat":35.733474,"lon":139.284453},{"name":"秋川あすなろ保育園","province":"東京都","city":"あきる野市","address":"あきる野市原小宮二丁目6-6","lat":35.734006,"lon":139.301604},{"name":"屋城保育園","province":"東京都","city":"あきる野市","address":"あきる野市二宮東一丁目12-9","lat":35.724019,"lon":139.322605},{"name":"東秋留保育園","province":"東京都","city":"あきる野市","address":"あきる野市野辺1104","lat":35.724229,"lon":139.304785},{"name":"よつぎ第一保育園","province":"東京都","city":"あきる野市","address":"あきる野市雨間1067-6","lat":35.72026,"lon":139.298144},{"name":"よつぎ第二保育園","province":"東京都","city":"あきる野市","address":"あきる野市上代継218-1","lat":35.724178,"lon":139.278059},{"name":"西秋留保育園","province":"東京都","city":"あきる野市","address":"あきる野市上代継300","lat":35.722898,"lon":139.277112},{"name":"増戸保育園","province":"東京都","city":"あきる野市","address":"あきる野市横沢134","lat":35.732374,"lon":139.241529},{"name":"誠和保育園","province":"東京都","city":"あきる野市","address":"あきる野市山田880","lat":35.725719,"lon":139.259691},{"name":"光明第六保育園","province":"東京都","city":"あきる野市","address":"あきる野市留原50","lat":35.723251,"lon":139.234511},{"name":"五日市保育園","province":"東京都","city":"あきる野市","address":"あきる野市五日市345","lat":35.731079,"lon":139.223733},{"name":"五日市わかば保育園","province":"東京都","city":"あきる野市","address":"あきる野市五日市98","lat":35.728829,"lon":139.224759},{"name":"すぎの子保育園","province":"東京都","city":"あきる野市","address":"あきる野市戸倉783","lat":35.731208,"lon":139.197998},{"name":"草花保育園","province":"東京都","city":"あきる野市","address":"あきる野市草花3056","lat":35.739188,"lon":139.30327},{"name":"神明保育園","province":"東京都","city":"あきる野市","address":"あきる野市瀬戸岡446","lat":35.738093,"lon":139.288399},{"name":"あきる野こどもの家","province":"東京都","city":"あきる野市","address":"あきる野市秋川三丁目7-9","lat":35.733474,"lon":139.284453},{"name":"秋川あすなろ保育園","province":"東京都","city":"あきる野市","address":"あきる野市原小宮二丁目6-6","lat":35.734006,"lon":139.301604},{"name":"屋城保育園","province":"東京都","city":"あきる野市","address":"あきる野市二宮東一丁目12-9","lat":35.724019,"lon":139.322605},{"name":"東秋留保育園","province":"東京都","city":"あきる野市","address":"あきる野市野辺1104","lat":35.724229,"lon":139.304785},{"name":"よつぎ第一保育園","province":"東京都","city":"あきる野市","address":"あきる野市雨間1067-6","lat":35.72026,"lon":139.298144},{"name":"よつぎ第二保育園","province":"東京都","city":"あきる野市","address":"あきる野市上代継218-1","lat":35.724178,"lon":139.278059},{"name":"西秋留保育園","province":"東京都","city":"あきる野市","address":"あきる野市上代継300","lat":35.722898,"lon":139.277112},{"name":"増戸保育園","province":"東京都","city":"あきる野市","address":"あきる野市横沢134","lat":35.732374,"lon":139.241529},{"name":"誠和保育園","province":"東京都","city":"あきる野市","address":"あきる野市山田880","lat":35.725719,"lon":139.259691},{"name":"光明第六保育園","province":"東京都","city":"あきる野市","address":"あきる野市留原50","lat":35.723251,"lon":139.234511},{"name":"五日市保育園","province":"東京都","city":"あきる野市","address":"あきる野市五日市345","lat":35.731079,"lon":139.223733},{"name":"五日市わかば保育園","province":"東京都","city":"あきる野市","address":"あきる野市五日市98","lat":35.728829,"lon":139.224759},{"name":"すぎの子保育園","province":"東京都","city":"あきる野市","address":"あきる野市戸倉783","lat":35.731208,"lon":139.197998},{"name":"草花保育園","province":"東京都","city":"あきる野市","address":"あきる野市草花3056","lat":35.739188,"lon":139.30327},{"name":"神明保育園","province":"東京都","city":"あきる野市","address":"あきる野市瀬戸岡446","lat":35.738093,"lon":139.288399},{"name":"あきる野こどもの家","province":"東京都","city":"あきる野市","address":"あきる野市秋川三丁目7-9","lat":35.733474,"lon":139.284453},{"name":"秋川あすなろ保育園","province":"東京都","city":"あきる野市","address":"あきる野市原小宮二丁目6-6","lat":35.734006,"lon":139.301604},{"name":"屋城保育園","province":"東京都","city":"あきる野市","address":"あきる野市二宮東一丁目12-9","lat":35.724019,"lon":139.322605},{"name":"東秋留保育園","province":"東京都","city":"あきる野市","address":"あきる野市野辺1104","lat":35.724229,"lon":139.304785},{"name":"よつぎ第一保育園","province":"東京都","city":"あきる野市","address":"あきる野市雨間1067-6","lat":35.72026,"lon":139.298144},{"name":"よつぎ第二保育園","province":"東京都","city":"あきる野市","address":"あきる野市上代継218-1","lat":35.724178,"lon":139.278059},{"name":"西秋留保育園","province":"東京都","city":"あきる野市","address":"あきる野市上代継300","lat":35.722898,"lon":139.277112},{"name":"増戸保育園","province":"東京都","city":"あきる野市","address":"あきる野市横沢134","lat":35.732374,"lon":139.241529},{"name":"誠和保育園","province":"東京都","city":"あきる野市","address":"あきる野市山田880","lat":35.725719,"lon":139.259691},{"name":"光明第六保育園","province":"東京都","city":"あきる野市","address":"あきる野市留原50","lat":35.723251,"lon":139.234511},{"name":"五日市保育園","province":"東京都","city":"あきる野市","address":"あきる野市五日市345","lat":35.731079,"lon":139.223733},{"name":"五日市わかば保育園","province":"東京都","city":"あきる野市","address":"あきる野市五日市98","lat":35.728829,"lon":139.224759},{"name":"すぎの子保育園","province":"東京都","city":"あきる野市","address":"あきる野市戸倉783","lat":35.731208,"lon":139.197998},{"name":"草花保育園","province":"東京都","city":"あきる野市","address":"あきる野市草花3056","lat":35.739188,"lon":139.30327},{"name":"神明保育園","province":"東京都","city":"あきる野市","address":"あきる野市瀬戸岡446","lat":35.738093,"lon":139.288399},{"name":"あきる野こどもの家","province":"東京都","city":"あきる野市","address":"あきる野市秋川三丁目7-9","lat":35.733474,"lon":139.284453},{"name":"秋川あすなろ保育園","province":"東京都","city":"あきる野市","address":"あきる野市原小宮二丁目6-6","lat":35.734006,"lon":139.301604},{"name":"屋城保育園","province":"東京都","city":"あきる野市","address":"あきる野市二宮東一丁目12-9","lat":35.724019,"lon":139.322605},{"name":"東秋留保育園","province":"東京都","city":"あきる野市","address":"あきる野市野辺1104","lat":35.724229,"lon":139.304785},{"name":"よつぎ第一保育園","province":"東京都","city":"あきる野市","address":"あきる野市雨間1067-6","lat":35.72026,"lon":139.298144},{"name":"よつぎ第二保育園","province":"東京都","city":"あきる野市","address":"あきる野市上代継218-1","lat":35.724178,"lon":139.278059},{"name":"西秋留保育園","province":"東京都","city":"あきる野市","address":"あきる野市上代継300","lat":35.722898,"lon":139.277112},{"name":"増戸保育園","province":"東京都","city":"あきる野市","address":"あきる野市横沢134","lat":35.732374,"lon":139.241529},{"name":"誠和保育園","province":"東京都","city":"あきる野市","address":"あきる野市山田880","lat":35.725719,"lon":139.259691},{"name":"光明第六保育園","province":"東京都","city":"あきる野市","address":"あきる野市留原50","lat":35.723251,"lon":139.234511},{"name":"五日市保育園","province":"東京都","city":"あきる野市","address":"あきる野市五日市345","lat":35.731079,"lon":139.223733},{"name":"五日市わかば保育園","province":"東京都","city":"あきる野市","address":"あきる野市五日市98","lat":35.728829,"lon":139.224759},{"name":"すぎの子保育園","province":"東京都","city":"あきる野市","address":"あきる野市戸倉783","lat":35.731208,"lon":139.197998},{"name":"草花保育園","province":"東京都","city":"あきる野市","address":"あきる野市草花3056","lat":35.739188,"lon":139.30327},{"name":"神明保育園","province":"東京都","city":"あきる野市","address":"あきる野市瀬戸岡446","lat":35.738093,"lon":139.288399},{"name":"あきる野こどもの家","province":"東京都","city":"あきる野市","address":"あきる野市秋川三丁目7-9","lat":35.733474,"lon":139.284453},{"name":"秋川あすなろ保育園","province":"東京都","city":"あきる野市","address":"あきる野市原小宮二丁目6-6","lat":35.734006,"lon":139.301604},{"name":"屋城保育園","province":"東京都","city":"あきる野市","address":"あきる野市二宮東一丁目12-9","lat":35.724019,"lon":139.322605},{"name":"東秋留保育園","province":"東京都","city":"あきる野市","address":"あきる野市野辺1104","lat":35.724229,"lon":139.304785},{"name":"よつぎ第一保育園","province":"東京都","city":"あきる野市","address":"あきる野市雨間1067-6","lat":35.72026,"lon":139.298144},{"name":"よつぎ第二保育園","province":"東京都","city":"あきる野市","address":"あきる野市上代継218-1","lat":35.724178,"lon":139.278059},{"name":"西秋留保育園","province":"東京都","city":"あきる野市","address":"あきる野市上代継300","lat":35.722898,"lon":139.277112},{"name":"増戸保育園","province":"東京都","city":"あきる野市","address":"あきる野市横沢134","lat":35.732374,"lon":139.241529},{"name":"誠和保育園","province":"東京都","city":"あきる野市","address":"あきる野市山田880","lat":35.725719,"lon":139.259691},{"name":"光明第六保育園","province":"東京都","city":"あきる野市","address":"あきる野市留原50","lat":35.723251,"lon":139.234511},{"name":"五日市保育園","province":"東京都","city":"あきる野市","address":"あきる野市五日市345","lat":35.731079,"lon":139.223733},{"name":"五日市わかば保育園","province":"東京都","city":"あきる野市","address":"あきる野市五日市98","lat":35.728829,"lon":139.224759},{"name":"すぎの子保育園","province":"東京都","city":"あきる野市","address":"あきる野市戸倉783","lat":35.731208,"lon":139.197998},{"name":"草花保育園","province":"東京都","city":"あきる野市","address":"あきる野市草花3056","lat":35.739188,"lon":139.30327},{"name":"神明保育園","province":"東京都","city":"あきる野市","address":"あきる野市瀬戸岡446","lat":35.738093,"lon":139.288399},{"name":"あきる野こどもの家","province":"東京都","city":"あきる野市","address":"あきる野市秋川三丁目7-9","lat":35.733474,"lon":139.284453},{"name":"秋川あすなろ保育園","province":"東京都","city":"あきる野市","address":"あきる野市原小宮二丁目6-6","lat":35.734006,"lon":139.301604},{"name":"屋城保育園","province":"東京都","city":"あきる野市","address":"あきる野市二宮東一丁目12-9","lat":35.724019,"lon":139.322605},{"name":"東秋留保育園","province":"東京都","city":"あきる野市","address":"あきる野市野辺1104","lat":35.724229,"lon":139.304785},{"name":"よつぎ第一保育園","province":"東京都","city":"あきる野市","address":"あきる野市雨間1067-6","lat":35.72026,"lon":139.298144},{"name":"よつぎ第二保育園","province":"東京都","city":"あきる野市","address":"あきる野市上代継218-1","lat":35.724178,"lon":139.278059},{"name":"西秋留保育園","province":"東京都","city":"あきる野市","address":"あきる野市上代継300","lat":35.722898,"lon":139.277112},{"name":"増戸保育園","province":"東京都","city":"あきる野市","address":"あきる野市横沢134","lat":35.732374,"lon":139.241529},{"name":"誠和保育園","province":"東京都","city":"あきる野市","address":"あきる野市山田880","lat":35.725719,"lon":139.259691},{"name":"光明第六保育園","province":"東京都","city":"あきる野市","address":"あきる野市留原50","lat":35.723251,"lon":139.234511},{"name":"五日市保育園","province":"東京都","city":"あきる野市","address":"あきる野市五日市345","lat":35.731079,"lon":139.223733},{"name":"五日市わかば保育園","province":"東京都","city":"あきる野市","address":"あきる野市五日市98","lat":35.728829,"lon":139.224759},{"name":"すぎの子保育園","province":"東京都","city":"あきる野市","address":"あきる野市戸倉783","lat":35.731208,"lon":139.197998},{"name":"草花保育園","province":"東京都","city":"あきる野市","address":"あきる野市草花3056","lat":35.739188,"lon":139.30327},{"name":"神明保育園","province":"東京都","city":"あきる野市","address":"あきる野市瀬戸岡446","lat":35.738093,"lon":139.288399},{"name":"あきる野こどもの家","province":"東京都","city":"あきる野市","address":"あきる野市秋川三丁目7-9","lat":35.733474,"lon":139.284453},{"name":"秋川あすなろ保育園","province":"東京都","city":"あきる野市","address":"あきる野市原小宮二丁目6-6","lat":35.734006,"lon":139.301604},{"name":"屋城保育園","province":"東京都","city":"あきる野市","address":"あきる野市二宮東一丁目12-9","lat":35.724019,"lon":139.322605},{"name":"東秋留保育園","province":"東京都","city":"あきる野市","address":"あきる野市野辺1104","lat":35.724229,"lon":139.304785},{"name":"よつぎ第一保育園","province":"東京都","city":"あきる野市","address":"あきる野市雨間1067-6","lat":35.72026,"lon":139.298144},{"name":"よつぎ第二保育園","province":"東京都","city":"あきる野市","address":"あきる野市上代継218-1","lat":35.724178,"lon":139.278059},{"name":"西秋留保育園","province":"東京都","city":"あきる野市","address":"あきる野市上代継300","lat":35.722898,"lon":139.277112},{"name":"増戸保育園","province":"東京都","city":"あきる野市","address":"あきる野市横沢134","lat":35.732374,"lon":139.241529},{"name":"誠和保育園","province":"東京都","city":"あきる野市","address":"あきる野市山田880","lat":35.725719,"lon":139.259691},{"name":"光明第六保育園","province":"東京都","city":"あきる野市","address":"あきる野市留原50","lat":35.723251,"lon":139.234511},{"name":"五日市保育園","province":"東京都","city":"あきる野市","address":"あきる野市五日市345","lat":35.731079,"lon":139.223733},{"name":"五日市わかば保育園","province":"東京都","city":"あきる野市","address":"あきる野市五日市98","lat":35.728829,"lon":139.224759},{"name":"すぎの子保育園","province":"東京都","city":"あきる野市","address":"あきる野市戸倉783","lat":35.731208,"lon":139.197998},{"name":"草花保育園","province":"東京都","city":"あきる野市","address":"あきる野市草花3056","lat":35.739188,"lon":139.30327},{"name":"神明保育園","province":"東京都","city":"あきる野市","address":"あきる野市瀬戸岡446","lat":35.738093,"lon":139.288399},{"name":"あきる野こどもの家","province":"東京都","city":"あきる野市","address":"あきる野市秋川三丁目7-9","lat":35.733474,"lon":139.284453},{"name":"秋川あすなろ保育園","province":"東京都","city":"あきる野市","address":"あきる野市原小宮二丁目6-6","lat":35.734006,"lon":139.301604},{"name":"屋城保育園","province":"東京都","city":"あきる野市","address":"あきる野市二宮東一丁目12-9","lat":35.724019,"lon":139.322605},{"name":"東秋留保育園","province":"東京都","city":"あきる野市","address":"あきる野市野辺1104","lat":35.724229,"lon":139.304785},{"name":"よつぎ第一保育園","province":"東京都","city":"あきる野市","address":"あきる野市雨間1067-6","lat":35.72026,"lon":139.298144},{"name":"よつぎ第二保育園","province":"東京都","city":"あきる野市","address":"あきる野市上代継218-1","lat":35.724178,"lon":139.278059},{"name":"西秋留保育園","province":"東京都","city":"あきる野市","address":"あきる野市上代継300","lat":35.722898,"lon":139.277112},{"name":"増戸保育園","province":"東京都","city":"あきる野市","address":"あきる野市横沢134","lat":35.732374,"lon":139.241529},{"name":"誠和保育園","province":"東京都","city":"あきる野市","address":"あきる野市山田880","lat":35.725719,"lon":139.259691},{"name":"光明第六保育園","province":"東京都","city":"あきる野市","address":"あきる野市留原50","lat":35.723251,"lon":139.234511},{"name":"五日市保育園","province":"東京都","city":"あきる野市","address":"あきる野市五日市345","lat":35.731079,"lon":139.223733},{"name":"五日市わかば保育園","province":"東京都","city":"あきる野市","address":"あきる野市五日市98","lat":35.728829,"lon":139.224759},{"name":"すぎの子保育園","province":"東京都","city":"あきる野市","address":"あきる野市戸倉783","lat":35.731208,"lon":139.197998},{"name":"草花保育園","province":"東京都","city":"あきる野市","address":"あきる野市草花3056","lat":35.739188,"lon":139.30327},{"name":"神明保育園","province":"東京都","city":"あきる野市","address":"あきる野市瀬戸岡446","lat":35.738093,"lon":139.288399},{"name":"あきる野こどもの家","province":"東京都","city":"あきる野市","address":"あきる野市秋川三丁目7-9","lat":35.733474,"lon":139.284453},{"name":"秋川あすなろ保育園","province":"東京都","city":"あきる野市","address":"あきる野市原小宮二丁目6-6","lat":35.734006,"lon":139.301604},{"name":"屋城保育園","province":"東京都","city":"あきる野市","address":"あきる野市二宮東一丁目12-9","lat":35.724019,"lon":139.322605},{"name":"東秋留保育園","province":"東京都","city":"あきる野市","address":"あきる野市野辺1104","lat":35.724229,"lon":139.304785},{"name":"よつぎ第一保育園","province":"東京都","city":"あきる野市","address":"あきる野市雨間1067-6","lat":35.72026,"lon":139.298144},{"name":"よつぎ第二保育園","province":"東京都","city":"あきる野市","address":"あきる野市上代継218-1","lat":35.724178,"lon":139.278059},{"name":"西秋留保育園","province":"東京都","city":"あきる野市","address":"あきる野市上代継300","lat":35.722898,"lon":139.277112},{"name":"増戸保育園","province":"東京都","city":"あきる野市","address":"あきる野市横沢134","lat":35.732374,"lon":139.241529},{"name":"誠和保育園","province":"東京都","city":"あきる野市","address":"あきる野市山田880","lat":35.725719,"lon":139.259691},{"name":"光明第六保育園","province":"東京都","city":"あきる野市","address":"あきる野市留原50","lat":35.723251,"lon":139.234511},{"name":"五日市保育園","province":"東京都","city":"あきる野市","address":"あきる野市五日市345","lat":35.731079,"lon":139.223733},{"name":"五日市わかば保育園","province":"東京都","city":"あきる野市","address":"あきる野市五日市98","lat":35.728829,"lon":139.224759},{"name":"すぎの子保育園","province":"東京都","city":"あきる野市","address":"あきる野市戸倉783","lat":35.731208,"lon":139.197998},{"name":"草花保育園","province":"東京都","city":"あきる野市","address":"あきる野市草花3056","lat":35.739188,"lon":139.30327},{"name":"神明保育園","province":"東京都","city":"あきる野市","address":"あきる野市瀬戸岡446","lat":35.738093,"lon":139.288399},{"name":"あきる野こどもの家","province":"東京都","city":"あきる野市","address":"あきる野市秋川三丁目7-9","lat":35.733474,"lon":139.284453},{"name":"秋川あすなろ保育園","province":"東京都","city":"あきる野市","address":"あきる野市原小宮二丁目6-6","lat":35.734006,"lon":139.301604},{"name":"屋城保育園","province":"東京都","city":"あきる野市","address":"あきる野市二宮東一丁目12-9","lat":35.724019,"lon":139.322605},{"name":"東秋留保育園","province":"東京都","city":"あきる野市","address":"あきる野市野辺1104","lat":35.724229,"lon":139.304785},{"name":"よつぎ第一保育園","province":"東京都","city":"あきる野市","address":"あきる野市雨間1067-6","lat":35.72026,"lon":139.298144},{"name":"よつぎ第二保育園","province":"東京都","city":"あきる野市","address":"あきる野市上代継218-1","lat":35.724178,"lon":139.278059},{"name":"西秋留保育園","province":"東京都","city":"あきる野市","address":"あきる野市上代継300","lat":35.722898,"lon":139.277112},{"name":"増戸保育園","province":"東京都","city":"あきる野市","address":"あきる野市横沢134","lat":35.732374,"lon":139.241529},{"name":"誠和保育園","province":"東京都","city":"あきる野市","address":"あきる野市山田880","lat":35.725719,"lon":139.259691},{"name":"光明第六保育園","province":"東京都","city":"あきる野市","address":"あきる野市留原50","lat":35.723251,"lon":139.234511},{"name":"五日市保育園","province":"東京都","city":"あきる野市","address":"あきる野市五日市345","lat":35.731079,"lon":139.223733},{"name":"五日市わかば保育園","province":"東京都","city":"あきる野市","address":"あきる野市五日市98","lat":35.728829,"lon":139.224759},{"name":"すぎの子保育園","province":"東京都","city":"あきる野市","address":"あきる野市戸倉783","lat":35.731208,"lon":139.197998},{"name":"草花保育園","province":"東京都","city":"あきる野市","address":"あきる野市草花3056","lat":35.739188,"lon":139.30327},{"name":"神明保育園","province":"東京都","city":"あきる野市","address":"あきる野市瀬戸岡446","lat":35.738093,"lon":139.288399},{"name":"あきる野こどもの家","province":"東京都","city":"あきる野市","address":"あきる野市秋川三丁目7-9","lat":35.733474,"lon":139.284453},{"name":"秋川あすなろ保育園","province":"東京都","city":"あきる野市","address":"あきる野市原小宮二丁目6-6","lat":35.734006,"lon":139.301604},{"name":"屋城保育園","province":"東京都","city":"あきる野市","address":"あきる野市二宮東一丁目12-9","lat":35.724019,"lon":139.322605},{"name":"東秋留保育園","province":"東京都","city":"あきる野市","address":"あきる野市野辺1104","lat":35.724229,"lon":139.304785},{"name":"よつぎ第一保育園","province":"東京都","city":"あきる野市","address":"あきる野市雨間1067-6","lat":35.72026,"lon":139.298144},{"name":"よつぎ第二保育園","province":"東京都","city":"あきる野市","address":"あきる野市上代継218-1","lat":35.724178,"lon":139.278059},{"name":"西秋留保育園","province":"東京都","city":"あきる野市","address":"あきる野市上代継300","lat":35.722898,"lon":139.277112},{"name":"増戸保育園","province":"東京都","city":"あきる野市","address":"あきる野市横沢134","lat":35.732374,"lon":139.241529},{"name":"誠和保育園","province":"東京都","city":"あきる野市","address":"あきる野市山田880","lat":35.725719,"lon":139.259691},{"name":"光明第六保育園","province":"東京都","city":"あきる野市","address":"あきる野市留原50","lat":35.723251,"lon":139.234511},{"name":"五日市保育園","province":"東京都","city":"あきる野市","address":"あきる野市五日市345","lat":35.731079,"lon":139.223733},{"name":"五日市わかば保育園","province":"東京都","city":"あきる野市","address":"あきる野市五日市98","lat":35.728829,"lon":139.224759},{"name":"すぎの子保育園","province":"東京都","city":"あきる野市","address":"あきる野市戸倉783","lat":35.731208,"lon":139.197998},{"name":"草花保育園","province":"東京都","city":"あきる野市","address":"あきる野市草花3056","lat":35.739188,"lon":139.30327},{"name":"神明保育園","province":"東京都","city":"あきる野市","address":"あきる野市瀬戸岡446","lat":35.738093,"lon":139.288399},{"name":"あきる野こどもの家","province":"東京都","city":"あきる野市","address":"あきる野市秋川三丁目7-9","lat":35.733474,"lon":139.284453},{"name":"秋川あすなろ保育園","province":"東京都","city":"あきる野市","address":"あきる野市原小宮二丁目6-6","lat":35.734006,"lon":139.301604},{"name":"屋城保育園","province":"東京都","city":"あきる野市","address":"あきる野市二宮東一丁目12-9","lat":35.724019,"lon":139.322605},{"name":"東秋留保育園","province":"東京都","city":"あきる野市","address":"あきる野市野辺1104","lat":35.724229,"lon":139.304785},{"name":"よつぎ第一保育園","province":"東京都","city":"あきる野市","address":"あきる野市雨間1067-6","lat":35.72026,"lon":139.298144},{"name":"よつぎ第二保育園","province":"東京都","city":"あきる野市","address":"あきる野市上代継218-1","lat":35.724178,"lon":139.278059},{"name":"西秋留保育園","province":"東京都","city":"あきる野市","address":"あきる野市上代継300","lat":35.722898,"lon":139.277112},{"name":"増戸保育園","province":"東京都","city":"あきる野市","address":"あきる野市横沢134","lat":35.732374,"lon":139.241529},{"name":"誠和保育園","province":"東京都","city":"あきる野市","address":"あきる野市山田880","lat":35.725719,"lon":139.259691},{"name":"光明第六保育園","province":"東京都","city":"あきる野市","address":"あきる野市留原50","lat":35.723251,"lon":139.234511},{"name":"五日市保育園","province":"東京都","city":"あきる野市","address":"あきる野市五日市345","lat":35.731079,"lon":139.223733},{"name":"五日市わかば保育園","province":"東京都","city":"あきる野市","address":"あきる野市五日市98","lat":35.728829,"lon":139.224759},{"name":"すぎの子保育園","province":"東京都","city":"あきる野市","address":"あきる野市戸倉783","lat":35.731208,"lon":139.197998},{"name":"草花保育園","province":"東京都","city":"あきる野市","address":"あきる野市草花3056","lat":35.739188,"lon":139.30327},{"name":"神明保育園","province":"東京都","city":"あきる野市","address":"あきる野市瀬戸岡446","lat":35.738093,"lon":139.288399},{"name":"あきる野こどもの家","province":"東京都","city":"あきる野市","address":"あきる野市秋川三丁目7-9","lat":35.733474,"lon":139.284453},{"name":"秋川あすなろ保育園","province":"東京都","city":"あきる野市","address":"あきる野市原小宮二丁目6-6","lat":35.734006,"lon":139.301604},{"name":"屋城保育園","province":"東京都","city":"あきる野市","address":"あきる野市二宮東一丁目12-9","lat":35.724019,"lon":139.322605},{"name":"東秋留保育園","province":"東京都","city":"あきる野市","address":"あきる野市野辺1104","lat":35.724229,"lon":139.304785},{"name":"よつぎ第一保育園","province":"東京都","city":"あきる野市","address":"あきる野市雨間1067-6","lat":35.72026,"lon":139.298144},{"name":"よつぎ第二保育園","province":"東京都","city":"あきる野市","address":"あきる野市上代継218-1","lat":35.724178,"lon":139.278059},{"name":"西秋留保育園","province":"東京都","city":"あきる野市","address":"あきる野市上代継300","lat":35.722898,"lon":139.277112},{"name":"増戸保育園","province":"東京都","city":"あきる野市","address":"あきる野市横沢134","lat":35.732374,"lon":139.241529},{"name":"誠和保育園","province":"東京都","city":"あきる野市","address":"あきる野市山田880","lat":35.725719,"lon":139.259691},{"name":"光明第六保育園","province":"東京都","city":"あきる野市","address":"あきる野市留原50","lat":35.723251,"lon":139.234511},{"name":"五日市保育園","province":"東京都","city":"あきる野市","address":"あきる野市五日市345","lat":35.731079,"lon":139.223733},{"name":"五日市わかば保育園","province":"東京都","city":"あきる野市","address":"あきる野市五日市98","lat":35.728829,"lon":139.224759},{"name":"すぎの子保育園","province":"東京都","city":"あきる野市","address":"あきる野市戸倉783","lat":35.731208,"lon":139.197998},{"name":"草花保育園","province":"東京都","city":"あきる野市","address":"あきる野市草花3056","lat":35.739188,"lon":139.30327},{"name":"神明保育園","province":"東京都","city":"あきる野市","address":"あきる野市瀬戸岡446","lat":35.738093,"lon":139.288399},{"name":"あきる野こどもの家","province":"東京都","city":"あきる野市","address":"あきる野市秋川三丁目7-9","lat":35.733474,"lon":139.284453},{"name":"秋川あすなろ保育園","province":"東京都","city":"あきる野市","address":"あきる野市原小宮二丁目6-6","lat":35.734006,"lon":139.301604},{"name":"屋城保育園","province":"東京都","city":"あきる野市","address":"あきる野市二宮東一丁目12-9","lat":35.724019,"lon":139.322605},{"name":"東秋留保育園","province":"東京都","city":"あきる野市","address":"あきる野市野辺1104","lat":35.724229,"lon":139.304785},{"name":"よつぎ第一保育園","province":"東京都","city":"あきる野市","address":"あきる野市雨間1067-6","lat":35.72026,"lon":139.298144},{"name":"よつぎ第二保育園","province":"東京都","city":"あきる野市","address":"あきる野市上代継218-1","lat":35.724178,"lon":139.278059},{"name":"西秋留保育園","province":"東京都","city":"あきる野市","address":"あきる野市上代継300","lat":35.722898,"lon":139.277112},{"name":"増戸保育園","province":"東京都","city":"あきる野市","address":"あきる野市横沢134","lat":35.732374,"lon":139.241529},{"name":"誠和保育園","province":"東京都","city":"あきる野市","address":"あきる野市山田880","lat":35.725719,"lon":139.259691},{"name":"光明第六保育園","province":"東京都","city":"あきる野市","address":"あきる野市留原50","lat":35.723251,"lon":139.234511},{"name":"五日市保育園","province":"東京都","city":"あきる野市","address":"あきる野市五日市345","lat":35.731079,"lon":139.223733},{"name":"五日市わかば保育園","province":"東京都","city":"あきる野市","address":"あきる野市五日市98","lat":35.728829,"lon":139.224759},{"name":"すぎの子保育園","province":"東京都","city":"あきる野市","address":"あきる野市戸倉783","lat":35.731208,"lon":139.197998},{"name":"草花保育園","province":"東京都","city":"あきる野市","address":"あきる野市草花3056","lat":35.739188,"lon":139.30327},{"name":"神明保育園","province":"東京都","city":"あきる野市","address":"あきる野市瀬戸岡446","lat":35.738093,"lon":139.288399},{"name":"あきる野こどもの家","province":"東京都","city":"あきる野市","address":"あきる野市秋川三丁目7-9","lat":35.733474,"lon":139.284453},{"name":"秋川あすなろ保育園","province":"東京都","city":"あきる野市","address":"あきる野市原小宮二丁目6-6","lat":35.734006,"lon":139.301604},{"name":"屋城保育園","province":"東京都","city":"あきる野市","address":"あきる野市二宮東一丁目12-9","lat":35.724019,"lon":139.322605},{"name":"東秋留保育園","province":"東京都","city":"あきる野市","address":"あきる野市野辺1104","lat":35.724229,"lon":139.304785},{"name":"よつぎ第一保育園","province":"東京都","city":"あきる野市","address":"あきる野市雨間1067-6","lat":35.72026,"lon":139.298144},{"name":"よつぎ第二保育園","province":"東京都","city":"あきる野市","address":"あきる野市上代継218-1","lat":35.724178,"lon":139.278059},{"name":"西秋留保育園","province":"東京都","city":"あきる野市","address":"あきる野市上代継300","lat":35.722898,"lon":139.277112},{"name":"増戸保育園","province":"東京都","city":"あきる野市","address":"あきる野市横沢134","lat":35.732374,"lon":139.241529},{"name":"誠和保育園","province":"東京都","city":"あきる野市","address":"あきる野市山田880","lat":35.725719,"lon":139.259691},{"name":"光明第六保育園","province":"東京都","city":"あきる野市","address":"あきる野市留原50","lat":35.723251,"lon":139.234511},{"name":"五日市保育園","province":"東京都","city":"あきる野市","address":"あきる野市五日市345","lat":35.731079,"lon":139.223733},{"name":"五日市わかば保育園","province":"東京都","city":"あきる野市","address":"あきる野市五日市98","lat":35.728829,"lon":139.224759},{"name":"すぎの子保育園","province":"東京都","city":"あきる野市","address":"あきる野市戸倉783","lat":35.731208,"lon":139.197998},{"name":"草花保育園","province":"東京都","city":"あきる野市","address":"あきる野市草花3056","lat":35.739188,"lon":139.30327},{"name":"神明保育園","province":"東京都","city":"あきる野市","address":"あきる野市瀬戸岡446","lat":35.738093,"lon":139.288399},{"name":"あきる野こどもの家","province":"東京都","city":"あきる野市","address":"あきる野市秋川三丁目7-9","lat":35.733474,"lon":139.284453},{"name":"秋川あすなろ保育園","province":"東京都","city":"あきる野市","address":"あきる野市原小宮二丁目6-6","lat":35.734006,"lon":139.301604},{"name":"屋城保育園","province":"東京都","city":"あきる野市","address":"あきる野市二宮東一丁目12-9","lat":35.724019,"lon":139.322605},{"name":"東秋留保育園","province":"東京都","city":"あきる野市","address":"あきる野市野辺1104","lat":35.724229,"lon":139.304785},{"name":"よつぎ第一保育園","province":"東京都","city":"あきる野市","address":"あきる野市雨間1067-6","lat":35.72026,"lon":139.298144},{"name":"よつぎ第二保育園","province":"東京都","city":"あきる野市","address":"あきる野市上代継218-1","lat":35.724178,"lon":139.278059},{"name":"西秋留保育園","province":"東京都","city":"あきる野市","address":"あきる野市上代継300","lat":35.722898,"lon":139.277112},{"name":"増戸保育園","province":"東京都","city":"あきる野市","address":"あきる野市横沢134","lat":35.732374,"lon":139.241529},{"name":"誠和保育園","province":"東京都","city":"あきる野市","address":"あきる野市山田880","lat":35.725719,"lon":139.259691},{"name":"光明第六保育園","province":"東京都","city":"あきる野市","address":"あきる野市留原50","lat":35.723251,"lon":139.234511},{"name":"五日市保育園","province":"東京都","city":"あきる野市","address":"あきる野市五日市345","lat":35.731079,"lon":139.223733},{"name":"五日市わかば保育園","province":"東京都","city":"あきる野市","address":"あきる野市五日市98","lat":35.728829,"lon":139.224759},{"name":"すぎの子保育園","province":"東京都","city":"あきる野市","address":"あきる野市戸倉783","lat":35.731208,"lon":139.197998},{"name":"草花保育園","province":"東京都","city":"あきる野市","address":"あきる野市草花3056","lat":35.739188,"lon":139.30327},{"name":"神明保育園","province":"東京都","city":"あきる野市","address":"あきる野市瀬戸岡446","lat":35.738093,"lon":139.288399},{"name":"あきる野こどもの家","province":"東京都","city":"あきる野市","address":"あきる野市秋川三丁目7-9","lat":35.733474,"lon":139.284453},{"name":"秋川あすなろ保育園","province":"東京都","city":"あきる野市","address":"あきる野市原小宮二丁目6-6","lat":35.734006,"lon":139.301604},{"name":"屋城保育園","province":"東京都","city":"あきる野市","address":"あきる野市二宮東一丁目12-9","lat":35.724019,"lon":139.322605},{"name":"東秋留保育園","province":"東京都","city":"あきる野市","address":"あきる野市野辺1104","lat":35.724229,"lon":139.304785},{"name":"よつぎ第一保育園","province":"東京都","city":"あきる野市","address":"あきる野市雨間1067-6","lat":35.72026,"lon":139.298144},{"name":"よつぎ第二保育園","province":"東京都","city":"あきる野市","address":"あきる野市上代継218-1","lat":35.724178,"lon":139.278059},{"name":"西秋留保育園","province":"東京都","city":"あきる野市","address":"あきる野市上代継300","lat":35.722898,"lon":139.277112},{"name":"増戸保育園","province":"東京都","city":"あきる野市","address":"あきる野市横沢134","lat":35.732374,"lon":139.241529},{"name":"誠和保育園","province":"東京都","city":"あきる野市","address":"あきる野市山田880","lat":35.725719,"lon":139.259691},{"name":"光明第六保育園","province":"東京都","city":"あきる野市","address":"あきる野市留原50","lat":35.723251,"lon":139.234511},{"name":"五日市保育園","province":"東京都","city":"あきる野市","address":"あきる野市五日市345","lat":35.731079,"lon":139.223733},{"name":"五日市わかば保育園","province":"東京都","city":"あきる野市","address":"あきる野市五日市98","lat":35.728829,"lon":139.224759},{"name":"すぎの子保育園","province":"東京都","city":"あきる野市","address":"あきる野市戸倉783","lat":35.731208,"lon":139.197998},{"name":"草花保育園","province":"東京都","city":"あきる野市","address":"あきる野市草花3056","lat":35.739188,"lon":139.30327},{"name":"神明保育園","province":"東京都","city":"あきる野市","address":"あきる野市瀬戸岡446","lat":35.738093,"lon":139.288399},{"name":"あきる野こどもの家","province":"東京都","city":"あきる野市","address":"あきる野市秋川三丁目7-9","lat":35.733474,"lon":139.284453},{"name":"秋川あすなろ保育園","province":"東京都","city":"あきる野市","address":"あきる野市原小宮二丁目6-6","lat":35.734006,"lon":139.301604},{"name":"屋城保育園","province":"東京都","city":"あきる野市","address":"あきる野市二宮東一丁目12-9","lat":35.724019,"lon":139.322605},{"name":"東秋留保育園","province":"東京都","city":"あきる野市","address":"あきる野市野辺1104","lat":35.724229,"lon":139.304785},{"name":"よつぎ第一保育園","province":"東京都","city":"あきる野市","address":"あきる野市雨間1067-6","lat":35.72026,"lon":139.298144},{"name":"よつぎ第二保育園","province":"東京都","city":"あきる野市","address":"あきる野市上代継218-1","lat":35.724178,"lon":139.278059},{"name":"西秋留保育園","province":"東京都","city":"あきる野市","address":"あきる野市上代継300","lat":35.722898,"lon":139.277112},{"name":"増戸保育園","province":"東京都","city":"あきる野市","address":"あきる野市横沢134","lat":35.732374,"lon":139.241529},{"name":"誠和保育園","province":"東京都","city":"あきる野市","address":"あきる野市山田880","lat":35.725719,"lon":139.259691},{"name":"光明第六保育園","province":"東京都","city":"あきる野市","address":"あきる野市留原50","lat":35.723251,"lon":139.234511},{"name":"五日市保育園","province":"東京都","city":"あきる野市","address":"あきる野市五日市345","lat":35.731079,"lon":139.223733},{"name":"五日市わかば保育園","province":"東京都","city":"あきる野市","address":"あきる野市五日市98","lat":35.728829,"lon":139.224759},{"name":"すぎの子保育園","province":"東京都","city":"あきる野市","address":"あきる野市戸倉783","lat":35.731208,"lon":139.197998},{"name":"草花保育園","province":"東京都","city":"あきる野市","address":"あきる野市草花3056","lat":35.739188,"lon":139.30327},{"name":"神明保育園","province":"東京都","city":"あきる野市","address":"あきる野市瀬戸岡446","lat":35.738093,"lon":139.288399},{"name":"あきる野こどもの家","province":"東京都","city":"あきる野市","address":"あきる野市秋川三丁目7-9","lat":35.733474,"lon":139.284453},{"name":"秋川あすなろ保育園","province":"東京都","city":"あきる野市","address":"あきる野市原小宮二丁目6-6","lat":35.734006,"lon":139.301604},{"name":"屋城保育園","province":"東京都","city":"あきる野市","address":"あきる野市二宮東一丁目12-9","lat":35.724019,"lon":139.322605},{"name":"東秋留保育園","province":"東京都","city":"あきる野市","address":"あきる野市野辺1104","lat":35.724229,"lon":139.304785},{"name":"よつぎ第一保育園","province":"東京都","city":"あきる野市","address":"あきる野市雨間1067-6","lat":35.72026,"lon":139.298144},{"name":"よつぎ第二保育園","province":"東京都","city":"あきる野市","address":"あきる野市上代継218-1","lat":35.724178,"lon":139.278059},{"name":"西秋留保育園","province":"東京都","city":"あきる野市","address":"あきる野市上代継300","lat":35.722898,"lon":139.277112},{"name":"増戸保育園","province":"東京都","city":"あきる野市","address":"あきる野市横沢134","lat":35.732374,"lon":139.241529},{"name":"誠和保育園","province":"東京都","city":"あきる野市","address":"あきる野市山田880","lat":35.725719,"lon":139.259691},{"name":"光明第六保育園","province":"東京都","city":"あきる野市","address":"あきる野市留原50","lat":35.723251,"lon":139.234511},{"name":"五日市保育園","province":"東京都","city":"あきる野市","address":"あきる野市五日市345","lat":35.731079,"lon":139.223733},{"name":"五日市わかば保育園","province":"東京都","city":"あきる野市","address":"あきる野市五日市98","lat":35.728829,"lon":139.224759},{"name":"すぎの子保育園","province":"東京都","city":"あきる野市","address":"あきる野市戸倉783","lat":35.731208,"lon":139.197998},{"name":"草花保育園","province":"東京都","city":"あきる野市","address":"あきる野市草花3056","lat":35.739188,"lon":139.30327},{"name":"神明保育園","province":"東京都","city":"あきる野市","address":"あきる野市瀬戸岡446","lat":35.738093,"lon":139.288399},{"name":"あきる野こどもの家","province":"東京都","city":"あきる野市","address":"あきる野市秋川三丁目7-9","lat":35.733474,"lon":139.284453},{"name":"秋川あすなろ保育園","province":"東京都","city":"あきる野市","address":"あきる野市原小宮二丁目6-6","lat":35.734006,"lon":139.301604},{"name":"屋城保育園","province":"東京都","city":"あきる野市","address":"あきる野市二宮東一丁目12-9","lat":35.724019,"lon":139.322605},{"name":"東秋留保育園","province":"東京都","city":"あきる野市","address":"あきる野市野辺1104","lat":35.724229,"lon":139.304785},{"name":"よつぎ第一保育園","province":"東京都","city":"あきる野市","address":"あきる野市雨間1067-6","lat":35.72026,"lon":139.298144},{"name":"よつぎ第二保育園","province":"東京都","city":"あきる野市","address":"あきる野市上代継218-1","lat":35.724178,"lon":139.278059},{"name":"西秋留保育園","province":"東京都","city":"あきる野市","address":"あきる野市上代継300","lat":35.722898,"lon":139.277112},{"name":"増戸保育園","province":"東京都","city":"あきる野市","address":"あきる野市横沢134","lat":35.732374,"lon":139.241529},{"name":"誠和保育園","province":"東京都","city":"あきる野市","address":"あきる野市山田880","lat":35.725719,"lon":139.259691},{"name":"光明第六保育園","province":"東京都","city":"あきる野市","address":"あきる野市留原50","lat":35.723251,"lon":139.234511},{"name":"五日市保育園","province":"東京都","city":"あきる野市","address":"あきる野市五日市345","lat":35.731079,"lon":139.223733},{"name":"五日市わかば保育園","province":"東京都","city":"あきる野市","address":"あきる野市五日市98","lat":35.728829,"lon":139.224759},{"name":"すぎの子保育園","province":"東京都","city":"あきる野市","address":"あきる野市戸倉783","lat":35.731208,"lon":139.197998},{"name":"草花保育園","province":"東京都","city":"あきる野市","address":"あきる野市草花3056","lat":35.739188,"lon":139.30327},{"name":"神明保育園","province":"東京都","city":"あきる野市","address":"あきる野市瀬戸岡446","lat":35.738093,"lon":139.288399},{"name":"あきる野こどもの家","province":"東京都","city":"あきる野市","address":"あきる野市秋川三丁目7-9","lat":35.733474,"lon":139.284453},{"name":"秋川あすなろ保育園","province":"東京都","city":"あきる野市","address":"あきる野市原小宮二丁目6-6","lat":35.734006,"lon":139.301604},{"name":"屋城保育園","province":"東京都","city":"あきる野市","address":"あきる野市二宮東一丁目12-9","lat":35.724019,"lon":139.322605},{"name":"東秋留保育園","province":"東京都","city":"あきる野市","address":"あきる野市野辺1104","lat":35.724229,"lon":139.304785},{"name":"よつぎ第一保育園","province":"東京都","city":"あきる野市","address":"あきる野市雨間1067-6","lat":35.72026,"lon":139.298144},{"name":"よつぎ第二保育園","province":"東京都","city":"あきる野市","address":"あきる野市上代継218-1","lat":35.724178,"lon":139.278059},{"name":"西秋留保育園","province":"東京都","city":"あきる野市","address":"あきる野市上代継300","lat":35.722898,"lon":139.277112},{"name":"増戸保育園","province":"東京都","city":"あきる野市","address":"あきる野市横沢134","lat":35.732374,"lon":139.241529},{"name":"誠和保育園","province":"東京都","city":"あきる野市","address":"あきる野市山田880","lat":35.725719,"lon":139.259691},{"name":"光明第六保育園","province":"東京都","city":"あきる野市","address":"あきる野市留原50","lat":35.723251,"lon":139.234511},{"name":"五日市保育園","province":"東京都","city":"あきる野市","address":"あきる野市五日市345","lat":35.731079,"lon":139.223733},{"name":"五日市わかば保育園","province":"東京都","city":"あきる野市","address":"あきる野市五日市98","lat":35.728829,"lon":139.224759},{"name":"すぎの子保育園","province":"東京都","city":"あきる野市","address":"あきる野市戸倉783","lat":35.731208,"lon":139.197998},{"name":"草花保育園","province":"東京都","city":"あきる野市","address":"あきる野市草花3056","lat":35.739188,"lon":139.30327},{"name":"神明保育園","province":"東京都","city":"あきる野市","address":"あきる野市瀬戸岡446","lat":35.738093,"lon":139.288399},{"name":"あきる野こどもの家","province":"東京都","city":"あきる野市","address":"あきる野市秋川三丁目7-9","lat":35.733474,"lon":139.284453},{"name":"秋川あすなろ保育園","province":"東京都","city":"あきる野市","address":"あきる野市原小宮二丁目6-6","lat":35.734006,"lon":139.301604},{"name":"屋城保育園","province":"東京都","city":"あきる野市","address":"あきる野市二宮東一丁目12-9","lat":35.724019,"lon":139.322605},{"name":"東秋留保育園","province":"東京都","city":"あきる野市","address":"あきる野市野辺1104","lat":35.724229,"lon":139.304785},{"name":"よつぎ第一保育園","province":"東京都","city":"あきる野市","address":"あきる野市雨間1067-6","lat":35.72026,"lon":139.298144},{"name":"よつぎ第二保育園","province":"東京都","city":"あきる野市","address":"あきる野市上代継218-1","lat":35.724178,"lon":139.278059},{"name":"西秋留保育園","province":"東京都","city":"あきる野市","address":"あきる野市上代継300","lat":35.722898,"lon":139.277112},{"name":"増戸保育園","province":"東京都","city":"あきる野市","address":"あきる野市横沢134","lat":35.732374,"lon":139.241529},{"name":"誠和保育園","province":"東京都","city":"あきる野市","address":"あきる野市山田880","lat":35.725719,"lon":139.259691},{"name":"光明第六保育園","province":"東京都","city":"あきる野市","address":"あきる野市留原50","lat":35.723251,"lon":139.234511},{"name":"五日市保育園","province":"東京都","city":"あきる野市","address":"あきる野市五日市345","lat":35.731079,"lon":139.223733},{"name":"五日市わかば保育園","province":"東京都","city":"あきる野市","address":"あきる野市五日市98","lat":35.728829,"lon":139.224759},{"name":"すぎの子保育園","province":"東京都","city":"あきる野市","address":"あきる野市戸倉783","lat":35.731208,"lon":139.197998},{"name":"草花保育園","province":"東京都","city":"あきる野市","address":"あきる野市草花3056","lat":35.739188,"lon":139.30327},{"name":"神明保育園","province":"東京都","city":"あきる野市","address":"あきる野市瀬戸岡446","lat":35.738093,"lon":139.288399},{"name":"あきる野こどもの家","province":"東京都","city":"あきる野市","address":"あきる野市秋川三丁目7-9","lat":35.733474,"lon":139.284453},{"name":"秋川あすなろ保育園","province":"東京都","city":"あきる野市","address":"あきる野市原小宮二丁目6-6","lat":35.734006,"lon":139.301604},{"name":"屋城保育園","province":"東京都","city":"あきる野市","address":"あきる野市二宮東一丁目12-9","lat":35.724019,"lon":139.322605},{"name":"東秋留保育園","province":"東京都","city":"あきる野市","address":"あきる野市野辺1104","lat":35.724229,"lon":139.304785},{"name":"よつぎ第一保育園","province":"東京都","city":"あきる野市","address":"あきる野市雨間1067-6","lat":35.72026,"lon":139.298144},{"name":"よつぎ第二保育園","province":"東京都","city":"あきる野市","address":"あきる野市上代継218-1","lat":35.724178,"lon":139.278059},{"name":"西秋留保育園","province":"東京都","city":"あきる野市","address":"あきる野市上代継300","lat":35.722898,"lon":139.277112},{"name":"増戸保育園","province":"東京都","city":"あきる野市","address":"あきる野市横沢134","lat":35.732374,"lon":139.241529},{"name":"誠和保育園","province":"東京都","city":"あきる野市","address":"あきる野市山田880","lat":35.725719,"lon":139.259691},{"name":"光明第六保育園","province":"東京都","city":"あきる野市","address":"あきる野市留原50","lat":35.723251,"lon":139.234511},{"name":"五日市保育園","province":"東京都","city":"あきる野市","address":"あきる野市五日市345","lat":35.731079,"lon":139.223733},{"name":"五日市わかば保育園","province":"東京都","city":"あきる野市","address":"あきる野市五日市98","lat":35.728829,"lon":139.224759},{"name":"すぎの子保育園","province":"東京都","city":"あきる野市","address":"あきる野市戸倉783","lat":35.731208,"lon":139.197998},{"name":"草花保育園","province":"東京都","city":"あきる野市","address":"あきる野市草花3056","lat":35.739188,"lon":139.30327},{"name":"神明保育園","province":"東京都","city":"あきる野市","address":"あきる野市瀬戸岡446","lat":35.738093,"lon":139.288399},{"name":"あきる野こどもの家","province":"東京都","city":"あきる野市","address":"あきる野市秋川三丁目7-9","lat":35.733474,"lon":139.284453},{"name":"秋川あすなろ保育園","province":"東京都","city":"あきる野市","address":"あきる野市原小宮二丁目6-6","lat":35.734006,"lon":139.301604},{"name":"屋城保育園","province":"東京都","city":"あきる野市","address":"あきる野市二宮東一丁目12-9","lat":35.724019,"lon":139.322605},{"name":"東秋留保育園","province":"東京都","city":"あきる野市","address":"あきる野市野辺1104","lat":35.724229,"lon":139.304785},{"name":"よつぎ第一保育園","province":"東京都","city":"あきる野市","address":"あきる野市雨間1067-6","lat":35.72026,"lon":139.298144},{"name":"よつぎ第二保育園","province":"東京都","city":"あきる野市","address":"あきる野市上代継218-1","lat":35.724178,"lon":139.278059},{"name":"西秋留保育園","province":"東京都","city":"あきる野市","address":"あきる野市上代継300","lat":35.722898,"lon":139.277112},{"name":"増戸保育園","province":"東京都","city":"あきる野市","address":"あきる野市横沢134","lat":35.732374,"lon":139.241529},{"name":"誠和保育園","province":"東京都","city":"あきる野市","address":"あきる野市山田880","lat":35.725719,"lon":139.259691},{"name":"光明第六保育園","province":"東京都","city":"あきる野市","address":"あきる野市留原50","lat":35.723251,"lon":139.234511},{"name":"五日市保育園","province":"東京都","city":"あきる野市","address":"あきる野市五日市345","lat":35.731079,"lon":139.223733},{"name":"五日市わかば保育園","province":"東京都","city":"あきる野市","address":"あきる野市五日市98","lat":35.728829,"lon":139.224759},{"name":"すぎの子保育園","province":"東京都","city":"あきる野市","address":"あきる野市戸倉783","lat":35.731208,"lon":139.197998},{"name":"草花保育園","province":"東京都","city":"あきる野市","address":"あきる野市草花3056","lat":35.739188,"lon":139.30327},{"name":"神明保育園","province":"東京都","city":"あきる野市","address":"あきる野市瀬戸岡446","lat":35.738093,"lon":139.288399},{"name":"あきる野こどもの家","province":"東京都","city":"あきる野市","address":"あきる野市秋川三丁目7-9","lat":35.733474,"lon":139.284453},{"name":"秋川あすなろ保育園","province":"東京都","city":"あきる野市","address":"あきる野市原小宮二丁目6-6","lat":35.734006,"lon":139.301604},{"name":"屋城保育園","province":"東京都","city":"あきる野市","address":"あきる野市二宮東一丁目12-9","lat":35.724019,"lon":139.322605},{"name":"東秋留保育園","province":"東京都","city":"あきる野市","address":"あきる野市野辺1104","lat":35.724229,"lon":139.304785},{"name":"よつぎ第一保育園","province":"東京都","city":"あきる野市","address":"あきる野市雨間1067-6","lat":35.72026,"lon":139.298144},{"name":"よつぎ第二保育園","province":"東京都","city":"あきる野市","address":"あきる野市上代継218-1","lat":35.724178,"lon":139.278059},{"name":"西秋留保育園","province":"東京都","city":"あきる野市","address":"あきる野市上代継300","lat":35.722898,"lon":139.277112},{"name":"増戸保育園","province":"東京都","city":"あきる野市","address":"あきる野市横沢134","lat":35.732374,"lon":139.241529},{"name":"誠和保育園","province":"東京都","city":"あきる野市","address":"あきる野市山田880","lat":35.725719,"lon":139.259691},{"name":"光明第六保育園","province":"東京都","city":"あきる野市","address":"あきる野市留原50","lat":35.723251,"lon":139.234511},{"name":"五日市保育園","province":"東京都","city":"あきる野市","address":"あきる野市五日市345","lat":35.731079,"lon":139.223733},{"name":"五日市わかば保育園","province":"東京都","city":"あきる野市","address":"あきる野市五日市98","lat":35.728829,"lon":139.224759},{"name":"すぎの子保育園","province":"東京都","city":"あきる野市","address":"あきる野市戸倉783","lat":35.731208,"lon":139.197998},{"name":"草花保育園","province":"東京都","city":"あきる野市","address":"あきる野市草花3056","lat":35.739188,"lon":139.30327},{"name":"神明保育園","province":"東京都","city":"あきる野市","address":"あきる野市瀬戸岡446","lat":35.738093,"lon":139.288399},{"name":"あきる野こどもの家","province":"東京都","city":"あきる野市","address":"あきる野市秋川三丁目7-9","lat":35.733474,"lon":139.284453},{"name":"秋川あすなろ保育園","province":"東京都","city":"あきる野市","address":"あきる野市原小宮二丁目6-6","lat":35.734006,"lon":139.301604},{"name":"屋城保育園","province":"東京都","city":"あきる野市","address":"あきる野市二宮東一丁目12-9","lat":35.724019,"lon":139.322605},{"name":"東秋留保育園","province":"東京都","city":"あきる野市","address":"あきる野市野辺1104","lat":35.724229,"lon":139.304785},{"name":"よつぎ第一保育園","province":"東京都","city":"あきる野市","address":"あきる野市雨間1067-6","lat":35.72026,"lon":139.298144},{"name":"よつぎ第二保育園","province":"東京都","city":"あきる野市","address":"あきる野市上代継218-1","lat":35.724178,"lon":139.278059},{"name":"西秋留保育園","province":"東京都","city":"あきる野市","address":"あきる野市上代継300","lat":35.722898,"lon":139.277112},{"name":"増戸保育園","province":"東京都","city":"あきる野市","address":"あきる野市横沢134","lat":35.732374,"lon":139.241529},{"name":"誠和保育園","province":"東京都","city":"あきる野市","address":"あきる野市山田880","lat":35.725719,"lon":139.259691},{"name":"光明第六保育園","province":"東京都","city":"あきる野市","address":"あきる野市留原50","lat":35.723251,"lon":139.234511},{"name":"五日市保育園","province":"東京都","city":"あきる野市","address":"あきる野市五日市345","lat":35.731079,"lon":139.223733},{"name":"五日市わかば保育園","province":"東京都","city":"あきる野市","address":"あきる野市五日市98","lat":35.728829,"lon":139.224759},{"name":"すぎの子保育園","province":"東京都","city":"あきる野市","address":"あきる野市戸倉783","lat":35.731208,"lon":139.197998},{"name":"草花保育園","province":"東京都","city":"あきる野市","address":"あきる野市草花3056","lat":35.739188,"lon":139.30327},{"name":"神明保育園","province":"東京都","city":"あきる野市","address":"あきる野市瀬戸岡446","lat":35.738093,"lon":139.288399},{"name":"あきる野こどもの家","province":"東京都","city":"あきる野市","address":"あきる野市秋川三丁目7-9","lat":35.733474,"lon":139.284453},{"name":"秋川あすなろ保育園","province":"東京都","city":"あきる野市","address":"あきる野市原小宮二丁目6-6","lat":35.734006,"lon":139.301604},{"name":"屋城保育園","province":"東京都","city":"あきる野市","address":"あきる野市二宮東一丁目12-9","lat":35.724019,"lon":139.322605},{"name":"東秋留保育園","province":"東京都","city":"あきる野市","address":"あきる野市野辺1104","lat":35.724229,"lon":139.304785},{"name":"よつぎ第一保育園","province":"東京都","city":"あきる野市","address":"あきる野市雨間1067-6","lat":35.72026,"lon":139.298144},{"name":"よつぎ第二保育園","province":"東京都","city":"あきる野市","address":"あきる野市上代継218-1","lat":35.724178,"lon":139.278059},{"name":"西秋留保育園","province":"東京都","city":"あきる野市","address":"あきる野市上代継300","lat":35.722898,"lon":139.277112},{"name":"増戸保育園","province":"東京都","city":"あきる野市","address":"あきる野市横沢134","lat":35.732374,"lon":139.241529},{"name":"誠和保育園","province":"東京都","city":"あきる野市","address":"あきる野市山田880","lat":35.725719,"lon":139.259691},{"name":"光明第六保育園","province":"東京都","city":"あきる野市","address":"あきる野市留原50","lat":35.723251,"lon":139.234511},{"name":"五日市保育園","province":"東京都","city":"あきる野市","address":"あきる野市五日市345","lat":35.731079,"lon":139.223733},{"name":"五日市わかば保育園","province":"東京都","city":"あきる野市","address":"あきる野市五日市98","lat":35.728829,"lon":139.224759},{"name":"すぎの子保育園","province":"東京都","city":"あきる野市","address":"あきる野市戸倉783","lat":35.731208,"lon":139.197998},{"name":"草花保育園","province":"東京都","city":"あきる野市","address":"あきる野市草花3056","lat":35.739188,"lon":139.30327},{"name":"神明保育園","province":"東京都","city":"あきる野市","address":"あきる野市瀬戸岡446","lat":35.738093,"lon":139.288399},{"name":"あきる野こどもの家","province":"東京都","city":"あきる野市","address":"あきる野市秋川三丁目7-9","lat":35.733474,"lon":139.284453},{"name":"秋川あすなろ保育園","province":"東京都","city":"あきる野市","address":"あきる野市原小宮二丁目6-6","lat":35.734006,"lon":139.301604},{"name":"屋城保育園","province":"東京都","city":"あきる野市","address":"あきる野市二宮東一丁目12-9","lat":35.724019,"lon":139.322605},{"name":"東秋留保育園","province":"東京都","city":"あきる野市","address":"あきる野市野辺1104","lat":35.724229,"lon":139.304785},{"name":"よつぎ第一保育園","province":"東京都","city":"あきる野市","address":"あきる野市雨間1067-6","lat":35.72026,"lon":139.298144},{"name":"よつぎ第二保育園","province":"東京都","city":"あきる野市","address":"あきる野市上代継218-1","lat":35.724178,"lon":139.278059},{"name":"西秋留保育園","province":"東京都","city":"あきる野市","address":"あきる野市上代継300","lat":35.722898,"lon":139.277112},{"name":"増戸保育園","province":"東京都","city":"あきる野市","address":"あきる野市横沢134","lat":35.732374,"lon":139.241529},{"name":"誠和保育園","province":"東京都","city":"あきる野市","address":"あきる野市山田880","lat":35.725719,"lon":139.259691},{"name":"光明第六保育園","province":"東京都","city":"あきる野市","address":"あきる野市留原50","lat":35.723251,"lon":139.234511},{"name":"五日市保育園","province":"東京都","city":"あきる野市","address":"あきる野市五日市345","lat":35.731079,"lon":139.223733},{"name":"五日市わかば保育園","province":"東京都","city":"あきる野市","address":"あきる野市五日市98","lat":35.728829,"lon":139.224759},{"name":"すぎの子保育園","province":"東京都","city":"あきる野市","address":"あきる野市戸倉783","lat":35.731208,"lon":139.197998},{"name":"草花保育園","province":"東京都","city":"あきる野市","address":"あきる野市草花3056","lat":35.739188,"lon":139.30327},{"name":"神明保育園","province":"東京都","city":"あきる野市","address":"あきる野市瀬戸岡446","lat":35.738093,"lon":139.288399},{"name":"あきる野こどもの家","province":"東京都","city":"あきる野市","address":"あきる野市秋川三丁目7-9","lat":35.733474,"lon":139.284453},{"name":"秋川あすなろ保育園","province":"東京都","city":"あきる野市","address":"あきる野市原小宮二丁目6-6","lat":35.734006,"lon":139.301604},{"name":"屋城保育園","province":"東京都","city":"あきる野市","address":"あきる野市二宮東一丁目12-9","lat":35.724019,"lon":139.322605},{"name":"東秋留保育園","province":"東京都","city":"あきる野市","address":"あきる野市野辺1104","lat":35.724229,"lon":139.304785},{"name":"よつぎ第一保育園","province":"東京都","city":"あきる野市","address":"あきる野市雨間1067-6","lat":35.72026,"lon":139.298144},{"name":"よつぎ第二保育園","province":"東京都","city":"あきる野市","address":"あきる野市上代継218-1","lat":35.724178,"lon":139.278059},{"name":"西秋留保育園","province":"東京都","city":"あきる野市","address":"あきる野市上代継300","lat":35.722898,"lon":139.277112},{"name":"増戸保育園","province":"東京都","city":"あきる野市","address":"あきる野市横沢134","lat":35.732374,"lon":139.241529},{"name":"誠和保育園","province":"東京都","city":"あきる野市","address":"あきる野市山田880","lat":35.725719,"lon":139.259691},{"name":"光明第六保育園","province":"東京都","city":"あきる野市","address":"あきる野市留原50","lat":35.723251,"lon":139.234511},{"name":"五日市保育園","province":"東京都","city":"あきる野市","address":"あきる野市五日市345","lat":35.731079,"lon":139.223733},{"name":"五日市わかば保育園","province":"東京都","city":"あきる野市","address":"あきる野市五日市98","lat":35.728829,"lon":139.224759},{"name":"すぎの子保育園","province":"東京都","city":"あきる野市","address":"あきる野市戸倉783","lat":35.731208,"lon":139.197998},{"name":"草花保育園","province":"東京都","city":"あきる野市","address":"あきる野市草花3056","lat":35.739188,"lon":139.30327},{"name":"神明保育園","province":"東京都","city":"あきる野市","address":"あきる野市瀬戸岡446","lat":35.738093,"lon":139.288399},{"name":"あきる野こどもの家","province":"東京都","city":"あきる野市","address":"あきる野市秋川三丁目7-9","lat":35.733474,"lon":139.284453},{"name":"秋川あすなろ保育園","province":"東京都","city":"あきる野市","address":"あきる野市原小宮二丁目6-6","lat":35.734006,"lon":139.301604},{"name":"屋城保育園","province":"東京都","city":"あきる野市","address":"あきる野市二宮東一丁目12-9","lat":35.724019,"lon":139.322605},{"name":"東秋留保育園","province":"東京都","city":"あきる野市","address":"あきる野市野辺1104","lat":35.724229,"lon":139.304785},{"name":"よつぎ第一保育園","province":"東京都","city":"あきる野市","address":"あきる野市雨間1067-6","lat":35.72026,"lon":139.298144},{"name":"よつぎ第二保育園","province":"東京都","city":"あきる野市","address":"あきる野市上代継218-1","lat":35.724178,"lon":139.278059},{"name":"西秋留保育園","province":"東京都","city":"あきる野市","address":"あきる野市上代継300","lat":35.722898,"lon":139.277112},{"name":"増戸保育園","province":"東京都","city":"あきる野市","address":"あきる野市横沢134","lat":35.732374,"lon":139.241529},{"name":"誠和保育園","province":"東京都","city":"あきる野市","address":"あきる野市山田880","lat":35.725719,"lon":139.259691},{"name":"光明第六保育園","province":"東京都","city":"あきる野市","address":"あきる野市留原50","lat":35.723251,"lon":139.234511},{"name":"五日市保育園","province":"東京都","city":"あきる野市","address":"あきる野市五日市345","lat":35.731079,"lon":139.223733},{"name":"五日市わかば保育園","province":"東京都","city":"あきる野市","address":"あきる野市五日市98","lat":35.728829,"lon":139.224759},{"name":"すぎの子保育園","province":"東京都","city":"あきる野市","address":"あきる野市戸倉783","lat":35.731208,"lon":139.197998},{"name":"草花保育園","province":"東京都","city":"あきる野市","address":"あきる野市草花3056","lat":35.739188,"lon":139.30327},{"name":"神明保育園","province":"東京都","city":"あきる野市","address":"あきる野市瀬戸岡446","lat":35.738093,"lon":139.288399},{"name":"あきる野こどもの家","province":"東京都","city":"あきる野市","address":"あきる野市秋川三丁目7-9","lat":35.733474,"lon":139.284453},{"name":"秋川あすなろ保育園","province":"東京都","city":"あきる野市","address":"あきる野市原小宮二丁目6-6","lat":35.734006,"lon":139.301604},{"name":"屋城保育園","province":"東京都","city":"あきる野市","address":"あきる野市二宮東一丁目12-9","lat":35.724019,"lon":139.322605},{"name":"東秋留保育園","province":"東京都","city":"あきる野市","address":"あきる野市野辺1104","lat":35.724229,"lon":139.304785},{"name":"よつぎ第一保育園","province":"東京都","city":"あきる野市","address":"あきる野市雨間1067-6","lat":35.72026,"lon":139.298144},{"name":"よつぎ第二保育園","province":"東京都","city":"あきる野市","address":"あきる野市上代継218-1","lat":35.724178,"lon":139.278059},{"name":"西秋留保育園","province":"東京都","city":"あきる野市","address":"あきる野市上代継300","lat":35.722898,"lon":139.277112},{"name":"増戸保育園","province":"東京都","city":"あきる野市","address":"あきる野市横沢134","lat":35.732374,"lon":139.241529},{"name":"誠和保育園","province":"東京都","city":"あきる野市","address":"あきる野市山田880","lat":35.725719,"lon":139.259691},{"name":"光明第六保育園","province":"東京都","city":"あきる野市","address":"あきる野市留原50","lat":35.723251,"lon":139.234511},{"name":"五日市保育園","province":"東京都","city":"あきる野市","address":"あきる野市五日市345","lat":35.731079,"lon":139.223733},{"name":"五日市わかば保育園","province":"東京都","city":"あきる野市","address":"あきる野市五日市98","lat":35.728829,"lon":139.224759},{"name":"すぎの子保育園","province":"東京都","city":"あきる野市","address":"あきる野市戸倉783","lat":35.731208,"lon":139.197998},{"name":"草花保育園","province":"東京都","city":"あきる野市","address":"あきる野市草花3056","lat":35.739188,"lon":139.30327},{"name":"神明保育園","province":"東京都","city":"あきる野市","address":"あきる野市瀬戸岡446","lat":35.738093,"lon":139.288399},{"name":"あきる野こどもの家","province":"東京都","city":"あきる野市","address":"あきる野市秋川三丁目7-9","lat":35.733474,"lon":139.284453},{"name":"秋川あすなろ保育園","province":"東京都","city":"あきる野市","address":"あきる野市原小宮二丁目6-6","lat":35.734006,"lon":139.301604},{"name":"屋城保育園","province":"東京都","city":"あきる野市","address":"あきる野市二宮東一丁目12-9","lat":35.724019,"lon":139.322605},{"name":"東秋留保育園","province":"東京都","city":"あきる野市","address":"あきる野市野辺1104","lat":35.724229,"lon":139.304785},{"name":"よつぎ第一保育園","province":"東京都","city":"あきる野市","address":"あきる野市雨間1067-6","lat":35.72026,"lon":139.298144},{"name":"よつぎ第二保育園","province":"東京都","city":"あきる野市","address":"あきる野市上代継218-1","lat":35.724178,"lon":139.278059},{"name":"西秋留保育園","province":"東京都","city":"あきる野市","address":"あきる野市上代継300","lat":35.722898,"lon":139.277112}]}