{"keyword":"保育","data":[{"name":"増戸保育園","province":"東京都","city":"あきる野市","address":"あきる野市横沢134","lat":35.732374,"lon":139.241529},{"name":"誠和保育園","province":"東京都","city":"あきる野市","address":"あきる野市山田880","lat":35.725719,"lon":139.259691},{"name":"光明第六保育園","province":"東京都","city":"あきる野市","address":"あきる野市留原50","lat":35.723251,"lon":139.234511},{"name":"五日市保育園","province":"東京都","city":"あきる野市","address":"あきる野市五日市345","lat":35.731079,"lon":139.223733},{"name":"五日市わかば保育園","province":"東京都","city":"あきる野市","address":"あきる野市五日市98","lat":35.728829,"lon":139.224759},{"name":"すぎの子保育園","province":"東京都","city":"あきる野市","address":"あきる野市戸倉783","lat":35.731208,"lon":139.197998},{"name":"草花保育園","province":"東京都","city":"あきる野市","address":"あきる野市草花3056","lat":35.739188,"lon":139.30327},{"name":"神明保育園","province":"東京都","city":"あきる野市","address":"あきる野市瀬戸岡446","lat":35.738093,"lon":139.288399},{"name":"あきる野こどもの家","province":"東京都","city":"あきる野市","address":"あきる野市秋川三丁目7-9","lat":35.733474,"lon":139.284453},{"name":"秋川あすなろ保育園","province":"東京都","city":"あきる野市","address":"あきる野市原小宮二丁目6-6","lat":35.734006,"lon":139.301604},{"name":"屋城保育園","province":"東京都","city":"あきる野市","address":"あきる野市二宮東一丁目12-9","lat":35.724019,"lon":139.322605},{"name":"東秋留保育園","province":"東京都","city":"あきる野市","address":"あきる野市野辺1104","lat":35.724229,"lon":139.304785},{"name":"よつぎ第一保育園","province":"東京都","city":"あきる野市","address":"あきる野市雨間1067-6","lat":35.72026,"lon":139.298144},{"name":"よつぎ第二保育園","province":"東京都","city":"あきる野市","address":"あきる野市上代継218-1","lat":35.724178,"lon":139.278059},{"name":"西秋留保育園","province":"東京都","city":"あきる野市","address":"あきる野市上代継300","lat":35.722898,"lon":139.277112}]}