{"keyword":"公共","data":[{"name":"あきる野市役所","province":"東京都","city":"あきる野市","address":"東京都あきる野市二宮350","lat":35.731028,"lon":139.28828},{"name":"楓ヶ原会館","province":"東京都","city":"あきる野市","address":"東京都あきる野市引田512-2","lat":35.72385,"lon":139.268499},{"name":"北伊奈会館","province":"東京都","city":"あきる野市","address":"東京都あきる野市伊奈412-11","lat":35.733068,"lon":139.253389},{"name":"草花台会館","province":"東京都","city":"あきる野市","address":"東京都あきる野市草花1327-1","lat":35.736278,"lon":139.313931},{"name":"小宮会館","province":"東京都","city":"あきる野市","address":"東京都あきる野市乙津1997","lat":35.733573,"lon":139.182949},{"name":"玉見会館","province":"東京都","city":"あきる野市","address":"東京都あきる野市小川東2-9-8","lat":35.719233,"lon":139.320995},{"name":"千代里会館","province":"東京都","city":"あきる野市","address":"東京都あきる野市上代継424","lat":35.720812,"lon":139.27772},{"name":"戸倉会館","province":"東京都","city":"あきる野市","address":"東京都あきる野市戸倉133-4","lat":35.726097,"lon":139.204617},{"name":"鳥居場会館","province":"東京都","city":"あきる野市","address":"東京都あきる野市雨間999-2","lat":35.719879,"lon":139.295941},{"name":"二宮地区会館","province":"東京都","city":"あきる野市","address":"東京都あきる野市二宮1151","lat":35.727373,"lon":139.313475},{"name":"野辺地区会館","province":"東京都","city":"あきる野市","address":"東京都あきる野市野辺126-4","lat":35.723102,"lon":139.313656},{"name":"御堂会館","province":"東京都","city":"あきる野市","address":"東京都あきる野市草花3482-16","lat":35.73893,"lon":139.300373},{"name":"代継会館","province":"東京都","city":"あきる野市","address":"東京都あきる野市上代継693-1","lat":35.718851,"lon":139.280212},{"name":"五日市出張所","province":"東京都","city":"あきる野市","address":"東京都あきる野市五日市411","lat":35.729354,"lon":139.21992},{"name":"五日市会館","province":"東京都","city":"あきる野市","address":"東京都あきる野市五日市412","lat":35.729779,"lon":139.22012},{"name":"五日市地域交流センター","province":"東京都","city":"あきる野市","address":"東京都あきる野市五日市411","lat":35.729354,"lon":139.21992},{"name":"五日市保健センター","province":"東京都","city":"あきる野市","address":"東京都あきる野市五日市414-5","lat":35.72966,"lon":139.21947},{"name":"小宮ふるさと自然体験学校","province":"東京都","city":"あきる野市","address":"東京都あきる野市乙津1984","lat":35.734101,"lon":139.183363},{"name":"秋川ファーマーズセンター","province":"東京都","city":"あきる野市","address":"東京都あきる野市二宮811","lat":35.72859,"lon":139.307698},{"name":"五日市ファーマーズセンター","province":"東京都","city":"あきる野市","address":"東京都あきる野市高尾3-1","lat":35.728575,"lon":139.240093},{"name":"あきる野商工会","province":"東京都","city":"あきる野市","address":"東京都あきる野市秋川1-8","lat":35.730153,"lon":139.287103},{"name":"あきる野商工会　五日市支所","province":"東京都","city":"あきる野市","address":"東京都あきる野市五日市411","lat":35.729898,"lon":139.226419},{"name":"秋川ふれあいセンター","province":"東京都","city":"あきる野市","address":"東京都あきる野市平沢175-4","lat":35.732525,"lon":139.301915},{"name":"菅生交流会館","province":"東京都","city":"あきる野市","address":"東京都あきる野市菅生582","lat":35.743846,"lon":139.289488},{"name":"あきる野市社会福祉協議会　秋川事務所","province":"東京都","city":"あきる野市","address":"東京都あきる野市平沢175-4","lat":35.732525,"lon":139.301915},{"name":"あきる野市社会福祉協議会　五日市事務所","province":"東京都","city":"あきる野市","address":"東京都あきる野市五日市411","lat":35.729354,"lon":139.21992},{"name":"あきる野市障がい者就労・生活支援センター「あすく」","province":"東京都","city":"あきる野市","address":"東京都あきる野市秋川1-7-6","lat":35.729561,"lon":139.28698},{"name":"地域生活支援センター「フィレ」","province":"東京都","city":"あきる野市","address":"東京都あきる野市二宮670-5","lat":35.729398,"lon":139.30241},{"name":"あきる野市障害者通所支援施設「希望の家」","province":"東京都","city":"あきる野市","address":"東京都あきる野市五日市374-5","lat":35.72994,"lon":139.223148},{"name":"あきる野市障害者通所支援施設「ひばり分室」","province":"東京都","city":"あきる野市","address":"東京都あきる野市平沢175-4","lat":35.732525,"lon":139.301915},{"name":"東部高齢者はつらつセンター","province":"東京都","city":"あきる野市","address":"東京都あきる野市秋留1-1-10","lat":35.723057,"lon":139.299041},{"name":"中部高齢者はつらつセンター","province":"東京都","city":"あきる野市","address":"東京都あきる野市秋川5-1-8","lat":35.731028,"lon":139.28828},{"name":"五日市はつらつセンター","province":"東京都","city":"あきる野市","address":"東京都あきる野市五日市411","lat":35.729354,"lon":139.21992},{"name":"あきる野市シルバー人材センター","province":"東京都","city":"あきる野市","address":"東京都あきる野市平沢32-1","lat":35.731222,"lon":139.292263},{"name":"五日市センター","province":"東京都","city":"あきる野市","address":"東京都あきる野市舘谷台17","lat":35.731984,"lon":139.227327},{"name":"萩野センター","province":"東京都","city":"あきる野市","address":"東京都あきる野市雨間533-1","lat":35.725487,"lon":139.294077},{"name":"開戸センター","province":"東京都","city":"あきる野市","address":"東京都あきる野市渕上332-1","lat":35.722606,"lon":139.273771},{"name":"子ども家庭支援センター","province":"東京都","city":"あきる野市","address":"東京都あきる野市秋川1-8","lat":35.730153,"lon":139.287103},{"name":"ファミリー・サポート・センター","province":"東京都","city":"あきる野市","address":"東京都あきる野市秋川1-8","lat":35.730153,"lon":139.287103},{"name":"子育て支援総合窓口","province":"東京都","city":"あきる野市","address":"東京都あきる野市秋川1-8","lat":35.730153,"lon":139.287103},{"name":"秋川流域病児・病後児保育室ぬくもり","province":"東京都","city":"あきる野市","address":"東京都あきる野市引田79-1","lat":35.7333,"lon":139.272559},{"name":"あきる野市立東秋留小学校","province":"東京都","city":"あきる野市","address":"東京都あきる野市野辺1123","lat":35.724376,"lon":139.305548},{"name":"あきる野市立多西小学校","province":"東京都","city":"あきる野市","address":"東京都あきる野市草花2885","lat":35.742052,"lon":139.300204},{"name":"あきる野市立西秋留小学校","province":"東京都","city":"あきる野市","address":"東京都あきる野市上代継292","lat":35.723545,"lon":139.276515},{"name":"あきる野市立屋城小学校","province":"東京都","city":"あきる野市","address":"東京都あきる野市二宮東1-12-1","lat":35.723891,"lon":139.323125},{"name":"あきる野市立南秋留小学校","province":"東京都","city":"あきる野市","address":"東京都あきる野市雨間810","lat":35.720957,"lon":139.292755},{"name":"あきる野市立草花小学校","province":"東京都","city":"あきる野市","address":"東京都あきる野市草花3130","lat":35.736064,"lon":139.304945},{"name":"あきる野市立一の谷小学校","province":"東京都","city":"あきる野市","address":"東京都あきる野市引田980","lat":35.720245,"lon":139.271915},{"name":"あきる野市立前田小学校","province":"東京都","city":"あきる野市","address":"東京都あきる野市野辺92","lat":35.723507,"lon":139.314667},{"name":"あきる野市立増戸小学校","province":"東京都","city":"あきる野市","address":"東京都あきる野市伊奈1173","lat":35.728021,"lon":139.24782},{"name":"あきる野市立五日市小学校","province":"東京都","city":"あきる野市","address":"東京都あきる野市五日市315","lat":35.731965,"lon":139.221989},{"name":"あきる野市立秋多中学校","province":"東京都","city":"あきる野市","address":"東京都あきる野市二宮334","lat":35.730989,"lon":139.29378},{"name":"あきる野市立東中学校","province":"東京都","city":"あきる野市","address":"東京都あきる野市平沢200","lat":35.732309,"lon":139.302787},{"name":"あきる野市立西中学校","province":"東京都","city":"あきる野市","address":"東京都あきる野市上代継190","lat":35.729927,"lon":139.277978},{"name":"あきる野市立御堂中学校","province":"東京都","city":"あきる野市","address":"東京都あきる野市草花3322","lat":35.740913,"lon":139.296235},{"name":"あきる野市立増戸中学校","province":"東京都","city":"あきる野市","address":"東京都あきる野市伊奈1181","lat":35.728241,"lon":139.249695},{"name":"あきる野市立五日市中学校","province":"東京都","city":"あきる野市","address":"東京都あきる野市五日市400","lat":35.730357,"lon":139.221028},{"name":"私立菅生学園初等学校","province":"東京都","city":"あきる野市","address":"東京都あきる野市菅生1468","lat":35.756155,"lon":139.287121},{"name":"私立東海大学菅生高等学校中等部","province":"東京都","city":"あきる野市","address":"東京都あきる野市菅生1468","lat":35.75683,"lon":139.277772},{"name":"都立秋留台高等学校","province":"東京都","city":"あきる野市","address":"東京都あきる野市平沢153-4","lat":35.732203,"lon":139.300676},{"name":"都立五日市高等学校","province":"東京都","city":"あきる野市","address":"東京都あきる野市五日市894","lat":35.729401,"lon":139.217807},{"name":"私立東海大学菅生高等学校","province":"東京都","city":"あきる野市","address":"東京都あきる野市菅生1817","lat":35.75683,"lon":139.277772},{"name":"都立あきる野学園","province":"東京都","city":"あきる野市","address":"東京都あきる野市上代継123-1","lat":35.730658,"lon":139.276565},{"name":"秋川学校給食センター","province":"東京都","city":"あきる野市","address":"東京都あきる野市草花2892","lat":35.741654,"lon":139.299218},{"name":"五日市学校給食センター","province":"東京都","city":"あきる野市","address":"東京都あきる野市五日市319","lat":35.73229,"lon":139.2224},{"name":"秋川キララホール","province":"東京都","city":"あきる野市","address":"東京都あきる野市秋川1-16-1","lat":35.731028,"lon":139.28828},{"name":"あきる野ルピア","province":"東京都","city":"あきる野市","address":"東京都あきる野市秋川1-8","lat":35.730153,"lon":139.287103},{"name":"アートスタジオ五日市","province":"東京都","city":"あきる野市","address":"東京都あきる野市戸倉300","lat":35.726977,"lon":139.203992},{"name":"五日市郷土館","province":"東京都","city":"あきる野市","address":"東京都あきる野市五日市920-1","lat":35.728429,"lon":139.216982},{"name":"二宮考古館","province":"東京都","city":"あきる野市","address":"東京都あきる野市二宮1151","lat":35.727373,"lon":139.313475},{"name":"秋川体育館","province":"東京都","city":"あきる野市","address":"東京都あきる野市二宮683","lat":35.73054,"lon":139.302321},{"name":"五日市ファインプラザ","province":"東京都","city":"あきる野市","address":"東京都あきる野市伊奈859-3","lat":35.729316,"lon":139.255422},{"name":"あきる野市民プール（屋内）","province":"東京都","city":"あきる野市","address":"東京都あきる野市原小宮353","lat":35.737308,"lon":139.298954},{"name":"あきる野市民プール（屋外）","province":"東京都","city":"あきる野市","address":"東京都あきる野市原小宮353","lat":35.737308,"lon":139.298954},{"name":"いきいきセンター","province":"東京都","city":"あきる野市","address":"東京都あきる野市雨間1946","lat":35.716627,"lon":139.2915},{"name":"油平クラブハウス","province":"東京都","city":"あきる野市","address":"東京都あきる野市油平92-7","lat":35.72662,"lon":139.287536},{"name":"総合グラウンド","province":"東京都","city":"あきる野市","address":"東京都あきる野市二宮東1-11-2先","lat":35.724124,"lon":139.318545},{"name":"玉見ヶ崎レクリエーション広場","province":"東京都","city":"あきる野市","address":"東京都あきる野市小川東1-5先","lat":35.717967,"lon":139.326403},{"name":"市民運動広場野球場","province":"東京都","city":"あきる野市","address":"東京都あきる野市二宮702-1","lat":35.727459,"lon":139.31077},{"name":"市民運動広場相撲場","province":"東京都","city":"あきる野市","address":"東京都あきる野市二宮670-5","lat":35.729398,"lon":139.30241},{"name":"あきる野市民球場","province":"東京都","city":"あきる野市","address":"東京都あきる野市原小宮353","lat":35.737308,"lon":139.298954},{"name":"山田グラウンド","province":"東京都","city":"あきる野市","address":"東京都あきる野市山田1-1","lat":35.722575,"lon":139.257728},{"name":"小和田グラウンド","province":"東京都","city":"あきる野市","address":"東京都あきる野市小和田8先","lat":35.722346,"lon":139.225315},{"name":"グリーンスポーツ公園","province":"東京都","city":"あきる野市","address":"東京都あきる野市雨間1946","lat":35.716627,"lon":139.2915},{"name":"グリーン運動広場","province":"東京都","city":"あきる野市","address":"東京都あきる野市切欠2406-3","lat":35.717308,"lon":139.299056},{"name":"中央図書館","province":"東京都","city":"あきる野市","address":"東京都あきる野市秋川1-16-2","lat":35.730708,"lon":139.288733},{"name":"中央図書館増戸分室","province":"東京都","city":"あきる野市","address":"東京都あきる野市伊奈1157-5","lat":35.72746,"lon":139.247559},{"name":"東部図書館エル","province":"東京都","city":"あきる野市","address":"東京都あきる野市野辺39-27","lat":35.725196,"lon":139.31565},{"name":"五日市図書館","province":"東京都","city":"あきる野市","address":"東京都あきる野市五日市368","lat":35.729848,"lon":139.222267},{"name":"羽村草花丘陵自然公園","province":"東京都","city":"あきる野市","address":"東京都あきる野市、福生市、羽村市、青梅市","lat":35.743495,"lon":139.311082},{"name":"秋留台公園","province":"東京都","city":"あきる野市","address":"東京都あきる野市二宮・平沢","lat":35.729273,"lon":139.300293}]}