{"keyword":"収蔵","data":[{"name":"秋留台給水所","province":"東京都","city":"あきる野市","address":"東京都あきる野市秋川3-2-10","lat":35.7321865,"lon":139.284454},{"name":"菅生給水所","province":"東京都","city":"あきる野市","address":"東京都あきる野市菅生683","lat":35.745663,"lon":139.287219},{"name":"上代継浄水所","province":"東京都","city":"あきる野市","address":"東京都あきる野市上代継407","lat":35.71888,"lon":139.279151},{"name":"戸倉給水所","province":"東京都","city":"あきる野市","address":"東京都あきる野市戸倉348-1","lat":35.726467,"lon":139.20192},{"name":"小峰台配水所","province":"東京都","city":"あきる野市","address":"東京都あきる野市小峰台40","lat":35.719041,"lon":139.233864},{"name":"伊奈配水所","province":"東京都","city":"あきる野市","address":"東京都あきる野市伊奈372-3","lat":35.7348684,"lon":139.252211},{"name":"公立阿伎留医療センター","province":"東京都","city":"あきる野市","address":"東京都あきる野市引田78-1","lat":35.73181875,"lon":139.27214005},{"name":"秋留台給水所","province":"東京都","city":"あきる野市","address":"東京都あきる野市秋川3丁目2-10","lat":35.73175243,"lon":139.28428611},{"name":"上代継浄水所","province":"東京都","city":"あきる野市","address":"東京都あきる野市上代継407","lat":35.71915367,"lon":139.2783759},{"name":"戸倉給水所","province":"東京都","city":"あきる野市","address":"東京都あきる野市戸倉348-1","lat":35.72646632,"lon":139.20192062},{"name":"伊奈配水所","province":"東京都","city":"あきる野市","address":"東京都あきる野市伊奈372-3","lat":35.7348678,"lon":139.25221118},{"name":"学校法人菅生学園初等学校校庭","province":"東京都","city":"あきる野市","address":"東京都あきる野市菅生1468","lat":35.7561553,"lon":139.28712116},{"name":"市民運動場","province":"東京都","city":"あきる野市","address":"東京都あきる野市二宮683","lat":35.73040042,"lon":139.30224009},{"name":"あきる野市立小和田グラウンド","province":"東京都","city":"あきる野市","address":"東京都あきる野市小和田8","lat":35.72234618,"lon":139.22531468},{"name":"富士通株式会社あきる野テクノロジーセンター駐車場","province":"東京都","city":"あきる野市","address":"東京都あきる野市渕上50","lat":35.73065782,"lon":139.27354552},{"name":"五日市カントリー","province":"東京都","city":"あきる野市","address":"東京都あきる野市網代745","lat":35.71640895,"lon":139.25022007},{"name":"立川国際カントリー","province":"東京都","city":"あきる野市","address":"東京都あきる野市草花2390","lat":35.75056749,"lon":139.30485031},{"name":"都立秋留台公園陸上競技場","province":"東京都","city":"あきる野市","address":"東京都あきる野市二宮","lat":35.72746496,"lon":139.31077004},{"name":"＊?中央公民館","province":"東京都","city":"あきる野市","address":"あきる野市二宮683","lat":35.730184,"lon":139.302297},{"name":"秋留台給水所","province":"東京都","city":"あきる野市","address":"東京都あきる野市秋川3-2-10","lat":35.7321865,"lon":139.284454},{"name":"菅生給水所","province":"東京都","city":"あきる野市","address":"東京都あきる野市菅生683","lat":35.745663,"lon":139.287219},{"name":"上代継浄水所","province":"東京都","city":"あきる野市","address":"東京都あきる野市上代継407","lat":35.71888,"lon":139.279151},{"name":"戸倉給水所","province":"東京都","city":"あきる野市","address":"東京都あきる野市戸倉348-1","lat":35.726467,"lon":139.20192},{"name":"小峰台配水所","province":"東京都","city":"あきる野市","address":"東京都あきる野市小峰台40","lat":35.719041,"lon":139.233864},{"name":"伊奈配水所","province":"東京都","city":"あきる野市","address":"東京都あきる野市伊奈372-3","lat":35.7348684,"lon":139.252211},{"name":"公立阿伎留医療センター","province":"東京都","city":"あきる野市","address":"東京都あきる野市引田78-1","lat":35.73181875,"lon":139.27214005},{"name":"秋留台給水所","province":"東京都","city":"あきる野市","address":"東京都あきる野市秋川3丁目2-10","lat":35.73175243,"lon":139.28428611},{"name":"上代継浄水所","province":"東京都","city":"あきる野市","address":"東京都あきる野市上代継407","lat":35.71915367,"lon":139.2783759},{"name":"戸倉給水所","province":"東京都","city":"あきる野市","address":"東京都あきる野市戸倉348-1","lat":35.72646632,"lon":139.20192062},{"name":"伊奈配水所","province":"東京都","city":"あきる野市","address":"東京都あきる野市伊奈372-3","lat":35.7348678,"lon":139.25221118},{"name":"学校法人菅生学園初等学校校庭","province":"東京都","city":"あきる野市","address":"東京都あきる野市菅生1468","lat":35.7561553,"lon":139.28712116},{"name":"市民運動場","province":"東京都","city":"あきる野市","address":"東京都あきる野市二宮683","lat":35.73040042,"lon":139.30224009},{"name":"あきる野市立小和田グラウンド","province":"東京都","city":"あきる野市","address":"東京都あきる野市小和田8","lat":35.72234618,"lon":139.22531468},{"name":"富士通株式会社あきる野テクノロジーセンター駐車場","province":"東京都","city":"あきる野市","address":"東京都あきる野市渕上50","lat":35.73065782,"lon":139.27354552},{"name":"五日市カントリー","province":"東京都","city":"あきる野市","address":"東京都あきる野市網代745","lat":35.71640895,"lon":139.25022007},{"name":"立川国際カントリー","province":"東京都","city":"あきる野市","address":"東京都あきる野市草花2390","lat":35.75056749,"lon":139.30485031},{"name":"都立秋留台公園陸上競技場","province":"東京都","city":"あきる野市","address":"東京都あきる野市二宮","lat":35.72746496,"lon":139.31077004},{"name":"＊?中央公民館","province":"東京都","city":"あきる野市","address":"あきる野市二宮683","lat":35.730184,"lon":139.302297},{"name":"秋留台給水所","province":"東京都","city":"あきる野市","address":"東京都あきる野市秋川3-2-10","lat":35.7321865,"lon":139.284454},{"name":"菅生給水所","province":"東京都","city":"あきる野市","address":"東京都あきる野市菅生683","lat":35.745663,"lon":139.287219},{"name":"上代継浄水所","province":"東京都","city":"あきる野市","address":"東京都あきる野市上代継407","lat":35.71888,"lon":139.279151},{"name":"戸倉給水所","province":"東京都","city":"あきる野市","address":"東京都あきる野市戸倉348-1","lat":35.726467,"lon":139.20192},{"name":"小峰台配水所","province":"東京都","city":"あきる野市","address":"東京都あきる野市小峰台40","lat":35.719041,"lon":139.233864},{"name":"伊奈配水所","province":"東京都","city":"あきる野市","address":"東京都あきる野市伊奈372-3","lat":35.7348684,"lon":139.252211},{"name":"公立阿伎留医療センター","province":"東京都","city":"あきる野市","address":"東京都あきる野市引田78-1","lat":35.73181875,"lon":139.27214005},{"name":"秋留台給水所","province":"東京都","city":"あきる野市","address":"東京都あきる野市秋川3丁目2-10","lat":35.73175243,"lon":139.28428611},{"name":"上代継浄水所","province":"東京都","city":"あきる野市","address":"東京都あきる野市上代継407","lat":35.71915367,"lon":139.2783759},{"name":"戸倉給水所","province":"東京都","city":"あきる野市","address":"東京都あきる野市戸倉348-1","lat":35.72646632,"lon":139.20192062},{"name":"伊奈配水所","province":"東京都","city":"あきる野市","address":"東京都あきる野市伊奈372-3","lat":35.7348678,"lon":139.25221118},{"name":"学校法人菅生学園初等学校校庭","province":"東京都","city":"あきる野市","address":"東京都あきる野市菅生1468","lat":35.7561553,"lon":139.28712116},{"name":"市民運動場","province":"東京都","city":"あきる野市","address":"東京都あきる野市二宮683","lat":35.73040042,"lon":139.30224009},{"name":"あきる野市立小和田グラウンド","province":"東京都","city":"あきる野市","address":"東京都あきる野市小和田8","lat":35.72234618,"lon":139.22531468},{"name":"富士通株式会社あきる野テクノロジーセンター駐車場","province":"東京都","city":"あきる野市","address":"東京都あきる野市渕上50","lat":35.73065782,"lon":139.27354552},{"name":"五日市カントリー","province":"東京都","city":"あきる野市","address":"東京都あきる野市網代745","lat":35.71640895,"lon":139.25022007},{"name":"立川国際カントリー","province":"東京都","city":"あきる野市","address":"東京都あきる野市草花2390","lat":35.75056749,"lon":139.30485031},{"name":"都立秋留台公園陸上競技場","province":"東京都","city":"あきる野市","address":"東京都あきる野市二宮","lat":35.72746496,"lon":139.31077004},{"name":"＊?中央公民館","province":"東京都","city":"あきる野市","address":"あきる野市二宮683","lat":35.730184,"lon":139.302297},{"name":"秋留台給水所","province":"東京都","city":"あきる野市","address":"東京都あきる野市秋川3-2-10","lat":35.7321865,"lon":139.284454},{"name":"菅生給水所","province":"東京都","city":"あきる野市","address":"東京都あきる野市菅生683","lat":35.745663,"lon":139.287219},{"name":"上代継浄水所","province":"東京都","city":"あきる野市","address":"東京都あきる野市上代継407","lat":35.71888,"lon":139.279151},{"name":"戸倉給水所","province":"東京都","city":"あきる野市","address":"東京都あきる野市戸倉348-1","lat":35.726467,"lon":139.20192},{"name":"小峰台配水所","province":"東京都","city":"あきる野市","address":"東京都あきる野市小峰台40","lat":35.719041,"lon":139.233864},{"name":"伊奈配水所","province":"東京都","city":"あきる野市","address":"東京都あきる野市伊奈372-3","lat":35.7348684,"lon":139.252211},{"name":"公立阿伎留医療センター","province":"東京都","city":"あきる野市","address":"東京都あきる野市引田78-1","lat":35.73181875,"lon":139.27214005},{"name":"学校法人菅生学園初等学校校庭","province":"東京都","city":"あきる野市","address":"東京都あきる野市菅生1468","lat":35.7561553,"lon":139.28712116},{"name":"市民運動場","province":"東京都","city":"あきる野市","address":"東京都あきる野市二宮683","lat":35.73040042,"lon":139.30224009},{"name":"あきる野市立小和田グラウンド","province":"東京都","city":"あきる野市","address":"東京都あきる野市小和田8","lat":35.72234618,"lon":139.22531468},{"name":"富士通株式会社あきる野テクノロジーセンター駐車場","province":"東京都","city":"あきる野市","address":"東京都あきる野市渕上50","lat":35.73065782,"lon":139.27354552},{"name":"五日市カントリー","province":"東京都","city":"あきる野市","address":"東京都あきる野市網代745","lat":35.71640895,"lon":139.25022007},{"name":"立川国際カントリー","province":"東京都","city":"あきる野市","address":"東京都あきる野市草花2390","lat":35.75056749,"lon":139.30485031},{"name":"都立秋留台公園陸上競技場","province":"東京都","city":"あきる野市","address":"東京都あきる野市二宮","lat":35.72746496,"lon":139.31077004},{"name":"＊?中央公民館","province":"東京都","city":"あきる野市","address":"あきる野市二宮683","lat":35.730184,"lon":139.302297},{"name":"秋留台給水所","province":"東京都","city":"あきる野市","address":"東京都あきる野市秋川3-2-10","lat":35.7321865,"lon":139.284454},{"name":"菅生給水所","province":"東京都","city":"あきる野市","address":"東京都あきる野市菅生683","lat":35.745663,"lon":139.287219},{"name":"上代継浄水所","province":"東京都","city":"あきる野市","address":"東京都あきる野市上代継407","lat":35.71888,"lon":139.279151},{"name":"戸倉給水所","province":"東京都","city":"あきる野市","address":"東京都あきる野市戸倉348-1","lat":35.726467,"lon":139.20192},{"name":"小峰台配水所","province":"東京都","city":"あきる野市","address":"東京都あきる野市小峰台40","lat":35.719041,"lon":139.233864},{"name":"伊奈配水所","province":"東京都","city":"あきる野市","address":"東京都あきる野市伊奈372-3","lat":35.7348684,"lon":139.252211},{"name":"公立阿伎留医療センター","province":"東京都","city":"あきる野市","address":"東京都あきる野市引田78-1","lat":35.73181875,"lon":139.27214005},{"name":"＊?中央公民館","province":"東京都","city":"あきる野市","address":"あきる野市二宮683","lat":35.730184,"lon":139.302297},{"name":"秋留台給水所","province":"東京都","city":"あきる野市","address":"東京都あきる野市秋川3-2-10","lat":35.7321865,"lon":139.284454},{"name":"菅生給水所","province":"東京都","city":"あきる野市","address":"東京都あきる野市菅生683","lat":35.745663,"lon":139.287219},{"name":"上代継浄水所","province":"東京都","city":"あきる野市","address":"東京都あきる野市上代継407","lat":35.71888,"lon":139.279151},{"name":"戸倉給水所","province":"東京都","city":"あきる野市","address":"東京都あきる野市戸倉348-1","lat":35.726467,"lon":139.20192},{"name":"小峰台配水所","province":"東京都","city":"あきる野市","address":"東京都あきる野市小峰台40","lat":35.719041,"lon":139.233864},{"name":"伊奈配水所","province":"東京都","city":"あきる野市","address":"東京都あきる野市伊奈372-3","lat":35.7348684,"lon":139.252211},{"name":"公立阿伎留医療センター","province":"東京都","city":"あきる野市","address":"東京都あきる野市引田78-1","lat":35.73181875,"lon":139.27214005},{"name":"＊?中央公民館","province":"東京都","city":"あきる野市","address":"あきる野市二宮683","lat":35.730184,"lon":139.302297},{"name":"秋留台給水所","province":"東京都","city":"あきる野市","address":"東京都あきる野市秋川3-2-10","lat":35.7321865,"lon":139.284454},{"name":"菅生給水所","province":"東京都","city":"あきる野市","address":"東京都あきる野市菅生683","lat":35.745663,"lon":139.287219},{"name":"上代継浄水所","province":"東京都","city":"あきる野市","address":"東京都あきる野市上代継407","lat":35.71888,"lon":139.279151},{"name":"戸倉給水所","province":"東京都","city":"あきる野市","address":"東京都あきる野市戸倉348-1","lat":35.726467,"lon":139.20192},{"name":"小峰台配水所","province":"東京都","city":"あきる野市","address":"東京都あきる野市小峰台40","lat":35.719041,"lon":139.233864},{"name":"伊奈配水所","province":"東京都","city":"あきる野市","address":"東京都あきる野市伊奈372-3","lat":35.7348684,"lon":139.252211},{"name":"公立阿伎留医療センター","province":"東京都","city":"あきる野市","address":"東京都あきる野市引田78-1","lat":35.73181875,"lon":139.27214005},{"name":"＊?中央公民館","province":"東京都","city":"あきる野市","address":"あきる野市二宮683","lat":35.730184,"lon":139.302297},{"name":"秋留台給水所","province":"東京都","city":"あきる野市","address":"東京都あきる野市秋川3-2-10","lat":35.7321865,"lon":139.284454},{"name":"菅生給水所","province":"東京都","city":"あきる野市","address":"東京都あきる野市菅生683","lat":35.745663,"lon":139.287219},{"name":"上代継浄水所","province":"東京都","city":"あきる野市","address":"東京都あきる野市上代継407","lat":35.71888,"lon":139.279151},{"name":"戸倉給水所","province":"東京都","city":"あきる野市","address":"東京都あきる野市戸倉348-1","lat":35.726467,"lon":139.20192},{"name":"小峰台配水所","province":"東京都","city":"あきる野市","address":"東京都あきる野市小峰台40","lat":35.719041,"lon":139.233864},{"name":"伊奈配水所","province":"東京都","city":"あきる野市","address":"東京都あきる野市伊奈372-3","lat":35.7348684,"lon":139.252211},{"name":"公立阿伎留医療センター","province":"東京都","city":"あきる野市","address":"東京都あきる野市引田78-1","lat":35.73181875,"lon":139.27214005},{"name":"＊?中央公民館","province":"東京都","city":"あきる野市","address":"あきる野市二宮683","lat":35.730184,"lon":139.302297},{"name":"秋留台給水所","province":"東京都","city":"あきる野市","address":"東京都あきる野市秋川3-2-10","lat":35.7321865,"lon":139.284454},{"name":"菅生給水所","province":"東京都","city":"あきる野市","address":"東京都あきる野市菅生683","lat":35.745663,"lon":139.287219},{"name":"上代継浄水所","province":"東京都","city":"あきる野市","address":"東京都あきる野市上代継407","lat":35.71888,"lon":139.279151},{"name":"戸倉給水所","province":"東京都","city":"あきる野市","address":"東京都あきる野市戸倉348-1","lat":35.726467,"lon":139.20192},{"name":"小峰台配水所","province":"東京都","city":"あきる野市","address":"東京都あきる野市小峰台40","lat":35.719041,"lon":139.233864},{"name":"伊奈配水所","province":"東京都","city":"あきる野市","address":"東京都あきる野市伊奈372-3","lat":35.7348684,"lon":139.252211},{"name":"公立阿伎留医療センター","province":"東京都","city":"あきる野市","address":"東京都あきる野市引田78-1","lat":35.73181875,"lon":139.27214005},{"name":"＊?中央公民館","province":"東京都","city":"あきる野市","address":"あきる野市二宮683","lat":35.730184,"lon":139.302297},{"name":"秋留台給水所","province":"東京都","city":"あきる野市","address":"東京都あきる野市秋川3-2-10","lat":35.7321865,"lon":139.284454},{"name":"菅生給水所","province":"東京都","city":"あきる野市","address":"東京都あきる野市菅生683","lat":35.745663,"lon":139.287219},{"name":"上代継浄水所","province":"東京都","city":"あきる野市","address":"東京都あきる野市上代継407","lat":35.71888,"lon":139.279151},{"name":"戸倉給水所","province":"東京都","city":"あきる野市","address":"東京都あきる野市戸倉348-1","lat":35.726467,"lon":139.20192},{"name":"小峰台配水所","province":"東京都","city":"あきる野市","address":"東京都あきる野市小峰台40","lat":35.719041,"lon":139.233864},{"name":"伊奈配水所","province":"東京都","city":"あきる野市","address":"東京都あきる野市伊奈372-3","lat":35.7348684,"lon":139.252211},{"name":"公立阿伎留医療センター","province":"東京都","city":"あきる野市","address":"東京都あきる野市引田78-1","lat":35.73181875,"lon":139.27214005},{"name":"＊?中央公民館","province":"東京都","city":"あきる野市","address":"あきる野市二宮683","lat":35.730184,"lon":139.302297},{"name":"秋留台給水所","province":"東京都","city":"あきる野市","address":"東京都あきる野市秋川3-2-10","lat":35.7321865,"lon":139.284454},{"name":"菅生給水所","province":"東京都","city":"あきる野市","address":"東京都あきる野市菅生683","lat":35.745663,"lon":139.287219},{"name":"上代継浄水所","province":"東京都","city":"あきる野市","address":"東京都あきる野市上代継407","lat":35.71888,"lon":139.279151},{"name":"戸倉給水所","province":"東京都","city":"あきる野市","address":"東京都あきる野市戸倉348-1","lat":35.726467,"lon":139.20192},{"name":"小峰台配水所","province":"東京都","city":"あきる野市","address":"東京都あきる野市小峰台40","lat":35.719041,"lon":139.233864},{"name":"伊奈配水所","province":"東京都","city":"あきる野市","address":"東京都あきる野市伊奈372-3","lat":35.7348684,"lon":139.252211},{"name":"＊?中央公民館","province":"東京都","city":"あきる野市","address":"あきる野市二宮683","lat":35.730184,"lon":139.302297},{"name":"秋留台給水所","province":"東京都","city":"あきる野市","address":"東京都あきる野市秋川3-2-10","lat":35.7321865,"lon":139.284454},{"name":"菅生給水所","province":"東京都","city":"あきる野市","address":"東京都あきる野市菅生683","lat":35.745663,"lon":139.287219},{"name":"上代継浄水所","province":"東京都","city":"あきる野市","address":"東京都あきる野市上代継407","lat":35.71888,"lon":139.279151},{"name":"戸倉給水所","province":"東京都","city":"あきる野市","address":"東京都あきる野市戸倉348-1","lat":35.726467,"lon":139.20192},{"name":"小峰台配水所","province":"東京都","city":"あきる野市","address":"東京都あきる野市小峰台40","lat":35.719041,"lon":139.233864},{"name":"伊奈配水所","province":"東京都","city":"あきる野市","address":"東京都あきる野市伊奈372-3","lat":35.7348684,"lon":139.252211},{"name":"＊?中央公民館","province":"東京都","city":"あきる野市","address":"あきる野市二宮683","lat":35.730184,"lon":139.302297},{"name":"秋留台給水所","province":"東京都","city":"あきる野市","address":"東京都あきる野市秋川3-2-10","lat":35.7321865,"lon":139.284454},{"name":"菅生給水所","province":"東京都","city":"あきる野市","address":"東京都あきる野市菅生683","lat":35.745663,"lon":139.287219},{"name":"上代継浄水所","province":"東京都","city":"あきる野市","address":"東京都あきる野市上代継407","lat":35.71888,"lon":139.279151},{"name":"戸倉給水所","province":"東京都","city":"あきる野市","address":"東京都あきる野市戸倉348-1","lat":35.726467,"lon":139.20192},{"name":"小峰台配水所","province":"東京都","city":"あきる野市","address":"東京都あきる野市小峰台40","lat":35.719041,"lon":139.233864},{"name":"伊奈配水所","province":"東京都","city":"あきる野市","address":"東京都あきる野市伊奈372-3","lat":35.7348684,"lon":139.252211},{"name":"＊?中央公民館","province":"東京都","city":"あきる野市","address":"あきる野市二宮683","lat":35.730184,"lon":139.302297},{"name":"秋留台給水所","province":"東京都","city":"あきる野市","address":"東京都あきる野市秋川3-2-10","lat":35.7321865,"lon":139.284454},{"name":"菅生給水所","province":"東京都","city":"あきる野市","address":"東京都あきる野市菅生683","lat":35.745663,"lon":139.287219},{"name":"上代継浄水所","province":"東京都","city":"あきる野市","address":"東京都あきる野市上代継407","lat":35.71888,"lon":139.279151},{"name":"戸倉給水所","province":"東京都","city":"あきる野市","address":"東京都あきる野市戸倉348-1","lat":35.726467,"lon":139.20192},{"name":"小峰台配水所","province":"東京都","city":"あきる野市","address":"東京都あきる野市小峰台40","lat":35.719041,"lon":139.233864},{"name":"伊奈配水所","province":"東京都","city":"あきる野市","address":"東京都あきる野市伊奈372-3","lat":35.7348684,"lon":139.252211},{"name":"＊?中央公民館","province":"東京都","city":"あきる野市","address":"あきる野市二宮683","lat":35.730184,"lon":139.302297},{"name":"秋留台給水所","province":"東京都","city":"あきる野市","address":"東京都あきる野市秋川3-2-10","lat":35.7321865,"lon":139.284454},{"name":"菅生給水所","province":"東京都","city":"あきる野市","address":"東京都あきる野市菅生683","lat":35.745663,"lon":139.287219},{"name":"上代継浄水所","province":"東京都","city":"あきる野市","address":"東京都あきる野市上代継407","lat":35.71888,"lon":139.279151},{"name":"戸倉給水所","province":"東京都","city":"あきる野市","address":"東京都あきる野市戸倉348-1","lat":35.726467,"lon":139.20192},{"name":"小峰台配水所","province":"東京都","city":"あきる野市","address":"東京都あきる野市小峰台40","lat":35.719041,"lon":139.233864},{"name":"伊奈配水所","province":"東京都","city":"あきる野市","address":"東京都あきる野市伊奈372-3","lat":35.7348684,"lon":139.252211},{"name":"＊?中央公民館","province":"東京都","city":"あきる野市","address":"あきる野市二宮683","lat":35.730184,"lon":139.302297},{"name":"秋留台給水所","province":"東京都","city":"あきる野市","address":"東京都あきる野市秋川3-2-10","lat":35.7321865,"lon":139.284454},{"name":"菅生給水所","province":"東京都","city":"あきる野市","address":"東京都あきる野市菅生683","lat":35.745663,"lon":139.287219},{"name":"上代継浄水所","province":"東京都","city":"あきる野市","address":"東京都あきる野市上代継407","lat":35.71888,"lon":139.279151},{"name":"戸倉給水所","province":"東京都","city":"あきる野市","address":"東京都あきる野市戸倉348-1","lat":35.726467,"lon":139.20192},{"name":"小峰台配水所","province":"東京都","city":"あきる野市","address":"東京都あきる野市小峰台40","lat":35.719041,"lon":139.233864},{"name":"伊奈配水所","province":"東京都","city":"あきる野市","address":"東京都あきる野市伊奈372-3","lat":35.7348684,"lon":139.252211},{"name":"＊?中央公民館","province":"東京都","city":"あきる野市","address":"あきる野市二宮683","lat":35.730184,"lon":139.302297},{"name":"秋留台給水所","province":"東京都","city":"あきる野市","address":"東京都あきる野市秋川3-2-10","lat":35.7321865,"lon":139.284454},{"name":"菅生給水所","province":"東京都","city":"あきる野市","address":"東京都あきる野市菅生683","lat":35.745663,"lon":139.287219},{"name":"上代継浄水所","province":"東京都","city":"あきる野市","address":"東京都あきる野市上代継407","lat":35.71888,"lon":139.279151},{"name":"戸倉給水所","province":"東京都","city":"あきる野市","address":"東京都あきる野市戸倉348-1","lat":35.726467,"lon":139.20192},{"name":"小峰台配水所","province":"東京都","city":"あきる野市","address":"東京都あきる野市小峰台40","lat":35.719041,"lon":139.233864},{"name":"伊奈配水所","province":"東京都","city":"あきる野市","address":"東京都あきる野市伊奈372-3","lat":35.7348684,"lon":139.252211},{"name":"＊?中央公民館","province":"東京都","city":"あきる野市","address":"あきる野市二宮683","lat":35.730184,"lon":139.302297},{"name":"秋留台給水所","province":"東京都","city":"あきる野市","address":"東京都あきる野市秋川3-2-10","lat":35.7321865,"lon":139.284454},{"name":"菅生給水所","province":"東京都","city":"あきる野市","address":"東京都あきる野市菅生683","lat":35.745663,"lon":139.287219},{"name":"上代継浄水所","province":"東京都","city":"あきる野市","address":"東京都あきる野市上代継407","lat":35.71888,"lon":139.279151},{"name":"戸倉給水所","province":"東京都","city":"あきる野市","address":"東京都あきる野市戸倉348-1","lat":35.726467,"lon":139.20192},{"name":"小峰台配水所","province":"東京都","city":"あきる野市","address":"東京都あきる野市小峰台40","lat":35.719041,"lon":139.233864},{"name":"伊奈配水所","province":"東京都","city":"あきる野市","address":"東京都あきる野市伊奈372-3","lat":35.7348684,"lon":139.252211},{"name":"＊?中央公民館","province":"東京都","city":"あきる野市","address":"あきる野市二宮683","lat":35.730184,"lon":139.302297},{"name":"秋留台給水所","province":"東京都","city":"あきる野市","address":"東京都あきる野市秋川3-2-10","lat":35.7321865,"lon":139.284454},{"name":"菅生給水所","province":"東京都","city":"あきる野市","address":"東京都あきる野市菅生683","lat":35.745663,"lon":139.287219},{"name":"上代継浄水所","province":"東京都","city":"あきる野市","address":"東京都あきる野市上代継407","lat":35.71888,"lon":139.279151},{"name":"戸倉給水所","province":"東京都","city":"あきる野市","address":"東京都あきる野市戸倉348-1","lat":35.726467,"lon":139.20192},{"name":"小峰台配水所","province":"東京都","city":"あきる野市","address":"東京都あきる野市小峰台40","lat":35.719041,"lon":139.233864},{"name":"伊奈配水所","province":"東京都","city":"あきる野市","address":"東京都あきる野市伊奈372-3","lat":35.7348684,"lon":139.252211},{"name":"＊?中央公民館","province":"東京都","city":"あきる野市","address":"あきる野市二宮683","lat":35.730184,"lon":139.302297},{"name":"秋留台給水所","province":"東京都","city":"あきる野市","address":"東京都あきる野市秋川3-2-10","lat":35.7321865,"lon":139.284454},{"name":"菅生給水所","province":"東京都","city":"あきる野市","address":"東京都あきる野市菅生683","lat":35.745663,"lon":139.287219},{"name":"上代継浄水所","province":"東京都","city":"あきる野市","address":"東京都あきる野市上代継407","lat":35.71888,"lon":139.279151},{"name":"戸倉給水所","province":"東京都","city":"あきる野市","address":"東京都あきる野市戸倉348-1","lat":35.726467,"lon":139.20192},{"name":"小峰台配水所","province":"東京都","city":"あきる野市","address":"東京都あきる野市小峰台40","lat":35.719041,"lon":139.233864},{"name":"伊奈配水所","province":"東京都","city":"あきる野市","address":"東京都あきる野市伊奈372-3","lat":35.7348684,"lon":139.252211},{"name":"＊?中央公民館","province":"東京都","city":"あきる野市","address":"あきる野市二宮683","lat":35.730184,"lon":139.302297},{"name":"秋留台給水所","province":"東京都","city":"あきる野市","address":"東京都あきる野市秋川3-2-10","lat":35.7321865,"lon":139.284454},{"name":"菅生給水所","province":"東京都","city":"あきる野市","address":"東京都あきる野市菅生683","lat":35.745663,"lon":139.287219},{"name":"上代継浄水所","province":"東京都","city":"あきる野市","address":"東京都あきる野市上代継407","lat":35.71888,"lon":139.279151},{"name":"戸倉給水所","province":"東京都","city":"あきる野市","address":"東京都あきる野市戸倉348-1","lat":35.726467,"lon":139.20192},{"name":"小峰台配水所","province":"東京都","city":"あきる野市","address":"東京都あきる野市小峰台40","lat":35.719041,"lon":139.233864},{"name":"伊奈配水所","province":"東京都","city":"あきる野市","address":"東京都あきる野市伊奈372-3","lat":35.7348684,"lon":139.252211},{"name":"＊?中央公民館","province":"東京都","city":"あきる野市","address":"あきる野市二宮683","lat":35.730184,"lon":139.302297},{"name":"秋留台給水所","province":"東京都","city":"あきる野市","address":"東京都あきる野市秋川3-2-10","lat":35.7321865,"lon":139.284454},{"name":"菅生給水所","province":"東京都","city":"あきる野市","address":"東京都あきる野市菅生683","lat":35.745663,"lon":139.287219},{"name":"上代継浄水所","province":"東京都","city":"あきる野市","address":"東京都あきる野市上代継407","lat":35.71888,"lon":139.279151},{"name":"戸倉給水所","province":"東京都","city":"あきる野市","address":"東京都あきる野市戸倉348-1","lat":35.726467,"lon":139.20192},{"name":"小峰台配水所","province":"東京都","city":"あきる野市","address":"東京都あきる野市小峰台40","lat":35.719041,"lon":139.233864},{"name":"伊奈配水所","province":"東京都","city":"あきる野市","address":"東京都あきる野市伊奈372-3","lat":35.7348684,"lon":139.252211},{"name":"＊?中央公民館","province":"東京都","city":"あきる野市","address":"あきる野市二宮683","lat":35.730184,"lon":139.302297},{"name":"秋留台給水所","province":"東京都","city":"あきる野市","address":"東京都あきる野市秋川3-2-10","lat":35.7321865,"lon":139.284454},{"name":"菅生給水所","province":"東京都","city":"あきる野市","address":"東京都あきる野市菅生683","lat":35.745663,"lon":139.287219},{"name":"上代継浄水所","province":"東京都","city":"あきる野市","address":"東京都あきる野市上代継407","lat":35.71888,"lon":139.279151},{"name":"戸倉給水所","province":"東京都","city":"あきる野市","address":"東京都あきる野市戸倉348-1","lat":35.726467,"lon":139.20192},{"name":"小峰台配水所","province":"東京都","city":"あきる野市","address":"東京都あきる野市小峰台40","lat":35.719041,"lon":139.233864},{"name":"伊奈配水所","province":"東京都","city":"あきる野市","address":"東京都あきる野市伊奈372-3","lat":35.7348684,"lon":139.252211},{"name":"＊?中央公民館","province":"東京都","city":"あきる野市","address":"あきる野市二宮683","lat":35.730184,"lon":139.302297},{"name":"秋留台給水所","province":"東京都","city":"あきる野市","address":"東京都あきる野市秋川3-2-10","lat":35.7321865,"lon":139.284454},{"name":"菅生給水所","province":"東京都","city":"あきる野市","address":"東京都あきる野市菅生683","lat":35.745663,"lon":139.287219},{"name":"上代継浄水所","province":"東京都","city":"あきる野市","address":"東京都あきる野市上代継407","lat":35.71888,"lon":139.279151},{"name":"戸倉給水所","province":"東京都","city":"あきる野市","address":"東京都あきる野市戸倉348-1","lat":35.726467,"lon":139.20192},{"name":"小峰台配水所","province":"東京都","city":"あきる野市","address":"東京都あきる野市小峰台40","lat":35.719041,"lon":139.233864},{"name":"伊奈配水所","province":"東京都","city":"あきる野市","address":"東京都あきる野市伊奈372-3","lat":35.7348684,"lon":139.252211},{"name":"＊?中央公民館","province":"東京都","city":"あきる野市","address":"あきる野市二宮683","lat":35.730184,"lon":139.302297},{"name":"秋留台給水所","province":"東京都","city":"あきる野市","address":"東京都あきる野市秋川3-2-10","lat":35.7321865,"lon":139.284454},{"name":"菅生給水所","province":"東京都","city":"あきる野市","address":"東京都あきる野市菅生683","lat":35.745663,"lon":139.287219},{"name":"上代継浄水所","province":"東京都","city":"あきる野市","address":"東京都あきる野市上代継407","lat":35.71888,"lon":139.279151},{"name":"戸倉給水所","province":"東京都","city":"あきる野市","address":"東京都あきる野市戸倉348-1","lat":35.726467,"lon":139.20192},{"name":"小峰台配水所","province":"東京都","city":"あきる野市","address":"東京都あきる野市小峰台40","lat":35.719041,"lon":139.233864},{"name":"伊奈配水所","province":"東京都","city":"あきる野市","address":"東京都あきる野市伊奈372-3","lat":35.7348684,"lon":139.252211},{"name":"＊?中央公民館","province":"東京都","city":"あきる野市","address":"あきる野市二宮683","lat":35.730184,"lon":139.302297},{"name":"秋留台給水所","province":"東京都","city":"あきる野市","address":"東京都あきる野市秋川3-2-10","lat":35.7321865,"lon":139.284454},{"name":"菅生給水所","province":"東京都","city":"あきる野市","address":"東京都あきる野市菅生683","lat":35.745663,"lon":139.287219},{"name":"上代継浄水所","province":"東京都","city":"あきる野市","address":"東京都あきる野市上代継407","lat":35.71888,"lon":139.279151},{"name":"戸倉給水所","province":"東京都","city":"あきる野市","address":"東京都あきる野市戸倉348-1","lat":35.726467,"lon":139.20192},{"name":"小峰台配水所","province":"東京都","city":"あきる野市","address":"東京都あきる野市小峰台40","lat":35.719041,"lon":139.233864},{"name":"伊奈配水所","province":"東京都","city":"あきる野市","address":"東京都あきる野市伊奈372-3","lat":35.7348684,"lon":139.252211},{"name":"＊?中央公民館","province":"東京都","city":"あきる野市","address":"あきる野市二宮683","lat":35.730184,"lon":139.302297},{"name":"秋留台給水所","province":"東京都","city":"あきる野市","address":"東京都あきる野市秋川3-2-10","lat":35.7321865,"lon":139.284454},{"name":"菅生給水所","province":"東京都","city":"あきる野市","address":"東京都あきる野市菅生683","lat":35.745663,"lon":139.287219},{"name":"上代継浄水所","province":"東京都","city":"あきる野市","address":"東京都あきる野市上代継407","lat":35.71888,"lon":139.279151},{"name":"戸倉給水所","province":"東京都","city":"あきる野市","address":"東京都あきる野市戸倉348-1","lat":35.726467,"lon":139.20192},{"name":"小峰台配水所","province":"東京都","city":"あきる野市","address":"東京都あきる野市小峰台40","lat":35.719041,"lon":139.233864},{"name":"伊奈配水所","province":"東京都","city":"あきる野市","address":"東京都あきる野市伊奈372-3","lat":35.7348684,"lon":139.252211},{"name":"＊?中央公民館","province":"東京都","city":"あきる野市","address":"あきる野市二宮683","lat":35.730184,"lon":139.302297},{"name":"秋留台給水所","province":"東京都","city":"あきる野市","address":"東京都あきる野市秋川3-2-10","lat":35.7321865,"lon":139.284454},{"name":"菅生給水所","province":"東京都","city":"あきる野市","address":"東京都あきる野市菅生683","lat":35.745663,"lon":139.287219},{"name":"上代継浄水所","province":"東京都","city":"あきる野市","address":"東京都あきる野市上代継407","lat":35.71888,"lon":139.279151},{"name":"戸倉給水所","province":"東京都","city":"あきる野市","address":"東京都あきる野市戸倉348-1","lat":35.726467,"lon":139.20192},{"name":"小峰台配水所","province":"東京都","city":"あきる野市","address":"東京都あきる野市小峰台40","lat":35.719041,"lon":139.233864},{"name":"伊奈配水所","province":"東京都","city":"あきる野市","address":"東京都あきる野市伊奈372-3","lat":35.7348684,"lon":139.252211},{"name":"＊?中央公民館","province":"東京都","city":"あきる野市","address":"あきる野市二宮683","lat":35.730184,"lon":139.302297},{"name":"秋留台給水所","province":"東京都","city":"あきる野市","address":"東京都あきる野市秋川3-2-10","lat":35.7321865,"lon":139.284454},{"name":"菅生給水所","province":"東京都","city":"あきる野市","address":"東京都あきる野市菅生683","lat":35.745663,"lon":139.287219},{"name":"上代継浄水所","province":"東京都","city":"あきる野市","address":"東京都あきる野市上代継407","lat":35.71888,"lon":139.279151},{"name":"戸倉給水所","province":"東京都","city":"あきる野市","address":"東京都あきる野市戸倉348-1","lat":35.726467,"lon":139.20192},{"name":"小峰台配水所","province":"東京都","city":"あきる野市","address":"東京都あきる野市小峰台40","lat":35.719041,"lon":139.233864},{"name":"伊奈配水所","province":"東京都","city":"あきる野市","address":"東京都あきる野市伊奈372-3","lat":35.7348684,"lon":139.252211},{"name":"＊?中央公民館","province":"東京都","city":"あきる野市","address":"あきる野市二宮683","lat":35.730184,"lon":139.302297},{"name":"秋留台給水所","province":"東京都","city":"あきる野市","address":"東京都あきる野市秋川3-2-10","lat":35.7321865,"lon":139.284454},{"name":"菅生給水所","province":"東京都","city":"あきる野市","address":"東京都あきる野市菅生683","lat":35.745663,"lon":139.287219},{"name":"上代継浄水所","province":"東京都","city":"あきる野市","address":"東京都あきる野市上代継407","lat":35.71888,"lon":139.279151},{"name":"戸倉給水所","province":"東京都","city":"あきる野市","address":"東京都あきる野市戸倉348-1","lat":35.726467,"lon":139.20192},{"name":"小峰台配水所","province":"東京都","city":"あきる野市","address":"東京都あきる野市小峰台40","lat":35.719041,"lon":139.233864},{"name":"伊奈配水所","province":"東京都","city":"あきる野市","address":"東京都あきる野市伊奈372-3","lat":35.7348684,"lon":139.252211},{"name":"＊?中央公民館","province":"東京都","city":"あきる野市","address":"あきる野市二宮683","lat":35.730184,"lon":139.302297},{"name":"秋留台給水所","province":"東京都","city":"あきる野市","address":"東京都あきる野市秋川3-2-10","lat":35.7321865,"lon":139.284454},{"name":"菅生給水所","province":"東京都","city":"あきる野市","address":"東京都あきる野市菅生683","lat":35.745663,"lon":139.287219},{"name":"上代継浄水所","province":"東京都","city":"あきる野市","address":"東京都あきる野市上代継407","lat":35.71888,"lon":139.279151},{"name":"戸倉給水所","province":"東京都","city":"あきる野市","address":"東京都あきる野市戸倉348-1","lat":35.726467,"lon":139.20192},{"name":"小峰台配水所","province":"東京都","city":"あきる野市","address":"東京都あきる野市小峰台40","lat":35.719041,"lon":139.233864},{"name":"伊奈配水所","province":"東京都","city":"あきる野市","address":"東京都あきる野市伊奈372-3","lat":35.7348684,"lon":139.252211},{"name":"＊?中央公民館","province":"東京都","city":"あきる野市","address":"あきる野市二宮683","lat":35.730184,"lon":139.302297},{"name":"秋留台給水所","province":"東京都","city":"あきる野市","address":"東京都あきる野市秋川3-2-10","lat":35.7321865,"lon":139.284454},{"name":"菅生給水所","province":"東京都","city":"あきる野市","address":"東京都あきる野市菅生683","lat":35.745663,"lon":139.287219},{"name":"上代継浄水所","province":"東京都","city":"あきる野市","address":"東京都あきる野市上代継407","lat":35.71888,"lon":139.279151},{"name":"戸倉給水所","province":"東京都","city":"あきる野市","address":"東京都あきる野市戸倉348-1","lat":35.726467,"lon":139.20192},{"name":"小峰台配水所","province":"東京都","city":"あきる野市","address":"東京都あきる野市小峰台40","lat":35.719041,"lon":139.233864},{"name":"伊奈配水所","province":"東京都","city":"あきる野市","address":"東京都あきる野市伊奈372-3","lat":35.7348684,"lon":139.252211},{"name":"＊?中央公民館","province":"東京都","city":"あきる野市","address":"あきる野市二宮683","lat":35.730184,"lon":139.302297},{"name":"秋留台給水所","province":"東京都","city":"あきる野市","address":"東京都あきる野市秋川3-2-10","lat":35.7321865,"lon":139.284454},{"name":"菅生給水所","province":"東京都","city":"あきる野市","address":"東京都あきる野市菅生683","lat":35.745663,"lon":139.287219},{"name":"上代継浄水所","province":"東京都","city":"あきる野市","address":"東京都あきる野市上代継407","lat":35.71888,"lon":139.279151},{"name":"戸倉給水所","province":"東京都","city":"あきる野市","address":"東京都あきる野市戸倉348-1","lat":35.726467,"lon":139.20192},{"name":"小峰台配水所","province":"東京都","city":"あきる野市","address":"東京都あきる野市小峰台40","lat":35.719041,"lon":139.233864},{"name":"伊奈配水所","province":"東京都","city":"あきる野市","address":"東京都あきる野市伊奈372-3","lat":35.7348684,"lon":139.252211},{"name":"＊?中央公民館","province":"東京都","city":"あきる野市","address":"あきる野市二宮683","lat":35.730184,"lon":139.302297},{"name":"秋留台給水所","province":"東京都","city":"あきる野市","address":"東京都あきる野市秋川3-2-10","lat":35.7321865,"lon":139.284454},{"name":"菅生給水所","province":"東京都","city":"あきる野市","address":"東京都あきる野市菅生683","lat":35.745663,"lon":139.287219},{"name":"上代継浄水所","province":"東京都","city":"あきる野市","address":"東京都あきる野市上代継407","lat":35.71888,"lon":139.279151},{"name":"戸倉給水所","province":"東京都","city":"あきる野市","address":"東京都あきる野市戸倉348-1","lat":35.726467,"lon":139.20192},{"name":"小峰台配水所","province":"東京都","city":"あきる野市","address":"東京都あきる野市小峰台40","lat":35.719041,"lon":139.233864},{"name":"伊奈配水所","province":"東京都","city":"あきる野市","address":"東京都あきる野市伊奈372-3","lat":35.7348684,"lon":139.252211},{"name":"＊?中央公民館","province":"東京都","city":"あきる野市","address":"あきる野市二宮683","lat":35.730184,"lon":139.302297},{"name":"秋留台給水所","province":"東京都","city":"あきる野市","address":"東京都あきる野市秋川3-2-10","lat":35.7321865,"lon":139.284454},{"name":"菅生給水所","province":"東京都","city":"あきる野市","address":"東京都あきる野市菅生683","lat":35.745663,"lon":139.287219},{"name":"上代継浄水所","province":"東京都","city":"あきる野市","address":"東京都あきる野市上代継407","lat":35.71888,"lon":139.279151},{"name":"戸倉給水所","province":"東京都","city":"あきる野市","address":"東京都あきる野市戸倉348-1","lat":35.726467,"lon":139.20192},{"name":"小峰台配水所","province":"東京都","city":"あきる野市","address":"東京都あきる野市小峰台40","lat":35.719041,"lon":139.233864},{"name":"伊奈配水所","province":"東京都","city":"あきる野市","address":"東京都あきる野市伊奈372-3","lat":35.7348684,"lon":139.252211},{"name":"＊?中央公民館","province":"東京都","city":"あきる野市","address":"あきる野市二宮683","lat":35.730184,"lon":139.302297},{"name":"秋留台給水所","province":"東京都","city":"あきる野市","address":"東京都あきる野市秋川3-2-10","lat":35.7321865,"lon":139.284454},{"name":"菅生給水所","province":"東京都","city":"あきる野市","address":"東京都あきる野市菅生683","lat":35.745663,"lon":139.287219},{"name":"上代継浄水所","province":"東京都","city":"あきる野市","address":"東京都あきる野市上代継407","lat":35.71888,"lon":139.279151},{"name":"戸倉給水所","province":"東京都","city":"あきる野市","address":"東京都あきる野市戸倉348-1","lat":35.726467,"lon":139.20192},{"name":"小峰台配水所","province":"東京都","city":"あきる野市","address":"東京都あきる野市小峰台40","lat":35.719041,"lon":139.233864},{"name":"伊奈配水所","province":"東京都","city":"あきる野市","address":"東京都あきる野市伊奈372-3","lat":35.7348684,"lon":139.252211},{"name":"＊?中央公民館","province":"東京都","city":"あきる野市","address":"あきる野市二宮683","lat":35.730184,"lon":139.302297},{"name":"秋留台給水所","province":"東京都","city":"あきる野市","address":"東京都あきる野市秋川3-2-10","lat":35.7321865,"lon":139.284454},{"name":"菅生給水所","province":"東京都","city":"あきる野市","address":"東京都あきる野市菅生683","lat":35.745663,"lon":139.287219},{"name":"上代継浄水所","province":"東京都","city":"あきる野市","address":"東京都あきる野市上代継407","lat":35.71888,"lon":139.279151},{"name":"戸倉給水所","province":"東京都","city":"あきる野市","address":"東京都あきる野市戸倉348-1","lat":35.726467,"lon":139.20192},{"name":"小峰台配水所","province":"東京都","city":"あきる野市","address":"東京都あきる野市小峰台40","lat":35.719041,"lon":139.233864},{"name":"伊奈配水所","province":"東京都","city":"あきる野市","address":"東京都あきる野市伊奈372-3","lat":35.7348684,"lon":139.252211},{"name":"＊?中央公民館","province":"東京都","city":"あきる野市","address":"あきる野市二宮683","lat":35.730184,"lon":139.302297},{"name":"秋留台給水所","province":"東京都","city":"あきる野市","address":"東京都あきる野市秋川3-2-10","lat":35.7321865,"lon":139.284454},{"name":"菅生給水所","province":"東京都","city":"あきる野市","address":"東京都あきる野市菅生683","lat":35.745663,"lon":139.287219},{"name":"上代継浄水所","province":"東京都","city":"あきる野市","address":"東京都あきる野市上代継407","lat":35.71888,"lon":139.279151},{"name":"戸倉給水所","province":"東京都","city":"あきる野市","address":"東京都あきる野市戸倉348-1","lat":35.726467,"lon":139.20192},{"name":"小峰台配水所","province":"東京都","city":"あきる野市","address":"東京都あきる野市小峰台40","lat":35.719041,"lon":139.233864},{"name":"伊奈配水所","province":"東京都","city":"あきる野市","address":"東京都あきる野市伊奈372-3","lat":35.7348684,"lon":139.252211},{"name":"＊?中央公民館","province":"東京都","city":"あきる野市","address":"あきる野市二宮683","lat":35.730184,"lon":139.302297},{"name":"秋留台給水所","province":"東京都","city":"あきる野市","address":"東京都あきる野市秋川3-2-10","lat":35.7321865,"lon":139.284454},{"name":"菅生給水所","province":"東京都","city":"あきる野市","address":"東京都あきる野市菅生683","lat":35.745663,"lon":139.287219},{"name":"上代継浄水所","province":"東京都","city":"あきる野市","address":"東京都あきる野市上代継407","lat":35.71888,"lon":139.279151},{"name":"戸倉給水所","province":"東京都","city":"あきる野市","address":"東京都あきる野市戸倉348-1","lat":35.726467,"lon":139.20192},{"name":"小峰台配水所","province":"東京都","city":"あきる野市","address":"東京都あきる野市小峰台40","lat":35.719041,"lon":139.233864},{"name":"伊奈配水所","province":"東京都","city":"あきる野市","address":"東京都あきる野市伊奈372-3","lat":35.7348684,"lon":139.252211},{"name":"＊?中央公民館","province":"東京都","city":"あきる野市","address":"あきる野市二宮683","lat":35.730184,"lon":139.302297},{"name":"秋留台給水所","province":"東京都","city":"あきる野市","address":"東京都あきる野市秋川3-2-10","lat":35.7321865,"lon":139.284454},{"name":"菅生給水所","province":"東京都","city":"あきる野市","address":"東京都あきる野市菅生683","lat":35.745663,"lon":139.287219},{"name":"上代継浄水所","province":"東京都","city":"あきる野市","address":"東京都あきる野市上代継407","lat":35.71888,"lon":139.279151},{"name":"戸倉給水所","province":"東京都","city":"あきる野市","address":"東京都あきる野市戸倉348-1","lat":35.726467,"lon":139.20192},{"name":"小峰台配水所","province":"東京都","city":"あきる野市","address":"東京都あきる野市小峰台40","lat":35.719041,"lon":139.233864},{"name":"伊奈配水所","province":"東京都","city":"あきる野市","address":"東京都あきる野市伊奈372-3","lat":35.7348684,"lon":139.252211},{"name":"＊?中央公民館","province":"東京都","city":"あきる野市","address":"あきる野市二宮683","lat":35.730184,"lon":139.302297},{"name":"秋留台給水所","province":"東京都","city":"あきる野市","address":"東京都あきる野市秋川3-2-10","lat":35.7321865,"lon":139.284454},{"name":"菅生給水所","province":"東京都","city":"あきる野市","address":"東京都あきる野市菅生683","lat":35.745663,"lon":139.287219},{"name":"上代継浄水所","province":"東京都","city":"あきる野市","address":"東京都あきる野市上代継407","lat":35.71888,"lon":139.279151},{"name":"戸倉給水所","province":"東京都","city":"あきる野市","address":"東京都あきる野市戸倉348-1","lat":35.726467,"lon":139.20192},{"name":"小峰台配水所","province":"東京都","city":"あきる野市","address":"東京都あきる野市小峰台40","lat":35.719041,"lon":139.233864},{"name":"伊奈配水所","province":"東京都","city":"あきる野市","address":"東京都あきる野市伊奈372-3","lat":35.7348684,"lon":139.252211},{"name":"＊?中央公民館","province":"東京都","city":"あきる野市","address":"あきる野市二宮683","lat":35.730184,"lon":139.302297},{"name":"秋留台給水所","province":"東京都","city":"あきる野市","address":"東京都あきる野市秋川3-2-10","lat":35.7321865,"lon":139.284454},{"name":"菅生給水所","province":"東京都","city":"あきる野市","address":"東京都あきる野市菅生683","lat":35.745663,"lon":139.287219},{"name":"上代継浄水所","province":"東京都","city":"あきる野市","address":"東京都あきる野市上代継407","lat":35.71888,"lon":139.279151},{"name":"戸倉給水所","province":"東京都","city":"あきる野市","address":"東京都あきる野市戸倉348-1","lat":35.726467,"lon":139.20192},{"name":"小峰台配水所","province":"東京都","city":"あきる野市","address":"東京都あきる野市小峰台40","lat":35.719041,"lon":139.233864},{"name":"伊奈配水所","province":"東京都","city":"あきる野市","address":"東京都あきる野市伊奈372-3","lat":35.7348684,"lon":139.252211},{"name":"＊?中央公民館","province":"東京都","city":"あきる野市","address":"あきる野市二宮683","lat":35.730184,"lon":139.302297},{"name":"秋留台給水所","province":"東京都","city":"あきる野市","address":"東京都あきる野市秋川3-2-10","lat":35.7321865,"lon":139.284454},{"name":"菅生給水所","province":"東京都","city":"あきる野市","address":"東京都あきる野市菅生683","lat":35.745663,"lon":139.287219},{"name":"上代継浄水所","province":"東京都","city":"あきる野市","address":"東京都あきる野市上代継407","lat":35.71888,"lon":139.279151},{"name":"戸倉給水所","province":"東京都","city":"あきる野市","address":"東京都あきる野市戸倉348-1","lat":35.726467,"lon":139.20192},{"name":"小峰台配水所","province":"東京都","city":"あきる野市","address":"東京都あきる野市小峰台40","lat":35.719041,"lon":139.233864},{"name":"伊奈配水所","province":"東京都","city":"あきる野市","address":"東京都あきる野市伊奈372-3","lat":35.7348684,"lon":139.252211},{"name":"＊?中央公民館","province":"東京都","city":"あきる野市","address":"あきる野市二宮683","lat":35.730184,"lon":139.302297},{"name":"秋留台給水所","province":"東京都","city":"あきる野市","address":"東京都あきる野市秋川3-2-10","lat":35.7321865,"lon":139.284454},{"name":"菅生給水所","province":"東京都","city":"あきる野市","address":"東京都あきる野市菅生683","lat":35.745663,"lon":139.287219},{"name":"上代継浄水所","province":"東京都","city":"あきる野市","address":"東京都あきる野市上代継407","lat":35.71888,"lon":139.279151},{"name":"戸倉給水所","province":"東京都","city":"あきる野市","address":"東京都あきる野市戸倉348-1","lat":35.726467,"lon":139.20192},{"name":"小峰台配水所","province":"東京都","city":"あきる野市","address":"東京都あきる野市小峰台40","lat":35.719041,"lon":139.233864},{"name":"伊奈配水所","province":"東京都","city":"あきる野市","address":"東京都あきる野市伊奈372-3","lat":35.7348684,"lon":139.252211},{"name":"＊?中央公民館","province":"東京都","city":"あきる野市","address":"あきる野市二宮683","lat":35.730184,"lon":139.302297},{"name":"秋留台給水所","province":"東京都","city":"あきる野市","address":"東京都あきる野市秋川3-2-10","lat":35.7321865,"lon":139.284454},{"name":"菅生給水所","province":"東京都","city":"あきる野市","address":"東京都あきる野市菅生683","lat":35.745663,"lon":139.287219},{"name":"上代継浄水所","province":"東京都","city":"あきる野市","address":"東京都あきる野市上代継407","lat":35.71888,"lon":139.279151},{"name":"戸倉給水所","province":"東京都","city":"あきる野市","address":"東京都あきる野市戸倉348-1","lat":35.726467,"lon":139.20192},{"name":"小峰台配水所","province":"東京都","city":"あきる野市","address":"東京都あきる野市小峰台40","lat":35.719041,"lon":139.233864},{"name":"伊奈配水所","province":"東京都","city":"あきる野市","address":"東京都あきる野市伊奈372-3","lat":35.7348684,"lon":139.252211},{"name":"＊?中央公民館","province":"東京都","city":"あきる野市","address":"あきる野市二宮683","lat":35.730184,"lon":139.302297}]}