{"keyword":"子育て","data":[{"name":"神明保育園","province":"東京都","city":"あきる野市","address":"東京都あきる野市瀬戸岡446","lat":35.738094,"lon":139.288399},{"name":"ほうりんじ幼稚園","province":"東京都","city":"あきる野市","address":"東京都あきる野市小川東2-12-24","lat":35.719597,"lon":139.3192},{"name":"多摩川幼稚園","province":"東京都","city":"あきる野市","address":"東京都あきる野市雨間430","lat":35.724556,"lon":139.291572},{"name":"草花幼稚園","province":"東京都","city":"あきる野市","address":"東京都あきる野市草花3060","lat":35.739063,"lon":139.304098},{"name":"すもも木幼稚園","province":"東京都","city":"あきる野市","address":"東京都あきる野市秋川6-17-10","lat":35.731403,"lon":139.291805},{"name":"秋川幼稚園","province":"東京都","city":"あきる野市","address":"東京都あきる野市山田951","lat":35.725483,"lon":139.25708},{"name":"秋川文化幼稚園","province":"東京都","city":"あきる野市","address":"東京都あきる野市引田388","lat":35.726564,"lon":139.268263},{"name":"秋川文化保育園","province":"東京都","city":"あきる野市","address":"東京都あきる野市引田399-5","lat":35.726241,"lon":139.268588},{"name":"たまがわベビーハウス","province":"東京都","city":"あきる野市","address":"東京都あきる野市雨間429-8","lat":35.724265,"lon":139.291294},{"name":"よつぎっ子えん西","province":"東京都","city":"あきる野市","address":"東京都あきる野市秋川2-7-4","lat":35.729289,"lon":139.286519},{"name":"よつぎっ子えん東","province":"東京都","city":"あきる野市","address":"東京都あきる野市野辺462-17","lat":35.726351,"lon":139.310773},{"name":"家庭保育室ひまわり","province":"東京都","city":"あきる野市","address":"東京都あきる野市草花686-5","lat":35.735611,"lon":139.309153},{"name":"みどりの園","province":"東京都","city":"あきる野市","address":"東京都あきる野市秋留2-8-15","lat":35.723701,"lon":139.295249},{"name":"ウッディキッズ","province":"東京都","city":"あきる野市","address":"東京都あきる野市秋川6-18-8","lat":35.731231,"lon":139.292574},{"name":"ころりん村幼児園","province":"東京都","city":"あきる野市","address":"東京都あきる野市菅生1250","lat":35.752359,"lon":139.288299},{"name":"キッズガーデンあきるの","province":"東京都","city":"あきる野市","address":"東京都あきる野市牛沼171-1","lat":35.723554,"lon":139.291244},{"name":"あきる台病院保育所パレット","province":"東京都","city":"あきる野市","address":"東京都あきる野市秋川6-5-15","lat":35.72946,"lon":139.292518},{"name":"若葉児童館","province":"東京都","city":"あきる野市","address":"東京都あきる野市上代継303-5","lat":35.724178,"lon":139.278059},{"name":"五日市児童館増戸分館","province":"東京都","city":"あきる野市","address":"東京都あきる野市伊奈1173","lat":35.728021,"lon":139.24782},{"name":"前田児童館","province":"東京都","city":"あきる野市","address":"東京都あきる野市野辺126-4","lat":35.723102,"lon":139.313656},{"name":"屋城学童クラブ（屋城児童館）","province":"東京都","city":"あきる野市","address":"東京都あきる野市二宮1-13-1","lat":35.724124,"lon":139.318545},{"name":"草花第１・第２学童クラブ（草花児童センター）","province":"東京都","city":"あきる野市","address":"東京都あきる野市草花3130","lat":35.736064,"lon":139.304945},{"name":"若竹学童クラブ","province":"東京都","city":"あきる野市","address":"東京都あきる野市野辺1123","lat":35.724376,"lon":139.305548},{"name":"若葉学童クラブ","province":"東京都","city":"あきる野市","address":"東京都あきる野市上代継303-5","lat":35.724178,"lon":139.278059},{"name":"南秋留第１学童クラブ","province":"東京都","city":"あきる野市","address":"東京都あきる野市雨間801-2","lat":35.720737,"lon":139.292086},{"name":"南秋留第２学童クラブ","province":"東京都","city":"あきる野市","address":"東京都あきる野市雨間801-2","lat":35.720737,"lon":139.292086},{"name":"一の谷学童クラブ","province":"東京都","city":"あきる野市","address":"東京都あきる野市引田928","lat":35.720103,"lon":139.27096},{"name":"前田学童クラブ","province":"東京都","city":"あきる野市","address":"東京都あきる野市野辺126-4","lat":35.723102,"lon":139.313656},{"name":"多西第１・第２学童クラブ","province":"東京都","city":"あきる野市","address":"東京都あきる野市草花2572","lat":35.743132,"lon":139.299248},{"name":"五日市第１学童クラブ","province":"東京都","city":"あきる野市","address":"東京都あきる野市五日市315","lat":35.731965,"lon":139.221989},{"name":"五日市第２学童クラブ","province":"東京都","city":"あきる野市","address":"東京都あきる野市五日市414-5","lat":35.729676,"lon":139.219487},{"name":"増戸第１学童クラブ","province":"東京都","city":"あきる野市","address":"東京都あきる野市伊奈1157-5","lat":35.727458,"lon":139.247564},{"name":"増戸第２学童クラブ","province":"東京都","city":"あきる野市","address":"東京都あきる野市伊奈1157-5","lat":35.727458,"lon":139.247564},{"name":"秋留台学童クラブ","province":"東京都","city":"あきる野市","address":"東京都あきる野市二宮350","lat":35.731028,"lon":139.28828}]}