{"keyword":"戸数","data":[{"name":"あきる野市社会福祉協議会","province":"東京都","city":"あきる野市","address":"あきる野市平沢175-4秋川ふれあいセンター内","lat":35.732525,"lon":139.301915},{"name":"市役所（本庁舎）","province":"東京都","city":"あきる野市","address":"東京都あきる野市二宮350","lat":35.729018,"lon":139.294204},{"name":"五日市保健相談センター1階子育てひろばいつかいち","province":"東京都","city":"あきる野市","address":"東京都あきる野市五日市414ー5","lat":35.729634,"lon":139.219506},{"name":"あきる野ルピア1階子育てひろばるぴああきる野っ子","province":"東京都","city":"あきる野市","address":"東京都あきる野市秋川1-8","lat":35.729977,"lon":139.287091},{"name":"あきる野ルピア2階子育てひろばここるの","province":"東京都","city":"あきる野市","address":"東京都あきる野市秋川1-8","lat":35.729977,"lon":139.287091},{"name":"中央図書館","province":"東京都","city":"あきる野市","address":"東京都あきる野市秋川1-16-2","lat":35.730707,"lon":139.288733},{"name":"東部図書館エル","province":"東京都","city":"あきる野市","address":"東京都あきる野市野辺39-27","lat":35.725255,"lon":139.315717},{"name":"秋川ふれあいセンター","province":"東京都","city":"あきる野市","address":"東京都あきる野市平沢175-4","lat":35.732611,"lon":139.301973},{"name":"あきる野とうきゅう4階ベビー休憩室","province":"東京都","city":"あきる野市","address":"東京都あきる野市秋川1-17-1","lat":35.730727,"lon":139.287063},{"name":"光明第六保育園","province":"東京都","city":"あきる野市","address":"東京都あきる野市留原50","lat":35.72325,"lon":139.234596},{"name":"五日市保育園","province":"東京都","city":"あきる野市","address":"東京都あきる野市五日市345","lat":35.731015,"lon":139.223856},{"name":"秋留台公園","province":"東京都","city":"あきる野市","address":"東京都あきる野市二宮673-1","lat":35.729404,"lon":139.301899},{"name":"あきる野市役所本庁舎","province":"東京都","city":"あきる野市","address":"東京都あきる野市二宮350","lat":35.729817,"lon":139.294072},{"name":"二宮考古館","province":"東京都","city":"あきる野市","address":"東京都あきる野市二宮1151","lat":35.727622,"lon":139.313845},{"name":"JR秋川駅","province":"東京都","city":"あきる野市","address":"東京都あきる野市油平49","lat":35.728082,"lon":139.286624},{"name":"JR武蔵増戸駅","province":"東京都","city":"あきる野市","address":"東京都あきる野市伊奈873-2","lat":35.731012,"lon":139.256302},{"name":"JR武蔵五日市駅","province":"東京都","city":"あきる野市","address":"東京都あきる野市舘谷台16","lat":35.732538,"lon":139.228326},{"name":"観光案内所","province":"東京都","city":"あきる野市","address":"東京都あきる野市舘谷台16","lat":35.732696,"lon":139.228258},{"name":"五日市出張所","province":"東京都","city":"あきる野市","address":"東京都あきる野市五日市411","lat":35.729571,"lon":139.219939},{"name":"五日市郷土館","province":"東京都","city":"あきる野市","address":"東京都あきる野市五日市920-1","lat":35.728671,"lon":139.216936},{"name":"秋川渓谷瀬音の湯","province":"東京都","city":"あきる野市","address":"東京都あきる野市乙津565","lat":35.727518,"lon":139.187633},{"name":"ふるさと工房五日市","province":"東京都","city":"あきる野市","address":"東京都あきる野市乙津671","lat":35.723677,"lon":139.17949},{"name":"中央公民館","province":"東京都","city":"あきる野市","address":"東京都あきる野市二宮683","lat":35.73054,"lon":139.302321},{"name":"あきる野市","province":"東京都","city":"あきる野市","address":"あきる野市二宮350","lat":35.7291144,"lon":139.2935111},{"name":"あきる野市社会福祉協議会","province":"東京都","city":"あきる野市","address":"あきる野市平沢175-4秋川ふれあいセンター内","lat":35.73215,"lon":139.30247},{"name":"あきる野市社会福祉協議会","province":"東京都","city":"あきる野市","address":"あきる野市平沢175-4秋川ふれあいセンター内","lat":35.73215,"lon":139.30248},{"name":"公立阿伎留医療センター","province":"東京都","city":"あきる野市","address":"東京都あきる野市引田78-1","lat":35.73181875,"lon":139.27214005},{"name":"秋留台給水所","province":"東京都","city":"あきる野市","address":"東京都あきる野市秋川3丁目2-10","lat":35.73175243,"lon":139.28428611},{"name":"上代継浄水所","province":"東京都","city":"あきる野市","address":"東京都あきる野市上代継407","lat":35.71915367,"lon":139.2783759},{"name":"戸倉給水所","province":"東京都","city":"あきる野市","address":"東京都あきる野市戸倉348-1","lat":35.72646632,"lon":139.20192062},{"name":"伊奈配水所","province":"東京都","city":"あきる野市","address":"東京都あきる野市伊奈372-3","lat":35.7348678,"lon":139.25221118},{"name":"学校法人菅生学園初等学校校庭","province":"東京都","city":"あきる野市","address":"東京都あきる野市菅生1468","lat":35.7561553,"lon":139.28712116},{"name":"市民運動場","province":"東京都","city":"あきる野市","address":"東京都あきる野市二宮683","lat":35.73040042,"lon":139.30224009},{"name":"あきる野市立小和田グラウンド","province":"東京都","city":"あきる野市","address":"東京都あきる野市小和田8","lat":35.72234618,"lon":139.22531468},{"name":"富士通株式会社あきる野テクノロジーセンター駐車場","province":"東京都","city":"あきる野市","address":"東京都あきる野市渕上50","lat":35.73065782,"lon":139.27354552},{"name":"五日市カントリー","province":"東京都","city":"あきる野市","address":"東京都あきる野市網代745","lat":35.71640895,"lon":139.25022007},{"name":"立川国際カントリー","province":"東京都","city":"あきる野市","address":"東京都あきる野市草花2390","lat":35.75056749,"lon":139.30485031},{"name":"都立秋留台公園陸上競技場","province":"東京都","city":"あきる野市","address":"東京都あきる野市二宮","lat":35.72746496,"lon":139.31077004},{"name":"あきる野市選挙管理委員会","province":"東京都","city":"あきる野市","address":"あきる野市二宮350番地あきる野市役所内","lat":35.728894,"lon":139.294115},{"name":"秋留台高等学校","province":"東京都","city":"あきる野市","address":"東京都あきる野市平沢153-4","lat":35.73220291,"lon":139.30067627},{"name":"五日市高等学校","province":"東京都","city":"あきる野市","address":"東京都あきる野市五日市894","lat":35.72940142,"lon":139.21780665},{"name":"高尾清掃センター","province":"東京都","city":"あきる野市","address":"あきる野市高尾521","lat":35.717209,"lon":139.239532},{"name":"あきる野市社会福祉協議会","province":"東京都","city":"あきる野市","address":"あきる野市平沢175-4秋川ふれあいセンター内","lat":35.732525,"lon":139.301915},{"name":"市役所（本庁舎）","province":"東京都","city":"あきる野市","address":"東京都あきる野市二宮350","lat":35.729018,"lon":139.294204},{"name":"五日市保健相談センター1階子育てひろばいつかいち","province":"東京都","city":"あきる野市","address":"東京都あきる野市五日市414ー5","lat":35.729634,"lon":139.219506},{"name":"あきる野ルピア1階子育てひろばるぴああきる野っ子","province":"東京都","city":"あきる野市","address":"東京都あきる野市秋川1-8","lat":35.729977,"lon":139.287091},{"name":"あきる野ルピア2階子育てひろばここるの","province":"東京都","city":"あきる野市","address":"東京都あきる野市秋川1-8","lat":35.729977,"lon":139.287091},{"name":"中央図書館","province":"東京都","city":"あきる野市","address":"東京都あきる野市秋川1-16-2","lat":35.730707,"lon":139.288733},{"name":"東部図書館エル","province":"東京都","city":"あきる野市","address":"東京都あきる野市野辺39-27","lat":35.725255,"lon":139.315717},{"name":"秋川ふれあいセンター","province":"東京都","city":"あきる野市","address":"東京都あきる野市平沢175-4","lat":35.732611,"lon":139.301973},{"name":"あきる野とうきゅう4階ベビー休憩室","province":"東京都","city":"あきる野市","address":"東京都あきる野市秋川1-17-1","lat":35.730727,"lon":139.287063},{"name":"光明第六保育園","province":"東京都","city":"あきる野市","address":"東京都あきる野市留原50","lat":35.72325,"lon":139.234596},{"name":"五日市保育園","province":"東京都","city":"あきる野市","address":"東京都あきる野市五日市345","lat":35.731015,"lon":139.223856},{"name":"秋留台公園","province":"東京都","city":"あきる野市","address":"東京都あきる野市二宮673-1","lat":35.729404,"lon":139.301899},{"name":"あきる野市役所本庁舎","province":"東京都","city":"あきる野市","address":"東京都あきる野市二宮350","lat":35.729817,"lon":139.294072},{"name":"二宮考古館","province":"東京都","city":"あきる野市","address":"東京都あきる野市二宮1151","lat":35.727622,"lon":139.313845},{"name":"JR秋川駅","province":"東京都","city":"あきる野市","address":"東京都あきる野市油平49","lat":35.728082,"lon":139.286624},{"name":"JR武蔵増戸駅","province":"東京都","city":"あきる野市","address":"東京都あきる野市伊奈873-2","lat":35.731012,"lon":139.256302},{"name":"JR武蔵五日市駅","province":"東京都","city":"あきる野市","address":"東京都あきる野市舘谷台16","lat":35.732538,"lon":139.228326},{"name":"観光案内所","province":"東京都","city":"あきる野市","address":"東京都あきる野市舘谷台16","lat":35.732696,"lon":139.228258},{"name":"五日市出張所","province":"東京都","city":"あきる野市","address":"東京都あきる野市五日市411","lat":35.729571,"lon":139.219939},{"name":"五日市郷土館","province":"東京都","city":"あきる野市","address":"東京都あきる野市五日市920-1","lat":35.728671,"lon":139.216936},{"name":"秋川渓谷瀬音の湯","province":"東京都","city":"あきる野市","address":"東京都あきる野市乙津565","lat":35.727518,"lon":139.187633},{"name":"ふるさと工房五日市","province":"東京都","city":"あきる野市","address":"東京都あきる野市乙津671","lat":35.723677,"lon":139.17949},{"name":"中央公民館","province":"東京都","city":"あきる野市","address":"東京都あきる野市二宮683","lat":35.73054,"lon":139.302321},{"name":"あきる野市社会福祉協議会","province":"東京都","city":"あきる野市","address":"あきる野市平沢175-4秋川ふれあいセンター内","lat":35.73215,"lon":139.30247},{"name":"あきる野市社会福祉協議会","province":"東京都","city":"あきる野市","address":"あきる野市平沢175-4秋川ふれあいセンター内","lat":35.73215,"lon":139.30248},{"name":"公立阿伎留医療センター","province":"東京都","city":"あきる野市","address":"東京都あきる野市引田78-1","lat":35.73181875,"lon":139.27214005},{"name":"秋留台給水所","province":"東京都","city":"あきる野市","address":"東京都あきる野市秋川3丁目2-10","lat":35.73175243,"lon":139.28428611},{"name":"上代継浄水所","province":"東京都","city":"あきる野市","address":"東京都あきる野市上代継407","lat":35.71915367,"lon":139.2783759},{"name":"戸倉給水所","province":"東京都","city":"あきる野市","address":"東京都あきる野市戸倉348-1","lat":35.72646632,"lon":139.20192062},{"name":"伊奈配水所","province":"東京都","city":"あきる野市","address":"東京都あきる野市伊奈372-3","lat":35.7348678,"lon":139.25221118},{"name":"学校法人菅生学園初等学校校庭","province":"東京都","city":"あきる野市","address":"東京都あきる野市菅生1468","lat":35.7561553,"lon":139.28712116},{"name":"市民運動場","province":"東京都","city":"あきる野市","address":"東京都あきる野市二宮683","lat":35.73040042,"lon":139.30224009},{"name":"あきる野市立小和田グラウンド","province":"東京都","city":"あきる野市","address":"東京都あきる野市小和田8","lat":35.72234618,"lon":139.22531468},{"name":"富士通株式会社あきる野テクノロジーセンター駐車場","province":"東京都","city":"あきる野市","address":"東京都あきる野市渕上50","lat":35.73065782,"lon":139.27354552},{"name":"五日市カントリー","province":"東京都","city":"あきる野市","address":"東京都あきる野市網代745","lat":35.71640895,"lon":139.25022007},{"name":"立川国際カントリー","province":"東京都","city":"あきる野市","address":"東京都あきる野市草花2390","lat":35.75056749,"lon":139.30485031},{"name":"都立秋留台公園陸上競技場","province":"東京都","city":"あきる野市","address":"東京都あきる野市二宮","lat":35.72746496,"lon":139.31077004},{"name":"秋留台高等学校","province":"東京都","city":"あきる野市","address":"東京都あきる野市平沢153-4","lat":35.73220291,"lon":139.30067627},{"name":"五日市高等学校","province":"東京都","city":"あきる野市","address":"東京都あきる野市五日市894","lat":35.72940142,"lon":139.21780665},{"name":"高尾清掃センター","province":"東京都","city":"あきる野市","address":"あきる野市高尾521","lat":35.717209,"lon":139.239532},{"name":"市役所（本庁舎）","province":"東京都","city":"あきる野市","address":"東京都あきる野市二宮350","lat":35.729018,"lon":139.294204},{"name":"五日市保健相談センター1階子育てひろばいつかいち","province":"東京都","city":"あきる野市","address":"東京都あきる野市五日市414ー5","lat":35.729634,"lon":139.219506},{"name":"あきる野ルピア1階子育てひろばるぴああきる野っ子","province":"東京都","city":"あきる野市","address":"東京都あきる野市秋川1-8","lat":35.729977,"lon":139.287091},{"name":"あきる野ルピア2階子育てひろばここるの","province":"東京都","city":"あきる野市","address":"東京都あきる野市秋川1-8","lat":35.729977,"lon":139.287091},{"name":"中央図書館","province":"東京都","city":"あきる野市","address":"東京都あきる野市秋川1-16-2","lat":35.730707,"lon":139.288733},{"name":"東部図書館エル","province":"東京都","city":"あきる野市","address":"東京都あきる野市野辺39-27","lat":35.725255,"lon":139.315717},{"name":"秋川ふれあいセンター","province":"東京都","city":"あきる野市","address":"東京都あきる野市平沢175-4","lat":35.732611,"lon":139.301973},{"name":"あきる野とうきゅう4階ベビー休憩室","province":"東京都","city":"あきる野市","address":"東京都あきる野市秋川1-17-1","lat":35.730727,"lon":139.287063},{"name":"光明第六保育園","province":"東京都","city":"あきる野市","address":"東京都あきる野市留原50","lat":35.72325,"lon":139.234596},{"name":"五日市保育園","province":"東京都","city":"あきる野市","address":"東京都あきる野市五日市345","lat":35.731015,"lon":139.223856},{"name":"秋留台公園","province":"東京都","city":"あきる野市","address":"東京都あきる野市二宮673-1","lat":35.729404,"lon":139.301899},{"name":"あきる野市役所本庁舎","province":"東京都","city":"あきる野市","address":"東京都あきる野市二宮350","lat":35.729817,"lon":139.294072},{"name":"二宮考古館","province":"東京都","city":"あきる野市","address":"東京都あきる野市二宮1151","lat":35.727622,"lon":139.313845},{"name":"JR秋川駅","province":"東京都","city":"あきる野市","address":"東京都あきる野市油平49","lat":35.728082,"lon":139.286624},{"name":"JR武蔵増戸駅","province":"東京都","city":"あきる野市","address":"東京都あきる野市伊奈873-2","lat":35.731012,"lon":139.256302},{"name":"JR武蔵五日市駅","province":"東京都","city":"あきる野市","address":"東京都あきる野市舘谷台16","lat":35.732538,"lon":139.228326},{"name":"観光案内所","province":"東京都","city":"あきる野市","address":"東京都あきる野市舘谷台16","lat":35.732696,"lon":139.228258},{"name":"五日市出張所","province":"東京都","city":"あきる野市","address":"東京都あきる野市五日市411","lat":35.729571,"lon":139.219939},{"name":"五日市郷土館","province":"東京都","city":"あきる野市","address":"東京都あきる野市五日市920-1","lat":35.728671,"lon":139.216936},{"name":"秋川渓谷瀬音の湯","province":"東京都","city":"あきる野市","address":"東京都あきる野市乙津565","lat":35.727518,"lon":139.187633},{"name":"ふるさと工房五日市","province":"東京都","city":"あきる野市","address":"東京都あきる野市乙津671","lat":35.723677,"lon":139.17949},{"name":"中央公民館","province":"東京都","city":"あきる野市","address":"東京都あきる野市二宮683","lat":35.73054,"lon":139.302321},{"name":"公立阿伎留医療センター","province":"東京都","city":"あきる野市","address":"東京都あきる野市引田78-1","lat":35.73181875,"lon":139.27214005},{"name":"秋留台高等学校","province":"東京都","city":"あきる野市","address":"東京都あきる野市平沢153-4","lat":35.73220291,"lon":139.30067627},{"name":"五日市高等学校","province":"東京都","city":"あきる野市","address":"東京都あきる野市五日市894","lat":35.72940142,"lon":139.21780665},{"name":"市役所（本庁舎）","province":"東京都","city":"あきる野市","address":"東京都あきる野市二宮350","lat":35.729018,"lon":139.294204},{"name":"五日市保健相談センター1階子育てひろばいつかいち","province":"東京都","city":"あきる野市","address":"東京都あきる野市五日市414ー5","lat":35.729634,"lon":139.219506},{"name":"あきる野ルピア1階子育てひろばるぴああきる野っ子","province":"東京都","city":"あきる野市","address":"東京都あきる野市秋川1-8","lat":35.729977,"lon":139.287091},{"name":"あきる野ルピア2階子育てひろばここるの","province":"東京都","city":"あきる野市","address":"東京都あきる野市秋川1-8","lat":35.729977,"lon":139.287091},{"name":"中央図書館","province":"東京都","city":"あきる野市","address":"東京都あきる野市秋川1-16-2","lat":35.730707,"lon":139.288733},{"name":"東部図書館エル","province":"東京都","city":"あきる野市","address":"東京都あきる野市野辺39-27","lat":35.725255,"lon":139.315717},{"name":"秋川ふれあいセンター","province":"東京都","city":"あきる野市","address":"東京都あきる野市平沢175-4","lat":35.732611,"lon":139.301973},{"name":"あきる野とうきゅう4階ベビー休憩室","province":"東京都","city":"あきる野市","address":"東京都あきる野市秋川1-17-1","lat":35.730727,"lon":139.287063},{"name":"光明第六保育園","province":"東京都","city":"あきる野市","address":"東京都あきる野市留原50","lat":35.72325,"lon":139.234596},{"name":"五日市保育園","province":"東京都","city":"あきる野市","address":"東京都あきる野市五日市345","lat":35.731015,"lon":139.223856},{"name":"秋留台公園","province":"東京都","city":"あきる野市","address":"東京都あきる野市二宮673-1","lat":35.729404,"lon":139.301899},{"name":"あきる野市役所本庁舎","province":"東京都","city":"あきる野市","address":"東京都あきる野市二宮350","lat":35.729817,"lon":139.294072},{"name":"二宮考古館","province":"東京都","city":"あきる野市","address":"東京都あきる野市二宮1151","lat":35.727622,"lon":139.313845},{"name":"JR秋川駅","province":"東京都","city":"あきる野市","address":"東京都あきる野市油平49","lat":35.728082,"lon":139.286624},{"name":"JR武蔵増戸駅","province":"東京都","city":"あきる野市","address":"東京都あきる野市伊奈873-2","lat":35.731012,"lon":139.256302},{"name":"JR武蔵五日市駅","province":"東京都","city":"あきる野市","address":"東京都あきる野市舘谷台16","lat":35.732538,"lon":139.228326},{"name":"観光案内所","province":"東京都","city":"あきる野市","address":"東京都あきる野市舘谷台16","lat":35.732696,"lon":139.228258},{"name":"五日市出張所","province":"東京都","city":"あきる野市","address":"東京都あきる野市五日市411","lat":35.729571,"lon":139.219939},{"name":"五日市郷土館","province":"東京都","city":"あきる野市","address":"東京都あきる野市五日市920-1","lat":35.728671,"lon":139.216936},{"name":"秋川渓谷瀬音の湯","province":"東京都","city":"あきる野市","address":"東京都あきる野市乙津565","lat":35.727518,"lon":139.187633},{"name":"ふるさと工房五日市","province":"東京都","city":"あきる野市","address":"東京都あきる野市乙津671","lat":35.723677,"lon":139.17949},{"name":"中央公民館","province":"東京都","city":"あきる野市","address":"東京都あきる野市二宮683","lat":35.73054,"lon":139.302321},{"name":"公立阿伎留医療センター","province":"東京都","city":"あきる野市","address":"東京都あきる野市引田78-1","lat":35.73181875,"lon":139.27214005},{"name":"秋留台高等学校","province":"東京都","city":"あきる野市","address":"東京都あきる野市平沢153-4","lat":35.73220291,"lon":139.30067627},{"name":"五日市高等学校","province":"東京都","city":"あきる野市","address":"東京都あきる野市五日市894","lat":35.72940142,"lon":139.21780665},{"name":"市役所（本庁舎）","province":"東京都","city":"あきる野市","address":"東京都あきる野市二宮350","lat":35.729018,"lon":139.294204},{"name":"五日市保健相談センター1階子育てひろばいつかいち","province":"東京都","city":"あきる野市","address":"東京都あきる野市五日市414ー5","lat":35.729634,"lon":139.219506},{"name":"あきる野ルピア1階子育てひろばるぴああきる野っ子","province":"東京都","city":"あきる野市","address":"東京都あきる野市秋川1-8","lat":35.729977,"lon":139.287091},{"name":"あきる野ルピア2階子育てひろばここるの","province":"東京都","city":"あきる野市","address":"東京都あきる野市秋川1-8","lat":35.729977,"lon":139.287091},{"name":"中央図書館","province":"東京都","city":"あきる野市","address":"東京都あきる野市秋川1-16-2","lat":35.730707,"lon":139.288733},{"name":"東部図書館エル","province":"東京都","city":"あきる野市","address":"東京都あきる野市野辺39-27","lat":35.725255,"lon":139.315717},{"name":"秋川ふれあいセンター","province":"東京都","city":"あきる野市","address":"東京都あきる野市平沢175-4","lat":35.732611,"lon":139.301973},{"name":"あきる野とうきゅう4階ベビー休憩室","province":"東京都","city":"あきる野市","address":"東京都あきる野市秋川1-17-1","lat":35.730727,"lon":139.287063},{"name":"光明第六保育園","province":"東京都","city":"あきる野市","address":"東京都あきる野市留原50","lat":35.72325,"lon":139.234596},{"name":"五日市保育園","province":"東京都","city":"あきる野市","address":"東京都あきる野市五日市345","lat":35.731015,"lon":139.223856},{"name":"秋留台公園","province":"東京都","city":"あきる野市","address":"東京都あきる野市二宮673-1","lat":35.729404,"lon":139.301899},{"name":"あきる野市役所本庁舎","province":"東京都","city":"あきる野市","address":"東京都あきる野市二宮350","lat":35.729817,"lon":139.294072},{"name":"二宮考古館","province":"東京都","city":"あきる野市","address":"東京都あきる野市二宮1151","lat":35.727622,"lon":139.313845},{"name":"JR秋川駅","province":"東京都","city":"あきる野市","address":"東京都あきる野市油平49","lat":35.728082,"lon":139.286624},{"name":"JR武蔵増戸駅","province":"東京都","city":"あきる野市","address":"東京都あきる野市伊奈873-2","lat":35.731012,"lon":139.256302},{"name":"JR武蔵五日市駅","province":"東京都","city":"あきる野市","address":"東京都あきる野市舘谷台16","lat":35.732538,"lon":139.228326},{"name":"観光案内所","province":"東京都","city":"あきる野市","address":"東京都あきる野市舘谷台16","lat":35.732696,"lon":139.228258},{"name":"五日市出張所","province":"東京都","city":"あきる野市","address":"東京都あきる野市五日市411","lat":35.729571,"lon":139.219939},{"name":"五日市郷土館","province":"東京都","city":"あきる野市","address":"東京都あきる野市五日市920-1","lat":35.728671,"lon":139.216936},{"name":"秋川渓谷瀬音の湯","province":"東京都","city":"あきる野市","address":"東京都あきる野市乙津565","lat":35.727518,"lon":139.187633},{"name":"ふるさと工房五日市","province":"東京都","city":"あきる野市","address":"東京都あきる野市乙津671","lat":35.723677,"lon":139.17949},{"name":"中央公民館","province":"東京都","city":"あきる野市","address":"東京都あきる野市二宮683","lat":35.73054,"lon":139.302321},{"name":"市役所（本庁舎）","province":"東京都","city":"あきる野市","address":"東京都あきる野市二宮350","lat":35.729018,"lon":139.294204},{"name":"五日市保健相談センター1階子育てひろばいつかいち","province":"東京都","city":"あきる野市","address":"東京都あきる野市五日市414ー5","lat":35.729634,"lon":139.219506},{"name":"あきる野ルピア1階子育てひろばるぴああきる野っ子","province":"東京都","city":"あきる野市","address":"東京都あきる野市秋川1-8","lat":35.729977,"lon":139.287091},{"name":"あきる野ルピア2階子育てひろばここるの","province":"東京都","city":"あきる野市","address":"東京都あきる野市秋川1-8","lat":35.729977,"lon":139.287091},{"name":"中央図書館","province":"東京都","city":"あきる野市","address":"東京都あきる野市秋川1-16-2","lat":35.730707,"lon":139.288733},{"name":"東部図書館エル","province":"東京都","city":"あきる野市","address":"東京都あきる野市野辺39-27","lat":35.725255,"lon":139.315717},{"name":"秋川ふれあいセンター","province":"東京都","city":"あきる野市","address":"東京都あきる野市平沢175-4","lat":35.732611,"lon":139.301973},{"name":"あきる野とうきゅう4階ベビー休憩室","province":"東京都","city":"あきる野市","address":"東京都あきる野市秋川1-17-1","lat":35.730727,"lon":139.287063},{"name":"光明第六保育園","province":"東京都","city":"あきる野市","address":"東京都あきる野市留原50","lat":35.72325,"lon":139.234596},{"name":"五日市保育園","province":"東京都","city":"あきる野市","address":"東京都あきる野市五日市345","lat":35.731015,"lon":139.223856},{"name":"秋留台公園","province":"東京都","city":"あきる野市","address":"東京都あきる野市二宮673-1","lat":35.729404,"lon":139.301899},{"name":"あきる野市役所本庁舎","province":"東京都","city":"あきる野市","address":"東京都あきる野市二宮350","lat":35.729817,"lon":139.294072},{"name":"二宮考古館","province":"東京都","city":"あきる野市","address":"東京都あきる野市二宮1151","lat":35.727622,"lon":139.313845},{"name":"JR秋川駅","province":"東京都","city":"あきる野市","address":"東京都あきる野市油平49","lat":35.728082,"lon":139.286624},{"name":"JR武蔵増戸駅","province":"東京都","city":"あきる野市","address":"東京都あきる野市伊奈873-2","lat":35.731012,"lon":139.256302},{"name":"JR武蔵五日市駅","province":"東京都","city":"あきる野市","address":"東京都あきる野市舘谷台16","lat":35.732538,"lon":139.228326},{"name":"観光案内所","province":"東京都","city":"あきる野市","address":"東京都あきる野市舘谷台16","lat":35.732696,"lon":139.228258},{"name":"五日市出張所","province":"東京都","city":"あきる野市","address":"東京都あきる野市五日市411","lat":35.729571,"lon":139.219939},{"name":"五日市郷土館","province":"東京都","city":"あきる野市","address":"東京都あきる野市五日市920-1","lat":35.728671,"lon":139.216936},{"name":"秋川渓谷瀬音の湯","province":"東京都","city":"あきる野市","address":"東京都あきる野市乙津565","lat":35.727518,"lon":139.187633},{"name":"ふるさと工房五日市","province":"東京都","city":"あきる野市","address":"東京都あきる野市乙津671","lat":35.723677,"lon":139.17949},{"name":"中央公民館","province":"東京都","city":"あきる野市","address":"東京都あきる野市二宮683","lat":35.73054,"lon":139.302321},{"name":"あきる野市役所本庁舎","province":"東京都","city":"あきる野市","address":"東京都あきる野市二宮350","lat":35.729817,"lon":139.294072},{"name":"二宮考古館","province":"東京都","city":"あきる野市","address":"東京都あきる野市二宮1151","lat":35.727622,"lon":139.313845},{"name":"JR秋川駅","province":"東京都","city":"あきる野市","address":"東京都あきる野市油平49","lat":35.728082,"lon":139.286624},{"name":"JR武蔵増戸駅","province":"東京都","city":"あきる野市","address":"東京都あきる野市伊奈873-2","lat":35.731012,"lon":139.256302},{"name":"JR武蔵五日市駅","province":"東京都","city":"あきる野市","address":"東京都あきる野市舘谷台16","lat":35.732538,"lon":139.228326},{"name":"観光案内所","province":"東京都","city":"あきる野市","address":"東京都あきる野市舘谷台16","lat":35.732696,"lon":139.228258},{"name":"五日市出張所","province":"東京都","city":"あきる野市","address":"東京都あきる野市五日市411","lat":35.729571,"lon":139.219939},{"name":"五日市郷土館","province":"東京都","city":"あきる野市","address":"東京都あきる野市五日市920-1","lat":35.728671,"lon":139.216936},{"name":"秋川渓谷瀬音の湯","province":"東京都","city":"あきる野市","address":"東京都あきる野市乙津565","lat":35.727518,"lon":139.187633},{"name":"ふるさと工房五日市","province":"東京都","city":"あきる野市","address":"東京都あきる野市乙津671","lat":35.723677,"lon":139.17949},{"name":"中央公民館","province":"東京都","city":"あきる野市","address":"東京都あきる野市二宮683","lat":35.73054,"lon":139.302321},{"name":"あきる野市役所本庁舎","province":"東京都","city":"あきる野市","address":"東京都あきる野市二宮350","lat":35.729817,"lon":139.294072},{"name":"二宮考古館","province":"東京都","city":"あきる野市","address":"東京都あきる野市二宮1151","lat":35.727622,"lon":139.313845},{"name":"JR秋川駅","province":"東京都","city":"あきる野市","address":"東京都あきる野市油平49","lat":35.728082,"lon":139.286624},{"name":"JR武蔵増戸駅","province":"東京都","city":"あきる野市","address":"東京都あきる野市伊奈873-2","lat":35.731012,"lon":139.256302},{"name":"JR武蔵五日市駅","province":"東京都","city":"あきる野市","address":"東京都あきる野市舘谷台16","lat":35.732538,"lon":139.228326},{"name":"観光案内所","province":"東京都","city":"あきる野市","address":"東京都あきる野市舘谷台16","lat":35.732696,"lon":139.228258},{"name":"五日市出張所","province":"東京都","city":"あきる野市","address":"東京都あきる野市五日市411","lat":35.729571,"lon":139.219939},{"name":"五日市郷土館","province":"東京都","city":"あきる野市","address":"東京都あきる野市五日市920-1","lat":35.728671,"lon":139.216936},{"name":"秋川渓谷瀬音の湯","province":"東京都","city":"あきる野市","address":"東京都あきる野市乙津565","lat":35.727518,"lon":139.187633},{"name":"ふるさと工房五日市","province":"東京都","city":"あきる野市","address":"東京都あきる野市乙津671","lat":35.723677,"lon":139.17949},{"name":"中央公民館","province":"東京都","city":"あきる野市","address":"東京都あきる野市二宮683","lat":35.73054,"lon":139.302321}]}