{"keyword":"支払","data":[{"name":"小峰ビジターセンター","province":"東京都","city":"あきる野市","address":"東京都あきる野市留原284-1","lat":35.721006,"lon":139.231412},{"name":"小峰公園","province":"東京都","city":"あきる野市","address":"東京都あきる野市留原","lat":35.719777,"lon":139.230467},{"name":"小峰公園","province":"東京都","city":"あきる野市","address":"東京都あきる野市高尾","lat":35.720159,"lon":139.231763},{"name":"十里木駐車場","province":"東京都","city":"あきる野市","address":"東京都あきる野市戸倉","lat":35.72808,"lon":139.190136},{"name":"秋留台公園","province":"東京都","city":"あきる野市","address":"東京都あきる野市二宮","lat":35.730373,"lon":139.301635},{"name":"秋留台公園","province":"東京都","city":"あきる野市","address":"東京都あきる野市二宮","lat":35.729415,"lon":139.299866},{"name":"秋留台公園","province":"東京都","city":"あきる野市","address":"東京都あきる野市二宮673-1","lat":35.729435,"lon":139.301833},{"name":"あきる野サービスステーション","province":"東京都","city":"あきる野市","address":"東京都あきる野市秋川3丁目2-10","lat":35.731581,"lon":139.284098},{"name":"あきる野市庁舎","province":"東京都","city":"あきる野市","address":"東京都あきる野市二宮350","lat":35.729041,"lon":139.293779},{"name":"あきる野市庁舎","province":"東京都","city":"あきる野市","address":"東京都あきる野市二宮350","lat":35.728791,"lon":139.294496},{"name":"あきる野市庁舎","province":"東京都","city":"あきる野市","address":"東京都あきる野市二宮350","lat":35.728901,"lon":139.294174},{"name":"あきる野市役所五日市出張所","province":"東京都","city":"あきる野市","address":"東京都あきる野市五日市411","lat":35.729328,"lon":139.21977},{"name":"あきる野市五日市地域交流センター","province":"東京都","city":"あきる野市","address":"東京都あきる野市五日市411","lat":35.72931,"lon":139.219783},{"name":"あきる野市中央公民館","province":"東京都","city":"あきる野市","address":"東京都あきる野市二宮683","lat":35.73035,"lon":139.302504},{"name":"あきる野市五日市保健センター","province":"東京都","city":"あきる野市","address":"東京都あきる野市五日市414-5","lat":35.72966,"lon":139.21945},{"name":"あきる野市中央図書館","province":"東京都","city":"あきる野市","address":"東京都あきる野市秋川1丁目16-2","lat":35.730841,"lon":139.288724},{"name":"あきる野市中央図書館","province":"東京都","city":"あきる野市","address":"東京都あきる野市秋川1丁目16-2","lat":35.730672,"lon":139.288694},{"name":"あきる野市東部図書館エル","province":"東京都","city":"あきる野市","address":"東京都あきる野市野辺39-27","lat":35.725305,"lon":139.315806},{"name":"あきる野市中央図書館増戸分室","province":"東京都","city":"あきる野市","address":"東京都あきる野市伊奈","lat":35.727482,"lon":139.247726},{"name":"あきる野市五日市図書館","province":"東京都","city":"あきる野市","address":"東京都あきる野市五日市368","lat":35.72987,"lon":139.222344},{"name":"あきる野ルピア","province":"東京都","city":"あきる野市","address":"東京都あきる野市秋川1丁目8","lat":35.730178,"lon":139.286974},{"name":"五日市郷土館","province":"東京都","city":"あきる野市","address":"東京都あきる野市五日市920-1","lat":35.728437,"lon":139.216985},{"name":"あきる野市五日市会館","province":"東京都","city":"あきる野市","address":"東京都あきる野市五日市","lat":35.72989,"lon":139.220062},{"name":"あきる野市五日市会館","province":"東京都","city":"あきる野市","address":"東京都あきる野市五日市","lat":35.72995,"lon":139.220224},{"name":"秋川キララホール","province":"東京都","city":"あきる野市","address":"東京都あきる野市秋川1丁目16-1","lat":35.730969,"lon":139.288127},{"name":"高尾公園","province":"東京都","city":"あきる野市","address":"東京都あきる野市高尾","lat":35.726568,"lon":139.237816},{"name":"森ノ根公園","province":"東京都","city":"あきる野市","address":"東京都あきる野市原小宮2丁目8","lat":35.733992,"lon":139.302743},{"name":"JR東日本　秋川駅","province":"東京都","city":"あきる野市","address":"東京都あきる野市油平","lat":35.7282,"lon":139.286546},{"name":"第二水辺公衆トイレ","province":"東京都","city":"あきる野市","address":"東京都あきる野市下代継","lat":35.718709,"lon":139.280318},{"name":"森の下公園","province":"東京都","city":"あきる野市","address":"東京都あきる野市伊奈","lat":35.729522,"lon":139.255682},{"name":"東秋留駅前トイレ","province":"東京都","city":"あきる野市","address":"東京都あきる野市野辺","lat":35.726158,"lon":139.310592},{"name":"武蔵引田駅前トイレ","province":"東京都","city":"あきる野市","address":"東京都あきる野市引田","lat":35.729938,"lon":139.270002},{"name":"武蔵増戸駅前トイレ","province":"東京都","city":"あきる野市","address":"東京都あきる野市伊奈","lat":35.730844,"lon":139.256083},{"name":"五日市ひろば","province":"東京都","city":"あきる野市","address":"東京都あきる野市五日市","lat":35.729343,"lon":139.225216},{"name":"佳月橋トイレ","province":"東京都","city":"あきる野市","address":"東京都あきる野市小和田","lat":35.725803,"lon":139.217264},{"name":"山田天神前トイレ","province":"東京都","city":"あきる野市","address":"東京都あきる野市山田","lat":35.725851,"lon":139.262716},{"name":"武蔵五日市駅前トイレ","province":"東京都","city":"あきる野市","address":"東京都あきる野市舘谷台","lat":35.732475,"lon":139.229055},{"name":"秋川ふれあいランドトイレ","province":"東京都","city":"あきる野市","address":"東京都あきる野市小川","lat":35.717016,"lon":139.317057},{"name":"秋川橋河川公園トイレ","province":"東京都","city":"あきる野市","address":"東京都あきる野市留原","lat":35.728874,"lon":139.227569},{"name":"十里木トイレ","province":"東京都","city":"あきる野市","address":"東京都あきる野市戸倉","lat":35.728064,"lon":139.190148},{"name":"秋川体育館","province":"東京都","city":"あきる野市","address":"東京都あきる野市二宮683","lat":35.730173,"lon":139.30242},{"name":"五日市ファインプラザ","province":"東京都","city":"あきる野市","address":"東京都あきる野市伊奈859-3","lat":35.729172,"lon":139.255539},{"name":"五日市ファインプラザ","province":"東京都","city":"あきる野市","address":"東京都あきる野市伊奈859-3","lat":35.729165,"lon":139.255382},{"name":"五日市ファインプラザ","province":"東京都","city":"あきる野市","address":"東京都あきる野市伊奈859-3","lat":35.729304,"lon":139.255388},{"name":"あきる野市民プール","province":"東京都","city":"あきる野市","address":"東京都あきる野市原小宮353","lat":35.737372,"lon":139.299092},{"name":"いきいきセンター","province":"東京都","city":"あきる野市","address":"東京都あきる野市雨間1946","lat":35.716648,"lon":139.291517},{"name":"あきる野市民球場","province":"東京都","city":"あきる野市","address":"東京都あきる野市原小宮","lat":35.737653,"lon":139.300609},{"name":"あきる野市民球場","province":"東京都","city":"あきる野市","address":"東京都あきる野市原小宮","lat":35.737664,"lon":139.300116},{"name":"小和田グラウンド事務所","province":"東京都","city":"あきる野市","address":"東京都あきる野市小和田","lat":35.722343,"lon":139.225457},{"name":"油平クラブハウス","province":"東京都","city":"あきる野市","address":"東京都あきる野市油平92-7","lat":35.726691,"lon":139.287647},{"name":"せせらぎふれあいトイレ","province":"東京都","city":"あきる野市","address":"東京都あきる野市切欠","lat":35.71685,"lon":139.299575},{"name":"秋川ふれあいセンター","province":"東京都","city":"あきる野市","address":"東京都あきる野市平沢175-4","lat":35.732554,"lon":139.302052},{"name":"秋川ふれあいセンター","province":"東京都","city":"あきる野市","address":"東京都あきる野市平沢175-4","lat":35.732498,"lon":139.302005},{"name":"秋川ふれあいセンター","province":"東京都","city":"あきる野市","address":"東京都あきる野市平沢175-4","lat":35.732568,"lon":139.30172},{"name":"秋川ファーマーズセンター","province":"東京都","city":"あきる野市","address":"東京都あきる野市二宮811","lat":35.728669,"lon":139.307845},{"name":"秋川健康会館","province":"東京都","city":"あきる野市","address":"東京都あきる野市二宮670-5","lat":35.729433,"lon":139.302428},{"name":"＊?二宮考古館","province":"東京都","city":"あきる野市","address":"あきる野市二宮1151","lat":35.727477,"lon":139.313912},{"name":"＊?五日市郷土館","province":"東京都","city":"あきる野市","address":"あきる野市五日市920-1","lat":35.728392,"lon":139.217031},{"name":"小峰ビジターセンター","province":"東京都","city":"あきる野市","address":"東京都あきる野市留原284-1","lat":35.721006,"lon":139.231412},{"name":"小峰公園","province":"東京都","city":"あきる野市","address":"東京都あきる野市留原","lat":35.719777,"lon":139.230467},{"name":"小峰公園","province":"東京都","city":"あきる野市","address":"東京都あきる野市高尾","lat":35.720159,"lon":139.231763},{"name":"十里木駐車場","province":"東京都","city":"あきる野市","address":"東京都あきる野市戸倉","lat":35.72808,"lon":139.190136},{"name":"秋留台公園","province":"東京都","city":"あきる野市","address":"東京都あきる野市二宮","lat":35.730373,"lon":139.301635},{"name":"秋留台公園","province":"東京都","city":"あきる野市","address":"東京都あきる野市二宮","lat":35.729415,"lon":139.299866},{"name":"秋留台公園","province":"東京都","city":"あきる野市","address":"東京都あきる野市二宮673-1","lat":35.729435,"lon":139.301833},{"name":"あきる野サービスステーション","province":"東京都","city":"あきる野市","address":"東京都あきる野市秋川3丁目2-10","lat":35.731581,"lon":139.284098},{"name":"あきる野市庁舎","province":"東京都","city":"あきる野市","address":"東京都あきる野市二宮350","lat":35.729041,"lon":139.293779},{"name":"あきる野市庁舎","province":"東京都","city":"あきる野市","address":"東京都あきる野市二宮350","lat":35.728791,"lon":139.294496},{"name":"あきる野市庁舎","province":"東京都","city":"あきる野市","address":"東京都あきる野市二宮350","lat":35.728901,"lon":139.294174},{"name":"あきる野市役所五日市出張所","province":"東京都","city":"あきる野市","address":"東京都あきる野市五日市411","lat":35.729328,"lon":139.21977},{"name":"あきる野市五日市地域交流センター","province":"東京都","city":"あきる野市","address":"東京都あきる野市五日市411","lat":35.72931,"lon":139.219783},{"name":"あきる野市中央公民館","province":"東京都","city":"あきる野市","address":"東京都あきる野市二宮683","lat":35.73035,"lon":139.302504},{"name":"あきる野市五日市保健センター","province":"東京都","city":"あきる野市","address":"東京都あきる野市五日市414-5","lat":35.72966,"lon":139.21945},{"name":"あきる野市中央図書館","province":"東京都","city":"あきる野市","address":"東京都あきる野市秋川1丁目16-2","lat":35.730841,"lon":139.288724},{"name":"あきる野市中央図書館","province":"東京都","city":"あきる野市","address":"東京都あきる野市秋川1丁目16-2","lat":35.730672,"lon":139.288694},{"name":"あきる野市東部図書館エル","province":"東京都","city":"あきる野市","address":"東京都あきる野市野辺39-27","lat":35.725305,"lon":139.315806},{"name":"あきる野市中央図書館増戸分室","province":"東京都","city":"あきる野市","address":"東京都あきる野市伊奈","lat":35.727482,"lon":139.247726},{"name":"あきる野市五日市図書館","province":"東京都","city":"あきる野市","address":"東京都あきる野市五日市368","lat":35.72987,"lon":139.222344},{"name":"あきる野ルピア","province":"東京都","city":"あきる野市","address":"東京都あきる野市秋川1丁目8","lat":35.730178,"lon":139.286974},{"name":"五日市郷土館","province":"東京都","city":"あきる野市","address":"東京都あきる野市五日市920-1","lat":35.728437,"lon":139.216985},{"name":"あきる野市五日市会館","province":"東京都","city":"あきる野市","address":"東京都あきる野市五日市","lat":35.72989,"lon":139.220062},{"name":"あきる野市五日市会館","province":"東京都","city":"あきる野市","address":"東京都あきる野市五日市","lat":35.72995,"lon":139.220224},{"name":"秋川キララホール","province":"東京都","city":"あきる野市","address":"東京都あきる野市秋川1丁目16-1","lat":35.730969,"lon":139.288127},{"name":"高尾公園","province":"東京都","city":"あきる野市","address":"東京都あきる野市高尾","lat":35.726568,"lon":139.237816},{"name":"森ノ根公園","province":"東京都","city":"あきる野市","address":"東京都あきる野市原小宮2丁目8","lat":35.733992,"lon":139.302743},{"name":"JR東日本　秋川駅","province":"東京都","city":"あきる野市","address":"東京都あきる野市油平","lat":35.7282,"lon":139.286546},{"name":"第二水辺公衆トイレ","province":"東京都","city":"あきる野市","address":"東京都あきる野市下代継","lat":35.718709,"lon":139.280318},{"name":"森の下公園","province":"東京都","city":"あきる野市","address":"東京都あきる野市伊奈","lat":35.729522,"lon":139.255682},{"name":"東秋留駅前トイレ","province":"東京都","city":"あきる野市","address":"東京都あきる野市野辺","lat":35.726158,"lon":139.310592},{"name":"武蔵引田駅前トイレ","province":"東京都","city":"あきる野市","address":"東京都あきる野市引田","lat":35.729938,"lon":139.270002},{"name":"武蔵増戸駅前トイレ","province":"東京都","city":"あきる野市","address":"東京都あきる野市伊奈","lat":35.730844,"lon":139.256083},{"name":"五日市ひろば","province":"東京都","city":"あきる野市","address":"東京都あきる野市五日市","lat":35.729343,"lon":139.225216},{"name":"佳月橋トイレ","province":"東京都","city":"あきる野市","address":"東京都あきる野市小和田","lat":35.725803,"lon":139.217264},{"name":"山田天神前トイレ","province":"東京都","city":"あきる野市","address":"東京都あきる野市山田","lat":35.725851,"lon":139.262716},{"name":"武蔵五日市駅前トイレ","province":"東京都","city":"あきる野市","address":"東京都あきる野市舘谷台","lat":35.732475,"lon":139.229055},{"name":"秋川ふれあいランドトイレ","province":"東京都","city":"あきる野市","address":"東京都あきる野市小川","lat":35.717016,"lon":139.317057},{"name":"秋川橋河川公園トイレ","province":"東京都","city":"あきる野市","address":"東京都あきる野市留原","lat":35.728874,"lon":139.227569},{"name":"十里木トイレ","province":"東京都","city":"あきる野市","address":"東京都あきる野市戸倉","lat":35.728064,"lon":139.190148},{"name":"秋川体育館","province":"東京都","city":"あきる野市","address":"東京都あきる野市二宮683","lat":35.730173,"lon":139.30242},{"name":"五日市ファインプラザ","province":"東京都","city":"あきる野市","address":"東京都あきる野市伊奈859-3","lat":35.729172,"lon":139.255539},{"name":"五日市ファインプラザ","province":"東京都","city":"あきる野市","address":"東京都あきる野市伊奈859-3","lat":35.729165,"lon":139.255382},{"name":"五日市ファインプラザ","province":"東京都","city":"あきる野市","address":"東京都あきる野市伊奈859-3","lat":35.729304,"lon":139.255388},{"name":"あきる野市民プール","province":"東京都","city":"あきる野市","address":"東京都あきる野市原小宮353","lat":35.737372,"lon":139.299092},{"name":"いきいきセンター","province":"東京都","city":"あきる野市","address":"東京都あきる野市雨間1946","lat":35.716648,"lon":139.291517},{"name":"あきる野市民球場","province":"東京都","city":"あきる野市","address":"東京都あきる野市原小宮","lat":35.737653,"lon":139.300609},{"name":"あきる野市民球場","province":"東京都","city":"あきる野市","address":"東京都あきる野市原小宮","lat":35.737664,"lon":139.300116},{"name":"小和田グラウンド事務所","province":"東京都","city":"あきる野市","address":"東京都あきる野市小和田","lat":35.722343,"lon":139.225457},{"name":"油平クラブハウス","province":"東京都","city":"あきる野市","address":"東京都あきる野市油平92-7","lat":35.726691,"lon":139.287647},{"name":"せせらぎふれあいトイレ","province":"東京都","city":"あきる野市","address":"東京都あきる野市切欠","lat":35.71685,"lon":139.299575},{"name":"秋川ふれあいセンター","province":"東京都","city":"あきる野市","address":"東京都あきる野市平沢175-4","lat":35.732554,"lon":139.302052},{"name":"秋川ふれあいセンター","province":"東京都","city":"あきる野市","address":"東京都あきる野市平沢175-4","lat":35.732498,"lon":139.302005},{"name":"秋川ふれあいセンター","province":"東京都","city":"あきる野市","address":"東京都あきる野市平沢175-4","lat":35.732568,"lon":139.30172},{"name":"秋川ファーマーズセンター","province":"東京都","city":"あきる野市","address":"東京都あきる野市二宮811","lat":35.728669,"lon":139.307845},{"name":"秋川健康会館","province":"東京都","city":"あきる野市","address":"東京都あきる野市二宮670-5","lat":35.729433,"lon":139.302428},{"name":"＊?二宮考古館","province":"東京都","city":"あきる野市","address":"あきる野市二宮1151","lat":35.727477,"lon":139.313912},{"name":"＊?五日市郷土館","province":"東京都","city":"あきる野市","address":"あきる野市五日市920-1","lat":35.728392,"lon":139.217031},{"name":"小峰ビジターセンター","province":"東京都","city":"あきる野市","address":"東京都あきる野市留原284-1","lat":35.721006,"lon":139.231412},{"name":"小峰公園","province":"東京都","city":"あきる野市","address":"東京都あきる野市留原","lat":35.719777,"lon":139.230467},{"name":"小峰公園","province":"東京都","city":"あきる野市","address":"東京都あきる野市高尾","lat":35.720159,"lon":139.231763},{"name":"十里木駐車場","province":"東京都","city":"あきる野市","address":"東京都あきる野市戸倉","lat":35.72808,"lon":139.190136},{"name":"秋留台公園","province":"東京都","city":"あきる野市","address":"東京都あきる野市二宮","lat":35.730373,"lon":139.301635},{"name":"秋留台公園","province":"東京都","city":"あきる野市","address":"東京都あきる野市二宮","lat":35.729415,"lon":139.299866},{"name":"秋留台公園","province":"東京都","city":"あきる野市","address":"東京都あきる野市二宮673-1","lat":35.729435,"lon":139.301833},{"name":"あきる野サービスステーション","province":"東京都","city":"あきる野市","address":"東京都あきる野市秋川3丁目2-10","lat":35.731581,"lon":139.284098},{"name":"あきる野市庁舎","province":"東京都","city":"あきる野市","address":"東京都あきる野市二宮350","lat":35.729041,"lon":139.293779},{"name":"あきる野市庁舎","province":"東京都","city":"あきる野市","address":"東京都あきる野市二宮350","lat":35.728791,"lon":139.294496},{"name":"あきる野市庁舎","province":"東京都","city":"あきる野市","address":"東京都あきる野市二宮350","lat":35.728901,"lon":139.294174},{"name":"あきる野市役所五日市出張所","province":"東京都","city":"あきる野市","address":"東京都あきる野市五日市411","lat":35.729328,"lon":139.21977},{"name":"あきる野市五日市地域交流センター","province":"東京都","city":"あきる野市","address":"東京都あきる野市五日市411","lat":35.72931,"lon":139.219783},{"name":"あきる野市中央公民館","province":"東京都","city":"あきる野市","address":"東京都あきる野市二宮683","lat":35.73035,"lon":139.302504},{"name":"あきる野市五日市保健センター","province":"東京都","city":"あきる野市","address":"東京都あきる野市五日市414-5","lat":35.72966,"lon":139.21945},{"name":"あきる野市中央図書館","province":"東京都","city":"あきる野市","address":"東京都あきる野市秋川1丁目16-2","lat":35.730841,"lon":139.288724},{"name":"あきる野市中央図書館","province":"東京都","city":"あきる野市","address":"東京都あきる野市秋川1丁目16-2","lat":35.730672,"lon":139.288694},{"name":"あきる野市東部図書館エル","province":"東京都","city":"あきる野市","address":"東京都あきる野市野辺39-27","lat":35.725305,"lon":139.315806},{"name":"あきる野市中央図書館増戸分室","province":"東京都","city":"あきる野市","address":"東京都あきる野市伊奈","lat":35.727482,"lon":139.247726},{"name":"あきる野市五日市図書館","province":"東京都","city":"あきる野市","address":"東京都あきる野市五日市368","lat":35.72987,"lon":139.222344},{"name":"あきる野ルピア","province":"東京都","city":"あきる野市","address":"東京都あきる野市秋川1丁目8","lat":35.730178,"lon":139.286974},{"name":"五日市郷土館","province":"東京都","city":"あきる野市","address":"東京都あきる野市五日市920-1","lat":35.728437,"lon":139.216985},{"name":"あきる野市五日市会館","province":"東京都","city":"あきる野市","address":"東京都あきる野市五日市","lat":35.72989,"lon":139.220062},{"name":"あきる野市五日市会館","province":"東京都","city":"あきる野市","address":"東京都あきる野市五日市","lat":35.72995,"lon":139.220224},{"name":"秋川キララホール","province":"東京都","city":"あきる野市","address":"東京都あきる野市秋川1丁目16-1","lat":35.730969,"lon":139.288127},{"name":"高尾公園","province":"東京都","city":"あきる野市","address":"東京都あきる野市高尾","lat":35.726568,"lon":139.237816},{"name":"森ノ根公園","province":"東京都","city":"あきる野市","address":"東京都あきる野市原小宮2丁目8","lat":35.733992,"lon":139.302743},{"name":"JR東日本　秋川駅","province":"東京都","city":"あきる野市","address":"東京都あきる野市油平","lat":35.7282,"lon":139.286546},{"name":"第二水辺公衆トイレ","province":"東京都","city":"あきる野市","address":"東京都あきる野市下代継","lat":35.718709,"lon":139.280318},{"name":"森の下公園","province":"東京都","city":"あきる野市","address":"東京都あきる野市伊奈","lat":35.729522,"lon":139.255682},{"name":"東秋留駅前トイレ","province":"東京都","city":"あきる野市","address":"東京都あきる野市野辺","lat":35.726158,"lon":139.310592},{"name":"武蔵引田駅前トイレ","province":"東京都","city":"あきる野市","address":"東京都あきる野市引田","lat":35.729938,"lon":139.270002},{"name":"武蔵増戸駅前トイレ","province":"東京都","city":"あきる野市","address":"東京都あきる野市伊奈","lat":35.730844,"lon":139.256083},{"name":"五日市ひろば","province":"東京都","city":"あきる野市","address":"東京都あきる野市五日市","lat":35.729343,"lon":139.225216},{"name":"佳月橋トイレ","province":"東京都","city":"あきる野市","address":"東京都あきる野市小和田","lat":35.725803,"lon":139.217264},{"name":"山田天神前トイレ","province":"東京都","city":"あきる野市","address":"東京都あきる野市山田","lat":35.725851,"lon":139.262716},{"name":"武蔵五日市駅前トイレ","province":"東京都","city":"あきる野市","address":"東京都あきる野市舘谷台","lat":35.732475,"lon":139.229055},{"name":"秋川ふれあいランドトイレ","province":"東京都","city":"あきる野市","address":"東京都あきる野市小川","lat":35.717016,"lon":139.317057},{"name":"秋川橋河川公園トイレ","province":"東京都","city":"あきる野市","address":"東京都あきる野市留原","lat":35.728874,"lon":139.227569},{"name":"十里木トイレ","province":"東京都","city":"あきる野市","address":"東京都あきる野市戸倉","lat":35.728064,"lon":139.190148},{"name":"秋川体育館","province":"東京都","city":"あきる野市","address":"東京都あきる野市二宮683","lat":35.730173,"lon":139.30242},{"name":"五日市ファインプラザ","province":"東京都","city":"あきる野市","address":"東京都あきる野市伊奈859-3","lat":35.729172,"lon":139.255539},{"name":"五日市ファインプラザ","province":"東京都","city":"あきる野市","address":"東京都あきる野市伊奈859-3","lat":35.729165,"lon":139.255382},{"name":"五日市ファインプラザ","province":"東京都","city":"あきる野市","address":"東京都あきる野市伊奈859-3","lat":35.729304,"lon":139.255388},{"name":"あきる野市民プール","province":"東京都","city":"あきる野市","address":"東京都あきる野市原小宮353","lat":35.737372,"lon":139.299092},{"name":"いきいきセンター","province":"東京都","city":"あきる野市","address":"東京都あきる野市雨間1946","lat":35.716648,"lon":139.291517},{"name":"あきる野市民球場","province":"東京都","city":"あきる野市","address":"東京都あきる野市原小宮","lat":35.737653,"lon":139.300609},{"name":"あきる野市民球場","province":"東京都","city":"あきる野市","address":"東京都あきる野市原小宮","lat":35.737664,"lon":139.300116},{"name":"小和田グラウンド事務所","province":"東京都","city":"あきる野市","address":"東京都あきる野市小和田","lat":35.722343,"lon":139.225457},{"name":"油平クラブハウス","province":"東京都","city":"あきる野市","address":"東京都あきる野市油平92-7","lat":35.726691,"lon":139.287647},{"name":"せせらぎふれあいトイレ","province":"東京都","city":"あきる野市","address":"東京都あきる野市切欠","lat":35.71685,"lon":139.299575},{"name":"秋川ふれあいセンター","province":"東京都","city":"あきる野市","address":"東京都あきる野市平沢175-4","lat":35.732554,"lon":139.302052},{"name":"秋川ふれあいセンター","province":"東京都","city":"あきる野市","address":"東京都あきる野市平沢175-4","lat":35.732498,"lon":139.302005},{"name":"秋川ふれあいセンター","province":"東京都","city":"あきる野市","address":"東京都あきる野市平沢175-4","lat":35.732568,"lon":139.30172},{"name":"秋川ファーマーズセンター","province":"東京都","city":"あきる野市","address":"東京都あきる野市二宮811","lat":35.728669,"lon":139.307845},{"name":"秋川健康会館","province":"東京都","city":"あきる野市","address":"東京都あきる野市二宮670-5","lat":35.729433,"lon":139.302428},{"name":"＊?二宮考古館","province":"東京都","city":"あきる野市","address":"あきる野市二宮1151","lat":35.727477,"lon":139.313912},{"name":"＊?五日市郷土館","province":"東京都","city":"あきる野市","address":"あきる野市五日市920-1","lat":35.728392,"lon":139.217031},{"name":"＊?二宮考古館","province":"東京都","city":"あきる野市","address":"あきる野市二宮1151","lat":35.727477,"lon":139.313912},{"name":"＊?五日市郷土館","province":"東京都","city":"あきる野市","address":"あきる野市五日市920-1","lat":35.728392,"lon":139.217031},{"name":"＊?二宮考古館","province":"東京都","city":"あきる野市","address":"あきる野市二宮1151","lat":35.727477,"lon":139.313912},{"name":"＊?五日市郷土館","province":"東京都","city":"あきる野市","address":"あきる野市五日市920-1","lat":35.728392,"lon":139.217031},{"name":"＊?二宮考古館","province":"東京都","city":"あきる野市","address":"あきる野市二宮1151","lat":35.727477,"lon":139.313912},{"name":"＊?五日市郷土館","province":"東京都","city":"あきる野市","address":"あきる野市五日市920-1","lat":35.728392,"lon":139.217031},{"name":"＊?二宮考古館","province":"東京都","city":"あきる野市","address":"あきる野市二宮1151","lat":35.727477,"lon":139.313912},{"name":"＊?五日市郷土館","province":"東京都","city":"あきる野市","address":"あきる野市五日市920-1","lat":35.728392,"lon":139.217031},{"name":"＊?二宮考古館","province":"東京都","city":"あきる野市","address":"あきる野市二宮1151","lat":35.727477,"lon":139.313912},{"name":"＊?五日市郷土館","province":"東京都","city":"あきる野市","address":"あきる野市五日市920-1","lat":35.728392,"lon":139.217031},{"name":"＊?二宮考古館","province":"東京都","city":"あきる野市","address":"あきる野市二宮1151","lat":35.727477,"lon":139.313912},{"name":"＊?五日市郷土館","province":"東京都","city":"あきる野市","address":"あきる野市五日市920-1","lat":35.728392,"lon":139.217031},{"name":"＊?二宮考古館","province":"東京都","city":"あきる野市","address":"あきる野市二宮1151","lat":35.727477,"lon":139.313912},{"name":"＊?五日市郷土館","province":"東京都","city":"あきる野市","address":"あきる野市五日市920-1","lat":35.728392,"lon":139.217031},{"name":"＊?二宮考古館","province":"東京都","city":"あきる野市","address":"あきる野市二宮1151","lat":35.727477,"lon":139.313912},{"name":"＊?五日市郷土館","province":"東京都","city":"あきる野市","address":"あきる野市五日市920-1","lat":35.728392,"lon":139.217031},{"name":"＊?二宮考古館","province":"東京都","city":"あきる野市","address":"あきる野市二宮1151","lat":35.727477,"lon":139.313912},{"name":"＊?五日市郷土館","province":"東京都","city":"あきる野市","address":"あきる野市五日市920-1","lat":35.728392,"lon":139.217031},{"name":"＊?二宮考古館","province":"東京都","city":"あきる野市","address":"あきる野市二宮1151","lat":35.727477,"lon":139.313912},{"name":"＊?五日市郷土館","province":"東京都","city":"あきる野市","address":"あきる野市五日市920-1","lat":35.728392,"lon":139.217031},{"name":"＊?二宮考古館","province":"東京都","city":"あきる野市","address":"あきる野市二宮1151","lat":35.727477,"lon":139.313912},{"name":"＊?五日市郷土館","province":"東京都","city":"あきる野市","address":"あきる野市五日市920-1","lat":35.728392,"lon":139.217031},{"name":"＊?二宮考古館","province":"東京都","city":"あきる野市","address":"あきる野市二宮1151","lat":35.727477,"lon":139.313912},{"name":"＊?五日市郷土館","province":"東京都","city":"あきる野市","address":"あきる野市五日市920-1","lat":35.728392,"lon":139.217031},{"name":"＊?二宮考古館","province":"東京都","city":"あきる野市","address":"あきる野市二宮1151","lat":35.727477,"lon":139.313912},{"name":"＊?五日市郷土館","province":"東京都","city":"あきる野市","address":"あきる野市五日市920-1","lat":35.728392,"lon":139.217031},{"name":"＊?二宮考古館","province":"東京都","city":"あきる野市","address":"あきる野市二宮1151","lat":35.727477,"lon":139.313912},{"name":"＊?五日市郷土館","province":"東京都","city":"あきる野市","address":"あきる野市五日市920-1","lat":35.728392,"lon":139.217031},{"name":"＊?二宮考古館","province":"東京都","city":"あきる野市","address":"あきる野市二宮1151","lat":35.727477,"lon":139.313912},{"name":"＊?五日市郷土館","province":"東京都","city":"あきる野市","address":"あきる野市五日市920-1","lat":35.728392,"lon":139.217031},{"name":"＊?二宮考古館","province":"東京都","city":"あきる野市","address":"あきる野市二宮1151","lat":35.727477,"lon":139.313912},{"name":"＊?五日市郷土館","province":"東京都","city":"あきる野市","address":"あきる野市五日市920-1","lat":35.728392,"lon":139.217031},{"name":"＊?二宮考古館","province":"東京都","city":"あきる野市","address":"あきる野市二宮1151","lat":35.727477,"lon":139.313912},{"name":"＊?五日市郷土館","province":"東京都","city":"あきる野市","address":"あきる野市五日市920-1","lat":35.728392,"lon":139.217031},{"name":"＊?二宮考古館","province":"東京都","city":"あきる野市","address":"あきる野市二宮1151","lat":35.727477,"lon":139.313912},{"name":"＊?五日市郷土館","province":"東京都","city":"あきる野市","address":"あきる野市五日市920-1","lat":35.728392,"lon":139.217031},{"name":"＊?二宮考古館","province":"東京都","city":"あきる野市","address":"あきる野市二宮1151","lat":35.727477,"lon":139.313912},{"name":"＊?五日市郷土館","province":"東京都","city":"あきる野市","address":"あきる野市五日市920-1","lat":35.728392,"lon":139.217031},{"name":"＊?二宮考古館","province":"東京都","city":"あきる野市","address":"あきる野市二宮1151","lat":35.727477,"lon":139.313912},{"name":"＊?五日市郷土館","province":"東京都","city":"あきる野市","address":"あきる野市五日市920-1","lat":35.728392,"lon":139.217031},{"name":"＊?二宮考古館","province":"東京都","city":"あきる野市","address":"あきる野市二宮1151","lat":35.727477,"lon":139.313912},{"name":"＊?五日市郷土館","province":"東京都","city":"あきる野市","address":"あきる野市五日市920-1","lat":35.728392,"lon":139.217031},{"name":"＊?二宮考古館","province":"東京都","city":"あきる野市","address":"あきる野市二宮1151","lat":35.727477,"lon":139.313912},{"name":"＊?五日市郷土館","province":"東京都","city":"あきる野市","address":"あきる野市五日市920-1","lat":35.728392,"lon":139.217031},{"name":"＊?二宮考古館","province":"東京都","city":"あきる野市","address":"あきる野市二宮1151","lat":35.727477,"lon":139.313912},{"name":"＊?五日市郷土館","province":"東京都","city":"あきる野市","address":"あきる野市五日市920-1","lat":35.728392,"lon":139.217031},{"name":"＊?二宮考古館","province":"東京都","city":"あきる野市","address":"あきる野市二宮1151","lat":35.727477,"lon":139.313912},{"name":"＊?五日市郷土館","province":"東京都","city":"あきる野市","address":"あきる野市五日市920-1","lat":35.728392,"lon":139.217031},{"name":"＊?二宮考古館","province":"東京都","city":"あきる野市","address":"あきる野市二宮1151","lat":35.727477,"lon":139.313912},{"name":"＊?五日市郷土館","province":"東京都","city":"あきる野市","address":"あきる野市五日市920-1","lat":35.728392,"lon":139.217031},{"name":"＊?二宮考古館","province":"東京都","city":"あきる野市","address":"あきる野市二宮1151","lat":35.727477,"lon":139.313912},{"name":"＊?五日市郷土館","province":"東京都","city":"あきる野市","address":"あきる野市五日市920-1","lat":35.728392,"lon":139.217031},{"name":"＊?二宮考古館","province":"東京都","city":"あきる野市","address":"あきる野市二宮1151","lat":35.727477,"lon":139.313912},{"name":"＊?五日市郷土館","province":"東京都","city":"あきる野市","address":"あきる野市五日市920-1","lat":35.728392,"lon":139.217031},{"name":"＊?二宮考古館","province":"東京都","city":"あきる野市","address":"あきる野市二宮1151","lat":35.727477,"lon":139.313912},{"name":"＊?五日市郷土館","province":"東京都","city":"あきる野市","address":"あきる野市五日市920-1","lat":35.728392,"lon":139.217031},{"name":"＊?二宮考古館","province":"東京都","city":"あきる野市","address":"あきる野市二宮1151","lat":35.727477,"lon":139.313912},{"name":"＊?五日市郷土館","province":"東京都","city":"あきる野市","address":"あきる野市五日市920-1","lat":35.728392,"lon":139.217031},{"name":"＊?二宮考古館","province":"東京都","city":"あきる野市","address":"あきる野市二宮1151","lat":35.727477,"lon":139.313912},{"name":"＊?五日市郷土館","province":"東京都","city":"あきる野市","address":"あきる野市五日市920-1","lat":35.728392,"lon":139.217031},{"name":"＊?二宮考古館","province":"東京都","city":"あきる野市","address":"あきる野市二宮1151","lat":35.727477,"lon":139.313912},{"name":"＊?五日市郷土館","province":"東京都","city":"あきる野市","address":"あきる野市五日市920-1","lat":35.728392,"lon":139.217031},{"name":"＊?二宮考古館","province":"東京都","city":"あきる野市","address":"あきる野市二宮1151","lat":35.727477,"lon":139.313912},{"name":"＊?五日市郷土館","province":"東京都","city":"あきる野市","address":"あきる野市五日市920-1","lat":35.728392,"lon":139.217031},{"name":"＊?二宮考古館","province":"東京都","city":"あきる野市","address":"あきる野市二宮1151","lat":35.727477,"lon":139.313912},{"name":"＊?五日市郷土館","province":"東京都","city":"あきる野市","address":"あきる野市五日市920-1","lat":35.728392,"lon":139.217031},{"name":"＊?二宮考古館","province":"東京都","city":"あきる野市","address":"あきる野市二宮1151","lat":35.727477,"lon":139.313912},{"name":"＊?五日市郷土館","province":"東京都","city":"あきる野市","address":"あきる野市五日市920-1","lat":35.728392,"lon":139.217031},{"name":"＊?二宮考古館","province":"東京都","city":"あきる野市","address":"あきる野市二宮1151","lat":35.727477,"lon":139.313912},{"name":"＊?五日市郷土館","province":"東京都","city":"あきる野市","address":"あきる野市五日市920-1","lat":35.728392,"lon":139.217031},{"name":"＊?二宮考古館","province":"東京都","city":"あきる野市","address":"あきる野市二宮1151","lat":35.727477,"lon":139.313912},{"name":"＊?五日市郷土館","province":"東京都","city":"あきる野市","address":"あきる野市五日市920-1","lat":35.728392,"lon":139.217031},{"name":"＊?二宮考古館","province":"東京都","city":"あきる野市","address":"あきる野市二宮1151","lat":35.727477,"lon":139.313912},{"name":"＊?五日市郷土館","province":"東京都","city":"あきる野市","address":"あきる野市五日市920-1","lat":35.728392,"lon":139.217031},{"name":"＊?二宮考古館","province":"東京都","city":"あきる野市","address":"あきる野市二宮1151","lat":35.727477,"lon":139.313912},{"name":"＊?五日市郷土館","province":"東京都","city":"あきる野市","address":"あきる野市五日市920-1","lat":35.728392,"lon":139.217031},{"name":"＊?二宮考古館","province":"東京都","city":"あきる野市","address":"あきる野市二宮1151","lat":35.727477,"lon":139.313912},{"name":"＊?五日市郷土館","province":"東京都","city":"あきる野市","address":"あきる野市五日市920-1","lat":35.728392,"lon":139.217031},{"name":"＊?二宮考古館","province":"東京都","city":"あきる野市","address":"あきる野市二宮1151","lat":35.727477,"lon":139.313912},{"name":"＊?五日市郷土館","province":"東京都","city":"あきる野市","address":"あきる野市五日市920-1","lat":35.728392,"lon":139.217031}]}