{"keyword":"文化","data":[{"name":"木造伝阿弥陀如来及び脇侍　千手観世音菩薩・勢至菩薩　坐像","province":"東京都","city":"あきる野市","address":"東京都あきる野市横沢134","lat":35.732374,"lon":139.241529},{"name":"西秋留石器時代住居跡","province":"東京都","city":"あきる野市","address":"東京都あきる野市牛沼265-2","lat":35.719679,"lon":139.288819},{"name":"真照寺薬師堂","province":"東京都","city":"あきる野市","address":"東京都あきる野市引田863","lat":35.721895,"lon":139.268324},{"name":"大悲願寺本堂","province":"東京都","city":"あきる野市","address":"東京都あきる野市横沢134","lat":35.732374,"lon":139.241529},{"name":"木造釈迦如来坐像","province":"東京都","city":"あきる野市","address":"東京都あきる野市戸倉328","lat":35.725616,"lon":139.20214},{"name":"大般若経","province":"東京都","city":"あきる野市","address":"東京都あきる野市横沢134","lat":35.732374,"lon":139.241529},{"name":"旧多摩郡油平村名主中村家文書","province":"東京都","city":"あきる野市","address":"東京都あきる野市五日市920-1","lat":35.728429,"lon":139.216982},{"name":"大悲願寺文書","province":"東京都","city":"あきる野市","address":"東京都あきる野市横沢134","lat":35.732374,"lon":139.241529},{"name":"五日市憲法草案","province":"東京都","city":"あきる野市","address":"東京都あきる野市秋川1-16-2","lat":35.730708,"lon":139.288733},{"name":"田中丘隅回向墓","province":"東京都","city":"あきる野市","address":"東京都あきる野市平沢732","lat":35.730489,"lon":139.315052},{"name":"軍道紙","province":"東京都","city":"あきる野市","address":"東京都あきる野市乙津266・あきる野市乙津671","lat":35.728618,"lon":139.187666},{"name":"菅生の組立舞台","province":"東京都","city":"あきる野市","address":"東京都あきる野市菅生1336","lat":35.746731,"lon":139.289732},{"name":"猿曳駒絵馬","province":"東京都","city":"あきる野市","address":"東京都あきる野市引田863","lat":35.721902,"lon":139.268241},{"name":"広徳寺境域","province":"東京都","city":"あきる野市","address":"東京都あきる野市小和田234","lat":35.721875,"lon":139.21736},{"name":"深沢家屋敷跡","province":"東京都","city":"あきる野市","address":"東京都あきる野市深沢7","lat":35.750161,"lon":139.205403},{"name":"前田耕地遺跡","province":"東京都","city":"あきる野市","address":"東京都あきる野市野辺1-1他","lat":35.723982,"lon":139.316109},{"name":"戸倉城跡","province":"東京都","city":"あきる野市","address":"東京都あきる野市戸倉328-1他","lat":35.725616,"lon":139.20214},{"name":"大塚古墳","province":"東京都","city":"あきる野市","address":"東京都あきる野市雨間232","lat":35.727323,"lon":139.289955},{"name":"二宮神社並びに城跡","province":"東京都","city":"あきる野市","address":"東京都あきる野市二宮2252","lat":35.726873,"lon":139.3136},{"name":"草花石器時代住居跡","province":"東京都","city":"あきる野市","address":"東京都あきる野市草花1371","lat":35.740299,"lon":139.30717},{"name":"羽ケ田石器時代住居跡","province":"東京都","city":"あきる野市","address":"東京都あきる野市草花2859・あきる野市草花2865","lat":35.74156,"lon":139.298237},{"name":"奥御岳景園地","province":"東京都","city":"あきる野市","address":"東京都あきる野市養沢1600-5他","lat":35.752585,"lon":139.180715},{"name":"広徳寺のタラヨウ","province":"東京都","city":"あきる野市","address":"東京都あきる野市小和田234","lat":35.721875,"lon":139.21736},{"name":"広徳寺のカヤ","province":"東京都","city":"あきる野市","address":"東京都あきる野市小和田234","lat":35.721875,"lon":139.21736},{"name":"大岳鍾乳洞","province":"東京都","city":"あきる野市","address":"東京都あきる野市養沢1587","lat":35.76245,"lon":139.155758},{"name":"南沢の鳥ノ巣石灰岩産地","province":"東京都","city":"あきる野市","address":"東京都あきる野市深沢376他","lat":35.750161,"lon":139.205403},{"name":"六枚屏風岩","province":"東京都","city":"あきる野市","address":"東京都あきる野市引田1774","lat":35.724439,"lon":139.268021},{"name":"慈勝寺のモッコク","province":"東京都","city":"あきる野市","address":"東京都あきる野市草花1811","lat":35.741641,"lon":139.312086},{"name":"光厳寺のヤマザクラ","province":"東京都","city":"あきる野市","address":"東京都あきる野市戸倉2102のイ他","lat":35.727333,"lon":139.205064},{"name":"地蔵院のカゴノキ","province":"東京都","city":"あきる野市","address":"東京都あきる野市雨間1109","lat":35.727323,"lon":139.289955},{"name":"広徳寺総門","province":"東京都","city":"あきる野市","address":"東京都あきる野市小和田234","lat":35.721875,"lon":139.21736},{"name":"広徳寺山門","province":"東京都","city":"あきる野市","address":"東京都あきる野市小和田234","lat":35.721875,"lon":139.21736},{"name":"開光院本堂・庫裏","province":"東京都","city":"あきる野市","address":"東京都あきる野市五日市691","lat":35.73111,"lon":139.216043},{"name":"三島神社本殿","province":"東京都","city":"あきる野市","address":"東京都あきる野市戸倉414","lat":35.726675,"lon":139.200724},{"name":"武多摩神社本殿","province":"東京都","city":"あきる野市","address":"東京都あきる野市戸倉414","lat":35.726675,"lon":139.200724},{"name":"八雲神社の五輪塔","province":"東京都","city":"あきる野市","address":"東京都あきる野市野辺316","lat":35.722927,"lon":139.311798},{"name":"花蔵院の山門","province":"東京都","city":"あきる野市","address":"東京都あきる野市草花1740","lat":35.742505,"lon":139.309853},{"name":"真照寺の山門","province":"東京都","city":"あきる野市","address":"東京都あきる野市引田863","lat":35.721895,"lon":139.268324},{"name":"福徳寺の山門","province":"東京都","city":"あきる野市","address":"東京都あきる野市油平246","lat":35.732374,"lon":139.241529},{"name":"大悲願寺観音堂","province":"東京都","city":"あきる野市","address":"東京都あきる野市横沢134","lat":35.732374,"lon":139.241529},{"name":"大悲願寺楼門（仁王門）","province":"東京都","city":"あきる野市","address":"東京都あきる野市横沢134","lat":35.732374,"lon":139.241529},{"name":"大悲願寺中門（朱雀門）","province":"東京都","city":"あきる野市","address":"東京都あきる野市横沢134","lat":35.732374,"lon":139.241529},{"name":"旧市倉家住宅","province":"東京都","city":"あきる野市","address":"東京都あきる野市五日市920-1","lat":35.728429,"lon":139.216982},{"name":"二宮神社本殿","province":"東京都","city":"あきる野市","address":"東京都あきる野市二宮2252","lat":35.726873,"lon":139.3136},{"name":"二宮神社宮殿","province":"東京都","city":"あきる野市","address":"東京都あきる野市二宮2252","lat":35.726873,"lon":139.3136},{"name":"雨武主神社本殿","province":"東京都","city":"あきる野市","address":"東京都あきる野市雨間1941","lat":35.714377,"lon":139.291836},{"name":"子生神社本殿","province":"東京都","city":"あきる野市","address":"東京都あきる野市小中野187","lat":35.725927,"lon":139.209386},{"name":"森山神社本殿","province":"東京都","city":"あきる野市","address":"東京都あきる野市草花275","lat":35.731654,"lon":139.318895},{"name":"阿伎留神社年中十二祭神事絵巻","province":"東京都","city":"あきる野市","address":"東京都あきる野市五日市1081","lat":35.725279,"lon":139.222695},{"name":"光厳寺絹本着色仏涅槃図","province":"東京都","city":"あきる野市","address":"東京都あきる野市戸倉328","lat":35.725616,"lon":139.20214},{"name":"大悲願寺仁王門天井絵","province":"東京都","city":"あきる野市","address":"東京都あきる野市横沢134","lat":35.732374,"lon":139.241529},{"name":"玉林寺本堂天井絵","province":"東京都","city":"あきる野市","address":"東京都あきる野市五日市926","lat":35.72706,"lon":139.217626},{"name":"光厳寺扁額","province":"東京都","city":"あきる野市","address":"東京都あきる野市戸倉328","lat":35.725616,"lon":139.20214},{"name":"貴志嶋神社石造大黒天像","province":"東京都","city":"あきる野市","address":"東京都あきる野市網代83","lat":35.721389,"lon":139.247309},{"name":"大悲願寺懐中仏","province":"東京都","city":"あきる野市","address":"東京都あきる野市横沢134","lat":35.732374,"lon":139.241529},{"name":"東町観音堂木造阿弥陀如来坐像","province":"東京都","city":"あきる野市","address":"東京都あきる野市五日市164","lat":35.729956,"lon":139.225992},{"name":"広徳寺山門木造十六羅漢像","province":"東京都","city":"あきる野市","address":"東京都あきる野市小和田234","lat":35.721875,"lon":139.21736},{"name":"楞厳寺薬師堂木造十二神将立像","province":"東京都","city":"あきる野市","address":"東京都あきる野市五日市576","lat":35.732515,"lon":139.214976},{"name":"足利尊氏坐像","province":"東京都","city":"あきる野市","address":"東京都あきる野市山田496","lat":35.723983,"lon":139.254575},{"name":"広徳寺本尊聖観音像","province":"東京都","city":"あきる野市","address":"東京都あきる野市小和田234","lat":35.721875,"lon":139.21736},{"name":"福徳寺の五輪六地蔵及び中尊","province":"東京都","city":"あきる野市","address":"東京都あきる野市油平246","lat":35.722306,"lon":139.286411},{"name":"大悲願寺の五輪地蔵","province":"東京都","city":"あきる野市","address":"東京都あきる野市横沢134","lat":35.732374,"lon":139.241529},{"name":"春日明神社和鏡","province":"東京都","city":"あきる野市","address":"東京都あきる野市乙津425","lat":35.730352,"lon":139.187268},{"name":"阿伎留神社懸仏台盤","province":"東京都","city":"あきる野市","address":"東京都あきる野市五日市1081","lat":35.725279,"lon":139.222695},{"name":"大悲願寺六角宝幢式経筒","province":"東京都","city":"あきる野市","address":"東京都あきる野市横沢134","lat":35.732374,"lon":139.241529},{"name":"大悲願寺梵鐘","province":"東京都","city":"あきる野市","address":"東京都あきる野市横沢134","lat":35.732374,"lon":139.241529},{"name":"三島神社石棒","province":"東京都","city":"あきる野市","address":"東京都あきる野市二宮1151","lat":35.727373,"lon":139.313475},{"name":"土製耳飾","province":"東京都","city":"あきる野市","address":"東京都あきる野市五日市920-1","lat":35.728429,"lon":139.216982},{"name":"縄文式壺型土器","province":"東京都","city":"あきる野市","address":"東京都あきる野市五日市920-1","lat":35.728429,"lon":139.216982},{"name":"縄文式釣手土器","province":"東京都","city":"あきる野市","address":"東京都あきる野市五日市920-1","lat":35.728429,"lon":139.216982},{"name":"五領式土器","province":"東京都","city":"あきる野市","address":"東京都あきる野市五日市920-1","lat":35.728429,"lon":139.216982},{"name":"雨間地区遺跡群出土の旧石器時代石器群","province":"東京都","city":"あきる野市","address":"東京都あきる野市二宮1151","lat":35.727373,"lon":139.313475},{"name":"大六天遺跡出土の石棒","province":"東京都","city":"あきる野市","address":"東京都あきる野市二宮1151","lat":35.727373,"lon":139.313475},{"name":"如環版木活字並びに活版本","province":"東京都","city":"あきる野市","address":"東京都あきる野市横沢134","lat":35.732374,"lon":139.241529},{"name":"武州南一揆文書","province":"東京都","city":"あきる野市","address":"東京都あきる野市五日市920-1","lat":35.727373,"lon":139.313475},{"name":"武州南一揆文書","province":"東京都","city":"あきる野市","address":"東京都あきる野市五日市1081","lat":35.725279,"lon":139.222695},{"name":"後北条氏虎印文書","province":"東京都","city":"あきる野市","address":"東京都あきる野市小和田234","lat":35.721875,"lon":139.21736},{"name":"後北条氏虎印文書","province":"東京都","city":"あきる野市","address":"東京都あきる野市五日市920-1","lat":35.728429,"lon":139.216982},{"name":"大悲願寺棟札","province":"東京都","city":"あきる野市","address":"東京都あきる野市横沢134","lat":35.732374,"lon":139.241529},{"name":"瑞雲寺板碑","province":"東京都","city":"あきる野市","address":"東京都あきる野市山田496","lat":35.723983,"lon":139.254575},{"name":"大悲願寺井戸枠","province":"東京都","city":"あきる野市","address":"東京都あきる野市横沢134","lat":35.732374,"lon":139.241529},{"name":"ところ芋の碑","province":"東京都","city":"あきる野市","address":"東京都あきる野市戸倉328","lat":35.725616,"lon":139.20214},{"name":"百番供養塔","province":"東京都","city":"あきる野市","address":"東京都あきる野市留原209","lat":35.722399,"lon":139.229384},{"name":"御嶽神社の懸仏","province":"東京都","city":"あきる野市","address":"東京都あきる野市小和田531","lat":35.721169,"lon":139.223449},{"name":"地蔵院の板碑","province":"東京都","city":"あきる野市","address":"東京都あきる野市雨間1101","lat":35.721535,"lon":139.300441},{"name":"福泉寺の板碑","province":"東京都","city":"あきる野市","address":"東京都あきる野市菅生629","lat":35.746731,"lon":139.289732},{"name":"塩野家の板碑","province":"東京都","city":"あきる野市","address":"東京都あきる野市二宮1151","lat":35.727373,"lon":139.313475},{"name":"東郷前の板碑","province":"東京都","city":"あきる野市","address":"東京都あきる野市二宮1151","lat":35.727373,"lon":139.313475},{"name":"珠陽院の巳待供養塔","province":"東京都","city":"あきる野市","address":"東京都あきる野市瀬戸岡511","lat":35.736947,"lon":139.29544},{"name":"五日市の市神様","province":"東京都","city":"あきる野市","address":"東京都あきる野市五日市110-1","lat":35.727874,"lon":139.222259},{"name":"二宮神社の算額絵馬","province":"東京都","city":"あきる野市","address":"東京都あきる野市五日市920-1","lat":35.728429,"lon":139.216982},{"name":"渕上の石積井戸","province":"東京都","city":"あきる野市","address":"東京都あきる野市渕上330","lat":35.722648,"lon":139.273418},{"name":"石神遺跡","province":"東京都","city":"あきる野市","address":"東京都あきる野市原小宮1-18","lat":35.734247,"lon":139.29906},{"name":"玉泉寺のエノキ","province":"東京都","city":"あきる野市","address":"東京都あきる野市二宮2265","lat":35.728962,"lon":139.31395},{"name":"戸田家のクスノキ","province":"東京都","city":"あきる野市","address":"東京都あきる野市二宮2259","lat":35.728768,"lon":139.314675},{"name":"二宮神社のフジ","province":"東京都","city":"あきる野市","address":"東京都あきる野市二宮1189","lat":35.726873,"lon":139.3136},{"name":"二宮神社のヤナギ","province":"東京都","city":"あきる野市","address":"東京都あきる野市二宮1189","lat":35.726873,"lon":139.3136},{"name":"杉田家のタワラグミ","province":"東京都","city":"あきる野市","address":"東京都あきる野市二宮2431","lat":35.729309,"lon":139.319189},{"name":"法林寺のシラカシ","province":"東京都","city":"あきる野市","address":"東京都あきる野市小川東2-12-10","lat":35.719216,"lon":139.319956},{"name":"熊野神社のケヤキ","province":"東京都","city":"あきる野市","address":"東京都あきる野市小川639","lat":35.721305,"lon":139.317081},{"name":"地蔵院のカヤ","province":"東京都","city":"あきる野市","address":"東京都あきる野市雨間1101","lat":35.721535,"lon":139.300441},{"name":"真城寺のシダレザクラ","province":"東京都","city":"あきる野市","address":"東京都あきる野市上代継344","lat":35.723012,"lon":139.278595},{"name":"秋川神明社のスギ","province":"東京都","city":"あきる野市","address":"東京都あきる野市牛沼88","lat":35.718485,"lon":139.285759},{"name":"正勝神社のサカキ","province":"東京都","city":"あきる野市","address":"東京都あきる野市菅生1819","lat":35.757397,"lon":139.277758},{"name":"堀部家のイトヒバ","province":"東京都","city":"あきる野市","address":"東京都あきる野市小川469","lat":35.717425,"lon":139.313951},{"name":"小山家のツルウメモドキ","province":"東京都","city":"あきる野市","address":"東京都あきる野市草花720","lat":35.738491,"lon":139.306901},{"name":"五柱神社のスギ","province":"東京都","city":"あきる野市","address":"東京都あきる野市養沢1392","lat":35.732043,"lon":139.180863},{"name":"山抱きの大カシ（ウラジロガシ）","province":"東京都","city":"あきる野市","address":"東京都あきる野市深沢472","lat":35.750161,"lon":139.205403},{"name":"森田家住宅主屋","province":"東京都","city":"あきる野市","address":"東京都あきる野市小川633-1","lat":35.721158,"lon":139.316364},{"name":"森田家住宅見世蔵","province":"東京都","city":"あきる野市","address":"東京都あきる野市小川633-1","lat":35.721158,"lon":139.316364},{"name":"森田家住宅前の蔵","province":"東京都","city":"あきる野市","address":"東京都あきる野市小川633-1","lat":35.721158,"lon":139.316364},{"name":"森田家住宅味噌蔵","province":"東京都","city":"あきる野市","address":"東京都あきる野市小川633-1","lat":35.721158,"lon":139.316364},{"name":"森田家住宅西蔵","province":"東京都","city":"あきる野市","address":"東京都あきる野市小川633-1","lat":35.721158,"lon":139.316364},{"name":"森田家住宅旧米蔵","province":"東京都","city":"あきる野市","address":"東京都あきる野市小川633-1","lat":35.721158,"lon":139.316364},{"name":"森田家住宅御看経堂","province":"東京都","city":"あきる野市","address":"東京都あきる野市小川633-1","lat":35.721158,"lon":139.316364},{"name":"森田家住宅門","province":"東京都","city":"あきる野市","address":"東京都あきる野市小川633-1","lat":35.721158,"lon":139.316364},{"name":"森田家住宅板塀","province":"東京都","city":"あきる野市","address":"東京都あきる野市小川633-1","lat":35.721158,"lon":139.316364}]}