{"keyword":"構築","data":[{"name":"五日市出張所入口","province":"東京都","city":"あきる野市","address":"東京都あきる野市五日市1","lat":35.72813464,"lon":139.22196731},{"name":"五日市駅前","province":"東京都","city":"あきる野市","address":"東京都あきる野市舘谷219-7","lat":35.73131422,"lon":139.22827732},{"name":"東町","province":"東京都","city":"あきる野市","address":"東京都あきる野市五日市164","lat":35.72992849,"lon":139.22599994},{"name":"五日市小学校入口","province":"東京都","city":"あきる野市","address":"東京都あきる野市五日市53","lat":35.72892884,"lon":139.22352813},{"name":"五日市給食センター入口","province":"東京都","city":"あきる野市","address":"東京都あきる野市五日市1140","lat":35.72706238,"lon":139.22383384},{"name":"西秋留","province":"東京都","city":"あきる野市","address":"東京都あきる野市雨間260","lat":35.72856131,"lon":139.28939962},{"name":"あきる野市役所秋川庁舎前","province":"東京都","city":"あきる野市","address":"東京都あきる野市二宮350","lat":35.72920304,"lon":139.29349922},{"name":"秋川駅前","province":"東京都","city":"あきる野市","address":"東京都あきる野市秋川2丁目1-6","lat":35.72876952,"lon":139.28645823},{"name":"秋川キララホール前","province":"東京都","city":"あきる野市","address":"東京都あきる野市秋川1丁目17-1","lat":35.73073043,"lon":139.28730808},{"name":"油平","province":"東京都","city":"あきる野市","address":"東京都あきる野市油平249","lat":35.7235118,"lon":139.28669168},{"name":"秋留台給水所","province":"東京都","city":"あきる野市","address":"東京都あきる野市秋川3丁目2-10","lat":35.73175243,"lon":139.28428611},{"name":"上代継浄水所","province":"東京都","city":"あきる野市","address":"東京都あきる野市上代継407","lat":35.71915367,"lon":139.2783759},{"name":"戸倉給水所","province":"東京都","city":"あきる野市","address":"東京都あきる野市戸倉348-1","lat":35.72646632,"lon":139.20192062},{"name":"伊奈配水所","province":"東京都","city":"あきる野市","address":"東京都あきる野市伊奈372-3","lat":35.7348678,"lon":139.25221118},{"name":"五日市警察署","province":"東京都","city":"あきる野市","address":"あきる野市五日市888-7","lat":35.72795,"lon":139.2168},{"name":"秋川消防署","province":"東京都","city":"あきる野市","address":"あきる野市伊奈466","lat":35.73449,"lon":139.2564},{"name":"都立秋留台公園（陸上競技場）","province":"東京都","city":"あきる野市","address":"あきる野市二宮地内","lat":35.72746,"lon":139.3108},{"name":"富士通株式会社あきる野テクノロジーセンター駐車場","province":"東京都","city":"あきる野市","address":"あきる野市渕上50番地","lat":35.73074,"lon":139.2732},{"name":"五日市出張所入口","province":"東京都","city":"あきる野市","address":"東京都あきる野市五日市1","lat":35.72813464,"lon":139.22196731},{"name":"五日市駅前","province":"東京都","city":"あきる野市","address":"東京都あきる野市舘谷219-7","lat":35.73131422,"lon":139.22827732},{"name":"東町","province":"東京都","city":"あきる野市","address":"東京都あきる野市五日市164","lat":35.72992849,"lon":139.22599994},{"name":"五日市小学校入口","province":"東京都","city":"あきる野市","address":"東京都あきる野市五日市53","lat":35.72892884,"lon":139.22352813},{"name":"五日市給食センター入口","province":"東京都","city":"あきる野市","address":"東京都あきる野市五日市1140","lat":35.72706238,"lon":139.22383384},{"name":"西秋留","province":"東京都","city":"あきる野市","address":"東京都あきる野市雨間260","lat":35.72856131,"lon":139.28939962},{"name":"あきる野市役所秋川庁舎前","province":"東京都","city":"あきる野市","address":"東京都あきる野市二宮350","lat":35.72920304,"lon":139.29349922},{"name":"秋川駅前","province":"東京都","city":"あきる野市","address":"東京都あきる野市秋川2丁目1-6","lat":35.72876952,"lon":139.28645823},{"name":"秋川キララホール前","province":"東京都","city":"あきる野市","address":"東京都あきる野市秋川1丁目17-1","lat":35.73073043,"lon":139.28730808},{"name":"油平","province":"東京都","city":"あきる野市","address":"東京都あきる野市油平249","lat":35.7235118,"lon":139.28669168},{"name":"秋留台給水所","province":"東京都","city":"あきる野市","address":"東京都あきる野市秋川3丁目2-10","lat":35.73175243,"lon":139.28428611},{"name":"上代継浄水所","province":"東京都","city":"あきる野市","address":"東京都あきる野市上代継407","lat":35.71915367,"lon":139.2783759},{"name":"戸倉給水所","province":"東京都","city":"あきる野市","address":"東京都あきる野市戸倉348-1","lat":35.72646632,"lon":139.20192062},{"name":"伊奈配水所","province":"東京都","city":"あきる野市","address":"東京都あきる野市伊奈372-3","lat":35.7348678,"lon":139.25221118},{"name":"五日市警察署","province":"東京都","city":"あきる野市","address":"あきる野市五日市888-7","lat":35.72795,"lon":139.2168},{"name":"秋川消防署","province":"東京都","city":"あきる野市","address":"あきる野市伊奈466","lat":35.73449,"lon":139.2564},{"name":"五日市出張所入口","province":"東京都","city":"あきる野市","address":"東京都あきる野市五日市1","lat":35.72813464,"lon":139.22196731},{"name":"五日市駅前","province":"東京都","city":"あきる野市","address":"東京都あきる野市舘谷219-7","lat":35.73131422,"lon":139.22827732},{"name":"東町","province":"東京都","city":"あきる野市","address":"東京都あきる野市五日市164","lat":35.72992849,"lon":139.22599994},{"name":"五日市小学校入口","province":"東京都","city":"あきる野市","address":"東京都あきる野市五日市53","lat":35.72892884,"lon":139.22352813},{"name":"五日市給食センター入口","province":"東京都","city":"あきる野市","address":"東京都あきる野市五日市1140","lat":35.72706238,"lon":139.22383384},{"name":"西秋留","province":"東京都","city":"あきる野市","address":"東京都あきる野市雨間260","lat":35.72856131,"lon":139.28939962},{"name":"あきる野市役所秋川庁舎前","province":"東京都","city":"あきる野市","address":"東京都あきる野市二宮350","lat":35.72920304,"lon":139.29349922},{"name":"秋川駅前","province":"東京都","city":"あきる野市","address":"東京都あきる野市秋川2丁目1-6","lat":35.72876952,"lon":139.28645823},{"name":"秋川キララホール前","province":"東京都","city":"あきる野市","address":"東京都あきる野市秋川1丁目17-1","lat":35.73073043,"lon":139.28730808},{"name":"油平","province":"東京都","city":"あきる野市","address":"東京都あきる野市油平249","lat":35.7235118,"lon":139.28669168},{"name":"秋留台給水所","province":"東京都","city":"あきる野市","address":"東京都あきる野市秋川3丁目2-10","lat":35.73175243,"lon":139.28428611},{"name":"上代継浄水所","province":"東京都","city":"あきる野市","address":"東京都あきる野市上代継407","lat":35.71915367,"lon":139.2783759},{"name":"戸倉給水所","province":"東京都","city":"あきる野市","address":"東京都あきる野市戸倉348-1","lat":35.72646632,"lon":139.20192062},{"name":"伊奈配水所","province":"東京都","city":"あきる野市","address":"東京都あきる野市伊奈372-3","lat":35.7348678,"lon":139.25221118},{"name":"五日市警察署","province":"東京都","city":"あきる野市","address":"あきる野市五日市888-7","lat":35.72795,"lon":139.2168},{"name":"秋川消防署","province":"東京都","city":"あきる野市","address":"あきる野市伊奈466","lat":35.73449,"lon":139.2564},{"name":"五日市出張所入口","province":"東京都","city":"あきる野市","address":"東京都あきる野市五日市1","lat":35.72813464,"lon":139.22196731},{"name":"五日市駅前","province":"東京都","city":"あきる野市","address":"東京都あきる野市舘谷219-7","lat":35.73131422,"lon":139.22827732},{"name":"東町","province":"東京都","city":"あきる野市","address":"東京都あきる野市五日市164","lat":35.72992849,"lon":139.22599994},{"name":"五日市小学校入口","province":"東京都","city":"あきる野市","address":"東京都あきる野市五日市53","lat":35.72892884,"lon":139.22352813},{"name":"五日市給食センター入口","province":"東京都","city":"あきる野市","address":"東京都あきる野市五日市1140","lat":35.72706238,"lon":139.22383384},{"name":"西秋留","province":"東京都","city":"あきる野市","address":"東京都あきる野市雨間260","lat":35.72856131,"lon":139.28939962},{"name":"あきる野市役所秋川庁舎前","province":"東京都","city":"あきる野市","address":"東京都あきる野市二宮350","lat":35.72920304,"lon":139.29349922},{"name":"秋川駅前","province":"東京都","city":"あきる野市","address":"東京都あきる野市秋川2丁目1-6","lat":35.72876952,"lon":139.28645823},{"name":"秋川キララホール前","province":"東京都","city":"あきる野市","address":"東京都あきる野市秋川1丁目17-1","lat":35.73073043,"lon":139.28730808},{"name":"油平","province":"東京都","city":"あきる野市","address":"東京都あきる野市油平249","lat":35.7235118,"lon":139.28669168},{"name":"秋留台給水所","province":"東京都","city":"あきる野市","address":"東京都あきる野市秋川3丁目2-10","lat":35.73175243,"lon":139.28428611},{"name":"上代継浄水所","province":"東京都","city":"あきる野市","address":"東京都あきる野市上代継407","lat":35.71915367,"lon":139.2783759},{"name":"戸倉給水所","province":"東京都","city":"あきる野市","address":"東京都あきる野市戸倉348-1","lat":35.72646632,"lon":139.20192062},{"name":"伊奈配水所","province":"東京都","city":"あきる野市","address":"東京都あきる野市伊奈372-3","lat":35.7348678,"lon":139.25221118},{"name":"五日市警察署","province":"東京都","city":"あきる野市","address":"あきる野市五日市888-7","lat":35.72795,"lon":139.2168},{"name":"秋川消防署","province":"東京都","city":"あきる野市","address":"あきる野市伊奈466","lat":35.73449,"lon":139.2564},{"name":"五日市出張所入口","province":"東京都","city":"あきる野市","address":"東京都あきる野市五日市1","lat":35.72813464,"lon":139.22196731},{"name":"五日市駅前","province":"東京都","city":"あきる野市","address":"東京都あきる野市舘谷219-7","lat":35.73131422,"lon":139.22827732},{"name":"東町","province":"東京都","city":"あきる野市","address":"東京都あきる野市五日市164","lat":35.72992849,"lon":139.22599994},{"name":"五日市小学校入口","province":"東京都","city":"あきる野市","address":"東京都あきる野市五日市53","lat":35.72892884,"lon":139.22352813},{"name":"五日市給食センター入口","province":"東京都","city":"あきる野市","address":"東京都あきる野市五日市1140","lat":35.72706238,"lon":139.22383384},{"name":"西秋留","province":"東京都","city":"あきる野市","address":"東京都あきる野市雨間260","lat":35.72856131,"lon":139.28939962},{"name":"あきる野市役所秋川庁舎前","province":"東京都","city":"あきる野市","address":"東京都あきる野市二宮350","lat":35.72920304,"lon":139.29349922},{"name":"秋川駅前","province":"東京都","city":"あきる野市","address":"東京都あきる野市秋川2丁目1-6","lat":35.72876952,"lon":139.28645823},{"name":"秋川キララホール前","province":"東京都","city":"あきる野市","address":"東京都あきる野市秋川1丁目17-1","lat":35.73073043,"lon":139.28730808},{"name":"油平","province":"東京都","city":"あきる野市","address":"東京都あきる野市油平249","lat":35.7235118,"lon":139.28669168},{"name":"秋留台給水所","province":"東京都","city":"あきる野市","address":"東京都あきる野市秋川3丁目2-10","lat":35.73175243,"lon":139.28428611},{"name":"上代継浄水所","province":"東京都","city":"あきる野市","address":"東京都あきる野市上代継407","lat":35.71915367,"lon":139.2783759},{"name":"戸倉給水所","province":"東京都","city":"あきる野市","address":"東京都あきる野市戸倉348-1","lat":35.72646632,"lon":139.20192062},{"name":"伊奈配水所","province":"東京都","city":"あきる野市","address":"東京都あきる野市伊奈372-3","lat":35.7348678,"lon":139.25221118},{"name":"五日市警察署","province":"東京都","city":"あきる野市","address":"あきる野市五日市888-7","lat":35.72795,"lon":139.2168},{"name":"秋川消防署","province":"東京都","city":"あきる野市","address":"あきる野市伊奈466","lat":35.73449,"lon":139.2564},{"name":"五日市出張所入口","province":"東京都","city":"あきる野市","address":"東京都あきる野市五日市1","lat":35.72813464,"lon":139.22196731},{"name":"五日市駅前","province":"東京都","city":"あきる野市","address":"東京都あきる野市舘谷219-7","lat":35.73131422,"lon":139.22827732},{"name":"東町","province":"東京都","city":"あきる野市","address":"東京都あきる野市五日市164","lat":35.72992849,"lon":139.22599994},{"name":"五日市小学校入口","province":"東京都","city":"あきる野市","address":"東京都あきる野市五日市53","lat":35.72892884,"lon":139.22352813},{"name":"五日市給食センター入口","province":"東京都","city":"あきる野市","address":"東京都あきる野市五日市1140","lat":35.72706238,"lon":139.22383384},{"name":"西秋留","province":"東京都","city":"あきる野市","address":"東京都あきる野市雨間260","lat":35.72856131,"lon":139.28939962},{"name":"あきる野市役所秋川庁舎前","province":"東京都","city":"あきる野市","address":"東京都あきる野市二宮350","lat":35.72920304,"lon":139.29349922},{"name":"秋川駅前","province":"東京都","city":"あきる野市","address":"東京都あきる野市秋川2丁目1-6","lat":35.72876952,"lon":139.28645823},{"name":"秋川キララホール前","province":"東京都","city":"あきる野市","address":"東京都あきる野市秋川1丁目17-1","lat":35.73073043,"lon":139.28730808},{"name":"油平","province":"東京都","city":"あきる野市","address":"東京都あきる野市油平249","lat":35.7235118,"lon":139.28669168},{"name":"秋留台給水所","province":"東京都","city":"あきる野市","address":"東京都あきる野市秋川3丁目2-10","lat":35.73175243,"lon":139.28428611},{"name":"上代継浄水所","province":"東京都","city":"あきる野市","address":"東京都あきる野市上代継407","lat":35.71915367,"lon":139.2783759},{"name":"戸倉給水所","province":"東京都","city":"あきる野市","address":"東京都あきる野市戸倉348-1","lat":35.72646632,"lon":139.20192062},{"name":"伊奈配水所","province":"東京都","city":"あきる野市","address":"東京都あきる野市伊奈372-3","lat":35.7348678,"lon":139.25221118},{"name":"五日市警察署","province":"東京都","city":"あきる野市","address":"あきる野市五日市888-7","lat":35.72795,"lon":139.2168},{"name":"秋川消防署","province":"東京都","city":"あきる野市","address":"あきる野市伊奈466","lat":35.73449,"lon":139.2564},{"name":"五日市出張所入口","province":"東京都","city":"あきる野市","address":"東京都あきる野市五日市1","lat":35.72813464,"lon":139.22196731},{"name":"五日市駅前","province":"東京都","city":"あきる野市","address":"東京都あきる野市舘谷219-7","lat":35.73131422,"lon":139.22827732},{"name":"東町","province":"東京都","city":"あきる野市","address":"東京都あきる野市五日市164","lat":35.72992849,"lon":139.22599994},{"name":"五日市小学校入口","province":"東京都","city":"あきる野市","address":"東京都あきる野市五日市53","lat":35.72892884,"lon":139.22352813},{"name":"五日市給食センター入口","province":"東京都","city":"あきる野市","address":"東京都あきる野市五日市1140","lat":35.72706238,"lon":139.22383384},{"name":"西秋留","province":"東京都","city":"あきる野市","address":"東京都あきる野市雨間260","lat":35.72856131,"lon":139.28939962},{"name":"あきる野市役所秋川庁舎前","province":"東京都","city":"あきる野市","address":"東京都あきる野市二宮350","lat":35.72920304,"lon":139.29349922},{"name":"秋川駅前","province":"東京都","city":"あきる野市","address":"東京都あきる野市秋川2丁目1-6","lat":35.72876952,"lon":139.28645823},{"name":"秋川キララホール前","province":"東京都","city":"あきる野市","address":"東京都あきる野市秋川1丁目17-1","lat":35.73073043,"lon":139.28730808},{"name":"油平","province":"東京都","city":"あきる野市","address":"東京都あきる野市油平249","lat":35.7235118,"lon":139.28669168},{"name":"秋留台給水所","province":"東京都","city":"あきる野市","address":"東京都あきる野市秋川3丁目2-10","lat":35.73175243,"lon":139.28428611},{"name":"上代継浄水所","province":"東京都","city":"あきる野市","address":"東京都あきる野市上代継407","lat":35.71915367,"lon":139.2783759},{"name":"戸倉給水所","province":"東京都","city":"あきる野市","address":"東京都あきる野市戸倉348-1","lat":35.72646632,"lon":139.20192062},{"name":"伊奈配水所","province":"東京都","city":"あきる野市","address":"東京都あきる野市伊奈372-3","lat":35.7348678,"lon":139.25221118},{"name":"五日市警察署","province":"東京都","city":"あきる野市","address":"あきる野市五日市888-7","lat":35.72795,"lon":139.2168},{"name":"秋川消防署","province":"東京都","city":"あきる野市","address":"あきる野市伊奈466","lat":35.73449,"lon":139.2564},{"name":"五日市出張所入口","province":"東京都","city":"あきる野市","address":"東京都あきる野市五日市1","lat":35.72813464,"lon":139.22196731},{"name":"五日市駅前","province":"東京都","city":"あきる野市","address":"東京都あきる野市舘谷219-7","lat":35.73131422,"lon":139.22827732},{"name":"東町","province":"東京都","city":"あきる野市","address":"東京都あきる野市五日市164","lat":35.72992849,"lon":139.22599994},{"name":"五日市小学校入口","province":"東京都","city":"あきる野市","address":"東京都あきる野市五日市53","lat":35.72892884,"lon":139.22352813},{"name":"五日市給食センター入口","province":"東京都","city":"あきる野市","address":"東京都あきる野市五日市1140","lat":35.72706238,"lon":139.22383384},{"name":"西秋留","province":"東京都","city":"あきる野市","address":"東京都あきる野市雨間260","lat":35.72856131,"lon":139.28939962},{"name":"あきる野市役所秋川庁舎前","province":"東京都","city":"あきる野市","address":"東京都あきる野市二宮350","lat":35.72920304,"lon":139.29349922},{"name":"秋川駅前","province":"東京都","city":"あきる野市","address":"東京都あきる野市秋川2丁目1-6","lat":35.72876952,"lon":139.28645823},{"name":"秋川キララホール前","province":"東京都","city":"あきる野市","address":"東京都あきる野市秋川1丁目17-1","lat":35.73073043,"lon":139.28730808},{"name":"油平","province":"東京都","city":"あきる野市","address":"東京都あきる野市油平249","lat":35.7235118,"lon":139.28669168},{"name":"秋留台給水所","province":"東京都","city":"あきる野市","address":"東京都あきる野市秋川3丁目2-10","lat":35.73175243,"lon":139.28428611},{"name":"上代継浄水所","province":"東京都","city":"あきる野市","address":"東京都あきる野市上代継407","lat":35.71915367,"lon":139.2783759},{"name":"戸倉給水所","province":"東京都","city":"あきる野市","address":"東京都あきる野市戸倉348-1","lat":35.72646632,"lon":139.20192062},{"name":"伊奈配水所","province":"東京都","city":"あきる野市","address":"東京都あきる野市伊奈372-3","lat":35.7348678,"lon":139.25221118},{"name":"五日市警察署","province":"東京都","city":"あきる野市","address":"あきる野市五日市888-7","lat":35.72795,"lon":139.2168},{"name":"秋川消防署","province":"東京都","city":"あきる野市","address":"あきる野市伊奈466","lat":35.73449,"lon":139.2564},{"name":"五日市出張所入口","province":"東京都","city":"あきる野市","address":"東京都あきる野市五日市1","lat":35.72813464,"lon":139.22196731},{"name":"五日市駅前","province":"東京都","city":"あきる野市","address":"東京都あきる野市舘谷219-7","lat":35.73131422,"lon":139.22827732},{"name":"東町","province":"東京都","city":"あきる野市","address":"東京都あきる野市五日市164","lat":35.72992849,"lon":139.22599994},{"name":"五日市小学校入口","province":"東京都","city":"あきる野市","address":"東京都あきる野市五日市53","lat":35.72892884,"lon":139.22352813},{"name":"五日市給食センター入口","province":"東京都","city":"あきる野市","address":"東京都あきる野市五日市1140","lat":35.72706238,"lon":139.22383384},{"name":"西秋留","province":"東京都","city":"あきる野市","address":"東京都あきる野市雨間260","lat":35.72856131,"lon":139.28939962},{"name":"あきる野市役所秋川庁舎前","province":"東京都","city":"あきる野市","address":"東京都あきる野市二宮350","lat":35.72920304,"lon":139.29349922},{"name":"秋川駅前","province":"東京都","city":"あきる野市","address":"東京都あきる野市秋川2丁目1-6","lat":35.72876952,"lon":139.28645823},{"name":"秋川キララホール前","province":"東京都","city":"あきる野市","address":"東京都あきる野市秋川1丁目17-1","lat":35.73073043,"lon":139.28730808},{"name":"油平","province":"東京都","city":"あきる野市","address":"東京都あきる野市油平249","lat":35.7235118,"lon":139.28669168},{"name":"秋留台給水所","province":"東京都","city":"あきる野市","address":"東京都あきる野市秋川3丁目2-10","lat":35.73175243,"lon":139.28428611},{"name":"上代継浄水所","province":"東京都","city":"あきる野市","address":"東京都あきる野市上代継407","lat":35.71915367,"lon":139.2783759},{"name":"戸倉給水所","province":"東京都","city":"あきる野市","address":"東京都あきる野市戸倉348-1","lat":35.72646632,"lon":139.20192062},{"name":"伊奈配水所","province":"東京都","city":"あきる野市","address":"東京都あきる野市伊奈372-3","lat":35.7348678,"lon":139.25221118},{"name":"五日市警察署","province":"東京都","city":"あきる野市","address":"あきる野市五日市888-7","lat":35.72795,"lon":139.2168},{"name":"秋川消防署","province":"東京都","city":"あきる野市","address":"あきる野市伊奈466","lat":35.73449,"lon":139.2564},{"name":"五日市出張所入口","province":"東京都","city":"あきる野市","address":"東京都あきる野市五日市1","lat":35.72813464,"lon":139.22196731},{"name":"五日市駅前","province":"東京都","city":"あきる野市","address":"東京都あきる野市舘谷219-7","lat":35.73131422,"lon":139.22827732},{"name":"東町","province":"東京都","city":"あきる野市","address":"東京都あきる野市五日市164","lat":35.72992849,"lon":139.22599994},{"name":"五日市小学校入口","province":"東京都","city":"あきる野市","address":"東京都あきる野市五日市53","lat":35.72892884,"lon":139.22352813},{"name":"五日市給食センター入口","province":"東京都","city":"あきる野市","address":"東京都あきる野市五日市1140","lat":35.72706238,"lon":139.22383384},{"name":"西秋留","province":"東京都","city":"あきる野市","address":"東京都あきる野市雨間260","lat":35.72856131,"lon":139.28939962},{"name":"あきる野市役所秋川庁舎前","province":"東京都","city":"あきる野市","address":"東京都あきる野市二宮350","lat":35.72920304,"lon":139.29349922},{"name":"秋川駅前","province":"東京都","city":"あきる野市","address":"東京都あきる野市秋川2丁目1-6","lat":35.72876952,"lon":139.28645823},{"name":"秋川キララホール前","province":"東京都","city":"あきる野市","address":"東京都あきる野市秋川1丁目17-1","lat":35.73073043,"lon":139.28730808},{"name":"油平","province":"東京都","city":"あきる野市","address":"東京都あきる野市油平249","lat":35.7235118,"lon":139.28669168},{"name":"秋留台給水所","province":"東京都","city":"あきる野市","address":"東京都あきる野市秋川3丁目2-10","lat":35.73175243,"lon":139.28428611},{"name":"上代継浄水所","province":"東京都","city":"あきる野市","address":"東京都あきる野市上代継407","lat":35.71915367,"lon":139.2783759},{"name":"戸倉給水所","province":"東京都","city":"あきる野市","address":"東京都あきる野市戸倉348-1","lat":35.72646632,"lon":139.20192062},{"name":"伊奈配水所","province":"東京都","city":"あきる野市","address":"東京都あきる野市伊奈372-3","lat":35.7348678,"lon":139.25221118},{"name":"五日市警察署","province":"東京都","city":"あきる野市","address":"あきる野市五日市888-7","lat":35.72795,"lon":139.2168},{"name":"秋川消防署","province":"東京都","city":"あきる野市","address":"あきる野市伊奈466","lat":35.73449,"lon":139.2564},{"name":"五日市出張所入口","province":"東京都","city":"あきる野市","address":"東京都あきる野市五日市1","lat":35.72813464,"lon":139.22196731},{"name":"五日市駅前","province":"東京都","city":"あきる野市","address":"東京都あきる野市舘谷219-7","lat":35.73131422,"lon":139.22827732},{"name":"東町","province":"東京都","city":"あきる野市","address":"東京都あきる野市五日市164","lat":35.72992849,"lon":139.22599994},{"name":"五日市小学校入口","province":"東京都","city":"あきる野市","address":"東京都あきる野市五日市53","lat":35.72892884,"lon":139.22352813},{"name":"五日市給食センター入口","province":"東京都","city":"あきる野市","address":"東京都あきる野市五日市1140","lat":35.72706238,"lon":139.22383384},{"name":"西秋留","province":"東京都","city":"あきる野市","address":"東京都あきる野市雨間260","lat":35.72856131,"lon":139.28939962},{"name":"あきる野市役所秋川庁舎前","province":"東京都","city":"あきる野市","address":"東京都あきる野市二宮350","lat":35.72920304,"lon":139.29349922},{"name":"秋川駅前","province":"東京都","city":"あきる野市","address":"東京都あきる野市秋川2丁目1-6","lat":35.72876952,"lon":139.28645823},{"name":"秋川キララホール前","province":"東京都","city":"あきる野市","address":"東京都あきる野市秋川1丁目17-1","lat":35.73073043,"lon":139.28730808},{"name":"油平","province":"東京都","city":"あきる野市","address":"東京都あきる野市油平249","lat":35.7235118,"lon":139.28669168},{"name":"秋留台給水所","province":"東京都","city":"あきる野市","address":"東京都あきる野市秋川3丁目2-10","lat":35.73175243,"lon":139.28428611},{"name":"上代継浄水所","province":"東京都","city":"あきる野市","address":"東京都あきる野市上代継407","lat":35.71915367,"lon":139.2783759},{"name":"戸倉給水所","province":"東京都","city":"あきる野市","address":"東京都あきる野市戸倉348-1","lat":35.72646632,"lon":139.20192062},{"name":"伊奈配水所","province":"東京都","city":"あきる野市","address":"東京都あきる野市伊奈372-3","lat":35.7348678,"lon":139.25221118},{"name":"五日市警察署","province":"東京都","city":"あきる野市","address":"あきる野市五日市888-7","lat":35.72795,"lon":139.2168},{"name":"秋川消防署","province":"東京都","city":"あきる野市","address":"あきる野市伊奈466","lat":35.73449,"lon":139.2564},{"name":"五日市出張所入口","province":"東京都","city":"あきる野市","address":"東京都あきる野市五日市1","lat":35.72813464,"lon":139.22196731},{"name":"五日市駅前","province":"東京都","city":"あきる野市","address":"東京都あきる野市舘谷219-7","lat":35.73131422,"lon":139.22827732},{"name":"東町","province":"東京都","city":"あきる野市","address":"東京都あきる野市五日市164","lat":35.72992849,"lon":139.22599994},{"name":"五日市小学校入口","province":"東京都","city":"あきる野市","address":"東京都あきる野市五日市53","lat":35.72892884,"lon":139.22352813},{"name":"五日市給食センター入口","province":"東京都","city":"あきる野市","address":"東京都あきる野市五日市1140","lat":35.72706238,"lon":139.22383384},{"name":"西秋留","province":"東京都","city":"あきる野市","address":"東京都あきる野市雨間260","lat":35.72856131,"lon":139.28939962},{"name":"あきる野市役所秋川庁舎前","province":"東京都","city":"あきる野市","address":"東京都あきる野市二宮350","lat":35.72920304,"lon":139.29349922},{"name":"秋川駅前","province":"東京都","city":"あきる野市","address":"東京都あきる野市秋川2丁目1-6","lat":35.72876952,"lon":139.28645823},{"name":"秋川キララホール前","province":"東京都","city":"あきる野市","address":"東京都あきる野市秋川1丁目17-1","lat":35.73073043,"lon":139.28730808},{"name":"油平","province":"東京都","city":"あきる野市","address":"東京都あきる野市油平249","lat":35.7235118,"lon":139.28669168},{"name":"秋留台給水所","province":"東京都","city":"あきる野市","address":"東京都あきる野市秋川3丁目2-10","lat":35.73175243,"lon":139.28428611},{"name":"上代継浄水所","province":"東京都","city":"あきる野市","address":"東京都あきる野市上代継407","lat":35.71915367,"lon":139.2783759},{"name":"戸倉給水所","province":"東京都","city":"あきる野市","address":"東京都あきる野市戸倉348-1","lat":35.72646632,"lon":139.20192062},{"name":"伊奈配水所","province":"東京都","city":"あきる野市","address":"東京都あきる野市伊奈372-3","lat":35.7348678,"lon":139.25221118},{"name":"五日市警察署","province":"東京都","city":"あきる野市","address":"あきる野市五日市888-7","lat":35.72795,"lon":139.2168},{"name":"秋川消防署","province":"東京都","city":"あきる野市","address":"あきる野市伊奈466","lat":35.73449,"lon":139.2564},{"name":"五日市出張所入口","province":"東京都","city":"あきる野市","address":"東京都あきる野市五日市1","lat":35.72813464,"lon":139.22196731},{"name":"五日市駅前","province":"東京都","city":"あきる野市","address":"東京都あきる野市舘谷219-7","lat":35.73131422,"lon":139.22827732},{"name":"東町","province":"東京都","city":"あきる野市","address":"東京都あきる野市五日市164","lat":35.72992849,"lon":139.22599994},{"name":"五日市小学校入口","province":"東京都","city":"あきる野市","address":"東京都あきる野市五日市53","lat":35.72892884,"lon":139.22352813},{"name":"五日市給食センター入口","province":"東京都","city":"あきる野市","address":"東京都あきる野市五日市1140","lat":35.72706238,"lon":139.22383384},{"name":"西秋留","province":"東京都","city":"あきる野市","address":"東京都あきる野市雨間260","lat":35.72856131,"lon":139.28939962},{"name":"あきる野市役所秋川庁舎前","province":"東京都","city":"あきる野市","address":"東京都あきる野市二宮350","lat":35.72920304,"lon":139.29349922},{"name":"秋川駅前","province":"東京都","city":"あきる野市","address":"東京都あきる野市秋川2丁目1-6","lat":35.72876952,"lon":139.28645823},{"name":"秋川キララホール前","province":"東京都","city":"あきる野市","address":"東京都あきる野市秋川1丁目17-1","lat":35.73073043,"lon":139.28730808},{"name":"油平","province":"東京都","city":"あきる野市","address":"東京都あきる野市油平249","lat":35.7235118,"lon":139.28669168},{"name":"秋留台給水所","province":"東京都","city":"あきる野市","address":"東京都あきる野市秋川3丁目2-10","lat":35.73175243,"lon":139.28428611},{"name":"上代継浄水所","province":"東京都","city":"あきる野市","address":"東京都あきる野市上代継407","lat":35.71915367,"lon":139.2783759},{"name":"戸倉給水所","province":"東京都","city":"あきる野市","address":"東京都あきる野市戸倉348-1","lat":35.72646632,"lon":139.20192062},{"name":"伊奈配水所","province":"東京都","city":"あきる野市","address":"東京都あきる野市伊奈372-3","lat":35.7348678,"lon":139.25221118},{"name":"五日市警察署","province":"東京都","city":"あきる野市","address":"あきる野市五日市888-7","lat":35.72795,"lon":139.2168},{"name":"秋川消防署","province":"東京都","city":"あきる野市","address":"あきる野市伊奈466","lat":35.73449,"lon":139.2564}]}