{"keyword":"箇所","data":[{"name":"こもれびの郷","province":"東京都","city":"あきる野市","address":"東京都あきる野市雨間385-2","lat":35.72612827,"lon":139.2898441},{"name":"多摩川幼稚園","province":"東京都","city":"あきる野市","address":"東京都あきる野市雨間430","lat":35.72451742,"lon":139.29158566},{"name":"萩野センター","province":"東京都","city":"あきる野市","address":"東京都あきる野市雨間533","lat":35.72548684,"lon":139.29407707},{"name":"リーガルキャブ","province":"東京都","city":"あきる野市","address":"東京都あきる野市雨間582-5","lat":35.72699499,"lon":139.29399092},{"name":"南秋留児童館","province":"東京都","city":"あきる野市","address":"東京都あきる野市雨間801-2","lat":35.72073733,"lon":139.29209127},{"name":"南秋留小学校","province":"東京都","city":"あきる野市","address":"東京都あきる野市雨間810","lat":35.72095677,"lon":139.2927551},{"name":"鳥居場会館","province":"東京都","city":"あきる野市","address":"東京都あきる野市雨間1067-6","lat":35.72025986,"lon":139.29814354},{"name":"よつぎ第一保育園","province":"東京都","city":"あきる野市","address":"東京都あきる野市雨間1946","lat":35.71662667,"lon":139.29149979},{"name":"いきいきセンター","province":"東京都","city":"あきる野市","address":"東京都あきる野市雨間1946","lat":35.71662667,"lon":139.29149979},{"name":"東部図書館エル","province":"東京都","city":"あきる野市","address":"東京都あきる野市野辺39-27","lat":35.72519596,"lon":139.31565029},{"name":"前田小学校","province":"東京都","city":"あきる野市","address":"東京都あきる野市野辺92","lat":35.72350726,"lon":139.31466709},{"name":"前田児童館","province":"東京都","city":"あきる野市","address":"東京都あきる野市野辺126-4","lat":35.72310174,"lon":139.31365607},{"name":"東秋留駅","province":"東京都","city":"あきる野市","address":"東京都あきる野市野辺458","lat":35.7260735,"lon":139.31132281},{"name":"よつぎっ子えん東","province":"東京都","city":"あきる野市","address":"東京都あきる野市野辺462-17","lat":35.72635123,"lon":139.31077285},{"name":"リハビリデイサービス陽だまり村","province":"東京都","city":"あきる野市","address":"東京都あきる野市野辺578-1","lat":35.72392646,"lon":139.3080176},{"name":"東秋留保育園","province":"東京都","city":"あきる野市","address":"東京都あきる野市野辺1104","lat":35.72422906,"lon":139.30478453},{"name":"東秋留小学校","province":"東京都","city":"あきる野市","address":"東京都あきる野市野辺1123","lat":35.7243763,"lon":139.30554834},{"name":"若竹児童館","province":"東京都","city":"あきる野市","address":"東京都あきる野市野辺1123","lat":35.7243763,"lon":139.30554834},{"name":"野辺駐在所","province":"東京都","city":"あきる野市","address":"東京都あきる野市野辺1140","lat":35.72378475,"lon":139.30664826},{"name":"小川駐在所","province":"東京都","city":"あきる野市","address":"東京都あきる野市小川821-1","lat":35.7204272,"lon":139.31809193},{"name":"秋川ふれあいランド","province":"東京都","city":"あきる野市","address":"東京都あきる野市小川1343-101","lat":35.71683319,"lon":139.31693658},{"name":"日本アルミット（株）第一研究所","province":"東京都","city":"あきる野市","address":"東京都あきる野市小川東1丁目2-15","lat":35.71746943,"lon":139.32618864},{"name":"岡部製作所","province":"東京都","city":"あきる野市","address":"東京都あきる野市小川東1丁目2-20","lat":35.71682229,"lon":139.32607756},{"name":"星野小児科内科クリニック","province":"東京都","city":"あきる野市","address":"東京都あきる野市小川東1丁目19-20","lat":35.7183915,"lon":139.32492203},{"name":"日本アルミット（株）マイクロ接合研究所","province":"東京都","city":"あきる野市","address":"東京都あきる野市小川東1丁目23-14","lat":35.71603903,"lon":139.32490545},{"name":"玉見会館","province":"東京都","city":"あきる野市","address":"東京都あきる野市小川東2丁目9-8","lat":35.71923298,"lon":139.32099453},{"name":"ほうりんじ幼稚園","province":"東京都","city":"あきる野市","address":"東京都あきる野市小川東2丁目12-24","lat":35.71959678,"lon":139.31920021},{"name":"秋多中学校","province":"東京都","city":"あきる野市","address":"東京都あきる野市二宮334","lat":35.73098894,"lon":139.2937797},{"name":"あきる野市役所","province":"東京都","city":"あきる野市","address":"東京都あきる野市二宮350","lat":35.72920304,"lon":139.29349922},{"name":"秋留台学童クラブ","province":"東京都","city":"あきる野市","address":"東京都あきる野市二宮350","lat":35.72920304,"lon":139.29349922},{"name":"秋川健康会館","province":"東京都","city":"あきる野市","address":"東京都あきる野市二宮670","lat":35.72939777,"lon":139.30240956},{"name":"中央公民館","province":"東京都","city":"あきる野市","address":"東京都あきる野市二宮683","lat":35.73040042,"lon":139.30224009},{"name":"秋川体育館","province":"東京都","city":"あきる野市","address":"東京都あきる野市二宮683","lat":35.73040042,"lon":139.30224009},{"name":"秋川ファーマーズセンター","province":"東京都","city":"あきる野市","address":"東京都あきる野市二宮811","lat":35.72858971,"lon":139.30769802},{"name":"二宮地区会館","province":"東京都","city":"あきる野市","address":"東京都あきる野市二宮1151","lat":35.72737339,"lon":139.31347539},{"name":"二宮考古館","province":"東京都","city":"あきる野市","address":"東京都あきる野市二宮1151","lat":35.72737339,"lon":139.31347539},{"name":"二宮駐在所","province":"東京都","city":"あきる野市","address":"東京都あきる野市二宮2213","lat":35.72754851,"lon":139.3182278},{"name":"総合グラウンド（クラブハウス）","province":"東京都","city":"あきる野市","address":"東京都あきる野市二宮東1丁目11-2","lat":35.72458236,"lon":139.3234164},{"name":"屋城小学校","province":"東京都","city":"あきる野市","address":"東京都あきる野市二宮東1丁目12-1","lat":35.72389077,"lon":139.32312477},{"name":"屋城保育園","province":"東京都","city":"あきる野市","address":"東京都あきる野市二宮東1丁目12-9","lat":35.72401852,"lon":139.32260536},{"name":"屋城児童館（屋城学童クラブ）","province":"東京都","city":"あきる野市","address":"東京都あきる野市二宮東1丁目13-1","lat":35.72405185,"lon":139.32227761},{"name":"旧秋川図書館","province":"東京都","city":"あきる野市","address":"東京都あきる野市平沢32","lat":35.73062793,"lon":139.29530735},{"name":"秋川ふれあいセンター","province":"東京都","city":"あきる野市","address":"東京都あきる野市平沢175-4","lat":35.73252514,"lon":139.30191504},{"name":"東中学校","province":"東京都","city":"あきる野市","address":"東京都あきる野市平沢200","lat":35.73230853,"lon":139.3027872},{"name":"農業会館","province":"東京都","city":"あきる野市","address":"東京都あきる野市平沢300-2","lat":35.7318338,"lon":139.30920334},{"name":"草花台会館","province":"東京都","city":"あきる野市","address":"東京都あきる野市草花1327-1","lat":35.73627782,"lon":139.3139306},{"name":"草花苑","province":"東京都","city":"あきる野市","address":"東京都あきる野市草花1980","lat":35.7504954,"lon":139.30930269},{"name":"麦久保園","province":"東京都","city":"あきる野市","address":"東京都あきる野市草花2219","lat":35.74921769,"lon":139.30680295},{"name":"立川国際カントリークラブ","province":"東京都","city":"あきる野市","address":"東京都あきる野市草花2390","lat":35.75056749,"lon":139.30485031},{"name":"多西児童館","province":"東京都","city":"あきる野市","address":"東京都あきる野市草花2572","lat":35.74313209,"lon":139.29924825},{"name":"多西小学校","province":"東京都","city":"あきる野市","address":"東京都あきる野市草花2885","lat":35.74205169,"lon":139.30020376},{"name":"草花保育園","province":"東京都","city":"あきる野市","address":"東京都あきる野市草花3056","lat":35.73918824,"lon":139.30327026},{"name":"くさばな幼稚園","province":"東京都","city":"あきる野市","address":"東京都あきる野市草花3060","lat":35.73906327,"lon":139.30409796},{"name":"草花駐在所","province":"東京都","city":"あきる野市","address":"東京都あきる野市草花3062","lat":35.73882165,"lon":139.30426462},{"name":"老人保健施設さくら","province":"東京都","city":"あきる野市","address":"東京都あきる野市草花3079-5","lat":35.73781346,"lon":139.30490905},{"name":"草花小学校","province":"東京都","city":"あきる野市","address":"東京都あきる野市草花3130","lat":35.73606368,"lon":139.30494522},{"name":"草花児童センター（草花学童クラブ）","province":"東京都","city":"あきる野市","address":"東京都あきる野市草花3130","lat":35.73606368,"lon":139.30494522},{"name":"御堂中学校","province":"東京都","city":"あきる野市","address":"東京都あきる野市草花3322","lat":35.74091283,"lon":139.29623471},{"name":"御堂会館","province":"東京都","city":"あきる野市","address":"東京都あきる野市草花3482-16","lat":35.73892986,"lon":139.30037329},{"name":"菅生交流会館","province":"東京都","city":"あきる野市","address":"東京都あきる野市菅生582","lat":35.74384564,"lon":139.289488},{"name":"西多摩霊園管理事務所","province":"東京都","city":"あきる野市","address":"東京都あきる野市菅生716","lat":35.74685362,"lon":139.28909905},{"name":"菅生駐在所","province":"東京都","city":"あきる野市","address":"東京都あきる野市菅生733","lat":35.74761465,"lon":139.28968231},{"name":"和敬園","province":"東京都","city":"あきる野市","address":"東京都あきる野市菅生1159","lat":35.75077811,"lon":139.28644361},{"name":"松楓園コスモホーム","province":"東京都","city":"あきる野市","address":"東京都あきる野市菅生1159","lat":35.75077811,"lon":139.28644361},{"name":"東海大学菅生中学校","province":"東京都","city":"あきる野市","address":"東京都あきる野市菅生1468","lat":35.7561553,"lon":139.28712116},{"name":"菅生学園初等学校","province":"東京都","city":"あきる野市","address":"東京都あきる野市菅生1468","lat":35.7561553,"lon":139.28712116},{"name":"東海大学菅生高等学校","province":"東京都","city":"あきる野市","address":"東京都あきる野市菅生1817","lat":35.75682999,"lon":139.27777198},{"name":"長接骨院","province":"東京都","city":"あきる野市","address":"東京都あきる野市瀬戸岡146-1","lat":35.73579383,"lon":139.29036874},{"name":"特別養護老人ホーム南聖園","province":"東京都","city":"あきる野市","address":"東京都あきる野市瀬戸岡305-1","lat":35.73516598,"lon":139.28578863},{"name":"神明保育園","province":"東京都","city":"あきる野市","address":"東京都あきる野市瀬戸岡446","lat":35.7380935,"lon":139.2883994},{"name":"秋川あすなろ保育園","province":"東京都","city":"あきる野市","address":"東京都あきる野市原小宮2丁目6-6","lat":35.7340055,"lon":139.30160391},{"name":"秋川あすなろ保育園　赤ちゃんの家","province":"東京都","city":"あきる野市","address":"東京都あきる野市原小宮2丁目8-10","lat":35.73403884,"lon":139.30208442},{"name":"あきる野市民プール","province":"東京都","city":"あきる野市","address":"東京都あきる野市原小宮353","lat":35.73730502,"lon":139.29895402},{"name":"あきる野市民球場","province":"東京都","city":"あきる野市","address":"東京都あきる野市原小宮353","lat":35.73730502,"lon":139.29895402},{"name":"武蔵引田駅","province":"東京都","city":"あきる野市","address":"東京都あきる野市引田16","lat":35.72983836,"lon":139.2702014},{"name":"公立阿伎留医療センター","province":"東京都","city":"あきる野市","address":"東京都あきる野市引田78","lat":35.73181875,"lon":139.27214005},{"name":"秋川流域病児・病後児保育室ぬくもり","province":"東京都","city":"あきる野市","address":"東京都あきる野市引田79-1","lat":35.73310194,"lon":139.2725122},{"name":"秋川文化幼稚園","province":"東京都","city":"あきる野市","address":"東京都あきる野市引田388","lat":35.72656365,"lon":139.26826277},{"name":"楓ヶ原会館","province":"東京都","city":"あきる野市","address":"東京都あきる野市引田512-2","lat":35.72385008,"lon":139.26849891},{"name":"リバーサイドパーク一の谷","province":"東京都","city":"あきる野市","address":"東京都あきる野市引田776","lat":35.71849229,"lon":139.26700472},{"name":"一の谷児童館","province":"東京都","city":"あきる野市","address":"東京都あきる野市引田928","lat":35.72010334,"lon":139.27095989},{"name":"一の谷小学校","province":"東京都","city":"あきる野市","address":"東京都あきる野市引田980","lat":35.72024503,"lon":139.27191536},{"name":"老人保健施設 リハビリパークあきる野","province":"東京都","city":"あきる野市","address":"東京都あきる野市渕上1","lat":35.73284646,"lon":139.27380652},{"name":"渕上駐在所","province":"東京都","city":"あきる野市","address":"東京都あきる野市渕上196-1","lat":35.72568893,"lon":139.27370398},{"name":"開戸センター","province":"東京都","city":"あきる野市","address":"東京都あきる野市渕上332-1","lat":35.72260594,"lon":139.27377071},{"name":"西多摩療育支援センター","province":"東京都","city":"あきる野市","address":"東京都あきる野市上代継84-6","lat":35.73041076,"lon":139.27823952},{"name":"あきる野学園","province":"東京都","city":"あきる野市","address":"東京都あきる野市上代継123","lat":35.7306579,"lon":139.27656467},{"name":"西中学校","province":"東京都","city":"あきる野市","address":"東京都あきる野市上代継190","lat":35.72992747,"lon":139.27797845},{"name":"よつぎ第二保育園","province":"東京都","city":"あきる野市","address":"東京都あきる野市上代継218-1","lat":35.72758332,"lon":139.27900065},{"name":"西秋留小学校","province":"東京都","city":"あきる野市","address":"東京都あきる野市上代継292","lat":35.72354481,"lon":139.27651486},{"name":"西秋留保育園","province":"東京都","city":"あきる野市","address":"東京都あきる野市上代継300","lat":35.72289767,"lon":139.27711205},{"name":"若葉児童館","province":"東京都","city":"あきる野市","address":"東京都あきる野市上代継303-5","lat":35.7231421,"lon":139.27767587},{"name":"千代里会館","province":"東京都","city":"あきる野市","address":"東京都あきる野市上代継424","lat":35.72081181,"lon":139.27772037},{"name":"東京サマーランド","province":"東京都","city":"あきる野市","address":"東京都あきる野市上代継600","lat":35.71721174,"lon":139.26170243},{"name":"代継会館","province":"東京都","city":"あきる野市","address":"東京都あきる野市上代継693-1","lat":35.71885099,"lon":139.28021463},{"name":"奥村整形外科","province":"東京都","city":"あきる野市","address":"東京都あきる野市下代継19-1","lat":35.72360886,"lon":139.28253374},{"name":"秋川駅","province":"東京都","city":"あきる野市","address":"東京都あきる野市油平49","lat":35.72806682,"lon":139.28666934},{"name":"秋川駅前交番","province":"東京都","city":"あきる野市","address":"東京都あきる野市油平61-2","lat":35.72810018,"lon":139.28724984},{"name":"油平クラブハウス","province":"東京都","city":"あきる野市","address":"東京都あきる野市油平92-7","lat":35.7266198,"lon":139.28753597},{"name":"油平駐在所","province":"東京都","city":"あきる野市","address":"東京都あきる野市油平240-4","lat":35.72250637,"lon":139.28705001},{"name":"池田歯科医院","province":"東京都","city":"あきる野市","address":"東京都あきる野市油平263-1","lat":35.72258686,"lon":139.28550292},{"name":"あきる野とうきゅう","province":"東京都","city":"あきる野市","address":"東京都あきる野市秋川1丁目17-1","lat":35.73073043,"lon":139.28730808},{"name":"あきる野ルピア","province":"東京都","city":"あきる野市","address":"東京都あきる野市秋川1丁目8","lat":35.73015271,"lon":139.28710256},{"name":"子育てひろば　るぴああきる野っ子","province":"東京都","city":"あきる野市","address":"東京都あきる野市秋川1丁目8","lat":35.73015271,"lon":139.28710256},{"name":"子ども家庭支援センター","province":"東京都","city":"あきる野市","address":"東京都あきる野市秋川1丁目8","lat":35.73015271,"lon":139.28710256},{"name":"秋川キララホール","province":"東京都","city":"あきる野市","address":"東京都あきる野市秋川1丁目16-1","lat":35.73102765,"lon":139.2882802},{"name":"中央図書館","province":"東京都","city":"あきる野市","address":"東京都あきる野市秋川1丁目16-2","lat":35.73070826,"lon":139.28873295},{"name":"佐藤内科循環器クリニック","province":"東京都","city":"あきる野市","address":"東京都あきる野市秋川2丁目5-1","lat":35.72867227,"lon":139.28537222},{"name":"よつぎっ子えん西","province":"東京都","city":"あきる野市","address":"東京都あきる野市秋川2丁目7-4","lat":35.72927779,"lon":139.28651654},{"name":"東京都水道局あきる野SS","province":"東京都","city":"あきる野市","address":"東京都あきる野市秋川3丁目2-10","lat":35.73175243,"lon":139.28428611},{"name":"あきる野こどもの家","province":"東京都","city":"あきる野市","address":"東京都あきる野市秋川3丁目7-9","lat":35.73347447,"lon":139.2844527},{"name":"あきる野保健相談所","province":"東京都","city":"あきる野市","address":"東京都あきる野市秋川6丁目1-2","lat":35.72883906,"lon":139.28981625},{"name":"青梅信用金庫秋川支店","province":"東京都","city":"あきる野市","address":"東京都あきる野市秋川6丁目2-2","lat":35.72885301,"lon":139.29140499},{"name":"すもも木幼稚園","province":"東京都","city":"あきる野市","address":"東京都あきる野市秋川6丁目17-10","lat":35.73140272,"lon":139.29180487},{"name":"山田グラウンド管理事務所","province":"東京都","city":"あきる野市","address":"東京都あきる野市山田1-1","lat":35.72257487,"lon":139.25772755},{"name":"誠和保育園","province":"東京都","city":"あきる野市","address":"東京都あきる野市山田880","lat":35.72571619,"lon":139.25969956},{"name":"秋川幼稚園","province":"東京都","city":"あきる野市","address":"東京都あきる野市山田951","lat":35.72548285,"lon":139.25708032},{"name":"福楽園","province":"東京都","city":"あきる野市","address":"東京都あきる野市網代326-1","lat":35.71981401,"lon":139.25453895},{"name":"五日市カントリークラブ","province":"東京都","city":"あきる野市","address":"東京都あきる野市網代745","lat":35.71640895,"lon":139.25022007},{"name":"介護老人保健施設 オキドキ","province":"東京都","city":"あきる野市","address":"東京都あきる野市伊奈477-1","lat":35.73317083,"lon":139.25510813},{"name":"五日市ファインプラザ","province":"東京都","city":"あきる野市","address":"東京都あきる野市伊奈859-3","lat":35.72931573,"lon":139.25543038},{"name":"武蔵増戸駅","province":"東京都","city":"あきる野市","address":"東京都あきる野市伊奈873-2","lat":35.73084889,"lon":139.2559081},{"name":"増戸第１学童クラブ","province":"東京都","city":"あきる野市","address":"東京都あきる野市伊奈1157-5","lat":35.72745755,"lon":139.2475644},{"name":"増戸第２学童クラブ","province":"東京都","city":"あきる野市","address":"東京都あきる野市伊奈1157-5","lat":35.72745755,"lon":139.2475644},{"name":"五日市児童館増戸分館","province":"東京都","city":"あきる野市","address":"東京都あきる野市伊奈1173","lat":35.72802139,"lon":139.24781992},{"name":"増戸小学校","province":"東京都","city":"あきる野市","address":"東京都あきる野市伊奈1173","lat":35.72802139,"lon":139.24781992},{"name":"増戸中学校","province":"東京都","city":"あきる野市","address":"東京都あきる野市伊奈1181","lat":35.72824082,"lon":139.24969477},{"name":"伊奈駐在所","province":"東京都","city":"あきる野市","address":"東京都あきる野市伊奈1569","lat":35.72911314,"lon":139.24386752},{"name":"増戸保育園","province":"東京都","city":"あきる野市","address":"東京都あきる野市横沢134","lat":35.73234627,"lon":139.24147323},{"name":"金木犀の里","province":"東京都","city":"あきる野市","address":"東京都あきる野市三内489-1","lat":35.73712733,"lon":139.22924056},{"name":"五日市わかば保育園","province":"東京都","city":"あきる野市","address":"東京都あきる野市五日市98","lat":35.72882874,"lon":139.22475854},{"name":"五日市小学校","province":"東京都","city":"あきる野市","address":"東京都あきる野市五日市315","lat":35.73196474,"lon":139.22198905},{"name":"五日市児童館","province":"東京都","city":"あきる野市","address":"東京都あきる野市五日市315","lat":35.73196474,"lon":139.22198905},{"name":"五日市第１学童クラブ","province":"東京都","city":"あきる野市","address":"東京都あきる野市五日市315","lat":35.73196474,"lon":139.22198905},{"name":"五日市保育園","province":"東京都","city":"あきる野市","address":"東京都あきる野市五日市345","lat":35.73107857,"lon":139.22373341},{"name":"五日市図書館","province":"東京都","city":"あきる野市","address":"東京都あきる野市五日市368","lat":35.7298483,"lon":139.22226706},{"name":"希望の家","province":"東京都","city":"あきる野市","address":"東京都あきる野市五日市374-5","lat":35.72993987,"lon":139.2231475},{"name":"五日市中学校","province":"東京都","city":"あきる野市","address":"東京都あきる野市五日市400","lat":35.73035666,"lon":139.22102828},{"name":"あきる野市役所五日市出張所","province":"東京都","city":"あきる野市","address":"東京都あきる野市五日市411","lat":35.7294124,"lon":139.21998132},{"name":"五日市会館","province":"東京都","city":"あきる野市","address":"東京都あきる野市五日市412","lat":35.72977901,"lon":139.22012015},{"name":"五日市保健センター","province":"東京都","city":"あきる野市","address":"東京都あきる野市五日市414-5","lat":35.72967629,"lon":139.21948692},{"name":"子育てひろば　いつかいち","province":"東京都","city":"あきる野市","address":"東京都あきる野市五日市414-5","lat":35.72967629,"lon":139.21948692},{"name":"五日市第２学童クラブ","province":"東京都","city":"あきる野市","address":"東京都あきる野市五日市414-5","lat":35.72967629,"lon":139.21948692},{"name":"五日市警察署","province":"東京都","city":"あきる野市","address":"東京都あきる野市五日市888-7","lat":35.72795443,"lon":139.21681533},{"name":"五日市郷土館","province":"東京都","city":"あきる野市","address":"東京都あきる野市五日市920-1","lat":35.72842936,"lon":139.2169819},{"name":"黒茶屋","province":"東京都","city":"あきる野市","address":"東京都あきる野市小中野167","lat":35.72551071,"lon":139.20979446},{"name":"小和田グラウンド休憩所","province":"東京都","city":"あきる野市","address":"東京都あきる野市小和田8","lat":35.72234618,"lon":139.22531468},{"name":"第二紫水園","province":"東京都","city":"あきる野市","address":"東京都あきる野市小和田15-4","lat":35.72192404,"lon":139.22494533},{"name":"小和田会館","province":"東京都","city":"あきる野市","address":"東京都あきる野市小和田180-2","lat":35.72424918,"lon":139.21937368},{"name":"光明第六保育園","province":"東京都","city":"あきる野市","address":"東京都あきる野市留原50","lat":35.72325078,"lon":139.23451052},{"name":"留原駐在所","province":"東京都","city":"あきる野市","address":"東京都あきる野市留原266-2","lat":35.72273996,"lon":139.23191371},{"name":"紫水園","province":"東京都","city":"あきる野市","address":"東京都あきる野市留原396","lat":35.72017397,"lon":139.22823946},{"name":"秋川橋河川公園","province":"東京都","city":"あきる野市","address":"東京都あきる野市留原814","lat":35.72866739,"lon":139.22752211},{"name":"あたご苑ケアハウス","province":"東京都","city":"あきる野市","address":"東京都あきる野市入野599-1","lat":35.73609484,"lon":139.22158581},{"name":"特別養護老人ホーム　あたご苑","province":"東京都","city":"あきる野市","address":"東京都あきる野市入野811","lat":35.73625042,"lon":139.22091921},{"name":"戸倉しろやまテラス","province":"東京都","city":"あきる野市","address":"東京都あきる野市戸倉325","lat":35.72588857,"lon":139.20371761},{"name":"戸倉駐在所","province":"東京都","city":"あきる野市","address":"東京都あきる野市戸倉728-7","lat":35.73026313,"lon":139.20103967},{"name":"すぎの子保育園","province":"東京都","city":"あきる野市","address":"東京都あきる野市戸倉783","lat":35.73120752,"lon":139.19799828},{"name":"小宮駐在所","province":"東京都","city":"あきる野市","address":"東京都あきる野市乙津488-1","lat":35.73083462,"lon":139.18347957},{"name":"瀬音の湯","province":"東京都","city":"あきる野市","address":"東京都あきる野市乙津565","lat":35.7271631,"lon":139.18783828},{"name":"小宮ふるさと自然体験学校","province":"東京都","city":"あきる野市","address":"東京都あきる野市乙津1984","lat":35.73410089,"lon":139.18336243},{"name":"小宮会館","province":"東京都","city":"あきる野市","address":"東京都あきる野市乙津1997","lat":35.73357312,"lon":139.18294865},{"name":"武蔵五日市駅","province":"東京都","city":"あきる野市","address":"東京都あきる野市舘谷台16","lat":35.73236411,"lon":139.22816056},{"name":"五日市センター","province":"東京都","city":"あきる野市","address":"東京都あきる野市舘谷台17","lat":35.73198368,"lon":139.22732736},{"name":"五日市駅前交番","province":"東京都","city":"あきる野市","address":"東京都あきる野市舘谷台26","lat":35.73238903,"lon":139.22894104},{"name":"横河マニファクチャリング株式会社","province":"東京都","city":"あきる野市","address":"東京都あきる野市小峰台2","lat":35.72061506,"lon":139.23390247}]}