{"keyword":"総務","data":[{"name":"学校法人菅生学園初等学校校庭","province":"東京都","city":"あきる野市","address":"東京都あきる野市菅生1468","lat":35.7561553,"lon":139.28712116},{"name":"市民運動場","province":"東京都","city":"あきる野市","address":"東京都あきる野市二宮683","lat":35.73040042,"lon":139.30224009},{"name":"あきる野市立小和田グラウンド","province":"東京都","city":"あきる野市","address":"東京都あきる野市小和田8","lat":35.72234618,"lon":139.22531468},{"name":"富士通株式会社あきる野テクノロジーセンター駐車場","province":"東京都","city":"あきる野市","address":"東京都あきる野市渕上50","lat":35.73065782,"lon":139.27354552},{"name":"五日市カントリー","province":"東京都","city":"あきる野市","address":"東京都あきる野市網代745","lat":35.71640895,"lon":139.25022007},{"name":"立川国際カントリー","province":"東京都","city":"あきる野市","address":"東京都あきる野市草花2390","lat":35.75056749,"lon":139.30485031},{"name":"都立秋留台公園陸上競技場","province":"東京都","city":"あきる野市","address":"東京都あきる野市二宮","lat":35.72746496,"lon":139.31077004},{"name":"秋留台高等学校","province":"東京都","city":"あきる野市","address":"東京都あきる野市平沢153-4","lat":35.73220291,"lon":139.30067627},{"name":"五日市高等学校","province":"東京都","city":"あきる野市","address":"東京都あきる野市五日市894","lat":35.72940142,"lon":139.21780665}]}