{"keyword":"認可","data":[{"name":"増戸保育園","province":"東京都","city":"あきる野市","address":"あきる野市横沢134","lat":35.7345,"lon":139.23906},{"name":"誠和保育園","province":"東京都","city":"あきる野市","address":"あきる野市山田880","lat":35.72614,"lon":139.25955},{"name":"光明第六保育園","province":"東京都","city":"あきる野市","address":"あきる野市留原50","lat":35.72584,"lon":139.2328},{"name":"五日市保育園","province":"東京都","city":"あきる野市","address":"あきる野市五日市345","lat":35.73145,"lon":139.22261},{"name":"五日市わかば保育園","province":"東京都","city":"あきる野市","address":"あきる野市五日市98","lat":35.72849,"lon":139.22421},{"name":"すぎの子保育園","province":"東京都","city":"あきる野市","address":"あきる野市戸倉783","lat":35.73081,"lon":139.19795},{"name":"草花保育園","province":"東京都","city":"あきる野市","address":"あきる野市草花3056","lat":35.73984,"lon":139.30397},{"name":"神明保育園","province":"東京都","city":"あきる野市","address":"あきる野市瀬戸岡446","lat":35.73779,"lon":139.2878},{"name":"あきる野こどもの家","province":"東京都","city":"あきる野市","address":"あきる野市秋川三丁目7-9","lat":35.73357,"lon":139.28505},{"name":"秋川あすなろ保育園","province":"東京都","city":"あきる野市","address":"あきる野市原小宮二丁目6-6","lat":35.73383,"lon":139.3015},{"name":"屋城保育園","province":"東京都","city":"あきる野市","address":"あきる野市二宮東一丁目12-9","lat":35.72395,"lon":139.32265},{"name":"東秋留保育園","province":"東京都","city":"あきる野市","address":"あきる野市野辺1104","lat":35.72417,"lon":139.30569},{"name":"よつぎ第一保育園","province":"東京都","city":"あきる野市","address":"あきる野市雨間1067-6","lat":35.72025,"lon":139.29865},{"name":"よつぎ第二保育園","province":"東京都","city":"あきる野市","address":"あきる野市上代継218-1","lat":35.72375,"lon":139.27806},{"name":"西秋留保育園","province":"東京都","city":"あきる野市","address":"あきる野市上代継300","lat":35.72325,"lon":139.27663},{"name":"よつぎ第二保育園","province":"東京都","city":"あきる野市","address":"あきる野市上代継218-1","lat":35.727583,"lon":139.279001},{"name":"東秋留保育園","province":"東京都","city":"あきる野市","address":"あきる野市野辺1104","lat":35.72417,"lon":139.3057},{"name":"よつぎ第二保育園","province":"東京都","city":"あきる野市","address":"あきる野市上代継218-1","lat":35.72861,"lon":139.28226}]}