{"keyword":"避難","data":[{"name":"南秋留児童館","province":"東京都","city":"あきる野市","address":"東京都あきる野市雨間810-2","lat":35.720768,"lon":139.292057},{"name":"南秋留小学校校庭","province":"東京都","city":"あきる野市","address":"東京都あきる野市雨間810","lat":35.720445,"lon":139.292893},{"name":"南秋留小学校体育館","province":"東京都","city":"あきる野市","address":"東京都あきる野市雨間810","lat":35.721033,"lon":139.292765},{"name":"鳥居場会館","province":"東京都","city":"あきる野市","address":"東京都あきる野市雨間999-2","lat":35.71993,"lon":139.295949},{"name":"いきいきセンター","province":"東京都","city":"あきる野市","address":"東京都あきる野市雨間1946","lat":35.716691,"lon":139.291486},{"name":"東部図書館エル","province":"東京都","city":"あきる野市","address":"東京都あきる野市野辺39-27","lat":35.725409,"lon":139.315738},{"name":"前田小学校校庭","province":"東京都","city":"あきる野市","address":"東京都あきる野市野辺92","lat":35.723687,"lon":139.314779},{"name":"前田小学校体育館","province":"東京都","city":"あきる野市","address":"東京都あきる野市野辺92","lat":35.723992,"lon":139.314612},{"name":"前田児童館及び野辺地区会館","province":"東京都","city":"あきる野市","address":"東京都あきる野市野辺126-4","lat":35.723143,"lon":139.313696},{"name":"若竹児童館","province":"東京都","city":"あきる野市","address":"東京都あきる野市野辺1123","lat":35.724112,"lon":139.306609},{"name":"東秋留小学校校庭","province":"東京都","city":"あきる野市","address":"東京都あきる野市野辺1123","lat":35.724125,"lon":139.305684},{"name":"東秋留小学校体育館","province":"東京都","city":"あきる野市","address":"東京都あきる野市野辺1123","lat":35.724358,"lon":139.306392},{"name":"玉見会館","province":"東京都","city":"あきる野市","address":"東京都あきる野市小川東2-9-8","lat":35.719261,"lon":139.32101},{"name":"秋多中学校校庭","province":"東京都","city":"あきる野市","address":"東京都あきる野市二宮334","lat":35.730674,"lon":139.294331},{"name":"秋多中学校体育館","province":"東京都","city":"あきる野市","address":"東京都あきる野市二宮334","lat":35.73091,"lon":139.293449},{"name":"都立秋留台公園","province":"東京都","city":"あきる野市","address":"東京都あきる野市二宮673-1","lat":35.730472,"lon":139.298747},{"name":"秋川体育館","province":"東京都","city":"あきる野市","address":"東京都あきる野市二宮683","lat":35.730274,"lon":139.302358},{"name":"中央公民館","province":"東京都","city":"あきる野市","address":"東京都あきる野市二宮683","lat":35.730209,"lon":139.302605},{"name":"二宮地区会館","province":"東京都","city":"あきる野市","address":"東京都あきる野市二宮1151","lat":35.727411,"lon":139.313435},{"name":"総合グラウンド","province":"東京都","city":"あきる野市","address":"東京都あきる野市二宮東1-11-2","lat":35.724639,"lon":139.323336},{"name":"屋城小学校体育館","province":"東京都","city":"あきる野市","address":"東京都あきる野市二宮東1-12-1","lat":35.724442,"lon":139.323295},{"name":"屋城児童館","province":"東京都","city":"あきる野市","address":"東京都あきる野市二宮東1-13-1","lat":35.724095,"lon":139.322278},{"name":"都立秋留台高等学校校庭","province":"東京都","city":"あきる野市","address":"東京都あきる野市平沢153-4","lat":35.733064,"lon":139.300401},{"name":"東中学校校庭","province":"東京都","city":"あきる野市","address":"東京都あきる野市平沢200","lat":35.731872,"lon":139.302847},{"name":"東中学校体育館","province":"東京都","city":"あきる野市","address":"東京都あきる野市平沢200","lat":35.732764,"lon":139.302504},{"name":"農業会館","province":"東京都","city":"あきる野市","address":"東京都あきる野市平沢300-2","lat":35.731975,"lon":139.309202},{"name":"草花台会館","province":"東京都","city":"あきる野市","address":"東京都あきる野市草花1327-1","lat":35.736261,"lon":139.313947},{"name":"多西児童館","province":"東京都","city":"あきる野市","address":"東京都あきる野市草花2572","lat":35.743168,"lon":139.299136},{"name":"多西小学校校庭","province":"東京都","city":"あきる野市","address":"東京都あきる野市草花2885","lat":35.741667,"lon":139.300137},{"name":"多西小学校体育館","province":"東京都","city":"あきる野市","address":"東京都あきる野市草花2885","lat":35.742252,"lon":139.299321},{"name":"草花小学校校庭","province":"東京都","city":"あきる野市","address":"東京都あきる野市草花3130","lat":35.736689,"lon":139.305257},{"name":"草花小学校体育館","province":"東京都","city":"あきる野市","address":"東京都あきる野市草花3130","lat":35.736911,"lon":139.306212},{"name":"草花児童センター","province":"東京都","city":"あきる野市","address":"東京都あきる野市草花3130","lat":35.736036,"lon":139.305077},{"name":"御堂中学校校庭","province":"東京都","city":"あきる野市","address":"東京都あきる野市草花3322","lat":35.740516,"lon":139.296329},{"name":"御堂中学校体育館","province":"東京都","city":"あきる野市","address":"東京都あきる野市草花3322","lat":35.740951,"lon":139.296318},{"name":"御堂会館","province":"東京都","city":"あきる野市","address":"東京都あきる野市草花3482-16","lat":35.738915,"lon":139.30039},{"name":"菅生交流会館","province":"東京都","city":"あきる野市","address":"東京都あきる野市菅生582","lat":35.74385,"lon":139.289478},{"name":"市民球場","province":"東京都","city":"あきる野市","address":"東京都あきる野市原小宮353","lat":35.737139,"lon":35.737139},{"name":"楓ヶ原会館","province":"東京都","city":"あきる野市","address":"東京都あきる野市引田512-2","lat":35.723881,"lon":139.268548},{"name":"一の谷児童館","province":"東京都","city":"あきる野市","address":"東京都あきる野市引田928","lat":35.720108,"lon":139.270998},{"name":"一の谷小学校校庭","province":"東京都","city":"あきる野市","address":"東京都あきる野市引田980","lat":35.71994,"lon":139.272106},{"name":"一の谷小学校体育館","province":"東京都","city":"あきる野市","address":"東京都あきる野市引田980","lat":35.720716,"lon":139.272344},{"name":"西中学校校庭","province":"東京都","city":"あきる野市","address":"東京都あきる野市上代継190","lat":35.729566,"lon":139.27787},{"name":"西中学校体育館","province":"東京都","city":"あきる野市","address":"東京都あきる野市上代継190","lat":35.730092,"lon":139.277174},{"name":"西秋留小学校校庭","province":"東京都","city":"あきる野市","address":"東京都あきる野市上代継292","lat":35.72324,"lon":139.276374},{"name":"西秋留小学校体育館","province":"東京都","city":"あきる野市","address":"東京都あきる野市上代継292","lat":35.72314,"lon":139.27731},{"name":"若葉児童館","province":"東京都","city":"あきる野市","address":"東京都あきる野市上代継303-5","lat":35.723188,"lon":139.277674},{"name":"千代里会館","province":"東京都","city":"あきる野市","address":"東京都あきる野市上代継424","lat":35.720815,"lon":139.277704},{"name":"代継会館","province":"東京都","city":"あきる野市","address":"東京都あきる野市上代継693-1","lat":35.718869,"lon":139.280228},{"name":"油平クラブハウス","province":"東京都","city":"あきる野市","address":"東京都あきる野市油平92-7","lat":35.726655,"lon":139.287551},{"name":"あきる野ルピア３・４F","province":"東京都","city":"あきる野市","address":"東京都あきる野市秋川1-8","lat":35.729943,"lon":139.287079},{"name":"秋川キララホール","province":"東京都","city":"あきる野市","address":"東京都あきる野市秋川1-16-1","lat":35.731116,"lon":139.288312},{"name":"山田グラウンド","province":"東京都","city":"あきる野市","address":"東京都あきる野市山田1-1","lat":35.722229,"lon":139.257705},{"name":"森の下公園","province":"東京都","city":"あきる野市","address":"東京都あきる野市伊奈851-2","lat":35.729252,"lon":139.255804},{"name":"五日市ファインプラザ","province":"東京都","city":"あきる野市","address":"東京都あきる野市伊奈859-3","lat":35.729316,"lon":139.255367},{"name":"増戸会館","province":"東京都","city":"あきる野市","address":"東京都あきる野市伊奈1157-5","lat":35.727456,"lon":139.247595},{"name":"増戸小学校校庭","province":"東京都","city":"あきる野市","address":"東京都あきる野市伊奈1173","lat":35.727838,"lon":139.248499},{"name":"増戸小学校体育館","province":"東京都","city":"あきる野市","address":"東京都あきる野市伊奈1173","lat":35.727507,"lon":139.248027},{"name":"増戸中学校校庭","province":"東京都","city":"あきる野市","address":"東京都あきる野市伊奈1181","lat":35.727864,"lon":139.249507},{"name":"増戸中学校体育館","province":"東京都","city":"あきる野市","address":"東京都あきる野市伊奈1181","lat":35.72799,"lon":139.250411},{"name":"五日市小学校校庭","province":"東京都","city":"あきる野市","address":"東京都あきる野市五日市315","lat":35.731321,"lon":139.222369},{"name":"五日市小学校体育館","province":"東京都","city":"あきる野市","address":"東京都あきる野市五日市315","lat":35.731525,"lon":139.222975},{"name":"五日市中学校校庭","province":"東京都","city":"あきる野市","address":"東京都あきる野市五日市400","lat":35.729953,"lon":139.221355},{"name":"五日市中学校体育館","province":"東京都","city":"あきる野市","address":"東京都あきる野市五日市400","lat":35.73092,"lon":139.221505},{"name":"五日市地域交流センター","province":"東京都","city":"あきる野市","address":"東京都あきる野市五日市411","lat":35.729395,"lon":139.219959},{"name":"五日市会館","province":"東京都","city":"あきる野市","address":"東京都あきる野市五日市412","lat":35.729793,"lon":139.220094},{"name":"都立五日市高等学校校庭","province":"東京都","city":"あきる野市","address":"東京都あきる野市五日市894","lat":35.729385,"lon":139.218807},{"name":"小和田グラウンド","province":"東京都","city":"あきる野市","address":"東京都あきる野市小和田8","lat":35.722955,"lon":139.227264},{"name":"都立小峰公園","province":"東京都","city":"あきる野市","address":"東京都あきる野市留原284-1","lat":35.721067,"lon":139.231397},{"name":"小峰運動公園","province":"東京都","city":"あきる野市","address":"東京都あきる野市小峰台11","lat":35.720923,"lon":139.235503},{"name":"戸倉会館","province":"東京都","city":"あきる野市","address":"東京都あきる野市戸倉133-4","lat":35.726125,"lon":139.20471},{"name":"アートスタジオ五日市","province":"東京都","city":"あきる野市","address":"東京都あきる野市戸倉300","lat":35.727076,"lon":139.203973},{"name":"戸倉しろやまテラスグラウンド","province":"東京都","city":"あきる野市","address":"東京都あきる野市戸倉325","lat":35.725763,"lon":139.204292},{"name":"戸倉しろやまテラス体育館","province":"東京都","city":"あきる野市","address":"東京都あきる野市戸倉325","lat":35.725528,"lon":139.203936},{"name":"戸倉運動場","province":"東京都","city":"あきる野市","address":"東京都あきる野市戸倉611-1","lat":35.729824,"lon":139.199074},{"name":"ふるさと工房五日市","province":"東京都","city":"あきる野市","address":"東京都あきる野市乙津671","lat":35.723416,"lon":139.179061},{"name":"小宮ふるさと自然体験学校校庭","province":"東京都","city":"あきる野市","address":"東京都あきる野市乙津1984","lat":35.733999,"lon":139.1835},{"name":"小宮ふるさと自然体験学校2・3F","province":"東京都","city":"あきる野市","address":"東京都あきる野市乙津1984","lat":35.734153,"lon":139.183366},{"name":"小宮ふるさと自然体験学校体育館","province":"東京都","city":"あきる野市","address":"東京都あきる野市乙津1984","lat":35.734221,"lon":139.18401},{"name":"小宮会館","province":"東京都","city":"あきる野市","address":"東京都あきる野市乙津1997","lat":35.733729,"lon":139.18302},{"name":"養沢センター","province":"東京都","city":"あきる野市","address":"東京都あきる野市養沢290-1","lat":35.746541,"lon":139.185548}]}