{"keyword":"音響","data":[{"name":"五日市出張所入口","province":"東京都","city":"あきる野市","address":"東京都あきる野市五日市1","lat":35.72813464,"lon":139.22196731},{"name":"五日市駅前","province":"東京都","city":"あきる野市","address":"東京都あきる野市舘谷219-7","lat":35.73131422,"lon":139.22827732},{"name":"東町","province":"東京都","city":"あきる野市","address":"東京都あきる野市五日市164","lat":35.72992849,"lon":139.22599994},{"name":"五日市小学校入口","province":"東京都","city":"あきる野市","address":"東京都あきる野市五日市53","lat":35.72892884,"lon":139.22352813},{"name":"五日市給食センター入口","province":"東京都","city":"あきる野市","address":"東京都あきる野市五日市1140","lat":35.72706238,"lon":139.22383384},{"name":"西秋留","province":"東京都","city":"あきる野市","address":"東京都あきる野市雨間260","lat":35.72856131,"lon":139.28939962},{"name":"あきる野市役所秋川庁舎前","province":"東京都","city":"あきる野市","address":"東京都あきる野市二宮350","lat":35.72920304,"lon":139.29349922},{"name":"秋川駅前","province":"東京都","city":"あきる野市","address":"東京都あきる野市秋川2丁目1-6","lat":35.72876952,"lon":139.28645823},{"name":"秋川キララホール前","province":"東京都","city":"あきる野市","address":"東京都あきる野市秋川1丁目17-1","lat":35.73073043,"lon":139.28730808},{"name":"油平","province":"東京都","city":"あきる野市","address":"東京都あきる野市油平249","lat":35.7235118,"lon":139.28669168}]}