{"keyword":"館","data":[{"name":"五日市児童館","province":"東京都","city":"あきる野市","address":"あきる野市五日市315","lat":35.731965,"lon":139.221989},{"name":"多西児童館","province":"東京都","city":"あきる野市","address":"あきる野市草花2572","lat":35.743132,"lon":139.299248},{"name":"若竹児童館","province":"東京都","city":"あきる野市","address":"あきる野市野辺1123","lat":35.724376,"lon":139.305548},{"name":"南秋留児童館","province":"東京都","city":"あきる野市","address":"あきる野市雨間801-2","lat":35.720737,"lon":139.292086},{"name":"若葉児童館","province":"東京都","city":"あきる野市","address":"あきる野市上代継303-5","lat":35.723149,"lon":139.277697},{"name":"一の谷児童館","province":"東京都","city":"あきる野市","address":"あきる野市引田928","lat":35.720103,"lon":139.27096},{"name":"あきる野市中央図書館","province":"東京都","city":"あきる野市","address":"東京都あきる野市秋川1-16-2","lat":35.730708,"lon":139.288733},{"name":"あきる野市中央図書館増戸分室","province":"東京都","city":"あきる野市","address":"東京都あきる野市伊奈1157-5","lat":35.72746,"lon":139.247559},{"name":"あきる野市東部図書館エル","province":"東京都","city":"あきる野市","address":"東京都あきる野市野辺39-27","lat":35.725196,"lon":139.31565},{"name":"あきる野市五日市図書館","province":"東京都","city":"あきる野市","address":"東京都あきる野市五日市368","lat":35.729848,"lon":139.222267},{"name":"五日市児童館","province":"東京都","city":"あきる野市","address":"あきる野市五日市315","lat":35.73145,"lon":139.22261},{"name":"多西児童館","province":"東京都","city":"あきる野市","address":"あきる野市草花2572","lat":35.74402,"lon":139.29865},{"name":"若竹児童館","province":"東京都","city":"あきる野市","address":"あきる野市野辺1123","lat":35.72417,"lon":139.30569},{"name":"南秋留児童館","province":"東京都","city":"あきる野市","address":"あきる野市雨間801-2","lat":35.72052,"lon":139.29169},{"name":"若葉児童館","province":"東京都","city":"あきる野市","address":"あきる野市上代継303-5","lat":35.72325,"lon":139.27663},{"name":"一の谷児童館","province":"東京都","city":"あきる野市","address":"あきる野市引田928","lat":35.72004,"lon":139.27089},{"name":"若竹児童館","province":"東京都","city":"あきる野市","address":"あきる野市野辺1123","lat":35.72417,"lon":139.3057},{"name":"＊?東部図書館エル","province":"東京都","city":"あきる野市","address":"あきる野市野辺39-27","lat":35.725236,"lon":139.315717},{"name":"＊?五日市図書館","province":"東京都","city":"あきる野市","address":"あきる野市五日市368","lat":35.729872,"lon":139.222342},{"name":"＊?中央図書館??増戸分室","province":"東京都","city":"あきる野市","address":"あきる野市伊奈1157-5","lat":35.727463,"lon":139.247615},{"name":"＊?中央図書館","province":"東京都","city":"あきる野市","address":"あきる野市秋川1-16-2","lat":35.730652,"lon":139.288709}]}