{"keyword":"授産","data":[{"name":"中央区立福祉センターふれあい作業所","province":"東京都","city":"中央区","address":"中央区晴海1-4-1","lat":35.658851,"lon":139.785538},{"name":"自恵会向島生活舘","province":"東京都","city":"墨田区","address":"墨田区堤通1-14-7","lat":35.725074,"lon":139.810907},{"name":"渋谷区立幡ケ谷授産場","province":"東京都","city":"渋谷区","address":"渋谷区幡ヶ谷3-53-3","lat":35.681868,"lon":139.674152},{"name":"北区立王子授産場","province":"東京都","city":"北区","address":"北区王子2-19-20","lat":35.758664,"lon":139.736549},{"name":"北区社会事業協会授産所","province":"東京都","city":"北区","address":"北区神谷2-38-5","lat":35.772029,"lon":139.726105},{"name":"北区立桐ケ丘授産場","province":"東京都","city":"北区","address":"北区桐ケ丘2-7-22","lat":35.779677,"lon":139.707929},{"name":"荒川区立荒川授産場","province":"東京都","city":"荒川区","address":"荒川区東尾久4-32-7","lat":35.744634,"lon":139.766872},{"name":"足立区青井授産場","province":"東京都","city":"足立区","address":"足立区青井4-27-11","lat":35.775137,"lon":139.820163},{"name":"町田市授産場","province":"東京都","city":"町田市","address":"町田市忠生3-6-22","lat":35.57746,"lon":139.419097},{"name":"桜ケ丘共働学舎","province":"東京都","city":"町田市","address":"町田市小野路町2157","lat":35.594709,"lon":139.449684},{"name":"東村山市福祉作業所","province":"東京都","city":"東村山市","address":"東村山市諏訪町1-3-10","lat":35.76549,"lon":139.466672},{"name":"中央区立福祉センターふれあい作業所","province":"東京都","city":"中央区","address":"中央区晴海1-4-1","lat":35.65868,"lon":139.78584},{"name":"自恵会向島生活舘","province":"東京都","city":"墨田区","address":"墨田区堤通1-14-7","lat":35.72526,"lon":139.81079},{"name":"渋谷区立幡ケ谷授産場","province":"東京都","city":"渋谷区","address":"渋谷区幡ヶ谷3-53-3","lat":35.6812,"lon":139.6738},{"name":"北区立王子授産場","province":"東京都","city":"北区","address":"北区王子2-19-20","lat":35.75888,"lon":139.73642},{"name":"北区社会事業協会授産所","province":"東京都","city":"北区","address":"北区神谷2-38-5","lat":35.7722,"lon":139.72612},{"name":"北区立桐ケ丘授産場","province":"東京都","city":"北区","address":"北区桐ケ丘2-7-22","lat":35.77977,"lon":139.70773},{"name":"荒川区立荒川授産場","province":"東京都","city":"荒川区","address":"荒川区東尾久4-32-7","lat":35.74459,"lon":139.76688},{"name":"桜ケ丘共働学舎","province":"東京都","city":"町田市","address":"町田市小野路町2157","lat":35.60214,"lon":139.43965},{"name":"東村山市福祉作業所","province":"東京都","city":"東村山市","address":"東村山市諏訪町1-3-10","lat":35.76547,"lon":139.46674},{"name":"足立区青井授産場","province":"東京都","city":"足立区","address":"足立区青井4-27-11","lat":35.77508,"lon":139.81989},{"name":"東村山市福祉作業所（平成31年４月１日より休止中）","province":"東京都","city":"東村山市","address":"東村山市諏訪町1-3-10","lat":35.76549,"lon":139.466672}]}