{"keyword":"優待","data":[{"name":"恩賜上野動物園","province":"東京都","city":"台東区","address":"台東区上野公園9-83","lat":35.7158314,"lon":139.7727903},{"name":"多摩動物公園","province":"東京都","city":"日野市","address":"日野市程久保7-1-1","lat":35.6495375,"lon":139.4022017},{"name":"葛西臨海水族園","province":"東京都","city":"江戸川区","address":"江戸川区臨海町6-2-3","lat":35.6400947,"lon":139.8621658},{"name":"井の頭自然文化園","province":"東京都","city":"武蔵野市","address":"武蔵野市御殿山1-17-6","lat":35.7016361,"lon":139.5712436},{"name":"しながわ水族館","province":"東京都","city":"品川区","address":"品川区勝島3-2-1","lat":35.5884761,"lon":139.7375008},{"name":"出光美術館","province":"東京都","city":"千代田区","address":"千代田区丸の内3-1-1帝劇ビル9階","lat":35.676755,"lon":139.7608481},{"name":"山種美術館","province":"東京都","city":"渋谷区","address":"渋谷区広尾3-12-36","lat":35.6533231,"lon":139.7138333},{"name":"世田谷美術館","province":"東京都","city":"世田谷区","address":"世田谷区砧公園1-2","lat":35.6317714,"lon":139.6218564},{"name":"根津美術館","province":"東京都","city":"港区","address":"港区南青山6-5-1","lat":35.66222,"lon":139.717062},{"name":"日本民藝館","province":"東京都","city":"目黒区","address":"目黒区駒場4-3-33","lat":35.6608183,"lon":139.6792944},{"name":"横山大観記念館","province":"東京都","city":"台東区","address":"台東区池之端1-4-24","lat":35.7121631,"lon":139.7681831},{"name":"古代オリエント博物館","province":"東京都","city":"豊島区","address":"豊島区東池袋3-1-4文化会館7階","lat":35.7285317,"lon":139.720785},{"name":"紙の博物館","province":"東京都","city":"北区","address":"北区王子1-1-3飛鳥山公園内","lat":35.74988,"lon":139.738675},{"name":"三菱一号館美術館","province":"東京都","city":"千代田区","address":"東京都千代田区丸の内2丁目6-2","lat":35.67849868,"lon":139.76336665},{"name":"菊池寛実記念　智美術館","province":"東京都","city":"港区","address":"港区虎ノ門4-1-35","lat":35.6660086,"lon":139.7445164},{"name":"泉屋博古館東京","province":"東京都","city":"港区","address":"東京都港区六本木1丁目5-1","lat":35.66506625,"lon":139.74103572},{"name":"三井記念美術館","province":"東京都","city":"中央区","address":"中央区日本橋室町2-1-1三井会館7階","lat":35.686293,"lon":139.772996},{"name":"森美術館・東京シティビュー","province":"東京都","city":"港区","address":"港区六本木6-10-1六本木ヒルズ森タワー52階・53階","lat":35.6604283,"lon":139.7291817}]}