{"keyword":"保育","data":[{"name":"谷中保育園","province":"","city":"","address":"上野桜木2丁目16番10号","lat":35.72254338,"lon":139.7714448},{"name":"待乳保育園","province":"","city":"","address":"今戸2丁目26番12号","lat":35.72192514,"lon":139.8075529},{"name":"三筋保育園","province":"","city":"","address":"三筋2丁目16番4号","lat":35.70597524,"lon":139.7870846},{"name":"台東保育園","province":"","city":"","address":"台東1丁目11番10号","lat":35.7012655,"lon":139.7765454},{"name":"松が谷保育園","province":"","city":"","address":"松が谷4丁目15番11号","lat":35.71851406,"lon":139.7863338},{"name":"東上野保育園","province":"","city":"","address":"東上野2丁目25番12号","lat":35.70947479,"lon":139.7814947},{"name":"浅草橋保育園","province":"","city":"","address":"浅草橋2丁目23番5号","lat":35.70019583,"lon":139.7847452},{"name":"千束保育園","province":"","city":"","address":"千束3丁目20番6号","lat":35.7223237,"lon":139.7928029},{"name":"玉姫保育園","province":"","city":"","address":"清川2丁目22番16号","lat":35.72752406,"lon":139.8039028},{"name":"坂本保育園","province":"","city":"","address":"下谷3丁目11番2号","lat":35.72502352,"lon":139.7872334},{"name":"康保会乳児保育所","province":"","city":"","address":"日本堤2丁目7番1号","lat":35.72704308,"lon":139.797582},{"name":"花川戸保育園","province":"","city":"","address":"花川戸2丁目11番13号","lat":35.7148447,"lon":139.8004427},{"name":"共生保育園","province":"","city":"","address":"橋場1丁目10番11号","lat":35.72382468,"lon":139.8054629},{"name":"上野保育園","province":"","city":"","address":"東上野6丁目20番7号","lat":35.71477435,"lon":139.7838742},{"name":"立華学苑","province":"","city":"","address":"谷中5丁目4番19号","lat":35.72492291,"lon":139.766185},{"name":"清川保育園","province":"","city":"","address":"清川1丁目15番11号","lat":35.72495418,"lon":139.8028527},{"name":"康保会保育園","province":"","city":"","address":"日本堤1丁目6番2号","lat":35.72497344,"lon":139.7979422},{"name":"愛隣保育園","province":"","city":"","address":"根岸5丁目15番3号","lat":35.72761326,"lon":139.7881832},{"name":"東上野乳児保育園（公設民営）","province":"","city":"","address":"東上野4丁目22番3号","lat":35.71438433,"lon":139.7814944},{"name":"アスクくらまえ保育園","province":"","city":"","address":"蔵前4丁目16番10号","lat":35.70371136,"lon":139.7883809},{"name":"チェリッシュ浅草保育園","province":"","city":"","address":"浅草3丁目11番7号ウィスタリア1階・2階","lat":35.71727253,"lon":139.7935376},{"name":"ゆらりん上野保育園","province":"","city":"","address":"入谷2丁目1番8号グレンコート2階","lat":35.71841572,"lon":139.7890366},{"name":"ソラスト浅草","province":"","city":"","address":"花川戸1丁目15番9号パークサイド花川戸2階","lat":35.71415475,"lon":139.7983891},{"name":"ポピンズナーサリースクール駒形","province":"","city":"","address":"駒形1丁目4番7号バンダイアネックスビル2階","lat":35.70713559,"lon":139.7944208},{"name":"アスク浅草橋保育園","province":"","city":"","address":"浅草橋3丁目19番2号富士ビル2階","lat":35.70061813,"lon":139.7875485},{"name":"ぽけっとランド雷門","province":"","city":"","address":"雷門2丁目15番4号雷門ハイツ2階","lat":35.71028737,"lon":139.7946609},{"name":"ぽけっとランド入谷","province":"東京都","city":"台東区","address":"台東区北上野2丁目29番6号パルナシウス北上野1・2階","lat":35.71926152,"lon":139.7840589},{"name":"スターキッズ谷中保育園","province":"東京都","city":"台東区","address":"台東区谷中1丁目2番12号メゾンティーナ根津1階","lat":35.71880729,"lon":139.766716},{"name":"ぽけっとランド浅草タワー","province":"","city":"","address":"西浅草3丁目22番3号","lat":35.71585716,"lon":139.7901741},{"name":"はぐはぐキッズ浅草橋アネックス","province":"東京都","city":"台東区","address":"台東区浅草橋2丁目6番4号サンブリヤ浅草橋1階","lat":35.69913522,"lon":139.7842879},{"name":"ウィズブック保育園　入谷","province":"東京都","city":"台東区","address":"台東区松が谷4丁目1番3号高松ハイム1階","lat":35.71698022,"lon":139.7885749},{"name":"おうち保育園新おかちまち","province":"東京都","city":"台東区","address":"台東区三筋2丁目17番10号バムタイガー2階","lat":35.70587553,"lon":139.7866231},{"name":"はぐはぐキッズ浅草橋","province":"","city":"","address":"浅草橋2丁目7番1号山口ビル1階","lat":35.6989857,"lon":139.7840247},{"name":"ゆらりん竹町保育園","province":"東京都","city":"台東区","address":"台東区台東4丁目16番8号偕楽ビル新御徒町1・2階","lat":35.70626173,"lon":139.7797353},{"name":"ぽけっとランド浅草橋保育園","province":"東京都","city":"台東区","address":"台東区浅草橋5丁目25番10号浅草橋1stビル1~3階","lat":35.70157712,"lon":139.782972},{"name":"チェリッシュ上野の森保育園","province":"","city":"","address":"上野桜木2丁目1番3号","lat":35.72343206,"lon":139.7751166},{"name":"AIAI NURSERY　入谷","province":"東京都","city":"台東区","address":"台東区竜泉1丁目19番7号K・Kビル1・2階","lat":35.72362314,"lon":139.78958},{"name":"アスクりゅうほく保育園","province":"","city":"","address":"浅草橋1丁目26番8号","lat":35.6983945,"lon":139.7837614},{"name":"AIAI NURSERY　浅草","province":"東京都","city":"台東区","address":"台東区駒形1丁目7番11号東部浅草駒形1・2階","lat":35.70775882,"lon":139.7951276},{"name":"スターキッズ保育園　本園","province":"","city":"","address":"上野桜木2丁目1番8号フラッツ上野桜木1階","lat":35.72310513,"lon":139.7747577},{"name":"ベベ・ア・パリ保育園東上野","province":"","city":"","address":"東上野3丁目8番7号矢口ビル1階","lat":35.71052222,"lon":139.7806036},{"name":"うれしい保育園谷中","province":"東京都","city":"台東区","address":"台東区谷中7丁目13番2号","lat":35.7261639,"lon":139.7723919},{"name":"ビーフェア上野御徒町保育園","province":"東京都","city":"台東区","address":"台東区台東2丁目21番11号レ・ベント御徒町1階","lat":35.70378434,"lon":139.780325},{"name":"蔵前らる小規模保育園","province":"","city":"","address":"蔵前4丁目32番7号グレイス蔵前1階","lat":35.70599657,"lon":139.7902491},{"name":"ヤクルト浅草松が谷保育園","province":"","city":"","address":"松が谷2丁目16番3号ユーコート松が谷1階","lat":35.71362319,"lon":139.7867148},{"name":"ことぶきクローバーズ保育園","province":"","city":"","address":"寿2丁目3番6号松本ビル1階","lat":35.70885826,"lon":139.789757},{"name":"LIFE SCHOOL 根岸 こどものいえ","province":"東京都","city":"台東区","address":"台東区根岸4丁目15番13号","lat":35.72646527,"lon":139.7846123},{"name":"レイモンド鳥越保育園","province":"東京都","city":"台東区","address":"台東区鳥越2丁目6番2号","lat":35.70202259,"lon":139.7845203},{"name":"ソラスト竜泉保育園","province":"東京都","city":"台東区","address":"台東区竜泉3丁目13番4号","lat":35.72434452,"lon":139.7912308},{"name":"ふくろう保育園","province":"東京都","city":"台東区","address":"台東区蔵前1丁目3番33号BLESS蔵前1階","lat":35.70092356,"lon":139.7913135},{"name":"かるがもハウス浅草橋","province":"東京都","city":"台東区","address":"台東区浅草橋4丁目14番4号リブラン今井1階","lat":35.69841063,"lon":139.7809635},{"name":"御徒町保育室","province":"東京都","city":"台東区","address":"台東区上野5丁目21番5号","lat":35.70634808,"lon":139.7749775},{"name":"ミアヘルサ保育園ひびき浅草","province":"東京都","city":"台東区","address":"台東区西浅草3丁目19番3号","lat":35.71604466,"lon":139.7910083},{"name":"クオリスキッズ浅草橋保育園","province":"東京都","city":"台東区","address":"台東区柳橋2丁目5番3号","lat":35.69847587,"lon":139.7879772},{"name":"さくらさくみらい　入谷","province":"東京都","city":"台東区","address":"台東区入谷2丁目12番2号","lat":35.71966519,"lon":139.7890823},{"name":"えがおの森保育園・あさくさ","province":"東京都","city":"台東区","address":"台東区寿3丁目15番12号","lat":35.70754073,"lon":139.7936064},{"name":"こどもヶ丘保育園 根岸園","province":"東京都","city":"台東区","address":"台東区根岸3丁目1番10号アルス鶯谷1階","lat":35.7217385,"lon":139.78161},{"name":"あさくさあおぞらナーサリースクール","province":"東京都","city":"台東区","address":"台東区清川1丁目5番10号","lat":35.72323101,"lon":139.8021283},{"name":"チェリッシュおひさま保育園","province":"東京都","city":"台東区","address":"台東区浅草橋3丁目19番4号","lat":35.70074014,"lon":139.7871861},{"name":"ポピンズナーサリースクール蔵前","province":"東京都","city":"台東区","address":"台東区三筋1丁目7番9号","lat":35.70335918,"lon":139.7851785},{"name":"みつな保育園","province":"東京都","city":"台東区","address":"台東区雷門2丁目1番10号若山ビル1階","lat":35.70995373,"lon":139.7977193},{"name":"フレンドキッズランド三ノ輪園","province":"東京都","city":"台東区","address":"台東区三ノ輪1丁目22番10号岩出ビル1階","lat":35.72880703,"lon":139.7914468},{"name":"さくらさくみらい　下谷","province":"東京都","city":"台東区","address":"台東区下谷3丁目9番2号","lat":35.72446622,"lon":139.7864978},{"name":"さくらさくみらい　蔵前","province":"東京都","city":"台東区","address":"台東区蔵前1丁目7番10号","lat":35.70124682,"lon":139.7896369},{"name":"さくらさくみらい　谷中","province":"東京都","city":"台東区","address":"台東区谷中2丁目1番12号","lat":35.72098931,"lon":139.7655097},{"name":"うれしい保育園上野駅前","province":"東京都","city":"台東区","address":"台東区上野7丁目8番13号","lat":35.71477395,"lon":139.7792016},{"name":"北上野クローバー保育園","province":"東京都","city":"台東区","address":"台東区北上野2丁目18番8号","lat":35.71802031,"lon":139.7840014},{"name":"ベベ・ア・パリ保育園未来","province":"東京都","city":"台東区","address":"台東区台東3丁目34番5号島田ビル1階","lat":35.70546604,"lon":139.7794972},{"name":"北上野保育室","province":"東京都","city":"台東区","address":"台東区北上野2丁目24番13号","lat":35.71864526,"lon":139.7845331},{"name":"シンシア保育園","province":"東京都","city":"台東区","address":"台東区台東4丁目17番2号偕楽ビル1階","lat":35.70646746,"lon":139.7795992},{"name":"スターキッズ保育園　分園","province":"東京都","city":"台東区","address":"台東区上野桜木1丁目4番6号エアリーアベニュー上野桜木1階","lat":35.72088328,"lon":139.7723323},{"name":"ミアヘルサ保育園ひびき御徒町","province":"東京都","city":"台東区","address":"台東区東上野1丁目11番11号","lat":35.70805364,"lon":139.7785205},{"name":"チェリッシュ曳舟","province":"東京都","city":"墨田区","address":"墨田区京島一丁目36番1号","lat":35.717145,"lon":139.819611},{"name":"あい・あい保育園小村井園","province":"東京都","city":"墨田区","address":"墨田区立花五丁目24番11号","lat":35.7111135,"lon":139.8305581},{"name":"ぶどうの木保育室","province":"東京都","city":"墨田区","address":"墨田区東駒形四丁目4番8号","lat":35.705506,"lon":139.80511},{"name":"八広ぶどうの木保育室","province":"東京都","city":"墨田区","address":"墨田区八広六丁目37番5号","lat":35.725938,"lon":139.82901},{"name":"ちゃのま保育園","province":"東京都","city":"墨田区","address":"墨田区横川四丁目9番8号","lat":35.7051553,"lon":139.8160458},{"name":"キャリー保育園東向島","province":"東京都","city":"墨田区","address":"墨田区東向島5-36-10","lat":35.727296,"lon":139.823158},{"name":"じょうえん第2保育園","province":"東京都","city":"墨田区","address":"墨田区京島1-6-6-105","lat":35.716579,"lon":139.818508},{"name":"じょうえん第3保育園","province":"東京都","city":"墨田区","address":"墨田区京島1-6-6-106","lat":35.716684,"lon":139.818572},{"name":"墨田みどり保育園　第一大横川園","province":"東京都","city":"墨田区","address":"墨田区緑四丁目2番8号先","lat":35.693009,"lon":139.808686},{"name":"墨田みどり保育園　第二大横川園","province":"東京都","city":"墨田区","address":"墨田区緑四丁目2番8号先","lat":35.693009,"lon":139.808686},{"name":"未来っ子保育園東向島園","province":"東京都","city":"墨田区","address":"墨田区東向島五丁目18番1号","lat":35.725943,"lon":139.821553},{"name":"Jキッズピース三宿保育園","province":"東京都","city":"目黒区","address":"東京都目黒区東山二丁目26番","lat":35.644271,"lon":139.685148},{"name":"優っくり保育園","province":"東京都","city":"目黒区","address":"東京都目黒区中央町二丁目32番23号","lat":35.630871064,"lon":139.688117419},{"name":"学栄ナーサリー　目黒青葉台保育園","province":"東京都","city":"目黒区","address":"東京都目黒区青葉台三丁目10番9号","lat":35.650818667,"lon":139.690033753},{"name":"ビーフェア目黒保育園","province":"東京都","city":"目黒区","address":"東京都目黒区目黒二丁目12番16号","lat":35.634884797,"lon":139.70735945},{"name":"不動さつき保育園","province":"東京都","city":"目黒区","address":"東京都目黒区下目黒五丁目18番4号注記1","lat":35.630304328,"lon":139.702387011},{"name":"ビーフェア中町保育園","province":"東京都","city":"目黒区","address":"東京都目黒区中町一丁目25番16号","lat":35.629601047,"lon":139.698359306},{"name":"保育ルーム　目黒本町","province":"東京都","city":"目黒区","address":"東京都目黒区目黒本町六丁目13番20号","lat":35.621446606,"lon":139.69517445},{"name":"ベイビーワン","province":"東京都","city":"目黒区","address":"東京都目黒区鷹番一丁目15番3号","lat":35.625749161,"lon":139.685987992},{"name":"BUNBUN　GARDEN　学芸大学園","province":"東京都","city":"目黒区","address":"東京都目黒区鷹番三丁目14番4号","lat":35.629675203,"lon":139.684378592},{"name":"マザーグース都立大学園","province":"東京都","city":"目黒区","address":"東京都目黒区平町一丁目26番18号","lat":35.617667514,"lon":139.676533028},{"name":"ウィズブック保育園大岡山","province":"東京都","city":"目黒区","address":"東京都目黒区大岡山二丁目2番14号","lat":35.608166053,"lon":139.684353908},{"name":"モニカ緑が丘園","province":"東京都","city":"目黒区","address":"東京都目黒区緑が丘二丁目7番20号","lat":35.609630122,"lon":139.674427267},{"name":"木下の保育園　都立大学","province":"東京都","city":"目黒区","address":"東京都目黒区中根二丁目13番18号","lat":35.616622931,"lon":139.675509778},{"name":"学栄ナーサリー八雲保育園","province":"東京都","city":"目黒区","address":"東京都目黒区八雲一丁目12番9号","lat":35.616807789,"lon":139.672748522},{"name":"こどもヶ丘保育園学芸大学園","province":"東京都","city":"目黒区","address":"東京都目黒区碑文谷六丁目1番24号","lat":35.6271378,"lon":139.685099308},{"name":"みみよんルーム","province":"東京都","city":"目黒区","address":"東京都目黒区鷹番三丁目23番14号","lat":35.628327361,"lon":139.680641103},{"name":"コビースマイルキッズかみめぐろ","province":"東京都","city":"目黒区","address":"東京都目黒区上目黒五丁目26番6号","lat":35.641953119,"lon":139.687594433}]}