{"category":"wireless","data":[{"name":"下町風俗資料館","province":"東京都","city":"台東区","address":"東京都台東区上野公園2-1","lat":35.710231,"lon":139.77274},{"name":"下町風俗資料館付設展示場（旧吉田屋酒店）","province":"東京都","city":"台東区","address":"東京都台東区上野桜木2-10-6","lat":35.721353,"lon":139.770879},{"name":"朝倉彫塑館","province":"東京都","city":"台東区","address":"東京都台東区谷中7-18-10","lat":35.726894,"lon":139.76854},{"name":"書道博物館","province":"東京都","city":"台東区","address":"東京都台東区根岸2-10-4","lat":35.724731,"lon":139.776472},{"name":"一葉記念館","province":"東京都","city":"台東区","address":"東京都台東区竜泉3-18-4","lat":35.725598,"lon":139.792807},{"name":"隅田公園（リバーサイドギャラリー付近）","province":"東京都","city":"台東区","address":"東京都台東区花川戸1-1","lat":35.711261,"lon":139.79879},{"name":"隅田公園（案内所付近）","province":"東京都","city":"台東区","address":"東京都台東区花川戸1-1-22","lat":35.712932,"lon":139.80028},{"name":"隅田公園（公園管理事務所付近）","province":"東京都","city":"台東区","address":"東京都台東区花川戸2-1-13","lat":35.714704,"lon":139.802137},{"name":"上野中央通り地下駐車場","province":"東京都","city":"台東区","address":"東京都台東区上野2-13地先","lat":35.709993,"lon":139.773553},{"name":"雷門地下駐車場","province":"東京都","city":"台東区","address":"東京都台東区雷門2-18地先","lat":35.710148,"lon":139.796183},{"name":"根岸社会教育館","province":"東京都","city":"台東区","address":"東京都台東区根岸5-18-3","lat":35.729241,"lon":139.790459},{"name":"区役所本庁舎","province":"東京都","city":"台東区","address":"東京都台東区東上野4-5-6","lat":35.712647,"lon":139.779955},{"name":"台東リバーサイドスポーツセンター","province":"東京都","city":"台東区","address":"東京都台東区今戸1-1-10","lat":35.717556,"lon":139.804596},{"name":"台東区民会館","province":"東京都","city":"台東区","address":"東京都台東区花川戸2-6-5","lat":35.714499,"lon":139.798782},{"name":"環境ふれあい館ひまわり","province":"東京都","city":"台東区","address":"東京都台東区蔵前4-14-6","lat":35.703822,"lon":139.789705},{"name":"谷中防災コミュニティセンター","province":"東京都","city":"台東区","address":"東京都台東区谷中5-6-5","lat":35.725623,"lon":139.766453},{"name":"江戸たいとう伝統工芸館","province":"東京都","city":"台東区","address":"東京都台東区浅草2-22-13","lat":35.716406,"lon":139.793818},{"name":"柳北スポーツプラザ","province":"東京都","city":"台東区","address":"東京都台東区浅草橋5-1-8","lat":35.699292,"lon":139.78219},{"name":"中小企業振興センター","province":"東京都","city":"台東区","address":"東京都台東区小島2-9-18","lat":35.705925,"lon":139.784197},{"name":"台東一丁目区民館","province":"東京都","city":"台東区","address":"東京都台東区台東1-25-5","lat":35.701784,"lon":139.777959},{"name":"東上野区民館","province":"東京都","city":"台東区","address":"東京都台東区東上野3-24-6","lat":35.711293,"lon":139.779612},{"name":"生涯学習センター","province":"東京都","city":"台東区","address":"東京都台東区西浅草3-25-16","lat":35.717349,"lon":139.789926},{"name":"産業研修センター","province":"東京都","city":"台東区","address":"東京都台東区橋場1-36-2","lat":35.724042,"lon":139.808244},{"name":"浅草文化観光センター","province":"東京都","city":"台東区","address":"東京都台東区雷門2-18-9","lat":35.710679,"lon":139.796538},{"name":"隅田公園（山谷堀広場）","province":"東京都","city":"台東区","address":"東京都台東区浅草7-1","lat":35.716716,"lon":139.803719},{"name":"観光案内板（JR上野駅入谷口先）","province":"東京都","city":"台東区","address":"東京都台東区上野7-1先","lat":35.714691,"lon":139.778702},{"name":"観光案内板（上野広小路かねの鳴るまち入口）","province":"東京都","city":"台東区","address":"東京都台東区上野6-12先","lat":35.711145,"lon":139.775114},{"name":"観光案内板（おかちまちパンダ広場）","province":"東京都","city":"台東区","address":"東京都台東区上野7-1先","lat":35.706862,"lon":139.774389},{"name":"観光案内板（JR上野駅公園西側道路下）","province":"東京都","city":"台東区","address":"東京都台東区上野公園1-52","lat":35.712394,"lon":139.774902},{"name":"観光案内板（生涯学習センター前）","province":"東京都","city":"台東区","address":"東京都台東区西浅草3-25","lat":35.717472,"lon":139.78934},{"name":"観光案内板（吾妻橋詰隅田公園入り口）","province":"東京都","city":"台東区","address":"東京都台東区花川戸1-1","lat":35.71061,"lon":139.798218},{"name":"観光案内板（雷門2丁目）","province":"東京都","city":"台東区","address":"東京都台東区雷門2-19-10","lat":35.710724,"lon":139.796882},{"name":"観光案内板（駒形交差点）","province":"東京都","city":"台東区","address":"東京都台東区駒形1-12-14先","lat":35.708528,"lon":139.795763},{"name":"観光案内板（TX浅草駅A1出口前）","province":"東京都","city":"台東区","address":"東京都台東区浅草1-43-8先","lat":35.713437,"lon":139.792515},{"name":"観光案内板（TX浅草駅A2出口前）","province":"東京都","city":"台東区","address":"東京都台東区西浅草3-1-11先","lat":35.714022,"lon":139.792319},{"name":"観光案内板（言問橋西詰）","province":"東京都","city":"台東区","address":"東京都台東区花川戸2-16-1先","lat":35.714926,"lon":139.80145},{"name":"観光案内板（浅草高校前交差点）","province":"東京都","city":"台東区","address":"東京都台東区浅草6-45先","lat":35.719233,"lon":139.801801},{"name":"観光案内板（千束五差路）","province":"東京都","city":"台東区","address":"東京都台東区浅草3-42-6先","lat":35.71852,"lon":139.792833},{"name":"観光案内板（西浅草3交差点）","province":"東京都","city":"台東区","address":"東京都台東区西浅草3-28-21先","lat":35.717288,"lon":139.792366},{"name":"観光案内板（雷門1丁目交差点（北側））","province":"東京都","city":"台東区","address":"東京都台東区浅草1-10-2先","lat":35.71151,"lon":139.792325},{"name":"観光案内板（雷門1丁目交差点（南側））","province":"東京都","city":"台東区","address":"東京都台東区雷門1-16-7先","lat":35.711299,"lon":139.792347},{"name":"観光案内板（観音通り入口）","province":"東京都","city":"台東区","address":"東京都台東区浅草1-2-1先","lat":35.710928,"lon":139.796896},{"name":"観光案内板（花川戸公園乗降場）","province":"東京都","city":"台東区","address":"東京都台東区花川戸1-15","lat":35.714112,"lon":139.798735},{"name":"観光案内板（三ノ輪国際通り入り口）","province":"東京都","city":"台東区","address":"東京都台東区三ノ輪1-21-5","lat":35.728749,"lon":139.790875},{"name":"観光案内板（竜泉1丁目）","province":"東京都","city":"台東区","address":"東京都台東区竜泉1-34-13","lat":35.724561,"lon":139.790877},{"name":"観光案内板（JR浅草橋駅東口前）","province":"東京都","city":"台東区","address":"東京都台東区浅草橋1-18先","lat":35.697454,"lon":139.786231},{"name":"観光案内板（都営浅草線蔵前駅A4出口前）","province":"東京都","city":"台東区","address":"東京都台東区蔵前3-5先","lat":35.703819,"lon":139.791498},{"name":"観光案内板（谷中あかじ坂）","province":"東京都","city":"台東区","address":"東京都台東区谷中2-6-7先","lat":35.7212412,"lon":139.7650466},{"name":"観光案内板（駒形1丁目）","province":"東京都","city":"台東区","address":"東京都台東区駒形1-1-12","lat":35.705467,"lon":139.7934589},{"name":"観光案内板（駒形2丁目）","province":"東京都","city":"台東区","address":"東京都台東区駒形2-4-5","lat":35.7057131,"lon":139.7939926},{"name":"観光案内板（大関横丁交差点）","province":"東京都","city":"台東区","address":"東京都台東区三ノ輪1-28-15先","lat":35.7297597,"lon":139.7919602},{"name":"観光案内板（よみせ通りめぐりんバス停付近）","province":"東京都","city":"台東区","address":"東京都台東区谷中3-7付近","lat":35.7264517,"lon":139.764544},{"name":"観光案内板（谷中霊園付近）","province":"東京都","city":"台東区","address":"東京都台東区谷中7-3付近","lat":35.7228156,"lon":139.7702477},{"name":"ウェルカムボード（東武浅草駅前）","province":"東京都","city":"台東区","address":"東京都台東区花川戸1-1地先","lat":35.711134,"lon":139.7978979},{"name":"東武浅草駅観光バス待合所","province":"東京都","city":"台東区","address":"東京都台東区花川戸1-4-1","lat":35.712126,"lon":139.798694},{"name":"花川戸一丁目施設休憩所（閉鎖中）","province":"東京都","city":"台東区","address":"東京都台東区花川戸1-14-16","lat":35.713871,"lon":139.799428},{"name":"旧東京音楽学校奏楽堂","province":"東京都","city":"台東区","address":"東京都台東区上野公園8-43","lat":35.718251,"lon":139.77315},{"name":"老人福祉センター","province":"東京都","city":"台東区","address":"東京都台東区東上野2-25-14","lat":35.7095308,"lon":139.781636},{"name":"永寿総合病院","province":"東京都","city":"台東区","address":"東京都台東区東上野2丁目23-16","lat":35.7097486,"lon":139.77962864},{"name":"全国調理食品工業協同組合","province":"東京都","city":"台東区","address":"東京都台東区東上野3丁目1-10","lat":35.71013474,"lon":139.78245069},{"name":"都立上野恩賜公園","province":"東京都","city":"台東区","address":"東京都台東区上野公園8-51","lat":35.71725613,"lon":139.77445639},{"name":"全国調理食品工業協同組合","province":"東京都","city":"台東区","address":"東京都台東区東上野3丁目1-10","lat":35.71013474,"lon":139.78245069},{"name":"東京都美術館","province":"東京都","city":"台東区","address":"東京都台東区上野公園8-36","lat":35.71717831,"lon":139.77276484},{"name":"東京文化会館","province":"東京都","city":"台東区","address":"東京都台東区上野公園5-45","lat":35.71428974,"lon":139.77523145},{"name":"産業貿易センター台東館","province":"東京都","city":"台東区","address":"東京都台東区花川戸2丁目6-5","lat":35.71446242,"lon":139.79882124},{"name":"上野グリーンサロン","province":"東京都","city":"台東区","address":"東京都台東区上野公園7-47","lat":35.71500915,"lon":139.77625636},{"name":"浅草高等学校","province":"東京都","city":"台東区","address":"東京都台東区今戸1丁目8-13","lat":35.71908473,"lon":139.80254327},{"name":"忍岡高等学校","province":"東京都","city":"台東区","address":"東京都台東区浅草橋5丁目1-24","lat":35.70063851,"lon":139.78250968},{"name":"蔵前工業高等学校","province":"東京都","city":"台東区","address":"東京都台東区蔵前1丁目3-57","lat":35.70036646,"lon":139.79103716},{"name":"上野高等学校","province":"東京都","city":"台東区","address":"東京都台東区上野公園10-14","lat":35.71825035,"lon":139.76997053},{"name":"白鴎高等学校","province":"東京都","city":"台東区","address":"東京都台東区元浅草1丁目6-22","lat":35.70812107,"lon":139.78297858},{"name":"台東区本庁舎","province":"東京都","city":"台東区","address":"東京都台東区東上野4丁目5-6","lat":35.71261223,"lon":139.779984}]}