{"keyword":"し尿","data":[{"name":"台東区日本堤子ども家庭支援センター","province":"東京都","city":"台東区","address":"台東区日本堤2-25-8","lat":35.728119,"lon":139.797423},{"name":"台東保健所","province":"東京都","city":"台東区","address":"台東区東上野4-22-8","lat":35.71447,"lon":139.78152},{"name":"浅草保健相談センター","province":"東京都","city":"台東区","address":"台東区花川戸1-14-16","lat":35.713793,"lon":139.79963},{"name":"上野公園前交番裏","province":"東京都","city":"台東区","address":"東京都台東区上野公園1","lat":35.7112,"lon":139.77377},{"name":"JR上野駅（広小路口）ぺデストリアンデッキ上","province":"東京都","city":"台東区","address":"東京都台東区上野7丁目1","lat":35.71163,"lon":139.77628},{"name":"JR上野駅（浅草口）ペデストリアンデッキ上","province":"東京都","city":"台東区","address":"東京都台東区上野7丁目1","lat":35.71168,"lon":139.77726},{"name":"浅草寺境内 ①「二尊仏前」東","province":"東京都","city":"台東区","address":"東京都台東区浅草2丁目3","lat":35.71361,"lon":139.79737},{"name":"浅草寺境内 ②「観音前警備派出所」北","province":"東京都","city":"台東区","address":"東京都台東区浅草2丁目3","lat":35.71411,"lon":139.79726},{"name":"浅草寺境内 ③「北側トイレ」南","province":"東京都","city":"台東区","address":"東京都台東区浅草2丁目30","lat":35.71559,"lon":139.79706},{"name":"浅草寺境内 ④「はとバス駐車場」西","province":"東京都","city":"台東区","address":"東京都台東区浅草2丁目3","lat":35.71528,"lon":139.79597},{"name":"広徳公園内","province":"東京都","city":"台東区","address":"東京都台東区東上野4丁目5","lat":35.71248,"lon":139.78067},{"name":"池之端二丁目公衆トイレ横","province":"東京都","city":"台東区","address":"東京都台東区池之端2丁目4","lat":35.71358,"lon":139.76573},{"name":"本庁舎駐車場出口横","province":"東京都","city":"台東区","address":"東京都台東区東上野4丁目5","lat":35.712724,"lon":139.779469},{"name":"台東リバーサイドスポーツセンター体育館前","province":"東京都","city":"台東区","address":"東京都台東区今戸1丁目1","lat":35.717866,"lon":139.804235},{"name":"清川清掃車庫内","province":"東京都","city":"台東区","address":"東京都台東区清川2丁目24","lat":35.727847,"lon":139.805037},{"name":"鶯谷公園内","province":"東京都","city":"台東区","address":"東京都台東区根岸1丁目3","lat":35.721114,"lon":139.779621},{"name":"上野公園正岡子規記念球場横","province":"東京都","city":"台東区","address":"東京都台東区上野公園5","lat":35.714185,"lon":139.77416},{"name":"金竜公園内","province":"東京都","city":"台東区","address":"東京都台東区西浅草3丁目25","lat":35.716998,"lon":139.789717},{"name":"隅田公園内","province":"東京都","city":"台東区","address":"東京都台東区花川戸1丁目1","lat":35.712469,"lon":139.800097},{"name":"paspa 浅草橋","province":"東京都","city":"台東区","address":"東京都台東区柳橋2丁目6-8","lat":35.69849,"lon":139.78759},{"name":"ファミリーマート　台東一丁目店","province":"東京都","city":"台東区","address":"東京都台東区台東1丁目1-14","lat":35.70069,"lon":139.78038},{"name":"セブン-イレブン　東上野１丁目店","province":"東京都","city":"台東区","address":"東京都台東区東上野1丁目7-15","lat":35.70759,"lon":139.77987},{"name":"セブン-イレブン　台東松が谷１丁目店","province":"東京都","city":"台東区","address":"東京都台東区松が谷1丁目3-5","lat":35.71107,"lon":139.78613},{"name":"セブン-イレブン　田原町駅前店","province":"東京都","city":"台東区","address":"東京都台東区寿2丁目10-10","lat":35.70956,"lon":139.79066},{"name":"smokers peace in ミマツ書房","province":"東京都","city":"台東区","address":"東京都台東区台東3丁目44-4","lat":35.70564,"lon":139.77756},{"name":"ファミリーマート　台東四丁目店","province":"東京都","city":"台東区","address":"東京都台東区台東4丁目30-6","lat":35.70725,"lon":139.77768},{"name":"paspa 上野","province":"東京都","city":"台東区","address":"東京都台東区上野7丁目4-3","lat":35.71284,"lon":139.778},{"name":"paspa 御徒町","province":"東京都","city":"台東区","address":"東京都台東区上野6丁目9-1","lat":35.70902,"lon":139.77537},{"name":"SMOKING & COFFEE BAR SMOCO","province":"東京都","city":"台東区","address":"東京都台東区雷門2丁目19-10","lat":35.710627,"lon":139.79721},{"name":"アメ横センタービル喫煙所","province":"東京都","city":"台東区","address":"東京都台東区上野4丁目7-2","lat":35.709078,"lon":139.77454},{"name":"松葉公園内","province":"東京都","city":"台東区","address":"東京都台東区松が谷1丁目12","lat":35.712137,"lon":139.78738},{"name":"台東区","province":"東京都","city":"台東区","address":"台東区東上野4-5-6","lat":35.7126069,"lon":139.7799844},{"name":"台東都税事務所","province":"東京都","city":"台東区","address":"東京都台東区雷門1丁目6-1","lat":35.709883,"lon":139.792145},{"name":"東京都美術館","province":"東京都","city":"台東区","address":"東京都台東区上野公園8","lat":35.71702,"lon":139.7734},{"name":"東京都美術館","province":"東京都","city":"台東区","address":"東京都台東区上野公園8-36","lat":35.71733,"lon":139.773},{"name":"東京都美術館","province":"東京都","city":"台東区","address":"東京都台東区上野公園8","lat":35.7175,"lon":139.7734},{"name":"東京都美術館","province":"東京都","city":"台東区","address":"東京都台東区上野公園8","lat":35.71692,"lon":139.7733},{"name":"東京都美術館","province":"東京都","city":"台東区","address":"東京都台東区上野公園8","lat":35.71734,"lon":139.7731},{"name":"東京都美術館","province":"東京都","city":"台東区","address":"東京都台東区上野公園8-36","lat":35.71715,"lon":139.773},{"name":"東京都美術館","province":"東京都","city":"台東区","address":"東京都台東区上野公園8-36","lat":35.7173,"lon":139.7737},{"name":"東京都立産業貿易センター台東館","province":"東京都","city":"台東区","address":"東京都台東区花川戸2丁目6-5","lat":35.714557,"lon":139.798586},{"name":"上野恩賜公園","province":"東京都","city":"台東区","address":"東京都台東区上野公園2","lat":35.709934,"lon":139.77226},{"name":"上野恩賜公園","province":"東京都","city":"台東区","address":"東京都台東区上野公園5","lat":35.714929,"lon":139.774883},{"name":"上野恩賜公園","province":"東京都","city":"台東区","address":"東京都台東区上野公園5","lat":35.715083,"lon":139.774178},{"name":"上野恩賜公園","province":"東京都","city":"台東区","address":"東京都台東区上野公園8-22","lat":35.716179,"lon":139.774008},{"name":"上野恩賜公園","province":"東京都","city":"台東区","address":"東京都台東区上野公園8","lat":35.717272,"lon":139.774448},{"name":"上野恩賜公園","province":"東京都","city":"台東区","address":"東京都台東区上野公園8","lat":35.716084,"lon":139.775091},{"name":"上野恩賜公園","province":"東京都","city":"台東区","address":"東京都台東区上野公園5","lat":35.714369,"lon":139.773689},{"name":"上野恩賜公園","province":"東京都","city":"台東区","address":"東京都台東区上野公園6","lat":35.716127,"lon":139.77789},{"name":"旧岩崎邸庭園","province":"東京都","city":"台東区","address":"東京都台東区池之端1丁目3","lat":35.71008,"lon":139.766936},{"name":"谷中霊園","province":"東京都","city":"台東区","address":"東京都台東区谷中7丁目3","lat":35.724109,"lon":139.770446},{"name":"谷中霊園","province":"東京都","city":"台東区","address":"東京都台東区谷中7丁目9","lat":35.725155,"lon":139.770886},{"name":"恩賜上野動物園","province":"東京都","city":"台東区","address":"東京都台東区上野公園9","lat":35.715783,"lon":139.772458},{"name":"恩賜上野動物園","province":"東京都","city":"台東区","address":"東京都台東区上野公園9","lat":35.718068,"lon":139.77021},{"name":"恩賜上野動物園","province":"東京都","city":"台東区","address":"東京都台東区上野公園9","lat":35.71558,"lon":139.770162},{"name":"恩賜上野動物園","province":"東京都","city":"台東区","address":"東京都台東区上野公園9","lat":35.716861,"lon":139.772117},{"name":"恩賜上野動物園","province":"東京都","city":"台東区","address":"東京都台東区上野公園3","lat":35.714004,"lon":139.77106},{"name":"恩賜上野動物園","province":"東京都","city":"台東区","address":"東京都台東区上野公園3","lat":35.714582,"lon":139.768889},{"name":"恩賜上野動物園","province":"東京都","city":"台東区","address":"東京都台東区上野公園3","lat":35.713559,"lon":139.768683},{"name":"恩賜上野動物園","province":"東京都","city":"台東区","address":"東京都台東区上野公園3","lat":35.713928,"lon":139.768476},{"name":"恩賜上野動物園","province":"東京都","city":"台東区","address":"東京都台東区上野公園9","lat":35.716331,"lon":139.771635},{"name":"恩賜上野動物園","province":"東京都","city":"台東区","address":"東京都台東区上野公園9","lat":35.717151,"lon":139.771224},{"name":"恩賜上野動物園","province":"東京都","city":"台東区","address":"東京都台東区上野公園4","lat":35.712962,"lon":139.772114},{"name":"恩賜上野動物園","province":"東京都","city":"台東区","address":"東京都台東区上野公園3","lat":35.714609,"lon":139.769368},{"name":"恩賜上野動物園","province":"東京都","city":"台東区","address":"東京都台東区上野公園3","lat":35.714161,"lon":139.769895},{"name":"恩賜上野動物園","province":"東京都","city":"台東区","address":"東京都台東区上野公園9","lat":35.716119,"lon":139.770341},{"name":"都営浅草線浅草駅","province":"東京都","city":"台東区","address":"東京都台東区駒形2丁目7","lat":35.708607,"lon":139.795965},{"name":"都営浅草線浅草橋駅","province":"東京都","city":"台東区","address":"東京都台東区柳橋1丁目19","lat":35.697259,"lon":139.786265},{"name":"都営浅草線蔵前駅","province":"東京都","city":"台東区","address":"東京都台東区蔵前2丁目3","lat":35.70245,"lon":139.790144},{"name":"都営大江戸線上野御徒町駅","province":"東京都","city":"台東区","address":"東京都台東区上野4丁目4","lat":35.707908,"lon":139.773434},{"name":"都営大江戸線新御徒町駅","province":"東京都","city":"台東区","address":"東京都台東区元浅草1丁目5","lat":35.707094,"lon":139.781956},{"name":"都営大江戸線蔵前駅","province":"東京都","city":"台東区","address":"東京都台東区蔵前3丁目22","lat":35.705479,"lon":139.79241},{"name":"西部区民事務所（金杉区民館）","province":"東京都","city":"台東区","address":"東京都台東区下谷3丁目1-29","lat":35.723325,"lon":139.786116},{"name":"東京都台東区役所本庁舎","province":"東京都","city":"台東区","address":"東京都台東区東上野4丁目5-6","lat":35.712465,"lon":139.780394},{"name":"東京都台東区役所本庁舎","province":"東京都","city":"台東区","address":"東京都台東区東上野4丁目5-6","lat":35.712604,"lon":139.779521},{"name":"浅草橋地区センター（浅草橋区民館、中央図書館浅草橋分室併設）","province":"東京都","city":"台東区","address":"東京都台東区浅草橋2丁目8-7","lat":35.69953,"lon":139.783438},{"name":"南部区民事務所（寿区民館）","province":"東京都","city":"台東区","address":"東京都台東区寿1丁目10-12","lat":35.707281,"lon":139.788972},{"name":"台東区雷門地区センター","province":"東京都","city":"台東区","address":"東京都台東区浅草1丁目37-3","lat":35.712536,"lon":139.796114},{"name":"台東区役所北部区民事務所","province":"東京都","city":"台東区","address":"東京都台東区浅草4丁目48-1","lat":35.718265,"lon":139.798747},{"name":"台東区北部区民事務所清川分室（台東区立清川区民館）","province":"東京都","city":"台東区","address":"東京都台東区清川1丁目23-8","lat":35.725774,"lon":139.803084},{"name":"東上野地区センター（東上野区民館）","province":"東京都","city":"台東区","address":"東京都台東区東上野3丁目24-6","lat":35.711247,"lon":139.77961},{"name":"上野地区センター（上野区民館）","province":"東京都","city":"台東区","address":"東京都台東区池之端1丁目1-12","lat":35.709462,"lon":139.769186},{"name":"台東地区センター（台東一丁目区民館、台東こども家庭支援センター、たいとう地域包括支援センター）","province":"東京都","city":"台東区","address":"東京都台東区台東1丁目25-5","lat":35.701746,"lon":139.777731},{"name":"台東地区センター（台東一丁目区民館、台東こども家庭支援センター、たいとう地域包括支援センター）","province":"東京都","city":"台東区","address":"東京都台東区台東1丁目25-5","lat":35.701715,"lon":139.77809},{"name":"台東地区センター（台東一丁目区民館、台東こども家庭支援センター、たいとう地域包括支援センター）","province":"東京都","city":"台東区","address":"東京都台東区台東1丁目25-5","lat":35.701694,"lon":139.778162},{"name":"台東地区センター（台東一丁目区民館、台東こども家庭支援センター、たいとう地域包括支援センター）","province":"東京都","city":"台東区","address":"東京都台東区台東1丁目25-5","lat":35.701807,"lon":139.777731},{"name":"台東区西部区民事務所谷中分室","province":"東京都","city":"台東区","address":"東京都台東区谷中5丁目6-5","lat":35.72567,"lon":139.766775},{"name":"入谷地区センター(入谷区民館)","province":"東京都","city":"台東区","address":"東京都台東区入谷1丁目15-6","lat":35.72046,"lon":139.785786},{"name":"金杉区民館下谷分館","province":"東京都","city":"台東区","address":"東京都台東区下谷3丁目14-3","lat":35.725768,"lon":139.787269},{"name":"台東区立台東区民会館","province":"東京都","city":"台東区","address":"東京都台東区花川戸2丁目6-5","lat":35.714557,"lon":139.798586},{"name":"台東区立台東区民会館","province":"東京都","city":"台東区","address":"東京都台東区花川戸2丁目6-5","lat":35.714551,"lon":139.798613},{"name":"台東区立旧東京音楽学校奏楽堂","province":"東京都","city":"台東区","address":"東京都台東区上野公園8-43","lat":35.717934,"lon":139.773277},{"name":"社会教育センター","province":"東京都","city":"台東区","address":"東京都台東区東上野6丁目16-8","lat":35.713726,"lon":139.783333},{"name":"社会教育センター","province":"東京都","city":"台東区","address":"東京都台東区東上野6丁目16-8","lat":35.713532,"lon":139.783154},{"name":"台東保健所","province":"東京都","city":"台東区","address":"東京都台東区東上野4丁目22-8","lat":35.714603,"lon":139.781461},{"name":"浅草保健相談センター","province":"東京都","city":"台東区","address":"東京都台東区花川戸2丁目11-10","lat":35.714948,"lon":139.800534},{"name":"浅草保健相談センター","province":"東京都","city":"台東区","address":"東京都台東区花川戸2丁目11-10","lat":35.714926,"lon":139.80052},{"name":"浅草保健相談センター","province":"東京都","city":"台東区","address":"東京都台東区花川戸2丁目11-10","lat":35.714893,"lon":139.800513},{"name":"千束健康増進センター","province":"東京都","city":"台東区","address":"東京都台東区千束3丁目28-13","lat":35.723104,"lon":139.7936},{"name":"石浜図書館","province":"東京都","city":"台東区","address":"東京都台東区橋場1丁目35-1","lat":35.725439,"lon":139.80767},{"name":"台東区立下町風俗資料館","province":"東京都","city":"台東区","address":"東京都台東区上野公園2","lat":35.710275,"lon":139.772712},{"name":"台東区立旧東京音楽学校奏楽堂","province":"東京都","city":"台東区","address":"東京都台東区上野公園8-43","lat":35.71795,"lon":139.773251},{"name":"浅草文化観光センター","province":"東京都","city":"台東区","address":"東京都台東区雷門2丁目18-9","lat":35.710655,"lon":139.796528},{"name":"台東区立書道博物館","province":"東京都","city":"台東区","address":"東京都台東区根岸2丁目10-4","lat":35.724629,"lon":139.7764},{"name":"台東区立一葉記念館","province":"東京都","city":"台東区","address":"東京都台東区竜泉3丁目18-4","lat":35.725584,"lon":139.792816},{"name":"浅草文化観光センター","province":"東京都","city":"台東区","address":"東京都台東区雷門2丁目18-9","lat":35.71065,"lon":139.796586},{"name":"台東区　生涯学習センター","province":"東京都","city":"台東区","address":"東京都台東区西浅草3丁目25-15","lat":35.717181,"lon":139.789548},{"name":"浅草文化観光センター","province":"東京都","city":"台東区","address":"東京都台東区雷門2丁目18-9","lat":35.710628,"lon":139.796444},{"name":"江戸たいとう伝統工芸館","province":"東京都","city":"台東区","address":"東京都台東区浅草2丁目22-13","lat":35.716375,"lon":139.793804},{"name":"台東区立浅草公会堂","province":"東京都","city":"台東区","address":"東京都台東区浅草1丁目38-6","lat":35.712415,"lon":139.795263},{"name":"台東区　生涯学習センター","province":"東京都","city":"台東区","address":"東京都台東区西浅草3丁目25-15","lat":35.717331,"lon":139.790209},{"name":"台東区　生涯学習センター","province":"東京都","city":"台東区","address":"東京都台東区西浅草3丁目25-15","lat":35.717248,"lon":139.789665},{"name":"台東区　生涯学習センター","province":"東京都","city":"台東区","address":"東京都台東区西浅草3丁目25-16","lat":35.717479,"lon":139.789715},{"name":"台東区立　隅田公園","province":"東京都","city":"台東区","address":"東京都台東区浅草7丁目1","lat":35.716707,"lon":139.803709},{"name":"台東区　生涯学習センター","province":"東京都","city":"台東区","address":"東京都台東区西浅草3丁目25-15","lat":35.717191,"lon":139.789888},{"name":"台東区　生涯学習センター","province":"東京都","city":"台東区","address":"東京都台東区西浅草3丁目25-15","lat":35.717265,"lon":139.78967},{"name":"台東区　生涯学習センター","province":"東京都","city":"台東区","address":"東京都台東区西浅草3丁目25-15","lat":35.717187,"lon":139.789655},{"name":"台東区　生涯学習センター","province":"東京都","city":"台東区","address":"東京都台東区西浅草3丁目25-15","lat":35.717237,"lon":139.789561},{"name":"台東区立　日本堤公園","province":"東京都","city":"台東区","address":"東京都台東区東浅草2丁目27","lat":35.724093,"lon":139.798302},{"name":"台東区立　柳北公園","province":"東京都","city":"台東区","address":"東京都台東区浅草橋5丁目1","lat":35.699728,"lon":139.783124},{"name":"台東区立　東盛公園","province":"東京都","city":"台東区","address":"東京都台東区三ノ輪1丁目23","lat":35.728527,"lon":139.792865},{"name":"台東区立　西町公園","province":"東京都","city":"台東区","address":"東京都台東区東上野2丁目23","lat":35.709166,"lon":139.779855},{"name":"台東区立　石浜公園","province":"東京都","city":"台東区","address":"東京都台東区清川1丁目14","lat":35.724558,"lon":139.804204},{"name":"台東区立　精華公園","province":"東京都","city":"台東区","address":"東京都台東区蔵前4丁目15","lat":35.703788,"lon":139.789001},{"name":"台東区立　松葉公園","province":"東京都","city":"台東区","address":"東京都台東区松が谷1丁目12","lat":35.71192,"lon":139.787147},{"name":"台東区立　御徒町公園","province":"東京都","city":"台東区","address":"東京都台東区台東4丁目13","lat":35.706221,"lon":139.777882},{"name":"台東区立　金杉公園","province":"東京都","city":"台東区","address":"東京都台東区下谷3丁目5","lat":35.724096,"lon":139.785971},{"name":"台東区立　小島公園","province":"東京都","city":"台東区","address":"東京都台東区小島2丁目9","lat":35.705547,"lon":139.784256},{"name":"台東区立　金竜公園","province":"東京都","city":"台東区","address":"東京都台東区西浅草3丁目25","lat":35.716669,"lon":139.789993},{"name":"台東区立　花川戸公園","province":"東京都","city":"台東区","address":"東京都台東区花川戸2丁目5","lat":35.714127,"lon":139.799345},{"name":"台東区立　竹町公園","province":"東京都","city":"台東区","address":"東京都台東区台東4丁目21","lat":35.705571,"lon":139.780465},{"name":"台東区立　入谷南公園","province":"東京都","city":"台東区","address":"東京都台東区松が谷3丁目23","lat":35.71703,"lon":139.785577},{"name":"台東区立　大正公園","province":"東京都","city":"台東区","address":"東京都台東区入谷2丁目23","lat":35.721125,"lon":139.787707},{"name":"台東区立　谷中清水町公園","province":"東京都","city":"台東区","address":"東京都台東区谷中1丁目1","lat":35.720402,"lon":139.769419},{"name":"台東区立　隅田公園","province":"東京都","city":"台東区","address":"東京都台東区花川戸2丁目1","lat":35.71457,"lon":139.802278},{"name":"台東区立　隅田公園","province":"東京都","city":"台東区","address":"東京都台東区花川戸1丁目1","lat":35.712954,"lon":139.800301},{"name":"台東区立　御蔵前公園","province":"東京都","city":"台東区","address":"東京都台東区蔵前1丁目4","lat":35.700469,"lon":139.789263},{"name":"台東区立　隅田公園","province":"東京都","city":"台東区","address":"東京都台東区花川戸1丁目1-1","lat":35.710816,"lon":139.798564},{"name":"台東区立　山谷堀公園","province":"東京都","city":"台東区","address":"東京都台東区浅草6丁目45","lat":35.719174,"lon":139.801685},{"name":"台東区立　金曽木公園","province":"東京都","city":"台東区","address":"東京都台東区根岸4丁目16","lat":35.725733,"lon":139.784555},{"name":"寛永寺前公衆トイレ","province":"東京都","city":"台東区","address":"東京都台東区上野桜木2丁目6","lat":35.722391,"lon":139.773811},{"name":"台東区立　黒門児童遊園","province":"東京都","city":"台東区","address":"東京都台東区上野1丁目19","lat":35.706647,"lon":139.772231},{"name":"台東区立　千束公園","province":"東京都","city":"台東区","address":"東京都台東区浅草4丁目24","lat":35.718532,"lon":139.793792},{"name":"台東区立　根岸公園","province":"東京都","city":"台東区","address":"東京都台東区根岸4丁目16","lat":35.72565,"lon":139.785561},{"name":"台東区立　浅草橋公園","province":"東京都","city":"台東区","address":"東京都台東区浅草橋1丁目1","lat":35.696161,"lon":139.785263},{"name":"千束１丁目公衆トイレ","province":"東京都","city":"台東区","address":"東京都台東区千束1丁目19","lat":35.720657,"lon":139.791382},{"name":"西郷銅像下公衆トイレ","province":"東京都","city":"台東区","address":"東京都台東区上野公園1","lat":35.710886,"lon":139.773818},{"name":"木馬館前公衆トイレ","province":"東京都","city":"台東区","address":"東京都台東区浅草2丁目3","lat":35.714293,"lon":139.795141},{"name":"駒形橋際公衆トイレ","province":"東京都","city":"台東区","address":"東京都台東区雷門2丁目1","lat":35.708777,"lon":139.796763},{"name":"台東区立寿子ども家庭支援センター","province":"東京都","city":"台東区","address":"東京都台東区寿1丁目10-9","lat":35.70715,"lon":139.78903},{"name":"台東区立環境ふれあい館ひまわり","province":"東京都","city":"台東区","address":"東京都台東区蔵前4丁目14-6","lat":35.703714,"lon":139.789787},{"name":"東京都台東区立老人福祉センター","province":"東京都","city":"台東区","address":"東京都台東区東上野2丁目25-12","lat":35.709605,"lon":139.781388},{"name":"田中スポーツプラザ","province":"東京都","city":"台東区","address":"東京都台東区日本堤2丁目25-8","lat":35.72795,"lon":139.797233},{"name":"（有）竹内商店","province":"東京都","city":"台東区","address":"東京都台東区谷中6丁目3-9","lat":35.72346374,"lon":139.76886213},{"name":"（株）信興会","province":"東京都","city":"台東区","address":"東京都台東区上野桜木2丁目10-14","lat":35.72155569,"lon":139.77164258},{"name":"（株）そうかみ","province":"東京都","city":"台東区","address":"東京都台東区池之端4丁目18-4","lat":35.71952798,"lon":139.76941496},{"name":"（有）小泉桶甚本店","province":"東京都","city":"台東区","address":"東京都台東区下谷1丁目11-15","lat":35.71947836,"lon":139.78313624},{"name":"（有）鳥居本店","province":"東京都","city":"台東区","address":"東京都台東区下谷1丁目11-4","lat":35.7193256,"lon":139.78283349},{"name":"（有）染木商店","province":"東京都","city":"台東区","address":"東京都台東区竜泉1丁目22-6","lat":35.72426409,"lon":139.78956594},{"name":"（有）堀込葬祭","province":"東京都","city":"台東区","address":"東京都台東区千束3丁目16-5","lat":35.72160323,"lon":139.791427},{"name":"（有）小林花環店","province":"東京都","city":"台東区","address":"東京都台東区千束4丁目51-11","lat":35.72585259,"lon":139.79594269},{"name":"誠実屋　伊藤","province":"東京都","city":"台東区","address":"東京都台東区東浅草2丁目15-12","lat":35.72367021,"lon":139.80124868},{"name":"（有）金子商店","province":"東京都","city":"台東区","address":"東京都台東区清川1丁目33-5","lat":35.72612004,"lon":139.80211256},{"name":"（有）根岸商店","province":"東京都","city":"台東区","address":"東京都台東区今戸2丁目23-3","lat":35.72157095,"lon":139.80503222},{"name":"（有）川﨑商店","province":"東京都","city":"台東区","address":"東京都台東区西浅草2丁目3-13","lat":35.71233743,"lon":139.79016105},{"name":"（株）葬儀のうはら","province":"東京都","city":"台東区","address":"東京都台東区蔵前3丁目19-6","lat":35.70564366,"lon":139.79141157},{"name":"鳥越葬儀社神商店","province":"東京都","city":"台東区","address":"東京都台東区鳥越1丁目2-2","lat":35.70213558,"lon":139.78329568},{"name":"（有）東都葬祭福井","province":"東京都","city":"台東区","address":"東京都台東区台東3丁目42-4","lat":35.70558783,"lon":139.7763957},{"name":"台東保健所","province":"東京都","city":"台東区","address":"東京都台東区東上野4丁目22-8","lat":35.71447043,"lon":139.78151994},{"name":"浅草保健相談センター","province":"東京都","city":"台東区","address":"東京都台東区花川戸2丁目11-10","lat":35.71488192,"lon":139.80042386},{"name":"台東保健所","province":"東京都","city":"台東区","address":"台東区東上野4-22-8","lat":35.71452,"lon":139.78156},{"name":"浅草保健相談センター","province":"東京都","city":"台東区","address":"台東区花川戸2-11-10","lat":35.7147,"lon":139.80031},{"name":"台東区日本堤子ども家庭支援センター","province":"東京都","city":"台東区","address":"台東区日本堤2-25-8","lat":35.72813,"lon":139.79745},{"name":"台東区日本堤子ども家庭支援センター","province":"東京都","city":"台東区","address":"台東区日本堤2-25-8","lat":35.72813,"lon":139.79746},{"name":"北部区民事務所清川分室","province":"東京都","city":"台東区","address":"台東区清川1丁目23番8号","lat":35.72577082,"lon":139.8030813},{"name":"南部区民事務所","province":"東京都","city":"台東区","address":"台東区寿1丁目10番12号","lat":35.70725514,"lon":139.7888844},{"name":"北部区民事務所","province":"東京都","city":"台東区","address":"台東区浅草4丁目48番1号","lat":35.71823439,"lon":139.7987528},{"name":"西部区民事務所","province":"東京都","city":"台東区","address":"台東区下谷3丁目1番30号","lat":35.7230737,"lon":139.7860737},{"name":"西部区民事務所谷中分室","province":"東京都","city":"台東区","address":"台東区谷中5丁目6番5号","lat":35.72544479,"lon":139.766572},{"name":"警視庁第六方面本部","province":"東京都","city":"台東区","address":"台東区東浅草2丁目27番12号","lat":35.72453376,"lon":139.7978665},{"name":"(株)國光  東京事業所","province":"東京都","city":"台東区","address":"台東区三ノ輪1-5-3","lat":35.72707,"lon":139.792801},{"name":"(株)協和","province":"東京都","city":"台東区","address":"台東区根岸5-7-9","lat":35.727386,"lon":139.784256},{"name":"山仁紙業(株)  本社","province":"東京都","city":"台東区","address":"台東区三筋1-10-12","lat":35.704292,"lon":139.784851},{"name":"(有)北信紙業","province":"東京都","city":"台東区","address":"台東区松が谷3-3-9","lat":35.715282,"lon":139.787811},{"name":"(株)ノボル紙業","province":"東京都","city":"台東区","address":"台東区竜泉3-9-2","lat":35.724674,"lon":139.792496},{"name":"(有)近藤紙業","province":"東京都","city":"台東区","address":"台東区松が谷1-5-8","lat":35.71175,"lon":139.785522},{"name":"台東区選挙管理委員会","province":"東京都","city":"台東区","address":"台東区東上野4-5-6","lat":35.712601,"lon":139.779959},{"name":"台東区本庁舎","province":"東京都","city":"台東区","address":"台東区東上野4-5-6","lat":35.712607,"lon":139.779984},{"name":"第六方面本部","province":"東京都","city":"台東区","address":"台東区東浅草2-27-12","lat":35.7245,"lon":139.7979},{"name":"浅草警察署","province":"東京都","city":"台東区","address":"台東区浅草4-47-11","lat":35.71899,"lon":139.7978},{"name":"上野警察署","province":"東京都","city":"台東区","address":"台東区東上野4-2-4","lat":35.71233,"lon":139.7795},{"name":"蔵前警察署","province":"東京都","city":"台東区","address":"台東区蔵前1-3-24","lat":35.70126,"lon":139.7899},{"name":"下谷警察署","province":"東京都","city":"台東区","address":"台東区下谷3-15-9","lat":35.72605,"lon":139.7879},{"name":"第六消防方面本部","province":"東京都","city":"台東区","address":"台東区蔵前2-10-9","lat":35.70368,"lon":139.7935},{"name":"浅草消防署","province":"東京都","city":"台東区","address":"台東区駒形1-5-8","lat":35.70743,"lon":139.7941},{"name":"上野消防署","province":"東京都","city":"台東区","address":"台東区東上野5-2-9","lat":35.71212,"lon":139.781},{"name":"日本堤消防署","province":"東京都","city":"台東区","address":"台東区千束4-1-1","lat":35.72342,"lon":139.798},{"name":"永寿総合病院ヘリポート","province":"東京都","city":"台東区","address":"台東区東上野2-23-16","lat":35.709749,"lon":139.779629},{"name":"都立上野恩賜公園野球場","province":"東京都","city":"台東区","address":"台東区上野公園","lat":35.71812,"lon":139.7779},{"name":"桜橋","province":"東京都","city":"台東区","address":"台東区今戸1丁目地先","lat":35.71942,"lon":139.8043},{"name":"浅草","province":"東京都","city":"台東区","address":"台東区花川戸1丁目地先","lat":35.71373,"lon":139.7991},{"name":"東部公園緑地事務所","province":"東京都","city":"台東区","address":"台東区上野公園7-47","lat":35.71501,"lon":139.7763},{"name":"台東区日本堤子ども家庭支援センター","province":"東京都","city":"台東区","address":"台東区日本堤2-25-8","lat":35.728119,"lon":139.797423},{"name":"台東保健所","province":"東京都","city":"台東区","address":"台東区東上野4-22-8","lat":35.71447,"lon":139.78152},{"name":"浅草保健相談センター","province":"東京都","city":"台東区","address":"台東区花川戸1-14-16","lat":35.713793,"lon":139.79963},{"name":"上野公園前交番裏","province":"東京都","city":"台東区","address":"東京都台東区上野公園1","lat":35.7112,"lon":139.77377},{"name":"JR上野駅（広小路口）ぺデストリアンデッキ上","province":"東京都","city":"台東区","address":"東京都台東区上野7丁目1","lat":35.71163,"lon":139.77628},{"name":"JR上野駅（浅草口）ペデストリアンデッキ上","province":"東京都","city":"台東区","address":"東京都台東区上野7丁目1","lat":35.71168,"lon":139.77726},{"name":"浅草寺境内 ①「二尊仏前」東","province":"東京都","city":"台東区","address":"東京都台東区浅草2丁目3","lat":35.71361,"lon":139.79737},{"name":"浅草寺境内 ②「観音前警備派出所」北","province":"東京都","city":"台東区","address":"東京都台東区浅草2丁目3","lat":35.71411,"lon":139.79726},{"name":"浅草寺境内 ③「北側トイレ」南","province":"東京都","city":"台東区","address":"東京都台東区浅草2丁目30","lat":35.71559,"lon":139.79706},{"name":"浅草寺境内 ④「はとバス駐車場」西","province":"東京都","city":"台東区","address":"東京都台東区浅草2丁目3","lat":35.71528,"lon":139.79597},{"name":"広徳公園内","province":"東京都","city":"台東区","address":"東京都台東区東上野4丁目5","lat":35.71248,"lon":139.78067},{"name":"池之端二丁目公衆トイレ横","province":"東京都","city":"台東区","address":"東京都台東区池之端2丁目4","lat":35.71358,"lon":139.76573},{"name":"本庁舎駐車場出口横","province":"東京都","city":"台東区","address":"東京都台東区東上野4丁目5","lat":35.712724,"lon":139.779469},{"name":"台東リバーサイドスポーツセンター体育館前","province":"東京都","city":"台東区","address":"東京都台東区今戸1丁目1","lat":35.717866,"lon":139.804235},{"name":"清川清掃車庫内","province":"東京都","city":"台東区","address":"東京都台東区清川2丁目24","lat":35.727847,"lon":139.805037},{"name":"鶯谷公園内","province":"東京都","city":"台東区","address":"東京都台東区根岸1丁目3","lat":35.721114,"lon":139.779621},{"name":"上野公園正岡子規記念球場横","province":"東京都","city":"台東区","address":"東京都台東区上野公園5","lat":35.714185,"lon":139.77416},{"name":"金竜公園内","province":"東京都","city":"台東区","address":"東京都台東区西浅草3丁目25","lat":35.716998,"lon":139.789717},{"name":"隅田公園内","province":"東京都","city":"台東区","address":"東京都台東区花川戸1丁目1","lat":35.712469,"lon":139.800097},{"name":"paspa 浅草橋","province":"東京都","city":"台東区","address":"東京都台東区柳橋2丁目6-8","lat":35.69849,"lon":139.78759},{"name":"ファミリーマート　台東一丁目店","province":"東京都","city":"台東区","address":"東京都台東区台東1丁目1-14","lat":35.70069,"lon":139.78038},{"name":"セブン-イレブン　東上野１丁目店","province":"東京都","city":"台東区","address":"東京都台東区東上野1丁目7-15","lat":35.70759,"lon":139.77987},{"name":"セブン-イレブン　台東松が谷１丁目店","province":"東京都","city":"台東区","address":"東京都台東区松が谷1丁目3-5","lat":35.71107,"lon":139.78613},{"name":"セブン-イレブン　田原町駅前店","province":"東京都","city":"台東区","address":"東京都台東区寿2丁目10-10","lat":35.70956,"lon":139.79066},{"name":"smokers peace in ミマツ書房","province":"東京都","city":"台東区","address":"東京都台東区台東3丁目44-4","lat":35.70564,"lon":139.77756},{"name":"ファミリーマート　台東四丁目店","province":"東京都","city":"台東区","address":"東京都台東区台東4丁目30-6","lat":35.70725,"lon":139.77768},{"name":"paspa 上野","province":"東京都","city":"台東区","address":"東京都台東区上野7丁目4-3","lat":35.71284,"lon":139.778},{"name":"paspa 御徒町","province":"東京都","city":"台東区","address":"東京都台東区上野6丁目9-1","lat":35.70902,"lon":139.77537},{"name":"SMOKING & COFFEE BAR SMOCO","province":"東京都","city":"台東区","address":"東京都台東区雷門2丁目19-10","lat":35.710627,"lon":139.79721},{"name":"アメ横センタービル喫煙所","province":"東京都","city":"台東区","address":"東京都台東区上野4丁目7-2","lat":35.709078,"lon":139.77454},{"name":"松葉公園内","province":"東京都","city":"台東区","address":"東京都台東区松が谷1丁目12","lat":35.712137,"lon":139.78738},{"name":"台東区","province":"東京都","city":"台東区","address":"台東区東上野4-5-6","lat":35.7126069,"lon":139.7799844},{"name":"台東都税事務所","province":"東京都","city":"台東区","address":"東京都台東区雷門1丁目6-1","lat":35.709883,"lon":139.792145},{"name":"東京都美術館","province":"東京都","city":"台東区","address":"東京都台東区上野公園8","lat":35.71702,"lon":139.7734},{"name":"東京都美術館","province":"東京都","city":"台東区","address":"東京都台東区上野公園8-36","lat":35.71733,"lon":139.773},{"name":"東京都美術館","province":"東京都","city":"台東区","address":"東京都台東区上野公園8","lat":35.7175,"lon":139.7734},{"name":"東京都美術館","province":"東京都","city":"台東区","address":"東京都台東区上野公園8","lat":35.71692,"lon":139.7733},{"name":"東京都美術館","province":"東京都","city":"台東区","address":"東京都台東区上野公園8","lat":35.71734,"lon":139.7731},{"name":"東京都美術館","province":"東京都","city":"台東区","address":"東京都台東区上野公園8-36","lat":35.71715,"lon":139.773},{"name":"東京都美術館","province":"東京都","city":"台東区","address":"東京都台東区上野公園8-36","lat":35.7173,"lon":139.7737},{"name":"東京都立産業貿易センター台東館","province":"東京都","city":"台東区","address":"東京都台東区花川戸2丁目6-5","lat":35.714557,"lon":139.798586},{"name":"上野恩賜公園","province":"東京都","city":"台東区","address":"東京都台東区上野公園2","lat":35.709934,"lon":139.77226},{"name":"上野恩賜公園","province":"東京都","city":"台東区","address":"東京都台東区上野公園5","lat":35.714929,"lon":139.774883},{"name":"上野恩賜公園","province":"東京都","city":"台東区","address":"東京都台東区上野公園5","lat":35.715083,"lon":139.774178},{"name":"上野恩賜公園","province":"東京都","city":"台東区","address":"東京都台東区上野公園8-22","lat":35.716179,"lon":139.774008},{"name":"上野恩賜公園","province":"東京都","city":"台東区","address":"東京都台東区上野公園8","lat":35.717272,"lon":139.774448},{"name":"上野恩賜公園","province":"東京都","city":"台東区","address":"東京都台東区上野公園8","lat":35.716084,"lon":139.775091},{"name":"上野恩賜公園","province":"東京都","city":"台東区","address":"東京都台東区上野公園5","lat":35.714369,"lon":139.773689},{"name":"上野恩賜公園","province":"東京都","city":"台東区","address":"東京都台東区上野公園6","lat":35.716127,"lon":139.77789},{"name":"旧岩崎邸庭園","province":"東京都","city":"台東区","address":"東京都台東区池之端1丁目3","lat":35.71008,"lon":139.766936},{"name":"谷中霊園","province":"東京都","city":"台東区","address":"東京都台東区谷中7丁目3","lat":35.724109,"lon":139.770446},{"name":"谷中霊園","province":"東京都","city":"台東区","address":"東京都台東区谷中7丁目9","lat":35.725155,"lon":139.770886},{"name":"恩賜上野動物園","province":"東京都","city":"台東区","address":"東京都台東区上野公園9","lat":35.715783,"lon":139.772458},{"name":"恩賜上野動物園","province":"東京都","city":"台東区","address":"東京都台東区上野公園9","lat":35.718068,"lon":139.77021},{"name":"恩賜上野動物園","province":"東京都","city":"台東区","address":"東京都台東区上野公園9","lat":35.71558,"lon":139.770162},{"name":"恩賜上野動物園","province":"東京都","city":"台東区","address":"東京都台東区上野公園9","lat":35.716861,"lon":139.772117},{"name":"恩賜上野動物園","province":"東京都","city":"台東区","address":"東京都台東区上野公園3","lat":35.714004,"lon":139.77106},{"name":"恩賜上野動物園","province":"東京都","city":"台東区","address":"東京都台東区上野公園3","lat":35.714582,"lon":139.768889},{"name":"恩賜上野動物園","province":"東京都","city":"台東区","address":"東京都台東区上野公園3","lat":35.713559,"lon":139.768683},{"name":"恩賜上野動物園","province":"東京都","city":"台東区","address":"東京都台東区上野公園3","lat":35.713928,"lon":139.768476},{"name":"恩賜上野動物園","province":"東京都","city":"台東区","address":"東京都台東区上野公園9","lat":35.716331,"lon":139.771635},{"name":"恩賜上野動物園","province":"東京都","city":"台東区","address":"東京都台東区上野公園9","lat":35.717151,"lon":139.771224},{"name":"恩賜上野動物園","province":"東京都","city":"台東区","address":"東京都台東区上野公園4","lat":35.712962,"lon":139.772114},{"name":"恩賜上野動物園","province":"東京都","city":"台東区","address":"東京都台東区上野公園3","lat":35.714609,"lon":139.769368},{"name":"恩賜上野動物園","province":"東京都","city":"台東区","address":"東京都台東区上野公園3","lat":35.714161,"lon":139.769895},{"name":"恩賜上野動物園","province":"東京都","city":"台東区","address":"東京都台東区上野公園9","lat":35.716119,"lon":139.770341},{"name":"都営浅草線浅草駅","province":"東京都","city":"台東区","address":"東京都台東区駒形2丁目7","lat":35.708607,"lon":139.795965},{"name":"都営浅草線浅草橋駅","province":"東京都","city":"台東区","address":"東京都台東区柳橋1丁目19","lat":35.697259,"lon":139.786265},{"name":"都営浅草線蔵前駅","province":"東京都","city":"台東区","address":"東京都台東区蔵前2丁目3","lat":35.70245,"lon":139.790144},{"name":"都営大江戸線上野御徒町駅","province":"東京都","city":"台東区","address":"東京都台東区上野4丁目4","lat":35.707908,"lon":139.773434},{"name":"都営大江戸線新御徒町駅","province":"東京都","city":"台東区","address":"東京都台東区元浅草1丁目5","lat":35.707094,"lon":139.781956},{"name":"都営大江戸線蔵前駅","province":"東京都","city":"台東区","address":"東京都台東区蔵前3丁目22","lat":35.705479,"lon":139.79241},{"name":"西部区民事務所（金杉区民館）","province":"東京都","city":"台東区","address":"東京都台東区下谷3丁目1-29","lat":35.723325,"lon":139.786116},{"name":"東京都台東区役所本庁舎","province":"東京都","city":"台東区","address":"東京都台東区東上野4丁目5-6","lat":35.712465,"lon":139.780394},{"name":"東京都台東区役所本庁舎","province":"東京都","city":"台東区","address":"東京都台東区東上野4丁目5-6","lat":35.712604,"lon":139.779521},{"name":"浅草橋地区センター（浅草橋区民館、中央図書館浅草橋分室併設）","province":"東京都","city":"台東区","address":"東京都台東区浅草橋2丁目8-7","lat":35.69953,"lon":139.783438},{"name":"南部区民事務所（寿区民館）","province":"東京都","city":"台東区","address":"東京都台東区寿1丁目10-12","lat":35.707281,"lon":139.788972},{"name":"台東区雷門地区センター","province":"東京都","city":"台東区","address":"東京都台東区浅草1丁目37-3","lat":35.712536,"lon":139.796114},{"name":"台東区役所北部区民事務所","province":"東京都","city":"台東区","address":"東京都台東区浅草4丁目48-1","lat":35.718265,"lon":139.798747},{"name":"台東区北部区民事務所清川分室（台東区立清川区民館）","province":"東京都","city":"台東区","address":"東京都台東区清川1丁目23-8","lat":35.725774,"lon":139.803084},{"name":"東上野地区センター（東上野区民館）","province":"東京都","city":"台東区","address":"東京都台東区東上野3丁目24-6","lat":35.711247,"lon":139.77961},{"name":"上野地区センター（上野区民館）","province":"東京都","city":"台東区","address":"東京都台東区池之端1丁目1-12","lat":35.709462,"lon":139.769186},{"name":"台東地区センター（台東一丁目区民館、台東こども家庭支援センター、たいとう地域包括支援センター）","province":"東京都","city":"台東区","address":"東京都台東区台東1丁目25-5","lat":35.701746,"lon":139.777731},{"name":"台東地区センター（台東一丁目区民館、台東こども家庭支援センター、たいとう地域包括支援センター）","province":"東京都","city":"台東区","address":"東京都台東区台東1丁目25-5","lat":35.701715,"lon":139.77809},{"name":"台東地区センター（台東一丁目区民館、台東こども家庭支援センター、たいとう地域包括支援センター）","province":"東京都","city":"台東区","address":"東京都台東区台東1丁目25-5","lat":35.701694,"lon":139.778162},{"name":"台東地区センター（台東一丁目区民館、台東こども家庭支援センター、たいとう地域包括支援センター）","province":"東京都","city":"台東区","address":"東京都台東区台東1丁目25-5","lat":35.701807,"lon":139.777731},{"name":"台東区西部区民事務所谷中分室","province":"東京都","city":"台東区","address":"東京都台東区谷中5丁目6-5","lat":35.72567,"lon":139.766775},{"name":"入谷地区センター(入谷区民館)","province":"東京都","city":"台東区","address":"東京都台東区入谷1丁目15-6","lat":35.72046,"lon":139.785786},{"name":"金杉区民館下谷分館","province":"東京都","city":"台東区","address":"東京都台東区下谷3丁目14-3","lat":35.725768,"lon":139.787269},{"name":"台東区立台東区民会館","province":"東京都","city":"台東区","address":"東京都台東区花川戸2丁目6-5","lat":35.714557,"lon":139.798586},{"name":"台東区立台東区民会館","province":"東京都","city":"台東区","address":"東京都台東区花川戸2丁目6-5","lat":35.714551,"lon":139.798613},{"name":"台東区立旧東京音楽学校奏楽堂","province":"東京都","city":"台東区","address":"東京都台東区上野公園8-43","lat":35.717934,"lon":139.773277},{"name":"社会教育センター","province":"東京都","city":"台東区","address":"東京都台東区東上野6丁目16-8","lat":35.713726,"lon":139.783333},{"name":"社会教育センター","province":"東京都","city":"台東区","address":"東京都台東区東上野6丁目16-8","lat":35.713532,"lon":139.783154},{"name":"台東保健所","province":"東京都","city":"台東区","address":"東京都台東区東上野4丁目22-8","lat":35.714603,"lon":139.781461},{"name":"浅草保健相談センター","province":"東京都","city":"台東区","address":"東京都台東区花川戸2丁目11-10","lat":35.714948,"lon":139.800534},{"name":"浅草保健相談センター","province":"東京都","city":"台東区","address":"東京都台東区花川戸2丁目11-10","lat":35.714926,"lon":139.80052},{"name":"浅草保健相談センター","province":"東京都","city":"台東区","address":"東京都台東区花川戸2丁目11-10","lat":35.714893,"lon":139.800513},{"name":"千束健康増進センター","province":"東京都","city":"台東区","address":"東京都台東区千束3丁目28-13","lat":35.723104,"lon":139.7936},{"name":"石浜図書館","province":"東京都","city":"台東区","address":"東京都台東区橋場1丁目35-1","lat":35.725439,"lon":139.80767},{"name":"台東区立下町風俗資料館","province":"東京都","city":"台東区","address":"東京都台東区上野公園2","lat":35.710275,"lon":139.772712},{"name":"台東区立旧東京音楽学校奏楽堂","province":"東京都","city":"台東区","address":"東京都台東区上野公園8-43","lat":35.71795,"lon":139.773251},{"name":"浅草文化観光センター","province":"東京都","city":"台東区","address":"東京都台東区雷門2丁目18-9","lat":35.710655,"lon":139.796528},{"name":"台東区立書道博物館","province":"東京都","city":"台東区","address":"東京都台東区根岸2丁目10-4","lat":35.724629,"lon":139.7764},{"name":"台東区立一葉記念館","province":"東京都","city":"台東区","address":"東京都台東区竜泉3丁目18-4","lat":35.725584,"lon":139.792816},{"name":"浅草文化観光センター","province":"東京都","city":"台東区","address":"東京都台東区雷門2丁目18-9","lat":35.71065,"lon":139.796586},{"name":"台東区　生涯学習センター","province":"東京都","city":"台東区","address":"東京都台東区西浅草3丁目25-15","lat":35.717181,"lon":139.789548},{"name":"浅草文化観光センター","province":"東京都","city":"台東区","address":"東京都台東区雷門2丁目18-9","lat":35.710628,"lon":139.796444},{"name":"江戸たいとう伝統工芸館","province":"東京都","city":"台東区","address":"東京都台東区浅草2丁目22-13","lat":35.716375,"lon":139.793804},{"name":"台東区立浅草公会堂","province":"東京都","city":"台東区","address":"東京都台東区浅草1丁目38-6","lat":35.712415,"lon":139.795263},{"name":"台東区　生涯学習センター","province":"東京都","city":"台東区","address":"東京都台東区西浅草3丁目25-15","lat":35.717331,"lon":139.790209},{"name":"台東区　生涯学習センター","province":"東京都","city":"台東区","address":"東京都台東区西浅草3丁目25-15","lat":35.717248,"lon":139.789665},{"name":"台東区　生涯学習センター","province":"東京都","city":"台東区","address":"東京都台東区西浅草3丁目25-16","lat":35.717479,"lon":139.789715},{"name":"台東区立　隅田公園","province":"東京都","city":"台東区","address":"東京都台東区浅草7丁目1","lat":35.716707,"lon":139.803709},{"name":"台東区　生涯学習センター","province":"東京都","city":"台東区","address":"東京都台東区西浅草3丁目25-15","lat":35.717191,"lon":139.789888},{"name":"台東区　生涯学習センター","province":"東京都","city":"台東区","address":"東京都台東区西浅草3丁目25-15","lat":35.717265,"lon":139.78967},{"name":"台東区　生涯学習センター","province":"東京都","city":"台東区","address":"東京都台東区西浅草3丁目25-15","lat":35.717187,"lon":139.789655},{"name":"台東区　生涯学習センター","province":"東京都","city":"台東区","address":"東京都台東区西浅草3丁目25-15","lat":35.717237,"lon":139.789561},{"name":"台東区立　日本堤公園","province":"東京都","city":"台東区","address":"東京都台東区東浅草2丁目27","lat":35.724093,"lon":139.798302},{"name":"台東区立　柳北公園","province":"東京都","city":"台東区","address":"東京都台東区浅草橋5丁目1","lat":35.699728,"lon":139.783124},{"name":"台東区立　東盛公園","province":"東京都","city":"台東区","address":"東京都台東区三ノ輪1丁目23","lat":35.728527,"lon":139.792865},{"name":"台東区立　西町公園","province":"東京都","city":"台東区","address":"東京都台東区東上野2丁目23","lat":35.709166,"lon":139.779855},{"name":"台東区立　石浜公園","province":"東京都","city":"台東区","address":"東京都台東区清川1丁目14","lat":35.724558,"lon":139.804204},{"name":"台東区立　精華公園","province":"東京都","city":"台東区","address":"東京都台東区蔵前4丁目15","lat":35.703788,"lon":139.789001},{"name":"台東区立　松葉公園","province":"東京都","city":"台東区","address":"東京都台東区松が谷1丁目12","lat":35.71192,"lon":139.787147},{"name":"台東区立　御徒町公園","province":"東京都","city":"台東区","address":"東京都台東区台東4丁目13","lat":35.706221,"lon":139.777882},{"name":"台東区立　金杉公園","province":"東京都","city":"台東区","address":"東京都台東区下谷3丁目5","lat":35.724096,"lon":139.785971},{"name":"台東区立　小島公園","province":"東京都","city":"台東区","address":"東京都台東区小島2丁目9","lat":35.705547,"lon":139.784256},{"name":"台東区立　金竜公園","province":"東京都","city":"台東区","address":"東京都台東区西浅草3丁目25","lat":35.716669,"lon":139.789993},{"name":"台東区立　花川戸公園","province":"東京都","city":"台東区","address":"東京都台東区花川戸2丁目5","lat":35.714127,"lon":139.799345},{"name":"台東区立　竹町公園","province":"東京都","city":"台東区","address":"東京都台東区台東4丁目21","lat":35.705571,"lon":139.780465},{"name":"台東区立　入谷南公園","province":"東京都","city":"台東区","address":"東京都台東区松が谷3丁目23","lat":35.71703,"lon":139.785577},{"name":"台東区立　大正公園","province":"東京都","city":"台東区","address":"東京都台東区入谷2丁目23","lat":35.721125,"lon":139.787707},{"name":"台東区立　谷中清水町公園","province":"東京都","city":"台東区","address":"東京都台東区谷中1丁目1","lat":35.720402,"lon":139.769419},{"name":"台東区立　隅田公園","province":"東京都","city":"台東区","address":"東京都台東区花川戸2丁目1","lat":35.71457,"lon":139.802278},{"name":"台東区立　隅田公園","province":"東京都","city":"台東区","address":"東京都台東区花川戸1丁目1","lat":35.712954,"lon":139.800301},{"name":"台東区立　御蔵前公園","province":"東京都","city":"台東区","address":"東京都台東区蔵前1丁目4","lat":35.700469,"lon":139.789263},{"name":"台東区立　隅田公園","province":"東京都","city":"台東区","address":"東京都台東区花川戸1丁目1-1","lat":35.710816,"lon":139.798564},{"name":"台東区立　山谷堀公園","province":"東京都","city":"台東区","address":"東京都台東区浅草6丁目45","lat":35.719174,"lon":139.801685},{"name":"台東区立　金曽木公園","province":"東京都","city":"台東区","address":"東京都台東区根岸4丁目16","lat":35.725733,"lon":139.784555},{"name":"寛永寺前公衆トイレ","province":"東京都","city":"台東区","address":"東京都台東区上野桜木2丁目6","lat":35.722391,"lon":139.773811},{"name":"台東区立　黒門児童遊園","province":"東京都","city":"台東区","address":"東京都台東区上野1丁目19","lat":35.706647,"lon":139.772231},{"name":"台東区立　千束公園","province":"東京都","city":"台東区","address":"東京都台東区浅草4丁目24","lat":35.718532,"lon":139.793792},{"name":"台東区立　根岸公園","province":"東京都","city":"台東区","address":"東京都台東区根岸4丁目16","lat":35.72565,"lon":139.785561},{"name":"台東区立　浅草橋公園","province":"東京都","city":"台東区","address":"東京都台東区浅草橋1丁目1","lat":35.696161,"lon":139.785263},{"name":"千束１丁目公衆トイレ","province":"東京都","city":"台東区","address":"東京都台東区千束1丁目19","lat":35.720657,"lon":139.791382},{"name":"西郷銅像下公衆トイレ","province":"東京都","city":"台東区","address":"東京都台東区上野公園1","lat":35.710886,"lon":139.773818},{"name":"木馬館前公衆トイレ","province":"東京都","city":"台東区","address":"東京都台東区浅草2丁目3","lat":35.714293,"lon":139.795141},{"name":"駒形橋際公衆トイレ","province":"東京都","city":"台東区","address":"東京都台東区雷門2丁目1","lat":35.708777,"lon":139.796763},{"name":"台東区立寿子ども家庭支援センター","province":"東京都","city":"台東区","address":"東京都台東区寿1丁目10-9","lat":35.70715,"lon":139.78903},{"name":"台東区立環境ふれあい館ひまわり","province":"東京都","city":"台東区","address":"東京都台東区蔵前4丁目14-6","lat":35.703714,"lon":139.789787},{"name":"東京都台東区立老人福祉センター","province":"東京都","city":"台東区","address":"東京都台東区東上野2丁目25-12","lat":35.709605,"lon":139.781388},{"name":"田中スポーツプラザ","province":"東京都","city":"台東区","address":"東京都台東区日本堤2丁目25-8","lat":35.72795,"lon":139.797233},{"name":"（有）竹内商店","province":"東京都","city":"台東区","address":"東京都台東区谷中6丁目3-9","lat":35.72346374,"lon":139.76886213},{"name":"（株）信興会","province":"東京都","city":"台東区","address":"東京都台東区上野桜木2丁目10-14","lat":35.72155569,"lon":139.77164258},{"name":"（株）そうかみ","province":"東京都","city":"台東区","address":"東京都台東区池之端4丁目18-4","lat":35.71952798,"lon":139.76941496},{"name":"（有）小泉桶甚本店","province":"東京都","city":"台東区","address":"東京都台東区下谷1丁目11-15","lat":35.71947836,"lon":139.78313624},{"name":"（有）鳥居本店","province":"東京都","city":"台東区","address":"東京都台東区下谷1丁目11-4","lat":35.7193256,"lon":139.78283349},{"name":"（有）染木商店","province":"東京都","city":"台東区","address":"東京都台東区竜泉1丁目22-6","lat":35.72426409,"lon":139.78956594},{"name":"（有）堀込葬祭","province":"東京都","city":"台東区","address":"東京都台東区千束3丁目16-5","lat":35.72160323,"lon":139.791427},{"name":"（有）小林花環店","province":"東京都","city":"台東区","address":"東京都台東区千束4丁目51-11","lat":35.72585259,"lon":139.79594269},{"name":"誠実屋　伊藤","province":"東京都","city":"台東区","address":"東京都台東区東浅草2丁目15-12","lat":35.72367021,"lon":139.80124868},{"name":"（有）金子商店","province":"東京都","city":"台東区","address":"東京都台東区清川1丁目33-5","lat":35.72612004,"lon":139.80211256},{"name":"（有）根岸商店","province":"東京都","city":"台東区","address":"東京都台東区今戸2丁目23-3","lat":35.72157095,"lon":139.80503222},{"name":"（有）川﨑商店","province":"東京都","city":"台東区","address":"東京都台東区西浅草2丁目3-13","lat":35.71233743,"lon":139.79016105},{"name":"（株）葬儀のうはら","province":"東京都","city":"台東区","address":"東京都台東区蔵前3丁目19-6","lat":35.70564366,"lon":139.79141157},{"name":"鳥越葬儀社神商店","province":"東京都","city":"台東区","address":"東京都台東区鳥越1丁目2-2","lat":35.70213558,"lon":139.78329568},{"name":"（有）東都葬祭福井","province":"東京都","city":"台東区","address":"東京都台東区台東3丁目42-4","lat":35.70558783,"lon":139.7763957},{"name":"台東保健所","province":"東京都","city":"台東区","address":"東京都台東区東上野4丁目22-8","lat":35.71447043,"lon":139.78151994},{"name":"浅草保健相談センター","province":"東京都","city":"台東区","address":"東京都台東区花川戸2丁目11-10","lat":35.71488192,"lon":139.80042386},{"name":"台東保健所","province":"東京都","city":"台東区","address":"台東区東上野4-22-8","lat":35.71452,"lon":139.78156},{"name":"浅草保健相談センター","province":"東京都","city":"台東区","address":"台東区花川戸2-11-10","lat":35.7147,"lon":139.80031},{"name":"台東区日本堤子ども家庭支援センター","province":"東京都","city":"台東区","address":"台東区日本堤2-25-8","lat":35.72813,"lon":139.79745},{"name":"台東区日本堤子ども家庭支援センター","province":"東京都","city":"台東区","address":"台東区日本堤2-25-8","lat":35.72813,"lon":139.79746},{"name":"北部区民事務所清川分室","province":"東京都","city":"台東区","address":"台東区清川1丁目23番8号","lat":35.72577082,"lon":139.8030813},{"name":"南部区民事務所","province":"東京都","city":"台東区","address":"台東区寿1丁目10番12号","lat":35.70725514,"lon":139.7888844},{"name":"北部区民事務所","province":"東京都","city":"台東区","address":"台東区浅草4丁目48番1号","lat":35.71823439,"lon":139.7987528},{"name":"西部区民事務所","province":"東京都","city":"台東区","address":"台東区下谷3丁目1番30号","lat":35.7230737,"lon":139.7860737},{"name":"西部区民事務所谷中分室","province":"東京都","city":"台東区","address":"台東区谷中5丁目6番5号","lat":35.72544479,"lon":139.766572},{"name":"警視庁第六方面本部","province":"東京都","city":"台東区","address":"台東区東浅草2丁目27番12号","lat":35.72453376,"lon":139.7978665},{"name":"(株)國光  東京事業所","province":"東京都","city":"台東区","address":"台東区三ノ輪1-5-3","lat":35.72707,"lon":139.792801},{"name":"(株)協和","province":"東京都","city":"台東区","address":"台東区根岸5-7-9","lat":35.727386,"lon":139.784256},{"name":"山仁紙業(株)  本社","province":"東京都","city":"台東区","address":"台東区三筋1-10-12","lat":35.704292,"lon":139.784851},{"name":"(有)北信紙業","province":"東京都","city":"台東区","address":"台東区松が谷3-3-9","lat":35.715282,"lon":139.787811},{"name":"(株)ノボル紙業","province":"東京都","city":"台東区","address":"台東区竜泉3-9-2","lat":35.724674,"lon":139.792496},{"name":"(有)近藤紙業","province":"東京都","city":"台東区","address":"台東区松が谷1-5-8","lat":35.71175,"lon":139.785522},{"name":"台東区選挙管理委員会","province":"東京都","city":"台東区","address":"台東区東上野4-5-6","lat":35.712601,"lon":139.779959},{"name":"台東区日本堤子ども家庭支援センター","province":"東京都","city":"台東区","address":"台東区日本堤2-25-8","lat":35.728119,"lon":139.797423},{"name":"台東保健所","province":"東京都","city":"台東区","address":"台東区東上野4-22-8","lat":35.71447,"lon":139.78152},{"name":"浅草保健相談センター","province":"東京都","city":"台東区","address":"台東区花川戸1-14-16","lat":35.713793,"lon":139.79963},{"name":"上野公園前交番裏","province":"東京都","city":"台東区","address":"東京都台東区上野公園1","lat":35.7112,"lon":139.77377},{"name":"JR上野駅（広小路口）ぺデストリアンデッキ上","province":"東京都","city":"台東区","address":"東京都台東区上野7丁目1","lat":35.71163,"lon":139.77628},{"name":"JR上野駅（浅草口）ペデストリアンデッキ上","province":"東京都","city":"台東区","address":"東京都台東区上野7丁目1","lat":35.71168,"lon":139.77726},{"name":"浅草寺境内 ①「二尊仏前」東","province":"東京都","city":"台東区","address":"東京都台東区浅草2丁目3","lat":35.71361,"lon":139.79737},{"name":"浅草寺境内 ②「観音前警備派出所」北","province":"東京都","city":"台東区","address":"東京都台東区浅草2丁目3","lat":35.71411,"lon":139.79726},{"name":"浅草寺境内 ③「北側トイレ」南","province":"東京都","city":"台東区","address":"東京都台東区浅草2丁目30","lat":35.71559,"lon":139.79706},{"name":"浅草寺境内 ④「はとバス駐車場」西","province":"東京都","city":"台東区","address":"東京都台東区浅草2丁目3","lat":35.71528,"lon":139.79597},{"name":"広徳公園内","province":"東京都","city":"台東区","address":"東京都台東区東上野4丁目5","lat":35.71248,"lon":139.78067},{"name":"池之端二丁目公衆トイレ横","province":"東京都","city":"台東区","address":"東京都台東区池之端2丁目4","lat":35.71358,"lon":139.76573},{"name":"本庁舎駐車場出口横","province":"東京都","city":"台東区","address":"東京都台東区東上野4丁目5","lat":35.712724,"lon":139.779469},{"name":"台東リバーサイドスポーツセンター体育館前","province":"東京都","city":"台東区","address":"東京都台東区今戸1丁目1","lat":35.717866,"lon":139.804235},{"name":"清川清掃車庫内","province":"東京都","city":"台東区","address":"東京都台東区清川2丁目24","lat":35.727847,"lon":139.805037},{"name":"鶯谷公園内","province":"東京都","city":"台東区","address":"東京都台東区根岸1丁目3","lat":35.721114,"lon":139.779621},{"name":"上野公園正岡子規記念球場横","province":"東京都","city":"台東区","address":"東京都台東区上野公園5","lat":35.714185,"lon":139.77416},{"name":"金竜公園内","province":"東京都","city":"台東区","address":"東京都台東区西浅草3丁目25","lat":35.716998,"lon":139.789717},{"name":"隅田公園内","province":"東京都","city":"台東区","address":"東京都台東区花川戸1丁目1","lat":35.712469,"lon":139.800097},{"name":"paspa 浅草橋","province":"東京都","city":"台東区","address":"東京都台東区柳橋2丁目6-8","lat":35.69849,"lon":139.78759},{"name":"ファミリーマート　台東一丁目店","province":"東京都","city":"台東区","address":"東京都台東区台東1丁目1-14","lat":35.70069,"lon":139.78038},{"name":"セブン-イレブン　東上野１丁目店","province":"東京都","city":"台東区","address":"東京都台東区東上野1丁目7-15","lat":35.70759,"lon":139.77987},{"name":"セブン-イレブン　台東松が谷１丁目店","province":"東京都","city":"台東区","address":"東京都台東区松が谷1丁目3-5","lat":35.71107,"lon":139.78613},{"name":"セブン-イレブン　田原町駅前店","province":"東京都","city":"台東区","address":"東京都台東区寿2丁目10-10","lat":35.70956,"lon":139.79066},{"name":"smokers peace in ミマツ書房","province":"東京都","city":"台東区","address":"東京都台東区台東3丁目44-4","lat":35.70564,"lon":139.77756},{"name":"ファミリーマート　台東四丁目店","province":"東京都","city":"台東区","address":"東京都台東区台東4丁目30-6","lat":35.70725,"lon":139.77768},{"name":"paspa 上野","province":"東京都","city":"台東区","address":"東京都台東区上野7丁目4-3","lat":35.71284,"lon":139.778},{"name":"paspa 御徒町","province":"東京都","city":"台東区","address":"東京都台東区上野6丁目9-1","lat":35.70902,"lon":139.77537},{"name":"SMOKING & COFFEE BAR SMOCO","province":"東京都","city":"台東区","address":"東京都台東区雷門2丁目19-10","lat":35.710627,"lon":139.79721},{"name":"アメ横センタービル喫煙所","province":"東京都","city":"台東区","address":"東京都台東区上野4丁目7-2","lat":35.709078,"lon":139.77454},{"name":"松葉公園内","province":"東京都","city":"台東区","address":"東京都台東区松が谷1丁目12","lat":35.712137,"lon":139.78738},{"name":"台東区","province":"東京都","city":"台東区","address":"台東区東上野4-5-6","lat":35.7126069,"lon":139.7799844},{"name":"（有）竹内商店","province":"東京都","city":"台東区","address":"東京都台東区谷中6丁目3-9","lat":35.72346374,"lon":139.76886213},{"name":"（株）信興会","province":"東京都","city":"台東区","address":"東京都台東区上野桜木2丁目10-14","lat":35.72155569,"lon":139.77164258},{"name":"（株）そうかみ","province":"東京都","city":"台東区","address":"東京都台東区池之端4丁目18-4","lat":35.71952798,"lon":139.76941496},{"name":"（有）小泉桶甚本店","province":"東京都","city":"台東区","address":"東京都台東区下谷1丁目11-15","lat":35.71947836,"lon":139.78313624},{"name":"（有）鳥居本店","province":"東京都","city":"台東区","address":"東京都台東区下谷1丁目11-4","lat":35.7193256,"lon":139.78283349},{"name":"（有）染木商店","province":"東京都","city":"台東区","address":"東京都台東区竜泉1丁目22-6","lat":35.72426409,"lon":139.78956594},{"name":"（有）堀込葬祭","province":"東京都","city":"台東区","address":"東京都台東区千束3丁目16-5","lat":35.72160323,"lon":139.791427},{"name":"（有）小林花環店","province":"東京都","city":"台東区","address":"東京都台東区千束4丁目51-11","lat":35.72585259,"lon":139.79594269},{"name":"誠実屋　伊藤","province":"東京都","city":"台東区","address":"東京都台東区東浅草2丁目15-12","lat":35.72367021,"lon":139.80124868},{"name":"（有）金子商店","province":"東京都","city":"台東区","address":"東京都台東区清川1丁目33-5","lat":35.72612004,"lon":139.80211256},{"name":"（有）根岸商店","province":"東京都","city":"台東区","address":"東京都台東区今戸2丁目23-3","lat":35.72157095,"lon":139.80503222},{"name":"（有）川﨑商店","province":"東京都","city":"台東区","address":"東京都台東区西浅草2丁目3-13","lat":35.71233743,"lon":139.79016105},{"name":"（株）葬儀のうはら","province":"東京都","city":"台東区","address":"東京都台東区蔵前3丁目19-6","lat":35.70564366,"lon":139.79141157},{"name":"鳥越葬儀社神商店","province":"東京都","city":"台東区","address":"東京都台東区鳥越1丁目2-2","lat":35.70213558,"lon":139.78329568},{"name":"（有）東都葬祭福井","province":"東京都","city":"台東区","address":"東京都台東区台東3丁目42-4","lat":35.70558783,"lon":139.7763957},{"name":"台東保健所","province":"東京都","city":"台東区","address":"東京都台東区東上野4丁目22-8","lat":35.71447043,"lon":139.78151994},{"name":"浅草保健相談センター","province":"東京都","city":"台東区","address":"東京都台東区花川戸2丁目11-10","lat":35.71488192,"lon":139.80042386},{"name":"台東保健所","province":"東京都","city":"台東区","address":"台東区東上野4-22-8","lat":35.71452,"lon":139.78156},{"name":"浅草保健相談センター","province":"東京都","city":"台東区","address":"台東区花川戸2-11-10","lat":35.7147,"lon":139.80031},{"name":"台東区日本堤子ども家庭支援センター","province":"東京都","city":"台東区","address":"台東区日本堤2-25-8","lat":35.72813,"lon":139.79745},{"name":"台東区日本堤子ども家庭支援センター","province":"東京都","city":"台東区","address":"台東区日本堤2-25-8","lat":35.72813,"lon":139.79746},{"name":"北部区民事務所清川分室","province":"東京都","city":"台東区","address":"台東区清川1丁目23番8号","lat":35.72577082,"lon":139.8030813},{"name":"南部区民事務所","province":"東京都","city":"台東区","address":"台東区寿1丁目10番12号","lat":35.70725514,"lon":139.7888844},{"name":"北部区民事務所","province":"東京都","city":"台東区","address":"台東区浅草4丁目48番1号","lat":35.71823439,"lon":139.7987528},{"name":"西部区民事務所","province":"東京都","city":"台東区","address":"台東区下谷3丁目1番30号","lat":35.7230737,"lon":139.7860737},{"name":"西部区民事務所谷中分室","province":"東京都","city":"台東区","address":"台東区谷中5丁目6番5号","lat":35.72544479,"lon":139.766572},{"name":"警視庁第六方面本部","province":"東京都","city":"台東区","address":"台東区東浅草2丁目27番12号","lat":35.72453376,"lon":139.7978665},{"name":"(株)國光  東京事業所","province":"東京都","city":"台東区","address":"台東区三ノ輪1-5-3","lat":35.72707,"lon":139.792801},{"name":"(株)協和","province":"東京都","city":"台東区","address":"台東区根岸5-7-9","lat":35.727386,"lon":139.784256},{"name":"山仁紙業(株)  本社","province":"東京都","city":"台東区","address":"台東区三筋1-10-12","lat":35.704292,"lon":139.784851},{"name":"(有)北信紙業","province":"東京都","city":"台東区","address":"台東区松が谷3-3-9","lat":35.715282,"lon":139.787811},{"name":"(株)ノボル紙業","province":"東京都","city":"台東区","address":"台東区竜泉3-9-2","lat":35.724674,"lon":139.792496},{"name":"(有)近藤紙業","province":"東京都","city":"台東区","address":"台東区松が谷1-5-8","lat":35.71175,"lon":139.785522},{"name":"台東区選挙管理委員会","province":"東京都","city":"台東区","address":"台東区東上野4-5-6","lat":35.712601,"lon":139.779959},{"name":"台東保健所","province":"東京都","city":"台東区","address":"台東区東上野4-22-8","lat":35.71447,"lon":139.78152},{"name":"浅草保健相談センター","province":"東京都","city":"台東区","address":"台東区花川戸1-14-16","lat":35.713793,"lon":139.79963},{"name":"上野公園前交番裏","province":"東京都","city":"台東区","address":"東京都台東区上野公園1","lat":35.7112,"lon":139.77377},{"name":"JR上野駅（広小路口）ぺデストリアンデッキ上","province":"東京都","city":"台東区","address":"東京都台東区上野7丁目1","lat":35.71163,"lon":139.77628},{"name":"JR上野駅（浅草口）ペデストリアンデッキ上","province":"東京都","city":"台東区","address":"東京都台東区上野7丁目1","lat":35.71168,"lon":139.77726},{"name":"浅草寺境内 ①「二尊仏前」東","province":"東京都","city":"台東区","address":"東京都台東区浅草2丁目3","lat":35.71361,"lon":139.79737},{"name":"浅草寺境内 ②「観音前警備派出所」北","province":"東京都","city":"台東区","address":"東京都台東区浅草2丁目3","lat":35.71411,"lon":139.79726},{"name":"浅草寺境内 ③「北側トイレ」南","province":"東京都","city":"台東区","address":"東京都台東区浅草2丁目30","lat":35.71559,"lon":139.79706},{"name":"浅草寺境内 ④「はとバス駐車場」西","province":"東京都","city":"台東区","address":"東京都台東区浅草2丁目3","lat":35.71528,"lon":139.79597},{"name":"広徳公園内","province":"東京都","city":"台東区","address":"東京都台東区東上野4丁目5","lat":35.71248,"lon":139.78067},{"name":"池之端二丁目公衆トイレ横","province":"東京都","city":"台東区","address":"東京都台東区池之端2丁目4","lat":35.71358,"lon":139.76573},{"name":"本庁舎駐車場出口横","province":"東京都","city":"台東区","address":"東京都台東区東上野4丁目5","lat":35.712724,"lon":139.779469},{"name":"台東リバーサイドスポーツセンター体育館前","province":"東京都","city":"台東区","address":"東京都台東区今戸1丁目1","lat":35.717866,"lon":139.804235},{"name":"清川清掃車庫内","province":"東京都","city":"台東区","address":"東京都台東区清川2丁目24","lat":35.727847,"lon":139.805037},{"name":"鶯谷公園内","province":"東京都","city":"台東区","address":"東京都台東区根岸1丁目3","lat":35.721114,"lon":139.779621},{"name":"上野公園正岡子規記念球場横","province":"東京都","city":"台東区","address":"東京都台東区上野公園5","lat":35.714185,"lon":139.77416},{"name":"金竜公園内","province":"東京都","city":"台東区","address":"東京都台東区西浅草3丁目25","lat":35.716998,"lon":139.789717},{"name":"隅田公園内","province":"東京都","city":"台東区","address":"東京都台東区花川戸1丁目1","lat":35.712469,"lon":139.800097},{"name":"paspa 浅草橋","province":"東京都","city":"台東区","address":"東京都台東区柳橋2丁目6-8","lat":35.69849,"lon":139.78759},{"name":"ファミリーマート　台東一丁目店","province":"東京都","city":"台東区","address":"東京都台東区台東1丁目1-14","lat":35.70069,"lon":139.78038},{"name":"セブン-イレブン　東上野１丁目店","province":"東京都","city":"台東区","address":"東京都台東区東上野1丁目7-15","lat":35.70759,"lon":139.77987},{"name":"セブン-イレブン　台東松が谷１丁目店","province":"東京都","city":"台東区","address":"東京都台東区松が谷1丁目3-5","lat":35.71107,"lon":139.78613},{"name":"セブン-イレブン　田原町駅前店","province":"東京都","city":"台東区","address":"東京都台東区寿2丁目10-10","lat":35.70956,"lon":139.79066},{"name":"smokers peace in ミマツ書房","province":"東京都","city":"台東区","address":"東京都台東区台東3丁目44-4","lat":35.70564,"lon":139.77756},{"name":"ファミリーマート　台東四丁目店","province":"東京都","city":"台東区","address":"東京都台東区台東4丁目30-6","lat":35.70725,"lon":139.77768},{"name":"paspa 上野","province":"東京都","city":"台東区","address":"東京都台東区上野7丁目4-3","lat":35.71284,"lon":139.778},{"name":"paspa 御徒町","province":"東京都","city":"台東区","address":"東京都台東区上野6丁目9-1","lat":35.70902,"lon":139.77537},{"name":"SMOKING & COFFEE BAR SMOCO","province":"東京都","city":"台東区","address":"東京都台東区雷門2丁目19-10","lat":35.710627,"lon":139.79721},{"name":"アメ横センタービル喫煙所","province":"東京都","city":"台東区","address":"東京都台東区上野4丁目7-2","lat":35.709078,"lon":139.77454},{"name":"松葉公園内","province":"東京都","city":"台東区","address":"東京都台東区松が谷1丁目12","lat":35.712137,"lon":139.78738},{"name":"台東区","province":"東京都","city":"台東区","address":"台東区東上野4-5-6","lat":35.7126069,"lon":139.7799844},{"name":"（有）竹内商店","province":"東京都","city":"台東区","address":"東京都台東区谷中6丁目3-9","lat":35.72346374,"lon":139.76886213},{"name":"（株）信興会","province":"東京都","city":"台東区","address":"東京都台東区上野桜木2丁目10-14","lat":35.72155569,"lon":139.77164258},{"name":"（株）そうかみ","province":"東京都","city":"台東区","address":"東京都台東区池之端4丁目18-4","lat":35.71952798,"lon":139.76941496},{"name":"（有）小泉桶甚本店","province":"東京都","city":"台東区","address":"東京都台東区下谷1丁目11-15","lat":35.71947836,"lon":139.78313624},{"name":"（有）鳥居本店","province":"東京都","city":"台東区","address":"東京都台東区下谷1丁目11-4","lat":35.7193256,"lon":139.78283349},{"name":"（有）染木商店","province":"東京都","city":"台東区","address":"東京都台東区竜泉1丁目22-6","lat":35.72426409,"lon":139.78956594},{"name":"（有）堀込葬祭","province":"東京都","city":"台東区","address":"東京都台東区千束3丁目16-5","lat":35.72160323,"lon":139.791427},{"name":"（有）小林花環店","province":"東京都","city":"台東区","address":"東京都台東区千束4丁目51-11","lat":35.72585259,"lon":139.79594269},{"name":"誠実屋　伊藤","province":"東京都","city":"台東区","address":"東京都台東区東浅草2丁目15-12","lat":35.72367021,"lon":139.80124868},{"name":"（有）金子商店","province":"東京都","city":"台東区","address":"東京都台東区清川1丁目33-5","lat":35.72612004,"lon":139.80211256},{"name":"（有）根岸商店","province":"東京都","city":"台東区","address":"東京都台東区今戸2丁目23-3","lat":35.72157095,"lon":139.80503222},{"name":"（有）川﨑商店","province":"東京都","city":"台東区","address":"東京都台東区西浅草2丁目3-13","lat":35.71233743,"lon":139.79016105},{"name":"（株）葬儀のうはら","province":"東京都","city":"台東区","address":"東京都台東区蔵前3丁目19-6","lat":35.70564366,"lon":139.79141157},{"name":"鳥越葬儀社神商店","province":"東京都","city":"台東区","address":"東京都台東区鳥越1丁目2-2","lat":35.70213558,"lon":139.78329568},{"name":"（有）東都葬祭福井","province":"東京都","city":"台東区","address":"東京都台東区台東3丁目42-4","lat":35.70558783,"lon":139.7763957},{"name":"台東保健所","province":"東京都","city":"台東区","address":"東京都台東区東上野4丁目22-8","lat":35.71447043,"lon":139.78151994},{"name":"浅草保健相談センター","province":"東京都","city":"台東区","address":"東京都台東区花川戸2丁目11-10","lat":35.71488192,"lon":139.80042386},{"name":"台東保健所","province":"東京都","city":"台東区","address":"台東区東上野4-22-8","lat":35.71452,"lon":139.78156},{"name":"浅草保健相談センター","province":"東京都","city":"台東区","address":"台東区花川戸2-11-10","lat":35.7147,"lon":139.80031},{"name":"北部区民事務所清川分室","province":"東京都","city":"台東区","address":"台東区清川1丁目23番8号","lat":35.72577082,"lon":139.8030813},{"name":"南部区民事務所","province":"東京都","city":"台東区","address":"台東区寿1丁目10番12号","lat":35.70725514,"lon":139.7888844},{"name":"北部区民事務所","province":"東京都","city":"台東区","address":"台東区浅草4丁目48番1号","lat":35.71823439,"lon":139.7987528},{"name":"西部区民事務所","province":"東京都","city":"台東区","address":"台東区下谷3丁目1番30号","lat":35.7230737,"lon":139.7860737},{"name":"西部区民事務所谷中分室","province":"東京都","city":"台東区","address":"台東区谷中5丁目6番5号","lat":35.72544479,"lon":139.766572},{"name":"警視庁第六方面本部","province":"東京都","city":"台東区","address":"台東区東浅草2丁目27番12号","lat":35.72453376,"lon":139.7978665},{"name":"(株)國光  東京事業所","province":"東京都","city":"台東区","address":"台東区三ノ輪1-5-3","lat":35.72707,"lon":139.792801},{"name":"(株)協和","province":"東京都","city":"台東区","address":"台東区根岸5-7-9","lat":35.727386,"lon":139.784256},{"name":"山仁紙業(株)  本社","province":"東京都","city":"台東区","address":"台東区三筋1-10-12","lat":35.704292,"lon":139.784851},{"name":"(有)北信紙業","province":"東京都","city":"台東区","address":"台東区松が谷3-3-9","lat":35.715282,"lon":139.787811},{"name":"(株)ノボル紙業","province":"東京都","city":"台東区","address":"台東区竜泉3-9-2","lat":35.724674,"lon":139.792496},{"name":"(有)近藤紙業","province":"東京都","city":"台東区","address":"台東区松が谷1-5-8","lat":35.71175,"lon":139.785522},{"name":"台東区選挙管理委員会","province":"東京都","city":"台東区","address":"台東区東上野4-5-6","lat":35.712601,"lon":139.779959},{"name":"台東保健所","province":"東京都","city":"台東区","address":"台東区東上野4-22-8","lat":35.71447,"lon":139.78152},{"name":"浅草保健相談センター","province":"東京都","city":"台東区","address":"台東区花川戸1-14-16","lat":35.713793,"lon":139.79963},{"name":"上野公園前交番裏","province":"東京都","city":"台東区","address":"東京都台東区上野公園1","lat":35.7112,"lon":139.77377},{"name":"JR上野駅（広小路口）ぺデストリアンデッキ上","province":"東京都","city":"台東区","address":"東京都台東区上野7丁目1","lat":35.71163,"lon":139.77628},{"name":"JR上野駅（浅草口）ペデストリアンデッキ上","province":"東京都","city":"台東区","address":"東京都台東区上野7丁目1","lat":35.71168,"lon":139.77726},{"name":"浅草寺境内 ①「二尊仏前」東","province":"東京都","city":"台東区","address":"東京都台東区浅草2丁目3","lat":35.71361,"lon":139.79737},{"name":"浅草寺境内 ②「観音前警備派出所」北","province":"東京都","city":"台東区","address":"東京都台東区浅草2丁目3","lat":35.71411,"lon":139.79726},{"name":"浅草寺境内 ③「北側トイレ」南","province":"東京都","city":"台東区","address":"東京都台東区浅草2丁目30","lat":35.71559,"lon":139.79706},{"name":"浅草寺境内 ④「はとバス駐車場」西","province":"東京都","city":"台東区","address":"東京都台東区浅草2丁目3","lat":35.71528,"lon":139.79597},{"name":"広徳公園内","province":"東京都","city":"台東区","address":"東京都台東区東上野4丁目5","lat":35.71248,"lon":139.78067},{"name":"池之端二丁目公衆トイレ横","province":"東京都","city":"台東区","address":"東京都台東区池之端2丁目4","lat":35.71358,"lon":139.76573},{"name":"本庁舎駐車場出口横","province":"東京都","city":"台東区","address":"東京都台東区東上野4丁目5","lat":35.712724,"lon":139.779469},{"name":"台東リバーサイドスポーツセンター体育館前","province":"東京都","city":"台東区","address":"東京都台東区今戸1丁目1","lat":35.717866,"lon":139.804235},{"name":"清川清掃車庫内","province":"東京都","city":"台東区","address":"東京都台東区清川2丁目24","lat":35.727847,"lon":139.805037},{"name":"鶯谷公園内","province":"東京都","city":"台東区","address":"東京都台東区根岸1丁目3","lat":35.721114,"lon":139.779621},{"name":"上野公園正岡子規記念球場横","province":"東京都","city":"台東区","address":"東京都台東区上野公園5","lat":35.714185,"lon":139.77416},{"name":"金竜公園内","province":"東京都","city":"台東区","address":"東京都台東区西浅草3丁目25","lat":35.716998,"lon":139.789717},{"name":"隅田公園内","province":"東京都","city":"台東区","address":"東京都台東区花川戸1丁目1","lat":35.712469,"lon":139.800097},{"name":"paspa 浅草橋","province":"東京都","city":"台東区","address":"東京都台東区柳橋2丁目6-8","lat":35.69849,"lon":139.78759},{"name":"ファミリーマート　台東一丁目店","province":"東京都","city":"台東区","address":"東京都台東区台東1丁目1-14","lat":35.70069,"lon":139.78038},{"name":"セブン-イレブン　東上野１丁目店","province":"東京都","city":"台東区","address":"東京都台東区東上野1丁目7-15","lat":35.70759,"lon":139.77987},{"name":"セブン-イレブン　台東松が谷１丁目店","province":"東京都","city":"台東区","address":"東京都台東区松が谷1丁目3-5","lat":35.71107,"lon":139.78613},{"name":"セブン-イレブン　田原町駅前店","province":"東京都","city":"台東区","address":"東京都台東区寿2丁目10-10","lat":35.70956,"lon":139.79066},{"name":"smokers peace in ミマツ書房","province":"東京都","city":"台東区","address":"東京都台東区台東3丁目44-4","lat":35.70564,"lon":139.77756},{"name":"ファミリーマート　台東四丁目店","province":"東京都","city":"台東区","address":"東京都台東区台東4丁目30-6","lat":35.70725,"lon":139.77768},{"name":"paspa 上野","province":"東京都","city":"台東区","address":"東京都台東区上野7丁目4-3","lat":35.71284,"lon":139.778},{"name":"paspa 御徒町","province":"東京都","city":"台東区","address":"東京都台東区上野6丁目9-1","lat":35.70902,"lon":139.77537},{"name":"SMOKING & COFFEE BAR SMOCO","province":"東京都","city":"台東区","address":"東京都台東区雷門2丁目19-10","lat":35.710627,"lon":139.79721},{"name":"アメ横センタービル喫煙所","province":"東京都","city":"台東区","address":"東京都台東区上野4丁目7-2","lat":35.709078,"lon":139.77454},{"name":"松葉公園内","province":"東京都","city":"台東区","address":"東京都台東区松が谷1丁目12","lat":35.712137,"lon":139.78738},{"name":"台東区","province":"東京都","city":"台東区","address":"台東区東上野4-5-6","lat":35.7126069,"lon":139.7799844},{"name":"（有）竹内商店","province":"東京都","city":"台東区","address":"東京都台東区谷中6丁目3-9","lat":35.72346374,"lon":139.76886213},{"name":"（株）信興会","province":"東京都","city":"台東区","address":"東京都台東区上野桜木2丁目10-14","lat":35.72155569,"lon":139.77164258},{"name":"（株）そうかみ","province":"東京都","city":"台東区","address":"東京都台東区池之端4丁目18-4","lat":35.71952798,"lon":139.76941496},{"name":"（有）小泉桶甚本店","province":"東京都","city":"台東区","address":"東京都台東区下谷1丁目11-15","lat":35.71947836,"lon":139.78313624},{"name":"（有）鳥居本店","province":"東京都","city":"台東区","address":"東京都台東区下谷1丁目11-4","lat":35.7193256,"lon":139.78283349},{"name":"（有）染木商店","province":"東京都","city":"台東区","address":"東京都台東区竜泉1丁目22-6","lat":35.72426409,"lon":139.78956594},{"name":"（有）堀込葬祭","province":"東京都","city":"台東区","address":"東京都台東区千束3丁目16-5","lat":35.72160323,"lon":139.791427},{"name":"（有）小林花環店","province":"東京都","city":"台東区","address":"東京都台東区千束4丁目51-11","lat":35.72585259,"lon":139.79594269},{"name":"誠実屋　伊藤","province":"東京都","city":"台東区","address":"東京都台東区東浅草2丁目15-12","lat":35.72367021,"lon":139.80124868},{"name":"（有）金子商店","province":"東京都","city":"台東区","address":"東京都台東区清川1丁目33-5","lat":35.72612004,"lon":139.80211256},{"name":"（有）根岸商店","province":"東京都","city":"台東区","address":"東京都台東区今戸2丁目23-3","lat":35.72157095,"lon":139.80503222},{"name":"（有）川﨑商店","province":"東京都","city":"台東区","address":"東京都台東区西浅草2丁目3-13","lat":35.71233743,"lon":139.79016105},{"name":"（株）葬儀のうはら","province":"東京都","city":"台東区","address":"東京都台東区蔵前3丁目19-6","lat":35.70564366,"lon":139.79141157},{"name":"鳥越葬儀社神商店","province":"東京都","city":"台東区","address":"東京都台東区鳥越1丁目2-2","lat":35.70213558,"lon":139.78329568},{"name":"（有）東都葬祭福井","province":"東京都","city":"台東区","address":"東京都台東区台東3丁目42-4","lat":35.70558783,"lon":139.7763957},{"name":"台東保健所","province":"東京都","city":"台東区","address":"東京都台東区東上野4丁目22-8","lat":35.71447043,"lon":139.78151994},{"name":"浅草保健相談センター","province":"東京都","city":"台東区","address":"東京都台東区花川戸2丁目11-10","lat":35.71488192,"lon":139.80042386},{"name":"台東保健所","province":"東京都","city":"台東区","address":"台東区東上野4-22-8","lat":35.71452,"lon":139.78156},{"name":"浅草保健相談センター","province":"東京都","city":"台東区","address":"台東区花川戸2-11-10","lat":35.7147,"lon":139.80031},{"name":"北部区民事務所清川分室","province":"東京都","city":"台東区","address":"台東区清川1丁目23番8号","lat":35.72577082,"lon":139.8030813},{"name":"南部区民事務所","province":"東京都","city":"台東区","address":"台東区寿1丁目10番12号","lat":35.70725514,"lon":139.7888844},{"name":"北部区民事務所","province":"東京都","city":"台東区","address":"台東区浅草4丁目48番1号","lat":35.71823439,"lon":139.7987528},{"name":"西部区民事務所","province":"東京都","city":"台東区","address":"台東区下谷3丁目1番30号","lat":35.7230737,"lon":139.7860737},{"name":"西部区民事務所谷中分室","province":"東京都","city":"台東区","address":"台東区谷中5丁目6番5号","lat":35.72544479,"lon":139.766572},{"name":"警視庁第六方面本部","province":"東京都","city":"台東区","address":"台東区東浅草2丁目27番12号","lat":35.72453376,"lon":139.7978665},{"name":"(株)國光  東京事業所","province":"東京都","city":"台東区","address":"台東区三ノ輪1-5-3","lat":35.72707,"lon":139.792801},{"name":"(株)協和","province":"東京都","city":"台東区","address":"台東区根岸5-7-9","lat":35.727386,"lon":139.784256},{"name":"山仁紙業(株)  本社","province":"東京都","city":"台東区","address":"台東区三筋1-10-12","lat":35.704292,"lon":139.784851},{"name":"(有)北信紙業","province":"東京都","city":"台東区","address":"台東区松が谷3-3-9","lat":35.715282,"lon":139.787811},{"name":"(株)ノボル紙業","province":"東京都","city":"台東区","address":"台東区竜泉3-9-2","lat":35.724674,"lon":139.792496},{"name":"(有)近藤紙業","province":"東京都","city":"台東区","address":"台東区松が谷1-5-8","lat":35.71175,"lon":139.785522},{"name":"台東区選挙管理委員会","province":"東京都","city":"台東区","address":"台東区東上野4-5-6","lat":35.712601,"lon":139.779959},{"name":"台東保健所","province":"東京都","city":"台東区","address":"台東区東上野4-22-8","lat":35.71447,"lon":139.78152},{"name":"浅草保健相談センター","province":"東京都","city":"台東区","address":"台東区花川戸1-14-16","lat":35.713793,"lon":139.79963},{"name":"上野公園前交番裏","province":"東京都","city":"台東区","address":"東京都台東区上野公園1","lat":35.7112,"lon":139.77377},{"name":"JR上野駅（広小路口）ぺデストリアンデッキ上","province":"東京都","city":"台東区","address":"東京都台東区上野7丁目1","lat":35.71163,"lon":139.77628},{"name":"JR上野駅（浅草口）ペデストリアンデッキ上","province":"東京都","city":"台東区","address":"東京都台東区上野7丁目1","lat":35.71168,"lon":139.77726},{"name":"浅草寺境内 ①「二尊仏前」東","province":"東京都","city":"台東区","address":"東京都台東区浅草2丁目3","lat":35.71361,"lon":139.79737},{"name":"浅草寺境内 ②「観音前警備派出所」北","province":"東京都","city":"台東区","address":"東京都台東区浅草2丁目3","lat":35.71411,"lon":139.79726},{"name":"浅草寺境内 ③「北側トイレ」南","province":"東京都","city":"台東区","address":"東京都台東区浅草2丁目30","lat":35.71559,"lon":139.79706},{"name":"浅草寺境内 ④「はとバス駐車場」西","province":"東京都","city":"台東区","address":"東京都台東区浅草2丁目3","lat":35.71528,"lon":139.79597},{"name":"広徳公園内","province":"東京都","city":"台東区","address":"東京都台東区東上野4丁目5","lat":35.71248,"lon":139.78067},{"name":"池之端二丁目公衆トイレ横","province":"東京都","city":"台東区","address":"東京都台東区池之端2丁目4","lat":35.71358,"lon":139.76573},{"name":"本庁舎駐車場出口横","province":"東京都","city":"台東区","address":"東京都台東区東上野4丁目5","lat":35.712724,"lon":139.779469},{"name":"台東リバーサイドスポーツセンター体育館前","province":"東京都","city":"台東区","address":"東京都台東区今戸1丁目1","lat":35.717866,"lon":139.804235},{"name":"清川清掃車庫内","province":"東京都","city":"台東区","address":"東京都台東区清川2丁目24","lat":35.727847,"lon":139.805037},{"name":"鶯谷公園内","province":"東京都","city":"台東区","address":"東京都台東区根岸1丁目3","lat":35.721114,"lon":139.779621},{"name":"上野公園正岡子規記念球場横","province":"東京都","city":"台東区","address":"東京都台東区上野公園5","lat":35.714185,"lon":139.77416},{"name":"金竜公園内","province":"東京都","city":"台東区","address":"東京都台東区西浅草3丁目25","lat":35.716998,"lon":139.789717},{"name":"隅田公園内","province":"東京都","city":"台東区","address":"東京都台東区花川戸1丁目1","lat":35.712469,"lon":139.800097},{"name":"paspa 浅草橋","province":"東京都","city":"台東区","address":"東京都台東区柳橋2丁目6-8","lat":35.69849,"lon":139.78759},{"name":"ファミリーマート　台東一丁目店","province":"東京都","city":"台東区","address":"東京都台東区台東1丁目1-14","lat":35.70069,"lon":139.78038},{"name":"セブン-イレブン　東上野１丁目店","province":"東京都","city":"台東区","address":"東京都台東区東上野1丁目7-15","lat":35.70759,"lon":139.77987},{"name":"セブン-イレブン　台東松が谷１丁目店","province":"東京都","city":"台東区","address":"東京都台東区松が谷1丁目3-5","lat":35.71107,"lon":139.78613},{"name":"セブン-イレブン　田原町駅前店","province":"東京都","city":"台東区","address":"東京都台東区寿2丁目10-10","lat":35.70956,"lon":139.79066},{"name":"smokers peace in ミマツ書房","province":"東京都","city":"台東区","address":"東京都台東区台東3丁目44-4","lat":35.70564,"lon":139.77756},{"name":"ファミリーマート　台東四丁目店","province":"東京都","city":"台東区","address":"東京都台東区台東4丁目30-6","lat":35.70725,"lon":139.77768},{"name":"paspa 上野","province":"東京都","city":"台東区","address":"東京都台東区上野7丁目4-3","lat":35.71284,"lon":139.778},{"name":"paspa 御徒町","province":"東京都","city":"台東区","address":"東京都台東区上野6丁目9-1","lat":35.70902,"lon":139.77537},{"name":"SMOKING & COFFEE BAR SMOCO","province":"東京都","city":"台東区","address":"東京都台東区雷門2丁目19-10","lat":35.710627,"lon":139.79721},{"name":"アメ横センタービル喫煙所","province":"東京都","city":"台東区","address":"東京都台東区上野4丁目7-2","lat":35.709078,"lon":139.77454},{"name":"松葉公園内","province":"東京都","city":"台東区","address":"東京都台東区松が谷1丁目12","lat":35.712137,"lon":139.78738},{"name":"台東区","province":"東京都","city":"台東区","address":"台東区東上野4-5-6","lat":35.7126069,"lon":139.7799844},{"name":"台東保健所","province":"東京都","city":"台東区","address":"東京都台東区東上野4丁目22-8","lat":35.71447043,"lon":139.78151994},{"name":"浅草保健相談センター","province":"東京都","city":"台東区","address":"東京都台東区花川戸2丁目11-10","lat":35.71488192,"lon":139.80042386},{"name":"台東保健所","province":"東京都","city":"台東区","address":"台東区東上野4-22-8","lat":35.71452,"lon":139.78156},{"name":"浅草保健相談センター","province":"東京都","city":"台東区","address":"台東区花川戸2-11-10","lat":35.7147,"lon":139.80031},{"name":"北部区民事務所清川分室","province":"東京都","city":"台東区","address":"台東区清川1丁目23番8号","lat":35.72577082,"lon":139.8030813},{"name":"南部区民事務所","province":"東京都","city":"台東区","address":"台東区寿1丁目10番12号","lat":35.70725514,"lon":139.7888844},{"name":"北部区民事務所","province":"東京都","city":"台東区","address":"台東区浅草4丁目48番1号","lat":35.71823439,"lon":139.7987528},{"name":"西部区民事務所","province":"東京都","city":"台東区","address":"台東区下谷3丁目1番30号","lat":35.7230737,"lon":139.7860737},{"name":"西部区民事務所谷中分室","province":"東京都","city":"台東区","address":"台東区谷中5丁目6番5号","lat":35.72544479,"lon":139.766572},{"name":"警視庁第六方面本部","province":"東京都","city":"台東区","address":"台東区東浅草2丁目27番12号","lat":35.72453376,"lon":139.7978665},{"name":"(株)國光  東京事業所","province":"東京都","city":"台東区","address":"台東区三ノ輪1-5-3","lat":35.72707,"lon":139.792801},{"name":"(株)協和","province":"東京都","city":"台東区","address":"台東区根岸5-7-9","lat":35.727386,"lon":139.784256},{"name":"山仁紙業(株)  本社","province":"東京都","city":"台東区","address":"台東区三筋1-10-12","lat":35.704292,"lon":139.784851},{"name":"(有)北信紙業","province":"東京都","city":"台東区","address":"台東区松が谷3-3-9","lat":35.715282,"lon":139.787811},{"name":"(株)ノボル紙業","province":"東京都","city":"台東区","address":"台東区竜泉3-9-2","lat":35.724674,"lon":139.792496},{"name":"(有)近藤紙業","province":"東京都","city":"台東区","address":"台東区松が谷1-5-8","lat":35.71175,"lon":139.785522},{"name":"台東区選挙管理委員会","province":"東京都","city":"台東区","address":"台東区東上野4-5-6","lat":35.712601,"lon":139.779959},{"name":"台東保健所","province":"東京都","city":"台東区","address":"台東区東上野4-22-8","lat":35.71447,"lon":139.78152},{"name":"浅草保健相談センター","province":"東京都","city":"台東区","address":"台東区花川戸1-14-16","lat":35.713793,"lon":139.79963},{"name":"台東保健所","province":"東京都","city":"台東区","address":"東京都台東区東上野4丁目22-8","lat":35.71447043,"lon":139.78151994},{"name":"浅草保健相談センター","province":"東京都","city":"台東区","address":"東京都台東区花川戸2丁目11-10","lat":35.71488192,"lon":139.80042386},{"name":"台東保健所","province":"東京都","city":"台東区","address":"台東区東上野4-22-8","lat":35.71452,"lon":139.78156},{"name":"浅草保健相談センター","province":"東京都","city":"台東区","address":"台東区花川戸2-11-10","lat":35.7147,"lon":139.80031},{"name":"警視庁第六方面本部","province":"東京都","city":"台東区","address":"台東区東浅草2丁目27番12号","lat":35.72453376,"lon":139.7978665},{"name":"(株)國光  東京事業所","province":"東京都","city":"台東区","address":"台東区三ノ輪1-5-3","lat":35.72707,"lon":139.792801},{"name":"(株)協和","province":"東京都","city":"台東区","address":"台東区根岸5-7-9","lat":35.727386,"lon":139.784256},{"name":"山仁紙業(株)  本社","province":"東京都","city":"台東区","address":"台東区三筋1-10-12","lat":35.704292,"lon":139.784851},{"name":"(有)北信紙業","province":"東京都","city":"台東区","address":"台東区松が谷3-3-9","lat":35.715282,"lon":139.787811},{"name":"(株)ノボル紙業","province":"東京都","city":"台東区","address":"台東区竜泉3-9-2","lat":35.724674,"lon":139.792496},{"name":"(有)近藤紙業","province":"東京都","city":"台東区","address":"台東区松が谷1-5-8","lat":35.71175,"lon":139.785522},{"name":"台東区選挙管理委員会","province":"東京都","city":"台東区","address":"台東区東上野4-5-6","lat":35.712601,"lon":139.779959},{"name":"台東保健所","province":"東京都","city":"台東区","address":"台東区東上野4-22-8","lat":35.71447,"lon":139.78152},{"name":"浅草保健相談センター","province":"東京都","city":"台東区","address":"台東区花川戸1-14-16","lat":35.713793,"lon":139.79963},{"name":"台東保健所","province":"東京都","city":"台東区","address":"東京都台東区東上野4丁目22-8","lat":35.71447043,"lon":139.78151994},{"name":"浅草保健相談センター","province":"東京都","city":"台東区","address":"東京都台東区花川戸2丁目11-10","lat":35.71488192,"lon":139.80042386},{"name":"台東保健所","province":"東京都","city":"台東区","address":"台東区東上野4-22-8","lat":35.71452,"lon":139.78156},{"name":"浅草保健相談センター","province":"東京都","city":"台東区","address":"台東区花川戸2-11-10","lat":35.7147,"lon":139.80031},{"name":"警視庁第六方面本部","province":"東京都","city":"台東区","address":"台東区東浅草2丁目27番12号","lat":35.72453376,"lon":139.7978665},{"name":"台東区選挙管理委員会","province":"東京都","city":"台東区","address":"台東区東上野4-5-6","lat":35.712601,"lon":139.779959},{"name":"台東保健所","province":"東京都","city":"台東区","address":"台東区東上野4-22-8","lat":35.71447,"lon":139.78152},{"name":"浅草保健相談センター","province":"東京都","city":"台東区","address":"台東区花川戸1-14-16","lat":35.713793,"lon":139.79963},{"name":"台東保健所","province":"東京都","city":"台東区","address":"東京都台東区東上野4丁目22-8","lat":35.71447043,"lon":139.78151994},{"name":"浅草保健相談センター","province":"東京都","city":"台東区","address":"東京都台東区花川戸2丁目11-10","lat":35.71488192,"lon":139.80042386},{"name":"台東保健所","province":"東京都","city":"台東区","address":"台東区東上野4-22-8","lat":35.71452,"lon":139.78156},{"name":"浅草保健相談センター","province":"東京都","city":"台東区","address":"台東区花川戸2-11-10","lat":35.7147,"lon":139.80031},{"name":"警視庁第六方面本部","province":"東京都","city":"台東区","address":"台東区東浅草2丁目27番12号","lat":35.72453376,"lon":139.7978665},{"name":"台東区選挙管理委員会","province":"東京都","city":"台東区","address":"台東区東上野4-5-6","lat":35.712601,"lon":139.779959},{"name":"台東保健所","province":"東京都","city":"台東区","address":"台東区東上野4-22-8","lat":35.71447,"lon":139.78152},{"name":"浅草保健相談センター","province":"東京都","city":"台東区","address":"台東区花川戸1-14-16","lat":35.713793,"lon":139.79963},{"name":"台東保健所","province":"東京都","city":"台東区","address":"東京都台東区東上野4丁目22-8","lat":35.71447043,"lon":139.78151994},{"name":"浅草保健相談センター","province":"東京都","city":"台東区","address":"東京都台東区花川戸2丁目11-10","lat":35.71488192,"lon":139.80042386},{"name":"台東保健所","province":"東京都","city":"台東区","address":"台東区東上野4-22-8","lat":35.71452,"lon":139.78156},{"name":"浅草保健相談センター","province":"東京都","city":"台東区","address":"台東区花川戸2-11-10","lat":35.7147,"lon":139.80031},{"name":"警視庁第六方面本部","province":"東京都","city":"台東区","address":"台東区東浅草2丁目27番12号","lat":35.72453376,"lon":139.7978665},{"name":"台東区選挙管理委員会","province":"東京都","city":"台東区","address":"台東区東上野4-5-6","lat":35.712601,"lon":139.779959},{"name":"台東保健所","province":"東京都","city":"台東区","address":"台東区東上野4-22-8","lat":35.71447,"lon":139.78152},{"name":"浅草保健相談センター","province":"東京都","city":"台東区","address":"台東区花川戸1-14-16","lat":35.713793,"lon":139.79963},{"name":"台東保健所","province":"東京都","city":"台東区","address":"東京都台東区東上野4丁目22-8","lat":35.71447043,"lon":139.78151994},{"name":"浅草保健相談センター","province":"東京都","city":"台東区","address":"東京都台東区花川戸2丁目11-10","lat":35.71488192,"lon":139.80042386},{"name":"台東保健所","province":"東京都","city":"台東区","address":"台東区東上野4-22-8","lat":35.71452,"lon":139.78156},{"name":"浅草保健相談センター","province":"東京都","city":"台東区","address":"台東区花川戸2-11-10","lat":35.7147,"lon":139.80031},{"name":"警視庁第六方面本部","province":"東京都","city":"台東区","address":"台東区東浅草2丁目27番12号","lat":35.72453376,"lon":139.7978665},{"name":"台東区選挙管理委員会","province":"東京都","city":"台東区","address":"台東区東上野4-5-6","lat":35.712601,"lon":139.779959},{"name":"台東保健所","province":"東京都","city":"台東区","address":"台東区東上野4-22-8","lat":35.71447,"lon":139.78152},{"name":"浅草保健相談センター","province":"東京都","city":"台東区","address":"台東区花川戸1-14-16","lat":35.713793,"lon":139.79963},{"name":"台東保健所","province":"東京都","city":"台東区","address":"東京都台東区東上野4丁目22-8","lat":35.71447043,"lon":139.78151994},{"name":"浅草保健相談センター","province":"東京都","city":"台東区","address":"東京都台東区花川戸2丁目11-10","lat":35.71488192,"lon":139.80042386},{"name":"台東保健所","province":"東京都","city":"台東区","address":"台東区東上野4-22-8","lat":35.71452,"lon":139.78156},{"name":"浅草保健相談センター","province":"東京都","city":"台東区","address":"台東区花川戸2-11-10","lat":35.7147,"lon":139.80031},{"name":"警視庁第六方面本部","province":"東京都","city":"台東区","address":"台東区東浅草2丁目27番12号","lat":35.72453376,"lon":139.7978665},{"name":"台東区選挙管理委員会","province":"東京都","city":"台東区","address":"台東区東上野4-5-6","lat":35.712601,"lon":139.779959},{"name":"台東保健所","province":"東京都","city":"台東区","address":"台東区東上野4-22-8","lat":35.71447,"lon":139.78152},{"name":"浅草保健相談センター","province":"東京都","city":"台東区","address":"台東区花川戸1-14-16","lat":35.713793,"lon":139.79963},{"name":"台東保健所","province":"東京都","city":"台東区","address":"東京都台東区東上野4丁目22-8","lat":35.71447043,"lon":139.78151994},{"name":"浅草保健相談センター","province":"東京都","city":"台東区","address":"東京都台東区花川戸2丁目11-10","lat":35.71488192,"lon":139.80042386},{"name":"台東保健所","province":"東京都","city":"台東区","address":"台東区東上野4-22-8","lat":35.71452,"lon":139.78156},{"name":"浅草保健相談センター","province":"東京都","city":"台東区","address":"台東区花川戸2-11-10","lat":35.7147,"lon":139.80031},{"name":"警視庁第六方面本部","province":"東京都","city":"台東区","address":"台東区東浅草2丁目27番12号","lat":35.72453376,"lon":139.7978665},{"name":"台東区選挙管理委員会","province":"東京都","city":"台東区","address":"台東区東上野4-5-6","lat":35.712601,"lon":139.779959},{"name":"台東保健所","province":"東京都","city":"台東区","address":"台東区東上野4-22-8","lat":35.71447,"lon":139.78152},{"name":"浅草保健相談センター","province":"東京都","city":"台東区","address":"台東区花川戸1-14-16","lat":35.713793,"lon":139.79963},{"name":"台東保健所","province":"東京都","city":"台東区","address":"東京都台東区東上野4丁目22-8","lat":35.71447043,"lon":139.78151994},{"name":"浅草保健相談センター","province":"東京都","city":"台東区","address":"東京都台東区花川戸2丁目11-10","lat":35.71488192,"lon":139.80042386},{"name":"台東保健所","province":"東京都","city":"台東区","address":"台東区東上野4-22-8","lat":35.71452,"lon":139.78156},{"name":"浅草保健相談センター","province":"東京都","city":"台東区","address":"台東区花川戸2-11-10","lat":35.7147,"lon":139.80031},{"name":"警視庁第六方面本部","province":"東京都","city":"台東区","address":"台東区東浅草2丁目27番12号","lat":35.72453376,"lon":139.7978665},{"name":"台東区選挙管理委員会","province":"東京都","city":"台東区","address":"台東区東上野4-5-6","lat":35.712601,"lon":139.779959},{"name":"台東保健所","province":"東京都","city":"台東区","address":"台東区東上野4-22-8","lat":35.71447,"lon":139.78152},{"name":"浅草保健相談センター","province":"東京都","city":"台東区","address":"台東区花川戸1-14-16","lat":35.713793,"lon":139.79963},{"name":"台東保健所","province":"東京都","city":"台東区","address":"東京都台東区東上野4丁目22-8","lat":35.71447043,"lon":139.78151994},{"name":"浅草保健相談センター","province":"東京都","city":"台東区","address":"東京都台東区花川戸2丁目11-10","lat":35.71488192,"lon":139.80042386},{"name":"台東保健所","province":"東京都","city":"台東区","address":"台東区東上野4-22-8","lat":35.71452,"lon":139.78156},{"name":"浅草保健相談センター","province":"東京都","city":"台東区","address":"台東区花川戸2-11-10","lat":35.7147,"lon":139.80031},{"name":"警視庁第六方面本部","province":"東京都","city":"台東区","address":"台東区東浅草2丁目27番12号","lat":35.72453376,"lon":139.7978665},{"name":"台東区選挙管理委員会","province":"東京都","city":"台東区","address":"台東区東上野4-5-6","lat":35.712601,"lon":139.779959},{"name":"台東保健所","province":"東京都","city":"台東区","address":"台東区東上野4-22-8","lat":35.71447,"lon":139.78152},{"name":"浅草保健相談センター","province":"東京都","city":"台東区","address":"台東区花川戸1-14-16","lat":35.713793,"lon":139.79963},{"name":"台東保健所","province":"東京都","city":"台東区","address":"東京都台東区東上野4丁目22-8","lat":35.71447043,"lon":139.78151994},{"name":"浅草保健相談センター","province":"東京都","city":"台東区","address":"東京都台東区花川戸2丁目11-10","lat":35.71488192,"lon":139.80042386},{"name":"台東保健所","province":"東京都","city":"台東区","address":"台東区東上野4-22-8","lat":35.71452,"lon":139.78156},{"name":"浅草保健相談センター","province":"東京都","city":"台東区","address":"台東区花川戸2-11-10","lat":35.7147,"lon":139.80031},{"name":"警視庁第六方面本部","province":"東京都","city":"台東区","address":"台東区東浅草2丁目27番12号","lat":35.72453376,"lon":139.7978665},{"name":"台東区選挙管理委員会","province":"東京都","city":"台東区","address":"台東区東上野4-5-6","lat":35.712601,"lon":139.779959},{"name":"台東保健所","province":"東京都","city":"台東区","address":"台東区東上野4-22-8","lat":35.71447,"lon":139.78152},{"name":"浅草保健相談センター","province":"東京都","city":"台東区","address":"台東区花川戸1-14-16","lat":35.713793,"lon":139.79963},{"name":"台東保健所","province":"東京都","city":"台東区","address":"東京都台東区東上野4丁目22-8","lat":35.71447043,"lon":139.78151994},{"name":"浅草保健相談センター","province":"東京都","city":"台東区","address":"東京都台東区花川戸2丁目11-10","lat":35.71488192,"lon":139.80042386},{"name":"台東保健所","province":"東京都","city":"台東区","address":"台東区東上野4-22-8","lat":35.71452,"lon":139.78156},{"name":"浅草保健相談センター","province":"東京都","city":"台東区","address":"台東区花川戸2-11-10","lat":35.7147,"lon":139.80031},{"name":"警視庁第六方面本部","province":"東京都","city":"台東区","address":"台東区東浅草2丁目27番12号","lat":35.72453376,"lon":139.7978665},{"name":"台東区選挙管理委員会","province":"東京都","city":"台東区","address":"台東区東上野4-5-6","lat":35.712601,"lon":139.779959},{"name":"台東保健所","province":"東京都","city":"台東区","address":"台東区東上野4-22-8","lat":35.71447,"lon":139.78152},{"name":"浅草保健相談センター","province":"東京都","city":"台東区","address":"台東区花川戸1-14-16","lat":35.713793,"lon":139.79963},{"name":"台東保健所","province":"東京都","city":"台東区","address":"東京都台東区東上野4丁目22-8","lat":35.71447043,"lon":139.78151994},{"name":"浅草保健相談センター","province":"東京都","city":"台東区","address":"東京都台東区花川戸2丁目11-10","lat":35.71488192,"lon":139.80042386},{"name":"台東保健所","province":"東京都","city":"台東区","address":"台東区東上野4-22-8","lat":35.71452,"lon":139.78156},{"name":"浅草保健相談センター","province":"東京都","city":"台東区","address":"台東区花川戸2-11-10","lat":35.7147,"lon":139.80031},{"name":"警視庁第六方面本部","province":"東京都","city":"台東区","address":"台東区東浅草2丁目27番12号","lat":35.72453376,"lon":139.7978665},{"name":"台東区選挙管理委員会","province":"東京都","city":"台東区","address":"台東区東上野4-5-6","lat":35.712601,"lon":139.779959},{"name":"台東保健所","province":"東京都","city":"台東区","address":"台東区東上野4-22-8","lat":35.71447,"lon":139.78152},{"name":"浅草保健相談センター","province":"東京都","city":"台東区","address":"台東区花川戸1-14-16","lat":35.713793,"lon":139.79963},{"name":"台東保健所","province":"東京都","city":"台東区","address":"東京都台東区東上野4丁目22-8","lat":35.71447043,"lon":139.78151994},{"name":"浅草保健相談センター","province":"東京都","city":"台東区","address":"東京都台東区花川戸2丁目11-10","lat":35.71488192,"lon":139.80042386},{"name":"台東保健所","province":"東京都","city":"台東区","address":"台東区東上野4-22-8","lat":35.71452,"lon":139.78156},{"name":"浅草保健相談センター","province":"東京都","city":"台東区","address":"台東区花川戸2-11-10","lat":35.7147,"lon":139.80031},{"name":"台東区選挙管理委員会","province":"東京都","city":"台東区","address":"台東区東上野4-5-6","lat":35.712601,"lon":139.779959},{"name":"台東保健所","province":"東京都","city":"台東区","address":"台東区東上野4-22-8","lat":35.71447,"lon":139.78152},{"name":"浅草保健相談センター","province":"東京都","city":"台東区","address":"台東区花川戸1-14-16","lat":35.713793,"lon":139.79963},{"name":"台東保健所","province":"東京都","city":"台東区","address":"東京都台東区東上野4丁目22-8","lat":35.71447043,"lon":139.78151994},{"name":"浅草保健相談センター","province":"東京都","city":"台東区","address":"東京都台東区花川戸2丁目11-10","lat":35.71488192,"lon":139.80042386},{"name":"台東保健所","province":"東京都","city":"台東区","address":"台東区東上野4-22-8","lat":35.71452,"lon":139.78156},{"name":"浅草保健相談センター","province":"東京都","city":"台東区","address":"台東区花川戸2-11-10","lat":35.7147,"lon":139.80031},{"name":"台東区選挙管理委員会","province":"東京都","city":"台東区","address":"台東区東上野4-5-6","lat":35.712601,"lon":139.779959},{"name":"台東保健所","province":"東京都","city":"台東区","address":"台東区東上野4-22-8","lat":35.71447,"lon":139.78152},{"name":"浅草保健相談センター","province":"東京都","city":"台東区","address":"台東区花川戸1-14-16","lat":35.713793,"lon":139.79963},{"name":"台東保健所","province":"東京都","city":"台東区","address":"東京都台東区東上野4丁目22-8","lat":35.71447043,"lon":139.78151994},{"name":"浅草保健相談センター","province":"東京都","city":"台東区","address":"東京都台東区花川戸2丁目11-10","lat":35.71488192,"lon":139.80042386},{"name":"台東保健所","province":"東京都","city":"台東区","address":"台東区東上野4-22-8","lat":35.71452,"lon":139.78156},{"name":"浅草保健相談センター","province":"東京都","city":"台東区","address":"台東区花川戸2-11-10","lat":35.7147,"lon":139.80031},{"name":"台東区選挙管理委員会","province":"東京都","city":"台東区","address":"台東区東上野4-5-6","lat":35.712601,"lon":139.779959},{"name":"台東保健所","province":"東京都","city":"台東区","address":"台東区東上野4-22-8","lat":35.71447,"lon":139.78152},{"name":"浅草保健相談センター","province":"東京都","city":"台東区","address":"台東区花川戸1-14-16","lat":35.713793,"lon":139.79963},{"name":"台東保健所","province":"東京都","city":"台東区","address":"東京都台東区東上野4丁目22-8","lat":35.71447043,"lon":139.78151994},{"name":"浅草保健相談センター","province":"東京都","city":"台東区","address":"東京都台東区花川戸2丁目11-10","lat":35.71488192,"lon":139.80042386},{"name":"台東保健所","province":"東京都","city":"台東区","address":"台東区東上野4-22-8","lat":35.71452,"lon":139.78156},{"name":"浅草保健相談センター","province":"東京都","city":"台東区","address":"台東区花川戸2-11-10","lat":35.7147,"lon":139.80031},{"name":"台東区選挙管理委員会","province":"東京都","city":"台東区","address":"台東区東上野4-5-6","lat":35.712601,"lon":139.779959},{"name":"台東保健所","province":"東京都","city":"台東区","address":"台東区東上野4-22-8","lat":35.71447,"lon":139.78152},{"name":"浅草保健相談センター","province":"東京都","city":"台東区","address":"台東区花川戸1-14-16","lat":35.713793,"lon":139.79963},{"name":"台東保健所","province":"東京都","city":"台東区","address":"東京都台東区東上野4丁目22-8","lat":35.71447043,"lon":139.78151994},{"name":"浅草保健相談センター","province":"東京都","city":"台東区","address":"東京都台東区花川戸2丁目11-10","lat":35.71488192,"lon":139.80042386},{"name":"台東保健所","province":"東京都","city":"台東区","address":"台東区東上野4-22-8","lat":35.71452,"lon":139.78156},{"name":"浅草保健相談センター","province":"東京都","city":"台東区","address":"台東区花川戸2-11-10","lat":35.7147,"lon":139.80031},{"name":"台東区選挙管理委員会","province":"東京都","city":"台東区","address":"台東区東上野4-5-6","lat":35.712601,"lon":139.779959},{"name":"台東保健所","province":"東京都","city":"台東区","address":"台東区東上野4-22-8","lat":35.71447,"lon":139.78152},{"name":"浅草保健相談センター","province":"東京都","city":"台東区","address":"台東区花川戸1-14-16","lat":35.713793,"lon":139.79963},{"name":"台東保健所","province":"東京都","city":"台東区","address":"東京都台東区東上野4丁目22-8","lat":35.71447043,"lon":139.78151994},{"name":"浅草保健相談センター","province":"東京都","city":"台東区","address":"東京都台東区花川戸2丁目11-10","lat":35.71488192,"lon":139.80042386},{"name":"台東保健所","province":"東京都","city":"台東区","address":"台東区東上野4-22-8","lat":35.71452,"lon":139.78156},{"name":"浅草保健相談センター","province":"東京都","city":"台東区","address":"台東区花川戸2-11-10","lat":35.7147,"lon":139.80031},{"name":"台東区選挙管理委員会","province":"東京都","city":"台東区","address":"台東区東上野4-5-6","lat":35.712601,"lon":139.779959},{"name":"台東保健所","province":"東京都","city":"台東区","address":"台東区東上野4-22-8","lat":35.71447,"lon":139.78152},{"name":"浅草保健相談センター","province":"東京都","city":"台東区","address":"台東区花川戸1-14-16","lat":35.713793,"lon":139.79963},{"name":"台東保健所","province":"東京都","city":"台東区","address":"東京都台東区東上野4丁目22-8","lat":35.71447043,"lon":139.78151994},{"name":"浅草保健相談センター","province":"東京都","city":"台東区","address":"東京都台東区花川戸2丁目11-10","lat":35.71488192,"lon":139.80042386},{"name":"台東保健所","province":"東京都","city":"台東区","address":"台東区東上野4-22-8","lat":35.71452,"lon":139.78156},{"name":"浅草保健相談センター","province":"東京都","city":"台東区","address":"台東区花川戸2-11-10","lat":35.7147,"lon":139.80031},{"name":"台東区選挙管理委員会","province":"東京都","city":"台東区","address":"台東区東上野4-5-6","lat":35.712601,"lon":139.779959},{"name":"台東保健所","province":"東京都","city":"台東区","address":"台東区東上野4-22-8","lat":35.71447,"lon":139.78152},{"name":"浅草保健相談センター","province":"東京都","city":"台東区","address":"台東区花川戸1-14-16","lat":35.713793,"lon":139.79963},{"name":"台東保健所","province":"東京都","city":"台東区","address":"東京都台東区東上野4丁目22-8","lat":35.71447043,"lon":139.78151994},{"name":"浅草保健相談センター","province":"東京都","city":"台東区","address":"東京都台東区花川戸2丁目11-10","lat":35.71488192,"lon":139.80042386},{"name":"台東保健所","province":"東京都","city":"台東区","address":"台東区東上野4-22-8","lat":35.71452,"lon":139.78156},{"name":"浅草保健相談センター","province":"東京都","city":"台東区","address":"台東区花川戸2-11-10","lat":35.7147,"lon":139.80031},{"name":"台東区選挙管理委員会","province":"東京都","city":"台東区","address":"台東区東上野4-5-6","lat":35.712601,"lon":139.779959},{"name":"台東保健所","province":"東京都","city":"台東区","address":"台東区東上野4-22-8","lat":35.71447,"lon":139.78152},{"name":"浅草保健相談センター","province":"東京都","city":"台東区","address":"台東区花川戸1-14-16","lat":35.713793,"lon":139.79963},{"name":"台東保健所","province":"東京都","city":"台東区","address":"東京都台東区東上野4丁目22-8","lat":35.71447043,"lon":139.78151994},{"name":"浅草保健相談センター","province":"東京都","city":"台東区","address":"東京都台東区花川戸2丁目11-10","lat":35.71488192,"lon":139.80042386},{"name":"台東保健所","province":"東京都","city":"台東区","address":"台東区東上野4-22-8","lat":35.71452,"lon":139.78156},{"name":"浅草保健相談センター","province":"東京都","city":"台東区","address":"台東区花川戸2-11-10","lat":35.7147,"lon":139.80031},{"name":"台東区選挙管理委員会","province":"東京都","city":"台東区","address":"台東区東上野4-5-6","lat":35.712601,"lon":139.779959},{"name":"台東保健所","province":"東京都","city":"台東区","address":"台東区東上野4-22-8","lat":35.71447,"lon":139.78152},{"name":"浅草保健相談センター","province":"東京都","city":"台東区","address":"台東区花川戸1-14-16","lat":35.713793,"lon":139.79963},{"name":"台東保健所","province":"東京都","city":"台東区","address":"東京都台東区東上野4丁目22-8","lat":35.71447043,"lon":139.78151994},{"name":"浅草保健相談センター","province":"東京都","city":"台東区","address":"東京都台東区花川戸2丁目11-10","lat":35.71488192,"lon":139.80042386},{"name":"台東保健所","province":"東京都","city":"台東区","address":"台東区東上野4-22-8","lat":35.71452,"lon":139.78156},{"name":"浅草保健相談センター","province":"東京都","city":"台東区","address":"台東区花川戸2-11-10","lat":35.7147,"lon":139.80031},{"name":"台東区選挙管理委員会","province":"東京都","city":"台東区","address":"台東区東上野4-5-6","lat":35.712601,"lon":139.779959},{"name":"台東保健所","province":"東京都","city":"台東区","address":"台東区東上野4-22-8","lat":35.71447,"lon":139.78152},{"name":"浅草保健相談センター","province":"東京都","city":"台東区","address":"台東区花川戸1-14-16","lat":35.713793,"lon":139.79963},{"name":"台東保健所","province":"東京都","city":"台東区","address":"東京都台東区東上野4丁目22-8","lat":35.71447043,"lon":139.78151994},{"name":"浅草保健相談センター","province":"東京都","city":"台東区","address":"東京都台東区花川戸2丁目11-10","lat":35.71488192,"lon":139.80042386},{"name":"台東保健所","province":"東京都","city":"台東区","address":"台東区東上野4-22-8","lat":35.71452,"lon":139.78156},{"name":"浅草保健相談センター","province":"東京都","city":"台東区","address":"台東区花川戸2-11-10","lat":35.7147,"lon":139.80031},{"name":"台東区選挙管理委員会","province":"東京都","city":"台東区","address":"台東区東上野4-5-6","lat":35.712601,"lon":139.779959},{"name":"台東保健所","province":"東京都","city":"台東区","address":"台東区東上野4-22-8","lat":35.71447,"lon":139.78152},{"name":"浅草保健相談センター","province":"東京都","city":"台東区","address":"台東区花川戸1-14-16","lat":35.713793,"lon":139.79963},{"name":"台東保健所","province":"東京都","city":"台東区","address":"東京都台東区東上野4丁目22-8","lat":35.71447043,"lon":139.78151994},{"name":"浅草保健相談センター","province":"東京都","city":"台東区","address":"東京都台東区花川戸2丁目11-10","lat":35.71488192,"lon":139.80042386},{"name":"台東保健所","province":"東京都","city":"台東区","address":"台東区東上野4-22-8","lat":35.71452,"lon":139.78156},{"name":"浅草保健相談センター","province":"東京都","city":"台東区","address":"台東区花川戸2-11-10","lat":35.7147,"lon":139.80031},{"name":"台東区選挙管理委員会","province":"東京都","city":"台東区","address":"台東区東上野4-5-6","lat":35.712601,"lon":139.779959},{"name":"台東保健所","province":"東京都","city":"台東区","address":"台東区東上野4-22-8","lat":35.71447,"lon":139.78152},{"name":"浅草保健相談センター","province":"東京都","city":"台東区","address":"台東区花川戸1-14-16","lat":35.713793,"lon":139.79963},{"name":"台東保健所","province":"東京都","city":"台東区","address":"東京都台東区東上野4丁目22-8","lat":35.71447043,"lon":139.78151994},{"name":"浅草保健相談センター","province":"東京都","city":"台東区","address":"東京都台東区花川戸2丁目11-10","lat":35.71488192,"lon":139.80042386},{"name":"台東保健所","province":"東京都","city":"台東区","address":"台東区東上野4-22-8","lat":35.71452,"lon":139.78156},{"name":"浅草保健相談センター","province":"東京都","city":"台東区","address":"台東区花川戸2-11-10","lat":35.7147,"lon":139.80031},{"name":"台東区選挙管理委員会","province":"東京都","city":"台東区","address":"台東区東上野4-5-6","lat":35.712601,"lon":139.779959},{"name":"台東保健所","province":"東京都","city":"台東区","address":"台東区東上野4-22-8","lat":35.71447,"lon":139.78152},{"name":"浅草保健相談センター","province":"東京都","city":"台東区","address":"台東区花川戸1-14-16","lat":35.713793,"lon":139.79963},{"name":"台東保健所","province":"東京都","city":"台東区","address":"東京都台東区東上野4丁目22-8","lat":35.71447043,"lon":139.78151994},{"name":"浅草保健相談センター","province":"東京都","city":"台東区","address":"東京都台東区花川戸2丁目11-10","lat":35.71488192,"lon":139.80042386},{"name":"台東保健所","province":"東京都","city":"台東区","address":"台東区東上野4-22-8","lat":35.71452,"lon":139.78156},{"name":"浅草保健相談センター","province":"東京都","city":"台東区","address":"台東区花川戸2-11-10","lat":35.7147,"lon":139.80031},{"name":"台東区選挙管理委員会","province":"東京都","city":"台東区","address":"台東区東上野4-5-6","lat":35.712601,"lon":139.779959},{"name":"台東保健所","province":"東京都","city":"台東区","address":"台東区東上野4-22-8","lat":35.71447,"lon":139.78152},{"name":"浅草保健相談センター","province":"東京都","city":"台東区","address":"台東区花川戸1-14-16","lat":35.713793,"lon":139.79963},{"name":"台東保健所","province":"東京都","city":"台東区","address":"東京都台東区東上野4丁目22-8","lat":35.71447043,"lon":139.78151994},{"name":"浅草保健相談センター","province":"東京都","city":"台東区","address":"東京都台東区花川戸2丁目11-10","lat":35.71488192,"lon":139.80042386},{"name":"台東保健所","province":"東京都","city":"台東区","address":"台東区東上野4-22-8","lat":35.71452,"lon":139.78156},{"name":"浅草保健相談センター","province":"東京都","city":"台東区","address":"台東区花川戸2-11-10","lat":35.7147,"lon":139.80031},{"name":"台東区選挙管理委員会","province":"東京都","city":"台東区","address":"台東区東上野4-5-6","lat":35.712601,"lon":139.779959},{"name":"台東保健所","province":"東京都","city":"台東区","address":"台東区東上野4-22-8","lat":35.71447,"lon":139.78152},{"name":"浅草保健相談センター","province":"東京都","city":"台東区","address":"台東区花川戸1-14-16","lat":35.713793,"lon":139.79963},{"name":"台東保健所","province":"東京都","city":"台東区","address":"東京都台東区東上野4丁目22-8","lat":35.71447043,"lon":139.78151994},{"name":"浅草保健相談センター","province":"東京都","city":"台東区","address":"東京都台東区花川戸2丁目11-10","lat":35.71488192,"lon":139.80042386},{"name":"台東保健所","province":"東京都","city":"台東区","address":"台東区東上野4-22-8","lat":35.71452,"lon":139.78156},{"name":"浅草保健相談センター","province":"東京都","city":"台東区","address":"台東区花川戸2-11-10","lat":35.7147,"lon":139.80031},{"name":"台東区選挙管理委員会","province":"東京都","city":"台東区","address":"台東区東上野4-5-6","lat":35.712601,"lon":139.779959},{"name":"台東保健所","province":"東京都","city":"台東区","address":"台東区東上野4-22-8","lat":35.71447,"lon":139.78152},{"name":"浅草保健相談センター","province":"東京都","city":"台東区","address":"台東区花川戸1-14-16","lat":35.713793,"lon":139.79963},{"name":"台東保健所","province":"東京都","city":"台東区","address":"東京都台東区東上野4丁目22-8","lat":35.71447043,"lon":139.78151994},{"name":"浅草保健相談センター","province":"東京都","city":"台東区","address":"東京都台東区花川戸2丁目11-10","lat":35.71488192,"lon":139.80042386},{"name":"台東保健所","province":"東京都","city":"台東区","address":"台東区東上野4-22-8","lat":35.71452,"lon":139.78156},{"name":"浅草保健相談センター","province":"東京都","city":"台東区","address":"台東区花川戸2-11-10","lat":35.7147,"lon":139.80031},{"name":"台東区選挙管理委員会","province":"東京都","city":"台東区","address":"台東区東上野4-5-6","lat":35.712601,"lon":139.779959},{"name":"台東保健所","province":"東京都","city":"台東区","address":"台東区東上野4-22-8","lat":35.71447,"lon":139.78152},{"name":"浅草保健相談センター","province":"東京都","city":"台東区","address":"台東区花川戸1-14-16","lat":35.713793,"lon":139.79963},{"name":"台東保健所","province":"東京都","city":"台東区","address":"東京都台東区東上野4丁目22-8","lat":35.71447043,"lon":139.78151994},{"name":"浅草保健相談センター","province":"東京都","city":"台東区","address":"東京都台東区花川戸2丁目11-10","lat":35.71488192,"lon":139.80042386},{"name":"台東保健所","province":"東京都","city":"台東区","address":"台東区東上野4-22-8","lat":35.71452,"lon":139.78156},{"name":"浅草保健相談センター","province":"東京都","city":"台東区","address":"台東区花川戸2-11-10","lat":35.7147,"lon":139.80031},{"name":"台東区選挙管理委員会","province":"東京都","city":"台東区","address":"台東区東上野4-5-6","lat":35.712601,"lon":139.779959},{"name":"台東保健所","province":"東京都","city":"台東区","address":"台東区東上野4-22-8","lat":35.71447,"lon":139.78152},{"name":"浅草保健相談センター","province":"東京都","city":"台東区","address":"台東区花川戸1-14-16","lat":35.713793,"lon":139.79963},{"name":"台東保健所","province":"東京都","city":"台東区","address":"東京都台東区東上野4丁目22-8","lat":35.71447043,"lon":139.78151994},{"name":"浅草保健相談センター","province":"東京都","city":"台東区","address":"東京都台東区花川戸2丁目11-10","lat":35.71488192,"lon":139.80042386},{"name":"台東保健所","province":"東京都","city":"台東区","address":"台東区東上野4-22-8","lat":35.71452,"lon":139.78156},{"name":"浅草保健相談センター","province":"東京都","city":"台東区","address":"台東区花川戸2-11-10","lat":35.7147,"lon":139.80031},{"name":"台東区選挙管理委員会","province":"東京都","city":"台東区","address":"台東区東上野4-5-6","lat":35.712601,"lon":139.779959},{"name":"台東保健所","province":"東京都","city":"台東区","address":"台東区東上野4-22-8","lat":35.71447,"lon":139.78152},{"name":"浅草保健相談センター","province":"東京都","city":"台東区","address":"台東区花川戸1-14-16","lat":35.713793,"lon":139.79963},{"name":"台東保健所","province":"東京都","city":"台東区","address":"東京都台東区東上野4丁目22-8","lat":35.71447043,"lon":139.78151994},{"name":"浅草保健相談センター","province":"東京都","city":"台東区","address":"東京都台東区花川戸2丁目11-10","lat":35.71488192,"lon":139.80042386},{"name":"台東保健所","province":"東京都","city":"台東区","address":"台東区東上野4-22-8","lat":35.71452,"lon":139.78156},{"name":"浅草保健相談センター","province":"東京都","city":"台東区","address":"台東区花川戸2-11-10","lat":35.7147,"lon":139.80031},{"name":"台東区選挙管理委員会","province":"東京都","city":"台東区","address":"台東区東上野4-5-6","lat":35.712601,"lon":139.779959},{"name":"台東保健所","province":"東京都","city":"台東区","address":"台東区東上野4-22-8","lat":35.71447,"lon":139.78152},{"name":"浅草保健相談センター","province":"東京都","city":"台東区","address":"台東区花川戸1-14-16","lat":35.713793,"lon":139.79963},{"name":"台東保健所","province":"東京都","city":"台東区","address":"東京都台東区東上野4丁目22-8","lat":35.71447043,"lon":139.78151994},{"name":"浅草保健相談センター","province":"東京都","city":"台東区","address":"東京都台東区花川戸2丁目11-10","lat":35.71488192,"lon":139.80042386},{"name":"台東保健所","province":"東京都","city":"台東区","address":"台東区東上野4-22-8","lat":35.71452,"lon":139.78156},{"name":"浅草保健相談センター","province":"東京都","city":"台東区","address":"台東区花川戸2-11-10","lat":35.7147,"lon":139.80031},{"name":"台東区選挙管理委員会","province":"東京都","city":"台東区","address":"台東区東上野4-5-6","lat":35.712601,"lon":139.779959},{"name":"台東保健所","province":"東京都","city":"台東区","address":"台東区東上野4-22-8","lat":35.71447,"lon":139.78152},{"name":"浅草保健相談センター","province":"東京都","city":"台東区","address":"台東区花川戸1-14-16","lat":35.713793,"lon":139.79963},{"name":"台東保健所","province":"東京都","city":"台東区","address":"東京都台東区東上野4丁目22-8","lat":35.71447043,"lon":139.78151994},{"name":"浅草保健相談センター","province":"東京都","city":"台東区","address":"東京都台東区花川戸2丁目11-10","lat":35.71488192,"lon":139.80042386},{"name":"台東保健所","province":"東京都","city":"台東区","address":"台東区東上野4-22-8","lat":35.71452,"lon":139.78156},{"name":"浅草保健相談センター","province":"東京都","city":"台東区","address":"台東区花川戸2-11-10","lat":35.7147,"lon":139.80031},{"name":"台東区選挙管理委員会","province":"東京都","city":"台東区","address":"台東区東上野4-5-6","lat":35.712601,"lon":139.779959},{"name":"台東保健所","province":"東京都","city":"台東区","address":"台東区東上野4-22-8","lat":35.71447,"lon":139.78152},{"name":"浅草保健相談センター","province":"東京都","city":"台東区","address":"台東区花川戸1-14-16","lat":35.713793,"lon":139.79963},{"name":"台東保健所","province":"東京都","city":"台東区","address":"東京都台東区東上野4丁目22-8","lat":35.71447043,"lon":139.78151994},{"name":"浅草保健相談センター","province":"東京都","city":"台東区","address":"東京都台東区花川戸2丁目11-10","lat":35.71488192,"lon":139.80042386},{"name":"台東保健所","province":"東京都","city":"台東区","address":"台東区東上野4-22-8","lat":35.71452,"lon":139.78156},{"name":"浅草保健相談センター","province":"東京都","city":"台東区","address":"台東区花川戸2-11-10","lat":35.7147,"lon":139.80031},{"name":"台東区選挙管理委員会","province":"東京都","city":"台東区","address":"台東区東上野4-5-6","lat":35.712601,"lon":139.779959},{"name":"台東保健所","province":"東京都","city":"台東区","address":"台東区東上野4-22-8","lat":35.71447,"lon":139.78152},{"name":"浅草保健相談センター","province":"東京都","city":"台東区","address":"台東区花川戸1-14-16","lat":35.713793,"lon":139.79963},{"name":"台東保健所","province":"東京都","city":"台東区","address":"東京都台東区東上野4丁目22-8","lat":35.71447043,"lon":139.78151994},{"name":"浅草保健相談センター","province":"東京都","city":"台東区","address":"東京都台東区花川戸2丁目11-10","lat":35.71488192,"lon":139.80042386},{"name":"台東保健所","province":"東京都","city":"台東区","address":"台東区東上野4-22-8","lat":35.71452,"lon":139.78156},{"name":"浅草保健相談センター","province":"東京都","city":"台東区","address":"台東区花川戸2-11-10","lat":35.7147,"lon":139.80031},{"name":"台東区選挙管理委員会","province":"東京都","city":"台東区","address":"台東区東上野4-5-6","lat":35.712601,"lon":139.779959},{"name":"台東保健所","province":"東京都","city":"台東区","address":"台東区東上野4-22-8","lat":35.71447,"lon":139.78152},{"name":"浅草保健相談センター","province":"東京都","city":"台東区","address":"台東区花川戸1-14-16","lat":35.713793,"lon":139.79963},{"name":"台東保健所","province":"東京都","city":"台東区","address":"東京都台東区東上野4丁目22-8","lat":35.71447043,"lon":139.78151994},{"name":"浅草保健相談センター","province":"東京都","city":"台東区","address":"東京都台東区花川戸2丁目11-10","lat":35.71488192,"lon":139.80042386},{"name":"台東保健所","province":"東京都","city":"台東区","address":"台東区東上野4-22-8","lat":35.71452,"lon":139.78156},{"name":"浅草保健相談センター","province":"東京都","city":"台東区","address":"台東区花川戸2-11-10","lat":35.7147,"lon":139.80031},{"name":"台東区選挙管理委員会","province":"東京都","city":"台東区","address":"台東区東上野4-5-6","lat":35.712601,"lon":139.779959},{"name":"台東保健所","province":"東京都","city":"台東区","address":"台東区東上野4-22-8","lat":35.71447,"lon":139.78152},{"name":"浅草保健相談センター","province":"東京都","city":"台東区","address":"台東区花川戸1-14-16","lat":35.713793,"lon":139.79963},{"name":"台東保健所","province":"東京都","city":"台東区","address":"東京都台東区東上野4丁目22-8","lat":35.71447043,"lon":139.78151994},{"name":"浅草保健相談センター","province":"東京都","city":"台東区","address":"東京都台東区花川戸2丁目11-10","lat":35.71488192,"lon":139.80042386},{"name":"台東保健所","province":"東京都","city":"台東区","address":"台東区東上野4-22-8","lat":35.71452,"lon":139.78156},{"name":"浅草保健相談センター","province":"東京都","city":"台東区","address":"台東区花川戸2-11-10","lat":35.7147,"lon":139.80031},{"name":"台東区選挙管理委員会","province":"東京都","city":"台東区","address":"台東区東上野4-5-6","lat":35.712601,"lon":139.779959},{"name":"台東保健所","province":"東京都","city":"台東区","address":"台東区東上野4-22-8","lat":35.71447,"lon":139.78152},{"name":"浅草保健相談センター","province":"東京都","city":"台東区","address":"台東区花川戸1-14-16","lat":35.713793,"lon":139.79963},{"name":"台東保健所","province":"東京都","city":"台東区","address":"東京都台東区東上野4丁目22-8","lat":35.71447043,"lon":139.78151994},{"name":"浅草保健相談センター","province":"東京都","city":"台東区","address":"東京都台東区花川戸2丁目11-10","lat":35.71488192,"lon":139.80042386},{"name":"台東保健所","province":"東京都","city":"台東区","address":"台東区東上野4-22-8","lat":35.71452,"lon":139.78156},{"name":"浅草保健相談センター","province":"東京都","city":"台東区","address":"台東区花川戸2-11-10","lat":35.7147,"lon":139.80031},{"name":"台東区選挙管理委員会","province":"東京都","city":"台東区","address":"台東区東上野4-5-6","lat":35.712601,"lon":139.779959},{"name":"台東保健所","province":"東京都","city":"台東区","address":"台東区東上野4-22-8","lat":35.71447,"lon":139.78152},{"name":"浅草保健相談センター","province":"東京都","city":"台東区","address":"台東区花川戸1-14-16","lat":35.713793,"lon":139.79963},{"name":"台東保健所","province":"東京都","city":"台東区","address":"東京都台東区東上野4丁目22-8","lat":35.71447043,"lon":139.78151994},{"name":"浅草保健相談センター","province":"東京都","city":"台東区","address":"東京都台東区花川戸2丁目11-10","lat":35.71488192,"lon":139.80042386},{"name":"台東保健所","province":"東京都","city":"台東区","address":"台東区東上野4-22-8","lat":35.71452,"lon":139.78156},{"name":"浅草保健相談センター","province":"東京都","city":"台東区","address":"台東区花川戸2-11-10","lat":35.7147,"lon":139.80031},{"name":"台東区選挙管理委員会","province":"東京都","city":"台東区","address":"台東区東上野4-5-6","lat":35.712601,"lon":139.779959},{"name":"台東保健所","province":"東京都","city":"台東区","address":"台東区東上野4-22-8","lat":35.71447,"lon":139.78152},{"name":"浅草保健相談センター","province":"東京都","city":"台東区","address":"台東区花川戸1-14-16","lat":35.713793,"lon":139.79963},{"name":"台東保健所","province":"東京都","city":"台東区","address":"東京都台東区東上野4丁目22-8","lat":35.71447043,"lon":139.78151994},{"name":"浅草保健相談センター","province":"東京都","city":"台東区","address":"東京都台東区花川戸2丁目11-10","lat":35.71488192,"lon":139.80042386},{"name":"台東保健所","province":"東京都","city":"台東区","address":"台東区東上野4-22-8","lat":35.71452,"lon":139.78156},{"name":"浅草保健相談センター","province":"東京都","city":"台東区","address":"台東区花川戸2-11-10","lat":35.7147,"lon":139.80031},{"name":"台東区選挙管理委員会","province":"東京都","city":"台東区","address":"台東区東上野4-5-6","lat":35.712601,"lon":139.779959},{"name":"台東保健所","province":"東京都","city":"台東区","address":"台東区東上野4-22-8","lat":35.71447,"lon":139.78152},{"name":"浅草保健相談センター","province":"東京都","city":"台東区","address":"台東区花川戸1-14-16","lat":35.713793,"lon":139.79963},{"name":"台東保健所","province":"東京都","city":"台東区","address":"東京都台東区東上野4丁目22-8","lat":35.71447043,"lon":139.78151994},{"name":"浅草保健相談センター","province":"東京都","city":"台東区","address":"東京都台東区花川戸2丁目11-10","lat":35.71488192,"lon":139.80042386},{"name":"台東保健所","province":"東京都","city":"台東区","address":"台東区東上野4-22-8","lat":35.71452,"lon":139.78156},{"name":"浅草保健相談センター","province":"東京都","city":"台東区","address":"台東区花川戸2-11-10","lat":35.7147,"lon":139.80031},{"name":"台東区選挙管理委員会","province":"東京都","city":"台東区","address":"台東区東上野4-5-6","lat":35.712601,"lon":139.779959},{"name":"台東保健所","province":"東京都","city":"台東区","address":"台東区東上野4-22-8","lat":35.71447,"lon":139.78152},{"name":"浅草保健相談センター","province":"東京都","city":"台東区","address":"台東区花川戸1-14-16","lat":35.713793,"lon":139.79963},{"name":"台東保健所","province":"東京都","city":"台東区","address":"東京都台東区東上野4丁目22-8","lat":35.71447043,"lon":139.78151994},{"name":"浅草保健相談センター","province":"東京都","city":"台東区","address":"東京都台東区花川戸2丁目11-10","lat":35.71488192,"lon":139.80042386},{"name":"台東保健所","province":"東京都","city":"台東区","address":"台東区東上野4-22-8","lat":35.71452,"lon":139.78156},{"name":"浅草保健相談センター","province":"東京都","city":"台東区","address":"台東区花川戸2-11-10","lat":35.7147,"lon":139.80031},{"name":"台東区選挙管理委員会","province":"東京都","city":"台東区","address":"台東区東上野4-5-6","lat":35.712601,"lon":139.779959},{"name":"台東保健所","province":"東京都","city":"台東区","address":"台東区東上野4-22-8","lat":35.71447,"lon":139.78152},{"name":"浅草保健相談センター","province":"東京都","city":"台東区","address":"台東区花川戸1-14-16","lat":35.713793,"lon":139.79963},{"name":"台東保健所","province":"東京都","city":"台東区","address":"東京都台東区東上野4丁目22-8","lat":35.71447043,"lon":139.78151994},{"name":"浅草保健相談センター","province":"東京都","city":"台東区","address":"東京都台東区花川戸2丁目11-10","lat":35.71488192,"lon":139.80042386},{"name":"台東保健所","province":"東京都","city":"台東区","address":"台東区東上野4-22-8","lat":35.71452,"lon":139.78156},{"name":"浅草保健相談センター","province":"東京都","city":"台東区","address":"台東区花川戸2-11-10","lat":35.7147,"lon":139.80031},{"name":"台東保健所","province":"東京都","city":"台東区","address":"台東区東上野4-22-8","lat":35.71447,"lon":139.78152},{"name":"浅草保健相談センター","province":"東京都","city":"台東区","address":"台東区花川戸1-14-16","lat":35.713793,"lon":139.79963},{"name":"台東保健所","province":"東京都","city":"台東区","address":"東京都台東区東上野4丁目22-8","lat":35.71447043,"lon":139.78151994},{"name":"浅草保健相談センター","province":"東京都","city":"台東区","address":"東京都台東区花川戸2丁目11-10","lat":35.71488192,"lon":139.80042386},{"name":"台東保健所","province":"東京都","city":"台東区","address":"台東区東上野4-22-8","lat":35.71452,"lon":139.78156},{"name":"浅草保健相談センター","province":"東京都","city":"台東区","address":"台東区花川戸2-11-10","lat":35.7147,"lon":139.80031},{"name":"台東保健所","province":"東京都","city":"台東区","address":"台東区東上野4-22-8","lat":35.71447,"lon":139.78152},{"name":"浅草保健相談センター","province":"東京都","city":"台東区","address":"台東区花川戸1-14-16","lat":35.713793,"lon":139.79963},{"name":"台東保健所","province":"東京都","city":"台東区","address":"東京都台東区東上野4丁目22-8","lat":35.71447043,"lon":139.78151994},{"name":"浅草保健相談センター","province":"東京都","city":"台東区","address":"東京都台東区花川戸2丁目11-10","lat":35.71488192,"lon":139.80042386},{"name":"台東保健所","province":"東京都","city":"台東区","address":"台東区東上野4-22-8","lat":35.71452,"lon":139.78156},{"name":"浅草保健相談センター","province":"東京都","city":"台東区","address":"台東区花川戸2-11-10","lat":35.7147,"lon":139.80031},{"name":"台東保健所","province":"東京都","city":"台東区","address":"台東区東上野4-22-8","lat":35.71447,"lon":139.78152},{"name":"浅草保健相談センター","province":"東京都","city":"台東区","address":"台東区花川戸1-14-16","lat":35.713793,"lon":139.79963},{"name":"台東保健所","province":"東京都","city":"台東区","address":"東京都台東区東上野4丁目22-8","lat":35.71447043,"lon":139.78151994},{"name":"浅草保健相談センター","province":"東京都","city":"台東区","address":"東京都台東区花川戸2丁目11-10","lat":35.71488192,"lon":139.80042386},{"name":"台東保健所","province":"東京都","city":"台東区","address":"台東区東上野4-22-8","lat":35.71452,"lon":139.78156},{"name":"浅草保健相談センター","province":"東京都","city":"台東区","address":"台東区花川戸2-11-10","lat":35.7147,"lon":139.80031}]}