{"keyword":"クラブ","data":[{"name":"千束こどもクラブ","province":"東京都","city":"台東区","address":"台東区千束3丁目20番6号(千束児童館併設)","lat":35.72240361,"lon":139.7927362},{"name":"東泉こどもクラブ","province":"東京都","city":"台東区","address":"台東区三ノ輪1丁目23番9号(東泉小学校内)","lat":35.72834259,"lon":139.7921227},{"name":"東浅草こどもクラブ","province":"東京都","city":"台東区","address":"台東区東浅草2丁目27番19号(東浅草小学校内)","lat":35.72437076,"lon":139.7985103},{"name":"竹町こどもクラブ","province":"東京都","city":"台東区","address":"台東区台東3丁目25番4号","lat":35.70475324,"lon":139.7803002},{"name":"池之端こどもクラブ","province":"東京都","city":"台東区","address":"台東区池之端2丁目3番3号(池之端児童館併設)","lat":35.71464663,"lon":139.7669399},{"name":"谷中こどもクラブ","province":"東京都","city":"台東区","address":"台東区谷中5丁目6番5号(谷中児童館併設)","lat":35.72562437,"lon":139.7666446},{"name":"松が谷こどもクラブ","province":"東京都","city":"台東区","address":"台東区松が谷4丁目15番11号(松が谷児童館併設)","lat":35.71861925,"lon":139.7862809},{"name":"下谷こどもクラブ","province":"東京都","city":"台東区","address":"台東区下谷3丁目1番14号(柏葉中学校内)","lat":35.72364599,"lon":139.7858935},{"name":"松葉こどもクラブ","province":"東京都","city":"台東区","address":"台東区松が谷1丁目13番16号(松葉小学校内)","lat":35.71228951,"lon":139.7864842},{"name":"浅草こどもクラブ","province":"東京都","city":"台東区","address":"台東区花川戸1丁目14番21号(浅草小学校内)","lat":35.71379571,"lon":139.7998683},{"name":"寿こどもクラブ","province":"東京都","city":"台東区","address":"台東区寿1丁目4番5号(寿児童館3階)","lat":35.70693962,"lon":139.790039},{"name":"寿第2こどもクラブ","province":"東京都","city":"台東区","address":"台東区寿1丁目4番5号(寿児童館1階)","lat":35.70693962,"lon":139.790039},{"name":"浅草橋こどもクラブ","province":"東京都","city":"台東区","address":"台東区浅草橋5丁目1番8号(柳北スポーツプラザ併設)","lat":35.69938061,"lon":139.7822015},{"name":"竜泉こどもクラブ","province":"東京都","city":"台東区","address":"台東区竜泉2丁目10番6号(旧竜泉中学校敷地内)","lat":35.72530266,"lon":139.7896461},{"name":"千束小学校こどもクラブ","province":"東京都","city":"台東区","address":"台東区浅草4丁目24番11号(千束小学校内)","lat":35.71919111,"lon":139.7939939},{"name":"富士こどもクラブ","province":"東京都","city":"台東区","address":"台東区浅草4丁目48番9号(富士小学校内)","lat":35.7187367,"lon":139.7983676},{"name":"北上野こどもクラブ","province":"東京都","city":"台東区","address":"台東区北上野2丁目15番6号(駒形中学校内)","lat":35.71756462,"lon":139.7841187},{"name":"田原こどもクラブ","province":"東京都","city":"台東区","address":"台東区雷門1丁目4番4号ネクストサイト浅草ビル","lat":35.70956744,"lon":139.7933165},{"name":"金竜こどもクラブ","province":"東京都","city":"台東区","address":"台東区千束1丁目9番14号(金竜小学校敷地内)","lat":35.71862906,"lon":139.7906154},{"name":"今戸こどもクラブ","province":"東京都","city":"台東区","address":"台東区今戸1丁目3番6号(今戸児童館併設)","lat":35.71940466,"lon":139.8046392},{"name":"台東入谷こどもクラブ（民設民営）","province":"東京都","city":"台東区","address":"台東区入谷1丁目13番9号","lat":35.72029337,"lon":139.7870674},{"name":"石浜こどもクラブ","province":"東京都","city":"台東区","address":"台東区清川1丁目14番21号(石浜小学校内)","lat":35.72489015,"lon":139.8036903}]}