{"keyword":"センター","data":[{"name":"東京都立精神保健福祉センター","province":"東京都","city":"台東区","address":"台東区東上野3-3-13プラチナ第2ビル","lat":35.70974,"lon":139.781667},{"name":"台東区立老人福祉センター","province":"東京都","city":"台東区","address":"台東区東上野2-25-14","lat":35.70953,"lon":139.78123},{"name":"橋場老人福祉館","province":"東京都","city":"台東区","address":"台東区橋場1-36-2","lat":35.72483,"lon":139.80815},{"name":"三筋老人福祉館","province":"東京都","city":"台東区","address":"台東区三筋2-16-4","lat":35.70598,"lon":139.78697},{"name":"東京都立精神保健福祉センター","province":"東京都","city":"台東区","address":"台東区下谷1-1-3","lat":35.7174,"lon":139.78139},{"name":"台東区立老人福祉センター","province":"東京都","city":"台東区","address":"台東区東上野2-25-14","lat":35.709474,"lon":139.781673},{"name":"入谷老人福祉館","province":"東京都","city":"台東区","address":"台東区入谷1-16-9","lat":35.720498,"lon":139.785564},{"name":"橋場老人福祉館","province":"東京都","city":"台東区","address":"台東区橋場1-36-2","lat":35.724049,"lon":139.808249},{"name":"三筋老人福祉館","province":"東京都","city":"台東区","address":"台東区三筋2-16-4","lat":35.706107,"lon":139.786906},{"name":"東京都立精神保健福祉センター","province":"東京都","city":"台東区","address":"台東区下谷1-1-3","lat":35.717411,"lon":139.781113},{"name":"台東区立老人福祉センター","province":"東京都","city":"台東区","address":"台東区東上野2-25-14","lat":35.70953,"lon":139.78124},{"name":"入谷老人福祉館","province":"東京都","city":"台東区","address":"台東区入谷1-16-9","lat":35.72047,"lon":139.78539}]}