{"keyword":"一覧","data":[{"name":"上野御徒町駅（都営大江戸線）","province":"東京都","city":"台東区","address":"東京都台東区上野5丁目26-6","lat":35.70721541,"lon":139.77509567},{"name":"台東都税事務所","province":"東京都","city":"台東区","address":"東京都台東区雷門1丁目6-1","lat":35.70985714,"lon":139.79215555},{"name":"蔵前駅（都営浅草線）","province":"東京都","city":"台東区","address":"東京都台東区蔵前2丁目3-1","lat":35.70213568,"lon":139.79006478},{"name":"浅草駅（都営浅草線）","province":"東京都","city":"台東区","address":"東京都台東区駒形1丁目12-14","lat":35.70852399,"lon":139.79564708},{"name":"蔵前駅（都営大江戸線）","province":"東京都","city":"台東区","address":"東京都台東区寿3丁目3-10","lat":35.7058381,"lon":139.79236982},{"name":"新御徒町駅（都営大江戸線）","province":"東京都","city":"台東区","address":"東京都台東区元浅草1丁目5-2","lat":35.70718227,"lon":139.78276755},{"name":"浅草橋駅（都営浅草線）","province":"東京都","city":"台東区","address":"東京都台東区浅草橋1丁目18-11","lat":35.69743616,"lon":139.78591817},{"name":"浅草文化観光センター","province":"東京都","city":"台東区","address":"東京都台東区雷門2丁目18-9","lat":35.71065434,"lon":139.796519},{"name":"恩賜上野動物園","province":"東京都","city":"台東区","address":"東京都台東区上野公園9-83","lat":35.71713655,"lon":139.76989833}]}