{"keyword":"伐採","data":[{"name":"警視庁第六方面本部","province":"東京都","city":"台東区","address":"台東区東浅草2丁目27番12号","lat":35.72453376,"lon":139.7978665},{"name":"永寿総合病院","province":"東京都","city":"台東区","address":"東京都台東区東上野2丁目23-16","lat":35.7097486,"lon":139.77962864},{"name":"台東区立リバーサイドスポーツセンター少年野球場","province":"東京都","city":"台東区","address":"東京都台東区浅草7丁目1-22","lat":35.71665987,"lon":139.8037681},{"name":"永寿総合病院ヘリポート","province":"東京都","city":"台東区","address":"東京都台東区東上野2丁目23-16","lat":35.7097486,"lon":139.77962864},{"name":"都立上野恩賜公園正岡子規記念球場","province":"東京都","city":"台東区","address":"東京都台東区上野公園","lat":35.7181228,"lon":139.77786167},{"name":"警視庁第六方面本部","province":"東京都","city":"台東区","address":"台東区東浅草2丁目27番12号","lat":35.72453376,"lon":139.7978665},{"name":"永寿総合病院","province":"東京都","city":"台東区","address":"東京都台東区東上野2丁目23-16","lat":35.7097486,"lon":139.77962864},{"name":"台東区立リバーサイドスポーツセンター少年野球場","province":"東京都","city":"台東区","address":"東京都台東区浅草7丁目1-22","lat":35.71665987,"lon":139.8037681},{"name":"永寿総合病院ヘリポート","province":"東京都","city":"台東区","address":"東京都台東区東上野2丁目23-16","lat":35.7097486,"lon":139.77962864},{"name":"都立上野恩賜公園正岡子規記念球場","province":"東京都","city":"台東区","address":"東京都台東区上野公園","lat":35.7181228,"lon":139.77786167},{"name":"警視庁第六方面本部","province":"東京都","city":"台東区","address":"台東区東浅草2丁目27番12号","lat":35.72453376,"lon":139.7978665},{"name":"永寿総合病院","province":"東京都","city":"台東区","address":"東京都台東区東上野2丁目23-16","lat":35.7097486,"lon":139.77962864},{"name":"台東区立リバーサイドスポーツセンター少年野球場","province":"東京都","city":"台東区","address":"東京都台東区浅草7丁目1-22","lat":35.71665987,"lon":139.8037681},{"name":"永寿総合病院ヘリポート","province":"東京都","city":"台東区","address":"東京都台東区東上野2丁目23-16","lat":35.7097486,"lon":139.77962864},{"name":"都立上野恩賜公園正岡子規記念球場","province":"東京都","city":"台東区","address":"東京都台東区上野公園","lat":35.7181228,"lon":139.77786167},{"name":"警視庁第六方面本部","province":"東京都","city":"台東区","address":"台東区東浅草2丁目27番12号","lat":35.72453376,"lon":139.7978665},{"name":"永寿総合病院","province":"東京都","city":"台東区","address":"東京都台東区東上野2丁目23-16","lat":35.7097486,"lon":139.77962864},{"name":"警視庁第六方面本部","province":"東京都","city":"台東区","address":"台東区東浅草2丁目27番12号","lat":35.72453376,"lon":139.7978665},{"name":"永寿総合病院","province":"東京都","city":"台東区","address":"東京都台東区東上野2丁目23-16","lat":35.7097486,"lon":139.77962864},{"name":"警視庁第六方面本部","province":"東京都","city":"台東区","address":"台東区東浅草2丁目27番12号","lat":35.72453376,"lon":139.7978665},{"name":"永寿総合病院","province":"東京都","city":"台東区","address":"東京都台東区東上野2丁目23-16","lat":35.7097486,"lon":139.77962864},{"name":"警視庁第六方面本部","province":"東京都","city":"台東区","address":"台東区東浅草2丁目27番12号","lat":35.72453376,"lon":139.7978665},{"name":"永寿総合病院","province":"東京都","city":"台東区","address":"東京都台東区東上野2丁目23-16","lat":35.7097486,"lon":139.77962864},{"name":"警視庁第六方面本部","province":"東京都","city":"台東区","address":"台東区東浅草2丁目27番12号","lat":35.72453376,"lon":139.7978665},{"name":"永寿総合病院","province":"東京都","city":"台東区","address":"東京都台東区東上野2丁目23-16","lat":35.7097486,"lon":139.77962864},{"name":"警視庁第六方面本部","province":"東京都","city":"台東区","address":"台東区東浅草2丁目27番12号","lat":35.72453376,"lon":139.7978665},{"name":"永寿総合病院","province":"東京都","city":"台東区","address":"東京都台東区東上野2丁目23-16","lat":35.7097486,"lon":139.77962864},{"name":"警視庁第六方面本部","province":"東京都","city":"台東区","address":"台東区東浅草2丁目27番12号","lat":35.72453376,"lon":139.7978665},{"name":"永寿総合病院","province":"東京都","city":"台東区","address":"東京都台東区東上野2丁目23-16","lat":35.7097486,"lon":139.77962864},{"name":"警視庁第六方面本部","province":"東京都","city":"台東区","address":"台東区東浅草2丁目27番12号","lat":35.72453376,"lon":139.7978665},{"name":"永寿総合病院","province":"東京都","city":"台東区","address":"東京都台東区東上野2丁目23-16","lat":35.7097486,"lon":139.77962864},{"name":"警視庁第六方面本部","province":"東京都","city":"台東区","address":"台東区東浅草2丁目27番12号","lat":35.72453376,"lon":139.7978665},{"name":"永寿総合病院","province":"東京都","city":"台東区","address":"東京都台東区東上野2丁目23-16","lat":35.7097486,"lon":139.77962864},{"name":"警視庁第六方面本部","province":"東京都","city":"台東区","address":"台東区東浅草2丁目27番12号","lat":35.72453376,"lon":139.7978665},{"name":"永寿総合病院","province":"東京都","city":"台東区","address":"東京都台東区東上野2丁目23-16","lat":35.7097486,"lon":139.77962864},{"name":"警視庁第六方面本部","province":"東京都","city":"台東区","address":"台東区東浅草2丁目27番12号","lat":35.72453376,"lon":139.7978665},{"name":"永寿総合病院","province":"東京都","city":"台東区","address":"東京都台東区東上野2丁目23-16","lat":35.7097486,"lon":139.77962864},{"name":"警視庁第六方面本部","province":"東京都","city":"台東区","address":"台東区東浅草2丁目27番12号","lat":35.72453376,"lon":139.7978665},{"name":"永寿総合病院","province":"東京都","city":"台東区","address":"東京都台東区東上野2丁目23-16","lat":35.7097486,"lon":139.77962864},{"name":"警視庁第六方面本部","province":"東京都","city":"台東区","address":"台東区東浅草2丁目27番12号","lat":35.72453376,"lon":139.7978665},{"name":"永寿総合病院","province":"東京都","city":"台東区","address":"東京都台東区東上野2丁目23-16","lat":35.7097486,"lon":139.77962864},{"name":"警視庁第六方面本部","province":"東京都","city":"台東区","address":"台東区東浅草2丁目27番12号","lat":35.72453376,"lon":139.7978665},{"name":"永寿総合病院","province":"東京都","city":"台東区","address":"東京都台東区東上野2丁目23-16","lat":35.7097486,"lon":139.77962864},{"name":"警視庁第六方面本部","province":"東京都","city":"台東区","address":"台東区東浅草2丁目27番12号","lat":35.72453376,"lon":139.7978665},{"name":"永寿総合病院","province":"東京都","city":"台東区","address":"東京都台東区東上野2丁目23-16","lat":35.7097486,"lon":139.77962864},{"name":"警視庁第六方面本部","province":"東京都","city":"台東区","address":"台東区東浅草2丁目27番12号","lat":35.72453376,"lon":139.7978665},{"name":"永寿総合病院","province":"東京都","city":"台東区","address":"東京都台東区東上野2丁目23-16","lat":35.7097486,"lon":139.77962864},{"name":"警視庁第六方面本部","province":"東京都","city":"台東区","address":"台東区東浅草2丁目27番12号","lat":35.72453376,"lon":139.7978665},{"name":"永寿総合病院","province":"東京都","city":"台東区","address":"東京都台東区東上野2丁目23-16","lat":35.7097486,"lon":139.77962864},{"name":"警視庁第六方面本部","province":"東京都","city":"台東区","address":"台東区東浅草2丁目27番12号","lat":35.72453376,"lon":139.7978665},{"name":"永寿総合病院","province":"東京都","city":"台東区","address":"東京都台東区東上野2丁目23-16","lat":35.7097486,"lon":139.77962864},{"name":"警視庁第六方面本部","province":"東京都","city":"台東区","address":"台東区東浅草2丁目27番12号","lat":35.72453376,"lon":139.7978665},{"name":"永寿総合病院","province":"東京都","city":"台東区","address":"東京都台東区東上野2丁目23-16","lat":35.7097486,"lon":139.77962864},{"name":"警視庁第六方面本部","province":"東京都","city":"台東区","address":"台東区東浅草2丁目27番12号","lat":35.72453376,"lon":139.7978665},{"name":"永寿総合病院","province":"東京都","city":"台東区","address":"東京都台東区東上野2丁目23-16","lat":35.7097486,"lon":139.77962864},{"name":"警視庁第六方面本部","province":"東京都","city":"台東区","address":"台東区東浅草2丁目27番12号","lat":35.72453376,"lon":139.7978665},{"name":"永寿総合病院","province":"東京都","city":"台東区","address":"東京都台東区東上野2丁目23-16","lat":35.7097486,"lon":139.77962864},{"name":"警視庁第六方面本部","province":"東京都","city":"台東区","address":"台東区東浅草2丁目27番12号","lat":35.72453376,"lon":139.7978665},{"name":"永寿総合病院","province":"東京都","city":"台東区","address":"東京都台東区東上野2丁目23-16","lat":35.7097486,"lon":139.77962864},{"name":"警視庁第六方面本部","province":"東京都","city":"台東区","address":"台東区東浅草2丁目27番12号","lat":35.72453376,"lon":139.7978665},{"name":"永寿総合病院","province":"東京都","city":"台東区","address":"東京都台東区東上野2丁目23-16","lat":35.7097486,"lon":139.77962864},{"name":"警視庁第六方面本部","province":"東京都","city":"台東区","address":"台東区東浅草2丁目27番12号","lat":35.72453376,"lon":139.7978665},{"name":"永寿総合病院","province":"東京都","city":"台東区","address":"東京都台東区東上野2丁目23-16","lat":35.7097486,"lon":139.77962864},{"name":"警視庁第六方面本部","province":"東京都","city":"台東区","address":"台東区東浅草2丁目27番12号","lat":35.72453376,"lon":139.7978665},{"name":"永寿総合病院","province":"東京都","city":"台東区","address":"東京都台東区東上野2丁目23-16","lat":35.7097486,"lon":139.77962864},{"name":"警視庁第六方面本部","province":"東京都","city":"台東区","address":"台東区東浅草2丁目27番12号","lat":35.72453376,"lon":139.7978665},{"name":"永寿総合病院","province":"東京都","city":"台東区","address":"東京都台東区東上野2丁目23-16","lat":35.7097486,"lon":139.77962864},{"name":"警視庁第六方面本部","province":"東京都","city":"台東区","address":"台東区東浅草2丁目27番12号","lat":35.72453376,"lon":139.7978665},{"name":"永寿総合病院","province":"東京都","city":"台東区","address":"東京都台東区東上野2丁目23-16","lat":35.7097486,"lon":139.77962864},{"name":"警視庁第六方面本部","province":"東京都","city":"台東区","address":"台東区東浅草2丁目27番12号","lat":35.72453376,"lon":139.7978665},{"name":"永寿総合病院","province":"東京都","city":"台東区","address":"東京都台東区東上野2丁目23-16","lat":35.7097486,"lon":139.77962864},{"name":"警視庁第六方面本部","province":"東京都","city":"台東区","address":"台東区東浅草2丁目27番12号","lat":35.72453376,"lon":139.7978665},{"name":"永寿総合病院","province":"東京都","city":"台東区","address":"東京都台東区東上野2丁目23-16","lat":35.7097486,"lon":139.77962864},{"name":"警視庁第六方面本部","province":"東京都","city":"台東区","address":"台東区東浅草2丁目27番12号","lat":35.72453376,"lon":139.7978665},{"name":"永寿総合病院","province":"東京都","city":"台東区","address":"東京都台東区東上野2丁目23-16","lat":35.7097486,"lon":139.77962864},{"name":"警視庁第六方面本部","province":"東京都","city":"台東区","address":"台東区東浅草2丁目27番12号","lat":35.72453376,"lon":139.7978665},{"name":"永寿総合病院","province":"東京都","city":"台東区","address":"東京都台東区東上野2丁目23-16","lat":35.7097486,"lon":139.77962864},{"name":"警視庁第六方面本部","province":"東京都","city":"台東区","address":"台東区東浅草2丁目27番12号","lat":35.72453376,"lon":139.7978665},{"name":"永寿総合病院","province":"東京都","city":"台東区","address":"東京都台東区東上野2丁目23-16","lat":35.7097486,"lon":139.77962864}]}