{"keyword":"保育","data":[{"name":"立華学苑","province":"東京都","city":"台東区","address":"台東区谷中5-4-19","lat":35.724769,"lon":139.766334},{"name":"台東区立谷中保育園","province":"東京都","city":"台東区","address":"台東区上野桜木2-16-10","lat":35.72255,"lon":139.77147},{"name":"チェリッシュ上野の森保育園","province":"東京都","city":"台東区","address":"台東区上野桜木2-1-3","lat":35.723428,"lon":139.775178},{"name":"スターキッズ保育園","province":"東京都","city":"台東区","address":"台東区上野桜木2-1-8フラッツ上野桜木1階","lat":35.723122,"lon":139.774776},{"name":"愛隣保育園","province":"東京都","city":"台東区","address":"台東区根岸5-15-3","lat":35.727667,"lon":139.788094},{"name":"LIFE　SCHOOL　根岸　こどものいえ","province":"東京都","city":"台東区","address":"台東区根岸4-15-13","lat":35.726511,"lon":139.784575},{"name":"台東区立たいとうこども園","province":"東京都","city":"台東区","address":"台東区下谷3-1-12","lat":35.723075,"lon":139.785739},{"name":"台東区立坂本保育園","province":"東京都","city":"台東区","address":"台東区下谷3-11-2","lat":35.72512,"lon":139.78725},{"name":"忍岡こども園","province":"東京都","city":"台東区","address":"台東区池之端2-1-22","lat":35.714037,"lon":139.766974},{"name":"台東ポラン保育園","province":"東京都","city":"台東区","address":"台東区竜泉1-19-7K・Kビル1~2階","lat":35.723589,"lon":139.789544},{"name":"ソラスト竜泉保育園","province":"東京都","city":"台東区","address":"台東区竜泉3-13-4","lat":35.724345,"lon":139.791268},{"name":"はぐはぐキッズこども園東上野","province":"東京都","city":"台東区","address":"台東区東上野2-13-12M&Mビル3階","lat":35.709368,"lon":139.778165},{"name":"台東区立東上野保育園","province":"東京都","city":"台東区","address":"台東区東上野2-25-12","lat":35.70956,"lon":139.781431},{"name":"台東区立東上野乳児保育園","province":"東京都","city":"台東区","address":"台東区東上野4-22-3","lat":35.714448,"lon":139.781401},{"name":"上野保育園","province":"東京都","city":"台東区","address":"台東区東上野6-20-7","lat":35.714665,"lon":139.783756},{"name":"台東区立台東保育園","province":"東京都","city":"台東区","address":"台東区台東1-11-10","lat":35.701297,"lon":139.77646},{"name":"ゆらりん竹町保育園","province":"東京都","city":"台東区","address":"台東区台東4-16-8偕楽ビル新御徒町1~2階","lat":35.706274,"lon":139.779646},{"name":"康保会保育園","province":"東京都","city":"台東区","address":"台東区日本堤1-6-2","lat":35.725006,"lon":139.798007},{"name":"康保会乳児保育所","province":"東京都","city":"台東区","address":"台東区日本堤2-7-1","lat":35.72708,"lon":139.797554},{"name":"台東区立玉姫保育園","province":"東京都","city":"台東区","address":"台東区清川2-24-8","lat":35.727876,"lon":139.804154},{"name":"清川保育園","province":"東京都","city":"台東区","address":"台東区清川1-15-11","lat":35.72499,"lon":139.802799},{"name":"共生保育園","province":"東京都","city":"台東区","address":"台東区橋場1-10-11","lat":35.723835,"lon":139.80543},{"name":"台東区立待乳保育園","province":"東京都","city":"台東区","address":"台東区今戸2-26-12","lat":35.721921,"lon":139.807538},{"name":"台東区立千束保育園","province":"東京都","city":"台東区","address":"台東区千束3-20-6","lat":35.722417,"lon":139.792718},{"name":"チェリッシュ浅草保育園","province":"東京都","city":"台東区","address":"台東区浅草3-11-7ウィスタリア1~2階","lat":35.717373,"lon":139.793574},{"name":"花川戸保育園","province":"東京都","city":"台東区","address":"台東区花川戸2-11-13","lat":35.71471,"lon":139.800349},{"name":"台東区立松が谷保育園","province":"東京都","city":"台東区","address":"台東区松が谷4-15-11","lat":35.71862,"lon":139.786278},{"name":"台東区立ことぶきこども園","province":"東京都","city":"台東区","address":"台東区寿1-10-9","lat":35.707157,"lon":139.78917},{"name":"浅草ポラン保育園","province":"東京都","city":"台東区","address":"台東区駒形1-7-11T&Tビル1~2階","lat":35.707669,"lon":139.795097},{"name":"アスクくらまえ保育園","province":"東京都","city":"台東区","address":"台東区蔵前4-16-10","lat":35.703644,"lon":139.788354},{"name":"台東区立浅草橋保育園","province":"東京都","city":"台東区","address":"台東区浅草橋2-23-5","lat":35.700286,"lon":139.784704},{"name":"ぽけっとランド浅草橋保育園","province":"東京都","city":"台東区","address":"台東区浅草橋5-25-10浅草橋1stビル1~3階","lat":35.701619,"lon":139.782996},{"name":"アスクりゅうほく保育園","province":"東京都","city":"台東区","address":"台東区浅草橋1-26-8","lat":35.69838,"lon":139.783888},{"name":"レイモンド鳥越保育園","province":"東京都","city":"台東区","address":"台東区鳥越2-6-2","lat":35.702038,"lon":139.784635},{"name":"台東区立三筋保育園","province":"東京都","city":"台東区","address":"台東区三筋2-16-4","lat":35.706107,"lon":139.786906},{"name":"ぽけっとランド入谷","province":"東京都","city":"台東区","address":"台東区北上野2丁目29番6号パルナシウス北上野1・2階","lat":35.71926152,"lon":139.7840589},{"name":"スターキッズ谷中保育園","province":"東京都","city":"台東区","address":"台東区谷中1丁目2番12号メゾンティーナ根津1階","lat":35.71880729,"lon":139.766716},{"name":"はぐはぐキッズ浅草橋アネックス","province":"東京都","city":"台東区","address":"台東区浅草橋2丁目6番4号サンブリヤ浅草橋1階","lat":35.69913522,"lon":139.7842879},{"name":"ウィズブック保育園　入谷","province":"東京都","city":"台東区","address":"台東区松が谷4丁目1番3号高松ハイム1階","lat":35.71698022,"lon":139.7885749},{"name":"おうち保育園新おかちまち","province":"東京都","city":"台東区","address":"台東区三筋2丁目17番10号バムタイガー2階","lat":35.70587553,"lon":139.7866231},{"name":"ゆらりん竹町保育園","province":"東京都","city":"台東区","address":"台東区台東4丁目16番8号偕楽ビル新御徒町1・2階","lat":35.70626173,"lon":139.7797353},{"name":"ぽけっとランド浅草橋保育園","province":"東京都","city":"台東区","address":"台東区浅草橋5丁目25番10号浅草橋1stビル1~3階","lat":35.70157712,"lon":139.782972},{"name":"AIAI NURSERY　入谷","province":"東京都","city":"台東区","address":"台東区竜泉1丁目19番7号K・Kビル1・2階","lat":35.72362314,"lon":139.78958},{"name":"AIAI NURSERY　浅草","province":"東京都","city":"台東区","address":"台東区駒形1丁目7番11号東部浅草駒形1・2階","lat":35.70775882,"lon":139.7951276},{"name":"うれしい保育園谷中","province":"東京都","city":"台東区","address":"台東区谷中7丁目13番2号","lat":35.7261639,"lon":139.7723919},{"name":"ビーフェア上野御徒町保育園","province":"東京都","city":"台東区","address":"台東区台東2丁目21番11号レ・ベント御徒町1階","lat":35.70378434,"lon":139.780325},{"name":"LIFE SCHOOL 根岸 こどものいえ","province":"東京都","city":"台東区","address":"台東区根岸4丁目15番13号","lat":35.72646527,"lon":139.7846123},{"name":"レイモンド鳥越保育園","province":"東京都","city":"台東区","address":"台東区鳥越2丁目6番2号","lat":35.70202259,"lon":139.7845203},{"name":"ソラスト竜泉保育園","province":"東京都","city":"台東区","address":"台東区竜泉3丁目13番4号","lat":35.72434452,"lon":139.7912308},{"name":"ふくろう保育園","province":"東京都","city":"台東区","address":"台東区蔵前1丁目3番33号BLESS蔵前1階","lat":35.70092356,"lon":139.7913135},{"name":"かるがもハウス浅草橋","province":"東京都","city":"台東区","address":"台東区浅草橋4丁目14番4号リブラン今井1階","lat":35.69841063,"lon":139.7809635},{"name":"御徒町保育室","province":"東京都","city":"台東区","address":"台東区上野5丁目21番5号","lat":35.70634808,"lon":139.7749775},{"name":"ミアヘルサ保育園ひびき浅草","province":"東京都","city":"台東区","address":"台東区西浅草3丁目19番3号","lat":35.71604466,"lon":139.7910083},{"name":"クオリスキッズ浅草橋保育園","province":"東京都","city":"台東区","address":"台東区柳橋2丁目5番3号","lat":35.69847587,"lon":139.7879772},{"name":"さくらさくみらい　入谷","province":"東京都","city":"台東区","address":"台東区入谷2丁目12番2号","lat":35.71966519,"lon":139.7890823},{"name":"えがおの森保育園・あさくさ","province":"東京都","city":"台東区","address":"台東区寿3丁目15番12号","lat":35.70754073,"lon":139.7936064},{"name":"こどもヶ丘保育園 根岸園","province":"東京都","city":"台東区","address":"台東区根岸3丁目1番10号アルス鶯谷1階","lat":35.7217385,"lon":139.78161},{"name":"あさくさあおぞらナーサリースクール","province":"東京都","city":"台東区","address":"台東区清川1丁目5番10号","lat":35.72323101,"lon":139.8021283},{"name":"チェリッシュおひさま保育園","province":"東京都","city":"台東区","address":"台東区浅草橋3丁目19番4号","lat":35.70074014,"lon":139.7871861},{"name":"ポピンズナーサリースクール蔵前","province":"東京都","city":"台東区","address":"台東区三筋1丁目7番9号","lat":35.70335918,"lon":139.7851785},{"name":"みつな保育園","province":"東京都","city":"台東区","address":"台東区雷門2丁目1番10号若山ビル1階","lat":35.70995373,"lon":139.7977193},{"name":"フレンドキッズランド三ノ輪園","province":"東京都","city":"台東区","address":"台東区三ノ輪1丁目22番10号岩出ビル1階","lat":35.72880703,"lon":139.7914468},{"name":"さくらさくみらい　下谷","province":"東京都","city":"台東区","address":"台東区下谷3丁目9番2号","lat":35.72446622,"lon":139.7864978},{"name":"さくらさくみらい　蔵前","province":"東京都","city":"台東区","address":"台東区蔵前1丁目7番10号","lat":35.70124682,"lon":139.7896369},{"name":"さくらさくみらい　谷中","province":"東京都","city":"台東区","address":"台東区谷中2丁目1番12号","lat":35.72098931,"lon":139.7655097},{"name":"うれしい保育園上野駅前","province":"東京都","city":"台東区","address":"台東区上野7丁目8番13号","lat":35.71477395,"lon":139.7792016},{"name":"北上野クローバー保育園","province":"東京都","city":"台東区","address":"台東区北上野2丁目18番8号","lat":35.71802031,"lon":139.7840014},{"name":"ベベ・ア・パリ保育園未来","province":"東京都","city":"台東区","address":"台東区台東3丁目34番5号島田ビル1階","lat":35.70546604,"lon":139.7794972},{"name":"北上野保育室","province":"東京都","city":"台東区","address":"台東区北上野2丁目24番13号","lat":35.71864526,"lon":139.7845331},{"name":"シンシア保育園","province":"東京都","city":"台東区","address":"台東区台東4丁目17番2号偕楽ビル1階","lat":35.70646746,"lon":139.7795992},{"name":"スターキッズ保育園　分園","province":"東京都","city":"台東区","address":"台東区上野桜木1丁目4番6号エアリーアベニュー上野桜木1階","lat":35.72088328,"lon":139.7723323},{"name":"ミアヘルサ保育園ひびき御徒町","province":"東京都","city":"台東区","address":"台東区東上野1丁目11番11号","lat":35.70805364,"lon":139.7785205}]}