{"keyword":"停留所","data":[{"name":"南3御徒町","province":"東京都","city":"台東区","address":"東京都台東区東上野1丁目11","lat":35.7075049,"lon":139.778305},{"name":"南1上野駅","province":"東京都","city":"台東区","address":"東京都台東区東上野3丁目39","lat":35.71200446,"lon":139.7784947},{"name":"南2永寿総合病院","province":"東京都","city":"台東区","address":"東京都台東区東上野2丁目22","lat":35.71001466,"lon":139.7785748},{"name":"南6台東地区センター","province":"東京都","city":"台東区","address":"東京都台東区台東1丁目21","lat":35.70147555,"lon":139.7793453},{"name":"南34台東区役所","province":"東京都","city":"台東区","address":"東京都台東区東上野4丁目5","lat":35.71247445,"lon":139.7796546},{"name":"南5台東三丁目","province":"東京都","city":"台東区","address":"東京都台東区台東3丁目24","lat":35.70467522,"lon":139.7797451},{"name":"南7三井記念病院前","province":"東京都","city":"台東区","address":"東京都台東区台東1丁目2","lat":35.70030569,"lon":139.7798753},{"name":"南4新御徒町駅","province":"東京都","city":"台東区","address":"東京都台東区台東4丁目27","lat":35.706965,"lon":139.7800049},{"name":"南21上野学園","province":"東京都","city":"台東区","address":"東京都台東区東上野4丁目24","lat":35.71514262,"lon":139.7821232},{"name":"南8柳北スポーツプラザ","province":"東京都","city":"台東区","address":"東京都台東区浅草橋5丁目1","lat":35.69907589,"lon":139.7821654},{"name":"南32上野学園","province":"東京都","city":"台東区","address":"東京都台東区東上野5丁目24","lat":35.71515768,"lon":139.7822981},{"name":"南31北上野","province":"東京都","city":"台東区","address":"東京都台東区北上野2丁目15-1","lat":35.71763411,"lon":139.784294},{"name":"南9浅草橋駅北","province":"東京都","city":"台東区","address":"東京都台東区浅草橋2丁目6","lat":35.69888597,"lon":139.7844353},{"name":"南30入谷南公園","province":"東京都","city":"台東区","address":"東京都台東区松が谷4丁目14","lat":35.71834406,"lon":139.7857439},{"name":"南12鳥越神社前","province":"東京都","city":"台東区","address":"東京都台東区鳥越2丁目4","lat":35.70179567,"lon":139.785895},{"name":"南29入谷地区センター","province":"東京都","city":"台東区","address":"東京都台東区入谷1丁目9","lat":35.71983394,"lon":139.7860837},{"name":"南13環境ふれあい館ひまわり入口","province":"東京都","city":"台東区","address":"東京都台東区三筋1丁目1","lat":35.70309555,"lon":139.7878448},{"name":"南14三筋老人福祉館東","province":"東京都","city":"台東区","address":"東京都台東区三筋2丁目15","lat":35.70577527,"lon":139.7879246},{"name":"南15南部区民事務所","province":"東京都","city":"台東区","address":"東京都台東区寿1丁目11","lat":35.70642522,"lon":139.7884745},{"name":"南23松が谷","province":"東京都","city":"台東区","address":"東京都台東区松が谷3丁目3-1","lat":35.71467931,"lon":139.7882023},{"name":"南24生涯学習センター南","province":"東京都","city":"台東区","address":"東京都台東区松が谷3丁目18","lat":35.71637428,"lon":139.7889937},{"name":"南19西浅草","province":"東京都","city":"台東区","address":"東京都台東区西浅草1丁目5","lat":35.71220465,"lon":139.7890439},{"name":"南25生涯学習センター北（金竜小学校前）","province":"東京都","city":"台東区","address":"東京都台東区入谷2丁目6","lat":35.71896405,"lon":139.7893735},{"name":"南16大江戸線蔵前駅","province":"東京都","city":"台東区","address":"東京都台東区寿1丁目1","lat":35.70650524,"lon":139.7906743},{"name":"南17田原町駅","province":"東京都","city":"台東区","address":"東京都台東区寿2丁目10","lat":35.70939496,"lon":139.791184},{"name":"南18浅草菊水通り","province":"東京都","city":"台東区","address":"東京都台東区西浅草1丁目8","lat":35.71169473,"lon":139.7915238},{"name":"南28台東病院","province":"東京都","city":"台東区","address":"東京都台東区千束3丁目20","lat":35.72246107,"lon":139.7930257},{"name":"南10柳橋中央通り","province":"東京都","city":"台東区","address":"東京都台東区柳橋2丁目4","lat":35.69825276,"lon":139.7877649},{"name":"南11柳橋分院入口","province":"東京都","city":"台東区","address":"東京都台東区柳橋2丁目20","lat":35.69939525,"lon":139.7900296},{"name":"南20台東区役所","province":"東京都","city":"台東区","address":"東京都台東区東上野4丁目5","lat":35.71251672,"lon":139.7806881},{"name":"南22北上野二丁目","province":"東京都","city":"台東区","address":"東京都台東区北上野2丁目1-2","lat":35.71530909,"lon":139.7850336},{"name":"南26千束二丁目","province":"東京都","city":"台東区","address":"東京都台東区千束2丁目25-4","lat":35.72139547,"lon":139.7907544},{"name":"南27千束三丁目","province":"東京都","city":"台東区","address":"東京都台東区千束3丁目13-2","lat":35.72129087,"lon":139.792744},{"name":"南33台東保健所","province":"東京都","city":"台東区","address":"東京都台東区東上野5丁目14-4","lat":35.71379027,"lon":139.78147},{"name":"ぐ27東京法務局台東出張所前","province":"東京都","city":"台東区","address":"東京都台東区台東1丁目27","lat":35.70173368,"lon":139.7770432},{"name":"ぐ1上野駅入谷口","province":"東京都","city":"台東区","address":"東京都台東区上野7丁目8","lat":35.71452498,"lon":139.7785447},{"name":"ぐ30永寿総合病院東","province":"東京都","city":"台東区","address":"東京都台東区東上野2丁目23","lat":35.70968713,"lon":139.7802766},{"name":"ぐ2上野郵便局","province":"東京都","city":"台東区","address":"東京都台東区上野7丁目15","lat":35.71895745,"lon":139.7804852},{"name":"ぐ31台東区役所","province":"東京都","city":"台東区","address":"東京都台東区東上野4丁目5","lat":35.71254161,"lon":139.7807526},{"name":"ぐ28台東二丁目","province":"東京都","city":"台東区","address":"東京都台東区台東2丁目17","lat":35.70284067,"lon":139.7810414},{"name":"ぐ3根岸三丁目","province":"東京都","city":"台東区","address":"東京都台東区根岸3丁目1","lat":35.72133293,"lon":139.7818952},{"name":"ぐ29新御徒町駅","province":"東京都","city":"台東区","address":"東京都台東区東上野1丁目1","lat":35.70737503,"lon":139.7819241},{"name":"ぐ25浅草橋地区センター","province":"東京都","city":"台東区","address":"東京都台東区浅草橋5丁目1","lat":35.69952603,"lon":139.7831918},{"name":"ぐ24鳥越神社前","province":"東京都","city":"台東区","address":"東京都台東区浅草橋3丁目33","lat":35.70175062,"lon":139.7850642},{"name":"ぐ4下谷三丁目","province":"東京都","city":"台東区","address":"東京都台東区根岸4丁目17","lat":35.72456914,"lon":139.7853641},{"name":"ぐ22三筋児童遊園","province":"東京都","city":"台東区","address":"東京都台東区蔵前4丁目18","lat":35.70458749,"lon":139.78805},{"name":"ぐ23環境ふれあい館ひまわり入口","province":"東京都","city":"台東区","address":"東京都台東区蔵前4丁目10","lat":35.70251459,"lon":139.7880546},{"name":"ぐ21大江戸線蔵前駅","province":"東京都","city":"台東区","address":"東京都台東区蔵前4丁目33","lat":35.70616238,"lon":139.789913},{"name":"ぐ5一葉記念館","province":"東京都","city":"台東区","address":"東京都台東区竜泉2丁目14","lat":35.72627989,"lon":139.7907974},{"name":"ぐ20寿三丁目","province":"東京都","city":"台東区","address":"東京都台東区寿3丁目9","lat":35.70702263,"lon":139.7909601},{"name":"ぐ19田原町駅","province":"東京都","city":"台東区","address":"東京都台東区雷門1丁目8","lat":35.7105811,"lon":139.7917843},{"name":"ぐ6三ノ輪駅","province":"東京都","city":"台東区","address":"東京都台東区三ノ輪2丁目14","lat":35.72960951,"lon":139.7925641},{"name":"ぐ7三ノ輪二丁目","province":"東京都","city":"台東区","address":"東京都台東区日本堤2丁目38","lat":35.72804372,"lon":139.7943662},{"name":"ぐ18雷門通り","province":"東京都","city":"台東区","address":"東京都台東区雷門1丁目13","lat":35.71109142,"lon":139.7944712},{"name":"ぐ8吉原大門","province":"東京都","city":"台東区","address":"東京都台東区日本堤1丁目9","lat":35.72505241,"lon":139.7969264},{"name":"ぐ17浅草駅","province":"東京都","city":"台東区","address":"東京都台東区花川戸1丁目2","lat":35.71152656,"lon":139.798427},{"name":"ぐ16-2花川戸","province":"東京都","city":"台東区","address":"東京都台東区花川戸1丁目12","lat":35.71323858,"lon":139.8001014},{"name":"ぐ9清川一丁目","province":"東京都","city":"台東区","address":"東京都台東区清川2丁目3","lat":35.72627027,"lon":139.8022656},{"name":"ぐ16リバーサイドスポーツセンター前","province":"東京都","city":"台東区","address":"東京都台東区今戸1丁目1","lat":35.71803584,"lon":139.8042816},{"name":"ぐ10清川清掃車庫","province":"東京都","city":"台東区","address":"東京都台東区清川2丁目24","lat":35.72770809,"lon":139.8051251},{"name":"ぐ15桜橋中学校前","province":"東京都","city":"台東区","address":"東京都台東区今戸1丁目1","lat":35.72008795,"lon":139.80601},{"name":"ぐ14東京都人権プラザ前","province":"東京都","city":"台東区","address":"東京都台東区橋場1丁目1","lat":35.72276781,"lon":139.8073118},{"name":"ぐ13橋場一丁目","province":"東京都","city":"台東区","address":"東京都台東区橋場1丁目35","lat":35.7253585,"lon":139.80787},{"name":"ぐ12橋場二丁目アパート前","province":"東京都","city":"台東区","address":"東京都台東区橋場2丁目1","lat":35.72769584,"lon":139.8085341},{"name":"北（根岸）12入谷区民館根岸分館（書道博物館）","province":"東京都","city":"台東区","address":"東京都台東区根岸2丁目18","lat":35.72500538,"lon":139.7772633},{"name":"北（根岸）13鶯谷駅北","province":"東京都","city":"台東区","address":"東京都台東区根岸3丁目8","lat":35.72297357,"lon":139.7789043},{"name":"北（根岸）14鶯谷駅南","province":"東京都","city":"台東区","address":"東京都台東区根岸3丁目1","lat":35.72100376,"lon":139.7810941},{"name":"北（根岸）11防災広場根岸の里","province":"東京都","city":"台東区","address":"東京都台東区根岸3丁目12","lat":35.72364361,"lon":139.781844},{"name":"北（根岸）10根岸三丁目","province":"東京都","city":"台東区","address":"東京都台東区根岸3丁目2","lat":35.7223437,"lon":139.781994},{"name":"北（根岸）9金杉通り","province":"東京都","city":"台東区","address":"東京都台東区下谷2丁目19","lat":35.72290371,"lon":139.7834139},{"name":"北（根岸）15入谷駅入口","province":"東京都","city":"台東区","address":"東京都台東区下谷2丁目14","lat":35.72151381,"lon":139.7843039},{"name":"北（根岸）8下谷三丁目","province":"東京都","city":"台東区","address":"東京都台東区根岸4丁目17","lat":35.7245936,"lon":139.7854437},{"name":"北（根岸）7金杉区民会館下谷分館入口","province":"東京都","city":"台東区","address":"東京都台東区下谷3丁目8","lat":35.72503354,"lon":139.7864935},{"name":"北（根岸）16大正小学校","province":"東京都","city":"台東区","address":"東京都台東区入谷1丁目23","lat":35.72122383,"lon":139.7869136},{"name":"北（根岸）17生涯学習センター北（金竜小学校前）","province":"東京都","city":"台東区","address":"東京都台東区入谷2丁目6","lat":35.71889405,"lon":139.7893535},{"name":"北（根岸）6竜泉一丁目","province":"東京都","city":"台東区","address":"東京都台東区竜泉1丁目33","lat":35.72469348,"lon":139.7897331},{"name":"北（根岸）18千束二丁目","province":"東京都","city":"台東区","address":"東京都台東区千束2丁目25","lat":35.72135382,"lon":139.7907832},{"name":"北（根岸）5一葉記念館入口","province":"東京都","city":"台東区","address":"東京都台東区竜泉3丁目21","lat":35.72549336,"lon":139.7910329},{"name":"北（根岸）4三ノ輪駅（三ノ輪福祉センタ－前）","province":"東京都","city":"台東区","address":"東京都台東区三ノ輪1丁目27","lat":35.72956298,"lon":139.7922426},{"name":"北（根岸）19千束三丁目","province":"東京都","city":"台東区","address":"東京都台東区千束3丁目13","lat":35.72122384,"lon":139.792413},{"name":"北（根岸）1台東病院","province":"東京都","city":"台東区","address":"東京都台東区千束3丁目20","lat":35.72246068,"lon":139.7930259},{"name":"北（根岸）3三ノ輪二丁目","province":"東京都","city":"台東区","address":"東京都台東区三ノ輪1丁目1","lat":35.7279173,"lon":139.7943424},{"name":"北（根岸）2竜泉三丁目","province":"東京都","city":"台東区","address":"東京都台東区千束4丁目36","lat":35.72484603,"lon":139.7969784},{"name":"北（浅草）16台東病院","province":"東京都","city":"台東区","address":"東京都台東区千束3丁目20","lat":35.72246068,"lon":139.7930259},{"name":"北（浅草）17千束小学校前","province":"東京都","city":"台東区","address":"東京都台東区浅草5丁目11","lat":35.72014398,"lon":139.793783},{"name":"北（浅草）18浅草五丁目","province":"東京都","city":"台東区","address":"東京都台東区浅草4丁目37","lat":35.71967405,"lon":139.7959028},{"name":"北（浅草）21浅草寺北","province":"東京都","city":"台東区","address":"東京都台東区浅草3丁目3","lat":35.71606446,"lon":139.7977029},{"name":"北（浅草）23浅草松屋西","province":"東京都","city":"台東区","address":"東京都台東区花川戸1丁目6","lat":35.71246475,"lon":139.7978431},{"name":"北（浅草）19浅草警察署前","province":"東京都","city":"台東区","address":"東京都台東区浅草5丁目4","lat":35.71919423,"lon":139.7978728},{"name":"北（浅草）11吉原大門","province":"東京都","city":"台東区","address":"東京都台東区東浅草2丁目27","lat":35.72476347,"lon":139.7979322},{"name":"北（浅草）20浅草四丁目","province":"東京都","city":"台東区","address":"東京都台東区浅草4丁目4","lat":35.71788434,"lon":139.7979528},{"name":"北（浅草）1浅草駅","province":"東京都","city":"台東区","address":"東京都台東区花川戸1丁目4","lat":35.71144484,"lon":139.7981931},{"name":"北（浅草）22二天門","province":"東京都","city":"台東区","address":"東京都台東区花川戸2丁目6","lat":35.71452462,"lon":139.798333},{"name":"北（浅草）10東浅草二丁目","province":"東京都","city":"台東区","address":"東京都台東区日本堤1丁目2","lat":35.72570364,"lon":139.7999023},{"name":"北（浅草）2花川戸","province":"東京都","city":"台東区","address":"東京都台東区花川戸1丁目13","lat":35.71361475,"lon":139.8003728},{"name":"北（浅草）9清川一丁目","province":"東京都","city":"台東区","address":"東京都台東区清川1丁目33","lat":35.72621391,"lon":139.8020926},{"name":"北（浅草）3隅田公園","province":"東京都","city":"台東区","address":"東京都台東区浅草7丁目3","lat":35.7164048,"lon":139.8029026},{"name":"北（浅草）4リバ－サイドスポ－ツセンタ－前","province":"東京都","city":"台東区","address":"東京都台東区今戸1丁目6","lat":35.71850489,"lon":139.8039827},{"name":"北（浅草）5今戸一丁目","province":"東京都","city":"台東区","address":"東京都台東区今戸1丁目18","lat":35.72050485,"lon":139.8042427},{"name":"北（浅草）6今戸二丁目","province":"東京都","city":"台東区","address":"東京都台東区今戸2丁目34","lat":35.72239468,"lon":139.8044028},{"name":"北（浅草）8橋場一丁目","province":"東京都","city":"台東区","address":"東京都台東区橋場2丁目5","lat":35.72612251,"lon":139.805806},{"name":"北（浅草）7橋場老人福祉館西（産業研修センター）","province":"東京都","city":"台東区","address":"東京都台東区橋場1丁目10","lat":35.72362577,"lon":139.8059939},{"name":"北（浅草）12三ノ輪二丁目","province":"東京都","city":"台東区","address":"東京都台東区三ノ輪1丁目1","lat":35.72764182,"lon":139.7945378},{"name":"北（浅草）13三ノ輪駅(三ノ輪福祉センター前)","province":"東京都","city":"台東区","address":"東京都台東区三ノ輪1丁目28","lat":35.7298773,"lon":139.7919974},{"name":"北（浅草）14一葉記念館入口","province":"東京都","city":"台東区","address":"東京都台東区竜泉2丁目12","lat":35.72521231,"lon":139.790899},{"name":"北（浅草）15千束三丁目","province":"東京都","city":"台東区","address":"東京都台東区千束3丁目13","lat":35.72124689,"lon":139.7927388}]}