{"keyword":"区","data":[{"name":"台東保健所","province":"東京都","city":"台東区","address":"台東区東上野4-22-8","lat":35.71447,"lon":139.78152},{"name":"浅草保健相談センター","province":"東京都","city":"台東区","address":"台東区花川戸1-14-16","lat":35.713793,"lon":139.79963},{"name":"台東保健所","province":"東京都","city":"台東区","address":"東京都台東区東上野4丁目22-8","lat":35.71447043,"lon":139.78151994},{"name":"浅草保健相談センター","province":"東京都","city":"台東区","address":"東京都台東区花川戸2丁目11-10","lat":35.71488192,"lon":139.80042386},{"name":"台東保健所","province":"東京都","city":"台東区","address":"台東区東上野4-22-8","lat":35.71452,"lon":139.78156},{"name":"浅草保健相談センター","province":"東京都","city":"台東区","address":"台東区花川戸2-11-10","lat":35.7147,"lon":139.80031}]}