{"keyword":"収蔵","data":[{"name":"都立上野恩賜公園","province":"東京都","city":"台東区","address":"東京都台東区上野公園8-51","lat":35.717343,"lon":139.774526},{"name":"区立隅田公園山谷堀広場","province":"東京都","city":"台東区","address":"東京都台東区浅草7-1","lat":35.7169585,"lon":139.804179},{"name":"南3御徒町","province":"東京都","city":"台東区","address":"東京都台東区東上野1丁目11","lat":35.7075049,"lon":139.778305},{"name":"南1上野駅","province":"東京都","city":"台東区","address":"東京都台東区東上野3丁目39","lat":35.71200446,"lon":139.7784947},{"name":"南2永寿総合病院","province":"東京都","city":"台東区","address":"東京都台東区東上野2丁目22","lat":35.71001466,"lon":139.7785748},{"name":"南6台東地区センター","province":"東京都","city":"台東区","address":"東京都台東区台東1丁目21","lat":35.70147555,"lon":139.7793453},{"name":"南34台東区役所","province":"東京都","city":"台東区","address":"東京都台東区東上野4丁目5","lat":35.71247445,"lon":139.7796546},{"name":"南5台東三丁目","province":"東京都","city":"台東区","address":"東京都台東区台東3丁目24","lat":35.70467522,"lon":139.7797451},{"name":"南7三井記念病院前","province":"東京都","city":"台東区","address":"東京都台東区台東1丁目2","lat":35.70030569,"lon":139.7798753},{"name":"南4新御徒町駅","province":"東京都","city":"台東区","address":"東京都台東区台東4丁目27","lat":35.706965,"lon":139.7800049},{"name":"南21上野学園","province":"東京都","city":"台東区","address":"東京都台東区東上野4丁目24","lat":35.71514262,"lon":139.7821232},{"name":"南8柳北スポーツプラザ","province":"東京都","city":"台東区","address":"東京都台東区浅草橋5丁目1","lat":35.69907589,"lon":139.7821654},{"name":"南32上野学園","province":"東京都","city":"台東区","address":"東京都台東区東上野5丁目24","lat":35.71515768,"lon":139.7822981},{"name":"南31北上野","province":"東京都","city":"台東区","address":"東京都台東区北上野2丁目15-1","lat":35.71763411,"lon":139.784294},{"name":"南9浅草橋駅北","province":"東京都","city":"台東区","address":"東京都台東区浅草橋2丁目6","lat":35.69888597,"lon":139.7844353},{"name":"南30入谷南公園","province":"東京都","city":"台東区","address":"東京都台東区松が谷4丁目14","lat":35.71834406,"lon":139.7857439},{"name":"南12鳥越神社前","province":"東京都","city":"台東区","address":"東京都台東区鳥越2丁目4","lat":35.70179567,"lon":139.785895},{"name":"南29入谷地区センター","province":"東京都","city":"台東区","address":"東京都台東区入谷1丁目9","lat":35.71983394,"lon":139.7860837},{"name":"南13環境ふれあい館ひまわり入口","province":"東京都","city":"台東区","address":"東京都台東区三筋1丁目1","lat":35.70309555,"lon":139.7878448},{"name":"南14三筋老人福祉館東","province":"東京都","city":"台東区","address":"東京都台東区三筋2丁目15","lat":35.70577527,"lon":139.7879246},{"name":"南15南部区民事務所","province":"東京都","city":"台東区","address":"東京都台東区寿1丁目11","lat":35.70642522,"lon":139.7884745},{"name":"南23松が谷","province":"東京都","city":"台東区","address":"東京都台東区松が谷3丁目3-1","lat":35.71467931,"lon":139.7882023},{"name":"南24生涯学習センター南","province":"東京都","city":"台東区","address":"東京都台東区松が谷3丁目18","lat":35.71637428,"lon":139.7889937},{"name":"南19西浅草","province":"東京都","city":"台東区","address":"東京都台東区西浅草1丁目5","lat":35.71220465,"lon":139.7890439},{"name":"南25生涯学習センター北（金竜小学校前）","province":"東京都","city":"台東区","address":"東京都台東区入谷2丁目6","lat":35.71896405,"lon":139.7893735},{"name":"南16大江戸線蔵前駅","province":"東京都","city":"台東区","address":"東京都台東区寿1丁目1","lat":35.70650524,"lon":139.7906743},{"name":"南17田原町駅","province":"東京都","city":"台東区","address":"東京都台東区寿2丁目10","lat":35.70939496,"lon":139.791184},{"name":"南18浅草菊水通り","province":"東京都","city":"台東区","address":"東京都台東区西浅草1丁目8","lat":35.71169473,"lon":139.7915238},{"name":"南28台東病院","province":"東京都","city":"台東区","address":"東京都台東区千束3丁目20","lat":35.72246107,"lon":139.7930257},{"name":"南10柳橋中央通り","province":"東京都","city":"台東区","address":"東京都台東区柳橋2丁目4","lat":35.69825276,"lon":139.7877649},{"name":"南11柳橋分院入口","province":"東京都","city":"台東区","address":"東京都台東区柳橋2丁目20","lat":35.69939525,"lon":139.7900296},{"name":"南20台東区役所","province":"東京都","city":"台東区","address":"東京都台東区東上野4丁目5","lat":35.71251672,"lon":139.7806881},{"name":"南22北上野二丁目","province":"東京都","city":"台東区","address":"東京都台東区北上野2丁目1-2","lat":35.71530909,"lon":139.7850336},{"name":"南26千束二丁目","province":"東京都","city":"台東区","address":"東京都台東区千束2丁目25-4","lat":35.72139547,"lon":139.7907544},{"name":"南27千束三丁目","province":"東京都","city":"台東区","address":"東京都台東区千束3丁目13-2","lat":35.72129087,"lon":139.792744},{"name":"南33台東保健所","province":"東京都","city":"台東区","address":"東京都台東区東上野5丁目14-4","lat":35.71379027,"lon":139.78147},{"name":"忍岡こども園","province":"東京都","city":"台東区","address":"台東区池之端2丁目1番22号","lat":35.7138335,"lon":139.766732},{"name":"永寿総合病院","province":"東京都","city":"台東区","address":"東京都台東区東上野2丁目23-16","lat":35.7097486,"lon":139.77962864},{"name":"都立上野恩賜公園","province":"東京都","city":"台東区","address":"東京都台東区上野公園8-51","lat":35.71725613,"lon":139.77445639},{"name":"台東区立リバーサイドスポーツセンター少年野球場","province":"東京都","city":"台東区","address":"東京都台東区浅草7丁目1-22","lat":35.71665987,"lon":139.8037681},{"name":"永寿総合病院ヘリポート","province":"東京都","city":"台東区","address":"東京都台東区東上野2丁目23-16","lat":35.7097486,"lon":139.77962864},{"name":"都立上野恩賜公園正岡子規記念球場","province":"東京都","city":"台東区","address":"東京都台東区上野公園","lat":35.7181228,"lon":139.77786167},{"name":"都立上野恩賜公園","province":"東京都","city":"台東区","address":"東京都台東区上野公園8-51","lat":35.717343,"lon":139.774526},{"name":"区立隅田公園山谷堀広場","province":"東京都","city":"台東区","address":"東京都台東区浅草7-1","lat":35.7169585,"lon":139.804179},{"name":"南3御徒町","province":"東京都","city":"台東区","address":"東京都台東区東上野1丁目11","lat":35.7075049,"lon":139.778305},{"name":"南1上野駅","province":"東京都","city":"台東区","address":"東京都台東区東上野3丁目39","lat":35.71200446,"lon":139.7784947},{"name":"南2永寿総合病院","province":"東京都","city":"台東区","address":"東京都台東区東上野2丁目22","lat":35.71001466,"lon":139.7785748},{"name":"南6台東地区センター","province":"東京都","city":"台東区","address":"東京都台東区台東1丁目21","lat":35.70147555,"lon":139.7793453},{"name":"南34台東区役所","province":"東京都","city":"台東区","address":"東京都台東区東上野4丁目5","lat":35.71247445,"lon":139.7796546},{"name":"南5台東三丁目","province":"東京都","city":"台東区","address":"東京都台東区台東3丁目24","lat":35.70467522,"lon":139.7797451},{"name":"南7三井記念病院前","province":"東京都","city":"台東区","address":"東京都台東区台東1丁目2","lat":35.70030569,"lon":139.7798753},{"name":"南4新御徒町駅","province":"東京都","city":"台東区","address":"東京都台東区台東4丁目27","lat":35.706965,"lon":139.7800049},{"name":"南21上野学園","province":"東京都","city":"台東区","address":"東京都台東区東上野4丁目24","lat":35.71514262,"lon":139.7821232},{"name":"南8柳北スポーツプラザ","province":"東京都","city":"台東区","address":"東京都台東区浅草橋5丁目1","lat":35.69907589,"lon":139.7821654},{"name":"南32上野学園","province":"東京都","city":"台東区","address":"東京都台東区東上野5丁目24","lat":35.71515768,"lon":139.7822981},{"name":"南31北上野","province":"東京都","city":"台東区","address":"東京都台東区北上野2丁目15-1","lat":35.71763411,"lon":139.784294},{"name":"南9浅草橋駅北","province":"東京都","city":"台東区","address":"東京都台東区浅草橋2丁目6","lat":35.69888597,"lon":139.7844353},{"name":"南30入谷南公園","province":"東京都","city":"台東区","address":"東京都台東区松が谷4丁目14","lat":35.71834406,"lon":139.7857439},{"name":"南12鳥越神社前","province":"東京都","city":"台東区","address":"東京都台東区鳥越2丁目4","lat":35.70179567,"lon":139.785895},{"name":"南29入谷地区センター","province":"東京都","city":"台東区","address":"東京都台東区入谷1丁目9","lat":35.71983394,"lon":139.7860837},{"name":"南13環境ふれあい館ひまわり入口","province":"東京都","city":"台東区","address":"東京都台東区三筋1丁目1","lat":35.70309555,"lon":139.7878448},{"name":"南14三筋老人福祉館東","province":"東京都","city":"台東区","address":"東京都台東区三筋2丁目15","lat":35.70577527,"lon":139.7879246},{"name":"南15南部区民事務所","province":"東京都","city":"台東区","address":"東京都台東区寿1丁目11","lat":35.70642522,"lon":139.7884745},{"name":"南23松が谷","province":"東京都","city":"台東区","address":"東京都台東区松が谷3丁目3-1","lat":35.71467931,"lon":139.7882023},{"name":"南24生涯学習センター南","province":"東京都","city":"台東区","address":"東京都台東区松が谷3丁目18","lat":35.71637428,"lon":139.7889937},{"name":"南19西浅草","province":"東京都","city":"台東区","address":"東京都台東区西浅草1丁目5","lat":35.71220465,"lon":139.7890439},{"name":"南25生涯学習センター北（金竜小学校前）","province":"東京都","city":"台東区","address":"東京都台東区入谷2丁目6","lat":35.71896405,"lon":139.7893735},{"name":"南16大江戸線蔵前駅","province":"東京都","city":"台東区","address":"東京都台東区寿1丁目1","lat":35.70650524,"lon":139.7906743},{"name":"南17田原町駅","province":"東京都","city":"台東区","address":"東京都台東区寿2丁目10","lat":35.70939496,"lon":139.791184},{"name":"南18浅草菊水通り","province":"東京都","city":"台東区","address":"東京都台東区西浅草1丁目8","lat":35.71169473,"lon":139.7915238},{"name":"南28台東病院","province":"東京都","city":"台東区","address":"東京都台東区千束3丁目20","lat":35.72246107,"lon":139.7930257},{"name":"南10柳橋中央通り","province":"東京都","city":"台東区","address":"東京都台東区柳橋2丁目4","lat":35.69825276,"lon":139.7877649},{"name":"南11柳橋分院入口","province":"東京都","city":"台東区","address":"東京都台東区柳橋2丁目20","lat":35.69939525,"lon":139.7900296},{"name":"南20台東区役所","province":"東京都","city":"台東区","address":"東京都台東区東上野4丁目5","lat":35.71251672,"lon":139.7806881},{"name":"南22北上野二丁目","province":"東京都","city":"台東区","address":"東京都台東区北上野2丁目1-2","lat":35.71530909,"lon":139.7850336},{"name":"南26千束二丁目","province":"東京都","city":"台東区","address":"東京都台東区千束2丁目25-4","lat":35.72139547,"lon":139.7907544},{"name":"南27千束三丁目","province":"東京都","city":"台東区","address":"東京都台東区千束3丁目13-2","lat":35.72129087,"lon":139.792744},{"name":"南33台東保健所","province":"東京都","city":"台東区","address":"東京都台東区東上野5丁目14-4","lat":35.71379027,"lon":139.78147},{"name":"忍岡こども園","province":"東京都","city":"台東区","address":"台東区池之端2丁目1番22号","lat":35.7138335,"lon":139.766732},{"name":"永寿総合病院","province":"東京都","city":"台東区","address":"東京都台東区東上野2丁目23-16","lat":35.7097486,"lon":139.77962864},{"name":"都立上野恩賜公園","province":"東京都","city":"台東区","address":"東京都台東区上野公園8-51","lat":35.71725613,"lon":139.77445639},{"name":"台東区立リバーサイドスポーツセンター少年野球場","province":"東京都","city":"台東区","address":"東京都台東区浅草7丁目1-22","lat":35.71665987,"lon":139.8037681},{"name":"永寿総合病院ヘリポート","province":"東京都","city":"台東区","address":"東京都台東区東上野2丁目23-16","lat":35.7097486,"lon":139.77962864},{"name":"都立上野恩賜公園正岡子規記念球場","province":"東京都","city":"台東区","address":"東京都台東区上野公園","lat":35.7181228,"lon":139.77786167},{"name":"都立上野恩賜公園","province":"東京都","city":"台東区","address":"東京都台東区上野公園8-51","lat":35.717343,"lon":139.774526},{"name":"区立隅田公園山谷堀広場","province":"東京都","city":"台東区","address":"東京都台東区浅草7-1","lat":35.7169585,"lon":139.804179},{"name":"南3御徒町","province":"東京都","city":"台東区","address":"東京都台東区東上野1丁目11","lat":35.7075049,"lon":139.778305},{"name":"南1上野駅","province":"東京都","city":"台東区","address":"東京都台東区東上野3丁目39","lat":35.71200446,"lon":139.7784947},{"name":"南2永寿総合病院","province":"東京都","city":"台東区","address":"東京都台東区東上野2丁目22","lat":35.71001466,"lon":139.7785748},{"name":"南6台東地区センター","province":"東京都","city":"台東区","address":"東京都台東区台東1丁目21","lat":35.70147555,"lon":139.7793453},{"name":"南34台東区役所","province":"東京都","city":"台東区","address":"東京都台東区東上野4丁目5","lat":35.71247445,"lon":139.7796546},{"name":"南5台東三丁目","province":"東京都","city":"台東区","address":"東京都台東区台東3丁目24","lat":35.70467522,"lon":139.7797451},{"name":"南7三井記念病院前","province":"東京都","city":"台東区","address":"東京都台東区台東1丁目2","lat":35.70030569,"lon":139.7798753},{"name":"南4新御徒町駅","province":"東京都","city":"台東区","address":"東京都台東区台東4丁目27","lat":35.706965,"lon":139.7800049},{"name":"南21上野学園","province":"東京都","city":"台東区","address":"東京都台東区東上野4丁目24","lat":35.71514262,"lon":139.7821232},{"name":"南8柳北スポーツプラザ","province":"東京都","city":"台東区","address":"東京都台東区浅草橋5丁目1","lat":35.69907589,"lon":139.7821654},{"name":"南32上野学園","province":"東京都","city":"台東区","address":"東京都台東区東上野5丁目24","lat":35.71515768,"lon":139.7822981},{"name":"南31北上野","province":"東京都","city":"台東区","address":"東京都台東区北上野2丁目15-1","lat":35.71763411,"lon":139.784294},{"name":"南9浅草橋駅北","province":"東京都","city":"台東区","address":"東京都台東区浅草橋2丁目6","lat":35.69888597,"lon":139.7844353},{"name":"南30入谷南公園","province":"東京都","city":"台東区","address":"東京都台東区松が谷4丁目14","lat":35.71834406,"lon":139.7857439},{"name":"南12鳥越神社前","province":"東京都","city":"台東区","address":"東京都台東区鳥越2丁目4","lat":35.70179567,"lon":139.785895},{"name":"南29入谷地区センター","province":"東京都","city":"台東区","address":"東京都台東区入谷1丁目9","lat":35.71983394,"lon":139.7860837},{"name":"南13環境ふれあい館ひまわり入口","province":"東京都","city":"台東区","address":"東京都台東区三筋1丁目1","lat":35.70309555,"lon":139.7878448},{"name":"南14三筋老人福祉館東","province":"東京都","city":"台東区","address":"東京都台東区三筋2丁目15","lat":35.70577527,"lon":139.7879246},{"name":"南15南部区民事務所","province":"東京都","city":"台東区","address":"東京都台東区寿1丁目11","lat":35.70642522,"lon":139.7884745},{"name":"南23松が谷","province":"東京都","city":"台東区","address":"東京都台東区松が谷3丁目3-1","lat":35.71467931,"lon":139.7882023},{"name":"南24生涯学習センター南","province":"東京都","city":"台東区","address":"東京都台東区松が谷3丁目18","lat":35.71637428,"lon":139.7889937},{"name":"南19西浅草","province":"東京都","city":"台東区","address":"東京都台東区西浅草1丁目5","lat":35.71220465,"lon":139.7890439},{"name":"南25生涯学習センター北（金竜小学校前）","province":"東京都","city":"台東区","address":"東京都台東区入谷2丁目6","lat":35.71896405,"lon":139.7893735},{"name":"南16大江戸線蔵前駅","province":"東京都","city":"台東区","address":"東京都台東区寿1丁目1","lat":35.70650524,"lon":139.7906743},{"name":"南17田原町駅","province":"東京都","city":"台東区","address":"東京都台東区寿2丁目10","lat":35.70939496,"lon":139.791184},{"name":"南18浅草菊水通り","province":"東京都","city":"台東区","address":"東京都台東区西浅草1丁目8","lat":35.71169473,"lon":139.7915238},{"name":"南28台東病院","province":"東京都","city":"台東区","address":"東京都台東区千束3丁目20","lat":35.72246107,"lon":139.7930257},{"name":"南10柳橋中央通り","province":"東京都","city":"台東区","address":"東京都台東区柳橋2丁目4","lat":35.69825276,"lon":139.7877649},{"name":"南11柳橋分院入口","province":"東京都","city":"台東区","address":"東京都台東区柳橋2丁目20","lat":35.69939525,"lon":139.7900296},{"name":"南20台東区役所","province":"東京都","city":"台東区","address":"東京都台東区東上野4丁目5","lat":35.71251672,"lon":139.7806881},{"name":"南22北上野二丁目","province":"東京都","city":"台東区","address":"東京都台東区北上野2丁目1-2","lat":35.71530909,"lon":139.7850336},{"name":"南26千束二丁目","province":"東京都","city":"台東区","address":"東京都台東区千束2丁目25-4","lat":35.72139547,"lon":139.7907544},{"name":"南27千束三丁目","province":"東京都","city":"台東区","address":"東京都台東区千束3丁目13-2","lat":35.72129087,"lon":139.792744},{"name":"南33台東保健所","province":"東京都","city":"台東区","address":"東京都台東区東上野5丁目14-4","lat":35.71379027,"lon":139.78147},{"name":"忍岡こども園","province":"東京都","city":"台東区","address":"台東区池之端2丁目1番22号","lat":35.7138335,"lon":139.766732},{"name":"永寿総合病院","province":"東京都","city":"台東区","address":"東京都台東区東上野2丁目23-16","lat":35.7097486,"lon":139.77962864},{"name":"都立上野恩賜公園","province":"東京都","city":"台東区","address":"東京都台東区上野公園8-51","lat":35.71725613,"lon":139.77445639},{"name":"台東区立リバーサイドスポーツセンター少年野球場","province":"東京都","city":"台東区","address":"東京都台東区浅草7丁目1-22","lat":35.71665987,"lon":139.8037681},{"name":"永寿総合病院ヘリポート","province":"東京都","city":"台東区","address":"東京都台東区東上野2丁目23-16","lat":35.7097486,"lon":139.77962864},{"name":"都立上野恩賜公園正岡子規記念球場","province":"東京都","city":"台東区","address":"東京都台東区上野公園","lat":35.7181228,"lon":139.77786167},{"name":"都立上野恩賜公園","province":"東京都","city":"台東区","address":"東京都台東区上野公園8-51","lat":35.717343,"lon":139.774526},{"name":"区立隅田公園山谷堀広場","province":"東京都","city":"台東区","address":"東京都台東区浅草7-1","lat":35.7169585,"lon":139.804179},{"name":"南3御徒町","province":"東京都","city":"台東区","address":"東京都台東区東上野1丁目11","lat":35.7075049,"lon":139.778305},{"name":"南1上野駅","province":"東京都","city":"台東区","address":"東京都台東区東上野3丁目39","lat":35.71200446,"lon":139.7784947},{"name":"南2永寿総合病院","province":"東京都","city":"台東区","address":"東京都台東区東上野2丁目22","lat":35.71001466,"lon":139.7785748},{"name":"南6台東地区センター","province":"東京都","city":"台東区","address":"東京都台東区台東1丁目21","lat":35.70147555,"lon":139.7793453},{"name":"南34台東区役所","province":"東京都","city":"台東区","address":"東京都台東区東上野4丁目5","lat":35.71247445,"lon":139.7796546},{"name":"南5台東三丁目","province":"東京都","city":"台東区","address":"東京都台東区台東3丁目24","lat":35.70467522,"lon":139.7797451},{"name":"南7三井記念病院前","province":"東京都","city":"台東区","address":"東京都台東区台東1丁目2","lat":35.70030569,"lon":139.7798753},{"name":"南4新御徒町駅","province":"東京都","city":"台東区","address":"東京都台東区台東4丁目27","lat":35.706965,"lon":139.7800049},{"name":"南21上野学園","province":"東京都","city":"台東区","address":"東京都台東区東上野4丁目24","lat":35.71514262,"lon":139.7821232},{"name":"南8柳北スポーツプラザ","province":"東京都","city":"台東区","address":"東京都台東区浅草橋5丁目1","lat":35.69907589,"lon":139.7821654},{"name":"南32上野学園","province":"東京都","city":"台東区","address":"東京都台東区東上野5丁目24","lat":35.71515768,"lon":139.7822981},{"name":"南31北上野","province":"東京都","city":"台東区","address":"東京都台東区北上野2丁目15-1","lat":35.71763411,"lon":139.784294},{"name":"南9浅草橋駅北","province":"東京都","city":"台東区","address":"東京都台東区浅草橋2丁目6","lat":35.69888597,"lon":139.7844353},{"name":"南30入谷南公園","province":"東京都","city":"台東区","address":"東京都台東区松が谷4丁目14","lat":35.71834406,"lon":139.7857439},{"name":"南12鳥越神社前","province":"東京都","city":"台東区","address":"東京都台東区鳥越2丁目4","lat":35.70179567,"lon":139.785895},{"name":"南29入谷地区センター","province":"東京都","city":"台東区","address":"東京都台東区入谷1丁目9","lat":35.71983394,"lon":139.7860837},{"name":"南13環境ふれあい館ひまわり入口","province":"東京都","city":"台東区","address":"東京都台東区三筋1丁目1","lat":35.70309555,"lon":139.7878448},{"name":"南14三筋老人福祉館東","province":"東京都","city":"台東区","address":"東京都台東区三筋2丁目15","lat":35.70577527,"lon":139.7879246},{"name":"南15南部区民事務所","province":"東京都","city":"台東区","address":"東京都台東区寿1丁目11","lat":35.70642522,"lon":139.7884745},{"name":"南23松が谷","province":"東京都","city":"台東区","address":"東京都台東区松が谷3丁目3-1","lat":35.71467931,"lon":139.7882023},{"name":"南24生涯学習センター南","province":"東京都","city":"台東区","address":"東京都台東区松が谷3丁目18","lat":35.71637428,"lon":139.7889937},{"name":"南19西浅草","province":"東京都","city":"台東区","address":"東京都台東区西浅草1丁目5","lat":35.71220465,"lon":139.7890439},{"name":"南25生涯学習センター北（金竜小学校前）","province":"東京都","city":"台東区","address":"東京都台東区入谷2丁目6","lat":35.71896405,"lon":139.7893735},{"name":"南16大江戸線蔵前駅","province":"東京都","city":"台東区","address":"東京都台東区寿1丁目1","lat":35.70650524,"lon":139.7906743},{"name":"南17田原町駅","province":"東京都","city":"台東区","address":"東京都台東区寿2丁目10","lat":35.70939496,"lon":139.791184},{"name":"南18浅草菊水通り","province":"東京都","city":"台東区","address":"東京都台東区西浅草1丁目8","lat":35.71169473,"lon":139.7915238},{"name":"南28台東病院","province":"東京都","city":"台東区","address":"東京都台東区千束3丁目20","lat":35.72246107,"lon":139.7930257},{"name":"南10柳橋中央通り","province":"東京都","city":"台東区","address":"東京都台東区柳橋2丁目4","lat":35.69825276,"lon":139.7877649},{"name":"南11柳橋分院入口","province":"東京都","city":"台東区","address":"東京都台東区柳橋2丁目20","lat":35.69939525,"lon":139.7900296},{"name":"南20台東区役所","province":"東京都","city":"台東区","address":"東京都台東区東上野4丁目5","lat":35.71251672,"lon":139.7806881},{"name":"南22北上野二丁目","province":"東京都","city":"台東区","address":"東京都台東区北上野2丁目1-2","lat":35.71530909,"lon":139.7850336},{"name":"南26千束二丁目","province":"東京都","city":"台東区","address":"東京都台東区千束2丁目25-4","lat":35.72139547,"lon":139.7907544},{"name":"南27千束三丁目","province":"東京都","city":"台東区","address":"東京都台東区千束3丁目13-2","lat":35.72129087,"lon":139.792744},{"name":"南33台東保健所","province":"東京都","city":"台東区","address":"東京都台東区東上野5丁目14-4","lat":35.71379027,"lon":139.78147},{"name":"忍岡こども園","province":"東京都","city":"台東区","address":"台東区池之端2丁目1番22号","lat":35.7138335,"lon":139.766732},{"name":"永寿総合病院","province":"東京都","city":"台東区","address":"東京都台東区東上野2丁目23-16","lat":35.7097486,"lon":139.77962864},{"name":"台東区立リバーサイドスポーツセンター少年野球場","province":"東京都","city":"台東区","address":"東京都台東区浅草7丁目1-22","lat":35.71665987,"lon":139.8037681},{"name":"永寿総合病院ヘリポート","province":"東京都","city":"台東区","address":"東京都台東区東上野2丁目23-16","lat":35.7097486,"lon":139.77962864},{"name":"都立上野恩賜公園正岡子規記念球場","province":"東京都","city":"台東区","address":"東京都台東区上野公園","lat":35.7181228,"lon":139.77786167},{"name":"都立上野恩賜公園","province":"東京都","city":"台東区","address":"東京都台東区上野公園8-51","lat":35.717343,"lon":139.774526},{"name":"区立隅田公園山谷堀広場","province":"東京都","city":"台東区","address":"東京都台東区浅草7-1","lat":35.7169585,"lon":139.804179},{"name":"南3御徒町","province":"東京都","city":"台東区","address":"東京都台東区東上野1丁目11","lat":35.7075049,"lon":139.778305},{"name":"南1上野駅","province":"東京都","city":"台東区","address":"東京都台東区東上野3丁目39","lat":35.71200446,"lon":139.7784947},{"name":"南2永寿総合病院","province":"東京都","city":"台東区","address":"東京都台東区東上野2丁目22","lat":35.71001466,"lon":139.7785748},{"name":"南6台東地区センター","province":"東京都","city":"台東区","address":"東京都台東区台東1丁目21","lat":35.70147555,"lon":139.7793453},{"name":"南34台東区役所","province":"東京都","city":"台東区","address":"東京都台東区東上野4丁目5","lat":35.71247445,"lon":139.7796546},{"name":"南5台東三丁目","province":"東京都","city":"台東区","address":"東京都台東区台東3丁目24","lat":35.70467522,"lon":139.7797451},{"name":"南7三井記念病院前","province":"東京都","city":"台東区","address":"東京都台東区台東1丁目2","lat":35.70030569,"lon":139.7798753},{"name":"南4新御徒町駅","province":"東京都","city":"台東区","address":"東京都台東区台東4丁目27","lat":35.706965,"lon":139.7800049},{"name":"南21上野学園","province":"東京都","city":"台東区","address":"東京都台東区東上野4丁目24","lat":35.71514262,"lon":139.7821232},{"name":"南8柳北スポーツプラザ","province":"東京都","city":"台東区","address":"東京都台東区浅草橋5丁目1","lat":35.69907589,"lon":139.7821654},{"name":"南32上野学園","province":"東京都","city":"台東区","address":"東京都台東区東上野5丁目24","lat":35.71515768,"lon":139.7822981},{"name":"南31北上野","province":"東京都","city":"台東区","address":"東京都台東区北上野2丁目15-1","lat":35.71763411,"lon":139.784294},{"name":"南9浅草橋駅北","province":"東京都","city":"台東区","address":"東京都台東区浅草橋2丁目6","lat":35.69888597,"lon":139.7844353},{"name":"南30入谷南公園","province":"東京都","city":"台東区","address":"東京都台東区松が谷4丁目14","lat":35.71834406,"lon":139.7857439},{"name":"南12鳥越神社前","province":"東京都","city":"台東区","address":"東京都台東区鳥越2丁目4","lat":35.70179567,"lon":139.785895},{"name":"南29入谷地区センター","province":"東京都","city":"台東区","address":"東京都台東区入谷1丁目9","lat":35.71983394,"lon":139.7860837},{"name":"南13環境ふれあい館ひまわり入口","province":"東京都","city":"台東区","address":"東京都台東区三筋1丁目1","lat":35.70309555,"lon":139.7878448},{"name":"南14三筋老人福祉館東","province":"東京都","city":"台東区","address":"東京都台東区三筋2丁目15","lat":35.70577527,"lon":139.7879246},{"name":"南15南部区民事務所","province":"東京都","city":"台東区","address":"東京都台東区寿1丁目11","lat":35.70642522,"lon":139.7884745},{"name":"南23松が谷","province":"東京都","city":"台東区","address":"東京都台東区松が谷3丁目3-1","lat":35.71467931,"lon":139.7882023},{"name":"南24生涯学習センター南","province":"東京都","city":"台東区","address":"東京都台東区松が谷3丁目18","lat":35.71637428,"lon":139.7889937},{"name":"南19西浅草","province":"東京都","city":"台東区","address":"東京都台東区西浅草1丁目5","lat":35.71220465,"lon":139.7890439},{"name":"南25生涯学習センター北（金竜小学校前）","province":"東京都","city":"台東区","address":"東京都台東区入谷2丁目6","lat":35.71896405,"lon":139.7893735},{"name":"南16大江戸線蔵前駅","province":"東京都","city":"台東区","address":"東京都台東区寿1丁目1","lat":35.70650524,"lon":139.7906743},{"name":"南17田原町駅","province":"東京都","city":"台東区","address":"東京都台東区寿2丁目10","lat":35.70939496,"lon":139.791184},{"name":"南18浅草菊水通り","province":"東京都","city":"台東区","address":"東京都台東区西浅草1丁目8","lat":35.71169473,"lon":139.7915238},{"name":"南28台東病院","province":"東京都","city":"台東区","address":"東京都台東区千束3丁目20","lat":35.72246107,"lon":139.7930257},{"name":"南10柳橋中央通り","province":"東京都","city":"台東区","address":"東京都台東区柳橋2丁目4","lat":35.69825276,"lon":139.7877649},{"name":"南11柳橋分院入口","province":"東京都","city":"台東区","address":"東京都台東区柳橋2丁目20","lat":35.69939525,"lon":139.7900296},{"name":"南20台東区役所","province":"東京都","city":"台東区","address":"東京都台東区東上野4丁目5","lat":35.71251672,"lon":139.7806881},{"name":"南22北上野二丁目","province":"東京都","city":"台東区","address":"東京都台東区北上野2丁目1-2","lat":35.71530909,"lon":139.7850336},{"name":"南26千束二丁目","province":"東京都","city":"台東区","address":"東京都台東区千束2丁目25-4","lat":35.72139547,"lon":139.7907544},{"name":"南27千束三丁目","province":"東京都","city":"台東区","address":"東京都台東区千束3丁目13-2","lat":35.72129087,"lon":139.792744},{"name":"南33台東保健所","province":"東京都","city":"台東区","address":"東京都台東区東上野5丁目14-4","lat":35.71379027,"lon":139.78147},{"name":"忍岡こども園","province":"東京都","city":"台東区","address":"台東区池之端2丁目1番22号","lat":35.7138335,"lon":139.766732},{"name":"永寿総合病院","province":"東京都","city":"台東区","address":"東京都台東区東上野2丁目23-16","lat":35.7097486,"lon":139.77962864},{"name":"都立上野恩賜公園","province":"東京都","city":"台東区","address":"東京都台東区上野公園8-51","lat":35.717343,"lon":139.774526},{"name":"区立隅田公園山谷堀広場","province":"東京都","city":"台東区","address":"東京都台東区浅草7-1","lat":35.7169585,"lon":139.804179},{"name":"南3御徒町","province":"東京都","city":"台東区","address":"東京都台東区東上野1丁目11","lat":35.7075049,"lon":139.778305},{"name":"南1上野駅","province":"東京都","city":"台東区","address":"東京都台東区東上野3丁目39","lat":35.71200446,"lon":139.7784947},{"name":"南2永寿総合病院","province":"東京都","city":"台東区","address":"東京都台東区東上野2丁目22","lat":35.71001466,"lon":139.7785748},{"name":"南6台東地区センター","province":"東京都","city":"台東区","address":"東京都台東区台東1丁目21","lat":35.70147555,"lon":139.7793453},{"name":"南34台東区役所","province":"東京都","city":"台東区","address":"東京都台東区東上野4丁目5","lat":35.71247445,"lon":139.7796546},{"name":"南5台東三丁目","province":"東京都","city":"台東区","address":"東京都台東区台東3丁目24","lat":35.70467522,"lon":139.7797451},{"name":"南7三井記念病院前","province":"東京都","city":"台東区","address":"東京都台東区台東1丁目2","lat":35.70030569,"lon":139.7798753},{"name":"南4新御徒町駅","province":"東京都","city":"台東区","address":"東京都台東区台東4丁目27","lat":35.706965,"lon":139.7800049},{"name":"南21上野学園","province":"東京都","city":"台東区","address":"東京都台東区東上野4丁目24","lat":35.71514262,"lon":139.7821232},{"name":"南8柳北スポーツプラザ","province":"東京都","city":"台東区","address":"東京都台東区浅草橋5丁目1","lat":35.69907589,"lon":139.7821654},{"name":"南32上野学園","province":"東京都","city":"台東区","address":"東京都台東区東上野5丁目24","lat":35.71515768,"lon":139.7822981},{"name":"南31北上野","province":"東京都","city":"台東区","address":"東京都台東区北上野2丁目15-1","lat":35.71763411,"lon":139.784294},{"name":"南9浅草橋駅北","province":"東京都","city":"台東区","address":"東京都台東区浅草橋2丁目6","lat":35.69888597,"lon":139.7844353},{"name":"南30入谷南公園","province":"東京都","city":"台東区","address":"東京都台東区松が谷4丁目14","lat":35.71834406,"lon":139.7857439},{"name":"南12鳥越神社前","province":"東京都","city":"台東区","address":"東京都台東区鳥越2丁目4","lat":35.70179567,"lon":139.785895},{"name":"南29入谷地区センター","province":"東京都","city":"台東区","address":"東京都台東区入谷1丁目9","lat":35.71983394,"lon":139.7860837},{"name":"南13環境ふれあい館ひまわり入口","province":"東京都","city":"台東区","address":"東京都台東区三筋1丁目1","lat":35.70309555,"lon":139.7878448},{"name":"南14三筋老人福祉館東","province":"東京都","city":"台東区","address":"東京都台東区三筋2丁目15","lat":35.70577527,"lon":139.7879246},{"name":"南15南部区民事務所","province":"東京都","city":"台東区","address":"東京都台東区寿1丁目11","lat":35.70642522,"lon":139.7884745},{"name":"南23松が谷","province":"東京都","city":"台東区","address":"東京都台東区松が谷3丁目3-1","lat":35.71467931,"lon":139.7882023},{"name":"南24生涯学習センター南","province":"東京都","city":"台東区","address":"東京都台東区松が谷3丁目18","lat":35.71637428,"lon":139.7889937},{"name":"南19西浅草","province":"東京都","city":"台東区","address":"東京都台東区西浅草1丁目5","lat":35.71220465,"lon":139.7890439},{"name":"南25生涯学習センター北（金竜小学校前）","province":"東京都","city":"台東区","address":"東京都台東区入谷2丁目6","lat":35.71896405,"lon":139.7893735},{"name":"南16大江戸線蔵前駅","province":"東京都","city":"台東区","address":"東京都台東区寿1丁目1","lat":35.70650524,"lon":139.7906743},{"name":"南17田原町駅","province":"東京都","city":"台東区","address":"東京都台東区寿2丁目10","lat":35.70939496,"lon":139.791184},{"name":"南18浅草菊水通り","province":"東京都","city":"台東区","address":"東京都台東区西浅草1丁目8","lat":35.71169473,"lon":139.7915238},{"name":"南28台東病院","province":"東京都","city":"台東区","address":"東京都台東区千束3丁目20","lat":35.72246107,"lon":139.7930257},{"name":"南10柳橋中央通り","province":"東京都","city":"台東区","address":"東京都台東区柳橋2丁目4","lat":35.69825276,"lon":139.7877649},{"name":"南11柳橋分院入口","province":"東京都","city":"台東区","address":"東京都台東区柳橋2丁目20","lat":35.69939525,"lon":139.7900296},{"name":"南20台東区役所","province":"東京都","city":"台東区","address":"東京都台東区東上野4丁目5","lat":35.71251672,"lon":139.7806881},{"name":"南22北上野二丁目","province":"東京都","city":"台東区","address":"東京都台東区北上野2丁目1-2","lat":35.71530909,"lon":139.7850336},{"name":"南26千束二丁目","province":"東京都","city":"台東区","address":"東京都台東区千束2丁目25-4","lat":35.72139547,"lon":139.7907544},{"name":"南27千束三丁目","province":"東京都","city":"台東区","address":"東京都台東区千束3丁目13-2","lat":35.72129087,"lon":139.792744},{"name":"南33台東保健所","province":"東京都","city":"台東区","address":"東京都台東区東上野5丁目14-4","lat":35.71379027,"lon":139.78147},{"name":"忍岡こども園","province":"東京都","city":"台東区","address":"台東区池之端2丁目1番22号","lat":35.7138335,"lon":139.766732},{"name":"永寿総合病院","province":"東京都","city":"台東区","address":"東京都台東区東上野2丁目23-16","lat":35.7097486,"lon":139.77962864},{"name":"都立上野恩賜公園","province":"東京都","city":"台東区","address":"東京都台東区上野公園8-51","lat":35.717343,"lon":139.774526},{"name":"区立隅田公園山谷堀広場","province":"東京都","city":"台東区","address":"東京都台東区浅草7-1","lat":35.7169585,"lon":139.804179},{"name":"南3御徒町","province":"東京都","city":"台東区","address":"東京都台東区東上野1丁目11","lat":35.7075049,"lon":139.778305},{"name":"南1上野駅","province":"東京都","city":"台東区","address":"東京都台東区東上野3丁目39","lat":35.71200446,"lon":139.7784947},{"name":"南2永寿総合病院","province":"東京都","city":"台東区","address":"東京都台東区東上野2丁目22","lat":35.71001466,"lon":139.7785748},{"name":"南6台東地区センター","province":"東京都","city":"台東区","address":"東京都台東区台東1丁目21","lat":35.70147555,"lon":139.7793453},{"name":"南34台東区役所","province":"東京都","city":"台東区","address":"東京都台東区東上野4丁目5","lat":35.71247445,"lon":139.7796546},{"name":"南5台東三丁目","province":"東京都","city":"台東区","address":"東京都台東区台東3丁目24","lat":35.70467522,"lon":139.7797451},{"name":"南7三井記念病院前","province":"東京都","city":"台東区","address":"東京都台東区台東1丁目2","lat":35.70030569,"lon":139.7798753},{"name":"南4新御徒町駅","province":"東京都","city":"台東区","address":"東京都台東区台東4丁目27","lat":35.706965,"lon":139.7800049},{"name":"南21上野学園","province":"東京都","city":"台東区","address":"東京都台東区東上野4丁目24","lat":35.71514262,"lon":139.7821232},{"name":"南8柳北スポーツプラザ","province":"東京都","city":"台東区","address":"東京都台東区浅草橋5丁目1","lat":35.69907589,"lon":139.7821654},{"name":"南32上野学園","province":"東京都","city":"台東区","address":"東京都台東区東上野5丁目24","lat":35.71515768,"lon":139.7822981},{"name":"南31北上野","province":"東京都","city":"台東区","address":"東京都台東区北上野2丁目15-1","lat":35.71763411,"lon":139.784294},{"name":"南9浅草橋駅北","province":"東京都","city":"台東区","address":"東京都台東区浅草橋2丁目6","lat":35.69888597,"lon":139.7844353},{"name":"南30入谷南公園","province":"東京都","city":"台東区","address":"東京都台東区松が谷4丁目14","lat":35.71834406,"lon":139.7857439},{"name":"南12鳥越神社前","province":"東京都","city":"台東区","address":"東京都台東区鳥越2丁目4","lat":35.70179567,"lon":139.785895},{"name":"南29入谷地区センター","province":"東京都","city":"台東区","address":"東京都台東区入谷1丁目9","lat":35.71983394,"lon":139.7860837},{"name":"南13環境ふれあい館ひまわり入口","province":"東京都","city":"台東区","address":"東京都台東区三筋1丁目1","lat":35.70309555,"lon":139.7878448},{"name":"南14三筋老人福祉館東","province":"東京都","city":"台東区","address":"東京都台東区三筋2丁目15","lat":35.70577527,"lon":139.7879246},{"name":"南15南部区民事務所","province":"東京都","city":"台東区","address":"東京都台東区寿1丁目11","lat":35.70642522,"lon":139.7884745},{"name":"南23松が谷","province":"東京都","city":"台東区","address":"東京都台東区松が谷3丁目3-1","lat":35.71467931,"lon":139.7882023},{"name":"南24生涯学習センター南","province":"東京都","city":"台東区","address":"東京都台東区松が谷3丁目18","lat":35.71637428,"lon":139.7889937},{"name":"南19西浅草","province":"東京都","city":"台東区","address":"東京都台東区西浅草1丁目5","lat":35.71220465,"lon":139.7890439},{"name":"南25生涯学習センター北（金竜小学校前）","province":"東京都","city":"台東区","address":"東京都台東区入谷2丁目6","lat":35.71896405,"lon":139.7893735},{"name":"南16大江戸線蔵前駅","province":"東京都","city":"台東区","address":"東京都台東区寿1丁目1","lat":35.70650524,"lon":139.7906743},{"name":"南17田原町駅","province":"東京都","city":"台東区","address":"東京都台東区寿2丁目10","lat":35.70939496,"lon":139.791184},{"name":"南18浅草菊水通り","province":"東京都","city":"台東区","address":"東京都台東区西浅草1丁目8","lat":35.71169473,"lon":139.7915238},{"name":"南28台東病院","province":"東京都","city":"台東区","address":"東京都台東区千束3丁目20","lat":35.72246107,"lon":139.7930257},{"name":"南10柳橋中央通り","province":"東京都","city":"台東区","address":"東京都台東区柳橋2丁目4","lat":35.69825276,"lon":139.7877649},{"name":"南11柳橋分院入口","province":"東京都","city":"台東区","address":"東京都台東区柳橋2丁目20","lat":35.69939525,"lon":139.7900296},{"name":"南20台東区役所","province":"東京都","city":"台東区","address":"東京都台東区東上野4丁目5","lat":35.71251672,"lon":139.7806881},{"name":"南22北上野二丁目","province":"東京都","city":"台東区","address":"東京都台東区北上野2丁目1-2","lat":35.71530909,"lon":139.7850336},{"name":"南26千束二丁目","province":"東京都","city":"台東区","address":"東京都台東区千束2丁目25-4","lat":35.72139547,"lon":139.7907544},{"name":"南27千束三丁目","province":"東京都","city":"台東区","address":"東京都台東区千束3丁目13-2","lat":35.72129087,"lon":139.792744},{"name":"南33台東保健所","province":"東京都","city":"台東区","address":"東京都台東区東上野5丁目14-4","lat":35.71379027,"lon":139.78147},{"name":"忍岡こども園","province":"東京都","city":"台東区","address":"台東区池之端2丁目1番22号","lat":35.7138335,"lon":139.766732},{"name":"永寿総合病院","province":"東京都","city":"台東区","address":"東京都台東区東上野2丁目23-16","lat":35.7097486,"lon":139.77962864},{"name":"都立上野恩賜公園","province":"東京都","city":"台東区","address":"東京都台東区上野公園8-51","lat":35.717343,"lon":139.774526},{"name":"区立隅田公園山谷堀広場","province":"東京都","city":"台東区","address":"東京都台東区浅草7-1","lat":35.7169585,"lon":139.804179},{"name":"忍岡こども園","province":"東京都","city":"台東区","address":"台東区池之端2丁目1番22号","lat":35.7138335,"lon":139.766732},{"name":"永寿総合病院","province":"東京都","city":"台東区","address":"東京都台東区東上野2丁目23-16","lat":35.7097486,"lon":139.77962864},{"name":"都立上野恩賜公園","province":"東京都","city":"台東区","address":"東京都台東区上野公園8-51","lat":35.717343,"lon":139.774526},{"name":"区立隅田公園山谷堀広場","province":"東京都","city":"台東区","address":"東京都台東区浅草7-1","lat":35.7169585,"lon":139.804179},{"name":"忍岡こども園","province":"東京都","city":"台東区","address":"台東区池之端2丁目1番22号","lat":35.7138335,"lon":139.766732},{"name":"永寿総合病院","province":"東京都","city":"台東区","address":"東京都台東区東上野2丁目23-16","lat":35.7097486,"lon":139.77962864},{"name":"都立上野恩賜公園","province":"東京都","city":"台東区","address":"東京都台東区上野公園8-51","lat":35.717343,"lon":139.774526},{"name":"区立隅田公園山谷堀広場","province":"東京都","city":"台東区","address":"東京都台東区浅草7-1","lat":35.7169585,"lon":139.804179},{"name":"忍岡こども園","province":"東京都","city":"台東区","address":"台東区池之端2丁目1番22号","lat":35.7138335,"lon":139.766732},{"name":"永寿総合病院","province":"東京都","city":"台東区","address":"東京都台東区東上野2丁目23-16","lat":35.7097486,"lon":139.77962864},{"name":"都立上野恩賜公園","province":"東京都","city":"台東区","address":"東京都台東区上野公園8-51","lat":35.717343,"lon":139.774526},{"name":"区立隅田公園山谷堀広場","province":"東京都","city":"台東区","address":"東京都台東区浅草7-1","lat":35.7169585,"lon":139.804179},{"name":"忍岡こども園","province":"東京都","city":"台東区","address":"台東区池之端2丁目1番22号","lat":35.7138335,"lon":139.766732},{"name":"都立上野恩賜公園","province":"東京都","city":"台東区","address":"東京都台東区上野公園8-51","lat":35.717343,"lon":139.774526},{"name":"区立隅田公園山谷堀広場","province":"東京都","city":"台東区","address":"東京都台東区浅草7-1","lat":35.7169585,"lon":139.804179},{"name":"忍岡こども園","province":"東京都","city":"台東区","address":"台東区池之端2丁目1番22号","lat":35.7138335,"lon":139.766732},{"name":"都立上野恩賜公園","province":"東京都","city":"台東区","address":"東京都台東区上野公園8-51","lat":35.717343,"lon":139.774526},{"name":"区立隅田公園山谷堀広場","province":"東京都","city":"台東区","address":"東京都台東区浅草7-1","lat":35.7169585,"lon":139.804179},{"name":"忍岡こども園","province":"東京都","city":"台東区","address":"台東区池之端2丁目1番22号","lat":35.7138335,"lon":139.766732},{"name":"都立上野恩賜公園","province":"東京都","city":"台東区","address":"東京都台東区上野公園8-51","lat":35.717343,"lon":139.774526},{"name":"区立隅田公園山谷堀広場","province":"東京都","city":"台東区","address":"東京都台東区浅草7-1","lat":35.7169585,"lon":139.804179},{"name":"忍岡こども園","province":"東京都","city":"台東区","address":"台東区池之端2丁目1番22号","lat":35.7138335,"lon":139.766732},{"name":"都立上野恩賜公園","province":"東京都","city":"台東区","address":"東京都台東区上野公園8-51","lat":35.717343,"lon":139.774526},{"name":"区立隅田公園山谷堀広場","province":"東京都","city":"台東区","address":"東京都台東区浅草7-1","lat":35.7169585,"lon":139.804179},{"name":"忍岡こども園","province":"東京都","city":"台東区","address":"台東区池之端2丁目1番22号","lat":35.7138335,"lon":139.766732},{"name":"都立上野恩賜公園","province":"東京都","city":"台東区","address":"東京都台東区上野公園8-51","lat":35.717343,"lon":139.774526},{"name":"区立隅田公園山谷堀広場","province":"東京都","city":"台東区","address":"東京都台東区浅草7-1","lat":35.7169585,"lon":139.804179},{"name":"忍岡こども園","province":"東京都","city":"台東区","address":"台東区池之端2丁目1番22号","lat":35.7138335,"lon":139.766732},{"name":"都立上野恩賜公園","province":"東京都","city":"台東区","address":"東京都台東区上野公園8-51","lat":35.717343,"lon":139.774526},{"name":"区立隅田公園山谷堀広場","province":"東京都","city":"台東区","address":"東京都台東区浅草7-1","lat":35.7169585,"lon":139.804179},{"name":"忍岡こども園","province":"東京都","city":"台東区","address":"台東区池之端2丁目1番22号","lat":35.7138335,"lon":139.766732},{"name":"都立上野恩賜公園","province":"東京都","city":"台東区","address":"東京都台東区上野公園8-51","lat":35.717343,"lon":139.774526},{"name":"区立隅田公園山谷堀広場","province":"東京都","city":"台東区","address":"東京都台東区浅草7-1","lat":35.7169585,"lon":139.804179},{"name":"忍岡こども園","province":"東京都","city":"台東区","address":"台東区池之端2丁目1番22号","lat":35.7138335,"lon":139.766732},{"name":"都立上野恩賜公園","province":"東京都","city":"台東区","address":"東京都台東区上野公園8-51","lat":35.717343,"lon":139.774526},{"name":"区立隅田公園山谷堀広場","province":"東京都","city":"台東区","address":"東京都台東区浅草7-1","lat":35.7169585,"lon":139.804179},{"name":"忍岡こども園","province":"東京都","city":"台東区","address":"台東区池之端2丁目1番22号","lat":35.7138335,"lon":139.766732},{"name":"都立上野恩賜公園","province":"東京都","city":"台東区","address":"東京都台東区上野公園8-51","lat":35.717343,"lon":139.774526},{"name":"区立隅田公園山谷堀広場","province":"東京都","city":"台東区","address":"東京都台東区浅草7-1","lat":35.7169585,"lon":139.804179},{"name":"忍岡こども園","province":"東京都","city":"台東区","address":"台東区池之端2丁目1番22号","lat":35.7138335,"lon":139.766732},{"name":"都立上野恩賜公園","province":"東京都","city":"台東区","address":"東京都台東区上野公園8-51","lat":35.717343,"lon":139.774526},{"name":"区立隅田公園山谷堀広場","province":"東京都","city":"台東区","address":"東京都台東区浅草7-1","lat":35.7169585,"lon":139.804179},{"name":"忍岡こども園","province":"東京都","city":"台東区","address":"台東区池之端2丁目1番22号","lat":35.7138335,"lon":139.766732},{"name":"都立上野恩賜公園","province":"東京都","city":"台東区","address":"東京都台東区上野公園8-51","lat":35.717343,"lon":139.774526},{"name":"区立隅田公園山谷堀広場","province":"東京都","city":"台東区","address":"東京都台東区浅草7-1","lat":35.7169585,"lon":139.804179},{"name":"忍岡こども園","province":"東京都","city":"台東区","address":"台東区池之端2丁目1番22号","lat":35.7138335,"lon":139.766732},{"name":"都立上野恩賜公園","province":"東京都","city":"台東区","address":"東京都台東区上野公園8-51","lat":35.717343,"lon":139.774526},{"name":"区立隅田公園山谷堀広場","province":"東京都","city":"台東区","address":"東京都台東区浅草7-1","lat":35.7169585,"lon":139.804179},{"name":"忍岡こども園","province":"東京都","city":"台東区","address":"台東区池之端2丁目1番22号","lat":35.7138335,"lon":139.766732},{"name":"都立上野恩賜公園","province":"東京都","city":"台東区","address":"東京都台東区上野公園8-51","lat":35.717343,"lon":139.774526},{"name":"区立隅田公園山谷堀広場","province":"東京都","city":"台東区","address":"東京都台東区浅草7-1","lat":35.7169585,"lon":139.804179},{"name":"忍岡こども園","province":"東京都","city":"台東区","address":"台東区池之端2丁目1番22号","lat":35.7138335,"lon":139.766732},{"name":"都立上野恩賜公園","province":"東京都","city":"台東区","address":"東京都台東区上野公園8-51","lat":35.717343,"lon":139.774526},{"name":"区立隅田公園山谷堀広場","province":"東京都","city":"台東区","address":"東京都台東区浅草7-1","lat":35.7169585,"lon":139.804179},{"name":"忍岡こども園","province":"東京都","city":"台東区","address":"台東区池之端2丁目1番22号","lat":35.7138335,"lon":139.766732},{"name":"都立上野恩賜公園","province":"東京都","city":"台東区","address":"東京都台東区上野公園8-51","lat":35.717343,"lon":139.774526},{"name":"区立隅田公園山谷堀広場","province":"東京都","city":"台東区","address":"東京都台東区浅草7-1","lat":35.7169585,"lon":139.804179},{"name":"忍岡こども園","province":"東京都","city":"台東区","address":"台東区池之端2丁目1番22号","lat":35.7138335,"lon":139.766732},{"name":"都立上野恩賜公園","province":"東京都","city":"台東区","address":"東京都台東区上野公園8-51","lat":35.717343,"lon":139.774526},{"name":"区立隅田公園山谷堀広場","province":"東京都","city":"台東区","address":"東京都台東区浅草7-1","lat":35.7169585,"lon":139.804179},{"name":"忍岡こども園","province":"東京都","city":"台東区","address":"台東区池之端2丁目1番22号","lat":35.7138335,"lon":139.766732},{"name":"都立上野恩賜公園","province":"東京都","city":"台東区","address":"東京都台東区上野公園8-51","lat":35.717343,"lon":139.774526},{"name":"区立隅田公園山谷堀広場","province":"東京都","city":"台東区","address":"東京都台東区浅草7-1","lat":35.7169585,"lon":139.804179},{"name":"忍岡こども園","province":"東京都","city":"台東区","address":"台東区池之端2丁目1番22号","lat":35.7138335,"lon":139.766732},{"name":"都立上野恩賜公園","province":"東京都","city":"台東区","address":"東京都台東区上野公園8-51","lat":35.717343,"lon":139.774526},{"name":"区立隅田公園山谷堀広場","province":"東京都","city":"台東区","address":"東京都台東区浅草7-1","lat":35.7169585,"lon":139.804179},{"name":"忍岡こども園","province":"東京都","city":"台東区","address":"台東区池之端2丁目1番22号","lat":35.7138335,"lon":139.766732},{"name":"都立上野恩賜公園","province":"東京都","city":"台東区","address":"東京都台東区上野公園8-51","lat":35.717343,"lon":139.774526},{"name":"区立隅田公園山谷堀広場","province":"東京都","city":"台東区","address":"東京都台東区浅草7-1","lat":35.7169585,"lon":139.804179},{"name":"忍岡こども園","province":"東京都","city":"台東区","address":"台東区池之端2丁目1番22号","lat":35.7138335,"lon":139.766732},{"name":"都立上野恩賜公園","province":"東京都","city":"台東区","address":"東京都台東区上野公園8-51","lat":35.717343,"lon":139.774526},{"name":"区立隅田公園山谷堀広場","province":"東京都","city":"台東区","address":"東京都台東区浅草7-1","lat":35.7169585,"lon":139.804179},{"name":"忍岡こども園","province":"東京都","city":"台東区","address":"台東区池之端2丁目1番22号","lat":35.7138335,"lon":139.766732},{"name":"都立上野恩賜公園","province":"東京都","city":"台東区","address":"東京都台東区上野公園8-51","lat":35.717343,"lon":139.774526},{"name":"区立隅田公園山谷堀広場","province":"東京都","city":"台東区","address":"東京都台東区浅草7-1","lat":35.7169585,"lon":139.804179},{"name":"忍岡こども園","province":"東京都","city":"台東区","address":"台東区池之端2丁目1番22号","lat":35.7138335,"lon":139.766732},{"name":"都立上野恩賜公園","province":"東京都","city":"台東区","address":"東京都台東区上野公園8-51","lat":35.717343,"lon":139.774526},{"name":"区立隅田公園山谷堀広場","province":"東京都","city":"台東区","address":"東京都台東区浅草7-1","lat":35.7169585,"lon":139.804179},{"name":"忍岡こども園","province":"東京都","city":"台東区","address":"台東区池之端2丁目1番22号","lat":35.7138335,"lon":139.766732},{"name":"都立上野恩賜公園","province":"東京都","city":"台東区","address":"東京都台東区上野公園8-51","lat":35.717343,"lon":139.774526},{"name":"区立隅田公園山谷堀広場","province":"東京都","city":"台東区","address":"東京都台東区浅草7-1","lat":35.7169585,"lon":139.804179},{"name":"忍岡こども園","province":"東京都","city":"台東区","address":"台東区池之端2丁目1番22号","lat":35.7138335,"lon":139.766732},{"name":"都立上野恩賜公園","province":"東京都","city":"台東区","address":"東京都台東区上野公園8-51","lat":35.717343,"lon":139.774526},{"name":"区立隅田公園山谷堀広場","province":"東京都","city":"台東区","address":"東京都台東区浅草7-1","lat":35.7169585,"lon":139.804179},{"name":"忍岡こども園","province":"東京都","city":"台東区","address":"台東区池之端2丁目1番22号","lat":35.7138335,"lon":139.766732},{"name":"都立上野恩賜公園","province":"東京都","city":"台東区","address":"東京都台東区上野公園8-51","lat":35.717343,"lon":139.774526},{"name":"区立隅田公園山谷堀広場","province":"東京都","city":"台東区","address":"東京都台東区浅草7-1","lat":35.7169585,"lon":139.804179},{"name":"忍岡こども園","province":"東京都","city":"台東区","address":"台東区池之端2丁目1番22号","lat":35.7138335,"lon":139.766732},{"name":"都立上野恩賜公園","province":"東京都","city":"台東区","address":"東京都台東区上野公園8-51","lat":35.717343,"lon":139.774526},{"name":"区立隅田公園山谷堀広場","province":"東京都","city":"台東区","address":"東京都台東区浅草7-1","lat":35.7169585,"lon":139.804179},{"name":"忍岡こども園","province":"東京都","city":"台東区","address":"台東区池之端2丁目1番22号","lat":35.7138335,"lon":139.766732},{"name":"都立上野恩賜公園","province":"東京都","city":"台東区","address":"東京都台東区上野公園8-51","lat":35.717343,"lon":139.774526},{"name":"区立隅田公園山谷堀広場","province":"東京都","city":"台東区","address":"東京都台東区浅草7-1","lat":35.7169585,"lon":139.804179},{"name":"忍岡こども園","province":"東京都","city":"台東区","address":"台東区池之端2丁目1番22号","lat":35.7138335,"lon":139.766732},{"name":"都立上野恩賜公園","province":"東京都","city":"台東区","address":"東京都台東区上野公園8-51","lat":35.717343,"lon":139.774526},{"name":"区立隅田公園山谷堀広場","province":"東京都","city":"台東区","address":"東京都台東区浅草7-1","lat":35.7169585,"lon":139.804179},{"name":"忍岡こども園","province":"東京都","city":"台東区","address":"台東区池之端2丁目1番22号","lat":35.7138335,"lon":139.766732},{"name":"都立上野恩賜公園","province":"東京都","city":"台東区","address":"東京都台東区上野公園8-51","lat":35.717343,"lon":139.774526},{"name":"区立隅田公園山谷堀広場","province":"東京都","city":"台東区","address":"東京都台東区浅草7-1","lat":35.7169585,"lon":139.804179},{"name":"忍岡こども園","province":"東京都","city":"台東区","address":"台東区池之端2丁目1番22号","lat":35.7138335,"lon":139.766732},{"name":"都立上野恩賜公園","province":"東京都","city":"台東区","address":"東京都台東区上野公園8-51","lat":35.717343,"lon":139.774526},{"name":"区立隅田公園山谷堀広場","province":"東京都","city":"台東区","address":"東京都台東区浅草7-1","lat":35.7169585,"lon":139.804179},{"name":"忍岡こども園","province":"東京都","city":"台東区","address":"台東区池之端2丁目1番22号","lat":35.7138335,"lon":139.766732},{"name":"都立上野恩賜公園","province":"東京都","city":"台東区","address":"東京都台東区上野公園8-51","lat":35.717343,"lon":139.774526},{"name":"区立隅田公園山谷堀広場","province":"東京都","city":"台東区","address":"東京都台東区浅草7-1","lat":35.7169585,"lon":139.804179},{"name":"忍岡こども園","province":"東京都","city":"台東区","address":"台東区池之端2丁目1番22号","lat":35.7138335,"lon":139.766732},{"name":"都立上野恩賜公園","province":"東京都","city":"台東区","address":"東京都台東区上野公園8-51","lat":35.717343,"lon":139.774526},{"name":"区立隅田公園山谷堀広場","province":"東京都","city":"台東区","address":"東京都台東区浅草7-1","lat":35.7169585,"lon":139.804179},{"name":"忍岡こども園","province":"東京都","city":"台東区","address":"台東区池之端2丁目1番22号","lat":35.7138335,"lon":139.766732},{"name":"都立上野恩賜公園","province":"東京都","city":"台東区","address":"東京都台東区上野公園8-51","lat":35.717343,"lon":139.774526},{"name":"区立隅田公園山谷堀広場","province":"東京都","city":"台東区","address":"東京都台東区浅草7-1","lat":35.7169585,"lon":139.804179},{"name":"忍岡こども園","province":"東京都","city":"台東区","address":"台東区池之端2丁目1番22号","lat":35.7138335,"lon":139.766732},{"name":"都立上野恩賜公園","province":"東京都","city":"台東区","address":"東京都台東区上野公園8-51","lat":35.717343,"lon":139.774526},{"name":"区立隅田公園山谷堀広場","province":"東京都","city":"台東区","address":"東京都台東区浅草7-1","lat":35.7169585,"lon":139.804179},{"name":"忍岡こども園","province":"東京都","city":"台東区","address":"台東区池之端2丁目1番22号","lat":35.7138335,"lon":139.766732}]}