{"keyword":"喫煙","data":[{"name":"上野公園前交番裏","province":"東京都","city":"台東区","address":"東京都台東区上野公園1","lat":35.7112,"lon":139.77377},{"name":"JR上野駅（広小路口）ぺデストリアンデッキ上","province":"東京都","city":"台東区","address":"東京都台東区上野7丁目1","lat":35.71163,"lon":139.77628},{"name":"JR上野駅（浅草口）ペデストリアンデッキ上","province":"東京都","city":"台東区","address":"東京都台東区上野7丁目1","lat":35.71168,"lon":139.77726},{"name":"浅草寺境内 ①「二尊仏前」東","province":"東京都","city":"台東区","address":"東京都台東区浅草2丁目3","lat":35.71361,"lon":139.79737},{"name":"浅草寺境内 ②「観音前警備派出所」北","province":"東京都","city":"台東区","address":"東京都台東区浅草2丁目3","lat":35.71411,"lon":139.79726},{"name":"浅草寺境内 ③「北側トイレ」南","province":"東京都","city":"台東区","address":"東京都台東区浅草2丁目30","lat":35.71559,"lon":139.79706},{"name":"浅草寺境内 ④「はとバス駐車場」西","province":"東京都","city":"台東区","address":"東京都台東区浅草2丁目3","lat":35.71528,"lon":139.79597},{"name":"広徳公園内","province":"東京都","city":"台東区","address":"東京都台東区東上野4丁目5","lat":35.71248,"lon":139.78067},{"name":"池之端二丁目公衆トイレ横","province":"東京都","city":"台東区","address":"東京都台東区池之端2丁目4","lat":35.71358,"lon":139.76573},{"name":"本庁舎駐車場出口横","province":"東京都","city":"台東区","address":"東京都台東区東上野4丁目5","lat":35.712724,"lon":139.779469},{"name":"台東リバーサイドスポーツセンター体育館前","province":"東京都","city":"台東区","address":"東京都台東区今戸1丁目1","lat":35.717866,"lon":139.804235},{"name":"清川清掃車庫内","province":"東京都","city":"台東区","address":"東京都台東区清川2丁目24","lat":35.727847,"lon":139.805037},{"name":"鶯谷公園内","province":"東京都","city":"台東区","address":"東京都台東区根岸1丁目3","lat":35.721114,"lon":139.779621},{"name":"上野公園正岡子規記念球場横","province":"東京都","city":"台東区","address":"東京都台東区上野公園5","lat":35.714185,"lon":139.77416},{"name":"金竜公園内","province":"東京都","city":"台東区","address":"東京都台東区西浅草3丁目25","lat":35.716998,"lon":139.789717},{"name":"隅田公園内","province":"東京都","city":"台東区","address":"東京都台東区花川戸1丁目1","lat":35.712469,"lon":139.800097},{"name":"paspa 浅草橋","province":"東京都","city":"台東区","address":"東京都台東区柳橋2丁目6-8","lat":35.69849,"lon":139.78759},{"name":"ファミリーマート　台東一丁目店","province":"東京都","city":"台東区","address":"東京都台東区台東1丁目1-14","lat":35.70069,"lon":139.78038},{"name":"セブン-イレブン　東上野１丁目店","province":"東京都","city":"台東区","address":"東京都台東区東上野1丁目7-15","lat":35.70759,"lon":139.77987},{"name":"セブン-イレブン　台東松が谷１丁目店","province":"東京都","city":"台東区","address":"東京都台東区松が谷1丁目3-5","lat":35.71107,"lon":139.78613},{"name":"セブン-イレブン　田原町駅前店","province":"東京都","city":"台東区","address":"東京都台東区寿2丁目10-10","lat":35.70956,"lon":139.79066},{"name":"smokers peace in ミマツ書房","province":"東京都","city":"台東区","address":"東京都台東区台東3丁目44-4","lat":35.70564,"lon":139.77756},{"name":"ファミリーマート　台東四丁目店","province":"東京都","city":"台東区","address":"東京都台東区台東4丁目30-6","lat":35.70725,"lon":139.77768},{"name":"paspa 上野","province":"東京都","city":"台東区","address":"東京都台東区上野7丁目4-3","lat":35.71284,"lon":139.778},{"name":"paspa 御徒町","province":"東京都","city":"台東区","address":"東京都台東区上野6丁目9-1","lat":35.70902,"lon":139.77537},{"name":"SMOKING & COFFEE BAR SMOCO","province":"東京都","city":"台東区","address":"東京都台東区雷門2丁目19-10","lat":35.710627,"lon":139.79721},{"name":"アメ横センタービル喫煙所","province":"東京都","city":"台東区","address":"東京都台東区上野4丁目7-2","lat":35.709078,"lon":139.77454},{"name":"松葉公園内","province":"東京都","city":"台東区","address":"東京都台東区松が谷1丁目12","lat":35.712137,"lon":139.78738}]}