{"keyword":"宿泊","data":[{"name":"ふるさと・日の出館","province":"東京都","city":"台東区","address":"東京都台東区","lat":35.71260667,"lon":139.77999789},{"name":"ふるさと・あさひ館","province":"東京都","city":"台東区","address":"台東区千束4-28-1","lat":35.722631,"lon":139.794935},{"name":"ふるさと・千束館","province":"東京都","city":"台東区","address":"台東区千束3-28-6","lat":35.723192,"lon":139.793446},{"name":"千束荘","province":"東京都","city":"台東区","address":"台東区千束3-23-13","lat":35.72255,"lon":139.793716},{"name":"下谷荘","province":"東京都","city":"台東区","address":"台東区下谷2-16-6","lat":35.722312,"lon":139.784289},{"name":"橋場荘","province":"東京都","city":"台東区","address":"台東区橋場1-17-10","lat":35.724401,"lon":139.805535},{"name":"おおぞら荘","province":"東京都","city":"台東区","address":"台東区日本堤1-17-7","lat":35.726186,"lon":139.799107},{"name":"さくら千束ハウス","province":"東京都","city":"台東区","address":"台東区千束4-34-1","lat":35.724728,"lon":139.796334},{"name":"きぼうのいえ","province":"東京都","city":"台東区","address":"東京都台東区","lat":35.71260667,"lon":139.77999789},{"name":"山友荘","province":"東京都","city":"台東区","address":"台東区清川2-38-2","lat":35.728747,"lon":139.800823},{"name":"コスモスハウスおはな","province":"東京都","city":"台東区","address":"東京都台東区","lat":35.71260667,"lon":139.77999789},{"name":"友愛ホーム","province":"東京都","city":"台東区","address":"台東区清川2-16-3","lat":35.727406,"lon":139.800493},{"name":"やすらぎの家","province":"東京都","city":"台東区","address":"東京都台東区","lat":35.71260667,"lon":139.77999789},{"name":"ＳＴＥＰ－ＵＰ－ＨＯＵＳＥ","province":"東京都","city":"台東区","address":"東京都台東区","lat":35.71260667,"lon":139.77999789},{"name":"グループホーム「ふうせん」","province":"東京都","city":"台東区","address":"東京都台東区","lat":35.71260667,"lon":139.77999789},{"name":"ＴＥＯＳ千束三番館","province":"東京都","city":"台東区","address":"東京都台東区","lat":35.71260667,"lon":139.77999789},{"name":"下谷荘","province":"東京都","city":"台東区","address":"台東区下谷2-16-6","lat":35.72222,"lon":139.78426},{"name":"おおぞら荘","province":"東京都","city":"台東区","address":"台東区日本堤1-17-7","lat":35.72612,"lon":139.79912},{"name":"山友荘","province":"東京都","city":"台東区","address":"台東区清川2-38-2","lat":35.72885,"lon":139.80061},{"name":"友愛ホーム","province":"東京都","city":"台東区","address":"台東区清川2-16-3","lat":35.72757,"lon":139.80042},{"name":"橋場荘","province":"東京都","city":"台東区","address":"台東区橋場1-17-10","lat":35.72424,"lon":139.80568},{"name":"ふるさと・あさひ館","province":"東京都","city":"台東区","address":"台東区千束4-28-1","lat":35.72276,"lon":139.79457},{"name":"ふるさと・千束館","province":"東京都","city":"台東区","address":"台東区千束3-28-6","lat":35.7232,"lon":139.79366},{"name":"千束荘","province":"東京都","city":"台東区","address":"台東区千束3-23-13","lat":35.72248,"lon":139.79349},{"name":"さくら千束ハウス","province":"東京都","city":"台東区","address":"台東区千束4-34-1","lat":35.72474,"lon":139.79611},{"name":"東京隅田川ユースホステル","province":"東京都","city":"台東区","address":"台東区柳橋2-21-4","lat":35.69589398,"lon":139.7924579},{"name":"東京上野ユースホステル","province":"東京都","city":"台東区","address":"台東区上野1-13-6東京新潟県人会館4階","lat":35.70318121,"lon":139.7735136}]}