{"keyword":"店","data":[{"name":"永寿総合病院","province":"東京都","city":"台東区","address":"台東区東上野2-23-16","lat":35.709749,"lon":139.779629},{"name":"杉光園","province":"東京都","city":"台東区","address":"台東区台東3-1-6","lat":35.704463,"lon":139.781321},{"name":"ふるさと・日の出館","province":"東京都","city":"台東区","address":"東京都台東区","lat":35.71260667,"lon":139.77999789},{"name":"ふるさと・あさひ館","province":"東京都","city":"台東区","address":"台東区千束4-28-1","lat":35.722631,"lon":139.794935},{"name":"ふるさと・千束館","province":"東京都","city":"台東区","address":"台東区千束3-28-6","lat":35.723192,"lon":139.793446},{"name":"千束荘","province":"東京都","city":"台東区","address":"台東区千束3-23-13","lat":35.72255,"lon":139.793716},{"name":"下谷荘","province":"東京都","city":"台東区","address":"台東区下谷2-16-6","lat":35.722312,"lon":139.784289},{"name":"橋場荘","province":"東京都","city":"台東区","address":"台東区橋場1-17-10","lat":35.724401,"lon":139.805535},{"name":"おおぞら荘","province":"東京都","city":"台東区","address":"台東区日本堤1-17-7","lat":35.726186,"lon":139.799107},{"name":"さくら千束ハウス","province":"東京都","city":"台東区","address":"台東区千束4-34-1","lat":35.724728,"lon":139.796334},{"name":"きぼうのいえ","province":"東京都","city":"台東区","address":"東京都台東区","lat":35.71260667,"lon":139.77999789},{"name":"山友荘","province":"東京都","city":"台東区","address":"台東区清川2-38-2","lat":35.728747,"lon":139.800823},{"name":"コスモスハウスおはな","province":"東京都","city":"台東区","address":"東京都台東区","lat":35.71260667,"lon":139.77999789},{"name":"友愛ホーム","province":"東京都","city":"台東区","address":"台東区清川2-16-3","lat":35.727406,"lon":139.800493},{"name":"やすらぎの家","province":"東京都","city":"台東区","address":"東京都台東区","lat":35.71260667,"lon":139.77999789},{"name":"ＳＴＥＰ－ＵＰ－ＨＯＵＳＥ","province":"東京都","city":"台東区","address":"東京都台東区","lat":35.71260667,"lon":139.77999789},{"name":"グループホーム「ふうせん」","province":"東京都","city":"台東区","address":"東京都台東区","lat":35.71260667,"lon":139.77999789},{"name":"ＴＥＯＳ千束三番館","province":"東京都","city":"台東区","address":"東京都台東区","lat":35.71260667,"lon":139.77999789},{"name":"橋場診療所歯科","province":"東京都","city":"台東区","address":"台東区橋場2-2-5","lat":35.726265,"lon":139.807071},{"name":"橋場診療所","province":"東京都","city":"台東区","address":"台東区橋場2-2-5","lat":35.726265,"lon":139.807071},{"name":"浅草寺病院","province":"東京都","city":"台東区","address":"台東区浅草2-30-17","lat":35.715807,"lon":139.796655},{"name":"城北労働・福祉センター","province":"東京都","city":"台東区","address":"東京都台東区日本堤2-2-11","lat":35.727942,"lon":139.798959},{"name":"台東区社会福祉協議会","province":"東京都","city":"台東区","address":"台東区下谷1-2-11","lat":35.717837,"lon":139.781742},{"name":"下谷荘","province":"東京都","city":"台東区","address":"台東区下谷2-16-6","lat":35.72222,"lon":139.78426},{"name":"おおぞら荘","province":"東京都","city":"台東区","address":"台東区日本堤1-17-7","lat":35.72612,"lon":139.79912},{"name":"山友荘","province":"東京都","city":"台東区","address":"台東区清川2-38-2","lat":35.72885,"lon":139.80061},{"name":"友愛ホーム","province":"東京都","city":"台東区","address":"台東区清川2-16-3","lat":35.72757,"lon":139.80042},{"name":"橋場荘","province":"東京都","city":"台東区","address":"台東区橋場1-17-10","lat":35.72424,"lon":139.80568},{"name":"ふるさと・あさひ館","province":"東京都","city":"台東区","address":"台東区千束4-28-1","lat":35.72276,"lon":139.79457},{"name":"ふるさと・千束館","province":"東京都","city":"台東区","address":"台東区千束3-28-6","lat":35.7232,"lon":139.79366},{"name":"千束荘","province":"東京都","city":"台東区","address":"台東区千束3-23-13","lat":35.72248,"lon":139.79349},{"name":"さくら千束ハウス","province":"東京都","city":"台東区","address":"台東区千束4-34-1","lat":35.72474,"lon":139.79611},{"name":"（有）竹内商店","province":"東京都","city":"台東区","address":"東京都台東区谷中6丁目3-9","lat":35.72346374,"lon":139.76886213},{"name":"（株）信興会","province":"東京都","city":"台東区","address":"東京都台東区上野桜木2丁目10-14","lat":35.72155569,"lon":139.77164258},{"name":"（株）そうかみ","province":"東京都","city":"台東区","address":"東京都台東区池之端4丁目18-4","lat":35.71952798,"lon":139.76941496},{"name":"（有）小泉桶甚本店","province":"東京都","city":"台東区","address":"東京都台東区下谷1丁目11-15","lat":35.71947836,"lon":139.78313624},{"name":"（有）鳥居本店","province":"東京都","city":"台東区","address":"東京都台東区下谷1丁目11-4","lat":35.7193256,"lon":139.78283349},{"name":"（有）染木商店","province":"東京都","city":"台東区","address":"東京都台東区竜泉1丁目22-6","lat":35.72426409,"lon":139.78956594},{"name":"（有）堀込葬祭","province":"東京都","city":"台東区","address":"東京都台東区千束3丁目16-5","lat":35.72160323,"lon":139.791427},{"name":"（有）小林花環店","province":"東京都","city":"台東区","address":"東京都台東区千束4丁目51-11","lat":35.72585259,"lon":139.79594269},{"name":"誠実屋　伊藤","province":"東京都","city":"台東区","address":"東京都台東区東浅草2丁目15-12","lat":35.72367021,"lon":139.80124868},{"name":"（有）金子商店","province":"東京都","city":"台東区","address":"東京都台東区清川1丁目33-5","lat":35.72612004,"lon":139.80211256},{"name":"（有）根岸商店","province":"東京都","city":"台東区","address":"東京都台東区今戸2丁目23-3","lat":35.72157095,"lon":139.80503222},{"name":"（有）川﨑商店","province":"東京都","city":"台東区","address":"東京都台東区西浅草2丁目3-13","lat":35.71233743,"lon":139.79016105},{"name":"（株）葬儀のうはら","province":"東京都","city":"台東区","address":"東京都台東区蔵前3丁目19-6","lat":35.70564366,"lon":139.79141157},{"name":"鳥越葬儀社神商店","province":"東京都","city":"台東区","address":"東京都台東区鳥越1丁目2-2","lat":35.70213558,"lon":139.78329568},{"name":"（有）東都葬祭福井","province":"東京都","city":"台東区","address":"東京都台東区台東3丁目42-4","lat":35.70558783,"lon":139.7763957},{"name":"永寿総合病院","province":"東京都","city":"台東区","address":"台東区東上野2-23-16","lat":35.70954,"lon":139.77971},{"name":"杉光園","province":"東京都","city":"台東区","address":"台東区台東3-1-6","lat":35.70423,"lon":139.78123},{"name":"ふるさと旅館朝日館","province":"東京都","city":"台東区","address":"台東区日本堤1-24-4","lat":35.72727,"lon":139.8},{"name":"ふるさと清川荘","province":"東京都","city":"台東区","address":"台東区清川2-18-5","lat":35.72767,"lon":139.80148},{"name":"ふるさとホテル三晃","province":"東京都","city":"台東区","address":"台東区清川2-38-5","lat":35.72885,"lon":139.80061},{"name":"ふるさとあさひ館","province":"東京都","city":"台東区","address":"台東区千束4-28-1","lat":35.72276,"lon":139.79457},{"name":"ふるさと日の出館","province":"東京都","city":"台東区","address":"東京都台東区","lat":35.71260667,"lon":139.77999789},{"name":"城北労働・福祉センター","province":"東京都","city":"台東区","address":"台東区日本堤2-2-11","lat":35.72779,"lon":139.79892},{"name":"台東区社会福祉協議会","province":"東京都","city":"台東区","address":"台東区下谷1-2-11","lat":35.71782,"lon":139.78169},{"name":"台東区松が谷福祉会館","province":"東京都","city":"台東区","address":"東京都台東区松が谷1丁目4-12","lat":35.71130412,"lon":139.78542541},{"name":"ふるさと２丁目ハウス","province":"東京都","city":"台東区","address":"台東区日本堤2-37-1","lat":35.7281,"lon":139.79497},{"name":"杉光園","province":"東京都","city":"台東区","address":"台東区台東3-1-6","lat":35.70423,"lon":139.78124},{"name":"千束荘","province":"東京都","city":"台東区","address":"台東区千束3-23-13","lat":35.72249,"lon":139.79349},{"name":"ＳＴＥＰ-ＵＰ-ＨＯＵＳＥ","province":"東京都","city":"台東区","address":"東京都台東区","lat":35.71260667,"lon":139.77999789},{"name":"城北労働・福祉センター","province":"東京都","city":"台東区","address":"台東区日本堤2-2-11","lat":35.7278,"lon":139.79892},{"name":"ふるさと二丁目ハウス","province":"東京都","city":"台東区","address":"台東区日本堤2-37-1","lat":35.7281,"lon":139.79497},{"name":"北（根岸）12入谷区民館根岸分館（書道博物館）","province":"東京都","city":"台東区","address":"東京都台東区根岸2丁目18","lat":35.72500538,"lon":139.7772633},{"name":"北（根岸）13鶯谷駅北","province":"東京都","city":"台東区","address":"東京都台東区根岸3丁目8","lat":35.72297357,"lon":139.7789043},{"name":"北（根岸）14鶯谷駅南","province":"東京都","city":"台東区","address":"東京都台東区根岸3丁目1","lat":35.72100376,"lon":139.7810941},{"name":"北（根岸）11防災広場根岸の里","province":"東京都","city":"台東区","address":"東京都台東区根岸3丁目12","lat":35.72364361,"lon":139.781844},{"name":"北（根岸）10根岸三丁目","province":"東京都","city":"台東区","address":"東京都台東区根岸3丁目2","lat":35.7223437,"lon":139.781994},{"name":"北（根岸）9金杉通り","province":"東京都","city":"台東区","address":"東京都台東区下谷2丁目19","lat":35.72290371,"lon":139.7834139},{"name":"北（根岸）15入谷駅入口","province":"東京都","city":"台東区","address":"東京都台東区下谷2丁目14","lat":35.72151381,"lon":139.7843039},{"name":"北（根岸）8下谷三丁目","province":"東京都","city":"台東区","address":"東京都台東区根岸4丁目17","lat":35.7245936,"lon":139.7854437},{"name":"北（根岸）7金杉区民会館下谷分館入口","province":"東京都","city":"台東区","address":"東京都台東区下谷3丁目8","lat":35.72503354,"lon":139.7864935},{"name":"北（根岸）16大正小学校","province":"東京都","city":"台東区","address":"東京都台東区入谷1丁目23","lat":35.72122383,"lon":139.7869136},{"name":"北（根岸）17生涯学習センター北（金竜小学校前）","province":"東京都","city":"台東区","address":"東京都台東区入谷2丁目6","lat":35.71889405,"lon":139.7893535},{"name":"北（根岸）6竜泉一丁目","province":"東京都","city":"台東区","address":"東京都台東区竜泉1丁目33","lat":35.72469348,"lon":139.7897331},{"name":"北（根岸）18千束二丁目","province":"東京都","city":"台東区","address":"東京都台東区千束2丁目25","lat":35.72135382,"lon":139.7907832},{"name":"北（根岸）5一葉記念館入口","province":"東京都","city":"台東区","address":"東京都台東区竜泉3丁目21","lat":35.72549336,"lon":139.7910329},{"name":"北（根岸）4三ノ輪駅（三ノ輪福祉センタ－前）","province":"東京都","city":"台東区","address":"東京都台東区三ノ輪1丁目27","lat":35.72956298,"lon":139.7922426},{"name":"北（根岸）19千束三丁目","province":"東京都","city":"台東区","address":"東京都台東区千束3丁目13","lat":35.72122384,"lon":139.792413},{"name":"北（根岸）1台東病院","province":"東京都","city":"台東区","address":"東京都台東区千束3丁目20","lat":35.72246068,"lon":139.7930259},{"name":"北（根岸）3三ノ輪二丁目","province":"東京都","city":"台東区","address":"東京都台東区三ノ輪1丁目1","lat":35.7279173,"lon":139.7943424},{"name":"北（根岸）2竜泉三丁目","province":"東京都","city":"台東区","address":"東京都台東区千束4丁目36","lat":35.72484603,"lon":139.7969784},{"name":"北（浅草）16台東病院","province":"東京都","city":"台東区","address":"東京都台東区千束3丁目20","lat":35.72246068,"lon":139.7930259},{"name":"北（浅草）17千束小学校前","province":"東京都","city":"台東区","address":"東京都台東区浅草5丁目11","lat":35.72014398,"lon":139.793783},{"name":"北（浅草）18浅草五丁目","province":"東京都","city":"台東区","address":"東京都台東区浅草4丁目37","lat":35.71967405,"lon":139.7959028},{"name":"北（浅草）21浅草寺北","province":"東京都","city":"台東区","address":"東京都台東区浅草3丁目3","lat":35.71606446,"lon":139.7977029},{"name":"北（浅草）23浅草松屋西","province":"東京都","city":"台東区","address":"東京都台東区花川戸1丁目6","lat":35.71246475,"lon":139.7978431},{"name":"北（浅草）19浅草警察署前","province":"東京都","city":"台東区","address":"東京都台東区浅草5丁目4","lat":35.71919423,"lon":139.7978728},{"name":"北（浅草）11吉原大門","province":"東京都","city":"台東区","address":"東京都台東区東浅草2丁目27","lat":35.72476347,"lon":139.7979322},{"name":"北（浅草）20浅草四丁目","province":"東京都","city":"台東区","address":"東京都台東区浅草4丁目4","lat":35.71788434,"lon":139.7979528},{"name":"北（浅草）1浅草駅","province":"東京都","city":"台東区","address":"東京都台東区花川戸1丁目4","lat":35.71144484,"lon":139.7981931},{"name":"北（浅草）22二天門","province":"東京都","city":"台東区","address":"東京都台東区花川戸2丁目6","lat":35.71452462,"lon":139.798333},{"name":"北（浅草）10東浅草二丁目","province":"東京都","city":"台東区","address":"東京都台東区日本堤1丁目2","lat":35.72570364,"lon":139.7999023},{"name":"北（浅草）2花川戸","province":"東京都","city":"台東区","address":"東京都台東区花川戸1丁目13","lat":35.71361475,"lon":139.8003728},{"name":"北（浅草）9清川一丁目","province":"東京都","city":"台東区","address":"東京都台東区清川1丁目33","lat":35.72621391,"lon":139.8020926},{"name":"北（浅草）3隅田公園","province":"東京都","city":"台東区","address":"東京都台東区浅草7丁目3","lat":35.7164048,"lon":139.8029026},{"name":"北（浅草）4リバ－サイドスポ－ツセンタ－前","province":"東京都","city":"台東区","address":"東京都台東区今戸1丁目6","lat":35.71850489,"lon":139.8039827},{"name":"北（浅草）5今戸一丁目","province":"東京都","city":"台東区","address":"東京都台東区今戸1丁目18","lat":35.72050485,"lon":139.8042427},{"name":"北（浅草）6今戸二丁目","province":"東京都","city":"台東区","address":"東京都台東区今戸2丁目34","lat":35.72239468,"lon":139.8044028},{"name":"北（浅草）8橋場一丁目","province":"東京都","city":"台東区","address":"東京都台東区橋場2丁目5","lat":35.72612251,"lon":139.805806},{"name":"北（浅草）7橋場老人福祉館西（産業研修センター）","province":"東京都","city":"台東区","address":"東京都台東区橋場1丁目10","lat":35.72362577,"lon":139.8059939},{"name":"北（浅草）12三ノ輪二丁目","province":"東京都","city":"台東区","address":"東京都台東区三ノ輪1丁目1","lat":35.72764182,"lon":139.7945378},{"name":"北（浅草）13三ノ輪駅(三ノ輪福祉センター前)","province":"東京都","city":"台東区","address":"東京都台東区三ノ輪1丁目28","lat":35.7298773,"lon":139.7919974},{"name":"北（浅草）14一葉記念館入口","province":"東京都","city":"台東区","address":"東京都台東区竜泉2丁目12","lat":35.72521231,"lon":139.790899},{"name":"北（浅草）15千束三丁目","province":"東京都","city":"台東区","address":"東京都台東区千束3丁目13","lat":35.72124689,"lon":139.7927388},{"name":"東京隅田川ユースホステル","province":"東京都","city":"台東区","address":"台東区柳橋2-21-4","lat":35.69589398,"lon":139.7924579},{"name":"東京上野ユースホステル","province":"東京都","city":"台東区","address":"台東区上野1-13-6東京新潟県人会館4階","lat":35.70318121,"lon":139.7735136},{"name":"都立精神保健福祉センター","province":"東京都","city":"台東区","address":"台東区東上野3-3-13プラチナ第2ビル","lat":35.70650624,"lon":139.7848774},{"name":"＊?社会教育センター","province":"東京都","city":"台東区","address":"台東区東上野6-16-8","lat":35.713648,"lon":139.783675},{"name":"＊?小島社会教育館","province":"東京都","city":"台東区","address":"台東区小島1-5-2","lat":35.704078,"lon":139.781655},{"name":"＊?今戸社会教育館","province":"東京都","city":"台東区","address":"台東区今戸2-26-12","lat":35.721972,"lon":139.807471},{"name":"＊?千束社会教育館","province":"東京都","city":"台東区","address":"台東区浅草4-24-13","lat":35.719384,"lon":139.794022},{"name":"＊?根岸社会教育館","province":"東京都","city":"台東区","address":"台東区根岸5-18-13","lat":35.729237,"lon":139.790461},{"name":"＊?台東区生涯学習センター","province":"東京都","city":"台東区","address":"台東区西浅草3-25-16","lat":35.717295,"lon":139.789885},{"name":"＊?台東区生涯学習センター??学習館","province":"東京都","city":"台東区","address":"台東区西浅草3-25-16","lat":35.717284,"lon":139.789931},{"name":"都立精神保健福祉センター","province":"東京都","city":"台東区","address":"東京都台東区下谷1丁目1-3","lat":35.7173785,"lon":139.78121426},{"name":"永寿総合病院","province":"東京都","city":"台東区","address":"台東区東上野2-23-16","lat":35.709749,"lon":139.779629},{"name":"杉光園","province":"東京都","city":"台東区","address":"台東区台東3-1-6","lat":35.704463,"lon":139.781321},{"name":"ふるさと・日の出館","province":"東京都","city":"台東区","address":"東京都台東区","lat":35.71260667,"lon":139.77999789},{"name":"ふるさと・あさひ館","province":"東京都","city":"台東区","address":"台東区千束4-28-1","lat":35.722631,"lon":139.794935},{"name":"ふるさと・千束館","province":"東京都","city":"台東区","address":"台東区千束3-28-6","lat":35.723192,"lon":139.793446},{"name":"千束荘","province":"東京都","city":"台東区","address":"台東区千束3-23-13","lat":35.72255,"lon":139.793716},{"name":"下谷荘","province":"東京都","city":"台東区","address":"台東区下谷2-16-6","lat":35.722312,"lon":139.784289},{"name":"橋場荘","province":"東京都","city":"台東区","address":"台東区橋場1-17-10","lat":35.724401,"lon":139.805535},{"name":"おおぞら荘","province":"東京都","city":"台東区","address":"台東区日本堤1-17-7","lat":35.726186,"lon":139.799107},{"name":"さくら千束ハウス","province":"東京都","city":"台東区","address":"台東区千束4-34-1","lat":35.724728,"lon":139.796334},{"name":"きぼうのいえ","province":"東京都","city":"台東区","address":"東京都台東区","lat":35.71260667,"lon":139.77999789},{"name":"山友荘","province":"東京都","city":"台東区","address":"台東区清川2-38-2","lat":35.728747,"lon":139.800823},{"name":"コスモスハウスおはな","province":"東京都","city":"台東区","address":"東京都台東区","lat":35.71260667,"lon":139.77999789},{"name":"友愛ホーム","province":"東京都","city":"台東区","address":"台東区清川2-16-3","lat":35.727406,"lon":139.800493},{"name":"やすらぎの家","province":"東京都","city":"台東区","address":"東京都台東区","lat":35.71260667,"lon":139.77999789},{"name":"ＳＴＥＰ－ＵＰ－ＨＯＵＳＥ","province":"東京都","city":"台東区","address":"東京都台東区","lat":35.71260667,"lon":139.77999789},{"name":"グループホーム「ふうせん」","province":"東京都","city":"台東区","address":"東京都台東区","lat":35.71260667,"lon":139.77999789},{"name":"ＴＥＯＳ千束三番館","province":"東京都","city":"台東区","address":"東京都台東区","lat":35.71260667,"lon":139.77999789},{"name":"橋場診療所歯科","province":"東京都","city":"台東区","address":"台東区橋場2-2-5","lat":35.726265,"lon":139.807071},{"name":"橋場診療所","province":"東京都","city":"台東区","address":"台東区橋場2-2-5","lat":35.726265,"lon":139.807071},{"name":"浅草寺病院","province":"東京都","city":"台東区","address":"台東区浅草2-30-17","lat":35.715807,"lon":139.796655},{"name":"城北労働・福祉センター","province":"東京都","city":"台東区","address":"東京都台東区日本堤2-2-11","lat":35.727942,"lon":139.798959},{"name":"台東区社会福祉協議会","province":"東京都","city":"台東区","address":"台東区下谷1-2-11","lat":35.717837,"lon":139.781742},{"name":"下谷荘","province":"東京都","city":"台東区","address":"台東区下谷2-16-6","lat":35.72222,"lon":139.78426},{"name":"おおぞら荘","province":"東京都","city":"台東区","address":"台東区日本堤1-17-7","lat":35.72612,"lon":139.79912},{"name":"山友荘","province":"東京都","city":"台東区","address":"台東区清川2-38-2","lat":35.72885,"lon":139.80061},{"name":"友愛ホーム","province":"東京都","city":"台東区","address":"台東区清川2-16-3","lat":35.72757,"lon":139.80042},{"name":"橋場荘","province":"東京都","city":"台東区","address":"台東区橋場1-17-10","lat":35.72424,"lon":139.80568},{"name":"ふるさと・あさひ館","province":"東京都","city":"台東区","address":"台東区千束4-28-1","lat":35.72276,"lon":139.79457},{"name":"ふるさと・千束館","province":"東京都","city":"台東区","address":"台東区千束3-28-6","lat":35.7232,"lon":139.79366},{"name":"千束荘","province":"東京都","city":"台東区","address":"台東区千束3-23-13","lat":35.72248,"lon":139.79349},{"name":"さくら千束ハウス","province":"東京都","city":"台東区","address":"台東区千束4-34-1","lat":35.72474,"lon":139.79611},{"name":"（有）竹内商店","province":"東京都","city":"台東区","address":"東京都台東区谷中6丁目3-9","lat":35.72346374,"lon":139.76886213},{"name":"（株）信興会","province":"東京都","city":"台東区","address":"東京都台東区上野桜木2丁目10-14","lat":35.72155569,"lon":139.77164258},{"name":"（株）そうかみ","province":"東京都","city":"台東区","address":"東京都台東区池之端4丁目18-4","lat":35.71952798,"lon":139.76941496},{"name":"（有）小泉桶甚本店","province":"東京都","city":"台東区","address":"東京都台東区下谷1丁目11-15","lat":35.71947836,"lon":139.78313624},{"name":"（有）鳥居本店","province":"東京都","city":"台東区","address":"東京都台東区下谷1丁目11-4","lat":35.7193256,"lon":139.78283349},{"name":"（有）染木商店","province":"東京都","city":"台東区","address":"東京都台東区竜泉1丁目22-6","lat":35.72426409,"lon":139.78956594},{"name":"（有）堀込葬祭","province":"東京都","city":"台東区","address":"東京都台東区千束3丁目16-5","lat":35.72160323,"lon":139.791427},{"name":"（有）小林花環店","province":"東京都","city":"台東区","address":"東京都台東区千束4丁目51-11","lat":35.72585259,"lon":139.79594269},{"name":"誠実屋　伊藤","province":"東京都","city":"台東区","address":"東京都台東区東浅草2丁目15-12","lat":35.72367021,"lon":139.80124868},{"name":"（有）金子商店","province":"東京都","city":"台東区","address":"東京都台東区清川1丁目33-5","lat":35.72612004,"lon":139.80211256},{"name":"（有）根岸商店","province":"東京都","city":"台東区","address":"東京都台東区今戸2丁目23-3","lat":35.72157095,"lon":139.80503222},{"name":"（有）川﨑商店","province":"東京都","city":"台東区","address":"東京都台東区西浅草2丁目3-13","lat":35.71233743,"lon":139.79016105},{"name":"（株）葬儀のうはら","province":"東京都","city":"台東区","address":"東京都台東区蔵前3丁目19-6","lat":35.70564366,"lon":139.79141157},{"name":"鳥越葬儀社神商店","province":"東京都","city":"台東区","address":"東京都台東区鳥越1丁目2-2","lat":35.70213558,"lon":139.78329568},{"name":"（有）東都葬祭福井","province":"東京都","city":"台東区","address":"東京都台東区台東3丁目42-4","lat":35.70558783,"lon":139.7763957},{"name":"永寿総合病院","province":"東京都","city":"台東区","address":"台東区東上野2-23-16","lat":35.70954,"lon":139.77971},{"name":"杉光園","province":"東京都","city":"台東区","address":"台東区台東3-1-6","lat":35.70423,"lon":139.78123},{"name":"ふるさと旅館朝日館","province":"東京都","city":"台東区","address":"台東区日本堤1-24-4","lat":35.72727,"lon":139.8},{"name":"ふるさと清川荘","province":"東京都","city":"台東区","address":"台東区清川2-18-5","lat":35.72767,"lon":139.80148},{"name":"ふるさとホテル三晃","province":"東京都","city":"台東区","address":"台東区清川2-38-5","lat":35.72885,"lon":139.80061},{"name":"ふるさとあさひ館","province":"東京都","city":"台東区","address":"台東区千束4-28-1","lat":35.72276,"lon":139.79457},{"name":"ふるさと日の出館","province":"東京都","city":"台東区","address":"東京都台東区","lat":35.71260667,"lon":139.77999789},{"name":"城北労働・福祉センター","province":"東京都","city":"台東区","address":"台東区日本堤2-2-11","lat":35.72779,"lon":139.79892},{"name":"台東区社会福祉協議会","province":"東京都","city":"台東区","address":"台東区下谷1-2-11","lat":35.71782,"lon":139.78169},{"name":"台東区松が谷福祉会館","province":"東京都","city":"台東区","address":"東京都台東区松が谷1丁目4-12","lat":35.71130412,"lon":139.78542541},{"name":"ふるさと２丁目ハウス","province":"東京都","city":"台東区","address":"台東区日本堤2-37-1","lat":35.7281,"lon":139.79497},{"name":"杉光園","province":"東京都","city":"台東区","address":"台東区台東3-1-6","lat":35.70423,"lon":139.78124},{"name":"千束荘","province":"東京都","city":"台東区","address":"台東区千束3-23-13","lat":35.72249,"lon":139.79349},{"name":"ＳＴＥＰ-ＵＰ-ＨＯＵＳＥ","province":"東京都","city":"台東区","address":"東京都台東区","lat":35.71260667,"lon":139.77999789},{"name":"城北労働・福祉センター","province":"東京都","city":"台東区","address":"台東区日本堤2-2-11","lat":35.7278,"lon":139.79892},{"name":"ふるさと二丁目ハウス","province":"東京都","city":"台東区","address":"台東区日本堤2-37-1","lat":35.7281,"lon":139.79497},{"name":"北（根岸）12入谷区民館根岸分館（書道博物館）","province":"東京都","city":"台東区","address":"東京都台東区根岸2丁目18","lat":35.72500538,"lon":139.7772633},{"name":"北（根岸）13鶯谷駅北","province":"東京都","city":"台東区","address":"東京都台東区根岸3丁目8","lat":35.72297357,"lon":139.7789043},{"name":"北（根岸）14鶯谷駅南","province":"東京都","city":"台東区","address":"東京都台東区根岸3丁目1","lat":35.72100376,"lon":139.7810941},{"name":"北（根岸）11防災広場根岸の里","province":"東京都","city":"台東区","address":"東京都台東区根岸3丁目12","lat":35.72364361,"lon":139.781844},{"name":"北（根岸）10根岸三丁目","province":"東京都","city":"台東区","address":"東京都台東区根岸3丁目2","lat":35.7223437,"lon":139.781994},{"name":"北（根岸）9金杉通り","province":"東京都","city":"台東区","address":"東京都台東区下谷2丁目19","lat":35.72290371,"lon":139.7834139},{"name":"北（根岸）15入谷駅入口","province":"東京都","city":"台東区","address":"東京都台東区下谷2丁目14","lat":35.72151381,"lon":139.7843039},{"name":"北（根岸）8下谷三丁目","province":"東京都","city":"台東区","address":"東京都台東区根岸4丁目17","lat":35.7245936,"lon":139.7854437},{"name":"北（根岸）7金杉区民会館下谷分館入口","province":"東京都","city":"台東区","address":"東京都台東区下谷3丁目8","lat":35.72503354,"lon":139.7864935},{"name":"北（根岸）16大正小学校","province":"東京都","city":"台東区","address":"東京都台東区入谷1丁目23","lat":35.72122383,"lon":139.7869136},{"name":"北（根岸）17生涯学習センター北（金竜小学校前）","province":"東京都","city":"台東区","address":"東京都台東区入谷2丁目6","lat":35.71889405,"lon":139.7893535},{"name":"北（根岸）6竜泉一丁目","province":"東京都","city":"台東区","address":"東京都台東区竜泉1丁目33","lat":35.72469348,"lon":139.7897331},{"name":"北（根岸）18千束二丁目","province":"東京都","city":"台東区","address":"東京都台東区千束2丁目25","lat":35.72135382,"lon":139.7907832},{"name":"北（根岸）5一葉記念館入口","province":"東京都","city":"台東区","address":"東京都台東区竜泉3丁目21","lat":35.72549336,"lon":139.7910329},{"name":"北（根岸）4三ノ輪駅（三ノ輪福祉センタ－前）","province":"東京都","city":"台東区","address":"東京都台東区三ノ輪1丁目27","lat":35.72956298,"lon":139.7922426},{"name":"北（根岸）19千束三丁目","province":"東京都","city":"台東区","address":"東京都台東区千束3丁目13","lat":35.72122384,"lon":139.792413},{"name":"北（根岸）1台東病院","province":"東京都","city":"台東区","address":"東京都台東区千束3丁目20","lat":35.72246068,"lon":139.7930259},{"name":"北（根岸）3三ノ輪二丁目","province":"東京都","city":"台東区","address":"東京都台東区三ノ輪1丁目1","lat":35.7279173,"lon":139.7943424},{"name":"北（根岸）2竜泉三丁目","province":"東京都","city":"台東区","address":"東京都台東区千束4丁目36","lat":35.72484603,"lon":139.7969784},{"name":"北（浅草）16台東病院","province":"東京都","city":"台東区","address":"東京都台東区千束3丁目20","lat":35.72246068,"lon":139.7930259},{"name":"北（浅草）17千束小学校前","province":"東京都","city":"台東区","address":"東京都台東区浅草5丁目11","lat":35.72014398,"lon":139.793783},{"name":"北（浅草）18浅草五丁目","province":"東京都","city":"台東区","address":"東京都台東区浅草4丁目37","lat":35.71967405,"lon":139.7959028},{"name":"北（浅草）21浅草寺北","province":"東京都","city":"台東区","address":"東京都台東区浅草3丁目3","lat":35.71606446,"lon":139.7977029},{"name":"北（浅草）23浅草松屋西","province":"東京都","city":"台東区","address":"東京都台東区花川戸1丁目6","lat":35.71246475,"lon":139.7978431},{"name":"北（浅草）19浅草警察署前","province":"東京都","city":"台東区","address":"東京都台東区浅草5丁目4","lat":35.71919423,"lon":139.7978728},{"name":"北（浅草）11吉原大門","province":"東京都","city":"台東区","address":"東京都台東区東浅草2丁目27","lat":35.72476347,"lon":139.7979322},{"name":"北（浅草）20浅草四丁目","province":"東京都","city":"台東区","address":"東京都台東区浅草4丁目4","lat":35.71788434,"lon":139.7979528},{"name":"北（浅草）1浅草駅","province":"東京都","city":"台東区","address":"東京都台東区花川戸1丁目4","lat":35.71144484,"lon":139.7981931},{"name":"北（浅草）22二天門","province":"東京都","city":"台東区","address":"東京都台東区花川戸2丁目6","lat":35.71452462,"lon":139.798333},{"name":"北（浅草）10東浅草二丁目","province":"東京都","city":"台東区","address":"東京都台東区日本堤1丁目2","lat":35.72570364,"lon":139.7999023},{"name":"北（浅草）2花川戸","province":"東京都","city":"台東区","address":"東京都台東区花川戸1丁目13","lat":35.71361475,"lon":139.8003728},{"name":"北（浅草）9清川一丁目","province":"東京都","city":"台東区","address":"東京都台東区清川1丁目33","lat":35.72621391,"lon":139.8020926},{"name":"北（浅草）3隅田公園","province":"東京都","city":"台東区","address":"東京都台東区浅草7丁目3","lat":35.7164048,"lon":139.8029026},{"name":"北（浅草）4リバ－サイドスポ－ツセンタ－前","province":"東京都","city":"台東区","address":"東京都台東区今戸1丁目6","lat":35.71850489,"lon":139.8039827},{"name":"北（浅草）5今戸一丁目","province":"東京都","city":"台東区","address":"東京都台東区今戸1丁目18","lat":35.72050485,"lon":139.8042427},{"name":"北（浅草）6今戸二丁目","province":"東京都","city":"台東区","address":"東京都台東区今戸2丁目34","lat":35.72239468,"lon":139.8044028},{"name":"北（浅草）8橋場一丁目","province":"東京都","city":"台東区","address":"東京都台東区橋場2丁目5","lat":35.72612251,"lon":139.805806},{"name":"北（浅草）7橋場老人福祉館西（産業研修センター）","province":"東京都","city":"台東区","address":"東京都台東区橋場1丁目10","lat":35.72362577,"lon":139.8059939},{"name":"北（浅草）12三ノ輪二丁目","province":"東京都","city":"台東区","address":"東京都台東区三ノ輪1丁目1","lat":35.72764182,"lon":139.7945378},{"name":"北（浅草）13三ノ輪駅(三ノ輪福祉センター前)","province":"東京都","city":"台東区","address":"東京都台東区三ノ輪1丁目28","lat":35.7298773,"lon":139.7919974},{"name":"北（浅草）14一葉記念館入口","province":"東京都","city":"台東区","address":"東京都台東区竜泉2丁目12","lat":35.72521231,"lon":139.790899},{"name":"北（浅草）15千束三丁目","province":"東京都","city":"台東区","address":"東京都台東区千束3丁目13","lat":35.72124689,"lon":139.7927388},{"name":"東京隅田川ユースホステル","province":"東京都","city":"台東区","address":"台東区柳橋2-21-4","lat":35.69589398,"lon":139.7924579},{"name":"東京上野ユースホステル","province":"東京都","city":"台東区","address":"台東区上野1-13-6東京新潟県人会館4階","lat":35.70318121,"lon":139.7735136},{"name":"都立精神保健福祉センター","province":"東京都","city":"台東区","address":"台東区東上野3-3-13プラチナ第2ビル","lat":35.70650624,"lon":139.7848774},{"name":"＊?社会教育センター","province":"東京都","city":"台東区","address":"台東区東上野6-16-8","lat":35.713648,"lon":139.783675},{"name":"＊?小島社会教育館","province":"東京都","city":"台東区","address":"台東区小島1-5-2","lat":35.704078,"lon":139.781655},{"name":"＊?今戸社会教育館","province":"東京都","city":"台東区","address":"台東区今戸2-26-12","lat":35.721972,"lon":139.807471},{"name":"＊?千束社会教育館","province":"東京都","city":"台東区","address":"台東区浅草4-24-13","lat":35.719384,"lon":139.794022},{"name":"＊?根岸社会教育館","province":"東京都","city":"台東区","address":"台東区根岸5-18-13","lat":35.729237,"lon":139.790461},{"name":"都立精神保健福祉センター","province":"東京都","city":"台東区","address":"東京都台東区下谷1丁目1-3","lat":35.7173785,"lon":139.78121426},{"name":"永寿総合病院","province":"東京都","city":"台東区","address":"台東区東上野2-23-16","lat":35.709749,"lon":139.779629},{"name":"杉光園","province":"東京都","city":"台東区","address":"台東区台東3-1-6","lat":35.704463,"lon":139.781321},{"name":"ふるさと・日の出館","province":"東京都","city":"台東区","address":"東京都台東区","lat":35.71260667,"lon":139.77999789},{"name":"ふるさと・あさひ館","province":"東京都","city":"台東区","address":"台東区千束4-28-1","lat":35.722631,"lon":139.794935},{"name":"ふるさと・千束館","province":"東京都","city":"台東区","address":"台東区千束3-28-6","lat":35.723192,"lon":139.793446},{"name":"千束荘","province":"東京都","city":"台東区","address":"台東区千束3-23-13","lat":35.72255,"lon":139.793716},{"name":"下谷荘","province":"東京都","city":"台東区","address":"台東区下谷2-16-6","lat":35.722312,"lon":139.784289},{"name":"橋場荘","province":"東京都","city":"台東区","address":"台東区橋場1-17-10","lat":35.724401,"lon":139.805535},{"name":"おおぞら荘","province":"東京都","city":"台東区","address":"台東区日本堤1-17-7","lat":35.726186,"lon":139.799107},{"name":"さくら千束ハウス","province":"東京都","city":"台東区","address":"台東区千束4-34-1","lat":35.724728,"lon":139.796334},{"name":"きぼうのいえ","province":"東京都","city":"台東区","address":"東京都台東区","lat":35.71260667,"lon":139.77999789},{"name":"山友荘","province":"東京都","city":"台東区","address":"台東区清川2-38-2","lat":35.728747,"lon":139.800823},{"name":"コスモスハウスおはな","province":"東京都","city":"台東区","address":"東京都台東区","lat":35.71260667,"lon":139.77999789},{"name":"友愛ホーム","province":"東京都","city":"台東区","address":"台東区清川2-16-3","lat":35.727406,"lon":139.800493},{"name":"やすらぎの家","province":"東京都","city":"台東区","address":"東京都台東区","lat":35.71260667,"lon":139.77999789},{"name":"ＳＴＥＰ－ＵＰ－ＨＯＵＳＥ","province":"東京都","city":"台東区","address":"東京都台東区","lat":35.71260667,"lon":139.77999789},{"name":"グループホーム「ふうせん」","province":"東京都","city":"台東区","address":"東京都台東区","lat":35.71260667,"lon":139.77999789},{"name":"ＴＥＯＳ千束三番館","province":"東京都","city":"台東区","address":"東京都台東区","lat":35.71260667,"lon":139.77999789},{"name":"橋場診療所歯科","province":"東京都","city":"台東区","address":"台東区橋場2-2-5","lat":35.726265,"lon":139.807071},{"name":"橋場診療所","province":"東京都","city":"台東区","address":"台東区橋場2-2-5","lat":35.726265,"lon":139.807071},{"name":"浅草寺病院","province":"東京都","city":"台東区","address":"台東区浅草2-30-17","lat":35.715807,"lon":139.796655},{"name":"城北労働・福祉センター","province":"東京都","city":"台東区","address":"東京都台東区日本堤2-2-11","lat":35.727942,"lon":139.798959},{"name":"台東区社会福祉協議会","province":"東京都","city":"台東区","address":"台東区下谷1-2-11","lat":35.717837,"lon":139.781742},{"name":"下谷荘","province":"東京都","city":"台東区","address":"台東区下谷2-16-6","lat":35.72222,"lon":139.78426},{"name":"おおぞら荘","province":"東京都","city":"台東区","address":"台東区日本堤1-17-7","lat":35.72612,"lon":139.79912},{"name":"山友荘","province":"東京都","city":"台東区","address":"台東区清川2-38-2","lat":35.72885,"lon":139.80061},{"name":"友愛ホーム","province":"東京都","city":"台東区","address":"台東区清川2-16-3","lat":35.72757,"lon":139.80042},{"name":"橋場荘","province":"東京都","city":"台東区","address":"台東区橋場1-17-10","lat":35.72424,"lon":139.80568},{"name":"ふるさと・あさひ館","province":"東京都","city":"台東区","address":"台東区千束4-28-1","lat":35.72276,"lon":139.79457},{"name":"ふるさと・千束館","province":"東京都","city":"台東区","address":"台東区千束3-28-6","lat":35.7232,"lon":139.79366},{"name":"千束荘","province":"東京都","city":"台東区","address":"台東区千束3-23-13","lat":35.72248,"lon":139.79349},{"name":"さくら千束ハウス","province":"東京都","city":"台東区","address":"台東区千束4-34-1","lat":35.72474,"lon":139.79611},{"name":"（有）竹内商店","province":"東京都","city":"台東区","address":"東京都台東区谷中6丁目3-9","lat":35.72346374,"lon":139.76886213},{"name":"（株）信興会","province":"東京都","city":"台東区","address":"東京都台東区上野桜木2丁目10-14","lat":35.72155569,"lon":139.77164258},{"name":"（株）そうかみ","province":"東京都","city":"台東区","address":"東京都台東区池之端4丁目18-4","lat":35.71952798,"lon":139.76941496},{"name":"（有）小泉桶甚本店","province":"東京都","city":"台東区","address":"東京都台東区下谷1丁目11-15","lat":35.71947836,"lon":139.78313624},{"name":"（有）鳥居本店","province":"東京都","city":"台東区","address":"東京都台東区下谷1丁目11-4","lat":35.7193256,"lon":139.78283349},{"name":"（有）染木商店","province":"東京都","city":"台東区","address":"東京都台東区竜泉1丁目22-6","lat":35.72426409,"lon":139.78956594},{"name":"（有）堀込葬祭","province":"東京都","city":"台東区","address":"東京都台東区千束3丁目16-5","lat":35.72160323,"lon":139.791427},{"name":"（有）小林花環店","province":"東京都","city":"台東区","address":"東京都台東区千束4丁目51-11","lat":35.72585259,"lon":139.79594269},{"name":"誠実屋　伊藤","province":"東京都","city":"台東区","address":"東京都台東区東浅草2丁目15-12","lat":35.72367021,"lon":139.80124868},{"name":"（有）金子商店","province":"東京都","city":"台東区","address":"東京都台東区清川1丁目33-5","lat":35.72612004,"lon":139.80211256},{"name":"（有）根岸商店","province":"東京都","city":"台東区","address":"東京都台東区今戸2丁目23-3","lat":35.72157095,"lon":139.80503222},{"name":"（有）川﨑商店","province":"東京都","city":"台東区","address":"東京都台東区西浅草2丁目3-13","lat":35.71233743,"lon":139.79016105},{"name":"（株）葬儀のうはら","province":"東京都","city":"台東区","address":"東京都台東区蔵前3丁目19-6","lat":35.70564366,"lon":139.79141157},{"name":"鳥越葬儀社神商店","province":"東京都","city":"台東区","address":"東京都台東区鳥越1丁目2-2","lat":35.70213558,"lon":139.78329568},{"name":"（有）東都葬祭福井","province":"東京都","city":"台東区","address":"東京都台東区台東3丁目42-4","lat":35.70558783,"lon":139.7763957},{"name":"永寿総合病院","province":"東京都","city":"台東区","address":"台東区東上野2-23-16","lat":35.70954,"lon":139.77971},{"name":"杉光園","province":"東京都","city":"台東区","address":"台東区台東3-1-6","lat":35.70423,"lon":139.78123},{"name":"ふるさと旅館朝日館","province":"東京都","city":"台東区","address":"台東区日本堤1-24-4","lat":35.72727,"lon":139.8},{"name":"ふるさと清川荘","province":"東京都","city":"台東区","address":"台東区清川2-18-5","lat":35.72767,"lon":139.80148},{"name":"ふるさとホテル三晃","province":"東京都","city":"台東区","address":"台東区清川2-38-5","lat":35.72885,"lon":139.80061},{"name":"ふるさとあさひ館","province":"東京都","city":"台東区","address":"台東区千束4-28-1","lat":35.72276,"lon":139.79457},{"name":"ふるさと日の出館","province":"東京都","city":"台東区","address":"東京都台東区","lat":35.71260667,"lon":139.77999789},{"name":"城北労働・福祉センター","province":"東京都","city":"台東区","address":"台東区日本堤2-2-11","lat":35.72779,"lon":139.79892},{"name":"台東区社会福祉協議会","province":"東京都","city":"台東区","address":"台東区下谷1-2-11","lat":35.71782,"lon":139.78169},{"name":"台東区松が谷福祉会館","province":"東京都","city":"台東区","address":"東京都台東区松が谷1丁目4-12","lat":35.71130412,"lon":139.78542541},{"name":"ふるさと２丁目ハウス","province":"東京都","city":"台東区","address":"台東区日本堤2-37-1","lat":35.7281,"lon":139.79497},{"name":"杉光園","province":"東京都","city":"台東区","address":"台東区台東3-1-6","lat":35.70423,"lon":139.78124},{"name":"千束荘","province":"東京都","city":"台東区","address":"台東区千束3-23-13","lat":35.72249,"lon":139.79349},{"name":"ＳＴＥＰ-ＵＰ-ＨＯＵＳＥ","province":"東京都","city":"台東区","address":"東京都台東区","lat":35.71260667,"lon":139.77999789},{"name":"城北労働・福祉センター","province":"東京都","city":"台東区","address":"台東区日本堤2-2-11","lat":35.7278,"lon":139.79892},{"name":"ふるさと二丁目ハウス","province":"東京都","city":"台東区","address":"台東区日本堤2-37-1","lat":35.7281,"lon":139.79497},{"name":"北（根岸）12入谷区民館根岸分館（書道博物館）","province":"東京都","city":"台東区","address":"東京都台東区根岸2丁目18","lat":35.72500538,"lon":139.7772633},{"name":"北（根岸）13鶯谷駅北","province":"東京都","city":"台東区","address":"東京都台東区根岸3丁目8","lat":35.72297357,"lon":139.7789043},{"name":"北（根岸）14鶯谷駅南","province":"東京都","city":"台東区","address":"東京都台東区根岸3丁目1","lat":35.72100376,"lon":139.7810941},{"name":"北（根岸）11防災広場根岸の里","province":"東京都","city":"台東区","address":"東京都台東区根岸3丁目12","lat":35.72364361,"lon":139.781844},{"name":"北（根岸）10根岸三丁目","province":"東京都","city":"台東区","address":"東京都台東区根岸3丁目2","lat":35.7223437,"lon":139.781994},{"name":"北（根岸）9金杉通り","province":"東京都","city":"台東区","address":"東京都台東区下谷2丁目19","lat":35.72290371,"lon":139.7834139},{"name":"北（根岸）15入谷駅入口","province":"東京都","city":"台東区","address":"東京都台東区下谷2丁目14","lat":35.72151381,"lon":139.7843039},{"name":"北（根岸）8下谷三丁目","province":"東京都","city":"台東区","address":"東京都台東区根岸4丁目17","lat":35.7245936,"lon":139.7854437},{"name":"北（根岸）7金杉区民会館下谷分館入口","province":"東京都","city":"台東区","address":"東京都台東区下谷3丁目8","lat":35.72503354,"lon":139.7864935},{"name":"北（根岸）16大正小学校","province":"東京都","city":"台東区","address":"東京都台東区入谷1丁目23","lat":35.72122383,"lon":139.7869136},{"name":"北（根岸）17生涯学習センター北（金竜小学校前）","province":"東京都","city":"台東区","address":"東京都台東区入谷2丁目6","lat":35.71889405,"lon":139.7893535},{"name":"北（根岸）6竜泉一丁目","province":"東京都","city":"台東区","address":"東京都台東区竜泉1丁目33","lat":35.72469348,"lon":139.7897331},{"name":"北（根岸）18千束二丁目","province":"東京都","city":"台東区","address":"東京都台東区千束2丁目25","lat":35.72135382,"lon":139.7907832},{"name":"北（根岸）5一葉記念館入口","province":"東京都","city":"台東区","address":"東京都台東区竜泉3丁目21","lat":35.72549336,"lon":139.7910329},{"name":"北（根岸）4三ノ輪駅（三ノ輪福祉センタ－前）","province":"東京都","city":"台東区","address":"東京都台東区三ノ輪1丁目27","lat":35.72956298,"lon":139.7922426},{"name":"北（根岸）19千束三丁目","province":"東京都","city":"台東区","address":"東京都台東区千束3丁目13","lat":35.72122384,"lon":139.792413},{"name":"北（根岸）1台東病院","province":"東京都","city":"台東区","address":"東京都台東区千束3丁目20","lat":35.72246068,"lon":139.7930259},{"name":"北（根岸）3三ノ輪二丁目","province":"東京都","city":"台東区","address":"東京都台東区三ノ輪1丁目1","lat":35.7279173,"lon":139.7943424},{"name":"北（根岸）2竜泉三丁目","province":"東京都","city":"台東区","address":"東京都台東区千束4丁目36","lat":35.72484603,"lon":139.7969784},{"name":"北（浅草）16台東病院","province":"東京都","city":"台東区","address":"東京都台東区千束3丁目20","lat":35.72246068,"lon":139.7930259},{"name":"北（浅草）17千束小学校前","province":"東京都","city":"台東区","address":"東京都台東区浅草5丁目11","lat":35.72014398,"lon":139.793783},{"name":"北（浅草）18浅草五丁目","province":"東京都","city":"台東区","address":"東京都台東区浅草4丁目37","lat":35.71967405,"lon":139.7959028},{"name":"北（浅草）21浅草寺北","province":"東京都","city":"台東区","address":"東京都台東区浅草3丁目3","lat":35.71606446,"lon":139.7977029},{"name":"北（浅草）23浅草松屋西","province":"東京都","city":"台東区","address":"東京都台東区花川戸1丁目6","lat":35.71246475,"lon":139.7978431},{"name":"北（浅草）19浅草警察署前","province":"東京都","city":"台東区","address":"東京都台東区浅草5丁目4","lat":35.71919423,"lon":139.7978728},{"name":"北（浅草）11吉原大門","province":"東京都","city":"台東区","address":"東京都台東区東浅草2丁目27","lat":35.72476347,"lon":139.7979322},{"name":"北（浅草）20浅草四丁目","province":"東京都","city":"台東区","address":"東京都台東区浅草4丁目4","lat":35.71788434,"lon":139.7979528},{"name":"北（浅草）1浅草駅","province":"東京都","city":"台東区","address":"東京都台東区花川戸1丁目4","lat":35.71144484,"lon":139.7981931},{"name":"北（浅草）22二天門","province":"東京都","city":"台東区","address":"東京都台東区花川戸2丁目6","lat":35.71452462,"lon":139.798333},{"name":"北（浅草）10東浅草二丁目","province":"東京都","city":"台東区","address":"東京都台東区日本堤1丁目2","lat":35.72570364,"lon":139.7999023},{"name":"北（浅草）2花川戸","province":"東京都","city":"台東区","address":"東京都台東区花川戸1丁目13","lat":35.71361475,"lon":139.8003728},{"name":"北（浅草）9清川一丁目","province":"東京都","city":"台東区","address":"東京都台東区清川1丁目33","lat":35.72621391,"lon":139.8020926},{"name":"北（浅草）3隅田公園","province":"東京都","city":"台東区","address":"東京都台東区浅草7丁目3","lat":35.7164048,"lon":139.8029026},{"name":"北（浅草）4リバ－サイドスポ－ツセンタ－前","province":"東京都","city":"台東区","address":"東京都台東区今戸1丁目6","lat":35.71850489,"lon":139.8039827},{"name":"北（浅草）5今戸一丁目","province":"東京都","city":"台東区","address":"東京都台東区今戸1丁目18","lat":35.72050485,"lon":139.8042427},{"name":"北（浅草）6今戸二丁目","province":"東京都","city":"台東区","address":"東京都台東区今戸2丁目34","lat":35.72239468,"lon":139.8044028},{"name":"北（浅草）8橋場一丁目","province":"東京都","city":"台東区","address":"東京都台東区橋場2丁目5","lat":35.72612251,"lon":139.805806},{"name":"北（浅草）7橋場老人福祉館西（産業研修センター）","province":"東京都","city":"台東区","address":"東京都台東区橋場1丁目10","lat":35.72362577,"lon":139.8059939},{"name":"北（浅草）12三ノ輪二丁目","province":"東京都","city":"台東区","address":"東京都台東区三ノ輪1丁目1","lat":35.72764182,"lon":139.7945378},{"name":"北（浅草）13三ノ輪駅(三ノ輪福祉センター前)","province":"東京都","city":"台東区","address":"東京都台東区三ノ輪1丁目28","lat":35.7298773,"lon":139.7919974},{"name":"北（浅草）14一葉記念館入口","province":"東京都","city":"台東区","address":"東京都台東区竜泉2丁目12","lat":35.72521231,"lon":139.790899},{"name":"北（浅草）15千束三丁目","province":"東京都","city":"台東区","address":"東京都台東区千束3丁目13","lat":35.72124689,"lon":139.7927388},{"name":"東京隅田川ユースホステル","province":"東京都","city":"台東区","address":"台東区柳橋2-21-4","lat":35.69589398,"lon":139.7924579},{"name":"東京上野ユースホステル","province":"東京都","city":"台東区","address":"台東区上野1-13-6東京新潟県人会館4階","lat":35.70318121,"lon":139.7735136},{"name":"都立精神保健福祉センター","province":"東京都","city":"台東区","address":"台東区東上野3-3-13プラチナ第2ビル","lat":35.70650624,"lon":139.7848774},{"name":"＊?社会教育センター","province":"東京都","city":"台東区","address":"台東区東上野6-16-8","lat":35.713648,"lon":139.783675},{"name":"＊?小島社会教育館","province":"東京都","city":"台東区","address":"台東区小島1-5-2","lat":35.704078,"lon":139.781655},{"name":"＊?今戸社会教育館","province":"東京都","city":"台東区","address":"台東区今戸2-26-12","lat":35.721972,"lon":139.807471},{"name":"＊?千束社会教育館","province":"東京都","city":"台東区","address":"台東区浅草4-24-13","lat":35.719384,"lon":139.794022},{"name":"＊?根岸社会教育館","province":"東京都","city":"台東区","address":"台東区根岸5-18-13","lat":35.729237,"lon":139.790461},{"name":"都立精神保健福祉センター","province":"東京都","city":"台東区","address":"東京都台東区下谷1丁目1-3","lat":35.7173785,"lon":139.78121426},{"name":"永寿総合病院","province":"東京都","city":"台東区","address":"台東区東上野2-23-16","lat":35.709749,"lon":139.779629},{"name":"杉光園","province":"東京都","city":"台東区","address":"台東区台東3-1-6","lat":35.704463,"lon":139.781321},{"name":"ふるさと・日の出館","province":"東京都","city":"台東区","address":"東京都台東区","lat":35.71260667,"lon":139.77999789},{"name":"ふるさと・あさひ館","province":"東京都","city":"台東区","address":"台東区千束4-28-1","lat":35.722631,"lon":139.794935},{"name":"ふるさと・千束館","province":"東京都","city":"台東区","address":"台東区千束3-28-6","lat":35.723192,"lon":139.793446},{"name":"千束荘","province":"東京都","city":"台東区","address":"台東区千束3-23-13","lat":35.72255,"lon":139.793716},{"name":"下谷荘","province":"東京都","city":"台東区","address":"台東区下谷2-16-6","lat":35.722312,"lon":139.784289},{"name":"橋場荘","province":"東京都","city":"台東区","address":"台東区橋場1-17-10","lat":35.724401,"lon":139.805535},{"name":"おおぞら荘","province":"東京都","city":"台東区","address":"台東区日本堤1-17-7","lat":35.726186,"lon":139.799107},{"name":"さくら千束ハウス","province":"東京都","city":"台東区","address":"台東区千束4-34-1","lat":35.724728,"lon":139.796334},{"name":"きぼうのいえ","province":"東京都","city":"台東区","address":"東京都台東区","lat":35.71260667,"lon":139.77999789},{"name":"山友荘","province":"東京都","city":"台東区","address":"台東区清川2-38-2","lat":35.728747,"lon":139.800823},{"name":"コスモスハウスおはな","province":"東京都","city":"台東区","address":"東京都台東区","lat":35.71260667,"lon":139.77999789},{"name":"友愛ホーム","province":"東京都","city":"台東区","address":"台東区清川2-16-3","lat":35.727406,"lon":139.800493},{"name":"やすらぎの家","province":"東京都","city":"台東区","address":"東京都台東区","lat":35.71260667,"lon":139.77999789},{"name":"ＳＴＥＰ－ＵＰ－ＨＯＵＳＥ","province":"東京都","city":"台東区","address":"東京都台東区","lat":35.71260667,"lon":139.77999789},{"name":"グループホーム「ふうせん」","province":"東京都","city":"台東区","address":"東京都台東区","lat":35.71260667,"lon":139.77999789},{"name":"ＴＥＯＳ千束三番館","province":"東京都","city":"台東区","address":"東京都台東区","lat":35.71260667,"lon":139.77999789},{"name":"橋場診療所歯科","province":"東京都","city":"台東区","address":"台東区橋場2-2-5","lat":35.726265,"lon":139.807071},{"name":"橋場診療所","province":"東京都","city":"台東区","address":"台東区橋場2-2-5","lat":35.726265,"lon":139.807071},{"name":"浅草寺病院","province":"東京都","city":"台東区","address":"台東区浅草2-30-17","lat":35.715807,"lon":139.796655},{"name":"城北労働・福祉センター","province":"東京都","city":"台東区","address":"東京都台東区日本堤2-2-11","lat":35.727942,"lon":139.798959},{"name":"台東区社会福祉協議会","province":"東京都","city":"台東区","address":"台東区下谷1-2-11","lat":35.717837,"lon":139.781742},{"name":"下谷荘","province":"東京都","city":"台東区","address":"台東区下谷2-16-6","lat":35.72222,"lon":139.78426},{"name":"おおぞら荘","province":"東京都","city":"台東区","address":"台東区日本堤1-17-7","lat":35.72612,"lon":139.79912},{"name":"山友荘","province":"東京都","city":"台東区","address":"台東区清川2-38-2","lat":35.72885,"lon":139.80061},{"name":"友愛ホーム","province":"東京都","city":"台東区","address":"台東区清川2-16-3","lat":35.72757,"lon":139.80042},{"name":"橋場荘","province":"東京都","city":"台東区","address":"台東区橋場1-17-10","lat":35.72424,"lon":139.80568},{"name":"ふるさと・あさひ館","province":"東京都","city":"台東区","address":"台東区千束4-28-1","lat":35.72276,"lon":139.79457},{"name":"ふるさと・千束館","province":"東京都","city":"台東区","address":"台東区千束3-28-6","lat":35.7232,"lon":139.79366},{"name":"千束荘","province":"東京都","city":"台東区","address":"台東区千束3-23-13","lat":35.72248,"lon":139.79349},{"name":"さくら千束ハウス","province":"東京都","city":"台東区","address":"台東区千束4-34-1","lat":35.72474,"lon":139.79611},{"name":"（有）竹内商店","province":"東京都","city":"台東区","address":"東京都台東区谷中6丁目3-9","lat":35.72346374,"lon":139.76886213},{"name":"（株）信興会","province":"東京都","city":"台東区","address":"東京都台東区上野桜木2丁目10-14","lat":35.72155569,"lon":139.77164258},{"name":"（株）そうかみ","province":"東京都","city":"台東区","address":"東京都台東区池之端4丁目18-4","lat":35.71952798,"lon":139.76941496},{"name":"（有）小泉桶甚本店","province":"東京都","city":"台東区","address":"東京都台東区下谷1丁目11-15","lat":35.71947836,"lon":139.78313624},{"name":"（有）鳥居本店","province":"東京都","city":"台東区","address":"東京都台東区下谷1丁目11-4","lat":35.7193256,"lon":139.78283349},{"name":"（有）染木商店","province":"東京都","city":"台東区","address":"東京都台東区竜泉1丁目22-6","lat":35.72426409,"lon":139.78956594},{"name":"（有）堀込葬祭","province":"東京都","city":"台東区","address":"東京都台東区千束3丁目16-5","lat":35.72160323,"lon":139.791427},{"name":"（有）小林花環店","province":"東京都","city":"台東区","address":"東京都台東区千束4丁目51-11","lat":35.72585259,"lon":139.79594269},{"name":"誠実屋　伊藤","province":"東京都","city":"台東区","address":"東京都台東区東浅草2丁目15-12","lat":35.72367021,"lon":139.80124868},{"name":"（有）金子商店","province":"東京都","city":"台東区","address":"東京都台東区清川1丁目33-5","lat":35.72612004,"lon":139.80211256},{"name":"（有）根岸商店","province":"東京都","city":"台東区","address":"東京都台東区今戸2丁目23-3","lat":35.72157095,"lon":139.80503222},{"name":"（有）川﨑商店","province":"東京都","city":"台東区","address":"東京都台東区西浅草2丁目3-13","lat":35.71233743,"lon":139.79016105},{"name":"（株）葬儀のうはら","province":"東京都","city":"台東区","address":"東京都台東区蔵前3丁目19-6","lat":35.70564366,"lon":139.79141157},{"name":"鳥越葬儀社神商店","province":"東京都","city":"台東区","address":"東京都台東区鳥越1丁目2-2","lat":35.70213558,"lon":139.78329568},{"name":"（有）東都葬祭福井","province":"東京都","city":"台東区","address":"東京都台東区台東3丁目42-4","lat":35.70558783,"lon":139.7763957},{"name":"永寿総合病院","province":"東京都","city":"台東区","address":"台東区東上野2-23-16","lat":35.70954,"lon":139.77971},{"name":"杉光園","province":"東京都","city":"台東区","address":"台東区台東3-1-6","lat":35.70423,"lon":139.78123},{"name":"ふるさと旅館朝日館","province":"東京都","city":"台東区","address":"台東区日本堤1-24-4","lat":35.72727,"lon":139.8},{"name":"ふるさと清川荘","province":"東京都","city":"台東区","address":"台東区清川2-18-5","lat":35.72767,"lon":139.80148},{"name":"ふるさとホテル三晃","province":"東京都","city":"台東区","address":"台東区清川2-38-5","lat":35.72885,"lon":139.80061},{"name":"ふるさとあさひ館","province":"東京都","city":"台東区","address":"台東区千束4-28-1","lat":35.72276,"lon":139.79457},{"name":"ふるさと日の出館","province":"東京都","city":"台東区","address":"東京都台東区","lat":35.71260667,"lon":139.77999789},{"name":"城北労働・福祉センター","province":"東京都","city":"台東区","address":"台東区日本堤2-2-11","lat":35.72779,"lon":139.79892},{"name":"台東区社会福祉協議会","province":"東京都","city":"台東区","address":"台東区下谷1-2-11","lat":35.71782,"lon":139.78169},{"name":"台東区松が谷福祉会館","province":"東京都","city":"台東区","address":"東京都台東区松が谷1丁目4-12","lat":35.71130412,"lon":139.78542541},{"name":"ふるさと２丁目ハウス","province":"東京都","city":"台東区","address":"台東区日本堤2-37-1","lat":35.7281,"lon":139.79497},{"name":"杉光園","province":"東京都","city":"台東区","address":"台東区台東3-1-6","lat":35.70423,"lon":139.78124},{"name":"千束荘","province":"東京都","city":"台東区","address":"台東区千束3-23-13","lat":35.72249,"lon":139.79349},{"name":"ＳＴＥＰ-ＵＰ-ＨＯＵＳＥ","province":"東京都","city":"台東区","address":"東京都台東区","lat":35.71260667,"lon":139.77999789},{"name":"城北労働・福祉センター","province":"東京都","city":"台東区","address":"台東区日本堤2-2-11","lat":35.7278,"lon":139.79892},{"name":"ふるさと二丁目ハウス","province":"東京都","city":"台東区","address":"台東区日本堤2-37-1","lat":35.7281,"lon":139.79497},{"name":"北（根岸）12入谷区民館根岸分館（書道博物館）","province":"東京都","city":"台東区","address":"東京都台東区根岸2丁目18","lat":35.72500538,"lon":139.7772633},{"name":"北（根岸）13鶯谷駅北","province":"東京都","city":"台東区","address":"東京都台東区根岸3丁目8","lat":35.72297357,"lon":139.7789043},{"name":"北（根岸）14鶯谷駅南","province":"東京都","city":"台東区","address":"東京都台東区根岸3丁目1","lat":35.72100376,"lon":139.7810941},{"name":"北（根岸）11防災広場根岸の里","province":"東京都","city":"台東区","address":"東京都台東区根岸3丁目12","lat":35.72364361,"lon":139.781844},{"name":"北（根岸）10根岸三丁目","province":"東京都","city":"台東区","address":"東京都台東区根岸3丁目2","lat":35.7223437,"lon":139.781994},{"name":"北（根岸）9金杉通り","province":"東京都","city":"台東区","address":"東京都台東区下谷2丁目19","lat":35.72290371,"lon":139.7834139},{"name":"北（根岸）15入谷駅入口","province":"東京都","city":"台東区","address":"東京都台東区下谷2丁目14","lat":35.72151381,"lon":139.7843039},{"name":"北（根岸）8下谷三丁目","province":"東京都","city":"台東区","address":"東京都台東区根岸4丁目17","lat":35.7245936,"lon":139.7854437},{"name":"北（根岸）7金杉区民会館下谷分館入口","province":"東京都","city":"台東区","address":"東京都台東区下谷3丁目8","lat":35.72503354,"lon":139.7864935},{"name":"北（根岸）16大正小学校","province":"東京都","city":"台東区","address":"東京都台東区入谷1丁目23","lat":35.72122383,"lon":139.7869136},{"name":"北（根岸）17生涯学習センター北（金竜小学校前）","province":"東京都","city":"台東区","address":"東京都台東区入谷2丁目6","lat":35.71889405,"lon":139.7893535},{"name":"北（根岸）6竜泉一丁目","province":"東京都","city":"台東区","address":"東京都台東区竜泉1丁目33","lat":35.72469348,"lon":139.7897331},{"name":"北（根岸）18千束二丁目","province":"東京都","city":"台東区","address":"東京都台東区千束2丁目25","lat":35.72135382,"lon":139.7907832},{"name":"北（根岸）5一葉記念館入口","province":"東京都","city":"台東区","address":"東京都台東区竜泉3丁目21","lat":35.72549336,"lon":139.7910329},{"name":"北（根岸）4三ノ輪駅（三ノ輪福祉センタ－前）","province":"東京都","city":"台東区","address":"東京都台東区三ノ輪1丁目27","lat":35.72956298,"lon":139.7922426},{"name":"北（根岸）19千束三丁目","province":"東京都","city":"台東区","address":"東京都台東区千束3丁目13","lat":35.72122384,"lon":139.792413},{"name":"北（根岸）1台東病院","province":"東京都","city":"台東区","address":"東京都台東区千束3丁目20","lat":35.72246068,"lon":139.7930259},{"name":"北（根岸）3三ノ輪二丁目","province":"東京都","city":"台東区","address":"東京都台東区三ノ輪1丁目1","lat":35.7279173,"lon":139.7943424},{"name":"北（根岸）2竜泉三丁目","province":"東京都","city":"台東区","address":"東京都台東区千束4丁目36","lat":35.72484603,"lon":139.7969784},{"name":"北（浅草）16台東病院","province":"東京都","city":"台東区","address":"東京都台東区千束3丁目20","lat":35.72246068,"lon":139.7930259},{"name":"北（浅草）17千束小学校前","province":"東京都","city":"台東区","address":"東京都台東区浅草5丁目11","lat":35.72014398,"lon":139.793783},{"name":"北（浅草）18浅草五丁目","province":"東京都","city":"台東区","address":"東京都台東区浅草4丁目37","lat":35.71967405,"lon":139.7959028},{"name":"北（浅草）21浅草寺北","province":"東京都","city":"台東区","address":"東京都台東区浅草3丁目3","lat":35.71606446,"lon":139.7977029},{"name":"北（浅草）23浅草松屋西","province":"東京都","city":"台東区","address":"東京都台東区花川戸1丁目6","lat":35.71246475,"lon":139.7978431},{"name":"北（浅草）19浅草警察署前","province":"東京都","city":"台東区","address":"東京都台東区浅草5丁目4","lat":35.71919423,"lon":139.7978728},{"name":"北（浅草）11吉原大門","province":"東京都","city":"台東区","address":"東京都台東区東浅草2丁目27","lat":35.72476347,"lon":139.7979322},{"name":"北（浅草）20浅草四丁目","province":"東京都","city":"台東区","address":"東京都台東区浅草4丁目4","lat":35.71788434,"lon":139.7979528},{"name":"北（浅草）1浅草駅","province":"東京都","city":"台東区","address":"東京都台東区花川戸1丁目4","lat":35.71144484,"lon":139.7981931},{"name":"北（浅草）22二天門","province":"東京都","city":"台東区","address":"東京都台東区花川戸2丁目6","lat":35.71452462,"lon":139.798333},{"name":"北（浅草）10東浅草二丁目","province":"東京都","city":"台東区","address":"東京都台東区日本堤1丁目2","lat":35.72570364,"lon":139.7999023},{"name":"北（浅草）2花川戸","province":"東京都","city":"台東区","address":"東京都台東区花川戸1丁目13","lat":35.71361475,"lon":139.8003728},{"name":"北（浅草）9清川一丁目","province":"東京都","city":"台東区","address":"東京都台東区清川1丁目33","lat":35.72621391,"lon":139.8020926},{"name":"北（浅草）3隅田公園","province":"東京都","city":"台東区","address":"東京都台東区浅草7丁目3","lat":35.7164048,"lon":139.8029026},{"name":"北（浅草）4リバ－サイドスポ－ツセンタ－前","province":"東京都","city":"台東区","address":"東京都台東区今戸1丁目6","lat":35.71850489,"lon":139.8039827},{"name":"北（浅草）5今戸一丁目","province":"東京都","city":"台東区","address":"東京都台東区今戸1丁目18","lat":35.72050485,"lon":139.8042427},{"name":"北（浅草）6今戸二丁目","province":"東京都","city":"台東区","address":"東京都台東区今戸2丁目34","lat":35.72239468,"lon":139.8044028},{"name":"北（浅草）8橋場一丁目","province":"東京都","city":"台東区","address":"東京都台東区橋場2丁目5","lat":35.72612251,"lon":139.805806},{"name":"北（浅草）7橋場老人福祉館西（産業研修センター）","province":"東京都","city":"台東区","address":"東京都台東区橋場1丁目10","lat":35.72362577,"lon":139.8059939},{"name":"北（浅草）12三ノ輪二丁目","province":"東京都","city":"台東区","address":"東京都台東区三ノ輪1丁目1","lat":35.72764182,"lon":139.7945378},{"name":"北（浅草）13三ノ輪駅(三ノ輪福祉センター前)","province":"東京都","city":"台東区","address":"東京都台東区三ノ輪1丁目28","lat":35.7298773,"lon":139.7919974},{"name":"北（浅草）14一葉記念館入口","province":"東京都","city":"台東区","address":"東京都台東区竜泉2丁目12","lat":35.72521231,"lon":139.790899},{"name":"北（浅草）15千束三丁目","province":"東京都","city":"台東区","address":"東京都台東区千束3丁目13","lat":35.72124689,"lon":139.7927388},{"name":"東京隅田川ユースホステル","province":"東京都","city":"台東区","address":"台東区柳橋2-21-4","lat":35.69589398,"lon":139.7924579},{"name":"東京上野ユースホステル","province":"東京都","city":"台東区","address":"台東区上野1-13-6東京新潟県人会館4階","lat":35.70318121,"lon":139.7735136},{"name":"都立精神保健福祉センター","province":"東京都","city":"台東区","address":"台東区東上野3-3-13プラチナ第2ビル","lat":35.70650624,"lon":139.7848774},{"name":"＊?社会教育センター","province":"東京都","city":"台東区","address":"台東区東上野6-16-8","lat":35.713648,"lon":139.783675},{"name":"＊?小島社会教育館","province":"東京都","city":"台東区","address":"台東区小島1-5-2","lat":35.704078,"lon":139.781655},{"name":"＊?今戸社会教育館","province":"東京都","city":"台東区","address":"台東区今戸2-26-12","lat":35.721972,"lon":139.807471},{"name":"＊?千束社会教育館","province":"東京都","city":"台東区","address":"台東区浅草4-24-13","lat":35.719384,"lon":139.794022},{"name":"＊?根岸社会教育館","province":"東京都","city":"台東区","address":"台東区根岸5-18-13","lat":35.729237,"lon":139.790461},{"name":"都立精神保健福祉センター","province":"東京都","city":"台東区","address":"東京都台東区下谷1丁目1-3","lat":35.7173785,"lon":139.78121426},{"name":"永寿総合病院","province":"東京都","city":"台東区","address":"台東区東上野2-23-16","lat":35.709749,"lon":139.779629},{"name":"杉光園","province":"東京都","city":"台東区","address":"台東区台東3-1-6","lat":35.704463,"lon":139.781321},{"name":"ふるさと・日の出館","province":"東京都","city":"台東区","address":"東京都台東区","lat":35.71260667,"lon":139.77999789},{"name":"ふるさと・あさひ館","province":"東京都","city":"台東区","address":"台東区千束4-28-1","lat":35.722631,"lon":139.794935},{"name":"ふるさと・千束館","province":"東京都","city":"台東区","address":"台東区千束3-28-6","lat":35.723192,"lon":139.793446},{"name":"千束荘","province":"東京都","city":"台東区","address":"台東区千束3-23-13","lat":35.72255,"lon":139.793716},{"name":"下谷荘","province":"東京都","city":"台東区","address":"台東区下谷2-16-6","lat":35.722312,"lon":139.784289},{"name":"橋場荘","province":"東京都","city":"台東区","address":"台東区橋場1-17-10","lat":35.724401,"lon":139.805535},{"name":"おおぞら荘","province":"東京都","city":"台東区","address":"台東区日本堤1-17-7","lat":35.726186,"lon":139.799107},{"name":"さくら千束ハウス","province":"東京都","city":"台東区","address":"台東区千束4-34-1","lat":35.724728,"lon":139.796334},{"name":"きぼうのいえ","province":"東京都","city":"台東区","address":"東京都台東区","lat":35.71260667,"lon":139.77999789},{"name":"山友荘","province":"東京都","city":"台東区","address":"台東区清川2-38-2","lat":35.728747,"lon":139.800823},{"name":"コスモスハウスおはな","province":"東京都","city":"台東区","address":"東京都台東区","lat":35.71260667,"lon":139.77999789},{"name":"友愛ホーム","province":"東京都","city":"台東区","address":"台東区清川2-16-3","lat":35.727406,"lon":139.800493},{"name":"やすらぎの家","province":"東京都","city":"台東区","address":"東京都台東区","lat":35.71260667,"lon":139.77999789},{"name":"ＳＴＥＰ－ＵＰ－ＨＯＵＳＥ","province":"東京都","city":"台東区","address":"東京都台東区","lat":35.71260667,"lon":139.77999789},{"name":"グループホーム「ふうせん」","province":"東京都","city":"台東区","address":"東京都台東区","lat":35.71260667,"lon":139.77999789},{"name":"ＴＥＯＳ千束三番館","province":"東京都","city":"台東区","address":"東京都台東区","lat":35.71260667,"lon":139.77999789},{"name":"橋場診療所歯科","province":"東京都","city":"台東区","address":"台東区橋場2-2-5","lat":35.726265,"lon":139.807071},{"name":"橋場診療所","province":"東京都","city":"台東区","address":"台東区橋場2-2-5","lat":35.726265,"lon":139.807071},{"name":"浅草寺病院","province":"東京都","city":"台東区","address":"台東区浅草2-30-17","lat":35.715807,"lon":139.796655},{"name":"城北労働・福祉センター","province":"東京都","city":"台東区","address":"東京都台東区日本堤2-2-11","lat":35.727942,"lon":139.798959},{"name":"台東区社会福祉協議会","province":"東京都","city":"台東区","address":"台東区下谷1-2-11","lat":35.717837,"lon":139.781742},{"name":"下谷荘","province":"東京都","city":"台東区","address":"台東区下谷2-16-6","lat":35.72222,"lon":139.78426},{"name":"おおぞら荘","province":"東京都","city":"台東区","address":"台東区日本堤1-17-7","lat":35.72612,"lon":139.79912},{"name":"山友荘","province":"東京都","city":"台東区","address":"台東区清川2-38-2","lat":35.72885,"lon":139.80061},{"name":"友愛ホーム","province":"東京都","city":"台東区","address":"台東区清川2-16-3","lat":35.72757,"lon":139.80042},{"name":"橋場荘","province":"東京都","city":"台東区","address":"台東区橋場1-17-10","lat":35.72424,"lon":139.80568},{"name":"ふるさと・あさひ館","province":"東京都","city":"台東区","address":"台東区千束4-28-1","lat":35.72276,"lon":139.79457},{"name":"ふるさと・千束館","province":"東京都","city":"台東区","address":"台東区千束3-28-6","lat":35.7232,"lon":139.79366},{"name":"千束荘","province":"東京都","city":"台東区","address":"台東区千束3-23-13","lat":35.72248,"lon":139.79349},{"name":"さくら千束ハウス","province":"東京都","city":"台東区","address":"台東区千束4-34-1","lat":35.72474,"lon":139.79611},{"name":"（有）竹内商店","province":"東京都","city":"台東区","address":"東京都台東区谷中6丁目3-9","lat":35.72346374,"lon":139.76886213},{"name":"（株）信興会","province":"東京都","city":"台東区","address":"東京都台東区上野桜木2丁目10-14","lat":35.72155569,"lon":139.77164258},{"name":"（株）そうかみ","province":"東京都","city":"台東区","address":"東京都台東区池之端4丁目18-4","lat":35.71952798,"lon":139.76941496},{"name":"（有）小泉桶甚本店","province":"東京都","city":"台東区","address":"東京都台東区下谷1丁目11-15","lat":35.71947836,"lon":139.78313624},{"name":"（有）鳥居本店","province":"東京都","city":"台東区","address":"東京都台東区下谷1丁目11-4","lat":35.7193256,"lon":139.78283349},{"name":"（有）染木商店","province":"東京都","city":"台東区","address":"東京都台東区竜泉1丁目22-6","lat":35.72426409,"lon":139.78956594},{"name":"（有）堀込葬祭","province":"東京都","city":"台東区","address":"東京都台東区千束3丁目16-5","lat":35.72160323,"lon":139.791427},{"name":"（有）小林花環店","province":"東京都","city":"台東区","address":"東京都台東区千束4丁目51-11","lat":35.72585259,"lon":139.79594269},{"name":"誠実屋　伊藤","province":"東京都","city":"台東区","address":"東京都台東区東浅草2丁目15-12","lat":35.72367021,"lon":139.80124868},{"name":"（有）金子商店","province":"東京都","city":"台東区","address":"東京都台東区清川1丁目33-5","lat":35.72612004,"lon":139.80211256},{"name":"（有）根岸商店","province":"東京都","city":"台東区","address":"東京都台東区今戸2丁目23-3","lat":35.72157095,"lon":139.80503222},{"name":"（有）川﨑商店","province":"東京都","city":"台東区","address":"東京都台東区西浅草2丁目3-13","lat":35.71233743,"lon":139.79016105},{"name":"（株）葬儀のうはら","province":"東京都","city":"台東区","address":"東京都台東区蔵前3丁目19-6","lat":35.70564366,"lon":139.79141157},{"name":"鳥越葬儀社神商店","province":"東京都","city":"台東区","address":"東京都台東区鳥越1丁目2-2","lat":35.70213558,"lon":139.78329568},{"name":"（有）東都葬祭福井","province":"東京都","city":"台東区","address":"東京都台東区台東3丁目42-4","lat":35.70558783,"lon":139.7763957},{"name":"永寿総合病院","province":"東京都","city":"台東区","address":"台東区東上野2-23-16","lat":35.70954,"lon":139.77971},{"name":"杉光園","province":"東京都","city":"台東区","address":"台東区台東3-1-6","lat":35.70423,"lon":139.78123},{"name":"ふるさと旅館朝日館","province":"東京都","city":"台東区","address":"台東区日本堤1-24-4","lat":35.72727,"lon":139.8},{"name":"ふるさと清川荘","province":"東京都","city":"台東区","address":"台東区清川2-18-5","lat":35.72767,"lon":139.80148},{"name":"ふるさとホテル三晃","province":"東京都","city":"台東区","address":"台東区清川2-38-5","lat":35.72885,"lon":139.80061},{"name":"ふるさとあさひ館","province":"東京都","city":"台東区","address":"台東区千束4-28-1","lat":35.72276,"lon":139.79457},{"name":"ふるさと日の出館","province":"東京都","city":"台東区","address":"東京都台東区","lat":35.71260667,"lon":139.77999789},{"name":"城北労働・福祉センター","province":"東京都","city":"台東区","address":"台東区日本堤2-2-11","lat":35.72779,"lon":139.79892},{"name":"台東区社会福祉協議会","province":"東京都","city":"台東区","address":"台東区下谷1-2-11","lat":35.71782,"lon":139.78169},{"name":"台東区松が谷福祉会館","province":"東京都","city":"台東区","address":"東京都台東区松が谷1丁目4-12","lat":35.71130412,"lon":139.78542541},{"name":"ふるさと２丁目ハウス","province":"東京都","city":"台東区","address":"台東区日本堤2-37-1","lat":35.7281,"lon":139.79497},{"name":"杉光園","province":"東京都","city":"台東区","address":"台東区台東3-1-6","lat":35.70423,"lon":139.78124},{"name":"千束荘","province":"東京都","city":"台東区","address":"台東区千束3-23-13","lat":35.72249,"lon":139.79349},{"name":"ＳＴＥＰ-ＵＰ-ＨＯＵＳＥ","province":"東京都","city":"台東区","address":"東京都台東区","lat":35.71260667,"lon":139.77999789},{"name":"城北労働・福祉センター","province":"東京都","city":"台東区","address":"台東区日本堤2-2-11","lat":35.7278,"lon":139.79892},{"name":"ふるさと二丁目ハウス","province":"東京都","city":"台東区","address":"台東区日本堤2-37-1","lat":35.7281,"lon":139.79497},{"name":"北（根岸）12入谷区民館根岸分館（書道博物館）","province":"東京都","city":"台東区","address":"東京都台東区根岸2丁目18","lat":35.72500538,"lon":139.7772633},{"name":"北（根岸）13鶯谷駅北","province":"東京都","city":"台東区","address":"東京都台東区根岸3丁目8","lat":35.72297357,"lon":139.7789043},{"name":"北（根岸）14鶯谷駅南","province":"東京都","city":"台東区","address":"東京都台東区根岸3丁目1","lat":35.72100376,"lon":139.7810941},{"name":"北（根岸）11防災広場根岸の里","province":"東京都","city":"台東区","address":"東京都台東区根岸3丁目12","lat":35.72364361,"lon":139.781844},{"name":"北（根岸）10根岸三丁目","province":"東京都","city":"台東区","address":"東京都台東区根岸3丁目2","lat":35.7223437,"lon":139.781994},{"name":"北（根岸）9金杉通り","province":"東京都","city":"台東区","address":"東京都台東区下谷2丁目19","lat":35.72290371,"lon":139.7834139},{"name":"北（根岸）15入谷駅入口","province":"東京都","city":"台東区","address":"東京都台東区下谷2丁目14","lat":35.72151381,"lon":139.7843039},{"name":"北（根岸）8下谷三丁目","province":"東京都","city":"台東区","address":"東京都台東区根岸4丁目17","lat":35.7245936,"lon":139.7854437},{"name":"北（根岸）7金杉区民会館下谷分館入口","province":"東京都","city":"台東区","address":"東京都台東区下谷3丁目8","lat":35.72503354,"lon":139.7864935},{"name":"北（根岸）16大正小学校","province":"東京都","city":"台東区","address":"東京都台東区入谷1丁目23","lat":35.72122383,"lon":139.7869136},{"name":"北（根岸）17生涯学習センター北（金竜小学校前）","province":"東京都","city":"台東区","address":"東京都台東区入谷2丁目6","lat":35.71889405,"lon":139.7893535},{"name":"北（根岸）6竜泉一丁目","province":"東京都","city":"台東区","address":"東京都台東区竜泉1丁目33","lat":35.72469348,"lon":139.7897331},{"name":"北（根岸）18千束二丁目","province":"東京都","city":"台東区","address":"東京都台東区千束2丁目25","lat":35.72135382,"lon":139.7907832},{"name":"北（根岸）5一葉記念館入口","province":"東京都","city":"台東区","address":"東京都台東区竜泉3丁目21","lat":35.72549336,"lon":139.7910329},{"name":"北（根岸）4三ノ輪駅（三ノ輪福祉センタ－前）","province":"東京都","city":"台東区","address":"東京都台東区三ノ輪1丁目27","lat":35.72956298,"lon":139.7922426},{"name":"北（根岸）19千束三丁目","province":"東京都","city":"台東区","address":"東京都台東区千束3丁目13","lat":35.72122384,"lon":139.792413},{"name":"北（根岸）1台東病院","province":"東京都","city":"台東区","address":"東京都台東区千束3丁目20","lat":35.72246068,"lon":139.7930259},{"name":"北（根岸）3三ノ輪二丁目","province":"東京都","city":"台東区","address":"東京都台東区三ノ輪1丁目1","lat":35.7279173,"lon":139.7943424},{"name":"北（根岸）2竜泉三丁目","province":"東京都","city":"台東区","address":"東京都台東区千束4丁目36","lat":35.72484603,"lon":139.7969784},{"name":"北（浅草）16台東病院","province":"東京都","city":"台東区","address":"東京都台東区千束3丁目20","lat":35.72246068,"lon":139.7930259},{"name":"北（浅草）17千束小学校前","province":"東京都","city":"台東区","address":"東京都台東区浅草5丁目11","lat":35.72014398,"lon":139.793783},{"name":"北（浅草）18浅草五丁目","province":"東京都","city":"台東区","address":"東京都台東区浅草4丁目37","lat":35.71967405,"lon":139.7959028},{"name":"北（浅草）21浅草寺北","province":"東京都","city":"台東区","address":"東京都台東区浅草3丁目3","lat":35.71606446,"lon":139.7977029},{"name":"北（浅草）23浅草松屋西","province":"東京都","city":"台東区","address":"東京都台東区花川戸1丁目6","lat":35.71246475,"lon":139.7978431},{"name":"北（浅草）19浅草警察署前","province":"東京都","city":"台東区","address":"東京都台東区浅草5丁目4","lat":35.71919423,"lon":139.7978728},{"name":"北（浅草）11吉原大門","province":"東京都","city":"台東区","address":"東京都台東区東浅草2丁目27","lat":35.72476347,"lon":139.7979322},{"name":"北（浅草）20浅草四丁目","province":"東京都","city":"台東区","address":"東京都台東区浅草4丁目4","lat":35.71788434,"lon":139.7979528},{"name":"北（浅草）1浅草駅","province":"東京都","city":"台東区","address":"東京都台東区花川戸1丁目4","lat":35.71144484,"lon":139.7981931},{"name":"北（浅草）22二天門","province":"東京都","city":"台東区","address":"東京都台東区花川戸2丁目6","lat":35.71452462,"lon":139.798333},{"name":"北（浅草）10東浅草二丁目","province":"東京都","city":"台東区","address":"東京都台東区日本堤1丁目2","lat":35.72570364,"lon":139.7999023},{"name":"北（浅草）2花川戸","province":"東京都","city":"台東区","address":"東京都台東区花川戸1丁目13","lat":35.71361475,"lon":139.8003728},{"name":"北（浅草）9清川一丁目","province":"東京都","city":"台東区","address":"東京都台東区清川1丁目33","lat":35.72621391,"lon":139.8020926},{"name":"北（浅草）3隅田公園","province":"東京都","city":"台東区","address":"東京都台東区浅草7丁目3","lat":35.7164048,"lon":139.8029026},{"name":"北（浅草）4リバ－サイドスポ－ツセンタ－前","province":"東京都","city":"台東区","address":"東京都台東区今戸1丁目6","lat":35.71850489,"lon":139.8039827},{"name":"北（浅草）5今戸一丁目","province":"東京都","city":"台東区","address":"東京都台東区今戸1丁目18","lat":35.72050485,"lon":139.8042427},{"name":"北（浅草）6今戸二丁目","province":"東京都","city":"台東区","address":"東京都台東区今戸2丁目34","lat":35.72239468,"lon":139.8044028},{"name":"北（浅草）8橋場一丁目","province":"東京都","city":"台東区","address":"東京都台東区橋場2丁目5","lat":35.72612251,"lon":139.805806},{"name":"北（浅草）7橋場老人福祉館西（産業研修センター）","province":"東京都","city":"台東区","address":"東京都台東区橋場1丁目10","lat":35.72362577,"lon":139.8059939},{"name":"北（浅草）12三ノ輪二丁目","province":"東京都","city":"台東区","address":"東京都台東区三ノ輪1丁目1","lat":35.72764182,"lon":139.7945378},{"name":"北（浅草）13三ノ輪駅(三ノ輪福祉センター前)","province":"東京都","city":"台東区","address":"東京都台東区三ノ輪1丁目28","lat":35.7298773,"lon":139.7919974},{"name":"北（浅草）14一葉記念館入口","province":"東京都","city":"台東区","address":"東京都台東区竜泉2丁目12","lat":35.72521231,"lon":139.790899},{"name":"北（浅草）15千束三丁目","province":"東京都","city":"台東区","address":"東京都台東区千束3丁目13","lat":35.72124689,"lon":139.7927388},{"name":"東京隅田川ユースホステル","province":"東京都","city":"台東区","address":"台東区柳橋2-21-4","lat":35.69589398,"lon":139.7924579},{"name":"東京上野ユースホステル","province":"東京都","city":"台東区","address":"台東区上野1-13-6東京新潟県人会館4階","lat":35.70318121,"lon":139.7735136},{"name":"＊?社会教育センター","province":"東京都","city":"台東区","address":"台東区東上野6-16-8","lat":35.713648,"lon":139.783675},{"name":"＊?小島社会教育館","province":"東京都","city":"台東区","address":"台東区小島1-5-2","lat":35.704078,"lon":139.781655},{"name":"＊?今戸社会教育館","province":"東京都","city":"台東区","address":"台東区今戸2-26-12","lat":35.721972,"lon":139.807471},{"name":"＊?千束社会教育館","province":"東京都","city":"台東区","address":"台東区浅草4-24-13","lat":35.719384,"lon":139.794022},{"name":"＊?根岸社会教育館","province":"東京都","city":"台東区","address":"台東区根岸5-18-13","lat":35.729237,"lon":139.790461},{"name":"永寿総合病院","province":"東京都","city":"台東区","address":"台東区東上野2-23-16","lat":35.709749,"lon":139.779629},{"name":"杉光園","province":"東京都","city":"台東区","address":"台東区台東3-1-6","lat":35.704463,"lon":139.781321},{"name":"ふるさと・日の出館","province":"東京都","city":"台東区","address":"東京都台東区","lat":35.71260667,"lon":139.77999789},{"name":"ふるさと・あさひ館","province":"東京都","city":"台東区","address":"台東区千束4-28-1","lat":35.722631,"lon":139.794935},{"name":"ふるさと・千束館","province":"東京都","city":"台東区","address":"台東区千束3-28-6","lat":35.723192,"lon":139.793446},{"name":"千束荘","province":"東京都","city":"台東区","address":"台東区千束3-23-13","lat":35.72255,"lon":139.793716},{"name":"下谷荘","province":"東京都","city":"台東区","address":"台東区下谷2-16-6","lat":35.722312,"lon":139.784289},{"name":"橋場荘","province":"東京都","city":"台東区","address":"台東区橋場1-17-10","lat":35.724401,"lon":139.805535},{"name":"おおぞら荘","province":"東京都","city":"台東区","address":"台東区日本堤1-17-7","lat":35.726186,"lon":139.799107},{"name":"さくら千束ハウス","province":"東京都","city":"台東区","address":"台東区千束4-34-1","lat":35.724728,"lon":139.796334},{"name":"きぼうのいえ","province":"東京都","city":"台東区","address":"東京都台東区","lat":35.71260667,"lon":139.77999789},{"name":"山友荘","province":"東京都","city":"台東区","address":"台東区清川2-38-2","lat":35.728747,"lon":139.800823},{"name":"コスモスハウスおはな","province":"東京都","city":"台東区","address":"東京都台東区","lat":35.71260667,"lon":139.77999789},{"name":"友愛ホーム","province":"東京都","city":"台東区","address":"台東区清川2-16-3","lat":35.727406,"lon":139.800493},{"name":"やすらぎの家","province":"東京都","city":"台東区","address":"東京都台東区","lat":35.71260667,"lon":139.77999789},{"name":"ＳＴＥＰ－ＵＰ－ＨＯＵＳＥ","province":"東京都","city":"台東区","address":"東京都台東区","lat":35.71260667,"lon":139.77999789},{"name":"グループホーム「ふうせん」","province":"東京都","city":"台東区","address":"東京都台東区","lat":35.71260667,"lon":139.77999789},{"name":"ＴＥＯＳ千束三番館","province":"東京都","city":"台東区","address":"東京都台東区","lat":35.71260667,"lon":139.77999789},{"name":"橋場診療所歯科","province":"東京都","city":"台東区","address":"台東区橋場2-2-5","lat":35.726265,"lon":139.807071},{"name":"橋場診療所","province":"東京都","city":"台東区","address":"台東区橋場2-2-5","lat":35.726265,"lon":139.807071},{"name":"浅草寺病院","province":"東京都","city":"台東区","address":"台東区浅草2-30-17","lat":35.715807,"lon":139.796655},{"name":"城北労働・福祉センター","province":"東京都","city":"台東区","address":"東京都台東区日本堤2-2-11","lat":35.727942,"lon":139.798959},{"name":"台東区社会福祉協議会","province":"東京都","city":"台東区","address":"台東区下谷1-2-11","lat":35.717837,"lon":139.781742},{"name":"下谷荘","province":"東京都","city":"台東区","address":"台東区下谷2-16-6","lat":35.72222,"lon":139.78426},{"name":"おおぞら荘","province":"東京都","city":"台東区","address":"台東区日本堤1-17-7","lat":35.72612,"lon":139.79912},{"name":"山友荘","province":"東京都","city":"台東区","address":"台東区清川2-38-2","lat":35.72885,"lon":139.80061},{"name":"友愛ホーム","province":"東京都","city":"台東区","address":"台東区清川2-16-3","lat":35.72757,"lon":139.80042},{"name":"橋場荘","province":"東京都","city":"台東区","address":"台東区橋場1-17-10","lat":35.72424,"lon":139.80568},{"name":"ふるさと・あさひ館","province":"東京都","city":"台東区","address":"台東区千束4-28-1","lat":35.72276,"lon":139.79457},{"name":"ふるさと・千束館","province":"東京都","city":"台東区","address":"台東区千束3-28-6","lat":35.7232,"lon":139.79366},{"name":"千束荘","province":"東京都","city":"台東区","address":"台東区千束3-23-13","lat":35.72248,"lon":139.79349},{"name":"さくら千束ハウス","province":"東京都","city":"台東区","address":"台東区千束4-34-1","lat":35.72474,"lon":139.79611},{"name":"永寿総合病院","province":"東京都","city":"台東区","address":"台東区東上野2-23-16","lat":35.70954,"lon":139.77971},{"name":"杉光園","province":"東京都","city":"台東区","address":"台東区台東3-1-6","lat":35.70423,"lon":139.78123},{"name":"ふるさと旅館朝日館","province":"東京都","city":"台東区","address":"台東区日本堤1-24-4","lat":35.72727,"lon":139.8},{"name":"ふるさと清川荘","province":"東京都","city":"台東区","address":"台東区清川2-18-5","lat":35.72767,"lon":139.80148},{"name":"ふるさとホテル三晃","province":"東京都","city":"台東区","address":"台東区清川2-38-5","lat":35.72885,"lon":139.80061},{"name":"ふるさとあさひ館","province":"東京都","city":"台東区","address":"台東区千束4-28-1","lat":35.72276,"lon":139.79457},{"name":"ふるさと日の出館","province":"東京都","city":"台東区","address":"東京都台東区","lat":35.71260667,"lon":139.77999789},{"name":"城北労働・福祉センター","province":"東京都","city":"台東区","address":"台東区日本堤2-2-11","lat":35.72779,"lon":139.79892},{"name":"台東区社会福祉協議会","province":"東京都","city":"台東区","address":"台東区下谷1-2-11","lat":35.71782,"lon":139.78169},{"name":"台東区松が谷福祉会館","province":"東京都","city":"台東区","address":"東京都台東区松が谷1丁目4-12","lat":35.71130412,"lon":139.78542541},{"name":"ふるさと２丁目ハウス","province":"東京都","city":"台東区","address":"台東区日本堤2-37-1","lat":35.7281,"lon":139.79497},{"name":"杉光園","province":"東京都","city":"台東区","address":"台東区台東3-1-6","lat":35.70423,"lon":139.78124},{"name":"千束荘","province":"東京都","city":"台東区","address":"台東区千束3-23-13","lat":35.72249,"lon":139.79349},{"name":"ＳＴＥＰ-ＵＰ-ＨＯＵＳＥ","province":"東京都","city":"台東区","address":"東京都台東区","lat":35.71260667,"lon":139.77999789},{"name":"城北労働・福祉センター","province":"東京都","city":"台東区","address":"台東区日本堤2-2-11","lat":35.7278,"lon":139.79892},{"name":"ふるさと二丁目ハウス","province":"東京都","city":"台東区","address":"台東区日本堤2-37-1","lat":35.7281,"lon":139.79497},{"name":"北（根岸）12入谷区民館根岸分館（書道博物館）","province":"東京都","city":"台東区","address":"東京都台東区根岸2丁目18","lat":35.72500538,"lon":139.7772633},{"name":"北（根岸）13鶯谷駅北","province":"東京都","city":"台東区","address":"東京都台東区根岸3丁目8","lat":35.72297357,"lon":139.7789043},{"name":"北（根岸）14鶯谷駅南","province":"東京都","city":"台東区","address":"東京都台東区根岸3丁目1","lat":35.72100376,"lon":139.7810941},{"name":"北（根岸）11防災広場根岸の里","province":"東京都","city":"台東区","address":"東京都台東区根岸3丁目12","lat":35.72364361,"lon":139.781844},{"name":"北（根岸）10根岸三丁目","province":"東京都","city":"台東区","address":"東京都台東区根岸3丁目2","lat":35.7223437,"lon":139.781994},{"name":"北（根岸）9金杉通り","province":"東京都","city":"台東区","address":"東京都台東区下谷2丁目19","lat":35.72290371,"lon":139.7834139},{"name":"北（根岸）15入谷駅入口","province":"東京都","city":"台東区","address":"東京都台東区下谷2丁目14","lat":35.72151381,"lon":139.7843039},{"name":"北（根岸）8下谷三丁目","province":"東京都","city":"台東区","address":"東京都台東区根岸4丁目17","lat":35.7245936,"lon":139.7854437},{"name":"北（根岸）7金杉区民会館下谷分館入口","province":"東京都","city":"台東区","address":"東京都台東区下谷3丁目8","lat":35.72503354,"lon":139.7864935},{"name":"北（根岸）16大正小学校","province":"東京都","city":"台東区","address":"東京都台東区入谷1丁目23","lat":35.72122383,"lon":139.7869136},{"name":"北（根岸）17生涯学習センター北（金竜小学校前）","province":"東京都","city":"台東区","address":"東京都台東区入谷2丁目6","lat":35.71889405,"lon":139.7893535},{"name":"北（根岸）6竜泉一丁目","province":"東京都","city":"台東区","address":"東京都台東区竜泉1丁目33","lat":35.72469348,"lon":139.7897331},{"name":"北（根岸）18千束二丁目","province":"東京都","city":"台東区","address":"東京都台東区千束2丁目25","lat":35.72135382,"lon":139.7907832},{"name":"北（根岸）5一葉記念館入口","province":"東京都","city":"台東区","address":"東京都台東区竜泉3丁目21","lat":35.72549336,"lon":139.7910329},{"name":"北（根岸）4三ノ輪駅（三ノ輪福祉センタ－前）","province":"東京都","city":"台東区","address":"東京都台東区三ノ輪1丁目27","lat":35.72956298,"lon":139.7922426},{"name":"北（根岸）19千束三丁目","province":"東京都","city":"台東区","address":"東京都台東区千束3丁目13","lat":35.72122384,"lon":139.792413},{"name":"北（根岸）1台東病院","province":"東京都","city":"台東区","address":"東京都台東区千束3丁目20","lat":35.72246068,"lon":139.7930259},{"name":"北（根岸）3三ノ輪二丁目","province":"東京都","city":"台東区","address":"東京都台東区三ノ輪1丁目1","lat":35.7279173,"lon":139.7943424},{"name":"北（根岸）2竜泉三丁目","province":"東京都","city":"台東区","address":"東京都台東区千束4丁目36","lat":35.72484603,"lon":139.7969784},{"name":"北（浅草）16台東病院","province":"東京都","city":"台東区","address":"東京都台東区千束3丁目20","lat":35.72246068,"lon":139.7930259},{"name":"北（浅草）17千束小学校前","province":"東京都","city":"台東区","address":"東京都台東区浅草5丁目11","lat":35.72014398,"lon":139.793783},{"name":"北（浅草）18浅草五丁目","province":"東京都","city":"台東区","address":"東京都台東区浅草4丁目37","lat":35.71967405,"lon":139.7959028},{"name":"北（浅草）21浅草寺北","province":"東京都","city":"台東区","address":"東京都台東区浅草3丁目3","lat":35.71606446,"lon":139.7977029},{"name":"北（浅草）23浅草松屋西","province":"東京都","city":"台東区","address":"東京都台東区花川戸1丁目6","lat":35.71246475,"lon":139.7978431},{"name":"北（浅草）19浅草警察署前","province":"東京都","city":"台東区","address":"東京都台東区浅草5丁目4","lat":35.71919423,"lon":139.7978728},{"name":"北（浅草）11吉原大門","province":"東京都","city":"台東区","address":"東京都台東区東浅草2丁目27","lat":35.72476347,"lon":139.7979322},{"name":"北（浅草）20浅草四丁目","province":"東京都","city":"台東区","address":"東京都台東区浅草4丁目4","lat":35.71788434,"lon":139.7979528},{"name":"北（浅草）1浅草駅","province":"東京都","city":"台東区","address":"東京都台東区花川戸1丁目4","lat":35.71144484,"lon":139.7981931},{"name":"北（浅草）22二天門","province":"東京都","city":"台東区","address":"東京都台東区花川戸2丁目6","lat":35.71452462,"lon":139.798333},{"name":"北（浅草）10東浅草二丁目","province":"東京都","city":"台東区","address":"東京都台東区日本堤1丁目2","lat":35.72570364,"lon":139.7999023},{"name":"北（浅草）2花川戸","province":"東京都","city":"台東区","address":"東京都台東区花川戸1丁目13","lat":35.71361475,"lon":139.8003728},{"name":"北（浅草）9清川一丁目","province":"東京都","city":"台東区","address":"東京都台東区清川1丁目33","lat":35.72621391,"lon":139.8020926},{"name":"北（浅草）3隅田公園","province":"東京都","city":"台東区","address":"東京都台東区浅草7丁目3","lat":35.7164048,"lon":139.8029026},{"name":"北（浅草）4リバ－サイドスポ－ツセンタ－前","province":"東京都","city":"台東区","address":"東京都台東区今戸1丁目6","lat":35.71850489,"lon":139.8039827},{"name":"北（浅草）5今戸一丁目","province":"東京都","city":"台東区","address":"東京都台東区今戸1丁目18","lat":35.72050485,"lon":139.8042427},{"name":"北（浅草）6今戸二丁目","province":"東京都","city":"台東区","address":"東京都台東区今戸2丁目34","lat":35.72239468,"lon":139.8044028},{"name":"北（浅草）8橋場一丁目","province":"東京都","city":"台東区","address":"東京都台東区橋場2丁目5","lat":35.72612251,"lon":139.805806},{"name":"北（浅草）7橋場老人福祉館西（産業研修センター）","province":"東京都","city":"台東区","address":"東京都台東区橋場1丁目10","lat":35.72362577,"lon":139.8059939},{"name":"北（浅草）12三ノ輪二丁目","province":"東京都","city":"台東区","address":"東京都台東区三ノ輪1丁目1","lat":35.72764182,"lon":139.7945378},{"name":"北（浅草）13三ノ輪駅(三ノ輪福祉センター前)","province":"東京都","city":"台東区","address":"東京都台東区三ノ輪1丁目28","lat":35.7298773,"lon":139.7919974},{"name":"北（浅草）14一葉記念館入口","province":"東京都","city":"台東区","address":"東京都台東区竜泉2丁目12","lat":35.72521231,"lon":139.790899},{"name":"北（浅草）15千束三丁目","province":"東京都","city":"台東区","address":"東京都台東区千束3丁目13","lat":35.72124689,"lon":139.7927388},{"name":"東京隅田川ユースホステル","province":"東京都","city":"台東区","address":"台東区柳橋2-21-4","lat":35.69589398,"lon":139.7924579},{"name":"東京上野ユースホステル","province":"東京都","city":"台東区","address":"台東区上野1-13-6東京新潟県人会館4階","lat":35.70318121,"lon":139.7735136},{"name":"＊?社会教育センター","province":"東京都","city":"台東区","address":"台東区東上野6-16-8","lat":35.713648,"lon":139.783675},{"name":"＊?小島社会教育館","province":"東京都","city":"台東区","address":"台東区小島1-5-2","lat":35.704078,"lon":139.781655},{"name":"＊?今戸社会教育館","province":"東京都","city":"台東区","address":"台東区今戸2-26-12","lat":35.721972,"lon":139.807471},{"name":"＊?千束社会教育館","province":"東京都","city":"台東区","address":"台東区浅草4-24-13","lat":35.719384,"lon":139.794022},{"name":"＊?根岸社会教育館","province":"東京都","city":"台東区","address":"台東区根岸5-18-13","lat":35.729237,"lon":139.790461},{"name":"永寿総合病院","province":"東京都","city":"台東区","address":"台東区東上野2-23-16","lat":35.709749,"lon":139.779629},{"name":"杉光園","province":"東京都","city":"台東区","address":"台東区台東3-1-6","lat":35.704463,"lon":139.781321},{"name":"ふるさと・日の出館","province":"東京都","city":"台東区","address":"東京都台東区","lat":35.71260667,"lon":139.77999789},{"name":"ふるさと・あさひ館","province":"東京都","city":"台東区","address":"台東区千束4-28-1","lat":35.722631,"lon":139.794935},{"name":"ふるさと・千束館","province":"東京都","city":"台東区","address":"台東区千束3-28-6","lat":35.723192,"lon":139.793446},{"name":"千束荘","province":"東京都","city":"台東区","address":"台東区千束3-23-13","lat":35.72255,"lon":139.793716},{"name":"下谷荘","province":"東京都","city":"台東区","address":"台東区下谷2-16-6","lat":35.722312,"lon":139.784289},{"name":"橋場荘","province":"東京都","city":"台東区","address":"台東区橋場1-17-10","lat":35.724401,"lon":139.805535},{"name":"おおぞら荘","province":"東京都","city":"台東区","address":"台東区日本堤1-17-7","lat":35.726186,"lon":139.799107},{"name":"さくら千束ハウス","province":"東京都","city":"台東区","address":"台東区千束4-34-1","lat":35.724728,"lon":139.796334},{"name":"きぼうのいえ","province":"東京都","city":"台東区","address":"東京都台東区","lat":35.71260667,"lon":139.77999789},{"name":"山友荘","province":"東京都","city":"台東区","address":"台東区清川2-38-2","lat":35.728747,"lon":139.800823},{"name":"コスモスハウスおはな","province":"東京都","city":"台東区","address":"東京都台東区","lat":35.71260667,"lon":139.77999789},{"name":"友愛ホーム","province":"東京都","city":"台東区","address":"台東区清川2-16-3","lat":35.727406,"lon":139.800493},{"name":"やすらぎの家","province":"東京都","city":"台東区","address":"東京都台東区","lat":35.71260667,"lon":139.77999789},{"name":"ＳＴＥＰ－ＵＰ－ＨＯＵＳＥ","province":"東京都","city":"台東区","address":"東京都台東区","lat":35.71260667,"lon":139.77999789},{"name":"グループホーム「ふうせん」","province":"東京都","city":"台東区","address":"東京都台東区","lat":35.71260667,"lon":139.77999789},{"name":"ＴＥＯＳ千束三番館","province":"東京都","city":"台東区","address":"東京都台東区","lat":35.71260667,"lon":139.77999789},{"name":"橋場診療所歯科","province":"東京都","city":"台東区","address":"台東区橋場2-2-5","lat":35.726265,"lon":139.807071},{"name":"橋場診療所","province":"東京都","city":"台東区","address":"台東区橋場2-2-5","lat":35.726265,"lon":139.807071},{"name":"浅草寺病院","province":"東京都","city":"台東区","address":"台東区浅草2-30-17","lat":35.715807,"lon":139.796655},{"name":"城北労働・福祉センター","province":"東京都","city":"台東区","address":"東京都台東区日本堤2-2-11","lat":35.727942,"lon":139.798959},{"name":"台東区社会福祉協議会","province":"東京都","city":"台東区","address":"台東区下谷1-2-11","lat":35.717837,"lon":139.781742},{"name":"下谷荘","province":"東京都","city":"台東区","address":"台東区下谷2-16-6","lat":35.72222,"lon":139.78426},{"name":"おおぞら荘","province":"東京都","city":"台東区","address":"台東区日本堤1-17-7","lat":35.72612,"lon":139.79912},{"name":"山友荘","province":"東京都","city":"台東区","address":"台東区清川2-38-2","lat":35.72885,"lon":139.80061},{"name":"友愛ホーム","province":"東京都","city":"台東区","address":"台東区清川2-16-3","lat":35.72757,"lon":139.80042},{"name":"橋場荘","province":"東京都","city":"台東区","address":"台東区橋場1-17-10","lat":35.72424,"lon":139.80568},{"name":"ふるさと・あさひ館","province":"東京都","city":"台東区","address":"台東区千束4-28-1","lat":35.72276,"lon":139.79457},{"name":"ふるさと・千束館","province":"東京都","city":"台東区","address":"台東区千束3-28-6","lat":35.7232,"lon":139.79366},{"name":"千束荘","province":"東京都","city":"台東区","address":"台東区千束3-23-13","lat":35.72248,"lon":139.79349},{"name":"さくら千束ハウス","province":"東京都","city":"台東区","address":"台東区千束4-34-1","lat":35.72474,"lon":139.79611},{"name":"永寿総合病院","province":"東京都","city":"台東区","address":"台東区東上野2-23-16","lat":35.70954,"lon":139.77971},{"name":"杉光園","province":"東京都","city":"台東区","address":"台東区台東3-1-6","lat":35.70423,"lon":139.78123},{"name":"ふるさと旅館朝日館","province":"東京都","city":"台東区","address":"台東区日本堤1-24-4","lat":35.72727,"lon":139.8},{"name":"ふるさと清川荘","province":"東京都","city":"台東区","address":"台東区清川2-18-5","lat":35.72767,"lon":139.80148},{"name":"ふるさとホテル三晃","province":"東京都","city":"台東区","address":"台東区清川2-38-5","lat":35.72885,"lon":139.80061},{"name":"ふるさとあさひ館","province":"東京都","city":"台東区","address":"台東区千束4-28-1","lat":35.72276,"lon":139.79457},{"name":"ふるさと日の出館","province":"東京都","city":"台東区","address":"東京都台東区","lat":35.71260667,"lon":139.77999789},{"name":"城北労働・福祉センター","province":"東京都","city":"台東区","address":"台東区日本堤2-2-11","lat":35.72779,"lon":139.79892},{"name":"台東区社会福祉協議会","province":"東京都","city":"台東区","address":"台東区下谷1-2-11","lat":35.71782,"lon":139.78169},{"name":"台東区松が谷福祉会館","province":"東京都","city":"台東区","address":"東京都台東区松が谷1丁目4-12","lat":35.71130412,"lon":139.78542541},{"name":"ふるさと２丁目ハウス","province":"東京都","city":"台東区","address":"台東区日本堤2-37-1","lat":35.7281,"lon":139.79497},{"name":"杉光園","province":"東京都","city":"台東区","address":"台東区台東3-1-6","lat":35.70423,"lon":139.78124},{"name":"千束荘","province":"東京都","city":"台東区","address":"台東区千束3-23-13","lat":35.72249,"lon":139.79349},{"name":"ＳＴＥＰ-ＵＰ-ＨＯＵＳＥ","province":"東京都","city":"台東区","address":"東京都台東区","lat":35.71260667,"lon":139.77999789},{"name":"城北労働・福祉センター","province":"東京都","city":"台東区","address":"台東区日本堤2-2-11","lat":35.7278,"lon":139.79892},{"name":"ふるさと二丁目ハウス","province":"東京都","city":"台東区","address":"台東区日本堤2-37-1","lat":35.7281,"lon":139.79497},{"name":"北（根岸）12入谷区民館根岸分館（書道博物館）","province":"東京都","city":"台東区","address":"東京都台東区根岸2丁目18","lat":35.72500538,"lon":139.7772633},{"name":"北（根岸）13鶯谷駅北","province":"東京都","city":"台東区","address":"東京都台東区根岸3丁目8","lat":35.72297357,"lon":139.7789043},{"name":"北（根岸）14鶯谷駅南","province":"東京都","city":"台東区","address":"東京都台東区根岸3丁目1","lat":35.72100376,"lon":139.7810941},{"name":"北（根岸）11防災広場根岸の里","province":"東京都","city":"台東区","address":"東京都台東区根岸3丁目12","lat":35.72364361,"lon":139.781844},{"name":"北（根岸）10根岸三丁目","province":"東京都","city":"台東区","address":"東京都台東区根岸3丁目2","lat":35.7223437,"lon":139.781994},{"name":"北（根岸）9金杉通り","province":"東京都","city":"台東区","address":"東京都台東区下谷2丁目19","lat":35.72290371,"lon":139.7834139},{"name":"北（根岸）15入谷駅入口","province":"東京都","city":"台東区","address":"東京都台東区下谷2丁目14","lat":35.72151381,"lon":139.7843039},{"name":"北（根岸）8下谷三丁目","province":"東京都","city":"台東区","address":"東京都台東区根岸4丁目17","lat":35.7245936,"lon":139.7854437},{"name":"北（根岸）7金杉区民会館下谷分館入口","province":"東京都","city":"台東区","address":"東京都台東区下谷3丁目8","lat":35.72503354,"lon":139.7864935},{"name":"北（根岸）16大正小学校","province":"東京都","city":"台東区","address":"東京都台東区入谷1丁目23","lat":35.72122383,"lon":139.7869136},{"name":"北（根岸）17生涯学習センター北（金竜小学校前）","province":"東京都","city":"台東区","address":"東京都台東区入谷2丁目6","lat":35.71889405,"lon":139.7893535},{"name":"北（根岸）6竜泉一丁目","province":"東京都","city":"台東区","address":"東京都台東区竜泉1丁目33","lat":35.72469348,"lon":139.7897331},{"name":"北（根岸）18千束二丁目","province":"東京都","city":"台東区","address":"東京都台東区千束2丁目25","lat":35.72135382,"lon":139.7907832},{"name":"北（根岸）5一葉記念館入口","province":"東京都","city":"台東区","address":"東京都台東区竜泉3丁目21","lat":35.72549336,"lon":139.7910329},{"name":"北（根岸）4三ノ輪駅（三ノ輪福祉センタ－前）","province":"東京都","city":"台東区","address":"東京都台東区三ノ輪1丁目27","lat":35.72956298,"lon":139.7922426},{"name":"北（根岸）19千束三丁目","province":"東京都","city":"台東区","address":"東京都台東区千束3丁目13","lat":35.72122384,"lon":139.792413},{"name":"北（根岸）1台東病院","province":"東京都","city":"台東区","address":"東京都台東区千束3丁目20","lat":35.72246068,"lon":139.7930259},{"name":"北（根岸）3三ノ輪二丁目","province":"東京都","city":"台東区","address":"東京都台東区三ノ輪1丁目1","lat":35.7279173,"lon":139.7943424},{"name":"北（根岸）2竜泉三丁目","province":"東京都","city":"台東区","address":"東京都台東区千束4丁目36","lat":35.72484603,"lon":139.7969784},{"name":"北（浅草）16台東病院","province":"東京都","city":"台東区","address":"東京都台東区千束3丁目20","lat":35.72246068,"lon":139.7930259},{"name":"北（浅草）17千束小学校前","province":"東京都","city":"台東区","address":"東京都台東区浅草5丁目11","lat":35.72014398,"lon":139.793783},{"name":"北（浅草）18浅草五丁目","province":"東京都","city":"台東区","address":"東京都台東区浅草4丁目37","lat":35.71967405,"lon":139.7959028},{"name":"北（浅草）21浅草寺北","province":"東京都","city":"台東区","address":"東京都台東区浅草3丁目3","lat":35.71606446,"lon":139.7977029},{"name":"北（浅草）23浅草松屋西","province":"東京都","city":"台東区","address":"東京都台東区花川戸1丁目6","lat":35.71246475,"lon":139.7978431},{"name":"北（浅草）19浅草警察署前","province":"東京都","city":"台東区","address":"東京都台東区浅草5丁目4","lat":35.71919423,"lon":139.7978728},{"name":"北（浅草）11吉原大門","province":"東京都","city":"台東区","address":"東京都台東区東浅草2丁目27","lat":35.72476347,"lon":139.7979322},{"name":"北（浅草）20浅草四丁目","province":"東京都","city":"台東区","address":"東京都台東区浅草4丁目4","lat":35.71788434,"lon":139.7979528},{"name":"北（浅草）1浅草駅","province":"東京都","city":"台東区","address":"東京都台東区花川戸1丁目4","lat":35.71144484,"lon":139.7981931},{"name":"北（浅草）22二天門","province":"東京都","city":"台東区","address":"東京都台東区花川戸2丁目6","lat":35.71452462,"lon":139.798333},{"name":"北（浅草）10東浅草二丁目","province":"東京都","city":"台東区","address":"東京都台東区日本堤1丁目2","lat":35.72570364,"lon":139.7999023},{"name":"北（浅草）2花川戸","province":"東京都","city":"台東区","address":"東京都台東区花川戸1丁目13","lat":35.71361475,"lon":139.8003728},{"name":"北（浅草）9清川一丁目","province":"東京都","city":"台東区","address":"東京都台東区清川1丁目33","lat":35.72621391,"lon":139.8020926},{"name":"北（浅草）3隅田公園","province":"東京都","city":"台東区","address":"東京都台東区浅草7丁目3","lat":35.7164048,"lon":139.8029026},{"name":"北（浅草）4リバ－サイドスポ－ツセンタ－前","province":"東京都","city":"台東区","address":"東京都台東区今戸1丁目6","lat":35.71850489,"lon":139.8039827},{"name":"北（浅草）5今戸一丁目","province":"東京都","city":"台東区","address":"東京都台東区今戸1丁目18","lat":35.72050485,"lon":139.8042427},{"name":"北（浅草）6今戸二丁目","province":"東京都","city":"台東区","address":"東京都台東区今戸2丁目34","lat":35.72239468,"lon":139.8044028},{"name":"北（浅草）8橋場一丁目","province":"東京都","city":"台東区","address":"東京都台東区橋場2丁目5","lat":35.72612251,"lon":139.805806},{"name":"北（浅草）7橋場老人福祉館西（産業研修センター）","province":"東京都","city":"台東区","address":"東京都台東区橋場1丁目10","lat":35.72362577,"lon":139.8059939},{"name":"北（浅草）12三ノ輪二丁目","province":"東京都","city":"台東区","address":"東京都台東区三ノ輪1丁目1","lat":35.72764182,"lon":139.7945378},{"name":"北（浅草）13三ノ輪駅(三ノ輪福祉センター前)","province":"東京都","city":"台東区","address":"東京都台東区三ノ輪1丁目28","lat":35.7298773,"lon":139.7919974},{"name":"北（浅草）14一葉記念館入口","province":"東京都","city":"台東区","address":"東京都台東区竜泉2丁目12","lat":35.72521231,"lon":139.790899},{"name":"北（浅草）15千束三丁目","province":"東京都","city":"台東区","address":"東京都台東区千束3丁目13","lat":35.72124689,"lon":139.7927388},{"name":"東京隅田川ユースホステル","province":"東京都","city":"台東区","address":"台東区柳橋2-21-4","lat":35.69589398,"lon":139.7924579},{"name":"東京上野ユースホステル","province":"東京都","city":"台東区","address":"台東区上野1-13-6東京新潟県人会館4階","lat":35.70318121,"lon":139.7735136},{"name":"＊?社会教育センター","province":"東京都","city":"台東区","address":"台東区東上野6-16-8","lat":35.713648,"lon":139.783675},{"name":"＊?小島社会教育館","province":"東京都","city":"台東区","address":"台東区小島1-5-2","lat":35.704078,"lon":139.781655},{"name":"＊?今戸社会教育館","province":"東京都","city":"台東区","address":"台東区今戸2-26-12","lat":35.721972,"lon":139.807471},{"name":"＊?千束社会教育館","province":"東京都","city":"台東区","address":"台東区浅草4-24-13","lat":35.719384,"lon":139.794022},{"name":"＊?根岸社会教育館","province":"東京都","city":"台東区","address":"台東区根岸5-18-13","lat":35.729237,"lon":139.790461},{"name":"永寿総合病院","province":"東京都","city":"台東区","address":"台東区東上野2-23-16","lat":35.709749,"lon":139.779629},{"name":"杉光園","province":"東京都","city":"台東区","address":"台東区台東3-1-6","lat":35.704463,"lon":139.781321},{"name":"ふるさと・日の出館","province":"東京都","city":"台東区","address":"東京都台東区","lat":35.71260667,"lon":139.77999789},{"name":"ふるさと・あさひ館","province":"東京都","city":"台東区","address":"台東区千束4-28-1","lat":35.722631,"lon":139.794935},{"name":"ふるさと・千束館","province":"東京都","city":"台東区","address":"台東区千束3-28-6","lat":35.723192,"lon":139.793446},{"name":"千束荘","province":"東京都","city":"台東区","address":"台東区千束3-23-13","lat":35.72255,"lon":139.793716},{"name":"下谷荘","province":"東京都","city":"台東区","address":"台東区下谷2-16-6","lat":35.722312,"lon":139.784289},{"name":"橋場荘","province":"東京都","city":"台東区","address":"台東区橋場1-17-10","lat":35.724401,"lon":139.805535},{"name":"おおぞら荘","province":"東京都","city":"台東区","address":"台東区日本堤1-17-7","lat":35.726186,"lon":139.799107},{"name":"さくら千束ハウス","province":"東京都","city":"台東区","address":"台東区千束4-34-1","lat":35.724728,"lon":139.796334},{"name":"きぼうのいえ","province":"東京都","city":"台東区","address":"東京都台東区","lat":35.71260667,"lon":139.77999789},{"name":"山友荘","province":"東京都","city":"台東区","address":"台東区清川2-38-2","lat":35.728747,"lon":139.800823},{"name":"コスモスハウスおはな","province":"東京都","city":"台東区","address":"東京都台東区","lat":35.71260667,"lon":139.77999789},{"name":"友愛ホーム","province":"東京都","city":"台東区","address":"台東区清川2-16-3","lat":35.727406,"lon":139.800493},{"name":"やすらぎの家","province":"東京都","city":"台東区","address":"東京都台東区","lat":35.71260667,"lon":139.77999789},{"name":"ＳＴＥＰ－ＵＰ－ＨＯＵＳＥ","province":"東京都","city":"台東区","address":"東京都台東区","lat":35.71260667,"lon":139.77999789},{"name":"グループホーム「ふうせん」","province":"東京都","city":"台東区","address":"東京都台東区","lat":35.71260667,"lon":139.77999789},{"name":"ＴＥＯＳ千束三番館","province":"東京都","city":"台東区","address":"東京都台東区","lat":35.71260667,"lon":139.77999789},{"name":"橋場診療所歯科","province":"東京都","city":"台東区","address":"台東区橋場2-2-5","lat":35.726265,"lon":139.807071},{"name":"橋場診療所","province":"東京都","city":"台東区","address":"台東区橋場2-2-5","lat":35.726265,"lon":139.807071},{"name":"浅草寺病院","province":"東京都","city":"台東区","address":"台東区浅草2-30-17","lat":35.715807,"lon":139.796655},{"name":"城北労働・福祉センター","province":"東京都","city":"台東区","address":"東京都台東区日本堤2-2-11","lat":35.727942,"lon":139.798959},{"name":"台東区社会福祉協議会","province":"東京都","city":"台東区","address":"台東区下谷1-2-11","lat":35.717837,"lon":139.781742},{"name":"下谷荘","province":"東京都","city":"台東区","address":"台東区下谷2-16-6","lat":35.72222,"lon":139.78426},{"name":"おおぞら荘","province":"東京都","city":"台東区","address":"台東区日本堤1-17-7","lat":35.72612,"lon":139.79912},{"name":"山友荘","province":"東京都","city":"台東区","address":"台東区清川2-38-2","lat":35.72885,"lon":139.80061},{"name":"友愛ホーム","province":"東京都","city":"台東区","address":"台東区清川2-16-3","lat":35.72757,"lon":139.80042},{"name":"橋場荘","province":"東京都","city":"台東区","address":"台東区橋場1-17-10","lat":35.72424,"lon":139.80568},{"name":"ふるさと・あさひ館","province":"東京都","city":"台東区","address":"台東区千束4-28-1","lat":35.72276,"lon":139.79457},{"name":"ふるさと・千束館","province":"東京都","city":"台東区","address":"台東区千束3-28-6","lat":35.7232,"lon":139.79366},{"name":"千束荘","province":"東京都","city":"台東区","address":"台東区千束3-23-13","lat":35.72248,"lon":139.79349},{"name":"さくら千束ハウス","province":"東京都","city":"台東区","address":"台東区千束4-34-1","lat":35.72474,"lon":139.79611},{"name":"永寿総合病院","province":"東京都","city":"台東区","address":"台東区東上野2-23-16","lat":35.70954,"lon":139.77971},{"name":"杉光園","province":"東京都","city":"台東区","address":"台東区台東3-1-6","lat":35.70423,"lon":139.78123},{"name":"ふるさと旅館朝日館","province":"東京都","city":"台東区","address":"台東区日本堤1-24-4","lat":35.72727,"lon":139.8},{"name":"ふるさと清川荘","province":"東京都","city":"台東区","address":"台東区清川2-18-5","lat":35.72767,"lon":139.80148},{"name":"ふるさとホテル三晃","province":"東京都","city":"台東区","address":"台東区清川2-38-5","lat":35.72885,"lon":139.80061},{"name":"ふるさとあさひ館","province":"東京都","city":"台東区","address":"台東区千束4-28-1","lat":35.72276,"lon":139.79457},{"name":"ふるさと日の出館","province":"東京都","city":"台東区","address":"東京都台東区","lat":35.71260667,"lon":139.77999789},{"name":"城北労働・福祉センター","province":"東京都","city":"台東区","address":"台東区日本堤2-2-11","lat":35.72779,"lon":139.79892},{"name":"台東区社会福祉協議会","province":"東京都","city":"台東区","address":"台東区下谷1-2-11","lat":35.71782,"lon":139.78169},{"name":"台東区松が谷福祉会館","province":"東京都","city":"台東区","address":"東京都台東区松が谷1丁目4-12","lat":35.71130412,"lon":139.78542541},{"name":"ふるさと２丁目ハウス","province":"東京都","city":"台東区","address":"台東区日本堤2-37-1","lat":35.7281,"lon":139.79497},{"name":"杉光園","province":"東京都","city":"台東区","address":"台東区台東3-1-6","lat":35.70423,"lon":139.78124},{"name":"千束荘","province":"東京都","city":"台東区","address":"台東区千束3-23-13","lat":35.72249,"lon":139.79349},{"name":"ＳＴＥＰ-ＵＰ-ＨＯＵＳＥ","province":"東京都","city":"台東区","address":"東京都台東区","lat":35.71260667,"lon":139.77999789},{"name":"城北労働・福祉センター","province":"東京都","city":"台東区","address":"台東区日本堤2-2-11","lat":35.7278,"lon":139.79892},{"name":"ふるさと二丁目ハウス","province":"東京都","city":"台東区","address":"台東区日本堤2-37-1","lat":35.7281,"lon":139.79497},{"name":"北（根岸）12入谷区民館根岸分館（書道博物館）","province":"東京都","city":"台東区","address":"東京都台東区根岸2丁目18","lat":35.72500538,"lon":139.7772633},{"name":"北（根岸）13鶯谷駅北","province":"東京都","city":"台東区","address":"東京都台東区根岸3丁目8","lat":35.72297357,"lon":139.7789043},{"name":"北（根岸）14鶯谷駅南","province":"東京都","city":"台東区","address":"東京都台東区根岸3丁目1","lat":35.72100376,"lon":139.7810941},{"name":"北（根岸）11防災広場根岸の里","province":"東京都","city":"台東区","address":"東京都台東区根岸3丁目12","lat":35.72364361,"lon":139.781844},{"name":"北（根岸）10根岸三丁目","province":"東京都","city":"台東区","address":"東京都台東区根岸3丁目2","lat":35.7223437,"lon":139.781994},{"name":"北（根岸）9金杉通り","province":"東京都","city":"台東区","address":"東京都台東区下谷2丁目19","lat":35.72290371,"lon":139.7834139},{"name":"北（根岸）15入谷駅入口","province":"東京都","city":"台東区","address":"東京都台東区下谷2丁目14","lat":35.72151381,"lon":139.7843039},{"name":"北（根岸）8下谷三丁目","province":"東京都","city":"台東区","address":"東京都台東区根岸4丁目17","lat":35.7245936,"lon":139.7854437},{"name":"北（根岸）7金杉区民会館下谷分館入口","province":"東京都","city":"台東区","address":"東京都台東区下谷3丁目8","lat":35.72503354,"lon":139.7864935},{"name":"北（根岸）16大正小学校","province":"東京都","city":"台東区","address":"東京都台東区入谷1丁目23","lat":35.72122383,"lon":139.7869136},{"name":"北（根岸）17生涯学習センター北（金竜小学校前）","province":"東京都","city":"台東区","address":"東京都台東区入谷2丁目6","lat":35.71889405,"lon":139.7893535},{"name":"北（根岸）6竜泉一丁目","province":"東京都","city":"台東区","address":"東京都台東区竜泉1丁目33","lat":35.72469348,"lon":139.7897331},{"name":"北（根岸）18千束二丁目","province":"東京都","city":"台東区","address":"東京都台東区千束2丁目25","lat":35.72135382,"lon":139.7907832},{"name":"北（根岸）5一葉記念館入口","province":"東京都","city":"台東区","address":"東京都台東区竜泉3丁目21","lat":35.72549336,"lon":139.7910329},{"name":"北（根岸）4三ノ輪駅（三ノ輪福祉センタ－前）","province":"東京都","city":"台東区","address":"東京都台東区三ノ輪1丁目27","lat":35.72956298,"lon":139.7922426},{"name":"北（根岸）19千束三丁目","province":"東京都","city":"台東区","address":"東京都台東区千束3丁目13","lat":35.72122384,"lon":139.792413},{"name":"北（根岸）1台東病院","province":"東京都","city":"台東区","address":"東京都台東区千束3丁目20","lat":35.72246068,"lon":139.7930259},{"name":"北（根岸）3三ノ輪二丁目","province":"東京都","city":"台東区","address":"東京都台東区三ノ輪1丁目1","lat":35.7279173,"lon":139.7943424},{"name":"北（根岸）2竜泉三丁目","province":"東京都","city":"台東区","address":"東京都台東区千束4丁目36","lat":35.72484603,"lon":139.7969784},{"name":"北（浅草）16台東病院","province":"東京都","city":"台東区","address":"東京都台東区千束3丁目20","lat":35.72246068,"lon":139.7930259},{"name":"北（浅草）17千束小学校前","province":"東京都","city":"台東区","address":"東京都台東区浅草5丁目11","lat":35.72014398,"lon":139.793783},{"name":"北（浅草）18浅草五丁目","province":"東京都","city":"台東区","address":"東京都台東区浅草4丁目37","lat":35.71967405,"lon":139.7959028},{"name":"北（浅草）21浅草寺北","province":"東京都","city":"台東区","address":"東京都台東区浅草3丁目3","lat":35.71606446,"lon":139.7977029},{"name":"北（浅草）23浅草松屋西","province":"東京都","city":"台東区","address":"東京都台東区花川戸1丁目6","lat":35.71246475,"lon":139.7978431},{"name":"北（浅草）19浅草警察署前","province":"東京都","city":"台東区","address":"東京都台東区浅草5丁目4","lat":35.71919423,"lon":139.7978728},{"name":"北（浅草）11吉原大門","province":"東京都","city":"台東区","address":"東京都台東区東浅草2丁目27","lat":35.72476347,"lon":139.7979322},{"name":"北（浅草）20浅草四丁目","province":"東京都","city":"台東区","address":"東京都台東区浅草4丁目4","lat":35.71788434,"lon":139.7979528},{"name":"北（浅草）1浅草駅","province":"東京都","city":"台東区","address":"東京都台東区花川戸1丁目4","lat":35.71144484,"lon":139.7981931},{"name":"北（浅草）22二天門","province":"東京都","city":"台東区","address":"東京都台東区花川戸2丁目6","lat":35.71452462,"lon":139.798333},{"name":"北（浅草）10東浅草二丁目","province":"東京都","city":"台東区","address":"東京都台東区日本堤1丁目2","lat":35.72570364,"lon":139.7999023},{"name":"北（浅草）2花川戸","province":"東京都","city":"台東区","address":"東京都台東区花川戸1丁目13","lat":35.71361475,"lon":139.8003728},{"name":"北（浅草）9清川一丁目","province":"東京都","city":"台東区","address":"東京都台東区清川1丁目33","lat":35.72621391,"lon":139.8020926},{"name":"北（浅草）3隅田公園","province":"東京都","city":"台東区","address":"東京都台東区浅草7丁目3","lat":35.7164048,"lon":139.8029026},{"name":"北（浅草）4リバ－サイドスポ－ツセンタ－前","province":"東京都","city":"台東区","address":"東京都台東区今戸1丁目6","lat":35.71850489,"lon":139.8039827},{"name":"北（浅草）5今戸一丁目","province":"東京都","city":"台東区","address":"東京都台東区今戸1丁目18","lat":35.72050485,"lon":139.8042427},{"name":"北（浅草）6今戸二丁目","province":"東京都","city":"台東区","address":"東京都台東区今戸2丁目34","lat":35.72239468,"lon":139.8044028},{"name":"北（浅草）8橋場一丁目","province":"東京都","city":"台東区","address":"東京都台東区橋場2丁目5","lat":35.72612251,"lon":139.805806},{"name":"北（浅草）7橋場老人福祉館西（産業研修センター）","province":"東京都","city":"台東区","address":"東京都台東区橋場1丁目10","lat":35.72362577,"lon":139.8059939},{"name":"北（浅草）12三ノ輪二丁目","province":"東京都","city":"台東区","address":"東京都台東区三ノ輪1丁目1","lat":35.72764182,"lon":139.7945378},{"name":"北（浅草）13三ノ輪駅(三ノ輪福祉センター前)","province":"東京都","city":"台東区","address":"東京都台東区三ノ輪1丁目28","lat":35.7298773,"lon":139.7919974},{"name":"北（浅草）14一葉記念館入口","province":"東京都","city":"台東区","address":"東京都台東区竜泉2丁目12","lat":35.72521231,"lon":139.790899},{"name":"北（浅草）15千束三丁目","province":"東京都","city":"台東区","address":"東京都台東区千束3丁目13","lat":35.72124689,"lon":139.7927388},{"name":"東京隅田川ユースホステル","province":"東京都","city":"台東区","address":"台東区柳橋2-21-4","lat":35.69589398,"lon":139.7924579},{"name":"東京上野ユースホステル","province":"東京都","city":"台東区","address":"台東区上野1-13-6東京新潟県人会館4階","lat":35.70318121,"lon":139.7735136},{"name":"＊?社会教育センター","province":"東京都","city":"台東区","address":"台東区東上野6-16-8","lat":35.713648,"lon":139.783675},{"name":"＊?小島社会教育館","province":"東京都","city":"台東区","address":"台東区小島1-5-2","lat":35.704078,"lon":139.781655},{"name":"＊?今戸社会教育館","province":"東京都","city":"台東区","address":"台東区今戸2-26-12","lat":35.721972,"lon":139.807471},{"name":"＊?千束社会教育館","province":"東京都","city":"台東区","address":"台東区浅草4-24-13","lat":35.719384,"lon":139.794022},{"name":"＊?根岸社会教育館","province":"東京都","city":"台東区","address":"台東区根岸5-18-13","lat":35.729237,"lon":139.790461},{"name":"永寿総合病院","province":"東京都","city":"台東区","address":"台東区東上野2-23-16","lat":35.709749,"lon":139.779629},{"name":"杉光園","province":"東京都","city":"台東区","address":"台東区台東3-1-6","lat":35.704463,"lon":139.781321},{"name":"ふるさと・日の出館","province":"東京都","city":"台東区","address":"東京都台東区","lat":35.71260667,"lon":139.77999789},{"name":"ふるさと・あさひ館","province":"東京都","city":"台東区","address":"台東区千束4-28-1","lat":35.722631,"lon":139.794935},{"name":"ふるさと・千束館","province":"東京都","city":"台東区","address":"台東区千束3-28-6","lat":35.723192,"lon":139.793446},{"name":"千束荘","province":"東京都","city":"台東区","address":"台東区千束3-23-13","lat":35.72255,"lon":139.793716},{"name":"下谷荘","province":"東京都","city":"台東区","address":"台東区下谷2-16-6","lat":35.722312,"lon":139.784289},{"name":"橋場荘","province":"東京都","city":"台東区","address":"台東区橋場1-17-10","lat":35.724401,"lon":139.805535},{"name":"おおぞら荘","province":"東京都","city":"台東区","address":"台東区日本堤1-17-7","lat":35.726186,"lon":139.799107},{"name":"さくら千束ハウス","province":"東京都","city":"台東区","address":"台東区千束4-34-1","lat":35.724728,"lon":139.796334},{"name":"きぼうのいえ","province":"東京都","city":"台東区","address":"東京都台東区","lat":35.71260667,"lon":139.77999789},{"name":"山友荘","province":"東京都","city":"台東区","address":"台東区清川2-38-2","lat":35.728747,"lon":139.800823},{"name":"コスモスハウスおはな","province":"東京都","city":"台東区","address":"東京都台東区","lat":35.71260667,"lon":139.77999789},{"name":"友愛ホーム","province":"東京都","city":"台東区","address":"台東区清川2-16-3","lat":35.727406,"lon":139.800493},{"name":"やすらぎの家","province":"東京都","city":"台東区","address":"東京都台東区","lat":35.71260667,"lon":139.77999789},{"name":"ＳＴＥＰ－ＵＰ－ＨＯＵＳＥ","province":"東京都","city":"台東区","address":"東京都台東区","lat":35.71260667,"lon":139.77999789},{"name":"グループホーム「ふうせん」","province":"東京都","city":"台東区","address":"東京都台東区","lat":35.71260667,"lon":139.77999789},{"name":"ＴＥＯＳ千束三番館","province":"東京都","city":"台東区","address":"東京都台東区","lat":35.71260667,"lon":139.77999789},{"name":"橋場診療所歯科","province":"東京都","city":"台東区","address":"台東区橋場2-2-5","lat":35.726265,"lon":139.807071},{"name":"橋場診療所","province":"東京都","city":"台東区","address":"台東区橋場2-2-5","lat":35.726265,"lon":139.807071},{"name":"浅草寺病院","province":"東京都","city":"台東区","address":"台東区浅草2-30-17","lat":35.715807,"lon":139.796655},{"name":"城北労働・福祉センター","province":"東京都","city":"台東区","address":"東京都台東区日本堤2-2-11","lat":35.727942,"lon":139.798959},{"name":"台東区社会福祉協議会","province":"東京都","city":"台東区","address":"台東区下谷1-2-11","lat":35.717837,"lon":139.781742},{"name":"下谷荘","province":"東京都","city":"台東区","address":"台東区下谷2-16-6","lat":35.72222,"lon":139.78426},{"name":"おおぞら荘","province":"東京都","city":"台東区","address":"台東区日本堤1-17-7","lat":35.72612,"lon":139.79912},{"name":"山友荘","province":"東京都","city":"台東区","address":"台東区清川2-38-2","lat":35.72885,"lon":139.80061},{"name":"友愛ホーム","province":"東京都","city":"台東区","address":"台東区清川2-16-3","lat":35.72757,"lon":139.80042},{"name":"橋場荘","province":"東京都","city":"台東区","address":"台東区橋場1-17-10","lat":35.72424,"lon":139.80568},{"name":"ふるさと・あさひ館","province":"東京都","city":"台東区","address":"台東区千束4-28-1","lat":35.72276,"lon":139.79457},{"name":"ふるさと・千束館","province":"東京都","city":"台東区","address":"台東区千束3-28-6","lat":35.7232,"lon":139.79366},{"name":"千束荘","province":"東京都","city":"台東区","address":"台東区千束3-23-13","lat":35.72248,"lon":139.79349},{"name":"さくら千束ハウス","province":"東京都","city":"台東区","address":"台東区千束4-34-1","lat":35.72474,"lon":139.79611},{"name":"永寿総合病院","province":"東京都","city":"台東区","address":"台東区東上野2-23-16","lat":35.70954,"lon":139.77971},{"name":"杉光園","province":"東京都","city":"台東区","address":"台東区台東3-1-6","lat":35.70423,"lon":139.78123},{"name":"ふるさと旅館朝日館","province":"東京都","city":"台東区","address":"台東区日本堤1-24-4","lat":35.72727,"lon":139.8},{"name":"ふるさと清川荘","province":"東京都","city":"台東区","address":"台東区清川2-18-5","lat":35.72767,"lon":139.80148},{"name":"ふるさとホテル三晃","province":"東京都","city":"台東区","address":"台東区清川2-38-5","lat":35.72885,"lon":139.80061},{"name":"ふるさとあさひ館","province":"東京都","city":"台東区","address":"台東区千束4-28-1","lat":35.72276,"lon":139.79457},{"name":"ふるさと日の出館","province":"東京都","city":"台東区","address":"東京都台東区","lat":35.71260667,"lon":139.77999789},{"name":"城北労働・福祉センター","province":"東京都","city":"台東区","address":"台東区日本堤2-2-11","lat":35.72779,"lon":139.79892},