{"keyword":"戸数","data":[{"name":"台東区社会福祉協議会","province":"東京都","city":"台東区","address":"台東区下谷1-2-11","lat":35.717837,"lon":139.781742},{"name":"上野公園前交番裏","province":"東京都","city":"台東区","address":"東京都台東区上野公園1","lat":35.7112,"lon":139.77377},{"name":"JR上野駅（広小路口）ぺデストリアンデッキ上","province":"東京都","city":"台東区","address":"東京都台東区上野7丁目1","lat":35.71163,"lon":139.77628},{"name":"JR上野駅（浅草口）ペデストリアンデッキ上","province":"東京都","city":"台東区","address":"東京都台東区上野7丁目1","lat":35.71168,"lon":139.77726},{"name":"浅草寺境内 ①「二尊仏前」東","province":"東京都","city":"台東区","address":"東京都台東区浅草2丁目3","lat":35.71361,"lon":139.79737},{"name":"浅草寺境内 ②「観音前警備派出所」北","province":"東京都","city":"台東区","address":"東京都台東区浅草2丁目3","lat":35.71411,"lon":139.79726},{"name":"浅草寺境内 ③「北側トイレ」南","province":"東京都","city":"台東区","address":"東京都台東区浅草2丁目30","lat":35.71559,"lon":139.79706},{"name":"浅草寺境内 ④「はとバス駐車場」西","province":"東京都","city":"台東区","address":"東京都台東区浅草2丁目3","lat":35.71528,"lon":139.79597},{"name":"広徳公園内","province":"東京都","city":"台東区","address":"東京都台東区東上野4丁目5","lat":35.71248,"lon":139.78067},{"name":"池之端二丁目公衆トイレ横","province":"東京都","city":"台東区","address":"東京都台東区池之端2丁目4","lat":35.71358,"lon":139.76573},{"name":"本庁舎駐車場出口横","province":"東京都","city":"台東区","address":"東京都台東区東上野4丁目5","lat":35.712724,"lon":139.779469},{"name":"台東リバーサイドスポーツセンター体育館前","province":"東京都","city":"台東区","address":"東京都台東区今戸1丁目1","lat":35.717866,"lon":139.804235},{"name":"清川清掃車庫内","province":"東京都","city":"台東区","address":"東京都台東区清川2丁目24","lat":35.727847,"lon":139.805037},{"name":"鶯谷公園内","province":"東京都","city":"台東区","address":"東京都台東区根岸1丁目3","lat":35.721114,"lon":139.779621},{"name":"上野公園正岡子規記念球場横","province":"東京都","city":"台東区","address":"東京都台東区上野公園5","lat":35.714185,"lon":139.77416},{"name":"金竜公園内","province":"東京都","city":"台東区","address":"東京都台東区西浅草3丁目25","lat":35.716998,"lon":139.789717},{"name":"隅田公園内","province":"東京都","city":"台東区","address":"東京都台東区花川戸1丁目1","lat":35.712469,"lon":139.800097},{"name":"paspa 浅草橋","province":"東京都","city":"台東区","address":"東京都台東区柳橋2丁目6-8","lat":35.69849,"lon":139.78759},{"name":"ファミリーマート　台東一丁目店","province":"東京都","city":"台東区","address":"東京都台東区台東1丁目1-14","lat":35.70069,"lon":139.78038},{"name":"セブン-イレブン　東上野１丁目店","province":"東京都","city":"台東区","address":"東京都台東区東上野1丁目7-15","lat":35.70759,"lon":139.77987},{"name":"セブン-イレブン　台東松が谷１丁目店","province":"東京都","city":"台東区","address":"東京都台東区松が谷1丁目3-5","lat":35.71107,"lon":139.78613},{"name":"セブン-イレブン　田原町駅前店","province":"東京都","city":"台東区","address":"東京都台東区寿2丁目10-10","lat":35.70956,"lon":139.79066},{"name":"smokers peace in ミマツ書房","province":"東京都","city":"台東区","address":"東京都台東区台東3丁目44-4","lat":35.70564,"lon":139.77756},{"name":"ファミリーマート　台東四丁目店","province":"東京都","city":"台東区","address":"東京都台東区台東4丁目30-6","lat":35.70725,"lon":139.77768},{"name":"paspa 上野","province":"東京都","city":"台東区","address":"東京都台東区上野7丁目4-3","lat":35.71284,"lon":139.778},{"name":"paspa 御徒町","province":"東京都","city":"台東区","address":"東京都台東区上野6丁目9-1","lat":35.70902,"lon":139.77537},{"name":"SMOKING & COFFEE BAR SMOCO","province":"東京都","city":"台東区","address":"東京都台東区雷門2丁目19-10","lat":35.710627,"lon":139.79721},{"name":"アメ横センタービル喫煙所","province":"東京都","city":"台東区","address":"東京都台東区上野4丁目7-2","lat":35.709078,"lon":139.77454},{"name":"松葉公園内","province":"東京都","city":"台東区","address":"東京都台東区松が谷1丁目12","lat":35.712137,"lon":139.78738},{"name":"台東区","province":"東京都","city":"台東区","address":"台東区東上野4-5-6","lat":35.7126069,"lon":139.7799844},{"name":"（有）竹内商店","province":"東京都","city":"台東区","address":"東京都台東区谷中6丁目3-9","lat":35.72346374,"lon":139.76886213},{"name":"（株）信興会","province":"東京都","city":"台東区","address":"東京都台東区上野桜木2丁目10-14","lat":35.72155569,"lon":139.77164258},{"name":"（株）そうかみ","province":"東京都","city":"台東区","address":"東京都台東区池之端4丁目18-4","lat":35.71952798,"lon":139.76941496},{"name":"（有）小泉桶甚本店","province":"東京都","city":"台東区","address":"東京都台東区下谷1丁目11-15","lat":35.71947836,"lon":139.78313624},{"name":"（有）鳥居本店","province":"東京都","city":"台東区","address":"東京都台東区下谷1丁目11-4","lat":35.7193256,"lon":139.78283349},{"name":"（有）染木商店","province":"東京都","city":"台東区","address":"東京都台東区竜泉1丁目22-6","lat":35.72426409,"lon":139.78956594},{"name":"（有）堀込葬祭","province":"東京都","city":"台東区","address":"東京都台東区千束3丁目16-5","lat":35.72160323,"lon":139.791427},{"name":"（有）小林花環店","province":"東京都","city":"台東区","address":"東京都台東区千束4丁目51-11","lat":35.72585259,"lon":139.79594269},{"name":"誠実屋　伊藤","province":"東京都","city":"台東区","address":"東京都台東区東浅草2丁目15-12","lat":35.72367021,"lon":139.80124868},{"name":"（有）金子商店","province":"東京都","city":"台東区","address":"東京都台東区清川1丁目33-5","lat":35.72612004,"lon":139.80211256},{"name":"（有）根岸商店","province":"東京都","city":"台東区","address":"東京都台東区今戸2丁目23-3","lat":35.72157095,"lon":139.80503222},{"name":"（有）川﨑商店","province":"東京都","city":"台東区","address":"東京都台東区西浅草2丁目3-13","lat":35.71233743,"lon":139.79016105},{"name":"（株）葬儀のうはら","province":"東京都","city":"台東区","address":"東京都台東区蔵前3丁目19-6","lat":35.70564366,"lon":139.79141157},{"name":"鳥越葬儀社神商店","province":"東京都","city":"台東区","address":"東京都台東区鳥越1丁目2-2","lat":35.70213558,"lon":139.78329568},{"name":"（有）東都葬祭福井","province":"東京都","city":"台東区","address":"東京都台東区台東3丁目42-4","lat":35.70558783,"lon":139.7763957},{"name":"台東区社会福祉協議会","province":"東京都","city":"台東区","address":"台東区下谷1-2-11","lat":35.71782,"lon":139.78169},{"name":"永寿総合病院","province":"東京都","city":"台東区","address":"東京都台東区東上野2丁目23-16","lat":35.7097486,"lon":139.77962864},{"name":"全国調理食品工業協同組合","province":"東京都","city":"台東区","address":"東京都台東区東上野3丁目1-10","lat":35.71013474,"lon":139.78245069},{"name":"都立上野恩賜公園","province":"東京都","city":"台東区","address":"東京都台東区上野公園8-51","lat":35.71725613,"lon":139.77445639},{"name":"全国調理食品工業協同組合","province":"東京都","city":"台東区","address":"東京都台東区東上野3丁目1-10","lat":35.71013474,"lon":139.78245069},{"name":"台東区立リバーサイドスポーツセンター少年野球場","province":"東京都","city":"台東区","address":"東京都台東区浅草7丁目1-22","lat":35.71665987,"lon":139.8037681},{"name":"永寿総合病院ヘリポート","province":"東京都","city":"台東区","address":"東京都台東区東上野2丁目23-16","lat":35.7097486,"lon":139.77962864},{"name":"都立上野恩賜公園正岡子規記念球場","province":"東京都","city":"台東区","address":"東京都台東区上野公園","lat":35.7181228,"lon":139.77786167},{"name":"台東区選挙管理委員会","province":"東京都","city":"台東区","address":"台東区東上野4-5-6","lat":35.712601,"lon":139.779959},{"name":"東京都美術館","province":"東京都","city":"台東区","address":"東京都台東区上野公園8-36","lat":35.71717831,"lon":139.77276484},{"name":"東京文化会館","province":"東京都","city":"台東区","address":"東京都台東区上野公園5-45","lat":35.71428974,"lon":139.77523145},{"name":"産業貿易センター台東館","province":"東京都","city":"台東区","address":"東京都台東区花川戸2丁目6-5","lat":35.71446242,"lon":139.79882124},{"name":"上野グリーンサロン","province":"東京都","city":"台東区","address":"東京都台東区上野公園7-47","lat":35.71500915,"lon":139.77625636},{"name":"浅草高等学校","province":"東京都","city":"台東区","address":"東京都台東区今戸1丁目8-13","lat":35.71908473,"lon":139.80254327},{"name":"忍岡高等学校","province":"東京都","city":"台東区","address":"東京都台東区浅草橋5丁目1-24","lat":35.70063851,"lon":139.78250968},{"name":"蔵前工業高等学校","province":"東京都","city":"台東区","address":"東京都台東区蔵前1丁目3-57","lat":35.70036646,"lon":139.79103716},{"name":"上野高等学校","province":"東京都","city":"台東区","address":"東京都台東区上野公園10-14","lat":35.71825035,"lon":139.76997053},{"name":"白鴎高等学校","province":"東京都","city":"台東区","address":"東京都台東区元浅草1丁目6-22","lat":35.70812107,"lon":139.78297858},{"name":"関東支社","province":"東京都","city":"台東区","address":"台東区北上野1-10-14","lat":35.71762,"lon":139.783},{"name":"東京地下鉄（株）","province":"東京都","city":"台東区","address":"台東区東上野3-19-6","lat":35.71153,"lon":139.7779},{"name":"首都圏新都市鉄道（株）","province":"東京都","city":"台東区","address":"台東区台東4-25-7","lat":35.70697,"lon":139.7812},{"name":"ＮＴＴコミュニケーションズ（株）白鬚ビル","province":"東京都","city":"台東区","address":"台東区清川2-25-19","lat":35.72815,"lon":139.8035},{"name":"台東区社会福祉協議会","province":"東京都","city":"台東区","address":"台東区下谷1-2-11","lat":35.717837,"lon":139.781742},{"name":"台東区社会福祉協議会","province":"東京都","city":"台東区","address":"台東区下谷1-2-11","lat":35.71782,"lon":139.78169},{"name":"永寿総合病院","province":"東京都","city":"台東区","address":"東京都台東区東上野2丁目23-16","lat":35.7097486,"lon":139.77962864},{"name":"全国調理食品工業協同組合","province":"東京都","city":"台東区","address":"東京都台東区東上野3丁目1-10","lat":35.71013474,"lon":139.78245069},{"name":"都立上野恩賜公園","province":"東京都","city":"台東区","address":"東京都台東区上野公園8-51","lat":35.71725613,"lon":139.77445639},{"name":"全国調理食品工業協同組合","province":"東京都","city":"台東区","address":"東京都台東区東上野3丁目1-10","lat":35.71013474,"lon":139.78245069},{"name":"台東区立リバーサイドスポーツセンター少年野球場","province":"東京都","city":"台東区","address":"東京都台東区浅草7丁目1-22","lat":35.71665987,"lon":139.8037681},{"name":"永寿総合病院ヘリポート","province":"東京都","city":"台東区","address":"東京都台東区東上野2丁目23-16","lat":35.7097486,"lon":139.77962864},{"name":"都立上野恩賜公園正岡子規記念球場","province":"東京都","city":"台東区","address":"東京都台東区上野公園","lat":35.7181228,"lon":139.77786167},{"name":"東京都美術館","province":"東京都","city":"台東区","address":"東京都台東区上野公園8-36","lat":35.71717831,"lon":139.77276484},{"name":"東京文化会館","province":"東京都","city":"台東区","address":"東京都台東区上野公園5-45","lat":35.71428974,"lon":139.77523145},{"name":"産業貿易センター台東館","province":"東京都","city":"台東区","address":"東京都台東区花川戸2丁目6-5","lat":35.71446242,"lon":139.79882124},{"name":"上野グリーンサロン","province":"東京都","city":"台東区","address":"東京都台東区上野公園7-47","lat":35.71500915,"lon":139.77625636},{"name":"浅草高等学校","province":"東京都","city":"台東区","address":"東京都台東区今戸1丁目8-13","lat":35.71908473,"lon":139.80254327},{"name":"忍岡高等学校","province":"東京都","city":"台東区","address":"東京都台東区浅草橋5丁目1-24","lat":35.70063851,"lon":139.78250968},{"name":"蔵前工業高等学校","province":"東京都","city":"台東区","address":"東京都台東区蔵前1丁目3-57","lat":35.70036646,"lon":139.79103716},{"name":"上野高等学校","province":"東京都","city":"台東区","address":"東京都台東区上野公園10-14","lat":35.71825035,"lon":139.76997053},{"name":"白鴎高等学校","province":"東京都","city":"台東区","address":"東京都台東区元浅草1丁目6-22","lat":35.70812107,"lon":139.78297858},{"name":"関東支社","province":"東京都","city":"台東区","address":"台東区北上野1-10-14","lat":35.71762,"lon":139.783},{"name":"東京地下鉄（株）","province":"東京都","city":"台東区","address":"台東区東上野3-19-6","lat":35.71153,"lon":139.7779},{"name":"首都圏新都市鉄道（株）","province":"東京都","city":"台東区","address":"台東区台東4-25-7","lat":35.70697,"lon":139.7812},{"name":"ＮＴＴコミュニケーションズ（株）白鬚ビル","province":"東京都","city":"台東区","address":"台東区清川2-25-19","lat":35.72815,"lon":139.8035},{"name":"永寿総合病院","province":"東京都","city":"台東区","address":"東京都台東区東上野2丁目23-16","lat":35.7097486,"lon":139.77962864},{"name":"全国調理食品工業協同組合","province":"東京都","city":"台東区","address":"東京都台東区東上野3丁目1-10","lat":35.71013474,"lon":139.78245069},{"name":"全国調理食品工業協同組合","province":"東京都","city":"台東区","address":"東京都台東区東上野3丁目1-10","lat":35.71013474,"lon":139.78245069},{"name":"東京都美術館","province":"東京都","city":"台東区","address":"東京都台東区上野公園8-36","lat":35.71717831,"lon":139.77276484},{"name":"東京文化会館","province":"東京都","city":"台東区","address":"東京都台東区上野公園5-45","lat":35.71428974,"lon":139.77523145},{"name":"産業貿易センター台東館","province":"東京都","city":"台東区","address":"東京都台東区花川戸2丁目6-5","lat":35.71446242,"lon":139.79882124},{"name":"上野グリーンサロン","province":"東京都","city":"台東区","address":"東京都台東区上野公園7-47","lat":35.71500915,"lon":139.77625636},{"name":"浅草高等学校","province":"東京都","city":"台東区","address":"東京都台東区今戸1丁目8-13","lat":35.71908473,"lon":139.80254327},{"name":"忍岡高等学校","province":"東京都","city":"台東区","address":"東京都台東区浅草橋5丁目1-24","lat":35.70063851,"lon":139.78250968},{"name":"蔵前工業高等学校","province":"東京都","city":"台東区","address":"東京都台東区蔵前1丁目3-57","lat":35.70036646,"lon":139.79103716},{"name":"上野高等学校","province":"東京都","city":"台東区","address":"東京都台東区上野公園10-14","lat":35.71825035,"lon":139.76997053},{"name":"白鴎高等学校","province":"東京都","city":"台東区","address":"東京都台東区元浅草1丁目6-22","lat":35.70812107,"lon":139.78297858},{"name":"永寿総合病院","province":"東京都","city":"台東区","address":"東京都台東区東上野2丁目23-16","lat":35.7097486,"lon":139.77962864},{"name":"全国調理食品工業協同組合","province":"東京都","city":"台東区","address":"東京都台東区東上野3丁目1-10","lat":35.71013474,"lon":139.78245069},{"name":"全国調理食品工業協同組合","province":"東京都","city":"台東区","address":"東京都台東区東上野3丁目1-10","lat":35.71013474,"lon":139.78245069},{"name":"東京都美術館","province":"東京都","city":"台東区","address":"東京都台東区上野公園8-36","lat":35.71717831,"lon":139.77276484},{"name":"東京文化会館","province":"東京都","city":"台東区","address":"東京都台東区上野公園5-45","lat":35.71428974,"lon":139.77523145},{"name":"産業貿易センター台東館","province":"東京都","city":"台東区","address":"東京都台東区花川戸2丁目6-5","lat":35.71446242,"lon":139.79882124},{"name":"上野グリーンサロン","province":"東京都","city":"台東区","address":"東京都台東区上野公園7-47","lat":35.71500915,"lon":139.77625636},{"name":"浅草高等学校","province":"東京都","city":"台東区","address":"東京都台東区今戸1丁目8-13","lat":35.71908473,"lon":139.80254327},{"name":"忍岡高等学校","province":"東京都","city":"台東区","address":"東京都台東区浅草橋5丁目1-24","lat":35.70063851,"lon":139.78250968},{"name":"蔵前工業高等学校","province":"東京都","city":"台東区","address":"東京都台東区蔵前1丁目3-57","lat":35.70036646,"lon":139.79103716},{"name":"上野高等学校","province":"東京都","city":"台東区","address":"東京都台東区上野公園10-14","lat":35.71825035,"lon":139.76997053},{"name":"白鴎高等学校","province":"東京都","city":"台東区","address":"東京都台東区元浅草1丁目6-22","lat":35.70812107,"lon":139.78297858}]}