{"keyword":"放課後","data":[{"name":"スマートキッズプラス南千住","province":"東京都","city":"台東区","address":"台東区竜泉3-40-6ハイツエスポワール1階","lat":35.72668,"lon":139.792232},{"name":"ユニゾン上野","province":"東京都","city":"台東区","address":"台東区北上野1-8-5ビリーフ上野1階","lat":35.717258,"lon":139.782166},{"name":"オアゾ子供クラブ","province":"東京都","city":"台東区","address":"台東区北上野2-25-8","lat":35.718465,"lon":139.785217},{"name":"結ふる美谷東京","province":"東京都","city":"台東区","address":"台東区東上野1丁目25番8号萬屋ビル3階","lat":35.708615,"lon":139.780323},{"name":"つばさ放課後クラブ","province":"東京都","city":"台東区","address":"台東区千束3-28-13千束保健福祉センター6階","lat":35.723086,"lon":139.793627},{"name":"ＳＴＥＰ浅草","province":"東京都","city":"台東区","address":"台東区浅草4-38-4ヤチヨハイム1階","lat":35.719104,"lon":139.795521},{"name":"台東区松が谷福祉会館","province":"東京都","city":"台東区","address":"台東区松が谷1-4-12","lat":35.711304,"lon":139.785425},{"name":"コラゾン台東","province":"東京都","city":"台東区","address":"台東区浅草橋5-2-3柳北ビル2階","lat":35.699216,"lon":139.781546},{"name":"コラゾン浅草橋","province":"東京都","city":"台東区","address":"台東区浅草橋1-2-8マルイチビル7階","lat":35.696525,"lon":139.784235},{"name":"スマートキッズジュニア元浅草","province":"東京都","city":"台東区","address":"台東区鳥越1-22-5平岡ビル2階","lat":35.703505,"lon":139.781437}]}