{"keyword":"文化","data":[{"name":"浅草観音戒殺碑","province":"東京都","city":"台東区","address":"東京都台東区雷門2-2","lat":35.708966,"lon":139.796628},{"name":"六地蔵石燈籠","province":"東京都","city":"台東区","address":"東京都台東区浅草2-3-1","lat":35.713968,"lon":139.796449},{"name":"玉川庄右衛門及び同清右衛門墓","province":"東京都","city":"台東区","address":"東京都台東区松が谷2-3-3","lat":35.712818,"lon":139.786553},{"name":"大久保主水墓","province":"東京都","city":"台東区","address":"東京都台東区谷中4-2-5","lat":35.723166,"lon":139.767734},{"name":"谷文晁墓","province":"東京都","city":"台東区","address":"東京都台東区東上野6-18-12","lat":35.714121,"lon":139.784692},{"name":"慈海僧正墓","province":"東京都","city":"台東区","address":"東京都台東区上野桜木1-14-11","lat":35.721453,"lon":139.774204},{"name":"葛飾北斎墓","province":"東京都","city":"台東区","address":"東京都台東区元浅草4-6-9","lat":35.709788,"lon":139.785434},{"name":"了翁禅師塔碑","province":"東京都","city":"台東区","address":"東京都台東区上野桜木1-14-11","lat":35.721453,"lon":139.774204},{"name":"天海僧正毛髪塔","province":"東京都","city":"台東区","address":"東京都台東区上野公園1","lat":35.712679,"lon":139.774237},{"name":"樋口定伊墓","province":"東京都","city":"台東区","address":"東京都台東区池之端2-5-30","lat":35.716972,"lon":139.765079},{"name":"山岡鉄舟墓","province":"東京都","city":"台東区","address":"東京都台東区谷中5-4-7","lat":35.724189,"lon":139.766754},{"name":"三遊亭円朝墓","province":"東京都","city":"台東区","address":"東京都台東区谷中5-4-7","lat":35.724189,"lon":139.766754}]}