{"keyword":"時","data":[{"name":"上野小学校","province":"東京都","city":"台東区","address":"東京都台東区東上野6-16-8","lat":35.713688,"lon":139.783112},{"name":"平成小学校","province":"東京都","city":"台東区","address":"東京都台東区台東4-21-15","lat":35.706608,"lon":139.780212},{"name":"根岸小学校","province":"東京都","city":"台東区","address":"東京都台東区根岸3-9-8","lat":35.839325,"lon":139.662094},{"name":"東泉小学校","province":"東京都","city":"台東区","address":"東京都台東区三ノ輪1-23-9","lat":35.728325,"lon":139.791946},{"name":"忍岡小学校","province":"東京都","city":"台東区","address":"東京都台東区池之端2-1-22","lat":35.713993,"lon":139.766296},{"name":"谷中小学校","province":"東京都","city":"台東区","address":"東京都台東区谷中2-9-16","lat":35.776318,"lon":139.833298},{"name":"金曽木小学校","province":"東京都","city":"台東区","address":"東京都台東区根岸4-16-22","lat":35.725914,"lon":139.785278},{"name":"黒門小学校","province":"東京都","city":"台東区","address":"東京都台東区上野1-16-20","lat":35.706875,"lon":139.771515},{"name":"大正小学校","province":"東京都","city":"台東区","address":"東京都台東区入谷2-23-8","lat":35.810207,"lon":139.763199},{"name":"浅草小学校","province":"東京都","city":"台東区","address":"東京都台東区花川戸1-14-15","lat":35.713947,"lon":139.799438},{"name":"台東育英小学校","province":"東京都","city":"台東区","address":"東京都台東区浅草橋2-26-8","lat":35.700176,"lon":139.785522},{"name":"蔵前小学校","province":"東京都","city":"台東区","address":"東京都台東区蔵前4-19-11","lat":35.70462,"lon":139.789398},{"name":"東浅草小学校","province":"東京都","city":"台東区","address":"東京都台東区東浅草2-27-19","lat":35.72456,"lon":139.798569},{"name":"富士小学校","province":"東京都","city":"台東区","address":"東京都台東区浅草4-48-9","lat":35.718922,"lon":139.798248},{"name":"松葉小学校","province":"東京都","city":"台東区","address":"東京都台東区松が谷1-13-16","lat":35.712242,"lon":139.786926},{"name":"千束小学校","province":"東京都","city":"台東区","address":"東京都台東区浅草4-24-11","lat":35.719379,"lon":139.793869},{"name":"石浜小学校","province":"東京都","city":"台東区","address":"東京都台東区清川1-14-21","lat":35.725018,"lon":139.80423},{"name":"田原小学校","province":"東京都","city":"台東区","address":"東京都台東区雷門1-5-14","lat":35.710236,"lon":139.793045},{"name":"金竜小学校","province":"東京都","city":"台東区","address":"東京都台東区千束1-9-9","lat":35.718483,"lon":139.789505},{"name":"旧下谷小学校","province":"東京都","city":"台東区","address":"東京都台東区東上野4-7-9","lat":35.713081,"lon":139.779587},{"name":"旧柳北小学校","province":"東京都","city":"台東区","address":"東京都台東区浅草橋5-1-35","lat":35.699646,"lon":139.783142},{"name":"台東区中小企業振興センター","province":"東京都","city":"台東区","address":"東京都台東区小島2-9-18","lat":35.706062,"lon":139.784302},{"name":"たなか多目的センター","province":"東京都","city":"台東区","address":"東京都台東区日本堤2-25-4","lat":35.727772,"lon":139.797363},{"name":"ことぶきこども園","province":"東京都","city":"台東区","address":"東京都台東区寿1-10-9","lat":42.830894,"lon":141.686371},{"name":"御徒町台東中学校","province":"東京都","city":"台東区","address":"東京都台東区台東4-13-16","lat":35.707054,"lon":139.777481},{"name":"柏葉中学校","province":"東京都","city":"台東区","address":"東京都台東区下谷3-1-29","lat":35.723251,"lon":139.786255},{"name":"上野中学校","province":"東京都","city":"台東区","address":"東京都台東区上野桜木1-14-55","lat":35.721287,"lon":139.775253},{"name":"忍岡中学校","province":"東京都","city":"台東区","address":"東京都台東区上野公園18-20","lat":35.719437,"lon":139.778809},{"name":"浅草中学校","province":"東京都","city":"台東区","address":"東京都台東区蔵前1-3-4","lat":35.699577,"lon":139.789902},{"name":"駒形中学校","province":"東京都","city":"台東区","address":"東京都台東区北上野2-15-1","lat":35.717178,"lon":139.784317},{"name":"桜橋中学校","province":"東京都","city":"台東区","address":"東京都台東区今戸2-1-8","lat":35.720776,"lon":139.806732},{"name":"白?高等学校附属中学校","province":"東京都","city":"台東区","address":"東京都台東区元浅草3-12-12","lat":35.70734,"lon":139.787598},{"name":"白?高等学校","province":"東京都","city":"台東区","address":"東京都台東区元浅草1-6-22","lat":35.708439,"lon":139.78302},{"name":"忍岡高等学校","province":"東京都","city":"台東区","address":"東京都台東区浅草橋5-1-24","lat":35.700806,"lon":139.783218},{"name":"浅草高等学校","province":"東京都","city":"台東区","address":"東京都台東区今戸1-8-13","lat":35.719707,"lon":139.803101},{"name":"蔵前工業高等学校","province":"東京都","city":"台東区","address":"東京都台東区蔵前1-3-57","lat":35.699936,"lon":139.790985},{"name":"上野高等学校","province":"東京都","city":"台東区","address":"東京都台東区上野公園10-14","lat":35.719238,"lon":139.769653},{"name":"台東一丁目区民館","province":"東京都","city":"台東区","address":"東京都台東区台東1-25-5","lat":35.701527,"lon":139.777618},{"name":"東上野区民館","province":"東京都","city":"台東区","address":"東京都台東区東上野3-24-6","lat":35.711369,"lon":139.779602},{"name":"老人福祉センター","province":"東京都","city":"台東区","address":"東京都台東区東上野2-25-14","lat":35.709518,"lon":139.781677},{"name":"生涯学習センター","province":"東京都","city":"台東区","address":"東京都台東区西浅草3-25-16","lat":35.717503,"lon":139.789352},{"name":"産業研修センター","province":"東京都","city":"台東区","address":"東京都台東区橋場1-36-2","lat":35.723991,"lon":139.808075},{"name":"福祉プラザ台東清峰会","province":"東京都","city":"台東区","address":"東京都台東区清川2-14-7","lat":35.389606,"lon":139.964645}]}