{"keyword":"総務","data":[{"name":"台東区立リバーサイドスポーツセンター少年野球場","province":"東京都","city":"台東区","address":"東京都台東区浅草7丁目1-22","lat":35.71665987,"lon":139.8037681},{"name":"永寿総合病院ヘリポート","province":"東京都","city":"台東区","address":"東京都台東区東上野2丁目23-16","lat":35.7097486,"lon":139.77962864},{"name":"都立上野恩賜公園正岡子規記念球場","province":"東京都","city":"台東区","address":"東京都台東区上野公園","lat":35.7181228,"lon":139.77786167},{"name":"東京都美術館","province":"東京都","city":"台東区","address":"東京都台東区上野公園8-36","lat":35.71717831,"lon":139.77276484},{"name":"東京文化会館","province":"東京都","city":"台東区","address":"東京都台東区上野公園5-45","lat":35.71428974,"lon":139.77523145},{"name":"産業貿易センター台東館","province":"東京都","city":"台東区","address":"東京都台東区花川戸2丁目6-5","lat":35.71446242,"lon":139.79882124},{"name":"上野グリーンサロン","province":"東京都","city":"台東区","address":"東京都台東区上野公園7-47","lat":35.71500915,"lon":139.77625636},{"name":"浅草高等学校","province":"東京都","city":"台東区","address":"東京都台東区今戸1丁目8-13","lat":35.71908473,"lon":139.80254327},{"name":"忍岡高等学校","province":"東京都","city":"台東区","address":"東京都台東区浅草橋5丁目1-24","lat":35.70063851,"lon":139.78250968},{"name":"蔵前工業高等学校","province":"東京都","city":"台東区","address":"東京都台東区蔵前1丁目3-57","lat":35.70036646,"lon":139.79103716},{"name":"上野高等学校","province":"東京都","city":"台東区","address":"東京都台東区上野公園10-14","lat":35.71825035,"lon":139.76997053},{"name":"白鴎高等学校","province":"東京都","city":"台東区","address":"東京都台東区元浅草1丁目6-22","lat":35.70812107,"lon":139.78297858}]}