{"keyword":"自転車","data":[{"name":"鶯谷第１自転車駐車場","province":"東京都","city":"台東区","address":"東京都台東区根岸1丁目5","lat":35.72196975,"lon":139.77896705},{"name":"鶯谷第５自転車駐車場","province":"東京都","city":"台東区","address":"東京都台東区根岸2丁目3-15","lat":35.72388344,"lon":139.77683939},{"name":"御徒町自転車駐車場","province":"東京都","city":"台東区","address":"東京都台東区台東4丁目8","lat":35.7059739,"lon":139.77660678},{"name":"御徒町駅南口自転車駐車場","province":"東京都","city":"台東区","address":"東京都台東区上野5丁目21","lat":35.70624883,"lon":139.77488739},{"name":"御徒町南口駅前広場自転車駐車場","province":"東京都","city":"台東区","address":"東京都台東区上野3丁目26","lat":35.70658767,"lon":139.77394852},{"name":"仲御徒町駅自転車駐車場","province":"東京都","city":"台東区","address":"東京都台東区東上野1丁目14","lat":35.70835144,"lon":139.77617889},{"name":"上野駅中央口前自転車置場","province":"東京都","city":"台東区","address":"東京都台東区上野7丁目1","lat":35.71344263,"lon":139.77682304},{"name":"上野駅浅草口前自転車置場","province":"東京都","city":"台東区","address":"東京都台東区上野7丁目3","lat":35.71250107,"lon":139.77777858},{"name":"上野駅地下鉄本社前自転車置場","province":"東京都","city":"台東区","address":"東京都台東区東上野3丁目19","lat":35.7114595,"lon":139.77802306},{"name":"上野駅南自転車駐車場","province":"東京都","city":"台東区","address":"東京都台東区上野6丁目7","lat":35.70929023,"lon":139.77603996},{"name":"上野駅南自転車置場","province":"東京都","city":"台東区","address":"東京都台東区上野6丁目7","lat":35.70929023,"lon":139.77603996},{"name":"池之端自転車置場","province":"東京都","city":"台東区","address":"東京都台東区池之端1丁目1","lat":35.70905117,"lon":139.76947084},{"name":"入谷自転車駐車場","province":"東京都","city":"台東区","address":"東京都台東区入谷1丁目17","lat":35.72086164,"lon":139.78492216},{"name":"三ノ輪自転車駐車場","province":"東京都","city":"台東区","address":"東京都台東区三ノ輪1丁目27-11","lat":35.72924965,"lon":139.7921931},{"name":"三ノ輪自転車置場","province":"東京都","city":"台東区","address":"東京都台東区三ノ輪2丁目15","lat":35.73076629,"lon":139.79220985},{"name":"隅田公園自転車駐車場","province":"東京都","city":"台東区","address":"東京都台東区花川戸1丁目1","lat":35.71200148,"lon":139.79942123},{"name":"隅田公園自転車置場","province":"東京都","city":"台東区","address":"東京都台東区花川戸1丁目1","lat":35.71200148,"lon":139.79942123},{"name":"新御徒町駅自転車駐車場","province":"東京都","city":"台東区","address":"東京都台東区小島2丁目21","lat":35.70675454,"lon":139.78296479},{"name":"蔵前自転車駐車場","province":"東京都","city":"台東区","address":"東京都台東区蔵前3丁目13-11","lat":35.7047771,"lon":139.79248103},{"name":"駒形自転車駐車場","province":"東京都","city":"台東区","address":"東京都台東区駒形1丁目1-5","lat":35.7057409,"lon":139.79304479},{"name":"厩橋自転車置場","province":"東京都","city":"台東区","address":"東京都台東区駒形2丁目1","lat":35.70837957,"lon":139.79662758},{"name":"日暮里駅西口自転車置場","province":"東京都","city":"台東区","address":"東京都台東区谷中7丁目15-23","lat":35.72700243,"lon":139.77090918},{"name":"つくばエクスプレス浅草駅北自転車駐車場","province":"東京都","city":"台東区","address":"東京都台東区浅草2丁目13","lat":35.71562328,"lon":139.7928856},{"name":"つくばエクスプレス浅草駅南自転車駐車場","province":"東京都","city":"台東区","address":"東京都台東区浅草1丁目25-15","lat":35.71288186,"lon":139.79276079},{"name":"不忍池自転車駐車場","province":"東京都","city":"台東区","address":"東京都台東区上野公園2-1","lat":35.7123898,"lon":139.77117618},{"name":"上野駅西自転車置場","province":"東京都","city":"台東区","address":"東京都台東区上野6丁目16","lat":35.71072342,"lon":139.77618987},{"name":"上野駅東自転車置場","province":"東京都","city":"台東区","address":"東京都台東区東上野3丁目18","lat":35.71110674,"lon":139.77744256},{"name":"入谷駅南自転車等駐車場","province":"東京都","city":"台東区","address":"東京都台東区北上野1丁目15","lat":35.71868121,"lon":139.78324738},{"name":"稲荷町自転車駐車場","province":"東京都","city":"台東区","address":"東京都台東区東上野5丁目1","lat":35.71180401,"lon":139.78234503},{"name":"鶯谷第２自転車駐車場","province":"東京都","city":"台東区","address":"東京都台東区根岸1丁目9","lat":35.72293632,"lon":139.77777823},{"name":"鶯谷第３自転車駐車場","province":"東京都","city":"台東区","address":"東京都台東区根岸1丁目10-13","lat":35.72326683,"lon":139.77718104},{"name":"鶯谷第４自転車駐車場","province":"東京都","city":"台東区","address":"東京都台東区根岸2丁目2","lat":35.72367791,"lon":139.7773338},{"name":"TOBU PARK浅草駅前駐輪場","province":"東京都","city":"台東区","address":"東京都台東区花川戸1丁目5","lat":35.71207089,"lon":139.79778536},{"name":"TOBU PARK浅草駅前第２駐輪場","province":"東京都","city":"台東区","address":"東京都台東区花川戸1丁目6-7","lat":35.71246254,"lon":139.79827416},{"name":"ヒューリック浅草橋ビル駐輪場","province":"東京都","city":"台東区","address":"東京都台東区浅草橋1丁目22-16","lat":35.69790552,"lon":139.78442928},{"name":"入谷自転車駐車場","province":"東京都","city":"台東区","address":"台東区入谷1丁目17番","lat":35.72057264,"lon":139.7846958}]}