{"keyword":"葬儀","data":[{"name":"（有）竹内商店","province":"東京都","city":"台東区","address":"東京都台東区谷中6丁目3-9","lat":35.72346374,"lon":139.76886213},{"name":"（株）信興会","province":"東京都","city":"台東区","address":"東京都台東区上野桜木2丁目10-14","lat":35.72155569,"lon":139.77164258},{"name":"（株）そうかみ","province":"東京都","city":"台東区","address":"東京都台東区池之端4丁目18-4","lat":35.71952798,"lon":139.76941496},{"name":"（有）小泉桶甚本店","province":"東京都","city":"台東区","address":"東京都台東区下谷1丁目11-15","lat":35.71947836,"lon":139.78313624},{"name":"（有）鳥居本店","province":"東京都","city":"台東区","address":"東京都台東区下谷1丁目11-4","lat":35.7193256,"lon":139.78283349},{"name":"（有）染木商店","province":"東京都","city":"台東区","address":"東京都台東区竜泉1丁目22-6","lat":35.72426409,"lon":139.78956594},{"name":"（有）堀込葬祭","province":"東京都","city":"台東区","address":"東京都台東区千束3丁目16-5","lat":35.72160323,"lon":139.791427},{"name":"（有）小林花環店","province":"東京都","city":"台東区","address":"東京都台東区千束4丁目51-11","lat":35.72585259,"lon":139.79594269},{"name":"誠実屋　伊藤","province":"東京都","city":"台東区","address":"東京都台東区東浅草2丁目15-12","lat":35.72367021,"lon":139.80124868},{"name":"（有）金子商店","province":"東京都","city":"台東区","address":"東京都台東区清川1丁目33-5","lat":35.72612004,"lon":139.80211256},{"name":"（有）根岸商店","province":"東京都","city":"台東区","address":"東京都台東区今戸2丁目23-3","lat":35.72157095,"lon":139.80503222},{"name":"（有）川﨑商店","province":"東京都","city":"台東区","address":"東京都台東区西浅草2丁目3-13","lat":35.71233743,"lon":139.79016105},{"name":"（株）葬儀のうはら","province":"東京都","city":"台東区","address":"東京都台東区蔵前3丁目19-6","lat":35.70564366,"lon":139.79141157},{"name":"鳥越葬儀社神商店","province":"東京都","city":"台東区","address":"東京都台東区鳥越1丁目2-2","lat":35.70213558,"lon":139.78329568},{"name":"（有）東都葬祭福井","province":"東京都","city":"台東区","address":"東京都台東区台東3丁目42-4","lat":35.70558783,"lon":139.7763957}]}