{"keyword":"財団","data":[{"name":"NewWork上野","province":"東京都","city":"台東区","address":"東京都台東区上野7丁目4-7","lat":35.7129927,"lon":139.77830908},{"name":"H1T浅草橋","province":"東京都","city":"台東区","address":"東京都台東区柳橋1丁目20-4","lat":35.69758338,"lon":139.7869348},{"name":"東京電力（株）上野支社","province":"東京都","city":"台東区","address":"台東区竜泉2-18-6","lat":35.72728,"lon":139.7899},{"name":"NewWork上野","province":"東京都","city":"台東区","address":"東京都台東区上野7丁目4-7","lat":35.7129927,"lon":139.77830908},{"name":"H1T浅草橋","province":"東京都","city":"台東区","address":"東京都台東区柳橋1丁目20-4","lat":35.69758338,"lon":139.7869348},{"name":"東京電力（株）上野支社","province":"東京都","city":"台東区","address":"台東区竜泉2-18-6","lat":35.72728,"lon":139.7899},{"name":"NewWork上野","province":"東京都","city":"台東区","address":"東京都台東区上野7丁目4-7","lat":35.7129927,"lon":139.77830908},{"name":"H1T浅草橋","province":"東京都","city":"台東区","address":"東京都台東区柳橋1丁目20-4","lat":35.69758338,"lon":139.7869348},{"name":"東京電力（株）上野支社","province":"東京都","city":"台東区","address":"台東区竜泉2-18-6","lat":35.72728,"lon":139.7899},{"name":"NewWork上野","province":"東京都","city":"台東区","address":"東京都台東区上野7丁目4-7","lat":35.7129927,"lon":139.77830908},{"name":"H1T浅草橋","province":"東京都","city":"台東区","address":"東京都台東区柳橋1丁目20-4","lat":35.69758338,"lon":139.7869348},{"name":"東京電力（株）上野支社","province":"東京都","city":"台東区","address":"台東区竜泉2-18-6","lat":35.72728,"lon":139.7899},{"name":"東京電力（株）上野支社","province":"東京都","city":"台東区","address":"台東区竜泉2-18-6","lat":35.72728,"lon":139.7899},{"name":"東京電力（株）上野支社","province":"東京都","city":"台東区","address":"台東区竜泉2-18-6","lat":35.72728,"lon":139.7899},{"name":"東京電力（株）上野支社","province":"東京都","city":"台東区","address":"台東区竜泉2-18-6","lat":35.72728,"lon":139.7899},{"name":"東京電力（株）上野支社","province":"東京都","city":"台東区","address":"台東区竜泉2-18-6","lat":35.72728,"lon":139.7899},{"name":"東京電力（株）上野支社","province":"東京都","city":"台東区","address":"台東区竜泉2-18-6","lat":35.72728,"lon":139.7899},{"name":"東京電力（株）上野支社","province":"東京都","city":"台東区","address":"台東区竜泉2-18-6","lat":35.72728,"lon":139.7899},{"name":"東京電力（株）上野支社","province":"東京都","city":"台東区","address":"台東区竜泉2-18-6","lat":35.72728,"lon":139.7899},{"name":"東京電力（株）上野支社","province":"東京都","city":"台東区","address":"台東区竜泉2-18-6","lat":35.72728,"lon":139.7899},{"name":"東京電力（株）上野支社","province":"東京都","city":"台東区","address":"台東区竜泉2-18-6","lat":35.72728,"lon":139.7899},{"name":"東京電力（株）上野支社","province":"東京都","city":"台東区","address":"台東区竜泉2-18-6","lat":35.72728,"lon":139.7899},{"name":"東京電力（株）上野支社","province":"東京都","city":"台東区","address":"台東区竜泉2-18-6","lat":35.72728,"lon":139.7899},{"name":"東京電力（株）上野支社","province":"東京都","city":"台東区","address":"台東区竜泉2-18-6","lat":35.72728,"lon":139.7899},{"name":"東京電力（株）上野支社","province":"東京都","city":"台東区","address":"台東区竜泉2-18-6","lat":35.72728,"lon":139.7899},{"name":"東京電力（株）上野支社","province":"東京都","city":"台東区","address":"台東区竜泉2-18-6","lat":35.72728,"lon":139.7899},{"name":"東京電力（株）上野支社","province":"東京都","city":"台東区","address":"台東区竜泉2-18-6","lat":35.72728,"lon":139.7899},{"name":"東京電力（株）上野支社","province":"東京都","city":"台東区","address":"台東区竜泉2-18-6","lat":35.72728,"lon":139.7899},{"name":"東京電力（株）上野支社","province":"東京都","city":"台東区","address":"台東区竜泉2-18-6","lat":35.72728,"lon":139.7899},{"name":"東京電力（株）上野支社","province":"東京都","city":"台東区","address":"台東区竜泉2-18-6","lat":35.72728,"lon":139.7899},{"name":"東京電力（株）上野支社","province":"東京都","city":"台東区","address":"台東区竜泉2-18-6","lat":35.72728,"lon":139.7899},{"name":"東京電力（株）上野支社","province":"東京都","city":"台東区","address":"台東区竜泉2-18-6","lat":35.72728,"lon":139.7899},{"name":"東京電力（株）上野支社","province":"東京都","city":"台東区","address":"台東区竜泉2-18-6","lat":35.72728,"lon":139.7899},{"name":"東京電力（株）上野支社","province":"東京都","city":"台東区","address":"台東区竜泉2-18-6","lat":35.72728,"lon":139.7899},{"name":"東京電力（株）上野支社","province":"東京都","city":"台東区","address":"台東区竜泉2-18-6","lat":35.72728,"lon":139.7899},{"name":"東京電力（株）上野支社","province":"東京都","city":"台東区","address":"台東区竜泉2-18-6","lat":35.72728,"lon":139.7899},{"name":"東京電力（株）上野支社","province":"東京都","city":"台東区","address":"台東区竜泉2-18-6","lat":35.72728,"lon":139.7899},{"name":"東京電力（株）上野支社","province":"東京都","city":"台東区","address":"台東区竜泉2-18-6","lat":35.72728,"lon":139.7899},{"name":"東京電力（株）上野支社","province":"東京都","city":"台東区","address":"台東区竜泉2-18-6","lat":35.72728,"lon":139.7899}]}