{"keyword":"館","data":[{"name":"台東区立谷中児童館","province":"東京都","city":"台東区","address":"台東区谷中5-6-5谷中防災コミュニティセンター内","lat":35.725661,"lon":139.766604},{"name":"池之端児童館","province":"東京都","city":"台東区","address":"台東区池之端2-3-3","lat":35.714681,"lon":139.766826},{"name":"台東児童館","province":"東京都","city":"台東区","address":"台東区台東1-11-5","lat":35.706335,"lon":139.771118},{"name":"玉姫児童館","province":"東京都","city":"台東区","address":"台東区清川2-24-9","lat":35.72799,"lon":139.804313},{"name":"今戸児童館","province":"東京都","city":"台東区","address":"台東区今戸1-3-6","lat":35.719441,"lon":139.804674},{"name":"千束児童館","province":"東京都","city":"台東区","address":"台東区千束3-20-6","lat":35.722417,"lon":139.792718},{"name":"松が谷児童館","province":"東京都","city":"台東区","address":"台東区松が谷4-15-11","lat":35.71862,"lon":139.786278},{"name":"寿児童館","province":"東京都","city":"台東区","address":"台東区寿1-4-5","lat":35.706774,"lon":139.789959},{"name":"中央図書館","province":"東京都","city":"台東区","address":"東京都台東区西浅草3丁目25-16","lat":35.71752307,"lon":139.78958856},{"name":"中央図書館浅草橋分室","province":"東京都","city":"台東区","address":"東京都台東区浅草橋2丁目8-7","lat":35.69952476,"lon":139.78335974},{"name":"中央図書館谷中分室","province":"東京都","city":"台東区","address":"東京都台東区谷中5丁目6-5","lat":35.72566343,"lon":139.7666011},{"name":"根岸図書館","province":"東京都","city":"台東区","address":"東京都台東区根岸5丁目18-13","lat":35.72901363,"lon":139.79050725},{"name":"くらまえオレンジ図書館","province":"東京都","city":"台東区","address":"東京都台東区蔵前4丁目14-6","lat":35.70381049,"lon":139.78965352},{"name":"すこやかとしょしつ","province":"東京都","city":"台東区","address":"東京都台東区東上野4丁目22-8","lat":35.71447043,"lon":139.78151994},{"name":"谷中児童館","province":"東京都","city":"台東区","address":"台東区谷中5-6-5谷中防災コミュニティセンター内","lat":35.72578,"lon":139.76668},{"name":"池之端児童館","province":"東京都","city":"台東区","address":"台東区池之端2-3-3","lat":35.7149,"lon":139.76691},{"name":"台東児童館","province":"東京都","city":"台東区","address":"台東区台東1-11-5","lat":35.70124,"lon":139.77644},{"name":"玉姫児童館","province":"東京都","city":"台東区","address":"台東区清川2-22-13","lat":35.72741,"lon":139.80383},{"name":"今戸児童館","province":"東京都","city":"台東区","address":"台東区今戸1-3-6","lat":35.71895,"lon":139.80467},{"name":"千束児童館","province":"東京都","city":"台東区","address":"台東区千束3-20-6","lat":35.72279,"lon":139.79272},{"name":"松が谷児童館","province":"東京都","city":"台東区","address":"台東区松が谷4-15-11","lat":35.71857,"lon":139.78609},{"name":"寿児童館","province":"東京都","city":"台東区","address":"台東区寿1-4-5","lat":35.70683,"lon":139.78996},{"name":"台東区立谷中児童館","province":"東京都","city":"台東区","address":"台東区谷中5-6-5谷中防災コミュニティセンター内","lat":35.72578,"lon":139.76668},{"name":"玉姫児童館","province":"東京都","city":"台東区","address":"台東区清川2-22-13","lat":35.727475,"lon":139.803782},{"name":"千束児童館","province":"東京都","city":"台東区","address":"台東区千束3-20-6","lat":35.72279,"lon":139.79273},{"name":"松が谷児童館","province":"東京都","city":"台東区","address":"台東区松が谷4-15-11","lat":35.71858,"lon":139.78609},{"name":"＊?中央図書館","province":"東京都","city":"台東区","address":"台東区西浅草3-25-16","lat":35.717291,"lon":139.789868},{"name":"＊?石浜図書館","province":"東京都","city":"台東区","address":"台東区橋場1-35-16","lat":35.725422,"lon":139.807602},{"name":"＊?根岸図書館","province":"東京都","city":"台東区","address":"台東区根岸5-18-13","lat":35.729252,"lon":139.790448}]}