{"keyword":"保健","data":[{"name":"西多摩保健所","province":"東京都","city":"青梅市","address":"青梅市東青梅5-19-6","lat":35.789921,"lon":139.282029},{"name":"南多摩保健所","province":"東京都","city":"多摩市","address":"多摩市永山2-1-5","lat":35.627949,"lon":139.447437},{"name":"多摩立川保健所","province":"東京都","city":"立川市","address":"立川市羽衣町2-63東京都立川保健衛生仮庁舎内","lat":35.691736,"lon":139.430225},{"name":"多摩府中保健所","province":"東京都","city":"府中市","address":"府中市宮西町1-26-1東京都多摩府中合同庁舎内","lat":35.671117,"lon":139.477294},{"name":"多摩小平保健所","province":"東京都","city":"小平市","address":"小平市花小金井1-31-24東京都花小金井庁舎内","lat":35.730062,"lon":139.516688},{"name":"島しょ保健所","province":"東京都","city":"新宿区","address":"新宿区西新宿2-8-1都庁第一本庁舎27階北側","lat":35.689185,"lon":139.691647},{"name":"島しょ保健所大島出張所","province":"東京都","city":"大島町","address":"大島町元町字馬の背275-4","lat":34.756841,"lon":139.358125},{"name":"島しょ保健所大島出張所新島支所","province":"東京都","city":"新島村","address":"新島村本村6-4-24","lat":34.372699,"lon":139.252905},{"name":"島しょ保健所大島出張所神津島支所","province":"東京都","city":"神津島村","address":"神津島村1088","lat":34.204652,"lon":139.136305},{"name":"島しょ保健所三宅出張所","province":"東京都","city":"三宅村","address":"三宅村伊豆1004","lat":34.117639,"lon":139.503896},{"name":"島しょ保健所八丈出張所","province":"東京都","city":"八丈町","address":"八丈町三根1950-2","lat":33.112379,"lon":139.79377},{"name":"島しょ保健所小笠原出張所","province":"東京都","city":"小笠原村","address":"小笠原村父島字清瀬","lat":27.100335,"lon":142.194743},{"name":"都立精神保健福祉センター(仮施設)","province":"","city":"","address":"東上野3丁目3番13号プラチナ第2ビル","lat":35.70974388,"lon":139.7816146},{"name":"浅草保健相談センター","province":"","city":"","address":"花川戸2丁目11番10号","lat":35.71488563,"lon":139.8005868},{"name":"検査センター","province":"","city":"","address":"北上野1丁目8番8号","lat":35.71710411,"lon":139.7821742},{"name":"上野健康増進センター","province":"","city":"","address":"東上野4丁目22番8号","lat":35.71438433,"lon":139.7814944},{"name":"台東保健所","province":"","city":"","address":"東上野4丁目22番8号","lat":35.71438433,"lon":139.7814944},{"name":"千束健康増進センター","province":"","city":"","address":"千束3丁目28番13号","lat":35.72319358,"lon":139.7937227},{"name":"老人保健施設千束","province":"","city":"","address":"千束3丁目20番5号台東病院内","lat":35.72257547,"lon":139.7924997},{"name":"三ノ輪口腔ケアセンター","province":"","city":"","address":"三ノ輪1丁目27番11号三ノ輪福祉センター8階","lat":35.729217,"lon":139.7922686},{"name":"西多摩保健所","province":"東京都","city":"青梅市","address":"青梅市東青梅1-167-15","lat":35.7887,"lon":139.27307},{"name":"南多摩保健所","province":"東京都","city":"多摩市","address":"多摩市永山2-1-5","lat":35.62846,"lon":139.44521},{"name":"多摩立川保健所","province":"東京都","city":"立川市","address":"立川市柴崎町2-21-19東京都立川福祉保健庁舎内","lat":35.69401,"lon":139.40842},{"name":"多摩府中保健所","province":"東京都","city":"府中市","address":"府中市宮西町1-26-1東京都府中合同庁舎内","lat":35.67115,"lon":139.47734},{"name":"多摩小平保健所","province":"東京都","city":"小平市","address":"小平市花小金井1-31-24東京都花小金井庁舎内","lat":35.72992,"lon":139.51636},{"name":"島しょ保健所（総務課）","province":"東京都","city":"新宿区","address":"新宿区西新宿2-3-1新宿モノリス24階郵便私書箱7028号","lat":35.68827,"lon":139.69478},{"name":"島しょ保健所大島出張所","province":"東京都","city":"大島町","address":"大島町元町字馬の背275-4","lat":34.75655,"lon":139.35907},{"name":"島しょ保健所大島出張所新島支所","province":"東京都","city":"新島村","address":"新島村本村6-4-24","lat":34.37289,"lon":139.25238},{"name":"島しょ保健所大島出張所神津島支所","province":"東京都","city":"神津島村","address":"神津島村1088","lat":34.20439,"lon":139.13647},{"name":"島しょ保健所三宅出張所","province":"東京都","city":"三宅村","address":"三宅村伊豆1004","lat":34.11713,"lon":139.50456},{"name":"島しょ保健所八丈出張所","province":"東京都","city":"八丈町","address":"八丈町三根1950-2","lat":33.11377,"lon":139.79211},{"name":"島しょ保健所小笠原出張所","province":"東京都","city":"小笠原村","address":"小笠原村父島字清瀬","lat":27.07124,"lon":142.20961},{"name":"西多摩保健所","province":"東京都","city":"青梅市","address":"青梅市東青梅1-167-15","lat":35.78756,"lon":139.27172},{"name":"島しょ保健所（総務課）","province":"東京都","city":"新宿区","address":"新宿区西新宿2-8-1都庁第一本庁舎27階北側","lat":35.689185,"lon":139.691647},{"name":"島しょ保健所大島出張所神津島支所","province":"東京都","city":"神津島村","address":"神津島村1088","lat":34.20439,"lon":139.13648},{"name":"西多摩保健所","province":"東京都","city":"青梅市","address":"青梅市東青梅1-167-15","lat":35.78878,"lon":139.2728},{"name":"島しょ保健所（総務課）","province":"東京都","city":"新宿区","address":"新宿区西新宿2-8-1都庁第一本庁舎27階北側","lat":35.68963,"lon":139.69177},{"name":"みなと保健所","province":"","city":"","address":"〒108-8315港区三田一丁目4番10号","lat":35.653988,"lon":139.743015,"URL":"<a href='https://www.city.minato.tokyo.jp/shisetsu/hokenjo/hokenjo/00.html' target='_blank'>https://www.city.minato.tokyo.jp/shisetsu/hokenjo/hokenjo/00.html</a>","分類":"みなと保健所","地区":"芝地区","連絡先":"電話:(代表)03-6400-0050 ファックス:03-3455-4420"},{"name":"障害者歯科診療所(港区口腔保健センター)","province":"東京都","city":"港区","address":"港区三田一丁目4番10号みなと保健所2階","lat":35.654123,"lon":139.741759,"URL":"<a href='https://www.city.minato.tokyo.jp/shisetsu/hokenjo/hokenjo/04.html' target='_blank'>https://www.city.minato.tokyo.jp/shisetsu/hokenjo/hokenjo/04.html</a>","分類":"みなと保健所","地区":"芝地区","連絡先":"平日午前9時~午後5時は、健康推進課健康づくり係へ 電話:6400-0083 診療時間内は、港区口腔保健センターへ 電話:3455-4927"}]}