{"keyword":"初動","data":[{"name":"八王子市保健所","province":"東京都","city":"八王子市","address":"東京都八王子市旭町13-18","lat":35.65737951,"lon":139.34168383},{"name":"南多摩保健所","province":"東京都","city":"多摩市","address":"東京都多摩市永山2丁目1-5","lat":35.62794936,"lon":139.44743715},{"name":"西多摩保健所","province":"東京都","city":"青梅市","address":"東京都青梅市東青梅5丁目19-6","lat":35.78983461,"lon":139.28217046},{"name":"町田市保健所","province":"東京都","city":"町田市","address":"東京都町田市中町2丁目13-3","lat":35.55124111,"lon":139.44367596},{"name":"多摩府中保健所","province":"東京都","city":"府中市","address":"東京都府中市美好町2丁目51-1","lat":35.6774275,"lon":139.46746696},{"name":"多摩立川保健所","province":"東京都","city":"立川市","address":"東京都立川市柴崎町2丁目21-19","lat":35.69408784,"lon":139.408638},{"name":"多摩小平保健所","province":"東京都","city":"小平市","address":"東京都小平市花小金井1丁目31-24","lat":35.73006161,"lon":139.5166883},{"name":"目黒区保健所","province":"東京都","city":"目黒区","address":"東京都目黒区上目黒2丁目19-15","lat":35.64110969,"lon":139.69847649},{"name":"大田区保健所（保健衛生課）","province":"東京都","city":"大田区","address":"東京都大田区蒲田5丁目13-14","lat":35.56143339,"lon":139.71606685},{"name":"世田谷保健所","province":"東京都","city":"世田谷区","address":"東京都世田谷区世田谷4丁目22-35","lat":35.64614685,"lon":139.651658},{"name":"杉並保健所","province":"東京都","city":"杉並区","address":"東京都杉並区荻窪5丁目20-1","lat":35.70215612,"lon":139.62026419},{"name":"北区保健所","province":"東京都","city":"北区","address":"東京都北区東十条2丁目7-3","lat":35.76302725,"lon":139.73054116},{"name":"荒川区保健所","province":"東京都","city":"荒川区","address":"東京都荒川区荒川2丁目11-1","lat":35.73706089,"lon":139.78338914},{"name":"板橋区保健所","province":"東京都","city":"板橋区","address":"東京都板橋区大山東町32-15","lat":35.75056702,"lon":139.70809075},{"name":"練馬区保健所","province":"東京都","city":"練馬区","address":"東京都練馬区豊玉北6丁目12-1","lat":35.73558101,"lon":139.65167678},{"name":"葛飾保健所","province":"東京都","city":"葛飾区","address":"東京都葛飾区青戸4丁目15-14","lat":35.75147327,"lon":139.8505256},{"name":"立川健康会館","province":"東京都","city":"立川市","address":"東京都立川市高松町3丁目22-9","lat":35.70288991,"lon":139.41920904},{"name":"武蔵野市保健センター","province":"東京都","city":"武蔵野市","address":"東京都武蔵野市吉祥寺北町4丁目8-10","lat":35.71292303,"lon":139.56658205},{"name":"三鷹市総合保健センター","province":"東京都","city":"三鷹市","address":"東京都三鷹市新川6丁目35-28","lat":35.68242082,"lon":139.56406399},{"name":"昭島市保健福祉センター","province":"東京都","city":"昭島市","address":"東京都昭島市昭和町4丁目7-1","lat":35.71083484,"lon":139.36412472},{"name":"日野市生活保健センター","province":"東京都","city":"日野市","address":"東京都日野市日野本町1丁目6-2","lat":35.67588416,"lon":139.40011995},{"name":"東村山市保健福祉総合センター","province":"東京都","city":"東村山市","address":"東京都東村山市本町1丁目2-3","lat":35.75462421,"lon":139.46848323},{"name":"狛江市あいとぴあセンター","province":"東京都","city":"狛江市","address":"東京都狛江市元和泉2丁目35-1","lat":35.6333052,"lon":139.56761624},{"name":"東大和市保健センター","province":"東京都","city":"東大和市","address":"東京都東大和市中央3丁目918-1","lat":35.74572128,"lon":139.42737043},{"name":"清瀬市健康センター","province":"東京都","city":"清瀬市","address":"東京都清瀬市中里5丁目842","lat":35.78608019,"lon":139.52608035},{"name":"東久留米市わくわく健康プラザ（健康課）","province":"東京都","city":"東久留米市","address":"東京都東久留米市滝山4丁目3-14","lat":35.74228769,"lon":139.5044833},{"name":"武蔵村山市保健相談センター","province":"東京都","city":"武蔵村山市","address":"東京都武蔵村山市本町1丁目23","lat":35.75275842,"lon":139.38745453},{"name":"羽村市保健センター","province":"東京都","city":"羽村市","address":"東京都羽村市緑ヶ丘5丁目5-2","lat":35.76879339,"lon":139.31174922},{"name":"日の出町保健センター","province":"東京都","city":"西多摩郡日の出町","address":"東京都西多摩郡日の出町平井（大字）2780","lat":35.74211436,"lon":139.25740482},{"name":"基幹的広域防災拠点（有明の丘地区）","province":"東京都","city":"江東区","address":"江東区有明3-8-35","lat":35.63537,"lon":139.7941},{"name":"基幹的広域防災拠点（東扇島地区）","province":"神奈川県","city":"川崎市川崎区","address":"神奈川県川崎市川崎区東扇島","lat":35.50399032,"lon":139.76681013},{"name":"陸上自衛隊三宿駐屯地","province":"東京都","city":"世田谷区","address":"世田谷区池尻1-2-24","lat":35.643947,"lon":139.683755},{"name":"陸上自衛隊十条駐屯地","province":"東京都","city":"北区","address":"北区十条台1-5-70","lat":35.757358,"lon":139.726442},{"name":"陸上自衛隊練馬駐屯地","province":"東京都","city":"練馬区","address":"練馬区北町4-1-1","lat":35.76469,"lon":139.6575},{"name":"陸上自衛隊朝霞駐屯地","province":"東京都","city":"練馬区","address":"練馬区大泉学園町","lat":35.781658,"lon":139.595161},{"name":"陸上自衛隊用賀駐屯地","province":"東京都","city":"世田谷区","address":"世田谷区上用賀1-20-1","lat":35.633422,"lon":139.637491},{"name":"陸上自衛隊立川駐屯地","province":"東京都","city":"立川市","address":"立川市緑町5","lat":35.712357,"lon":139.402135},{"name":"陸上自衛隊東立川駐屯地","province":"東京都","city":"立川市","address":"立川市栄町1-2-10","lat":35.7052,"lon":139.4266},{"name":"陸上自衛隊市ヶ谷駐屯地","province":"東京都","city":"新宿区","address":"新宿区市谷本村町5-1","lat":35.693837,"lon":139.727038},{"name":"陸上自衛隊小平駐屯地","province":"東京都","city":"小平市","address":"小平市喜平町2-3-1","lat":35.72053,"lon":139.4836},{"name":"航空自衛隊府中基地","province":"東京都","city":"府中市","address":"府中市浅間町1-5-5","lat":35.67353,"lon":139.4953},{"name":"航空自衛隊横田基地","province":"東京都","city":"福生市","address":"福生市大字福生2552","lat":35.74337,"lon":139.3305},{"name":"※警視庁","province":"東京都","city":"千代田区","address":"千代田区霞ヶ関2-1-1","lat":35.67684,"lon":139.7521},{"name":"警視庁多摩総合庁舎","province":"東京都","city":"立川市","address":"立川市緑町3280","lat":35.7065,"lon":139.4062},{"name":"警視庁新橋庁舎","province":"東京都","city":"港区","address":"港区新橋6-18-8","lat":35.66142,"lon":139.7528},{"name":"第一機動隊","province":"東京都","city":"千代田区","address":"千代田区北の丸公園4-1","lat":35.69146,"lon":139.7548},{"name":"第二機動隊","province":"東京都","city":"墨田区","address":"墨田区横川5-7-2","lat":35.7047,"lon":139.818},{"name":"第三機動隊","province":"東京都","city":"目黒区","address":"目黒区大橋2-17-16","lat":35.6535,"lon":139.6843},{"name":"第四機動隊","province":"東京都","city":"立川市","address":"立川市緑町3567","lat":35.7126,"lon":139.4064},{"name":"第五機動隊","province":"東京都","city":"新宿区","address":"新宿区市谷本村町6-1","lat":35.69359,"lon":139.725},{"name":"第六機動隊","province":"東京都","city":"品川区","address":"品川区勝島1-3-18","lat":35.5987,"lon":139.7446},{"name":"第七機動隊","province":"東京都","city":"府中市","address":"府中市朝日町3-16-8","lat":35.66546,"lon":139.5212},{"name":"第八機動隊","province":"東京都","city":"新宿区","address":"新宿区若松町14-1","lat":35.69851,"lon":139.7154},{"name":"第九機動隊","province":"東京都","city":"江東区","address":"江東区新砂1-7-20","lat":35.668,"lon":139.8226},{"name":"特科車両隊","province":"東京都","city":"新宿区","address":"新宿区市谷本村町7-1","lat":35.69496,"lon":139.7259},{"name":"第一自動車警ら隊","province":"東京都","city":"港区","address":"港区海岸3-12-1","lat":35.64033,"lon":139.7552},{"name":"第一自動車警ら隊蒲田分駐所","province":"東京都","city":"大田区","address":"大田区蒲田本町2-29-12","lat":35.556,"lon":139.7201},{"name":"第ニ自動車警ら隊","province":"東京都","city":"北区","address":"北区滝野川7-49-10","lat":35.74058,"lon":139.7239},{"name":"第二自動車警ら隊新宿分駐所","province":"東京都","city":"中野区","address":"中野区弥生町2-4-10","lat":35.69143,"lon":139.6769},{"name":"第二自動車警ら隊南千住分駐所","province":"東京都","city":"荒川区","address":"荒川区南千住8-7-9","lat":35.73935,"lon":139.8066},{"name":"第八方面自動車警ら隊","province":"東京都","city":"立川市","address":"立川市緑町3280","lat":35.7065,"lon":139.4062},{"name":"第九方面自動車警ら隊","province":"東京都","city":"八王子市","address":"八王子市大横町14-20","lat":35.66186,"lon":139.3285},{"name":"第一方面交通機動隊","province":"東京都","city":"中央区","address":"中央区晴海1-1-24","lat":35.66121,"lon":139.7874},{"name":"第二方面交通機動隊","province":"東京都","city":"大田区","address":"大田区大森北6-24-20","lat":35.57914,"lon":139.7302},{"name":"第三方面交通機動隊","province":"東京都","city":"目黒区","address":"目黒区大橋2-21-8","lat":35.65333,"lon":139.683},{"name":"第四方面交通機動隊","province":"東京都","city":"新宿区","address":"新宿区市谷本村町7-13","lat":35.69564,"lon":139.7258},{"name":"第五方面交通機動隊","province":"東京都","city":"文京区","address":"文京区春日1-5-12","lat":35.70814,"lon":139.7478},{"name":"第五方面交通機動隊目白分駐所","province":"東京都","city":"豊島区","address":"豊島区目白2-10-6","lat":35.72034,"lon":139.7108},{"name":"第六方面交通機動隊","province":"東京都","city":"足立区","address":"足立区小台1-4-4","lat":35.75625,"lon":139.7636},{"name":"第七方面交通機動隊","province":"東京都","city":"墨田区","address":"墨田区横川4-8-9","lat":35.704848,"lon":139.815146},{"name":"第七方面交通機動隊新木場分駐所","province":"東京都","city":"江東区","address":"江東区新木場4-2-31","lat":35.64214,"lon":139.8376},{"name":"第八方面交通機動隊","province":"東京都","city":"立川市","address":"立川市緑町3280","lat":35.7065,"lon":139.4062},{"name":"第九方面交通機動隊","province":"東京都","city":"八王子市","address":"八王子市大横町14-20","lat":35.66186,"lon":139.3285},{"name":"第九方面交通機動隊青梅分駐所","province":"東京都","city":"青梅市","address":"青梅市野上町4-6-3","lat":35.787391,"lon":139.289092},{"name":"第十方面交通機動隊","province":"東京都","city":"北区","address":"北区西が丘3-4-7","lat":35.76512,"lon":139.712},{"name":"第一方面本部","province":"東京都","city":"千代田区","address":"千代田区霞が関2-1-1","lat":35.676841,"lon":139.752068},{"name":"第二方面本部","province":"東京都","city":"品川区","address":"品川区勝島1-3-12","lat":35.59853,"lon":139.7449},{"name":"第三方面本部","province":"東京都","city":"目黒区","address":"目黒区大橋2-21-6","lat":35.65328,"lon":139.6839},{"name":"第四方面本部","province":"東京都","city":"新宿区","address":"新宿区市谷本村町6-1","lat":35.69359,"lon":139.725},{"name":"第五方面本部","province":"東京都","city":"文京区","address":"文京区春日1-5-12","lat":35.70814,"lon":139.7478},{"name":"第六方面本部","province":"東京都","city":"台東区","address":"台東区東浅草2-27-12","lat":35.7245,"lon":139.7979},{"name":"第七方面本部","province":"東京都","city":"江東区","address":"江東区新木場4-2-31","lat":35.64214,"lon":139.8376},{"name":"第八方面本部","province":"東京都","city":"立川市","address":"立川市緑町3280","lat":35.7065,"lon":139.4062},{"name":"第九方面本部","province":"東京都","city":"八王子市","address":"八王子市大横町14-20","lat":35.66186,"lon":139.3285},{"name":"第十方面本部","province":"東京都","city":"北区","address":"北区西が丘3-4-7","lat":35.76512,"lon":139.712},{"name":"赤坂警察署","province":"東京都","city":"港区","address":"港区赤坂4-18-19","lat":35.675,"lon":139.7321},{"name":"赤羽警察署","province":"東京都","city":"北区","address":"北区神谷3-10-1","lat":35.77435,"lon":139.7338},{"name":"昭島警察署","province":"東京都","city":"昭島市","address":"昭島市上川原町1-1-1","lat":35.70894,"lon":139.3637},{"name":"浅草警察署","province":"東京都","city":"台東区","address":"台東区浅草4-47-11","lat":35.71899,"lon":139.7978},{"name":"麻布警察署","province":"東京都","city":"港区","address":"港区六本木6-2-37","lat":35.66231,"lon":139.7309},{"name":"愛宕警察署","province":"東京都","city":"港区","address":"港区新橋6-18-12","lat":35.66097,"lon":139.7527},{"name":"綾瀬警察署","province":"東京都","city":"足立区","address":"足立区谷中4-1-24","lat":35.77787,"lon":139.8307},{"name":"荒川警察署","province":"東京都","city":"荒川区","address":"荒川区荒川3-1-2","lat":35.73443,"lon":139.7845},{"name":"池上警察署","province":"東京都","city":"大田区","address":"大田区池上3-20-10","lat":35.57434,"lon":139.6986},{"name":"池袋警察署","province":"東京都","city":"豊島区","address":"豊島区西池袋1-7-5","lat":35.7285,"lon":139.7072},{"name":"板橋警察署","province":"東京都","city":"板橋区","address":"板橋区板橋2-60-13","lat":35.750301,"lon":139.710821},{"name":"五日市警察署","province":"東京都","city":"あきる野市","address":"あきる野市五日市888-7","lat":35.72795,"lon":139.2168},{"name":"上野警察署","province":"東京都","city":"台東区","address":"台東区東上野4-2-4","lat":35.71233,"lon":139.7795},{"name":"牛込警察署","province":"東京都","city":"新宿区","address":"新宿区南山伏町1-15","lat":35.69902,"lon":139.7316},{"name":"荏原警察署","province":"東京都","city":"品川区","address":"品川区荏原6-19-10","lat":35.61205,"lon":139.7062},{"name":"大井警察署","province":"東京都","city":"品川区","address":"品川区大井5-10-2","lat":35.59883,"lon":139.7298},{"name":"大崎警察署","province":"東京都","city":"品川区","address":"品川区大崎4-2-10","lat":35.62179,"lon":139.7241},{"name":"青梅警察署","province":"東京都","city":"青梅市","address":"青梅市野上町4-6-3","lat":35.787391,"lon":139.289092},{"name":"王子警察署","province":"東京都","city":"北区","address":"北区王子3-22-22","lat":35.75931,"lon":139.7381},{"name":"大塚警察署","province":"東京都","city":"文京区","address":"文京区目白台3-28-3/(平成27年8月まで)","lat":35.71681,"lon":139.7263},{"name":"大森警察署","province":"東京都","city":"大田区","address":"大田区大森中1-1-16","lat":35.57255,"lon":139.7338},{"name":"荻窪警察署","province":"東京都","city":"杉並区","address":"杉並区桃井3-1-3","lat":35.71154,"lon":139.6075},{"name":"尾久警察署","province":"東京都","city":"荒川区","address":"荒川区西尾久3-8-5","lat":35.75085,"lon":139.7637},{"name":"葛西警察署","province":"東京都","city":"江戸川区","address":"江戸川区東葛西6-39-1","lat":35.6615,"lon":139.8796},{"name":"蒲田警察署","province":"東京都","city":"大田区","address":"大田区蒲田本町2-3-3","lat":35.55811,"lon":139.7204},{"name":"亀有警察署","province":"東京都","city":"葛飾区","address":"葛飾区新宿4-22-19","lat":35.76235,"lon":139.8622},{"name":"神田警察署","province":"東京都","city":"千代田区","address":"千代田区神田錦町2-2","lat":35.69328,"lon":139.7628},{"name":"北沢警察署","province":"東京都","city":"世田谷区","address":"世田谷区松原6-4-14","lat":35.65783,"lon":139.6526},{"name":"蔵前警察署","province":"東京都","city":"台東区","address":"台東区蔵前1-3-24","lat":35.70126,"lon":139.7899},{"name":"小岩警察署","province":"東京都","city":"江戸川区","address":"江戸川区東小岩6-9-17","lat":35.73386,"lon":139.8876},{"name":"麹町警察署","province":"東京都","city":"千代田区","address":"千代田区麹町1-4","lat":35.68436,"lon":139.7437},{"name":"小金井警察署","province":"東京都","city":"小金井市","address":"小金井市貫井南町3-21-3","lat":35.69993,"lon":139.4982},{"name":"小平警察署","province":"東京都","city":"小平市","address":"小平市小川町2-1265-1","lat":35.72562,"lon":139.4483},{"name":"駒込警察署","province":"東京都","city":"文京区","address":"文京区本駒込2-28-18","lat":35.7311,"lon":139.7483},{"name":"小松川警察署","province":"東京都","city":"江戸川区","address":"江戸川区松島1-19-22","lat":35.70257,"lon":139.8638},{"name":"渋谷警察署","province":"東京都","city":"渋谷区","address":"渋谷区渋谷3-8-15","lat":35.65779,"lon":139.7039},{"name":"志村警察署","province":"東京都","city":"板橋区","address":"板橋区小豆沢1-11-6","lat":35.77276,"lon":139.6994},{"name":"下谷警察署","province":"東京都","city":"台東区","address":"台東区下谷3-15-9","lat":35.72605,"lon":139.7879},{"name":"石神井警察署","province":"東京都","city":"練馬区","address":"練馬区石神井町6-17-26","lat":35.742302,"lon":139.59899},{"name":"城東警察署","province":"東京都","city":"江東区","address":"江東区北砂2-1-24","lat":35.67844,"lon":139.827},{"name":"新宿警察署","province":"東京都","city":"新宿区","address":"新宿区西新宿6-1-1","lat":35.69348,"lon":139.6944},{"name":"巣鴨警察署","province":"東京都","city":"豊島区","address":"豊島区北大塚1-15-15","lat":35.73115,"lon":139.7322},{"name":"杉並警察署","province":"東京都","city":"杉並区","address":"杉並区成田東4-38-16","lat":35.69886,"lon":139.6363},{"name":"成城警察署","province":"東京都","city":"世田谷区","address":"世田谷区千歳台3-19-1","lat":35.652113,"lon":139.615867},{"name":"世田谷警察署","province":"東京都","city":"世田谷区","address":"世田谷区三軒茶屋2-4-4","lat":35.64042,"lon":139.666996},{"name":"千住警察署","province":"東京都","city":"足立区","address":"足立区千住1-38-1","lat":35.747,"lon":139.8034},{"name":"高井戸警察署","province":"東京都","city":"杉並区","address":"杉並区宮前1-16-1","lat":35.69101,"lon":139.6115},{"name":"高島平警察署","province":"東京都","city":"板橋区","address":"板橋区高島平3-12-32","lat":35.78659,"lon":139.6588},{"name":"高輪警察署","province":"東京都","city":"港区","address":"港区高輪3-15-20","lat":35.63544,"lon":139.7332},{"name":"滝野川警察署","province":"東京都","city":"北区","address":"北区西ヶ原2-4-1","lat":35.74714,"lon":139.7416},{"name":"立川警察署","province":"東京都","city":"立川市","address":"立川市緑町3233-2","lat":35.706271,"lon":139.407738},{"name":"玉川警察署","province":"東京都","city":"世田谷区","address":"世田谷区中町2-9-22","lat":35.61345,"lon":139.6475},{"name":"田無警察署","province":"東京都","city":"西東京市","address":"西東京市田無町5-2-5","lat":35.72999,"lon":139.5386},{"name":"多摩中央警察署","province":"東京都","city":"多摩市","address":"多摩市鶴牧1-26-1","lat":35.623,"lon":139.421},{"name":"中央警察署","province":"東京都","city":"中央区","address":"中央区日本橋兜町14-2","lat":35.68044,"lon":139.7771},{"name":"調布警察署","province":"東京都","city":"調布市","address":"調布市国領町2-25-1","lat":35.65293,"lon":139.5622},{"name":"月島警察署","province":"東京都","city":"中央区","address":"中央区勝どき6-7-19","lat":35.65475,"lon":139.7715},{"name":"築地警察署","province":"東京都","city":"中央区","address":"中央区築地1-6-1","lat":35.67025,"lon":139.7714},{"name":"田園調布警察署","province":"東京都","city":"大田区","address":"大田区田園調布1-1-8","lat":35.589128,"lon":139.677331},{"name":"東京空港警察署","province":"東京都","city":"大田区","address":"大田区羽田空港3-4-1","lat":35.55513,"lon":139.7842},{"name":"東京湾岸警察署","province":"東京都","city":"江東区","address":"江東区青海2-7-1","lat":35.61857,"lon":139.7746},{"name":"戸塚警察署","province":"東京都","city":"新宿区","address":"新宿区西早稲田3-30-13","lat":35.71334,"lon":139.7112},{"name":"富坂警察署","province":"東京都","city":"文京区","address":"文京区小石川2-14-2","lat":35.7105,"lon":139.747},{"name":"中野警察署","province":"東京都","city":"中野区","address":"中野区中央2-47-2","lat":35.69779,"lon":139.6777},{"name":"西新井警察署","province":"東京都","city":"足立区","address":"足立区西新井栄町1-16-1","lat":35.77349,"lon":139.7892},{"name":"練馬警察署","province":"東京都","city":"練馬区","address":"練馬区豊玉北5-2-7","lat":35.73691,"lon":139.6558},{"name":"野方警察署","province":"東京都","city":"中野区","address":"中野区中野4-12-1","lat":35.70943,"lon":139.6604},{"name":"八王子警察署","province":"東京都","city":"八王子市","address":"八王子市元横山町2-4-13","lat":35.66314,"lon":139.3385},{"name":"原宿警察署","province":"東京都","city":"渋谷区","address":"渋谷区神宮前1-4-17","lat":35.67188,"lon":139.7074},{"name":"東村山警察署","province":"東京都","city":"東村山市","address":"東村山市本町1-1-3","lat":35.75562,"lon":139.4675},{"name":"東大和警察署","province":"東京都","city":"東大和市","address":"東大和市芋窪6-1061-1","lat":35.74856,"lon":139.4107},{"name":"光が丘警察署","province":"東京都","city":"練馬区","address":"練馬区光が丘2-9-8","lat":35.75941,"lon":139.6312},{"name":"久松警察署","province":"東京都","city":"中央区","address":"中央区日本橋久松町8-1","lat":35.68836,"lon":139.7847},{"name":"日野警察署","province":"東京都","city":"日野市","address":"日野市日野590","lat":35.67983,"lon":139.4122},{"name":"碑文谷警察署","province":"東京都","city":"目黒区","address":"目黒区碑文谷4-24-17","lat":35.62079,"lon":139.6812},{"name":"深川警察署","province":"東京都","city":"江東区","address":"江東区木場3-18-6","lat":35.67362,"lon":139.8062},{"name":"府中警察署","province":"広島県","city":"府中市","address":"府中市府中町1-10-5","lat":35.67365,"lon":139.4816},{"name":"福生警察署","province":"東京都","city":"福生市","address":"福生市加美平3-25","lat":35.74889,"lon":139.3206},{"name":"本所警察署","province":"東京都","city":"墨田区","address":"墨田区横川4-8-9","lat":35.704848,"lon":139.815146},{"name":"葛飾警察署","province":"東京都","city":"葛飾区","address":"葛飾区立石2-7-9","lat":35.73806,"lon":139.839},{"name":"町田警察署","province":"東京都","city":"町田市","address":"町田市旭町3-1-3","lat":35.55473,"lon":139.443918},{"name":"三田警察署","province":"東京都","city":"港区","address":"港区芝浦4-2-12","lat":35.64222,"lon":139.7444},{"name":"三鷹警察署","province":"東京都","city":"三鷹市","address":"三鷹市上連雀8-2-36","lat":35.68657,"lon":139.5583},{"name":"南大沢警察署","province":"東京都","city":"八王子市","address":"八王子市南大沢1-8-3","lat":35.61621,"lon":139.3819},{"name":"丸の内警察署","province":"東京都","city":"千代田区","address":"千代田区有楽町1-9-2","lat":35.67539,"lon":139.7603},{"name":"万世橋警察署","province":"東京都","city":"千代田区","address":"千代田区外神田1-16-5","lat":35.6973,"lon":139.7718},{"name":"南千住警察署","province":"東京都","city":"荒川区","address":"荒川区南千住6-45-43","lat":35.73544,"lon":139.7919},{"name":"武蔵野警察署","province":"東京都","city":"武蔵野市","address":"武蔵野市中町2-1-2","lat":35.70601,"lon":139.5609},{"name":"目黒警察署","province":"東京都","city":"目黒区","address":"目黒区中目黒2-7-13","lat":35.63798,"lon":139.7051},{"name":"目白警察署","province":"東京都","city":"豊島区","address":"豊島区目白2-10-2","lat":35.72007,"lon":139.7114},{"name":"向島警察署","province":"東京都","city":"墨田区","address":"墨田区文花3-18-9","lat":35.71174,"lon":139.8273},{"name":"四谷警察署","province":"東京都","city":"新宿区","address":"新宿区左門町6-5","lat":35.68647,"lon":139.7205},{"name":"代々木警察署","province":"東京都","city":"渋谷区","address":"渋谷区本町1-11-3","lat":35.67985,"lon":139.6832},{"name":"本富士警察署","province":"東京都","city":"文京区","address":"文京区本郷7-1-7","lat":35.70775,"lon":139.7634},{"name":"高尾警察署","province":"東京都","city":"八王子市","address":"八王子市東浅川町23-34","lat":35.648878,"lon":139.295286},{"name":"竹の塚警察署","province":"東京都","city":"足立区","address":"足立区保木間1-16-4","lat":35.790982,"lon":139.802995},{"name":"東京消防庁","province":"東京都","city":"千代田区","address":"千代田区大手町1-3-5","lat":35.68855,"lon":139.7617},{"name":"立川消防署（東京消防庁多摩防災基地）","province":"東京都","city":"立川市","address":"立川市泉町1156-1","lat":35.71589,"lon":139.4062},{"name":"第一消防方面本部","province":"東京都","city":"千代田区","address":"千代田区麹町1-12","lat":35.68479,"lon":139.7439},{"name":"第二消防方面本部","province":"東京都","city":"大田区","address":"大田区大森東1-32-8","lat":35.5788,"lon":139.7393},{"name":"第三消防方面本部","province":"東京都","city":"世田谷区","address":"世田谷区三軒茶屋2-33-21","lat":35.64087,"lon":139.6663},{"name":"第四消防方面本部","province":"東京都","city":"新宿区","address":"新宿区大久保3-14-26","lat":35.70824,"lon":139.7086},{"name":"第五消防方面本部","province":"東京都","city":"豊島区","address":"豊島区西池袋2-37-8","lat":35.72794,"lon":139.7069},{"name":"第六消防方面本部","province":"東京都","city":"台東区","address":"台東区蔵前2-10-9","lat":35.70368,"lon":139.7935},{"name":"第七消防方面本部","province":"東京都","city":"江東区","address":"江東区森下5-1-4","lat":35.68487,"lon":139.8066},{"name":"第八消防方面本部","province":"東京都","city":"立川市","address":"立川市泉町1156-1","lat":35.71589,"lon":139.4062},{"name":"第九消防方面本部","province":"東京都","city":"八王子市","address":"八王子市石川町2099-2","lat":35.66858,"lon":139.358},{"name":"第十消防方面本部","province":"東京都","city":"練馬区","address":"練馬区北町3-10","lat":35.76853,"lon":139.6541},{"name":"夢の島訓練場","province":"東京都","city":"江東区","address":"江東区夢の島3-1-1","lat":35.64985,"lon":139.8344},{"name":"第一方面訓練場","province":"東京都","city":"江東区","address":"江東区潮見1-29","lat":35.65556,"lon":139.8142},{"name":"第二方面訓練場","province":"東京都","city":"大田区","address":"大田区京浜島1-1","lat":35.57302,"lon":139.7576},{"name":"第三方面訓練場","province":"東京都","city":"渋谷区","address":"渋谷区幡ヶ谷1-13","lat":35.67292,"lon":139.6717},{"name":"消防学校","province":"東京都","city":"渋谷区","address":"渋谷区西原2-51-1","lat":35.6723,"lon":139.6735},{"name":"第五方面訓練場","province":"東京都","city":"北区","address":"北区西ヶ原2-1","lat":35.74541,"lon":139.7445},{"name":"第六方面訓練場","province":"東京都","city":"江東区","address":"江東区夢の島3-30","lat":35.65202,"lon":139.8315},{"name":"第七方面訓練場","province":"東京都","city":"葛飾区","address":"葛飾区高砂1-1","lat":35.74091,"lon":139.8619},{"name":"第八方面訓練場","province":"東京都","city":"立川市","address":"立川市泉町1156-1","lat":35.71589,"lon":139.4062},{"name":"第九方面訓練場","province":"東京都","city":"日野市","address":"日野市石田1-236","lat":35.66914,"lon":139.4257},{"name":"赤坂消防署","province":"東京都","city":"港区","address":"港区南青山2-16-9","lat":35.66905,"lon":139.7209},{"name":"赤羽消防署","province":"東京都","city":"北区","address":"北区赤羽南1-10-4","lat":35.77776,"lon":139.7231},{"name":"秋川消防署","province":"東京都","city":"あきる野市","address":"あきる野市伊奈466","lat":35.73449,"lon":139.2564},{"name":"昭島消防署","province":"東京都","city":"昭島市","address":"昭島市松原町1-14-1","lat":35.71423,"lon":139.3543},{"name":"麻布消防署","province":"東京都","city":"港区","address":"港区元麻布3-4-42","lat":35.65714,"lon":139.7273},{"name":"足立消防署","province":"東京都","city":"足立区","address":"足立区梅島2-1-1","lat":35.77497,"lon":139.803},{"name":"浅草消防署","province":"東京都","city":"台東区","address":"台東区駒形1-5-8","lat":35.70743,"lon":139.7941},{"name":"荒川消防署","province":"東京都","city":"荒川区","address":"荒川区荒川2-1-13","lat":35.73519,"lon":139.7843},{"name":"池袋消防署","province":"東京都","city":"豊島区","address":"豊島区西池袋2-37-8","lat":35.72794,"lon":139.7069},{"name":"板橋消防署","province":"東京都","city":"板橋区","address":"板橋区板橋2-60-15","lat":35.75012,"lon":139.7111},{"name":"上野消防署","province":"東京都","city":"台東区","address":"台東区東上野5-2-9","lat":35.71212,"lon":139.781},{"name":"牛込消防署","province":"東京都","city":"新宿区","address":"新宿区筑土八幡町5-16","lat":35.70359,"lon":139.7395},{"name":"江戸川消防署","province":"東京都","city":"江戸川区","address":"江戸川区中央2-9-13","lat":35.70607,"lon":139.8725},{"name":"荏原消防署","province":"東京都","city":"品川区","address":"品川区平塚3-16-20","lat":35.61459,"lon":139.7105},{"name":"大井消防署","province":"東京都","city":"品川区","address":"品川区東大井3-6-12","lat":35.60361,"lon":139.7401},{"name":"王子消防署","province":"東京都","city":"北区","address":"北区王子4-28-1","lat":35.76318,"lon":139.7368},{"name":"青梅消防署","province":"東京都","city":"青梅市","address":"青梅市師岡町3-2-5","lat":35.78895,"lon":139.2836},{"name":"大森消防署","province":"東京都","city":"大田区","address":"大田区大森東1-32-8","lat":35.5788,"lon":139.7393},{"name":"荻窪消防署","province":"東京都","city":"杉並区","address":"杉並区桃井3-4-1","lat":35.71158,"lon":139.6062},{"name":"尾久消防署","province":"東京都","city":"荒川区","address":"荒川区東尾久8-44-4","lat":35.75005,"lon":139.7662},{"name":"奥多摩消防署","province":"","city":"","address":"西奥多摩郡奥多摩町氷川952","lat":35.80426,"lon":139.0926},{"name":"葛西消防署","province":"東京都","city":"江戸川区","address":"江戸川区中葛西1-29-1","lat":35.66946,"lon":139.8693},{"name":"金町消防署","province":"東京都","city":"葛飾区","address":"葛飾区金町4-15-20","lat":35.76395,"lon":139.8652},{"name":"蒲田消防署","province":"東京都","city":"大田区","address":"大田区蒲田本町2-28-1","lat":35.55572,"lon":139.7198},{"name":"神田消防署","province":"東京都","city":"千代田区","address":"千代田区外神田4-14-3","lat":35.70144,"lon":139.773},{"name":"北多摩西部消防署","province":"東京都","city":"東大和市","address":"東大和市上北台1-956-1","lat":35.74732,"lon":139.4133},{"name":"京橋消防署","province":"東京都","city":"中央区","address":"中央区京橋3-14-1","lat":35.67439,"lon":139.7723},{"name":"清瀬消防署","province":"東京都","city":"清瀬市","address":"清瀬市中清戸2-850-1","lat":35.78419,"lon":139.5276},{"name":"小石川消防署","province":"東京都","city":"文京区","address":"文京区白山3-3-1","lat":35.7191,"lon":139.7428},{"name":"小岩消防署","province":"東京都","city":"江戸川区","address":"江戸川区鹿骨2-42-11","lat":35.70864,"lon":139.8949},{"name":"麹町消防署","province":"東京都","city":"千代田区","address":"千代田区麹町1-12","lat":35.68479,"lon":139.7439},{"name":"小金井消防署","province":"東京都","city":"小金井市","address":"小金井市本町6-6-1","lat":35.69931,"lon":139.5035},{"name":"国分寺消防署","province":"東京都","city":"国分寺市","address":"国分寺市本多1-7-15","lat":35.70578,"lon":139.4827},{"name":"小平消防署","province":"東京都","city":"小平市","address":"小平市仲町21","lat":35.73076,"lon":139.4801},{"name":"狛江消防署","province":"東京都","city":"狛江市","address":"狛江市和泉本町1-23-10","lat":35.6405,"lon":139.5765},{"name":"品川消防署","province":"東京都","city":"品川区","address":"品川区北品川3-7-31","lat":35.61715,"lon":139.7398},{"name":"芝消防署","province":"東京都","city":"港区","address":"港区新橋6-18-15","lat":35.6611,"lon":139.7523},{"name":"渋谷消防署","province":"東京都","city":"渋谷区","address":"渋谷区神南1-8-3","lat":35.66434,"lon":139.7012},{"name":"志村消防署","province":"東京都","city":"板橋区","address":"板橋区相生17-1","lat":35.77725,"lon":139.6787},{"name":"石神井消防署","province":"東京都","city":"練馬区","address":"練馬区下石神井5-16-8","lat":35.72961,"lon":139.5999},{"name":"城東消防署","province":"東京都","city":"江東区","address":"江東区亀戸6-42-9","lat":35.69659,"lon":139.8319},{"name":"新宿消防署","province":"東京都","city":"新宿区","address":"新宿区百人町3-29-4","lat":35.70693,"lon":139.6948},{"name":"杉並消防署","province":"東京都","city":"杉並区","address":"杉並区阿佐谷南3-4-3","lat":35.7005,"lon":139.6336},{"name":"成城消防署","province":"東京都","city":"世田谷区","address":"世田谷区成城1-21-14","lat":35.6356,"lon":139.6011},{"name":"世田谷消防署","province":"東京都","city":"世田谷区","address":"世田谷区三軒茶屋2-33-21","lat":35.64087,"lon":139.6663},{"name":"千住消防署","province":"東京都","city":"足立区","address":"足立区千住中居町9-14","lat":35.74892,"lon":139.7986},{"name":"高輪消防署","province":"東京都","city":"港区","address":"港区白金2-4-12","lat":35.64107,"lon":139.7328},{"name":"滝野川消防署","province":"東京都","city":"北区","address":"北区西ヶ原2-1-1","lat":35.74468,"lon":139.7449},{"name":"立川消防署","province":"東京都","city":"立川市","address":"立川市泉町1156-1","lat":35.71589,"lon":139.4062},{"name":"多摩消防署","province":"東京都","city":"多摩市","address":"多摩市諏訪1-69","lat":35.63252,"lon":139.4484},{"name":"玉川消防署","province":"東京都","city":"世田谷区","address":"世田谷区中町3-1-19","lat":35.61481,"lon":139.6486},{"name":"調布消防署","province":"東京都","city":"調布市","address":"調布市下石原1-16-1","lat":35.65618,"lon":139.5391},{"name":"田園調布消防署","province":"東京都","city":"大田区","address":"大田区雪谷大塚町13-22","lat":35.5898,"lon":139.6776},{"name":"豊島消防署","province":"東京都","city":"豊島区","address":"豊島区東池袋3-19-20","lat":35.72978,"lon":139.7219},{"name":"中野消防署","province":"東京都","city":"中野区","address":"中野区中央3-25-3","lat":35.69798,"lon":139.6735},{"name":"西新井消防署","province":"東京都","city":"足立区","address":"足立区伊興2-5-11","lat":35.79099,"lon":139.7795},{"name":"日本橋消防署","province":"東京都","city":"中央区","address":"中央区日本橋兜町14-12","lat":35.68013,"lon":139.7776},{"name":"日本堤消防署","province":"東京都","city":"台東区","address":"台東区千束4-1-1","lat":35.72342,"lon":139.798},{"name":"練馬消防署","province":"東京都","city":"練馬区","address":"練馬区豊玉中3-9-11","lat":35.73022,"lon":139.6561},{"name":"野方消防署","province":"東京都","city":"中野区","address":"中野区丸山2-21-1","lat":35.72342,"lon":139.6521},{"name":"八王子消防署","province":"東京都","city":"八王子市","address":"八王子市大横町1-4","lat":35.66116,"lon":139.3292},{"name":"東村山消防署","province":"東京都","city":"東村山市","address":"東村山市美住町2-28-16","lat":35.75293,"lon":139.4506},{"name":"光が丘消防署","province":"東京都","city":"練馬区","address":"練馬区光が丘2-9-1","lat":35.75896,"lon":139.6312},{"name":"日野消防署","province":"東京都","city":"日野市","address":"日野市神明2-14-3","lat":35.67052,"lon":139.3928},{"name":"深川消防署","province":"東京都","city":"江東区","address":"江東区木場3-18-10","lat":35.67304,"lon":139.8061},{"name":"府中消防署","province":"東京都","city":"府中市","address":"府中市寿町1-5","lat":35.67358,"lon":139.4784},{"name":"福生消防署","province":"東京都","city":"福生市","address":"福生市福生1072","lat":35.74401,"lon":139.3245},{"name":"西東京消防署","province":"東京都","city":"西東京市","address":"西東京市中町1-1-6","lat":35.73898,"lon":139.5553},{"name":"本郷消防署","province":"東京都","city":"文京区","address":"文京区本郷7-1-11","lat":35.70786,"lon":139.7629},{"name":"本所消防署","province":"東京都","city":"墨田区","address":"墨田区横川4-6-6","lat":35.70395,"lon":139.8152},{"name":"本田消防署","province":"東京都","city":"葛飾区","address":"葛飾区東立石3-12-7","lat":35.73621,"lon":139.8443},{"name":"町田消防署","province":"東京都","city":"町田市","address":"町田市中町3-2-19","lat":35.54949,"lon":139.4491},{"name":"丸の内消防署","province":"東京都","city":"千代田区","address":"千代田区大手町1-3-5","lat":35.68855,"lon":139.7617},{"name":"三鷹消防署","province":"東京都","city":"三鷹市","address":"三鷹市新川6-28-14","lat":35.68289,"lon":139.566},{"name":"向島消防署","province":"東京都","city":"墨田区","address":"墨田区東向島6-22-3","lat":35.72357,"lon":139.82},{"name":"武蔵野消防署","province":"東京都","city":"武蔵野市","address":"武蔵野市吉祥寺北町4-6-1","lat":35.71169,"lon":139.5675},{"name":"目黒消防署","province":"東京都","city":"目黒区","address":"目黒区下目黒6-1-22","lat":35.6299,"lon":139.7004},{"name":"矢口消防署","province":"東京都","city":"大田区","address":"大田区多摩川2-5-20","lat":35.55952,"lon":139.6992},{"name":"四谷消防署","province":"東京都","city":"新宿区","address":"新宿区四谷3-10","lat":35.68812,"lon":139.7197},{"name":"臨港消防署","province":"東京都","city":"中央区","address":"中央区晴海5-1-27","lat":35.6519,"lon":139.7736},{"name":"東久留米消防署","province":"東京都","city":"東久留米市","address":"東久留米市幸町3-4-34","lat":35.75756,"lon":139.5217},{"name":"稲城消防署","province":"東京都","city":"稲城市","address":"稲城市東長沼2111","lat":35.63793,"lon":139.505064},{"name":"立川地域防災センター","province":"東京都","city":"立川市","address":"立川市緑町3233","lat":35.70627,"lon":139.4077},{"name":"災害対策職員住宅柏木住宅内集中備蓄倉庫","province":"東京都","city":"新宿区","address":"新宿区北新宿4-6-1","lat":35.708274,"lon":139.693808},{"name":"板橋区若木原公園内倉庫","province":"東京都","city":"板橋区","address":"板橋区若木1-24区立若木原公園内","lat":35.76726,"lon":139.6706},{"name":"大田区田園調布南倉庫","province":"東京都","city":"大田区","address":"大田区田園調布南3-8区立田園調布南公園内","lat":35.57919,"lon":139.6752},{"name":"大田区南六郷倉庫","province":"東京都","city":"大田区","address":"大田区南六郷1-29-2-101都市再生機構南六郷一丁目団地内","lat":35.5462,"lon":139.7254},{"name":"白鬚東防災拠点内備蓄倉庫","province":"東京都","city":"墨田区","address":"墨田区堤通2-4-3都営白鬚東アパート3号棟1階","lat":35.72976,"lon":139.813},{"name":"都営大江戸線清澄白河駅内備蓄倉庫","province":"東京都","city":"江東区","address":"江東区白河1-7-14","lat":35.68292,"lon":139.7989},{"name":"都営大江戸線麻布十番駅内備蓄倉庫","province":"東京都","city":"港区","address":"港区麻布十番4-4-9","lat":35.65378,"lon":139.737},{"name":"品川区","province":"東京都","city":"品川区","address":"品川区東中延2-4-2","lat":35.60927,"lon":139.7141},{"name":"荒川区","province":"東京都","city":"荒川区","address":"荒川区荒川2-5-2","lat":35.73597,"lon":139.7826},{"name":"杉並区","province":"東京都","city":"杉並区","address":"杉並区荻窪4-21-17","lat":35.70351,"lon":139.6225},{"name":"練馬区","province":"東京都","city":"練馬区","address":"練馬区桜台1-5-4-204","lat":35.73906,"lon":139.6614},{"name":"中野区","province":"東京都","city":"中野区","address":"中野区中野1-15-7","lat":35.70576,"lon":139.6757},{"name":"北区","province":"東京都","city":"北区","address":"北区王子2-3-1","lat":35.75816,"lon":139.7341},{"name":"三鷹地区","province":"東京都","city":"三鷹市","address":"三鷹市上連雀7-4-8","lat":35.68908,"lon":139.5548},{"name":"目黒区","province":"東京都","city":"目黒区","address":"目黒区鷹番1-7-11","lat":35.6263,"lon":139.6886},{"name":"港区","province":"東京都","city":"港区","address":"港区新橋4-28-5","lat":35.66431,"lon":139.7545},{"name":"千代田区","province":"東京都","city":"千代田区","address":"千代田区九段北1-2-14B1","lat":35.696072,"lon":139.752143},{"name":"板橋区","province":"東京都","city":"板橋区","address":"板橋区常盤台1-40-1","lat":35.76297,"lon":139.6926},{"name":"西武地区","province":"東京都","city":"小平市","address":"小平市美園町3-1-8","lat":35.73848,"lon":139.4873},{"name":"墨田区","province":"東京都","city":"墨田区","address":"墨田区向島1-27-53F","lat":35.71173,"lon":139.8073},{"name":"新宿区","province":"東京都","city":"新宿区","address":"新宿区原町3-23","lat":35.70002,"lon":139.7223},{"name":"足立区","province":"東京都","city":"足立区","address":"足立区綾瀬2-23-7","lat":35.76156,"lon":139.8273},{"name":"江東区","province":"東京都","city":"江東区","address":"江東区大島4-4-3","lat":35.68874,"lon":139.8273},{"name":"世田谷区","province":"東京都","city":"世田谷区","address":"世田谷区池尻3-13-1","lat":35.65041,"lon":139.6783},{"name":"渋谷区","province":"東京都","city":"渋谷区","address":"渋谷区東3-14-13","lat":35.650896,"lon":139.709739},{"name":"武蔵野地区","province":"東京都","city":"武蔵野市","address":"武蔵野市中町3-7-1","lat":35.70875,"lon":139.5643},{"name":"西多摩地区","province":"東京都","city":"青梅市","address":"青梅市東青梅4-17-41","lat":35.78327,"lon":139.2817},{"name":"アルフレッサ（株）埼玉物流センター","province":"埼玉県","city":"新座市","address":"埼玉県新座市野火止2-7-36","lat":35.78626,"lon":139.5592},{"name":"アルフレッサ（株）神奈川物流センター","province":"神奈川県","city":"小田原市","address":"神奈川県小田原市中村原520番地-1","lat":35.29603,"lon":139.23},{"name":"アルフレッサ（株）金沢医薬品センター","province":"神奈川県","city":"横浜市金沢区","address":"神奈川県横浜市金沢区幸浦2-1-14","lat":35.36204,"lon":139.6442},{"name":"アルフレッサ（株）千葉物流センター","province":"千葉県","city":"木更津市","address":"千葉県木更津市潮浜1-17-96","lat":35.3778,"lon":139.9126},{"name":"アルフレッサ（株）荒川医薬品センター","province":"東京都","city":"荒川区","address":"荒川区西日暮里6-65-1","lat":35.73578,"lon":139.7663},{"name":"アルフレッサ（株）江戸川医薬品センター","province":"東京都","city":"江戸川区","address":"江戸川区平井7-5-32","lat":35.71645,"lon":139.8356},{"name":"アルフレッサ（株）目黒医薬品センター","province":"東京都","city":"目黒区","address":"目黒区目黒本町2-18-16","lat":35.62508,"lon":139.6904},{"name":"アルフレッサ（株）調布支店","province":"東京都","city":"府中市","address":"府中市西原町1-5-1","lat":35.68195,"lon":139.4604},{"name":"アルフレッサヘルスケア（株）ＭＫ吉川物流センター","province":"埼玉県","city":"吉川市","address":"埼玉県吉川市旭7-1A棟","lat":35.93241,"lon":139.8419},{"name":"アルフレッサヘルスケア（株）北関東物流センター","province":"埼玉県","city":"熊谷市","address":"埼玉県熊谷市問屋町5-1","lat":36.13226,"lon":139.4263},{"name":"アルフレッサヘルスケア（株）南関東物流センター","province":"神奈川県","city":"厚木市","address":"神奈川県厚木市酒井1902","lat":35.40851,"lon":139.3627},{"name":"春日部配送センター","province":"埼玉県","city":"春日部市","address":"埼玉県春日部市小渕1094-1","lat":35.99608,"lon":139.751},{"name":"アルフレッサヘルスケア（株）横浜配送センター","province":"神奈川県","city":"横浜市瀬谷区","address":"神奈川県横浜市瀬谷区瀬谷町8953-1","lat":35.49774,"lon":139.478},{"name":"イワキ（株）","province":"東京都","city":"北区","address":"北区豊島7-30-17","lat":35.76654,"lon":139.7447},{"name":"（株）大木神奈川物流センター","province":"神奈川県","city":"藤沢市","address":"神奈川県藤沢市円行1-3-1","lat":35.38897,"lon":139.458},{"name":"（株）大木埼玉物流センター","province":"埼玉県","city":"上尾市","address":"埼玉県上尾市大字平塚2098","lat":35.991,"lon":139.5993},{"name":"（株）大木新東京物流センター","province":"埼玉県","city":"鴻巣市","address":"埼玉県鴻巣市大字常光1515","lat":36.03922,"lon":139.5606},{"name":"（株）大木厚木ＦＤＣ","province":"神奈川県","city":"厚木市","address":"神奈川県厚木市酒井1902","lat":35.40851,"lon":139.3627},{"name":"（株）大木浦和ＦＤＣ","province":"埼玉県","city":"さいたま市緑区","address":"埼玉県さいたま市緑区大字大門1916-1","lat":35.88839,"lon":139.7204},{"name":"（株）大木吉川ＦＤＣ","province":"埼玉県","city":"吉川市","address":"埼玉県吉川市南広島字下谷2155","lat":35.91399,"lon":139.8499},{"name":"（株）大木綾瀬ＦＤＣ","province":"神奈川県","city":"綾瀬市","address":"神奈川県綾瀬市大上1-7-34","lat":35.45365,"lon":139.4293},{"name":"（株）大木千葉ＦＤＣ","province":"千葉県","city":"千葉市中央区","address":"千葉県千葉市中央区浜野町1025-150","lat":35.55432,"lon":140.1243},{"name":"（株）スズケン戸田物流センター","province":"埼玉県","city":"戸田市","address":"埼玉県戸田市笹目南町7-40","lat":35.80733,"lon":139.6536},{"name":"（株）スズケン神奈川物流センター","province":"神奈川県","city":"高座郡寒川町","address":"神奈川県高座郡寒川町一之宮7-9-2","lat":35.35979,"lon":139.3791},{"name":"（株）スズケン千葉物流センター","province":"千葉県","city":"印西市","address":"千葉県印西市みどり台1-1-1","lat":35.79695,"lon":140.1844},{"name":"東邦薬品（株）ＴＢＣ大宮","province":"埼玉県","city":"さいたま市北区","address":"埼玉県さいたま市北区吉野町2-211","lat":35.95911,"lon":139.607},{"name":"東邦薬品（株）ＴＢＣ東京","province":"東京都","city":"品川区","address":"品川区八潮3-2-29エフプラザ東京E棟","lat":35.59926,"lon":139.7599},{"name":"東邦薬品（株）ＷＩＬＬ平和島","province":"東京都","city":"大田区","address":"大田区平和島6-1-1(株)東京流通センター内AE4-2","lat":35.57911,"lon":139.7477},{"name":"（株）メディセオ埼玉物流センター","province":"埼玉県","city":"加須市","address":"埼玉県加須市大桑1-9","lat":36.12345,"lon":139.6403},{"name":"（株）メディセオ神奈川ＡＬＣ","province":"神奈川県","city":"横浜市戸塚区","address":"神奈川県横浜市戸塚区吉田町180-9","lat":35.40058,"lon":139.5407},{"name":"（株）日栄東海物流センター","province":"東京都","city":"小平市","address":"小平市小川東町4-6-7","lat":35.73489,"lon":139.4766},{"name":"酒井薬品（株）物流センター","province":"東京都","city":"三鷹市","address":"三鷹市野崎1-11-22","lat":35.68355,"lon":139.5539},{"name":"（株）スズケン世田谷事業所","province":"東京都","city":"世田谷区","address":"世田谷区代沢3-15-1","lat":35.65521,"lon":139.6741},{"name":"（株）メディセオ新東京ビル","province":"東京都","city":"江東区","address":"江東区佐賀2-8-20","lat":35.67896,"lon":139.7919},{"name":"相互産業（株）","province":"東京都","city":"大田区","address":"大田区中央3-19-5","lat":35.57492,"lon":139.7186},{"name":"（株）星医療酸器","province":"東京都","city":"足立区","address":"足立区入谷7-11-12","lat":35.80253,"lon":139.7583},{"name":"日本メガケア（株）","province":"東京都","city":"板橋区","address":"板橋区新河岸1-13-5","lat":35.79643,"lon":139.6701},{"name":"（株）千代田","province":"東京都","city":"杉並区","address":"杉並区南荻窪3-29-12","lat":35.7039,"lon":139.6101},{"name":"（株）世田谷酸素商事","province":"東京都","city":"世田谷区","address":"世田谷区大蔵5-28-5","lat":35.62916,"lon":139.6047},{"name":"市村酸素（株）","province":"東京都","city":"立川市","address":"立川市錦町2-11-5","lat":35.69225,"lon":139.4149},{"name":"立川酸素（株）","province":"東京都","city":"昭島市","address":"昭島市福島町2-28-20","lat":35.69772,"lon":139.3792},{"name":"（株）千代田","province":"東京都","city":"清瀬市","address":"清瀬市松山2-13-10","lat":35.77322,"lon":139.5138},{"name":"東京都赤十字血液センター","province":"東京都","city":"江東区","address":"江東区辰巳2-1-67","lat":35.64709,"lon":139.8132},{"name":"東京都赤十字血液センター渋谷供給出張所","province":"東京都","city":"渋谷区","address":"渋谷区鶯谷町2-16","lat":35.65398,"lon":139.7044},{"name":"東京都赤十字血液センター立川事業所","province":"東京都","city":"立川市","address":"立川市緑町3256","lat":35.70745,"lon":139.4092},{"name":"東京都赤十字血液センター駒込事業所","province":"東京都","city":"豊島区","address":"豊島区駒込2-2-2","lat":35.73726,"lon":139.7473},{"name":"献血供給事業団本部","province":"東京都","city":"武蔵野市","address":"武蔵野市境南町1-26-1","lat":35.696886,"lon":139.548571}]}