{"keyword":"観光","data":[{"name":"清瀬市郷土博物館","province":"東京都","city":"清瀬市","address":"東京都清瀬市上清戸2-6-41","lat":35.7795,"lon":139.521},{"name":"旧森田家","province":"東京都","city":"清瀬市","address":"東京都清瀬市下宿2-524-1","lat":35.7976,"lon":139.533},{"name":"ふるさと工房五日市","province":"東京都","city":"あきる野市","address":"東京都あきる野市乙津671","lat":35.722946,"lon":139.17905},{"name":"豊島区観光情報センター","province":"東京都","city":"豊島区","address":"東京都豊島区西池袋1-19-7","lat":35.73135,"lon":139.709614},{"name":"としま区民センター インフォメーション","province":"東京都","city":"豊島区","address":"東京都豊島区東池袋1-20-10","lat":35.731492,"lon":139.715573},{"name":"GLOBAL RING CAFE","province":"東京都","city":"豊島区","address":"東京都豊島区西池袋1-8-26","lat":35.730222,"lon":139.709126},{"name":"豊島区立トキワ荘マンガミュージアム","province":"東京都","city":"豊島区","address":"東京都豊島区南長崎3-9-22","lat":35.72443069,"lon":139.6862021},{"name":"豊島区トキワ荘通りお休み処","province":"東京都","city":"豊島区","address":"東京都豊島区南長崎2-3-2","lat":35.72359209,"lon":139.6889189},{"name":"上野観光連盟","province":"","city":"","address":"上野2丁目1番3号","lat":35.70822469,"lon":139.7726052},{"name":"浅草観光連盟","province":"","city":"","address":"花川戸1丁目15番1号","lat":35.71348469,"lon":139.798303},{"name":"浅草文化観光センター","province":"","city":"","address":"雷門2丁目18番9号","lat":35.7106499,"lon":139.7965351},{"name":"国立西洋美術館","province":"","city":"","address":"上野公園7番7号","lat":35.7153841,"lon":139.7757947},{"name":"旧東京音楽学校奏楽堂","province":"","city":"","address":"上野公園8番43号","lat":35.7180638,"lon":139.7731148},{"name":"東京藝術大学大学美術館","province":"","city":"","address":"上野公園12番8号","lat":35.71923367,"lon":139.7717248},{"name":"東京都美術館","province":"","city":"","address":"上野公園8番36号","lat":35.71720387,"lon":139.7728548},{"name":"上野の森美術館","province":"","city":"","address":"上野公園1番2号","lat":35.71262432,"lon":139.7748249},{"name":"横山大観記念館","province":"","city":"","address":"池之端1丁目4番24号","lat":35.71220414,"lon":139.7682752},{"name":"大名時計博物館","province":"","city":"","address":"谷中2丁目1番27号","lat":35.72124325,"lon":139.7663451},{"name":"皮革産業資料館","province":"","city":"","address":"橋場1丁目36番2号産業研修センター内","lat":35.72393507,"lon":139.8082731},{"name":"国立科学博物館","province":"","city":"","address":"上野公園7番20号","lat":35.71629404,"lon":139.7765146},{"name":"江戸たいとう伝統工芸館","province":"","city":"","address":"浅草2丁目22番13号","lat":35.71627434,"lon":139.7938633},{"name":"国際子ども図書館","province":"","city":"","address":"上野公園12-49","lat":35.7194737,"lon":139.7738247},{"name":"一葉記念館","province":"","city":"","address":"竜泉3丁目18番4号","lat":35.72562329,"lon":139.7928226},{"name":"下町風俗資料館付設展示場（旧吉田屋酒店）","province":"","city":"","address":"上野桜木2-10-6","lat":35.72132345,"lon":139.7708748},{"name":"下町風俗資料館","province":"","city":"","address":"上野公園2番1号","lat":35.71025449,"lon":139.7727151},{"name":"書道博物館","province":"","city":"","address":"根岸2丁目10番4号","lat":35.72464337,"lon":139.7762944},{"name":"朝倉彫塑館","province":"","city":"","address":"谷中7丁目18番10号","lat":35.72678288,"lon":139.7686349},{"name":"芸術文化財団事務局","province":"","city":"","address":"北上野2-16-8(台東清掃事務所北上野分室内)","lat":35.717651,"lon":139.7838762},{"name":"ねぎし三平堂","province":"","city":"","address":"根岸2丁目10番12号","lat":35.72493335,"lon":139.7762244},{"name":"東京国立博物館","province":"","city":"","address":"上野公園13番9号","lat":35.71880382,"lon":139.7765345},{"name":"東京文化会館","province":"","city":"","address":"上野公園5番45号","lat":35.71424419,"lon":139.7753048},{"name":"黒田記念館","province":"","city":"","address":"上野公園13番43号","lat":35.71881374,"lon":139.7733447},{"name":"たなか舞台芸術スタジオ","province":"東京都","city":"台東区","address":"台東区日本堤2丁目25-4","lat":35.72792438,"lon":139.7973602},{"name":"ふるさと交流ショップ 台東","province":"東京都","city":"台東区","address":"台東区浅草4丁目36番5号","lat":35.71972087,"lon":139.7953922},{"name":"世界のカバン博物館","province":"東京都","city":"台東区","address":"台東区駒形1丁目8番10号","lat":35.70804452,"lon":139.7953011},{"name":"日本文具資料館","province":"東京都","city":"台東区","address":"台東区柳橋1丁目1番15号(東京文具販売健康保険組合会館1階)","lat":35.69679219,"lon":139.7887635},{"name":"袋物参考館","province":"東京都","city":"台東区","address":"台東区浅草橋2丁目4番1号","lat":35.69881705,"lon":139.7857517},{"name":"上野動物園","province":"東京都","city":"台東区","address":"台東区上野公園9番83号","lat":35.71615114,"lon":139.772495},{"name":"葛飾柴又寅さん記念館","province":"東京都","city":"葛飾区","address":"東京都葛飾区柴又6-22-19","lat":35.757368,"lon":139.88053},{"name":"山田洋次ミュージアム","province":"東京都","city":"葛飾区","address":"東京都葛飾区柴又6-22-19","lat":35.757368,"lon":139.88053},{"name":"葛飾区山本亭","province":"東京都","city":"葛飾区","address":"東京都葛飾区柴又7-19-32","lat":35.758157,"lon":139.880208},{"name":"東大和保育園","province":"東京都","city":"東大和市","address":"東京都東大和市新堀1-1435-33","lat":35.741073,"lon":139.449081},{"name":"ふたば保育園","province":"東京都","city":"東大和市","address":"東京都東大和市立野2-4-13","lat":35.746313,"lon":139.417341},{"name":"みつば保育園","province":"東京都","city":"東大和市","address":"東京都東大和市立野3-1293-10","lat":35.7388,"lon":139.422714},{"name":"向原第二保育園","province":"東京都","city":"東大和市","address":"東京都東大和市向原1-4-1","lat":35.741966,"lon":139.440063},{"name":"ひが保育ママ","province":"東京都","city":"東大和市","address":"東京都東大和市中央2-1101-12","lat":35.743881,"lon":139.430359},{"name":"木村保育ママ","province":"東京都","city":"東大和市","address":"東京都東大和市南街2-20-3","lat":35.741596,"lon":139.427917},{"name":"こども学園","province":"東京都","city":"東大和市","address":"東京都東大和市奈良橋2-409","lat":35.754368,"lon":139.426514},{"name":"多摩川五本松","province":"東京都","city":"狛江市","address":"東京都狛江市元和泉三丁目地先","lat":35.632433,"lon":139.33579},{"name":"狛江エコルマホール","province":"東京都","city":"狛江市","address":"東京都狛江市元和泉1-2-1","lat":35.633278,"lon":139.578031},{"name":"巨大絵手紙","province":"東京都","city":"狛江市","address":"東京都狛江市元和泉1丁目","lat":35.632978,"lon":139.577494},{"name":"絵手紙表示板","province":"東京都","city":"狛江市","address":"東京都狛江市元和泉1丁目","lat":35.633321,"lon":139.577728},{"name":"泉龍寺","province":"東京都","city":"狛江市","address":"東京都狛江市元和泉1-6-1","lat":35.63313,"lon":139.575696},{"name":"玉泉寺","province":"東京都","city":"狛江市","address":"東京都狛江市東和泉3-10-23","lat":35.626955,"lon":139.573943},{"name":"伊豆美神社","province":"東京都","city":"狛江市","address":"東京都狛江市中和泉3-21-8","lat":35.635205,"lon":139.569083},{"name":"多摩川","province":"東京都","city":"狛江市","address":"東京都狛江市猪方4-3","lat":35.623493,"lon":139.576259},{"name":"東京スカイツリー","province":"東京都","city":"墨田区","address":"墨田区押上一丁目1番2号","lat":35.710063,"lon":139.8107},{"name":"一般社団法人　墨田区観光協会","province":"東京都","city":"墨田区","address":"墨田区押上一丁目1番2号東京スカイツリータウン・ソラマチ5階産業観光プラザすみだまち処内","lat":35.710341,"lon":139.811963},{"name":"産業観光プラザ すみだ まち処","province":"東京都","city":"墨田区","address":"墨田区押上一丁目1番2号東京スカイツリータウン・ソラマチ5階","lat":35.710341,"lon":139.811963},{"name":"両国観光案内所","province":"東京都","city":"墨田区","address":"墨田区横網一丁目3番20号-両国-江戸NOREN1階","lat":35.696155,"lon":139.792423},{"name":"江戸東京博物館内墨田区文化観光コーナー","province":"東京都","city":"墨田区","address":"墨田区横網一丁目4番1号","lat":35.696599,"lon":139.7959929},{"name":"すみだトリフォニーホール","province":"東京都","city":"墨田区","address":"墨田区錦糸一丁目2番3号","lat":35.697215,"lon":139.8101},{"name":"江戸東京博物館","province":"東京都","city":"墨田区","address":"墨田区横網一丁目4番1号","lat":35.696593,"lon":139.795855},{"name":"両国花火資料館","province":"東京都","city":"墨田区","address":"墨田区両国二丁目10番8号","lat":35.693888,"lon":139.791756},{"name":"東京都復興記念館","province":"東京都","city":"墨田区","address":"墨田区横網二丁目3番25号","lat":35.699826,"lon":139.796895},{"name":"相撲博物館","province":"東京都","city":"墨田区","address":"墨田区横網一丁目3番28号","lat":35.697228,"lon":139.793365},{"name":"東武博物館","province":"東京都","city":"墨田区","address":"墨田区東向島四丁目28番16号","lat":35.724491,"lon":139.819319},{"name":"すみだ郷土文化資料館","province":"東京都","city":"墨田区","address":"墨田区向島二丁目3番5号","lat":35.7139,"lon":139.805885},{"name":"立花大正民家園・旧小山家住宅","province":"東京都","city":"墨田区","address":"墨田区立花六丁目13番17号","lat":35.709865,"lon":139.838094},{"name":"すみだ北斎美術館","province":"東京都","city":"墨田区","address":"墨田区亀沢二丁目7番2号","lat":35.696361,"lon":139.800515},{"name":"たばこと塩の博物館","province":"東京都","city":"墨田区","address":"墨田区横川一丁目16番3号","lat":35.70575,"lon":139.808532},{"name":"刀剣博物館","province":"東京都","city":"墨田区","address":"墨田区横網一丁目12番9号","lat":35.698874,"lon":139.793726}]}