{"keyword":"本部","data":[{"name":"都庁舎","province":"東京都","city":"新宿区","address":"新宿区西新宿2-8-1","lat":35.689185,"lon":139.691648},{"name":"立川防災センター","province":"東京都","city":"立川市","address":"立川市緑町3233","lat":35.70627,"lon":139.4077},{"name":"千代田区本庁舎","province":"東京都","city":"千代田区","address":"千代田区九段南1-2-1","lat":35.694003,"lon":139.753634},{"name":"中央区本庁舎","province":"東京都","city":"中央区","address":"中央区築地1-1-1","lat":35.670651,"lon":139.771861},{"name":"港区本庁舎","province":"東京都","city":"港区","address":"港区芝公園1-5-25","lat":35.658015,"lon":139.751596},{"name":"新宿区本庁舎","province":"東京都","city":"新宿区","address":"新宿区歌舞伎町1-4-1","lat":35.69389,"lon":139.703463},{"name":"文京区本庁舎","province":"東京都","city":"文京区","address":"文京区春日1-16-21","lat":35.707951,"lon":139.752431},{"name":"台東区本庁舎","province":"東京都","city":"台東区","address":"台東区東上野4-5-6","lat":35.712607,"lon":139.779984},{"name":"墨田区本庁舎","province":"東京都","city":"墨田区","address":"墨田区吾妻橋1-23-20","lat":35.710724,"lon":139.801497},{"name":"江東区本庁舎","province":"東京都","city":"江東区","address":"江東区東陽4-11-28","lat":35.67281,"lon":139.817224},{"name":"品川区本庁舎","province":"東京都","city":"品川区","address":"品川区広町2-1-36","lat":35.608837,"lon":139.730242},{"name":"目黒区本庁舎","province":"東京都","city":"目黒区","address":"目黒区上目黒2-19-15","lat":35.641263,"lon":139.698591},{"name":"大田区本庁舎","province":"東京都","city":"大田区","address":"大田区蒲田5-13-14","lat":35.561521,"lon":139.71611},{"name":"世田谷区本庁舎","province":"東京都","city":"世田谷区","address":"世田谷区世田谷4-21-27","lat":35.645969,"lon":139.65277},{"name":"渋谷区本庁舎","province":"東京都","city":"渋谷区","address":"渋谷区宇田川町1-1","lat":35.66396,"lon":139.698082},{"name":"中野区本庁舎","province":"東京都","city":"中野区","address":"中野区中野4-8-1","lat":35.707288,"lon":139.66381},{"name":"杉並区本庁舎","province":"東京都","city":"杉並区","address":"杉並区阿佐谷南1-15-1","lat":35.699893,"lon":139.636363},{"name":"豊島区本庁舎","province":"東京都","city":"豊島区","address":"豊島区東池袋1-18-1","lat":35.732413,"lon":139.715538},{"name":"北区本庁舎","province":"東京都","city":"北区","address":"北区王子1-15-22","lat":35.75318,"lon":139.734},{"name":"荒川区本庁舎","province":"東京都","city":"荒川区","address":"荒川区荒川2-2-3","lat":35.736083,"lon":139.783372},{"name":"板橋区本庁舎","province":"東京都","city":"板橋区","address":"板橋区板橋2-66-1","lat":35.75092,"lon":139.709199},{"name":"練馬区本庁舎","province":"東京都","city":"練馬区","address":"練馬区豊玉北6-12-1","lat":35.735573,"lon":139.651671},{"name":"足立区本庁舎","province":"東京都","city":"足立区","address":"足立区中央本町1-17-1","lat":35.774892,"lon":139.804584},{"name":"葛飾区本庁舎","province":"東京都","city":"葛飾区","address":"葛飾区立石5-13-1","lat":35.742986,"lon":139.847408},{"name":"江戸川区本庁舎","province":"東京都","city":"江戸川区","address":"江戸川区中央1-4-1","lat":35.706674,"lon":139.868692},{"name":"八王子市本庁舎","province":"東京都","city":"八王子市","address":"八王子市元本郷町3-24-1","lat":35.66657,"lon":139.316075},{"name":"立川市本庁舎","province":"東京都","city":"立川市","address":"立川市泉町1156-9","lat":35.714003,"lon":139.407832},{"name":"武蔵野市本庁舎","province":"東京都","city":"武蔵野市","address":"武蔵野市緑町2-2-28","lat":35.717837,"lon":139.565938},{"name":"三鷹市本庁舎","province":"東京都","city":"三鷹市","address":"三鷹市野崎1-1-1","lat":35.68256,"lon":139.560823},{"name":"青梅市本庁舎","province":"東京都","city":"青梅市","address":"青梅市東青梅1-11-1","lat":35.787857,"lon":139.275835},{"name":"府中市本庁舎","province":"東京都","city":"府中市","address":"府中市宮西町2-24","lat":35.669071,"lon":139.477278},{"name":"昭島市本庁舎","province":"東京都","city":"昭島市","address":"昭島市田中町1-17-1","lat":35.705755,"lon":139.353609},{"name":"調布市本庁舎","province":"東京都","city":"調布市","address":"調布市小島町2-35-1","lat":35.650628,"lon":139.540683},{"name":"町田市本庁舎","province":"東京都","city":"町田市","address":"町田市中町1-20-23","lat":35.54866,"lon":139.4464},{"name":"小金井市本庁舎","province":"東京都","city":"小金井市","address":"小金井市本町6-6-3","lat":35.699479,"lon":139.502989},{"name":"小平市本庁舎","province":"東京都","city":"小平市","address":"小平市小川町2-1333","lat":35.728408,"lon":139.477909},{"name":"日野市本庁舎","province":"東京都","city":"日野市","address":"日野市神明1-12-1","lat":35.670504,"lon":139.395512},{"name":"東村山市本庁舎","province":"東京都","city":"東村山市","address":"東村山市本町1-2-3","lat":35.754624,"lon":139.468484},{"name":"国分寺市本庁舎","province":"東京都","city":"国分寺市","address":"国分寺市戸倉1-6-1","lat":35.711021,"lon":139.462608},{"name":"国立市本庁舎","province":"東京都","city":"国立市","address":"国立市富士見台2-47-1","lat":35.683913,"lon":139.441366},{"name":"西東京市役所保谷庁舎","province":"東京都","city":"西東京市","address":"西東京市中町1-5-1","lat":35.741595,"lon":139.558951},{"name":"福生市本庁舎","province":"東京都","city":"福生市","address":"福生市本町5","lat":35.738484,"lon":139.326868},{"name":"狛江市本庁舎","province":"東京都","city":"狛江市","address":"狛江市和泉本町1-1-5","lat":35.634914,"lon":139.578735},{"name":"東大和市本庁舎","province":"東京都","city":"東大和市","address":"東大和市中央3-930","lat":35.744714,"lon":139.427038},{"name":"清瀬市本庁舎","province":"東京都","city":"清瀬市","address":"清瀬市中里5-842","lat":35.786053,"lon":139.526353},{"name":"東久留米市本庁舎","province":"東京都","city":"東久留米市","address":"東久留米市本町3-3-1","lat":35.757992,"lon":139.529673},{"name":"武蔵村山市本庁舎","province":"東京都","city":"武蔵村山市","address":"武蔵村山市本町1-1-1","lat":35.754906,"lon":139.387421},{"name":"多摩市本庁舎","province":"東京都","city":"多摩市","address":"多摩市関戸6-12-1","lat":35.63776,"lon":139.44689},{"name":"稲城市本庁舎","province":"東京都","city":"稲城市","address":"稲城市東長沼2111","lat":35.63796,"lon":139.50427},{"name":"羽村市本庁舎","province":"東京都","city":"羽村市","address":"羽村市緑ヶ丘5-2-1","lat":35.767766,"lon":139.310538},{"name":"あきる野市本庁舎","province":"東京都","city":"あきる野市","address":"あきる野市二宮350","lat":35.729114,"lon":139.293511},{"name":"瑞穂町本庁舎","province":"東京都","city":"西多摩郡瑞穂町","address":"西多摩郡瑞穂町大字箱根ヶ崎2335","lat":35.77189,"lon":139.3538},{"name":"日の出町本庁舎","province":"東京都","city":"西多摩郡日の出町","address":"西多摩郡日の出町大字平井2780","lat":35.742115,"lon":139.257405},{"name":"桧原村本庁舎","province":"東京都","city":"西多摩郡檜原村","address":"西多摩郡桧原村467-1","lat":35.72688,"lon":139.1487},{"name":"奥多摩町本庁舎","province":"","city":"","address":"奥多磨町氷川215-6","lat":35.80952,"lon":139.0962}]}