{"keyword":"市町村","data":[{"name":"清瀬市健康センター","province":"東京都","city":"清瀬市","address":"清瀬市中里5-842","lat":35.78557,"lon":139.52655},{"name":"武蔵村山市立保健相談センター","province":"東京都","city":"武蔵村山市","address":"武蔵村山市本町1-23","lat":35.752758,"lon":139.387455},{"name":"あきる野市五日市保健センター","province":"東京都","city":"あきる野市","address":"あきる野市五日市414-5","lat":35.729248,"lon":139.219559},{"name":"大島けんこうセンター","province":"東京都","city":"大島町","address":"大島町岡田字沢立111-1","lat":34.782708,"lon":139.382367},{"name":"八丈町保健福祉センター","province":"東京都","city":"八丈町","address":"八丈町三根2-1","lat":33.11335,"lon":139.793424},{"name":"東久留米市わくわく健康プラザ内保健センター","province":"東京都","city":"東久留米市","address":"東久留米市滝山4-3-14","lat":35.74133,"lon":139.50406},{"name":"立川市健康会館","province":"東京都","city":"立川市","address":"立川市高松町3-22-9","lat":35.70297,"lon":139.41904},{"name":"多摩市立健康センター","province":"東京都","city":"多摩市","address":"多摩市関戸4-19-5","lat":35.64898,"lon":139.44959},{"name":"檜原村やすらぎの里","province":"東京都","city":"西多摩郡檜原村","address":"西多摩郡檜原村2717","lat":35.72683,"lon":139.16281},{"name":"奥多摩町保健福祉センター","province":"東京都","city":"西多摩郡奥多摩町","address":"西多摩郡奥多摩町氷川1111","lat":35.82361,"lon":139.09345},{"name":"青ヶ島村保健福祉センター","province":"東京都","city":"青ヶ島村","address":"青ヶ島村無番地","lat":32.46708,"lon":139.76553},{"name":"国立市保健センター（分室）","province":"東京都","city":"国立市","address":"国立市富士見台3-21-1","lat":35.685879,"lon":139.43515}]}