{"keyword":"市町村","data":[{"name":"立川市健康会館","province":"東京都","city":"立川市","address":"立川市高松町3-22-9","lat":35.70289,"lon":139.419209},{"name":"武蔵野市立保健センター","province":"東京都","city":"武蔵野市","address":"武蔵野市吉祥寺北町4-8-10","lat":35.712923,"lon":139.566582},{"name":"三鷹市総合保健センター","province":"東京都","city":"三鷹市","address":"三鷹市新川6-37-1元気創造プラザ2階","lat":35.681774,"lon":139.561834},{"name":"青梅市健康センター","province":"東京都","city":"青梅市","address":"青梅市東青梅1-174-1","lat":35.787787,"lon":139.273319},{"name":"府中市保健センター","province":"広島県","city":"府中市","address":"府中市府中町2-25","lat":35.675775,"lon":139.482855},{"name":"昭島市保健福祉センター「あいぽっく」","province":"東京都","city":"昭島市","address":"昭島市昭和町4-7-1","lat":35.710835,"lon":139.364125},{"name":"調布市保健センター","province":"東京都","city":"調布市","address":"調布市小島町2-33-1","lat":35.650988,"lon":139.541312},{"name":"小金井市保健センター","province":"東京都","city":"小金井市","address":"小金井市貫井北町5-18-18","lat":35.701717,"lon":139.490125},{"name":"小平市健康センター","province":"東京都","city":"小平市","address":"小平市学園東町1-19-12","lat":35.727,"lon":139.477545},{"name":"日野市生活・保健センター","province":"東京都","city":"日野市","address":"日野市日野本町1-6-2","lat":35.675865,"lon":139.40012},{"name":"東村山市保健福祉総合センター「いきいきプラザ」","province":"東京都","city":"東村山市","address":"東村山市本町1-2-3","lat":35.754624,"lon":139.468483},{"name":"国分寺市いずみ保健センター","province":"東京都","city":"国分寺市","address":"国分寺市泉町2-3-8","lat":35.696398,"lon":139.468855},{"name":"国立市保健センター","province":"東京都","city":"国立市","address":"国立市富士見台3-16-5","lat":35.686095,"lon":139.436547},{"name":"国立市保健センター（分室）","province":"東京都","city":"国立市","address":"国立市富士見台3-21-1","lat":35.685859,"lon":139.435872},{"name":"福生市保健センター","province":"東京都","city":"福生市","address":"福生市大字福生2125-3","lat":35.744127,"lon":139.334232},{"name":"狛江市保健センター（あいとぴあセンター）","province":"東京都","city":"狛江市","address":"狛江市元和泉2-35-1","lat":35.6333,"lon":139.567777},{"name":"東大和市立保健センター","province":"東京都","city":"東大和市","address":"東大和市中央3-918-1","lat":35.745721,"lon":139.42737},{"name":"清瀬市健康センター","province":"東京都","city":"清瀬市","address":"清瀬市中里5-842","lat":35.786052,"lon":139.526353},{"name":"東久留米市わくわく健康プラザ内保健センター","province":"東京都","city":"東久留米市","address":"東久留米市滝山4-3-14","lat":35.742288,"lon":139.504483},{"name":"武蔵村山市保健相談センター","province":"東京都","city":"武蔵村山市","address":"武蔵村山市本町1-23","lat":35.752758,"lon":139.387455},{"name":"武蔵村山市保健相談センターお伊勢の森分室","province":"東京都","city":"武蔵村山市","address":"武蔵村山市中央2-118","lat":35.750959,"lon":139.393643},{"name":"多摩市立健康センター","province":"東京都","city":"多摩市","address":"多摩市関戸4-19-5","lat":35.649044,"lon":139.449511},{"name":"稲城市保健センター","province":"東京都","city":"稲城市","address":"稲城市百村112-1","lat":35.638231,"lon":139.4975},{"name":"羽村市保健センター","province":"東京都","city":"羽村市","address":"羽村市緑ケ丘5-5-2","lat":35.768793,"lon":139.311749},{"name":"あきる野市あきる野保健相談所","province":"東京都","city":"あきる野市","address":"あきる野市秋川6-1-2","lat":35.728839,"lon":139.289816},{"name":"あきる野市五日市保健センター","province":"東京都","city":"あきる野市","address":"あきる野市五日市414-5","lat":35.729676,"lon":139.219487},{"name":"西東京市田無総合福祉センター","province":"東京都","city":"西東京市","address":"西東京市田無町5-5-12","lat":35.731809,"lon":139.536209},{"name":"西東京市保谷保健福祉総合センター","province":"東京都","city":"西東京市","address":"西東京市中町1-5-1","lat":35.741595,"lon":139.558951},{"name":"瑞穂町保健センター","province":"東京都","city":"西多摩郡瑞穂町","address":"西多摩郡瑞穂町大字石畑1970","lat":35.77368,"lon":139.356656},{"name":"日の出町保健センター","province":"東京都","city":"西多摩郡日の出町","address":"西多摩郡日の出町平井2780","lat":35.742114,"lon":139.257405},{"name":"檜原村やすらぎの里","province":"東京都","city":"西多摩郡檜原村","address":"西多摩郡檜原村2717","lat":35.735304,"lon":139.143647},{"name":"奥多摩町保健福祉センター","province":"東京都","city":"西多摩郡奥多摩町","address":"西多摩郡奥多摩町氷川1111","lat":35.800485,"lon":139.088556},{"name":"大島町けんこうセンター","province":"東京都","city":"大島町","address":"大島町岡田字沢立111-1","lat":34.782708,"lon":139.382367},{"name":"新島村さわやか健康センター","province":"東京都","city":"新島村","address":"新島村本村3-12-8","lat":34.372609,"lon":139.259704},{"name":"神津島村保健センター","province":"東京都","city":"神津島村","address":"神津島村1009-1","lat":34.204719,"lon":139.135558},{"name":"八丈町保健福祉センター","province":"東京都","city":"八丈町","address":"八丈町三根2","lat":33.113537,"lon":139.793264},{"name":"青ヶ島村保健センター","province":"東京都","city":"青ヶ島村","address":"青ヶ島村無番地","lat":32.466773,"lon":139.76346},{"name":"青ヶ島村保健福祉センター","province":"東京都","city":"青ヶ島村","address":"青ヶ島村無番地","lat":32.466773,"lon":139.76346},{"name":"立川市健康会館","province":"東京都","city":"立川市","address":"東京都立川市高松町3丁目22-9","lat":35.70288991,"lon":139.41920904},{"name":"武蔵野市立保健センター","province":"東京都","city":"武蔵野市","address":"東京都武蔵野市吉祥寺北町4丁目8-10","lat":35.71292303,"lon":139.56658205},{"name":"三鷹市総合保健センター","province":"東京都","city":"三鷹市","address":"東京都三鷹市新川6丁目37-1","lat":35.68171252,"lon":139.56183921},{"name":"青梅市健康センター","province":"東京都","city":"青梅市","address":"東京都青梅市東青梅1丁目174-1","lat":35.78776239,"lon":139.27329638},{"name":"府中市保健センター","province":"東京都","city":"府中市","address":"東京都府中市府中町2丁目25","lat":35.67577528,"lon":139.48285464},{"name":"昭島市保健福祉センター「あいぽっく」","province":"東京都","city":"昭島市","address":"東京都昭島市昭和町4丁目7-1","lat":35.71083484,"lon":139.36412472},{"name":"調布市保健センター","province":"東京都","city":"調布市","address":"東京都調布市小島町2丁目33-1","lat":35.65098001,"lon":139.54130638},{"name":"小金井市保健センター","province":"東京都","city":"小金井市","address":"東京都小金井市貫井北町5丁目18-18","lat":35.70169192,"lon":139.49017242},{"name":"小平市健康センター","province":"東京都","city":"小平市","address":"東京都小平市学園東町1丁目19-12","lat":35.72699983,"lon":139.47754474},{"name":"日野市生活・保健センター","province":"東京都","city":"日野市","address":"東京都日野市日野本町1丁目6-2","lat":35.67588416,"lon":139.40011995},{"name":"東村山市保健福祉総合センター「いきいきプラザ」","province":"東京都","city":"東村山市","address":"東京都東村山市本町1丁目2-3","lat":35.75462421,"lon":139.46848323},{"name":"国分寺市いずみ保健センター","province":"東京都","city":"国分寺市","address":"東京都国分寺市泉町2丁目3-8","lat":35.69639202,"lon":139.46876059},{"name":"国立市保健センター","province":"東京都","city":"国立市","address":"東京都国立市富士見台3丁目16-5","lat":35.68608121,"lon":139.43650545},{"name":"福生市保健センター","province":"東京都","city":"福生市","address":"東京都福生市福生（大字）2125-3","lat":35.74412745,"lon":139.3342316},{"name":"狛江市保健センター（あいとぴあセンター）","province":"東京都","city":"狛江市","address":"東京都狛江市元和泉2丁目35-1","lat":35.6333052,"lon":139.56761624},{"name":"東大和市立保健センター","province":"東京都","city":"東大和市","address":"東京都東大和市中央3丁目918-1","lat":35.74572128,"lon":139.42737043},{"name":"清瀬市しあわせ未来センター","province":"東京都","city":"清瀬市","address":"東京都清瀬市中里5丁目842","lat":35.78608019,"lon":139.52608035},{"name":"東久留米市わくわく健康プラザ","province":"東京都","city":"東久留米市","address":"東京都東久留米市滝山4丁目3-14","lat":35.74228769,"lon":139.5044833},{"name":"武蔵村山市立保健相談センター","province":"東京都","city":"武蔵村山市","address":"東京都武蔵村山市本町1丁目23","lat":35.75275842,"lon":139.38745453},{"name":"多摩市立健康センター","province":"東京都","city":"多摩市","address":"東京都多摩市関戸4丁目19-5","lat":35.6490441,"lon":139.44951119},{"name":"稲城市保健センター","province":"東京都","city":"稲城市","address":"東京都稲城市百村112-1","lat":35.63823105,"lon":139.4974999},{"name":"羽村市保健センター","province":"東京都","city":"羽村市","address":"東京都羽村市緑ヶ丘5丁目5-2","lat":35.76879339,"lon":139.31174922},{"name":"あきる野市あきる野保健相談所","province":"東京都","city":"あきる野市","address":"東京都あきる野市秋川6丁目1-2","lat":35.72883906,"lon":139.28981625},{"name":"あきる野市五日市保健センター","province":"東京都","city":"あきる野市","address":"東京都あきる野市五日市414-5","lat":35.72967629,"lon":139.21948692},{"name":"西東京市田無総合福祉センター","province":"東京都","city":"西東京市","address":"東京都西東京市田無町5丁目5-12","lat":35.73181186,"lon":139.5361949},{"name":"西東京市保谷保健福祉総合センター","province":"東京都","city":"西東京市","address":"東京都西東京市中町1丁目5-1","lat":35.74129184,"lon":139.55895096},{"name":"瑞穂町保健センター","province":"東京都","city":"西多摩郡瑞穂町","address":"東京都西多摩郡瑞穂町石畑（大字）1970","lat":35.77368001,"lon":139.35665631},{"name":"日の出町保健センター","province":"東京都","city":"西多摩郡日の出町","address":"東京都西多摩郡日の出町平井（大字）2780","lat":35.74211436,"lon":139.25740482},{"name":"檜原村やすらぎの里","province":"東京都","city":"西多摩郡檜原村","address":"東京都西多摩郡檜原村三都郷2717","lat":35.7353041,"lon":139.14364675},{"name":"奥多摩町保健福祉センター","province":"東京都","city":"西多摩郡奥多摩町","address":"東京都西多摩郡奥多摩町氷川1111","lat":35.80056794,"lon":139.0886364},{"name":"大島けんこうセンター","province":"東京都","city":"大島町","address":"東京都大島町岡田沢立（字）111-1","lat":34.78270795,"lon":139.38236697},{"name":"新島村さわやか健康センター","province":"東京都","city":"新島村","address":"東京都新島村本村3丁目12-8","lat":34.37260944,"lon":139.2597043},{"name":"神津島村保健センター","province":"東京都","city":"神津島村","address":"東京都神津島村1009-1","lat":34.20471876,"lon":139.13555754},{"name":"八丈町保健福祉センター","province":"東京都","city":"八丈町","address":"東京都八丈町三根2-1","lat":33.11275908,"lon":139.79338344},{"name":"立川市健康会館","province":"東京都","city":"立川市","address":"立川市高松町3-22-9","lat":35.70296,"lon":139.41904},{"name":"武蔵野市立保健センター","province":"東京都","city":"武蔵野市","address":"武蔵野市吉祥寺北町4-8-10","lat":35.71277,"lon":139.56651},{"name":"三鷹市総合保健センター","province":"東京都","city":"三鷹市","address":"三鷹市新川6-37-1元気創造プラザ2階","lat":35.68187,"lon":139.56218},{"name":"青梅市健康センター","province":"東京都","city":"青梅市","address":"青梅市東青梅1-174-1","lat":35.78766,"lon":139.27274},{"name":"府中市保健センター","province":"広島県","city":"府中市","address":"府中市府中町2-25","lat":35.67585,"lon":139.4827},{"name":"昭島市保健福祉センター「あいぽっく」","province":"東京都","city":"昭島市","address":"昭島市昭和町4-7-1","lat":35.71101,"lon":139.36354},{"name":"調布市保健センター","province":"東京都","city":"調布市","address":"調布市小島町2-33-1","lat":35.65147,"lon":139.54144},{"name":"小金井市保健センター","province":"東京都","city":"小金井市","address":"小金井市貫井北町5-18-18","lat":35.70167,"lon":139.49036},{"name":"小平市健康センター","province":"東京都","city":"小平市","address":"小平市学園東町1-19-12","lat":35.72678,"lon":139.47797},{"name":"日野市生活・保健センター","province":"東京都","city":"日野市","address":"日野市日野本町1-6-2","lat":35.67592,"lon":139.40025},{"name":"東村山市保健福祉総合センター「いきいきプラザ」","province":"東京都","city":"東村山市","address":"東村山市本町1-2-3","lat":35.75449,"lon":139.46841},{"name":"国分寺市いずみ保健センター","province":"東京都","city":"国分寺市","address":"国分寺市泉町2-3-8","lat":35.69611,"lon":139.46869},{"name":"国立市保健センター","province":"東京都","city":"国立市","address":"国立市富士見台3-16-5","lat":35.6862,"lon":139.43675},{"name":"福生市保健センター","province":"東京都","city":"福生市","address":"福生市大字福生2125-3","lat":35.74394,"lon":139.3327},{"name":"狛江市保健センター（あいとぴあセンター）","province":"東京都","city":"狛江市","address":"狛江市元和泉2-35-1","lat":35.6334,"lon":139.56741},{"name":"東大和市立保健センター","province":"東京都","city":"東大和市","address":"東大和市中央3-918-1","lat":35.74592,"lon":139.42751},{"name":"清瀬市しあわせ未来センター","province":"東京都","city":"清瀬市","address":"清瀬市中里5-842","lat":35.78557,"lon":139.52655},{"name":"東久留米市わくわく健康プラザ","province":"東京都","city":"東久留米市","address":"東久留米市滝山4-3-14","lat":35.74133,"lon":139.50406},{"name":"武蔵村山市立保健相談センター","province":"東京都","city":"武蔵村山市","address":"武蔵村山市本町1-23","lat":35.75282,"lon":139.38742},{"name":"多摩市立健康センター","province":"東京都","city":"多摩市","address":"多摩市関戸4-19-5","lat":35.64898,"lon":139.44958},{"name":"稲城市保健センター","province":"東京都","city":"稲城市","address":"稲城市百村112-1","lat":35.63797,"lon":139.49731},{"name":"羽村市保健センター","province":"東京都","city":"羽村市","address":"羽村市緑ケ丘5-5-2","lat":35.76891,"lon":139.31209},{"name":"あきる野市あきる野保健相談所","province":"東京都","city":"あきる野市","address":"あきる野市秋川6-1-2","lat":35.72893,"lon":139.29012},{"name":"あきる野市五日市保健センター","province":"東京都","city":"あきる野市","address":"あきる野市五日市414-5","lat":35.72925,"lon":139.21956},{"name":"西東京市田無総合福祉センター","province":"東京都","city":"西東京市","address":"西東京市田無町5-5-12","lat":35.73098,"lon":139.53619},{"name":"西東京市保谷保健福祉総合センター","province":"東京都","city":"西東京市","address":"西東京市中町1-5-1","lat":35.74174,"lon":139.55884},{"name":"瑞穂町保健センター","province":"東京都","city":"西多摩郡瑞穂町","address":"西多摩郡瑞穂町大字石畑1970","lat":35.77695,"lon":139.35938},{"name":"日の出町保健センター","province":"東京都","city":"西多摩郡日の出町","address":"西多摩郡日の出町大字平井2780","lat":35.74244,"lon":139.25661},{"name":"檜原村やすらぎの里","province":"東京都","city":"西多摩郡檜原村","address":"西多摩郡檜原村2717","lat":35.72684,"lon":139.14885},{"name":"奥多摩町保健福祉センター","province":"東京都","city":"西多摩郡奥多摩町","address":"西多摩郡奥多摩町氷川1111","lat":35.8236,"lon":139.09344},{"name":"大島けんこうセンター","province":"東京都","city":"大島町","address":"大島町岡田字沢立111-1","lat":34.78303,"lon":139.38251},{"name":"新島村さわやか健康センター","province":"東京都","city":"新島村","address":"新島村本村3-12-8","lat":34.37287,"lon":139.25946},{"name":"神津島村保健センター","province":"東京都","city":"神津島村","address":"神津島村1009-1","lat":34.20461,"lon":139.13504},{"name":"八丈町保健福祉センター","province":"東京都","city":"八丈町","address":"八丈町三根2-1","lat":33.11377,"lon":139.79211},{"name":"青ヶ島村保健福祉センター","province":"東京都","city":"青ヶ島村","address":"青ヶ島村無番地","lat":32.46654,"lon":139.76334},{"name":"清瀬市健康センター","province":"東京都","city":"清瀬市","address":"清瀬市中里5-842","lat":35.78557,"lon":139.52655},{"name":"武蔵村山市立保健相談センター","province":"東京都","city":"武蔵村山市","address":"武蔵村山市本町1-23","lat":35.752758,"lon":139.387455},{"name":"あきる野市五日市保健センター","province":"東京都","city":"あきる野市","address":"あきる野市五日市414-5","lat":35.729248,"lon":139.219559},{"name":"大島けんこうセンター","province":"東京都","city":"大島町","address":"大島町岡田字沢立111-1","lat":34.782708,"lon":139.382367},{"name":"八丈町保健福祉センター","province":"東京都","city":"八丈町","address":"八丈町三根2-1","lat":33.11335,"lon":139.793424},{"name":"東久留米市わくわく健康プラザ内保健センター","province":"東京都","city":"東久留米市","address":"東久留米市滝山4-3-14","lat":35.74133,"lon":139.50406},{"name":"立川市健康会館","province":"東京都","city":"立川市","address":"立川市高松町3-22-9","lat":35.70297,"lon":139.41904},{"name":"多摩市立健康センター","province":"東京都","city":"多摩市","address":"多摩市関戸4-19-5","lat":35.64898,"lon":139.44959},{"name":"檜原村やすらぎの里","province":"東京都","city":"西多摩郡檜原村","address":"西多摩郡檜原村2717","lat":35.72683,"lon":139.16281},{"name":"奥多摩町保健福祉センター","province":"東京都","city":"西多摩郡奥多摩町","address":"西多摩郡奥多摩町氷川1111","lat":35.82361,"lon":139.09345},{"name":"青ヶ島村保健福祉センター","province":"東京都","city":"青ヶ島村","address":"青ヶ島村無番地","lat":32.46708,"lon":139.76553},{"name":"国立市保健センター（分室）","province":"東京都","city":"国立市","address":"国立市富士見台3-21-1","lat":35.685879,"lon":139.43515}]}