{"keyword":"事","data":[{"name":"コクミン薬局 田無店","province":"東京都","city":"西東京市","address":"東京都西東京市田無町二丁目1-1アスタ専門店内1階","lat":35.728216,"lon":139.54071},{"name":"薬局トモズアスタ田無店","province":"東京都","city":"西東京市","address":"東京都西東京市田無町二丁目1-1アスタ田無2階","lat":35.728216,"lon":139.54071},{"name":"ファーマライズ薬局 西友田無店","province":"東京都","city":"西東京市","address":"東京都西東京市田無町二丁目1-1LIVIN田無店1階","lat":35.728216,"lon":139.54071},{"name":"あけぼの薬局 田無店","province":"東京都","city":"西東京市","address":"東京都西東京市田無町二丁目9-13丸嘉ビル1階","lat":35.728794,"lon":139.541032},{"name":"西東京グリーン薬局","province":"東京都","city":"西東京市","address":"東京都西東京市田無町三丁目1-16","lat":35.72957,"lon":139.540268},{"name":"ウエルシア薬局田無駅前店","province":"東京都","city":"西東京市","address":"東京都西東京市田無町四丁目2-11指田ビル1階","lat":35.727796,"lon":139.539231},{"name":"コスモ薬局 西東京店","province":"東京都","city":"西東京市","address":"東京都西東京市田無町四丁目11-2","lat":35.72667,"lon":139.532494},{"name":"田無プラザ薬局","province":"東京都","city":"西東京市","address":"東京都西東京市田無町四丁目21-11第2川上ビル1階","lat":35.729832,"lon":139.538234},{"name":"たなし白十字薬局","province":"東京都","city":"西東京市","address":"東京都西東京市田無町四丁目22-12プランドールイトー1階107室","lat":35.729238,"lon":139.537819},{"name":"薬局ホームケアファーマシー田無店","province":"東京都","city":"西東京市","address":"東京都西東京市田無町四丁目24-18第三カモシダビル1、2階","lat":35.729546,"lon":139.539291},{"name":"田無本町調剤薬局","province":"東京都","city":"西東京市","address":"東京都西東京市田無町四丁目25-5カモシダビル1階","lat":35.728891,"lon":139.538848},{"name":"なの花薬局 田無店","province":"東京都","city":"西東京市","address":"東京都西東京市田無町四丁目29-3SAビル1階","lat":35.729207,"lon":139.539701},{"name":"健祥堂薬局 田無店","province":"東京都","city":"西東京市","address":"東京都西東京市田無町七丁目2-1","lat":35.730782,"lon":139.534885},{"name":"和光調剤薬局","province":"東京都","city":"西東京市","address":"東京都西東京市田無町七丁目4-4","lat":35.731385,"lon":139.532006},{"name":"薬局T・Iファーマシー 田無店","province":"東京都","city":"西東京市","address":"東京都西東京市田無町七丁目20-12","lat":35.731715,"lon":139.534565},{"name":"吉岡薬局","province":"東京都","city":"西東京市","address":"東京都西東京市南町一丁目14-11","lat":35.725998,"lon":139.545991},{"name":"南町調剤薬局","province":"東京都","city":"西東京市","address":"東京都西東京市南町三丁目25-4アベニュート1階","lat":35.72638,"lon":139.541385},{"name":"ワガツマ薬局","province":"東京都","city":"西東京市","address":"東京都西東京市南町四丁目3-2サウスタウンビル1階","lat":35.727062,"lon":139.540266},{"name":"薬局たんぽぽ 田無店","province":"東京都","city":"西東京市","address":"東京都西東京市南町四丁目13-9","lat":35.722923,"lon":139.541727},{"name":"そうごう薬局 田無店","province":"東京都","city":"西東京市","address":"東京都西東京市南町五丁目1-8","lat":35.726285,"lon":139.537033},{"name":"サクラ薬局","province":"東京都","city":"西東京市","address":"東京都西東京市南町五丁目4-4向南ビル1階","lat":35.726573,"lon":139.53814},{"name":"ウエルシア薬局田無駅南口店","province":"東京都","city":"西東京市","address":"東京都西東京市南町五丁目8-211階","lat":35.726478,"lon":139.539319},{"name":"薬局キッズファーマシー","province":"東京都","city":"西東京市","address":"東京都西東京市南町五丁目13-18","lat":35.723373,"lon":139.538315},{"name":"にしはら薬局","province":"東京都","city":"西東京市","address":"東京都西東京市西原町五丁目1-8西原クリニックビル1階","lat":35.737453,"lon":139.534891},{"name":"稲垣薬局 田無店","province":"東京都","city":"西東京市","address":"東京都西東京市緑町三丁目5-16","lat":35.742037,"lon":139.541967},{"name":"田無調剤薬局","province":"東京都","city":"西東京市","address":"東京都西東京市緑町三丁目6-2","lat":35.74112,"lon":139.540966},{"name":"カイセイ調剤薬局 ひばりが丘店","province":"東京都","city":"西東京市","address":"東京都西東京市谷戸町一丁目23-7","lat":35.744026,"lon":139.543284},{"name":"あけぼの薬局 ひばりが丘南店","province":"東京都","city":"西東京市","address":"東京都西東京市谷戸町二丁目1-41ひばりが丘南メディカルスクエア1階","lat":35.743193,"lon":139.537246},{"name":"薬局マツモトキヨシ 新ひばりが丘店","province":"東京都","city":"西東京市","address":"東京都西東京市谷戸町二丁目1-80","lat":35.744069,"lon":139.541665},{"name":"スギ薬局 ひばりが丘店","province":"東京都","city":"西東京市","address":"東京都西東京市谷戸町二丁目2-9エスポワールひばりヶ丘","lat":35.743293,"lon":139.542903},{"name":"薬局ここ楽 ひばりヶ丘店","province":"東京都","city":"西東京市","address":"東京都西東京市谷戸町二丁目13-1T-rise1階","lat":35.748343,"lon":139.542819},{"name":"パール薬局ひばりが丘","province":"東京都","city":"西東京市","address":"東京都西東京市谷戸町三丁目11-9","lat":35.746769,"lon":139.54321},{"name":"ハッピィ調剤薬局ひばりヶ丘店","province":"東京都","city":"西東京市","address":"東京都西東京市谷戸町三丁目26-2西村ビル1階","lat":35.749022,"lon":139.5435},{"name":"中薬局","province":"東京都","city":"西東京市","address":"東京都西東京市谷戸町三丁目26-4","lat":35.74917,"lon":139.543555},{"name":"みちる薬局ひばり店","province":"東京都","city":"西東京市","address":"東京都西東京市谷戸町三丁目27-24ひばりが丘プラザ106室","lat":35.750018,"lon":139.54379},{"name":"あおば薬局","province":"東京都","city":"西東京市","address":"東京都西東京市谷戸町三丁目28-16パークシティひばりが丘1階","lat":35.749964,"lon":139.544656},{"name":"スギ薬局 西東京北原町店","province":"東京都","city":"西東京市","address":"東京都西東京市北原町三丁目3-54","lat":35.734006,"lon":139.542856},{"name":"すずらん薬局","province":"東京都","city":"西東京市","address":"東京都西東京市向台町一丁目16-24新井ビル1階","lat":35.720045,"lon":139.543156},{"name":"向台薬局","province":"東京都","city":"西東京市","address":"東京都西東京市向台町三丁目3-24","lat":35.719225,"lon":139.537701},{"name":"アイン薬局 武蔵野店","province":"東京都","city":"西東京市","address":"東京都西東京市向台町四丁目21-12","lat":35.717247,"lon":139.532646},{"name":"ウェルパーク調剤薬局田無芝久保店","province":"東京都","city":"西東京市","address":"東京都西東京市芝久保町一丁目4-2","lat":35.725528,"lon":139.530102},{"name":"健祥堂薬局 芝久保店","province":"東京都","city":"西東京市","address":"東京都西東京市芝久保町一丁目8-18","lat":35.725354,"lon":139.527207},{"name":"ハッピィ調剤薬局 たなし店","province":"東京都","city":"西東京市","address":"東京都西東京市芝久保町三丁目4-30ケルン田無I1階C号室","lat":35.729602,"lon":139.526425},{"name":"せんり薬局 芝久保店","province":"東京都","city":"西東京市","address":"東京都西東京市芝久保町三丁目6-26","lat":35.729759,"lon":139.523258},{"name":"つむぎ薬局","province":"東京都","city":"西東京市","address":"東京都西東京市芝久保町三丁目9-5","lat":35.726702,"lon":139.521292},{"name":"アクア薬局 芝久保店","province":"東京都","city":"西東京市","address":"東京都西東京市芝久保町三丁目30-14コーポ清陵102","lat":35.729423,"lon":139.517327},{"name":"クリエイト薬局西東京芝久保店","province":"東京都","city":"西東京市","address":"東京都西東京市芝久保町四丁目4-11","lat":35.730037,"lon":139.524698},{"name":"芝久保調剤薬局","province":"東京都","city":"西東京市","address":"東京都西東京市芝久保町四丁目12-43","lat":35.730271,"lon":139.52309},{"name":"エコ薬局","province":"東京都","city":"西東京市","address":"東京都西東京市新町一丁目14-9","lat":35.714462,"lon":139.544111},{"name":"新町調剤薬局","province":"東京都","city":"西東京市","address":"東京都西東京市新町二丁目4-7","lat":35.714591,"lon":139.543164},{"name":"健祥堂薬局 柳沢店","province":"東京都","city":"西東京市","address":"東京都西東京市柳沢二丁目3-13-106","lat":35.72256,"lon":139.556213},{"name":"ハコネ調剤薬局","province":"東京都","city":"西東京市","address":"東京都西東京市柳沢六丁目1-5オレンジヒルズ1階","lat":35.72828,"lon":139.552486},{"name":"日生薬局 柳沢店","province":"東京都","city":"西東京市","address":"東京都西東京市柳沢六丁目6-3TOKIビル1階","lat":35.726165,"lon":139.552157},{"name":"くすりのダイイチ薬局東伏見稲荷店","province":"東京都","city":"西東京市","address":"東京都西東京市東伏見二丁目2-1","lat":35.72881,"lon":139.561791},{"name":"すみれ調剤薬局","province":"東京都","city":"西東京市","address":"東京都西東京市東伏見二丁目3-3","lat":35.728525,"lon":139.56294},{"name":"ひかり薬局","province":"東京都","city":"西東京市","address":"東京都西東京市東伏見二丁目4-4","lat":35.728514,"lon":139.563749},{"name":"くすりのダイイチ薬局東伏見店","province":"東京都","city":"西東京市","address":"東京都西東京市東伏見三丁目1-25","lat":35.728206,"lon":139.56547},{"name":"小田薬局 東伏見店","province":"東京都","city":"西東京市","address":"東京都西東京市東伏見五丁目9-19東伏見Kビル1階","lat":35.722385,"lon":139.558151},{"name":"オリーブ薬局","province":"東京都","city":"西東京市","address":"東京都西東京市保谷町三丁目4-10センチュリー柳沢102","lat":35.730974,"lon":139.55452},{"name":"ひまわり薬局","province":"東京都","city":"西東京市","address":"東京都西東京市保谷町三丁目12-19I&IYAGISAWA1階","lat":35.729435,"lon":139.552407},{"name":"石井薬局 柳沢店","province":"東京都","city":"西東京市","address":"東京都西東京市保谷町三丁目24-1","lat":35.729597,"lon":139.551994},{"name":"ほやまち薬局","province":"東京都","city":"西東京市","address":"東京都西東京市保谷町四丁目5-6ノグチビル1階","lat":35.728694,"lon":139.549896},{"name":"薬局たんぽぽ","province":"東京都","city":"西東京市","address":"東京都西東京市保谷町六丁目15-2","lat":35.732948,"lon":139.55247},{"name":"せんり薬局 東伏見店","province":"東京都","city":"西東京市","address":"東京都西東京市富士町四丁目14-3","lat":35.730127,"lon":139.566125},{"name":"工藤薬局","province":"東京都","city":"西東京市","address":"東京都西東京市富士町四丁目16-7","lat":35.729588,"lon":139.565296},{"name":"花みずき薬局","province":"東京都","city":"西東京市","address":"東京都西東京市東町一丁目1-22エリシオンB","lat":35.742473,"lon":139.56271},{"name":"くすりのダイイチ薬局 東町店","province":"東京都","city":"西東京市","address":"東京都西東京市東町二丁目14-11","lat":35.746852,"lon":139.563525},{"name":"くすりのダイイチ薬局 在宅センター店","province":"東京都","city":"西東京市","address":"東京都西東京市東町三丁目9-6第2東町ハイツ1階","lat":35.747037,"lon":139.563918},{"name":"くすりのダイイチ薬局 ソレイユ保谷店","province":"東京都","city":"西東京市","address":"東京都西東京市東町三丁目13-19-1-A","lat":35.74775,"lon":139.566205},{"name":"保谷薬局","province":"東京都","city":"西東京市","address":"東京都西東京市東町三丁目14-19-104","lat":35.74802,"lon":139.568844},{"name":"フラワー薬局保谷駅南口店","province":"東京都","city":"西東京市","address":"東京都西東京市東町三丁目14-24保谷駅南口メディカルモール1階","lat":35.747901,"lon":139.568508},{"name":"くすりのダイイチ薬局 保谷駅前店","province":"東京都","city":"西東京市","address":"東京都西東京市東町三丁目14-27","lat":35.747811,"lon":139.568004},{"name":"いこい薬局","province":"東京都","city":"西東京市","address":"東京都西東京市東町四丁目8-28JUN西東京市102","lat":35.743532,"lon":139.565815},{"name":"くすの木薬局保谷店","province":"東京都","city":"西東京市","address":"東京都西東京市東町六丁目6-12西東京メディカルモール","lat":35.739888,"lon":139.565668},{"name":"フラワー薬局","province":"東京都","city":"西東京市","address":"東京都西東京市泉町一丁目11-14上宿ビル108","lat":35.738883,"lon":139.547055},{"name":"まごころ薬局 いずみ店","province":"東京都","city":"西東京市","address":"東京都西東京市泉町三丁目6-9","lat":35.741337,"lon":139.553261},{"name":"ファーマライズ薬局 西友ひばりヶ丘店","province":"東京都","city":"西東京市","address":"東京都西東京市住吉町三丁目9-8西友ひばりヶ丘店1階","lat":35.750776,"lon":139.545203},{"name":"あけぼの薬局 ひばりヶ丘店","province":"東京都","city":"西東京市","address":"東京都西東京市住吉町三丁目10-25HIBARITOWER店舗E","lat":35.750782,"lon":139.546018},{"name":"アイセイ薬局 住吉店","province":"東京都","city":"西東京市","address":"東京都西東京市住吉町六丁目13-27","lat":35.743884,"lon":139.552577},{"name":"ひばり薬局","province":"東京都","city":"西東京市","address":"東京都西東京市ひばりが丘二丁目11-29","lat":35.749039,"lon":139.540102},{"name":"日生薬局 ひばりが丘店","province":"東京都","city":"西東京市","address":"東京都西東京市ひばりが丘三丁目3-16","lat":35.743416,"lon":139.535661},{"name":"ひばり北口薬局","province":"東京都","city":"西東京市","address":"東京都西東京市ひばりが丘北三丁目3-20","lat":35.752105,"lon":139.545174},{"name":"サークル薬局 ひばりが丘北口店","province":"東京都","city":"西東京市","address":"東京都西東京市ひばりが丘北三丁目3-33","lat":35.75187,"lon":139.546025},{"name":"十字屋平蔵薬局","province":"東京都","city":"西東京市","address":"東京都西東京市ひばりが丘北三丁目5-22野島第二ビル1階5室","lat":35.752754,"lon":139.545883},{"name":"よつば調剤薬局","province":"東京都","city":"西東京市","address":"東京都西東京市ひばりが丘北三丁目6-2","lat":35.753068,"lon":139.546877},{"name":"藤豊薬局","province":"東京都","city":"西東京市","address":"東京都西東京市ひばりが丘北三丁目6-29","lat":35.753142,"lon":139.547931},{"name":"つばさ薬局","province":"東京都","city":"西東京市","address":"東京都西東京市ひばりが丘北四丁目2-26","lat":35.752977,"lon":139.544291},{"name":"田中薬局","province":"東京都","city":"西東京市","address":"東京都西東京市ひばりが丘北四丁目4-19","lat":35.753691,"lon":139.544406},{"name":"あすなろ薬局","province":"東京都","city":"西東京市","address":"東京都西東京市ひばりが丘北四丁目5-20","lat":35.753752,"lon":139.545518},{"name":"あすか薬局 保谷店","province":"東京都","city":"西東京市","address":"東京都西東京市栄町一丁目1-20ホワイトハウス一番館101","lat":35.748257,"lon":139.557546},{"name":"薬局日本メディカル","province":"東京都","city":"西東京市","address":"東京都西東京市北町一丁目6-1レッツビル1階","lat":35.753085,"lon":139.559289},{"name":"わかば調剤薬局","province":"東京都","city":"西東京市","address":"東京都西東京市下保谷四丁目2-20マノワール1階","lat":35.749655,"lon":139.565431},{"name":"石井薬局","province":"東京都","city":"西東京市","address":"東京都西東京市下保谷四丁目12-22","lat":35.749641,"lon":139.567368},{"name":"アビック薬局保谷店","province":"東京都","city":"西東京市","address":"東京都西東京市下保谷四丁目13-23","lat":35.749094,"lon":139.567494},{"name":"薬局マツモトキヨシ保谷北口駅前店","province":"東京都","city":"西東京市","address":"東京都西東京市下保谷四丁目13-24","lat":35.749016,"lon":139.567237}]}