{"keyword":"図面","data":[{"name":"十六羅漢図","province":"東京都","city":"町田市","address":"東京都町田市小山町3629","lat":35.60228,"lon":139.353657},{"name":"釈迦如来坐像","province":"東京都","city":"町田市","address":"東京都町田市小山町3629","lat":35.60228,"lon":139.353657},{"name":"長福寺本堂格天井花丸絵画","province":"東京都","city":"町田市","address":"東京都町田市相原町2109","lat":35.607383,"lon":139.320776},{"name":"無極和尚坐像","province":"東京都","city":"町田市","address":"東京都町田市下小山田町332","lat":35.599262,"lon":139.411249},{"name":"観世音菩薩立像","province":"東京都","city":"町田市","address":"東京都町田市小山町2524","lat":35.598202,"lon":139.368428},{"name":"菩薩立像脇侍像","province":"東京都","city":"町田市","address":"東京都町田市小山町2524","lat":35.598202,"lon":139.368428},{"name":"阿弥陀三尊像","province":"東京都","city":"町田市","address":"東京都町田市原町田3-5-12","lat":35.540998,"lon":139.45214},{"name":"阿弥陀三尊像","province":"東京都","city":"町田市","address":"東京都町田市本町田3654","lat":35.563471,"lon":139.450657},{"name":"阿弥陀如来坐像","province":"東京都","city":"町田市","address":"東京都町田市相原町3729","lat":35.607971,"lon":139.301523},{"name":"地蔵菩薩立像","province":"東京都","city":"町田市","address":"東京都町田市相原町3729","lat":35.607971,"lon":139.301523},{"name":"誕生釈迦仏立像","province":"東京都","city":"町田市","address":"東京都町田市成瀬4-14-1","lat":35.542579,"lon":139.478678},{"name":"薬師如来坐像","province":"東京都","city":"町田市","address":"東京都町田市野津田町3224","lat":35.578273,"lon":139.446508},{"name":"聖徳太子立像","province":"東京都","city":"町田市","address":"東京都町田市鶴間5-17-1","lat":35.504085,"lon":139.471582},{"name":"旧多摩郡小野路村名主小島家文書","province":"東京都","city":"町田市","address":"東京都町田市小野路町950","lat":35.598944,"lon":139.438631},{"name":"小野路組合農兵隊関係資料","province":"東京都","city":"町田市","address":"東京都町田市小野路町950","lat":35.598947,"lon":139.438629},{"name":"異形台付土器（2点一式）","province":"東京都","city":"町田市","address":"東京都町田市下小山田町4016","lat":35.58891,"lon":139.41054},{"name":"能ケ谷出土銭遺跡出土品一式","province":"東京都","city":"町田市","address":"東京都町田市下小山田町4016","lat":35.58891,"lon":139.41054},{"name":"旧永井家住宅","province":"東京都","city":"町田市","address":"東京都町田市野津田町3270","lat":35.57864,"lon":139.447246},{"name":"旧荻野家住宅","province":"東京都","city":"町田市","address":"東京都町田市野津田町3270","lat":35.577722,"lon":139.447554},{"name":"妙福寺祖師堂","province":"東京都","city":"町田市","address":"東京都町田市三輪町811","lat":35.574776,"lon":139.499858},{"name":"妙福寺本堂","province":"東京都","city":"町田市","address":"東京都町田市三輪町811","lat":35.574776,"lon":139.499858},{"name":"妙福寺鐘楼門","province":"東京都","city":"町田市","address":"東京都町田市三輪町811","lat":35.574776,"lon":139.499858},{"name":"妙福寺高麗門","province":"東京都","city":"町田市","address":"東京都町田市三輪町811","lat":35.574776,"lon":139.499858},{"name":"長福寺山門","province":"東京都","city":"町田市","address":"東京都町田市相原町2109","lat":35.607383,"lon":139.320776},{"name":"長福寺文殊堂","province":"東京都","city":"町田市","address":"東京都町田市相原町2109","lat":35.607383,"lon":139.320776},{"name":"清水寺観音堂","province":"東京都","city":"町田市","address":"東京都町田市相原町701","lat":35.606267,"lon":139.340422},{"name":"清水寺鐘楼","province":"東京都","city":"町田市","address":"東京都町田市相原町701","lat":35.606267,"lon":139.340422},{"name":"清水寺水屋","province":"東京都","city":"町田市","address":"東京都町田市相原町701","lat":35.606267,"lon":139.340422},{"name":"天神社本殿","province":"東京都","city":"町田市","address":"東京都町田市南大谷451","lat":35.555142,"lon":139.460243},{"name":"青木家住宅","province":"東京都","city":"町田市","address":"東京都町田市相原町810","lat":35.605825,"lon":139.334949},{"name":"箭幹八幡宮随身門","province":"東京都","city":"町田市","address":"東京都町田市矢部町2666","lat":35.579298,"lon":139.405481},{"name":"熊野神社本殿","province":"東京都","city":"町田市","address":"東京都町田市三輪町1925-1","lat":35.578779,"lon":139.488812},{"name":"村野常右衛門生家","province":"東京都","city":"町田市","address":"東京都町田市小野路町1256-1","lat":35.593526,"lon":139.441371},{"name":"金井獅子舞","province":"東京都","city":"町田市","address":"東京都町田市金井町2686","lat":35.571918,"lon":139.460422},{"name":"丸山獅子舞","province":"東京都","city":"町田市","address":"東京都町田市相原町1743-1","lat":35.607125,"lon":139.327346},{"name":"矢部八幡宮獅子舞","province":"東京都","city":"町田市","address":"東京都町田市矢部町2666","lat":35.579298,"lon":139.405481},{"name":"大戸囃子","province":"東京都","city":"町田市","address":"東京都町田市相原町4391-3","lat":35.6115,"lon":139.294619},{"name":"三ツ目囃子","province":"東京都","city":"町田市","address":"東京都町田市小山町3748-2","lat":35.591188,"lon":139.391063},{"name":"高ヶ坂石器時代遺跡（牢場、稲荷山、八幡平）","province":"東京都","city":"町田市","address":"東京都町田市高ヶ坂2-1418-3","lat":35.539891,"lon":139.456809},{"name":"田端環状積石遺構","province":"東京都","city":"町田市","address":"東京都町田市小山町3113-2","lat":35.600762,"lon":139.363403},{"name":"小山田１号遺跡","province":"東京都","city":"町田市","address":"東京都町田市小山田桜台2-16-32","lat":35.59279,"lon":139.39954},{"name":"本町田遺跡","province":"東京都","city":"町田市","address":"東京都町田市本町田3455","lat":35.567278,"lon":139.449656},{"name":"西谷戸横穴墓群","province":"東京都","city":"町田市","address":"東京都町田市三輪緑山1-25-7","lat":35.573523,"lon":139.493199},{"name":"町田市三輪白坂横穴群","province":"東京都","city":"町田市","address":"東京都町田市三輪町1720-7","lat":35.57936,"lon":139.493199},{"name":"青木家屋敷","province":"東京都","city":"町田市","address":"東京都町田市相原町810","lat":35.605825,"lon":139.334949},{"name":"木曽一里塚","province":"東京都","city":"町田市","address":"東京都町田市木曽西4-14-15","lat":35.56642,"lon":139.421862},{"name":"伝鎌倉井戸（鎌倉古道推定地）","province":"東京都","city":"町田市","address":"東京都町田市山崎町1050-1","lat":35.579759,"lon":139.439482},{"name":"白洲次郎・正子旧宅","province":"東京都","city":"町田市","address":"東京都町田市能ヶ谷7-3-2","lat":35.589602,"lon":139.477563},{"name":"井出の沢古戦場","province":"東京都","city":"町田市","address":"東京都町田市本町田802","lat":35.5589,"lon":139.44767},{"name":"下三輪玉田谷戸横穴墓群","province":"東京都","city":"町田市","address":"東京都町田市三輪町897","lat":35.57037,"lon":139.50016},{"name":"福王寺旧園地（薬師池公園）","province":"東京都","city":"町田市","address":"東京都町田市野津田町3270","lat":35.578254,"lon":139.447724},{"name":"アカガシ群落","province":"東京都","city":"町田市","address":"東京都町田市相原町701","lat":35.606267,"lon":139.340422},{"name":"シダレザクラ","province":"東京都","city":"町田市","address":"東京都町田市小山町2057-1","lat":35.597204,"lon":139.368991},{"name":"彫刻付大形石棒","province":"東京都","city":"町田市","address":"東京都町田市下小山田町4016","lat":35.58891,"lon":139.41054},{"name":"土偶一式","province":"東京都","city":"町田市","address":"東京都町田市下小山田町4016","lat":35.58891,"lon":139.41054},{"name":"深鉢形土器","province":"東京都","city":"町田市","address":"東京都町田市下小山田町4016","lat":35.58891,"lon":139.41054},{"name":"細野喜代四郎書斎（処静小斎）","province":"東京都","city":"町田市","address":"東京都町田市相原町3765-3","lat":35.60953619,"lon":139.3031863},{"name":"隆起線文土器","province":"東京都","city":"町田市","address":"東京都町田市下小山田町4016","lat":35.58891,"lon":139.41054},{"name":"爪形文土器","province":"東京都","city":"町田市","address":"東京都町田市下小山田町4016","lat":35.58891,"lon":139.41054},{"name":"南多摩郡各町村縮図","province":"東京都","city":"町田市","address":"東京都町田市野津田町897","lat":35.58891,"lon":139.45324},{"name":"中空土偶頭部","province":"東京都","city":"町田市","address":"東京都町田市下小山田町4016","lat":35.58891,"lon":139.41054},{"name":"クルミ形土器","province":"東京都","city":"町田市","address":"東京都町田市下小山田町4016","lat":35.58891,"lon":139.41054},{"name":"細野利平家（角屋）ガラス乾板","province":"東京都","city":"町田市","address":"東京都町田市野津田町897","lat":35.58891,"lon":139.45324},{"name":"なすな原遺跡出土透かし彫り土製耳飾り一式（十二点）","province":"東京都","city":"町田市","address":"東京都町田市下小山田町4016","lat":35.58891,"lon":139.41054},{"name":"日枝神社本殿","province":"東京都","city":"町田市","address":"東京都町田市鶴間6-32-16","lat":35.504261,"lon":139.473375},{"name":"凌霜館跡","province":"東京都","city":"町田市","address":"東京都町田市野津田町897","lat":35.58891,"lon":139.45324}]}