{"keyword":"電気","data":[{"name":"上野郵便局","province":"","city":"","address":"下谷1丁目5番12号","lat":35.71875394,"lon":139.7812842},{"name":"浅草郵便局","province":"","city":"","address":"西浅草1丁目1番1号","lat":35.71001489,"lon":139.791024},{"name":"東京ガスライフバル台東松が谷店","province":"","city":"","address":"松が谷1-3-3東京ガス台東ビル","lat":35.71089474,"lon":139.7863942},{"name":"下水道局台東出張所","province":"","city":"","address":"蔵前2丁目1番8号","lat":35.70179575,"lon":139.7920947},{"name":"東京電力パワーグリッド上野支社","province":"","city":"","address":"竜泉2丁目18番6号","lat":35.72712324,"lon":139.789723},{"name":"東京電力（株）本店","province":"東京都","city":"千代田区","address":"千代田区内幸町1-1-3","lat":35.67027,"lon":139.7585},{"name":"東京電力（株）東京支店","province":"東京都","city":"新宿区","address":"新宿区新宿5-4-9","lat":35.69246,"lon":139.7104},{"name":"東京電力（株）多摩支店","province":"東京都","city":"八王子市","address":"八王子市子安町1-16-25","lat":35.65389,"lon":139.3438},{"name":"東京電力（株）銀座支社","province":"東京都","city":"中央区","address":"中央区銀座3-3-18","lat":35.67324,"lon":139.7653},{"name":"東京電力（株）江東支社","province":"東京都","city":"江東区","address":"江東区大島3-4-5","lat":35.69242,"lon":139.8264},{"name":"東京電力（株）上野支社","province":"東京都","city":"台東区","address":"台東区竜泉2-18-6","lat":35.72728,"lon":139.7899},{"name":"東京電力（株）大塚支社","province":"東京都","city":"豊島区","address":"豊島区北大塚2-33-17","lat":35.73522,"lon":139.7284},{"name":"東京電力（株）荻窪支社","province":"東京都","city":"杉並区","address":"杉並区南荻窪4-40-11","lat":35.70312,"lon":139.616},{"name":"東京電力（株）渋谷支社","province":"東京都","city":"渋谷区","address":"渋谷区神南1-12-10","lat":35.66345,"lon":139.7009},{"name":"東京電力（株）品川支社","province":"東京都","city":"品川区","address":"品川区西五反田5-3-1","lat":35.62566,"lon":139.7168},{"name":"東京電力（株）武蔵野支社","province":"東京都","city":"武蔵野市","address":"武蔵野市西久保1-6-24","lat":35.70672,"lon":139.5603},{"name":"東京電力（株）八王子支社","province":"東京都","city":"八王子市","address":"八王子市八日町8-1","lat":35.66042,"lon":139.3306},{"name":"東京電力（株）立川支社","province":"東京都","city":"立川市","address":"立川市緑町6-6","lat":35.70862,"lon":139.4115},{"name":"東京電力（株）越中島資材倉庫","province":"東京都","city":"江東区","address":"江東区越中島3-5-19","lat":35.66372,"lon":139.7992},{"name":"東京電力（株）戸田電柱置場","province":"東京都","city":"板橋区","address":"板橋区舟渡4-9-1","lat":35.79355,"lon":139.6738},{"name":"東京電力（株）小松川電柱置場","province":"東京都","city":"江戸川区","address":"江戸川区松江5-14-1","lat":35.68697,"lon":139.8698},{"name":"東京電力（株）新大田資材センター","province":"東京都","city":"大田区","address":"大田区東海4-1-23","lat":35.59408,"lon":139.7632},{"name":"東京電力（株）千住資材倉庫","province":"東京都","city":"足立区","address":"足立区千住桜木1-13-1","lat":35.75281,"lon":139.7912},{"name":"東京電力（株）八王子資材倉庫","province":"東京都","city":"八王子市","address":"八王子市石川町2967ー8","lat":35.67218,"lon":139.3627},{"name":"東京電力（株）天神町資材置場","province":"東京都","city":"小平市","address":"小平市天神町1-205","lat":35.72848,"lon":139.492},{"name":"東京電力（株）玉堤電柱置場","province":"東京都","city":"世田谷区","address":"世田谷区玉堤2-4","lat":35.59943,"lon":139.6495}]}