{"category":"toilet","data":[{"name":"多摩市役所本庁舎","province":"東京都","city":"多摩市","address":"東京都多摩市関戸6-12-1","lat":35.637005,"lon":139.446309,"males_count":50,"females_count":27,"multipurposes_count":4},{"name":"多摩市役所東庁舎","province":"東京都","city":"多摩市","address":"東京都多摩市関戸6-12-1","lat":35.637531,"lon":139.447674,"males_count":13,"females_count":5,"multipurposes_count":1},{"name":"多摩市役所第二庁舎","province":"東京都","city":"多摩市","address":"東京都多摩市関戸6-12-1","lat":35.63709,"lon":139.447512,"males_count":10,"females_count":6,"multipurposes_count":2},{"name":"多摩市役所第三庁舎","province":"東京都","city":"多摩市","address":"東京都多摩市関戸6-12-1","lat":35.637785,"lon":139.446913,"males_count":3,"females_count":1,"multipurposes_count":0},{"name":"多摩市役所東会議室","province":"東京都","city":"多摩市","address":"東京都多摩市関戸6-12-1","lat":35.638121,"lon":139.447037,"males_count":10,"females_count":4,"multipurposes_count":0},{"name":"多摩市役所西会議室","province":"東京都","city":"多摩市","address":"東京都多摩市関戸6-12-1","lat":35.636673,"lon":139.445879,"males_count":6,"females_count":4,"multipurposes_count":0},{"name":"多摩市立健康センター","province":"東京都","city":"多摩市","address":"東京都多摩市関戸4-19-5","lat":35.649083,"lon":139.449703,"males_count":25,"females_count":13,"multipurposes_count":4},{"name":"多摩市立関戸公民館","province":"東京都","city":"多摩市","address":"東京都多摩市関戸4-72","lat":35.649842,"lon":139.446839,"males_count":16,"females_count":13,"multipurposes_count":4},{"name":"多摩市立永山公民館","province":"東京都","city":"多摩市","address":"東京都多摩市永山1-5","lat":35.628346,"lon":139.448415,"males_count":13,"females_count":11,"multipurposes_count":3},{"name":"桜ヶ丘集会所","province":"東京都","city":"多摩市","address":"東京都多摩市桜ケ丘1-1","lat":35.641171,"lon":139.444489,"males_count":2,"females_count":2},{"name":"関戸第一倶楽部","province":"東京都","city":"多摩市","address":"東京都多摩市関戸5-35-3","lat":35.641091,"lon":139.449915,"males_count":1},{"name":"一ノ宮集会所","province":"東京都","city":"多摩市","address":"東京都多摩市一ノ宮1-18-8","lat":35.652857,"lon":139.441793,"males_count":2},{"name":"連光寺本村集会所","province":"東京都","city":"多摩市","address":"東京都多摩市連光寺2-27-16","lat":35.643045,"lon":139.455529,"males_count":1},{"name":"東部集会所","province":"東京都","city":"多摩市","address":"東京都多摩市連光寺6-21-4","lat":35.63244,"lon":139.465052,"males_count":1},{"name":"桜ヶ丘一ノ宮集会所","province":"東京都","city":"多摩市","address":"東京都多摩市一ノ宮4-37-5","lat":35.649741,"lon":139.438517,"males_count":1},{"name":"東寺方自治会会館","province":"東京都","city":"多摩市","address":"東京都多摩市東寺方626-2","lat":35.643235,"lon":139.438042,"males_count":2},{"name":"和田稲荷塚集会所","province":"東京都","city":"多摩市","address":"東京都多摩市百草1139-2","lat":35.638443,"lon":139.434907,"males_count":2},{"name":"関戸河原クラブ","province":"東京都","city":"多摩市","address":"東京都多摩市関戸2-3-8","lat":35.651526,"lon":139.45377,"males_count":2},{"name":"諏訪会館","province":"東京都","city":"多摩市","address":"東京都多摩市諏訪5-2-1","lat":35.621548,"lon":139.454247,"males_count":2},{"name":"大貝戸集会所","province":"東京都","city":"多摩市","address":"東京都多摩市乞田1101","lat":35.631779,"lon":139.438632,"males_count":1},{"name":"下落合集会所","province":"東京都","city":"多摩市","address":"東京都多摩市愛宕4-14","lat":35.627782,"lon":139.425154,"males_count":1},{"name":"山王下集会所","province":"東京都","city":"多摩市","address":"東京都多摩市山王下1-9","lat":35.626648,"lon":139.420797,"males_count":1},{"name":"中和田天神倶楽部","province":"東京都","city":"多摩市","address":"東京都多摩市和田1023","lat":35.641083,"lon":139.425551,"males_count":1},{"name":"小野路集会所","province":"東京都","city":"多摩市","address":"東京都多摩市南野2-14-1","lat":35.606957,"lon":139.432297},{"name":"貝取クラブ","province":"東京都","city":"多摩市","address":"東京都多摩市貝取1-56-9","lat":35.625845,"lon":139.438342,"males_count":2},{"name":"並木稲荷自治会館","province":"東京都","city":"多摩市","address":"東京都多摩市和田72","lat":35.645075,"lon":139.43415,"males_count":1},{"name":"瓜生集会所","province":"東京都","city":"多摩市","address":"東京都多摩市永山6-6-30","lat":35.616756,"lon":139.444716},{"name":"馬引沢自治会館","province":"東京都","city":"多摩市","address":"東京都多摩市馬引沢2-3-16","lat":35.632735,"lon":139.453492},{"name":"青木葉集会所","province":"東京都","city":"多摩市","address":"東京都多摩市落合2-24","lat":35.616249,"lon":139.42699},{"name":"京王一ノ宮集会所","province":"東京都","city":"多摩市","address":"東京都多摩市連光寺4-1-2","lat":35.640604,"lon":139.466481},{"name":"永山橋集会所","province":"東京都","city":"多摩市","address":"東京都多摩市諏訪1-3","lat":35.634009,"lon":139.447761},{"name":"上乞田集会所","province":"東京都","city":"多摩市","address":"東京都多摩市豊ケ丘1-17-1","lat":35.627965,"lon":139.431566},{"name":"聖ヶ丘三丁目集会所","province":"東京都","city":"多摩市","address":"東京都多摩市聖ケ丘3-43-5","lat":35.628701,"lon":139.458658},{"name":"鶴牧五丁目集会所","province":"東京都","city":"多摩市","address":"東京都多摩市鶴牧5-18-8","lat":35.610035,"lon":139.423269},{"name":"聖ヶ丘四丁目集会所","province":"東京都","city":"多摩市","address":"東京都多摩市聖ケ丘4-12-6","lat":35.628038,"lon":139.46231},{"name":"木の実公園集会所","province":"東京都","city":"多摩市","address":"東京都多摩市連光寺3-3-21","lat":35.64436,"lon":139.458779},{"name":"聖ヶ丘二丁目集会所","province":"東京都","city":"多摩市","address":"東京都多摩市聖ケ丘2-47-15","lat":35.634752,"lon":139.455039,"males_count":1},{"name":"聖ヶ丘南集会所","province":"東京都","city":"多摩市","address":"東京都多摩市聖ヶ丘3-59-10","lat":35.628696,"lon":139.458632},{"name":"南野集会所","province":"東京都","city":"多摩市","address":"東京都多摩市南野3-9-22","lat":35.607861,"lon":139.422676},{"name":"唐木田自治会館","province":"東京都","city":"多摩市","address":"東京都多摩市唐木田1-13-2","lat":35.614267,"lon":139.406956,"males_count":1},{"name":"中組集会所","province":"東京都","city":"多摩市","address":"東京都多摩市中沢2-20-12","lat":35.619329,"lon":139.414417},{"name":"瓜生自治会館","province":"東京都","city":"多摩市","address":"東京都多摩市永山2-19-17","lat":35.629488,"lon":139.44372,"males_count":1,"females_count":1},{"name":"鶴牧有朋倶楽部","province":"東京都","city":"多摩市","address":"東京都多摩市鶴牧5-25-8","lat":35.611048,"lon":139.421643},{"name":"宝蔵橋むつみの家","province":"東京都","city":"多摩市","address":"東京都多摩市和田1686","lat":35.650092,"lon":139.434923,"males_count":1},{"name":"聖ヶ丘一丁目集会所","province":"東京都","city":"多摩市","address":"東京都多摩市聖ケ丘1-7-13","lat":35.638012,"lon":139.454646,"males_count":1},{"name":"永山六丁目集会所","province":"東京都","city":"多摩市","address":"東京都多摩市永山6-27","lat":35.613159,"lon":139.445916,"males_count":1},{"name":"関戸南田倶楽部","province":"東京都","city":"多摩市","address":"東京都多摩市聖ヶ丘1-27","lat":35.637517,"lon":139.452019},{"name":"連光寺向ノ岡集会所","province":"東京都","city":"多摩市","address":"東京都多摩市連光寺1-31-31-34","lat":35.64628,"lon":139.460241},{"name":"関戸三丁目倶楽部","province":"東京都","city":"多摩市","address":"東京都多摩市関戸3-10-11","lat":35.649789,"lon":139.455383,"males_count":2,"females_count":1},{"name":"唐木田李久保自治会館","province":"東京都","city":"多摩市","address":"東京都多摩市唐木田1-43-6","lat":35.61546,"lon":139.405335,"males_count":1,"females_count":1},{"name":"永山橋第２集会所","province":"東京都","city":"多摩市","address":"東京都多摩市永山1-10-10","lat":35.633129,"lon":139.446164},{"name":"多摩市立永山図書館","province":"東京都","city":"多摩市","address":"東京都多摩市永山1-5","lat":35.628322,"lon":139.448236,"males_count":5,"females_count":3,"multipurposes_count":1},{"name":"多摩市立図書館（本館）","province":"東京都","city":"多摩市","address":"東京都多摩市落合2-29","lat":35.617565,"lon":139.425219,"males_count":15,"females_count":12,"multipurposes_count":1},{"name":"多摩市立東寺方図書館","province":"東京都","city":"多摩市","address":"東京都多摩市東寺方626-7","lat":35.643283,"lon":139.437715,"males_count":5,"females_count":4,"multipurposes_count":1},{"name":"多摩市立豊ヶ丘図書館","province":"東京都","city":"多摩市","address":"東京都多摩市豊ヶ丘5-6","lat":35.614673,"lon":139.434881,"males_count":3,"females_count":2,"multipurposes_count":1},{"name":"多摩市立関戸図書館","province":"東京都","city":"多摩市","address":"東京都多摩市関戸1-1-5","lat":35.651883,"lon":139.445933,"males_count":3,"females_count":1,"multipurposes_count":0},{"name":"多摩市立東寺方地区市民ホール","province":"東京都","city":"多摩市","address":"東京都多摩市東寺方626-7","lat":35.643283,"lon":139.437715,"males_count":18,"females_count":12,"multipurposes_count":3},{"name":"多摩市立諏訪地区市民ホール","province":"東京都","city":"多摩市","address":"東京都多摩市諏訪5-1","lat":35.623547,"lon":139.45447,"males_count":9,"females_count":5,"multipurposes_count":2},{"name":"多摩市立豊ヶ丘地区市民ホール","province":"東京都","city":"多摩市","address":"東京都多摩市豊ヶ丘5-6","lat":35.614464,"lon":139.434396,"males_count":10,"females_count":8,"multipurposes_count":2},{"name":"多摩市立桜ヶ丘コミュニティセンター","province":"東京都","city":"多摩市","address":"東京都多摩市桜ヶ丘1-17-7","lat":35.639934,"lon":139.446501,"males_count":10,"females_count":5,"multipurposes_count":1},{"name":"多摩市立乞田・貝取コミュニティセンター","province":"東京都","city":"多摩市","address":"東京都多摩市乞田810","lat":35.63091,"lon":139.434555,"males_count":12,"females_count":6,"multipurposes_count":2},{"name":"多摩市立鶴牧・落合・南野コミュニティセンター","province":"東京都","city":"多摩市","address":"東京都多摩市落合6-5","lat":35.612293,"lon":139.425705,"males_count":14,"females_count":10,"multipurposes_count":3},{"name":"多摩市立貝取コミュニティセンター","province":"東京都","city":"多摩市","address":"東京都多摩市貝取4-5-1","lat":35.615857,"lon":139.439809,"males_count":8,"females_count":8,"multipurposes_count":2},{"name":"多摩市立聖ヶ丘コミュニティセンター","province":"東京都","city":"多摩市","address":"東京都多摩市聖ヶ丘2-21-1","lat":35.631149,"lon":139.458213,"males_count":15,"females_count":10,"multipurposes_count":3},{"name":"多摩市立愛宕コミュニティセンター","province":"東京都","city":"多摩市","address":"東京都多摩市愛宕3-2","lat":35.633545,"lon":139.434483,"males_count":10,"females_count":6,"multipurposes_count":2},{"name":"多摩市立唐木田コミュニティセンター","province":"東京都","city":"多摩市","address":"東京都多摩市鶴牧6-14","lat":35.615611,"lon":139.413448,"males_count":15,"multipurposes_count":3},{"name":"三方の森コミュニティ会館","province":"東京都","city":"多摩市","address":"東京都多摩市和田1254-12","lat":35.646177,"lon":139.416064,"males_count":5,"females_count":3,"multipurposes_count":1},{"name":"多摩市立和田・東寺方コミュニティセンター","province":"東京都","city":"多摩市","address":"東京都多摩市和田2006-4","lat":35.64102,"lon":139.427437,"males_count":10,"females_count":6,"multipurposes_count":2},{"name":"多摩市立複合文化施設（パルテノン多摩）","province":"東京都","city":"多摩市","address":"東京都多摩市落合2-35","lat":35.621686,"lon":139.426282},{"name":"多摩市立豊ヶ丘児童館","province":"東京都","city":"多摩市","address":"東京都多摩市豊ヶ丘5-6","lat":35.614535,"lon":139.434565,"males_count":5,"females_count":4,"multipurposes_count":1},{"name":"多摩市立諏訪児童館","province":"東京都","city":"多摩市","address":"東京都多摩市諏訪2-8","lat":35.625341,"lon":139.451467,"males_count":3,"females_count":2,"multipurposes_count":0},{"name":"多摩市立東寺方児童館","province":"東京都","city":"多摩市","address":"東京都多摩市東寺方626-7","lat":35.643283,"lon":139.437715,"males_count":6,"females_count":4,"multipurposes_count":0},{"name":"多摩市立永山児童館","province":"東京都","city":"多摩市","address":"東京都多摩市永山3-6","lat":35.625519,"lon":139.445901,"males_count":3,"females_count":2,"multipurposes_count":0},{"name":"多摩市立桜ヶ丘児童館","province":"東京都","city":"多摩市","address":"東京都多摩市桜ヶ丘1-17-7","lat":35.639809,"lon":139.446652,"males_count":0,"females_count":0,"multipurposes_count":0},{"name":"多摩市立唐木田児童館","province":"東京都","city":"多摩市","address":"東京都多摩市鶴牧6-14","lat":35.615452,"lon":139.413275,"males_count":5,"females_count":3,"multipurposes_count":1},{"name":"多摩市立落合児童館","province":"東京都","city":"多摩市","address":"東京都多摩市落合6-5","lat":35.612079,"lon":139.425586,"males_count":3,"females_count":2,"multipurposes_count":0},{"name":"多摩市立連光寺児童館","province":"東京都","city":"多摩市","address":"東京都多摩市連光寺3-57-1","lat":35.642745,"lon":139.45683,"males_count":5,"females_count":4,"multipurposes_count":0},{"name":"多摩市立一ノ宮児童館","province":"東京都","city":"多摩市","address":"東京都多摩市一ノ宮1-18-7","lat":35.652941,"lon":139.442784,"males_count":6,"females_count":4,"multipurposes_count":0},{"name":"多摩市立愛宕児童館","province":"東京都","city":"多摩市","address":"東京都多摩市愛宕1-65-3","lat":35.634695,"lon":139.432505,"males_count":5,"females_count":4,"multipurposes_count":0},{"name":"多摩市立総合体育館","province":"東京都","city":"多摩市","address":"東京都多摩市東寺方588-1","lat":35.643522,"lon":139.436218},{"name":"多摩市立一本杉公園野球場","province":"東京都","city":"多摩市","address":"東京都多摩市南野2-14-1","lat":35.607806,"lon":139.432195},{"name":"多摩市立一本杉公園庭球場","province":"東京都","city":"多摩市","address":"東京都多摩市南野2-14-1","lat":35.609218,"lon":139.432345},{"name":"多摩市立陸上競技場","province":"東京都","city":"多摩市","address":"東京都多摩市諏訪4-9","lat":35.625019,"lon":139.460299},{"name":"多摩市立武道館","province":"東京都","city":"多摩市","address":"東京都多摩市諏訪4-9","lat":35.625473,"lon":139.458919},{"name":"多摩市立温水プール","province":"東京都","city":"多摩市","address":"東京都多摩市南野3-15-2","lat":35.612308,"lon":139.413727},{"name":"永山駅前公衆便所","province":"東京都","city":"多摩市","address":"東京都多摩市永山1-45","lat":35.629392,"lon":139.447644,"males_count":3,"females_count":2,"multipurposes_count":1},{"name":"多摩センター駅前公衆便所","province":"東京都","city":"多摩市","address":"東京都多摩市落合1-40-1","lat":35.624294,"lon":139.423819,"males_count":6,"females_count":5,"multipurposes_count":1},{"name":"聖蹟桜ヶ丘駅前公衆便所","province":"東京都","city":"多摩市","address":"東京都多摩市関戸1-11-2","lat":35.650308,"lon":139.447155,"males_count":4,"females_count":2,"multipurposes_count":1},{"name":"豊ヶ丘商店街公衆便所","province":"東京都","city":"多摩市","address":"東京都多摩市豊ヶ丘4-2","lat":35.61547837,"lon":139.43631919,"males_count":2,"females_count":1,"multipurposes_count":1},{"name":"グリーンライブセンター","province":"東京都","city":"多摩市","address":"東京都多摩市落合2-35","lat":35.622263,"lon":139.427809,"males_count":3,"females_count":2,"multipurposes_count":1},{"name":"愛宕東公園","province":"東京都","city":"多摩市","address":"東京都多摩市愛宕1-66","lat":35.633663,"lon":139.436535,"males_count":4,"females_count":2,"multipurposes_count":1},{"name":"愛宕第１公園","province":"東京都","city":"多摩市","address":"東京都多摩市愛宕2-62","lat":35.635722,"lon":139.439777,"males_count":0,"females_count":0,"multipurposes_count":0},{"name":"愛宕第２公園","province":"東京都","city":"多摩市","address":"東京都多摩市愛宕2-59","lat":35.63388,"lon":139.438262,"males_count":0,"females_count":0,"multipurposes_count":0},{"name":"愛宕第３公園","province":"東京都","city":"多摩市","address":"東京都多摩市愛宕3-59","lat":35.632835,"lon":139.433702,"males_count":0,"females_count":0,"multipurposes_count":0},{"name":"青木葉公園","province":"東京都","city":"多摩市","address":"東京都多摩市落合2-15-1","lat":35.617446,"lon":139.427168,"males_count":0,"females_count":0,"multipurposes_count":0},{"name":"一本杉公園","province":"東京都","city":"多摩市","address":"東京都多摩市南野2-14","lat":35.60770421,"lon":139.43242538,"males_count":3,"females_count":2,"multipurposes_count":1},{"name":"一本杉公園","province":"東京都","city":"多摩市","address":"東京都多摩市南野2-14","lat":35.607806,"lon":139.432195,"males_count":6,"females_count":2,"multipurposes_count":0},{"name":"一本杉公園","province":"東京都","city":"多摩市","address":"東京都多摩市南野2-14","lat":35.609218,"lon":139.432345,"males_count":4,"females_count":2,"multipurposes_count":1},{"name":"瓜生公園","province":"東京都","city":"多摩市","address":"東京都多摩市永山2-19-30","lat":35.62783,"lon":139.443289,"males_count":0,"females_count":0,"multipurposes_count":0},{"name":"瓜生緑地","province":"東京都","city":"多摩市","address":"東京都多摩市永山5-8","lat":35.618539,"lon":139.442841,"males_count":4,"females_count":2,"multipurposes_count":1},{"name":"榎戸公園","province":"東京都","city":"多摩市","address":"東京都多摩市唐木田1-50-1","lat":35.615821,"lon":139.408252,"males_count":0,"females_count":0,"multipurposes_count":0},{"name":"落合南公園","province":"東京都","city":"多摩市","address":"東京都多摩市落合3-30","lat":35.616763,"lon":139.428827,"males_count":0,"females_count":0,"multipurposes_count":1},{"name":"落合第１公園","province":"東京都","city":"多摩市","address":"東京都多摩市落合3-27","lat":35.619111,"lon":139.431556,"males_count":0,"females_count":0,"multipurposes_count":0},{"name":"落合第２公園","province":"東京都","city":"多摩市","address":"東京都多摩市落合3-31","lat":35.617615,"lon":139.430596,"males_count":0,"females_count":0,"multipurposes_count":0},{"name":"落合第３公園","province":"東京都","city":"多摩市","address":"東京都多摩市落合4-23","lat":35.614836,"lon":139.430523,"males_count":0,"females_count":0,"multipurposes_count":0},{"name":"落合第４公園","province":"東京都","city":"多摩市","address":"東京都多摩市落合4-19","lat":35.611917,"lon":139.430957,"males_count":0,"females_count":0,"multipurposes_count":0},{"name":"どんぐり山公園","province":"東京都","city":"多摩市","address":"東京都多摩市落合2-25","lat":35.616052,"lon":139.426573,"males_count":0,"females_count":0,"multipurposes_count":0},{"name":"大谷戸公園","province":"東京都","city":"多摩市","address":"東京都多摩市連光寺5-17-1","lat":35.639226,"lon":139.457714,"males_count":4,"females_count":3,"multipurposes_count":1},{"name":"大河原公園","province":"東京都","city":"多摩市","address":"東京都多摩市関戸2-19-4","lat":35.65083,"lon":139.453657,"males_count":0,"females_count":0,"multipurposes_count":0},{"name":"荻久保公園","province":"東京都","city":"多摩市","address":"東京都多摩市落合6-8","lat":35.611153,"lon":139.42652,"males_count":0,"females_count":0,"multipurposes_count":0},{"name":"貝取南公園","province":"東京都","city":"多摩市","address":"東京都多摩市貝取4-13","lat":35.616671,"lon":139.438813,"males_count":4,"females_count":2,"multipurposes_count":1},{"name":"貝取北公園","province":"東京都","city":"多摩市","address":"東京都多摩市貝取2-1-1","lat":35.622377,"lon":139.440628,"males_count":4,"females_count":2,"multipurposes_count":1},{"name":"貝取第５公園","province":"東京都","city":"多摩市","address":"東京都多摩市貝取3-11","lat":35.614476,"lon":139.442111,"males_count":0,"females_count":0,"multipurposes_count":0},{"name":"貝取第７公園","province":"東京都","city":"多摩市","address":"東京都多摩市貝取4-14","lat":35.614651,"lon":139.439256,"males_count":0,"females_count":0,"multipurposes_count":0},{"name":"唐木田公園","province":"東京都","city":"多摩市","address":"東京都多摩市唐木田1-13-1","lat":35.613827,"lon":139.406345,"males_count":0,"females_count":0,"multipurposes_count":0},{"name":"釜沼公園","province":"東京都","city":"多摩市","address":"東京都多摩市貝取1-3","lat":35.630787,"lon":139.44053,"males_count":0,"females_count":0,"multipurposes_count":0},{"name":"上之根公園","province":"東京都","city":"多摩市","address":"東京都多摩市愛宕4-26","lat":35.628212,"lon":139.425831,"males_count":3,"females_count":1,"multipurposes_count":0},{"name":"くるまぼり公園","province":"東京都","city":"多摩市","address":"東京都多摩市東寺方1-16-5","lat":35.648248,"lon":139.441658,"males_count":0,"females_count":0,"multipurposes_count":1},{"name":"乞田・貝取ふれあい広場公園","province":"東京都","city":"多摩市","address":"東京都多摩市乞田810-2","lat":35.630925,"lon":139.434949,"males_count":0,"females_count":0,"multipurposes_count":0},{"name":"山王下公園","province":"東京都","city":"多摩市","address":"東京都多摩市山王下1-6","lat":35.62623,"lon":139.421051,"males_count":0,"females_count":0,"multipurposes_count":0},{"name":"諏訪南公園","province":"東京都","city":"多摩市","address":"東京都多摩市諏訪5-14-1","lat":35.620269,"lon":139.452549,"males_count":4,"females_count":2,"multipurposes_count":1},{"name":"諏訪北公園","province":"東京都","city":"多摩市","address":"東京都多摩市諏訪3-11","lat":35.628208,"lon":139.452152,"males_count":3,"females_count":1,"multipurposes_count":1},{"name":"諏訪第３公園","province":"東京都","city":"多摩市","address":"東京都多摩市諏訪2-10","lat":35.623614,"lon":139.451452,"males_count":0,"females_count":0,"multipurposes_count":0},{"name":"李久保公園","province":"東京都","city":"多摩市","address":"東京都多摩市唐木田1-42","lat":35.615334,"lon":139.404846,"males_count":0,"females_count":0,"multipurposes_count":0},{"name":"関戸公園","province":"東京都","city":"多摩市","address":"東京都多摩市関戸3-5地先","lat":35.650399,"lon":139.45927,"males_count":5,"females_count":2,"multipurposes_count":1},{"name":"関戸三丁目公園","province":"東京都","city":"多摩市","address":"東京都多摩市関戸3-10-9","lat":35.649785,"lon":139.454543,"males_count":0,"females_count":0,"multipurposes_count":1},{"name":"多摩中央公園","province":"東京都","city":"多摩市","address":"東京都多摩市落合2-35","lat":35.61944423,"lon":139.42536719,"males_count":4,"females_count":2,"multipurposes_count":1},{"name":"多摩東公園","province":"東京都","city":"多摩市","address":"東京都多摩市諏訪4-9","lat":35.625204,"lon":139.461292,"males_count":4,"females_count":2,"multipurposes_count":1},{"name":"多摩東公園","province":"東京都","city":"多摩市","address":"東京都多摩市諏訪4-9","lat":35.625204,"lon":139.461292,"males_count":4,"females_count":4,"multipurposes_count":1},{"name":"宝野公園","province":"東京都","city":"多摩市","address":"東京都多摩市落合5-5","lat":35.616015,"lon":139.423813,"males_count":4,"females_count":2,"multipurposes_count":1},{"name":"鶴牧東公園","province":"東京都","city":"多摩市","address":"東京都多摩市鶴牧3-16","lat":35.617214,"lon":139.419986,"males_count":4,"females_count":2,"multipurposes_count":0},{"name":"鶴牧西公園","province":"東京都","city":"多摩市","address":"東京都多摩市鶴牧2-18","lat":35.61721368,"lon":139.4139127,"males_count":3,"females_count":2,"multipurposes_count":1},{"name":"鶴牧西公園","province":"東京都","city":"多摩市","address":"東京都多摩市鶴牧2-18","lat":35.61721368,"lon":139.4139127,"males_count":4,"females_count":3,"multipurposes_count":0},{"name":"鶴牧西公園","province":"東京都","city":"多摩市","address":"東京都多摩市鶴牧2-18","lat":35.61721368,"lon":139.4139127,"males_count":3,"females_count":2,"multipurposes_count":0},{"name":"鶴牧第１公園","province":"東京都","city":"多摩市","address":"東京都多摩市鶴牧5-20","lat":35.61064,"lon":139.423371,"males_count":0,"females_count":0,"multipurposes_count":0},{"name":"鶴ヶ峰公園","province":"東京都","city":"多摩市","address":"東京都多摩市落合1-23","lat":35.623019,"lon":139.430412,"males_count":0,"females_count":0,"multipurposes_count":0},{"name":"豊ヶ丘南公園","province":"東京都","city":"多摩市","address":"東京都多摩市豊ヶ丘5-12","lat":35.615931,"lon":139.433993,"males_count":4,"females_count":2,"multipurposes_count":1},{"name":"豊ヶ丘北公園","province":"東京都","city":"多摩市","address":"東京都多摩市豊ケ丘1-39","lat":35.626991,"lon":139.434673,"males_count":4,"females_count":2,"multipurposes_count":1},{"name":"豊ヶ丘第３公園","province":"東京都","city":"多摩市","address":"東京都多摩市豊ケ丘3-2-1","lat":35.618427,"lon":139.436403,"males_count":0,"females_count":0,"multipurposes_count":0},{"name":"豊ヶ丘第６公園","province":"東京都","city":"多摩市","address":"東京都多摩市豊ケ丘5-13","lat":35.613793,"lon":139.435031,"males_count":0,"females_count":0,"multipurposes_count":0},{"name":"豊ヶ丘第７公園","province":"東京都","city":"多摩市","address":"東京都多摩市豊ケ丘6-5","lat":35.611329,"lon":139.434488,"males_count":0,"females_count":0,"multipurposes_count":0},{"name":"豊ヶ丘第９公園","province":"東京都","city":"多摩市","address":"東京都多摩市豊ケ丘2-3","lat":35.620643,"lon":139.43335,"males_count":0,"females_count":0,"multipurposes_count":0},{"name":"とちのき公園","province":"東京都","city":"多摩市","address":"東京都多摩市豊ケ丘2-34","lat":35.621471,"lon":139.437059,"males_count":0,"females_count":0,"multipurposes_count":0},{"name":"殿田中央公園","province":"東京都","city":"多摩市","address":"東京都多摩市和田133-1","lat":35.645245,"lon":139.430955,"males_count":0,"females_count":0,"multipurposes_count":0},{"name":"永山北公園","province":"東京都","city":"多摩市","address":"東京都多摩市永山2-5","lat":35.627683,"lon":139.448695,"males_count":2,"females_count":1,"multipurposes_count":1},{"name":"永山南公園","province":"東京都","city":"多摩市","address":"東京都多摩市永山4-7-12","lat":35.622045,"lon":139.448985,"males_count":4,"females_count":2,"multipurposes_count":1},{"name":"永山第４公園","province":"東京都","city":"多摩市","address":"東京都多摩市永山5-30-1","lat":35.616517,"lon":139.445856,"males_count":0,"females_count":0,"multipurposes_count":0},{"name":"永山第６公園","province":"東京都","city":"多摩市","address":"東京都多摩市永山4-11","lat":35.621214,"lon":139.446534,"males_count":0,"females_count":0,"multipurposes_count":0},{"name":"永山第７公園","province":"東京都","city":"多摩市","address":"東京都多摩市永山4-8","lat":35.618715,"lon":139.450643,"males_count":0,"females_count":0,"multipurposes_count":0},{"name":"奈良原公園","province":"東京都","city":"多摩市","address":"東京都多摩市鶴牧4-4","lat":35.613111,"lon":139.420972,"males_count":4,"females_count":2,"multipurposes_count":0},{"name":"並木公園","province":"東京都","city":"多摩市","address":"東京都多摩市和田1551-1","lat":35.645797,"lon":139.433758,"males_count":3,"females_count":1,"multipurposes_count":0},{"name":"中沢池公園","province":"東京都","city":"多摩市","address":"東京都多摩市中沢1-33","lat":35.620815,"lon":139.407896,"males_count":0,"females_count":0,"multipurposes_count":0},{"name":"中沢池公園","province":"東京都","city":"多摩市","address":"東京都多摩市中沢1-33","lat":35.620815,"lon":139.407896,"males_count":2,"females_count":1,"multipurposes_count":0},{"name":"中和田橋公園","province":"東京都","city":"多摩市","address":"東京都多摩市和田2001-1","lat":35.641825,"lon":139.428838,"males_count":0,"females_count":0,"multipurposes_count":1},{"name":"二反田公園","province":"東京都","city":"多摩市","address":"東京都多摩市中沢2-23","lat":35.618387,"lon":139.413577,"males_count":0,"females_count":0,"multipurposes_count":0},{"name":"八幡公園","province":"東京都","city":"多摩市","address":"東京都多摩市豊ケ丘1-20","lat":35.627699,"lon":139.430779,"males_count":0,"females_count":0,"multipurposes_count":0},{"name":"原峰公園","province":"東京都","city":"多摩市","address":"東京都多摩市関戸6-25-12","lat":35.640039,"lon":139.44802,"males_count":3,"females_count":2,"multipurposes_count":0},{"name":"東寺方中央公園","province":"東京都","city":"多摩市","address":"東京都多摩市落川1148-1","lat":35.642358,"lon":139.438259,"males_count":0,"females_count":0,"multipurposes_count":0},{"name":"聖ヶ丘緑地","province":"東京都","city":"多摩市","address":"東京都多摩市聖ケ丘3-48","lat":35.632565,"lon":139.459705,"males_count":0,"females_count":0,"multipurposes_count":0},{"name":"聖ヶ丘緑地","province":"東京都","city":"多摩市","address":"東京都多摩市聖ケ丘3-67","lat":35.632565,"lon":139.459705,"males_count":3,"females_count":1,"multipurposes_count":0},{"name":"聖ヶ丘第１児童公園","province":"東京都","city":"多摩市","address":"東京都多摩市聖ケ丘1-16","lat":35.638368,"lon":139.456181,"males_count":0,"females_count":0,"multipurposes_count":0},{"name":"聖ヶ丘第２児童公園","province":"東京都","city":"多摩市","address":"東京都多摩市聖ケ丘2-53","lat":35.636485,"lon":139.455936,"males_count":0,"females_count":0,"multipurposes_count":0},{"name":"馬引沢南公園","province":"東京都","city":"多摩市","address":"東京都多摩市聖ヶ丘4-22","lat":35.626972,"lon":139.461098,"males_count":4,"females_count":2,"multipurposes_count":0},{"name":"馬引沢第１公園","province":"東京都","city":"多摩市","address":"東京都多摩市馬引沢2-5","lat":35.633689,"lon":139.45309,"males_count":0,"females_count":0,"multipurposes_count":0},{"name":"馬引沢第２公園","province":"東京都","city":"多摩市","address":"東京都多摩市諏訪1-55-1","lat":35.629047,"lon":139.453933,"males_count":0,"females_count":0,"multipurposes_count":0},{"name":"馬引沢第３公園","province":"東京都","city":"多摩市","address":"東京都多摩市馬引沢2-16","lat":35.628227,"lon":139.456706,"males_count":0,"females_count":0,"multipurposes_count":0},{"name":"まろにえ公園","province":"東京都","city":"多摩市","address":"東京都多摩市鶴牧6-3","lat":35.614321,"lon":139.416129,"males_count":0,"females_count":0,"multipurposes_count":0},{"name":"みどり公園","province":"東京都","city":"多摩市","address":"東京都多摩市貝取1-63","lat":35.629271,"lon":139.439016,"males_count":0,"females_count":0,"multipurposes_count":0},{"name":"よこやまの道","province":"東京都","city":"多摩市","address":"東京都多摩市唐木田3-5","lat":35.60946713,"lon":139.40183069,"males_count":0,"females_count":0,"multipurposes_count":1},{"name":"よこやまの道","province":"東京都","city":"多摩市","address":"東京都多摩市南野3-12","lat":35.60946478,"lon":139.42085411,"males_count":0,"females_count":0,"multipurposes_count":1},{"name":"よこやまの道","province":"東京都","city":"多摩市","address":"東京都多摩市永山7-12","lat":35.61421801,"lon":139.45045421,"males_count":0,"females_count":0,"multipurposes_count":1},{"name":"連光寺公園","province":"東京都","city":"多摩市","address":"東京都多摩市連光寺5-8-6","lat":35.6363,"lon":139.463433,"males_count":4,"females_count":3,"multipurposes_count":1},{"name":"和田公園","province":"東京都","city":"多摩市","address":"東京都多摩市和田795","lat":35.640364,"lon":139.430175,"males_count":4,"females_count":2,"multipurposes_count":0},{"name":"和田第１公園","province":"東京都","city":"多摩市","address":"東京都多摩市和田3-56-1","lat":35.63543,"lon":139.434164,"males_count":0,"females_count":0,"multipurposes_count":0},{"name":"宮之下公園","province":"東京都","city":"多摩市","address":"東京都多摩市一ノ宮2-27-2","lat":null,"lon":null,"males_count":2,"females_count":1,"multipurposes_count":1},{"name":"せいせき公園","province":"東京都","city":"多摩市","address":"東京都多摩市関戸1-19-2","lat":null,"lon":null,"males_count":3,"females_count":2,"multipurposes_count":1}]}