{"category":"wireless","data":[{"name":"関戸公民館","province":"東京都","city":"多摩市","address":"多摩市関戸4-72","lat":35.649825,"lon":139.446818},{"name":"永山公民館","province":"東京都","city":"多摩市","address":"多摩市永山1-5","lat":35.628308,"lon":139.448407},{"name":"唐木田コミュニティセンター（からきだ菖蒲館）","province":"東京都","city":"多摩市","address":"多摩市鶴牧6-14","lat":35.615405,"lon":139.413274},{"name":"桜ヶ丘コミュニティセンター（ゆう桜ヶ丘）","province":"東京都","city":"多摩市","address":"多摩市桜ヶ丘1-17-7","lat":35.639911,"lon":139.44649},{"name":"乞田・貝取コミュニティセンター（乞田・貝取ふれあい館）","province":"東京都","city":"多摩市","address":"多摩市乞田810","lat":35.630901,"lon":139.434555},{"name":"愛宕コミュニティセンター（愛宕かえで館）","province":"東京都","city":"多摩市","address":"多摩市愛宕3-2","lat":35.633543,"lon":139.434482},{"name":"東寺方図書館","province":"東京都","city":"多摩市","address":"多摩市東寺方626-7","lat":35.643261,"lon":139.437713},{"name":"豊ヶ丘図書館","province":"東京都","city":"多摩市","address":"多摩市豊ヶ丘5-6","lat":35.614618,"lon":139.434865},{"name":"関戸図書館","province":"東京都","city":"多摩市","address":"多摩市関戸1-1-5","lat":35.651829,"lon":139.44592},{"name":"永山図書館","province":"東京都","city":"多摩市","address":"多摩市永山1-5","lat":35.628308,"lon":139.448237},{"name":"唐木田図書館","province":"東京都","city":"多摩市","address":"多摩市鶴牧6-14","lat":35.615407,"lon":139.413357},{"name":"総合体育館","province":"東京都","city":"多摩市","address":"多摩市東寺方588-1","lat":35.643555,"lon":139.436244},{"name":"日本医科大学多摩永山病院","province":"東京都","city":"多摩市","address":"東京都多摩市永山1丁目7-1","lat":35.63113783,"lon":139.44665098},{"name":"東京都保健医療公社多摩南部地域病院","province":"東京都","city":"多摩市","address":"東京都多摩市中沢2丁目1-2","lat":35.622938,"lon":139.41525124},{"name":"落合浄水所","province":"東京都","city":"多摩市","address":"東京都多摩市中沢1丁目12","lat":35.62444889,"lon":139.41365963},{"name":"愛宕配水所","province":"東京都","city":"多摩市","address":"東京都多摩市愛宕2丁目51","lat":35.63483719,"lon":139.43953479},{"name":"南野給水所","province":"東京都","city":"多摩市","address":"東京都多摩市南野2丁目16","lat":35.60863738,"lon":139.43101436},{"name":"聖ヶ丘給水所","province":"東京都","city":"多摩市","address":"東京都多摩市聖ヶ丘4丁目1","lat":35.62952201,"lon":139.46372188},{"name":"多摩南部地域病院","province":"東京都","city":"多摩市","address":"東京都多摩市中沢2丁目1-2","lat":35.622938,"lon":139.41525124},{"name":"南多摩保健所","province":"東京都","city":"多摩市","address":"東京都多摩市永山2丁目1-5","lat":35.62794936,"lon":139.44743715},{"name":"多摩ニュータウン市場","province":"東京都","city":"多摩市","address":"東京都多摩市永山7丁目4","lat":35.60927671,"lon":139.44523259},{"name":"永山高等学校","province":"東京都","city":"多摩市","address":"東京都多摩市永山5丁目22","lat":35.61369294,"lon":139.44800719},{"name":"多摩市立武道館・陸上競技場","province":"東京都","city":"多摩市","address":"東京都多摩市諏訪4丁目9","lat":35.62459204,"lon":139.46102787}]}