{"keyword":"たま","data":[{"name":"多摩市役所","province":"東京都","city":"多摩市","address":"東京都多摩市関戸6丁目12-1","lat":35.6370055,"lon":139.4463099},{"name":"聖蹟桜ヶ丘駅出張所","province":"東京都","city":"多摩市","address":"東京都多摩市関戸4丁目72","lat":35.649708,"lon":139.446936},{"name":"多摩センター駅出張所","province":"東京都","city":"多摩市","address":"東京都多摩市落合1丁目10-1","lat":35.62560049,"lon":139.4250844},{"name":"関戸公民館","province":"東京都","city":"多摩市","address":"東京都多摩市関戸4丁目72","lat":35.649842,"lon":139.4468394},{"name":"永山公民館","province":"東京都","city":"多摩市","address":"東京都多摩市永山1丁目5","lat":35.6283469,"lon":139.4484153},{"name":"多摩市立図書館（本館）","province":"東京都","city":"多摩市","address":"東京都多摩市落合2丁目29","lat":35.61756512,"lon":139.4252195},{"name":"東寺方図書館","province":"東京都","city":"多摩市","address":"東京都多摩市東寺方626-7","lat":35.6432837,"lon":139.4377157},{"name":"豊ヶ丘図書館","province":"東京都","city":"多摩市","address":"東京都多摩市豊ヶ丘5丁目6","lat":35.614673,"lon":139.4348817},{"name":"関戸図書館","province":"東京都","city":"多摩市","address":"東京都多摩市関戸1丁目1-5","lat":35.65188307,"lon":139.4459331},{"name":"聖ヶ丘図書館","province":"東京都","city":"多摩市","address":"東京都多摩市聖ケ丘2丁目21-1","lat":35.6310748,"lon":139.4581144},{"name":"永山図書館","province":"東京都","city":"多摩市","address":"東京都多摩市永山1丁目5","lat":35.62832236,"lon":139.4482361},{"name":"唐木田図書館","province":"東京都","city":"多摩市","address":"東京都多摩市鶴牧6丁目14","lat":35.6154234,"lon":139.4133785},{"name":"行政資料室","province":"東京都","city":"多摩市","address":"東京都多摩市関戸6丁目12-1","lat":35.6377596,"lon":139.4468901},{"name":"多摩市中央警察署","province":"東京都","city":"多摩市","address":"東京都多摩市鶴牧1丁目26-1","lat":35.6229967,"lon":139.420954},{"name":"多摩市消防団本団","province":"東京都","city":"多摩市","address":"東京都多摩市関戸6丁目12-1","lat":35.6377596,"lon":139.4468901},{"name":"多摩市消防団第1分団","province":"東京都","city":"多摩市","address":"東京都多摩市連光寺2丁目27-22","lat":35.6430287,"lon":139.4551753},{"name":"多摩市消防団第2分団","province":"東京都","city":"多摩市","address":"東京都多摩市関戸5丁目17","lat":35.645506,"lon":139.4516422},{"name":"多摩市消防団第3分団","province":"東京都","city":"多摩市","address":"東京都多摩市馬引沢2丁目3-13","lat":35.63294573,"lon":139.4533077},{"name":"多摩市消防団第4分団","province":"東京都","city":"多摩市","address":"東京都多摩市連光寺6丁目24-14","lat":35.6345081,"lon":139.4648723},{"name":"多摩市消防団第5分団","province":"東京都","city":"多摩市","address":"東京都多摩市和田435","lat":35.6397812,"lon":139.4342078},{"name":"多摩市消防団第6分団","province":"東京都","city":"多摩市","address":"東京都多摩市東寺方626-4","lat":35.643392,"lon":139.438024},{"name":"多摩市消防団第7分団","province":"東京都","city":"多摩市","address":"東京都多摩市乞田1101-2","lat":35.63178127,"lon":139.438521},{"name":"多摩市消防団第8分団","province":"東京都","city":"多摩市","address":"東京都多摩市鶴牧1丁目1-7","lat":35.6253409,"lon":139.4216872},{"name":"多摩市消防団第9分団","province":"東京都","city":"多摩市","address":"東京都多摩市一ノ宮4丁目19","lat":35.6507745,"lon":139.4401457},{"name":"多摩市消防団第10分団","province":"東京都","city":"多摩市","address":"東京都多摩市南野2丁目4-7","lat":35.6079434,"lon":139.4345144},{"name":"東京消防庁多摩消防署","province":"東京都","city":"多摩市","address":"東京都多摩市諏訪1丁目69","lat":35.6325242,"lon":139.4483874},{"name":"東京消防庁多摩消防署多摩センター出張所","province":"東京都","city":"多摩市","address":"東京都多摩市鶴牧1丁目27-1","lat":35.6221239,"lon":139.4181495},{"name":"多摩第一小学校","province":"東京都","city":"多摩市","address":"東京都多摩市関戸3丁目2-23","lat":35.65055166,"lon":139.45685},{"name":"多摩第二小学校","province":"東京都","city":"多摩市","address":"東京都多摩市和田75","lat":35.64464124,"lon":139.4327387},{"name":"多摩第三小学校","province":"東京都","city":"多摩市","address":"東京都多摩市乞田712","lat":35.6314239,"lon":139.4365635},{"name":"連光寺小学校","province":"東京都","city":"多摩市","address":"東京都多摩市連光寺3丁目64-1","lat":35.6415789,"lon":139.4570419},{"name":"北諏訪小学校","province":"東京都","city":"多摩市","address":"東京都多摩市諏訪1丁目60-1","lat":35.6302745,"lon":139.4502512},{"name":"東寺方小学校","province":"東京都","city":"多摩市","address":"東京都多摩市東寺方100","lat":35.6478665,"lon":139.4389737},{"name":"南鶴牧小学校","province":"東京都","city":"多摩市","address":"東京都多摩市鶴牧5丁目43","lat":35.614275,"lon":139.4180962},{"name":"聖ヶ丘小学校","province":"東京都","city":"多摩市","address":"東京都多摩市聖ヶ丘3丁目66","lat":35.62875022,"lon":139.4603939},{"name":"西落合小学校","province":"東京都","city":"多摩市","address":"東京都多摩市落合5丁目6","lat":35.61382078,"lon":139.4237087},{"name":"大松台小学校","province":"東京都","city":"多摩市","address":"東京都多摩市鶴牧6丁目4","lat":35.6154482,"lon":139.415342},{"name":"諏訪小学校","province":"東京都","city":"多摩市","address":"東京都多摩市諏訪5丁目13","lat":35.62040889,"lon":139.4553447},{"name":"永山小学校","province":"東京都","city":"多摩市","address":"東京都多摩市永山2丁目8-1","lat":35.6274497,"lon":139.4457767},{"name":"瓜生小学校","province":"東京都","city":"多摩市","address":"東京都多摩市永山5丁目13","lat":35.62023489,"lon":139.4458114},{"name":"東落合小学校","province":"東京都","city":"多摩市","address":"東京都多摩市落合3丁目24","lat":35.61870196,"lon":139.4302222},{"name":"貝取小学校","province":"東京都","city":"多摩市","address":"東京都多摩市貝取3丁目9","lat":35.61825142,"lon":139.4411623},{"name":"豊ヶ丘小学校","province":"東京都","city":"多摩市","address":"東京都多摩市豊ケ丘2丁目4-1","lat":35.6226055,"lon":139.433814},{"name":"愛和小学校","province":"東京都","city":"多摩市","address":"東京都多摩市愛宕1丁目54","lat":35.63500033,"lon":139.4349638},{"name":"多摩中学校","province":"東京都","city":"多摩市","address":"東京都多摩市関戸3丁目19-1","lat":35.64975212,"lon":139.4569484},{"name":"東愛宕中学校","province":"東京都","city":"多摩市","address":"東京都多摩市愛宕1丁目52","lat":35.6335985,"lon":139.4322305},{"name":"和田中学校","province":"東京都","city":"多摩市","address":"東京都多摩市和田234","lat":35.6418364,"lon":139.4302358},{"name":"諏訪中学校","province":"東京都","city":"多摩市","address":"東京都多摩市諏訪5丁目12-1","lat":35.6220506,"lon":139.4551593},{"name":"聖ヶ丘中学校","province":"東京都","city":"多摩市","address":"東京都多摩市聖ヶ丘2丁目17","lat":35.6337327,"lon":139.4580088},{"name":"鶴牧中学校","province":"東京都","city":"多摩市","address":"東京都多摩市鶴牧6丁目5-1","lat":35.61391356,"lon":139.4142067},{"name":"多摩永山中学校","province":"東京都","city":"多摩市","address":"東京都多摩市永山2丁目7-1","lat":35.6248917,"lon":139.4469961},{"name":"落合中学校","province":"東京都","city":"多摩市","address":"東京都多摩市落合4丁目14","lat":35.61479932,"lon":139.4291509},{"name":"青陵中学校","province":"東京都","city":"多摩市","address":"東京都多摩市貝取2丁目9-1","lat":35.6207086,"lon":139.4393497},{"name":"旧豊ヶ丘中学校","province":"東京都","city":"多摩市","address":"東京都多摩市豊ヶ丘4丁目4","lat":35.6133511,"lon":139.4360752},{"name":"旧南豊ヶ丘小学校","province":"東京都","city":"多摩市","address":"東京都多摩市豊ヶ丘6丁目4","lat":35.6113901,"lon":139.4332755},{"name":"桜ヶ丘コミュニティセンター","province":"東京都","city":"多摩市","address":"東京都多摩市桜ケ丘1丁目17-7","lat":35.6399343,"lon":139.4465012},{"name":"総合体育館","province":"東京都","city":"多摩市","address":"東京都多摩市東寺方588-1","lat":35.6435225,"lon":139.4362186},{"name":"諏訪複合施設","province":"東京都","city":"多摩市","address":"東京都多摩市諏訪5丁目1","lat":35.6235476,"lon":139.4544704},{"name":"恵泉女学園大学（体育館）","province":"東京都","city":"多摩市","address":"東京都多摩市南野2丁目11","lat":35.6097099,"lon":139.4360836},{"name":"帝京大学小学校（体育館）","province":"東京都","city":"多摩市","address":"東京都多摩市和田1254-6","lat":35.6443024,"lon":139.4183617},{"name":"多摩中央公園","province":"東京都","city":"多摩市","address":"東京都多摩市落合2丁目35","lat":35.6194445,"lon":139.4253676},{"name":"一本杉公園","province":"東京都","city":"多摩市","address":"東京都多摩市南野2丁目14","lat":35.60719944,"lon":139.4332049},{"name":"並木公園","province":"東京都","city":"多摩市","address":"東京都多摩市和田","lat":35.64579706,"lon":139.433758},{"name":"大谷戸公園","province":"東京都","city":"多摩市","address":"東京都多摩市連光寺5丁目17","lat":35.6392265,"lon":139.4577142},{"name":"都立桜ヶ丘公園","province":"東京都","city":"多摩市","address":"東京都多摩市連光寺5丁目8","lat":35.63688082,"lon":139.4608969},{"name":"関戸防災倉庫","province":"東京都","city":"多摩市","address":"東京都多摩市関戸5丁目17","lat":35.64552055,"lon":139.4516762},{"name":"諏訪防災倉庫","province":"東京都","city":"多摩市","address":"東京都多摩市馬引沢2丁目3-13","lat":35.6329159,"lon":139.453223},{"name":"和田防災倉庫","province":"東京都","city":"多摩市","address":"東京都多摩市和田1440","lat":35.64334972,"lon":139.4314439},{"name":"愛宕防災倉庫","province":"東京都","city":"多摩市","address":"東京都多摩市愛宕1丁目52","lat":35.63381538,"lon":139.4339618},{"name":"南野防災倉庫","province":"東京都","city":"多摩市","address":"東京都多摩市南野2丁目4-7","lat":35.60801227,"lon":139.4345836},{"name":"唐木田防災倉庫","province":"東京都","city":"多摩市","address":"東京都多摩市南野3丁目15-2","lat":35.6123339,"lon":139.4135133},{"name":"桜ヶ丘浄水所","province":"東京都","city":"多摩市","address":"東京都多摩市桜ケ丘4丁目10-1","lat":35.64393254,"lon":139.4442169},{"name":"落合浄水場","province":"東京都","city":"多摩市","address":"東京都多摩市中沢1丁目12","lat":35.62433222,"lon":139.4133883},{"name":"愛宕配水所","province":"東京都","city":"多摩市","address":"東京都多摩市愛宕2丁目51","lat":35.63453002,"lon":139.4395325},{"name":"南野給水所","province":"東京都","city":"多摩市","address":"東京都多摩市南野2丁目16","lat":35.60882123,"lon":139.4307578},{"name":"聖ヶ丘給水所","province":"東京都","city":"多摩市","address":"東京都多摩市聖ヶ丘4丁目1","lat":35.63036255,"lon":139.463059},{"name":"並木公園応急給水槽","province":"東京都","city":"多摩市","address":"東京都多摩市和田","lat":35.64582461,"lon":139.4342551},{"name":"豊ヶ丘南公園100t貯水槽","province":"東京都","city":"多摩市","address":"東京都多摩市豊ヶ丘5丁目12","lat":35.6157619,"lon":139.433967},{"name":"瓜生緑地100t貯水槽","province":"東京都","city":"多摩市","address":"東京都多摩市永山5丁目8","lat":35.6185396,"lon":139.4428411},{"name":"多摩中央公園100t貯水槽","province":"東京都","city":"多摩市","address":"東京都多摩市落合2丁目35","lat":35.6194445,"lon":139.4253676},{"name":"健康センター100t貯水槽","province":"東京都","city":"多摩市","address":"東京都多摩市関戸4丁目19","lat":35.6491889,"lon":139.4494339},{"name":"連光寺小学校災害対策用井戸","province":"東京都","city":"多摩市","address":"東京都多摩市連光寺3丁目64","lat":35.6414095,"lon":139.4574002},{"name":"多摩市役所","province":"東京都","city":"多摩市","address":"東京都多摩市関戸6丁目12-1","lat":35.63705284,"lon":139.4463141},{"name":"多摩市立図書館","province":"東京都","city":"多摩市","address":"東京都多摩市落合2丁目29","lat":35.6172392,"lon":139.425276},{"name":"豊ヶ丘図書館","province":"東京都","city":"多摩市","address":"東京都多摩市豊ヶ丘5丁目6","lat":35.61463283,"lon":139.4348678},{"name":"関戸図書館","province":"東京都","city":"多摩市","address":"東京都多摩市関戸1丁目1-5","lat":35.6518357,"lon":139.445923},{"name":"永山図書館","province":"東京都","city":"多摩市","address":"東京都多摩市永山1丁目5","lat":35.62831191,"lon":139.4482311},{"name":"唐木田図書館","province":"東京都","city":"多摩市","address":"東京都多摩市鶴牧6丁目14","lat":35.61542187,"lon":139.41336},{"name":"パルテノン多摩","province":"東京都","city":"多摩市","address":"東京都多摩市落合2丁目35","lat":35.62168681,"lon":139.4262824},{"name":"多摩市立武道館","province":"東京都","city":"多摩市","address":"東京都多摩市諏訪4丁目9","lat":35.62547377,"lon":139.4589195},{"name":"多摩市立陸上競技場","province":"東京都","city":"多摩市","address":"東京都多摩市諏訪4丁目9","lat":35.62501935,"lon":139.4603},{"name":"多摩市総合福祉センター","province":"東京都","city":"多摩市","address":"東京都多摩市南野3丁目15-1","lat":35.6125366,"lon":139.4126773},{"name":"市立健康センター","province":"東京都","city":"多摩市","address":"東京都多摩市関戸4丁目19-5","lat":35.64908339,"lon":139.4497037},{"name":"一ノ宮児童館","province":"東京都","city":"多摩市","address":"東京都多摩市一ノ宮1丁目18-7","lat":35.652941,"lon":139.4427843},{"name":"永山児童館","province":"東京都","city":"多摩市","address":"東京都多摩市永山3丁目6","lat":35.6255194,"lon":139.4459017},{"name":"愛宕児童館","province":"東京都","city":"多摩市","address":"東京都多摩市愛宕1丁目65-3","lat":35.6346956,"lon":139.4325054},{"name":"連光寺児童館","province":"東京都","city":"多摩市","address":"東京都多摩市連光寺3丁目57-1","lat":35.6427455,"lon":139.4568308},{"name":"豊ヶ丘児童館","province":"東京都","city":"多摩市","address":"東京都多摩市豊ヶ丘5丁目6","lat":35.61453528,"lon":139.4345655},{"name":"東寺方児童館","province":"東京都","city":"多摩市","address":"東京都多摩市東寺方626-7","lat":35.6432837,"lon":139.4377157},{"name":"諏訪児童館","province":"東京都","city":"多摩市","address":"東京都多摩市諏訪2丁目8","lat":35.62534159,"lon":139.4514675},{"name":"桜ヶ丘児童館","province":"東京都","city":"多摩市","address":"東京都多摩市桜ケ丘1丁目17-7","lat":35.63980924,"lon":139.4466522},{"name":"落合児童館","province":"東京都","city":"多摩市","address":"東京都多摩市落合6丁目5","lat":35.6120796,"lon":139.4255867},{"name":"唐木田児童館","province":"東京都","city":"多摩市","address":"東京都多摩市鶴牧6丁目14","lat":35.61545283,"lon":139.4132753},{"name":"多摩市立子ども家庭支援センター「たまっこ」","province":"東京都","city":"多摩市","address":"東京都多摩市豊ケ丘1丁目21-3","lat":35.6277686,"lon":139.429842},{"name":"多摩市立教育センター","province":"東京都","city":"多摩市","address":"東京都多摩市諏訪5丁目1","lat":35.62346015,"lon":139.4543631},{"name":"グリーンライブセンター","province":"東京都","city":"多摩市","address":"東京都多摩市落合2丁目35","lat":35.622263,"lon":139.42781},{"name":"エコプラザ多摩（資源化センター）","province":"東京都","city":"多摩市","address":"東京都多摩市諏訪6丁目3-2","lat":35.6188343,"lon":139.4546789},{"name":"多摩第一小学校","province":"東京都","city":"多摩市","address":"東京都多摩市関戸3丁目2-23","lat":35.65060218,"lon":139.4568443},{"name":"多摩第二小学校","province":"東京都","city":"多摩市","address":"東京都多摩市和田75","lat":35.64469172,"lon":139.4327218},{"name":"南鶴牧小学校","province":"東京都","city":"多摩市","address":"東京都多摩市鶴牧5丁目43","lat":35.6140088,"lon":139.4180962},{"name":"聖ヶ丘小学校","province":"東京都","city":"多摩市","address":"東京都多摩市聖ヶ丘3丁目66","lat":35.6285391,"lon":139.4602866},{"name":"西落合小学校","province":"東京都","city":"多摩市","address":"東京都多摩市落合5丁目6","lat":35.6135729,"lon":139.4237596},{"name":"大松台小学校","province":"東京都","city":"多摩市","address":"東京都多摩市鶴牧6丁目4","lat":35.61541837,"lon":139.4153335},{"name":"諏訪小学校","province":"東京都","city":"多摩市","address":"東京都多摩市諏訪5丁目13","lat":35.62045938,"lon":139.4553335},{"name":"瓜生小学校","province":"東京都","city":"多摩市","address":"東京都多摩市永山5丁目13","lat":35.62027158,"lon":139.4458114},{"name":"東落合小学校","province":"東京都","city":"多摩市","address":"東京都多摩市落合3丁目24","lat":35.618679,"lon":139.4302166},{"name":"貝取小学校","province":"東京都","city":"多摩市","address":"東京都多摩市貝取3丁目9","lat":35.61823302,"lon":139.4411905},{"name":"愛和小学校","province":"東京都","city":"多摩市","address":"東京都多摩市愛宕1丁目54","lat":35.63497964,"lon":139.4349553},{"name":"多摩中学校","province":"東京都","city":"多摩市","address":"東京都多摩市関戸3丁目19-1","lat":35.64975674,"lon":139.4569539},{"name":"鶴牧中学校","province":"東京都","city":"多摩市","address":"東京都多摩市鶴牧6丁目5-1","lat":35.61389978,"lon":139.4141954},{"name":"落合中学校","province":"東京都","city":"多摩市","address":"東京都多摩市落合4丁目14","lat":35.6148452,"lon":139.4298285},{"name":"多摩市立関戸・一ノ宮コミュニティセンター","province":"東京都","city":"多摩市","address":"東京都多摩市関戸4丁目19-5","lat":35.64906366,"lon":139.4497225},{"name":"多摩市立桜ヶ丘コミュニティセンター（ゆう桜ヶ丘）","province":"東京都","city":"多摩市","address":"東京都多摩市桜ケ丘1丁目17-7","lat":35.64002149,"lon":139.44636},{"name":"多摩市立乞田・貝取コミュニティセンター（乞田・貝取ふれあい館）","province":"東京都","city":"多摩市","address":"東京都多摩市乞田810","lat":35.6309101,"lon":139.4345553},{"name":"多摩市立鶴牧・落合・南野コミュニティセンター（トムハウス）","province":"東京都","city":"多摩市","address":"東京都多摩市落合6丁目5","lat":35.61229309,"lon":139.4257053},{"name":"多摩市立貝取コミュニティセンター（貝取こぶし館）","province":"東京都","city":"多摩市","address":"東京都多摩市貝取4丁目5-1","lat":35.6158574,"lon":139.4398091},{"name":"多摩市立聖ヶ丘コミュニティセンター（ひじり館）","province":"東京都","city":"多摩市","address":"東京都多摩市聖ケ丘2丁目21-1","lat":35.63114938,"lon":139.4582132},{"name":"多摩市立愛宕コミュニティセンター（愛宕かえで館）","province":"東京都","city":"多摩市","address":"東京都多摩市愛宕3丁目2","lat":35.6335458,"lon":139.434483},{"name":"多摩市立唐木田コミュニティセンター（からきだ菖蒲館）","province":"東京都","city":"多摩市","address":"東京都多摩市鶴牧6丁目14","lat":35.61561122,"lon":139.4134489},{"name":"多摩市立三方の森コミュニティ会館","province":"東京都","city":"多摩市","address":"東京都多摩市和田1254-12","lat":35.6461771,"lon":139.4160646},{"name":"東京都多摩市立和田・東寺方コミュニティセンター（大栗川・かるがも館）","province":"東京都","city":"多摩市","address":"東京都多摩市和田2006-4","lat":35.64102057,"lon":139.4274375},{"name":"多摩市立連光寺老人福祉館","province":"東京都","city":"多摩市","address":"東京都多摩市連光寺3丁目57-1","lat":35.6427455,"lon":139.4568308},{"name":"多摩市立東寺方老人福祉館","province":"東京都","city":"多摩市","address":"東京都多摩市東寺方626-7","lat":35.6432837,"lon":139.4377157},{"name":"多摩市立諏訪老人福祉館","province":"東京都","city":"多摩市","address":"東京都多摩市諏訪5丁目4","lat":35.6223116,"lon":139.4508597},{"name":"多摩市立豊ヶ丘老人福祉館","province":"東京都","city":"多摩市","address":"東京都多摩市豊ヶ丘5丁目6","lat":35.61446411,"lon":139.4343961},{"name":"地域活動支援センター・のーま","province":"東京都","city":"多摩市","address":"東京都多摩市関戸4丁目19-5","lat":35.64892324,"lon":139.449655},{"name":"市立健康センター","province":"東京都","city":"多摩市","address":"東京都多摩市関戸4丁目19-5","lat":35.6491294,"lon":139.4494312},{"name":"多摩市発達支援室","province":"東京都","city":"多摩市","address":"東京都多摩市諏訪5丁目1","lat":35.6235476,"lon":139.4544704},{"name":"こども準夜診療所（毎日）","province":"東京都","city":"多摩市","address":"東京都多摩市関戸4丁目19-5","lat":35.64891446,"lon":139.4496381},{"name":"市立健康センター（施設案内）","province":"東京都","city":"多摩市","address":"東京都多摩市関戸4丁目19-5","lat":35.64911742,"lon":139.4494715},{"name":"多摩市立諏訪老人福祉館","province":"東京都","city":"多摩市","address":"東京都多摩市諏訪5丁目4","lat":35.6224011,"lon":139.4508286},{"name":"多摩市立豊ヶ丘老人福祉館","province":"東京都","city":"多摩市","address":"東京都多摩市豊ヶ丘5丁目6","lat":35.6144756,"lon":139.4343904},{"name":"多摩みゆき幼稚園","province":"東京都","city":"多摩市","address":"東京都多摩市連光寺2丁目24-6","lat":35.6424704,"lon":139.4542671},{"name":"富士ヶ丘幼稚園","province":"東京都","city":"多摩市","address":"東京都多摩市乞田1145","lat":35.6326572,"lon":139.4404048},{"name":"緑ヶ丘幼稚園","province":"東京都","city":"多摩市","address":"東京都多摩市和田712","lat":35.637073,"lon":139.4278002},{"name":"東京大谷幼稚園","province":"東京都","city":"多摩市","address":"東京都多摩市愛宕1丁目51","lat":35.6339152,"lon":139.4344608},{"name":"錦秋幼稚園","province":"東京都","city":"多摩市","address":"東京都多摩市永山3丁目8","lat":35.62454251,"lon":139.4462213},{"name":"文化学園大学附属すみれ幼稚園","province":"東京都","city":"多摩市","address":"東京都多摩市諏訪4丁目11","lat":35.6239114,"lon":139.4564178},{"name":"諏訪幼稚園","province":"東京都","city":"多摩市","address":"東京都多摩市諏訪5丁目3","lat":35.62280686,"lon":139.4508598},{"name":"せいとく幼稚園","province":"東京都","city":"多摩市","address":"東京都多摩市落合4丁目12","lat":35.61297864,"lon":139.4302471},{"name":"おだ学園幼稚園（おだ認定子ども園）","province":"東京都","city":"多摩市","address":"東京都多摩市落合5丁目7-2","lat":35.61369501,"lon":139.4249367},{"name":"市立多摩保育園","province":"東京都","city":"多摩市","address":"東京都多摩市和田418-1","lat":35.6398285,"lon":139.4354327},{"name":"私立桜ヶ丘第一保育園","province":"東京都","city":"多摩市","address":"東京都多摩市和田60-1","lat":35.6430836,"lon":139.4351187},{"name":"私立ゆりのき保育園","province":"東京都","city":"多摩市","address":"東京都多摩市永山4丁目6","lat":35.6216338,"lon":139.4483238},{"name":"私立こばと第一保育園","province":"東京都","city":"多摩市","address":"東京都多摩市諏訪4丁目7","lat":35.62409256,"lon":139.4580369},{"name":"私立みさと保育所","province":"東京都","city":"多摩市","address":"東京都多摩市愛宕2丁目53","lat":35.63519882,"lon":139.4372137},{"name":"私立バオバブ保育園","province":"東京都","city":"多摩市","address":"東京都多摩市一ノ宮1丁目20","lat":35.652341,"lon":139.4415178},{"name":"私立こぐま保育園","province":"東京都","city":"多摩市","address":"東京都多摩市永山3丁目5","lat":35.6260915,"lon":139.4459489},{"name":"私立みどりの保育園","province":"東京都","city":"多摩市","address":"東京都多摩市連光寺3丁目57-2","lat":35.6425483,"lon":139.4569002},{"name":"私立やまと保育園","province":"東京都","city":"多摩市","address":"東京都多摩市和田1534","lat":35.645586,"lon":139.4315689},{"name":"私立ピオニイ第二保育園","province":"東京都","city":"多摩市","address":"東京都多摩市豊ヶ丘4丁目8","lat":35.615199,"lon":139.4351705},{"name":"私立かおり保育園","province":"東京都","city":"多摩市","address":"東京都多摩市落合4丁目15","lat":35.61527309,"lon":139.4301774},{"name":"私立かしのき保育園","province":"東京都","city":"多摩市","address":"東京都多摩市諏訪1丁目64","lat":35.63126944,"lon":139.4499263},{"name":"私立こころ保育園","province":"東京都","city":"多摩市","address":"東京都多摩市鶴牧5丁目5","lat":35.61128045,"lon":139.4239607},{"name":"私立バオバブちいさな家保育園","province":"東京都","city":"多摩市","address":"東京都多摩市一ノ宮3丁目9-1","lat":35.6498553,"lon":139.4432372},{"name":"私立りすのき保育園","province":"東京都","city":"多摩市","address":"東京都多摩市唐木田1丁目8-2","lat":35.6147612,"lon":139.4091998},{"name":"私立あおぞら保育園","province":"東京都","city":"多摩市","address":"東京都多摩市落合1丁目5-16","lat":35.6263326,"lon":139.4266756},{"name":"私立丘の上アンジュ保育園","province":"東京都","city":"多摩市","address":"東京都多摩市鶴牧3丁目2","lat":35.6187839,"lon":139.4212336},{"name":"私立おだ学園保育園（おだ認定こども園）","province":"東京都","city":"多摩市","address":"東京都多摩市落合5丁目7-2","lat":35.6140118,"lon":139.4249762},{"name":"私立のびのびっこ保育園","province":"東京都","city":"多摩市","address":"東京都多摩市諏訪1丁目1-6","lat":35.6350072,"lon":139.4494205},{"name":"私立あすのき保育園","province":"東京都","city":"多摩市","address":"東京都多摩市諏訪2丁目2","lat":35.6256668,"lon":139.4525567},{"name":"私立あおぞらぱれっと保育園","province":"東京都","city":"多摩市","address":"東京都多摩市落合1丁目15-1","lat":35.6260428,"lon":139.4296218},{"name":"私立おだ学園保育園","province":"東京都","city":"多摩市","address":"東京都多摩市永山1丁目5","lat":35.6284129,"lon":139.4487013},{"name":"私立やまとさくら保育園","province":"東京都","city":"多摩市","address":"東京都多摩市関戸4丁目18","lat":35.6491512,"lon":139.4500773},{"name":"私立関戸みどりの保育園","province":"東京都","city":"多摩市","address":"東京都多摩市関戸2丁目24-27","lat":35.6508454,"lon":139.4493364},{"name":"多摩市立子ども家庭支援センター","province":"東京都","city":"多摩市","address":"東京都多摩市豊ケ丘1丁目21-3","lat":35.6277686,"lon":139.429842},{"name":"多摩市立教育センター","province":"東京都","city":"多摩市","address":"東京都多摩市諏訪5丁目1","lat":35.62347072,"lon":139.4545255},{"name":"ウィズチャイルド　さくらがおか幼保園","province":"東京都","city":"多摩市","address":"東京都多摩市関戸1丁目1-5","lat":35.65142422,"lon":139.4459699},{"name":"ウィズチャイルド　さくらがおかみなみ園","province":"東京都","city":"多摩市","address":"東京都多摩市東寺方1丁目2-11","lat":35.6487055,"lon":139.4462148},{"name":"ウィズチャイルド　さくらがおかこども園","province":"東京都","city":"多摩市","address":"東京都多摩市一ノ宮2丁目1-2","lat":35.6537688,"lon":139.4456535},{"name":"永山駅前こどもの家","province":"東京都","city":"多摩市","address":"東京都多摩市永山1丁目4","lat":35.6292187,"lon":139.4483931},{"name":"多摩センターこどもの家","province":"東京都","city":"多摩市","address":"東京都多摩市落合1丁目47","lat":35.6218491,"lon":139.423251},{"name":"キッズガーデンかわせみ","province":"東京都","city":"多摩市","address":"東京都多摩市連光寺1丁目1-1","lat":35.64799671,"lon":139.4591089},{"name":"みらい保育園","province":"東京都","city":"多摩市","address":"東京都多摩市豊ケ丘1丁目1-4","lat":35.6302681,"lon":139.4384588},{"name":"多摩センターエンゼルホーム","province":"東京都","city":"多摩市","address":"東京都多摩市落合2丁目32","lat":35.6184517,"lon":139.4236083},{"name":"キッズサポート多摩めぐみクラブ","province":"東京都","city":"多摩市","address":"東京都多摩市鶴牧1丁目25-2","lat":35.62169,"lon":139.4208292},{"name":"永山児童館","province":"東京都","city":"多摩市","address":"東京都多摩市永山3丁目6","lat":35.62556759,"lon":139.4457605},{"name":"豊ヶ丘児童館","province":"東京都","city":"多摩市","address":"東京都多摩市豊ヶ丘5丁目6","lat":35.61453298,"lon":139.4345641},{"name":"諏訪児童館","province":"東京都","city":"多摩市","address":"東京都多摩市諏訪2丁目8","lat":35.62532897,"lon":139.4514647},{"name":"桜ヶ丘児童館","province":"東京都","city":"多摩市","address":"東京都多摩市桜ケ丘1丁目17-7","lat":35.6399343,"lon":139.4465012},{"name":"落合児童館","province":"東京都","city":"多摩市","address":"東京都多摩市落合6丁目5","lat":35.6122799,"lon":139.4256735},{"name":"唐木田児童館","province":"東京都","city":"多摩市","address":"東京都多摩市鶴牧6丁目14","lat":35.61543782,"lon":139.4132739},{"name":"東寺方小学童クラブ（第一・第二・第三）","province":"東京都","city":"多摩市","address":"東京都多摩市東寺方","lat":35.64688862,"lon":139.4397194},{"name":"第一小学童クラブ（第一・第二）","province":"東京都","city":"多摩市","address":"東京都多摩市関戸3丁目2","lat":35.65013967,"lon":139.4570684},{"name":"第一小学童クラブ（第三）","province":"東京都","city":"多摩市","address":"東京都多摩市関戸3丁目19-1","lat":35.649711,"lon":139.45695},{"name":"永山学童クラブ","province":"東京都","city":"多摩市","address":"東京都多摩市永山3丁目6","lat":35.6255194,"lon":139.4459017},{"name":"永山第二学童クラブ","province":"東京都","city":"多摩市","address":"東京都多摩市永山5丁目18","lat":35.61825517,"lon":139.4470089},{"name":"永山小学童クラブ","province":"東京都","city":"多摩市","address":"東京都多摩市永山2丁目8-1","lat":35.62783232,"lon":139.4454572},{"name":"愛和小学童クラブ","province":"東京都","city":"多摩市","address":"東京都多摩市愛宕1丁目54","lat":35.63507213,"lon":139.4332611},{"name":"愛宕南学童クラブ","province":"東京都","city":"多摩市","address":"東京都多摩市愛宕3丁目5-1","lat":35.63185989,"lon":139.4315933},{"name":"連光寺学童クラブ","province":"東京都","city":"多摩市","address":"東京都多摩市連光寺3丁目57-1","lat":35.6427455,"lon":139.4568308},{"name":"貝取小学童クラブ","province":"東京都","city":"多摩市","address":"東京都多摩市貝取3丁目9","lat":35.61727,"lon":139.4408902},{"name":"聖ケ丘学童クラブ","province":"東京都","city":"多摩市","address":"東京都多摩市聖ケ丘2丁目21-1","lat":35.6310748,"lon":139.4581144},{"name":"東落合小学童クラブ","province":"東京都","city":"多摩市","address":"東京都多摩市落合3丁目24","lat":35.6179371,"lon":139.4305523},{"name":"貝取学童クラブ","province":"東京都","city":"多摩市","address":"東京都多摩市貝取1丁目44-1","lat":35.6240971,"lon":139.4383191},{"name":"第二小学童クラブ（第一・第二）","province":"東京都","city":"多摩市","address":"東京都多摩市和田75","lat":35.64473202,"lon":139.4326593},{"name":"諏訪学童クラブ","province":"東京都","city":"多摩市","address":"東京都多摩市諏訪2丁目8","lat":35.6251557,"lon":139.4514929},{"name":"諏訪南学童クラブ","province":"東京都","city":"多摩市","address":"東京都多摩市諏訪5丁目1","lat":35.6235476,"lon":139.4544704},{"name":"北諏訪小学童クラブ（第一・第二）","province":"東京都","city":"多摩市","address":"東京都多摩市諏訪1丁目60-1","lat":35.62936319,"lon":139.4513438},{"name":"西落合小学童クラブ（第一・第二・第三）","province":"東京都","city":"多摩市","address":"東京都多摩市落合5丁目6","lat":35.61377198,"lon":139.4245799},{"name":"落合第二学童クラブ","province":"東京都","city":"多摩市","address":"東京都多摩市落合4丁目13","lat":35.61405868,"lon":139.4296525},{"name":"大松台小第一学童クラブ","province":"東京都","city":"多摩市","address":"東京都多摩市鶴牧6丁目4","lat":35.61524002,"lon":139.4147908},{"name":"大松台小第二学童クラブ","province":"東京都","city":"多摩市","address":"東京都多摩市鶴牧6丁目4","lat":35.61468503,"lon":139.4146943},{"name":"南鶴牧小学童クラブ（第一・第二）","province":"東京都","city":"多摩市","address":"東京都多摩市鶴牧5丁目43","lat":35.6141949,"lon":139.4180801},{"name":"多摩第一小学校","province":"東京都","city":"多摩市","address":"東京都多摩市関戸3丁目2-23","lat":35.65054706,"lon":139.4568471},{"name":"多摩第二小学校","province":"東京都","city":"多摩市","address":"東京都多摩市和田75","lat":35.64464124,"lon":139.4327273},{"name":"南鶴牧小学校","province":"東京都","city":"多摩市","address":"東京都多摩市鶴牧5丁目43","lat":35.61421078,"lon":139.4180849},{"name":"聖ヶ丘小学校","province":"東京都","city":"多摩市","address":"東京都多摩市聖ヶ丘3丁目66","lat":35.62873876,"lon":139.4603882},{"name":"西落合小学校","province":"東京都","city":"多摩市","address":"東京都多摩市落合5丁目6","lat":35.61380244,"lon":139.4236947},{"name":"大松台小学校","province":"東京都","city":"多摩市","address":"東京都多摩市鶴牧6丁目4","lat":35.61542068,"lon":139.4153363},{"name":"諏訪小学校","province":"東京都","city":"多摩市","address":"東京都多摩市諏訪5丁目13","lat":35.62040431,"lon":139.4553447},{"name":"瓜生小学校","province":"東京都","city":"多摩市","address":"東京都多摩市永山5丁目13","lat":35.62026243,"lon":139.4458058},{"name":"東落合小学校","province":"東京都","city":"多摩市","address":"東京都多摩市落合3丁目24","lat":35.61870654,"lon":139.4302278},{"name":"貝取小学校","province":"東京都","city":"多摩市","address":"東京都多摩市貝取3丁目9","lat":35.61826516,"lon":139.4411793},{"name":"愛和小学校","province":"東京都","city":"多摩市","address":"東京都多摩市愛宕1丁目54","lat":35.6347846,"lon":139.434433},{"name":"多摩中学校","province":"東京都","city":"多摩市","address":"東京都多摩市関戸3丁目19-1","lat":35.64972002,"lon":139.4569511},{"name":"聖ヶ丘中学校","province":"東京都","city":"多摩市","address":"東京都多摩市聖ヶ丘2丁目17","lat":35.63388417,"lon":139.4580088},{"name":"鶴牧中学校","province":"東京都","city":"多摩市","address":"東京都多摩市鶴牧6丁目5-1","lat":35.6138906,"lon":139.414201},{"name":"多摩永山中学校","province":"東京都","city":"多摩市","address":"東京都多摩市永山2丁目7-1","lat":35.62496971,"lon":139.4471429},{"name":"落合中学校","province":"東京都","city":"多摩市","address":"東京都多摩市落合4丁目14","lat":35.61479008,"lon":139.4291509},{"name":"東京都立永山高等学校","province":"東京都","city":"多摩市","address":"東京都多摩市永山5丁目22","lat":35.6136931,"lon":139.4480074},{"name":"南野調理所","province":"東京都","city":"多摩市","address":"東京都多摩市南野1丁目2-1","lat":35.6104681,"lon":139.4386971},{"name":"永山調理所","province":"東京都","city":"多摩市","address":"東京都多摩市永山7丁目1","lat":35.615929,"lon":139.4514793},{"name":"多摩市立図書館","province":"東京都","city":"多摩市","address":"東京都多摩市落合2丁目29","lat":35.61759269,"lon":139.4252308},{"name":"豊ヶ丘図書館","province":"東京都","city":"多摩市","address":"東京都多摩市豊ヶ丘5丁目6","lat":35.61463626,"lon":139.4348648},{"name":"永山図書館","province":"東京都","city":"多摩市","address":"東京都多摩市永山1丁目5","lat":35.6283469,"lon":139.4484153},{"name":"唐木田図書館","province":"東京都","city":"多摩市","address":"東京都多摩市鶴牧6丁目14","lat":35.61542073,"lon":139.4133572},{"name":"パルテノン多摩","province":"東京都","city":"多摩市","address":"東京都多摩市落合2丁目35","lat":35.62172588,"lon":139.426271},{"name":"旧多摩聖蹟記念館","province":"東京都","city":"多摩市","address":"東京都多摩市連光寺5丁目1-1","lat":35.637993,"lon":139.4607},{"name":"旧富澤家","province":"東京都","city":"多摩市","address":"東京都多摩市落合2丁目35","lat":35.61957882,"lon":139.4260537},{"name":"旧有山家・旧加藤家","province":"東京都","city":"多摩市","address":"東京都多摩市南野2丁目13","lat":35.60686933,"lon":139.4348834},{"name":"東京都多摩市立関戸・一ノ宮コミュニティセンター（関・一つむぎ館）","province":"東京都","city":"多摩市","address":"東京都多摩市関戸4丁目19-5","lat":35.6490344,"lon":139.4495397},{"name":"東京都多摩市立桜ヶ丘コミュニティセンター（ゆう桜ヶ丘）","province":"東京都","city":"多摩市","address":"東京都多摩市桜ケ丘1丁目17-7","lat":35.6399343,"lon":139.4465012},{"name":"東京都多摩市立乞田・貝取コミュニティセンター（乞田・貝取ふれあい館）","province":"東京都","city":"多摩市","address":"東京都多摩市乞田810","lat":35.6309101,"lon":139.4345553},{"name":"東京都多摩市立鶴牧・落合・南野コミュニティセンター（トムハウス）","province":"東京都","city":"多摩市","address":"東京都多摩市落合6丁目5","lat":35.61228394,"lon":139.425708},{"name":"東京都多摩市立貝取コミュニティセンター（貝取こぶし館）","province":"東京都","city":"多摩市","address":"東京都多摩市貝取4丁目5-1","lat":35.6158574,"lon":139.4398091},{"name":"東京都多摩市立聖ヶ丘コミュニティセンター（ひじり館）","province":"東京都","city":"多摩市","address":"東京都多摩市聖ケ丘2丁目21-1","lat":35.6310748,"lon":139.4581144},{"name":"東京都多摩市立愛宕コミュニティセンター（愛宕かえで館）","province":"東京都","city":"多摩市","address":"東京都多摩市愛宕3丁目2","lat":35.6335458,"lon":139.434483},{"name":"東京都多摩市立唐木田コミュニティセンター（からきだ菖蒲館）","province":"東京都","city":"多摩市","address":"東京都多摩市鶴牧6丁目14","lat":35.61555845,"lon":139.4133431},{"name":"東京都多摩市立三方の森コミュニティ会館","province":"東京都","city":"多摩市","address":"東京都多摩市和田1254-12","lat":35.6461771,"lon":139.4160646},{"name":"東京都多摩市立和田・東寺方コミュニティセンター（大栗川・かるがも館）","province":"東京都","city":"多摩市","address":"東京都多摩市和田2006-4","lat":35.64105063,"lon":139.4274516},{"name":"多摩市立総合体育館","province":"東京都","city":"多摩市","address":"東京都多摩市東寺方588-1","lat":35.64361841,"lon":139.4362186},{"name":"多摩市立武道館","province":"東京都","city":"多摩市","address":"東京都多摩市諏訪4丁目9","lat":35.62544165,"lon":139.4589081},{"name":"多摩市立陸上競技場","province":"東京都","city":"多摩市","address":"東京都多摩市諏訪4丁目9","lat":35.62503779,"lon":139.4603112},{"name":"関戸公園野球場","province":"東京都","city":"多摩市","address":"東京都多摩市関戸3丁目5","lat":35.65039931,"lon":139.4592704},{"name":"諏訪南公園野球場","province":"東京都","city":"多摩市","address":"東京都多摩市諏訪5丁目14","lat":35.62010178,"lon":139.453249},{"name":"貝取南公園野球場","province":"東京都","city":"多摩市","address":"東京都多摩市貝取4丁目13","lat":35.616671,"lon":139.4388136},{"name":"諏訪北公園野球場","province":"東京都","city":"多摩市","address":"東京都多摩市諏訪3丁目11","lat":35.62815237,"lon":139.4528614},{"name":"一本杉公園野球場","province":"東京都","city":"多摩市","address":"東京都多摩市南野2丁目14","lat":35.60780642,"lon":139.4321957},{"name":"宝野公園球技場","province":"東京都","city":"多摩市","address":"東京都多摩市落合5丁目5","lat":35.61546924,"lon":139.424209},{"name":"諏訪南公園球技場","province":"東京都","city":"多摩市","address":"東京都多摩市諏訪5丁目14","lat":35.62013154,"lon":139.4532993},{"name":"貝取南公園球技場","province":"東京都","city":"多摩市","address":"東京都多摩市貝取4丁目13","lat":35.61647437,"lon":139.438053},{"name":"和田公園球技場","province":"東京都","city":"多摩市","address":"東京都多摩市和田","lat":35.64036364,"lon":139.4294892},{"name":"一ノ宮公園球技場","province":"東京都","city":"多摩市","address":"東京都多摩市一ノ宮","lat":35.65574623,"lon":139.4428496},{"name":"一本杉公園庭球場","province":"東京都","city":"多摩市","address":"東京都多摩市南野2丁目15","lat":35.60921803,"lon":139.4323454},{"name":"永山南公園庭球場","province":"東京都","city":"多摩市","address":"東京都多摩市永山4丁目7","lat":35.62204547,"lon":139.4489853},{"name":"諏訪北公園庭球場","province":"東京都","city":"多摩市","address":"東京都多摩市諏訪3丁目11","lat":35.6288585,"lon":139.4523914},{"name":"奈良原公園庭球場","province":"東京都","city":"多摩市","address":"東京都多摩市鶴牧4丁目4","lat":35.6149254,"lon":139.4194488},{"name":"貝取北公園庭球場","province":"東京都","city":"多摩市","address":"東京都多摩市貝取2丁目1","lat":35.62346704,"lon":139.4412951},{"name":"連光寺公園庭球場","province":"東京都","city":"多摩市","address":"東京都多摩市連光寺5丁目8","lat":35.63540377,"lon":139.463639},{"name":"愛宕東公園庭球場","province":"東京都","city":"多摩市","address":"東京都多摩市愛宕1丁目66","lat":35.63366383,"lon":139.4365357},{"name":"多摩東公園庭球場","province":"東京都","city":"多摩市","address":"東京都多摩市諏訪4丁目9","lat":35.62383508,"lon":139.4600853},{"name":"大谷戸公園キャンプ練習場","province":"東京都","city":"多摩市","address":"東京都多摩市連光寺5丁目17","lat":35.6392265,"lon":139.4577142},{"name":"多摩市立温水プール（アクアブルー多摩）","province":"東京都","city":"多摩市","address":"東京都多摩市南野3丁目15-2","lat":35.61230865,"lon":139.4137279},{"name":"東京都埋蔵文化財センター","province":"東京都","city":"多摩市","address":"東京都多摩市落合1丁目14-2","lat":35.62610333,"lon":139.4277522},{"name":"パルテノン多摩","province":"東京都","city":"多摩市","address":"東京都多摩市落合2丁目35","lat":35.62174694,"lon":139.426301},{"name":"旧多摩聖蹟記念館","province":"東京都","city":"多摩市","address":"東京都多摩市連光寺5丁目1-1","lat":35.6380129,"lon":139.4606279},{"name":"旧有山家・旧加藤家","province":"東京都","city":"多摩市","address":"東京都多摩市南野2丁目13","lat":35.60682946,"lon":139.4349004},{"name":"旧富澤家","province":"東京都","city":"多摩市","address":"東京都多摩市落合2丁目35","lat":35.61959277,"lon":139.426065},{"name":"木造随身倚像（2体）","province":"東京都","city":"多摩市","address":"東京都多摩市一ノ宮1丁目18-8","lat":35.6529882,"lon":139.4422677},{"name":"稲荷塚古墳","province":"東京都","city":"多摩市","address":"東京都多摩市百草","lat":35.6385925,"lon":139.4347301},{"name":"霞ノ関南木戸柵跡","province":"東京都","city":"多摩市","address":"東京都多摩市関戸5丁目35","lat":35.64098379,"lon":139.4496663},{"name":"多摩ニュータウンNo.57遺跡（遺跡庭園「縄文の村」）","province":"東京都","city":"多摩市","address":"東京都多摩市落合1丁目14","lat":35.62635351,"lon":139.4289493},{"name":"平久保のシイ","province":"東京都","city":"多摩市","address":"東京都多摩市落合4丁目22","lat":35.6118927,"lon":139.4290786},{"name":"旧有山家","province":"東京都","city":"多摩市","address":"東京都多摩市南野2丁目13","lat":35.60666154,"lon":139.4351015},{"name":"関戸文書（2通）","province":"東京都","city":"多摩市","address":"東京都多摩市関戸6丁目12-1","lat":35.63771709,"lon":139.4468579},{"name":"調布玉川惣画図","province":"東京都","city":"多摩市","address":"東京都多摩市関戸6丁目12-1","lat":35.6378032,"lon":139.4469826},{"name":"阿弥陀三尊来迎板碑","province":"東京都","city":"多摩市","address":"東京都多摩市関戸6丁目12-1","lat":35.63786205,"lon":139.4469277},{"name":"念仏供養板碑","province":"東京都","city":"多摩市","address":"東京都多摩市貝取1丁目15","lat":35.6301652,"lon":139.441316},{"name":"地蔵菩薩像","province":"東京都","city":"多摩市","address":"東京都多摩市貝取1丁目18","lat":35.62895685,"lon":139.4421775},{"name":"阿弥陀如来像","province":"東京都","city":"多摩市","address":"東京都多摩市貝取1丁目18","lat":35.6289732,"lon":139.4421326},{"name":"庚申塔","province":"東京都","city":"多摩市","address":"東京都多摩市貝取1丁目18","lat":35.62890289,"lon":139.442091},{"name":"麦花塚","province":"東京都","city":"多摩市","address":"東京都多摩市貝取1丁目18","lat":35.6289067,"lon":139.4422023},{"name":"落合白山神社の三匹獅子舞用具","province":"東京都","city":"多摩市","address":"東京都多摩市落合2丁目2-1","lat":35.622411,"lon":139.428459},{"name":"ケヤキ","province":"東京都","city":"多摩市","address":"東京都多摩市連光寺1丁目8-9","lat":35.6439952,"lon":139.4552475},{"name":"ムクノキ","province":"東京都","city":"多摩市","address":"東京都多摩市連光寺6丁目6","lat":35.6338899,"lon":139.467386},{"name":"スダジイ","province":"東京都","city":"多摩市","address":"東京都多摩市連光寺6丁目19","lat":35.6308197,"lon":139.4652002},{"name":"シダレザクラ","province":"東京都","city":"多摩市","address":"東京都多摩市鶴牧2丁目22","lat":35.6181721,"lon":139.4152269},{"name":"スダジイ","province":"東京都","city":"多摩市","address":"東京都多摩市南野2丁目14","lat":35.6077044,"lon":139.4324257},{"name":"ケヤキ","province":"東京都","city":"多摩市","address":"東京都多摩市豊ケ丘1丁目21-3","lat":35.6277686,"lon":139.429842},{"name":"神奈川県水量標識","province":"東京都","city":"多摩市","address":"東京都多摩市一ノ宮2丁目5","lat":35.65283056,"lon":139.4449274},{"name":"関戸古戦場","province":"東京都","city":"多摩市","address":"東京都多摩市関戸5丁目23","lat":35.6462874,"lon":139.45157},{"name":"赤坂駒飼場古戦場","province":"東京都","city":"多摩市","address":"東京都多摩市連光寺1丁目36","lat":35.64549346,"lon":139.4605521},{"name":"乞田川沿いの桜","province":"東京都","city":"多摩市","address":"東京都多摩市乞田","lat":35.630471,"lon":139.435796},{"name":"いろは坂の桜","province":"東京都","city":"多摩市","address":"東京都多摩市桜ヶ丘4丁目33","lat":35.64502213,"lon":139.4449045},{"name":"永山さくら通りの桜","province":"東京都","city":"多摩市","address":"東京都多摩市永山4丁目4","lat":35.619178,"lon":139.447937},{"name":"多摩よこやまの道の桜","province":"東京都","city":"多摩市","address":"東京都多摩市諏訪6丁目1","lat":35.621733,"lon":139.460221},{"name":"宝野公園・奈良原公園（富士見通り）","province":"東京都","city":"多摩市","address":"東京都多摩市落合5丁目6","lat":35.61414,"lon":139.423057},{"name":"ヤエザクラ（西落通り）","province":"東京都","city":"多摩市","address":"東京都多摩市落合2丁目29","lat":35.616805,"lon":139.424473},{"name":"一本杉公園","province":"東京都","city":"多摩市","address":"東京都多摩市南野2丁目14","lat":35.60713333,"lon":139.4331394},{"name":"都立桜ヶ丘公園","province":"東京都","city":"多摩市","address":"東京都多摩市連光寺5丁目8","lat":35.63678189,"lon":139.4608889},{"name":"しだれ桜","province":"東京都","city":"多摩市","address":"東京都多摩市鶴牧2丁目22","lat":35.61819151,"lon":139.415516},{"name":"原峰公園","province":"東京都","city":"多摩市","address":"東京都多摩市関戸6丁目28","lat":35.64003912,"lon":139.4480205},{"name":"一本杉公園","province":"東京都","city":"多摩市","address":"東京都多摩市南野2丁目14","lat":35.60718975,"lon":139.4331874},{"name":"都立桜ヶ丘公園","province":"東京都","city":"多摩市","address":"東京都多摩市連光寺5丁目8","lat":35.63677727,"lon":139.4608979},{"name":"馬引沢南公園","province":"東京都","city":"多摩市","address":"東京都多摩市聖ヶ丘4丁目22","lat":35.62697264,"lon":139.4610984},{"name":"鶴牧第2公園","province":"東京都","city":"多摩市","address":"東京都多摩市鶴牧5丁目39","lat":35.6127243,"lon":139.4188289},{"name":"記念館通り旧農業者大学校付近","province":"東京都","city":"多摩市","address":"東京都多摩市連光寺3丁目23","lat":35.6404983,"lon":139.4595127},{"name":"よこやまの道（防人見返りの峠）","province":"東京都","city":"多摩市","address":"東京都多摩市永山7丁目12","lat":35.61683078,"lon":139.4522762},{"name":"パルテノン多摩","province":"東京都","city":"多摩市","address":"東京都多摩市落合2丁目35","lat":35.62176439,"lon":139.4262903},{"name":"多摩郵便局","province":"東京都","city":"多摩市","address":"東京都多摩市鶴牧1丁目24-2","lat":35.621933,"lon":139.421729},{"name":"聖蹟桜ヶ丘駅西駐輪場","province":"東京都","city":"多摩市","address":"東京都多摩市一ノ宮2丁目11-25","lat":35.6508108,"lon":139.4456147},{"name":"聖蹟桜ヶ丘駅南駐輪場","province":"東京都","city":"多摩市","address":"東京都多摩市一ノ宮3丁目1","lat":35.64986003,"lon":139.4458391},{"name":"聖蹟桜ヶ丘駅東駐輪場","province":"東京都","city":"多摩市","address":"東京都多摩市関戸2丁目43","lat":35.65127767,"lon":139.4493402},{"name":"京王永山駅駐輪場","province":"東京都","city":"多摩市","address":"東京都多摩市永山1丁目18","lat":35.63017538,"lon":139.4485774},{"name":"永山駅駐輪場（ベルブ永山）","province":"東京都","city":"多摩市","address":"東京都多摩市永山1丁目5","lat":35.6283469,"lon":139.4484153},{"name":"永山駅北駐輪場","province":"東京都","city":"多摩市","address":"東京都多摩市諏訪1丁目6","lat":35.63267862,"lon":139.4478892},{"name":"北諏訪小南駐輪場","province":"東京都","city":"多摩市","address":"東京都多摩市諏訪2丁目13","lat":35.62897176,"lon":139.4504307},{"name":"プラザ永山駐輪場","province":"東京都","city":"多摩市","address":"東京都多摩市永山1丁目3-3","lat":35.6312271,"lon":139.4473681},{"name":"小田急永山駅駐輪場","province":"東京都","city":"多摩市","address":"東京都多摩市永山1丁目18","lat":35.62979445,"lon":139.4485885},{"name":"多摩センター駅東駐輪場","province":"東京都","city":"多摩市","address":"東京都多摩市落合1丁目12","lat":35.62587602,"lon":139.4262711},{"name":"多摩センター駅西駐輪場","province":"東京都","city":"多摩市","address":"東京都多摩市鶴牧1丁目19","lat":35.6245082,"lon":139.422102},{"name":"多摩センター駅南駐輪場","province":"東京都","city":"多摩市","address":"東京都多摩市落合1丁目46-1","lat":35.6220061,"lon":139.4246557},{"name":"唐木田駅駐輪場","province":"東京都","city":"多摩市","address":"東京都多摩市唐木田1丁目3","lat":35.61532294,"lon":139.4109312},{"name":"多摩市役所","province":"東京都","city":"多摩市","address":"東京都多摩市関戸6丁目12-1","lat":35.63711714,"lon":139.4463142},{"name":"健康センター","province":"東京都","city":"多摩市","address":"東京都多摩市関戸4丁目19-5","lat":35.6490444,"lon":139.4495117},{"name":"連光寺本村集会所","province":"東京都","city":"多摩市","address":"東京都多摩市連光寺2丁目27-20","lat":35.64304533,"lon":139.4555299},{"name":"聖ヶ丘小学校","province":"東京都","city":"多摩市","address":"東京都多摩市聖ヶ丘3丁目66","lat":35.62874105,"lon":139.4603826},{"name":"諏訪小学校","province":"東京都","city":"多摩市","address":"東京都多摩市諏訪5丁目13","lat":35.62047779,"lon":139.4553335},{"name":"瓜生小学校","province":"東京都","city":"多摩市","address":"東京都多摩市永山5丁目13","lat":35.62026696,"lon":139.4458172},{"name":"多摩永山中学校","province":"東京都","city":"多摩市","address":"東京都多摩市永山2丁目7","lat":35.62498353,"lon":139.4471373},{"name":"愛和小学校","province":"東京都","city":"多摩市","address":"東京都多摩市愛宕1丁目54","lat":35.63505082,"lon":139.4349638},{"name":"三方の森コミュニティ会館","province":"東京都","city":"多摩市","address":"東京都多摩市和田1254-12","lat":35.6461771,"lon":139.4160646},{"name":"一ノ宮集会所","province":"東京都","city":"多摩市","address":"東京都多摩市一ノ宮1丁目18-8","lat":35.65285743,"lon":139.4417934},{"name":"桜ヶ丘集会所","province":"東京都","city":"多摩市","address":"東京都多摩市桜ヶ丘1丁目1","lat":35.64117142,"lon":139.4444894},{"name":"旧北貝取小学校","province":"東京都","city":"多摩市","address":"東京都多摩市貝取1丁目26-1","lat":35.6251081,"lon":139.4402911},{"name":"豊ヶ丘児童館","province":"東京都","city":"多摩市","address":"東京都多摩市豊ヶ丘5丁目6","lat":35.61454675,"lon":139.4345048},{"name":"東落合小学校","province":"東京都","city":"多摩市","address":"東京都多摩市落合3丁目24","lat":35.61870654,"lon":139.4302228},{"name":"南鶴牧小学童クラブ","province":"東京都","city":"多摩市","address":"東京都多摩市鶴牧5丁目43","lat":35.61424294,"lon":139.4180623},{"name":"北諏訪小学童クラブ","province":"東京都","city":"多摩市","address":"東京都多摩市諏訪1丁目60-1","lat":35.6302745,"lon":139.4502512},{"name":"西落合小学校","province":"東京都","city":"多摩市","address":"東京都多摩市落合5丁目6","lat":35.61379784,"lon":139.4237031},{"name":"鶴牧中学校","province":"東京都","city":"多摩市","address":"東京都多摩市鶴牧6丁目5-1","lat":35.61390894,"lon":139.4142067},{"name":"貝取小学校","province":"東京都","city":"多摩市","address":"東京都多摩市貝取3丁目9","lat":35.61826058,"lon":139.4411736},{"name":"落合中学校","province":"東京都","city":"多摩市","address":"東京都多摩市落合4丁目14","lat":35.61479012,"lon":139.4291452},{"name":"東寺方地区市民ホール","province":"東京都","city":"多摩市","address":"東京都多摩市東寺方626-7","lat":35.6432837,"lon":139.4377157},{"name":"三方の森元気アップ体操クラブ","province":"東京都","city":"多摩市","address":"東京都多摩市和田1254-12","lat":35.6461938,"lon":139.416059},{"name":"桜ヶ丘元気アップ会","province":"東京都","city":"多摩市","address":"東京都多摩市桜ヶ丘1丁目1","lat":35.64118083,"lon":139.4445179},{"name":"ニコニコ元気アップ体操（第2・3週）","province":"東京都","city":"多摩市","address":"東京都多摩市聖ケ丘2丁目21-1","lat":35.631075,"lon":139.458114},{"name":"ニコニコ元気アップ体操（第1・4週）","province":"東京都","city":"多摩市","address":"東京都多摩市聖ケ丘2丁目22-4","lat":35.6316444,"lon":139.4570472},{"name":"すわ元気アップ会","province":"東京都","city":"多摩市","address":"東京都多摩市諏訪4丁目2","lat":35.62295006,"lon":139.4576694},{"name":"落合元気くらぶ","province":"東京都","city":"多摩市","address":"東京都多摩市落合6丁目5","lat":35.61230973,"lon":139.4256882},{"name":"わいガヤサロン","province":"東京都","city":"多摩市","address":"東京都多摩市鶴牧6丁目14","lat":35.61545608,"lon":139.4133631},{"name":"永山イキイキ体操","province":"東京都","city":"多摩市","address":"東京都多摩市永山4丁目2-6","lat":35.6215546,"lon":139.4506916},{"name":"関一元気会","province":"東京都","city":"多摩市","address":"東京都多摩市関戸4丁目19-5","lat":35.64910543,"lon":139.4495707},{"name":"おたっしゃ会","province":"東京都","city":"多摩市","address":"東京都多摩市乞田810","lat":35.6309319,"lon":139.4345741},{"name":"一ノ宮元気アップ教室","province":"東京都","city":"多摩市","address":"東京都多摩市一ノ宮1丁目18","lat":35.652934,"lon":139.441833},{"name":"元気アップ体操クラブ","province":"東京都","city":"多摩市","address":"東京都多摩市愛宕3丁目5-1","lat":35.63188638,"lon":139.4316794},{"name":"和田元気アップ体操クラブ","province":"東京都","city":"多摩市","address":"東京都多摩市和田1547","lat":35.6469358,"lon":139.4320021},{"name":"今日より明日へ～元気アップ体操～","province":"東京都","city":"多摩市","address":"東京都多摩市愛宕2丁目5-2","lat":35.6342657,"lon":139.4376845},{"name":"若葉の会","province":"東京都","city":"多摩市","address":"東京都多摩市豊ケ丘4丁目2-7","lat":35.6149121,"lon":139.4372334},{"name":"乞田・貝取ふれあい広場公園うんどう教室","province":"東京都","city":"多摩市","address":"東京都多摩市乞田810","lat":35.63091228,"lon":139.4345821},{"name":"豊ヶ丘南公園うんどう教室","province":"東京都","city":"多摩市","address":"東京都多摩市豊ヶ丘5丁目12","lat":35.6162089,"lon":139.4340394},{"name":"貝取北公園","province":"東京都","city":"多摩市","address":"東京都多摩市貝取2丁目1","lat":35.62315888,"lon":139.4412593},{"name":"鶴牧西公園","province":"東京都","city":"多摩市","address":"東京都多摩市鶴牧2丁目22","lat":35.61792036,"lon":139.415147},{"name":"豊ヶ丘南公園","province":"東京都","city":"多摩市","address":"東京都多摩市豊ヶ丘5丁目12","lat":35.61593198,"lon":139.4339938},{"name":"乞田・貝取ふれあい広場公園","province":"東京都","city":"多摩市","address":"東京都多摩市乞田","lat":35.63092536,"lon":139.4349496},{"name":"多摩市立総合体育館","province":"東京都","city":"多摩市","address":"東京都多摩市東寺方588-1","lat":35.6435225,"lon":139.4362186},{"name":"多摩市立武道館","province":"東京都","city":"多摩市","address":"東京都多摩市諏訪4丁目9","lat":35.62549075,"lon":139.4589148},{"name":"多摩市立陸上競技場","province":"東京都","city":"多摩市","address":"東京都多摩市諏訪4丁目9","lat":35.6249675,"lon":139.4603096},{"name":"多摩市立温水プール（アクアブルー多摩）","province":"東京都","city":"多摩市","address":"東京都多摩市南野3丁目15-2","lat":35.61228157,"lon":139.4137493},{"name":"関戸公園野球場","province":"東京都","city":"多摩市","address":"東京都多摩市関戸3丁目5","lat":35.6502751,"lon":139.4592678},{"name":"諏訪南公園野球場","province":"東京都","city":"多摩市","address":"東京都多摩市諏訪5丁目14","lat":35.61954842,"lon":139.4534108},{"name":"貝取南公園野球場","province":"東京都","city":"多摩市","address":"東京都多摩市貝取4丁目13","lat":35.61665975,"lon":139.4388103},{"name":"諏訪北公園野球場","province":"東京都","city":"多摩市","address":"東京都多摩市諏訪3丁目11","lat":35.62814533,"lon":139.4528633},{"name":"一本杉公園野球場","province":"東京都","city":"多摩市","address":"東京都多摩市南野2丁目14","lat":35.60777835,"lon":139.432196},{"name":"宝野公園球技場","province":"東京都","city":"多摩市","address":"東京都多摩市落合5丁目5","lat":35.61542527,"lon":139.4242096},{"name":"諏訪南公園球技場","province":"東京都","city":"多摩市","address":"東京都多摩市諏訪5丁目14","lat":35.62022634,"lon":139.453627},{"name":"貝取南公園球技場","province":"東京都","city":"多摩市","address":"東京都多摩市貝取4丁目13","lat":35.6164864,"lon":139.438082},{"name":"和田公園球技場","province":"東京都","city":"多摩市","address":"東京都多摩市和田","lat":35.64057188,"lon":139.4295815},{"name":"一ノ宮公園球技場","province":"東京都","city":"多摩市","address":"東京都多摩市一ノ宮","lat":35.65576323,"lon":139.4428615},{"name":"一本杉公園庭球場","province":"東京都","city":"多摩市","address":"東京都多摩市南野2丁目15","lat":35.60915654,"lon":139.4323448},{"name":"永山南公園庭球場","province":"東京都","city":"多摩市","address":"東京都多摩市永山4丁目7","lat":35.6220085,"lon":139.4489984},{"name":"一ノ宮公園庭球場","province":"東京都","city":"多摩市","address":"東京都多摩市一ノ宮","lat":35.65637046,"lon":139.4416903},{"name":"諏訪北公園庭球場","province":"東京都","city":"多摩市","address":"東京都多摩市諏訪3丁目11","lat":35.62882744,"lon":139.4524043},{"name":"奈良原公園庭球場","province":"東京都","city":"多摩市","address":"東京都多摩市鶴牧4丁目4","lat":35.61311133,"lon":139.4209727},{"name":"貝取北公園庭球場","province":"東京都","city":"多摩市","address":"東京都多摩市貝取2丁目1","lat":35.62340531,"lon":139.4413003},{"name":"連光寺公園庭球場","province":"東京都","city":"多摩市","address":"東京都多摩市連光寺5丁目8","lat":35.63531572,"lon":139.4636542},{"name":"愛宕東公園庭球場","province":"東京都","city":"多摩市","address":"東京都多摩市愛宕1丁目66","lat":35.63365078,"lon":139.4365359},{"name":"多摩東公園庭球場","province":"東京都","city":"多摩市","address":"東京都多摩市諏訪4丁目9","lat":35.62380053,"lon":139.4600792},{"name":"桜ケ丘 鳥はな","province":"東京都","city":"多摩市","address":"東京都多摩市関戸1丁目1-5","lat":35.65181826,"lon":139.4464782},{"name":"とんかつ 三九三","province":"東京都","city":"多摩市","address":"東京都多摩市関戸1丁目1-5","lat":35.65179603,"lon":139.446263},{"name":"スパゲティ食堂 ドナ","province":"東京都","city":"多摩市","address":"東京都多摩市関戸1丁目10-10","lat":35.651009,"lon":139.4477712},{"name":"北海道ラーメン 特一番","province":"東京都","city":"多摩市","address":"東京都多摩市関戸1丁目11-5","lat":35.65028414,"lon":139.4479428},{"name":"味道楽 留萌","province":"東京都","city":"多摩市","address":"東京都多摩市関戸1丁目11-6","lat":35.65023183,"lon":139.4477389},{"name":"日高屋　多摩センター店","province":"東京都","city":"多摩市","address":"東京都多摩市落合1丁目41-1","lat":35.62401,"lon":139.423409},{"name":"季節料理 さの字","province":"東京都","city":"多摩市","address":"東京都多摩市関戸2丁目24-10","lat":35.65028679,"lon":139.4489205},{"name":"コーヒーハウス  ケトルドラム","province":"東京都","city":"多摩市","address":"東京都多摩市関戸2丁目24-10","lat":35.65026172,"lon":139.4489587},{"name":"なかたに","province":"東京都","city":"多摩市","address":"東京都多摩市関戸2丁目39-15","lat":35.6499852,"lon":139.4492815},{"name":"居酒屋 一平","province":"東京都","city":"多摩市","address":"東京都多摩市関戸2丁目39-9","lat":35.65017902,"lon":139.4489472},{"name":"レストラン 神谷","province":"東京都","city":"多摩市","address":"東京都多摩市関戸4丁目5","lat":35.6494527,"lon":139.4489923},{"name":"イタリア料理 ウブリアーコ","province":"東京都","city":"多摩市","address":"東京都多摩市関戸4丁目4","lat":35.64985499,"lon":139.448143},{"name":"カフェ れすと なな","province":"東京都","city":"多摩市","address":"東京都多摩市関戸4丁目72","lat":35.64979405,"lon":139.4467589},{"name":"唄えるカントリーPUB 田子作","province":"東京都","city":"多摩市","address":"東京都多摩市一ノ宮2丁目11-20","lat":35.6506243,"lon":139.4452779},{"name":"もつ鮮華 まる権","province":"東京都","city":"多摩市","address":"東京都多摩市一ノ宮1丁目23-2","lat":35.65104204,"lon":139.4427834},{"name":"焼肉 権左エ門","province":"東京都","city":"多摩市","address":"東京都多摩市一ノ宮1丁目23-5","lat":35.651069,"lon":139.4426927},{"name":"ラーメン 天天館","province":"東京都","city":"多摩市","address":"東京都多摩市一ノ宮1丁目24-2","lat":35.65122108,"lon":139.4414588},{"name":"小平うどん 聖蹟桜ヶ丘店","province":"東京都","city":"多摩市","address":"東京都多摩市一ノ宮4丁目20-24","lat":35.6511022,"lon":139.4399318},{"name":"カフェ ピンクララタマ 聖蹟桜ヶ丘","province":"東京都","city":"多摩市","address":"東京都多摩市一ノ宮3丁目5-24","lat":35.650518,"lon":139.4434951},{"name":"旭鮨総本店 聖蹟桜ヶ丘本館","province":"東京都","city":"多摩市","address":"東京都多摩市桜ケ丘4丁目35-1","lat":35.64714708,"lon":139.4465557},{"name":"大村庵","province":"東京都","city":"多摩市","address":"東京都多摩市関戸4丁目12-8","lat":35.64837865,"lon":139.4517913},{"name":"銀龍","province":"東京都","city":"多摩市","address":"東京都多摩市関戸5丁目9","lat":35.64151856,"lon":139.4513337},{"name":"聖ヶ丘 増田屋","province":"東京都","city":"多摩市","address":"東京都多摩市連光寺6丁目25-17","lat":35.6334733,"lon":139.4636747},{"name":"中華 揚子江","province":"東京都","city":"多摩市","address":"東京都多摩市馬引沢2丁目13-12","lat":35.62942973,"lon":139.455238},{"name":"やみつき味 辛子堂","province":"東京都","city":"多摩市","address":"東京都多摩市馬引沢2丁目17","lat":35.62770146,"lon":139.4561384},{"name":"そば酒房 はなわ","province":"東京都","city":"多摩市","address":"東京都多摩市永山1丁目8-17","lat":35.63198114,"lon":139.4472168},{"name":"多摩永山情報教育センター内食堂","province":"東京都","city":"多摩市","address":"東京都多摩市諏訪2丁目5","lat":35.62852292,"lon":139.4511469},{"name":"広島風お好み焼 一番","province":"東京都","city":"多摩市","address":"東京都多摩市永山1丁目4","lat":35.62914993,"lon":139.4483266},{"name":"きっちん空","province":"東京都","city":"多摩市","address":"東京都多摩市貝取1丁目47-9","lat":35.62355701,"lon":139.4379238},{"name":"イタリアン居酒屋 Ne ma re","province":"東京都","city":"多摩市","address":"東京都多摩市貝取1丁目14-8","lat":35.62998774,"lon":139.442287},{"name":"木の香","province":"東京都","city":"多摩市","address":"東京都多摩市乞田1140","lat":35.6329183,"lon":139.4407103},{"name":"ブラッセリー リバゴーシュ","province":"東京都","city":"多摩市","address":"東京都多摩市乞田688-2","lat":35.6309883,"lon":139.4373668},{"name":"コーヒーショップ 白樺","province":"東京都","city":"多摩市","address":"東京都多摩市貝取1丁目50","lat":35.6227167,"lon":139.4375081},{"name":"和食とお寿司のお店 水神","province":"東京都","city":"多摩市","address":"東京都多摩市落合1丁目38","lat":35.62504282,"lon":139.4266762},{"name":"大戸屋 ごはん処 ココリア多摩センター店","province":"東京都","city":"多摩市","address":"東京都多摩市落合1丁目46-1","lat":35.62232185,"lon":139.4247506},{"name":"丈母（ジャンモ）","province":"東京都","city":"多摩市","address":"東京都多摩市落合1丁目46-1","lat":35.62242759,"lon":139.4246245},{"name":"畑deきっちん","province":"東京都","city":"多摩市","address":"東京都多摩市落合1丁目46-1","lat":35.62254097,"lon":139.4252575},{"name":"すし 蕎麦 うどん ゆう","province":"東京都","city":"多摩市","address":"東京都多摩市落合2丁目1-10","lat":35.62115558,"lon":139.4285648},{"name":"居酒屋 どんたく","province":"東京都","city":"多摩市","address":"東京都多摩市鶴牧2丁目23-7","lat":35.61786383,"lon":139.4138603},{"name":"キッチン ティス","province":"東京都","city":"多摩市","address":"東京都多摩市唐木田1丁目6-4","lat":35.6152418,"lon":139.4102024},{"name":"カフェ・ウェイ","province":"東京都","city":"多摩市","address":"東京都多摩市唐木田1丁目53-15","lat":35.61543149,"lon":139.4101795},{"name":"恵泉オーガニックカフェ","province":"東京都","city":"多摩市","address":"東京都多摩市南野2丁目10","lat":35.60808823,"lon":139.4362253},{"name":"ナチュランド・シルフレイ","province":"東京都","city":"多摩市","address":"東京都多摩市永山6丁目10-2","lat":35.6127667,"lon":139.4477722},{"name":"日高屋小田急マルシェ永山店","province":"東京都","city":"多摩市","address":"東京都多摩市永山1丁目18-2","lat":35.6300839,"lon":139.4480175},{"name":"極楽湯　多摩センター店","province":"東京都","city":"多摩市","address":"東京都多摩市落合1丁目30-1","lat":35.62328168,"lon":139.4289519},{"name":"多摩うどん　ぽんぽこ","province":"東京都","city":"多摩市","address":"東京都多摩市聖ケ丘2丁目21-3-7","lat":35.6312053,"lon":139.4577394},{"name":"居酒屋 三太","province":"東京都","city":"多摩市","address":"東京都多摩市関戸2丁目23-18","lat":35.6513275,"lon":139.4498005},{"name":"かつ膳","province":"東京都","city":"多摩市","address":"東京都多摩市関戸2丁目45-9","lat":35.6522441,"lon":139.450992},{"name":"横丁ワイン酒場LiDO","province":"東京都","city":"多摩市","address":"東京都多摩市落合1丁目11-3","lat":35.62522526,"lon":139.4255838},{"name":"青木農園　農家料理","province":"東京都","city":"多摩市","address":"東京都多摩市和田1705","lat":35.6489821,"lon":139.4338325},{"name":"とろとん","province":"東京都","city":"多摩市","address":"東京都多摩市落合1丁目46-1","lat":35.62244503,"lon":139.4250027},{"name":"福祉亭","province":"東京都","city":"多摩市","address":"東京都多摩市永山4丁目2-3","lat":35.6209149,"lon":139.4492489},{"name":"但馬屋　多摩センター店","province":"東京都","city":"多摩市","address":"東京都多摩市落合1丁目46-1","lat":35.62244047,"lon":139.4250173},{"name":"カフェ チャビィポックル","province":"東京都","city":"多摩市","address":"東京都多摩市乞田688-2","lat":35.6309671,"lon":139.43737},{"name":"ぎょうざの満洲 聖蹟桜ヶ丘駅前店","province":"東京都","city":"多摩市","address":"東京都多摩市関戸1丁目11-9","lat":35.6502968,"lon":139.4474197},{"name":"セブンイレブン多摩永山店","province":"東京都","city":"多摩市","address":"東京都多摩市永山1丁目2-13","lat":35.6324802,"lon":139.4474941},{"name":"宮林商店","province":"東京都","city":"多摩市","address":"東京都多摩市連光寺1丁目7-10","lat":35.6438452,"lon":139.4542143},{"name":"クリエイトS.D 聖蹟桜ヶ丘店","province":"東京都","city":"多摩市","address":"東京都多摩市一ノ宮1丁目26-1","lat":35.6517188,"lon":139.4400151},{"name":"ローソン多摩一ノ宮店","province":"東京都","city":"多摩市","address":"東京都多摩市一ノ宮1丁目26-6","lat":35.6516494,"lon":139.4393513},{"name":"ファミリーマート多摩一ノ宮公園店","province":"東京都","city":"多摩市","address":"東京都多摩市一ノ宮2丁目20-5","lat":35.6530899,"lon":139.4440983},{"name":"ドラッグセイムス聖蹟桜ヶ丘店","province":"東京都","city":"多摩市","address":"東京都多摩市一ノ宮3丁目1-3","lat":35.649913,"lon":139.446322},{"name":"アイハラ酒店","province":"東京都","city":"多摩市","address":"東京都多摩市一ノ宮3丁目3-7","lat":35.6500886,"lon":139.4444482},{"name":"不二家青果店","province":"東京都","city":"多摩市","address":"東京都多摩市一ノ宮3丁目5","lat":35.6506024,"lon":139.4433844},{"name":"ファミリーマート多摩一の宮店","province":"東京都","city":"多摩市","address":"東京都多摩市一ノ宮4丁目19","lat":35.6509967,"lon":139.4406512},{"name":"セブンイレブン多摩センター駅前店","province":"東京都","city":"多摩市","address":"東京都多摩市落合1丁目5","lat":35.6263354,"lon":139.426459},{"name":"マツモトキヨシ京王多摩センター店","province":"東京都","city":"多摩市","address":"東京都多摩市落合1丁目10-1","lat":35.6253076,"lon":139.4241064},{"name":"京王ストア　多摩センター店","province":"東京都","city":"多摩市","address":"東京都多摩市落合1丁目10-1","lat":35.6253446,"lon":139.4242797},{"name":"セブンイレブン小田急マルシェ多摩センター店","province":"東京都","city":"多摩市","address":"東京都多摩市落合1丁目11","lat":35.624992,"lon":139.424611},{"name":"ASA多摩センター","province":"東京都","city":"多摩市","address":"東京都多摩市落合1丁目20-10","lat":35.6241163,"lon":139.4311336},{"name":"ファミリーマート秀栄多摩落合店","province":"東京都","city":"多摩市","address":"東京都多摩市落合1丁目21-1","lat":35.6237544,"lon":139.4311721},{"name":"丘の上薬局　多摩センター店","province":"東京都","city":"多摩市","address":"東京都多摩市落合1丁目32-1","lat":35.6244588,"lon":139.4276581},{"name":"ファミリーマートサンリオピューロランド前店","province":"東京都","city":"多摩市","address":"東京都多摩市落合1丁目32-3","lat":35.623994,"lon":139.4283978},{"name":"ファーマーズマーケット千歳屋","province":"東京都","city":"多摩市","address":"東京都多摩市落合1丁目41-1","lat":35.624039,"lon":139.423428},{"name":"ミニストップ多摩センター駅前店","province":"東京都","city":"多摩市","address":"東京都多摩市落合1丁目41","lat":35.623924,"lon":139.423491},{"name":"ローソン多摩センター駅前店","province":"東京都","city":"多摩市","address":"東京都多摩市落合1丁目39-2","lat":35.624493,"lon":139.4257126},{"name":"ミネドラッグ多摩センター駅前店","province":"東京都","city":"多摩市","address":"東京都多摩市落合1丁目39-2","lat":35.624493,"lon":139.4257126},{"name":"イトーヨーカ堂多摩センター店","province":"東京都","city":"多摩市","address":"東京都多摩市落合1丁目44","lat":35.6237357,"lon":139.4258702},{"name":"ローソン丘の上パティオ店","province":"東京都","city":"多摩市","address":"東京都多摩市落合1丁目45-1","lat":35.6231635,"lon":139.4261785},{"name":"クスリの龍生堂　ココリア店","province":"東京都","city":"多摩市","address":"東京都多摩市落合1丁目46-1","lat":35.622418,"lon":139.424868},{"name":"セブンイレブンニューシティ多摩センター店","province":"東京都","city":"多摩市","address":"東京都多摩市落合1丁目47","lat":35.6217858,"lon":139.4237371},{"name":"ファミリーマート多摩落合二丁目店","province":"東京都","city":"多摩市","address":"東京都多摩市落合2丁目10-3","lat":35.6193973,"lon":139.4272452},{"name":"ダイエーフーディアム多摩センター","province":"東京都","city":"多摩市","address":"東京都多摩市落合2丁目33","lat":35.6204443,"lon":139.4230261},{"name":"豊ヶ丘新聞センター","province":"東京都","city":"多摩市","address":"東京都多摩市落合3丁目16","lat":35.6163034,"lon":139.4321421},{"name":"ミリオンショップ江戸や","province":"東京都","city":"多摩市","address":"東京都多摩市落合3丁目18-1","lat":35.616495,"lon":139.4298479},{"name":"ライス・ステーション","province":"東京都","city":"多摩市","address":"東京都多摩市落合4丁目16-1","lat":35.6155737,"lon":139.4302787},{"name":"セブンイレブン多摩落合6丁目店","province":"東京都","city":"多摩市","address":"東京都多摩市落合6丁目15-1","lat":35.6089458,"lon":139.4264789},{"name":"ドラッグセイムス多摩落合薬局","province":"東京都","city":"多摩市","address":"東京都多摩市落合6丁目15-3","lat":35.6095771,"lon":139.4262539},{"name":"宮福商店","province":"東京都","city":"多摩市","address":"東京都多摩市落川1241","lat":35.6396202,"lon":139.4371326},{"name":"読売新聞京王桜ヶ丘サービスセンター","province":"東京都","city":"多摩市","address":"東京都多摩市貝取1459","lat":35.6352571,"lon":139.4456459},{"name":"ファミリーマート秀栄多摩ニュータウン通り店","province":"東京都","city":"多摩市","address":"東京都多摩市貝取1506","lat":35.6353405,"lon":139.4480234},{"name":"セブンイレブン多摩貝取大通り店","province":"東京都","city":"多摩市","address":"東京都多摩市貝取1丁目5","lat":35.6306769,"lon":139.4388244},{"name":"よろずや米店","province":"東京都","city":"多摩市","address":"東京都多摩市貝取1丁目47-3","lat":35.6237416,"lon":139.4376525},{"name":"三徳　貝取店","province":"東京都","city":"多摩市","address":"東京都多摩市貝取1丁目47-10","lat":35.6231889,"lon":139.4377608},{"name":"クリエイトSD多摩貝取店","province":"東京都","city":"多摩市","address":"東京都多摩市貝取1丁目51-1","lat":35.6243276,"lon":139.4372858},{"name":"コモディイイダ永山店","province":"東京都","city":"多摩市","address":"東京都多摩市貝取1丁目65-1","lat":35.6297242,"lon":139.4390494},{"name":"コープみらい貝取店","province":"東京都","city":"多摩市","address":"東京都多摩市貝取3丁目8","lat":35.6198394,"lon":139.4424216},{"name":"マツモトキヨシ多摩貝取店","province":"東京都","city":"多摩市","address":"東京都多摩市貝取3丁目8","lat":35.6198394,"lon":139.4424216},{"name":"ネコサポステーション貝取","province":"東京都","city":"多摩市","address":"東京都多摩市貝取4丁目2-1","lat":35.614943,"lon":139.439011},{"name":"全日食チェーン貝取団地店","province":"東京都","city":"多摩市","address":"東京都多摩市貝取4丁目2-2","lat":35.6148788,"lon":139.4385527},{"name":"寒天茶房遊夢","province":"東京都","city":"多摩市","address":"東京都多摩市貝取4丁目3-1","lat":35.6146008,"lon":139.4385184},{"name":"ファミリーマート唐木田駅前店","province":"東京都","city":"多摩市","address":"東京都多摩市唐木田1丁目1-7","lat":35.615964,"lon":139.4117385},{"name":"マルエツ唐木田駅前店","province":"東京都","city":"多摩市","address":"東京都多摩市唐木田1丁目1-7","lat":35.6158723,"lon":139.411594},{"name":"ケーヨーD2唐木田店","province":"東京都","city":"多摩市","address":"東京都多摩市唐木田1丁目3","lat":35.6143419,"lon":139.4112302},{"name":"ファミリーマート多摩唐木田店","province":"東京都","city":"多摩市","address":"東京都多摩市唐木田1丁目21-1","lat":35.6131695,"lon":139.4015088},{"name":"カワチ薬品　多摩ニュータウン店","province":"東京都","city":"多摩市","address":"東京都多摩市唐木田1丁目22-2","lat":35.6131167,"lon":139.3995368},{"name":"増田米穀店","province":"東京都","city":"多摩市","address":"東京都多摩市乞田711","lat":35.6317766,"lon":139.4374678},{"name":"セブンイレブン多摩ニュータウン通り店","province":"東京都","city":"多摩市","address":"東京都多摩市乞田868-3","lat":35.6305461,"lon":139.4317417},{"name":"ローソン多摩乞田店","province":"東京都","city":"多摩市","address":"東京都多摩市乞田1426","lat":35.634335,"lon":139.4462903},{"name":"ローソン多摩山王下一丁目店","province":"東京都","city":"多摩市","address":"東京都多摩市山王下1丁目5-13","lat":35.6256825,"lon":139.4209456},{"name":"セブンイレブン多摩山王下1丁目店","province":"東京都","city":"多摩市","address":"東京都多摩市山王下1丁目17","lat":35.6254935,"lon":139.4165293},{"name":"セブンイレブン多摩諏訪越通り店","province":"東京都","city":"多摩市","address":"東京都多摩市諏訪1丁目12-2","lat":35.6330106,"lon":139.4511881},{"name":"ファミリーマート多摩連光寺店","province":"東京都","city":"多摩市","address":"東京都多摩市諏訪3丁目14-1","lat":35.6288887,"lon":139.4548897},{"name":"杉山酒店","province":"東京都","city":"多摩市","address":"東京都多摩市諏訪4丁目2-3","lat":35.6237886,"lon":139.4574445},{"name":"青木屋","province":"東京都","city":"多摩市","address":"東京都多摩市諏訪5丁目6-3","lat":35.6223838,"lon":139.4515929},{"name":"エコプラザ多摩","province":"東京都","city":"多摩市","address":"東京都多摩市諏訪6丁目3-2","lat":35.6188343,"lon":139.4546789},{"name":"ミネドラッグ聖蹟桜ヶ丘店","province":"東京都","city":"多摩市","address":"東京都多摩市関戸1丁目1-5","lat":35.6516718,"lon":139.4459841},{"name":"京王ストア桜ヶ丘店","province":"東京都","city":"多摩市","address":"東京都多摩市関戸1丁目11-1","lat":35.6505942,"lon":139.4474174},{"name":"マツモトキヨシ聖蹟桜ヶ丘店","province":"東京都","city":"多摩市","address":"東京都多摩市関戸1丁目11-1","lat":35.650475,"lon":139.447322},{"name":"セブンイレブン聖蹟桜ヶ丘駅前店","province":"東京都","city":"多摩市","address":"東京都多摩市関戸1丁目11-3","lat":35.650397,"lon":139.4479229},{"name":"ノムラ薬局　桜ヶ丘店","province":"東京都","city":"多摩市","address":"東京都多摩市関戸1丁目11-3","lat":35.650397,"lon":139.4479229},{"name":"セブンイレブン多摩関戸2丁目店","province":"東京都","city":"多摩市","address":"東京都多摩市関戸2丁目21-8","lat":35.6507095,"lon":139.4510689},{"name":"ファミリーマート聖蹟桜ヶ丘店","province":"東京都","city":"多摩市","address":"東京都多摩市関戸4丁目23-1","lat":35.6490527,"lon":139.4466092},{"name":"コモディイイダ聖蹟桜ヶ丘店","province":"東京都","city":"多摩市","address":"東京都多摩市関戸4丁目72","lat":35.649656,"lon":139.446952},{"name":"丘の上薬局　聖蹟桜ヶ丘店","province":"東京都","city":"多摩市","address":"東京都多摩市関戸4丁目72","lat":35.64963,"lon":139.447151},{"name":"小山商店","province":"東京都","city":"多摩市","address":"東京都多摩市関戸5丁目15","lat":35.6448422,"lon":139.4512034},{"name":"ファミリーマート多摩関戸5丁目店","province":"東京都","city":"多摩市","address":"東京都多摩市関戸5丁目17","lat":35.6459282,"lon":139.4516866},{"name":"セブンイレブン多摩関戸5丁目店","province":"東京都","city":"多摩市","address":"東京都多摩市関戸5丁目20-23","lat":35.647242,"lon":139.452431},{"name":"東京南農業協同組合多摩支店グリーンショップ多摩","province":"東京都","city":"多摩市","address":"東京都多摩市関戸6丁目11-1","lat":35.6364847,"lon":139.446368},{"name":"多摩市身体障害者福祉協会　売店ひまわり","province":"東京都","city":"多摩市","address":"東京都多摩市関戸6丁目12-1","lat":35.6370055,"lon":139.4463099},{"name":"セブンイレブン多摩センター駅西店","province":"東京都","city":"多摩市","address":"東京都多摩市鶴牧1丁目3-10","lat":35.6251032,"lon":139.4228937},{"name":"桜総合管理株式会社","province":"東京都","city":"多摩市","address":"東京都多摩市鶴牧1丁目4-17","lat":35.6247465,"lon":139.4214706},{"name":"大谷商店","province":"東京都","city":"多摩市","address":"東京都多摩市鶴牧1丁目5-6","lat":35.6248716,"lon":139.4198963},{"name":"セブンイレブン多摩鶴牧1丁目店","province":"東京都","city":"多摩市","address":"東京都多摩市鶴牧1丁目10-9","lat":35.6235926,"lon":139.4177128},{"name":"ファミリーマート多摩センター駅南店","province":"東京都","city":"多摩市","address":"東京都多摩市鶴牧1丁目26-2","lat":35.6223218,"lon":139.4210346},{"name":"セブンイレブン多摩鶴牧2丁目店","province":"東京都","city":"多摩市","address":"東京都多摩市鶴牧2丁目25-8","lat":35.6157279,"lon":139.4123467},{"name":"三徳　多摩店","province":"東京都","city":"多摩市","address":"東京都多摩市鶴牧5丁目1","lat":35.6118564,"lon":139.4232653},{"name":"アヴァンツルマキ","province":"東京都","city":"多摩市","address":"東京都多摩市鶴牧5丁目1-1","lat":35.611712,"lon":139.423171},{"name":"セブンイレブン多摩豊ヶ丘4丁目店","province":"東京都","city":"多摩市","address":"東京都多摩市豊ケ丘4丁目11-1","lat":35.6144649,"lon":139.4371306},{"name":"ミネドラッグ永山駅前タワー店","province":"東京都","city":"多摩市","address":"東京都多摩市永山1丁目14-14","lat":35.6314146,"lon":139.4441579},{"name":"西友　永山店","province":"東京都","city":"多摩市","address":"東京都多摩市永山1丁目4","lat":35.6292079,"lon":139.4480597},{"name":"クスリの龍生堂　永山店","province":"東京都","city":"多摩市","address":"東京都多摩市永山1丁目4","lat":35.6289438,"lon":139.448151},{"name":"ネコサポステーション　グリナード永山店","province":"東京都","city":"多摩市","address":"東京都多摩市永山1丁目4","lat":35.629108,"lon":139.448255},{"name":"ローソン多摩永山店","province":"東京都","city":"多摩市","address":"東京都多摩市永山1丁目5","lat":35.6283469,"lon":139.4484153},{"name":"京王ストアエクスプレス永山店","province":"東京都","city":"多摩市","address":"東京都多摩市永山1丁目18","lat":35.6304479,"lon":139.4481714},{"name":"スーパークリシマ永山店","province":"東京都","city":"多摩市","address":"東京都多摩市永山1丁目18-2","lat":35.6299411,"lon":139.448393},{"name":"ミネドラッグ永山駅前店","province":"東京都","city":"多摩市","address":"東京都多摩市永山1丁目18-2","lat":35.6299411,"lon":139.448393},{"name":"セブンイレブン小田急マルシェ永山店","province":"東京都","city":"多摩市","address":"東京都多摩市永山1丁目18-23","lat":35.629907,"lon":139.448032},{"name":"セブンイレブン多摩永山2丁目店","province":"東京都","city":"多摩市","address":"東京都多摩市永山2丁目15-3","lat":35.6303993,"lon":139.4428963},{"name":"ASAニュータウン永山","province":"東京都","city":"多摩市","address":"東京都多摩市永山2丁目19-1","lat":35.6276579,"lon":139.4435463},{"name":"ミニストップ多摩永山店","province":"東京都","city":"多摩市","address":"東京都多摩市永山3丁目21-2","lat":35.6242619,"lon":139.4424898},{"name":"グルメシティ多摩店","province":"東京都","city":"多摩市","address":"東京都多摩市永山4丁目2-1","lat":35.6211005,"lon":139.4488043},{"name":"ネコサポステーション永山","province":"東京都","city":"多摩市","address":"東京都多摩市永山4丁目2-3","lat":35.620895,"lon":139.449193},{"name":"ミサキヤ","province":"東京都","city":"多摩市","address":"東京都多摩市永山4丁目2-4","lat":35.6210647,"lon":139.4496588},{"name":"デイリーヤマザキ多摩永山店","province":"東京都","city":"多摩市","address":"東京都多摩市永山6丁目17-1","lat":35.6159038,"lon":139.442905},{"name":"セブンイレブン国士舘大学多摩キャンパス店","province":"東京都","city":"多摩市","address":"東京都多摩市永山7丁目3-1","lat":35.6122544,"lon":139.4483297},{"name":"森澤商店","province":"東京都","city":"多摩市","address":"東京都多摩市東寺方563","lat":35.6448279,"lon":139.4381572},{"name":"マツモトキヨシ多摩東寺方店","province":"東京都","city":"多摩市","address":"東京都多摩市東寺方655-1","lat":35.6401035,"lon":139.4366659},{"name":"サミットストア東寺方店","province":"東京都","city":"多摩市","address":"東京都多摩市東寺方660-1","lat":35.6409756,"lon":139.4360909},{"name":"サンドラッグ東寺方店","province":"東京都","city":"多摩市","address":"東京都多摩市東寺方660-1","lat":35.6409756,"lon":139.4360909},{"name":"セブンイレブン多摩明神橋通り店","province":"東京都","city":"多摩市","address":"東京都多摩市東寺方1丁目9-1","lat":35.6491915,"lon":139.4437427},{"name":"リサイクルショップちいろばの家","province":"東京都","city":"多摩市","address":"東京都多摩市東寺方1丁目16-3","lat":35.6482277,"lon":139.4425429},{"name":"百将屋","province":"東京都","city":"多摩市","address":"東京都多摩市聖ケ丘2丁目21-3-2","lat":35.6314274,"lon":139.457495},{"name":"ビッグエー多摩聖ヶ丘店","province":"東京都","city":"多摩市","address":"東京都多摩市聖ヶ丘2丁目22","lat":35.6311247,"lon":139.4572589},{"name":"美洗館聖ヶ丘店","province":"東京都","city":"多摩市","address":"東京都多摩市聖ケ丘3丁目1-5","lat":35.6331859,"lon":139.4633641},{"name":"ファミリーマート永山連光寺店","province":"東京都","city":"多摩市","address":"東京都多摩市馬引沢1丁目18-6","lat":35.6338241,"lon":139.4517981},{"name":"セブンイレブン多摩連光寺店","province":"東京都","city":"多摩市","address":"東京都多摩市馬引沢2丁目12-7","lat":35.6309468,"lon":139.454548},{"name":"セブンイレブン多摩南野店","province":"東京都","city":"多摩市","address":"東京都多摩市南野3丁目12-11","lat":35.6101794,"lon":139.419797},{"name":"多摩市身体障害者福祉協会　売店ひまわり","province":"東京都","city":"多摩市","address":"東京都多摩市南野3丁目15-1","lat":35.612539,"lon":139.41268},{"name":"ヒロマルチェーン多摩連光寺店","province":"東京都","city":"多摩市","address":"東京都多摩市連光寺1丁目20-8","lat":35.6452258,"lon":139.4589472},{"name":"戸田商店","province":"東京都","city":"多摩市","address":"東京都多摩市連光寺3丁目39-12","lat":35.643626,"lon":139.4582196},{"name":"ハギワラ酒店","province":"東京都","city":"多摩市","address":"東京都多摩市連光寺6丁目4-1","lat":35.6332944,"lon":139.4661222},{"name":"東屋酒店","province":"東京都","city":"多摩市","address":"東京都多摩市連光寺6丁目24","lat":35.6346108,"lon":139.4646862},{"name":"セブンイレブン多摩和田店","province":"東京都","city":"多摩市","address":"東京都多摩市和田1750","lat":35.6477859,"lon":139.4367017},{"name":"コモディイイダ聖蹟和田店","province":"東京都","city":"多摩市","address":"東京都多摩市和田1849-1","lat":35.6472192,"lon":139.4355379},{"name":"朝日新聞サービスアンカーASA桜ヶ丘西部","province":"東京都","city":"多摩市","address":"東京都多摩市和田2000-9","lat":35.6424837,"lon":139.4283926},{"name":"ローソン多摩和田店","province":"東京都","city":"多摩市","address":"東京都多摩市和田2005-5","lat":35.641878,"lon":139.4276888},{"name":"サンドラッグ和田店","province":"東京都","city":"多摩市","address":"東京都多摩市和田2011-2","lat":35.6411808,"lon":139.4267139},{"name":"セブンイレブン多摩和田3丁目店","province":"東京都","city":"多摩市","address":"東京都多摩市和田3丁目2-6","lat":35.6356094,"lon":139.4352621},{"name":"喫茶れすと","province":"東京都","city":"多摩市","address":"東京都多摩市永山1丁目5","lat":35.6283469,"lon":139.4484153},{"name":"多摩センター駅出張所","province":"東京都","city":"多摩市","address":"東京都多摩市落合1丁目10-1","lat":35.6253446,"lon":139.4242797},{"name":"セブンイレブン小田急マルシェ 多摩センター店","province":"東京都","city":"多摩市","address":"東京都多摩市落合1丁目11","lat":35.624992,"lon":139.424611},{"name":"ローソン多摩センター駅前店","province":"東京都","city":"多摩市","address":"東京都多摩市落合1丁目41-1","lat":35.624039,"lon":139.423428},{"name":"ミニストップ多摩センター駅前店","province":"東京都","city":"多摩市","address":"東京都多摩市落合1丁目39-2","lat":35.624493,"lon":139.4257126},{"name":"三徳　貝取店","province":"東京都","city":"多摩市","address":"東京都多摩市貝取1丁目47-10","lat":35.623263,"lon":139.43782},{"name":"聖蹟桜ヶ丘駅出張所","province":"東京都","city":"多摩市","address":"東京都多摩市関戸4丁目72","lat":35.649656,"lon":139.446952},{"name":"多摩市＆長野県富士見町共同アンテナショップ゜Ponte","province":"東京都","city":"多摩市","address":"東京都多摩市永山1丁目4","lat":35.6291256,"lon":139.4483211},{"name":"多摩市身体障害者福祉協会　売店ひまわり（総合福祉センター内）","province":"東京都","city":"多摩市","address":"東京都多摩市南野3丁目15-1","lat":35.612539,"lon":139.41268},{"name":"アビネット","province":"東京都","city":"多摩市","address":"東京都多摩市唐木田1丁目8","lat":35.614484,"lon":139.408653},{"name":"セブンイレブン多摩鶴牧1丁目店","province":"東京都","city":"多摩市","address":"東京都多摩市鶴牧1丁目10-9","lat":35.623616,"lon":139.4177321},{"name":"愛宕東公園","province":"東京都","city":"多摩市","address":"東京都多摩市愛宕1丁目66","lat":35.633763,"lon":139.435783},{"name":"愛宕第1公園","province":"東京都","city":"多摩市","address":"東京都多摩市愛宕2丁目62","lat":35.635293,"lon":139.43906},{"name":"愛宕第2公園","province":"東京都","city":"多摩市","address":"東京都多摩市愛宕2丁目59","lat":35.633874,"lon":139.438371},{"name":"愛宕第3公園","province":"東京都","city":"多摩市","address":"東京都多摩市愛宕3丁目59","lat":35.632697,"lon":139.433419},{"name":"愛宕第4公園","province":"東京都","city":"多摩市","address":"東京都多摩市愛宕4丁目62","lat":35.63077,"lon":139.430138},{"name":"青木葉公園","province":"東京都","city":"多摩市","address":"東京都多摩市落合2丁目15","lat":35.617417,"lon":139.42699},{"name":"上和田公園（あげわだ）","province":"東京都","city":"多摩市","address":"東京都多摩市和田","lat":35.637373,"lon":139.428364},{"name":"一本杉公園","province":"東京都","city":"多摩市","address":"東京都多摩市南野2丁目14","lat":35.606937,"lon":139.432672},{"name":"一ノ宮公園","province":"東京都","city":"多摩市","address":"東京都多摩市一ノ宮","lat":35.65577,"lon":139.442838},{"name":"いろは坂桜公園","province":"東京都","city":"多摩市","address":"東京都多摩市桜ヶ丘4丁目33","lat":35.645747,"lon":139.444775},{"name":"瓜生公園","province":"東京都","city":"多摩市","address":"東京都多摩市永山2丁目19","lat":35.627901,"lon":139.443283},{"name":"瓜生せせらぎ散歩道","province":"東京都","city":"多摩市","address":"東京都多摩市永山2丁目17","lat":35.629184,"lon":139.443138},{"name":"瓜生緑地","province":"東京都","city":"多摩市","address":"東京都多摩市永山5丁目8","lat":35.619525,"lon":139.443206},{"name":"榎戸公園","province":"東京都","city":"多摩市","address":"東京都多摩市唐木田1丁目50","lat":35.615839,"lon":139.40823},{"name":"大河原公園","province":"東京都","city":"多摩市","address":"東京都多摩市関戸2丁目19","lat":35.650793,"lon":139.453718},{"name":"大貝戸公園","province":"東京都","city":"多摩市","address":"東京都多摩市乞田","lat":35.632403,"lon":139.439039},{"name":"大谷戸公園","province":"東京都","city":"多摩市","address":"東京都多摩市連光寺5丁目17","lat":35.639296,"lon":139.4575},{"name":"大谷戸川緑地","province":"東京都","city":"多摩市","address":"東京都多摩市連光寺3丁目59","lat":35.643334,"lon":139.456195},{"name":"落合南公園","province":"東京都","city":"多摩市","address":"東京都多摩市落合3丁目30","lat":35.616489,"lon":139.428875},{"name":"落合第1公園","province":"東京都","city":"多摩市","address":"東京都多摩市落合3丁目27","lat":35.61914,"lon":139.431726},{"name":"落合第2公園","province":"東京都","city":"多摩市","address":"東京都多摩市落合3丁目31","lat":35.617576,"lon":139.430274},{"name":"落合第3公園","province":"東京都","city":"多摩市","address":"東京都多摩市落合4丁目23","lat":35.614856,"lon":139.430301},{"name":"落合第4公園","province":"東京都","city":"多摩市","address":"東京都多摩市落合4丁目19","lat":35.612162,"lon":139.43078},{"name":"どんぐり山公園","province":"東京都","city":"多摩市","address":"東京都多摩市落合2丁目25","lat":35.616067,"lon":139.426506},{"name":"小野神社公園","province":"東京都","city":"多摩市","address":"東京都多摩市一ノ宮1丁目18","lat":35.652802,"lon":139.442731},{"name":"小野路第1公園","province":"東京都","city":"多摩市","address":"東京都多摩市南野2丁目4","lat":35.608269,"lon":139.434808},{"name":"小野路第2公園","province":"東京都","city":"多摩市","address":"東京都多摩市南野2丁目1","lat":35.609839,"lon":139.434025},{"name":"小野路第3公園","province":"東京都","city":"多摩市","address":"東京都多摩市永山6丁目26","lat":35.615257,"lon":139.444531},{"name":"小野路第4公園","province":"東京都","city":"多摩市","address":"東京都多摩市永山6丁目27","lat":35.612996,"lon":139.445924},{"name":"荻久保公園","province":"東京都","city":"多摩市","address":"東京都多摩市落合6丁目8","lat":35.611097,"lon":139.42616},{"name":"丘の上公園","province":"東京都","city":"多摩市","address":"東京都多摩市聖ヶ丘1丁目27","lat":35.637482,"lon":139.452158},{"name":"落川公園","province":"東京都","city":"多摩市","address":"東京都多摩市落川","lat":35.636909,"lon":139.438446},{"name":"落川北公園","province":"東京都","city":"多摩市","address":"東京都多摩市落川","lat":35.641035,"lon":139.438104},{"name":"貝取南公園","province":"東京都","city":"多摩市","address":"東京都多摩市貝取4丁目13","lat":35.61652,"lon":139.438714},{"name":"貝取北公園","province":"東京都","city":"多摩市","address":"東京都多摩市貝取2丁目1","lat":35.622967,"lon":139.441216},{"name":"貝取第4公園","province":"東京都","city":"多摩市","address":"東京都多摩市貝取2丁目11","lat":35.622053,"lon":139.439747},{"name":"貝取第5公園","province":"東京都","city":"多摩市","address":"東京都多摩市貝取3丁目11","lat":35.614507,"lon":139.442088},{"name":"貝取第6公園","province":"東京都","city":"多摩市","address":"東京都多摩市貝取5丁目4","lat":35.61174,"lon":139.440847},{"name":"貝取第7公園","province":"東京都","city":"多摩市","address":"東京都多摩市貝取4丁目14","lat":35.614398,"lon":139.439458},{"name":"唐木田公園","province":"東京都","city":"多摩市","address":"東京都多摩市唐木田1丁目13","lat":35.614033,"lon":139.406445},{"name":"からきだの道","province":"東京都","city":"多摩市","address":"東京都多摩市唐木田1丁目50","lat":35.616934,"lon":139.404678},{"name":"かねやま公園","province":"東京都","city":"多摩市","address":"東京都多摩市和田","lat":35.638593,"lon":139.427801},{"name":"釜沼公園","province":"東京都","city":"多摩市","address":"東京都多摩市貝取1丁目3","lat":35.630908,"lon":139.440477},{"name":"上之根公園","province":"東京都","city":"多摩市","address":"東京都多摩市愛宕4丁目26","lat":35.62824,"lon":139.425463},{"name":"木の実公園","province":"東京都","city":"多摩市","address":"東京都多摩市連光寺3丁目3","lat":35.644512,"lon":139.458803},{"name":"九頭龍公園","province":"東京都","city":"多摩市","address":"東京都多摩市関戸4丁目19","lat":35.649121,"lon":139.449131},{"name":"車橋公園","province":"東京都","city":"多摩市","address":"東京都多摩市連光寺2丁目75","lat":35.640686,"lon":139.452334},{"name":"くるまぼり公園","province":"東京都","city":"多摩市","address":"東京都多摩市東寺方1丁目16","lat":35.648317,"lon":139.442448},{"name":"乞田・貝取ふれあい広場公園","province":"東京都","city":"多摩市","address":"東京都多摩市乞田","lat":35.630945,"lon":139.435027},{"name":"交通公園","province":"東京都","city":"多摩市","address":"東京都多摩市関戸3丁目5","lat":35.649717,"lon":139.463173},{"name":"坂下公園","province":"東京都","city":"多摩市","address":"東京都多摩市関戸6丁目9","lat":35.637276,"lon":139.448185},{"name":"山王下公園","province":"東京都","city":"多摩市","address":"東京都多摩市山王下1丁目6","lat":35.626215,"lon":139.421168},{"name":"さくら公園","province":"東京都","city":"多摩市","address":"東京都多摩市桜ヶ丘3丁目1","lat":35.640623,"lon":139.444192},{"name":"新堂公園","province":"東京都","city":"多摩市","address":"東京都多摩市和田","lat":35.649143,"lon":139.434968},{"name":"清水溪緑地（しみずだに）","province":"東京都","city":"多摩市","address":"東京都多摩市連光寺1丁目17","lat":35.644617,"lon":139.455615},{"name":"諏訪南公園","province":"東京都","city":"多摩市","address":"東京都多摩市諏訪5丁目14","lat":35.619908,"lon":139.453308},{"name":"諏訪北公園","province":"東京都","city":"多摩市","address":"東京都多摩市諏訪3丁目11","lat":35.628319,"lon":139.452643},{"name":"諏訪第1公園","province":"東京都","city":"多摩市","address":"東京都多摩市諏訪1丁目63","lat":35.631036,"lon":139.449334},{"name":"諏訪第2公園","province":"東京都","city":"多摩市","address":"東京都多摩市諏訪2丁目7","lat":35.625697,"lon":139.451343},{"name":"諏訪第3公園","province":"東京都","city":"多摩市","address":"東京都多摩市諏訪2丁目10","lat":35.623778,"lon":139.451599},{"name":"諏訪第4公園","province":"東京都","city":"多摩市","address":"東京都多摩市諏訪3丁目4","lat":35.626259,"lon":139.453284},{"name":"諏訪第6公園","province":"東京都","city":"多摩市","address":"東京都多摩市諏訪4丁目28","lat":35.622826,"lon":139.456245},{"name":"諏訪第7公園","province":"東京都","city":"多摩市","address":"東京都多摩市諏訪5丁目11","lat":35.622631,"lon":139.453112},{"name":"李久保公園（すももくぼ）","province":"東京都","city":"多摩市","address":"東京都多摩市唐木田1丁目42","lat":35.615297,"lon":139.404849},{"name":"関戸公園","province":"東京都","city":"多摩市","address":"東京都多摩市関戸3丁目5","lat":35.650118,"lon":139.459279},{"name":"関戸三丁目公園","province":"東京都","city":"多摩市","address":"東京都多摩市関戸3丁目10","lat":35.64981,"lon":139.454706},{"name":"せいせき公園","province":"東京都","city":"多摩市","address":"東京都多摩市関戸1丁目19","lat":35.653066,"lon":139.446599},{"name":"多摩中央公園","province":"東京都","city":"多摩市","address":"東京都多摩市落合2丁目35","lat":35.620606,"lon":139.425777},{"name":"多摩東公園","province":"東京都","city":"多摩市","address":"東京都多摩市諏訪4丁目9","lat":35.625186,"lon":139.46046},{"name":"宝野公園","province":"東京都","city":"多摩市","address":"東京都多摩市落合5丁目5","lat":35.615407,"lon":139.424262},{"name":"対?台公園","province":"東京都","city":"多摩市","address":"東京都多摩市連光寺1丁目4","lat":35.645807,"lon":139.456025},{"name":"たけのこ公園","province":"東京都","city":"多摩市","address":"東京都多摩市連光寺3丁目40","lat":35.643112,"lon":139.458377},{"name":"台の口川公園","province":"東京都","city":"多摩市","address":"東京都多摩市和田","lat":35.642894,"lon":139.426813},{"name":"滝の上公園","province":"東京都","city":"多摩市","address":"東京都多摩市永山1丁目11","lat":35.632786,"lon":139.444804},{"name":"高岸公園","province":"東京都","city":"多摩市","address":"東京都多摩市中沢1丁目3","lat":35.623788,"lon":139.417095},{"name":"鶴牧東公園","province":"東京都","city":"多摩市","address":"東京都多摩市鶴牧3丁目16","lat":35.616503,"lon":139.419402},{"name":"鶴牧西公園","province":"東京都","city":"多摩市","address":"東京都多摩市鶴牧2丁目18","lat":35.617388,"lon":139.417164},{"name":"鶴牧第1公園","province":"東京都","city":"多摩市","address":"東京都多摩市鶴牧5丁目20","lat":35.610545,"lon":139.423482},{"name":"鶴牧第2公園","province":"東京都","city":"多摩市","address":"東京都多摩市鶴牧5丁目39","lat":35.612672,"lon":139.418807},{"name":"鶴牧第3公園","province":"東京都","city":"多摩市","address":"東京都多摩市鶴牧3丁目3","lat":35.618275,"lon":139.419836},{"name":"鶴ヶ峰公園","province":"東京都","city":"多摩市","address":"東京都多摩市落合1丁目23","lat":35.623053,"lon":139.43052},{"name":"土橋公園（つちはし）","province":"東京都","city":"多摩市","address":"東京都多摩市唐木田1丁目19","lat":35.613698,"lon":139.402223},{"name":"天王森公園","province":"東京都","city":"多摩市","address":"東京都多摩市連光寺6丁目19","lat":35.63079,"lon":139.465012},{"name":"とちのき公園","province":"東京都","city":"多摩市","address":"東京都多摩市豊ヶ丘2丁目34","lat":35.621685,"lon":139.436432},{"name":"豊ヶ丘南公園","province":"東京都","city":"多摩市","address":"東京都多摩市豊ヶ丘5丁目12","lat":35.61601,"lon":139.433623},{"name":"豊ヶ丘北公園","province":"東京都","city":"多摩市","address":"東京都多摩市豊ヶ丘1丁目39","lat":35.628192,"lon":139.436006},{"name":"豊ヶ丘第1公園","province":"東京都","city":"多摩市","address":"東京都多摩市豊ヶ丘2丁目10","lat":35.625247,"lon":139.434822},{"name":"豊ヶ丘第3公園","province":"東京都","city":"多摩市","address":"東京都多摩市豊ヶ丘3丁目2","lat":35.618284,"lon":139.436381},{"name":"豊ヶ丘第5公園","province":"東京都","city":"多摩市","address":"東京都多摩市豊ヶ丘4丁目13","lat":35.615449,"lon":139.435791},{"name":"豊ヶ丘第6公園","province":"東京都","city":"多摩市","address":"東京都多摩市豊ヶ丘5丁目13","lat":35.613807,"lon":139.434959},{"name":"豊ヶ丘第7公園","province":"東京都","city":"多摩市","address":"東京都多摩市豊ヶ丘6丁目5","lat":35.61109,"lon":139.434839},{"name":"豊ヶ丘第8公園","province":"東京都","city":"多摩市","address":"東京都多摩市豊ヶ丘5丁目11","lat":35.618203,"lon":139.434945},{"name":"豊ヶ丘第9公園","province":"東京都","city":"多摩市","address":"東京都多摩市豊ヶ丘2丁目3","lat":35.620679,"lon":139.433211},{"name":"豊ヶ丘第1緑地","province":"東京都","city":"多摩市","address":"東京都多摩市豊ヶ丘1丁目6","lat":35.628719,"lon":139.434114},{"name":"殿田中央公園","province":"東京都","city":"多摩市","address":"東京都多摩市和田","lat":35.645169,"lon":139.431135},{"name":"殿田橋北公園","province":"東京都","city":"多摩市","address":"東京都多摩市和田","lat":35.643965,"lon":139.430773},{"name":"永山北公園","province":"東京都","city":"多摩市","address":"東京都多摩市永山2丁目5","lat":35.627345,"lon":139.448018},{"name":"永山第1公園","province":"東京都","city":"多摩市","address":"東京都多摩市永山2丁目4","lat":35.628413,"lon":139.444595},{"name":"永山第2公園","province":"東京都","city":"多摩市","address":"東京都多摩市永山3丁目7","lat":35.625165,"lon":139.445866},{"name":"永山第3公園","province":"東京都","city":"多摩市","address":"東京都多摩市永山3丁目13","lat":35.623555,"lon":139.444483},{"name":"永山第4公園","province":"東京都","city":"多摩市","address":"東京都多摩市永山5丁目31","lat":35.616401,"lon":139.445932},{"name":"永山第5公園","province":"東京都","city":"多摩市","address":"東京都多摩市永山3丁目10","lat":35.623334,"lon":139.446913},{"name":"永山第7公園","province":"東京都","city":"多摩市","address":"東京都多摩市永山4丁目8","lat":35.61878,"lon":139.450673},{"name":"永山橋公園","province":"東京都","city":"多摩市","address":"東京都多摩市諏訪1丁目3","lat":35.634091,"lon":139.447624},{"name":"永山南公園","province":"東京都","city":"多摩市","address":"東京都多摩市永山4丁目7","lat":35.621889,"lon":139.449476},{"name":"奈良原公園","province":"東京都","city":"多摩市","address":"東京都多摩市鶴牧4丁目4","lat":35.613302,"lon":139.420225},{"name":"並木公園","province":"東京都","city":"多摩市","address":"東京都多摩市和田","lat":35.64568,"lon":139.433748},{"name":"中沢池公園","province":"東京都","city":"多摩市","address":"東京都多摩市中沢1丁目33","lat":35.620797,"lon":139.409483},{"name":"中沢沖公園","province":"東京都","city":"多摩市","address":"東京都多摩市中沢1丁目27","lat":35.622966,"lon":139.410724},{"name":"中和田橋公園","province":"東京都","city":"多摩市","address":"東京都多摩市和田","lat":35.642048,"lon":139.429208},{"name":"長久保公園","province":"東京都","city":"多摩市","address":"東京都多摩市落合1丁目5","lat":35.626481,"lon":139.426626},{"name":"長坂公園（ながさか）","province":"東京都","city":"多摩市","address":"東京都多摩市鶴牧6丁目9","lat":35.61455,"lon":139.412441},{"name":"ななやま児童公園","province":"東京都","city":"多摩市","address":"東京都多摩市和田","lat":35.647028,"lon":139.420618},{"name":"中坂公園（なかさか）","province":"東京都","city":"多摩市","address":"東京都多摩市南野3丁目3","lat":35.606013,"lon":139.427171},{"name":"中組公園","province":"東京都","city":"多摩市","address":"東京都多摩市鶴牧2丁目4","lat":35.621981,"lon":139.417142},{"name":"二反田公園（にたんだ）","province":"東京都","city":"多摩市","address":"東京都多摩市中沢2丁目23","lat":35.618392,"lon":139.413408},{"name":"八幡公園（はちまん）","province":"東京都","city":"多摩市","address":"東京都多摩市豊ヶ丘1丁目20","lat":35.627788,"lon":139.430597},{"name":"原峰公園","province":"東京都","city":"多摩市","address":"東京都多摩市関戸6丁目28","lat":35.639939,"lon":139.447794},{"name":"東寺方中央公園","province":"東京都","city":"多摩市","address":"東京都多摩市落川","lat":35.642327,"lon":139.43826},{"name":"東寺方橋緑地","province":"東京都","city":"多摩市","address":"東京都多摩市桜ヶ丘4丁目42","lat":35.646226,"lon":139.441833},{"name":"聖ヶ丘緑地","province":"東京都","city":"多摩市","address":"東京都多摩市聖ヶ丘3丁目49","lat":35.632413,"lon":139.459192},{"name":"聖ヶ丘第1児童公園","province":"東京都","city":"多摩市","address":"東京都多摩市聖ヶ丘1丁目16","lat":35.638395,"lon":139.456474},{"name":"聖ヶ丘第2児童公園","province":"東京都","city":"多摩市","address":"東京都多摩市聖ヶ丘2丁目53","lat":35.636508,"lon":139.455834},{"name":"船ヶ台公園","province":"東京都","city":"多摩市","address":"東京都多摩市連光寺6丁目24","lat":35.634128,"lon":139.464263},{"name":"本村公園","province":"東京都","city":"多摩市","address":"東京都多摩市連光寺2丁目16","lat":35.641581,"lon":139.453993},{"name":"馬引沢南公園","province":"東京都","city":"多摩市","address":"東京都多摩市聖ヶ丘4丁目22","lat":35.62687,"lon":139.460473},{"name":"馬引沢三角公園","province":"東京都","city":"多摩市","address":"東京都多摩市諏訪1丁目41","lat":35.631741,"lon":139.452576},{"name":"馬引沢児童公園","province":"東京都","city":"多摩市","address":"東京都多摩市諏訪1丁目29","lat":35.631202,"lon":139.452441},{"name":"馬引沢第1公園","province":"東京都","city":"多摩市","address":"東京都多摩市馬引沢2丁目5","lat":35.633546,"lon":139.453179},{"name":"馬引沢第2公園","province":"東京都","city":"多摩市","address":"東京都多摩市諏訪1丁目55","lat":35.62945,"lon":139.45346},{"name":"馬引沢第3公園","province":"東京都","city":"多摩市","address":"東京都多摩市馬引沢2丁目16","lat":35.628215,"lon":139.456658},{"name":"まろにえ公園","province":"東京都","city":"多摩市","address":"東京都多摩市鶴牧6丁目3","lat":35.614289,"lon":139.41616},{"name":"南野公園","province":"東京都","city":"多摩市","address":"東京都多摩市南野2丁目27","lat":35.607477,"lon":139.430595},{"name":"みゆき橋公園","province":"東京都","city":"多摩市","address":"東京都多摩市関戸5丁目1","lat":35.646477,"lon":139.453304},{"name":"明神橋公園","province":"東京都","city":"多摩市","address":"東京都多摩市東寺方","lat":35.648513,"lon":139.438254},{"name":"みどり公園","province":"東京都","city":"多摩市","address":"東京都多摩市貝取1丁目63","lat":35.629164,"lon":139.439134},{"name":"宮之下公園","province":"東京都","city":"多摩市","address":"東京都多摩市一ノ宮2丁目27","lat":35.654313,"lon":139.4439},{"name":"みゆき川公園","province":"東京都","city":"多摩市","address":"東京都多摩市連光寺1丁目6","lat":35.645074,"lon":139.453268},{"name":"向ノ岡公園（むかいのおか）","province":"東京都","city":"多摩市","address":"東京都多摩市連光寺1丁目21","lat":35.645634,"lon":139.45845},{"name":"やぎし梅林公園","province":"東京都","city":"多摩市","address":"東京都多摩市和田","lat":35.645092,"lon":139.431196},{"name":"よこやまの道","province":"東京都","city":"多摩市","address":"東京都多摩市諏訪6丁目1","lat":35.621315,"lon":139.459533},{"name":"連光寺公園","province":"東京都","city":"多摩市","address":"東京都多摩市連光寺5丁目8","lat":35.635688,"lon":139.463363},{"name":"連光寺やすらぎ公園","province":"東京都","city":"多摩市","address":"東京都多摩市連光寺4丁目19","lat":35.638639,"lon":139.465313},{"name":"ろくせぶ公園","province":"東京都","city":"多摩市","address":"東京都多摩市関戸2丁目63","lat":35.650341,"lon":139.451872},{"name":"和田公園","province":"東京都","city":"多摩市","address":"東京都多摩市和田","lat":35.640363,"lon":139.429408},{"name":"和田第1公園","province":"東京都","city":"多摩市","address":"東京都多摩市和田3丁目56","lat":35.63556,"lon":139.434361},{"name":"和田第2公園","province":"東京都","city":"多摩市","address":"東京都多摩市和田","lat":35.6367,"lon":139.430906},{"name":"和田さく公園","province":"東京都","city":"多摩市","address":"東京都多摩市和田","lat":35.64205,"lon":139.434001},{"name":"多摩センター駅周辺1（バスロータリー・駅側階段下）","province":"東京都","city":"多摩市","address":"東京都多摩市落合1丁目40","lat":35.6245,"lon":139.424694},{"name":"多摩センター駅周辺2（マグレブエスト側階段横）","province":"東京都","city":"多摩市","address":"東京都多摩市落合1丁目40","lat":35.624583,"lon":139.424917},{"name":"せいせきB館西口広場","province":"東京都","city":"多摩市","address":"東京都多摩市関戸1丁目10-1","lat":35.650972,"lon":139.446806},{"name":"聖蹟桜ヶ丘駅東側高架下","province":"東京都","city":"多摩市","address":"東京都多摩市関戸1丁目10","lat":35.651056,"lon":139.447806},{"name":"唐木田駅前","province":"東京都","city":"多摩市","address":"東京都多摩市唐木田1丁目2","lat":35.615556,"lon":139.411194},{"name":"愛宕東公園内","province":"東京都","city":"多摩市","address":"東京都多摩市愛宕1丁目66","lat":35.634417,"lon":139.436139},{"name":"一ノ宮団地公園脇","province":"東京都","city":"多摩市","address":"東京都多摩市一ノ宮4丁目16","lat":35.650361,"lon":139.441306},{"name":"落合四丁目商店街道路内","province":"東京都","city":"多摩市","address":"東京都多摩市落合3丁目29","lat":35.61625,"lon":139.430028},{"name":"宝野公園北側入口","province":"東京都","city":"多摩市","address":"東京都多摩市落合5丁目1","lat":35.616306,"lon":139.423389},{"name":"貝取南公園内","province":"東京都","city":"多摩市","address":"東京都多摩市貝取4丁目13","lat":35.617028,"lon":139.439556},{"name":"乞田・貝取ふれあいひろば公園（多摩第三小学校側）","province":"東京都","city":"多摩市","address":"東京都多摩市乞田","lat":35.631389,"lon":139.4355},{"name":"桜ヶ丘四丁目バス停（ロータリー）","province":"東京都","city":"多摩市","address":"東京都多摩市桜ヶ丘3丁目1","lat":35.640528,"lon":139.444306},{"name":"桜ヶ丘西通り山神社バス停付近","province":"東京都","city":"多摩市","address":"東京都多摩市桜ヶ丘4丁目48","lat":35.642861,"lon":139.441889},{"name":"ミニバス諏訪神社バス停付近","province":"東京都","city":"多摩市","address":"東京都多摩市諏訪1丁目11","lat":35.633278,"lon":139.451028},{"name":"諏訪北公園道路沿い","province":"東京都","city":"多摩市","address":"東京都多摩市諏訪3丁目11","lat":35.627583,"lon":139.452306},{"name":"諏訪五丁目商店街通路内","province":"東京都","city":"多摩市","address":"東京都多摩市諏訪5丁目2","lat":35.622111,"lon":139.451361},{"name":"多摩市役所本庁舎1階正面玄関風除室","province":"東京都","city":"多摩市","address":"東京都多摩市関戸6丁目12-1","lat":35.637,"lon":139.4465},{"name":"鶴牧商店街道路内","province":"東京都","city":"多摩市","address":"東京都多摩市鶴牧5丁目1","lat":35.611778,"lon":139.423778},{"name":"豊ヶ丘四丁目商店街西側","province":"東京都","city":"多摩市","address":"東京都多摩市豊ヶ丘4丁目15","lat":35.6145,"lon":139.436194},{"name":"永山北公園ベルブ永山入口","province":"東京都","city":"多摩市","address":"東京都多摩市永山2丁目5","lat":35.627778,"lon":139.448389},{"name":"永山五丁目バス停歩道橋西側","province":"東京都","city":"多摩市","address":"東京都多摩市永山5丁目135","lat":35.618361,"lon":139.445694},{"name":"小野路第3公園通り沿い","province":"東京都","city":"多摩市","address":"東京都多摩市永山6丁目26","lat":35.615333,"lon":139.44475},{"name":"聖ヶ丘商店街通路内","province":"東京都","city":"多摩市","address":"東京都多摩市聖ヶ丘2丁目22","lat":35.631026,"lon":139.457603},{"name":"記念館通りY字路前","province":"東京都","city":"多摩市","address":"東京都多摩市連光寺3丁目35","lat":35.643584,"lon":139.458695},{"name":"連光寺やすらぎ公園入口","province":"東京都","city":"多摩市","address":"東京都多摩市連光寺4丁目19","lat":35.638611,"lon":139.465222},{"name":"連光寺公園入口トイレ横","province":"東京都","city":"多摩市","address":"東京都多摩市連光寺5丁目8","lat":35.63575,"lon":139.463833},{"name":"百草団地バスロータリー集会所北側","province":"東京都","city":"多摩市","address":"東京都多摩市和田","lat":35.64657,"lon":139.417794},{"name":"野猿街道・中和田バス停横","province":"東京都","city":"多摩市","address":"東京都多摩市和田","lat":35.643167,"lon":139.428944},{"name":"多摩センター駅周辺3（小田急多摩センター駅改札口前）","province":"東京都","city":"多摩市","address":"東京都多摩市落合1丁目11","lat":35.62495,"lon":139.42436},{"name":"永山駅バスロータリー前（高架下）","province":"東京都","city":"多摩市","address":"東京都多摩市永山1丁目18","lat":35.63006,"lon":139.44776}]}