{"keyword":"センター","data":[{"name":"東京都立多摩総合精神保健福祉センター","province":"東京都","city":"多摩市","address":"多摩市中沢2-1-3","lat":35.62238,"lon":139.414071},{"name":"多摩市老人福祉センター","province":"東京都","city":"多摩市","address":"多摩市南野3-15-1","lat":35.61226,"lon":139.41402},{"name":"多摩市立東寺方老人福祉館","province":"東京都","city":"多摩市","address":"多摩市東寺方626-7","lat":35.6422,"lon":139.4371},{"name":"多摩市立諏訪老人福祉館","province":"東京都","city":"多摩市","address":"多摩市諏訪5-4","lat":35.62234,"lon":139.45081},{"name":"多摩市立豊ケ丘老人福祉館","province":"東京都","city":"多摩市","address":"多摩市豊ケ丘5-6","lat":35.61462,"lon":139.43442},{"name":"東京都立多摩総合精神保健福祉センター","province":"東京都","city":"多摩市","address":"多摩市中沢2-1-3","lat":35.62305,"lon":139.41415},{"name":"多摩市老人福祉センター","province":"東京都","city":"多摩市","address":"多摩市南野3-15-1","lat":35.612536,"lon":139.412677},{"name":"多摩市立東寺方老人福祉館","province":"東京都","city":"多摩市","address":"多摩市東寺方626-7","lat":35.643283,"lon":139.437701},{"name":"多摩市立連光寺老人福祉館","province":"東京都","city":"多摩市","address":"多摩市連光寺3-57-1","lat":35.642745,"lon":139.45683},{"name":"多摩市立諏訪老人福祉館","province":"東京都","city":"多摩市","address":"多摩市諏訪5-4","lat":35.622311,"lon":139.450859},{"name":"多摩市立豊ケ丘老人福祉館","province":"東京都","city":"多摩市","address":"多摩市豊ケ丘5-6","lat":35.614328,"lon":139.434311},{"name":"多摩市立連光寺老人福祉館","province":"東京都","city":"多摩市","address":"多摩市連光寺3-57-1","lat":35.64273,"lon":139.45685}]}