{"keyword":"保健","data":[{"name":"桜ヶ丘第一保育園","province":"東京都","city":"多摩市","address":"多摩市和田60-1","lat":35.643083,"lon":139.435118},{"name":"やまと保育園","province":"東京都","city":"多摩市","address":"多摩市和田1534","lat":35.645586,"lon":139.431568},{"name":"多摩保育園","province":"東京都","city":"多摩市","address":"多摩市和田418-1","lat":35.639823,"lon":139.435399},{"name":"バオバブ保育園","province":"東京都","city":"多摩市","address":"多摩市一ノ宮1-20-3","lat":35.652341,"lon":139.441517},{"name":"バオバブちいさな家保育園","province":"東京都","city":"多摩市","address":"多摩市一ノ宮3-9-1","lat":35.649855,"lon":139.443237},{"name":"貝取保育園","province":"東京都","city":"多摩市","address":"多摩市貝取4-10","lat":35.614365,"lon":139.440169},{"name":"みどりの保育園","province":"東京都","city":"多摩市","address":"多摩市連光寺3-57-2","lat":35.642548,"lon":139.4569},{"name":"かしのき保育園","province":"東京都","city":"多摩市","address":"多摩市諏訪1-64","lat":35.630985,"lon":139.449759},{"name":"こばと第一保育園","province":"東京都","city":"多摩市","address":"多摩市諏訪4-7","lat":35.623814,"lon":139.458353},{"name":"のびのびっこ保育園","province":"東京都","city":"多摩市","address":"多摩市諏訪1-1-6","lat":35.635007,"lon":139.44942},{"name":"あすのき保育園","province":"東京都","city":"多摩市","address":"多摩市諏訪2-2-B-001ブリリア多摩ニュータウン","lat":35.625667,"lon":139.452556},{"name":"こぐま保育園","province":"東京都","city":"多摩市","address":"多摩市永山3-5","lat":35.626091,"lon":139.445948},{"name":"ゆりのき保育園","province":"東京都","city":"多摩市","address":"多摩市永山4-6","lat":35.621634,"lon":139.448323},{"name":"ピオニイ第二保育園","province":"東京都","city":"多摩市","address":"多摩市豊ヶ丘4-8","lat":35.615203,"lon":139.435292},{"name":"かおり保育園","province":"東京都","city":"多摩市","address":"多摩市落合4-15","lat":35.615128,"lon":139.430239},{"name":"あおぞら保育園","province":"東京都","city":"多摩市","address":"多摩市落合1-5-16","lat":35.626332,"lon":139.426675},{"name":"こころ保育園","province":"東京都","city":"多摩市","address":"多摩市鶴牧5-5","lat":35.611229,"lon":139.424157},{"name":"丘の上アンジュ保育園","province":"東京都","city":"多摩市","address":"多摩市鶴牧3-2ブリリア多摩センター","lat":35.618764,"lon":139.421093},{"name":"りすのき保育園","province":"東京都","city":"多摩市","address":"多摩市唐木田1-8-2","lat":35.614761,"lon":139.409199},{"name":"みさと保育所","province":"東京都","city":"多摩市","address":"多摩市愛宕2-53","lat":35.635068,"lon":139.437185},{"name":"啓光学園","province":"東京都","city":"多摩市","address":"多摩市和田1717","lat":35.650244,"lon":139.435565},{"name":"東京都立多摩総合精神保健福祉センター","province":"東京都","city":"多摩市","address":"多摩市中沢2-1-3","lat":35.62238,"lon":139.414071},{"name":"南多摩保健所","province":"東京都","city":"多摩市","address":"多摩市永山2-1-5","lat":35.627949,"lon":139.447437},{"name":"多摩市立健康センター","province":"東京都","city":"多摩市","address":"多摩市関戸4-19-5","lat":35.649044,"lon":139.449511},{"name":"地方独立行政法人東京都立病院機構　東京都立多摩南部地域病院","province":"東京都","city":"多摩市","address":"東京都多摩市中沢2丁目1-2","lat":35.622816,"lon":139.414977},{"name":"桜ヶ丘公園","province":"東京都","city":"多摩市","address":"東京都多摩市連光寺5丁目1","lat":35.637903,"lon":139.461183},{"name":"桜ヶ丘公園","province":"東京都","city":"多摩市","address":"東京都多摩市連光寺5丁目16","lat":35.634188,"lon":139.459384},{"name":"桜ヶ丘公園","province":"東京都","city":"多摩市","address":"東京都多摩市連光寺3丁目23","lat":35.639617,"lon":139.462738},{"name":"水道局多摩サービスステーション","province":"東京都","city":"多摩市","address":"東京都多摩市山王下1丁目17","lat":35.625201,"lon":139.416699},{"name":"東京都立埋蔵文化財調査センター","province":"東京都","city":"多摩市","address":"東京都多摩市落合1丁目14-2","lat":35.626116,"lon":139.427815},{"name":"多摩消防署","province":"東京都","city":"多摩市","address":"東京都多摩市諏訪1丁目69","lat":35.632441,"lon":139.448261},{"name":"多摩市立関戸公民館","province":"東京都","city":"多摩市","address":"東京都多摩市関戸4丁目72","lat":35.649695,"lon":139.447014},{"name":"多摩市役所","province":"東京都","city":"多摩市","address":"東京都多摩市関戸6丁目12-1","lat":35.637112,"lon":139.446306},{"name":"多摩市役所","province":"東京都","city":"多摩市","address":"東京都多摩市関戸6丁目12-1","lat":35.636963,"lon":139.446355},{"name":"多摩市役所","province":"東京都","city":"多摩市","address":"東京都多摩市関戸6丁目12-1","lat":35.637077,"lon":139.446144},{"name":"多摩市役所東庁舎","province":"東京都","city":"多摩市","address":"東京都多摩市関戸6丁目12-1","lat":35.63749,"lon":139.447601},{"name":"多摩市役所第二庁舎","province":"東京都","city":"多摩市","address":"東京都多摩市関戸6丁目12-1","lat":35.637058,"lon":139.447377},{"name":"多摩市立複合文化施設（パルテノン多摩）","province":"東京都","city":"多摩市","address":"東京都多摩市落合2丁目35","lat":35.621654,"lon":139.426243},{"name":"多摩市立永山公民館","province":"東京都","city":"多摩市","address":"東京都多摩市永山1丁目5","lat":35.628189,"lon":139.448569},{"name":"多摩市立永山公民館","province":"東京都","city":"多摩市","address":"東京都多摩市永山1丁目5","lat":35.628161,"lon":139.448315},{"name":"多摩市立永山公民館","province":"東京都","city":"多摩市","address":"東京都多摩市永山1丁目5","lat":35.628222,"lon":139.448194},{"name":"多摩市立永山図書館","province":"東京都","city":"多摩市","address":"東京都多摩市永山1丁目5","lat":35.628116,"lon":139.448267},{"name":"多摩市立東寺方図書館","province":"東京都","city":"多摩市","address":"東京都多摩市東寺方626-7","lat":35.643336,"lon":139.43776},{"name":"多摩市立豊ヶ丘図書館","province":"東京都","city":"多摩市","address":"東京都多摩市豊ヶ丘5丁目6","lat":35.614634,"lon":139.434849},{"name":"多摩市立中央図書館","province":"東京都","city":"多摩市","address":"東京都多摩市落合2丁目35","lat":35.621055,"lon":139.424168},{"name":"多摩市立諏訪老人福祉館・地区市民ホール","province":"東京都","city":"多摩市","address":"東京都多摩市諏訪5丁目4","lat":35.622476,"lon":139.450946},{"name":"多摩市立諏訪老人福祉館・地区市民ホール","province":"東京都","city":"多摩市","address":"東京都多摩市諏訪5丁目4","lat":35.62249,"lon":139.450941},{"name":"多摩市立豊ヶ丘老人福祉館・地区市民ホール","province":"東京都","city":"多摩市","address":"東京都多摩市豊ヶ丘5丁目6","lat":35.614544,"lon":139.434577},{"name":"多摩市立東寺方老人福祉館兼地区市民ホール","province":"東京都","city":"多摩市","address":"東京都多摩市東寺方626-7","lat":35.64334,"lon":139.43775},{"name":"落合南公園","province":"東京都","city":"多摩市","address":"東京都多摩市落合3丁目30","lat":35.616689,"lon":139.429243},{"name":"貝取南公園","province":"東京都","city":"多摩市","address":"東京都多摩市貝取4丁目13","lat":35.616685,"lon":139.439805},{"name":"貝取北公園","province":"東京都","city":"多摩市","address":"東京都多摩市貝取2丁目1","lat":35.6224,"lon":139.440692},{"name":"宝野公園","province":"東京都","city":"多摩市","address":"東京都多摩市落合5丁目5","lat":35.616035,"lon":139.423799},{"name":"豊ヶ丘南公園","province":"東京都","city":"多摩市","address":"東京都多摩市豊ヶ丘5丁目12","lat":35.615613,"lon":139.434456},{"name":"豊ケ丘北公園","province":"東京都","city":"多摩市","address":"東京都多摩市豊ヶ丘1丁目39","lat":35.626933,"lon":139.434685},{"name":"中沢池公園","province":"東京都","city":"多摩市","address":"東京都多摩市中沢1丁目34","lat":35.620825,"lon":139.407884},{"name":"よこやまの道（唐木田）","province":"東京都","city":"多摩市","address":"東京都多摩市諏訪6丁目1","lat":35.624916,"lon":139.462403},{"name":"よこやまの道（南野）","province":"東京都","city":"多摩市","address":"東京都多摩市諏訪6丁目1","lat":35.624916,"lon":139.462403},{"name":"よこやまの道（永山）","province":"東京都","city":"多摩市","address":"東京都多摩市諏訪6丁目1","lat":35.624916,"lon":139.462403},{"name":"愛宕東公園","province":"東京都","city":"多摩市","address":"東京都多摩市愛宕1丁目66","lat":35.63378,"lon":139.435861},{"name":"瓜生緑地","province":"東京都","city":"多摩市","address":"東京都多摩市永山3丁目23","lat":35.62052,"lon":139.443477},{"name":"大谷戸公園","province":"東京都","city":"多摩市","address":"東京都多摩市連光寺5丁目17","lat":35.638873,"lon":139.45794},{"name":"諏訪南公園","province":"東京都","city":"多摩市","address":"東京都多摩市諏訪5丁目14","lat":35.620748,"lon":139.453694},{"name":"諏訪北公園","province":"東京都","city":"多摩市","address":"東京都多摩市諏訪3丁目11","lat":35.628208,"lon":139.452206},{"name":"永山南公園","province":"東京都","city":"多摩市","address":"東京都多摩市永山4丁目7","lat":35.622037,"lon":139.449538},{"name":"永山北公園","province":"東京都","city":"多摩市","address":"東京都多摩市永山2丁目5","lat":35.627373,"lon":139.448084},{"name":"連光寺公園","province":"東京都","city":"多摩市","address":"東京都多摩市連光寺5丁目8","lat":35.635676,"lon":139.463331},{"name":"関戸三丁目公園","province":"東京都","city":"多摩市","address":"東京都多摩市関戸3丁目10","lat":35.649827,"lon":139.45462},{"name":"くるまぼり公園","province":"東京都","city":"多摩市","address":"東京都多摩市東寺方1丁目16","lat":35.648234,"lon":139.442012},{"name":"関戸公園","province":"東京都","city":"多摩市","address":"東京都多摩市関戸3丁目5","lat":35.649797,"lon":139.459866},{"name":"中和田橋公園","province":"東京都","city":"多摩市","address":"東京都多摩市和田","lat":35.641903,"lon":139.428816},{"name":"多摩東公園","province":"東京都","city":"多摩市","address":"東京都多摩市諏訪4丁目9","lat":35.625035,"lon":139.45923},{"name":"多摩東公園","province":"東京都","city":"多摩市","address":"東京都多摩市諏訪4丁目9","lat":35.625214,"lon":139.461306},{"name":"宮之下公園","province":"東京都","city":"多摩市","address":"東京都多摩市一ノ宮2丁目27","lat":35.654422,"lon":139.444087},{"name":"一本杉公園","province":"東京都","city":"多摩市","address":"東京都多摩市南野2丁目14","lat":35.608532,"lon":139.432355},{"name":"一本杉公園","province":"東京都","city":"多摩市","address":"東京都多摩市南野2丁目13","lat":35.606954,"lon":139.434933},{"name":"多摩中央公園","province":"東京都","city":"多摩市","address":"東京都多摩市落合2丁目35","lat":35.620292,"lon":139.426514},{"name":"鶴牧西公園","province":"東京都","city":"多摩市","address":"東京都多摩市鶴牧2丁目18","lat":35.616957,"lon":139.416718},{"name":"多摩市立グリーンライブセンター","province":"東京都","city":"多摩市","address":"東京都多摩市落合2丁目35","lat":35.622296,"lon":139.427856},{"name":"せいせき公園","province":"東京都","city":"多摩市","address":"東京都多摩市関戸1丁目19","lat":35.653548,"lon":139.446475},{"name":"多摩市立総合福祉センター","province":"東京都","city":"多摩市","address":"東京都多摩市南野3丁目15-1","lat":35.612608,"lon":139.41289},{"name":"聖蹟桜ケ丘駅前公衆トイレ","province":"東京都","city":"多摩市","address":"東京都多摩市関戸1丁目11","lat":35.650296,"lon":139.447168},{"name":"多摩センター駅前公衆トイレ","province":"東京都","city":"多摩市","address":"東京都多摩市落合1丁目40","lat":35.624313,"lon":139.423827},{"name":"永山駅前公衆トイレ","province":"東京都","city":"多摩市","address":"東京都多摩市永山1丁目45","lat":35.62939,"lon":139.44764},{"name":"豊ヶ丘商店街公衆トイレ","province":"東京都","city":"多摩市","address":"東京都多摩市豊ヶ丘4丁目2","lat":35.614728,"lon":139.437089},{"name":"多摩市立総合福祉センター","province":"東京都","city":"多摩市","address":"東京都多摩市南野3丁目15","lat":35.612765,"lon":139.412537},{"name":"多摩市立総合福祉センター","province":"東京都","city":"多摩市","address":"東京都多摩市南野3丁目15","lat":35.612775,"lon":139.412447},{"name":"多摩市立総合福祉センター","province":"東京都","city":"多摩市","address":"東京都多摩市南野3丁目15","lat":35.612679,"lon":139.412995},{"name":"多摩市立総合福祉センター","province":"東京都","city":"多摩市","address":"東京都多摩市南野3丁目15","lat":35.612646,"lon":139.41308},{"name":"多摩市立鶴牧・落合・南野コミュニティセンター","province":"東京都","city":"多摩市","address":"東京都多摩市落合6丁目5","lat":35.612274,"lon":139.425601},{"name":"多摩市立関戸・一ノ宮コミュニティセンター","province":"東京都","city":"多摩市","address":"東京都多摩市関戸4丁目19-5","lat":35.648901,"lon":139.449426},{"name":"多摩市立関戸・一ノ宮コミュニティセンター","province":"東京都","city":"多摩市","address":"東京都多摩市関戸4丁目19-5","lat":35.648902,"lon":139.449425},{"name":"多摩市立桜ケ丘コミュニティセンター","province":"東京都","city":"多摩市","address":"東京都多摩市桜ケ丘1丁目17-7","lat":35.639906,"lon":139.446644},{"name":"多摩市立乞田・貝取コミュニティセンター","province":"東京都","city":"多摩市","address":"東京都多摩市乞田810","lat":35.630857,"lon":139.434606},{"name":"多摩市立乞田・貝取コミュニティセンター","province":"東京都","city":"多摩市","address":"東京都多摩市乞田810","lat":35.630843,"lon":139.434562},{"name":"多摩市立鶴牧・落合・南野コミュニティセンター","province":"東京都","city":"多摩市","address":"東京都多摩市落合6丁目5","lat":35.61235,"lon":139.425626},{"name":"多摩市立鶴牧・落合・南野コミュニティセンター","province":"東京都","city":"多摩市","address":"東京都多摩市落合6丁目5","lat":35.61235,"lon":139.425625},{"name":"多摩市立資源化センター(エコプラザ多摩)管理棟","province":"東京都","city":"多摩市","address":"東京都多摩市諏訪6丁目3-2","lat":35.618982,"lon":139.455459},{"name":"多摩市立貝取コミュニティセンター","province":"東京都","city":"多摩市","address":"東京都多摩市貝取4丁目5-1","lat":35.615825,"lon":139.439799},{"name":"多摩市立貝取コミュニティセンター","province":"東京都","city":"多摩市","address":"東京都多摩市貝取4丁目5-1","lat":35.61575,"lon":139.439811},{"name":"多摩市立聖ケ丘コミュニティセンター","province":"東京都","city":"多摩市","address":"東京都多摩市聖ケ丘2丁目21-1","lat":35.630948,"lon":139.458064},{"name":"多摩市立聖ケ丘コミュニティセンター","province":"東京都","city":"多摩市","address":"東京都多摩市聖ケ丘2丁目21-1","lat":35.630879,"lon":139.458026},{"name":"多摩市立聖ケ丘コミュニティセンター","province":"東京都","city":"多摩市","address":"東京都多摩市聖ケ丘2丁目21-1","lat":35.630842,"lon":139.457968},{"name":"多摩市立愛宕コミュニティセンター","province":"東京都","city":"多摩市","address":"東京都多摩市愛宕3丁目2","lat":35.633429,"lon":139.434621},{"name":"多摩市立愛宕コミュニティセンター","province":"東京都","city":"多摩市","address":"東京都多摩市愛宕3丁目2","lat":35.63343,"lon":139.43462},{"name":"多摩市立唐木田コミュニティセンター","province":"東京都","city":"多摩市","address":"東京都多摩市鶴牧6丁目14","lat":35.615443,"lon":139.413483},{"name":"多摩市立唐木田コミュニティセンター","province":"東京都","city":"多摩市","address":"東京都多摩市鶴牧6丁目14","lat":35.615613,"lon":139.41345},{"name":"多摩市立和田・東寺方コミュニティセンター","province":"東京都","city":"多摩市","address":"東京都多摩市和田2006-4","lat":35.641144,"lon":139.427486},{"name":"多摩市立和田・東寺方コミュニティセンター","province":"東京都","city":"多摩市","address":"東京都多摩市和田2006-4","lat":35.641144,"lon":139.427487},{"name":"多摩市立三方の森コミュニティ会館","province":"東京都","city":"多摩市","address":"東京都多摩市和田1254-12","lat":35.64615,"lon":139.416068},{"name":"多摩市立健康センター","province":"東京都","city":"多摩市","address":"東京都多摩市関戸4丁目19-5","lat":35.649125,"lon":139.449552},{"name":"多摩市立健康センター","province":"東京都","city":"多摩市","address":"東京都多摩市関戸4丁目19-5","lat":35.648902,"lon":139.449425},{"name":"多摩市立資源化センター(エコプラザ多摩)管理棟","province":"東京都","city":"多摩市","address":"東京都多摩市諏訪6丁目3-2","lat":35.619025,"lon":139.455426},{"name":"多摩市立資源化センター(エコプラザ多摩)資源選別保管棟","province":"東京都","city":"多摩市","address":"東京都多摩市諏訪6丁目3-2","lat":35.618877,"lon":139.454874},{"name":"多摩市立資源化センター(エコプラザ多摩)草枝資源化棟","province":"東京都","city":"多摩市","address":"東京都多摩市諏訪6丁目3-2","lat":35.618823,"lon":139.454739},{"name":"多摩市立連光寺コミュニティ会館","province":"東京都","city":"多摩市","address":"東京都多摩市連光寺3丁目57-1","lat":35.642766,"lon":139.456811},{"name":"諏訪複合教育施設(多摩市立教育センター)","province":"東京都","city":"多摩市","address":"東京都多摩市諏訪5丁目1","lat":35.623448,"lon":139.454408},{"name":"多摩市立一ノ宮児童館","province":"東京都","city":"多摩市","address":"東京都多摩市一ノ宮1丁目18-7","lat":35.652924,"lon":139.442783},{"name":"多摩市立永山児童館","province":"東京都","city":"多摩市","address":"東京都多摩市永山3丁目6","lat":35.625609,"lon":139.445801},{"name":"多摩市立豊ヶ丘児童館","province":"東京都","city":"多摩市","address":"東京都多摩市豊ヶ丘5丁目6","lat":35.614544,"lon":139.434577},{"name":"多摩市立東寺方児童館","province":"東京都","city":"多摩市","address":"東京都多摩市東寺方626-7","lat":35.64334,"lon":139.43775},{"name":"多摩市立諏訪児童館","province":"東京都","city":"多摩市","address":"東京都多摩市諏訪2丁目8","lat":35.625326,"lon":139.451495},{"name":"多摩市立唐木田児童館","province":"東京都","city":"多摩市","address":"東京都多摩市鶴牧6丁目14","lat":35.61556,"lon":139.413497},{"name":"多摩市子ども家庭支援センター","province":"東京都","city":"多摩市","address":"東京都多摩市豊ヶ丘1丁目21","lat":35.627891,"lon":139.429907},{"name":"多摩市立市民活動・交流センター及び多摩市立多摩ふるさと資料館","province":"東京都","city":"多摩市","address":"東京都多摩市貝取1丁目26-1","lat":35.625158,"lon":139.439951},{"name":"多摩市立総合体育館","province":"東京都","city":"多摩市","address":"東京都多摩市東寺方588-1","lat":35.643633,"lon":139.4365414},{"name":"多摩市立総合体育館","province":"東京都","city":"多摩市","address":"東京都多摩市東寺方588-1","lat":35.643633,"lon":139.4359858},{"name":"多摩市立武道館","province":"東京都","city":"多摩市","address":"東京都多摩市諏訪4丁目9","lat":35.625398,"lon":139.458887},{"name":"多摩市立陸上競技場","province":"東京都","city":"多摩市","address":"東京都多摩市諏訪4丁目9","lat":35.625229,"lon":139.459594},{"name":"多摩市立温水プール（アクアブルー多摩）","province":"東京都","city":"多摩市","address":"東京都多摩市南野3丁目15-2","lat":35.612205,"lon":139.413698},{"name":"多摩市立健康センター","province":"東京都","city":"多摩市","address":"東京都多摩市関戸4丁目19-5","lat":35.6490441,"lon":139.44951119},{"name":"やまと保育園","province":"東京都","city":"多摩市","address":"多摩市和田1534","lat":35.64555,"lon":139.43172},{"name":"多摩保育園","province":"東京都","city":"多摩市","address":"多摩市和田418-1","lat":35.63997,"lon":139.43536},{"name":"桜ヶ丘第一保育園","province":"東京都","city":"多摩市","address":"多摩市和田60-1","lat":35.64292,"lon":139.43488},{"name":"バオバブ保育園","province":"東京都","city":"多摩市","address":"多摩市一ノ宮1-20-3","lat":35.65244,"lon":139.44096},{"name":"バオバブちいさな家保育園","province":"東京都","city":"多摩市","address":"多摩市一ノ宮3-9-1","lat":35.64965,"lon":139.44293},{"name":"関戸みどりの保育園","province":"東京都","city":"多摩市","address":"多摩市関戸2-24-27三ツ木聖蹟桜ヶ丘ビル2F","lat":35.65068,"lon":139.44914},{"name":"やまとさくら保育園","province":"東京都","city":"多摩市","address":"多摩市関戸4-18-2","lat":35.64924,"lon":139.4501},{"name":"みどりの保育園","province":"東京都","city":"多摩市","address":"多摩市連光寺3-57-2","lat":35.64273,"lon":139.45685},{"name":"のびのびっこ保育園","province":"東京都","city":"多摩市","address":"多摩市諏訪1-1-6","lat":35.63499,"lon":139.4494},{"name":"かしのき保育園","province":"東京都","city":"多摩市","address":"多摩市諏訪1-64","lat":35.63107,"lon":139.45009},{"name":"あすのき保育園","province":"東京都","city":"多摩市","address":"多摩市諏訪2-2-B-001ブリリア多摩ニュータウン","lat":35.62539,"lon":139.45236},{"name":"こばと第一保育園","province":"東京都","city":"多摩市","address":"多摩市諏訪4-7","lat":35.62394,"lon":139.45815},{"name":"おだ学園保育園","province":"東京都","city":"多摩市","address":"多摩市永山1-5ベルブ永山209号","lat":35.62847,"lon":139.44868},{"name":"こぐま保育園","province":"東京都","city":"多摩市","address":"多摩市永山3-5","lat":35.62606,"lon":139.44594},{"name":"ゆりのき保育園","province":"東京都","city":"多摩市","address":"多摩市永山4-6","lat":35.62168,"lon":139.44836},{"name":"ピオニイ第二保育園","province":"東京都","city":"多摩市","address":"多摩市豊ヶ丘4-8","lat":35.61532,"lon":139.43524},{"name":"あおぞらぱれっと保育園","province":"東京都","city":"多摩市","address":"多摩市落合1-15-1","lat":35.62578,"lon":139.42897},{"name":"あおぞら保育園","province":"東京都","city":"多摩市","address":"多摩市落合1-5-16","lat":35.62626,"lon":139.42621},{"name":"かおり保育園","province":"東京都","city":"多摩市","address":"多摩市落合4-15","lat":35.61518,"lon":139.43019},{"name":"丘の上アンジュ保育園","province":"東京都","city":"多摩市","address":"多摩市鶴牧3-2ブリリア多摩センター","lat":35.61867,"lon":139.42117},{"name":"こころ保育園","province":"東京都","city":"多摩市","address":"多摩市鶴牧5-5","lat":35.6114,"lon":139.42419},{"name":"りすのき保育園","province":"東京都","city":"多摩市","address":"多摩市唐木田1-8-2","lat":35.61443,"lon":139.41043},{"name":"みさと保育所","province":"東京都","city":"多摩市","address":"多摩市愛宕2-53","lat":35.63513,"lon":139.4379},{"name":"桜ヶ丘記念病院","province":"東京都","city":"多摩市","address":"多摩市連光寺1-1-1","lat":35.64739,"lon":139.45787},{"name":"南多摩保健所","province":"東京都","city":"多摩市","address":"多摩市永山2-1-5","lat":35.62846,"lon":139.44521},{"name":"多摩市立健康センター","province":"東京都","city":"多摩市","address":"多摩市関戸4-19-5","lat":35.64898,"lon":139.44958},{"name":"東京都立多摩総合精神保健福祉センター","province":"東京都","city":"多摩市","address":"多摩市中沢2-1-3","lat":35.62305,"lon":139.41415},{"name":"特定非営利活動法人多摩市身体障害者福祉協会アートひまわり","province":"東京都","city":"多摩市","address":"東京都多摩市南野3丁目15-1","lat":35.61253922,"lon":139.41269633},{"name":"特定非営利活動法人わこうど若人塾","province":"東京都","city":"多摩市","address":"東京都多摩市永山3丁目12-1","lat":35.62115014,"lon":139.44400996},{"name":"特定非営利活動法人ＦｉｌｏＡＲＯＭＡ","province":"東京都","city":"多摩市","address":"東京都多摩市落合1丁目3-7","lat":35.62722115,"lon":139.42870271},{"name":"あおぞらぱれっと保育園","province":"東京都","city":"多摩市","address":"多摩市鶴牧1-11-10","lat":35.62288,"lon":139.41719},{"name":"桜ケ丘記念病院","province":"東京都","city":"多摩市","address":"多摩市連光寺1-1-1","lat":35.64739,"lon":139.45787},{"name":"かおり保育園","province":"東京都","city":"多摩市","address":"多摩市落合4-15","lat":35.61519,"lon":139.43019},{"name":"おだ学園保育園","province":"東京都","city":"多摩市","address":"多摩市永山1-5ベルブ永山209号","lat":35.62847,"lon":139.44869},{"name":"多摩市立健康センター","province":"東京都","city":"多摩市","address":"多摩市関戸4-19-5","lat":35.64898,"lon":139.44959},{"name":"あすのき保育園","province":"東京都","city":"多摩市","address":"多摩市諏訪2-2-B-001ブリリア多摩ニュータウン","lat":35.62708,"lon":139.45039},{"name":"日本医科大学多摩永山病院","province":"東京都","city":"多摩市","address":"東京都多摩市永山1丁目7-1","lat":35.63113783,"lon":139.44665098},{"name":"東京都保健医療公社多摩南部地域病院","province":"東京都","city":"多摩市","address":"東京都多摩市中沢2丁目1-2","lat":35.622938,"lon":139.41525124},{"name":"落合浄水所","province":"東京都","city":"多摩市","address":"東京都多摩市中沢1丁目12","lat":35.62444889,"lon":139.41365963},{"name":"愛宕配水所","province":"東京都","city":"多摩市","address":"東京都多摩市愛宕2丁目51","lat":35.63483719,"lon":139.43953479},{"name":"南野給水所","province":"東京都","city":"多摩市","address":"東京都多摩市南野2丁目16","lat":35.60863738,"lon":139.43101436},{"name":"聖ヶ丘給水所","province":"東京都","city":"多摩市","address":"東京都多摩市聖ヶ丘4丁目1","lat":35.62952201,"lon":139.46372188},{"name":"多摩市立多摩市東公園陸上競技場","province":"東京都","city":"多摩市","address":"東京都多摩市諏訪4丁目9","lat":35.62459204,"lon":139.46102787},{"name":"多摩市立関戸公園グラウンド","province":"東京都","city":"多摩市","address":"東京都多摩市関戸3丁目5","lat":35.65016368,"lon":139.45949912},{"name":"宝野公園","province":"東京都","city":"多摩市","address":"東京都多摩市落合5丁目5","lat":35.61428925,"lon":139.42303984},{"name":"多摩市選挙管理委員会","province":"東京都","city":"多摩市","address":"多摩市関戸6-12-1","lat":35.637126,"lon":139.446269},{"name":"南多摩保健所","province":"東京都","city":"多摩市","address":"東京都多摩市永山2丁目1-5","lat":35.62794936,"lon":139.44743715},{"name":"多摩ニュータウン市場","province":"東京都","city":"多摩市","address":"東京都多摩市永山7丁目4","lat":35.60927671,"lon":139.44523259},{"name":"永山高等学校","province":"東京都","city":"多摩市","address":"東京都多摩市永山5丁目22","lat":35.61369294,"lon":139.44800719},{"name":"多摩市立武道館・陸上競技場","province":"東京都","city":"多摩市","address":"東京都多摩市諏訪4丁目9","lat":35.62459204,"lon":139.46102787},{"name":"多摩市本庁舎","province":"東京都","city":"多摩市","address":"多摩市関戸6-12-1","lat":35.63776,"lon":139.44689},{"name":"東京ガス（株）多摩備蓄倉庫","province":"東京都","city":"多摩市","address":"多摩市唐木田2-2","lat":35.61162,"lon":139.405},{"name":"多摩清掃工場","province":"東京都","city":"多摩市","address":"多摩市唐木田2-1-1","lat":35.612419,"lon":139.409958},{"name":"桜ヶ丘第一保育園","province":"東京都","city":"多摩市","address":"多摩市和田60-1","lat":35.643083,"lon":139.435118},{"name":"やまと保育園","province":"東京都","city":"多摩市","address":"多摩市和田1534","lat":35.645586,"lon":139.431568},{"name":"多摩保育園","province":"東京都","city":"多摩市","address":"多摩市和田418-1","lat":35.639823,"lon":139.435399},{"name":"バオバブ保育園","province":"東京都","city":"多摩市","address":"多摩市一ノ宮1-20-3","lat":35.652341,"lon":139.441517},{"name":"バオバブちいさな家保育園","province":"東京都","city":"多摩市","address":"多摩市一ノ宮3-9-1","lat":35.649855,"lon":139.443237},{"name":"貝取保育園","province":"東京都","city":"多摩市","address":"多摩市貝取4-10","lat":35.614365,"lon":139.440169},{"name":"みどりの保育園","province":"東京都","city":"多摩市","address":"多摩市連光寺3-57-2","lat":35.642548,"lon":139.4569},{"name":"かしのき保育園","province":"東京都","city":"多摩市","address":"多摩市諏訪1-64","lat":35.630985,"lon":139.449759},{"name":"こばと第一保育園","province":"東京都","city":"多摩市","address":"多摩市諏訪4-7","lat":35.623814,"lon":139.458353},{"name":"のびのびっこ保育園","province":"東京都","city":"多摩市","address":"多摩市諏訪1-1-6","lat":35.635007,"lon":139.44942},{"name":"あすのき保育園","province":"東京都","city":"多摩市","address":"多摩市諏訪2-2-B-001ブリリア多摩ニュータウン","lat":35.625667,"lon":139.452556},{"name":"こぐま保育園","province":"東京都","city":"多摩市","address":"多摩市永山3-5","lat":35.626091,"lon":139.445948},{"name":"ゆりのき保育園","province":"東京都","city":"多摩市","address":"多摩市永山4-6","lat":35.621634,"lon":139.448323},{"name":"ピオニイ第二保育園","province":"東京都","city":"多摩市","address":"多摩市豊ヶ丘4-8","lat":35.615203,"lon":139.435292},{"name":"かおり保育園","province":"東京都","city":"多摩市","address":"多摩市落合4-15","lat":35.615128,"lon":139.430239},{"name":"あおぞら保育園","province":"東京都","city":"多摩市","address":"多摩市落合1-5-16","lat":35.626332,"lon":139.426675},{"name":"こころ保育園","province":"東京都","city":"多摩市","address":"多摩市鶴牧5-5","lat":35.611229,"lon":139.424157},{"name":"丘の上アンジュ保育園","province":"東京都","city":"多摩市","address":"多摩市鶴牧3-2ブリリア多摩センター","lat":35.618764,"lon":139.421093},{"name":"りすのき保育園","province":"東京都","city":"多摩市","address":"多摩市唐木田1-8-2","lat":35.614761,"lon":139.409199},{"name":"みさと保育所","province":"東京都","city":"多摩市","address":"多摩市愛宕2-53","lat":35.635068,"lon":139.437185},{"name":"南多摩保健所","province":"東京都","city":"多摩市","address":"多摩市永山2-1-5","lat":35.627949,"lon":139.447437},{"name":"やまと保育園","province":"東京都","city":"多摩市","address":"多摩市和田1534","lat":35.64555,"lon":139.43172},{"name":"多摩保育園","province":"東京都","city":"多摩市","address":"多摩市和田418-1","lat":35.63997,"lon":139.43536},{"name":"桜ヶ丘第一保育園","province":"東京都","city":"多摩市","address":"多摩市和田60-1","lat":35.64292,"lon":139.43488},{"name":"バオバブ保育園","province":"東京都","city":"多摩市","address":"多摩市一ノ宮1-20-3","lat":35.65244,"lon":139.44096},{"name":"バオバブちいさな家保育園","province":"東京都","city":"多摩市","address":"多摩市一ノ宮3-9-1","lat":35.64965,"lon":139.44293},{"name":"関戸みどりの保育園","province":"東京都","city":"多摩市","address":"多摩市関戸2-24-27三ツ木聖蹟桜ヶ丘ビル2F","lat":35.65068,"lon":139.44914},{"name":"やまとさくら保育園","province":"東京都","city":"多摩市","address":"多摩市関戸4-18-2","lat":35.64924,"lon":139.4501},{"name":"みどりの保育園","province":"東京都","city":"多摩市","address":"多摩市連光寺3-57-2","lat":35.64273,"lon":139.45685},{"name":"のびのびっこ保育園","province":"東京都","city":"多摩市","address":"多摩市諏訪1-1-6","lat":35.63499,"lon":139.4494},{"name":"かしのき保育園","province":"東京都","city":"多摩市","address":"多摩市諏訪1-64","lat":35.63107,"lon":139.45009},{"name":"あすのき保育園","province":"東京都","city":"多摩市","address":"多摩市諏訪2-2-B-001ブリリア多摩ニュータウン","lat":35.62539,"lon":139.45236},{"name":"こばと第一保育園","province":"東京都","city":"多摩市","address":"多摩市諏訪4-7","lat":35.62394,"lon":139.45815},{"name":"おだ学園保育園","province":"東京都","city":"多摩市","address":"多摩市永山1-5ベルブ永山209号","lat":35.62847,"lon":139.44868},{"name":"こぐま保育園","province":"東京都","city":"多摩市","address":"多摩市永山3-5","lat":35.62606,"lon":139.44594},{"name":"ゆりのき保育園","province":"東京都","city":"多摩市","address":"多摩市永山4-6","lat":35.62168,"lon":139.44836},{"name":"ピオニイ第二保育園","province":"東京都","city":"多摩市","address":"多摩市豊ヶ丘4-8","lat":35.61532,"lon":139.43524},{"name":"あおぞらぱれっと保育園","province":"東京都","city":"多摩市","address":"多摩市落合1-15-1","lat":35.62578,"lon":139.42897},{"name":"あおぞら保育園","province":"東京都","city":"多摩市","address":"多摩市落合1-5-16","lat":35.62626,"lon":139.42621},{"name":"かおり保育園","province":"東京都","city":"多摩市","address":"多摩市落合4-15","lat":35.61518,"lon":139.43019},{"name":"丘の上アンジュ保育園","province":"東京都","city":"多摩市","address":"多摩市鶴牧3-2ブリリア多摩センター","lat":35.61867,"lon":139.42117},{"name":"こころ保育園","province":"東京都","city":"多摩市","address":"多摩市鶴牧5-5","lat":35.6114,"lon":139.42419},{"name":"りすのき保育園","province":"東京都","city":"多摩市","address":"多摩市唐木田1-8-2","lat":35.61443,"lon":139.41043},{"name":"みさと保育所","province":"東京都","city":"多摩市","address":"多摩市愛宕2-53","lat":35.63513,"lon":139.4379},{"name":"桜ヶ丘記念病院","province":"東京都","city":"多摩市","address":"多摩市連光寺1-1-1","lat":35.64739,"lon":139.45787},{"name":"南多摩保健所","province":"東京都","city":"多摩市","address":"多摩市永山2-1-5","lat":35.62846,"lon":139.44521},{"name":"特定非営利活動法人多摩市身体障害者福祉協会アートひまわり","province":"東京都","city":"多摩市","address":"東京都多摩市南野3丁目15-1","lat":35.61253922,"lon":139.41269633},{"name":"特定非営利活動法人わこうど若人塾","province":"東京都","city":"多摩市","address":"東京都多摩市永山3丁目12-1","lat":35.62115014,"lon":139.44400996},{"name":"特定非営利活動法人ＦｉｌｏＡＲＯＭＡ","province":"東京都","city":"多摩市","address":"東京都多摩市落合1丁目3-7","lat":35.62722115,"lon":139.42870271},{"name":"あおぞらぱれっと保育園","province":"東京都","city":"多摩市","address":"多摩市鶴牧1-11-10","lat":35.62288,"lon":139.41719},{"name":"桜ケ丘記念病院","province":"東京都","city":"多摩市","address":"多摩市連光寺1-1-1","lat":35.64739,"lon":139.45787},{"name":"かおり保育園","province":"東京都","city":"多摩市","address":"多摩市落合4-15","lat":35.61519,"lon":139.43019},{"name":"おだ学園保育園","province":"東京都","city":"多摩市","address":"多摩市永山1-5ベルブ永山209号","lat":35.62847,"lon":139.44869},{"name":"あすのき保育園","province":"東京都","city":"多摩市","address":"多摩市諏訪2-2-B-001ブリリア多摩ニュータウン","lat":35.62708,"lon":139.45039},{"name":"落合浄水所","province":"東京都","city":"多摩市","address":"東京都多摩市中沢1丁目12","lat":35.62444889,"lon":139.41365963},{"name":"愛宕配水所","province":"東京都","city":"多摩市","address":"東京都多摩市愛宕2丁目51","lat":35.63483719,"lon":139.43953479},{"name":"南野給水所","province":"東京都","city":"多摩市","address":"東京都多摩市南野2丁目16","lat":35.60863738,"lon":139.43101436},{"name":"聖ヶ丘給水所","province":"東京都","city":"多摩市","address":"東京都多摩市聖ヶ丘4丁目1","lat":35.62952201,"lon":139.46372188},{"name":"多摩市立多摩市東公園陸上競技場","province":"東京都","city":"多摩市","address":"東京都多摩市諏訪4丁目9","lat":35.62459204,"lon":139.46102787},{"name":"多摩市立関戸公園グラウンド","province":"東京都","city":"多摩市","address":"東京都多摩市関戸3丁目5","lat":35.65016368,"lon":139.45949912},{"name":"宝野公園","province":"東京都","city":"多摩市","address":"東京都多摩市落合5丁目5","lat":35.61428925,"lon":139.42303984},{"name":"多摩市選挙管理委員会","province":"東京都","city":"多摩市","address":"多摩市関戸6-12-1","lat":35.637126,"lon":139.446269},{"name":"多摩ニュータウン市場","province":"東京都","city":"多摩市","address":"東京都多摩市永山7丁目4","lat":35.60927671,"lon":139.44523259},{"name":"永山高等学校","province":"東京都","city":"多摩市","address":"東京都多摩市永山5丁目22","lat":35.61369294,"lon":139.44800719},{"name":"多摩市立武道館・陸上競技場","province":"東京都","city":"多摩市","address":"東京都多摩市諏訪4丁目9","lat":35.62459204,"lon":139.46102787},{"name":"多摩市本庁舎","province":"東京都","city":"多摩市","address":"多摩市関戸6-12-1","lat":35.63776,"lon":139.44689},{"name":"東京ガス（株）多摩備蓄倉庫","province":"東京都","city":"多摩市","address":"多摩市唐木田2-2","lat":35.61162,"lon":139.405},{"name":"桜ヶ丘第一保育園","province":"東京都","city":"多摩市","address":"多摩市和田60-1","lat":35.643083,"lon":139.435118},{"name":"やまと保育園","province":"東京都","city":"多摩市","address":"多摩市和田1534","lat":35.645586,"lon":139.431568},{"name":"多摩保育園","province":"東京都","city":"多摩市","address":"多摩市和田418-1","lat":35.639823,"lon":139.435399},{"name":"バオバブ保育園","province":"東京都","city":"多摩市","address":"多摩市一ノ宮1-20-3","lat":35.652341,"lon":139.441517},{"name":"バオバブちいさな家保育園","province":"東京都","city":"多摩市","address":"多摩市一ノ宮3-9-1","lat":35.649855,"lon":139.443237},{"name":"貝取保育園","province":"東京都","city":"多摩市","address":"多摩市貝取4-10","lat":35.614365,"lon":139.440169},{"name":"みどりの保育園","province":"東京都","city":"多摩市","address":"多摩市連光寺3-57-2","lat":35.642548,"lon":139.4569},{"name":"かしのき保育園","province":"東京都","city":"多摩市","address":"多摩市諏訪1-64","lat":35.630985,"lon":139.449759},{"name":"こばと第一保育園","province":"東京都","city":"多摩市","address":"多摩市諏訪4-7","lat":35.623814,"lon":139.458353},{"name":"のびのびっこ保育園","province":"東京都","city":"多摩市","address":"多摩市諏訪1-1-6","lat":35.635007,"lon":139.44942},{"name":"あすのき保育園","province":"東京都","city":"多摩市","address":"多摩市諏訪2-2-B-001ブリリア多摩ニュータウン","lat":35.625667,"lon":139.452556},{"name":"こぐま保育園","province":"東京都","city":"多摩市","address":"多摩市永山3-5","lat":35.626091,"lon":139.445948},{"name":"ゆりのき保育園","province":"東京都","city":"多摩市","address":"多摩市永山4-6","lat":35.621634,"lon":139.448323},{"name":"ピオニイ第二保育園","province":"東京都","city":"多摩市","address":"多摩市豊ヶ丘4-8","lat":35.615203,"lon":139.435292},{"name":"かおり保育園","province":"東京都","city":"多摩市","address":"多摩市落合4-15","lat":35.615128,"lon":139.430239},{"name":"あおぞら保育園","province":"東京都","city":"多摩市","address":"多摩市落合1-5-16","lat":35.626332,"lon":139.426675},{"name":"こころ保育園","province":"東京都","city":"多摩市","address":"多摩市鶴牧5-5","lat":35.611229,"lon":139.424157},{"name":"丘の上アンジュ保育園","province":"東京都","city":"多摩市","address":"多摩市鶴牧3-2ブリリア多摩センター","lat":35.618764,"lon":139.421093},{"name":"りすのき保育園","province":"東京都","city":"多摩市","address":"多摩市唐木田1-8-2","lat":35.614761,"lon":139.409199},{"name":"みさと保育所","province":"東京都","city":"多摩市","address":"多摩市愛宕2-53","lat":35.635068,"lon":139.437185},{"name":"南多摩保健所","province":"東京都","city":"多摩市","address":"多摩市永山2-1-5","lat":35.627949,"lon":139.447437},{"name":"やまと保育園","province":"東京都","city":"多摩市","address":"多摩市和田1534","lat":35.64555,"lon":139.43172},{"name":"多摩保育園","province":"東京都","city":"多摩市","address":"多摩市和田418-1","lat":35.63997,"lon":139.43536},{"name":"桜ヶ丘第一保育園","province":"東京都","city":"多摩市","address":"多摩市和田60-1","lat":35.64292,"lon":139.43488},{"name":"バオバブ保育園","province":"東京都","city":"多摩市","address":"多摩市一ノ宮1-20-3","lat":35.65244,"lon":139.44096},{"name":"バオバブちいさな家保育園","province":"東京都","city":"多摩市","address":"多摩市一ノ宮3-9-1","lat":35.64965,"lon":139.44293},{"name":"関戸みどりの保育園","province":"東京都","city":"多摩市","address":"多摩市関戸2-24-27三ツ木聖蹟桜ヶ丘ビル2F","lat":35.65068,"lon":139.44914},{"name":"やまとさくら保育園","province":"東京都","city":"多摩市","address":"多摩市関戸4-18-2","lat":35.64924,"lon":139.4501},{"name":"みどりの保育園","province":"東京都","city":"多摩市","address":"多摩市連光寺3-57-2","lat":35.64273,"lon":139.45685},{"name":"のびのびっこ保育園","province":"東京都","city":"多摩市","address":"多摩市諏訪1-1-6","lat":35.63499,"lon":139.4494},{"name":"かしのき保育園","province":"東京都","city":"多摩市","address":"多摩市諏訪1-64","lat":35.63107,"lon":139.45009},{"name":"あすのき保育園","province":"東京都","city":"多摩市","address":"多摩市諏訪2-2-B-001ブリリア多摩ニュータウン","lat":35.62539,"lon":139.45236},{"name":"こばと第一保育園","province":"東京都","city":"多摩市","address":"多摩市諏訪4-7","lat":35.62394,"lon":139.45815},{"name":"おだ学園保育園","province":"東京都","city":"多摩市","address":"多摩市永山1-5ベルブ永山209号","lat":35.62847,"lon":139.44868},{"name":"こぐま保育園","province":"東京都","city":"多摩市","address":"多摩市永山3-5","lat":35.62606,"lon":139.44594},{"name":"ゆりのき保育園","province":"東京都","city":"多摩市","address":"多摩市永山4-6","lat":35.62168,"lon":139.44836},{"name":"ピオニイ第二保育園","province":"東京都","city":"多摩市","address":"多摩市豊ヶ丘4-8","lat":35.61532,"lon":139.43524},{"name":"あおぞらぱれっと保育園","province":"東京都","city":"多摩市","address":"多摩市落合1-15-1","lat":35.62578,"lon":139.42897},{"name":"あおぞら保育園","province":"東京都","city":"多摩市","address":"多摩市落合1-5-16","lat":35.62626,"lon":139.42621},{"name":"かおり保育園","province":"東京都","city":"多摩市","address":"多摩市落合4-15","lat":35.61518,"lon":139.43019},{"name":"丘の上アンジュ保育園","province":"東京都","city":"多摩市","address":"多摩市鶴牧3-2ブリリア多摩センター","lat":35.61867,"lon":139.42117},{"name":"こころ保育園","province":"東京都","city":"多摩市","address":"多摩市鶴牧5-5","lat":35.6114,"lon":139.42419},{"name":"りすのき保育園","province":"東京都","city":"多摩市","address":"多摩市唐木田1-8-2","lat":35.61443,"lon":139.41043},{"name":"みさと保育所","province":"東京都","city":"多摩市","address":"多摩市愛宕2-53","lat":35.63513,"lon":139.4379},{"name":"桜ヶ丘記念病院","province":"東京都","city":"多摩市","address":"多摩市連光寺1-1-1","lat":35.64739,"lon":139.45787},{"name":"南多摩保健所","province":"東京都","city":"多摩市","address":"多摩市永山2-1-5","lat":35.62846,"lon":139.44521},{"name":"特定非営利活動法人多摩市身体障害者福祉協会アートひまわり","province":"東京都","city":"多摩市","address":"東京都多摩市南野3丁目15-1","lat":35.61253922,"lon":139.41269633},{"name":"特定非営利活動法人わこうど若人塾","province":"東京都","city":"多摩市","address":"東京都多摩市永山3丁目12-1","lat":35.62115014,"lon":139.44400996},{"name":"特定非営利活動法人ＦｉｌｏＡＲＯＭＡ","province":"東京都","city":"多摩市","address":"東京都多摩市落合1丁目3-7","lat":35.62722115,"lon":139.42870271},{"name":"あおぞらぱれっと保育園","province":"東京都","city":"多摩市","address":"多摩市鶴牧1-11-10","lat":35.62288,"lon":139.41719},{"name":"桜ケ丘記念病院","province":"東京都","city":"多摩市","address":"多摩市連光寺1-1-1","lat":35.64739,"lon":139.45787},{"name":"かおり保育園","province":"東京都","city":"多摩市","address":"多摩市落合4-15","lat":35.61519,"lon":139.43019},{"name":"おだ学園保育園","province":"東京都","city":"多摩市","address":"多摩市永山1-5ベルブ永山209号","lat":35.62847,"lon":139.44869},{"name":"あすのき保育園","province":"東京都","city":"多摩市","address":"多摩市諏訪2-2-B-001ブリリア多摩ニュータウン","lat":35.62708,"lon":139.45039},{"name":"多摩市立武道館・陸上競技場","province":"東京都","city":"多摩市","address":"東京都多摩市諏訪4丁目9","lat":35.62459204,"lon":139.46102787},{"name":"多摩市本庁舎","province":"東京都","city":"多摩市","address":"多摩市関戸6-12-1","lat":35.63776,"lon":139.44689},{"name":"東京ガス（株）多摩備蓄倉庫","province":"東京都","city":"多摩市","address":"多摩市唐木田2-2","lat":35.61162,"lon":139.405},{"name":"桜ヶ丘第一保育園","province":"東京都","city":"多摩市","address":"多摩市和田60-1","lat":35.643083,"lon":139.435118},{"name":"やまと保育園","province":"東京都","city":"多摩市","address":"多摩市和田1534","lat":35.645586,"lon":139.431568},{"name":"多摩保育園","province":"東京都","city":"多摩市","address":"多摩市和田418-1","lat":35.639823,"lon":139.435399},{"name":"バオバブ保育園","province":"東京都","city":"多摩市","address":"多摩市一ノ宮1-20-3","lat":35.652341,"lon":139.441517},{"name":"バオバブちいさな家保育園","province":"東京都","city":"多摩市","address":"多摩市一ノ宮3-9-1","lat":35.649855,"lon":139.443237},{"name":"貝取保育園","province":"東京都","city":"多摩市","address":"多摩市貝取4-10","lat":35.614365,"lon":139.440169},{"name":"みどりの保育園","province":"東京都","city":"多摩市","address":"多摩市連光寺3-57-2","lat":35.642548,"lon":139.4569},{"name":"かしのき保育園","province":"東京都","city":"多摩市","address":"多摩市諏訪1-64","lat":35.630985,"lon":139.449759},{"name":"こばと第一保育園","province":"東京都","city":"多摩市","address":"多摩市諏訪4-7","lat":35.623814,"lon":139.458353},{"name":"のびのびっこ保育園","province":"東京都","city":"多摩市","address":"多摩市諏訪1-1-6","lat":35.635007,"lon":139.44942},{"name":"あすのき保育園","province":"東京都","city":"多摩市","address":"多摩市諏訪2-2-B-001ブリリア多摩ニュータウン","lat":35.625667,"lon":139.452556},{"name":"こぐま保育園","province":"東京都","city":"多摩市","address":"多摩市永山3-5","lat":35.626091,"lon":139.445948},{"name":"ゆりのき保育園","province":"東京都","city":"多摩市","address":"多摩市永山4-6","lat":35.621634,"lon":139.448323},{"name":"ピオニイ第二保育園","province":"東京都","city":"多摩市","address":"多摩市豊ヶ丘4-8","lat":35.615203,"lon":139.435292},{"name":"かおり保育園","province":"東京都","city":"多摩市","address":"多摩市落合4-15","lat":35.615128,"lon":139.430239},{"name":"あおぞら保育園","province":"東京都","city":"多摩市","address":"多摩市落合1-5-16","lat":35.626332,"lon":139.426675},{"name":"こころ保育園","province":"東京都","city":"多摩市","address":"多摩市鶴牧5-5","lat":35.611229,"lon":139.424157},{"name":"丘の上アンジュ保育園","province":"東京都","city":"多摩市","address":"多摩市鶴牧3-2ブリリア多摩センター","lat":35.618764,"lon":139.421093},{"name":"りすのき保育園","province":"東京都","city":"多摩市","address":"多摩市唐木田1-8-2","lat":35.614761,"lon":139.409199},{"name":"みさと保育所","province":"東京都","city":"多摩市","address":"多摩市愛宕2-53","lat":35.635068,"lon":139.437185},{"name":"南多摩保健所","province":"東京都","city":"多摩市","address":"多摩市永山2-1-5","lat":35.627949,"lon":139.447437},{"name":"やまと保育園","province":"東京都","city":"多摩市","address":"多摩市和田1534","lat":35.64555,"lon":139.43172},{"name":"多摩保育園","province":"東京都","city":"多摩市","address":"多摩市和田418-1","lat":35.63997,"lon":139.43536},{"name":"桜ヶ丘第一保育園","province":"東京都","city":"多摩市","address":"多摩市和田60-1","lat":35.64292,"lon":139.43488},{"name":"バオバブ保育園","province":"東京都","city":"多摩市","address":"多摩市一ノ宮1-20-3","lat":35.65244,"lon":139.44096},{"name":"バオバブちいさな家保育園","province":"東京都","city":"多摩市","address":"多摩市一ノ宮3-9-1","lat":35.64965,"lon":139.44293},{"name":"関戸みどりの保育園","province":"東京都","city":"多摩市","address":"多摩市関戸2-24-27三ツ木聖蹟桜ヶ丘ビル2F","lat":35.65068,"lon":139.44914},{"name":"やまとさくら保育園","province":"東京都","city":"多摩市","address":"多摩市関戸4-18-2","lat":35.64924,"lon":139.4501},{"name":"みどりの保育園","province":"東京都","city":"多摩市","address":"多摩市連光寺3-57-2","lat":35.64273,"lon":139.45685},{"name":"のびのびっこ保育園","province":"東京都","city":"多摩市","address":"多摩市諏訪1-1-6","lat":35.63499,"lon":139.4494},{"name":"かしのき保育園","province":"東京都","city":"多摩市","address":"多摩市諏訪1-64","lat":35.63107,"lon":139.45009},{"name":"あすのき保育園","province":"東京都","city":"多摩市","address":"多摩市諏訪2-2-B-001ブリリア多摩ニュータウン","lat":35.62539,"lon":139.45236},{"name":"こばと第一保育園","province":"東京都","city":"多摩市","address":"多摩市諏訪4-7","lat":35.62394,"lon":139.45815},{"name":"おだ学園保育園","province":"東京都","city":"多摩市","address":"多摩市永山1-5ベルブ永山209号","lat":35.62847,"lon":139.44868},{"name":"こぐま保育園","province":"東京都","city":"多摩市","address":"多摩市永山3-5","lat":35.62606,"lon":139.44594},{"name":"ゆりのき保育園","province":"東京都","city":"多摩市","address":"多摩市永山4-6","lat":35.62168,"lon":139.44836},{"name":"ピオニイ第二保育園","province":"東京都","city":"多摩市","address":"多摩市豊ヶ丘4-8","lat":35.61532,"lon":139.43524},{"name":"あおぞらぱれっと保育園","province":"東京都","city":"多摩市","address":"多摩市落合1-15-1","lat":35.62578,"lon":139.42897},{"name":"あおぞら保育園","province":"東京都","city":"多摩市","address":"多摩市落合1-5-16","lat":35.62626,"lon":139.42621},{"name":"かおり保育園","province":"東京都","city":"多摩市","address":"多摩市落合4-15","lat":35.61518,"lon":139.43019},{"name":"丘の上アンジュ保育園","province":"東京都","city":"多摩市","address":"多摩市鶴牧3-2ブリリア多摩センター","lat":35.61867,"lon":139.42117},{"name":"こころ保育園","province":"東京都","city":"多摩市","address":"多摩市鶴牧5-5","lat":35.6114,"lon":139.42419},{"name":"りすのき保育園","province":"東京都","city":"多摩市","address":"多摩市唐木田1-8-2","lat":35.61443,"lon":139.41043},{"name":"みさと保育所","province":"東京都","city":"多摩市","address":"多摩市愛宕2-53","lat":35.63513,"lon":139.4379},{"name":"桜ヶ丘記念病院","province":"東京都","city":"多摩市","address":"多摩市連光寺1-1-1","lat":35.64739,"lon":139.45787},{"name":"南多摩保健所","province":"東京都","city":"多摩市","address":"多摩市永山2-1-5","lat":35.62846,"lon":139.44521},{"name":"特定非営利活動法人多摩市身体障害者福祉協会アートひまわり","province":"東京都","city":"多摩市","address":"東京都多摩市南野3丁目15-1","lat":35.61253922,"lon":139.41269633},{"name":"特定非営利活動法人わこうど若人塾","province":"東京都","city":"多摩市","address":"東京都多摩市永山3丁目12-1","lat":35.62115014,"lon":139.44400996},{"name":"特定非営利活動法人ＦｉｌｏＡＲＯＭＡ","province":"東京都","city":"多摩市","address":"東京都多摩市落合1丁目3-7","lat":35.62722115,"lon":139.42870271},{"name":"あおぞらぱれっと保育園","province":"東京都","city":"多摩市","address":"多摩市鶴牧1-11-10","lat":35.62288,"lon":139.41719},{"name":"桜ケ丘記念病院","province":"東京都","city":"多摩市","address":"多摩市連光寺1-1-1","lat":35.64739,"lon":139.45787},{"name":"かおり保育園","province":"東京都","city":"多摩市","address":"多摩市落合4-15","lat":35.61519,"lon":139.43019},{"name":"おだ学園保育園","province":"東京都","city":"多摩市","address":"多摩市永山1-5ベルブ永山209号","lat":35.62847,"lon":139.44869},{"name":"あすのき保育園","province":"東京都","city":"多摩市","address":"多摩市諏訪2-2-B-001ブリリア多摩ニュータウン","lat":35.62708,"lon":139.45039},{"name":"多摩市立武道館・陸上競技場","province":"東京都","city":"多摩市","address":"東京都多摩市諏訪4丁目9","lat":35.62459204,"lon":139.46102787},{"name":"東京ガス（株）多摩備蓄倉庫","province":"東京都","city":"多摩市","address":"多摩市唐木田2-2","lat":35.61162,"lon":139.405},{"name":"桜ヶ丘第一保育園","province":"東京都","city":"多摩市","address":"多摩市和田60-1","lat":35.643083,"lon":139.435118},{"name":"やまと保育園","province":"東京都","city":"多摩市","address":"多摩市和田1534","lat":35.645586,"lon":139.431568},{"name":"多摩保育園","province":"東京都","city":"多摩市","address":"多摩市和田418-1","lat":35.639823,"lon":139.435399},{"name":"バオバブ保育園","province":"東京都","city":"多摩市","address":"多摩市一ノ宮1-20-3","lat":35.652341,"lon":139.441517},{"name":"バオバブちいさな家保育園","province":"東京都","city":"多摩市","address":"多摩市一ノ宮3-9-1","lat":35.649855,"lon":139.443237},{"name":"貝取保育園","province":"東京都","city":"多摩市","address":"多摩市貝取4-10","lat":35.614365,"lon":139.440169},{"name":"みどりの保育園","province":"東京都","city":"多摩市","address":"多摩市連光寺3-57-2","lat":35.642548,"lon":139.4569},{"name":"かしのき保育園","province":"東京都","city":"多摩市","address":"多摩市諏訪1-64","lat":35.630985,"lon":139.449759},{"name":"こばと第一保育園","province":"東京都","city":"多摩市","address":"多摩市諏訪4-7","lat":35.623814,"lon":139.458353},{"name":"のびのびっこ保育園","province":"東京都","city":"多摩市","address":"多摩市諏訪1-1-6","lat":35.635007,"lon":139.44942},{"name":"あすのき保育園","province":"東京都","city":"多摩市","address":"多摩市諏訪2-2-B-001ブリリア多摩ニュータウン","lat":35.625667,"lon":139.452556},{"name":"こぐま保育園","province":"東京都","city":"多摩市","address":"多摩市永山3-5","lat":35.626091,"lon":139.445948},{"name":"ゆりのき保育園","province":"東京都","city":"多摩市","address":"多摩市永山4-6","lat":35.621634,"lon":139.448323},{"name":"ピオニイ第二保育園","province":"東京都","city":"多摩市","address":"多摩市豊ヶ丘4-8","lat":35.615203,"lon":139.435292},{"name":"かおり保育園","province":"東京都","city":"多摩市","address":"多摩市落合4-15","lat":35.615128,"lon":139.430239},{"name":"あおぞら保育園","province":"東京都","city":"多摩市","address":"多摩市落合1-5-16","lat":35.626332,"lon":139.426675},{"name":"こころ保育園","province":"東京都","city":"多摩市","address":"多摩市鶴牧5-5","lat":35.611229,"lon":139.424157},{"name":"丘の上アンジュ保育園","province":"東京都","city":"多摩市","address":"多摩市鶴牧3-2ブリリア多摩センター","lat":35.618764,"lon":139.421093},{"name":"りすのき保育園","province":"東京都","city":"多摩市","address":"多摩市唐木田1-8-2","lat":35.614761,"lon":139.409199},{"name":"みさと保育所","province":"東京都","city":"多摩市","address":"多摩市愛宕2-53","lat":35.635068,"lon":139.437185},{"name":"南多摩保健所","province":"東京都","city":"多摩市","address":"多摩市永山2-1-5","lat":35.627949,"lon":139.447437},{"name":"やまと保育園","province":"東京都","city":"多摩市","address":"多摩市和田1534","lat":35.64555,"lon":139.43172},{"name":"多摩保育園","province":"東京都","city":"多摩市","address":"多摩市和田418-1","lat":35.63997,"lon":139.43536},{"name":"桜ヶ丘第一保育園","province":"東京都","city":"多摩市","address":"多摩市和田60-1","lat":35.64292,"lon":139.43488},{"name":"バオバブ保育園","province":"東京都","city":"多摩市","address":"多摩市一ノ宮1-20-3","lat":35.65244,"lon":139.44096},{"name":"バオバブちいさな家保育園","province":"東京都","city":"多摩市","address":"多摩市一ノ宮3-9-1","lat":35.64965,"lon":139.44293},{"name":"関戸みどりの保育園","province":"東京都","city":"多摩市","address":"多摩市関戸2-24-27三ツ木聖蹟桜ヶ丘ビル2F","lat":35.65068,"lon":139.44914},{"name":"やまとさくら保育園","province":"東京都","city":"多摩市","address":"多摩市関戸4-18-2","lat":35.64924,"lon":139.4501},{"name":"みどりの保育園","province":"東京都","city":"多摩市","address":"多摩市連光寺3-57-2","lat":35.64273,"lon":139.45685},{"name":"のびのびっこ保育園","province":"東京都","city":"多摩市","address":"多摩市諏訪1-1-6","lat":35.63499,"lon":139.4494},{"name":"かしのき保育園","province":"東京都","city":"多摩市","address":"多摩市諏訪1-64","lat":35.63107,"lon":139.45009},{"name":"あすのき保育園","province":"東京都","city":"多摩市","address":"多摩市諏訪2-2-B-001ブリリア多摩ニュータウン","lat":35.62539,"lon":139.45236},{"name":"こばと第一保育園","province":"東京都","city":"多摩市","address":"多摩市諏訪4-7","lat":35.62394,"lon":139.45815},{"name":"おだ学園保育園","province":"東京都","city":"多摩市","address":"多摩市永山1-5ベルブ永山209号","lat":35.62847,"lon":139.44868},{"name":"こぐま保育園","province":"東京都","city":"多摩市","address":"多摩市永山3-5","lat":35.62606,"lon":139.44594},{"name":"ゆりのき保育園","province":"東京都","city":"多摩市","address":"多摩市永山4-6","lat":35.62168,"lon":139.44836},{"name":"ピオニイ第二保育園","province":"東京都","city":"多摩市","address":"多摩市豊ヶ丘4-8","lat":35.61532,"lon":139.43524},{"name":"あおぞらぱれっと保育園","province":"東京都","city":"多摩市","address":"多摩市落合1-15-1","lat":35.62578,"lon":139.42897},{"name":"あおぞら保育園","province":"東京都","city":"多摩市","address":"多摩市落合1-5-16","lat":35.62626,"lon":139.42621},{"name":"かおり保育園","province":"東京都","city":"多摩市","address":"多摩市落合4-15","lat":35.61518,"lon":139.43019},{"name":"丘の上アンジュ保育園","province":"東京都","city":"多摩市","address":"多摩市鶴牧3-2ブリリア多摩センター","lat":35.61867,"lon":139.42117},{"name":"こころ保育園","province":"東京都","city":"多摩市","address":"多摩市鶴牧5-5","lat":35.6114,"lon":139.42419},{"name":"りすのき保育園","province":"東京都","city":"多摩市","address":"多摩市唐木田1-8-2","lat":35.61443,"lon":139.41043},{"name":"みさと保育所","province":"東京都","city":"多摩市","address":"多摩市愛宕2-53","lat":35.63513,"lon":139.4379},{"name":"桜ヶ丘記念病院","province":"東京都","city":"多摩市","address":"多摩市連光寺1-1-1","lat":35.64739,"lon":139.45787},{"name":"南多摩保健所","province":"東京都","city":"多摩市","address":"多摩市永山2-1-5","lat":35.62846,"lon":139.44521},{"name":"特定非営利活動法人多摩市身体障害者福祉協会アートひまわり","province":"東京都","city":"多摩市","address":"東京都多摩市南野3丁目15-1","lat":35.61253922,"lon":139.41269633},{"name":"特定非営利活動法人わこうど若人塾","province":"東京都","city":"多摩市","address":"東京都多摩市永山3丁目12-1","lat":35.62115014,"lon":139.44400996},{"name":"特定非営利活動法人ＦｉｌｏＡＲＯＭＡ","province":"東京都","city":"多摩市","address":"東京都多摩市落合1丁目3-7","lat":35.62722115,"lon":139.42870271},{"name":"あおぞらぱれっと保育園","province":"東京都","city":"多摩市","address":"多摩市鶴牧1-11-10","lat":35.62288,"lon":139.41719},{"name":"桜ケ丘記念病院","province":"東京都","city":"多摩市","address":"多摩市連光寺1-1-1","lat":35.64739,"lon":139.45787},{"name":"かおり保育園","province":"東京都","city":"多摩市","address":"多摩市落合4-15","lat":35.61519,"lon":139.43019},{"name":"おだ学園保育園","province":"東京都","city":"多摩市","address":"多摩市永山1-5ベルブ永山209号","lat":35.62847,"lon":139.44869},{"name":"あすのき保育園","province":"東京都","city":"多摩市","address":"多摩市諏訪2-2-B-001ブリリア多摩ニュータウン","lat":35.62708,"lon":139.45039},{"name":"多摩市立武道館・陸上競技場","province":"東京都","city":"多摩市","address":"東京都多摩市諏訪4丁目9","lat":35.62459204,"lon":139.46102787},{"name":"桜ヶ丘第一保育園","province":"東京都","city":"多摩市","address":"多摩市和田60-1","lat":35.643083,"lon":139.435118},{"name":"やまと保育園","province":"東京都","city":"多摩市","address":"多摩市和田1534","lat":35.645586,"lon":139.431568},{"name":"多摩保育園","province":"東京都","city":"多摩市","address":"多摩市和田418-1","lat":35.639823,"lon":139.435399},{"name":"バオバブ保育園","province":"東京都","city":"多摩市","address":"多摩市一ノ宮1-20-3","lat":35.652341,"lon":139.441517},{"name":"バオバブちいさな家保育園","province":"東京都","city":"多摩市","address":"多摩市一ノ宮3-9-1","lat":35.649855,"lon":139.443237},{"name":"貝取保育園","province":"東京都","city":"多摩市","address":"多摩市貝取4-10","lat":35.614365,"lon":139.440169},{"name":"みどりの保育園","province":"東京都","city":"多摩市","address":"多摩市連光寺3-57-2","lat":35.642548,"lon":139.4569},{"name":"かしのき保育園","province":"東京都","city":"多摩市","address":"多摩市諏訪1-64","lat":35.630985,"lon":139.449759},{"name":"こばと第一保育園","province":"東京都","city":"多摩市","address":"多摩市諏訪4-7","lat":35.623814,"lon":139.458353},{"name":"のびのびっこ保育園","province":"東京都","city":"多摩市","address":"多摩市諏訪1-1-6","lat":35.635007,"lon":139.44942},{"name":"あすのき保育園","province":"東京都","city":"多摩市","address":"多摩市諏訪2-2-B-001ブリリア多摩ニュータウン","lat":35.625667,"lon":139.452556},{"name":"こぐま保育園","province":"東京都","city":"多摩市","address":"多摩市永山3-5","lat":35.626091,"lon":139.445948},{"name":"ゆりのき保育園","province":"東京都","city":"多摩市","address":"多摩市永山4-6","lat":35.621634,"lon":139.448323},{"name":"ピオニイ第二保育園","province":"東京都","city":"多摩市","address":"多摩市豊ヶ丘4-8","lat":35.615203,"lon":139.435292},{"name":"かおり保育園","province":"東京都","city":"多摩市","address":"多摩市落合4-15","lat":35.615128,"lon":139.430239},{"name":"あおぞら保育園","province":"東京都","city":"多摩市","address":"多摩市落合1-5-16","lat":35.626332,"lon":139.426675},{"name":"こころ保育園","province":"東京都","city":"多摩市","address":"多摩市鶴牧5-5","lat":35.611229,"lon":139.424157},{"name":"丘の上アンジュ保育園","province":"東京都","city":"多摩市","address":"多摩市鶴牧3-2ブリリア多摩センター","lat":35.618764,"lon":139.421093},{"name":"りすのき保育園","province":"東京都","city":"多摩市","address":"多摩市唐木田1-8-2","lat":35.614761,"lon":139.409199},{"name":"みさと保育所","province":"東京都","city":"多摩市","address":"多摩市愛宕2-53","lat":35.635068,"lon":139.437185},{"name":"南多摩保健所","province":"東京都","city":"多摩市","address":"多摩市永山2-1-5","lat":35.627949,"lon":139.447437},{"name":"やまと保育園","province":"東京都","city":"多摩市","address":"多摩市和田1534","lat":35.64555,"lon":139.43172},{"name":"多摩保育園","province":"東京都","city":"多摩市","address":"多摩市和田418-1","lat":35.63997,"lon":139.43536},{"name":"桜ヶ丘第一保育園","province":"東京都","city":"多摩市","address":"多摩市和田60-1","lat":35.64292,"lon":139.43488},{"name":"バオバブ保育園","province":"東京都","city":"多摩市","address":"多摩市一ノ宮1-20-3","lat":35.65244,"lon":139.44096},{"name":"バオバブちいさな家保育園","province":"東京都","city":"多摩市","address":"多摩市一ノ宮3-9-1","lat":35.64965,"lon":139.44293},{"name":"関戸みどりの保育園","province":"東京都","city":"多摩市","address":"多摩市関戸2-24-27三ツ木聖蹟桜ヶ丘ビル2F","lat":35.65068,"lon":139.44914},{"name":"やまとさくら保育園","province":"東京都","city":"多摩市","address":"多摩市関戸4-18-2","lat":35.64924,"lon":139.4501},{"name":"みどりの保育園","province":"東京都","city":"多摩市","address":"多摩市連光寺3-57-2","lat":35.64273,"lon":139.45685},{"name":"のびのびっこ保育園","province":"東京都","city":"多摩市","address":"多摩市諏訪1-1-6","lat":35.63499,"lon":139.4494},{"name":"かしのき保育園","province":"東京都","city":"多摩市","address":"多摩市諏訪1-64","lat":35.63107,"lon":139.45009},{"name":"あすのき保育園","province":"東京都","city":"多摩市","address":"多摩市諏訪2-2-B-001ブリリア多摩ニュータウン","lat":35.62539,"lon":139.45236},{"name":"こばと第一保育園","province":"東京都","city":"多摩市","address":"多摩市諏訪4-7","lat":35.62394,"lon":139.45815},{"name":"おだ学園保育園","province":"東京都","city":"多摩市","address":"多摩市永山1-5ベルブ永山209号","lat":35.62847,"lon":139.44868},{"name":"こぐま保育園","province":"東京都","city":"多摩市","address":"多摩市永山3-5","lat":35.62606,"lon":139.44594},{"name":"ゆりのき保育園","province":"東京都","city":"多摩市","address":"多摩市永山4-6","lat":35.62168,"lon":139.44836},{"name":"ピオニイ第二保育園","province":"東京都","city":"多摩市","address":"多摩市豊ヶ丘4-8","lat":35.61532,"lon":139.43524},{"name":"あおぞらぱれっと保育園","province":"東京都","city":"多摩市","address":"多摩市落合1-15-1","lat":35.62578,"lon":139.42897},{"name":"あおぞら保育園","province":"東京都","city":"多摩市","address":"多摩市落合1-5-16","lat":35.62626,"lon":139.42621},{"name":"かおり保育園","province":"東京都","city":"多摩市","address":"多摩市落合4-15","lat":35.61518,"lon":139.43019},{"name":"丘の上アンジュ保育園","province":"東京都","city":"多摩市","address":"多摩市鶴牧3-2ブリリア多摩センター","lat":35.61867,"lon":139.42117},{"name":"こころ保育園","province":"東京都","city":"多摩市","address":"多摩市鶴牧5-5","lat":35.6114,"lon":139.42419},{"name":"りすのき保育園","province":"東京都","city":"多摩市","address":"多摩市唐木田1-8-2","lat":35.61443,"lon":139.41043},{"name":"みさと保育所","province":"東京都","city":"多摩市","address":"多摩市愛宕2-53","lat":35.63513,"lon":139.4379},{"name":"桜ヶ丘記念病院","province":"東京都","city":"多摩市","address":"多摩市連光寺1-1-1","lat":35.64739,"lon":139.45787},{"name":"南多摩保健所","province":"東京都","city":"多摩市","address":"多摩市永山2-1-5","lat":35.62846,"lon":139.44521},{"name":"特定非営利活動法人多摩市身体障害者福祉協会アートひまわり","province":"東京都","city":"多摩市","address":"東京都多摩市南野3丁目15-1","lat":35.61253922,"lon":139.41269633},{"name":"特定非営利活動法人わこうど若人塾","province":"東京都","city":"多摩市","address":"東京都多摩市永山3丁目12-1","lat":35.62115014,"lon":139.44400996},{"name":"特定非営利活動法人ＦｉｌｏＡＲＯＭＡ","province":"東京都","city":"多摩市","address":"東京都多摩市落合1丁目3-7","lat":35.62722115,"lon":139.42870271},{"name":"あおぞらぱれっと保育園","province":"東京都","city":"多摩市","address":"多摩市鶴牧1-11-10","lat":35.62288,"lon":139.41719},{"name":"桜ケ丘記念病院","province":"東京都","city":"多摩市","address":"多摩市連光寺1-1-1","lat":35.64739,"lon":139.45787},{"name":"かおり保育園","province":"東京都","city":"多摩市","address":"多摩市落合4-15","lat":35.61519,"lon":139.43019},{"name":"おだ学園保育園","province":"東京都","city":"多摩市","address":"多摩市永山1-5ベルブ永山209号","lat":35.62847,"lon":139.44869},{"name":"あすのき保育園","province":"東京都","city":"多摩市","address":"多摩市諏訪2-2-B-001ブリリア多摩ニュータウン","lat":35.62708,"lon":139.45039},{"name":"桜ヶ丘第一保育園","province":"東京都","city":"多摩市","address":"多摩市和田60-1","lat":35.643083,"lon":139.435118},{"name":"やまと保育園","province":"東京都","city":"多摩市","address":"多摩市和田1534","lat":35.645586,"lon":139.431568},{"name":"多摩保育園","province":"東京都","city":"多摩市","address":"多摩市和田418-1","lat":35.639823,"lon":139.435399},{"name":"バオバブ保育園","province":"東京都","city":"多摩市","address":"多摩市一ノ宮1-20-3","lat":35.652341,"lon":139.441517},{"name":"バオバブちいさな家保育園","province":"東京都","city":"多摩市","address":"多摩市一ノ宮3-9-1","lat":35.649855,"lon":139.443237},{"name":"貝取保育園","province":"東京都","city":"多摩市","address":"多摩市貝取4-10","lat":35.614365,"lon":139.440169},{"name":"みどりの保育園","province":"東京都","city":"多摩市","address":"多摩市連光寺3-57-2","lat":35.642548,"lon":139.4569},{"name":"かしのき保育園","province":"東京都","city":"多摩市","address":"多摩市諏訪1-64","lat":35.630985,"lon":139.449759},{"name":"こばと第一保育園","province":"東京都","city":"多摩市","address":"多摩市諏訪4-7","lat":35.623814,"lon":139.458353},{"name":"のびのびっこ保育園","province":"東京都","city":"多摩市","address":"多摩市諏訪1-1-6","lat":35.635007,"lon":139.44942},{"name":"あすのき保育園","province":"東京都","city":"多摩市","address":"多摩市諏訪2-2-B-001ブリリア多摩ニュータウン","lat":35.625667,"lon":139.452556},{"name":"こぐま保育園","province":"東京都","city":"多摩市","address":"多摩市永山3-5","lat":35.626091,"lon":139.445948},{"name":"ゆりのき保育園","province":"東京都","city":"多摩市","address":"多摩市永山4-6","lat":35.621634,"lon":139.448323},{"name":"ピオニイ第二保育園","province":"東京都","city":"多摩市","address":"多摩市豊ヶ丘4-8","lat":35.615203,"lon":139.435292},{"name":"かおり保育園","province":"東京都","city":"多摩市","address":"多摩市落合4-15","lat":35.615128,"lon":139.430239},{"name":"あおぞら保育園","province":"東京都","city":"多摩市","address":"多摩市落合1-5-16","lat":35.626332,"lon":139.426675},{"name":"こころ保育園","province":"東京都","city":"多摩市","address":"多摩市鶴牧5-5","lat":35.611229,"lon":139.424157},{"name":"丘の上アンジュ保育園","province":"東京都","city":"多摩市","address":"多摩市鶴牧3-2ブリリア多摩センター","lat":35.618764,"lon":139.421093},{"name":"りすのき保育園","province":"東京都","city":"多摩市","address":"多摩市唐木田1-8-2","lat":35.614761,"lon":139.409199},{"name":"みさと保育所","province":"東京都","city":"多摩市","address":"多摩市愛宕2-53","lat":35.635068,"lon":139.437185},{"name":"南多摩保健所","province":"東京都","city":"多摩市","address":"多摩市永山2-1-5","lat":35.627949,"lon":139.447437},{"name":"やまと保育園","province":"東京都","city":"多摩市","address":"多摩市和田1534","lat":35.64555,"lon":139.43172},{"name":"多摩保育園","province":"東京都","city":"多摩市","address":"多摩市和田418-1","lat":35.63997,"lon":139.43536},{"name":"桜ヶ丘第一保育園","province":"東京都","city":"多摩市","address":"多摩市和田60-1","lat":35.64292,"lon":139.43488},{"name":"バオバブ保育園","province":"東京都","city":"多摩市","address":"多摩市一ノ宮1-20-3","lat":35.65244,"lon":139.44096},{"name":"バオバブちいさな家保育園","province":"東京都","city":"多摩市","address":"多摩市一ノ宮3-9-1","lat":35.64965,"lon":139.44293},{"name":"関戸みどりの保育園","province":"東京都","city":"多摩市","address":"多摩市関戸2-24-27三ツ木聖蹟桜ヶ丘ビル2F","lat":35.65068,"lon":139.44914},{"name":"やまとさくら保育園","province":"東京都","city":"多摩市","address":"多摩市関戸4-18-2","lat":35.64924,"lon":139.4501},{"name":"みどりの保育園","province":"東京都","city":"多摩市","address":"多摩市連光寺3-57-2","lat":35.64273,"lon":139.45685},{"name":"のびのびっこ保育園","province":"東京都","city":"多摩市","address":"多摩市諏訪1-1-6","lat":35.63499,"lon":139.4494},{"name":"かしのき保育園","province":"東京都","city":"多摩市","address":"多摩市諏訪1-64","lat":35.63107,"lon":139.45009},{"name":"あすのき保育園","province":"東京都","city":"多摩市","address":"多摩市諏訪2-2-B-001ブリリア多摩ニュータウン","lat":35.62539,"lon":139.45236},{"name":"こばと第一保育園","province":"東京都","city":"多摩市","address":"多摩市諏訪4-7","lat":35.62394,"lon":139.45815},{"name":"おだ学園保育園","province":"東京都","city":"多摩市","address":"多摩市永山1-5ベルブ永山209号","lat":35.62847,"lon":139.44868},{"name":"こぐま保育園","province":"東京都","city":"多摩市","address":"多摩市永山3-5","lat":35.62606,"lon":139.44594},{"name":"ゆりのき保育園","province":"東京都","city":"多摩市","address":"多摩市永山4-6","lat":35.62168,"lon":139.44836},{"name":"ピオニイ第二保育園","province":"東京都","city":"多摩市","address":"多摩市豊ヶ丘4-8","lat":35.61532,"lon":139.43524},{"name":"あおぞらぱれっと保育園","province":"東京都","city":"多摩市","address":"多摩市落合1-15-1","lat":35.62578,"lon":139.42897},{"name":"あおぞら保育園","province":"東京都","city":"多摩市","address":"多摩市落合1-5-16","lat":35.62626,"lon":139.42621},{"name":"かおり保育園","province":"東京都","city":"多摩市","address":"多摩市落合4-15","lat":35.61518,"lon":139.43019},{"name":"丘の上アンジュ保育園","province":"東京都","city":"多摩市","address":"多摩市鶴牧3-2ブリリア多摩センター","lat":35.61867,"lon":139.42117},{"name":"こころ保育園","province":"東京都","city":"多摩市","address":"多摩市鶴牧5-5","lat":35.6114,"lon":139.42419},{"name":"りすのき保育園","province":"東京都","city":"多摩市","address":"多摩市唐木田1-8-2","lat":35.61443,"lon":139.41043},{"name":"みさと保育所","province":"東京都","city":"多摩市","address":"多摩市愛宕2-53","lat":35.63513,"lon":139.4379},{"name":"桜ヶ丘記念病院","province":"東京都","city":"多摩市","address":"多摩市連光寺1-1-1","lat":35.64739,"lon":139.45787},{"name":"南多摩保健所","province":"東京都","city":"多摩市","address":"多摩市永山2-1-5","lat":35.62846,"lon":139.44521},{"name":"特定非営利活動法人多摩市身体障害者福祉協会アートひまわり","province":"東京都","city":"多摩市","address":"東京都多摩市南野3丁目15-1","lat":35.61253922,"lon":139.41269633},{"name":"特定非営利活動法人わこうど若人塾","province":"東京都","city":"多摩市","address":"東京都多摩市永山3丁目12-1","lat":35.62115014,"lon":139.44400996},{"name":"特定非営利活動法人ＦｉｌｏＡＲＯＭＡ","province":"東京都","city":"多摩市","address":"東京都多摩市落合1丁目3-7","lat":35.62722115,"lon":139.42870271},{"name":"あおぞらぱれっと保育園","province":"東京都","city":"多摩市","address":"多摩市鶴牧1-11-10","lat":35.62288,"lon":139.41719},{"name":"桜ケ丘記念病院","province":"東京都","city":"多摩市","address":"多摩市連光寺1-1-1","lat":35.64739,"lon":139.45787},{"name":"かおり保育園","province":"東京都","city":"多摩市","address":"多摩市落合4-15","lat":35.61519,"lon":139.43019},{"name":"おだ学園保育園","province":"東京都","city":"多摩市","address":"多摩市永山1-5ベルブ永山209号","lat":35.62847,"lon":139.44869},{"name":"あすのき保育園","province":"東京都","city":"多摩市","address":"多摩市諏訪2-2-B-001ブリリア多摩ニュータウン","lat":35.62708,"lon":139.45039},{"name":"桜ヶ丘第一保育園","province":"東京都","city":"多摩市","address":"多摩市和田60-1","lat":35.643083,"lon":139.435118},{"name":"やまと保育園","province":"東京都","city":"多摩市","address":"多摩市和田1534","lat":35.645586,"lon":139.431568},{"name":"多摩保育園","province":"東京都","city":"多摩市","address":"多摩市和田418-1","lat":35.639823,"lon":139.435399},{"name":"バオバブ保育園","province":"東京都","city":"多摩市","address":"多摩市一ノ宮1-20-3","lat":35.652341,"lon":139.441517},{"name":"バオバブちいさな家保育園","province":"東京都","city":"多摩市","address":"多摩市一ノ宮3-9-1","lat":35.649855,"lon":139.443237},{"name":"貝取保育園","province":"東京都","city":"多摩市","address":"多摩市貝取4-10","lat":35.614365,"lon":139.440169},{"name":"みどりの保育園","province":"東京都","city":"多摩市","address":"多摩市連光寺3-57-2","lat":35.642548,"lon":139.4569},{"name":"かしのき保育園","province":"東京都","city":"多摩市","address":"多摩市諏訪1-64","lat":35.630985,"lon":139.449759},{"name":"こばと第一保育園","province":"東京都","city":"多摩市","address":"多摩市諏訪4-7","lat":35.623814,"lon":139.458353},{"name":"のびのびっこ保育園","province":"東京都","city":"多摩市","address":"多摩市諏訪1-1-6","lat":35.635007,"lon":139.44942},{"name":"あすのき保育園","province":"東京都","city":"多摩市","address":"多摩市諏訪2-2-B-001ブリリア多摩ニュータウン","lat":35.625667,"lon":139.452556},{"name":"こぐま保育園","province":"東京都","city":"多摩市","address":"多摩市永山3-5","lat":35.626091,"lon":139.445948},{"name":"ゆりのき保育園","province":"東京都","city":"多摩市","address":"多摩市永山4-6","lat":35.621634,"lon":139.448323},{"name":"ピオニイ第二保育園","province":"東京都","city":"多摩市","address":"多摩市豊ヶ丘4-8","lat":35.615203,"lon":139.435292},{"name":"かおり保育園","province":"東京都","city":"多摩市","address":"多摩市落合4-15","lat":35.615128,"lon":139.430239},{"name":"あおぞら保育園","province":"東京都","city":"多摩市","address":"多摩市落合1-5-16","lat":35.626332,"lon":139.426675},{"name":"こころ保育園","province":"東京都","city":"多摩市","address":"多摩市鶴牧5-5","lat":35.611229,"lon":139.424157},{"name":"丘の上アンジュ保育園","province":"東京都","city":"多摩市","address":"多摩市鶴牧3-2ブリリア多摩センター","lat":35.618764,"lon":139.421093},{"name":"りすのき保育園","province":"東京都","city":"多摩市","address":"多摩市唐木田1-8-2","lat":35.614761,"lon":139.409199},{"name":"みさと保育所","province":"東京都","city":"多摩市","address":"多摩市愛宕2-53","lat":35.635068,"lon":139.437185},{"name":"南多摩保健所","province":"東京都","city":"多摩市","address":"多摩市永山2-1-5","lat":35.627949,"lon":139.447437},{"name":"桜ヶ丘記念病院","province":"東京都","city":"多摩市","address":"多摩市連光寺1-1-1","lat":35.64739,"lon":139.45787},{"name":"南多摩保健所","province":"東京都","city":"多摩市","address":"多摩市永山2-1-5","lat":35.62846,"lon":139.44521},{"name":"特定非営利活動法人多摩市身体障害者福祉協会アートひまわり","province":"東京都","city":"多摩市","address":"東京都多摩市南野3丁目15-1","lat":35.61253922,"lon":139.41269633},{"name":"特定非営利活動法人わこうど若人塾","province":"東京都","city":"多摩市","address":"東京都多摩市永山3丁目12-1","lat":35.62115014,"lon":139.44400996},{"name":"特定非営利活動法人ＦｉｌｏＡＲＯＭＡ","province":"東京都","city":"多摩市","address":"東京都多摩市落合1丁目3-7","lat":35.62722115,"lon":139.42870271},{"name":"桜ケ丘記念病院","province":"東京都","city":"多摩市","address":"多摩市連光寺1-1-1","lat":35.64739,"lon":139.45787},{"name":"桜ヶ丘第一保育園","province":"東京都","city":"多摩市","address":"多摩市和田60-1","lat":35.643083,"lon":139.435118},{"name":"やまと保育園","province":"東京都","city":"多摩市","address":"多摩市和田1534","lat":35.645586,"lon":139.431568},{"name":"多摩保育園","province":"東京都","city":"多摩市","address":"多摩市和田418-1","lat":35.639823,"lon":139.435399},{"name":"バオバブ保育園","province":"東京都","city":"多摩市","address":"多摩市一ノ宮1-20-3","lat":35.652341,"lon":139.441517},{"name":"バオバブちいさな家保育園","province":"東京都","city":"多摩市","address":"多摩市一ノ宮3-9-1","lat":35.649855,"lon":139.443237},{"name":"貝取保育園","province":"東京都","city":"多摩市","address":"多摩市貝取4-10","lat":35.614365,"lon":139.440169},{"name":"みどりの保育園","province":"東京都","city":"多摩市","address":"多摩市連光寺3-57-2","lat":35.642548,"lon":139.4569},{"name":"かしのき保育園","province":"東京都","city":"多摩市","address":"多摩市諏訪1-64","lat":35.630985,"lon":139.449759},{"name":"こばと第一保育園","province":"東京都","city":"多摩市","address":"多摩市諏訪4-7","lat":35.623814,"lon":139.458353},{"name":"のびのびっこ保育園","province":"東京都","city":"多摩市","address":"多摩市諏訪1-1-6","lat":35.635007,"lon":139.44942},{"name":"あすのき保育園","province":"東京都","city":"多摩市","address":"多摩市諏訪2-2-B-001ブリリア多摩ニュータウン","lat":35.625667,"lon":139.452556},{"name":"こぐま保育園","province":"東京都","city":"多摩市","address":"多摩市永山3-5","lat":35.626091,"lon":139.445948},{"name":"ゆりのき保育園","province":"東京都","city":"多摩市","address":"多摩市永山4-6","lat":35.621634,"lon":139.448323},{"name":"ピオニイ第二保育園","province":"東京都","city":"多摩市","address":"多摩市豊ヶ丘4-8","lat":35.615203,"lon":139.435292},{"name":"かおり保育園","province":"東京都","city":"多摩市","address":"多摩市落合4-15","lat":35.615128,"lon":139.430239},{"name":"あおぞら保育園","province":"東京都","city":"多摩市","address":"多摩市落合1-5-16","lat":35.626332,"lon":139.426675},{"name":"こころ保育園","province":"東京都","city":"多摩市","address":"多摩市鶴牧5-5","lat":35.611229,"lon":139.424157},{"name":"丘の上アンジュ保育園","province":"東京都","city":"多摩市","address":"多摩市鶴牧3-2ブリリア多摩センター","lat":35.618764,"lon":139.421093},{"name":"りすのき保育園","province":"東京都","city":"多摩市","address":"多摩市唐木田1-8-2","lat":35.614761,"lon":139.409199},{"name":"みさと保育所","province":"東京都","city":"多摩市","address":"多摩市愛宕2-53","lat":35.635068,"lon":139.437185},{"name":"南多摩保健所","province":"東京都","city":"多摩市","address":"多摩市永山2-1-5","lat":35.627949,"lon":139.447437},{"name":"桜ヶ丘記念病院","province":"東京都","city":"多摩市","address":"多摩市連光寺1-1-1","lat":35.64739,"lon":139.45787},{"name":"南多摩保健所","province":"東京都","city":"多摩市","address":"多摩市永山2-1-5","lat":35.62846,"lon":139.44521},{"name":"桜ケ丘記念病院","province":"東京都","city":"多摩市","address":"多摩市連光寺1-1-1","lat":35.64739,"lon":139.45787},{"name":"桜ヶ丘第一保育園","province":"東京都","city":"多摩市","address":"多摩市和田60-1","lat":35.643083,"lon":139.435118},{"name":"やまと保育園","province":"東京都","city":"多摩市","address":"多摩市和田1534","lat":35.645586,"lon":139.431568},{"name":"多摩保育園","province":"東京都","city":"多摩市","address":"多摩市和田418-1","lat":35.639823,"lon":139.435399},{"name":"バオバブ保育園","province":"東京都","city":"多摩市","address":"多摩市一ノ宮1-20-3","lat":35.652341,"lon":139.441517},{"name":"バオバブちいさな家保育園","province":"東京都","city":"多摩市","address":"多摩市一ノ宮3-9-1","lat":35.649855,"lon":139.443237},{"name":"貝取保育園","province":"東京都","city":"多摩市","address":"多摩市貝取4-10","lat":35.614365,"lon":139.440169},{"name":"みどりの保育園","province":"東京都","city":"多摩市","address":"多摩市連光寺3-57-2","lat":35.642548,"lon":139.4569},{"name":"かしのき保育園","province":"東京都","city":"多摩市","address":"多摩市諏訪1-64","lat":35.630985,"lon":139.449759},{"name":"こばと第一保育園","province":"東京都","city":"多摩市","address":"多摩市諏訪4-7","lat":35.623814,"lon":139.458353},{"name":"のびのびっこ保育園","province":"東京都","city":"多摩市","address":"多摩市諏訪1-1-6","lat":35.635007,"lon":139.44942},{"name":"あすのき保育園","province":"東京都","city":"多摩市","address":"多摩市諏訪2-2-B-001ブリリア多摩ニュータウン","lat":35.625667,"lon":139.452556},{"name":"こぐま保育園","province":"東京都","city":"多摩市","address":"多摩市永山3-5","lat":35.626091,"lon":139.445948},{"name":"ゆりのき保育園","province":"東京都","city":"多摩市","address":"多摩市永山4-6","lat":35.621634,"lon":139.448323},{"name":"ピオニイ第二保育園","province":"東京都","city":"多摩市","address":"多摩市豊ヶ丘4-8","lat":35.615203,"lon":139.435292},{"name":"かおり保育園","province":"東京都","city":"多摩市","address":"多摩市落合4-15","lat":35.615128,"lon":139.430239},{"name":"あおぞら保育園","province":"東京都","city":"多摩市","address":"多摩市落合1-5-16","lat":35.626332,"lon":139.426675},{"name":"こころ保育園","province":"東京都","city":"多摩市","address":"多摩市鶴牧5-5","lat":35.611229,"lon":139.424157},{"name":"丘の上アンジュ保育園","province":"東京都","city":"多摩市","address":"多摩市鶴牧3-2ブリリア多摩センター","lat":35.618764,"lon":139.421093},{"name":"りすのき保育園","province":"東京都","city":"多摩市","address":"多摩市唐木田1-8-2","lat":35.614761,"lon":139.409199},{"name":"みさと保育所","province":"東京都","city":"多摩市","address":"多摩市愛宕2-53","lat":35.635068,"lon":139.437185},{"name":"南多摩保健所","province":"東京都","city":"多摩市","address":"多摩市永山2-1-5","lat":35.627949,"lon":139.447437},{"name":"桜ヶ丘記念病院","province":"東京都","city":"多摩市","address":"多摩市連光寺1-1-1","lat":35.64739,"lon":139.45787},{"name":"南多摩保健所","province":"東京都","city":"多摩市","address":"多摩市永山2-1-5","lat":35.62846,"lon":139.44521},{"name":"桜ケ丘記念病院","province":"東京都","city":"多摩市","address":"多摩市連光寺1-1-1","lat":35.64739,"lon":139.45787},{"name":"桜ヶ丘第一保育園","province":"東京都","city":"多摩市","address":"多摩市和田60-1","lat":35.643083,"lon":139.435118},{"name":"やまと保育園","province":"東京都","city":"多摩市","address":"多摩市和田1534","lat":35.645586,"lon":139.431568},{"name":"多摩保育園","province":"東京都","city":"多摩市","address":"多摩市和田418-1","lat":35.639823,"lon":139.435399},{"name":"バオバブ保育園","province":"東京都","city":"多摩市","address":"多摩市一ノ宮1-20-3","lat":35.652341,"lon":139.441517},{"name":"バオバブちいさな家保育園","province":"東京都","city":"多摩市","address":"多摩市一ノ宮3-9-1","lat":35.649855,"lon":139.443237},{"name":"貝取保育園","province":"東京都","city":"多摩市","address":"多摩市貝取4-10","lat":35.614365,"lon":139.440169},{"name":"みどりの保育園","province":"東京都","city":"多摩市","address":"多摩市連光寺3-57-2","lat":35.642548,"lon":139.4569},{"name":"かしのき保育園","province":"東京都","city":"多摩市","address":"多摩市諏訪1-64","lat":35.630985,"lon":139.449759},{"name":"こばと第一保育園","province":"東京都","city":"多摩市","address":"多摩市諏訪4-7","lat":35.623814,"lon":139.458353},{"name":"のびのびっこ保育園","province":"東京都","city":"多摩市","address":"多摩市諏訪1-1-6","lat":35.635007,"lon":139.44942},{"name":"あすのき保育園","province":"東京都","city":"多摩市","address":"多摩市諏訪2-2-B-001ブリリア多摩ニュータウン","lat":35.625667,"lon":139.452556},{"name":"こぐま保育園","province":"東京都","city":"多摩市","address":"多摩市永山3-5","lat":35.626091,"lon":139.445948},{"name":"ゆりのき保育園","province":"東京都","city":"多摩市","address":"多摩市永山4-6","lat":35.621634,"lon":139.448323},{"name":"ピオニイ第二保育園","province":"東京都","city":"多摩市","address":"多摩市豊ヶ丘4-8","lat":35.615203,"lon":139.435292},{"name":"かおり保育園","province":"東京都","city":"多摩市","address":"多摩市落合4-15","lat":35.615128,"lon":139.430239},{"name":"あおぞら保育園","province":"東京都","city":"多摩市","address":"多摩市落合1-5-16","lat":35.626332,"lon":139.426675},{"name":"こころ保育園","province":"東京都","city":"多摩市","address":"多摩市鶴牧5-5","lat":35.611229,"lon":139.424157},{"name":"丘の上アンジュ保育園","province":"東京都","city":"多摩市","address":"多摩市鶴牧3-2ブリリア多摩センター","lat":35.618764,"lon":139.421093},{"name":"りすのき保育園","province":"東京都","city":"多摩市","address":"多摩市唐木田1-8-2","lat":35.614761,"lon":139.409199},{"name":"みさと保育所","province":"東京都","city":"多摩市","address":"多摩市愛宕2-53","lat":35.635068,"lon":139.437185},{"name":"南多摩保健所","province":"東京都","city":"多摩市","address":"多摩市永山2-1-5","lat":35.627949,"lon":139.447437},{"name":"桜ヶ丘記念病院","province":"東京都","city":"多摩市","address":"多摩市連光寺1-1-1","lat":35.64739,"lon":139.45787},{"name":"南多摩保健所","province":"東京都","city":"多摩市","address":"多摩市永山2-1-5","lat":35.62846,"lon":139.44521},{"name":"桜ケ丘記念病院","province":"東京都","city":"多摩市","address":"多摩市連光寺1-1-1","lat":35.64739,"lon":139.45787},{"name":"桜ヶ丘第一保育園","province":"東京都","city":"多摩市","address":"多摩市和田60-1","lat":35.643083,"lon":139.435118},{"name":"やまと保育園","province":"東京都","city":"多摩市","address":"多摩市和田1534","lat":35.645586,"lon":139.431568},{"name":"多摩保育園","province":"東京都","city":"多摩市","address":"多摩市和田418-1","lat":35.639823,"lon":139.435399},{"name":"バオバブ保育園","province":"東京都","city":"多摩市","address":"多摩市一ノ宮1-20-3","lat":35.652341,"lon":139.441517},{"name":"バオバブちいさな家保育園","province":"東京都","city":"多摩市","address":"多摩市一ノ宮3-9-1","lat":35.649855,"lon":139.443237},{"name":"貝取保育園","province":"東京都","city":"多摩市","address":"多摩市貝取4-10","lat":35.614365,"lon":139.440169},{"name":"みどりの保育園","province":"東京都","city":"多摩市","address":"多摩市連光寺3-57-2","lat":35.642548,"lon":139.4569},{"name":"かしのき保育園","province":"東京都","city":"多摩市","address":"多摩市諏訪1-64","lat":35.630985,"lon":139.449759},{"name":"こばと第一保育園","province":"東京都","city":"多摩市","address":"多摩市諏訪4-7","lat":35.623814,"lon":139.458353},{"name":"のびのびっこ保育園","province":"東京都","city":"多摩市","address":"多摩市諏訪1-1-6","lat":35.635007,"lon":139.44942},{"name":"あすのき保育園","province":"東京都","city":"多摩市","address":"多摩市諏訪2-2-B-001ブリリア多摩ニュータウン","lat":35.625667,"lon":139.452556},{"name":"こぐま保育園","province":"東京都","city":"多摩市","address":"多摩市永山3-5","lat":35.626091,"lon":139.445948},{"name":"ゆりのき保育園","province":"東京都","city":"多摩市","address":"多摩市永山4-6","lat":35.621634,"lon":139.448323},{"name":"ピオニイ第二保育園","province":"東京都","city":"多摩市","address":"多摩市豊ヶ丘4-8","lat":35.615203,"lon":139.435292},{"name":"かおり保育園","province":"東京都","city":"多摩市","address":"多摩市落合4-15","lat":35.615128,"lon":139.430239},{"name":"あおぞら保育園","province":"東京都","city":"多摩市","address":"多摩市落合1-5-16","lat":35.626332,"lon":139.426675},{"name":"こころ保育園","province":"東京都","city":"多摩市","address":"多摩市鶴牧5-5","lat":35.611229,"lon":139.424157},{"name":"丘の上アンジュ保育園","province":"東京都","city":"多摩市","address":"多摩市鶴牧3-2ブリリア多摩センター","lat":35.618764,"lon":139.421093},{"name":"りすのき保育園","province":"東京都","city":"多摩市","address":"多摩市唐木田1-8-2","lat":35.614761,"lon":139.409199},{"name":"みさと保育所","province":"東京都","city":"多摩市","address":"多摩市愛宕2-53","lat":35.635068,"lon":139.437185},{"name":"南多摩保健所","province":"東京都","city":"多摩市","address":"多摩市永山2-1-5","lat":35.627949,"lon":139.447437},{"name":"桜ヶ丘記念病院","province":"東京都","city":"多摩市","address":"多摩市連光寺1-1-1","lat":35.64739,"lon":139.45787},{"name":"南多摩保健所","province":"東京都","city":"多摩市","address":"多摩市永山2-1-5","lat":35.62846,"lon":139.44521},{"name":"桜ケ丘記念病院","province":"東京都","city":"多摩市","address":"多摩市連光寺1-1-1","lat":35.64739,"lon":139.45787},{"name":"桜ヶ丘第一保育園","province":"東京都","city":"多摩市","address":"多摩市和田60-1","lat":35.643083,"lon":139.435118},{"name":"やまと保育園","province":"東京都","city":"多摩市","address":"多摩市和田1534","lat":35.645586,"lon":139.431568},{"name":"多摩保育園","province":"東京都","city":"多摩市","address":"多摩市和田418-1","lat":35.639823,"lon":139.435399},{"name":"バオバブ保育園","province":"東京都","city":"多摩市","address":"多摩市一ノ宮1-20-3","lat":35.652341,"lon":139.441517},{"name":"バオバブちいさな家保育園","province":"東京都","city":"多摩市","address":"多摩市一ノ宮3-9-1","lat":35.649855,"lon":139.443237},{"name":"貝取保育園","province":"東京都","city":"多摩市","address":"多摩市貝取4-10","lat":35.614365,"lon":139.440169},{"name":"みどりの保育園","province":"東京都","city":"多摩市","address":"多摩市連光寺3-57-2","lat":35.642548,"lon":139.4569},{"name":"かしのき保育園","province":"東京都","city":"多摩市","address":"多摩市諏訪1-64","lat":35.630985,"lon":139.449759},{"name":"こばと第一保育園","province":"東京都","city":"多摩市","address":"多摩市諏訪4-7","lat":35.623814,"lon":139.458353},{"name":"のびのびっこ保育園","province":"東京都","city":"多摩市","address":"多摩市諏訪1-1-6","lat":35.635007,"lon":139.44942},{"name":"あすのき保育園","province":"東京都","city":"多摩市","address":"多摩市諏訪2-2-B-001ブリリア多摩ニュータウン","lat":35.625667,"lon":139.452556},{"name":"こぐま保育園","province":"東京都","city":"多摩市","address":"多摩市永山3-5","lat":35.626091,"lon":139.445948},{"name":"ゆりのき保育園","province":"東京都","city":"多摩市","address":"多摩市永山4-6","lat":35.621634,"lon":139.448323},{"name":"ピオニイ第二保育園","province":"東京都","city":"多摩市","address":"多摩市豊ヶ丘4-8","lat":35.615203,"lon":139.435292},{"name":"かおり保育園","province":"東京都","city":"多摩市","address":"多摩市落合4-15","lat":35.615128,"lon":139.430239},{"name":"あおぞら保育園","province":"東京都","city":"多摩市","address":"多摩市落合1-5-16","lat":35.626332,"lon":139.426675},{"name":"こころ保育園","province":"東京都","city":"多摩市","address":"多摩市鶴牧5-5","lat":35.611229,"lon":139.424157},{"name":"丘の上アンジュ保育園","province":"東京都","city":"多摩市","address":"多摩市鶴牧3-2ブリリア多摩センター","lat":35.618764,"lon":139.421093},{"name":"りすのき保育園","province":"東京都","city":"多摩市","address":"多摩市唐木田1-8-2","lat":35.614761,"lon":139.409199},{"name":"みさと保育所","province":"東京都","city":"多摩市","address":"多摩市愛宕2-53","lat":35.635068,"lon":139.437185},{"name":"南多摩保健所","province":"東京都","city":"多摩市","address":"多摩市永山2-1-5","lat":35.627949,"lon":139.447437},{"name":"桜ヶ丘記念病院","province":"東京都","city":"多摩市","address":"多摩市連光寺1-1-1","lat":35.64739,"lon":139.45787},{"name":"南多摩保健所","province":"東京都","city":"多摩市","address":"多摩市永山2-1-5","lat":35.62846,"lon":139.44521},{"name":"桜ケ丘記念病院","province":"東京都","city":"多摩市","address":"多摩市連光寺1-1-1","lat":35.64739,"lon":139.45787},{"name":"桜ヶ丘第一保育園","province":"東京都","city":"多摩市","address":"多摩市和田60-1","lat":35.643083,"lon":139.435118},{"name":"やまと保育園","province":"東京都","city":"多摩市","address":"多摩市和田1534","lat":35.645586,"lon":139.431568},{"name":"多摩保育園","province":"東京都","city":"多摩市","address":"多摩市和田418-1","lat":35.639823,"lon":139.435399},{"name":"バオバブ保育園","province":"東京都","city":"多摩市","address":"多摩市一ノ宮1-20-3","lat":35.652341,"lon":139.441517},{"name":"バオバブちいさな家保育園","province":"東京都","city":"多摩市","address":"多摩市一ノ宮3-9-1","lat":35.649855,"lon":139.443237},{"name":"貝取保育園","province":"東京都","city":"多摩市","address":"多摩市貝取4-10","lat":35.614365,"lon":139.440169},{"name":"みどりの保育園","province":"東京都","city":"多摩市","address":"多摩市連光寺3-57-2","lat":35.642548,"lon":139.4569},{"name":"かしのき保育園","province":"東京都","city":"多摩市","address":"多摩市諏訪1-64","lat":35.630985,"lon":139.449759},{"name":"こばと第一保育園","province":"東京都","city":"多摩市","address":"多摩市諏訪4-7","lat":35.623814,"lon":139.458353},{"name":"のびのびっこ保育園","province":"東京都","city":"多摩市","address":"多摩市諏訪1-1-6","lat":35.635007,"lon":139.44942},{"name":"あすのき保育園","province":"東京都","city":"多摩市","address":"多摩市諏訪2-2-B-001ブリリア多摩ニュータウン","lat":35.625667,"lon":139.452556},{"name":"こぐま保育園","province":"東京都","city":"多摩市","address":"多摩市永山3-5","lat":35.626091,"lon":139.445948},{"name":"ゆりのき保育園","province":"東京都","city":"多摩市","address":"多摩市永山4-6","lat":35.621634,"lon":139.448323},{"name":"ピオニイ第二保育園","province":"東京都","city":"多摩市","address":"多摩市豊ヶ丘4-8","lat":35.615203,"lon":139.435292},{"name":"かおり保育園","province":"東京都","city":"多摩市","address":"多摩市落合4-15","lat":35.615128,"lon":139.430239},{"name":"あおぞら保育園","province":"東京都","city":"多摩市","address":"多摩市落合1-5-16","lat":35.626332,"lon":139.426675},{"name":"こころ保育園","province":"東京都","city":"多摩市","address":"多摩市鶴牧5-5","lat":35.611229,"lon":139.424157},{"name":"丘の上アンジュ保育園","province":"東京都","city":"多摩市","address":"多摩市鶴牧3-2ブリリア多摩センター","lat":35.618764,"lon":139.421093},{"name":"りすのき保育園","province":"東京都","city":"多摩市","address":"多摩市唐木田1-8-2","lat":35.614761,"lon":139.409199},{"name":"みさと保育所","province":"東京都","city":"多摩市","address":"多摩市愛宕2-53","lat":35.635068,"lon":139.437185},{"name":"南多摩保健所","province":"東京都","city":"多摩市","address":"多摩市永山2-1-5","lat":35.627949,"lon":139.447437},{"name":"桜ヶ丘記念病院","province":"東京都","city":"多摩市","address":"多摩市連光寺1-1-1","lat":35.64739,"lon":139.45787},{"name":"南多摩保健所","province":"東京都","city":"多摩市","address":"多摩市永山2-1-5","lat":35.62846,"lon":139.44521},{"name":"桜ケ丘記念病院","province":"東京都","city":"多摩市","address":"多摩市連光寺1-1-1","lat":35.64739,"lon":139.45787},{"name":"桜ヶ丘第一保育園","province":"東京都","city":"多摩市","address":"多摩市和田60-1","lat":35.643083,"lon":139.435118},{"name":"やまと保育園","province":"東京都","city":"多摩市","address":"多摩市和田1534","lat":35.645586,"lon":139.431568},{"name":"多摩保育園","province":"東京都","city":"多摩市","address":"多摩市和田418-1","lat":35.639823,"lon":139.435399},{"name":"バオバブ保育園","province":"東京都","city":"多摩市","address":"多摩市一ノ宮1-20-3","lat":35.652341,"lon":139.441517},{"name":"バオバブちいさな家保育園","province":"東京都","city":"多摩市","address":"多摩市一ノ宮3-9-1","lat":35.649855,"lon":139.443237},{"name":"貝取保育園","province":"東京都","city":"多摩市","address":"多摩市貝取4-10","lat":35.614365,"lon":139.440169},{"name":"みどりの保育園","province":"東京都","city":"多摩市","address":"多摩市連光寺3-57-2","lat":35.642548,"lon":139.4569},{"name":"かしのき保育園","province":"東京都","city":"多摩市","address":"多摩市諏訪1-64","lat":35.630985,"lon":139.449759},{"name":"こばと第一保育園","province":"東京都","city":"多摩市","address":"多摩市諏訪4-7","lat":35.623814,"lon":139.458353},{"name":"のびのびっこ保育園","province":"東京都","city":"多摩市","address":"多摩市諏訪1-1-6","lat":35.635007,"lon":139.44942},{"name":"あすのき保育園","province":"東京都","city":"多摩市","address":"多摩市諏訪2-2-B-001ブリリア多摩ニュータウン","lat":35.625667,"lon":139.452556},{"name":"こぐま保育園","province":"東京都","city":"多摩市","address":"多摩市永山3-5","lat":35.626091,"lon":139.445948},{"name":"ゆりのき保育園","province":"東京都","city":"多摩市","address":"多摩市永山4-6","lat":35.621634,"lon":139.448323},{"name":"ピオニイ第二保育園","province":"東京都","city":"多摩市","address":"多摩市豊ヶ丘4-8","lat":35.615203,"lon":139.435292},{"name":"かおり保育園","province":"東京都","city":"多摩市","address":"多摩市落合4-15","lat":35.615128,"lon":139.430239},{"name":"あおぞら保育園","province":"東京都","city":"多摩市","address":"多摩市落合1-5-16","lat":35.626332,"lon":139.426675},{"name":"こころ保育園","province":"東京都","city":"多摩市","address":"多摩市鶴牧5-5","lat":35.611229,"lon":139.424157},{"name":"丘の上アンジュ保育園","province":"東京都","city":"多摩市","address":"多摩市鶴牧3-2ブリリア多摩センター","lat":35.618764,"lon":139.421093},{"name":"りすのき保育園","province":"東京都","city":"多摩市","address":"多摩市唐木田1-8-2","lat":35.614761,"lon":139.409199},{"name":"みさと保育所","province":"東京都","city":"多摩市","address":"多摩市愛宕2-53","lat":35.635068,"lon":139.437185},{"name":"南多摩保健所","province":"東京都","city":"多摩市","address":"多摩市永山2-1-5","lat":35.627949,"lon":139.447437},{"name":"桜ヶ丘記念病院","province":"東京都","city":"多摩市","address":"多摩市連光寺1-1-1","lat":35.64739,"lon":139.45787},{"name":"南多摩保健所","province":"東京都","city":"多摩市","address":"多摩市永山2-1-5","lat":35.62846,"lon":139.44521},{"name":"桜ケ丘記念病院","province":"東京都","city":"多摩市","address":"多摩市連光寺1-1-1","lat":35.64739,"lon":139.45787},{"name":"桜ヶ丘第一保育園","province":"東京都","city":"多摩市","address":"多摩市和田60-1","lat":35.643083,"lon":139.435118},{"name":"やまと保育園","province":"東京都","city":"多摩市","address":"多摩市和田1534","lat":35.645586,"lon":139.431568},{"name":"多摩保育園","province":"東京都","city":"多摩市","address":"多摩市和田418-1","lat":35.639823,"lon":139.435399},{"name":"バオバブ保育園","province":"東京都","city":"多摩市","address":"多摩市一ノ宮1-20-3","lat":35.652341,"lon":139.441517},{"name":"バオバブちいさな家保育園","province":"東京都","city":"多摩市","address":"多摩市一ノ宮3-9-1","lat":35.649855,"lon":139.443237},{"name":"貝取保育園","province":"東京都","city":"多摩市","address":"多摩市貝取4-10","lat":35.614365,"lon":139.440169},{"name":"みどりの保育園","province":"東京都","city":"多摩市","address":"多摩市連光寺3-57-2","lat":35.642548,"lon":139.4569},{"name":"かしのき保育園","province":"東京都","city":"多摩市","address":"多摩市諏訪1-64","lat":35.630985,"lon":139.449759},{"name":"こばと第一保育園","province":"東京都","city":"多摩市","address":"多摩市諏訪4-7","lat":35.623814,"lon":139.458353},{"name":"のびのびっこ保育園","province":"東京都","city":"多摩市","address":"多摩市諏訪1-1-6","lat":35.635007,"lon":139.44942},{"name":"あすのき保育園","province":"東京都","city":"多摩市","address":"多摩市諏訪2-2-B-001ブリリア多摩ニュータウン","lat":35.625667,"lon":139.452556},{"name":"こぐま保育園","province":"東京都","city":"多摩市","address":"多摩市永山3-5","lat":35.626091,"lon":139.445948},{"name":"ゆりのき保育園","province":"東京都","city":"多摩市","address":"多摩市永山4-6","lat":35.621634,"lon":139.448323},{"name":"ピオニイ第二保育園","province":"東京都","city":"多摩市","address":"多摩市豊ヶ丘4-8","lat":35.615203,"lon":139.435292},{"name":"かおり保育園","province":"東京都","city":"多摩市","address":"多摩市落合4-15","lat":35.615128,"lon":139.430239},{"name":"あおぞら保育園","province":"東京都","city":"多摩市","address":"多摩市落合1-5-16","lat":35.626332,"lon":139.426675},{"name":"こころ保育園","province":"東京都","city":"多摩市","address":"多摩市鶴牧5-5","lat":35.611229,"lon":139.424157},{"name":"丘の上アンジュ保育園","province":"東京都","city":"多摩市","address":"多摩市鶴牧3-2ブリリア多摩センター","lat":35.618764,"lon":139.421093},{"name":"りすのき保育園","province":"東京都","city":"多摩市","address":"多摩市唐木田1-8-2","lat":35.614761,"lon":139.409199},{"name":"みさと保育所","province":"東京都","city":"多摩市","address":"多摩市愛宕2-53","lat":35.635068,"lon":139.437185},{"name":"南多摩保健所","province":"東京都","city":"多摩市","address":"多摩市永山2-1-5","lat":35.627949,"lon":139.447437},{"name":"桜ヶ丘記念病院","province":"東京都","city":"多摩市","address":"多摩市連光寺1-1-1","lat":35.64739,"lon":139.45787},{"name":"南多摩保健所","province":"東京都","city":"多摩市","address":"多摩市永山2-1-5","lat":35.62846,"lon":139.44521},{"name":"桜ケ丘記念病院","province":"東京都","city":"多摩市","address":"多摩市連光寺1-1-1","lat":35.64739,"lon":139.45787},{"name":"桜ヶ丘第一保育園","province":"東京都","city":"多摩市","address":"多摩市和田60-1","lat":35.643083,"lon":139.435118},{"name":"やまと保育園","province":"東京都","city":"多摩市","address":"多摩市和田1534","lat":35.645586,"lon":139.431568},{"name":"多摩保育園","province":"東京都","city":"多摩市","address":"多摩市和田418-1","lat":35.639823,"lon":139.435399},{"name":"バオバブ保育園","province":"東京都","city":"多摩市","address":"多摩市一ノ宮1-20-3","lat":35.652341,"lon":139.441517},{"name":"バオバブちいさな家保育園","province":"東京都","city":"多摩市","address":"多摩市一ノ宮3-9-1","lat":35.649855,"lon":139.443237},{"name":"貝取保育園","province":"東京都","city":"多摩市","address":"多摩市貝取4-10","lat":35.614365,"lon":139.440169},{"name":"みどりの保育園","province":"東京都","city":"多摩市","address":"多摩市連光寺3-57-2","lat":35.642548,"lon":139.4569},{"name":"かしのき保育園","province":"東京都","city":"多摩市","address":"多摩市諏訪1-64","lat":35.630985,"lon":139.449759},{"name":"こばと第一保育園","province":"東京都","city":"多摩市","address":"多摩市諏訪4-7","lat":35.623814,"lon":139.458353},{"name":"のびのびっこ保育園","province":"東京都","city":"多摩市","address":"多摩市諏訪1-1-6","lat":35.635007,"lon":139.44942},{"name":"あすのき保育園","province":"東京都","city":"多摩市","address":"多摩市諏訪2-2-B-001ブリリア多摩ニュータウン","lat":35.625667,"lon":139.452556},{"name":"こぐま保育園","province":"東京都","city":"多摩市","address":"多摩市永山3-5","lat":35.626091,"lon":139.445948},{"name":"ゆりのき保育園","province":"東京都","city":"多摩市","address":"多摩市永山4-6","lat":35.621634,"lon":139.448323},{"name":"ピオニイ第二保育園","province":"東京都","city":"多摩市","address":"多摩市豊ヶ丘4-8","lat":35.615203,"lon":139.435292},{"name":"かおり保育園","province":"東京都","city":"多摩市","address":"多摩市落合4-15","lat":35.615128,"lon":139.430239},{"name":"あおぞら保育園","province":"東京都","city":"多摩市","address":"多摩市落合1-5-16","lat":35.626332,"lon":139.426675},{"name":"こころ保育園","province":"東京都","city":"多摩市","address":"多摩市鶴牧5-5","lat":35.611229,"lon":139.424157},{"name":"丘の上アンジュ保育園","province":"東京都","city":"多摩市","address":"多摩市鶴牧3-2ブリリア多摩センター","lat":35.618764,"lon":139.421093},{"name":"りすのき保育園","province":"東京都","city":"多摩市","address":"多摩市唐木田1-8-2","lat":35.614761,"lon":139.409199},{"name":"みさと保育所","province":"東京都","city":"多摩市","address":"多摩市愛宕2-53","lat":35.635068,"lon":139.437185},{"name":"南多摩保健所","province":"東京都","city":"多摩市","address":"多摩市永山2-1-5","lat":35.627949,"lon":139.447437},{"name":"桜ヶ丘記念病院","province":"東京都","city":"多摩市","address":"多摩市連光寺1-1-1","lat":35.64739,"lon":139.45787},{"name":"南多摩保健所","province":"東京都","city":"多摩市","address":"多摩市永山2-1-5","lat":35.62846,"lon":139.44521},{"name":"桜ケ丘記念病院","province":"東京都","city":"多摩市","address":"多摩市連光寺1-1-1","lat":35.64739,"lon":139.45787},{"name":"桜ヶ丘第一保育園","province":"東京都","city":"多摩市","address":"多摩市和田60-1","lat":35.643083,"lon":139.435118},{"name":"やまと保育園","province":"東京都","city":"多摩市","address":"多摩市和田1534","lat":35.645586,"lon":139.431568},{"name":"多摩保育園","province":"東京都","city":"多摩市","address":"多摩市和田418-1","lat":35.639823,"lon":139.435399},{"name":"バオバブ保育園","province":"東京都","city":"多摩市","address":"多摩市一ノ宮1-20-3","lat":35.652341,"lon":139.441517},{"name":"バオバブちいさな家保育園","province":"東京都","city":"多摩市","address":"多摩市一ノ宮3-9-1","lat":35.649855,"lon":139.443237},{"name":"貝取保育園","province":"東京都","city":"多摩市","address":"多摩市貝取4-10","lat":35.614365,"lon":139.440169},{"name":"みどりの保育園","province":"東京都","city":"多摩市","address":"多摩市連光寺3-57-2","lat":35.642548,"lon":139.4569},{"name":"かしのき保育園","province":"東京都","city":"多摩市","address":"多摩市諏訪1-64","lat":35.630985,"lon":139.449759},{"name":"こばと第一保育園","province":"東京都","city":"多摩市","address":"多摩市諏訪4-7","lat":35.623814,"lon":139.458353},{"name":"のびのびっこ保育園","province":"東京都","city":"多摩市","address":"多摩市諏訪1-1-6","lat":35.635007,"lon":139.44942},{"name":"あすのき保育園","province":"東京都","city":"多摩市","address":"多摩市諏訪2-2-B-001ブリリア多摩ニュータウン","lat":35.625667,"lon":139.452556},{"name":"こぐま保育園","province":"東京都","city":"多摩市","address":"多摩市永山3-5","lat":35.626091,"lon":139.445948},{"name":"ゆりのき保育園","province":"東京都","city":"多摩市","address":"多摩市永山4-6","lat":35.621634,"lon":139.448323},{"name":"ピオニイ第二保育園","province":"東京都","city":"多摩市","address":"多摩市豊ヶ丘4-8","lat":35.615203,"lon":139.435292},{"name":"かおり保育園","province":"東京都","city":"多摩市","address":"多摩市落合4-15","lat":35.615128,"lon":139.430239},{"name":"あおぞら保育園","province":"東京都","city":"多摩市","address":"多摩市落合1-5-16","lat":35.626332,"lon":139.426675},{"name":"こころ保育園","province":"東京都","city":"多摩市","address":"多摩市鶴牧5-5","lat":35.611229,"lon":139.424157},{"name":"丘の上アンジュ保育園","province":"東京都","city":"多摩市","address":"多摩市鶴牧3-2ブリリア多摩センター","lat":35.618764,"lon":139.421093},{"name":"りすのき保育園","province":"東京都","city":"多摩市","address":"多摩市唐木田1-8-2","lat":35.614761,"lon":139.409199},{"name":"みさと保育所","province":"東京都","city":"多摩市","address":"多摩市愛宕2-53","lat":35.635068,"lon":139.437185},{"name":"南多摩保健所","province":"東京都","city":"多摩市","address":"多摩市永山2-1-5","lat":35.627949,"lon":139.447437},{"name":"桜ヶ丘記念病院","province":"東京都","city":"多摩市","address":"多摩市連光寺1-1-1","lat":35.64739,"lon":139.45787},{"name":"南多摩保健所","province":"東京都","city":"多摩市","address":"多摩市永山2-1-5","lat":35.62846,"lon":139.44521},{"name":"桜ケ丘記念病院","province":"東京都","city":"多摩市","address":"多摩市連光寺1-1-1","lat":35.64739,"lon":139.45787},{"name":"桜ヶ丘第一保育園","province":"東京都","city":"多摩市","address":"多摩市和田60-1","lat":35.643083,"lon":139.435118},{"name":"やまと保育園","province":"東京都","city":"多摩市","address":"多摩市和田1534","lat":35.645586,"lon":139.431568},{"name":"多摩保育園","province":"東京都","city":"多摩市","address":"多摩市和田418-1","lat":35.639823,"lon":139.435399},{"name":"バオバブ保育園","province":"東京都","city":"多摩市","address":"多摩市一ノ宮1-20-3","lat":35.652341,"lon":139.441517},{"name":"バオバブちいさな家保育園","province":"東京都","city":"多摩市","address":"多摩市一ノ宮3-9-1","lat":35.649855,"lon":139.443237},{"name":"貝取保育園","province":"東京都","city":"多摩市","address":"多摩市貝取4-10","lat":35.614365,"lon":139.440169},{"name":"みどりの保育園","province":"東京都","city":"多摩市","address":"多摩市連光寺3-57-2","lat":35.642548,"lon":139.4569},{"name":"かしのき保育園","province":"東京都","city":"多摩市","address":"多摩市諏訪1-64","lat":35.630985,"lon":139.449759},{"name":"こばと第一保育園","province":"東京都","city":"多摩市","address":"多摩市諏訪4-7","lat":35.623814,"lon":139.458353},{"name":"のびのびっこ保育園","province":"東京都","city":"多摩市","address":"多摩市諏訪1-1-6","lat":35.635007,"lon":139.44942},{"name":"あすのき保育園","province":"東京都","city":"多摩市","address":"多摩市諏訪2-2-B-001ブリリア多摩ニュータウン","lat":35.625667,"lon":139.452556},{"name":"こぐま保育園","province":"東京都","city":"多摩市","address":"多摩市永山3-5","lat":35.626091,"lon":139.445948},{"name":"ゆりのき保育園","province":"東京都","city":"多摩市","address":"多摩市永山4-6","lat":35.621634,"lon":139.448323},{"name":"ピオニイ第二保育園","province":"東京都","city":"多摩市","address":"多摩市豊ヶ丘4-8","lat":35.615203,"lon":139.435292},{"name":"かおり保育園","province":"東京都","city":"多摩市","address":"多摩市落合4-15","lat":35.615128,"lon":139.430239},{"name":"あおぞら保育園","province":"東京都","city":"多摩市","address":"多摩市落合1-5-16","lat":35.626332,"lon":139.426675},{"name":"こころ保育園","province":"東京都","city":"多摩市","address":"多摩市鶴牧5-5","lat":35.611229,"lon":139.424157},{"name":"丘の上アンジュ保育園","province":"東京都","city":"多摩市","address":"多摩市鶴牧3-2ブリリア多摩センター","lat":35.618764,"lon":139.421093},{"name":"りすのき保育園","province":"東京都","city":"多摩市","address":"多摩市唐木田1-8-2","lat":35.614761,"lon":139.409199},{"name":"みさと保育所","province":"東京都","city":"多摩市","address":"多摩市愛宕2-53","lat":35.635068,"lon":139.437185},{"name":"南多摩保健所","province":"東京都","city":"多摩市","address":"多摩市永山2-1-5","lat":35.627949,"lon":139.447437},{"name":"桜ヶ丘記念病院","province":"東京都","city":"多摩市","address":"多摩市連光寺1-1-1","lat":35.64739,"lon":139.45787},{"name":"南多摩保健所","province":"東京都","city":"多摩市","address":"多摩市永山2-1-5","lat":35.62846,"lon":139.44521},{"name":"桜ケ丘記念病院","province":"東京都","city":"多摩市","address":"多摩市連光寺1-1-1","lat":35.64739,"lon":139.45787},{"name":"桜ヶ丘第一保育園","province":"東京都","city":"多摩市","address":"多摩市和田60-1","lat":35.643083,"lon":139.435118},{"name":"やまと保育園","province":"東京都","city":"多摩市","address":"多摩市和田1534","lat":35.645586,"lon":139.431568},{"name":"多摩保育園","province":"東京都","city":"多摩市","address":"多摩市和田418-1","lat":35.639823,"lon":139.435399},{"name":"バオバブ保育園","province":"東京都","city":"多摩市","address":"多摩市一ノ宮1-20-3","lat":35.652341,"lon":139.441517},{"name":"バオバブちいさな家保育園","province":"東京都","city":"多摩市","address":"多摩市一ノ宮3-9-1","lat":35.649855,"lon":139.443237},{"name":"貝取保育園","province":"東京都","city":"多摩市","address":"多摩市貝取4-10","lat":35.614365,"lon":139.440169},{"name":"みどりの保育園","province":"東京都","city":"多摩市","address":"多摩市連光寺3-57-2","lat":35.642548,"lon":139.4569},{"name":"かしのき保育園","province":"東京都","city":"多摩市","address":"多摩市諏訪1-64","lat":35.630985,"lon":139.449759},{"name":"こばと第一保育園","province":"東京都","city":"多摩市","address":"多摩市諏訪4-7","lat":35.623814,"lon":139.458353},{"name":"のびのびっこ保育園","province":"東京都","city":"多摩市","address":"多摩市諏訪1-1-6","lat":35.635007,"lon":139.44942},{"name":"あすのき保育園","province":"東京都","city":"多摩市","address":"多摩市諏訪2-2-B-001ブリリア多摩ニュータウン","lat":35.625667,"lon":139.452556},{"name":"こぐま保育園","province":"東京都","city":"多摩市","address":"多摩市永山3-5","lat":35.626091,"lon":139.445948},{"name":"ゆりのき保育園","province":"東京都","city":"多摩市","address":"多摩市永山4-6","lat":35.621634,"lon":139.448323},{"name":"ピオニイ第二保育園","province":"東京都","city":"多摩市","address":"多摩市豊ヶ丘4-8","lat":35.615203,"lon":139.435292},{"name":"かおり保育園","province":"東京都","city":"多摩市","address":"多摩市落合4-15","lat":35.615128,"lon":139.430239},{"name":"あおぞら保育園","province":"東京都","city":"多摩市","address":"多摩市落合1-5-16","lat":35.626332,"lon":139.426675},{"name":"こころ保育園","province":"東京都","city":"多摩市","address":"多摩市鶴牧5-5","lat":35.611229,"lon":139.424157},{"name":"丘の上アンジュ保育園","province":"東京都","city":"多摩市","address":"多摩市鶴牧3-2ブリリア多摩センター","lat":35.618764,"lon":139.421093},{"name":"りすのき保育園","province":"東京都","city":"多摩市","address":"多摩市唐木田1-8-2","lat":35.614761,"lon":139.409199},{"name":"みさと保育所","province":"東京都","city":"多摩市","address":"多摩市愛宕2-53","lat":35.635068,"lon":139.437185},{"name":"南多摩保健所","province":"東京都","city":"多摩市","address":"多摩市永山2-1-5","lat":35.627949,"lon":139.447437},{"name":"桜ヶ丘記念病院","province":"東京都","city":"多摩市","address":"多摩市連光寺1-1-1","lat":35.64739,"lon":139.45787},{"name":"南多摩保健所","province":"東京都","city":"多摩市","address":"多摩市永山2-1-5","lat":35.62846,"lon":139.44521},{"name":"桜ケ丘記念病院","province":"東京都","city":"多摩市","address":"多摩市連光寺1-1-1","lat":35.64739,"lon":139.45787},{"name":"桜ヶ丘第一保育園","province":"東京都","city":"多摩市","address":"多摩市和田60-1","lat":35.643083,"lon":139.435118},{"name":"やまと保育園","province":"東京都","city":"多摩市","address":"多摩市和田1534","lat":35.645586,"lon":139.431568},{"name":"多摩保育園","province":"東京都","city":"多摩市","address":"多摩市和田418-1","lat":35.639823,"lon":139.435399},{"name":"バオバブ保育園","province":"東京都","city":"多摩市","address":"多摩市一ノ宮1-20-3","lat":35.652341,"lon":139.441517},{"name":"バオバブちいさな家保育園","province":"東京都","city":"多摩市","address":"多摩市一ノ宮3-9-1","lat":35.649855,"lon":139.443237},{"name":"貝取保育園","province":"東京都","city":"多摩市","address":"多摩市貝取4-10","lat":35.614365,"lon":139.440169},{"name":"みどりの保育園","province":"東京都","city":"多摩市","address":"多摩市連光寺3-57-2","lat":35.642548,"lon":139.4569},{"name":"かしのき保育園","province":"東京都","city":"多摩市","address":"多摩市諏訪1-64","lat":35.630985,"lon":139.449759},{"name":"こばと第一保育園","province":"東京都","city":"多摩市","address":"多摩市諏訪4-7","lat":35.623814,"lon":139.458353},{"name":"のびのびっこ保育園","province":"東京都","city":"多摩市","address":"多摩市諏訪1-1-6","lat":35.635007,"lon":139.44942},{"name":"あすのき保育園","province":"東京都","city":"多摩市","address":"多摩市諏訪2-2-B-001ブリリア多摩ニュータウン","lat":35.625667,"lon":139.452556},{"name":"こぐま保育園","province":"東京都","city":"多摩市","address":"多摩市永山3-5","lat":35.626091,"lon":139.445948},{"name":"ゆりのき保育園","province":"東京都","city":"多摩市","address":"多摩市永山4-6","lat":35.621634,"lon":139.448323},{"name":"ピオニイ第二保育園","province":"東京都","city":"多摩市","address":"多摩市豊ヶ丘4-8","lat":35.615203,"lon":139.435292},{"name":"かおり保育園","province":"東京都","city":"多摩市","address":"多摩市落合4-15","lat":35.615128,"lon":139.430239},{"name":"あおぞら保育園","province":"東京都","city":"多摩市","address":"多摩市落合1-5-16","lat":35.626332,"lon":139.426675},{"name":"こころ保育園","province":"東京都","city":"多摩市","address":"多摩市鶴牧5-5","lat":35.611229,"lon":139.424157},{"name":"丘の上アンジュ保育園","province":"東京都","city":"多摩市","address":"多摩市鶴牧3-2ブリリア多摩センター","lat":35.618764,"lon":139.421093},{"name":"りすのき保育園","province":"東京都","city":"多摩市","address":"多摩市唐木田1-8-2","lat":35.614761,"lon":139.409199},{"name":"みさと保育所","province":"東京都","city":"多摩市","address":"多摩市愛宕2-53","lat":35.635068,"lon":139.437185},{"name":"南多摩保健所","province":"東京都","city":"多摩市","address":"多摩市永山2-1-5","lat":35.627949,"lon":139.447437},{"name":"桜ヶ丘記念病院","province":"東京都","city":"多摩市","address":"多摩市連光寺1-1-1","lat":35.64739,"lon":139.45787},{"name":"南多摩保健所","province":"東京都","city":"多摩市","address":"多摩市永山2-1-5","lat":35.62846,"lon":139.44521},{"name":"桜ケ丘記念病院","province":"東京都","city":"多摩市","address":"多摩市連光寺1-1-1","lat":35.64739,"lon":139.45787},{"name":"桜ヶ丘第一保育園","province":"東京都","city":"多摩市","address":"多摩市和田60-1","lat":35.643083,"lon":139.435118},{"name":"やまと保育園","province":"東京都","city":"多摩市","address":"多摩市和田1534","lat":35.645586,"lon":139.431568},{"name":"多摩保育園","province":"東京都","city":"多摩市","address":"多摩市和田418-1","lat":35.639823,"lon":139.435399},{"name":"バオバブ保育園","province":"東京都","city":"多摩市","address":"多摩市一ノ宮1-20-3","lat":35.652341,"lon":139.441517},{"name":"バオバブちいさな家保育園","province":"東京都","city":"多摩市","address":"多摩市一ノ宮3-9-1","lat":35.649855,"lon":139.443237},{"name":"貝取保育園","province":"東京都","city":"多摩市","address":"多摩市貝取4-10","lat":35.614365,"lon":139.440169},{"name":"みどりの保育園","province":"東京都","city":"多摩市","address":"多摩市連光寺3-57-2","lat":35.642548,"lon":139.4569},{"name":"かしのき保育園","province":"東京都","city":"多摩市","address":"多摩市諏訪1-64","lat":35.630985,"lon":139.449759},{"name":"こばと第一保育園","province":"東京都","city":"多摩市","address":"多摩市諏訪4-7","lat":35.623814,"lon":139.458353},{"name":"のびのびっこ保育園","province":"東京都","city":"多摩市","address":"多摩市諏訪1-1-6","lat":35.635007,"lon":139.44942},{"name":"あすのき保育園","province":"東京都","city":"多摩市","address":"多摩市諏訪2-2-B-001ブリリア多摩ニュータウン","lat":35.625667,"lon":139.452556},{"name":"こぐま保育園","province":"東京都","city":"多摩市","address":"多摩市永山3-5","lat":35.626091,"lon":139.445948},{"name":"ゆりのき保育園","province":"東京都","city":"多摩市","address":"多摩市永山4-6","lat":35.621634,"lon":139.448323},{"name":"ピオニイ第二保育園","province":"東京都","city":"多摩市","address":"多摩市豊ヶ丘4-8","lat":35.615203,"lon":139.435292},{"name":"かおり保育園","province":"東京都","city":"多摩市","address":"多摩市落合4-15","lat":35.615128,"lon":139.430239},{"name":"あおぞら保育園","province":"東京都","city":"多摩市","address":"多摩市落合1-5-16","lat":35.626332,"lon":139.426675},{"name":"こころ保育園","province":"東京都","city":"多摩市","address":"多摩市鶴牧5-5","lat":35.611229,"lon":139.424157},{"name":"丘の上アンジュ保育園","province":"東京都","city":"多摩市","address":"多摩市鶴牧3-2ブリリア多摩センター","lat":35.618764,"lon":139.421093},{"name":"りすのき保育園","province":"東京都","city":"多摩市","address":"多摩市唐木田1-8-2","lat":35.614761,"lon":139.409199},{"name":"みさと保育所","province":"東京都","city":"多摩市","address":"多摩市愛宕2-53","lat":35.635068,"lon":139.437185},{"name":"南多摩保健所","province":"東京都","city":"多摩市","address":"多摩市永山2-1-5","lat":35.627949,"lon":139.447437},{"name":"桜ヶ丘記念病院","province":"東京都","city":"多摩市","address":"多摩市連光寺1-1-1","lat":35.64739,"lon":139.45787},{"name":"南多摩保健所","province":"東京都","city":"多摩市","address":"多摩市永山2-1-5","lat":35.62846,"lon":139.44521},{"name":"桜ケ丘記念病院","province":"東京都","city":"多摩市","address":"多摩市連光寺1-1-1","lat":35.64739,"lon":139.45787},{"name":"桜ヶ丘第一保育園","province":"東京都","city":"多摩市","address":"多摩市和田60-1","lat":35.643083,"lon":139.435118},{"name":"やまと保育園","province":"東京都","city":"多摩市","address":"多摩市和田1534","lat":35.645586,"lon":139.431568},{"name":"多摩保育園","province":"東京都","city":"多摩市","address":"多摩市和田418-1","lat":35.639823,"lon":139.435399},{"name":"バオバブ保育園","province":"東京都","city":"多摩市","address":"多摩市一ノ宮1-20-3","lat":35.652341,"lon":139.441517},{"name":"バオバブちいさな家保育園","province":"東京都","city":"多摩市","address":"多摩市一ノ宮3-9-1","lat":35.649855,"lon":139.443237},{"name":"貝取保育園","province":"東京都","city":"多摩市","address":"多摩市貝取4-10","lat":35.614365,"lon":139.440169},{"name":"みどりの保育園","province":"東京都","city":"多摩市","address":"多摩市連光寺3-57-2","lat":35.642548,"lon":139.4569},{"name":"かしのき保育園","province":"東京都","city":"多摩市","address":"多摩市諏訪1-64","lat":35.630985,"lon":139.449759},{"name":"こばと第一保育園","province":"東京都","city":"多摩市","address":"多摩市諏訪4-7","lat":35.623814,"lon":139.458353},{"name":"のびのびっこ保育園","province":"東京都","city":"多摩市","address":"多摩市諏訪1-1-6","lat":35.635007,"lon":139.44942},{"name":"あすのき保育園","province":"東京都","city":"多摩市","address":"多摩市諏訪2-2-B-001ブリリア多摩ニュータウン","lat":35.625667,"lon":139.452556},{"name":"こぐま保育園","province":"東京都","city":"多摩市","address":"多摩市永山3-5","lat":35.626091,"lon":139.445948},{"name":"ゆりのき保育園","province":"東京都","city":"多摩市","address":"多摩市永山4-6","lat":35.621634,"lon":139.448323},{"name":"ピオニイ第二保育園","province":"東京都","city":"多摩市","address":"多摩市豊ヶ丘4-8","lat":35.615203,"lon":139.435292},{"name":"かおり保育園","province":"東京都","city":"多摩市","address":"多摩市落合4-15","lat":35.615128,"lon":139.430239},{"name":"あおぞら保育園","province":"東京都","city":"多摩市","address":"多摩市落合1-5-16","lat":35.626332,"lon":139.426675},{"name":"こころ保育園","province":"東京都","city":"多摩市","address":"多摩市鶴牧5-5","lat":35.611229,"lon":139.424157},{"name":"丘の上アンジュ保育園","province":"東京都","city":"多摩市","address":"多摩市鶴牧3-2ブリリア多摩センター","lat":35.618764,"lon":139.421093},{"name":"りすのき保育園","province":"東京都","city":"多摩市","address":"多摩市唐木田1-8-2","lat":35.614761,"lon":139.409199},{"name":"みさと保育所","province":"東京都","city":"多摩市","address":"多摩市愛宕2-53","lat":35.635068,"lon":139.437185},{"name":"南多摩保健所","province":"東京都","city":"多摩市","address":"多摩市永山2-1-5","lat":35.627949,"lon":139.447437},{"name":"桜ヶ丘記念病院","province":"東京都","city":"多摩市","address":"多摩市連光寺1-1-1","lat":35.64739,"lon":139.45787},{"name":"南多摩保健所","province":"東京都","city":"多摩市","address":"多摩市永山2-1-5","lat":35.62846,"lon":139.44521},{"name":"桜ケ丘記念病院","province":"東京都","city":"多摩市","address":"多摩市連光寺1-1-1","lat":35.64739,"lon":139.45787},{"name":"桜ヶ丘第一保育園","province":"東京都","city":"多摩市","address":"多摩市和田60-1","lat":35.643083,"lon":139.435118},{"name":"やまと保育園","province":"東京都","city":"多摩市","address":"多摩市和田1534","lat":35.645586,"lon":139.431568},{"name":"多摩保育園","province":"東京都","city":"多摩市","address":"多摩市和田418-1","lat":35.639823,"lon":139.435399},{"name":"バオバブ保育園","province":"東京都","city":"多摩市","address":"多摩市一ノ宮1-20-3","lat":35.652341,"lon":139.441517},{"name":"バオバブちいさな家保育園","province":"東京都","city":"多摩市","address":"多摩市一ノ宮3-9-1","lat":35.649855,"lon":139.443237},{"name":"貝取保育園","province":"東京都","city":"多摩市","address":"多摩市貝取4-10","lat":35.614365,"lon":139.440169},{"name":"みどりの保育園","province":"東京都","city":"多摩市","address":"多摩市連光寺3-57-2","lat":35.642548,"lon":139.4569},{"name":"かしのき保育園","province":"東京都","city":"多摩市","address":"多摩市諏訪1-64","lat":35.630985,"lon":139.449759},{"name":"こばと第一保育園","province":"東京都","city":"多摩市","address":"多摩市諏訪4-7","lat":35.623814,"lon":139.458353},{"name":"のびのびっこ保育園","province":"東京都","city":"多摩市","address":"多摩市諏訪1-1-6","lat":35.635007,"lon":139.44942},{"name":"あすのき保育園","province":"東京都","city":"多摩市","address":"多摩市諏訪2-2-B-001ブリリア多摩ニュータウン","lat":35.625667,"lon":139.452556},{"name":"こぐま保育園","province":"東京都","city":"多摩市","address":"多摩市永山3-5","lat":35.626091,"lon":139.445948},{"name":"ゆりのき保育園","province":"東京都","city":"多摩市","address":"多摩市永山4-6","lat":35.621634,"lon":139.448323},{"name":"ピオニイ第二保育園","province":"東京都","city":"多摩市","address":"多摩市豊ヶ丘4-8","lat":35.615203,"lon":139.435292},{"name":"かおり保育園","province":"東京都","city":"多摩市","address":"多摩市落合4-15","lat":35.615128,"lon":139.430239},{"name":"あおぞら保育園","province":"東京都","city":"多摩市","address":"多摩市落合1-5-16","lat":35.626332,"lon":139.426675},{"name":"こころ保育園","province":"東京都","city":"多摩市","address":"多摩市鶴牧5-5","lat":35.611229,"lon":139.424157},{"name":"丘の上アンジュ保育園","province":"東京都","city":"多摩市","address":"多摩市鶴牧3-2ブリリア多摩センター","lat":35.618764,"lon":139.421093},{"name":"りすのき保育園","province":"東京都","city":"多摩市","address":"多摩市唐木田1-8-2","lat":35.614761,"lon":139.409199},{"name":"みさと保育所","province":"東京都","city":"多摩市","address":"多摩市愛宕2-53","lat":35.635068,"lon":139.437185},{"name":"南多摩保健所","province":"東京都","city":"多摩市","address":"多摩市永山2-1-5","lat":35.627949,"lon":139.447437},{"name":"桜ヶ丘記念病院","province":"東京都","city":"多摩市","address":"多摩市連光寺1-1-1","lat":35.64739,"lon":139.45787},{"name":"南多摩保健所","province":"東京都","city":"多摩市","address":"多摩市永山2-1-5","lat":35.62846,"lon":139.44521},{"name":"桜ケ丘記念病院","province":"東京都","city":"多摩市","address":"多摩市連光寺1-1-1","lat":35.64739,"lon":139.45787},{"name":"桜ヶ丘第一保育園","province":"東京都","city":"多摩市","address":"多摩市和田60-1","lat":35.643083,"lon":139.435118},{"name":"やまと保育園","province":"東京都","city":"多摩市","address":"多摩市和田1534","lat":35.645586,"lon":139.431568},{"name":"多摩保育園","province":"東京都","city":"多摩市","address":"多摩市和田418-1","lat":35.639823,"lon":139.435399},{"name":"バオバブ保育園","province":"東京都","city":"多摩市","address":"多摩市一ノ宮1-20-3","lat":35.652341,"lon":139.441517},{"name":"バオバブちいさな家保育園","province":"東京都","city":"多摩市","address":"多摩市一ノ宮3-9-1","lat":35.649855,"lon":139.443237},{"name":"貝取保育園","province":"東京都","city":"多摩市","address":"多摩市貝取4-10","lat":35.614365,"lon":139.440169},{"name":"みどりの保育園","province":"東京都","city":"多摩市","address":"多摩市連光寺3-57-2","lat":35.642548,"lon":139.4569},{"name":"かしのき保育園","province":"東京都","city":"多摩市","address":"多摩市諏訪1-64","lat":35.630985,"lon":139.449759},{"name":"こばと第一保育園","province":"東京都","city":"多摩市","address":"多摩市諏訪4-7","lat":35.623814,"lon":139.458353},{"name":"のびのびっこ保育園","province":"東京都","city":"多摩市","address":"多摩市諏訪1-1-6","lat":35.635007,"lon":139.44942},{"name":"あすのき保育園","province":"東京都","city":"多摩市","address":"多摩市諏訪2-2-B-001ブリリア多摩ニュータウン","lat":35.625667,"lon":139.452556},{"name":"こぐま保育園","province":"東京都","city":"多摩市","address":"多摩市永山3-5","lat":35.626091,"lon":139.445948},{"name":"ゆりのき保育園","province":"東京都","city":"多摩市","address":"多摩市永山4-6","lat":35.621634,"lon":139.448323},{"name":"ピオニイ第二保育園","province":"東京都","city":"多摩市","address":"多摩市豊ヶ丘4-8","lat":35.615203,"lon":139.435292},{"name":"かおり保育園","province":"東京都","city":"多摩市","address":"多摩市落合4-15","lat":35.615128,"lon":139.430239},{"name":"あおぞら保育園","province":"東京都","city":"多摩市","address":"多摩市落合1-5-16","lat":35.626332,"lon":139.426675},{"name":"こころ保育園","province":"東京都","city":"多摩市","address":"多摩市鶴牧5-5","lat":35.611229,"lon":139.424157},{"name":"丘の上アンジュ保育園","province":"東京都","city":"多摩市","address":"多摩市鶴牧3-2ブリリア多摩センター","lat":35.618764,"lon":139.421093},{"name":"りすのき保育園","province":"東京都","city":"多摩市","address":"多摩市唐木田1-8-2","lat":35.614761,"lon":139.409199},{"name":"みさと保育所","province":"東京都","city":"多摩市","address":"多摩市愛宕2-53","lat":35.635068,"lon":139.437185},{"name":"南多摩保健所","province":"東京都","city":"多摩市","address":"多摩市永山2-1-5","lat":35.627949,"lon":139.447437},{"name":"桜ヶ丘記念病院","province":"東京都","city":"多摩市","address":"多摩市連光寺1-1-1","lat":35.64739,"lon":139.45787},{"name":"南多摩保健所","province":"東京都","city":"多摩市","address":"多摩市永山2-1-5","lat":35.62846,"lon":139.44521},{"name":"桜ケ丘記念病院","province":"東京都","city":"多摩市","address":"多摩市連光寺1-1-1","lat":35.64739,"lon":139.45787},{"name":"桜ヶ丘第一保育園","province":"東京都","city":"多摩市","address":"多摩市和田60-1","lat":35.643083,"lon":139.435118},{"name":"やまと保育園","province":"東京都","city":"多摩市","address":"多摩市和田1534","lat":35.645586,"lon":139.431568},{"name":"多摩保育園","province":"東京都","city":"多摩市","address":"多摩市和田418-1","lat":35.639823,"lon":139.435399},{"name":"バオバブ保育園","province":"東京都","city":"多摩市","address":"多摩市一ノ宮1-20-3","lat":35.652341,"lon":139.441517},{"name":"バオバブちいさな家保育園","province":"東京都","city":"多摩市","address":"多摩市一ノ宮3-9-1","lat":35.649855,"lon":139.443237},{"name":"貝取保育園","province":"東京都","city":"多摩市","address":"多摩市貝取4-10","lat":35.614365,"lon":139.440169},{"name":"みどりの保育園","province":"東京都","city":"多摩市","address":"多摩市連光寺3-57-2","lat":35.642548,"lon":139.4569},{"name":"かしのき保育園","province":"東京都","city":"多摩市","address":"多摩市諏訪1-64","lat":35.630985,"lon":139.449759},{"name":"こばと第一保育園","province":"東京都","city":"多摩市","address":"多摩市諏訪4-7","lat":35.623814,"lon":139.458353},{"name":"のびのびっこ保育園","province":"東京都","city":"多摩市","address":"多摩市諏訪1-1-6","lat":35.635007,"lon":139.44942},{"name":"あすのき保育園","province":"東京都","city":"多摩市","address":"多摩市諏訪2-2-B-001ブリリア多摩ニュータウン","lat":35.625667,"lon":139.452556},{"name":"こぐま保育園","province":"東京都","city":"多摩市","address":"多摩市永山3-5","lat":35.626091,"lon":139.445948},{"name":"ゆりのき保育園","province":"東京都","city":"多摩市","address":"多摩市永山4-6","lat":35.621634,"lon":139.448323},{"name":"ピオニイ第二保育園","province":"東京都","city":"多摩市","address":"多摩市豊ヶ丘4-8","lat":35.615203,"lon":139.435292},{"name":"かおり保育園","province":"東京都","city":"多摩市","address":"多摩市落合4-15","lat":35.615128,"lon":139.430239},{"name":"あおぞら保育園","province":"東京都","city":"多摩市","address":"多摩市落合1-5-16","lat":35.626332,"lon":139.426675},{"name":"こころ保育園","province":"東京都","city":"多摩市","address":"多摩市鶴牧5-5","lat":35.611229,"lon":139.424157},{"name":"丘の上アンジュ保育園","province":"東京都","city":"多摩市","address":"多摩市鶴牧3-2ブリリア多摩センター","lat":35.618764,"lon":139.421093},{"name":"りすのき保育園","province":"東京都","city":"多摩市","address":"多摩市唐木田1-8-2","lat":35.614761,"lon":139.409199},{"name":"みさと保育所","province":"東京都","city":"多摩市","address":"多摩市愛宕2-53","lat":35.635068,"lon":139.437185},{"name":"南多摩保健所","province":"東京都","city":"多摩市","address":"多摩市永山2-1-5","lat":35.627949,"lon":139.447437},{"name":"桜ヶ丘記念病院","province":"東京都","city":"多摩市","address":"多摩市連光寺1-1-1","lat":35.64739,"lon":139.45787},{"name":"南多摩保健所","province":"東京都","city":"多摩市","address":"多摩市永山2-1-5","lat":35.62846,"lon":139.44521},{"name":"桜ケ丘記念病院","province":"東京都","city":"多摩市","address":"多摩市連光寺1-1-1","lat":35.64739,"lon":139.45787},{"name":"桜ヶ丘第一保育園","province":"東京都","city":"多摩市","address":"多摩市和田60-1","lat":35.643083,"lon":139.435118},{"name":"やまと保育園","province":"東京都","city":"多摩市","address":"多摩市和田1534","lat":35.645586,"lon":139.431568},{"name":"多摩保育園","province":"東京都","city":"多摩市","address":"多摩市和田418-1","lat":35.639823,"lon":139.435399},{"name":"バオバブ保育園","province":"東京都","city":"多摩市","address":"多摩市一ノ宮1-20-3","lat":35.652341,"lon":139.441517},{"name":"バオバブちいさな家保育園","province":"東京都","city":"多摩市","address":"多摩市一ノ宮3-9-1","lat":35.649855,"lon":139.443237},{"name":"貝取保育園","province":"東京都","city":"多摩市","address":"多摩市貝取4-10","lat":35.614365,"lon":139.440169},{"name":"みどりの保育園","province":"東京都","city":"多摩市","address":"多摩市連光寺3-57-2","lat":35.642548,"lon":139.4569},{"name":"かしのき保育園","province":"東京都","city":"多摩市","address":"多摩市諏訪1-64","lat":35.630985,"lon":139.449759},{"name":"こばと第一保育園","province":"東京都","city":"多摩市","address":"多摩市諏訪4-7","lat":35.623814,"lon":139.458353},{"name":"のびのびっこ保育園","province":"東京都","city":"多摩市","address":"多摩市諏訪1-1-6","lat":35.635007,"lon":139.44942},{"name":"あすのき保育園","province":"東京都","city":"多摩市","address":"多摩市諏訪2-2-B-001ブリリア多摩ニュータウン","lat":35.625667,"lon":139.452556},{"name":"こぐま保育園","province":"東京都","city":"多摩市","address":"多摩市永山3-5","lat":35.626091,"lon":139.445948},{"name":"ゆりのき保育園","province":"東京都","city":"多摩市","address":"多摩市永山4-6","lat":35.621634,"lon":139.448323},{"name":"ピオニイ第二保育園","province":"東京都","city":"多摩市","address":"多摩市豊ヶ丘4-8","lat":35.615203,"lon":139.435292},{"name":"かおり保育園","province":"東京都","city":"多摩市","address":"多摩市落合4-15","lat":35.615128,"lon":139.430239},{"name":"あおぞら保育園","province":"東京都","city":"多摩市","address":"多摩市落合1-5-16","lat":35.626332,"lon":139.426675},{"name":"こころ保育園","province":"東京都","city":"多摩市","address":"多摩市鶴牧5-5","lat":35.611229,"lon":139.424157},{"name":"丘の上アンジュ保育園","province":"東京都","city":"多摩市","address":"多摩市鶴牧3-2ブリリア多摩センター","lat":35.618764,"lon":139.421093},{"name":"りすのき保育園","province":"東京都","city":"多摩市","address":"多摩市唐木田1-8-2","lat":35.614761,"lon":139.409199},{"name":"みさと保育所","province":"東京都","city":"多摩市","address":"多摩市愛宕2-53","lat":35.635068,"lon":139.437185},{"name":"南多摩保健所","province":"東京都","city":"多摩市","address":"多摩市永山2-1-5","lat":35.627949,"lon":139.447437},{"name":"桜ヶ丘記念病院","province":"東京都","city":"多摩市","address":"多摩市連光寺1-1-1","lat":35.64739,"lon":139.45787},{"name":"南多摩保健所","province":"東京都","city":"多摩市","address":"多摩市永山2-1-5","lat":35.62846,"lon":139.44521},{"name":"桜ケ丘記念病院","province":"東京都","city":"多摩市","address":"多摩市連光寺1-1-1","lat":35.64739,"lon":139.45787},{"name":"桜ヶ丘第一保育園","province":"東京都","city":"多摩市","address":"多摩市和田60-1","lat":35.643083,"lon":139.435118},{"name":"やまと保育園","province":"東京都","city":"多摩市","address":"多摩市和田1534","lat":35.645586,"lon":139.431568},{"name":"多摩保育園","province":"東京都","city":"多摩市","address":"多摩市和田418-1","lat":35.639823,"lon":139.435399},{"name":"バオバブ保育園","province":"東京都","city":"多摩市","address":"多摩市一ノ宮1-20-3","lat":35.652341,"lon":139.441517},{"name":"バオバブちいさな家保育園","province":"東京都","city":"多摩市","address":"多摩市一ノ宮3-9-1","lat":35.649855,"lon":139.443237},{"name":"貝取保育園","province":"東京都","city":"多摩市","address":"多摩市貝取4-10","lat":35.614365,"lon":139.440169},{"name":"みどりの保育園","province":"東京都","city":"多摩市","address":"多摩市連光寺3-57-2","lat":35.642548,"lon":139.4569},{"name":"かしのき保育園","province":"東京都","city":"多摩市","address":"多摩市諏訪1-64","lat":35.630985,"lon":139.449759},{"name":"こばと第一保育園","province":"東京都","city":"多摩市","address":"多摩市諏訪4-7","lat":35.623814,"lon":139.458353},{"name":"のびのびっこ保育園","province":"東京都","city":"多摩市","address":"多摩市諏訪1-1-6","lat":35.635007,"lon":139.44942},{"name":"あすのき保育園","province":"東京都","city":"多摩市","address":"多摩市諏訪2-2-B-001ブリリア多摩ニュータウン","lat":35.625667,"lon":139.452556},{"name":"こぐま保育園","province":"東京都","city":"多摩市","address":"多摩市永山3-5","lat":35.626091,"lon":139.445948},{"name":"ゆりのき保育園","province":"東京都","city":"多摩市","address":"多摩市永山4-6","lat":35.621634,"lon":139.448323},{"name":"ピオニイ第二保育園","province":"東京都","city":"多摩市","address":"多摩市豊ヶ丘4-8","lat":35.615203,"lon":139.435292},{"name":"かおり保育園","province":"東京都","city":"多摩市","address":"多摩市落合4-15","lat":35.615128,"lon":139.430239},{"name":"あおぞら保育園","province":"東京都","city":"多摩市","address":"多摩市落合1-5-16","lat":35.626332,"lon":139.426675},{"name":"こころ保育園","province":"東京都","city":"多摩市","address":"多摩市鶴牧5-5","lat":35.611229,"lon":139.424157},{"name":"丘の上アンジュ保育園","province":"東京都","city":"多摩市","address":"多摩市鶴牧3-2ブリリア多摩センター","lat":35.618764,"lon":139.421093},{"name":"りすのき保育園","province":"東京都","city":"多摩市","address":"多摩市唐木田1-8-2","lat":35.614761,"lon":139.409199},{"name":"みさと保育所","province":"東京都","city":"多摩市","address":"多摩市愛宕2-53","lat":35.635068,"lon":139.437185},{"name":"南多摩保健所","province":"東京都","city":"多摩市","address":"多摩市永山2-1-5","lat":35.627949,"lon":139.447437},{"name":"桜ヶ丘記念病院","province":"東京都","city":"多摩市","address":"多摩市連光寺1-1-1","lat":35.64739,"lon":139.45787},{"name":"南多摩保健所","province":"東京都","city":"多摩市","address":"多摩市永山2-1-5","lat":35.62846,"lon":139.44521},{"name":"桜ケ丘記念病院","province":"東京都","city":"多摩市","address":"多摩市連光寺1-1-1","lat":35.64739,"lon":139.45787},{"name":"桜ヶ丘第一保育園","province":"東京都","city":"多摩市","address":"多摩市和田60-1","lat":35.643083,"lon":139.435118},{"name":"やまと保育園","province":"東京都","city":"多摩市","address":"多摩市和田1534","lat":35.645586,"lon":139.431568},{"name":"多摩保育園","province":"東京都","city":"多摩市","address":"多摩市和田418-1","lat":35.639823,"lon":139.435399},{"name":"バオバブ保育園","province":"東京都","city":"多摩市","address":"多摩市一ノ宮1-20-3","lat":35.652341,"lon":139.441517},{"name":"バオバブちいさな家保育園","province":"東京都","city":"多摩市","address":"多摩市一ノ宮3-9-1","lat":35.649855,"lon":139.443237},{"name":"貝取保育園","province":"東京都","city":"多摩市","address":"多摩市貝取4-10","lat":35.614365,"lon":139.440169},{"name":"みどりの保育園","province":"東京都","city":"多摩市","address":"多摩市連光寺3-57-2","lat":35.642548,"lon":139.4569},{"name":"かしのき保育園","province":"東京都","city":"多摩市","address":"多摩市諏訪1-64","lat":35.630985,"lon":139.449759},{"name":"こばと第一保育園","province":"東京都","city":"多摩市","address":"多摩市諏訪4-7","lat":35.623814,"lon":139.458353},{"name":"のびのびっこ保育園","province":"東京都","city":"多摩市","address":"多摩市諏訪1-1-6","lat":35.635007,"lon":139.44942},{"name":"あすのき保育園","province":"東京都","city":"多摩市","address":"多摩市諏訪2-2-B-001ブリリア多摩ニュータウン","lat":35.625667,"lon":139.452556},{"name":"こぐま保育園","province":"東京都","city":"多摩市","address":"多摩市永山3-5","lat":35.626091,"lon":139.445948},{"name":"ゆりのき保育園","province":"東京都","city":"多摩市","address":"多摩市永山4-6","lat":35.621634,"lon":139.448323},{"name":"ピオニイ第二保育園","province":"東京都","city":"多摩市","address":"多摩市豊ヶ丘4-8","lat":35.615203,"lon":139.435292},{"name":"かおり保育園","province":"東京都","city":"多摩市","address":"多摩市落合4-15","lat":35.615128,"lon":139.430239},{"name":"あおぞら保育園","province":"東京都","city":"多摩市","address":"多摩市落合1-5-16","lat":35.626332,"lon":139.426675},{"name":"こころ保育園","province":"東京都","city":"多摩市","address":"多摩市鶴牧5-5","lat":35.611229,"lon":139.424157},{"name":"丘の上アンジュ保育園","province":"東京都","city":"多摩市","address":"多摩市鶴牧3-2ブリリア多摩センター","lat":35.618764,"lon":139.421093},{"name":"りすのき保育園","province":"東京都","city":"多摩市","address":"多摩市唐木田1-8-2","lat":35.614761,"lon":139.409199},{"name":"みさと保育所","province":"東京都","city":"多摩市","address":"多摩市愛宕2-53","lat":35.635068,"lon":139.437185},{"name":"南多摩保健所","province":"東京都","city":"多摩市","address":"多摩市永山2-1-5","lat":35.627949,"lon":139.447437},{"name":"桜ヶ丘記念病院","province":"東京都","city":"多摩市","address":"多摩市連光寺1-1-1","lat":35.64739,"lon":139.45787},{"name":"南多摩保健所","province":"東京都","city":"多摩市","address":"多摩市永山2-1-5","lat":35.62846,"lon":139.44521},{"name":"桜ケ丘記念病院","province":"東京都","city":"多摩市","address":"多摩市連光寺1-1-1","lat":35.64739,"lon":139.45787},{"name":"桜ヶ丘第一保育園","province":"東京都","city":"多摩市","address":"多摩市和田60-1","lat":35.643083,"lon":139.435118},{"name":"やまと保育園","province":"東京都","city":"多摩市","address":"多摩市和田1534","lat":35.645586,"lon":139.431568},{"name":"多摩保育園","province":"東京都","city":"多摩市","address":"多摩市和田418-1","lat":35.639823,"lon":139.435399},{"name":"バオバブ保育園","province":"東京都","city":"多摩市","address":"多摩市一ノ宮1-20-3","lat":35.652341,"lon":139.441517},{"name":"バオバブちいさな家保育園","province":"東京都","city":"多摩市","address":"多摩市一ノ宮3-9-1","lat":35.649855,"lon":139.443237},{"name":"貝取保育園","province":"東京都","city":"多摩市","address":"多摩市貝取4-10","lat":35.614365,"lon":139.440169},{"name":"みどりの保育園","province":"東京都","city":"多摩市","address":"多摩市連光寺3-57-2","lat":35.642548,"lon":139.4569},{"name":"かしのき保育園","province":"東京都","city":"多摩市","address":"多摩市諏訪1-64","lat":35.630985,"lon":139.449759},{"name":"こばと第一保育園","province":"東京都","city":"多摩市","address":"多摩市諏訪4-7","lat":35.623814,"lon":139.458353},{"name":"のびのびっこ保育園","province":"東京都","city":"多摩市","address":"多摩市諏訪1-1-6","lat":35.635007,"lon":139.44942},{"name":"あすのき保育園","province":"東京都","city":"多摩市","address":"多摩市諏訪2-2-B-001ブリリア多摩ニュータウン","lat":35.625667,"lon":139.452556},{"name":"こぐま保育園","province":"東京都","city":"多摩市","address":"多摩市永山3-5","lat":35.626091,"lon":139.445948},{"name":"ゆりのき保育園","province":"東京都","city":"多摩市","address":"多摩市永山4-6","lat":35.621634,"lon":139.448323},{"name":"ピオニイ第二保育園","province":"東京都","city":"多摩市","address":"多摩市豊ヶ丘4-8","lat":35.615203,"lon":139.435292},{"name":"かおり保育園","province":"東京都","city":"多摩市","address":"多摩市落合4-15","lat":35.615128,"lon":139.430239},{"name":"あおぞら保育園","province":"東京都","city":"多摩市","address":"多摩市落合1-5-16","lat":35.626332,"lon":139.426675},{"name":"こころ保育園","province":"東京都","city":"多摩市","address":"多摩市鶴牧5-5","lat":35.611229,"lon":139.424157},{"name":"丘の上アンジュ保育園","province":"東京都","city":"多摩市","address":"多摩市鶴牧3-2ブリリア多摩センター","lat":35.618764,"lon":139.421093},{"name":"りすのき保育園","province":"東京都","city":"多摩市","address":"多摩市唐木田1-8-2","lat":35.614761,"lon":139.409199},{"name":"みさと保育所","province":"東京都","city":"多摩市","address":"多摩市愛宕2-53","lat":35.635068,"lon":139.437185},{"name":"南多摩保健所","province":"東京都","city":"多摩市","address":"多摩市永山2-1-5","lat":35.627949,"lon":139.447437},{"name":"桜ヶ丘記念病院","province":"東京都","city":"多摩市","address":"多摩市連光寺1-1-1","lat":35.64739,"lon":139.45787},{"name":"南多摩保健所","province":"東京都","city":"多摩市","address":"多摩市永山2-1-5","lat":35.62846,"lon":139.44521},{"name":"桜ケ丘記念病院","province":"東京都","city":"多摩市","address":"多摩市連光寺1-1-1","lat":35.64739,"lon":139.45787},{"name":"桜ヶ丘第一保育園","province":"東京都","city":"多摩市","address":"多摩市和田60-1","lat":35.643083,"lon":139.435118},{"name":"やまと保育園","province":"東京都","city":"多摩市","address":"多摩市和田1534","lat":35.645586,"lon":139.431568},{"name":"多摩保育園","province":"東京都","city":"多摩市","address":"多摩市和田418-1","lat":35.639823,"lon":139.435399},{"name":"バオバブ保育園","province":"東京都","city":"多摩市","address":"多摩市一ノ宮1-20-3","lat":35.652341,"lon":139.441517},{"name":"バオバブちいさな家保育園","province":"東京都","city":"多摩市","address":"多摩市一ノ宮3-9-1","lat":35.649855,"lon":139.443237},{"name":"貝取保育園","province":"東京都","city":"多摩市","address":"多摩市貝取4-10","lat":35.614365,"lon":139.440169},{"name":"みどりの保育園","province":"東京都","city":"多摩市","address":"多摩市連光寺3-57-2","lat":35.642548,"lon":139.4569},{"name":"かしのき保育園","province":"東京都","city":"多摩市","address":"多摩市諏訪1-64","lat":35.630985,"lon":139.449759},{"name":"こばと第一保育園","province":"東京都","city":"多摩市","address":"多摩市諏訪4-7","lat":35.623814,"lon":139.458353},{"name":"のびのびっこ保育園","province":"東京都","city":"多摩市","address":"多摩市諏訪1-1-6","lat":35.635007,"lon":139.44942},{"name":"あすのき保育園","province":"東京都","city":"多摩市","address":"多摩市諏訪2-2-B-001ブリリア多摩ニュータウン","lat":35.625667,"lon":139.452556},{"name":"こぐま保育園","province":"東京都","city":"多摩市","address":"多摩市永山3-5","lat":35.626091,"lon":139.445948},{"name":"ゆりのき保育園","province":"東京都","city":"多摩市","address":"多摩市永山4-6","lat":35.621634,"lon":139.448323},{"name":"ピオニイ第二保育園","province":"東京都","city":"多摩市","address":"多摩市豊ヶ丘4-8","lat":35.615203,"lon":139.435292},{"name":"かおり保育園","province":"東京都","city":"多摩市","address":"多摩市落合4-15","lat":35.615128,"lon":139.430239},{"name":"あおぞら保育園","province":"東京都","city":"多摩市","address":"多摩市落合1-5-16","lat":35.626332,"lon":139.426675},{"name":"こころ保育園","province":"東京都","city":"多摩市","address":"多摩市鶴牧5-5","lat":35.611229,"lon":139.424157},{"name":"丘の上アンジュ保育園","province":"東京都","city":"多摩市","address":"多摩市鶴牧3-2ブリリア多摩センター","lat":35.618764,"lon":139.421093},{"name":"りすのき保育園","province":"東京都","city":"多摩市","address":"多摩市唐木田1-8-2","lat":35.614761,"lon":139.409199},{"name":"みさと保育所","province":"東京都","city":"多摩市","address":"多摩市愛宕2-53","lat":35.635068,"lon":139.437185},{"name":"南多摩保健所","province":"東京都","city":"多摩市","address":"多摩市永山2-1-5","lat":35.627949,"lon":139.447437},{"name":"桜ヶ丘記念病院","province":"東京都","city":"多摩市","address":"多摩市連光寺1-1-1","lat":35.64739,"lon":139.45787},{"name":"南多摩保健所","province":"東京都","city":"多摩市","address":"多摩市永山2-1-5","lat":35.62846,"lon":139.44521},{"name":"桜ケ丘記念病院","province":"東京都","city":"多摩市","address":"多摩市連光寺1-1-1","lat":35.64739,"lon":139.45787},{"name":"桜ヶ丘第一保育園","province":"東京都","city":"多摩市","address":"多摩市和田60-1","lat":35.643083,"lon":139.435118},{"name":"やまと保育園","province":"東京都","city":"多摩市","address":"多摩市和田1534","lat":35.645586,"lon":139.431568},{"name":"多摩保育園","province":"東京都","city":"多摩市","address":"多摩市和田418-1","lat":35.639823,"lon":139.435399},{"name":"バオバブ保育園","province":"東京都","city":"多摩市","address":"多摩市一ノ宮1-20-3","lat":35.652341,"lon":139.441517},{"name":"バオバブちいさな家保育園","province":"東京都","city":"多摩市","address":"多摩市一ノ宮3-9-1","lat":35.649855,"lon":139.443237},{"name":"貝取保育園","province":"東京都","city":"多摩市","address":"多摩市貝取4-10","lat":35.614365,"lon":139.440169},{"name":"みどりの保育園","province":"東京都","city":"多摩市","address":"多摩市連光寺3-57-2","lat":35.642548,"lon":139.4569},{"name":"かしのき保育園","province":"東京都","city":"多摩市","address":"多摩市諏訪1-64","lat":35.630985,"lon":139.449759},{"name":"こばと第一保育園","province":"東京都","city":"多摩市","address":"多摩市諏訪4-7","lat":35.623814,"lon":139.458353},{"name":"のびのびっこ保育園","province":"東京都","city":"多摩市","address":"多摩市諏訪1-1-6","lat":35.635007,"lon":139.44942},{"name":"あすのき保育園","province":"東京都","city":"多摩市","address":"多摩市諏訪2-2-B-001ブリリア多摩ニュータウン","lat":35.625667,"lon":139.452556},{"name":"こぐま保育園","province":"東京都","city":"多摩市","address":"多摩市永山3-5","lat":35.626091,"lon":139.445948},{"name":"ゆりのき保育園","province":"東京都","city":"多摩市","address":"多摩市永山4-6","lat":35.621634,"lon":139.448323},{"name":"ピオニイ第二保育園","province":"東京都","city":"多摩市","address":"多摩市豊ヶ丘4-8","lat":35.615203,"lon":139.435292},{"name":"かおり保育園","province":"東京都","city":"多摩市","address":"多摩市落合4-15","lat":35.615128,"lon":139.430239},{"name":"あおぞら保育園","province":"東京都","city":"多摩市","address":"多摩市落合1-5-16","lat":35.626332,"lon":139.426675},{"name":"こころ保育園","province":"東京都","city":"多摩市","address":"多摩市鶴牧5-5","lat":35.611229,"lon":139.424157},{"name":"丘の上アンジュ保育園","province":"東京都","city":"多摩市","address":"多摩市鶴牧3-2ブリリア多摩センター","lat":35.618764,"lon":139.421093},{"name":"りすのき保育園","province":"東京都","city":"多摩市","address":"多摩市唐木田1-8-2","lat":35.614761,"lon":139.409199},{"name":"みさと保育所","province":"東京都","city":"多摩市","address":"多摩市愛宕2-53","lat":35.635068,"lon":139.437185},{"name":"南多摩保健所","province":"東京都","city":"多摩市","address":"多摩市永山2-1-5","lat":35.627949,"lon":139.447437},{"name":"桜ヶ丘記念病院","province":"東京都","city":"多摩市","address":"多摩市連光寺1-1-1","lat":35.64739,"lon":139.45787},{"name":"南多摩保健所","province":"東京都","city":"多摩市","address":"多摩市永山2-1-5","lat":35.62846,"lon":139.44521},{"name":"桜ケ丘記念病院","province":"東京都","city":"多摩市","address":"多摩市連光寺1-1-1","lat":35.64739,"lon":139.45787},{"name":"桜ヶ丘第一保育園","province":"東京都","city":"多摩市","address":"多摩市和田60-1","lat":35.643083,"lon":139.435118},{"name":"やまと保育園","province":"東京都","city":"多摩市","address":"多摩市和田1534","lat":35.645586,"lon":139.431568},{"name":"多摩保育園","province":"東京都","city":"多摩市","address":"多摩市和田418-1","lat":35.639823,"lon":139.435399},{"name":"バオバブ保育園","province":"東京都","city":"多摩市","address":"多摩市一ノ宮1-20-3","lat":35.652341,"lon":139.441517},{"name":"バオバブちいさな家保育園","province":"東京都","city":"多摩市","address":"多摩市一ノ宮3-9-1","lat":35.649855,"lon":139.443237},{"name":"貝取保育園","province":"東京都","city":"多摩市","address":"多摩市貝取4-10","lat":35.614365,"lon":139.440169},{"name":"みどりの保育園","province":"東京都","city":"多摩市","address":"多摩市連光寺3-57-2","lat":35.642548,"lon":139.4569},{"name":"かしのき保育園","province":"東京都","city":"多摩市","address":"多摩市諏訪1-64","lat":35.630985,"lon":139.449759},{"name":"こばと第一保育園","province":"東京都","city":"多摩市","address":"多摩市諏訪4-7","lat":35.623814,"lon":139.458353},{"name":"のびのびっこ保育園","province":"東京都","city":"多摩市","address":"多摩市諏訪1-1-6","lat":35.635007,"lon":139.44942},{"name":"あすのき保育園","province":"東京都","city":"多摩市","address":"多摩市諏訪2-2-B-001ブリリア多摩ニュータウン","lat":35.625667,"lon":139.452556},{"name":"こぐま保育園","province":"東京都","city":"多摩市","address":"多摩市永山3-5","lat":35.626091,"lon":139.445948},{"name":"ゆりのき保育園","province":"東京都","city":"多摩市","address":"多摩市永山4-6","lat":35.621634,"lon":139.448323},{"name":"ピオニイ第二保育園","province":"東京都","city":"多摩市","address":"多摩市豊ヶ丘4-8","lat":35.615203,"lon":139.435292},{"name":"かおり保育園","province":"東京都","city":"多摩市","address":"多摩市落合4-15","lat":35.615128,"lon":139.430239},{"name":"あおぞら保育園","province":"東京都","city":"多摩市","address":"多摩市落合1-5-16","lat":35.626332,"lon":139.426675},{"name":"こころ保育園","province":"東京都","city":"多摩市","address":"多摩市鶴牧5-5","lat":35.611229,"lon":139.424157},{"name":"丘の上アンジュ保育園","province":"東京都","city":"多摩市","address":"多摩市鶴牧3-2ブリリア多摩センター","lat":35.618764,"lon":139.421093},{"name":"りすのき保育園","province":"東京都","city":"多摩市","address":"多摩市唐木田1-8-2","lat":35.614761,"lon":139.409199},{"name":"みさと保育所","province":"東京都","city":"多摩市","address":"多摩市愛宕2-53","lat":35.635068,"lon":139.437185},{"name":"南多摩保健所","province":"東京都","city":"多摩市","address":"多摩市永山2-1-5","lat":35.627949,"lon":139.447437},{"name":"桜ヶ丘記念病院","province":"東京都","city":"多摩市","address":"多摩市連光寺1-1-1","lat":35.64739,"lon":139.45787},{"name":"南多摩保健所","province":"東京都","city":"多摩市","address":"多摩市永山2-1-5","lat":35.62846,"lon":139.44521},{"name":"桜ケ丘記念病院","province":"東京都","city":"多摩市","address":"多摩市連光寺1-1-1","lat":35.64739,"lon":139.45787},{"name":"桜ヶ丘第一保育園","province":"東京都","city":"多摩市","address":"多摩市和田60-1","lat":35.643083,"lon":139.435118},{"name":"やまと保育園","province":"東京都","city":"多摩市","address":"多摩市和田1534","lat":35.645586,"lon":139.431568},{"name":"多摩保育園","province":"東京都","city":"多摩市","address":"多摩市和田418-1","lat":35.639823,"lon":139.435399},{"name":"バオバブ保育園","province":"東京都","city":"多摩市","address":"多摩市一ノ宮1-20-3","lat":35.652341,"lon":139.441517},{"name":"バオバブちいさな家保育園","province":"東京都","city":"多摩市","address":"多摩市一ノ宮3-9-1","lat":35.649855,"lon":139.443237},{"name":"貝取保育園","province":"東京都","city":"多摩市","address":"多摩市貝取4-10","lat":35.614365,"lon":139.440169},{"name":"みどりの保育園","province":"東京都","city":"多摩市","address":"多摩市連光寺3-57-2","lat":35.642548,"lon":139.4569},{"name":"かしのき保育園","province":"東京都","city":"多摩市","address":"多摩市諏訪1-64","lat":35.630985,"lon":139.449759},{"name":"こばと第一保育園","province":"東京都","city":"多摩市","address":"多摩市諏訪4-7","lat":35.623814,"lon":139.458353},{"name":"のびのびっこ保育園","province":"東京都","city":"多摩市","address":"多摩市諏訪1-1-6","lat":35.635007,"lon":139.44942},{"name":"あすのき保育園","province":"東京都","city":"多摩市","address":"多摩市諏訪2-2-B-001ブリリア多摩ニュータウン","lat":35.625667,"lon":139.452556},{"name":"こぐま保育園","province":"東京都","city":"多摩市","address":"多摩市永山3-5","lat":35.626091,"lon":139.445948},{"name":"ゆりのき保育園","province":"東京都","city":"多摩市","address":"多摩市永山4-6","lat":35.621634,"lon":139.448323},{"name":"ピオニイ第二保育園","province":"東京都","city":"多摩市","address":"多摩市豊ヶ丘4-8","lat":35.615203,"lon":139.435292},{"name":"かおり保育園","province":"東京都","city":"多摩市","address":"多摩市落合4-15","lat":35.615128,"lon":139.430239},{"name":"あおぞら保育園","province":"東京都","city":"多摩市","address":"多摩市落合1-5-16","lat":35.626332,"lon":139.426675},{"name":"こころ保育園","province":"東京都","city":"多摩市","address":"多摩市鶴牧5-5","lat":35.611229,"lon":139.424157},{"name":"丘の上アンジュ保育園","province":"東京都","city":"多摩市","address":"多摩市鶴牧3-2ブリリア多摩センター","lat":35.618764,"lon":139.421093},{"name":"りすのき保育園","province":"東京都","city":"多摩市","address":"多摩市唐木田1-8-2","lat":35.614761,"lon":139.409199},{"name":"みさと保育所","province":"東京都","city":"多摩市","address":"多摩市愛宕2-53","lat":35.635068,"lon":139.437185},{"name":"南多摩保健所","province":"東京都","city":"多摩市","address":"多摩市永山2-1-5","lat":35.627949,"lon":139.447437},{"name":"桜ヶ丘記念病院","province":"東京都","city":"多摩市","address":"多摩市連光寺1-1-1","lat":35.64739,"lon":139.45787},{"name":"南多摩保健所","province":"東京都","city":"多摩市","address":"多摩市永山2-1-5","lat":35.62846,"lon":139.44521},{"name":"桜ケ丘記念病院","province":"東京都","city":"多摩市","address":"多摩市連光寺1-1-1","lat":35.64739,"lon":139.45787},{"name":"桜ヶ丘第一保育園","province":"東京都","city":"多摩市","address":"多摩市和田60-1","lat":35.643083,"lon":139.435118},{"name":"やまと保育園","province":"東京都","city":"多摩市","address":"多摩市和田1534","lat":35.645586,"lon":139.431568},{"name":"多摩保育園","province":"東京都","city":"多摩市","address":"多摩市和田418-1","lat":35.639823,"lon":139.435399},{"name":"バオバブ保育園","province":"東京都","city":"多摩市","address":"多摩市一ノ宮1-20-3","lat":35.652341,"lon":139.441517},{"name":"バオバブちいさな家保育園","province":"東京都","city":"多摩市","address":"多摩市一ノ宮3-9-1","lat":35.649855,"lon":139.443237},{"name":"貝取保育園","province":"東京都","city":"多摩市","address":"多摩市貝取4-10","lat":35.614365,"lon":139.440169},{"name":"みどりの保育園","province":"東京都","city":"多摩市","address":"多摩市連光寺3-57-2","lat":35.642548,"lon":139.4569},{"name":"かしのき保育園","province":"東京都","city":"多摩市","address":"多摩市諏訪1-64","lat":35.630985,"lon":139.449759},{"name":"こばと第一保育園","province":"東京都","city":"多摩市","address":"多摩市諏訪4-7","lat":35.623814,"lon":139.458353},{"name":"のびのびっこ保育園","province":"東京都","city":"多摩市","address":"多摩市諏訪1-1-6","lat":35.635007,"lon":139.44942},{"name":"あすのき保育園","province":"東京都","city":"多摩市","address":"多摩市諏訪2-2-B-001ブリリア多摩ニュータウン","lat":35.625667,"lon":139.452556},{"name":"こぐま保育園","province":"東京都","city":"多摩市","address":"多摩市永山3-5","lat":35.626091,"lon":139.445948},{"name":"ゆりのき保育園","province":"東京都","city":"多摩市","address":"多摩市永山4-6","lat":35.621634,"lon":139.448323},{"name":"ピオニイ第二保育園","province":"東京都","city":"多摩市","address":"多摩市豊ヶ丘4-8","lat":35.615203,"lon":139.435292},{"name":"かおり保育園","province":"東京都","city":"多摩市","address":"多摩市落合4-15","lat":35.615128,"lon":139.430239},{"name":"あおぞら保育園","province":"東京都","city":"多摩市","address":"多摩市落合1-5-16","lat":35.626332,"lon":139.426675},{"name":"こころ保育園","province":"東京都","city":"多摩市","address":"多摩市鶴牧5-5","lat":35.611229,"lon":139.424157},{"name":"丘の上アンジュ保育園","province":"東京都","city":"多摩市","address":"多摩市鶴牧3-2ブリリア多摩センター","lat":35.618764,"lon":139.421093},{"name":"りすのき保育園","province":"東京都","city":"多摩市","address":"多摩市唐木田1-8-2","lat":35.614761,"lon":139.409199},{"name":"みさと保育所","province":"東京都","city":"多摩市","address":"多摩市愛宕2-53","lat":35.635068,"lon":139.437185},{"name":"南多摩保健所","province":"東京都","city":"多摩市","address":"多摩市永山2-1-5","lat":35.627949,"lon":139.447437},{"name":"桜ヶ丘記念病院","province":"東京都","city":"多摩市","address":"多摩市連光寺1-1-1","lat":35.64739,"lon":139.45787},{"name":"南多摩保健所","province":"東京都","city":"多摩市","address":"多摩市永山2-1-5","lat":35.62846,"lon":139.44521},{"name":"桜ケ丘記念病院","province":"東京都","city":"多摩市","address":"多摩市連光寺1-1-1","lat":35.64739,"lon":139.45787},{"name":"桜ヶ丘第一保育園","province":"東京都","city":"多摩市","address":"多摩市和田60-1","lat":35.643083,"lon":139.435118},{"name":"やまと保育園","province":"東京都","city":"多摩市","address":"多摩市和田1534","lat":35.645586,"lon":139.431568},{"name":"多摩保育園","province":"東京都","city":"多摩市","address":"多摩市和田418-1","lat":35.639823,"lon":139.435399},{"name":"バオバブ保育園","province":"東京都","city":"多摩市","address":"多摩市一ノ宮1-20-3","lat":35.652341,"lon":139.441517},{"name":"バオバブちいさな家保育園","province":"東京都","city":"多摩市","address":"多摩市一ノ宮3-9-1","lat":35.649855,"lon":139.443237},{"name":"貝取保育園","province":"東京都","city":"多摩市","address":"多摩市貝取4-10","lat":35.614365,"lon":139.440169},{"name":"みどりの保育園","province":"東京都","city":"多摩市","address":"多摩市連光寺3-57-2","lat":35.642548,"lon":139.4569},{"name":"かしのき保育園","province":"東京都","city":"多摩市","address":"多摩市諏訪1-64","lat":35.630985,"lon":139.449759},{"name":"こばと第一保育園","province":"東京都","city":"多摩市","address":"多摩市諏訪4-7","lat":35.623814,"lon":139.458353},{"name":"のびのびっこ保育園","province":"東京都","city":"多摩市","address":"多摩市諏訪1-1-6","lat":35.635007,"lon":139.44942},{"name":"あすのき保育園","province":"東京都","city":"多摩市","address":"多摩市諏訪2-2-B-001ブリリア多摩ニュータウン","lat":35.625667,"lon":139.452556},{"name":"こぐま保育園","province":"東京都","city":"多摩市","address":"多摩市永山3-5","lat":35.626091,"lon":139.445948},{"name":"ゆりのき保育園","province":"東京都","city":"多摩市","address":"多摩市永山4-6","lat":35.621634,"lon":139.448323},{"name":"ピオニイ第二保育園","province":"東京都","city":"多摩市","address":"多摩市豊ヶ丘4-8","lat":35.615203,"lon":139.435292},{"name":"かおり保育園","province":"東京都","city":"多摩市","address":"多摩市落合4-15","lat":35.615128,"lon":139.430239},{"name":"あおぞら保育園","province":"東京都","city":"多摩市","address":"多摩市落合1-5-16","lat":35.626332,"lon":139.426675},{"name":"こころ保育園","province":"東京都","city":"多摩市","address":"多摩市鶴牧5-5","lat":35.611229,"lon":139.424157},{"name":"丘の上アンジュ保育園","province":"東京都","city":"多摩市","address":"多摩市鶴牧3-2ブリリア多摩センター","lat":35.618764,"lon":139.421093},{"name":"りすのき保育園","province":"東京都","city":"多摩市","address":"多摩市唐木田1-8-2","lat":35.614761,"lon":139.409199},{"name":"みさと保育所","province":"東京都","city":"多摩市","address":"多摩市愛宕2-53","lat":35.635068,"lon":139.437185},{"name":"南多摩保健所","province":"東京都","city":"多摩市","address":"多摩市永山2-1-5","lat":35.627949,"lon":139.447437},{"name":"桜ヶ丘記念病院","province":"東京都","city":"多摩市","address":"多摩市連光寺1-1-1","lat":35.64739,"lon":139.45787},{"name":"南多摩保健所","province":"東京都","city":"多摩市","address":"多摩市永山2-1-5","lat":35.62846,"lon":139.44521},{"name":"桜ケ丘記念病院","province":"東京都","city":"多摩市","address":"多摩市連光寺1-1-1","lat":35.64739,"lon":139.45787},{"name":"桜ヶ丘第一保育園","province":"東京都","city":"多摩市","address":"多摩市和田60-1","lat":35.643083,"lon":139.435118},{"name":"やまと保育園","province":"東京都","city":"多摩市","address":"多摩市和田1534","lat":35.645586,"lon":139.431568},{"name":"多摩保育園","province":"東京都","city":"多摩市","address":"多摩市和田418-1","lat":35.639823,"lon":139.435399},{"name":"バオバブ保育園","province":"東京都","city":"多摩市","address":"多摩市一ノ宮1-20-3","lat":35.652341,"lon":139.441517},{"name":"バオバブちいさな家保育園","province":"東京都","city":"多摩市","address":"多摩市一ノ宮3-9-1","lat":35.649855,"lon":139.443237},{"name":"貝取保育園","province":"東京都","city":"多摩市","address":"多摩市貝取4-10","lat":35.614365,"lon":139.440169},{"name":"みどりの保育園","province":"東京都","city":"多摩市","address":"多摩市連光寺3-57-2","lat":35.642548,"lon":139.4569},{"name":"かしのき保育園","province":"東京都","city":"多摩市","address":"多摩市諏訪1-64","lat":35.630985,"lon":139.449759},{"name":"こばと第一保育園","province":"東京都","city":"多摩市","address":"多摩市諏訪4-7","lat":35.623814,"lon":139.458353},{"name":"のびのびっこ保育園","province":"東京都","city":"多摩市","address":"多摩市諏訪1-1-6","lat":35.635007,"lon":139.44942},{"name":"あすのき保育園","province":"東京都","city":"多摩市","address":"多摩市諏訪2-2-B-001ブリリア多摩ニュータウン","lat":35.625667,"lon":139.452556},{"name":"こぐま保育園","province":"東京都","city":"多摩市","address":"多摩市永山3-5","lat":35.626091,"lon":139.445948},{"name":"ゆりのき保育園","province":"東京都","city":"多摩市","address":"多摩市永山4-6","lat":35.621634,"lon":139.448323},{"name":"ピオニイ第二保育園","province":"東京都","city":"多摩市","address":"多摩市豊ヶ丘4-8","lat":35.615203,"lon":139.435292},{"name":"かおり保育園","province":"東京都","city":"多摩市","address":"多摩市落合4-15","lat":35.615128,"lon":139.430239},{"name":"あおぞら保育園","province":"東京都","city":"多摩市","address":"多摩市落合1-5-16","lat":35.626332,"lon":139.426675},{"name":"こころ保育園","province":"東京都","city":"多摩市","address":"多摩市鶴牧5-5","lat":35.611229,"lon":139.424157},{"name":"丘の上アンジュ保育園","province":"東京都","city":"多摩市","address":"多摩市鶴牧3-2ブリリア多摩センター","lat":35.618764,"lon":139.421093},{"name":"りすのき保育園","province":"東京都","city":"多摩市","address":"多摩市唐木田1-8-2","lat":35.614761,"lon":139.409199},{"name":"みさと保育所","province":"東京都","city":"多摩市","address":"多摩市愛宕2-53","lat":35.635068,"lon":139.437185},{"name":"南多摩保健所","province":"東京都","city":"多摩市","address":"多摩市永山2-1-5","lat":35.627949,"lon":139.447437},{"name":"桜ヶ丘記念病院","province":"東京都","city":"多摩市","address":"多摩市連光寺1-1-1","lat":35.64739,"lon":139.45787},{"name":"南多摩保健所","province":"東京都","city":"多摩市","address":"多摩市永山2-1-5","lat":35.62846,"lon":139.44521},{"name":"桜ケ丘記念病院","province":"東京都","city":"多摩市","address":"多摩市連光寺1-1-1","lat":35.64739,"lon":139.45787},{"name":"桜ヶ丘第一保育園","province":"東京都","city":"多摩市","address":"多摩市和田60-1","lat":35.643083,"lon":139.435118},{"name":"やまと保育園","province":"東京都","city":"多摩市","address":"多摩市和田1534","lat":35.645586,"lon":139.431568},{"name":"多摩保育園","province":"東京都","city":"多摩市","address":"多摩市和田418-1","lat":35.639823,"lon":139.435399},{"name":"バオバブ保育園","province":"東京都","city":"多摩市","address":"多摩市一ノ宮1-20-3","lat":35.652341,"lon":139.441517},{"name":"バオバブちいさな家保育園","province":"東京都","city":"多摩市","address":"多摩市一ノ宮3-9-1","lat":35.649855,"lon":139.443237},{"name":"貝取保育園","province":"東京都","city":"多摩市","address":"多摩市貝取4-10","lat":35.614365,"lon":139.440169},{"name":"みどりの保育園","province":"東京都","city":"多摩市","address":"多摩市連光寺3-57-2","lat":35.642548,"lon":139.4569},{"name":"かしのき保育園","province":"東京都","city":"多摩市","address":"多摩市諏訪1-64","lat":35.630985,"lon":139.449759},{"name":"こばと第一保育園","province":"東京都","city":"多摩市","address":"多摩市諏訪4-7","lat":35.623814,"lon":139.458353},{"name":"のびのびっこ保育園","province":"東京都","city":"多摩市","address":"多摩市諏訪1-1-6","lat":35.635007,"lon":139.44942},{"name":"あすのき保育園","province":"東京都","city":"多摩市","address":"多摩市諏訪2-2-B-001ブリリア多摩ニュータウン","lat":35.625667,"lon":139.452556},{"name":"こぐま保育園","province":"東京都","city":"多摩市","address":"多摩市永山3-5","lat":35.626091,"lon":139.445948},{"name":"ゆりのき保育園","province":"東京都","city":"多摩市","address":"多摩市永山4-6","lat":35.621634,"lon":139.448323},{"name":"ピオニイ第二保育園","province":"東京都","city":"多摩市","address":"多摩市豊ヶ丘4-8","lat":35.615203,"lon":139.435292},{"name":"かおり保育園","province":"東京都","city":"多摩市","address":"多摩市落合4-15","lat":35.615128,"lon":139.430239},{"name":"あおぞら保育園","province":"東京都","city":"多摩市","address":"多摩市落合1-5-16","lat":35.626332,"lon":139.426675},{"name":"こころ保育園","province":"東京都","city":"多摩市","address":"多摩市鶴牧5-5","lat":35.611229,"lon":139.424157},{"name":"丘の上アンジュ保育園","province":"東京都","city":"多摩市","address":"多摩市鶴牧3-2ブリリア多摩センター","lat":35.618764,"lon":139.421093},{"name":"りすのき保育園","province":"東京都","city":"多摩市","address":"多摩市唐木田1-8-2","lat":35.614761,"lon":139.409199},{"name":"みさと保育所","province":"東京都","city":"多摩市","address":"多摩市愛宕2-53","lat":35.635068,"lon":139.437185},{"name":"南多摩保健所","province":"東京都","city":"多摩市","address":"多摩市永山2-1-5","lat":35.627949,"lon":139.447437},{"name":"桜ヶ丘記念病院","province":"東京都","city":"多摩市","address":"多摩市連光寺1-1-1","lat":35.64739,"lon":139.45787},{"name":"南多摩保健所","province":"東京都","city":"多摩市","address":"多摩市永山2-1-5","lat":35.62846,"lon":139.44521},{"name":"桜ケ丘記念病院","province":"東京都","city":"多摩市","address":"多摩市連光寺1-1-1","lat":35.64739,"lon":139.45787},{"name":"桜ヶ丘第一保育園","province":"東京都","city":"多摩市","address":"多摩市和田60-1","lat":35.643083,"lon":139.435118},{"name":"やまと保育園","province":"東京都","city":"多摩市","address":"多摩市和田1534","lat":35.645586,"lon":139.431568},{"name":"多摩保育園","province":"東京都","city":"多摩市","address":"多摩市和田418-1","lat":35.639823,"lon":139.435399},{"name":"バオバブ保育園","province":"東京都","city":"多摩市","address":"多摩市一ノ宮1-20-3","lat":35.652341,"lon":139.441517},{"name":"バオバブちいさな家保育園","province":"東京都","city":"多摩市","address":"多摩市一ノ宮3-9-1","lat":35.649855,"lon":139.443237},{"name":"貝取保育園","province":"東京都","city":"多摩市","address":"多摩市貝取4-10","lat":35.614365,"lon":139.440169},{"name":"みどりの保育園","province":"東京都","city":"多摩市","address":"多摩市連光寺3-57-2","lat":35.642548,"lon":139.4569},{"name":"かしのき保育園","province":"東京都","city":"多摩市","address":"多摩市諏訪1-64","lat":35.630985,"lon":139.449759},{"name":"こばと第一保育園","province":"東京都","city":"多摩市","address":"多摩市諏訪4-7","lat":35.623814,"lon":139.458353},{"name":"のびのびっこ保育園","province":"東京都","city":"多摩市","address":"多摩市諏訪1-1-6","lat":35.635007,"lon":139.44942},{"name":"あすのき保育園","province":"東京都","city":"多摩市","address":"多摩市諏訪2-2-B-001ブリリア多摩ニュータウン","lat":35.625667,"lon":139.452556},{"name":"こぐま保育園","province":"東京都","city":"多摩市","address":"多摩市永山3-5","lat":35.626091,"lon":139.445948},{"name":"ゆりのき保育園","province":"東京都","city":"多摩市","address":"多摩市永山4-6","lat":35.621634,"lon":139.448323},{"name":"ピオニイ第二保育園","province":"東京都","city":"多摩市","address":"多摩市豊ヶ丘4-8","lat":35.615203,"lon":139.435292},{"name":"かおり保育園","province":"東京都","city":"多摩市","address":"多摩市落合4-15","lat":35.615128,"lon":139.430239},{"name":"あおぞら保育園","province":"東京都","city":"多摩市","address":"多摩市落合1-5-16","lat":35.626332,"lon":139.426675},{"name":"こころ保育園","province":"東京都","city":"多摩市","address":"多摩市鶴牧5-5","lat":35.611229,"lon":139.424157},{"name":"丘の上アンジュ保育園","province":"東京都","city":"多摩市","address":"多摩市鶴牧3-2ブリリア多摩センター","lat":35.618764,"lon":139.421093},{"name":"りすのき保育園","province":"東京都","city":"多摩市","address":"多摩市唐木田1-8-2","lat":35.614761,"lon":139.409199},{"name":"みさと保育所","province":"東京都","city":"多摩市","address":"多摩市愛宕2-53","lat":35.635068,"lon":139.437185},{"name":"南多摩保健所","province":"東京都","city":"多摩市","address":"多摩市永山2-1-5","lat":35.627949,"lon":139.447437},{"name":"桜ヶ丘記念病院","province":"東京都","city":"多摩市","address":"多摩市連光寺1-1-1","lat":35.64739,"lon":139.45787},{"name":"南多摩保健所","province":"東京都","city":"多摩市","address":"多摩市永山2-1-5","lat":35.62846,"lon":139.44521},{"name":"桜ケ丘記念病院","province":"東京都","city":"多摩市","address":"多摩市連光寺1-1-1","lat":35.64739,"lon":139.45787},{"name":"桜ヶ丘第一保育園","province":"東京都","city":"多摩市","address":"多摩市和田60-1","lat":35.643083,"lon":139.435118},{"name":"やまと保育園","province":"東京都","city":"多摩市","address":"多摩市和田1534","lat":35.645586,"lon":139.431568},{"name":"多摩保育園","province":"東京都","city":"多摩市","address":"多摩市和田418-1","lat":35.639823,"lon":139.435399},{"name":"バオバブ保育園","province":"東京都","city":"多摩市","address":"多摩市一ノ宮1-20-3","lat":35.652341,"lon":139.441517},{"name":"バオバブちいさな家保育園","province":"東京都","city":"多摩市","address":"多摩市一ノ宮3-9-1","lat":35.649855,"lon":139.443237},{"name":"貝取保育園","province":"東京都","city":"多摩市","address":"多摩市貝取4-10","lat":35.614365,"lon":139.440169},{"name":"みどりの保育園","province":"東京都","city":"多摩市","address":"多摩市連光寺3-57-2","lat":35.642548,"lon":139.4569},{"name":"かしのき保育園","province":"東京都","city":"多摩市","address":"多摩市諏訪1-64","lat":35.630985,"lon":139.449759},{"name":"こばと第一保育園","province":"東京都","city":"多摩市","address":"多摩市諏訪4-7","lat":35.623814,"lon":139.458353},{"name":"のびのびっこ保育園","province":"東京都","city":"多摩市","address":"多摩市諏訪1-1-6","lat":35.635007,"lon":139.44942},{"name":"あすのき保育園","province":"東京都","city":"多摩市","address":"多摩市諏訪2-2-B-001ブリリア多摩ニュータウン","lat":35.625667,"lon":139.452556},{"name":"こぐま保育園","province":"東京都","city":"多摩市","address":"多摩市永山3-5","lat":35.626091,"lon":139.445948},{"name":"ゆりのき保育園","province":"東京都","city":"多摩市","address":"多摩市永山4-6","lat":35.621634,"lon":139.448323},{"name":"ピオニイ第二保育園","province":"東京都","city":"多摩市","address":"多摩市豊ヶ丘4-8","lat":35.615203,"lon":139.435292},{"name":"かおり保育園","province":"東京都","city":"多摩市","address":"多摩市落合4-15","lat":35.615128,"lon":139.430239},{"name":"あおぞら保育園","province":"東京都","city":"多摩市","address":"多摩市落合1-5-16","lat":35.626332,"lon":139.426675},{"name":"こころ保育園","province":"東京都","city":"多摩市","address":"多摩市鶴牧5-5","lat":35.611229,"lon":139.424157},{"name":"丘の上アンジュ保育園","province":"東京都","city":"多摩市","address":"多摩市鶴牧3-2ブリリア多摩センター","lat":35.618764,"lon":139.421093},{"name":"りすのき保育園","province":"東京都","city":"多摩市","address":"多摩市唐木田1-8-2","lat":35.614761,"lon":139.409199},{"name":"みさと保育所","province":"東京都","city":"多摩市","address":"多摩市愛宕2-53","lat":35.635068,"lon":139.437185},{"name":"南多摩保健所","province":"東京都","city":"多摩市","address":"多摩市永山2-1-5","lat":35.627949,"lon":139.447437},{"name":"桜ヶ丘記念病院","province":"東京都","city":"多摩市","address":"多摩市連光寺1-1-1","lat":35.64739,"lon":139.45787},{"name":"南多摩保健所","province":"東京都","city":"多摩市","address":"多摩市永山2-1-5","lat":35.62846,"lon":139.44521},{"name":"桜ケ丘記念病院","province":"東京都","city":"多摩市","address":"多摩市連光寺1-1-1","lat":35.64739,"lon":139.45787},{"name":"桜ヶ丘第一保育園","province":"東京都","city":"多摩市","address":"多摩市和田60-1","lat":35.643083,"lon":139.435118},{"name":"やまと保育園","province":"東京都","city":"多摩市","address":"多摩市和田1534","lat":35.645586,"lon":139.431568},{"name":"多摩保育園","province":"東京都","city":"多摩市","address":"多摩市和田418-1","lat":35.639823,"lon":139.435399},{"name":"バオバブ保育園","province":"東京都","city":"多摩市","address":"多摩市一ノ宮1-20-3","lat":35.652341,"lon":139.441517},{"name":"バオバブちいさな家保育園","province":"東京都","city":"多摩市","address":"多摩市一ノ宮3-9-1","lat":35.649855,"lon":139.443237},{"name":"貝取保育園","province":"東京都","city":"多摩市","address":"多摩市貝取4-10","lat":35.614365,"lon":139.440169},{"name":"みどりの保育園","province":"東京都","city":"多摩市","address":"多摩市連光寺3-57-2","lat":35.642548,"lon":139.4569},{"name":"かしのき保育園","province":"東京都","city":"多摩市","address":"多摩市諏訪1-64","lat":35.630985,"lon":139.449759},{"name":"こばと第一保育園","province":"東京都","city":"多摩市","address":"多摩市諏訪4-7","lat":35.623814,"lon":139.458353},{"name":"のびのびっこ保育園","province":"東京都","city":"多摩市","address":"多摩市諏訪1-1-6","lat":35.635007,"lon":139.44942},{"name":"あすのき保育園","province":"東京都","city":"多摩市","address":"多摩市諏訪2-2-B-001ブリリア多摩ニュータウン","lat":35.625667,"lon":139.452556},{"name":"こぐま保育園","province":"東京都","city":"多摩市","address":"多摩市永山3-5","lat":35.626091,"lon":139.445948},{"name":"ゆりのき保育園","province":"東京都","city":"多摩市","address":"多摩市永山4-6","lat":35.621634,"lon":139.448323},{"name":"ピオニイ第二保育園","province":"東京都","city":"多摩市","address":"多摩市豊ヶ丘4-8","lat":35.615203,"lon":139.435292},{"name":"かおり保育園","province":"東京都","city":"多摩市","address":"多摩市落合4-15","lat":35.615128,"lon":139.430239},{"name":"あおぞら保育園","province":"東京都","city":"多摩市","address":"多摩市落合1-5-16","lat":35.626332,"lon":139.426675},{"name":"こころ保育園","province":"東京都","city":"多摩市","address":"多摩市鶴牧5-5","lat":35.611229,"lon":139.424157},{"name":"丘の上アンジュ保育園","province":"東京都","city":"多摩市","address":"多摩市鶴牧3-2ブリリア多摩センター","lat":35.618764,"lon":139.421093},{"name":"りすのき保育園","province":"東京都","city":"多摩市","address":"多摩市唐木田1-8-2","lat":35.614761,"lon":139.409199},{"name":"みさと保育所","province":"東京都","city":"多摩市","address":"多摩市愛宕2-53","lat":35.635068,"lon":139.437185},{"name":"南多摩保健所","province":"東京都","city":"多摩市","address":"多摩市永山2-1-5","lat":35.627949,"lon":139.447437},{"name":"桜ヶ丘記念病院","province":"東京都","city":"多摩市","address":"多摩市連光寺1-1-1","lat":35.64739,"lon":139.45787},{"name":"南多摩保健所","province":"東京都","city":"多摩市","address":"多摩市永山2-1-5","lat":35.62846,"lon":139.44521},{"name":"桜ケ丘記念病院","province":"東京都","city":"多摩市","address":"多摩市連光寺1-1-1","lat":35.64739,"lon":139.45787},{"name":"桜ヶ丘第一保育園","province":"東京都","city":"多摩市","address":"多摩市和田60-1","lat":35.643083,"lon":139.435118},{"name":"やまと保育園","province":"東京都","city":"多摩市","address":"多摩市和田1534","lat":35.645586,"lon":139.431568},{"name":"多摩保育園","province":"東京都","city":"多摩市","address":"多摩市和田418-1","lat":35.639823,"lon":139.435399},{"name":"バオバブ保育園","province":"東京都","city":"多摩市","address":"多摩市一ノ宮1-20-3","lat":35.652341,"lon":139.441517},{"name":"バオバブちいさな家保育園","province":"東京都","city":"多摩市","address":"多摩市一ノ宮3-9-1","lat":35.649855,"lon":139.443237},{"name":"貝取保育園","province":"東京都","city":"多摩市","address":"多摩市貝取4-10","lat":35.614365,"lon":139.440169},{"name":"みどりの保育園","province":"東京都","city":"多摩市","address":"多摩市連光寺3-57-2","lat":35.642548,"lon":139.4569},{"name":"かしのき保育園","province":"東京都","city":"多摩市","address":"多摩市諏訪1-64","lat":35.630985,"lon":139.449759},{"name":"こばと第一保育園","province":"東京都","city":"多摩市","address":"多摩市諏訪4-7","lat":35.623814,"lon":139.458353},{"name":"のびのびっこ保育園","province":"東京都","city":"多摩市","address":"多摩市諏訪1-1-6","lat":35.635007,"lon":139.44942},{"name":"あすのき保育園","province":"東京都","city":"多摩市","address":"多摩市諏訪2-2-B-001ブリリア多摩ニュータウン","lat":35.625667,"lon":139.452556},{"name":"こぐま保育園","province":"東京都","city":"多摩市","address":"多摩市永山3-5","lat":35.626091,"lon":139.445948},{"name":"ゆりのき保育園","province":"東京都","city":"多摩市","address":"多摩市永山4-6","lat":35.621634,"lon":139.448323},{"name":"ピオニイ第二保育園","province":"東京都","city":"多摩市","address":"多摩市豊ヶ丘4-8","lat":35.615203,"lon":139.435292},{"name":"かおり保育園","province":"東京都","city":"多摩市","address":"多摩市落合4-15","lat":35.615128,"lon":139.430239},{"name":"あおぞら保育園","province":"東京都","city":"多摩市","address":"多摩市落合1-5-16","lat":35.626332,"lon":139.426675},{"name":"こころ保育園","province":"東京都","city":"多摩市","address":"多摩市鶴牧5-5","lat":35.611229,"lon":139.424157},{"name":"丘の上アンジュ保育園","province":"東京都","city":"多摩市","address":"多摩市鶴牧3-2ブリリア多摩センター","lat":35.618764,"lon":139.421093},{"name":"りすのき保育園","province":"東京都","city":"多摩市","address":"多摩市唐木田1-8-2","lat":35.614761,"lon":139.409199},{"name":"みさと保育所","province":"東京都","city":"多摩市","address":"多摩市愛宕2-53","lat":35.635068,"lon":139.437185},{"name":"南多摩保健所","province":"東京都","city":"多摩市","address":"多摩市永山2-1-5","lat":35.627949,"lon":139.447437},{"name":"桜ヶ丘記念病院","province":"東京都","city":"多摩市","address":"多摩市連光寺1-1-1","lat":35.64739,"lon":139.45787},{"name":"南多摩保健所","province":"東京都","city":"多摩市","address":"多摩市永山2-1-5","lat":35.62846,"lon":139.44521},{"name":"桜ケ丘記念病院","province":"東京都","city":"多摩市","address":"多摩市連光寺1-1-1","lat":35.64739,"lon":139.45787},{"name":"桜ヶ丘第一保育園","province":"東京都","city":"多摩市","address":"多摩市和田60-1","lat":35.643083,"lon":139.435118},{"name":"やまと保育園","province":"東京都","city":"多摩市","address":"多摩市和田1534","lat":35.645586,"lon":139.431568},{"name":"多摩保育園","province":"東京都","city":"多摩市","address":"多摩市和田418-1","lat":35.639823,"lon":139.435399},{"name":"バオバブ保育園","province":"東京都","city":"多摩市","address":"多摩市一ノ宮1-20-3","lat":35.652341,"lon":139.441517},{"name":"バオバブちいさな家保育園","province":"東京都","city":"多摩市","address":"多摩市一ノ宮3-9-1","lat":35.649855,"lon":139.443237},{"name":"貝取保育園","province":"東京都","city":"多摩市","address":"多摩市貝取4-10","lat":35.614365,"lon":139.440169},{"name":"みどりの保育園","province":"東京都","city":"多摩市","address":"多摩市連光寺3-57-2","lat":35.642548,"lon":139.4569},{"name":"かしのき保育園","province":"東京都","city":"多摩市","address":"多摩市諏訪1-64","lat":35.630985,"lon":139.449759},{"name":"こばと第一保育園","province":"東京都","city":"多摩市","address":"多摩市諏訪4-7","lat":35.623814,"lon":139.458353},{"name":"のびのびっこ保育園","province":"東京都","city":"多摩市","address":"多摩市諏訪1-1-6","lat":35.635007,"lon":139.44942},{"name":"あすのき保育園","province":"東京都","city":"多摩市","address":"多摩市諏訪2-2-B-001ブリリア多摩ニュータウン","lat":35.625667,"lon":139.452556},{"name":"こぐま保育園","province":"東京都","city":"多摩市","address":"多摩市永山3-5","lat":35.626091,"lon":139.445948},{"name":"ゆりのき保育園","province":"東京都","city":"多摩市","address":"多摩市永山4-6","lat":35.621634,"lon":139.448323},{"name":"ピオニイ第二保育園","province":"東京都","city":"多摩市","address":"多摩市豊ヶ丘4-8","lat":35.615203,"lon":139.435292},{"name":"かおり保育園","province":"東京都","city":"多摩市","address":"多摩市落合4-15","lat":35.615128,"lon":139.430239},{"name":"あおぞら保育園","province":"東京都","city":"多摩市","address":"多摩市落合1-5-16","lat":35.626332,"lon":139.426675},{"name":"こころ保育園","province":"東京都","city":"多摩市","address":"多摩市鶴牧5-5","lat":35.611229,"lon":139.424157},{"name":"丘の上アンジュ保育園","province":"東京都","city":"多摩市","address":"多摩市鶴牧3-2ブリリア多摩センター","lat":35.618764,"lon":139.421093},{"name":"りすのき保育園","province":"東京都","city":"多摩市","address":"多摩市唐木田1-8-2","lat":35.614761,"lon":139.409199},{"name":"みさと保育所","province":"東京都","city":"多摩市","address":"多摩市愛宕2-53","lat":35.635068,"lon":139.437185},{"name":"南多摩保健所","province":"東京都","city":"多摩市","address":"多摩市永山2-1-5","lat":35.627949,"lon":139.447437},{"name":"桜ヶ丘記念病院","province":"東京都","city":"多摩市","address":"多摩市連光寺1-1-1","lat":35.64739,"lon":139.45787},{"name":"南多摩保健所","province":"東京都","city":"多摩市","address":"多摩市永山2-1-5","lat":35.62846,"lon":139.44521},{"name":"桜ケ丘記念病院","province":"東京都","city":"多摩市","address":"多摩市連光寺1-1-1","lat":35.64739,"lon":139.45787},{"name":"桜ヶ丘第一保育園","province":"東京都","city":"多摩市","address":"多摩市和田60-1","lat":35.643083,"lon":139.435118},{"name":"やまと保育園","province":"東京都","city":"多摩市","address":"多摩市和田1534","lat":35.645586,"lon":139.431568},{"name":"多摩保育園","province":"東京都","city":"多摩市","address":"多摩市和田418-1","lat":35.639823,"lon":139.435399},{"name":"バオバブ保育園","province":"東京都","city":"多摩市","address":"多摩市一ノ宮1-20-3","lat":35.652341,"lon":139.441517},{"name":"バオバブちいさな家保育園","province":"東京都","city":"多摩市","address":"多摩市一ノ宮3-9-1","lat":35.649855,"lon":139.443237},{"name":"貝取保育園","province":"東京都","city":"多摩市","address":"多摩市貝取4-10","lat":35.614365,"lon":139.440169},{"name":"みどりの保育園","province":"東京都","city":"多摩市","address":"多摩市連光寺3-57-2","lat":35.642548,"lon":139.4569},{"name":"かしのき保育園","province":"東京都","city":"多摩市","address":"多摩市諏訪1-64","lat":35.630985,"lon":139.449759},{"name":"こばと第一保育園","province":"東京都","city":"多摩市","address":"多摩市諏訪4-7","lat":35.623814,"lon":139.458353},{"name":"のびのびっこ保育園","province":"東京都","city":"多摩市","address":"多摩市諏訪1-1-6","lat":35.635007,"lon":139.44942},{"name":"あすのき保育園","province":"東京都","city":"多摩市","address":"多摩市諏訪2-2-B-001ブリリア多摩ニュータウン","lat":35.625667,"lon":139.452556},{"name":"こぐま保育園","province":"東京都","city":"多摩市","address":"多摩市永山3-5","lat":35.626091,"lon":139.445948},{"name":"ゆりのき保育園","province":"東京都","city":"多摩市","address":"多摩市永山4-6","lat":35.621634,"lon":139.448323},{"name":"ピオニイ第二保育園","province":"東京都","city":"多摩市","address":"多摩市豊ヶ丘4-8","lat":35.615203,"lon":139.435292},{"name":"かおり保育園","province":"東京都","city":"多摩市","address":"多摩市落合4-15","lat":35.615128,"lon":139.430239},{"name":"あおぞら保育園","province":"東京都","city":"多摩市","address":"多摩市落合1-5-16","lat":35.626332,"lon":139.426675},{"name":"こころ保育園","province":"東京都","city":"多摩市","address":"多摩市鶴牧5-5","lat":35.611229,"lon":139.424157},{"name":"丘の上アンジュ保育園","province":"東京都","city":"多摩市","address":"多摩市鶴牧3-2ブリリア多摩センター","lat":35.618764,"lon":139.421093},{"name":"りすのき保育園","province":"東京都","city":"多摩市","address":"多摩市唐木田1-8-2","lat":35.614761,"lon":139.409199},{"name":"みさと保育所","province":"東京都","city":"多摩市","address":"多摩市愛宕2-53","lat":35.635068,"lon":139.437185},{"name":"南多摩保健所","province":"東京都","city":"多摩市","address":"多摩市永山2-1-5","lat":35.627949,"lon":139.447437},{"name":"桜ヶ丘記念病院","province":"東京都","city":"多摩市","address":"多摩市連光寺1-1-1","lat":35.64739,"lon":139.45787},{"name":"南多摩保健所","province":"東京都","city":"多摩市","address":"多摩市永山2-1-5","lat":35.62846,"lon":139.44521},{"name":"桜ケ丘記念病院","province":"東京都","city":"多摩市","address":"多摩市連光寺1-1-1","lat":35.64739,"lon":139.45787},{"name":"桜ヶ丘第一保育園","province":"東京都","city":"多摩市","address":"多摩市和田60-1","lat":35.643083,"lon":139.435118},{"name":"やまと保育園","province":"東京都","city":"多摩市","address":"多摩市和田1534","lat":35.645586,"lon":139.431568},{"name":"多摩保育園","province":"東京都","city":"多摩市","address":"多摩市和田418-1","lat":35.639823,"lon":139.435399},{"name":"バオバブ保育園","province":"東京都","city":"多摩市","address":"多摩市一ノ宮1-20-3","lat":35.652341,"lon":139.441517},{"name":"バオバブちいさな家保育園","province":"東京都","city":"多摩市","address":"多摩市一ノ宮3-9-1","lat":35.649855,"lon":139.443237},{"name":"貝取保育園","province":"東京都","city":"多摩市","address":"多摩市貝取4-10","lat":35.614365,"lon":139.440169},{"name":"みどりの保育園","province":"東京都","city":"多摩市","address":"多摩市連光寺3-57-2","lat":35.642548,"lon":139.4569},{"name":"かしのき保育園","province":"東京都","city":"多摩市","address":"多摩市諏訪1-64","lat":35.630985,"lon":139.449759},{"name":"こばと第一保育園","province":"東京都","city":"多摩市","address":"多摩市諏訪4-7","lat":35.623814,"lon":139.458353},{"name":"のびのびっこ保育園","province":"東京都","city":"多摩市","address":"多摩市諏訪1-1-6","lat":35.635007,"lon":139.44942},{"name":"あすのき保育園","province":"東京都","city":"多摩市","address":"多摩市諏訪2-2-B-001ブリリア多摩ニュータウン","lat":35.625667,"lon":139.452556},{"name":"こぐま保育園","province":"東京都","city":"多摩市","address":"多摩市永山3-5","lat":35.626091,"lon":139.445948},{"name":"ゆりのき保育園","province":"東京都","city":"多摩市","address":"多摩市永山4-6","lat":35.621634,"lon":139.448323},{"name":"ピオニイ第二保育園","province":"東京都","city":"多摩市","address":"多摩市豊ヶ丘4-8","lat":35.615203,"lon":139.435292},{"name":"かおり保育園","province":"東京都","city":"多摩市","address":"多摩市落合4-15","lat":35.615128,"lon":139.430239},{"name":"あおぞら保育園","province":"東京都","city":"多摩市","address":"多摩市落合1-5-16","lat":35.626332,"lon":139.426675},{"name":"こころ保育園","province":"東京都","city":"多摩市","address":"多摩市鶴牧5-5","lat":35.611229,"lon":139.424157},{"name":"丘の上アンジュ保育園","province":"東京都","city":"多摩市","address":"多摩市鶴牧3-2ブリリア多摩センター","lat":35.618764,"lon":139.421093},{"name":"りすのき保育園","province":"東京都","city":"多摩市","address":"多摩市唐木田1-8-2","lat":35.614761,"lon":139.409199},{"name":"みさと保育所","province":"東京都","city":"多摩市","address":"多摩市愛宕2-53","lat":35.635068,"lon":139.437185},{"name":"南多摩保健所","province":"東京都","city":"多摩市","address":"多摩市永山2-1-5","lat":35.627949,"lon":139.447437},{"name":"桜ヶ丘記念病院","province":"東京都","city":"多摩市","address":"多摩市連光寺1-1-1","lat":35.64739,"lon":139.45787},{"name":"南多摩保健所","province":"東京都","city":"多摩市","address":"多摩市永山2-1-5","lat":35.62846,"lon":139.44521},{"name":"桜ケ丘記念病院","province":"東京都","city":"多摩市","address":"多摩市連光寺1-1-1","lat":35.64739,"lon":139.45787},{"name":"桜ヶ丘第一保育園","province":"東京都","city":"多摩市","address":"多摩市和田60-1","lat":35.643083,"lon":139.435118},{"name":"やまと保育園","province":"東京都","city":"多摩市","address":"多摩市和田1534","lat":35.645586,"lon":139.431568},{"name":"多摩保育園","province":"東京都","city":"多摩市","address":"多摩市和田418-1","lat":35.639823,"lon":139.435399},{"name":"バオバブ保育園","province":"東京都","city":"多摩市","address":"多摩市一ノ宮1-20-3","lat":35.652341,"lon":139.441517},{"name":"バオバブちいさな家保育園","province":"東京都","city":"多摩市","address":"多摩市一ノ宮3-9-1","lat":35.649855,"lon":139.443237},{"name":"貝取保育園","province":"東京都","city":"多摩市","address":"多摩市貝取4-10","lat":35.614365,"lon":139.440169},{"name":"みどりの保育園","province":"東京都","city":"多摩市","address":"多摩市連光寺3-57-2","lat":35.642548,"lon":139.4569},{"name":"かしのき保育園","province":"東京都","city":"多摩市","address":"多摩市諏訪1-64","lat":35.630985,"lon":139.449759},{"name":"こばと第一保育園","province":"東京都","city":"多摩市","address":"多摩市諏訪4-7","lat":35.623814,"lon":139.458353},{"name":"のびのびっこ保育園","province":"東京都","city":"多摩市","address":"多摩市諏訪1-1-6","lat":35.635007,"lon":139.44942},{"name":"あすのき保育園","province":"東京都","city":"多摩市","address":"多摩市諏訪2-2-B-001ブリリア多摩ニュータウン","lat":35.625667,"lon":139.452556},{"name":"こぐま保育園","province":"東京都","city":"多摩市","address":"多摩市永山3-5","lat":35.626091,"lon":139.445948},{"name":"ゆりのき保育園","province":"東京都","city":"多摩市","address":"多摩市永山4-6","lat":35.621634,"lon":139.448323},{"name":"ピオニイ第二保育園","province":"東京都","city":"多摩市","address":"多摩市豊ヶ丘4-8","lat":35.615203,"lon":139.435292},{"name":"かおり保育園","province":"東京都","city":"多摩市","address":"多摩市落合4-15","lat":35.615128,"lon":139.430239},{"name":"あおぞら保育園","province":"東京都","city":"多摩市","address":"多摩市落合1-5-16","lat":35.626332,"lon":139.426675},{"name":"こころ保育園","province":"東京都","city":"多摩市","address":"多摩市鶴牧5-5","lat":35.611229,"lon":139.424157},{"name":"丘の上アンジュ保育園","province":"東京都","city":"多摩市","address":"多摩市鶴牧3-2ブリリア多摩センター","lat":35.618764,"lon":139.421093},{"name":"りすのき保育園","province":"東京都","city":"多摩市","address":"多摩市唐木田1-8-2","lat":35.614761,"lon":139.409199},{"name":"みさと保育所","province":"東京都","city":"多摩市","address":"多摩市愛宕2-53","lat":35.635068,"lon":139.437185},{"name":"南多摩保健所","province":"東京都","city":"多摩市","address":"多摩市永山2-1-5","lat":35.627949,"lon":139.447437},{"name":"桜ヶ丘記念病院","province":"東京都","city":"多摩市","address":"多摩市連光寺1-1-1","lat":35.64739,"lon":139.45787},{"name":"南多摩保健所","province":"東京都","city":"多摩市","address":"多摩市永山2-1-5","lat":35.62846,"lon":139.44521},{"name":"桜ケ丘記念病院","province":"東京都","city":"多摩市","address":"多摩市連光寺1-1-1","lat":35.64739,"lon":139.45787},{"name":"桜ヶ丘第一保育園","province":"東京都","city":"多摩市","address":"多摩市和田60-1","lat":35.643083,"lon":139.435118},{"name":"やまと保育園","province":"東京都","city":"多摩市","address":"多摩市和田1534","lat":35.645586,"lon":139.431568},{"name":"多摩保育園","province":"東京都","city":"多摩市","address":"多摩市和田418-1","lat":35.639823,"lon":139.435399},{"name":"バオバブ保育園","province":"東京都","city":"多摩市","address":"多摩市一ノ宮1-20-3","lat":35.652341,"lon":139.441517},{"name":"バオバブちいさな家保育園","province":"東京都","city":"多摩市","address":"多摩市一ノ宮3-9-1","lat":35.649855,"lon":139.443237},{"name":"貝取保育園","province":"東京都","city":"多摩市","address":"多摩市貝取4-10","lat":35.614365,"lon":139.440169},{"name":"みどりの保育園","province":"東京都","city":"多摩市","address":"多摩市連光寺3-57-2","lat":35.642548,"lon":139.4569},{"name":"かしのき保育園","province":"東京都","city":"多摩市","address":"多摩市諏訪1-64","lat":35.630985,"lon":139.449759},{"name":"こばと第一保育園","province":"東京都","city":"多摩市","address":"多摩市諏訪4-7","lat":35.623814,"lon":139.458353},{"name":"のびのびっこ保育園","province":"東京都","city":"多摩市","address":"多摩市諏訪1-1-6","lat":35.635007,"lon":139.44942},{"name":"あすのき保育園","province":"東京都","city":"多摩市","address":"多摩市諏訪2-2-B-001ブリリア多摩ニュータウン","lat":35.625667,"lon":139.452556},{"name":"こぐま保育園","province":"東京都","city":"多摩市","address":"多摩市永山3-5","lat":35.626091,"lon":139.445948},{"name":"ゆりのき保育園","province":"東京都","city":"多摩市","address":"多摩市永山4-6","lat":35.621634,"lon":139.448323},{"name":"ピオニイ第二保育園","province":"東京都","city":"多摩市","address":"多摩市豊ヶ丘4-8","lat":35.615203,"lon":139.435292},{"name":"かおり保育園","province":"東京都","city":"多摩市","address":"多摩市落合4-15","lat":35.615128,"lon":139.430239},{"name":"あおぞら保育園","province":"東京都","city":"多摩市","address":"多摩市落合1-5-16","lat":35.626332,"lon":139.426675},{"name":"こころ保育園","province":"東京都","city":"多摩市","address":"多摩市鶴牧5-5","lat":35.611229,"lon":139.424157},{"name":"丘の上アンジュ保育園","province":"東京都","city":"多摩市","address":"多摩市鶴牧3-2ブリリア多摩センター","lat":35.618764,"lon":139.421093},{"name":"りすのき保育園","province":"東京都","city":"多摩市","address":"多摩市唐木田1-8-2","lat":35.614761,"lon":139.409199},{"name":"みさと保育所","province":"東京都","city":"多摩市","address":"多摩市愛宕2-53","lat":35.635068,"lon":139.437185},{"name":"南多摩保健所","province":"東京都","city":"多摩市","address":"多摩市永山2-1-5","lat":35.627949,"lon":139.447437},{"name":"桜ヶ丘記念病院","province":"東京都","city":"多摩市","address":"多摩市連光寺1-1-1","lat":35.64739,"lon":139.45787},{"name":"南多摩保健所","province":"東京都","city":"多摩市","address":"多摩市永山2-1-5","lat":35.62846,"lon":139.44521},{"name":"桜ケ丘記念病院","province":"東京都","city":"多摩市","address":"多摩市連光寺1-1-1","lat":35.64739,"lon":139.45787},{"name":"桜ヶ丘第一保育園","province":"東京都","city":"多摩市","address":"多摩市和田60-1","lat":35.643083,"lon":139.435118},{"name":"やまと保育園","province":"東京都","city":"多摩市","address":"多摩市和田1534","lat":35.645586,"lon":139.431568},{"name":"多摩保育園","province":"東京都","city":"多摩市","address":"多摩市和田418-1","lat":35.639823,"lon":139.435399},{"name":"バオバブ保育園","province":"東京都","city":"多摩市","address":"多摩市一ノ宮1-20-3","lat":35.652341,"lon":139.441517},{"name":"バオバブちいさな家保育園","province":"東京都","city":"多摩市","address":"多摩市一ノ宮3-9-1","lat":35.649855,"lon":139.443237},{"name":"貝取保育園","province":"東京都","city":"多摩市","address":"多摩市貝取4-10","lat":35.614365,"lon":139.440169},{"name":"みどりの保育園","province":"東京都","city":"多摩市","address":"多摩市連光寺3-57-2","lat":35.642548,"lon":139.4569},{"name":"かしのき保育園","province":"東京都","city":"多摩市","address":"多摩市諏訪1-64","lat":35.630985,"lon":139.449759},{"name":"こばと第一保育園","province":"東京都","city":"多摩市","address":"多摩市諏訪4-7","lat":35.623814,"lon":139.458353},{"name":"のびのびっこ保育園","province":"東京都","city":"多摩市","address":"多摩市諏訪1-1-6","lat":35.635007,"lon":139.44942},{"name":"あすのき保育園","province":"東京都","city":"多摩市","address":"多摩市諏訪2-2-B-001ブリリア多摩ニュータウン","lat":35.625667,"lon":139.452556},{"name":"こぐま保育園","province":"東京都","city":"多摩市","address":"多摩市永山3-5","lat":35.626091,"lon":139.445948},{"name":"ゆりのき保育園","province":"東京都","city":"多摩市","address":"多摩市永山4-6","lat":35.621634,"lon":139.448323},{"name":"ピオニイ第二保育園","province":"東京都","city":"多摩市","address":"多摩市豊ヶ丘4-8","lat":35.615203,"lon":139.435292},{"name":"かおり保育園","province":"東京都","city":"多摩市","address":"多摩市落合4-15","lat":35.615128,"lon":139.430239},{"name":"あおぞら保育園","province":"東京都","city":"多摩市","address":"多摩市落合1-5-16","lat":35.626332,"lon":139.426675},{"name":"こころ保育園","province":"東京都","city":"多摩市","address":"多摩市鶴牧5-5","lat":35.611229,"lon":139.424157},{"name":"丘の上アンジュ保育園","province":"東京都","city":"多摩市","address":"多摩市鶴牧3-2ブリリア多摩センター","lat":35.618764,"lon":139.421093},{"name":"りすのき保育園","province":"東京都","city":"多摩市","address":"多摩市唐木田1-8-2","lat":35.614761,"lon":139.409199},{"name":"みさと保育所","province":"東京都","city":"多摩市","address":"多摩市愛宕2-53","lat":35.635068,"lon":139.437185},{"name":"南多摩保健所","province":"東京都","city":"多摩市","address":"多摩市永山2-1-5","lat":35.627949,"lon":139.447437},{"name":"桜ヶ丘記念病院","province":"東京都","city":"多摩市","address":"多摩市連光寺1-1-1","lat":35.64739,"lon":139.45787},{"name":"南多摩保健所","province":"東京都","city":"多摩市","address":"多摩市永山2-1-5","lat":35.62846,"lon":139.44521},{"name":"桜ケ丘記念病院","province":"東京都","city":"多摩市","address":"多摩市連光寺1-1-1","lat":35.64739,"lon":139.45787},{"name":"桜ヶ丘第一保育園","province":"東京都","city":"多摩市","address":"多摩市和田60-1","lat":35.643083,"lon":139.435118},{"name":"やまと保育園","province":"東京都","city":"多摩市","address":"多摩市和田1534","lat":35.645586,"lon":139.431568},{"name":"多摩保育園","province":"東京都","city":"多摩市","address":"多摩市和田418-1","lat":35.639823,"lon":139.435399},{"name":"バオバブ保育園","province":"東京都","city":"多摩市","address":"多摩市一ノ宮1-20-3","lat":35.652341,"lon":139.441517},{"name":"バオバブちいさな家保育園","province":"東京都","city":"多摩市","address":"多摩市一ノ宮3-9-1","lat":35.649855,"lon":139.443237},{"name":"貝取保育園","province":"東京都","city":"多摩市","address":"多摩市貝取4-10","lat":35.614365,"lon":139.440169},{"name":"みどりの保育園","province":"東京都","city":"多摩市","address":"多摩市連光寺3-57-2","lat":35.642548,"lon":139.4569},{"name":"かしのき保育園","province":"東京都","city":"多摩市","address":"多摩市諏訪1-64","lat":35.630985,"lon":139.449759},{"name":"こばと第一保育園","province":"東京都","city":"多摩市","address":"多摩市諏訪4-7","lat":35.623814,"lon":139.458353},{"name":"のびのびっこ保育園","province":"東京都","city":"多摩市","address":"多摩市諏訪1-1-6","lat":35.635007,"lon":139.44942},{"name":"あすのき保育園","province":"東京都","city":"多摩市","address":"多摩市諏訪2-2-B-001ブリリア多摩ニュータウン","lat":35.625667,"lon":139.452556},{"name":"こぐま保育園","province":"東京都","city":"多摩市","address":"多摩市永山3-5","lat":35.626091,"lon":139.445948},{"name":"ゆりのき保育園","province":"東京都","city":"多摩市","address":"多摩市永山4-6","lat":35.621634,"lon":139.448323},{"name":"ピオニイ第二保育園","province":"東京都","city":"多摩市","address":"多摩市豊ヶ丘4-8","lat":35.615203,"lon":139.435292},{"name":"かおり保育園","province":"東京都","city":"多摩市","address":"多摩市落合4-15","lat":35.615128,"lon":139.430239},{"name":"あおぞら保育園","province":"東京都","city":"多摩市","address":"多摩市落合1-5-16","lat":35.626332,"lon":139.426675},{"name":"こころ保育園","province":"東京都","city":"多摩市","address":"多摩市鶴牧5-5","lat":35.611229,"lon":139.424157},{"name":"丘の上アンジュ保育園","province":"東京都","city":"多摩市","address":"多摩市鶴牧3-2ブリリア多摩センター","lat":35.618764,"lon":139.421093},{"name":"りすのき保育園","province":"東京都","city":"多摩市","address":"多摩市唐木田1-8-2","lat":35.614761,"lon":139.409199},{"name":"みさと保育所","province":"東京都","city":"多摩市","address":"多摩市愛宕2-53","lat":35.635068,"lon":139.437185},{"name":"南多摩保健所","province":"東京都","city":"多摩市","address":"多摩市永山2-1-5","lat":35.627949,"lon":139.447437},{"name":"桜ヶ丘記念病院","province":"東京都","city":"多摩市","address":"多摩市連光寺1-1-1","lat":35.64739,"lon":139.45787},{"name":"南多摩保健所","province":"東京都","city":"多摩市","address":"多摩市永山2-1-5","lat":35.62846,"lon":139.44521},{"name":"桜ケ丘記念病院","province":"東京都","city":"多摩市","address":"多摩市連光寺1-1-1","lat":35.64739,"lon":139.45787},{"name":"桜ヶ丘第一保育園","province":"東京都","city":"多摩市","address":"多摩市和田60-1","lat":35.643083,"lon":139.435118},{"name":"やまと保育園","province":"東京都","city":"多摩市","address":"多摩市和田1534","lat":35.645586,"lon":139.431568},{"name":"多摩保育園","province":"東京都","city":"多摩市","address":"多摩市和田418-1","lat":35.639823,"lon":139.435399},{"name":"バオバブ保育園","province":"東京都","city":"多摩市","address":"多摩市一ノ宮1-20-3","lat":35.652341,"lon":139.441517},{"name":"バオバブちいさな家保育園","province":"東京都","city":"多摩市","address":"多摩市一ノ宮3-9-1","lat":35.649855,"lon":139.443237},{"name":"貝取保育園","province":"東京都","city":"多摩市","address":"多摩市貝取4-10","lat":35.614365,"lon":139.440169},{"name":"みどりの保育園","province":"東京都","city":"多摩市","address":"多摩市連光寺3-57-2","lat":35.642548,"lon":139.4569},{"name":"かしのき保育園","province":"東京都","city":"多摩市","address":"多摩市諏訪1-64","lat":35.630985,"lon":139.449759},{"name":"こばと第一保育園","province":"東京都","city":"多摩市","address":"多摩市諏訪4-7","lat":35.623814,"lon":139.458353},{"name":"のびのびっこ保育園","province":"東京都","city":"多摩市","address":"多摩市諏訪1-1-6","lat":35.635007,"lon":139.44942},{"name":"あすのき保育園","province":"東京都","city":"多摩市","address":"多摩市諏訪2-2-B-001ブリリア多摩ニュータウン","lat":35.625667,"lon":139.452556},{"name":"こぐま保育園","province":"東京都","city":"多摩市","address":"多摩市永山3-5","lat":35.626091,"lon":139.445948},{"name":"ゆりのき保育園","province":"東京都","city":"多摩市","address":"多摩市永山4-6","lat":35.621634,"lon":139.448323},{"name":"ピオニイ第二保育園","province":"東京都","city":"多摩市","address":"多摩市豊ヶ丘4-8","lat":35.615203,"lon":139.435292},{"name":"かおり保育園","province":"東京都","city":"多摩市","address":"多摩市落合4-15","lat":35.615128,"lon":139.430239},{"name":"あおぞら保育園","province":"東京都","city":"多摩市","address":"多摩市落合1-5-16","lat":35.626332,"lon":139.426675},{"name":"こころ保育園","province":"東京都","city":"多摩市","address":"多摩市鶴牧5-5","lat":35.611229,"lon":139.424157},{"name":"丘の上アンジュ保育園","province":"東京都","city":"多摩市","address":"多摩市鶴牧3-2ブリリア多摩センター","lat":35.618764,"lon":139.421093},{"name":"りすのき保育園","province":"東京都","city":"多摩市","address":"多摩市唐木田1-8-2","lat":35.614761,"lon":139.409199},{"name":"みさと保育所","province":"東京都","city":"多摩市","address":"多摩市愛宕2-53","lat":35.635068,"lon":139.437185},{"name":"南多摩保健所","province":"東京都","city":"多摩市","address":"多摩市永山2-1-5","lat":35.627949,"lon":139.447437},{"name":"桜ヶ丘記念病院","province":"東京都","city":"多摩市","address":"多摩市連光寺1-1-1","lat":35.64739,"lon":139.45787},{"name":"南多摩保健所","province":"東京都","city":"多摩市","address":"多摩市永山2-1-5","lat":35.62846,"lon":139.44521},{"name":"桜ケ丘記念病院","province":"東京都","city":"多摩市","address":"多摩市連光寺1-1-1","lat":35.64739,"lon":139.45787},{"name":"桜ヶ丘第一保育園","province":"東京都","city":"多摩市","address":"多摩市和田60-1","lat":35.643083,"lon":139.435118},{"name":"やまと保育園","province":"東京都","city":"多摩市","address":"多摩市和田1534","lat":35.645586,"lon":139.431568},{"name":"多摩保育園","province":"東京都","city":"多摩市","address":"多摩市和田418-1","lat":35.639823,"lon":139.435399},{"name":"バオバブ保育園","province":"東京都","city":"多摩市","address":"多摩市一ノ宮1-20-3","lat":35.652341,"lon":139.441517},{"name":"バオバブちいさな家保育園","province":"東京都","city":"多摩市","address":"多摩市一ノ宮3-9-1","lat":35.649855,"lon":139.443237},{"name":"貝取保育園","province":"東京都","city":"多摩市","address":"多摩市貝取4-10","lat":35.614365,"lon":139.440169},{"name":"みどりの保育園","province":"東京都","city":"多摩市","address":"多摩市連光寺3-57-2","lat":35.642548,"lon":139.4569},{"name":"かしのき保育園","province":"東京都","city":"多摩市","address":"多摩市諏訪1-64","lat":35.630985,"lon":139.449759},{"name":"こばと第一保育園","province":"東京都","city":"多摩市","address":"多摩市諏訪4-7","lat":35.623814,"lon":139.458353},{"name":"のびのびっこ保育園","province":"東京都","city":"多摩市","address":"多摩市諏訪1-1-6","lat":35.635007,"lon":139.44942},{"name":"あすのき保育園","province":"東京都","city":"多摩市","address":"多摩市諏訪2-2-B-001ブリリア多摩ニュータウン","lat":35.625667,"lon":139.452556},{"name":"こぐま保育園","province":"東京都","city":"多摩市","address":"多摩市永山3-5","lat":35.626091,"lon":139.445948},{"name":"ゆりのき保育園","province":"東京都","city":"多摩市","address":"多摩市永山4-6","lat":35.621634,"lon":139.448323},{"name":"ピオニイ第二保育園","province":"東京都","city":"多摩市","address":"多摩市豊ヶ丘4-8","lat":35.615203,"lon":139.435292},{"name":"かおり保育園","province":"東京都","city":"多摩市","address":"多摩市落合4-15","lat":35.615128,"lon":139.430239},{"name":"あおぞら保育園","province":"東京都","city":"多摩市","address":"多摩市落合1-5-16","lat":35.626332,"lon":139.426675},{"name":"こころ保育園","province":"東京都","city":"多摩市","address":"多摩市鶴牧5-5","lat":35.611229,"lon":139.424157},{"name":"丘の上アンジュ保育園","province":"東京都","city":"多摩市","address":"多摩市鶴牧3-2ブリリア多摩センター","lat":35.618764,"lon":139.421093},{"name":"りすのき保育園","province":"東京都","city":"多摩市","address":"多摩市唐木田1-8-2","lat":35.614761,"lon":139.409199},{"name":"みさと保育所","province":"東京都","city":"多摩市","address":"多摩市愛宕2-53","lat":35.635068,"lon":139.437185},{"name":"南多摩保健所","province":"東京都","city":"多摩市","address":"多摩市永山2-1-5","lat":35.627949,"lon":139.447437},{"name":"桜ヶ丘記念病院","province":"東京都","city":"多摩市","address":"多摩市連光寺1-1-1","lat":35.64739,"lon":139.45787},{"name":"南多摩保健所","province":"東京都","city":"多摩市","address":"多摩市永山2-1-5","lat":35.62846,"lon":139.44521},{"name":"桜ケ丘記念病院","province":"東京都","city":"多摩市","address":"多摩市連光寺1-1-1","lat":35.64739,"lon":139.45787},{"name":"桜ヶ丘第一保育園","province":"東京都","city":"多摩市","address":"多摩市和田60-1","lat":35.643083,"lon":139.435118},{"name":"やまと保育園","province":"東京都","city":"多摩市","address":"多摩市和田1534","lat":35.645586,"lon":139.431568},{"name":"多摩保育園","province":"東京都","city":"多摩市","address":"多摩市和田418-1","lat":35.639823,"lon":139.435399},{"name":"バオバブ保育園","province":"東京都","city":"多摩市","address":"多摩市一ノ宮1-20-3","lat":35.652341,"lon":139.441517},{"name":"バオバブちいさな家保育園","province":"東京都","city":"多摩市","address":"多摩市一ノ宮3-9-1","lat":35.649855,"lon":139.443237},{"name":"貝取保育園","province":"東京都","city":"多摩市","address":"多摩市貝取4-10","lat":35.614365,"lon":139.440169},{"name":"みどりの保育園","province":"東京都","city":"多摩市","address":"多摩市連光寺3-57-2","lat":35.642548,"lon":139.4569},{"name":"かしのき保育園","province":"東京都","city":"多摩市","address":"多摩市諏訪1-64","lat":35.630985,"lon":139.449759},{"name":"こばと第一保育園","province":"東京都","city":"多摩市","address":"多摩市諏訪4-7","lat":35.623814,"lon":139.458353},{"name":"のびのびっこ保育園","province":"東京都","city":"多摩市","address":"多摩市諏訪1-1-6","lat":35.635007,"lon":139.44942},{"name":"あすのき保育園","province":"東京都","city":"多摩市","address":"多摩市諏訪2-2-B-001ブリリア多摩ニュータウン","lat":35.625667,"lon":139.452556},{"name":"こぐま保育園","province":"東京都","city":"多摩市","address":"多摩市永山3-5","lat":35.626091,"lon":139.445948},{"name":"ゆりのき保育園","province":"東京都","city":"多摩市","address":"多摩市永山4-6","lat":35.621634,"lon":139.448323},{"name":"ピオニイ第二保育園","province":"東京都","city":"多摩市","address":"多摩市豊ヶ丘4-8","lat":35.615203,"lon":139.435292},{"name":"かおり保育園","province":"東京都","city":"多摩市","address":"多摩市落合4-15","lat":35.615128,"lon":139.430239},{"name":"あおぞら保育園","province":"東京都","city":"多摩市","address":"多摩市落合1-5-16","lat":35.626332,"lon":139.426675},{"name":"こころ保育園","province":"東京都","city":"多摩市","address":"多摩市鶴牧5-5","lat":35.611229,"lon":139.424157},{"name":"丘の上アンジュ保育園","province":"東京都","city":"多摩市","address":"多摩市鶴牧3-2ブリリア多摩センター","lat":35.618764,"lon":139.421093},{"name":"りすのき保育園","province":"東京都","city":"多摩市","address":"多摩市唐木田1-8-2","lat":35.614761,"lon":139.409199},{"name":"みさと保育所","province":"東京都","city":"多摩市","address":"多摩市愛宕2-53","lat":35.635068,"lon":139.437185},{"name":"南多摩保健所","province":"東京都","city":"多摩市","address":"多摩市永山2-1-5","lat":35.627949,"lon":139.447437},{"name":"桜ヶ丘記念病院","province":"東京都","city":"多摩市","address":"多摩市連光寺1-1-1","lat":35.64739,"lon":139.45787},{"name":"南多摩保健所","province":"東京都","city":"多摩市","address":"多摩市永山2-1-5","lat":35.62846,"lon":139.44521},{"name":"桜ケ丘記念病院","province":"東京都","city":"多摩市","address":"多摩市連光寺1-1-1","lat":35.64739,"lon":139.45787},{"name":"桜ヶ丘第一保育園","province":"東京都","city":"多摩市","address":"多摩市和田60-1","lat":35.643083,"lon":139.435118},{"name":"やまと保育園","province":"東京都","city":"多摩市","address":"多摩市和田1534","lat":35.645586,"lon":139.431568},{"name":"多摩保育園","province":"東京都","city":"多摩市","address":"多摩市和田418-1","lat":35.639823,"lon":139.435399},{"name":"バオバブ保育園","province":"東京都","city":"多摩市","address":"多摩市一ノ宮1-20-3","lat":35.652341,"lon":139.441517},{"name":"バオバブちいさな家保育園","province":"東京都","city":"多摩市","address":"多摩市一ノ宮3-9-1","lat":35.649855,"lon":139.443237},{"name":"貝取保育園","province":"東京都","city":"多摩市","address":"多摩市貝取4-10","lat":35.614365,"lon":139.440169},{"name":"みどりの保育園","province":"東京都","city":"多摩市","address":"多摩市連光寺3-57-2","lat":35.642548,"lon":139.4569},{"name":"かしのき保育園","province":"東京都","city":"多摩市","address":"多摩市諏訪1-64","lat":35.630985,"lon":139.449759},{"name":"こばと第一保育園","province":"東京都","city":"多摩市","address":"多摩市諏訪4-7","lat":35.623814,"lon":139.458353},{"name":"のびのびっこ保育園","province":"東京都","city":"多摩市","address":"多摩市諏訪1-1-6","lat":35.635007,"lon":139.44942},{"name":"あすのき保育園","province":"東京都","city":"多摩市","address":"多摩市諏訪2-2-B-001ブリリア多摩ニュータウン","lat":35.625667,"lon":139.452556},{"name":"こぐま保育園","province":"東京都","city":"多摩市","address":"多摩市永山3-5","lat":35.626091,"lon":139.445948},{"name":"ゆりのき保育園","province":"東京都","city":"多摩市","address":"多摩市永山4-6","lat":35.621634,"lon":139.448323},{"name":"ピオニイ第二保育園","province":"東京都","city":"多摩市","address":"多摩市豊ヶ丘4-8","lat":35.615203,"lon":139.435292},{"name":"かおり保育園","province":"東京都","city":"多摩市","address":"多摩市落合4-15","lat":35.615128,"lon":139.430239},{"name":"あおぞら保育園","province":"東京都","city":"多摩市","address":"多摩市落合1-5-16","lat":35.626332,"lon":139.426675},{"name":"こころ保育園","province":"東京都","city":"多摩市","address":"多摩市鶴牧5-5","lat":35.611229,"lon":139.424157},{"name":"丘の上アンジュ保育園","province":"東京都","city":"多摩市","address":"多摩市鶴牧3-2ブリリア多摩センター","lat":35.618764,"lon":139.421093},{"name":"りすのき保育園","province":"東京都","city":"多摩市","address":"多摩市唐木田1-8-2","lat":35.614761,"lon":139.409199},{"name":"みさと保育所","province":"東京都","city":"多摩市","address":"多摩市愛宕2-53","lat":35.635068,"lon":139.437185},{"name":"南多摩保健所","province":"東京都","city":"多摩市","address":"多摩市永山2-1-5","lat":35.627949,"lon":139.447437},{"name":"桜ヶ丘記念病院","province":"東京都","city":"多摩市","address":"多摩市連光寺1-1-1","lat":35.64739,"lon":139.45787},{"name":"南多摩保健所","province":"東京都","city":"多摩市","address":"多摩市永山2-1-5","lat":35.62846,"lon":139.44521},{"name":"桜ケ丘記念病院","province":"東京都","city":"多摩市","address":"多摩市連光寺1-1-1","lat":35.64739,"lon":139.45787},{"name":"桜ヶ丘第一保育園","province":"東京都","city":"多摩市","address":"多摩市和田60-1","lat":35.643083,"lon":139.435118},{"name":"やまと保育園","province":"東京都","city":"多摩市","address":"多摩市和田1534","lat":35.645586,"lon":139.431568},{"name":"多摩保育園","province":"東京都","city":"多摩市","address":"多摩市和田418-1","lat":35.639823,"lon":139.435399},{"name":"バオバブ保育園","province":"東京都","city":"多摩市","address":"多摩市一ノ宮1-20-3","lat":35.652341,"lon":139.441517},{"name":"バオバブちいさな家保育園","province":"東京都","city":"多摩市","address":"多摩市一ノ宮3-9-1","lat":35.649855,"lon":139.443237},{"name":"貝取保育園","province":"東京都","city":"多摩市","address":"多摩市貝取4-10","lat":35.614365,"lon":139.440169},{"name":"みどりの保育園","province":"東京都","city":"多摩市","address":"多摩市連光寺3-57-2","lat":35.642548,"lon":139.4569},{"name":"かしのき保育園","province":"東京都","city":"多摩市","address":"多摩市諏訪1-64","lat":35.630985,"lon":139.449759},{"name":"こばと第一保育園","province":"東京都","city":"多摩市","address":"多摩市諏訪4-7","lat":35.623814,"lon":139.458353},{"name":"のびのびっこ保育園","province":"東京都","city":"多摩市","address":"多摩市諏訪1-1-6","lat":35.635007,"lon":139.44942},{"name":"あすのき保育園","province":"東京都","city":"多摩市","address":"多摩市諏訪2-2-B-001ブリリア多摩ニュータウン","lat":35.625667,"lon":139.452556},{"name":"こぐま保育園","province":"東京都","city":"多摩市","address":"多摩市永山3-5","lat":35.626091,"lon":139.445948},{"name":"ゆりのき保育園","province":"東京都","city":"多摩市","address":"多摩市永山4-6","lat":35.621634,"lon":139.448323},{"name":"ピオニイ第二保育園","province":"東京都","city":"多摩市","address":"多摩市豊ヶ丘4-8","lat":35.615203,"lon":139.435292},{"name":"かおり保育園","province":"東京都","city":"多摩市","address":"多摩市落合4-15","lat":35.615128,"lon":139.430239},{"name":"あおぞら保育園","province":"東京都","city":"多摩市","address":"多摩市落合1-5-16","lat":35.626332,"lon":139.426675},{"name":"こころ保育園","province":"東京都","city":"多摩市","address":"多摩市鶴牧5-5","lat":35.611229,"lon":139.424157},{"name":"丘の上アンジュ保育園","province":"東京都","city":"多摩市","address":"多摩市鶴牧3-2ブリリア多摩センター","lat":35.618764,"lon":139.421093},{"name":"りすのき保育園","province":"東京都","city":"多摩市","address":"多摩市唐木田1-8-2","lat":35.614761,"lon":139.409199},{"name":"みさと保育所","province":"東京都","city":"多摩市","address":"多摩市愛宕2-53","lat":35.635068,"lon":139.437185},{"name":"南多摩保健所","province":"東京都","city":"多摩市","address":"多摩市永山2-1-5","lat":35.627949,"lon":139.447437},{"name":"桜ヶ丘記念病院","province":"東京都","city":"多摩市","address":"多摩市連光寺1-1-1","lat":35.64739,"lon":139.45787},{"name":"南多摩保健所","province":"東京都","city":"多摩市","address":"多摩市永山2-1-5","lat":35.62846,"lon":139.44521},{"name":"桜ケ丘記念病院","province":"東京都","city":"多摩市","address":"多摩市連光寺1-1-1","lat":35.64739,"lon":139.45787},{"name":"桜ヶ丘第一保育園","province":"東京都","city":"多摩市","address":"多摩市和田60-1","lat":35.643083,"lon":139.435118},{"name":"やまと保育園","province":"東京都","city":"多摩市","address":"多摩市和田1534","lat":35.645586,"lon":139.431568},{"name":"多摩保育園","province":"東京都","city":"多摩市","address":"多摩市和田418-1","lat":35.639823,"lon":139.435399},{"name":"バオバブ保育園","province":"東京都","city":"多摩市","address":"多摩市一ノ宮1-20-3","lat":35.652341,"lon":139.441517},{"name":"バオバブちいさな家保育園","province":"東京都","city":"多摩市","address":"多摩市一ノ宮3-9-1","lat":35.649855,"lon":139.443237},{"name":"貝取保育園","province":"東京都","city":"多摩市","address":"多摩市貝取4-10","lat":35.614365,"lon":139.440169},{"name":"みどりの保育園","province":"東京都","city":"多摩市","address":"多摩市連光寺3-57-2","lat":35.642548,"lon":139.4569},{"name":"かしのき保育園","province":"東京都","city":"多摩市","address":"多摩市諏訪1-64","lat":35.630985,"lon":139.449759},{"name":"こばと第一保育園","province":"東京都","city":"多摩市","address":"多摩市諏訪4-7","lat":35.623814,"lon":139.458353},{"name":"のびのびっこ保育園","province":"東京都","city":"多摩市","address":"多摩市諏訪1-1-6","lat":35.635007,"lon":139.44942},{"name":"あすのき保育園","province":"東京都","city":"多摩市","address":"多摩市諏訪2-2-B-001ブリリア多摩ニュータウン","lat":35.625667,"lon":139.452556},{"name":"こぐま保育園","province":"東京都","city":"多摩市","address":"多摩市永山3-5","lat":35.626091,"lon":139.445948},{"name":"ゆりのき保育園","province":"東京都","city":"多摩市","address":"多摩市永山4-6","lat":35.621634,"lon":139.448323},{"name":"ピオニイ第二保育園","province":"東京都","city":"多摩市","address":"多摩市豊ヶ丘4-8","lat":35.615203,"lon":139.435292},{"name":"かおり保育園","province":"東京都","city":"多摩市","address":"多摩市落合4-15","lat":35.615128,"lon":139.430239},{"name":"あおぞら保育園","province":"東京都","city":"多摩市","address":"多摩市落合1-5-16","lat":35.626332,"lon":139.426675},{"name":"こころ保育園","province":"東京都","city":"多摩市","address":"多摩市鶴牧5-5","lat":35.611229,"lon":139.424157},{"name":"丘の上アンジュ保育園","province":"東京都","city":"多摩市","address":"多摩市鶴牧3-2ブリリア多摩センター","lat":35.618764,"lon":139.421093},{"name":"りすのき保育園","province":"東京都","city":"多摩市","address":"多摩市唐木田1-8-2","lat":35.614761,"lon":139.409199},{"name":"みさと保育所","province":"東京都","city":"多摩市","address":"多摩市愛宕2-53","lat":35.635068,"lon":139.437185},{"name":"南多摩保健所","province":"東京都","city":"多摩市","address":"多摩市永山2-1-5","lat":35.627949,"lon":139.447437},{"name":"桜ヶ丘記念病院","province":"東京都","city":"多摩市","address":"多摩市連光寺1-1-1","lat":35.64739,"lon":139.45787},{"name":"南多摩保健所","province":"東京都","city":"多摩市","address":"多摩市永山2-1-5","lat":35.62846,"lon":139.44521},{"name":"桜ケ丘記念病院","province":"東京都","city":"多摩市","address":"多摩市連光寺1-1-1","lat":35.64739,"lon":139.45787},{"name":"桜ヶ丘第一保育園","province":"東京都","city":"多摩市","address":"多摩市和田60-1","lat":35.643083,"lon":139.435118},{"name":"やまと保育園","province":"東京都","city":"多摩市","address":"多摩市和田1534","lat":35.645586,"lon":139.431568},{"name":"多摩保育園","province":"東京都","city":"多摩市","address":"多摩市和田418-1","lat":35.639823,"lon":139.435399},{"name":"バオバブ保育園","province":"東京都","city":"多摩市","address":"多摩市一ノ宮1-20-3","lat":35.652341,"lon":139.441517},{"name":"バオバブちいさな家保育園","province":"東京都","city":"多摩市","address":"多摩市一ノ宮3-9-1","lat":35.649855,"lon":139.443237},{"name":"貝取保育園","province":"東京都","city":"多摩市","address":"多摩市貝取4-10","lat":35.614365,"lon":139.440169},{"name":"みどりの保育園","province":"東京都","city":"多摩市","address":"多摩市連光寺3-57-2","lat":35.642548,"lon":139.4569},{"name":"かしのき保育園","province":"東京都","city":"多摩市","address":"多摩市諏訪1-64","lat":35.630985,"lon":139.449759},{"name":"こばと第一保育園","province":"東京都","city":"多摩市","address":"多摩市諏訪4-7","lat":35.623814,"lon":139.458353},{"name":"のびのびっこ保育園","province":"東京都","city":"多摩市","address":"多摩市諏訪1-1-6","lat":35.635007,"lon":139.44942},{"name":"あすのき保育園","province":"東京都","city":"多摩市","address":"多摩市諏訪2-2-B-001ブリリア多摩ニュータウン","lat":35.625667,"lon":139.452556},{"name":"こぐま保育園","province":"東京都","city":"多摩市","address":"多摩市永山3-5","lat":35.626091,"lon":139.445948},{"name":"ゆりのき保育園","province":"東京都","city":"多摩市","address":"多摩市永山4-6","lat":35.621634,"lon":139.448323},{"name":"ピオニイ第二保育園","province":"東京都","city":"多摩市","address":"多摩市豊ヶ丘4-8","lat":35.615203,"lon":139.435292},{"name":"かおり保育園","province":"東京都","city":"多摩市","address":"多摩市落合4-15","lat":35.615128,"lon":139.430239},{"name":"あおぞら保育園","province":"東京都","city":"多摩市","address":"多摩市落合1-5-16","lat":35.626332,"lon":139.426675},{"name":"こころ保育園","province":"東京都","city":"多摩市","address":"多摩市鶴牧5-5","lat":35.611229,"lon":139.424157},{"name":"丘の上アンジュ保育園","province":"東京都","city":"多摩市","address":"多摩市鶴牧3-2ブリリア多摩センター","lat":35.618764,"lon":139.421093},{"name":"りすのき保育園","province":"東京都","city":"多摩市","address":"多摩市唐木田1-8-2","lat":35.614761,"lon":139.409199},{"name":"みさと保育所","province":"東京都","city":"多摩市","address":"多摩市愛宕2-53","lat":35.635068,"lon":139.437185},{"name":"南多摩保健所","province":"東京都","city":"多摩市","address":"多摩市永山2-1-5","lat":35.627949,"lon":139.447437},{"name":"桜ヶ丘記念病院","province":"東京都","city":"多摩市","address":"多摩市連光寺1-1-1","lat":35.64739,"lon":139.45787},{"name":"南多摩保健所","province":"東京都","city":"多摩市","address":"多摩市永山2-1-5","lat":35.62846,"lon":139.44521},{"name":"桜ケ丘記念病院","province":"東京都","city":"多摩市","address":"多摩市連光寺1-1-1","lat":35.64739,"lon":139.45787}]}