{"keyword":"保育","data":[{"name":"桜ヶ丘第一保育園","province":"東京都","city":"多摩市","address":"多摩市和田60-1","lat":35.643083,"lon":139.435118},{"name":"やまと保育園","province":"東京都","city":"多摩市","address":"多摩市和田1534","lat":35.645586,"lon":139.431568},{"name":"多摩保育園","province":"東京都","city":"多摩市","address":"多摩市和田418-1","lat":35.639823,"lon":139.435399},{"name":"バオバブ保育園","province":"東京都","city":"多摩市","address":"多摩市一ノ宮1-20-3","lat":35.652341,"lon":139.441517},{"name":"バオバブちいさな家保育園","province":"東京都","city":"多摩市","address":"多摩市一ノ宮3-9-1","lat":35.649855,"lon":139.443237},{"name":"貝取保育園","province":"東京都","city":"多摩市","address":"多摩市貝取4-10","lat":35.614365,"lon":139.440169},{"name":"みどりの保育園","province":"東京都","city":"多摩市","address":"多摩市連光寺3-57-2","lat":35.642548,"lon":139.4569},{"name":"かしのき保育園","province":"東京都","city":"多摩市","address":"多摩市諏訪1-64","lat":35.630985,"lon":139.449759},{"name":"こばと第一保育園","province":"東京都","city":"多摩市","address":"多摩市諏訪4-7","lat":35.623814,"lon":139.458353},{"name":"のびのびっこ保育園","province":"東京都","city":"多摩市","address":"多摩市諏訪1-1-6","lat":35.635007,"lon":139.44942},{"name":"あすのき保育園","province":"東京都","city":"多摩市","address":"多摩市諏訪2-2-B-001ブリリア多摩ニュータウン","lat":35.625667,"lon":139.452556},{"name":"こぐま保育園","province":"東京都","city":"多摩市","address":"多摩市永山3-5","lat":35.626091,"lon":139.445948},{"name":"ゆりのき保育園","province":"東京都","city":"多摩市","address":"多摩市永山4-6","lat":35.621634,"lon":139.448323},{"name":"ピオニイ第二保育園","province":"東京都","city":"多摩市","address":"多摩市豊ヶ丘4-8","lat":35.615203,"lon":139.435292},{"name":"かおり保育園","province":"東京都","city":"多摩市","address":"多摩市落合4-15","lat":35.615128,"lon":139.430239},{"name":"あおぞら保育園","province":"東京都","city":"多摩市","address":"多摩市落合1-5-16","lat":35.626332,"lon":139.426675},{"name":"こころ保育園","province":"東京都","city":"多摩市","address":"多摩市鶴牧5-5","lat":35.611229,"lon":139.424157},{"name":"丘の上アンジュ保育園","province":"東京都","city":"多摩市","address":"多摩市鶴牧3-2ブリリア多摩センター","lat":35.618764,"lon":139.421093},{"name":"りすのき保育園","province":"東京都","city":"多摩市","address":"多摩市唐木田1-8-2","lat":35.614761,"lon":139.409199},{"name":"みさと保育所","province":"東京都","city":"多摩市","address":"多摩市愛宕2-53","lat":35.635068,"lon":139.437185}]}