{"keyword":"収蔵","data":[{"name":"落合配水所","province":"東京都","city":"多摩市","address":"東京都多摩市中沢1-12","lat":35.62455,"lon":139.413627},{"name":"愛宕配水所","province":"東京都","city":"多摩市","address":"東京都多摩市愛宕2-51","lat":35.634838,"lon":139.439535},{"name":"南野給水所","province":"東京都","city":"多摩市","address":"東京都多摩市南野2-16","lat":35.608639,"lon":139.431015},{"name":"聖ヶ丘給水所","province":"東京都","city":"多摩市","address":"東京都多摩市聖ヶ丘4-1","lat":35.63037,"lon":139.46307},{"name":"市立並木公園","province":"東京都","city":"多摩市","address":"東京都多摩市和田1551-1","lat":35.645741,"lon":139.433745},{"name":"日本医科大学多摩永山病院","province":"東京都","city":"多摩市","address":"東京都多摩市永山1丁目7-1","lat":35.63113783,"lon":139.44665098},{"name":"東京都保健医療公社多摩南部地域病院","province":"東京都","city":"多摩市","address":"東京都多摩市中沢2丁目1-2","lat":35.622938,"lon":139.41525124},{"name":"落合浄水所","province":"東京都","city":"多摩市","address":"東京都多摩市中沢1丁目12","lat":35.62444889,"lon":139.41365963},{"name":"愛宕配水所","province":"東京都","city":"多摩市","address":"東京都多摩市愛宕2丁目51","lat":35.63483719,"lon":139.43953479},{"name":"南野給水所","province":"東京都","city":"多摩市","address":"東京都多摩市南野2丁目16","lat":35.60863738,"lon":139.43101436},{"name":"聖ヶ丘給水所","province":"東京都","city":"多摩市","address":"東京都多摩市聖ヶ丘4丁目1","lat":35.62952201,"lon":139.46372188},{"name":"多摩南部地域病院","province":"東京都","city":"多摩市","address":"東京都多摩市中沢2丁目1-2","lat":35.622938,"lon":139.41525124},{"name":"多摩市立多摩市東公園陸上競技場","province":"東京都","city":"多摩市","address":"東京都多摩市諏訪4丁目9","lat":35.62459204,"lon":139.46102787},{"name":"多摩市立関戸公園グラウンド","province":"東京都","city":"多摩市","address":"東京都多摩市関戸3丁目5","lat":35.65016368,"lon":139.45949912},{"name":"宝野公園","province":"東京都","city":"多摩市","address":"東京都多摩市落合5丁目5","lat":35.61428925,"lon":139.42303984},{"name":"＊?多摩市立永山公民館","province":"東京都","city":"多摩市","address":"多摩市永山1-5ベルブ永山内","lat":35.62826,"lon":139.448429},{"name":"＊?多摩市立関戸公民館","province":"東京都","city":"多摩市","address":"多摩市関戸4-72","lat":35.649664,"lon":139.447052},{"name":"落合配水所","province":"東京都","city":"多摩市","address":"東京都多摩市中沢1-12","lat":35.62455,"lon":139.413627},{"name":"愛宕配水所","province":"東京都","city":"多摩市","address":"東京都多摩市愛宕2-51","lat":35.634838,"lon":139.439535},{"name":"南野給水所","province":"東京都","city":"多摩市","address":"東京都多摩市南野2-16","lat":35.608639,"lon":139.431015},{"name":"聖ヶ丘給水所","province":"東京都","city":"多摩市","address":"東京都多摩市聖ヶ丘4-1","lat":35.63037,"lon":139.46307},{"name":"市立並木公園","province":"東京都","city":"多摩市","address":"東京都多摩市和田1551-1","lat":35.645741,"lon":139.433745},{"name":"日本医科大学多摩永山病院","province":"東京都","city":"多摩市","address":"東京都多摩市永山1丁目7-1","lat":35.63113783,"lon":139.44665098},{"name":"東京都保健医療公社多摩南部地域病院","province":"東京都","city":"多摩市","address":"東京都多摩市中沢2丁目1-2","lat":35.622938,"lon":139.41525124},{"name":"落合浄水所","province":"東京都","city":"多摩市","address":"東京都多摩市中沢1丁目12","lat":35.62444889,"lon":139.41365963},{"name":"愛宕配水所","province":"東京都","city":"多摩市","address":"東京都多摩市愛宕2丁目51","lat":35.63483719,"lon":139.43953479},{"name":"南野給水所","province":"東京都","city":"多摩市","address":"東京都多摩市南野2丁目16","lat":35.60863738,"lon":139.43101436},{"name":"聖ヶ丘給水所","province":"東京都","city":"多摩市","address":"東京都多摩市聖ヶ丘4丁目1","lat":35.62952201,"lon":139.46372188},{"name":"多摩南部地域病院","province":"東京都","city":"多摩市","address":"東京都多摩市中沢2丁目1-2","lat":35.622938,"lon":139.41525124},{"name":"多摩市立多摩市東公園陸上競技場","province":"東京都","city":"多摩市","address":"東京都多摩市諏訪4丁目9","lat":35.62459204,"lon":139.46102787},{"name":"多摩市立関戸公園グラウンド","province":"東京都","city":"多摩市","address":"東京都多摩市関戸3丁目5","lat":35.65016368,"lon":139.45949912},{"name":"宝野公園","province":"東京都","city":"多摩市","address":"東京都多摩市落合5丁目5","lat":35.61428925,"lon":139.42303984},{"name":"＊?多摩市立永山公民館","province":"東京都","city":"多摩市","address":"多摩市永山1-5ベルブ永山内","lat":35.62826,"lon":139.448429},{"name":"＊?多摩市立関戸公民館","province":"東京都","city":"多摩市","address":"多摩市関戸4-72","lat":35.649664,"lon":139.447052},{"name":"落合配水所","province":"東京都","city":"多摩市","address":"東京都多摩市中沢1-12","lat":35.62455,"lon":139.413627},{"name":"愛宕配水所","province":"東京都","city":"多摩市","address":"東京都多摩市愛宕2-51","lat":35.634838,"lon":139.439535},{"name":"南野給水所","province":"東京都","city":"多摩市","address":"東京都多摩市南野2-16","lat":35.608639,"lon":139.431015},{"name":"聖ヶ丘給水所","province":"東京都","city":"多摩市","address":"東京都多摩市聖ヶ丘4-1","lat":35.63037,"lon":139.46307},{"name":"市立並木公園","province":"東京都","city":"多摩市","address":"東京都多摩市和田1551-1","lat":35.645741,"lon":139.433745},{"name":"日本医科大学多摩永山病院","province":"東京都","city":"多摩市","address":"東京都多摩市永山1丁目7-1","lat":35.63113783,"lon":139.44665098},{"name":"東京都保健医療公社多摩南部地域病院","province":"東京都","city":"多摩市","address":"東京都多摩市中沢2丁目1-2","lat":35.622938,"lon":139.41525124},{"name":"落合浄水所","province":"東京都","city":"多摩市","address":"東京都多摩市中沢1丁目12","lat":35.62444889,"lon":139.41365963},{"name":"愛宕配水所","province":"東京都","city":"多摩市","address":"東京都多摩市愛宕2丁目51","lat":35.63483719,"lon":139.43953479},{"name":"南野給水所","province":"東京都","city":"多摩市","address":"東京都多摩市南野2丁目16","lat":35.60863738,"lon":139.43101436},{"name":"聖ヶ丘給水所","province":"東京都","city":"多摩市","address":"東京都多摩市聖ヶ丘4丁目1","lat":35.62952201,"lon":139.46372188},{"name":"多摩南部地域病院","province":"東京都","city":"多摩市","address":"東京都多摩市中沢2丁目1-2","lat":35.622938,"lon":139.41525124},{"name":"多摩市立多摩市東公園陸上競技場","province":"東京都","city":"多摩市","address":"東京都多摩市諏訪4丁目9","lat":35.62459204,"lon":139.46102787},{"name":"多摩市立関戸公園グラウンド","province":"東京都","city":"多摩市","address":"東京都多摩市関戸3丁目5","lat":35.65016368,"lon":139.45949912},{"name":"宝野公園","province":"東京都","city":"多摩市","address":"東京都多摩市落合5丁目5","lat":35.61428925,"lon":139.42303984},{"name":"＊?多摩市立永山公民館","province":"東京都","city":"多摩市","address":"多摩市永山1-5ベルブ永山内","lat":35.62826,"lon":139.448429},{"name":"＊?多摩市立関戸公民館","province":"東京都","city":"多摩市","address":"多摩市関戸4-72","lat":35.649664,"lon":139.447052},{"name":"落合配水所","province":"東京都","city":"多摩市","address":"東京都多摩市中沢1-12","lat":35.62455,"lon":139.413627},{"name":"愛宕配水所","province":"東京都","city":"多摩市","address":"東京都多摩市愛宕2-51","lat":35.634838,"lon":139.439535},{"name":"南野給水所","province":"東京都","city":"多摩市","address":"東京都多摩市南野2-16","lat":35.608639,"lon":139.431015},{"name":"聖ヶ丘給水所","province":"東京都","city":"多摩市","address":"東京都多摩市聖ヶ丘4-1","lat":35.63037,"lon":139.46307},{"name":"市立並木公園","province":"東京都","city":"多摩市","address":"東京都多摩市和田1551-1","lat":35.645741,"lon":139.433745},{"name":"日本医科大学多摩永山病院","province":"東京都","city":"多摩市","address":"東京都多摩市永山1丁目7-1","lat":35.63113783,"lon":139.44665098},{"name":"東京都保健医療公社多摩南部地域病院","province":"東京都","city":"多摩市","address":"東京都多摩市中沢2丁目1-2","lat":35.622938,"lon":139.41525124},{"name":"多摩南部地域病院","province":"東京都","city":"多摩市","address":"東京都多摩市中沢2丁目1-2","lat":35.622938,"lon":139.41525124},{"name":"多摩市立多摩市東公園陸上競技場","province":"東京都","city":"多摩市","address":"東京都多摩市諏訪4丁目9","lat":35.62459204,"lon":139.46102787},{"name":"多摩市立関戸公園グラウンド","province":"東京都","city":"多摩市","address":"東京都多摩市関戸3丁目5","lat":35.65016368,"lon":139.45949912},{"name":"宝野公園","province":"東京都","city":"多摩市","address":"東京都多摩市落合5丁目5","lat":35.61428925,"lon":139.42303984},{"name":"＊?多摩市立永山公民館","province":"東京都","city":"多摩市","address":"多摩市永山1-5ベルブ永山内","lat":35.62826,"lon":139.448429},{"name":"＊?多摩市立関戸公民館","province":"東京都","city":"多摩市","address":"多摩市関戸4-72","lat":35.649664,"lon":139.447052},{"name":"落合配水所","province":"東京都","city":"多摩市","address":"東京都多摩市中沢1-12","lat":35.62455,"lon":139.413627},{"name":"愛宕配水所","province":"東京都","city":"多摩市","address":"東京都多摩市愛宕2-51","lat":35.634838,"lon":139.439535},{"name":"南野給水所","province":"東京都","city":"多摩市","address":"東京都多摩市南野2-16","lat":35.608639,"lon":139.431015},{"name":"聖ヶ丘給水所","province":"東京都","city":"多摩市","address":"東京都多摩市聖ヶ丘4-1","lat":35.63037,"lon":139.46307},{"name":"市立並木公園","province":"東京都","city":"多摩市","address":"東京都多摩市和田1551-1","lat":35.645741,"lon":139.433745},{"name":"日本医科大学多摩永山病院","province":"東京都","city":"多摩市","address":"東京都多摩市永山1丁目7-1","lat":35.63113783,"lon":139.44665098},{"name":"東京都保健医療公社多摩南部地域病院","province":"東京都","city":"多摩市","address":"東京都多摩市中沢2丁目1-2","lat":35.622938,"lon":139.41525124},{"name":"多摩南部地域病院","province":"東京都","city":"多摩市","address":"東京都多摩市中沢2丁目1-2","lat":35.622938,"lon":139.41525124},{"name":"＊?多摩市立永山公民館","province":"東京都","city":"多摩市","address":"多摩市永山1-5ベルブ永山内","lat":35.62826,"lon":139.448429},{"name":"＊?多摩市立関戸公民館","province":"東京都","city":"多摩市","address":"多摩市関戸4-72","lat":35.649664,"lon":139.447052},{"name":"落合配水所","province":"東京都","city":"多摩市","address":"東京都多摩市中沢1-12","lat":35.62455,"lon":139.413627},{"name":"愛宕配水所","province":"東京都","city":"多摩市","address":"東京都多摩市愛宕2-51","lat":35.634838,"lon":139.439535},{"name":"南野給水所","province":"東京都","city":"多摩市","address":"東京都多摩市南野2-16","lat":35.608639,"lon":139.431015},{"name":"聖ヶ丘給水所","province":"東京都","city":"多摩市","address":"東京都多摩市聖ヶ丘4-1","lat":35.63037,"lon":139.46307},{"name":"市立並木公園","province":"東京都","city":"多摩市","address":"東京都多摩市和田1551-1","lat":35.645741,"lon":139.433745},{"name":"日本医科大学多摩永山病院","province":"東京都","city":"多摩市","address":"東京都多摩市永山1丁目7-1","lat":35.63113783,"lon":139.44665098},{"name":"東京都保健医療公社多摩南部地域病院","province":"東京都","city":"多摩市","address":"東京都多摩市中沢2丁目1-2","lat":35.622938,"lon":139.41525124},{"name":"多摩南部地域病院","province":"東京都","city":"多摩市","address":"東京都多摩市中沢2丁目1-2","lat":35.622938,"lon":139.41525124},{"name":"＊?多摩市立永山公民館","province":"東京都","city":"多摩市","address":"多摩市永山1-5ベルブ永山内","lat":35.62826,"lon":139.448429},{"name":"＊?多摩市立関戸公民館","province":"東京都","city":"多摩市","address":"多摩市関戸4-72","lat":35.649664,"lon":139.447052},{"name":"落合配水所","province":"東京都","city":"多摩市","address":"東京都多摩市中沢1-12","lat":35.62455,"lon":139.413627},{"name":"愛宕配水所","province":"東京都","city":"多摩市","address":"東京都多摩市愛宕2-51","lat":35.634838,"lon":139.439535},{"name":"南野給水所","province":"東京都","city":"多摩市","address":"東京都多摩市南野2-16","lat":35.608639,"lon":139.431015},{"name":"聖ヶ丘給水所","province":"東京都","city":"多摩市","address":"東京都多摩市聖ヶ丘4-1","lat":35.63037,"lon":139.46307},{"name":"市立並木公園","province":"東京都","city":"多摩市","address":"東京都多摩市和田1551-1","lat":35.645741,"lon":139.433745},{"name":"日本医科大学多摩永山病院","province":"東京都","city":"多摩市","address":"東京都多摩市永山1丁目7-1","lat":35.63113783,"lon":139.44665098},{"name":"東京都保健医療公社多摩南部地域病院","province":"東京都","city":"多摩市","address":"東京都多摩市中沢2丁目1-2","lat":35.622938,"lon":139.41525124},{"name":"多摩南部地域病院","province":"東京都","city":"多摩市","address":"東京都多摩市中沢2丁目1-2","lat":35.622938,"lon":139.41525124},{"name":"＊?多摩市立永山公民館","province":"東京都","city":"多摩市","address":"多摩市永山1-5ベルブ永山内","lat":35.62826,"lon":139.448429},{"name":"＊?多摩市立関戸公民館","province":"東京都","city":"多摩市","address":"多摩市関戸4-72","lat":35.649664,"lon":139.447052},{"name":"落合配水所","province":"東京都","city":"多摩市","address":"東京都多摩市中沢1-12","lat":35.62455,"lon":139.413627},{"name":"愛宕配水所","province":"東京都","city":"多摩市","address":"東京都多摩市愛宕2-51","lat":35.634838,"lon":139.439535},{"name":"南野給水所","province":"東京都","city":"多摩市","address":"東京都多摩市南野2-16","lat":35.608639,"lon":139.431015},{"name":"聖ヶ丘給水所","province":"東京都","city":"多摩市","address":"東京都多摩市聖ヶ丘4-1","lat":35.63037,"lon":139.46307},{"name":"市立並木公園","province":"東京都","city":"多摩市","address":"東京都多摩市和田1551-1","lat":35.645741,"lon":139.433745},{"name":"日本医科大学多摩永山病院","province":"東京都","city":"多摩市","address":"東京都多摩市永山1丁目7-1","lat":35.63113783,"lon":139.44665098},{"name":"東京都保健医療公社多摩南部地域病院","province":"東京都","city":"多摩市","address":"東京都多摩市中沢2丁目1-2","lat":35.622938,"lon":139.41525124},{"name":"多摩南部地域病院","province":"東京都","city":"多摩市","address":"東京都多摩市中沢2丁目1-2","lat":35.622938,"lon":139.41525124},{"name":"＊?多摩市立永山公民館","province":"東京都","city":"多摩市","address":"多摩市永山1-5ベルブ永山内","lat":35.62826,"lon":139.448429},{"name":"＊?多摩市立関戸公民館","province":"東京都","city":"多摩市","address":"多摩市関戸4-72","lat":35.649664,"lon":139.447052},{"name":"落合配水所","province":"東京都","city":"多摩市","address":"東京都多摩市中沢1-12","lat":35.62455,"lon":139.413627},{"name":"愛宕配水所","province":"東京都","city":"多摩市","address":"東京都多摩市愛宕2-51","lat":35.634838,"lon":139.439535},{"name":"南野給水所","province":"東京都","city":"多摩市","address":"東京都多摩市南野2-16","lat":35.608639,"lon":139.431015},{"name":"聖ヶ丘給水所","province":"東京都","city":"多摩市","address":"東京都多摩市聖ヶ丘4-1","lat":35.63037,"lon":139.46307},{"name":"市立並木公園","province":"東京都","city":"多摩市","address":"東京都多摩市和田1551-1","lat":35.645741,"lon":139.433745},{"name":"日本医科大学多摩永山病院","province":"東京都","city":"多摩市","address":"東京都多摩市永山1丁目7-1","lat":35.63113783,"lon":139.44665098},{"name":"東京都保健医療公社多摩南部地域病院","province":"東京都","city":"多摩市","address":"東京都多摩市中沢2丁目1-2","lat":35.622938,"lon":139.41525124},{"name":"多摩南部地域病院","province":"東京都","city":"多摩市","address":"東京都多摩市中沢2丁目1-2","lat":35.622938,"lon":139.41525124},{"name":"＊?多摩市立永山公民館","province":"東京都","city":"多摩市","address":"多摩市永山1-5ベルブ永山内","lat":35.62826,"lon":139.448429},{"name":"＊?多摩市立関戸公民館","province":"東京都","city":"多摩市","address":"多摩市関戸4-72","lat":35.649664,"lon":139.447052},{"name":"落合配水所","province":"東京都","city":"多摩市","address":"東京都多摩市中沢1-12","lat":35.62455,"lon":139.413627},{"name":"愛宕配水所","province":"東京都","city":"多摩市","address":"東京都多摩市愛宕2-51","lat":35.634838,"lon":139.439535},{"name":"南野給水所","province":"東京都","city":"多摩市","address":"東京都多摩市南野2-16","lat":35.608639,"lon":139.431015},{"name":"聖ヶ丘給水所","province":"東京都","city":"多摩市","address":"東京都多摩市聖ヶ丘4-1","lat":35.63037,"lon":139.46307},{"name":"市立並木公園","province":"東京都","city":"多摩市","address":"東京都多摩市和田1551-1","lat":35.645741,"lon":139.433745},{"name":"日本医科大学多摩永山病院","province":"東京都","city":"多摩市","address":"東京都多摩市永山1丁目7-1","lat":35.63113783,"lon":139.44665098},{"name":"東京都保健医療公社多摩南部地域病院","province":"東京都","city":"多摩市","address":"東京都多摩市中沢2丁目1-2","lat":35.622938,"lon":139.41525124},{"name":"多摩南部地域病院","province":"東京都","city":"多摩市","address":"東京都多摩市中沢2丁目1-2","lat":35.622938,"lon":139.41525124},{"name":"＊?多摩市立永山公民館","province":"東京都","city":"多摩市","address":"多摩市永山1-5ベルブ永山内","lat":35.62826,"lon":139.448429},{"name":"＊?多摩市立関戸公民館","province":"東京都","city":"多摩市","address":"多摩市関戸4-72","lat":35.649664,"lon":139.447052},{"name":"落合配水所","province":"東京都","city":"多摩市","address":"東京都多摩市中沢1-12","lat":35.62455,"lon":139.413627},{"name":"愛宕配水所","province":"東京都","city":"多摩市","address":"東京都多摩市愛宕2-51","lat":35.634838,"lon":139.439535},{"name":"南野給水所","province":"東京都","city":"多摩市","address":"東京都多摩市南野2-16","lat":35.608639,"lon":139.431015},{"name":"聖ヶ丘給水所","province":"東京都","city":"多摩市","address":"東京都多摩市聖ヶ丘4-1","lat":35.63037,"lon":139.46307},{"name":"市立並木公園","province":"東京都","city":"多摩市","address":"東京都多摩市和田1551-1","lat":35.645741,"lon":139.433745},{"name":"＊?多摩市立永山公民館","province":"東京都","city":"多摩市","address":"多摩市永山1-5ベルブ永山内","lat":35.62826,"lon":139.448429},{"name":"＊?多摩市立関戸公民館","province":"東京都","city":"多摩市","address":"多摩市関戸4-72","lat":35.649664,"lon":139.447052},{"name":"落合配水所","province":"東京都","city":"多摩市","address":"東京都多摩市中沢1-12","lat":35.62455,"lon":139.413627},{"name":"愛宕配水所","province":"東京都","city":"多摩市","address":"東京都多摩市愛宕2-51","lat":35.634838,"lon":139.439535},{"name":"南野給水所","province":"東京都","city":"多摩市","address":"東京都多摩市南野2-16","lat":35.608639,"lon":139.431015},{"name":"聖ヶ丘給水所","province":"東京都","city":"多摩市","address":"東京都多摩市聖ヶ丘4-1","lat":35.63037,"lon":139.46307},{"name":"市立並木公園","province":"東京都","city":"多摩市","address":"東京都多摩市和田1551-1","lat":35.645741,"lon":139.433745},{"name":"＊?多摩市立永山公民館","province":"東京都","city":"多摩市","address":"多摩市永山1-5ベルブ永山内","lat":35.62826,"lon":139.448429},{"name":"＊?多摩市立関戸公民館","province":"東京都","city":"多摩市","address":"多摩市関戸4-72","lat":35.649664,"lon":139.447052},{"name":"落合配水所","province":"東京都","city":"多摩市","address":"東京都多摩市中沢1-12","lat":35.62455,"lon":139.413627},{"name":"愛宕配水所","province":"東京都","city":"多摩市","address":"東京都多摩市愛宕2-51","lat":35.634838,"lon":139.439535},{"name":"南野給水所","province":"東京都","city":"多摩市","address":"東京都多摩市南野2-16","lat":35.608639,"lon":139.431015},{"name":"聖ヶ丘給水所","province":"東京都","city":"多摩市","address":"東京都多摩市聖ヶ丘4-1","lat":35.63037,"lon":139.46307},{"name":"市立並木公園","province":"東京都","city":"多摩市","address":"東京都多摩市和田1551-1","lat":35.645741,"lon":139.433745},{"name":"＊?多摩市立永山公民館","province":"東京都","city":"多摩市","address":"多摩市永山1-5ベルブ永山内","lat":35.62826,"lon":139.448429},{"name":"＊?多摩市立関戸公民館","province":"東京都","city":"多摩市","address":"多摩市関戸4-72","lat":35.649664,"lon":139.447052},{"name":"落合配水所","province":"東京都","city":"多摩市","address":"東京都多摩市中沢1-12","lat":35.62455,"lon":139.413627},{"name":"愛宕配水所","province":"東京都","city":"多摩市","address":"東京都多摩市愛宕2-51","lat":35.634838,"lon":139.439535},{"name":"南野給水所","province":"東京都","city":"多摩市","address":"東京都多摩市南野2-16","lat":35.608639,"lon":139.431015},{"name":"聖ヶ丘給水所","province":"東京都","city":"多摩市","address":"東京都多摩市聖ヶ丘4-1","lat":35.63037,"lon":139.46307},{"name":"市立並木公園","province":"東京都","city":"多摩市","address":"東京都多摩市和田1551-1","lat":35.645741,"lon":139.433745},{"name":"＊?多摩市立永山公民館","province":"東京都","city":"多摩市","address":"多摩市永山1-5ベルブ永山内","lat":35.62826,"lon":139.448429},{"name":"＊?多摩市立関戸公民館","province":"東京都","city":"多摩市","address":"多摩市関戸4-72","lat":35.649664,"lon":139.447052},{"name":"落合配水所","province":"東京都","city":"多摩市","address":"東京都多摩市中沢1-12","lat":35.62455,"lon":139.413627},{"name":"愛宕配水所","province":"東京都","city":"多摩市","address":"東京都多摩市愛宕2-51","lat":35.634838,"lon":139.439535},{"name":"南野給水所","province":"東京都","city":"多摩市","address":"東京都多摩市南野2-16","lat":35.608639,"lon":139.431015},{"name":"聖ヶ丘給水所","province":"東京都","city":"多摩市","address":"東京都多摩市聖ヶ丘4-1","lat":35.63037,"lon":139.46307},{"name":"市立並木公園","province":"東京都","city":"多摩市","address":"東京都多摩市和田1551-1","lat":35.645741,"lon":139.433745},{"name":"＊?多摩市立永山公民館","province":"東京都","city":"多摩市","address":"多摩市永山1-5ベルブ永山内","lat":35.62826,"lon":139.448429},{"name":"＊?多摩市立関戸公民館","province":"東京都","city":"多摩市","address":"多摩市関戸4-72","lat":35.649664,"lon":139.447052},{"name":"落合配水所","province":"東京都","city":"多摩市","address":"東京都多摩市中沢1-12","lat":35.62455,"lon":139.413627},{"name":"愛宕配水所","province":"東京都","city":"多摩市","address":"東京都多摩市愛宕2-51","lat":35.634838,"lon":139.439535},{"name":"南野給水所","province":"東京都","city":"多摩市","address":"東京都多摩市南野2-16","lat":35.608639,"lon":139.431015},{"name":"聖ヶ丘給水所","province":"東京都","city":"多摩市","address":"東京都多摩市聖ヶ丘4-1","lat":35.63037,"lon":139.46307},{"name":"市立並木公園","province":"東京都","city":"多摩市","address":"東京都多摩市和田1551-1","lat":35.645741,"lon":139.433745},{"name":"＊?多摩市立永山公民館","province":"東京都","city":"多摩市","address":"多摩市永山1-5ベルブ永山内","lat":35.62826,"lon":139.448429},{"name":"＊?多摩市立関戸公民館","province":"東京都","city":"多摩市","address":"多摩市関戸4-72","lat":35.649664,"lon":139.447052},{"name":"落合配水所","province":"東京都","city":"多摩市","address":"東京都多摩市中沢1-12","lat":35.62455,"lon":139.413627},{"name":"愛宕配水所","province":"東京都","city":"多摩市","address":"東京都多摩市愛宕2-51","lat":35.634838,"lon":139.439535},{"name":"南野給水所","province":"東京都","city":"多摩市","address":"東京都多摩市南野2-16","lat":35.608639,"lon":139.431015},{"name":"聖ヶ丘給水所","province":"東京都","city":"多摩市","address":"東京都多摩市聖ヶ丘4-1","lat":35.63037,"lon":139.46307},{"name":"市立並木公園","province":"東京都","city":"多摩市","address":"東京都多摩市和田1551-1","lat":35.645741,"lon":139.433745},{"name":"＊?多摩市立永山公民館","province":"東京都","city":"多摩市","address":"多摩市永山1-5ベルブ永山内","lat":35.62826,"lon":139.448429},{"name":"＊?多摩市立関戸公民館","province":"東京都","city":"多摩市","address":"多摩市関戸4-72","lat":35.649664,"lon":139.447052},{"name":"落合配水所","province":"東京都","city":"多摩市","address":"東京都多摩市中沢1-12","lat":35.62455,"lon":139.413627},{"name":"愛宕配水所","province":"東京都","city":"多摩市","address":"東京都多摩市愛宕2-51","lat":35.634838,"lon":139.439535},{"name":"南野給水所","province":"東京都","city":"多摩市","address":"東京都多摩市南野2-16","lat":35.608639,"lon":139.431015},{"name":"聖ヶ丘給水所","province":"東京都","city":"多摩市","address":"東京都多摩市聖ヶ丘4-1","lat":35.63037,"lon":139.46307},{"name":"市立並木公園","province":"東京都","city":"多摩市","address":"東京都多摩市和田1551-1","lat":35.645741,"lon":139.433745},{"name":"＊?多摩市立永山公民館","province":"東京都","city":"多摩市","address":"多摩市永山1-5ベルブ永山内","lat":35.62826,"lon":139.448429},{"name":"＊?多摩市立関戸公民館","province":"東京都","city":"多摩市","address":"多摩市関戸4-72","lat":35.649664,"lon":139.447052},{"name":"落合配水所","province":"東京都","city":"多摩市","address":"東京都多摩市中沢1-12","lat":35.62455,"lon":139.413627},{"name":"愛宕配水所","province":"東京都","city":"多摩市","address":"東京都多摩市愛宕2-51","lat":35.634838,"lon":139.439535},{"name":"南野給水所","province":"東京都","city":"多摩市","address":"東京都多摩市南野2-16","lat":35.608639,"lon":139.431015},{"name":"聖ヶ丘給水所","province":"東京都","city":"多摩市","address":"東京都多摩市聖ヶ丘4-1","lat":35.63037,"lon":139.46307},{"name":"市立並木公園","province":"東京都","city":"多摩市","address":"東京都多摩市和田1551-1","lat":35.645741,"lon":139.433745},{"name":"＊?多摩市立永山公民館","province":"東京都","city":"多摩市","address":"多摩市永山1-5ベルブ永山内","lat":35.62826,"lon":139.448429},{"name":"＊?多摩市立関戸公民館","province":"東京都","city":"多摩市","address":"多摩市関戸4-72","lat":35.649664,"lon":139.447052},{"name":"落合配水所","province":"東京都","city":"多摩市","address":"東京都多摩市中沢1-12","lat":35.62455,"lon":139.413627},{"name":"愛宕配水所","province":"東京都","city":"多摩市","address":"東京都多摩市愛宕2-51","lat":35.634838,"lon":139.439535},{"name":"南野給水所","province":"東京都","city":"多摩市","address":"東京都多摩市南野2-16","lat":35.608639,"lon":139.431015},{"name":"聖ヶ丘給水所","province":"東京都","city":"多摩市","address":"東京都多摩市聖ヶ丘4-1","lat":35.63037,"lon":139.46307},{"name":"市立並木公園","province":"東京都","city":"多摩市","address":"東京都多摩市和田1551-1","lat":35.645741,"lon":139.433745},{"name":"＊?多摩市立永山公民館","province":"東京都","city":"多摩市","address":"多摩市永山1-5ベルブ永山内","lat":35.62826,"lon":139.448429},{"name":"＊?多摩市立関戸公民館","province":"東京都","city":"多摩市","address":"多摩市関戸4-72","lat":35.649664,"lon":139.447052},{"name":"落合配水所","province":"東京都","city":"多摩市","address":"東京都多摩市中沢1-12","lat":35.62455,"lon":139.413627},{"name":"愛宕配水所","province":"東京都","city":"多摩市","address":"東京都多摩市愛宕2-51","lat":35.634838,"lon":139.439535},{"name":"南野給水所","province":"東京都","city":"多摩市","address":"東京都多摩市南野2-16","lat":35.608639,"lon":139.431015},{"name":"聖ヶ丘給水所","province":"東京都","city":"多摩市","address":"東京都多摩市聖ヶ丘4-1","lat":35.63037,"lon":139.46307},{"name":"市立並木公園","province":"東京都","city":"多摩市","address":"東京都多摩市和田1551-1","lat":35.645741,"lon":139.433745},{"name":"＊?多摩市立永山公民館","province":"東京都","city":"多摩市","address":"多摩市永山1-5ベルブ永山内","lat":35.62826,"lon":139.448429},{"name":"＊?多摩市立関戸公民館","province":"東京都","city":"多摩市","address":"多摩市関戸4-72","lat":35.649664,"lon":139.447052},{"name":"落合配水所","province":"東京都","city":"多摩市","address":"東京都多摩市中沢1-12","lat":35.62455,"lon":139.413627},{"name":"愛宕配水所","province":"東京都","city":"多摩市","address":"東京都多摩市愛宕2-51","lat":35.634838,"lon":139.439535},{"name":"南野給水所","province":"東京都","city":"多摩市","address":"東京都多摩市南野2-16","lat":35.608639,"lon":139.431015},{"name":"聖ヶ丘給水所","province":"東京都","city":"多摩市","address":"東京都多摩市聖ヶ丘4-1","lat":35.63037,"lon":139.46307},{"name":"市立並木公園","province":"東京都","city":"多摩市","address":"東京都多摩市和田1551-1","lat":35.645741,"lon":139.433745},{"name":"＊?多摩市立永山公民館","province":"東京都","city":"多摩市","address":"多摩市永山1-5ベルブ永山内","lat":35.62826,"lon":139.448429},{"name":"＊?多摩市立関戸公民館","province":"東京都","city":"多摩市","address":"多摩市関戸4-72","lat":35.649664,"lon":139.447052},{"name":"落合配水所","province":"東京都","city":"多摩市","address":"東京都多摩市中沢1-12","lat":35.62455,"lon":139.413627},{"name":"愛宕配水所","province":"東京都","city":"多摩市","address":"東京都多摩市愛宕2-51","lat":35.634838,"lon":139.439535},{"name":"南野給水所","province":"東京都","city":"多摩市","address":"東京都多摩市南野2-16","lat":35.608639,"lon":139.431015},{"name":"聖ヶ丘給水所","province":"東京都","city":"多摩市","address":"東京都多摩市聖ヶ丘4-1","lat":35.63037,"lon":139.46307},{"name":"市立並木公園","province":"東京都","city":"多摩市","address":"東京都多摩市和田1551-1","lat":35.645741,"lon":139.433745},{"name":"＊?多摩市立永山公民館","province":"東京都","city":"多摩市","address":"多摩市永山1-5ベルブ永山内","lat":35.62826,"lon":139.448429},{"name":"＊?多摩市立関戸公民館","province":"東京都","city":"多摩市","address":"多摩市関戸4-72","lat":35.649664,"lon":139.447052},{"name":"落合配水所","province":"東京都","city":"多摩市","address":"東京都多摩市中沢1-12","lat":35.62455,"lon":139.413627},{"name":"愛宕配水所","province":"東京都","city":"多摩市","address":"東京都多摩市愛宕2-51","lat":35.634838,"lon":139.439535},{"name":"南野給水所","province":"東京都","city":"多摩市","address":"東京都多摩市南野2-16","lat":35.608639,"lon":139.431015},{"name":"聖ヶ丘給水所","province":"東京都","city":"多摩市","address":"東京都多摩市聖ヶ丘4-1","lat":35.63037,"lon":139.46307},{"name":"市立並木公園","province":"東京都","city":"多摩市","address":"東京都多摩市和田1551-1","lat":35.645741,"lon":139.433745},{"name":"＊?多摩市立永山公民館","province":"東京都","city":"多摩市","address":"多摩市永山1-5ベルブ永山内","lat":35.62826,"lon":139.448429},{"name":"＊?多摩市立関戸公民館","province":"東京都","city":"多摩市","address":"多摩市関戸4-72","lat":35.649664,"lon":139.447052},{"name":"落合配水所","province":"東京都","city":"多摩市","address":"東京都多摩市中沢1-12","lat":35.62455,"lon":139.413627},{"name":"愛宕配水所","province":"東京都","city":"多摩市","address":"東京都多摩市愛宕2-51","lat":35.634838,"lon":139.439535},{"name":"南野給水所","province":"東京都","city":"多摩市","address":"東京都多摩市南野2-16","lat":35.608639,"lon":139.431015},{"name":"聖ヶ丘給水所","province":"東京都","city":"多摩市","address":"東京都多摩市聖ヶ丘4-1","lat":35.63037,"lon":139.46307},{"name":"市立並木公園","province":"東京都","city":"多摩市","address":"東京都多摩市和田1551-1","lat":35.645741,"lon":139.433745},{"name":"＊?多摩市立永山公民館","province":"東京都","city":"多摩市","address":"多摩市永山1-5ベルブ永山内","lat":35.62826,"lon":139.448429},{"name":"＊?多摩市立関戸公民館","province":"東京都","city":"多摩市","address":"多摩市関戸4-72","lat":35.649664,"lon":139.447052},{"name":"落合配水所","province":"東京都","city":"多摩市","address":"東京都多摩市中沢1-12","lat":35.62455,"lon":139.413627},{"name":"愛宕配水所","province":"東京都","city":"多摩市","address":"東京都多摩市愛宕2-51","lat":35.634838,"lon":139.439535},{"name":"南野給水所","province":"東京都","city":"多摩市","address":"東京都多摩市南野2-16","lat":35.608639,"lon":139.431015},{"name":"聖ヶ丘給水所","province":"東京都","city":"多摩市","address":"東京都多摩市聖ヶ丘4-1","lat":35.63037,"lon":139.46307},{"name":"市立並木公園","province":"東京都","city":"多摩市","address":"東京都多摩市和田1551-1","lat":35.645741,"lon":139.433745},{"name":"＊?多摩市立永山公民館","province":"東京都","city":"多摩市","address":"多摩市永山1-5ベルブ永山内","lat":35.62826,"lon":139.448429},{"name":"＊?多摩市立関戸公民館","province":"東京都","city":"多摩市","address":"多摩市関戸4-72","lat":35.649664,"lon":139.447052},{"name":"落合配水所","province":"東京都","city":"多摩市","address":"東京都多摩市中沢1-12","lat":35.62455,"lon":139.413627},{"name":"愛宕配水所","province":"東京都","city":"多摩市","address":"東京都多摩市愛宕2-51","lat":35.634838,"lon":139.439535},{"name":"南野給水所","province":"東京都","city":"多摩市","address":"東京都多摩市南野2-16","lat":35.608639,"lon":139.431015},{"name":"聖ヶ丘給水所","province":"東京都","city":"多摩市","address":"東京都多摩市聖ヶ丘4-1","lat":35.63037,"lon":139.46307},{"name":"市立並木公園","province":"東京都","city":"多摩市","address":"東京都多摩市和田1551-1","lat":35.645741,"lon":139.433745},{"name":"＊?多摩市立永山公民館","province":"東京都","city":"多摩市","address":"多摩市永山1-5ベルブ永山内","lat":35.62826,"lon":139.448429},{"name":"＊?多摩市立関戸公民館","province":"東京都","city":"多摩市","address":"多摩市関戸4-72","lat":35.649664,"lon":139.447052},{"name":"落合配水所","province":"東京都","city":"多摩市","address":"東京都多摩市中沢1-12","lat":35.62455,"lon":139.413627},{"name":"愛宕配水所","province":"東京都","city":"多摩市","address":"東京都多摩市愛宕2-51","lat":35.634838,"lon":139.439535},{"name":"南野給水所","province":"東京都","city":"多摩市","address":"東京都多摩市南野2-16","lat":35.608639,"lon":139.431015},{"name":"聖ヶ丘給水所","province":"東京都","city":"多摩市","address":"東京都多摩市聖ヶ丘4-1","lat":35.63037,"lon":139.46307},{"name":"市立並木公園","province":"東京都","city":"多摩市","address":"東京都多摩市和田1551-1","lat":35.645741,"lon":139.433745},{"name":"＊?多摩市立永山公民館","province":"東京都","city":"多摩市","address":"多摩市永山1-5ベルブ永山内","lat":35.62826,"lon":139.448429},{"name":"＊?多摩市立関戸公民館","province":"東京都","city":"多摩市","address":"多摩市関戸4-72","lat":35.649664,"lon":139.447052},{"name":"落合配水所","province":"東京都","city":"多摩市","address":"東京都多摩市中沢1-12","lat":35.62455,"lon":139.413627},{"name":"愛宕配水所","province":"東京都","city":"多摩市","address":"東京都多摩市愛宕2-51","lat":35.634838,"lon":139.439535},{"name":"南野給水所","province":"東京都","city":"多摩市","address":"東京都多摩市南野2-16","lat":35.608639,"lon":139.431015},{"name":"聖ヶ丘給水所","province":"東京都","city":"多摩市","address":"東京都多摩市聖ヶ丘4-1","lat":35.63037,"lon":139.46307},{"name":"市立並木公園","province":"東京都","city":"多摩市","address":"東京都多摩市和田1551-1","lat":35.645741,"lon":139.433745},{"name":"＊?多摩市立永山公民館","province":"東京都","city":"多摩市","address":"多摩市永山1-5ベルブ永山内","lat":35.62826,"lon":139.448429},{"name":"＊?多摩市立関戸公民館","province":"東京都","city":"多摩市","address":"多摩市関戸4-72","lat":35.649664,"lon":139.447052},{"name":"落合配水所","province":"東京都","city":"多摩市","address":"東京都多摩市中沢1-12","lat":35.62455,"lon":139.413627},{"name":"愛宕配水所","province":"東京都","city":"多摩市","address":"東京都多摩市愛宕2-51","lat":35.634838,"lon":139.439535},{"name":"南野給水所","province":"東京都","city":"多摩市","address":"東京都多摩市南野2-16","lat":35.608639,"lon":139.431015},{"name":"聖ヶ丘給水所","province":"東京都","city":"多摩市","address":"東京都多摩市聖ヶ丘4-1","lat":35.63037,"lon":139.46307},{"name":"市立並木公園","province":"東京都","city":"多摩市","address":"東京都多摩市和田1551-1","lat":35.645741,"lon":139.433745},{"name":"＊?多摩市立永山公民館","province":"東京都","city":"多摩市","address":"多摩市永山1-5ベルブ永山内","lat":35.62826,"lon":139.448429},{"name":"＊?多摩市立関戸公民館","province":"東京都","city":"多摩市","address":"多摩市関戸4-72","lat":35.649664,"lon":139.447052},{"name":"落合配水所","province":"東京都","city":"多摩市","address":"東京都多摩市中沢1-12","lat":35.62455,"lon":139.413627},{"name":"愛宕配水所","province":"東京都","city":"多摩市","address":"東京都多摩市愛宕2-51","lat":35.634838,"lon":139.439535},{"name":"南野給水所","province":"東京都","city":"多摩市","address":"東京都多摩市南野2-16","lat":35.608639,"lon":139.431015},{"name":"聖ヶ丘給水所","province":"東京都","city":"多摩市","address":"東京都多摩市聖ヶ丘4-1","lat":35.63037,"lon":139.46307},{"name":"市立並木公園","province":"東京都","city":"多摩市","address":"東京都多摩市和田1551-1","lat":35.645741,"lon":139.433745},{"name":"＊?多摩市立永山公民館","province":"東京都","city":"多摩市","address":"多摩市永山1-5ベルブ永山内","lat":35.62826,"lon":139.448429},{"name":"＊?多摩市立関戸公民館","province":"東京都","city":"多摩市","address":"多摩市関戸4-72","lat":35.649664,"lon":139.447052},{"name":"落合配水所","province":"東京都","city":"多摩市","address":"東京都多摩市中沢1-12","lat":35.62455,"lon":139.413627},{"name":"愛宕配水所","province":"東京都","city":"多摩市","address":"東京都多摩市愛宕2-51","lat":35.634838,"lon":139.439535},{"name":"南野給水所","province":"東京都","city":"多摩市","address":"東京都多摩市南野2-16","lat":35.608639,"lon":139.431015},{"name":"聖ヶ丘給水所","province":"東京都","city":"多摩市","address":"東京都多摩市聖ヶ丘4-1","lat":35.63037,"lon":139.46307},{"name":"市立並木公園","province":"東京都","city":"多摩市","address":"東京都多摩市和田1551-1","lat":35.645741,"lon":139.433745},{"name":"＊?多摩市立永山公民館","province":"東京都","city":"多摩市","address":"多摩市永山1-5ベルブ永山内","lat":35.62826,"lon":139.448429},{"name":"＊?多摩市立関戸公民館","province":"東京都","city":"多摩市","address":"多摩市関戸4-72","lat":35.649664,"lon":139.447052},{"name":"落合配水所","province":"東京都","city":"多摩市","address":"東京都多摩市中沢1-12","lat":35.62455,"lon":139.413627},{"name":"愛宕配水所","province":"東京都","city":"多摩市","address":"東京都多摩市愛宕2-51","lat":35.634838,"lon":139.439535},{"name":"南野給水所","province":"東京都","city":"多摩市","address":"東京都多摩市南野2-16","lat":35.608639,"lon":139.431015},{"name":"聖ヶ丘給水所","province":"東京都","city":"多摩市","address":"東京都多摩市聖ヶ丘4-1","lat":35.63037,"lon":139.46307},{"name":"市立並木公園","province":"東京都","city":"多摩市","address":"東京都多摩市和田1551-1","lat":35.645741,"lon":139.433745},{"name":"＊?多摩市立永山公民館","province":"東京都","city":"多摩市","address":"多摩市永山1-5ベルブ永山内","lat":35.62826,"lon":139.448429},{"name":"＊?多摩市立関戸公民館","province":"東京都","city":"多摩市","address":"多摩市関戸4-72","lat":35.649664,"lon":139.447052},{"name":"落合配水所","province":"東京都","city":"多摩市","address":"東京都多摩市中沢1-12","lat":35.62455,"lon":139.413627},{"name":"愛宕配水所","province":"東京都","city":"多摩市","address":"東京都多摩市愛宕2-51","lat":35.634838,"lon":139.439535},{"name":"南野給水所","province":"東京都","city":"多摩市","address":"東京都多摩市南野2-16","lat":35.608639,"lon":139.431015},{"name":"聖ヶ丘給水所","province":"東京都","city":"多摩市","address":"東京都多摩市聖ヶ丘4-1","lat":35.63037,"lon":139.46307},{"name":"市立並木公園","province":"東京都","city":"多摩市","address":"東京都多摩市和田1551-1","lat":35.645741,"lon":139.433745},{"name":"＊?多摩市立永山公民館","province":"東京都","city":"多摩市","address":"多摩市永山1-5ベルブ永山内","lat":35.62826,"lon":139.448429},{"name":"＊?多摩市立関戸公民館","province":"東京都","city":"多摩市","address":"多摩市関戸4-72","lat":35.649664,"lon":139.447052},{"name":"落合配水所","province":"東京都","city":"多摩市","address":"東京都多摩市中沢1-12","lat":35.62455,"lon":139.413627},{"name":"愛宕配水所","province":"東京都","city":"多摩市","address":"東京都多摩市愛宕2-51","lat":35.634838,"lon":139.439535},{"name":"南野給水所","province":"東京都","city":"多摩市","address":"東京都多摩市南野2-16","lat":35.608639,"lon":139.431015},{"name":"聖ヶ丘給水所","province":"東京都","city":"多摩市","address":"東京都多摩市聖ヶ丘4-1","lat":35.63037,"lon":139.46307},{"name":"市立並木公園","province":"東京都","city":"多摩市","address":"東京都多摩市和田1551-1","lat":35.645741,"lon":139.433745},{"name":"＊?多摩市立永山公民館","province":"東京都","city":"多摩市","address":"多摩市永山1-5ベルブ永山内","lat":35.62826,"lon":139.448429},{"name":"＊?多摩市立関戸公民館","province":"東京都","city":"多摩市","address":"多摩市関戸4-72","lat":35.649664,"lon":139.447052},{"name":"落合配水所","province":"東京都","city":"多摩市","address":"東京都多摩市中沢1-12","lat":35.62455,"lon":139.413627},{"name":"愛宕配水所","province":"東京都","city":"多摩市","address":"東京都多摩市愛宕2-51","lat":35.634838,"lon":139.439535},{"name":"南野給水所","province":"東京都","city":"多摩市","address":"東京都多摩市南野2-16","lat":35.608639,"lon":139.431015},{"name":"聖ヶ丘給水所","province":"東京都","city":"多摩市","address":"東京都多摩市聖ヶ丘4-1","lat":35.63037,"lon":139.46307},{"name":"市立並木公園","province":"東京都","city":"多摩市","address":"東京都多摩市和田1551-1","lat":35.645741,"lon":139.433745},{"name":"＊?多摩市立永山公民館","province":"東京都","city":"多摩市","address":"多摩市永山1-5ベルブ永山内","lat":35.62826,"lon":139.448429},{"name":"＊?多摩市立関戸公民館","province":"東京都","city":"多摩市","address":"多摩市関戸4-72","lat":35.649664,"lon":139.447052},{"name":"落合配水所","province":"東京都","city":"多摩市","address":"東京都多摩市中沢1-12","lat":35.62455,"lon":139.413627},{"name":"愛宕配水所","province":"東京都","city":"多摩市","address":"東京都多摩市愛宕2-51","lat":35.634838,"lon":139.439535},{"name":"南野給水所","province":"東京都","city":"多摩市","address":"東京都多摩市南野2-16","lat":35.608639,"lon":139.431015},{"name":"聖ヶ丘給水所","province":"東京都","city":"多摩市","address":"東京都多摩市聖ヶ丘4-1","lat":35.63037,"lon":139.46307},{"name":"市立並木公園","province":"東京都","city":"多摩市","address":"東京都多摩市和田1551-1","lat":35.645741,"lon":139.433745},{"name":"＊?多摩市立永山公民館","province":"東京都","city":"多摩市","address":"多摩市永山1-5ベルブ永山内","lat":35.62826,"lon":139.448429},{"name":"＊?多摩市立関戸公民館","province":"東京都","city":"多摩市","address":"多摩市関戸4-72","lat":35.649664,"lon":139.447052},{"name":"落合配水所","province":"東京都","city":"多摩市","address":"東京都多摩市中沢1-12","lat":35.62455,"lon":139.413627},{"name":"愛宕配水所","province":"東京都","city":"多摩市","address":"東京都多摩市愛宕2-51","lat":35.634838,"lon":139.439535},{"name":"南野給水所","province":"東京都","city":"多摩市","address":"東京都多摩市南野2-16","lat":35.608639,"lon":139.431015},{"name":"聖ヶ丘給水所","province":"東京都","city":"多摩市","address":"東京都多摩市聖ヶ丘4-1","lat":35.63037,"lon":139.46307},{"name":"市立並木公園","province":"東京都","city":"多摩市","address":"東京都多摩市和田1551-1","lat":35.645741,"lon":139.433745},{"name":"＊?多摩市立永山公民館","province":"東京都","city":"多摩市","address":"多摩市永山1-5ベルブ永山内","lat":35.62826,"lon":139.448429},{"name":"＊?多摩市立関戸公民館","province":"東京都","city":"多摩市","address":"多摩市関戸4-72","lat":35.649664,"lon":139.447052},{"name":"落合配水所","province":"東京都","city":"多摩市","address":"東京都多摩市中沢1-12","lat":35.62455,"lon":139.413627},{"name":"愛宕配水所","province":"東京都","city":"多摩市","address":"東京都多摩市愛宕2-51","lat":35.634838,"lon":139.439535},{"name":"南野給水所","province":"東京都","city":"多摩市","address":"東京都多摩市南野2-16","lat":35.608639,"lon":139.431015},{"name":"聖ヶ丘給水所","province":"東京都","city":"多摩市","address":"東京都多摩市聖ヶ丘4-1","lat":35.63037,"lon":139.46307},{"name":"市立並木公園","province":"東京都","city":"多摩市","address":"東京都多摩市和田1551-1","lat":35.645741,"lon":139.433745},{"name":"＊?多摩市立永山公民館","province":"東京都","city":"多摩市","address":"多摩市永山1-5ベルブ永山内","lat":35.62826,"lon":139.448429},{"name":"＊?多摩市立関戸公民館","province":"東京都","city":"多摩市","address":"多摩市関戸4-72","lat":35.649664,"lon":139.447052},{"name":"落合配水所","province":"東京都","city":"多摩市","address":"東京都多摩市中沢1-12","lat":35.62455,"lon":139.413627},{"name":"愛宕配水所","province":"東京都","city":"多摩市","address":"東京都多摩市愛宕2-51","lat":35.634838,"lon":139.439535},{"name":"南野給水所","province":"東京都","city":"多摩市","address":"東京都多摩市南野2-16","lat":35.608639,"lon":139.431015},{"name":"聖ヶ丘給水所","province":"東京都","city":"多摩市","address":"東京都多摩市聖ヶ丘4-1","lat":35.63037,"lon":139.46307},{"name":"市立並木公園","province":"東京都","city":"多摩市","address":"東京都多摩市和田1551-1","lat":35.645741,"lon":139.433745},{"name":"＊?多摩市立永山公民館","province":"東京都","city":"多摩市","address":"多摩市永山1-5ベルブ永山内","lat":35.62826,"lon":139.448429},{"name":"＊?多摩市立関戸公民館","province":"東京都","city":"多摩市","address":"多摩市関戸4-72","lat":35.649664,"lon":139.447052},{"name":"落合配水所","province":"東京都","city":"多摩市","address":"東京都多摩市中沢1-12","lat":35.62455,"lon":139.413627},{"name":"愛宕配水所","province":"東京都","city":"多摩市","address":"東京都多摩市愛宕2-51","lat":35.634838,"lon":139.439535},{"name":"南野給水所","province":"東京都","city":"多摩市","address":"東京都多摩市南野2-16","lat":35.608639,"lon":139.431015},{"name":"聖ヶ丘給水所","province":"東京都","city":"多摩市","address":"東京都多摩市聖ヶ丘4-1","lat":35.63037,"lon":139.46307},{"name":"市立並木公園","province":"東京都","city":"多摩市","address":"東京都多摩市和田1551-1","lat":35.645741,"lon":139.433745},{"name":"＊?多摩市立永山公民館","province":"東京都","city":"多摩市","address":"多摩市永山1-5ベルブ永山内","lat":35.62826,"lon":139.448429},{"name":"＊?多摩市立関戸公民館","province":"東京都","city":"多摩市","address":"多摩市関戸4-72","lat":35.649664,"lon":139.447052},{"name":"落合配水所","province":"東京都","city":"多摩市","address":"東京都多摩市中沢1-12","lat":35.62455,"lon":139.413627},{"name":"愛宕配水所","province":"東京都","city":"多摩市","address":"東京都多摩市愛宕2-51","lat":35.634838,"lon":139.439535},{"name":"南野給水所","province":"東京都","city":"多摩市","address":"東京都多摩市南野2-16","lat":35.608639,"lon":139.431015},{"name":"聖ヶ丘給水所","province":"東京都","city":"多摩市","address":"東京都多摩市聖ヶ丘4-1","lat":35.63037,"lon":139.46307},{"name":"市立並木公園","province":"東京都","city":"多摩市","address":"東京都多摩市和田1551-1","lat":35.645741,"lon":139.433745},{"name":"＊?多摩市立永山公民館","province":"東京都","city":"多摩市","address":"多摩市永山1-5ベルブ永山内","lat":35.62826,"lon":139.448429},{"name":"＊?多摩市立関戸公民館","province":"東京都","city":"多摩市","address":"多摩市関戸4-72","lat":35.649664,"lon":139.447052},{"name":"落合配水所","province":"東京都","city":"多摩市","address":"東京都多摩市中沢1-12","lat":35.62455,"lon":139.413627},{"name":"愛宕配水所","province":"東京都","city":"多摩市","address":"東京都多摩市愛宕2-51","lat":35.634838,"lon":139.439535},{"name":"南野給水所","province":"東京都","city":"多摩市","address":"東京都多摩市南野2-16","lat":35.608639,"lon":139.431015},{"name":"聖ヶ丘給水所","province":"東京都","city":"多摩市","address":"東京都多摩市聖ヶ丘4-1","lat":35.63037,"lon":139.46307},{"name":"市立並木公園","province":"東京都","city":"多摩市","address":"東京都多摩市和田1551-1","lat":35.645741,"lon":139.433745},{"name":"＊?多摩市立永山公民館","province":"東京都","city":"多摩市","address":"多摩市永山1-5ベルブ永山内","lat":35.62826,"lon":139.448429},{"name":"＊?多摩市立関戸公民館","province":"東京都","city":"多摩市","address":"多摩市関戸4-72","lat":35.649664,"lon":139.447052},{"name":"落合配水所","province":"東京都","city":"多摩市","address":"東京都多摩市中沢1-12","lat":35.62455,"lon":139.413627},{"name":"愛宕配水所","province":"東京都","city":"多摩市","address":"東京都多摩市愛宕2-51","lat":35.634838,"lon":139.439535},{"name":"南野給水所","province":"東京都","city":"多摩市","address":"東京都多摩市南野2-16","lat":35.608639,"lon":139.431015},{"name":"聖ヶ丘給水所","province":"東京都","city":"多摩市","address":"東京都多摩市聖ヶ丘4-1","lat":35.63037,"lon":139.46307},{"name":"市立並木公園","province":"東京都","city":"多摩市","address":"東京都多摩市和田1551-1","lat":35.645741,"lon":139.433745},{"name":"＊?多摩市立永山公民館","province":"東京都","city":"多摩市","address":"多摩市永山1-5ベルブ永山内","lat":35.62826,"lon":139.448429},{"name":"＊?多摩市立関戸公民館","province":"東京都","city":"多摩市","address":"多摩市関戸4-72","lat":35.649664,"lon":139.447052},{"name":"落合配水所","province":"東京都","city":"多摩市","address":"東京都多摩市中沢1-12","lat":35.62455,"lon":139.413627},{"name":"愛宕配水所","province":"東京都","city":"多摩市","address":"東京都多摩市愛宕2-51","lat":35.634838,"lon":139.439535},{"name":"南野給水所","province":"東京都","city":"多摩市","address":"東京都多摩市南野2-16","lat":35.608639,"lon":139.431015},{"name":"聖ヶ丘給水所","province":"東京都","city":"多摩市","address":"東京都多摩市聖ヶ丘4-1","lat":35.63037,"lon":139.46307},{"name":"市立並木公園","province":"東京都","city":"多摩市","address":"東京都多摩市和田1551-1","lat":35.645741,"lon":139.433745},{"name":"＊?多摩市立永山公民館","province":"東京都","city":"多摩市","address":"多摩市永山1-5ベルブ永山内","lat":35.62826,"lon":139.448429},{"name":"＊?多摩市立関戸公民館","province":"東京都","city":"多摩市","address":"多摩市関戸4-72","lat":35.649664,"lon":139.447052}]}