{"keyword":"命令","data":[{"name":"やまと保育園","province":"東京都","city":"多摩市","address":"多摩市和田1534","lat":35.64555,"lon":139.43172},{"name":"多摩保育園","province":"東京都","city":"多摩市","address":"多摩市和田418-1","lat":35.63997,"lon":139.43536},{"name":"桜ヶ丘第一保育園","province":"東京都","city":"多摩市","address":"多摩市和田60-1","lat":35.64292,"lon":139.43488},{"name":"バオバブ保育園","province":"東京都","city":"多摩市","address":"多摩市一ノ宮1-20-3","lat":35.65244,"lon":139.44096},{"name":"バオバブちいさな家保育園","province":"東京都","city":"多摩市","address":"多摩市一ノ宮3-9-1","lat":35.64965,"lon":139.44293},{"name":"関戸みどりの保育園","province":"東京都","city":"多摩市","address":"多摩市関戸2-24-27三ツ木聖蹟桜ヶ丘ビル2F","lat":35.65068,"lon":139.44914},{"name":"やまとさくら保育園","province":"東京都","city":"多摩市","address":"多摩市関戸4-18-2","lat":35.64924,"lon":139.4501},{"name":"みどりの保育園","province":"東京都","city":"多摩市","address":"多摩市連光寺3-57-2","lat":35.64273,"lon":139.45685},{"name":"のびのびっこ保育園","province":"東京都","city":"多摩市","address":"多摩市諏訪1-1-6","lat":35.63499,"lon":139.4494},{"name":"かしのき保育園","province":"東京都","city":"多摩市","address":"多摩市諏訪1-64","lat":35.63107,"lon":139.45009},{"name":"あすのき保育園","province":"東京都","city":"多摩市","address":"多摩市諏訪2-2-B-001ブリリア多摩ニュータウン","lat":35.62539,"lon":139.45236},{"name":"こばと第一保育園","province":"東京都","city":"多摩市","address":"多摩市諏訪4-7","lat":35.62394,"lon":139.45815},{"name":"おだ学園保育園","province":"東京都","city":"多摩市","address":"多摩市永山1-5ベルブ永山209号","lat":35.62847,"lon":139.44868},{"name":"こぐま保育園","province":"東京都","city":"多摩市","address":"多摩市永山3-5","lat":35.62606,"lon":139.44594},{"name":"ゆりのき保育園","province":"東京都","city":"多摩市","address":"多摩市永山4-6","lat":35.62168,"lon":139.44836},{"name":"ピオニイ第二保育園","province":"東京都","city":"多摩市","address":"多摩市豊ヶ丘4-8","lat":35.61532,"lon":139.43524},{"name":"あおぞらぱれっと保育園","province":"東京都","city":"多摩市","address":"多摩市落合1-15-1","lat":35.62578,"lon":139.42897},{"name":"あおぞら保育園","province":"東京都","city":"多摩市","address":"多摩市落合1-5-16","lat":35.62626,"lon":139.42621},{"name":"かおり保育園","province":"東京都","city":"多摩市","address":"多摩市落合4-15","lat":35.61518,"lon":139.43019},{"name":"丘の上アンジュ保育園","province":"東京都","city":"多摩市","address":"多摩市鶴牧3-2ブリリア多摩センター","lat":35.61867,"lon":139.42117},{"name":"こころ保育園","province":"東京都","city":"多摩市","address":"多摩市鶴牧5-5","lat":35.6114,"lon":139.42419},{"name":"りすのき保育園","province":"東京都","city":"多摩市","address":"多摩市唐木田1-8-2","lat":35.61443,"lon":139.41043},{"name":"みさと保育所","province":"東京都","city":"多摩市","address":"多摩市愛宕2-53","lat":35.63513,"lon":139.4379},{"name":"あおぞらぱれっと保育園","province":"東京都","city":"多摩市","address":"多摩市鶴牧1-11-10","lat":35.62288,"lon":139.41719},{"name":"かおり保育園","province":"東京都","city":"多摩市","address":"多摩市落合4-15","lat":35.61519,"lon":139.43019},{"name":"おだ学園保育園","province":"東京都","city":"多摩市","address":"多摩市永山1-5ベルブ永山209号","lat":35.62847,"lon":139.44869},{"name":"あすのき保育園","province":"東京都","city":"多摩市","address":"多摩市諏訪2-2-B-001ブリリア多摩ニュータウン","lat":35.62708,"lon":139.45039},{"name":"南多摩保健所","province":"東京都","city":"多摩市","address":"東京都多摩市永山2丁目1-5","lat":35.62794936,"lon":139.44743715},{"name":"多摩市立武道館・陸上競技場","province":"東京都","city":"多摩市","address":"東京都多摩市諏訪4丁目9","lat":35.62459204,"lon":139.46102787},{"name":"多摩市本庁舎","province":"東京都","city":"多摩市","address":"多摩市関戸6-12-1","lat":35.63776,"lon":139.44689},{"name":"京王電鉄（株）","province":"東京都","city":"多摩市","address":"多摩市関戸1-9-1","lat":35.65134,"lon":139.4482},{"name":"多摩中央警察署","province":"東京都","city":"多摩市","address":"多摩市鶴牧1-26-1","lat":35.623,"lon":139.421},{"name":"多摩消防署","province":"東京都","city":"多摩市","address":"多摩市諏訪1-69","lat":35.63252,"lon":139.4484},{"name":"多摩市立陸上競技場（陸上競技場）","province":"東京都","city":"多摩市","address":"多摩市諏訪4丁目地内","lat":35.62597,"lon":139.4561},{"name":"多摩清掃工場","province":"東京都","city":"多摩市","address":"多摩市唐木田2-1-1","lat":35.61217,"lon":139.41},{"name":"多摩市立多摩東公園陸上競技場","province":"東京都","city":"多摩市","address":"多摩市諏訪4-9","lat":35.62459,"lon":139.461},{"name":"ＫＤＤＩ東京Ⅱ","province":"東京都","city":"多摩市","address":"多摩市南野3-15-3","lat":35.6121,"lon":139.4149},{"name":"ＫＤＤＩ東京Ⅲ","province":"東京都","city":"多摩市","address":"多摩市唐木田3-7-1","lat":35.60897,"lon":139.3955},{"name":"ＫＤＤＩ東京Ⅳ","province":"東京都","city":"多摩市","address":"多摩市唐木田3-2","lat":35.60936,"lon":139.4031},{"name":"東京ガス（株）多摩備蓄倉庫","province":"東京都","city":"多摩市","address":"多摩市唐木田2-2","lat":35.61162,"lon":139.405},{"name":"水道局多摩水道改革推進本部／多摩給水管理事務所","province":"東京都","city":"多摩市","address":"多摩市山王下1-17","lat":35.62549,"lon":139.4165},{"name":"多摩センター駅","province":"東京都","city":"多摩市","address":"東京都多摩市","lat":35.63703153,"lon":139.44628412},{"name":"やまと保育園","province":"東京都","city":"多摩市","address":"多摩市和田1534","lat":35.64555,"lon":139.43172},{"name":"多摩保育園","province":"東京都","city":"多摩市","address":"多摩市和田418-1","lat":35.63997,"lon":139.43536},{"name":"桜ヶ丘第一保育園","province":"東京都","city":"多摩市","address":"多摩市和田60-1","lat":35.64292,"lon":139.43488},{"name":"バオバブ保育園","province":"東京都","city":"多摩市","address":"多摩市一ノ宮1-20-3","lat":35.65244,"lon":139.44096},{"name":"バオバブちいさな家保育園","province":"東京都","city":"多摩市","address":"多摩市一ノ宮3-9-1","lat":35.64965,"lon":139.44293},{"name":"関戸みどりの保育園","province":"東京都","city":"多摩市","address":"多摩市関戸2-24-27三ツ木聖蹟桜ヶ丘ビル2F","lat":35.65068,"lon":139.44914},{"name":"やまとさくら保育園","province":"東京都","city":"多摩市","address":"多摩市関戸4-18-2","lat":35.64924,"lon":139.4501},{"name":"みどりの保育園","province":"東京都","city":"多摩市","address":"多摩市連光寺3-57-2","lat":35.64273,"lon":139.45685},{"name":"のびのびっこ保育園","province":"東京都","city":"多摩市","address":"多摩市諏訪1-1-6","lat":35.63499,"lon":139.4494},{"name":"かしのき保育園","province":"東京都","city":"多摩市","address":"多摩市諏訪1-64","lat":35.63107,"lon":139.45009},{"name":"あすのき保育園","province":"東京都","city":"多摩市","address":"多摩市諏訪2-2-B-001ブリリア多摩ニュータウン","lat":35.62539,"lon":139.45236},{"name":"こばと第一保育園","province":"東京都","city":"多摩市","address":"多摩市諏訪4-7","lat":35.62394,"lon":139.45815},{"name":"おだ学園保育園","province":"東京都","city":"多摩市","address":"多摩市永山1-5ベルブ永山209号","lat":35.62847,"lon":139.44868},{"name":"こぐま保育園","province":"東京都","city":"多摩市","address":"多摩市永山3-5","lat":35.62606,"lon":139.44594},{"name":"ゆりのき保育園","province":"東京都","city":"多摩市","address":"多摩市永山4-6","lat":35.62168,"lon":139.44836},{"name":"ピオニイ第二保育園","province":"東京都","city":"多摩市","address":"多摩市豊ヶ丘4-8","lat":35.61532,"lon":139.43524},{"name":"あおぞらぱれっと保育園","province":"東京都","city":"多摩市","address":"多摩市落合1-15-1","lat":35.62578,"lon":139.42897},{"name":"あおぞら保育園","province":"東京都","city":"多摩市","address":"多摩市落合1-5-16","lat":35.62626,"lon":139.42621},{"name":"かおり保育園","province":"東京都","city":"多摩市","address":"多摩市落合4-15","lat":35.61518,"lon":139.43019},{"name":"丘の上アンジュ保育園","province":"東京都","city":"多摩市","address":"多摩市鶴牧3-2ブリリア多摩センター","lat":35.61867,"lon":139.42117},{"name":"こころ保育園","province":"東京都","city":"多摩市","address":"多摩市鶴牧5-5","lat":35.6114,"lon":139.42419},{"name":"りすのき保育園","province":"東京都","city":"多摩市","address":"多摩市唐木田1-8-2","lat":35.61443,"lon":139.41043},{"name":"みさと保育所","province":"東京都","city":"多摩市","address":"多摩市愛宕2-53","lat":35.63513,"lon":139.4379},{"name":"あおぞらぱれっと保育園","province":"東京都","city":"多摩市","address":"多摩市鶴牧1-11-10","lat":35.62288,"lon":139.41719},{"name":"かおり保育園","province":"東京都","city":"多摩市","address":"多摩市落合4-15","lat":35.61519,"lon":139.43019},{"name":"おだ学園保育園","province":"東京都","city":"多摩市","address":"多摩市永山1-5ベルブ永山209号","lat":35.62847,"lon":139.44869},{"name":"あすのき保育園","province":"東京都","city":"多摩市","address":"多摩市諏訪2-2-B-001ブリリア多摩ニュータウン","lat":35.62708,"lon":139.45039},{"name":"南多摩保健所","province":"東京都","city":"多摩市","address":"東京都多摩市永山2丁目1-5","lat":35.62794936,"lon":139.44743715},{"name":"多摩市立武道館・陸上競技場","province":"東京都","city":"多摩市","address":"東京都多摩市諏訪4丁目9","lat":35.62459204,"lon":139.46102787},{"name":"多摩市本庁舎","province":"東京都","city":"多摩市","address":"多摩市関戸6-12-1","lat":35.63776,"lon":139.44689},{"name":"京王電鉄（株）","province":"東京都","city":"多摩市","address":"多摩市関戸1-9-1","lat":35.65134,"lon":139.4482},{"name":"多摩中央警察署","province":"東京都","city":"多摩市","address":"多摩市鶴牧1-26-1","lat":35.623,"lon":139.421},{"name":"多摩消防署","province":"東京都","city":"多摩市","address":"多摩市諏訪1-69","lat":35.63252,"lon":139.4484},{"name":"多摩市立陸上競技場（陸上競技場）","province":"東京都","city":"多摩市","address":"多摩市諏訪4丁目地内","lat":35.62597,"lon":139.4561},{"name":"多摩清掃工場","province":"東京都","city":"多摩市","address":"多摩市唐木田2-1-1","lat":35.61217,"lon":139.41},{"name":"多摩市立多摩東公園陸上競技場","province":"東京都","city":"多摩市","address":"多摩市諏訪4-9","lat":35.62459,"lon":139.461},{"name":"ＫＤＤＩ東京Ⅱ","province":"東京都","city":"多摩市","address":"多摩市南野3-15-3","lat":35.6121,"lon":139.4149},{"name":"ＫＤＤＩ東京Ⅲ","province":"東京都","city":"多摩市","address":"多摩市唐木田3-7-1","lat":35.60897,"lon":139.3955},{"name":"ＫＤＤＩ東京Ⅳ","province":"東京都","city":"多摩市","address":"多摩市唐木田3-2","lat":35.60936,"lon":139.4031},{"name":"東京ガス（株）多摩備蓄倉庫","province":"東京都","city":"多摩市","address":"多摩市唐木田2-2","lat":35.61162,"lon":139.405},{"name":"水道局多摩水道改革推進本部／多摩給水管理事務所","province":"東京都","city":"多摩市","address":"多摩市山王下1-17","lat":35.62549,"lon":139.4165},{"name":"多摩センター駅","province":"東京都","city":"多摩市","address":"東京都多摩市","lat":35.63703153,"lon":139.44628412},{"name":"やまと保育園","province":"東京都","city":"多摩市","address":"多摩市和田1534","lat":35.64555,"lon":139.43172},{"name":"多摩保育園","province":"東京都","city":"多摩市","address":"多摩市和田418-1","lat":35.63997,"lon":139.43536},{"name":"桜ヶ丘第一保育園","province":"東京都","city":"多摩市","address":"多摩市和田60-1","lat":35.64292,"lon":139.43488},{"name":"バオバブ保育園","province":"東京都","city":"多摩市","address":"多摩市一ノ宮1-20-3","lat":35.65244,"lon":139.44096},{"name":"バオバブちいさな家保育園","province":"東京都","city":"多摩市","address":"多摩市一ノ宮3-9-1","lat":35.64965,"lon":139.44293},{"name":"関戸みどりの保育園","province":"東京都","city":"多摩市","address":"多摩市関戸2-24-27三ツ木聖蹟桜ヶ丘ビル2F","lat":35.65068,"lon":139.44914},{"name":"やまとさくら保育園","province":"東京都","city":"多摩市","address":"多摩市関戸4-18-2","lat":35.64924,"lon":139.4501},{"name":"みどりの保育園","province":"東京都","city":"多摩市","address":"多摩市連光寺3-57-2","lat":35.64273,"lon":139.45685},{"name":"のびのびっこ保育園","province":"東京都","city":"多摩市","address":"多摩市諏訪1-1-6","lat":35.63499,"lon":139.4494},{"name":"かしのき保育園","province":"東京都","city":"多摩市","address":"多摩市諏訪1-64","lat":35.63107,"lon":139.45009},{"name":"あすのき保育園","province":"東京都","city":"多摩市","address":"多摩市諏訪2-2-B-001ブリリア多摩ニュータウン","lat":35.62539,"lon":139.45236},{"name":"こばと第一保育園","province":"東京都","city":"多摩市","address":"多摩市諏訪4-7","lat":35.62394,"lon":139.45815},{"name":"おだ学園保育園","province":"東京都","city":"多摩市","address":"多摩市永山1-5ベルブ永山209号","lat":35.62847,"lon":139.44868},{"name":"こぐま保育園","province":"東京都","city":"多摩市","address":"多摩市永山3-5","lat":35.62606,"lon":139.44594},{"name":"ゆりのき保育園","province":"東京都","city":"多摩市","address":"多摩市永山4-6","lat":35.62168,"lon":139.44836},{"name":"ピオニイ第二保育園","province":"東京都","city":"多摩市","address":"多摩市豊ヶ丘4-8","lat":35.61532,"lon":139.43524},{"name":"あおぞらぱれっと保育園","province":"東京都","city":"多摩市","address":"多摩市落合1-15-1","lat":35.62578,"lon":139.42897},{"name":"あおぞら保育園","province":"東京都","city":"多摩市","address":"多摩市落合1-5-16","lat":35.62626,"lon":139.42621},{"name":"かおり保育園","province":"東京都","city":"多摩市","address":"多摩市落合4-15","lat":35.61518,"lon":139.43019},{"name":"丘の上アンジュ保育園","province":"東京都","city":"多摩市","address":"多摩市鶴牧3-2ブリリア多摩センター","lat":35.61867,"lon":139.42117},{"name":"こころ保育園","province":"東京都","city":"多摩市","address":"多摩市鶴牧5-5","lat":35.6114,"lon":139.42419},{"name":"りすのき保育園","province":"東京都","city":"多摩市","address":"多摩市唐木田1-8-2","lat":35.61443,"lon":139.41043},{"name":"みさと保育所","province":"東京都","city":"多摩市","address":"多摩市愛宕2-53","lat":35.63513,"lon":139.4379},{"name":"あおぞらぱれっと保育園","province":"東京都","city":"多摩市","address":"多摩市鶴牧1-11-10","lat":35.62288,"lon":139.41719},{"name":"かおり保育園","province":"東京都","city":"多摩市","address":"多摩市落合4-15","lat":35.61519,"lon":139.43019},{"name":"おだ学園保育園","province":"東京都","city":"多摩市","address":"多摩市永山1-5ベルブ永山209号","lat":35.62847,"lon":139.44869},{"name":"あすのき保育園","province":"東京都","city":"多摩市","address":"多摩市諏訪2-2-B-001ブリリア多摩ニュータウン","lat":35.62708,"lon":139.45039},{"name":"やまと保育園","province":"東京都","city":"多摩市","address":"多摩市和田1534","lat":35.64555,"lon":139.43172},{"name":"多摩保育園","province":"東京都","city":"多摩市","address":"多摩市和田418-1","lat":35.63997,"lon":139.43536},{"name":"桜ヶ丘第一保育園","province":"東京都","city":"多摩市","address":"多摩市和田60-1","lat":35.64292,"lon":139.43488},{"name":"バオバブ保育園","province":"東京都","city":"多摩市","address":"多摩市一ノ宮1-20-3","lat":35.65244,"lon":139.44096},{"name":"バオバブちいさな家保育園","province":"東京都","city":"多摩市","address":"多摩市一ノ宮3-9-1","lat":35.64965,"lon":139.44293},{"name":"関戸みどりの保育園","province":"東京都","city":"多摩市","address":"多摩市関戸2-24-27三ツ木聖蹟桜ヶ丘ビル2F","lat":35.65068,"lon":139.44914},{"name":"やまとさくら保育園","province":"東京都","city":"多摩市","address":"多摩市関戸4-18-2","lat":35.64924,"lon":139.4501},{"name":"みどりの保育園","province":"東京都","city":"多摩市","address":"多摩市連光寺3-57-2","lat":35.64273,"lon":139.45685},{"name":"のびのびっこ保育園","province":"東京都","city":"多摩市","address":"多摩市諏訪1-1-6","lat":35.63499,"lon":139.4494},{"name":"かしのき保育園","province":"東京都","city":"多摩市","address":"多摩市諏訪1-64","lat":35.63107,"lon":139.45009},{"name":"あすのき保育園","province":"東京都","city":"多摩市","address":"多摩市諏訪2-2-B-001ブリリア多摩ニュータウン","lat":35.62539,"lon":139.45236},{"name":"こばと第一保育園","province":"東京都","city":"多摩市","address":"多摩市諏訪4-7","lat":35.62394,"lon":139.45815},{"name":"おだ学園保育園","province":"東京都","city":"多摩市","address":"多摩市永山1-5ベルブ永山209号","lat":35.62847,"lon":139.44868},{"name":"こぐま保育園","province":"東京都","city":"多摩市","address":"多摩市永山3-5","lat":35.62606,"lon":139.44594},{"name":"ゆりのき保育園","province":"東京都","city":"多摩市","address":"多摩市永山4-6","lat":35.62168,"lon":139.44836},{"name":"ピオニイ第二保育園","province":"東京都","city":"多摩市","address":"多摩市豊ヶ丘4-8","lat":35.61532,"lon":139.43524},{"name":"あおぞらぱれっと保育園","province":"東京都","city":"多摩市","address":"多摩市落合1-15-1","lat":35.62578,"lon":139.42897},{"name":"あおぞら保育園","province":"東京都","city":"多摩市","address":"多摩市落合1-5-16","lat":35.62626,"lon":139.42621},{"name":"かおり保育園","province":"東京都","city":"多摩市","address":"多摩市落合4-15","lat":35.61518,"lon":139.43019},{"name":"丘の上アンジュ保育園","province":"東京都","city":"多摩市","address":"多摩市鶴牧3-2ブリリア多摩センター","lat":35.61867,"lon":139.42117},{"name":"こころ保育園","province":"東京都","city":"多摩市","address":"多摩市鶴牧5-5","lat":35.6114,"lon":139.42419},{"name":"りすのき保育園","province":"東京都","city":"多摩市","address":"多摩市唐木田1-8-2","lat":35.61443,"lon":139.41043},{"name":"みさと保育所","province":"東京都","city":"多摩市","address":"多摩市愛宕2-53","lat":35.63513,"lon":139.4379},{"name":"あおぞらぱれっと保育園","province":"東京都","city":"多摩市","address":"多摩市鶴牧1-11-10","lat":35.62288,"lon":139.41719},{"name":"かおり保育園","province":"東京都","city":"多摩市","address":"多摩市落合4-15","lat":35.61519,"lon":139.43019},{"name":"おだ学園保育園","province":"東京都","city":"多摩市","address":"多摩市永山1-5ベルブ永山209号","lat":35.62847,"lon":139.44869},{"name":"あすのき保育園","province":"東京都","city":"多摩市","address":"多摩市諏訪2-2-B-001ブリリア多摩ニュータウン","lat":35.62708,"lon":139.45039},{"name":"やまと保育園","province":"東京都","city":"多摩市","address":"多摩市和田1534","lat":35.64555,"lon":139.43172},{"name":"多摩保育園","province":"東京都","city":"多摩市","address":"多摩市和田418-1","lat":35.63997,"lon":139.43536},{"name":"桜ヶ丘第一保育園","province":"東京都","city":"多摩市","address":"多摩市和田60-1","lat":35.64292,"lon":139.43488},{"name":"バオバブ保育園","province":"東京都","city":"多摩市","address":"多摩市一ノ宮1-20-3","lat":35.65244,"lon":139.44096},{"name":"バオバブちいさな家保育園","province":"東京都","city":"多摩市","address":"多摩市一ノ宮3-9-1","lat":35.64965,"lon":139.44293},{"name":"関戸みどりの保育園","province":"東京都","city":"多摩市","address":"多摩市関戸2-24-27三ツ木聖蹟桜ヶ丘ビル2F","lat":35.65068,"lon":139.44914},{"name":"やまとさくら保育園","province":"東京都","city":"多摩市","address":"多摩市関戸4-18-2","lat":35.64924,"lon":139.4501},{"name":"みどりの保育園","province":"東京都","city":"多摩市","address":"多摩市連光寺3-57-2","lat":35.64273,"lon":139.45685},{"name":"のびのびっこ保育園","province":"東京都","city":"多摩市","address":"多摩市諏訪1-1-6","lat":35.63499,"lon":139.4494},{"name":"かしのき保育園","province":"東京都","city":"多摩市","address":"多摩市諏訪1-64","lat":35.63107,"lon":139.45009},{"name":"あすのき保育園","province":"東京都","city":"多摩市","address":"多摩市諏訪2-2-B-001ブリリア多摩ニュータウン","lat":35.62539,"lon":139.45236},{"name":"こばと第一保育園","province":"東京都","city":"多摩市","address":"多摩市諏訪4-7","lat":35.62394,"lon":139.45815},{"name":"おだ学園保育園","province":"東京都","city":"多摩市","address":"多摩市永山1-5ベルブ永山209号","lat":35.62847,"lon":139.44868},{"name":"こぐま保育園","province":"東京都","city":"多摩市","address":"多摩市永山3-5","lat":35.62606,"lon":139.44594},{"name":"ゆりのき保育園","province":"東京都","city":"多摩市","address":"多摩市永山4-6","lat":35.62168,"lon":139.44836},{"name":"ピオニイ第二保育園","province":"東京都","city":"多摩市","address":"多摩市豊ヶ丘4-8","lat":35.61532,"lon":139.43524},{"name":"あおぞらぱれっと保育園","province":"東京都","city":"多摩市","address":"多摩市落合1-15-1","lat":35.62578,"lon":139.42897},{"name":"あおぞら保育園","province":"東京都","city":"多摩市","address":"多摩市落合1-5-16","lat":35.62626,"lon":139.42621},{"name":"かおり保育園","province":"東京都","city":"多摩市","address":"多摩市落合4-15","lat":35.61518,"lon":139.43019},{"name":"丘の上アンジュ保育園","province":"東京都","city":"多摩市","address":"多摩市鶴牧3-2ブリリア多摩センター","lat":35.61867,"lon":139.42117},{"name":"こころ保育園","province":"東京都","city":"多摩市","address":"多摩市鶴牧5-5","lat":35.6114,"lon":139.42419},{"name":"りすのき保育園","province":"東京都","city":"多摩市","address":"多摩市唐木田1-8-2","lat":35.61443,"lon":139.41043},{"name":"みさと保育所","province":"東京都","city":"多摩市","address":"多摩市愛宕2-53","lat":35.63513,"lon":139.4379},{"name":"あおぞらぱれっと保育園","province":"東京都","city":"多摩市","address":"多摩市鶴牧1-11-10","lat":35.62288,"lon":139.41719},{"name":"かおり保育園","province":"東京都","city":"多摩市","address":"多摩市落合4-15","lat":35.61519,"lon":139.43019},{"name":"おだ学園保育園","province":"東京都","city":"多摩市","address":"多摩市永山1-5ベルブ永山209号","lat":35.62847,"lon":139.44869},{"name":"あすのき保育園","province":"東京都","city":"多摩市","address":"多摩市諏訪2-2-B-001ブリリア多摩ニュータウン","lat":35.62708,"lon":139.45039},{"name":"やまと保育園","province":"東京都","city":"多摩市","address":"多摩市和田1534","lat":35.64555,"lon":139.43172},{"name":"多摩保育園","province":"東京都","city":"多摩市","address":"多摩市和田418-1","lat":35.63997,"lon":139.43536},{"name":"桜ヶ丘第一保育園","province":"東京都","city":"多摩市","address":"多摩市和田60-1","lat":35.64292,"lon":139.43488},{"name":"バオバブ保育園","province":"東京都","city":"多摩市","address":"多摩市一ノ宮1-20-3","lat":35.65244,"lon":139.44096},{"name":"バオバブちいさな家保育園","province":"東京都","city":"多摩市","address":"多摩市一ノ宮3-9-1","lat":35.64965,"lon":139.44293},{"name":"関戸みどりの保育園","province":"東京都","city":"多摩市","address":"多摩市関戸2-24-27三ツ木聖蹟桜ヶ丘ビル2F","lat":35.65068,"lon":139.44914},{"name":"やまとさくら保育園","province":"東京都","city":"多摩市","address":"多摩市関戸4-18-2","lat":35.64924,"lon":139.4501},{"name":"みどりの保育園","province":"東京都","city":"多摩市","address":"多摩市連光寺3-57-2","lat":35.64273,"lon":139.45685},{"name":"のびのびっこ保育園","province":"東京都","city":"多摩市","address":"多摩市諏訪1-1-6","lat":35.63499,"lon":139.4494},{"name":"かしのき保育園","province":"東京都","city":"多摩市","address":"多摩市諏訪1-64","lat":35.63107,"lon":139.45009},{"name":"あすのき保育園","province":"東京都","city":"多摩市","address":"多摩市諏訪2-2-B-001ブリリア多摩ニュータウン","lat":35.62539,"lon":139.45236},{"name":"こばと第一保育園","province":"東京都","city":"多摩市","address":"多摩市諏訪4-7","lat":35.62394,"lon":139.45815},{"name":"おだ学園保育園","province":"東京都","city":"多摩市","address":"多摩市永山1-5ベルブ永山209号","lat":35.62847,"lon":139.44868},{"name":"こぐま保育園","province":"東京都","city":"多摩市","address":"多摩市永山3-5","lat":35.62606,"lon":139.44594},{"name":"ゆりのき保育園","province":"東京都","city":"多摩市","address":"多摩市永山4-6","lat":35.62168,"lon":139.44836},{"name":"ピオニイ第二保育園","province":"東京都","city":"多摩市","address":"多摩市豊ヶ丘4-8","lat":35.61532,"lon":139.43524},{"name":"あおぞらぱれっと保育園","province":"東京都","city":"多摩市","address":"多摩市落合1-15-1","lat":35.62578,"lon":139.42897},{"name":"あおぞら保育園","province":"東京都","city":"多摩市","address":"多摩市落合1-5-16","lat":35.62626,"lon":139.42621},{"name":"かおり保育園","province":"東京都","city":"多摩市","address":"多摩市落合4-15","lat":35.61518,"lon":139.43019},{"name":"丘の上アンジュ保育園","province":"東京都","city":"多摩市","address":"多摩市鶴牧3-2ブリリア多摩センター","lat":35.61867,"lon":139.42117},{"name":"こころ保育園","province":"東京都","city":"多摩市","address":"多摩市鶴牧5-5","lat":35.6114,"lon":139.42419},{"name":"りすのき保育園","province":"東京都","city":"多摩市","address":"多摩市唐木田1-8-2","lat":35.61443,"lon":139.41043},{"name":"みさと保育所","province":"東京都","city":"多摩市","address":"多摩市愛宕2-53","lat":35.63513,"lon":139.4379},{"name":"あおぞらぱれっと保育園","province":"東京都","city":"多摩市","address":"多摩市鶴牧1-11-10","lat":35.62288,"lon":139.41719},{"name":"かおり保育園","province":"東京都","city":"多摩市","address":"多摩市落合4-15","lat":35.61519,"lon":139.43019},{"name":"おだ学園保育園","province":"東京都","city":"多摩市","address":"多摩市永山1-5ベルブ永山209号","lat":35.62847,"lon":139.44869},{"name":"あすのき保育園","province":"東京都","city":"多摩市","address":"多摩市諏訪2-2-B-001ブリリア多摩ニュータウン","lat":35.62708,"lon":139.45039},{"name":"やまと保育園","province":"東京都","city":"多摩市","address":"多摩市和田1534","lat":35.64555,"lon":139.43172},{"name":"多摩保育園","province":"東京都","city":"多摩市","address":"多摩市和田418-1","lat":35.63997,"lon":139.43536},{"name":"桜ヶ丘第一保育園","province":"東京都","city":"多摩市","address":"多摩市和田60-1","lat":35.64292,"lon":139.43488},{"name":"バオバブ保育園","province":"東京都","city":"多摩市","address":"多摩市一ノ宮1-20-3","lat":35.65244,"lon":139.44096},{"name":"バオバブちいさな家保育園","province":"東京都","city":"多摩市","address":"多摩市一ノ宮3-9-1","lat":35.64965,"lon":139.44293},{"name":"関戸みどりの保育園","province":"東京都","city":"多摩市","address":"多摩市関戸2-24-27三ツ木聖蹟桜ヶ丘ビル2F","lat":35.65068,"lon":139.44914},{"name":"やまとさくら保育園","province":"東京都","city":"多摩市","address":"多摩市関戸4-18-2","lat":35.64924,"lon":139.4501},{"name":"みどりの保育園","province":"東京都","city":"多摩市","address":"多摩市連光寺3-57-2","lat":35.64273,"lon":139.45685},{"name":"のびのびっこ保育園","province":"東京都","city":"多摩市","address":"多摩市諏訪1-1-6","lat":35.63499,"lon":139.4494},{"name":"かしのき保育園","province":"東京都","city":"多摩市","address":"多摩市諏訪1-64","lat":35.63107,"lon":139.45009},{"name":"あすのき保育園","province":"東京都","city":"多摩市","address":"多摩市諏訪2-2-B-001ブリリア多摩ニュータウン","lat":35.62539,"lon":139.45236},{"name":"こばと第一保育園","province":"東京都","city":"多摩市","address":"多摩市諏訪4-7","lat":35.62394,"lon":139.45815},{"name":"おだ学園保育園","province":"東京都","city":"多摩市","address":"多摩市永山1-5ベルブ永山209号","lat":35.62847,"lon":139.44868},{"name":"こぐま保育園","province":"東京都","city":"多摩市","address":"多摩市永山3-5","lat":35.62606,"lon":139.44594},{"name":"ゆりのき保育園","province":"東京都","city":"多摩市","address":"多摩市永山4-6","lat":35.62168,"lon":139.44836},{"name":"ピオニイ第二保育園","province":"東京都","city":"多摩市","address":"多摩市豊ヶ丘4-8","lat":35.61532,"lon":139.43524},{"name":"あおぞらぱれっと保育園","province":"東京都","city":"多摩市","address":"多摩市落合1-15-1","lat":35.62578,"lon":139.42897},{"name":"あおぞら保育園","province":"東京都","city":"多摩市","address":"多摩市落合1-5-16","lat":35.62626,"lon":139.42621},{"name":"かおり保育園","province":"東京都","city":"多摩市","address":"多摩市落合4-15","lat":35.61518,"lon":139.43019},{"name":"丘の上アンジュ保育園","province":"東京都","city":"多摩市","address":"多摩市鶴牧3-2ブリリア多摩センター","lat":35.61867,"lon":139.42117},{"name":"こころ保育園","province":"東京都","city":"多摩市","address":"多摩市鶴牧5-5","lat":35.6114,"lon":139.42419},{"name":"りすのき保育園","province":"東京都","city":"多摩市","address":"多摩市唐木田1-8-2","lat":35.61443,"lon":139.41043},{"name":"みさと保育所","province":"東京都","city":"多摩市","address":"多摩市愛宕2-53","lat":35.63513,"lon":139.4379},{"name":"あおぞらぱれっと保育園","province":"東京都","city":"多摩市","address":"多摩市鶴牧1-11-10","lat":35.62288,"lon":139.41719},{"name":"かおり保育園","province":"東京都","city":"多摩市","address":"多摩市落合4-15","lat":35.61519,"lon":139.43019},{"name":"おだ学園保育園","province":"東京都","city":"多摩市","address":"多摩市永山1-5ベルブ永山209号","lat":35.62847,"lon":139.44869},{"name":"あすのき保育園","province":"東京都","city":"多摩市","address":"多摩市諏訪2-2-B-001ブリリア多摩ニュータウン","lat":35.62708,"lon":139.45039},{"name":"やまと保育園","province":"東京都","city":"多摩市","address":"多摩市和田1534","lat":35.64555,"lon":139.43172},{"name":"多摩保育園","province":"東京都","city":"多摩市","address":"多摩市和田418-1","lat":35.63997,"lon":139.43536},{"name":"桜ヶ丘第一保育園","province":"東京都","city":"多摩市","address":"多摩市和田60-1","lat":35.64292,"lon":139.43488},{"name":"バオバブ保育園","province":"東京都","city":"多摩市","address":"多摩市一ノ宮1-20-3","lat":35.65244,"lon":139.44096},{"name":"バオバブちいさな家保育園","province":"東京都","city":"多摩市","address":"多摩市一ノ宮3-9-1","lat":35.64965,"lon":139.44293},{"name":"関戸みどりの保育園","province":"東京都","city":"多摩市","address":"多摩市関戸2-24-27三ツ木聖蹟桜ヶ丘ビル2F","lat":35.65068,"lon":139.44914},{"name":"やまとさくら保育園","province":"東京都","city":"多摩市","address":"多摩市関戸4-18-2","lat":35.64924,"lon":139.4501},{"name":"みどりの保育園","province":"東京都","city":"多摩市","address":"多摩市連光寺3-57-2","lat":35.64273,"lon":139.45685},{"name":"のびのびっこ保育園","province":"東京都","city":"多摩市","address":"多摩市諏訪1-1-6","lat":35.63499,"lon":139.4494},{"name":"かしのき保育園","province":"東京都","city":"多摩市","address":"多摩市諏訪1-64","lat":35.63107,"lon":139.45009},{"name":"あすのき保育園","province":"東京都","city":"多摩市","address":"多摩市諏訪2-2-B-001ブリリア多摩ニュータウン","lat":35.62539,"lon":139.45236},{"name":"こばと第一保育園","province":"東京都","city":"多摩市","address":"多摩市諏訪4-7","lat":35.62394,"lon":139.45815},{"name":"おだ学園保育園","province":"東京都","city":"多摩市","address":"多摩市永山1-5ベルブ永山209号","lat":35.62847,"lon":139.44868},{"name":"こぐま保育園","province":"東京都","city":"多摩市","address":"多摩市永山3-5","lat":35.62606,"lon":139.44594},{"name":"ゆりのき保育園","province":"東京都","city":"多摩市","address":"多摩市永山4-6","lat":35.62168,"lon":139.44836},{"name":"ピオニイ第二保育園","province":"東京都","city":"多摩市","address":"多摩市豊ヶ丘4-8","lat":35.61532,"lon":139.43524},{"name":"あおぞらぱれっと保育園","province":"東京都","city":"多摩市","address":"多摩市落合1-15-1","lat":35.62578,"lon":139.42897},{"name":"あおぞら保育園","province":"東京都","city":"多摩市","address":"多摩市落合1-5-16","lat":35.62626,"lon":139.42621},{"name":"かおり保育園","province":"東京都","city":"多摩市","address":"多摩市落合4-15","lat":35.61518,"lon":139.43019},{"name":"丘の上アンジュ保育園","province":"東京都","city":"多摩市","address":"多摩市鶴牧3-2ブリリア多摩センター","lat":35.61867,"lon":139.42117},{"name":"こころ保育園","province":"東京都","city":"多摩市","address":"多摩市鶴牧5-5","lat":35.6114,"lon":139.42419},{"name":"りすのき保育園","province":"東京都","city":"多摩市","address":"多摩市唐木田1-8-2","lat":35.61443,"lon":139.41043},{"name":"みさと保育所","province":"東京都","city":"多摩市","address":"多摩市愛宕2-53","lat":35.63513,"lon":139.4379},{"name":"あおぞらぱれっと保育園","province":"東京都","city":"多摩市","address":"多摩市鶴牧1-11-10","lat":35.62288,"lon":139.41719},{"name":"かおり保育園","province":"東京都","city":"多摩市","address":"多摩市落合4-15","lat":35.61519,"lon":139.43019},{"name":"おだ学園保育園","province":"東京都","city":"多摩市","address":"多摩市永山1-5ベルブ永山209号","lat":35.62847,"lon":139.44869},{"name":"あすのき保育園","province":"東京都","city":"多摩市","address":"多摩市諏訪2-2-B-001ブリリア多摩ニュータウン","lat":35.62708,"lon":139.45039},{"name":"やまと保育園","province":"東京都","city":"多摩市","address":"多摩市和田1534","lat":35.64555,"lon":139.43172},{"name":"多摩保育園","province":"東京都","city":"多摩市","address":"多摩市和田418-1","lat":35.63997,"lon":139.43536},{"name":"桜ヶ丘第一保育園","province":"東京都","city":"多摩市","address":"多摩市和田60-1","lat":35.64292,"lon":139.43488},{"name":"バオバブ保育園","province":"東京都","city":"多摩市","address":"多摩市一ノ宮1-20-3","lat":35.65244,"lon":139.44096},{"name":"バオバブちいさな家保育園","province":"東京都","city":"多摩市","address":"多摩市一ノ宮3-9-1","lat":35.64965,"lon":139.44293},{"name":"関戸みどりの保育園","province":"東京都","city":"多摩市","address":"多摩市関戸2-24-27三ツ木聖蹟桜ヶ丘ビル2F","lat":35.65068,"lon":139.44914},{"name":"やまとさくら保育園","province":"東京都","city":"多摩市","address":"多摩市関戸4-18-2","lat":35.64924,"lon":139.4501},{"name":"みどりの保育園","province":"東京都","city":"多摩市","address":"多摩市連光寺3-57-2","lat":35.64273,"lon":139.45685},{"name":"のびのびっこ保育園","province":"東京都","city":"多摩市","address":"多摩市諏訪1-1-6","lat":35.63499,"lon":139.4494},{"name":"かしのき保育園","province":"東京都","city":"多摩市","address":"多摩市諏訪1-64","lat":35.63107,"lon":139.45009},{"name":"あすのき保育園","province":"東京都","city":"多摩市","address":"多摩市諏訪2-2-B-001ブリリア多摩ニュータウン","lat":35.62539,"lon":139.45236},{"name":"こばと第一保育園","province":"東京都","city":"多摩市","address":"多摩市諏訪4-7","lat":35.62394,"lon":139.45815},{"name":"おだ学園保育園","province":"東京都","city":"多摩市","address":"多摩市永山1-5ベルブ永山209号","lat":35.62847,"lon":139.44868},{"name":"こぐま保育園","province":"東京都","city":"多摩市","address":"多摩市永山3-5","lat":35.62606,"lon":139.44594},{"name":"ゆりのき保育園","province":"東京都","city":"多摩市","address":"多摩市永山4-6","lat":35.62168,"lon":139.44836},{"name":"ピオニイ第二保育園","province":"東京都","city":"多摩市","address":"多摩市豊ヶ丘4-8","lat":35.61532,"lon":139.43524},{"name":"あおぞらぱれっと保育園","province":"東京都","city":"多摩市","address":"多摩市落合1-15-1","lat":35.62578,"lon":139.42897},{"name":"あおぞら保育園","province":"東京都","city":"多摩市","address":"多摩市落合1-5-16","lat":35.62626,"lon":139.42621},{"name":"かおり保育園","province":"東京都","city":"多摩市","address":"多摩市落合4-15","lat":35.61518,"lon":139.43019},{"name":"丘の上アンジュ保育園","province":"東京都","city":"多摩市","address":"多摩市鶴牧3-2ブリリア多摩センター","lat":35.61867,"lon":139.42117},{"name":"こころ保育園","province":"東京都","city":"多摩市","address":"多摩市鶴牧5-5","lat":35.6114,"lon":139.42419},{"name":"りすのき保育園","province":"東京都","city":"多摩市","address":"多摩市唐木田1-8-2","lat":35.61443,"lon":139.41043},{"name":"みさと保育所","province":"東京都","city":"多摩市","address":"多摩市愛宕2-53","lat":35.63513,"lon":139.4379},{"name":"あおぞらぱれっと保育園","province":"東京都","city":"多摩市","address":"多摩市鶴牧1-11-10","lat":35.62288,"lon":139.41719},{"name":"かおり保育園","province":"東京都","city":"多摩市","address":"多摩市落合4-15","lat":35.61519,"lon":139.43019},{"name":"おだ学園保育園","province":"東京都","city":"多摩市","address":"多摩市永山1-5ベルブ永山209号","lat":35.62847,"lon":139.44869},{"name":"あすのき保育園","province":"東京都","city":"多摩市","address":"多摩市諏訪2-2-B-001ブリリア多摩ニュータウン","lat":35.62708,"lon":139.45039},{"name":"やまと保育園","province":"東京都","city":"多摩市","address":"多摩市和田1534","lat":35.64555,"lon":139.43172},{"name":"多摩保育園","province":"東京都","city":"多摩市","address":"多摩市和田418-1","lat":35.63997,"lon":139.43536},{"name":"桜ヶ丘第一保育園","province":"東京都","city":"多摩市","address":"多摩市和田60-1","lat":35.64292,"lon":139.43488},{"name":"バオバブ保育園","province":"東京都","city":"多摩市","address":"多摩市一ノ宮1-20-3","lat":35.65244,"lon":139.44096},{"name":"バオバブちいさな家保育園","province":"東京都","city":"多摩市","address":"多摩市一ノ宮3-9-1","lat":35.64965,"lon":139.44293},{"name":"関戸みどりの保育園","province":"東京都","city":"多摩市","address":"多摩市関戸2-24-27三ツ木聖蹟桜ヶ丘ビル2F","lat":35.65068,"lon":139.44914},{"name":"やまとさくら保育園","province":"東京都","city":"多摩市","address":"多摩市関戸4-18-2","lat":35.64924,"lon":139.4501},{"name":"みどりの保育園","province":"東京都","city":"多摩市","address":"多摩市連光寺3-57-2","lat":35.64273,"lon":139.45685},{"name":"のびのびっこ保育園","province":"東京都","city":"多摩市","address":"多摩市諏訪1-1-6","lat":35.63499,"lon":139.4494},{"name":"かしのき保育園","province":"東京都","city":"多摩市","address":"多摩市諏訪1-64","lat":35.63107,"lon":139.45009},{"name":"あすのき保育園","province":"東京都","city":"多摩市","address":"多摩市諏訪2-2-B-001ブリリア多摩ニュータウン","lat":35.62539,"lon":139.45236},{"name":"こばと第一保育園","province":"東京都","city":"多摩市","address":"多摩市諏訪4-7","lat":35.62394,"lon":139.45815},{"name":"おだ学園保育園","province":"東京都","city":"多摩市","address":"多摩市永山1-5ベルブ永山209号","lat":35.62847,"lon":139.44868},{"name":"こぐま保育園","province":"東京都","city":"多摩市","address":"多摩市永山3-5","lat":35.62606,"lon":139.44594},{"name":"ゆりのき保育園","province":"東京都","city":"多摩市","address":"多摩市永山4-6","lat":35.62168,"lon":139.44836},{"name":"ピオニイ第二保育園","province":"東京都","city":"多摩市","address":"多摩市豊ヶ丘4-8","lat":35.61532,"lon":139.43524},{"name":"あおぞらぱれっと保育園","province":"東京都","city":"多摩市","address":"多摩市落合1-15-1","lat":35.62578,"lon":139.42897},{"name":"あおぞら保育園","province":"東京都","city":"多摩市","address":"多摩市落合1-5-16","lat":35.62626,"lon":139.42621},{"name":"かおり保育園","province":"東京都","city":"多摩市","address":"多摩市落合4-15","lat":35.61518,"lon":139.43019},{"name":"丘の上アンジュ保育園","province":"東京都","city":"多摩市","address":"多摩市鶴牧3-2ブリリア多摩センター","lat":35.61867,"lon":139.42117},{"name":"こころ保育園","province":"東京都","city":"多摩市","address":"多摩市鶴牧5-5","lat":35.6114,"lon":139.42419},{"name":"りすのき保育園","province":"東京都","city":"多摩市","address":"多摩市唐木田1-8-2","lat":35.61443,"lon":139.41043},{"name":"みさと保育所","province":"東京都","city":"多摩市","address":"多摩市愛宕2-53","lat":35.63513,"lon":139.4379},{"name":"あおぞらぱれっと保育園","province":"東京都","city":"多摩市","address":"多摩市鶴牧1-11-10","lat":35.62288,"lon":139.41719},{"name":"かおり保育園","province":"東京都","city":"多摩市","address":"多摩市落合4-15","lat":35.61519,"lon":139.43019},{"name":"おだ学園保育園","province":"東京都","city":"多摩市","address":"多摩市永山1-5ベルブ永山209号","lat":35.62847,"lon":139.44869},{"name":"あすのき保育園","province":"東京都","city":"多摩市","address":"多摩市諏訪2-2-B-001ブリリア多摩ニュータウン","lat":35.62708,"lon":139.45039},{"name":"やまと保育園","province":"東京都","city":"多摩市","address":"多摩市和田1534","lat":35.64555,"lon":139.43172},{"name":"多摩保育園","province":"東京都","city":"多摩市","address":"多摩市和田418-1","lat":35.63997,"lon":139.43536},{"name":"桜ヶ丘第一保育園","province":"東京都","city":"多摩市","address":"多摩市和田60-1","lat":35.64292,"lon":139.43488},{"name":"バオバブ保育園","province":"東京都","city":"多摩市","address":"多摩市一ノ宮1-20-3","lat":35.65244,"lon":139.44096},{"name":"バオバブちいさな家保育園","province":"東京都","city":"多摩市","address":"多摩市一ノ宮3-9-1","lat":35.64965,"lon":139.44293},{"name":"関戸みどりの保育園","province":"東京都","city":"多摩市","address":"多摩市関戸2-24-27三ツ木聖蹟桜ヶ丘ビル2F","lat":35.65068,"lon":139.44914},{"name":"やまとさくら保育園","province":"東京都","city":"多摩市","address":"多摩市関戸4-18-2","lat":35.64924,"lon":139.4501},{"name":"みどりの保育園","province":"東京都","city":"多摩市","address":"多摩市連光寺3-57-2","lat":35.64273,"lon":139.45685},{"name":"のびのびっこ保育園","province":"東京都","city":"多摩市","address":"多摩市諏訪1-1-6","lat":35.63499,"lon":139.4494},{"name":"かしのき保育園","province":"東京都","city":"多摩市","address":"多摩市諏訪1-64","lat":35.63107,"lon":139.45009},{"name":"あすのき保育園","province":"東京都","city":"多摩市","address":"多摩市諏訪2-2-B-001ブリリア多摩ニュータウン","lat":35.62539,"lon":139.45236},{"name":"こばと第一保育園","province":"東京都","city":"多摩市","address":"多摩市諏訪4-7","lat":35.62394,"lon":139.45815},{"name":"おだ学園保育園","province":"東京都","city":"多摩市","address":"多摩市永山1-5ベルブ永山209号","lat":35.62847,"lon":139.44868},{"name":"こぐま保育園","province":"東京都","city":"多摩市","address":"多摩市永山3-5","lat":35.62606,"lon":139.44594},{"name":"ゆりのき保育園","province":"東京都","city":"多摩市","address":"多摩市永山4-6","lat":35.62168,"lon":139.44836},{"name":"ピオニイ第二保育園","province":"東京都","city":"多摩市","address":"多摩市豊ヶ丘4-8","lat":35.61532,"lon":139.43524},{"name":"あおぞらぱれっと保育園","province":"東京都","city":"多摩市","address":"多摩市落合1-15-1","lat":35.62578,"lon":139.42897},{"name":"あおぞら保育園","province":"東京都","city":"多摩市","address":"多摩市落合1-5-16","lat":35.62626,"lon":139.42621},{"name":"かおり保育園","province":"東京都","city":"多摩市","address":"多摩市落合4-15","lat":35.61518,"lon":139.43019},{"name":"丘の上アンジュ保育園","province":"東京都","city":"多摩市","address":"多摩市鶴牧3-2ブリリア多摩センター","lat":35.61867,"lon":139.42117},{"name":"こころ保育園","province":"東京都","city":"多摩市","address":"多摩市鶴牧5-5","lat":35.6114,"lon":139.42419},{"name":"りすのき保育園","province":"東京都","city":"多摩市","address":"多摩市唐木田1-8-2","lat":35.61443,"lon":139.41043},{"name":"みさと保育所","province":"東京都","city":"多摩市","address":"多摩市愛宕2-53","lat":35.63513,"lon":139.4379},{"name":"あおぞらぱれっと保育園","province":"東京都","city":"多摩市","address":"多摩市鶴牧1-11-10","lat":35.62288,"lon":139.41719},{"name":"かおり保育園","province":"東京都","city":"多摩市","address":"多摩市落合4-15","lat":35.61519,"lon":139.43019},{"name":"おだ学園保育園","province":"東京都","city":"多摩市","address":"多摩市永山1-5ベルブ永山209号","lat":35.62847,"lon":139.44869},{"name":"あすのき保育園","province":"東京都","city":"多摩市","address":"多摩市諏訪2-2-B-001ブリリア多摩ニュータウン","lat":35.62708,"lon":139.45039},{"name":"やまと保育園","province":"東京都","city":"多摩市","address":"多摩市和田1534","lat":35.64555,"lon":139.43172},{"name":"多摩保育園","province":"東京都","city":"多摩市","address":"多摩市和田418-1","lat":35.63997,"lon":139.43536},{"name":"桜ヶ丘第一保育園","province":"東京都","city":"多摩市","address":"多摩市和田60-1","lat":35.64292,"lon":139.43488},{"name":"バオバブ保育園","province":"東京都","city":"多摩市","address":"多摩市一ノ宮1-20-3","lat":35.65244,"lon":139.44096},{"name":"バオバブちいさな家保育園","province":"東京都","city":"多摩市","address":"多摩市一ノ宮3-9-1","lat":35.64965,"lon":139.44293},{"name":"関戸みどりの保育園","province":"東京都","city":"多摩市","address":"多摩市関戸2-24-27三ツ木聖蹟桜ヶ丘ビル2F","lat":35.65068,"lon":139.44914},{"name":"やまとさくら保育園","province":"東京都","city":"多摩市","address":"多摩市関戸4-18-2","lat":35.64924,"lon":139.4501},{"name":"みどりの保育園","province":"東京都","city":"多摩市","address":"多摩市連光寺3-57-2","lat":35.64273,"lon":139.45685},{"name":"のびのびっこ保育園","province":"東京都","city":"多摩市","address":"多摩市諏訪1-1-6","lat":35.63499,"lon":139.4494},{"name":"かしのき保育園","province":"東京都","city":"多摩市","address":"多摩市諏訪1-64","lat":35.63107,"lon":139.45009},{"name":"あすのき保育園","province":"東京都","city":"多摩市","address":"多摩市諏訪2-2-B-001ブリリア多摩ニュータウン","lat":35.62539,"lon":139.45236},{"name":"こばと第一保育園","province":"東京都","city":"多摩市","address":"多摩市諏訪4-7","lat":35.62394,"lon":139.45815},{"name":"おだ学園保育園","province":"東京都","city":"多摩市","address":"多摩市永山1-5ベルブ永山209号","lat":35.62847,"lon":139.44868},{"name":"こぐま保育園","province":"東京都","city":"多摩市","address":"多摩市永山3-5","lat":35.62606,"lon":139.44594},{"name":"ゆりのき保育園","province":"東京都","city":"多摩市","address":"多摩市永山4-6","lat":35.62168,"lon":139.44836},{"name":"ピオニイ第二保育園","province":"東京都","city":"多摩市","address":"多摩市豊ヶ丘4-8","lat":35.61532,"lon":139.43524},{"name":"あおぞらぱれっと保育園","province":"東京都","city":"多摩市","address":"多摩市落合1-15-1","lat":35.62578,"lon":139.42897},{"name":"あおぞら保育園","province":"東京都","city":"多摩市","address":"多摩市落合1-5-16","lat":35.62626,"lon":139.42621},{"name":"かおり保育園","province":"東京都","city":"多摩市","address":"多摩市落合4-15","lat":35.61518,"lon":139.43019},{"name":"丘の上アンジュ保育園","province":"東京都","city":"多摩市","address":"多摩市鶴牧3-2ブリリア多摩センター","lat":35.61867,"lon":139.42117},{"name":"こころ保育園","province":"東京都","city":"多摩市","address":"多摩市鶴牧5-5","lat":35.6114,"lon":139.42419},{"name":"りすのき保育園","province":"東京都","city":"多摩市","address":"多摩市唐木田1-8-2","lat":35.61443,"lon":139.41043},{"name":"みさと保育所","province":"東京都","city":"多摩市","address":"多摩市愛宕2-53","lat":35.63513,"lon":139.4379},{"name":"あおぞらぱれっと保育園","province":"東京都","city":"多摩市","address":"多摩市鶴牧1-11-10","lat":35.62288,"lon":139.41719},{"name":"かおり保育園","province":"東京都","city":"多摩市","address":"多摩市落合4-15","lat":35.61519,"lon":139.43019},{"name":"おだ学園保育園","province":"東京都","city":"多摩市","address":"多摩市永山1-5ベルブ永山209号","lat":35.62847,"lon":139.44869},{"name":"あすのき保育園","province":"東京都","city":"多摩市","address":"多摩市諏訪2-2-B-001ブリリア多摩ニュータウン","lat":35.62708,"lon":139.45039},{"name":"やまと保育園","province":"東京都","city":"多摩市","address":"多摩市和田1534","lat":35.64555,"lon":139.43172},{"name":"多摩保育園","province":"東京都","city":"多摩市","address":"多摩市和田418-1","lat":35.63997,"lon":139.43536},{"name":"桜ヶ丘第一保育園","province":"東京都","city":"多摩市","address":"多摩市和田60-1","lat":35.64292,"lon":139.43488},{"name":"バオバブ保育園","province":"東京都","city":"多摩市","address":"多摩市一ノ宮1-20-3","lat":35.65244,"lon":139.44096},{"name":"バオバブちいさな家保育園","province":"東京都","city":"多摩市","address":"多摩市一ノ宮3-9-1","lat":35.64965,"lon":139.44293},{"name":"関戸みどりの保育園","province":"東京都","city":"多摩市","address":"多摩市関戸2-24-27三ツ木聖蹟桜ヶ丘ビル2F","lat":35.65068,"lon":139.44914},{"name":"やまとさくら保育園","province":"東京都","city":"多摩市","address":"多摩市関戸4-18-2","lat":35.64924,"lon":139.4501},{"name":"みどりの保育園","province":"東京都","city":"多摩市","address":"多摩市連光寺3-57-2","lat":35.64273,"lon":139.45685},{"name":"のびのびっこ保育園","province":"東京都","city":"多摩市","address":"多摩市諏訪1-1-6","lat":35.63499,"lon":139.4494},{"name":"かしのき保育園","province":"東京都","city":"多摩市","address":"多摩市諏訪1-64","lat":35.63107,"lon":139.45009},{"name":"あすのき保育園","province":"東京都","city":"多摩市","address":"多摩市諏訪2-2-B-001ブリリア多摩ニュータウン","lat":35.62539,"lon":139.45236},{"name":"こばと第一保育園","province":"東京都","city":"多摩市","address":"多摩市諏訪4-7","lat":35.62394,"lon":139.45815},{"name":"おだ学園保育園","province":"東京都","city":"多摩市","address":"多摩市永山1-5ベルブ永山209号","lat":35.62847,"lon":139.44868},{"name":"こぐま保育園","province":"東京都","city":"多摩市","address":"多摩市永山3-5","lat":35.62606,"lon":139.44594},{"name":"ゆりのき保育園","province":"東京都","city":"多摩市","address":"多摩市永山4-6","lat":35.62168,"lon":139.44836},{"name":"ピオニイ第二保育園","province":"東京都","city":"多摩市","address":"多摩市豊ヶ丘4-8","lat":35.61532,"lon":139.43524},{"name":"あおぞらぱれっと保育園","province":"東京都","city":"多摩市","address":"多摩市落合1-15-1","lat":35.62578,"lon":139.42897},{"name":"あおぞら保育園","province":"東京都","city":"多摩市","address":"多摩市落合1-5-16","lat":35.62626,"lon":139.42621},{"name":"かおり保育園","province":"東京都","city":"多摩市","address":"多摩市落合4-15","lat":35.61518,"lon":139.43019},{"name":"丘の上アンジュ保育園","province":"東京都","city":"多摩市","address":"多摩市鶴牧3-2ブリリア多摩センター","lat":35.61867,"lon":139.42117},{"name":"こころ保育園","province":"東京都","city":"多摩市","address":"多摩市鶴牧5-5","lat":35.6114,"lon":139.42419},{"name":"りすのき保育園","province":"東京都","city":"多摩市","address":"多摩市唐木田1-8-2","lat":35.61443,"lon":139.41043},{"name":"みさと保育所","province":"東京都","city":"多摩市","address":"多摩市愛宕2-53","lat":35.63513,"lon":139.4379},{"name":"あおぞらぱれっと保育園","province":"東京都","city":"多摩市","address":"多摩市鶴牧1-11-10","lat":35.62288,"lon":139.41719},{"name":"かおり保育園","province":"東京都","city":"多摩市","address":"多摩市落合4-15","lat":35.61519,"lon":139.43019},{"name":"おだ学園保育園","province":"東京都","city":"多摩市","address":"多摩市永山1-5ベルブ永山209号","lat":35.62847,"lon":139.44869},{"name":"あすのき保育園","province":"東京都","city":"多摩市","address":"多摩市諏訪2-2-B-001ブリリア多摩ニュータウン","lat":35.62708,"lon":139.45039},{"name":"やまと保育園","province":"東京都","city":"多摩市","address":"多摩市和田1534","lat":35.64555,"lon":139.43172},{"name":"多摩保育園","province":"東京都","city":"多摩市","address":"多摩市和田418-1","lat":35.63997,"lon":139.43536},{"name":"桜ヶ丘第一保育園","province":"東京都","city":"多摩市","address":"多摩市和田60-1","lat":35.64292,"lon":139.43488},{"name":"バオバブ保育園","province":"東京都","city":"多摩市","address":"多摩市一ノ宮1-20-3","lat":35.65244,"lon":139.44096},{"name":"バオバブちいさな家保育園","province":"東京都","city":"多摩市","address":"多摩市一ノ宮3-9-1","lat":35.64965,"lon":139.44293},{"name":"関戸みどりの保育園","province":"東京都","city":"多摩市","address":"多摩市関戸2-24-27三ツ木聖蹟桜ヶ丘ビル2F","lat":35.65068,"lon":139.44914},{"name":"やまとさくら保育園","province":"東京都","city":"多摩市","address":"多摩市関戸4-18-2","lat":35.64924,"lon":139.4501},{"name":"みどりの保育園","province":"東京都","city":"多摩市","address":"多摩市連光寺3-57-2","lat":35.64273,"lon":139.45685},{"name":"のびのびっこ保育園","province":"東京都","city":"多摩市","address":"多摩市諏訪1-1-6","lat":35.63499,"lon":139.4494},{"name":"かしのき保育園","province":"東京都","city":"多摩市","address":"多摩市諏訪1-64","lat":35.63107,"lon":139.45009},{"name":"あすのき保育園","province":"東京都","city":"多摩市","address":"多摩市諏訪2-2-B-001ブリリア多摩ニュータウン","lat":35.62539,"lon":139.45236},{"name":"こばと第一保育園","province":"東京都","city":"多摩市","address":"多摩市諏訪4-7","lat":35.62394,"lon":139.45815},{"name":"おだ学園保育園","province":"東京都","city":"多摩市","address":"多摩市永山1-5ベルブ永山209号","lat":35.62847,"lon":139.44868},{"name":"こぐま保育園","province":"東京都","city":"多摩市","address":"多摩市永山3-5","lat":35.62606,"lon":139.44594},{"name":"ゆりのき保育園","province":"東京都","city":"多摩市","address":"多摩市永山4-6","lat":35.62168,"lon":139.44836},{"name":"ピオニイ第二保育園","province":"東京都","city":"多摩市","address":"多摩市豊ヶ丘4-8","lat":35.61532,"lon":139.43524},{"name":"あおぞらぱれっと保育園","province":"東京都","city":"多摩市","address":"多摩市落合1-15-1","lat":35.62578,"lon":139.42897},{"name":"あおぞら保育園","province":"東京都","city":"多摩市","address":"多摩市落合1-5-16","lat":35.62626,"lon":139.42621},{"name":"かおり保育園","province":"東京都","city":"多摩市","address":"多摩市落合4-15","lat":35.61518,"lon":139.43019},{"name":"丘の上アンジュ保育園","province":"東京都","city":"多摩市","address":"多摩市鶴牧3-2ブリリア多摩センター","lat":35.61867,"lon":139.42117},{"name":"こころ保育園","province":"東京都","city":"多摩市","address":"多摩市鶴牧5-5","lat":35.6114,"lon":139.42419},{"name":"りすのき保育園","province":"東京都","city":"多摩市","address":"多摩市唐木田1-8-2","lat":35.61443,"lon":139.41043},{"name":"みさと保育所","province":"東京都","city":"多摩市","address":"多摩市愛宕2-53","lat":35.63513,"lon":139.4379},{"name":"あおぞらぱれっと保育園","province":"東京都","city":"多摩市","address":"多摩市鶴牧1-11-10","lat":35.62288,"lon":139.41719},{"name":"かおり保育園","province":"東京都","city":"多摩市","address":"多摩市落合4-15","lat":35.61519,"lon":139.43019},{"name":"おだ学園保育園","province":"東京都","city":"多摩市","address":"多摩市永山1-5ベルブ永山209号","lat":35.62847,"lon":139.44869},{"name":"あすのき保育園","province":"東京都","city":"多摩市","address":"多摩市諏訪2-2-B-001ブリリア多摩ニュータウン","lat":35.62708,"lon":139.45039},{"name":"やまと保育園","province":"東京都","city":"多摩市","address":"多摩市和田1534","lat":35.64555,"lon":139.43172},{"name":"多摩保育園","province":"東京都","city":"多摩市","address":"多摩市和田418-1","lat":35.63997,"lon":139.43536},{"name":"桜ヶ丘第一保育園","province":"東京都","city":"多摩市","address":"多摩市和田60-1","lat":35.64292,"lon":139.43488},{"name":"バオバブ保育園","province":"東京都","city":"多摩市","address":"多摩市一ノ宮1-20-3","lat":35.65244,"lon":139.44096},{"name":"バオバブちいさな家保育園","province":"東京都","city":"多摩市","address":"多摩市一ノ宮3-9-1","lat":35.64965,"lon":139.44293},{"name":"関戸みどりの保育園","province":"東京都","city":"多摩市","address":"多摩市関戸2-24-27三ツ木聖蹟桜ヶ丘ビル2F","lat":35.65068,"lon":139.44914},{"name":"やまとさくら保育園","province":"東京都","city":"多摩市","address":"多摩市関戸4-18-2","lat":35.64924,"lon":139.4501},{"name":"みどりの保育園","province":"東京都","city":"多摩市","address":"多摩市連光寺3-57-2","lat":35.64273,"lon":139.45685},{"name":"のびのびっこ保育園","province":"東京都","city":"多摩市","address":"多摩市諏訪1-1-6","lat":35.63499,"lon":139.4494},{"name":"かしのき保育園","province":"東京都","city":"多摩市","address":"多摩市諏訪1-64","lat":35.63107,"lon":139.45009},{"name":"あすのき保育園","province":"東京都","city":"多摩市","address":"多摩市諏訪2-2-B-001ブリリア多摩ニュータウン","lat":35.62539,"lon":139.45236},{"name":"こばと第一保育園","province":"東京都","city":"多摩市","address":"多摩市諏訪4-7","lat":35.62394,"lon":139.45815},{"name":"おだ学園保育園","province":"東京都","city":"多摩市","address":"多摩市永山1-5ベルブ永山209号","lat":35.62847,"lon":139.44868},{"name":"こぐま保育園","province":"東京都","city":"多摩市","address":"多摩市永山3-5","lat":35.62606,"lon":139.44594},{"name":"ゆりのき保育園","province":"東京都","city":"多摩市","address":"多摩市永山4-6","lat":35.62168,"lon":139.44836},{"name":"ピオニイ第二保育園","province":"東京都","city":"多摩市","address":"多摩市豊ヶ丘4-8","lat":35.61532,"lon":139.43524},{"name":"あおぞらぱれっと保育園","province":"東京都","city":"多摩市","address":"多摩市落合1-15-1","lat":35.62578,"lon":139.42897},{"name":"あおぞら保育園","province":"東京都","city":"多摩市","address":"多摩市落合1-5-16","lat":35.62626,"lon":139.42621},{"name":"かおり保育園","province":"東京都","city":"多摩市","address":"多摩市落合4-15","lat":35.61518,"lon":139.43019},{"name":"丘の上アンジュ保育園","province":"東京都","city":"多摩市","address":"多摩市鶴牧3-2ブリリア多摩センター","lat":35.61867,"lon":139.42117},{"name":"こころ保育園","province":"東京都","city":"多摩市","address":"多摩市鶴牧5-5","lat":35.6114,"lon":139.42419},{"name":"りすのき保育園","province":"東京都","city":"多摩市","address":"多摩市唐木田1-8-2","lat":35.61443,"lon":139.41043},{"name":"みさと保育所","province":"東京都","city":"多摩市","address":"多摩市愛宕2-53","lat":35.63513,"lon":139.4379},{"name":"あおぞらぱれっと保育園","province":"東京都","city":"多摩市","address":"多摩市鶴牧1-11-10","lat":35.62288,"lon":139.41719},{"name":"かおり保育園","province":"東京都","city":"多摩市","address":"多摩市落合4-15","lat":35.61519,"lon":139.43019},{"name":"おだ学園保育園","province":"東京都","city":"多摩市","address":"多摩市永山1-5ベルブ永山209号","lat":35.62847,"lon":139.44869},{"name":"あすのき保育園","province":"東京都","city":"多摩市","address":"多摩市諏訪2-2-B-001ブリリア多摩ニュータウン","lat":35.62708,"lon":139.45039},{"name":"やまと保育園","province":"東京都","city":"多摩市","address":"多摩市和田1534","lat":35.64555,"lon":139.43172},{"name":"多摩保育園","province":"東京都","city":"多摩市","address":"多摩市和田418-1","lat":35.63997,"lon":139.43536},{"name":"桜ヶ丘第一保育園","province":"東京都","city":"多摩市","address":"多摩市和田60-1","lat":35.64292,"lon":139.43488},{"name":"バオバブ保育園","province":"東京都","city":"多摩市","address":"多摩市一ノ宮1-20-3","lat":35.65244,"lon":139.44096},{"name":"バオバブちいさな家保育園","province":"東京都","city":"多摩市","address":"多摩市一ノ宮3-9-1","lat":35.64965,"lon":139.44293},{"name":"関戸みどりの保育園","province":"東京都","city":"多摩市","address":"多摩市関戸2-24-27三ツ木聖蹟桜ヶ丘ビル2F","lat":35.65068,"lon":139.44914},{"name":"やまとさくら保育園","province":"東京都","city":"多摩市","address":"多摩市関戸4-18-2","lat":35.64924,"lon":139.4501},{"name":"みどりの保育園","province":"東京都","city":"多摩市","address":"多摩市連光寺3-57-2","lat":35.64273,"lon":139.45685},{"name":"のびのびっこ保育園","province":"東京都","city":"多摩市","address":"多摩市諏訪1-1-6","lat":35.63499,"lon":139.4494},{"name":"かしのき保育園","province":"東京都","city":"多摩市","address":"多摩市諏訪1-64","lat":35.63107,"lon":139.45009},{"name":"あすのき保育園","province":"東京都","city":"多摩市","address":"多摩市諏訪2-2-B-001ブリリア多摩ニュータウン","lat":35.62539,"lon":139.45236},{"name":"こばと第一保育園","province":"東京都","city":"多摩市","address":"多摩市諏訪4-7","lat":35.62394,"lon":139.45815},{"name":"おだ学園保育園","province":"東京都","city":"多摩市","address":"多摩市永山1-5ベルブ永山209号","lat":35.62847,"lon":139.44868},{"name":"こぐま保育園","province":"東京都","city":"多摩市","address":"多摩市永山3-5","lat":35.62606,"lon":139.44594},{"name":"ゆりのき保育園","province":"東京都","city":"多摩市","address":"多摩市永山4-6","lat":35.62168,"lon":139.44836},{"name":"ピオニイ第二保育園","province":"東京都","city":"多摩市","address":"多摩市豊ヶ丘4-8","lat":35.61532,"lon":139.43524},{"name":"あおぞらぱれっと保育園","province":"東京都","city":"多摩市","address":"多摩市落合1-15-1","lat":35.62578,"lon":139.42897},{"name":"あおぞら保育園","province":"東京都","city":"多摩市","address":"多摩市落合1-5-16","lat":35.62626,"lon":139.42621},{"name":"かおり保育園","province":"東京都","city":"多摩市","address":"多摩市落合4-15","lat":35.61518,"lon":139.43019},{"name":"丘の上アンジュ保育園","province":"東京都","city":"多摩市","address":"多摩市鶴牧3-2ブリリア多摩センター","lat":35.61867,"lon":139.42117},{"name":"こころ保育園","province":"東京都","city":"多摩市","address":"多摩市鶴牧5-5","lat":35.6114,"lon":139.42419},{"name":"りすのき保育園","province":"東京都","city":"多摩市","address":"多摩市唐木田1-8-2","lat":35.61443,"lon":139.41043},{"name":"みさと保育所","province":"東京都","city":"多摩市","address":"多摩市愛宕2-53","lat":35.63513,"lon":139.4379},{"name":"あおぞらぱれっと保育園","province":"東京都","city":"多摩市","address":"多摩市鶴牧1-11-10","lat":35.62288,"lon":139.41719},{"name":"かおり保育園","province":"東京都","city":"多摩市","address":"多摩市落合4-15","lat":35.61519,"lon":139.43019},{"name":"おだ学園保育園","province":"東京都","city":"多摩市","address":"多摩市永山1-5ベルブ永山209号","lat":35.62847,"lon":139.44869},{"name":"あすのき保育園","province":"東京都","city":"多摩市","address":"多摩市諏訪2-2-B-001ブリリア多摩ニュータウン","lat":35.62708,"lon":139.45039},{"name":"やまと保育園","province":"東京都","city":"多摩市","address":"多摩市和田1534","lat":35.64555,"lon":139.43172},{"name":"多摩保育園","province":"東京都","city":"多摩市","address":"多摩市和田418-1","lat":35.63997,"lon":139.43536},{"name":"桜ヶ丘第一保育園","province":"東京都","city":"多摩市","address":"多摩市和田60-1","lat":35.64292,"lon":139.43488},{"name":"バオバブ保育園","province":"東京都","city":"多摩市","address":"多摩市一ノ宮1-20-3","lat":35.65244,"lon":139.44096},{"name":"バオバブちいさな家保育園","province":"東京都","city":"多摩市","address":"多摩市一ノ宮3-9-1","lat":35.64965,"lon":139.44293},{"name":"関戸みどりの保育園","province":"東京都","city":"多摩市","address":"多摩市関戸2-24-27三ツ木聖蹟桜ヶ丘ビル2F","lat":35.65068,"lon":139.44914},{"name":"やまとさくら保育園","province":"東京都","city":"多摩市","address":"多摩市関戸4-18-2","lat":35.64924,"lon":139.4501},{"name":"みどりの保育園","province":"東京都","city":"多摩市","address":"多摩市連光寺3-57-2","lat":35.64273,"lon":139.45685},{"name":"のびのびっこ保育園","province":"東京都","city":"多摩市","address":"多摩市諏訪1-1-6","lat":35.63499,"lon":139.4494},{"name":"かしのき保育園","province":"東京都","city":"多摩市","address":"多摩市諏訪1-64","lat":35.63107,"lon":139.45009},{"name":"あすのき保育園","province":"東京都","city":"多摩市","address":"多摩市諏訪2-2-B-001ブリリア多摩ニュータウン","lat":35.62539,"lon":139.45236},{"name":"こばと第一保育園","province":"東京都","city":"多摩市","address":"多摩市諏訪4-7","lat":35.62394,"lon":139.45815},{"name":"おだ学園保育園","province":"東京都","city":"多摩市","address":"多摩市永山1-5ベルブ永山209号","lat":35.62847,"lon":139.44868},{"name":"こぐま保育園","province":"東京都","city":"多摩市","address":"多摩市永山3-5","lat":35.62606,"lon":139.44594},{"name":"ゆりのき保育園","province":"東京都","city":"多摩市","address":"多摩市永山4-6","lat":35.62168,"lon":139.44836},{"name":"ピオニイ第二保育園","province":"東京都","city":"多摩市","address":"多摩市豊ヶ丘4-8","lat":35.61532,"lon":139.43524},{"name":"あおぞらぱれっと保育園","province":"東京都","city":"多摩市","address":"多摩市落合1-15-1","lat":35.62578,"lon":139.42897},{"name":"あおぞら保育園","province":"東京都","city":"多摩市","address":"多摩市落合1-5-16","lat":35.62626,"lon":139.42621},{"name":"かおり保育園","province":"東京都","city":"多摩市","address":"多摩市落合4-15","lat":35.61518,"lon":139.43019},{"name":"丘の上アンジュ保育園","province":"東京都","city":"多摩市","address":"多摩市鶴牧3-2ブリリア多摩センター","lat":35.61867,"lon":139.42117},{"name":"こころ保育園","province":"東京都","city":"多摩市","address":"多摩市鶴牧5-5","lat":35.6114,"lon":139.42419},{"name":"りすのき保育園","province":"東京都","city":"多摩市","address":"多摩市唐木田1-8-2","lat":35.61443,"lon":139.41043},{"name":"みさと保育所","province":"東京都","city":"多摩市","address":"多摩市愛宕2-53","lat":35.63513,"lon":139.4379},{"name":"あおぞらぱれっと保育園","province":"東京都","city":"多摩市","address":"多摩市鶴牧1-11-10","lat":35.62288,"lon":139.41719},{"name":"かおり保育園","province":"東京都","city":"多摩市","address":"多摩市落合4-15","lat":35.61519,"lon":139.43019},{"name":"おだ学園保育園","province":"東京都","city":"多摩市","address":"多摩市永山1-5ベルブ永山209号","lat":35.62847,"lon":139.44869},{"name":"あすのき保育園","province":"東京都","city":"多摩市","address":"多摩市諏訪2-2-B-001ブリリア多摩ニュータウン","lat":35.62708,"lon":139.45039},{"name":"やまと保育園","province":"東京都","city":"多摩市","address":"多摩市和田1534","lat":35.64555,"lon":139.43172},{"name":"多摩保育園","province":"東京都","city":"多摩市","address":"多摩市和田418-1","lat":35.63997,"lon":139.43536},{"name":"桜ヶ丘第一保育園","province":"東京都","city":"多摩市","address":"多摩市和田60-1","lat":35.64292,"lon":139.43488},{"name":"バオバブ保育園","province":"東京都","city":"多摩市","address":"多摩市一ノ宮1-20-3","lat":35.65244,"lon":139.44096},{"name":"バオバブちいさな家保育園","province":"東京都","city":"多摩市","address":"多摩市一ノ宮3-9-1","lat":35.64965,"lon":139.44293},{"name":"関戸みどりの保育園","province":"東京都","city":"多摩市","address":"多摩市関戸2-24-27三ツ木聖蹟桜ヶ丘ビル2F","lat":35.65068,"lon":139.44914},{"name":"やまとさくら保育園","province":"東京都","city":"多摩市","address":"多摩市関戸4-18-2","lat":35.64924,"lon":139.4501},{"name":"みどりの保育園","province":"東京都","city":"多摩市","address":"多摩市連光寺3-57-2","lat":35.64273,"lon":139.45685},{"name":"のびのびっこ保育園","province":"東京都","city":"多摩市","address":"多摩市諏訪1-1-6","lat":35.63499,"lon":139.4494},{"name":"かしのき保育園","province":"東京都","city":"多摩市","address":"多摩市諏訪1-64","lat":35.63107,"lon":139.45009},{"name":"あすのき保育園","province":"東京都","city":"多摩市","address":"多摩市諏訪2-2-B-001ブリリア多摩ニュータウン","lat":35.62539,"lon":139.45236},{"name":"こばと第一保育園","province":"東京都","city":"多摩市","address":"多摩市諏訪4-7","lat":35.62394,"lon":139.45815},{"name":"おだ学園保育園","province":"東京都","city":"多摩市","address":"多摩市永山1-5ベルブ永山209号","lat":35.62847,"lon":139.44868},{"name":"こぐま保育園","province":"東京都","city":"多摩市","address":"多摩市永山3-5","lat":35.62606,"lon":139.44594},{"name":"ゆりのき保育園","province":"東京都","city":"多摩市","address":"多摩市永山4-6","lat":35.62168,"lon":139.44836},{"name":"ピオニイ第二保育園","province":"東京都","city":"多摩市","address":"多摩市豊ヶ丘4-8","lat":35.61532,"lon":139.43524},{"name":"あおぞらぱれっと保育園","province":"東京都","city":"多摩市","address":"多摩市落合1-15-1","lat":35.62578,"lon":139.42897},{"name":"あおぞら保育園","province":"東京都","city":"多摩市","address":"多摩市落合1-5-16","lat":35.62626,"lon":139.42621},{"name":"かおり保育園","province":"東京都","city":"多摩市","address":"多摩市落合4-15","lat":35.61518,"lon":139.43019},{"name":"丘の上アンジュ保育園","province":"東京都","city":"多摩市","address":"多摩市鶴牧3-2ブリリア多摩センター","lat":35.61867,"lon":139.42117},{"name":"こころ保育園","province":"東京都","city":"多摩市","address":"多摩市鶴牧5-5","lat":35.6114,"lon":139.42419},{"name":"りすのき保育園","province":"東京都","city":"多摩市","address":"多摩市唐木田1-8-2","lat":35.61443,"lon":139.41043},{"name":"みさと保育所","province":"東京都","city":"多摩市","address":"多摩市愛宕2-53","lat":35.63513,"lon":139.4379},{"name":"あおぞらぱれっと保育園","province":"東京都","city":"多摩市","address":"多摩市鶴牧1-11-10","lat":35.62288,"lon":139.41719},{"name":"かおり保育園","province":"東京都","city":"多摩市","address":"多摩市落合4-15","lat":35.61519,"lon":139.43019},{"name":"おだ学園保育園","province":"東京都","city":"多摩市","address":"多摩市永山1-5ベルブ永山209号","lat":35.62847,"lon":139.44869},{"name":"あすのき保育園","province":"東京都","city":"多摩市","address":"多摩市諏訪2-2-B-001ブリリア多摩ニュータウン","lat":35.62708,"lon":139.45039},{"name":"やまと保育園","province":"東京都","city":"多摩市","address":"多摩市和田1534","lat":35.64555,"lon":139.43172},{"name":"多摩保育園","province":"東京都","city":"多摩市","address":"多摩市和田418-1","lat":35.63997,"lon":139.43536},{"name":"桜ヶ丘第一保育園","province":"東京都","city":"多摩市","address":"多摩市和田60-1","lat":35.64292,"lon":139.43488},{"name":"バオバブ保育園","province":"東京都","city":"多摩市","address":"多摩市一ノ宮1-20-3","lat":35.65244,"lon":139.44096},{"name":"バオバブちいさな家保育園","province":"東京都","city":"多摩市","address":"多摩市一ノ宮3-9-1","lat":35.64965,"lon":139.44293},{"name":"関戸みどりの保育園","province":"東京都","city":"多摩市","address":"多摩市関戸2-24-27三ツ木聖蹟桜ヶ丘ビル2F","lat":35.65068,"lon":139.44914},{"name":"やまとさくら保育園","province":"東京都","city":"多摩市","address":"多摩市関戸4-18-2","lat":35.64924,"lon":139.4501},{"name":"みどりの保育園","province":"東京都","city":"多摩市","address":"多摩市連光寺3-57-2","lat":35.64273,"lon":139.45685},{"name":"のびのびっこ保育園","province":"東京都","city":"多摩市","address":"多摩市諏訪1-1-6","lat":35.63499,"lon":139.4494},{"name":"かしのき保育園","province":"東京都","city":"多摩市","address":"多摩市諏訪1-64","lat":35.63107,"lon":139.45009},{"name":"あすのき保育園","province":"東京都","city":"多摩市","address":"多摩市諏訪2-2-B-001ブリリア多摩ニュータウン","lat":35.62539,"lon":139.45236},{"name":"こばと第一保育園","province":"東京都","city":"多摩市","address":"多摩市諏訪4-7","lat":35.62394,"lon":139.45815},{"name":"おだ学園保育園","province":"東京都","city":"多摩市","address":"多摩市永山1-5ベルブ永山209号","lat":35.62847,"lon":139.44868},{"name":"こぐま保育園","province":"東京都","city":"多摩市","address":"多摩市永山3-5","lat":35.62606,"lon":139.44594},{"name":"ゆりのき保育園","province":"東京都","city":"多摩市","address":"多摩市永山4-6","lat":35.62168,"lon":139.44836},{"name":"ピオニイ第二保育園","province":"東京都","city":"多摩市","address":"多摩市豊ヶ丘4-8","lat":35.61532,"lon":139.43524},{"name":"あおぞらぱれっと保育園","province":"東京都","city":"多摩市","address":"多摩市落合1-15-1","lat":35.62578,"lon":139.42897},{"name":"あおぞら保育園","province":"東京都","city":"多摩市","address":"多摩市落合1-5-16","lat":35.62626,"lon":139.42621},{"name":"かおり保育園","province":"東京都","city":"多摩市","address":"多摩市落合4-15","lat":35.61518,"lon":139.43019},{"name":"丘の上アンジュ保育園","province":"東京都","city":"多摩市","address":"多摩市鶴牧3-2ブリリア多摩センター","lat":35.61867,"lon":139.42117},{"name":"こころ保育園","province":"東京都","city":"多摩市","address":"多摩市鶴牧5-5","lat":35.6114,"lon":139.42419},{"name":"りすのき保育園","province":"東京都","city":"多摩市","address":"多摩市唐木田1-8-2","lat":35.61443,"lon":139.41043},{"name":"みさと保育所","province":"東京都","city":"多摩市","address":"多摩市愛宕2-53","lat":35.63513,"lon":139.4379},{"name":"あおぞらぱれっと保育園","province":"東京都","city":"多摩市","address":"多摩市鶴牧1-11-10","lat":35.62288,"lon":139.41719},{"name":"かおり保育園","province":"東京都","city":"多摩市","address":"多摩市落合4-15","lat":35.61519,"lon":139.43019},{"name":"おだ学園保育園","province":"東京都","city":"多摩市","address":"多摩市永山1-5ベルブ永山209号","lat":35.62847,"lon":139.44869},{"name":"あすのき保育園","province":"東京都","city":"多摩市","address":"多摩市諏訪2-2-B-001ブリリア多摩ニュータウン","lat":35.62708,"lon":139.45039},{"name":"やまと保育園","province":"東京都","city":"多摩市","address":"多摩市和田1534","lat":35.64555,"lon":139.43172},{"name":"多摩保育園","province":"東京都","city":"多摩市","address":"多摩市和田418-1","lat":35.63997,"lon":139.43536},{"name":"桜ヶ丘第一保育園","province":"東京都","city":"多摩市","address":"多摩市和田60-1","lat":35.64292,"lon":139.43488},{"name":"バオバブ保育園","province":"東京都","city":"多摩市","address":"多摩市一ノ宮1-20-3","lat":35.65244,"lon":139.44096},{"name":"バオバブちいさな家保育園","province":"東京都","city":"多摩市","address":"多摩市一ノ宮3-9-1","lat":35.64965,"lon":139.44293},{"name":"関戸みどりの保育園","province":"東京都","city":"多摩市","address":"多摩市関戸2-24-27三ツ木聖蹟桜ヶ丘ビル2F","lat":35.65068,"lon":139.44914},{"name":"やまとさくら保育園","province":"東京都","city":"多摩市","address":"多摩市関戸4-18-2","lat":35.64924,"lon":139.4501},{"name":"みどりの保育園","province":"東京都","city":"多摩市","address":"多摩市連光寺3-57-2","lat":35.64273,"lon":139.45685},{"name":"のびのびっこ保育園","province":"東京都","city":"多摩市","address":"多摩市諏訪1-1-6","lat":35.63499,"lon":139.4494},{"name":"かしのき保育園","province":"東京都","city":"多摩市","address":"多摩市諏訪1-64","lat":35.63107,"lon":139.45009},{"name":"あすのき保育園","province":"東京都","city":"多摩市","address":"多摩市諏訪2-2-B-001ブリリア多摩ニュータウン","lat":35.62539,"lon":139.45236},{"name":"こばと第一保育園","province":"東京都","city":"多摩市","address":"多摩市諏訪4-7","lat":35.62394,"lon":139.45815},{"name":"おだ学園保育園","province":"東京都","city":"多摩市","address":"多摩市永山1-5ベルブ永山209号","lat":35.62847,"lon":139.44868},{"name":"こぐま保育園","province":"東京都","city":"多摩市","address":"多摩市永山3-5","lat":35.62606,"lon":139.44594},{"name":"ゆりのき保育園","province":"東京都","city":"多摩市","address":"多摩市永山4-6","lat":35.62168,"lon":139.44836},{"name":"ピオニイ第二保育園","province":"東京都","city":"多摩市","address":"多摩市豊ヶ丘4-8","lat":35.61532,"lon":139.43524},{"name":"あおぞらぱれっと保育園","province":"東京都","city":"多摩市","address":"多摩市落合1-15-1","lat":35.62578,"lon":139.42897},{"name":"あおぞら保育園","province":"東京都","city":"多摩市","address":"多摩市落合1-5-16","lat":35.62626,"lon":139.42621},{"name":"かおり保育園","province":"東京都","city":"多摩市","address":"多摩市落合4-15","lat":35.61518,"lon":139.43019},{"name":"丘の上アンジュ保育園","province":"東京都","city":"多摩市","address":"多摩市鶴牧3-2ブリリア多摩センター","lat":35.61867,"lon":139.42117},{"name":"こころ保育園","province":"東京都","city":"多摩市","address":"多摩市鶴牧5-5","lat":35.6114,"lon":139.42419},{"name":"りすのき保育園","province":"東京都","city":"多摩市","address":"多摩市唐木田1-8-2","lat":35.61443,"lon":139.41043},{"name":"みさと保育所","province":"東京都","city":"多摩市","address":"多摩市愛宕2-53","lat":35.63513,"lon":139.4379},{"name":"あおぞらぱれっと保育園","province":"東京都","city":"多摩市","address":"多摩市鶴牧1-11-10","lat":35.62288,"lon":139.41719},{"name":"かおり保育園","province":"東京都","city":"多摩市","address":"多摩市落合4-15","lat":35.61519,"lon":139.43019},{"name":"おだ学園保育園","province":"東京都","city":"多摩市","address":"多摩市永山1-5ベルブ永山209号","lat":35.62847,"lon":139.44869},{"name":"あすのき保育園","province":"東京都","city":"多摩市","address":"多摩市諏訪2-2-B-001ブリリア多摩ニュータウン","lat":35.62708,"lon":139.45039},{"name":"やまと保育園","province":"東京都","city":"多摩市","address":"多摩市和田1534","lat":35.64555,"lon":139.43172},{"name":"多摩保育園","province":"東京都","city":"多摩市","address":"多摩市和田418-1","lat":35.63997,"lon":139.43536},{"name":"桜ヶ丘第一保育園","province":"東京都","city":"多摩市","address":"多摩市和田60-1","lat":35.64292,"lon":139.43488},{"name":"バオバブ保育園","province":"東京都","city":"多摩市","address":"多摩市一ノ宮1-20-3","lat":35.65244,"lon":139.44096},{"name":"バオバブちいさな家保育園","province":"東京都","city":"多摩市","address":"多摩市一ノ宮3-9-1","lat":35.64965,"lon":139.44293},{"name":"関戸みどりの保育園","province":"東京都","city":"多摩市","address":"多摩市関戸2-24-27三ツ木聖蹟桜ヶ丘ビル2F","lat":35.65068,"lon":139.44914},{"name":"やまとさくら保育園","province":"東京都","city":"多摩市","address":"多摩市関戸4-18-2","lat":35.64924,"lon":139.4501},{"name":"みどりの保育園","province":"東京都","city":"多摩市","address":"多摩市連光寺3-57-2","lat":35.64273,"lon":139.45685},{"name":"のびのびっこ保育園","province":"東京都","city":"多摩市","address":"多摩市諏訪1-1-6","lat":35.63499,"lon":139.4494},{"name":"かしのき保育園","province":"東京都","city":"多摩市","address":"多摩市諏訪1-64","lat":35.63107,"lon":139.45009},{"name":"あすのき保育園","province":"東京都","city":"多摩市","address":"多摩市諏訪2-2-B-001ブリリア多摩ニュータウン","lat":35.62539,"lon":139.45236},{"name":"こばと第一保育園","province":"東京都","city":"多摩市","address":"多摩市諏訪4-7","lat":35.62394,"lon":139.45815},{"name":"おだ学園保育園","province":"東京都","city":"多摩市","address":"多摩市永山1-5ベルブ永山209号","lat":35.62847,"lon":139.44868},{"name":"こぐま保育園","province":"東京都","city":"多摩市","address":"多摩市永山3-5","lat":35.62606,"lon":139.44594},{"name":"ゆりのき保育園","province":"東京都","city":"多摩市","address":"多摩市永山4-6","lat":35.62168,"lon":139.44836},{"name":"ピオニイ第二保育園","province":"東京都","city":"多摩市","address":"多摩市豊ヶ丘4-8","lat":35.61532,"lon":139.43524},{"name":"あおぞらぱれっと保育園","province":"東京都","city":"多摩市","address":"多摩市落合1-15-1","lat":35.62578,"lon":139.42897},{"name":"あおぞら保育園","province":"東京都","city":"多摩市","address":"多摩市落合1-5-16","lat":35.62626,"lon":139.42621},{"name":"かおり保育園","province":"東京都","city":"多摩市","address":"多摩市落合4-15","lat":35.61518,"lon":139.43019},{"name":"丘の上アンジュ保育園","province":"東京都","city":"多摩市","address":"多摩市鶴牧3-2ブリリア多摩センター","lat":35.61867,"lon":139.42117},{"name":"こころ保育園","province":"東京都","city":"多摩市","address":"多摩市鶴牧5-5","lat":35.6114,"lon":139.42419},{"name":"りすのき保育園","province":"東京都","city":"多摩市","address":"多摩市唐木田1-8-2","lat":35.61443,"lon":139.41043},{"name":"みさと保育所","province":"東京都","city":"多摩市","address":"多摩市愛宕2-53","lat":35.63513,"lon":139.4379},{"name":"あおぞらぱれっと保育園","province":"東京都","city":"多摩市","address":"多摩市鶴牧1-11-10","lat":35.62288,"lon":139.41719},{"name":"かおり保育園","province":"東京都","city":"多摩市","address":"多摩市落合4-15","lat":35.61519,"lon":139.43019},{"name":"おだ学園保育園","province":"東京都","city":"多摩市","address":"多摩市永山1-5ベルブ永山209号","lat":35.62847,"lon":139.44869},{"name":"あすのき保育園","province":"東京都","city":"多摩市","address":"多摩市諏訪2-2-B-001ブリリア多摩ニュータウン","lat":35.62708,"lon":139.45039},{"name":"やまと保育園","province":"東京都","city":"多摩市","address":"多摩市和田1534","lat":35.64555,"lon":139.43172},{"name":"多摩保育園","province":"東京都","city":"多摩市","address":"多摩市和田418-1","lat":35.63997,"lon":139.43536},{"name":"桜ヶ丘第一保育園","province":"東京都","city":"多摩市","address":"多摩市和田60-1","lat":35.64292,"lon":139.43488},{"name":"バオバブ保育園","province":"東京都","city":"多摩市","address":"多摩市一ノ宮1-20-3","lat":35.65244,"lon":139.44096},{"name":"バオバブちいさな家保育園","province":"東京都","city":"多摩市","address":"多摩市一ノ宮3-9-1","lat":35.64965,"lon":139.44293},{"name":"関戸みどりの保育園","province":"東京都","city":"多摩市","address":"多摩市関戸2-24-27三ツ木聖蹟桜ヶ丘ビル2F","lat":35.65068,"lon":139.44914},{"name":"やまとさくら保育園","province":"東京都","city":"多摩市","address":"多摩市関戸4-18-2","lat":35.64924,"lon":139.4501},{"name":"みどりの保育園","province":"東京都","city":"多摩市","address":"多摩市連光寺3-57-2","lat":35.64273,"lon":139.45685},{"name":"のびのびっこ保育園","province":"東京都","city":"多摩市","address":"多摩市諏訪1-1-6","lat":35.63499,"lon":139.4494},{"name":"かしのき保育園","province":"東京都","city":"多摩市","address":"多摩市諏訪1-64","lat":35.63107,"lon":139.45009},{"name":"あすのき保育園","province":"東京都","city":"多摩市","address":"多摩市諏訪2-2-B-001ブリリア多摩ニュータウン","lat":35.62539,"lon":139.45236},{"name":"こばと第一保育園","province":"東京都","city":"多摩市","address":"多摩市諏訪4-7","lat":35.62394,"lon":139.45815},{"name":"おだ学園保育園","province":"東京都","city":"多摩市","address":"多摩市永山1-5ベルブ永山209号","lat":35.62847,"lon":139.44868},{"name":"こぐま保育園","province":"東京都","city":"多摩市","address":"多摩市永山3-5","lat":35.62606,"lon":139.44594},{"name":"ゆりのき保育園","province":"東京都","city":"多摩市","address":"多摩市永山4-6","lat":35.62168,"lon":139.44836},{"name":"ピオニイ第二保育園","province":"東京都","city":"多摩市","address":"多摩市豊ヶ丘4-8","lat":35.61532,"lon":139.43524},{"name":"あおぞらぱれっと保育園","province":"東京都","city":"多摩市","address":"多摩市落合1-15-1","lat":35.62578,"lon":139.42897},{"name":"あおぞら保育園","province":"東京都","city":"多摩市","address":"多摩市落合1-5-16","lat":35.62626,"lon":139.42621},{"name":"かおり保育園","province":"東京都","city":"多摩市","address":"多摩市落合4-15","lat":35.61518,"lon":139.43019},{"name":"丘の上アンジュ保育園","province":"東京都","city":"多摩市","address":"多摩市鶴牧3-2ブリリア多摩センター","lat":35.61867,"lon":139.42117},{"name":"こころ保育園","province":"東京都","city":"多摩市","address":"多摩市鶴牧5-5","lat":35.6114,"lon":139.42419},{"name":"りすのき保育園","province":"東京都","city":"多摩市","address":"多摩市唐木田1-8-2","lat":35.61443,"lon":139.41043},{"name":"みさと保育所","province":"東京都","city":"多摩市","address":"多摩市愛宕2-53","lat":35.63513,"lon":139.4379},{"name":"あおぞらぱれっと保育園","province":"東京都","city":"多摩市","address":"多摩市鶴牧1-11-10","lat":35.62288,"lon":139.41719},{"name":"かおり保育園","province":"東京都","city":"多摩市","address":"多摩市落合4-15","lat":35.61519,"lon":139.43019},{"name":"おだ学園保育園","province":"東京都","city":"多摩市","address":"多摩市永山1-5ベルブ永山209号","lat":35.62847,"lon":139.44869},{"name":"あすのき保育園","province":"東京都","city":"多摩市","address":"多摩市諏訪2-2-B-001ブリリア多摩ニュータウン","lat":35.62708,"lon":139.45039},{"name":"やまと保育園","province":"東京都","city":"多摩市","address":"多摩市和田1534","lat":35.64555,"lon":139.43172},{"name":"多摩保育園","province":"東京都","city":"多摩市","address":"多摩市和田418-1","lat":35.63997,"lon":139.43536},{"name":"桜ヶ丘第一保育園","province":"東京都","city":"多摩市","address":"多摩市和田60-1","lat":35.64292,"lon":139.43488},{"name":"バオバブ保育園","province":"東京都","city":"多摩市","address":"多摩市一ノ宮1-20-3","lat":35.65244,"lon":139.44096},{"name":"バオバブちいさな家保育園","province":"東京都","city":"多摩市","address":"多摩市一ノ宮3-9-1","lat":35.64965,"lon":139.44293},{"name":"関戸みどりの保育園","province":"東京都","city":"多摩市","address":"多摩市関戸2-24-27三ツ木聖蹟桜ヶ丘ビル2F","lat":35.65068,"lon":139.44914},{"name":"やまとさくら保育園","province":"東京都","city":"多摩市","address":"多摩市関戸4-18-2","lat":35.64924,"lon":139.4501},{"name":"みどりの保育園","province":"東京都","city":"多摩市","address":"多摩市連光寺3-57-2","lat":35.64273,"lon":139.45685},{"name":"のびのびっこ保育園","province":"東京都","city":"多摩市","address":"多摩市諏訪1-1-6","lat":35.63499,"lon":139.4494},{"name":"かしのき保育園","province":"東京都","city":"多摩市","address":"多摩市諏訪1-64","lat":35.63107,"lon":139.45009},{"name":"あすのき保育園","province":"東京都","city":"多摩市","address":"多摩市諏訪2-2-B-001ブリリア多摩ニュータウン","lat":35.62539,"lon":139.45236},{"name":"こばと第一保育園","province":"東京都","city":"多摩市","address":"多摩市諏訪4-7","lat":35.62394,"lon":139.45815},{"name":"おだ学園保育園","province":"東京都","city":"多摩市","address":"多摩市永山1-5ベルブ永山209号","lat":35.62847,"lon":139.44868},{"name":"こぐま保育園","province":"東京都","city":"多摩市","address":"多摩市永山3-5","lat":35.62606,"lon":139.44594},{"name":"ゆりのき保育園","province":"東京都","city":"多摩市","address":"多摩市永山4-6","lat":35.62168,"lon":139.44836},{"name":"ピオニイ第二保育園","province":"東京都","city":"多摩市","address":"多摩市豊ヶ丘4-8","lat":35.61532,"lon":139.43524},{"name":"あおぞらぱれっと保育園","province":"東京都","city":"多摩市","address":"多摩市落合1-15-1","lat":35.62578,"lon":139.42897},{"name":"あおぞら保育園","province":"東京都","city":"多摩市","address":"多摩市落合1-5-16","lat":35.62626,"lon":139.42621},{"name":"かおり保育園","province":"東京都","city":"多摩市","address":"多摩市落合4-15","lat":35.61518,"lon":139.43019},{"name":"丘の上アンジュ保育園","province":"東京都","city":"多摩市","address":"多摩市鶴牧3-2ブリリア多摩センター","lat":35.61867,"lon":139.42117},{"name":"こころ保育園","province":"東京都","city":"多摩市","address":"多摩市鶴牧5-5","lat":35.6114,"lon":139.42419},{"name":"りすのき保育園","province":"東京都","city":"多摩市","address":"多摩市唐木田1-8-2","lat":35.61443,"lon":139.41043},{"name":"みさと保育所","province":"東京都","city":"多摩市","address":"多摩市愛宕2-53","lat":35.63513,"lon":139.4379},{"name":"あおぞらぱれっと保育園","province":"東京都","city":"多摩市","address":"多摩市鶴牧1-11-10","lat":35.62288,"lon":139.41719},{"name":"かおり保育園","province":"東京都","city":"多摩市","address":"多摩市落合4-15","lat":35.61519,"lon":139.43019},{"name":"おだ学園保育園","province":"東京都","city":"多摩市","address":"多摩市永山1-5ベルブ永山209号","lat":35.62847,"lon":139.44869},{"name":"あすのき保育園","province":"東京都","city":"多摩市","address":"多摩市諏訪2-2-B-001ブリリア多摩ニュータウン","lat":35.62708,"lon":139.45039},{"name":"やまと保育園","province":"東京都","city":"多摩市","address":"多摩市和田1534","lat":35.64555,"lon":139.43172},{"name":"多摩保育園","province":"東京都","city":"多摩市","address":"多摩市和田418-1","lat":35.63997,"lon":139.43536},{"name":"桜ヶ丘第一保育園","province":"東京都","city":"多摩市","address":"多摩市和田60-1","lat":35.64292,"lon":139.43488},{"name":"バオバブ保育園","province":"東京都","city":"多摩市","address":"多摩市一ノ宮1-20-3","lat":35.65244,"lon":139.44096},{"name":"バオバブちいさな家保育園","province":"東京都","city":"多摩市","address":"多摩市一ノ宮3-9-1","lat":35.64965,"lon":139.44293},{"name":"関戸みどりの保育園","province":"東京都","city":"多摩市","address":"多摩市関戸2-24-27三ツ木聖蹟桜ヶ丘ビル2F","lat":35.65068,"lon":139.44914},{"name":"やまとさくら保育園","province":"東京都","city":"多摩市","address":"多摩市関戸4-18-2","lat":35.64924,"lon":139.4501},{"name":"みどりの保育園","province":"東京都","city":"多摩市","address":"多摩市連光寺3-57-2","lat":35.64273,"lon":139.45685},{"name":"のびのびっこ保育園","province":"東京都","city":"多摩市","address":"多摩市諏訪1-1-6","lat":35.63499,"lon":139.4494},{"name":"かしのき保育園","province":"東京都","city":"多摩市","address":"多摩市諏訪1-64","lat":35.63107,"lon":139.45009},{"name":"あすのき保育園","province":"東京都","city":"多摩市","address":"多摩市諏訪2-2-B-001ブリリア多摩ニュータウン","lat":35.62539,"lon":139.45236},{"name":"こばと第一保育園","province":"東京都","city":"多摩市","address":"多摩市諏訪4-7","lat":35.62394,"lon":139.45815},{"name":"おだ学園保育園","province":"東京都","city":"多摩市","address":"多摩市永山1-5ベルブ永山209号","lat":35.62847,"lon":139.44868},{"name":"こぐま保育園","province":"東京都","city":"多摩市","address":"多摩市永山3-5","lat":35.62606,"lon":139.44594},{"name":"ゆりのき保育園","province":"東京都","city":"多摩市","address":"多摩市永山4-6","lat":35.62168,"lon":139.44836},{"name":"ピオニイ第二保育園","province":"東京都","city":"多摩市","address":"多摩市豊ヶ丘4-8","lat":35.61532,"lon":139.43524},{"name":"あおぞらぱれっと保育園","province":"東京都","city":"多摩市","address":"多摩市落合1-15-1","lat":35.62578,"lon":139.42897},{"name":"あおぞら保育園","province":"東京都","city":"多摩市","address":"多摩市落合1-5-16","lat":35.62626,"lon":139.42621},{"name":"かおり保育園","province":"東京都","city":"多摩市","address":"多摩市落合4-15","lat":35.61518,"lon":139.43019},{"name":"丘の上アンジュ保育園","province":"東京都","city":"多摩市","address":"多摩市鶴牧3-2ブリリア多摩センター","lat":35.61867,"lon":139.42117},{"name":"こころ保育園","province":"東京都","city":"多摩市","address":"多摩市鶴牧5-5","lat":35.6114,"lon":139.42419},{"name":"りすのき保育園","province":"東京都","city":"多摩市","address":"多摩市唐木田1-8-2","lat":35.61443,"lon":139.41043},{"name":"みさと保育所","province":"東京都","city":"多摩市","address":"多摩市愛宕2-53","lat":35.63513,"lon":139.4379},{"name":"あおぞらぱれっと保育園","province":"東京都","city":"多摩市","address":"多摩市鶴牧1-11-10","lat":35.62288,"lon":139.41719},{"name":"かおり保育園","province":"東京都","city":"多摩市","address":"多摩市落合4-15","lat":35.61519,"lon":139.43019},{"name":"おだ学園保育園","province":"東京都","city":"多摩市","address":"多摩市永山1-5ベルブ永山209号","lat":35.62847,"lon":139.44869},{"name":"あすのき保育園","province":"東京都","city":"多摩市","address":"多摩市諏訪2-2-B-001ブリリア多摩ニュータウン","lat":35.62708,"lon":139.45039},{"name":"やまと保育園","province":"東京都","city":"多摩市","address":"多摩市和田1534","lat":35.64555,"lon":139.43172},{"name":"多摩保育園","province":"東京都","city":"多摩市","address":"多摩市和田418-1","lat":35.63997,"lon":139.43536},{"name":"桜ヶ丘第一保育園","province":"東京都","city":"多摩市","address":"多摩市和田60-1","lat":35.64292,"lon":139.43488},{"name":"バオバブ保育園","province":"東京都","city":"多摩市","address":"多摩市一ノ宮1-20-3","lat":35.65244,"lon":139.44096},{"name":"バオバブちいさな家保育園","province":"東京都","city":"多摩市","address":"多摩市一ノ宮3-9-1","lat":35.64965,"lon":139.44293},{"name":"関戸みどりの保育園","province":"東京都","city":"多摩市","address":"多摩市関戸2-24-27三ツ木聖蹟桜ヶ丘ビル2F","lat":35.65068,"lon":139.44914},{"name":"やまとさくら保育園","province":"東京都","city":"多摩市","address":"多摩市関戸4-18-2","lat":35.64924,"lon":139.4501},{"name":"みどりの保育園","province":"東京都","city":"多摩市","address":"多摩市連光寺3-57-2","lat":35.64273,"lon":139.45685},{"name":"のびのびっこ保育園","province":"東京都","city":"多摩市","address":"多摩市諏訪1-1-6","lat":35.63499,"lon":139.4494},{"name":"かしのき保育園","province":"東京都","city":"多摩市","address":"多摩市諏訪1-64","lat":35.63107,"lon":139.45009},{"name":"あすのき保育園","province":"東京都","city":"多摩市","address":"多摩市諏訪2-2-B-001ブリリア多摩ニュータウン","lat":35.62539,"lon":139.45236},{"name":"こばと第一保育園","province":"東京都","city":"多摩市","address":"多摩市諏訪4-7","lat":35.62394,"lon":139.45815},{"name":"おだ学園保育園","province":"東京都","city":"多摩市","address":"多摩市永山1-5ベルブ永山209号","lat":35.62847,"lon":139.44868},{"name":"こぐま保育園","province":"東京都","city":"多摩市","address":"多摩市永山3-5","lat":35.62606,"lon":139.44594},{"name":"ゆりのき保育園","province":"東京都","city":"多摩市","address":"多摩市永山4-6","lat":35.62168,"lon":139.44836},{"name":"ピオニイ第二保育園","province":"東京都","city":"多摩市","address":"多摩市豊ヶ丘4-8","lat":35.61532,"lon":139.43524},{"name":"あおぞらぱれっと保育園","province":"東京都","city":"多摩市","address":"多摩市落合1-15-1","lat":35.62578,"lon":139.42897},{"name":"あおぞら保育園","province":"東京都","city":"多摩市","address":"多摩市落合1-5-16","lat":35.62626,"lon":139.42621},{"name":"かおり保育園","province":"東京都","city":"多摩市","address":"多摩市落合4-15","lat":35.61518,"lon":139.43019},{"name":"丘の上アンジュ保育園","province":"東京都","city":"多摩市","address":"多摩市鶴牧3-2ブリリア多摩センター","lat":35.61867,"lon":139.42117},{"name":"こころ保育園","province":"東京都","city":"多摩市","address":"多摩市鶴牧5-5","lat":35.6114,"lon":139.42419},{"name":"りすのき保育園","province":"東京都","city":"多摩市","address":"多摩市唐木田1-8-2","lat":35.61443,"lon":139.41043},{"name":"みさと保育所","province":"東京都","city":"多摩市","address":"多摩市愛宕2-53","lat":35.63513,"lon":139.4379},{"name":"あおぞらぱれっと保育園","province":"東京都","city":"多摩市","address":"多摩市鶴牧1-11-10","lat":35.62288,"lon":139.41719},{"name":"かおり保育園","province":"東京都","city":"多摩市","address":"多摩市落合4-15","lat":35.61519,"lon":139.43019},{"name":"おだ学園保育園","province":"東京都","city":"多摩市","address":"多摩市永山1-5ベルブ永山209号","lat":35.62847,"lon":139.44869},{"name":"あすのき保育園","province":"東京都","city":"多摩市","address":"多摩市諏訪2-2-B-001ブリリア多摩ニュータウン","lat":35.62708,"lon":139.45039},{"name":"やまと保育園","province":"東京都","city":"多摩市","address":"多摩市和田1534","lat":35.64555,"lon":139.43172},{"name":"多摩保育園","province":"東京都","city":"多摩市","address":"多摩市和田418-1","lat":35.63997,"lon":139.43536},{"name":"桜ヶ丘第一保育園","province":"東京都","city":"多摩市","address":"多摩市和田60-1","lat":35.64292,"lon":139.43488},{"name":"バオバブ保育園","province":"東京都","city":"多摩市","address":"多摩市一ノ宮1-20-3","lat":35.65244,"lon":139.44096},{"name":"バオバブちいさな家保育園","province":"東京都","city":"多摩市","address":"多摩市一ノ宮3-9-1","lat":35.64965,"lon":139.44293},{"name":"関戸みどりの保育園","province":"東京都","city":"多摩市","address":"多摩市関戸2-24-27三ツ木聖蹟桜ヶ丘ビル2F","lat":35.65068,"lon":139.44914},{"name":"やまとさくら保育園","province":"東京都","city":"多摩市","address":"多摩市関戸4-18-2","lat":35.64924,"lon":139.4501},{"name":"みどりの保育園","province":"東京都","city":"多摩市","address":"多摩市連光寺3-57-2","lat":35.64273,"lon":139.45685},{"name":"のびのびっこ保育園","province":"東京都","city":"多摩市","address":"多摩市諏訪1-1-6","lat":35.63499,"lon":139.4494},{"name":"かしのき保育園","province":"東京都","city":"多摩市","address":"多摩市諏訪1-64","lat":35.63107,"lon":139.45009},{"name":"あすのき保育園","province":"東京都","city":"多摩市","address":"多摩市諏訪2-2-B-001ブリリア多摩ニュータウン","lat":35.62539,"lon":139.45236},{"name":"こばと第一保育園","province":"東京都","city":"多摩市","address":"多摩市諏訪4-7","lat":35.62394,"lon":139.45815},{"name":"おだ学園保育園","province":"東京都","city":"多摩市","address":"多摩市永山1-5ベルブ永山209号","lat":35.62847,"lon":139.44868},{"name":"こぐま保育園","province":"東京都","city":"多摩市","address":"多摩市永山3-5","lat":35.62606,"lon":139.44594},{"name":"ゆりのき保育園","province":"東京都","city":"多摩市","address":"多摩市永山4-6","lat":35.62168,"lon":139.44836},{"name":"ピオニイ第二保育園","province":"東京都","city":"多摩市","address":"多摩市豊ヶ丘4-8","lat":35.61532,"lon":139.43524},{"name":"あおぞらぱれっと保育園","province":"東京都","city":"多摩市","address":"多摩市落合1-15-1","lat":35.62578,"lon":139.42897},{"name":"あおぞら保育園","province":"東京都","city":"多摩市","address":"多摩市落合1-5-16","lat":35.62626,"lon":139.42621},{"name":"かおり保育園","province":"東京都","city":"多摩市","address":"多摩市落合4-15","lat":35.61518,"lon":139.43019},{"name":"丘の上アンジュ保育園","province":"東京都","city":"多摩市","address":"多摩市鶴牧3-2ブリリア多摩センター","lat":35.61867,"lon":139.42117},{"name":"こころ保育園","province":"東京都","city":"多摩市","address":"多摩市鶴牧5-5","lat":35.6114,"lon":139.42419},{"name":"りすのき保育園","province":"東京都","city":"多摩市","address":"多摩市唐木田1-8-2","lat":35.61443,"lon":139.41043},{"name":"みさと保育所","province":"東京都","city":"多摩市","address":"多摩市愛宕2-53","lat":35.63513,"lon":139.4379},{"name":"あおぞらぱれっと保育園","province":"東京都","city":"多摩市","address":"多摩市鶴牧1-11-10","lat":35.62288,"lon":139.41719},{"name":"かおり保育園","province":"東京都","city":"多摩市","address":"多摩市落合4-15","lat":35.61519,"lon":139.43019},{"name":"おだ学園保育園","province":"東京都","city":"多摩市","address":"多摩市永山1-5ベルブ永山209号","lat":35.62847,"lon":139.44869},{"name":"あすのき保育園","province":"東京都","city":"多摩市","address":"多摩市諏訪2-2-B-001ブリリア多摩ニュータウン","lat":35.62708,"lon":139.45039},{"name":"やまと保育園","province":"東京都","city":"多摩市","address":"多摩市和田1534","lat":35.64555,"lon":139.43172},{"name":"多摩保育園","province":"東京都","city":"多摩市","address":"多摩市和田418-1","lat":35.63997,"lon":139.43536},{"name":"桜ヶ丘第一保育園","province":"東京都","city":"多摩市","address":"多摩市和田60-1","lat":35.64292,"lon":139.43488},{"name":"バオバブ保育園","province":"東京都","city":"多摩市","address":"多摩市一ノ宮1-20-3","lat":35.65244,"lon":139.44096},{"name":"バオバブちいさな家保育園","province":"東京都","city":"多摩市","address":"多摩市一ノ宮3-9-1","lat":35.64965,"lon":139.44293},{"name":"関戸みどりの保育園","province":"東京都","city":"多摩市","address":"多摩市関戸2-24-27三ツ木聖蹟桜ヶ丘ビル2F","lat":35.65068,"lon":139.44914},{"name":"やまとさくら保育園","province":"東京都","city":"多摩市","address":"多摩市関戸4-18-2","lat":35.64924,"lon":139.4501},{"name":"みどりの保育園","province":"東京都","city":"多摩市","address":"多摩市連光寺3-57-2","lat":35.64273,"lon":139.45685},{"name":"のびのびっこ保育園","province":"東京都","city":"多摩市","address":"多摩市諏訪1-1-6","lat":35.63499,"lon":139.4494},{"name":"かしのき保育園","province":"東京都","city":"多摩市","address":"多摩市諏訪1-64","lat":35.63107,"lon":139.45009},{"name":"あすのき保育園","province":"東京都","city":"多摩市","address":"多摩市諏訪2-2-B-001ブリリア多摩ニュータウン","lat":35.62539,"lon":139.45236},{"name":"こばと第一保育園","province":"東京都","city":"多摩市","address":"多摩市諏訪4-7","lat":35.62394,"lon":139.45815},{"name":"おだ学園保育園","province":"東京都","city":"多摩市","address":"多摩市永山1-5ベルブ永山209号","lat":35.62847,"lon":139.44868},{"name":"こぐま保育園","province":"東京都","city":"多摩市","address":"多摩市永山3-5","lat":35.62606,"lon":139.44594},{"name":"ゆりのき保育園","province":"東京都","city":"多摩市","address":"多摩市永山4-6","lat":35.62168,"lon":139.44836},{"name":"ピオニイ第二保育園","province":"東京都","city":"多摩市","address":"多摩市豊ヶ丘4-8","lat":35.61532,"lon":139.43524},{"name":"あおぞらぱれっと保育園","province":"東京都","city":"多摩市","address":"多摩市落合1-15-1","lat":35.62578,"lon":139.42897},{"name":"あおぞら保育園","province":"東京都","city":"多摩市","address":"多摩市落合1-5-16","lat":35.62626,"lon":139.42621},{"name":"かおり保育園","province":"東京都","city":"多摩市","address":"多摩市落合4-15","lat":35.61518,"lon":139.43019},{"name":"丘の上アンジュ保育園","province":"東京都","city":"多摩市","address":"多摩市鶴牧3-2ブリリア多摩センター","lat":35.61867,"lon":139.42117},{"name":"こころ保育園","province":"東京都","city":"多摩市","address":"多摩市鶴牧5-5","lat":35.6114,"lon":139.42419},{"name":"りすのき保育園","province":"東京都","city":"多摩市","address":"多摩市唐木田1-8-2","lat":35.61443,"lon":139.41043},{"name":"みさと保育所","province":"東京都","city":"多摩市","address":"多摩市愛宕2-53","lat":35.63513,"lon":139.4379},{"name":"あおぞらぱれっと保育園","province":"東京都","city":"多摩市","address":"多摩市鶴牧1-11-10","lat":35.62288,"lon":139.41719},{"name":"かおり保育園","province":"東京都","city":"多摩市","address":"多摩市落合4-15","lat":35.61519,"lon":139.43019},{"name":"おだ学園保育園","province":"東京都","city":"多摩市","address":"多摩市永山1-5ベルブ永山209号","lat":35.62847,"lon":139.44869},{"name":"あすのき保育園","province":"東京都","city":"多摩市","address":"多摩市諏訪2-2-B-001ブリリア多摩ニュータウン","lat":35.62708,"lon":139.45039},{"name":"やまと保育園","province":"東京都","city":"多摩市","address":"多摩市和田1534","lat":35.64555,"lon":139.43172},{"name":"多摩保育園","province":"東京都","city":"多摩市","address":"多摩市和田418-1","lat":35.63997,"lon":139.43536},{"name":"桜ヶ丘第一保育園","province":"東京都","city":"多摩市","address":"多摩市和田60-1","lat":35.64292,"lon":139.43488},{"name":"バオバブ保育園","province":"東京都","city":"多摩市","address":"多摩市一ノ宮1-20-3","lat":35.65244,"lon":139.44096},{"name":"バオバブちいさな家保育園","province":"東京都","city":"多摩市","address":"多摩市一ノ宮3-9-1","lat":35.64965,"lon":139.44293},{"name":"関戸みどりの保育園","province":"東京都","city":"多摩市","address":"多摩市関戸2-24-27三ツ木聖蹟桜ヶ丘ビル2F","lat":35.65068,"lon":139.44914},{"name":"やまとさくら保育園","province":"東京都","city":"多摩市","address":"多摩市関戸4-18-2","lat":35.64924,"lon":139.4501},{"name":"みどりの保育園","province":"東京都","city":"多摩市","address":"多摩市連光寺3-57-2","lat":35.64273,"lon":139.45685},{"name":"のびのびっこ保育園","province":"東京都","city":"多摩市","address":"多摩市諏訪1-1-6","lat":35.63499,"lon":139.4494},{"name":"かしのき保育園","province":"東京都","city":"多摩市","address":"多摩市諏訪1-64","lat":35.63107,"lon":139.45009},{"name":"あすのき保育園","province":"東京都","city":"多摩市","address":"多摩市諏訪2-2-B-001ブリリア多摩ニュータウン","lat":35.62539,"lon":139.45236},{"name":"こばと第一保育園","province":"東京都","city":"多摩市","address":"多摩市諏訪4-7","lat":35.62394,"lon":139.45815},{"name":"おだ学園保育園","province":"東京都","city":"多摩市","address":"多摩市永山1-5ベルブ永山209号","lat":35.62847,"lon":139.44868},{"name":"こぐま保育園","province":"東京都","city":"多摩市","address":"多摩市永山3-5","lat":35.62606,"lon":139.44594},{"name":"ゆりのき保育園","province":"東京都","city":"多摩市","address":"多摩市永山4-6","lat":35.62168,"lon":139.44836},{"name":"ピオニイ第二保育園","province":"東京都","city":"多摩市","address":"多摩市豊ヶ丘4-8","lat":35.61532,"lon":139.43524},{"name":"あおぞらぱれっと保育園","province":"東京都","city":"多摩市","address":"多摩市落合1-15-1","lat":35.62578,"lon":139.42897},{"name":"あおぞら保育園","province":"東京都","city":"多摩市","address":"多摩市落合1-5-16","lat":35.62626,"lon":139.42621},{"name":"かおり保育園","province":"東京都","city":"多摩市","address":"多摩市落合4-15","lat":35.61518,"lon":139.43019},{"name":"丘の上アンジュ保育園","province":"東京都","city":"多摩市","address":"多摩市鶴牧3-2ブリリア多摩センター","lat":35.61867,"lon":139.42117},{"name":"こころ保育園","province":"東京都","city":"多摩市","address":"多摩市鶴牧5-5","lat":35.6114,"lon":139.42419},{"name":"りすのき保育園","province":"東京都","city":"多摩市","address":"多摩市唐木田1-8-2","lat":35.61443,"lon":139.41043},{"name":"みさと保育所","province":"東京都","city":"多摩市","address":"多摩市愛宕2-53","lat":35.63513,"lon":139.4379},{"name":"あおぞらぱれっと保育園","province":"東京都","city":"多摩市","address":"多摩市鶴牧1-11-10","lat":35.62288,"lon":139.41719},{"name":"かおり保育園","province":"東京都","city":"多摩市","address":"多摩市落合4-15","lat":35.61519,"lon":139.43019},{"name":"おだ学園保育園","province":"東京都","city":"多摩市","address":"多摩市永山1-5ベルブ永山209号","lat":35.62847,"lon":139.44869},{"name":"あすのき保育園","province":"東京都","city":"多摩市","address":"多摩市諏訪2-2-B-001ブリリア多摩ニュータウン","lat":35.62708,"lon":139.45039},{"name":"やまと保育園","province":"東京都","city":"多摩市","address":"多摩市和田1534","lat":35.64555,"lon":139.43172},{"name":"多摩保育園","province":"東京都","city":"多摩市","address":"多摩市和田418-1","lat":35.63997,"lon":139.43536},{"name":"桜ヶ丘第一保育園","province":"東京都","city":"多摩市","address":"多摩市和田60-1","lat":35.64292,"lon":139.43488},{"name":"バオバブ保育園","province":"東京都","city":"多摩市","address":"多摩市一ノ宮1-20-3","lat":35.65244,"lon":139.44096},{"name":"バオバブちいさな家保育園","province":"東京都","city":"多摩市","address":"多摩市一ノ宮3-9-1","lat":35.64965,"lon":139.44293},{"name":"関戸みどりの保育園","province":"東京都","city":"多摩市","address":"多摩市関戸2-24-27三ツ木聖蹟桜ヶ丘ビル2F","lat":35.65068,"lon":139.44914},{"name":"やまとさくら保育園","province":"東京都","city":"多摩市","address":"多摩市関戸4-18-2","lat":35.64924,"lon":139.4501},{"name":"みどりの保育園","province":"東京都","city":"多摩市","address":"多摩市連光寺3-57-2","lat":35.64273,"lon":139.45685},{"name":"のびのびっこ保育園","province":"東京都","city":"多摩市","address":"多摩市諏訪1-1-6","lat":35.63499,"lon":139.4494},{"name":"かしのき保育園","province":"東京都","city":"多摩市","address":"多摩市諏訪1-64","lat":35.63107,"lon":139.45009},{"name":"あすのき保育園","province":"東京都","city":"多摩市","address":"多摩市諏訪2-2-B-001ブリリア多摩ニュータウン","lat":35.62539,"lon":139.45236},{"name":"こばと第一保育園","province":"東京都","city":"多摩市","address":"多摩市諏訪4-7","lat":35.62394,"lon":139.45815},{"name":"おだ学園保育園","province":"東京都","city":"多摩市","address":"多摩市永山1-5ベルブ永山209号","lat":35.62847,"lon":139.44868},{"name":"こぐま保育園","province":"東京都","city":"多摩市","address":"多摩市永山3-5","lat":35.62606,"lon":139.44594},{"name":"ゆりのき保育園","province":"東京都","city":"多摩市","address":"多摩市永山4-6","lat":35.62168,"lon":139.44836},{"name":"ピオニイ第二保育園","province":"東京都","city":"多摩市","address":"多摩市豊ヶ丘4-8","lat":35.61532,"lon":139.43524},{"name":"あおぞらぱれっと保育園","province":"東京都","city":"多摩市","address":"多摩市落合1-15-1","lat":35.62578,"lon":139.42897},{"name":"あおぞら保育園","province":"東京都","city":"多摩市","address":"多摩市落合1-5-16","lat":35.62626,"lon":139.42621},{"name":"かおり保育園","province":"東京都","city":"多摩市","address":"多摩市落合4-15","lat":35.61518,"lon":139.43019},{"name":"丘の上アンジュ保育園","province":"東京都","city":"多摩市","address":"多摩市鶴牧3-2ブリリア多摩センター","lat":35.61867,"lon":139.42117},{"name":"こころ保育園","province":"東京都","city":"多摩市","address":"多摩市鶴牧5-5","lat":35.6114,"lon":139.42419},{"name":"りすのき保育園","province":"東京都","city":"多摩市","address":"多摩市唐木田1-8-2","lat":35.61443,"lon":139.41043},{"name":"みさと保育所","province":"東京都","city":"多摩市","address":"多摩市愛宕2-53","lat":35.63513,"lon":139.4379},{"name":"あおぞらぱれっと保育園","province":"東京都","city":"多摩市","address":"多摩市鶴牧1-11-10","lat":35.62288,"lon":139.41719},{"name":"かおり保育園","province":"東京都","city":"多摩市","address":"多摩市落合4-15","lat":35.61519,"lon":139.43019},{"name":"おだ学園保育園","province":"東京都","city":"多摩市","address":"多摩市永山1-5ベルブ永山209号","lat":35.62847,"lon":139.44869},{"name":"あすのき保育園","province":"東京都","city":"多摩市","address":"多摩市諏訪2-2-B-001ブリリア多摩ニュータウン","lat":35.62708,"lon":139.45039},{"name":"やまと保育園","province":"東京都","city":"多摩市","address":"多摩市和田1534","lat":35.64555,"lon":139.43172},{"name":"多摩保育園","province":"東京都","city":"多摩市","address":"多摩市和田418-1","lat":35.63997,"lon":139.43536},{"name":"桜ヶ丘第一保育園","province":"東京都","city":"多摩市","address":"多摩市和田60-1","lat":35.64292,"lon":139.43488},{"name":"バオバブ保育園","province":"東京都","city":"多摩市","address":"多摩市一ノ宮1-20-3","lat":35.65244,"lon":139.44096},{"name":"バオバブちいさな家保育園","province":"東京都","city":"多摩市","address":"多摩市一ノ宮3-9-1","lat":35.64965,"lon":139.44293},{"name":"関戸みどりの保育園","province":"東京都","city":"多摩市","address":"多摩市関戸2-24-27三ツ木聖蹟桜ヶ丘ビル2F","lat":35.65068,"lon":139.44914},{"name":"やまとさくら保育園","province":"東京都","city":"多摩市","address":"多摩市関戸4-18-2","lat":35.64924,"lon":139.4501},{"name":"みどりの保育園","province":"東京都","city":"多摩市","address":"多摩市連光寺3-57-2","lat":35.64273,"lon":139.45685},{"name":"のびのびっこ保育園","province":"東京都","city":"多摩市","address":"多摩市諏訪1-1-6","lat":35.63499,"lon":139.4494},{"name":"かしのき保育園","province":"東京都","city":"多摩市","address":"多摩市諏訪1-64","lat":35.63107,"lon":139.45009},{"name":"あすのき保育園","province":"東京都","city":"多摩市","address":"多摩市諏訪2-2-B-001ブリリア多摩ニュータウン","lat":35.62539,"lon":139.45236},{"name":"こばと第一保育園","province":"東京都","city":"多摩市","address":"多摩市諏訪4-7","lat":35.62394,"lon":139.45815},{"name":"おだ学園保育園","province":"東京都","city":"多摩市","address":"多摩市永山1-5ベルブ永山209号","lat":35.62847,"lon":139.44868},{"name":"こぐま保育園","province":"東京都","city":"多摩市","address":"多摩市永山3-5","lat":35.62606,"lon":139.44594},{"name":"ゆりのき保育園","province":"東京都","city":"多摩市","address":"多摩市永山4-6","lat":35.62168,"lon":139.44836},{"name":"ピオニイ第二保育園","province":"東京都","city":"多摩市","address":"多摩市豊ヶ丘4-8","lat":35.61532,"lon":139.43524},{"name":"あおぞらぱれっと保育園","province":"東京都","city":"多摩市","address":"多摩市落合1-15-1","lat":35.62578,"lon":139.42897},{"name":"あおぞら保育園","province":"東京都","city":"多摩市","address":"多摩市落合1-5-16","lat":35.62626,"lon":139.42621},{"name":"かおり保育園","province":"東京都","city":"多摩市","address":"多摩市落合4-15","lat":35.61518,"lon":139.43019},{"name":"丘の上アンジュ保育園","province":"東京都","city":"多摩市","address":"多摩市鶴牧3-2ブリリア多摩センター","lat":35.61867,"lon":139.42117},{"name":"こころ保育園","province":"東京都","city":"多摩市","address":"多摩市鶴牧5-5","lat":35.6114,"lon":139.42419},{"name":"りすのき保育園","province":"東京都","city":"多摩市","address":"多摩市唐木田1-8-2","lat":35.61443,"lon":139.41043},{"name":"みさと保育所","province":"東京都","city":"多摩市","address":"多摩市愛宕2-53","lat":35.63513,"lon":139.4379},{"name":"あおぞらぱれっと保育園","province":"東京都","city":"多摩市","address":"多摩市鶴牧1-11-10","lat":35.62288,"lon":139.41719},{"name":"かおり保育園","province":"東京都","city":"多摩市","address":"多摩市落合4-15","lat":35.61519,"lon":139.43019},{"name":"おだ学園保育園","province":"東京都","city":"多摩市","address":"多摩市永山1-5ベルブ永山209号","lat":35.62847,"lon":139.44869},{"name":"あすのき保育園","province":"東京都","city":"多摩市","address":"多摩市諏訪2-2-B-001ブリリア多摩ニュータウン","lat":35.62708,"lon":139.45039},{"name":"やまと保育園","province":"東京都","city":"多摩市","address":"多摩市和田1534","lat":35.64555,"lon":139.43172},{"name":"多摩保育園","province":"東京都","city":"多摩市","address":"多摩市和田418-1","lat":35.63997,"lon":139.43536},{"name":"桜ヶ丘第一保育園","province":"東京都","city":"多摩市","address":"多摩市和田60-1","lat":35.64292,"lon":139.43488},{"name":"バオバブ保育園","province":"東京都","city":"多摩市","address":"多摩市一ノ宮1-20-3","lat":35.65244,"lon":139.44096},{"name":"バオバブちいさな家保育園","province":"東京都","city":"多摩市","address":"多摩市一ノ宮3-9-1","lat":35.64965,"lon":139.44293},{"name":"関戸みどりの保育園","province":"東京都","city":"多摩市","address":"多摩市関戸2-24-27三ツ木聖蹟桜ヶ丘ビル2F","lat":35.65068,"lon":139.44914},{"name":"やまとさくら保育園","province":"東京都","city":"多摩市","address":"多摩市関戸4-18-2","lat":35.64924,"lon":139.4501},{"name":"みどりの保育園","province":"東京都","city":"多摩市","address":"多摩市連光寺3-57-2","lat":35.64273,"lon":139.45685},{"name":"のびのびっこ保育園","province":"東京都","city":"多摩市","address":"多摩市諏訪1-1-6","lat":35.63499,"lon":139.4494},{"name":"かしのき保育園","province":"東京都","city":"多摩市","address":"多摩市諏訪1-64","lat":35.63107,"lon":139.45009},{"name":"あすのき保育園","province":"東京都","city":"多摩市","address":"多摩市諏訪2-2-B-001ブリリア多摩ニュータウン","lat":35.62539,"lon":139.45236},{"name":"こばと第一保育園","province":"東京都","city":"多摩市","address":"多摩市諏訪4-7","lat":35.62394,"lon":139.45815},{"name":"おだ学園保育園","province":"東京都","city":"多摩市","address":"多摩市永山1-5ベルブ永山209号","lat":35.62847,"lon":139.44868},{"name":"こぐま保育園","province":"東京都","city":"多摩市","address":"多摩市永山3-5","lat":35.62606,"lon":139.44594},{"name":"ゆりのき保育園","province":"東京都","city":"多摩市","address":"多摩市永山4-6","lat":35.62168,"lon":139.44836},{"name":"ピオニイ第二保育園","province":"東京都","city":"多摩市","address":"多摩市豊ヶ丘4-8","lat":35.61532,"lon":139.43524},{"name":"あおぞらぱれっと保育園","province":"東京都","city":"多摩市","address":"多摩市落合1-15-1","lat":35.62578,"lon":139.42897},{"name":"あおぞら保育園","province":"東京都","city":"多摩市","address":"多摩市落合1-5-16","lat":35.62626,"lon":139.42621},{"name":"かおり保育園","province":"東京都","city":"多摩市","address":"多摩市落合4-15","lat":35.61518,"lon":139.43019},{"name":"丘の上アンジュ保育園","province":"東京都","city":"多摩市","address":"多摩市鶴牧3-2ブリリア多摩センター","lat":35.61867,"lon":139.42117},{"name":"こころ保育園","province":"東京都","city":"多摩市","address":"多摩市鶴牧5-5","lat":35.6114,"lon":139.42419},{"name":"りすのき保育園","province":"東京都","city":"多摩市","address":"多摩市唐木田1-8-2","lat":35.61443,"lon":139.41043},{"name":"みさと保育所","province":"東京都","city":"多摩市","address":"多摩市愛宕2-53","lat":35.63513,"lon":139.4379},{"name":"あおぞらぱれっと保育園","province":"東京都","city":"多摩市","address":"多摩市鶴牧1-11-10","lat":35.62288,"lon":139.41719},{"name":"かおり保育園","province":"東京都","city":"多摩市","address":"多摩市落合4-15","lat":35.61519,"lon":139.43019},{"name":"おだ学園保育園","province":"東京都","city":"多摩市","address":"多摩市永山1-5ベルブ永山209号","lat":35.62847,"lon":139.44869},{"name":"あすのき保育園","province":"東京都","city":"多摩市","address":"多摩市諏訪2-2-B-001ブリリア多摩ニュータウン","lat":35.62708,"lon":139.45039},{"name":"やまと保育園","province":"東京都","city":"多摩市","address":"多摩市和田1534","lat":35.64555,"lon":139.43172},{"name":"多摩保育園","province":"東京都","city":"多摩市","address":"多摩市和田418-1","lat":35.63997,"lon":139.43536},{"name":"桜ヶ丘第一保育園","province":"東京都","city":"多摩市","address":"多摩市和田60-1","lat":35.64292,"lon":139.43488},{"name":"バオバブ保育園","province":"東京都","city":"多摩市","address":"多摩市一ノ宮1-20-3","lat":35.65244,"lon":139.44096},{"name":"バオバブちいさな家保育園","province":"東京都","city":"多摩市","address":"多摩市一ノ宮3-9-1","lat":35.64965,"lon":139.44293},{"name":"関戸みどりの保育園","province":"東京都","city":"多摩市","address":"多摩市関戸2-24-27三ツ木聖蹟桜ヶ丘ビル2F","lat":35.65068,"lon":139.44914},{"name":"やまとさくら保育園","province":"東京都","city":"多摩市","address":"多摩市関戸4-18-2","lat":35.64924,"lon":139.4501},{"name":"みどりの保育園","province":"東京都","city":"多摩市","address":"多摩市連光寺3-57-2","lat":35.64273,"lon":139.45685},{"name":"のびのびっこ保育園","province":"東京都","city":"多摩市","address":"多摩市諏訪1-1-6","lat":35.63499,"lon":139.4494},{"name":"かしのき保育園","province":"東京都","city":"多摩市","address":"多摩市諏訪1-64","lat":35.63107,"lon":139.45009},{"name":"あすのき保育園","province":"東京都","city":"多摩市","address":"多摩市諏訪2-2-B-001ブリリア多摩ニュータウン","lat":35.62539,"lon":139.45236},{"name":"こばと第一保育園","province":"東京都","city":"多摩市","address":"多摩市諏訪4-7","lat":35.62394,"lon":139.45815},{"name":"おだ学園保育園","province":"東京都","city":"多摩市","address":"多摩市永山1-5ベルブ永山209号","lat":35.62847,"lon":139.44868},{"name":"こぐま保育園","province":"東京都","city":"多摩市","address":"多摩市永山3-5","lat":35.62606,"lon":139.44594},{"name":"ゆりのき保育園","province":"東京都","city":"多摩市","address":"多摩市永山4-6","lat":35.62168,"lon":139.44836},{"name":"ピオニイ第二保育園","province":"東京都","city":"多摩市","address":"多摩市豊ヶ丘4-8","lat":35.61532,"lon":139.43524},{"name":"あおぞらぱれっと保育園","province":"東京都","city":"多摩市","address":"多摩市落合1-15-1","lat":35.62578,"lon":139.42897},{"name":"あおぞら保育園","province":"東京都","city":"多摩市","address":"多摩市落合1-5-16","lat":35.62626,"lon":139.42621},{"name":"かおり保育園","province":"東京都","city":"多摩市","address":"多摩市落合4-15","lat":35.61518,"lon":139.43019},{"name":"丘の上アンジュ保育園","province":"東京都","city":"多摩市","address":"多摩市鶴牧3-2ブリリア多摩センター","lat":35.61867,"lon":139.42117},{"name":"こころ保育園","province":"東京都","city":"多摩市","address":"多摩市鶴牧5-5","lat":35.6114,"lon":139.42419},{"name":"りすのき保育園","province":"東京都","city":"多摩市","address":"多摩市唐木田1-8-2","lat":35.61443,"lon":139.41043},{"name":"みさと保育所","province":"東京都","city":"多摩市","address":"多摩市愛宕2-53","lat":35.63513,"lon":139.4379},{"name":"あおぞらぱれっと保育園","province":"東京都","city":"多摩市","address":"多摩市鶴牧1-11-10","lat":35.62288,"lon":139.41719},{"name":"かおり保育園","province":"東京都","city":"多摩市","address":"多摩市落合4-15","lat":35.61519,"lon":139.43019},{"name":"おだ学園保育園","province":"東京都","city":"多摩市","address":"多摩市永山1-5ベルブ永山209号","lat":35.62847,"lon":139.44869},{"name":"あすのき保育園","province":"東京都","city":"多摩市","address":"多摩市諏訪2-2-B-001ブリリア多摩ニュータウン","lat":35.62708,"lon":139.45039},{"name":"やまと保育園","province":"東京都","city":"多摩市","address":"多摩市和田1534","lat":35.64555,"lon":139.43172},{"name":"多摩保育園","province":"東京都","city":"多摩市","address":"多摩市和田418-1","lat":35.63997,"lon":139.43536},{"name":"桜ヶ丘第一保育園","province":"東京都","city":"多摩市","address":"多摩市和田60-1","lat":35.64292,"lon":139.43488},{"name":"バオバブ保育園","province":"東京都","city":"多摩市","address":"多摩市一ノ宮1-20-3","lat":35.65244,"lon":139.44096},{"name":"バオバブちいさな家保育園","province":"東京都","city":"多摩市","address":"多摩市一ノ宮3-9-1","lat":35.64965,"lon":139.44293},{"name":"関戸みどりの保育園","province":"東京都","city":"多摩市","address":"多摩市関戸2-24-27三ツ木聖蹟桜ヶ丘ビル2F","lat":35.65068,"lon":139.44914},{"name":"やまとさくら保育園","province":"東京都","city":"多摩市","address":"多摩市関戸4-18-2","lat":35.64924,"lon":139.4501},{"name":"みどりの保育園","province":"東京都","city":"多摩市","address":"多摩市連光寺3-57-2","lat":35.64273,"lon":139.45685},{"name":"のびのびっこ保育園","province":"東京都","city":"多摩市","address":"多摩市諏訪1-1-6","lat":35.63499,"lon":139.4494},{"name":"かしのき保育園","province":"東京都","city":"多摩市","address":"多摩市諏訪1-64","lat":35.63107,"lon":139.45009},{"name":"あすのき保育園","province":"東京都","city":"多摩市","address":"多摩市諏訪2-2-B-001ブリリア多摩ニュータウン","lat":35.62539,"lon":139.45236},{"name":"こばと第一保育園","province":"東京都","city":"多摩市","address":"多摩市諏訪4-7","lat":35.62394,"lon":139.45815},{"name":"おだ学園保育園","province":"東京都","city":"多摩市","address":"多摩市永山1-5ベルブ永山209号","lat":35.62847,"lon":139.44868},{"name":"こぐま保育園","province":"東京都","city":"多摩市","address":"多摩市永山3-5","lat":35.62606,"lon":139.44594},{"name":"ゆりのき保育園","province":"東京都","city":"多摩市","address":"多摩市永山4-6","lat":35.62168,"lon":139.44836},{"name":"ピオニイ第二保育園","province":"東京都","city":"多摩市","address":"多摩市豊ヶ丘4-8","lat":35.61532,"lon":139.43524},{"name":"あおぞらぱれっと保育園","province":"東京都","city":"多摩市","address":"多摩市落合1-15-1","lat":35.62578,"lon":139.42897},{"name":"あおぞら保育園","province":"東京都","city":"多摩市","address":"多摩市落合1-5-16","lat":35.62626,"lon":139.42621},{"name":"かおり保育園","province":"東京都","city":"多摩市","address":"多摩市落合4-15","lat":35.61518,"lon":139.43019},{"name":"丘の上アンジュ保育園","province":"東京都","city":"多摩市","address":"多摩市鶴牧3-2ブリリア多摩センター","lat":35.61867,"lon":139.42117},{"name":"こころ保育園","province":"東京都","city":"多摩市","address":"多摩市鶴牧5-5","lat":35.6114,"lon":139.42419},{"name":"りすのき保育園","province":"東京都","city":"多摩市","address":"多摩市唐木田1-8-2","lat":35.61443,"lon":139.41043},{"name":"みさと保育所","province":"東京都","city":"多摩市","address":"多摩市愛宕2-53","lat":35.63513,"lon":139.4379},{"name":"あおぞらぱれっと保育園","province":"東京都","city":"多摩市","address":"多摩市鶴牧1-11-10","lat":35.62288,"lon":139.41719},{"name":"かおり保育園","province":"東京都","city":"多摩市","address":"多摩市落合4-15","lat":35.61519,"lon":139.43019},{"name":"おだ学園保育園","province":"東京都","city":"多摩市","address":"多摩市永山1-5ベルブ永山209号","lat":35.62847,"lon":139.44869},{"name":"あすのき保育園","province":"東京都","city":"多摩市","address":"多摩市諏訪2-2-B-001ブリリア多摩ニュータウン","lat":35.62708,"lon":139.45039},{"name":"やまと保育園","province":"東京都","city":"多摩市","address":"多摩市和田1534","lat":35.64555,"lon":139.43172},{"name":"多摩保育園","province":"東京都","city":"多摩市","address":"多摩市和田418-1","lat":35.63997,"lon":139.43536},{"name":"桜ヶ丘第一保育園","province":"東京都","city":"多摩市","address":"多摩市和田60-1","lat":35.64292,"lon":139.43488},{"name":"バオバブ保育園","province":"東京都","city":"多摩市","address":"多摩市一ノ宮1-20-3","lat":35.65244,"lon":139.44096},{"name":"バオバブちいさな家保育園","province":"東京都","city":"多摩市","address":"多摩市一ノ宮3-9-1","lat":35.64965,"lon":139.44293},{"name":"関戸みどりの保育園","province":"東京都","city":"多摩市","address":"多摩市関戸2-24-27三ツ木聖蹟桜ヶ丘ビル2F","lat":35.65068,"lon":139.44914},{"name":"やまとさくら保育園","province":"東京都","city":"多摩市","address":"多摩市関戸4-18-2","lat":35.64924,"lon":139.4501},{"name":"みどりの保育園","province":"東京都","city":"多摩市","address":"多摩市連光寺3-57-2","lat":35.64273,"lon":139.45685},{"name":"のびのびっこ保育園","province":"東京都","city":"多摩市","address":"多摩市諏訪1-1-6","lat":35.63499,"lon":139.4494},{"name":"かしのき保育園","province":"東京都","city":"多摩市","address":"多摩市諏訪1-64","lat":35.63107,"lon":139.45009},{"name":"あすのき保育園","province":"東京都","city":"多摩市","address":"多摩市諏訪2-2-B-001ブリリア多摩ニュータウン","lat":35.62539,"lon":139.45236},{"name":"こばと第一保育園","province":"東京都","city":"多摩市","address":"多摩市諏訪4-7","lat":35.62394,"lon":139.45815},{"name":"おだ学園保育園","province":"東京都","city":"多摩市","address":"多摩市永山1-5ベルブ永山209号","lat":35.62847,"lon":139.44868},{"name":"こぐま保育園","province":"東京都","city":"多摩市","address":"多摩市永山3-5","lat":35.62606,"lon":139.44594},{"name":"ゆりのき保育園","province":"東京都","city":"多摩市","address":"多摩市永山4-6","lat":35.62168,"lon":139.44836},{"name":"ピオニイ第二保育園","province":"東京都","city":"多摩市","address":"多摩市豊ヶ丘4-8","lat":35.61532,"lon":139.43524},{"name":"あおぞらぱれっと保育園","province":"東京都","city":"多摩市","address":"多摩市落合1-15-1","lat":35.62578,"lon":139.42897},{"name":"あおぞら保育園","province":"東京都","city":"多摩市","address":"多摩市落合1-5-16","lat":35.62626,"lon":139.42621},{"name":"かおり保育園","province":"東京都","city":"多摩市","address":"多摩市落合4-15","lat":35.61518,"lon":139.43019},{"name":"丘の上アンジュ保育園","province":"東京都","city":"多摩市","address":"多摩市鶴牧3-2ブリリア多摩センター","lat":35.61867,"lon":139.42117},{"name":"こころ保育園","province":"東京都","city":"多摩市","address":"多摩市鶴牧5-5","lat":35.6114,"lon":139.42419},{"name":"りすのき保育園","province":"東京都","city":"多摩市","address":"多摩市唐木田1-8-2","lat":35.61443,"lon":139.41043},{"name":"みさと保育所","province":"東京都","city":"多摩市","address":"多摩市愛宕2-53","lat":35.63513,"lon":139.4379},{"name":"あおぞらぱれっと保育園","province":"東京都","city":"多摩市","address":"多摩市鶴牧1-11-10","lat":35.62288,"lon":139.41719},{"name":"かおり保育園","province":"東京都","city":"多摩市","address":"多摩市落合4-15","lat":35.61519,"lon":139.43019},{"name":"おだ学園保育園","province":"東京都","city":"多摩市","address":"多摩市永山1-5ベルブ永山209号","lat":35.62847,"lon":139.44869},{"name":"あすのき保育園","province":"東京都","city":"多摩市","address":"多摩市諏訪2-2-B-001ブリリア多摩ニュータウン","lat":35.62708,"lon":139.45039},{"name":"やまと保育園","province":"東京都","city":"多摩市","address":"多摩市和田1534","lat":35.64555,"lon":139.43172},{"name":"多摩保育園","province":"東京都","city":"多摩市","address":"多摩市和田418-1","lat":35.63997,"lon":139.43536},{"name":"桜ヶ丘第一保育園","province":"東京都","city":"多摩市","address":"多摩市和田60-1","lat":35.64292,"lon":139.43488},{"name":"バオバブ保育園","province":"東京都","city":"多摩市","address":"多摩市一ノ宮1-20-3","lat":35.65244,"lon":139.44096},{"name":"バオバブちいさな家保育園","province":"東京都","city":"多摩市","address":"多摩市一ノ宮3-9-1","lat":35.64965,"lon":139.44293},{"name":"関戸みどりの保育園","province":"東京都","city":"多摩市","address":"多摩市関戸2-24-27三ツ木聖蹟桜ヶ丘ビル2F","lat":35.65068,"lon":139.44914},{"name":"やまとさくら保育園","province":"東京都","city":"多摩市","address":"多摩市関戸4-18-2","lat":35.64924,"lon":139.4501},{"name":"みどりの保育園","province":"東京都","city":"多摩市","address":"多摩市連光寺3-57-2","lat":35.64273,"lon":139.45685},{"name":"のびのびっこ保育園","province":"東京都","city":"多摩市","address":"多摩市諏訪1-1-6","lat":35.63499,"lon":139.4494},{"name":"かしのき保育園","province":"東京都","city":"多摩市","address":"多摩市諏訪1-64","lat":35.63107,"lon":139.45009},{"name":"あすのき保育園","province":"東京都","city":"多摩市","address":"多摩市諏訪2-2-B-001ブリリア多摩ニュータウン","lat":35.62539,"lon":139.45236},{"name":"こばと第一保育園","province":"東京都","city":"多摩市","address":"多摩市諏訪4-7","lat":35.62394,"lon":139.45815},{"name":"おだ学園保育園","province":"東京都","city":"多摩市","address":"多摩市永山1-5ベルブ永山209号","lat":35.62847,"lon":139.44868},{"name":"こぐま保育園","province":"東京都","city":"多摩市","address":"多摩市永山3-5","lat":35.62606,"lon":139.44594},{"name":"ゆりのき保育園","province":"東京都","city":"多摩市","address":"多摩市永山4-6","lat":35.62168,"lon":139.44836},{"name":"ピオニイ第二保育園","province":"東京都","city":"多摩市","address":"多摩市豊ヶ丘4-8","lat":35.61532,"lon":139.43524},{"name":"あおぞらぱれっと保育園","province":"東京都","city":"多摩市","address":"多摩市落合1-15-1","lat":35.62578,"lon":139.42897},{"name":"あおぞら保育園","province":"東京都","city":"多摩市","address":"多摩市落合1-5-16","lat":35.62626,"lon":139.42621},{"name":"かおり保育園","province":"東京都","city":"多摩市","address":"多摩市落合4-15","lat":35.61518,"lon":139.43019},{"name":"丘の上アンジュ保育園","province":"東京都","city":"多摩市","address":"多摩市鶴牧3-2ブリリア多摩センター","lat":35.61867,"lon":139.42117},{"name":"こころ保育園","province":"東京都","city":"多摩市","address":"多摩市鶴牧5-5","lat":35.6114,"lon":139.42419},{"name":"りすのき保育園","province":"東京都","city":"多摩市","address":"多摩市唐木田1-8-2","lat":35.61443,"lon":139.41043},{"name":"みさと保育所","province":"東京都","city":"多摩市","address":"多摩市愛宕2-53","lat":35.63513,"lon":139.4379},{"name":"あおぞらぱれっと保育園","province":"東京都","city":"多摩市","address":"多摩市鶴牧1-11-10","lat":35.62288,"lon":139.41719},{"name":"かおり保育園","province":"東京都","city":"多摩市","address":"多摩市落合4-15","lat":35.61519,"lon":139.43019},{"name":"おだ学園保育園","province":"東京都","city":"多摩市","address":"多摩市永山1-5ベルブ永山209号","lat":35.62847,"lon":139.44869},{"name":"あすのき保育園","province":"東京都","city":"多摩市","address":"多摩市諏訪2-2-B-001ブリリア多摩ニュータウン","lat":35.62708,"lon":139.45039},{"name":"やまと保育園","province":"東京都","city":"多摩市","address":"多摩市和田1534","lat":35.64555,"lon":139.43172},{"name":"多摩保育園","province":"東京都","city":"多摩市","address":"多摩市和田418-1","lat":35.63997,"lon":139.43536},{"name":"桜ヶ丘第一保育園","province":"東京都","city":"多摩市","address":"多摩市和田60-1","lat":35.64292,"lon":139.43488},{"name":"バオバブ保育園","province":"東京都","city":"多摩市","address":"多摩市一ノ宮1-20-3","lat":35.65244,"lon":139.44096},{"name":"バオバブちいさな家保育園","province":"東京都","city":"多摩市","address":"多摩市一ノ宮3-9-1","lat":35.64965,"lon":139.44293},{"name":"関戸みどりの保育園","province":"東京都","city":"多摩市","address":"多摩市関戸2-24-27三ツ木聖蹟桜ヶ丘ビル2F","lat":35.65068,"lon":139.44914},{"name":"やまとさくら保育園","province":"東京都","city":"多摩市","address":"多摩市関戸4-18-2","lat":35.64924,"lon":139.4501},{"name":"みどりの保育園","province":"東京都","city":"多摩市","address":"多摩市連光寺3-57-2","lat":35.64273,"lon":139.45685},{"name":"のびのびっこ保育園","province":"東京都","city":"多摩市","address":"多摩市諏訪1-1-6","lat":35.63499,"lon":139.4494},{"name":"かしのき保育園","province":"東京都","city":"多摩市","address":"多摩市諏訪1-64","lat":35.63107,"lon":139.45009},{"name":"あすのき保育園","province":"東京都","city":"多摩市","address":"多摩市諏訪2-2-B-001ブリリア多摩ニュータウン","lat":35.62539,"lon":139.45236},{"name":"こばと第一保育園","province":"東京都","city":"多摩市","address":"多摩市諏訪4-7","lat":35.62394,"lon":139.45815},{"name":"おだ学園保育園","province":"東京都","city":"多摩市","address":"多摩市永山1-5ベルブ永山209号","lat":35.62847,"lon":139.44868},{"name":"こぐま保育園","province":"東京都","city":"多摩市","address":"多摩市永山3-5","lat":35.62606,"lon":139.44594},{"name":"ゆりのき保育園","province":"東京都","city":"多摩市","address":"多摩市永山4-6","lat":35.62168,"lon":139.44836},{"name":"ピオニイ第二保育園","province":"東京都","city":"多摩市","address":"多摩市豊ヶ丘4-8","lat":35.61532,"lon":139.43524},{"name":"あおぞらぱれっと保育園","province":"東京都","city":"多摩市","address":"多摩市落合1-15-1","lat":35.62578,"lon":139.42897},{"name":"あおぞら保育園","province":"東京都","city":"多摩市","address":"多摩市落合1-5-16","lat":35.62626,"lon":139.42621},{"name":"かおり保育園","province":"東京都","city":"多摩市","address":"多摩市落合4-15","lat":35.61518,"lon":139.43019},{"name":"丘の上アンジュ保育園","province":"東京都","city":"多摩市","address":"多摩市鶴牧3-2ブリリア多摩センター","lat":35.61867,"lon":139.42117},{"name":"こころ保育園","province":"東京都","city":"多摩市","address":"多摩市鶴牧5-5","lat":35.6114,"lon":139.42419},{"name":"りすのき保育園","province":"東京都","city":"多摩市","address":"多摩市唐木田1-8-2","lat":35.61443,"lon":139.41043},{"name":"みさと保育所","province":"東京都","city":"多摩市","address":"多摩市愛宕2-53","lat":35.63513,"lon":139.4379},{"name":"あおぞらぱれっと保育園","province":"東京都","city":"多摩市","address":"多摩市鶴牧1-11-10","lat":35.62288,"lon":139.41719},{"name":"かおり保育園","province":"東京都","city":"多摩市","address":"多摩市落合4-15","lat":35.61519,"lon":139.43019},{"name":"おだ学園保育園","province":"東京都","city":"多摩市","address":"多摩市永山1-5ベルブ永山209号","lat":35.62847,"lon":139.44869},{"name":"あすのき保育園","province":"東京都","city":"多摩市","address":"多摩市諏訪2-2-B-001ブリリア多摩ニュータウン","lat":35.62708,"lon":139.45039},{"name":"やまと保育園","province":"東京都","city":"多摩市","address":"多摩市和田1534","lat":35.64555,"lon":139.43172},{"name":"多摩保育園","province":"東京都","city":"多摩市","address":"多摩市和田418-1","lat":35.63997,"lon":139.43536},{"name":"桜ヶ丘第一保育園","province":"東京都","city":"多摩市","address":"多摩市和田60-1","lat":35.64292,"lon":139.43488},{"name":"バオバブ保育園","province":"東京都","city":"多摩市","address":"多摩市一ノ宮1-20-3","lat":35.65244,"lon":139.44096},{"name":"バオバブちいさな家保育園","province":"東京都","city":"多摩市","address":"多摩市一ノ宮3-9-1","lat":35.64965,"lon":139.44293},{"name":"関戸みどりの保育園","province":"東京都","city":"多摩市","address":"多摩市関戸2-24-27三ツ木聖蹟桜ヶ丘ビル2F","lat":35.65068,"lon":139.44914},{"name":"やまとさくら保育園","province":"東京都","city":"多摩市","address":"多摩市関戸4-18-2","lat":35.64924,"lon":139.4501},{"name":"みどりの保育園","province":"東京都","city":"多摩市","address":"多摩市連光寺3-57-2","lat":35.64273,"lon":139.45685},{"name":"のびのびっこ保育園","province":"東京都","city":"多摩市","address":"多摩市諏訪1-1-6","lat":35.63499,"lon":139.4494},{"name":"かしのき保育園","province":"東京都","city":"多摩市","address":"多摩市諏訪1-64","lat":35.63107,"lon":139.45009},{"name":"あすのき保育園","province":"東京都","city":"多摩市","address":"多摩市諏訪2-2-B-001ブリリア多摩ニュータウン","lat":35.62539,"lon":139.45236},{"name":"こばと第一保育園","province":"東京都","city":"多摩市","address":"多摩市諏訪4-7","lat":35.62394,"lon":139.45815},{"name":"おだ学園保育園","province":"東京都","city":"多摩市","address":"多摩市永山1-5ベルブ永山209号","lat":35.62847,"lon":139.44868},{"name":"こぐま保育園","province":"東京都","city":"多摩市","address":"多摩市永山3-5","lat":35.62606,"lon":139.44594},{"name":"ゆりのき保育園","province":"東京都","city":"多摩市","address":"多摩市永山4-6","lat":35.62168,"lon":139.44836},{"name":"ピオニイ第二保育園","province":"東京都","city":"多摩市","address":"多摩市豊ヶ丘4-8","lat":35.61532,"lon":139.43524},{"name":"あおぞらぱれっと保育園","province":"東京都","city":"多摩市","address":"多摩市落合1-15-1","lat":35.62578,"lon":139.42897},{"name":"あおぞら保育園","province":"東京都","city":"多摩市","address":"多摩市落合1-5-16","lat":35.62626,"lon":139.42621},{"name":"かおり保育園","province":"東京都","city":"多摩市","address":"多摩市落合4-15","lat":35.61518,"lon":139.43019},{"name":"丘の上アンジュ保育園","province":"東京都","city":"多摩市","address":"多摩市鶴牧3-2ブリリア多摩センター","lat":35.61867,"lon":139.42117},{"name":"こころ保育園","province":"東京都","city":"多摩市","address":"多摩市鶴牧5-5","lat":35.6114,"lon":139.42419},{"name":"りすのき保育園","province":"東京都","city":"多摩市","address":"多摩市唐木田1-8-2","lat":35.61443,"lon":139.41043},{"name":"みさと保育所","province":"東京都","city":"多摩市","address":"多摩市愛宕2-53","lat":35.63513,"lon":139.4379},{"name":"あおぞらぱれっと保育園","province":"東京都","city":"多摩市","address":"多摩市鶴牧1-11-10","lat":35.62288,"lon":139.41719},{"name":"かおり保育園","province":"東京都","city":"多摩市","address":"多摩市落合4-15","lat":35.61519,"lon":139.43019},{"name":"おだ学園保育園","province":"東京都","city":"多摩市","address":"多摩市永山1-5ベルブ永山209号","lat":35.62847,"lon":139.44869},{"name":"あすのき保育園","province":"東京都","city":"多摩市","address":"多摩市諏訪2-2-B-001ブリリア多摩ニュータウン","lat":35.62708,"lon":139.45039},{"name":"やまと保育園","province":"東京都","city":"多摩市","address":"多摩市和田1534","lat":35.64555,"lon":139.43172},{"name":"多摩保育園","province":"東京都","city":"多摩市","address":"多摩市和田418-1","lat":35.63997,"lon":139.43536},{"name":"桜ヶ丘第一保育園","province":"東京都","city":"多摩市","address":"多摩市和田60-1","lat":35.64292,"lon":139.43488},{"name":"バオバブ保育園","province":"東京都","city":"多摩市","address":"多摩市一ノ宮1-20-3","lat":35.65244,"lon":139.44096},{"name":"バオバブちいさな家保育園","province":"東京都","city":"多摩市","address":"多摩市一ノ宮3-9-1","lat":35.64965,"lon":139.44293},{"name":"関戸みどりの保育園","province":"東京都","city":"多摩市","address":"多摩市関戸2-24-27三ツ木聖蹟桜ヶ丘ビル2F","lat":35.65068,"lon":139.44914},{"name":"やまとさくら保育園","province":"東京都","city":"多摩市","address":"多摩市関戸4-18-2","lat":35.64924,"lon":139.4501},{"name":"みどりの保育園","province":"東京都","city":"多摩市","address":"多摩市連光寺3-57-2","lat":35.64273,"lon":139.45685},{"name":"のびのびっこ保育園","province":"東京都","city":"多摩市","address":"多摩市諏訪1-1-6","lat":35.63499,"lon":139.4494},{"name":"かしのき保育園","province":"東京都","city":"多摩市","address":"多摩市諏訪1-64","lat":35.63107,"lon":139.45009},{"name":"あすのき保育園","province":"東京都","city":"多摩市","address":"多摩市諏訪2-2-B-001ブリリア多摩ニュータウン","lat":35.62539,"lon":139.45236},{"name":"こばと第一保育園","province":"東京都","city":"多摩市","address":"多摩市諏訪4-7","lat":35.62394,"lon":139.45815},{"name":"おだ学園保育園","province":"東京都","city":"多摩市","address":"多摩市永山1-5ベルブ永山209号","lat":35.62847,"lon":139.44868},{"name":"こぐま保育園","province":"東京都","city":"多摩市","address":"多摩市永山3-5","lat":35.62606,"lon":139.44594},{"name":"ゆりのき保育園","province":"東京都","city":"多摩市","address":"多摩市永山4-6","lat":35.62168,"lon":139.44836},{"name":"ピオニイ第二保育園","province":"東京都","city":"多摩市","address":"多摩市豊ヶ丘4-8","lat":35.61532,"lon":139.43524},{"name":"あおぞらぱれっと保育園","province":"東京都","city":"多摩市","address":"多摩市落合1-15-1","lat":35.62578,"lon":139.42897},{"name":"あおぞら保育園","province":"東京都","city":"多摩市","address":"多摩市落合1-5-16","lat":35.62626,"lon":139.42621},{"name":"かおり保育園","province":"東京都","city":"多摩市","address":"多摩市落合4-15","lat":35.61518,"lon":139.43019},{"name":"丘の上アンジュ保育園","province":"東京都","city":"多摩市","address":"多摩市鶴牧3-2ブリリア多摩センター","lat":35.61867,"lon":139.42117},{"name":"こころ保育園","province":"東京都","city":"多摩市","address":"多摩市鶴牧5-5","lat":35.6114,"lon":139.42419},{"name":"りすのき保育園","province":"東京都","city":"多摩市","address":"多摩市唐木田1-8-2","lat":35.61443,"lon":139.41043},{"name":"みさと保育所","province":"東京都","city":"多摩市","address":"多摩市愛宕2-53","lat":35.63513,"lon":139.4379},{"name":"あおぞらぱれっと保育園","province":"東京都","city":"多摩市","address":"多摩市鶴牧1-11-10","lat":35.62288,"lon":139.41719},{"name":"かおり保育園","province":"東京都","city":"多摩市","address":"多摩市落合4-15","lat":35.61519,"lon":139.43019},{"name":"おだ学園保育園","province":"東京都","city":"多摩市","address":"多摩市永山1-5ベルブ永山209号","lat":35.62847,"lon":139.44869},{"name":"あすのき保育園","province":"東京都","city":"多摩市","address":"多摩市諏訪2-2-B-001ブリリア多摩ニュータウン","lat":35.62708,"lon":139.45039},{"name":"やまと保育園","province":"東京都","city":"多摩市","address":"多摩市和田1534","lat":35.64555,"lon":139.43172},{"name":"多摩保育園","province":"東京都","city":"多摩市","address":"多摩市和田418-1","lat":35.63997,"lon":139.43536},{"name":"桜ヶ丘第一保育園","province":"東京都","city":"多摩市","address":"多摩市和田60-1","lat":35.64292,"lon":139.43488},{"name":"バオバブ保育園","province":"東京都","city":"多摩市","address":"多摩市一ノ宮1-20-3","lat":35.65244,"lon":139.44096},{"name":"バオバブちいさな家保育園","province":"東京都","city":"多摩市","address":"多摩市一ノ宮3-9-1","lat":35.64965,"lon":139.44293},{"name":"関戸みどりの保育園","province":"東京都","city":"多摩市","address":"多摩市関戸2-24-27三ツ木聖蹟桜ヶ丘ビル2F","lat":35.65068,"lon":139.44914},{"name":"やまとさくら保育園","province":"東京都","city":"多摩市","address":"多摩市関戸4-18-2","lat":35.64924,"lon":139.4501},{"name":"みどりの保育園","province":"東京都","city":"多摩市","address":"多摩市連光寺3-57-2","lat":35.64273,"lon":139.45685},{"name":"のびのびっこ保育園","province":"東京都","city":"多摩市","address":"多摩市諏訪1-1-6","lat":35.63499,"lon":139.4494},{"name":"かしのき保育園","province":"東京都","city":"多摩市","address":"多摩市諏訪1-64","lat":35.63107,"lon":139.45009},{"name":"あすのき保育園","province":"東京都","city":"多摩市","address":"多摩市諏訪2-2-B-001ブリリア多摩ニュータウン","lat":35.62539,"lon":139.45236},{"name":"こばと第一保育園","province":"東京都","city":"多摩市","address":"多摩市諏訪4-7","lat":35.62394,"lon":139.45815},{"name":"おだ学園保育園","province":"東京都","city":"多摩市","address":"多摩市永山1-5ベルブ永山209号","lat":35.62847,"lon":139.44868},{"name":"こぐま保育園","province":"東京都","city":"多摩市","address":"多摩市永山3-5","lat":35.62606,"lon":139.44594},{"name":"ゆりのき保育園","province":"東京都","city":"多摩市","address":"多摩市永山4-6","lat":35.62168,"lon":139.44836},{"name":"ピオニイ第二保育園","province":"東京都","city":"多摩市","address":"多摩市豊ヶ丘4-8","lat":35.61532,"lon":139.43524},{"name":"あおぞらぱれっと保育園","province":"東京都","city":"多摩市","address":"多摩市落合1-15-1","lat":35.62578,"lon":139.42897},{"name":"あおぞら保育園","province":"東京都","city":"多摩市","address":"多摩市落合1-5-16","lat":35.62626,"lon":139.42621},{"name":"かおり保育園","province":"東京都","city":"多摩市","address":"多摩市落合4-15","lat":35.61518,"lon":139.43019},{"name":"丘の上アンジュ保育園","province":"東京都","city":"多摩市","address":"多摩市鶴牧3-2ブリリア多摩センター","lat":35.61867,"lon":139.42117},{"name":"こころ保育園","province":"東京都","city":"多摩市","address":"多摩市鶴牧5-5","lat":35.6114,"lon":139.42419},{"name":"りすのき保育園","province":"東京都","city":"多摩市","address":"多摩市唐木田1-8-2","lat":35.61443,"lon":139.41043},{"name":"みさと保育所","province":"東京都","city":"多摩市","address":"多摩市愛宕2-53","lat":35.63513,"lon":139.4379},{"name":"あおぞらぱれっと保育園","province":"東京都","city":"多摩市","address":"多摩市鶴牧1-11-10","lat":35.62288,"lon":139.41719},{"name":"かおり保育園","province":"東京都","city":"多摩市","address":"多摩市落合4-15","lat":35.61519,"lon":139.43019},{"name":"おだ学園保育園","province":"東京都","city":"多摩市","address":"多摩市永山1-5ベルブ永山209号","lat":35.62847,"lon":139.44869},{"name":"あすのき保育園","province":"東京都","city":"多摩市","address":"多摩市諏訪2-2-B-001ブリリア多摩ニュータウン","lat":35.62708,"lon":139.45039},{"name":"やまと保育園","province":"東京都","city":"多摩市","address":"多摩市和田1534","lat":35.64555,"lon":139.43172},{"name":"多摩保育園","province":"東京都","city":"多摩市","address":"多摩市和田418-1","lat":35.63997,"lon":139.43536},{"name":"桜ヶ丘第一保育園","province":"東京都","city":"多摩市","address":"多摩市和田60-1","lat":35.64292,"lon":139.43488},{"name":"バオバブ保育園","province":"東京都","city":"多摩市","address":"多摩市一ノ宮1-20-3","lat":35.65244,"lon":139.44096},{"name":"バオバブちいさな家保育園","province":"東京都","city":"多摩市","address":"多摩市一ノ宮3-9-1","lat":35.64965,"lon":139.44293},{"name":"関戸みどりの保育園","province":"東京都","city":"多摩市","address":"多摩市関戸2-24-27三ツ木聖蹟桜ヶ丘ビル2F","lat":35.65068,"lon":139.44914},{"name":"やまとさくら保育園","province":"東京都","city":"多摩市","address":"多摩市関戸4-18-2","lat":35.64924,"lon":139.4501},{"name":"みどりの保育園","province":"東京都","city":"多摩市","address":"多摩市連光寺3-57-2","lat":35.64273,"lon":139.45685},{"name":"のびのびっこ保育園","province":"東京都","city":"多摩市","address":"多摩市諏訪1-1-6","lat":35.63499,"lon":139.4494},{"name":"かしのき保育園","province":"東京都","city":"多摩市","address":"多摩市諏訪1-64","lat":35.63107,"lon":139.45009},{"name":"あすのき保育園","province":"東京都","city":"多摩市","address":"多摩市諏訪2-2-B-001ブリリア多摩ニュータウン","lat":35.62539,"lon":139.45236},{"name":"こばと第一保育園","province":"東京都","city":"多摩市","address":"多摩市諏訪4-7","lat":35.62394,"lon":139.45815},{"name":"おだ学園保育園","province":"東京都","city":"多摩市","address":"多摩市永山1-5ベルブ永山209号","lat":35.62847,"lon":139.44868},{"name":"こぐま保育園","province":"東京都","city":"多摩市","address":"多摩市永山3-5","lat":35.62606,"lon":139.44594},{"name":"ゆりのき保育園","province":"東京都","city":"多摩市","address":"多摩市永山4-6","lat":35.62168,"lon":139.44836},{"name":"ピオニイ第二保育園","province":"東京都","city":"多摩市","address":"多摩市豊ヶ丘4-8","lat":35.61532,"lon":139.43524},{"name":"あおぞらぱれっと保育園","province":"東京都","city":"多摩市","address":"多摩市落合1-15-1","lat":35.62578,"lon":139.42897},{"name":"あおぞら保育園","province":"東京都","city":"多摩市","address":"多摩市落合1-5-16","lat":35.62626,"lon":139.42621},{"name":"かおり保育園","province":"東京都","city":"多摩市","address":"多摩市落合4-15","lat":35.61518,"lon":139.43019},{"name":"丘の上アンジュ保育園","province":"東京都","city":"多摩市","address":"多摩市鶴牧3-2ブリリア多摩センター","lat":35.61867,"lon":139.42117},{"name":"こころ保育園","province":"東京都","city":"多摩市","address":"多摩市鶴牧5-5","lat":35.6114,"lon":139.42419},{"name":"りすのき保育園","province":"東京都","city":"多摩市","address":"多摩市唐木田1-8-2","lat":35.61443,"lon":139.41043},{"name":"みさと保育所","province":"東京都","city":"多摩市","address":"多摩市愛宕2-53","lat":35.63513,"lon":139.4379},{"name":"あおぞらぱれっと保育園","province":"東京都","city":"多摩市","address":"多摩市鶴牧1-11-10","lat":35.62288,"lon":139.41719},{"name":"かおり保育園","province":"東京都","city":"多摩市","address":"多摩市落合4-15","lat":35.61519,"lon":139.43019},{"name":"おだ学園保育園","province":"東京都","city":"多摩市","address":"多摩市永山1-5ベルブ永山209号","lat":35.62847,"lon":139.44869},{"name":"あすのき保育園","province":"東京都","city":"多摩市","address":"多摩市諏訪2-2-B-001ブリリア多摩ニュータウン","lat":35.62708,"lon":139.45039},{"name":"やまと保育園","province":"東京都","city":"多摩市","address":"多摩市和田1534","lat":35.64555,"lon":139.43172},{"name":"多摩保育園","province":"東京都","city":"多摩市","address":"多摩市和田418-1","lat":35.63997,"lon":139.43536},{"name":"桜ヶ丘第一保育園","province":"東京都","city":"多摩市","address":"多摩市和田60-1","lat":35.64292,"lon":139.43488},{"name":"バオバブ保育園","province":"東京都","city":"多摩市","address":"多摩市一ノ宮1-20-3","lat":35.65244,"lon":139.44096},{"name":"バオバブちいさな家保育園","province":"東京都","city":"多摩市","address":"多摩市一ノ宮3-9-1","lat":35.64965,"lon":139.44293},{"name":"関戸みどりの保育園","province":"東京都","city":"多摩市","address":"多摩市関戸2-24-27三ツ木聖蹟桜ヶ丘ビル2F","lat":35.65068,"lon":139.44914},{"name":"やまとさくら保育園","province":"東京都","city":"多摩市","address":"多摩市関戸4-18-2","lat":35.64924,"lon":139.4501},{"name":"みどりの保育園","province":"東京都","city":"多摩市","address":"多摩市連光寺3-57-2","lat":35.64273,"lon":139.45685},{"name":"のびのびっこ保育園","province":"東京都","city":"多摩市","address":"多摩市諏訪1-1-6","lat":35.63499,"lon":139.4494},{"name":"かしのき保育園","province":"東京都","city":"多摩市","address":"多摩市諏訪1-64","lat":35.63107,"lon":139.45009},{"name":"あすのき保育園","province":"東京都","city":"多摩市","address":"多摩市諏訪2-2-B-001ブリリア多摩ニュータウン","lat":35.62539,"lon":139.45236},{"name":"こばと第一保育園","province":"東京都","city":"多摩市","address":"多摩市諏訪4-7","lat":35.62394,"lon":139.45815},{"name":"おだ学園保育園","province":"東京都","city":"多摩市","address":"多摩市永山1-5ベルブ永山209号","lat":35.62847,"lon":139.44868},{"name":"こぐま保育園","province":"東京都","city":"多摩市","address":"多摩市永山3-5","lat":35.62606,"lon":139.44594},{"name":"ゆりのき保育園","province":"東京都","city":"多摩市","address":"多摩市永山4-6","lat":35.62168,"lon":139.44836},{"name":"ピオニイ第二保育園","province":"東京都","city":"多摩市","address":"多摩市豊ヶ丘4-8","lat":35.61532,"lon":139.43524},{"name":"あおぞらぱれっと保育園","province":"東京都","city":"多摩市","address":"多摩市落合1-15-1","lat":35.62578,"lon":139.42897},{"name":"あおぞら保育園","province":"東京都","city":"多摩市","address":"多摩市落合1-5-16","lat":35.62626,"lon":139.42621},{"name":"かおり保育園","province":"東京都","city":"多摩市","address":"多摩市落合4-15","lat":35.61518,"lon":139.43019},{"name":"丘の上アンジュ保育園","province":"東京都","city":"多摩市","address":"多摩市鶴牧3-2ブリリア多摩センター","lat":35.61867,"lon":139.42117},{"name":"こころ保育園","province":"東京都","city":"多摩市","address":"多摩市鶴牧5-5","lat":35.6114,"lon":139.42419},{"name":"りすのき保育園","province":"東京都","city":"多摩市","address":"多摩市唐木田1-8-2","lat":35.61443,"lon":139.41043},{"name":"みさと保育所","province":"東京都","city":"多摩市","address":"多摩市愛宕2-53","lat":35.63513,"lon":139.4379},{"name":"あおぞらぱれっと保育園","province":"東京都","city":"多摩市","address":"多摩市鶴牧1-11-10","lat":35.62288,"lon":139.41719},{"name":"かおり保育園","province":"東京都","city":"多摩市","address":"多摩市落合4-15","lat":35.61519,"lon":139.43019},{"name":"おだ学園保育園","province":"東京都","city":"多摩市","address":"多摩市永山1-5ベルブ永山209号","lat":35.62847,"lon":139.44869},{"name":"あすのき保育園","province":"東京都","city":"多摩市","address":"多摩市諏訪2-2-B-001ブリリア多摩ニュータウン","lat":35.62708,"lon":139.45039},{"name":"やまと保育園","province":"東京都","city":"多摩市","address":"多摩市和田1534","lat":35.64555,"lon":139.43172},{"name":"多摩保育園","province":"東京都","city":"多摩市","address":"多摩市和田418-1","lat":35.63997,"lon":139.43536},{"name":"桜ヶ丘第一保育園","province":"東京都","city":"多摩市","address":"多摩市和田60-1","lat":35.64292,"lon":139.43488},{"name":"バオバブ保育園","province":"東京都","city":"多摩市","address":"多摩市一ノ宮1-20-3","lat":35.65244,"lon":139.44096},{"name":"バオバブちいさな家保育園","province":"東京都","city":"多摩市","address":"多摩市一ノ宮3-9-1","lat":35.64965,"lon":139.44293},{"name":"関戸みどりの保育園","province":"東京都","city":"多摩市","address":"多摩市関戸2-24-27三ツ木聖蹟桜ヶ丘ビル2F","lat":35.65068,"lon":139.44914},{"name":"やまとさくら保育園","province":"東京都","city":"多摩市","address":"多摩市関戸4-18-2","lat":35.64924,"lon":139.4501},{"name":"みどりの保育園","province":"東京都","city":"多摩市","address":"多摩市連光寺3-57-2","lat":35.64273,"lon":139.45685},{"name":"のびのびっこ保育園","province":"東京都","city":"多摩市","address":"多摩市諏訪1-1-6","lat":35.63499,"lon":139.4494},{"name":"かしのき保育園","province":"東京都","city":"多摩市","address":"多摩市諏訪1-64","lat":35.63107,"lon":139.45009},{"name":"あすのき保育園","province":"東京都","city":"多摩市","address":"多摩市諏訪2-2-B-001ブリリア多摩ニュータウン","lat":35.62539,"lon":139.45236},{"name":"こばと第一保育園","province":"東京都","city":"多摩市","address":"多摩市諏訪4-7","lat":35.62394,"lon":139.45815},{"name":"おだ学園保育園","province":"東京都","city":"多摩市","address":"多摩市永山1-5ベルブ永山209号","lat":35.62847,"lon":139.44868},{"name":"こぐま保育園","province":"東京都","city":"多摩市","address":"多摩市永山3-5","lat":35.62606,"lon":139.44594},{"name":"ゆりのき保育園","province":"東京都","city":"多摩市","address":"多摩市永山4-6","lat":35.62168,"lon":139.44836},{"name":"ピオニイ第二保育園","province":"東京都","city":"多摩市","address":"多摩市豊ヶ丘4-8","lat":35.61532,"lon":139.43524},{"name":"あおぞらぱれっと保育園","province":"東京都","city":"多摩市","address":"多摩市落合1-15-1","lat":35.62578,"lon":139.42897},{"name":"あおぞら保育園","province":"東京都","city":"多摩市","address":"多摩市落合1-5-16","lat":35.62626,"lon":139.42621},{"name":"かおり保育園","province":"東京都","city":"多摩市","address":"多摩市落合4-15","lat":35.61518,"lon":139.43019},{"name":"丘の上アンジュ保育園","province":"東京都","city":"多摩市","address":"多摩市鶴牧3-2ブリリア多摩センター","lat":35.61867,"lon":139.42117},{"name":"こころ保育園","province":"東京都","city":"多摩市","address":"多摩市鶴牧5-5","lat":35.6114,"lon":139.42419},{"name":"りすのき保育園","province":"東京都","city":"多摩市","address":"多摩市唐木田1-8-2","lat":35.61443,"lon":139.41043},{"name":"みさと保育所","province":"東京都","city":"多摩市","address":"多摩市愛宕2-53","lat":35.63513,"lon":139.4379},{"name":"あおぞらぱれっと保育園","province":"東京都","city":"多摩市","address":"多摩市鶴牧1-11-10","lat":35.62288,"lon":139.41719},{"name":"かおり保育園","province":"東京都","city":"多摩市","address":"多摩市落合4-15","lat":35.61519,"lon":139.43019},{"name":"おだ学園保育園","province":"東京都","city":"多摩市","address":"多摩市永山1-5ベルブ永山209号","lat":35.62847,"lon":139.44869},{"name":"あすのき保育園","province":"東京都","city":"多摩市","address":"多摩市諏訪2-2-B-001ブリリア多摩ニュータウン","lat":35.62708,"lon":139.45039},{"name":"やまと保育園","province":"東京都","city":"多摩市","address":"多摩市和田1534","lat":35.64555,"lon":139.43172},{"name":"多摩保育園","province":"東京都","city":"多摩市","address":"多摩市和田418-1","lat":35.63997,"lon":139.43536},{"name":"桜ヶ丘第一保育園","province":"東京都","city":"多摩市","address":"多摩市和田60-1","lat":35.64292,"lon":139.43488},{"name":"バオバブ保育園","province":"東京都","city":"多摩市","address":"多摩市一ノ宮1-20-3","lat":35.65244,"lon":139.44096},{"name":"バオバブちいさな家保育園","province":"東京都","city":"多摩市","address":"多摩市一ノ宮3-9-1","lat":35.64965,"lon":139.44293},{"name":"関戸みどりの保育園","province":"東京都","city":"多摩市","address":"多摩市関戸2-24-27三ツ木聖蹟桜ヶ丘ビル2F","lat":35.65068,"lon":139.44914},{"name":"やまとさくら保育園","province":"東京都","city":"多摩市","address":"多摩市関戸4-18-2","lat":35.64924,"lon":139.4501},{"name":"みどりの保育園","province":"東京都","city":"多摩市","address":"多摩市連光寺3-57-2","lat":35.64273,"lon":139.45685},{"name":"のびのびっこ保育園","province":"東京都","city":"多摩市","address":"多摩市諏訪1-1-6","lat":35.63499,"lon":139.4494},{"name":"かしのき保育園","province":"東京都","city":"多摩市","address":"多摩市諏訪1-64","lat":35.63107,"lon":139.45009},{"name":"あすのき保育園","province":"東京都","city":"多摩市","address":"多摩市諏訪2-2-B-001ブリリア多摩ニュータウン","lat":35.62539,"lon":139.45236},{"name":"こばと第一保育園","province":"東京都","city":"多摩市","address":"多摩市諏訪4-7","lat":35.62394,"lon":139.45815},{"name":"おだ学園保育園","province":"東京都","city":"多摩市","address":"多摩市永山1-5ベルブ永山209号","lat":35.62847,"lon":139.44868},{"name":"こぐま保育園","province":"東京都","city":"多摩市","address":"多摩市永山3-5","lat":35.62606,"lon":139.44594},{"name":"ゆりのき保育園","province":"東京都","city":"多摩市","address":"多摩市永山4-6","lat":35.62168,"lon":139.44836},{"name":"ピオニイ第二保育園","province":"東京都","city":"多摩市","address":"多摩市豊ヶ丘4-8","lat":35.61532,"lon":139.43524},{"name":"あおぞらぱれっと保育園","province":"東京都","city":"多摩市","address":"多摩市落合1-15-1","lat":35.62578,"lon":139.42897},{"name":"あおぞら保育園","province":"東京都","city":"多摩市","address":"多摩市落合1-5-16","lat":35.62626,"lon":139.42621},{"name":"かおり保育園","province":"東京都","city":"多摩市","address":"多摩市落合4-15","lat":35.61518,"lon":139.43019},{"name":"丘の上アンジュ保育園","province":"東京都","city":"多摩市","address":"多摩市鶴牧3-2ブリリア多摩センター","lat":35.61867,"lon":139.42117},{"name":"こころ保育園","province":"東京都","city":"多摩市","address":"多摩市鶴牧5-5","lat":35.6114,"lon":139.42419},{"name":"りすのき保育園","province":"東京都","city":"多摩市","address":"多摩市唐木田1-8-2","lat":35.61443,"lon":139.41043},{"name":"みさと保育所","province":"東京都","city":"多摩市","address":"多摩市愛宕2-53","lat":35.63513,"lon":139.4379},{"name":"あおぞらぱれっと保育園","province":"東京都","city":"多摩市","address":"多摩市鶴牧1-11-10","lat":35.62288,"lon":139.41719},{"name":"かおり保育園","province":"東京都","city":"多摩市","address":"多摩市落合4-15","lat":35.61519,"lon":139.43019},{"name":"おだ学園保育園","province":"東京都","city":"多摩市","address":"多摩市永山1-5ベルブ永山209号","lat":35.62847,"lon":139.44869},{"name":"あすのき保育園","province":"東京都","city":"多摩市","address":"多摩市諏訪2-2-B-001ブリリア多摩ニュータウン","lat":35.62708,"lon":139.45039},{"name":"やまと保育園","province":"東京都","city":"多摩市","address":"多摩市和田1534","lat":35.64555,"lon":139.43172},{"name":"多摩保育園","province":"東京都","city":"多摩市","address":"多摩市和田418-1","lat":35.63997,"lon":139.43536},{"name":"桜ヶ丘第一保育園","province":"東京都","city":"多摩市","address":"多摩市和田60-1","lat":35.64292,"lon":139.43488},{"name":"バオバブ保育園","province":"東京都","city":"多摩市","address":"多摩市一ノ宮1-20-3","lat":35.65244,"lon":139.44096},{"name":"バオバブちいさな家保育園","province":"東京都","city":"多摩市","address":"多摩市一ノ宮3-9-1","lat":35.64965,"lon":139.44293},{"name":"関戸みどりの保育園","province":"東京都","city":"多摩市","address":"多摩市関戸2-24-27三ツ木聖蹟桜ヶ丘ビル2F","lat":35.65068,"lon":139.44914},{"name":"やまとさくら保育園","province":"東京都","city":"多摩市","address":"多摩市関戸4-18-2","lat":35.64924,"lon":139.4501},{"name":"みどりの保育園","province":"東京都","city":"多摩市","address":"多摩市連光寺3-57-2","lat":35.64273,"lon":139.45685},{"name":"のびのびっこ保育園","province":"東京都","city":"多摩市","address":"多摩市諏訪1-1-6","lat":35.63499,"lon":139.4494},{"name":"かしのき保育園","province":"東京都","city":"多摩市","address":"多摩市諏訪1-64","lat":35.63107,"lon":139.45009},{"name":"あすのき保育園","province":"東京都","city":"多摩市","address":"多摩市諏訪2-2-B-001ブリリア多摩ニュータウン","lat":35.62539,"lon":139.45236},{"name":"こばと第一保育園","province":"東京都","city":"多摩市","address":"多摩市諏訪4-7","lat":35.62394,"lon":139.45815},{"name":"おだ学園保育園","province":"東京都","city":"多摩市","address":"多摩市永山1-5ベルブ永山209号","lat":35.62847,"lon":139.44868},{"name":"こぐま保育園","province":"東京都","city":"多摩市","address":"多摩市永山3-5","lat":35.62606,"lon":139.44594},{"name":"ゆりのき保育園","province":"東京都","city":"多摩市","address":"多摩市永山4-6","lat":35.62168,"lon":139.44836},{"name":"ピオニイ第二保育園","province":"東京都","city":"多摩市","address":"多摩市豊ヶ丘4-8","lat":35.61532,"lon":139.43524},{"name":"あおぞらぱれっと保育園","province":"東京都","city":"多摩市","address":"多摩市落合1-15-1","lat":35.62578,"lon":139.42897},{"name":"あおぞら保育園","province":"東京都","city":"多摩市","address":"多摩市落合1-5-16","lat":35.62626,"lon":139.42621},{"name":"かおり保育園","province":"東京都","city":"多摩市","address":"多摩市落合4-15","lat":35.61518,"lon":139.43019},{"name":"丘の上アンジュ保育園","province":"東京都","city":"多摩市","address":"多摩市鶴牧3-2ブリリア多摩センター","lat":35.61867,"lon":139.42117},{"name":"こころ保育園","province":"東京都","city":"多摩市","address":"多摩市鶴牧5-5","lat":35.6114,"lon":139.42419},{"name":"りすのき保育園","province":"東京都","city":"多摩市","address":"多摩市唐木田1-8-2","lat":35.61443,"lon":139.41043},{"name":"みさと保育所","province":"東京都","city":"多摩市","address":"多摩市愛宕2-53","lat":35.63513,"lon":139.4379},{"name":"あおぞらぱれっと保育園","province":"東京都","city":"多摩市","address":"多摩市鶴牧1-11-10","lat":35.62288,"lon":139.41719},{"name":"かおり保育園","province":"東京都","city":"多摩市","address":"多摩市落合4-15","lat":35.61519,"lon":139.43019},{"name":"おだ学園保育園","province":"東京都","city":"多摩市","address":"多摩市永山1-5ベルブ永山209号","lat":35.62847,"lon":139.44869},{"name":"あすのき保育園","province":"東京都","city":"多摩市","address":"多摩市諏訪2-2-B-001ブリリア多摩ニュータウン","lat":35.62708,"lon":139.45039},{"name":"やまと保育園","province":"東京都","city":"多摩市","address":"多摩市和田1534","lat":35.64555,"lon":139.43172},{"name":"多摩保育園","province":"東京都","city":"多摩市","address":"多摩市和田418-1","lat":35.63997,"lon":139.43536},{"name":"桜ヶ丘第一保育園","province":"東京都","city":"多摩市","address":"多摩市和田60-1","lat":35.64292,"lon":139.43488},{"name":"バオバブ保育園","province":"東京都","city":"多摩市","address":"多摩市一ノ宮1-20-3","lat":35.65244,"lon":139.44096},{"name":"バオバブちいさな家保育園","province":"東京都","city":"多摩市","address":"多摩市一ノ宮3-9-1","lat":35.64965,"lon":139.44293},{"name":"関戸みどりの保育園","province":"東京都","city":"多摩市","address":"多摩市関戸2-24-27三ツ木聖蹟桜ヶ丘ビル2F","lat":35.65068,"lon":139.44914},{"name":"やまとさくら保育園","province":"東京都","city":"多摩市","address":"多摩市関戸4-18-2","lat":35.64924,"lon":139.4501},{"name":"みどりの保育園","province":"東京都","city":"多摩市","address":"多摩市連光寺3-57-2","lat":35.64273,"lon":139.45685},{"name":"のびのびっこ保育園","province":"東京都","city":"多摩市","address":"多摩市諏訪1-1-6","lat":35.63499,"lon":139.4494},{"name":"かしのき保育園","province":"東京都","city":"多摩市","address":"多摩市諏訪1-64","lat":35.63107,"lon":139.45009},{"name":"あすのき保育園","province":"東京都","city":"多摩市","address":"多摩市諏訪2-2-B-001ブリリア多摩ニュータウン","lat":35.62539,"lon":139.45236},{"name":"こばと第一保育園","province":"東京都","city":"多摩市","address":"多摩市諏訪4-7","lat":35.62394,"lon":139.45815},{"name":"おだ学園保育園","province":"東京都","city":"多摩市","address":"多摩市永山1-5ベルブ永山209号","lat":35.62847,"lon":139.44868},{"name":"こぐま保育園","province":"東京都","city":"多摩市","address":"多摩市永山3-5","lat":35.62606,"lon":139.44594},{"name":"ゆりのき保育園","province":"東京都","city":"多摩市","address":"多摩市永山4-6","lat":35.62168,"lon":139.44836},{"name":"ピオニイ第二保育園","province":"東京都","city":"多摩市","address":"多摩市豊ヶ丘4-8","lat":35.61532,"lon":139.43524},{"name":"あおぞらぱれっと保育園","province":"東京都","city":"多摩市","address":"多摩市落合1-15-1","lat":35.62578,"lon":139.42897},{"name":"あおぞら保育園","province":"東京都","city":"多摩市","address":"多摩市落合1-5-16","lat":35.62626,"lon":139.42621},{"name":"かおり保育園","province":"東京都","city":"多摩市","address":"多摩市落合4-15","lat":35.61518,"lon":139.43019},{"name":"丘の上アンジュ保育園","province":"東京都","city":"多摩市","address":"多摩市鶴牧3-2ブリリア多摩センター","lat":35.61867,"lon":139.42117},{"name":"こころ保育園","province":"東京都","city":"多摩市","address":"多摩市鶴牧5-5","lat":35.6114,"lon":139.42419},{"name":"りすのき保育園","province":"東京都","city":"多摩市","address":"多摩市唐木田1-8-2","lat":35.61443,"lon":139.41043},{"name":"みさと保育所","province":"東京都","city":"多摩市","address":"多摩市愛宕2-53","lat":35.63513,"lon":139.4379},{"name":"あおぞらぱれっと保育園","province":"東京都","city":"多摩市","address":"多摩市鶴牧1-11-10","lat":35.62288,"lon":139.41719},{"name":"かおり保育園","province":"東京都","city":"多摩市","address":"多摩市落合4-15","lat":35.61519,"lon":139.43019},{"name":"おだ学園保育園","province":"東京都","city":"多摩市","address":"多摩市永山1-5ベルブ永山209号","lat":35.62847,"lon":139.44869},{"name":"あすのき保育園","province":"東京都","city":"多摩市","address":"多摩市諏訪2-2-B-001ブリリア多摩ニュータウン","lat":35.62708,"lon":139.45039},{"name":"やまと保育園","province":"東京都","city":"多摩市","address":"多摩市和田1534","lat":35.64555,"lon":139.43172},{"name":"多摩保育園","province":"東京都","city":"多摩市","address":"多摩市和田418-1","lat":35.63997,"lon":139.43536},{"name":"桜ヶ丘第一保育園","province":"東京都","city":"多摩市","address":"多摩市和田60-1","lat":35.64292,"lon":139.43488},{"name":"バオバブ保育園","province":"東京都","city":"多摩市","address":"多摩市一ノ宮1-20-3","lat":35.65244,"lon":139.44096},{"name":"バオバブちいさな家保育園","province":"東京都","city":"多摩市","address":"多摩市一ノ宮3-9-1","lat":35.64965,"lon":139.44293},{"name":"関戸みどりの保育園","province":"東京都","city":"多摩市","address":"多摩市関戸2-24-27三ツ木聖蹟桜ヶ丘ビル2F","lat":35.65068,"lon":139.44914},{"name":"やまとさくら保育園","province":"東京都","city":"多摩市","address":"多摩市関戸4-18-2","lat":35.64924,"lon":139.4501},{"name":"みどりの保育園","province":"東京都","city":"多摩市","address":"多摩市連光寺3-57-2","lat":35.64273,"lon":139.45685},{"name":"のびのびっこ保育園","province":"東京都","city":"多摩市","address":"多摩市諏訪1-1-6","lat":35.63499,"lon":139.4494},{"name":"かしのき保育園","province":"東京都","city":"多摩市","address":"多摩市諏訪1-64","lat":35.63107,"lon":139.45009},{"name":"あすのき保育園","province":"東京都","city":"多摩市","address":"多摩市諏訪2-2-B-001ブリリア多摩ニュータウン","lat":35.62539,"lon":139.45236},{"name":"こばと第一保育園","province":"東京都","city":"多摩市","address":"多摩市諏訪4-7","lat":35.62394,"lon":139.45815},{"name":"おだ学園保育園","province":"東京都","city":"多摩市","address":"多摩市永山1-5ベルブ永山209号","lat":35.62847,"lon":139.44868},{"name":"こぐま保育園","province":"東京都","city":"多摩市","address":"多摩市永山3-5","lat":35.62606,"lon":139.44594},{"name":"ゆりのき保育園","province":"東京都","city":"多摩市","address":"多摩市永山4-6","lat":35.62168,"lon":139.44836},{"name":"ピオニイ第二保育園","province":"東京都","city":"多摩市","address":"多摩市豊ヶ丘4-8","lat":35.61532,"lon":139.43524},{"name":"あおぞらぱれっと保育園","province":"東京都","city":"多摩市","address":"多摩市落合1-15-1","lat":35.62578,"lon":139.42897},{"name":"あおぞら保育園","province":"東京都","city":"多摩市","address":"多摩市落合1-5-16","lat":35.62626,"lon":139.42621},{"name":"かおり保育園","province":"東京都","city":"多摩市","address":"多摩市落合4-15","lat":35.61518,"lon":139.43019},{"name":"丘の上アンジュ保育園","province":"東京都","city":"多摩市","address":"多摩市鶴牧3-2ブリリア多摩センター","lat":35.61867,"lon":139.42117},{"name":"こころ保育園","province":"東京都","city":"多摩市","address":"多摩市鶴牧5-5","lat":35.6114,"lon":139.42419},{"name":"りすのき保育園","province":"東京都","city":"多摩市","address":"多摩市唐木田1-8-2","lat":35.61443,"lon":139.41043},{"name":"みさと保育所","province":"東京都","city":"多摩市","address":"多摩市愛宕2-53","lat":35.63513,"lon":139.4379},{"name":"あおぞらぱれっと保育園","province":"東京都","city":"多摩市","address":"多摩市鶴牧1-11-10","lat":35.62288,"lon":139.41719},{"name":"かおり保育園","province":"東京都","city":"多摩市","address":"多摩市落合4-15","lat":35.61519,"lon":139.43019},{"name":"おだ学園保育園","province":"東京都","city":"多摩市","address":"多摩市永山1-5ベルブ永山209号","lat":35.62847,"lon":139.44869},{"name":"あすのき保育園","province":"東京都","city":"多摩市","address":"多摩市諏訪2-2-B-001ブリリア多摩ニュータウン","lat":35.62708,"lon":139.45039},{"name":"やまと保育園","province":"東京都","city":"多摩市","address":"多摩市和田1534","lat":35.64555,"lon":139.43172},{"name":"多摩保育園","province":"東京都","city":"多摩市","address":"多摩市和田418-1","lat":35.63997,"lon":139.43536},{"name":"桜ヶ丘第一保育園","province":"東京都","city":"多摩市","address":"多摩市和田60-1","lat":35.64292,"lon":139.43488},{"name":"バオバブ保育園","province":"東京都","city":"多摩市","address":"多摩市一ノ宮1-20-3","lat":35.65244,"lon":139.44096},{"name":"バオバブちいさな家保育園","province":"東京都","city":"多摩市","address":"多摩市一ノ宮3-9-1","lat":35.64965,"lon":139.44293},{"name":"関戸みどりの保育園","province":"東京都","city":"多摩市","address":"多摩市関戸2-24-27三ツ木聖蹟桜ヶ丘ビル2F","lat":35.65068,"lon":139.44914},{"name":"やまとさくら保育園","province":"東京都","city":"多摩市","address":"多摩市関戸4-18-2","lat":35.64924,"lon":139.4501},{"name":"みどりの保育園","province":"東京都","city":"多摩市","address":"多摩市連光寺3-57-2","lat":35.64273,"lon":139.45685},{"name":"のびのびっこ保育園","province":"東京都","city":"多摩市","address":"多摩市諏訪1-1-6","lat":35.63499,"lon":139.4494},{"name":"かしのき保育園","province":"東京都","city":"多摩市","address":"多摩市諏訪1-64","lat":35.63107,"lon":139.45009},{"name":"あすのき保育園","province":"東京都","city":"多摩市","address":"多摩市諏訪2-2-B-001ブリリア多摩ニュータウン","lat":35.62539,"lon":139.45236},{"name":"こばと第一保育園","province":"東京都","city":"多摩市","address":"多摩市諏訪4-7","lat":35.62394,"lon":139.45815},{"name":"おだ学園保育園","province":"東京都","city":"多摩市","address":"多摩市永山1-5ベルブ永山209号","lat":35.62847,"lon":139.44868},{"name":"こぐま保育園","province":"東京都","city":"多摩市","address":"多摩市永山3-5","lat":35.62606,"lon":139.44594},{"name":"ゆりのき保育園","province":"東京都","city":"多摩市","address":"多摩市永山4-6","lat":35.62168,"lon":139.44836},{"name":"ピオニイ第二保育園","province":"東京都","city":"多摩市","address":"多摩市豊ヶ丘4-8","lat":35.61532,"lon":139.43524},{"name":"あおぞらぱれっと保育園","province":"東京都","city":"多摩市","address":"多摩市落合1-15-1","lat":35.62578,"lon":139.42897},{"name":"あおぞら保育園","province":"東京都","city":"多摩市","address":"多摩市落合1-5-16","lat":35.62626,"lon":139.42621},{"name":"かおり保育園","province":"東京都","city":"多摩市","address":"多摩市落合4-15","lat":35.61518,"lon":139.43019},{"name":"丘の上アンジュ保育園","province":"東京都","city":"多摩市","address":"多摩市鶴牧3-2ブリリア多摩センター","lat":35.61867,"lon":139.42117},{"name":"こころ保育園","province":"東京都","city":"多摩市","address":"多摩市鶴牧5-5","lat":35.6114,"lon":139.42419},{"name":"りすのき保育園","province":"東京都","city":"多摩市","address":"多摩市唐木田1-8-2","lat":35.61443,"lon":139.41043},{"name":"みさと保育所","province":"東京都","city":"多摩市","address":"多摩市愛宕2-53","lat":35.63513,"lon":139.4379},{"name":"あおぞらぱれっと保育園","province":"東京都","city":"多摩市","address":"多摩市鶴牧1-11-10","lat":35.62288,"lon":139.41719},{"name":"かおり保育園","province":"東京都","city":"多摩市","address":"多摩市落合4-15","lat":35.61519,"lon":139.43019},{"name":"おだ学園保育園","province":"東京都","city":"多摩市","address":"多摩市永山1-5ベルブ永山209号","lat":35.62847,"lon":139.44869},{"name":"あすのき保育園","province":"東京都","city":"多摩市","address":"多摩市諏訪2-2-B-001ブリリア多摩ニュータウン","lat":35.62708,"lon":139.45039},{"name":"やまと保育園","province":"東京都","city":"多摩市","address":"多摩市和田1534","lat":35.64555,"lon":139.43172},{"name":"多摩保育園","province":"東京都","city":"多摩市","address":"多摩市和田418-1","lat":35.63997,"lon":139.43536},{"name":"桜ヶ丘第一保育園","province":"東京都","city":"多摩市","address":"多摩市和田60-1","lat":35.64292,"lon":139.43488},{"name":"バオバブ保育園","province":"東京都","city":"多摩市","address":"多摩市一ノ宮1-20-3","lat":35.65244,"lon":139.44096},{"name":"バオバブちいさな家保育園","province":"東京都","city":"多摩市","address":"多摩市一ノ宮3-9-1","lat":35.64965,"lon":139.44293},{"name":"関戸みどりの保育園","province":"東京都","city":"多摩市","address":"多摩市関戸2-24-27三ツ木聖蹟桜ヶ丘ビル2F","lat":35.65068,"lon":139.44914},{"name":"やまとさくら保育園","province":"東京都","city":"多摩市","address":"多摩市関戸4-18-2","lat":35.64924,"lon":139.4501},{"name":"みどりの保育園","province":"東京都","city":"多摩市","address":"多摩市連光寺3-57-2","lat":35.64273,"lon":139.45685},{"name":"のびのびっこ保育園","province":"東京都","city":"多摩市","address":"多摩市諏訪1-1-6","lat":35.63499,"lon":139.4494},{"name":"かしのき保育園","province":"東京都","city":"多摩市","address":"多摩市諏訪1-64","lat":35.63107,"lon":139.45009},{"name":"あすのき保育園","province":"東京都","city":"多摩市","address":"多摩市諏訪2-2-B-001ブリリア多摩ニュータウン","lat":35.62539,"lon":139.45236},{"name":"こばと第一保育園","province":"東京都","city":"多摩市","address":"多摩市諏訪4-7","lat":35.62394,"lon":139.45815},{"name":"おだ学園保育園","province":"東京都","city":"多摩市","address":"多摩市永山1-5ベルブ永山209号","lat":35.62847,"lon":139.44868},{"name":"こぐま保育園","province":"東京都","city":"多摩市","address":"多摩市永山3-5","lat":35.62606,"lon":139.44594},{"name":"ゆりのき保育園","province":"東京都","city":"多摩市","address":"多摩市永山4-6","lat":35.62168,"lon":139.44836},{"name":"ピオニイ第二保育園","province":"東京都","city":"多摩市","address":"多摩市豊ヶ丘4-8","lat":35.61532,"lon":139.43524},{"name":"あおぞらぱれっと保育園","province":"東京都","city":"多摩市","address":"多摩市落合1-15-1","lat":35.62578,"lon":139.42897},{"name":"あおぞら保育園","province":"東京都","city":"多摩市","address":"多摩市落合1-5-16","lat":35.62626,"lon":139.42621},{"name":"かおり保育園","province":"東京都","city":"多摩市","address":"多摩市落合4-15","lat":35.61518,"lon":139.43019},{"name":"丘の上アンジュ保育園","province":"東京都","city":"多摩市","address":"多摩市鶴牧3-2ブリリア多摩センター","lat":35.61867,"lon":139.42117},{"name":"こころ保育園","province":"東京都","city":"多摩市","address":"多摩市鶴牧5-5","lat":35.6114,"lon":139.42419},{"name":"りすのき保育園","province":"東京都","city":"多摩市","address":"多摩市唐木田1-8-2","lat":35.61443,"lon":139.41043},{"name":"みさと保育所","province":"東京都","city":"多摩市","address":"多摩市愛宕2-53","lat":35.63513,"lon":139.4379},{"name":"あおぞらぱれっと保育園","province":"東京都","city":"多摩市","address":"多摩市鶴牧1-11-10","lat":35.62288,"lon":139.41719},{"name":"かおり保育園","province":"東京都","city":"多摩市","address":"多摩市落合4-15","lat":35.61519,"lon":139.43019},{"name":"おだ学園保育園","province":"東京都","city":"多摩市","address":"多摩市永山1-5ベルブ永山209号","lat":35.62847,"lon":139.44869},{"name":"あすのき保育園","province":"東京都","city":"多摩市","address":"多摩市諏訪2-2-B-001ブリリア多摩ニュータウン","lat":35.62708,"lon":139.45039},{"name":"やまと保育園","province":"東京都","city":"多摩市","address":"多摩市和田1534","lat":35.64555,"lon":139.43172},{"name":"多摩保育園","province":"東京都","city":"多摩市","address":"多摩市和田418-1","lat":35.63997,"lon":139.43536},{"name":"桜ヶ丘第一保育園","province":"東京都","city":"多摩市","address":"多摩市和田60-1","lat":35.64292,"lon":139.43488},{"name":"バオバブ保育園","province":"東京都","city":"多摩市","address":"多摩市一ノ宮1-20-3","lat":35.65244,"lon":139.44096},{"name":"バオバブちいさな家保育園","province":"東京都","city":"多摩市","address":"多摩市一ノ宮3-9-1","lat":35.64965,"lon":139.44293},{"name":"関戸みどりの保育園","province":"東京都","city":"多摩市","address":"多摩市関戸2-24-27三ツ木聖蹟桜ヶ丘ビル2F","lat":35.65068,"lon":139.44914},{"name":"やまとさくら保育園","province":"東京都","city":"多摩市","address":"多摩市関戸4-18-2","lat":35.64924,"lon":139.4501},{"name":"みどりの保育園","province":"東京都","city":"多摩市","address":"多摩市連光寺3-57-2","lat":35.64273,"lon":139.45685},{"name":"のびのびっこ保育園","province":"東京都","city":"多摩市","address":"多摩市諏訪1-1-6","lat":35.63499,"lon":139.4494},{"name":"かしのき保育園","province":"東京都","city":"多摩市","address":"多摩市諏訪1-64","lat":35.63107,"lon":139.45009},{"name":"あすのき保育園","province":"東京都","city":"多摩市","address":"多摩市諏訪2-2-B-001ブリリア多摩ニュータウン","lat":35.62539,"lon":139.45236},{"name":"こばと第一保育園","province":"東京都","city":"多摩市","address":"多摩市諏訪4-7","lat":35.62394,"lon":139.45815},{"name":"おだ学園保育園","province":"東京都","city":"多摩市","address":"多摩市永山1-5ベルブ永山209号","lat":35.62847,"lon":139.44868},{"name":"こぐま保育園","province":"東京都","city":"多摩市","address":"多摩市永山3-5","lat":35.62606,"lon":139.44594},{"name":"ゆりのき保育園","province":"東京都","city":"多摩市","address":"多摩市永山4-6","lat":35.62168,"lon":139.44836},{"name":"ピオニイ第二保育園","province":"東京都","city":"多摩市","address":"多摩市豊ヶ丘4-8","lat":35.61532,"lon":139.43524},{"name":"あおぞらぱれっと保育園","province":"東京都","city":"多摩市","address":"多摩市落合1-15-1","lat":35.62578,"lon":139.42897},{"name":"あおぞら保育園","province":"東京都","city":"多摩市","address":"多摩市落合1-5-16","lat":35.62626,"lon":139.42621},{"name":"かおり保育園","province":"東京都","city":"多摩市","address":"多摩市落合4-15","lat":35.61518,"lon":139.43019},{"name":"丘の上アンジュ保育園","province":"東京都","city":"多摩市","address":"多摩市鶴牧3-2ブリリア多摩センター","lat":35.61867,"lon":139.42117},{"name":"こころ保育園","province":"東京都","city":"多摩市","address":"多摩市鶴牧5-5","lat":35.6114,"lon":139.42419},{"name":"りすのき保育園","province":"東京都","city":"多摩市","address":"多摩市唐木田1-8-2","lat":35.61443,"lon":139.41043},{"name":"みさと保育所","province":"東京都","city":"多摩市","address":"多摩市愛宕2-53","lat":35.63513,"lon":139.4379},{"name":"あおぞらぱれっと保育園","province":"東京都","city":"多摩市","address":"多摩市鶴牧1-11-10","lat":35.62288,"lon":139.41719},{"name":"かおり保育園","province":"東京都","city":"多摩市","address":"多摩市落合4-15","lat":35.61519,"lon":139.43019},{"name":"おだ学園保育園","province":"東京都","city":"多摩市","address":"多摩市永山1-5ベルブ永山209号","lat":35.62847,"lon":139.44869},{"name":"あすのき保育園","province":"東京都","city":"多摩市","address":"多摩市諏訪2-2-B-001ブリリア多摩ニュータウン","lat":35.62708,"lon":139.45039}]}