{"keyword":"店","data":[{"name":"多摩南部地域病院","province":"東京都","city":"多摩市","address":"東京都多摩市中沢2丁目1-2","lat":35.622938,"lon":139.41525124},{"name":"桜ケ丘記念病院","province":"東京都","city":"多摩市","address":"多摩市連光寺1-1-1","lat":35.647819,"lon":139.457608},{"name":"多摩市社会福祉協議会","province":"東京都","city":"多摩市","address":"多摩市南野3-15-1多摩市総合福祉センター内","lat":35.612536,"lon":139.412677},{"name":"株式会社としまフューネス","province":"東京都","city":"多摩市","address":"東京都多摩市永山1丁目17-11","lat":35.63153767,"lon":139.44278463},{"name":"京王フェアウェルサポート株式会社","province":"東京都","city":"多摩市","address":"東京都多摩市関戸1丁目9-1","lat":35.65133548,"lon":139.44824454},{"name":"SKKフューネラルサービス","province":"東京都","city":"多摩市","address":"東京都多摩市乞田752-1","lat":35.63176248,"lon":139.4366185},{"name":"（株）としまフューネス","province":"東京都","city":"多摩市","address":"東京都多摩市永山1丁目17-11","lat":35.63153767,"lon":139.44278463},{"name":"日本医科大学多摩永山病院（休止）","province":"東京都","city":"多摩市","address":"多摩市永山1-7-1","lat":35.631138,"lon":139.446655},{"name":"多摩市社会福祉協議会","province":"東京都","city":"多摩市","address":"多摩市南野3-15-1多摩市総合福祉センター内","lat":35.61226,"lon":139.41402},{"name":"日本医科大学多摩永山病院","province":"東京都","city":"多摩市","address":"多摩市永山1-7-1","lat":35.631138,"lon":139.446655},{"name":"特定非営利活動法人多摩市身体障害者福祉協会アートひまわり","province":"東京都","city":"多摩市","address":"東京都多摩市南野3丁目15-1","lat":35.61253922,"lon":139.41269633},{"name":"特定非営利活動法人わこうど若人塾","province":"東京都","city":"多摩市","address":"東京都多摩市永山3丁目12-1","lat":35.62115014,"lon":139.44400996},{"name":"特定非営利活動法人ＦｉｌｏＡＲＯＭＡ","province":"東京都","city":"多摩市","address":"東京都多摩市落合1丁目3-7","lat":35.62722115,"lon":139.42870271},{"name":"都立多摩総合精神保健福祉センター","province":"東京都","city":"多摩市","address":"多摩市中沢2-1-3","lat":35.61914374,"lon":139.4172724},{"name":"多摩南部地域病院","province":"東京都","city":"多摩市","address":"東京都多摩市中沢2丁目1-2","lat":35.622938,"lon":139.41525124},{"name":"桜ケ丘記念病院","province":"東京都","city":"多摩市","address":"多摩市連光寺1-1-1","lat":35.647819,"lon":139.457608},{"name":"多摩市社会福祉協議会","province":"東京都","city":"多摩市","address":"多摩市南野3-15-1多摩市総合福祉センター内","lat":35.612536,"lon":139.412677},{"name":"株式会社としまフューネス","province":"東京都","city":"多摩市","address":"東京都多摩市永山1丁目17-11","lat":35.63153767,"lon":139.44278463},{"name":"京王フェアウェルサポート株式会社","province":"東京都","city":"多摩市","address":"東京都多摩市関戸1丁目9-1","lat":35.65133548,"lon":139.44824454},{"name":"SKKフューネラルサービス","province":"東京都","city":"多摩市","address":"東京都多摩市乞田752-1","lat":35.63176248,"lon":139.4366185},{"name":"（株）としまフューネス","province":"東京都","city":"多摩市","address":"東京都多摩市永山1丁目17-11","lat":35.63153767,"lon":139.44278463},{"name":"日本医科大学多摩永山病院（休止）","province":"東京都","city":"多摩市","address":"多摩市永山1-7-1","lat":35.631138,"lon":139.446655},{"name":"多摩市社会福祉協議会","province":"東京都","city":"多摩市","address":"多摩市南野3-15-1多摩市総合福祉センター内","lat":35.61226,"lon":139.41402},{"name":"日本医科大学多摩永山病院","province":"東京都","city":"多摩市","address":"多摩市永山1-7-1","lat":35.631138,"lon":139.446655},{"name":"特定非営利活動法人多摩市身体障害者福祉協会アートひまわり","province":"東京都","city":"多摩市","address":"東京都多摩市南野3丁目15-1","lat":35.61253922,"lon":139.41269633},{"name":"特定非営利活動法人わこうど若人塾","province":"東京都","city":"多摩市","address":"東京都多摩市永山3丁目12-1","lat":35.62115014,"lon":139.44400996},{"name":"特定非営利活動法人ＦｉｌｏＡＲＯＭＡ","province":"東京都","city":"多摩市","address":"東京都多摩市落合1丁目3-7","lat":35.62722115,"lon":139.42870271},{"name":"都立多摩総合精神保健福祉センター","province":"東京都","city":"多摩市","address":"多摩市中沢2-1-3","lat":35.61914374,"lon":139.4172724},{"name":"多摩南部地域病院","province":"東京都","city":"多摩市","address":"東京都多摩市中沢2丁目1-2","lat":35.622938,"lon":139.41525124},{"name":"桜ケ丘記念病院","province":"東京都","city":"多摩市","address":"多摩市連光寺1-1-1","lat":35.647819,"lon":139.457608},{"name":"多摩市社会福祉協議会","province":"東京都","city":"多摩市","address":"多摩市南野3-15-1多摩市総合福祉センター内","lat":35.612536,"lon":139.412677},{"name":"株式会社としまフューネス","province":"東京都","city":"多摩市","address":"東京都多摩市永山1丁目17-11","lat":35.63153767,"lon":139.44278463},{"name":"京王フェアウェルサポート株式会社","province":"東京都","city":"多摩市","address":"東京都多摩市関戸1丁目9-1","lat":35.65133548,"lon":139.44824454},{"name":"SKKフューネラルサービス","province":"東京都","city":"多摩市","address":"東京都多摩市乞田752-1","lat":35.63176248,"lon":139.4366185},{"name":"（株）としまフューネス","province":"東京都","city":"多摩市","address":"東京都多摩市永山1丁目17-11","lat":35.63153767,"lon":139.44278463},{"name":"日本医科大学多摩永山病院（休止）","province":"東京都","city":"多摩市","address":"多摩市永山1-7-1","lat":35.631138,"lon":139.446655},{"name":"多摩市社会福祉協議会","province":"東京都","city":"多摩市","address":"多摩市南野3-15-1多摩市総合福祉センター内","lat":35.61226,"lon":139.41402},{"name":"日本医科大学多摩永山病院","province":"東京都","city":"多摩市","address":"多摩市永山1-7-1","lat":35.631138,"lon":139.446655},{"name":"特定非営利活動法人多摩市身体障害者福祉協会アートひまわり","province":"東京都","city":"多摩市","address":"東京都多摩市南野3丁目15-1","lat":35.61253922,"lon":139.41269633},{"name":"特定非営利活動法人わこうど若人塾","province":"東京都","city":"多摩市","address":"東京都多摩市永山3丁目12-1","lat":35.62115014,"lon":139.44400996},{"name":"特定非営利活動法人ＦｉｌｏＡＲＯＭＡ","province":"東京都","city":"多摩市","address":"東京都多摩市落合1丁目3-7","lat":35.62722115,"lon":139.42870271},{"name":"都立多摩総合精神保健福祉センター","province":"東京都","city":"多摩市","address":"多摩市中沢2-1-3","lat":35.61914374,"lon":139.4172724},{"name":"多摩南部地域病院","province":"東京都","city":"多摩市","address":"東京都多摩市中沢2丁目1-2","lat":35.622938,"lon":139.41525124},{"name":"桜ケ丘記念病院","province":"東京都","city":"多摩市","address":"多摩市連光寺1-1-1","lat":35.647819,"lon":139.457608},{"name":"多摩市社会福祉協議会","province":"東京都","city":"多摩市","address":"多摩市南野3-15-1多摩市総合福祉センター内","lat":35.612536,"lon":139.412677},{"name":"株式会社としまフューネス","province":"東京都","city":"多摩市","address":"東京都多摩市永山1丁目17-11","lat":35.63153767,"lon":139.44278463},{"name":"京王フェアウェルサポート株式会社","province":"東京都","city":"多摩市","address":"東京都多摩市関戸1丁目9-1","lat":35.65133548,"lon":139.44824454},{"name":"SKKフューネラルサービス","province":"東京都","city":"多摩市","address":"東京都多摩市乞田752-1","lat":35.63176248,"lon":139.4366185},{"name":"（株）としまフューネス","province":"東京都","city":"多摩市","address":"東京都多摩市永山1丁目17-11","lat":35.63153767,"lon":139.44278463},{"name":"日本医科大学多摩永山病院（休止）","province":"東京都","city":"多摩市","address":"多摩市永山1-7-1","lat":35.631138,"lon":139.446655},{"name":"多摩市社会福祉協議会","province":"東京都","city":"多摩市","address":"多摩市南野3-15-1多摩市総合福祉センター内","lat":35.61226,"lon":139.41402},{"name":"日本医科大学多摩永山病院","province":"東京都","city":"多摩市","address":"多摩市永山1-7-1","lat":35.631138,"lon":139.446655},{"name":"特定非営利活動法人多摩市身体障害者福祉協会アートひまわり","province":"東京都","city":"多摩市","address":"東京都多摩市南野3丁目15-1","lat":35.61253922,"lon":139.41269633},{"name":"特定非営利活動法人わこうど若人塾","province":"東京都","city":"多摩市","address":"東京都多摩市永山3丁目12-1","lat":35.62115014,"lon":139.44400996},{"name":"特定非営利活動法人ＦｉｌｏＡＲＯＭＡ","province":"東京都","city":"多摩市","address":"東京都多摩市落合1丁目3-7","lat":35.62722115,"lon":139.42870271},{"name":"都立多摩総合精神保健福祉センター","province":"東京都","city":"多摩市","address":"多摩市中沢2-1-3","lat":35.61914374,"lon":139.4172724},{"name":"多摩南部地域病院","province":"東京都","city":"多摩市","address":"東京都多摩市中沢2丁目1-2","lat":35.622938,"lon":139.41525124},{"name":"桜ケ丘記念病院","province":"東京都","city":"多摩市","address":"多摩市連光寺1-1-1","lat":35.647819,"lon":139.457608},{"name":"多摩市社会福祉協議会","province":"東京都","city":"多摩市","address":"多摩市南野3-15-1多摩市総合福祉センター内","lat":35.612536,"lon":139.412677},{"name":"株式会社としまフューネス","province":"東京都","city":"多摩市","address":"東京都多摩市永山1丁目17-11","lat":35.63153767,"lon":139.44278463},{"name":"京王フェアウェルサポート株式会社","province":"東京都","city":"多摩市","address":"東京都多摩市関戸1丁目9-1","lat":35.65133548,"lon":139.44824454},{"name":"SKKフューネラルサービス","province":"東京都","city":"多摩市","address":"東京都多摩市乞田752-1","lat":35.63176248,"lon":139.4366185},{"name":"（株）としまフューネス","province":"東京都","city":"多摩市","address":"東京都多摩市永山1丁目17-11","lat":35.63153767,"lon":139.44278463},{"name":"日本医科大学多摩永山病院（休止）","province":"東京都","city":"多摩市","address":"多摩市永山1-7-1","lat":35.631138,"lon":139.446655},{"name":"多摩市社会福祉協議会","province":"東京都","city":"多摩市","address":"多摩市南野3-15-1多摩市総合福祉センター内","lat":35.61226,"lon":139.41402},{"name":"日本医科大学多摩永山病院","province":"東京都","city":"多摩市","address":"多摩市永山1-7-1","lat":35.631138,"lon":139.446655},{"name":"特定非営利活動法人多摩市身体障害者福祉協会アートひまわり","province":"東京都","city":"多摩市","address":"東京都多摩市南野3丁目15-1","lat":35.61253922,"lon":139.41269633},{"name":"特定非営利活動法人わこうど若人塾","province":"東京都","city":"多摩市","address":"東京都多摩市永山3丁目12-1","lat":35.62115014,"lon":139.44400996},{"name":"特定非営利活動法人ＦｉｌｏＡＲＯＭＡ","province":"東京都","city":"多摩市","address":"東京都多摩市落合1丁目3-7","lat":35.62722115,"lon":139.42870271},{"name":"桜ケ丘記念病院","province":"東京都","city":"多摩市","address":"多摩市連光寺1-1-1","lat":35.647819,"lon":139.457608},{"name":"多摩市社会福祉協議会","province":"東京都","city":"多摩市","address":"多摩市南野3-15-1多摩市総合福祉センター内","lat":35.612536,"lon":139.412677},{"name":"日本医科大学多摩永山病院（休止）","province":"東京都","city":"多摩市","address":"多摩市永山1-7-1","lat":35.631138,"lon":139.446655},{"name":"多摩市社会福祉協議会","province":"東京都","city":"多摩市","address":"多摩市南野3-15-1多摩市総合福祉センター内","lat":35.61226,"lon":139.41402},{"name":"日本医科大学多摩永山病院","province":"東京都","city":"多摩市","address":"多摩市永山1-7-1","lat":35.631138,"lon":139.446655},{"name":"特定非営利活動法人多摩市身体障害者福祉協会アートひまわり","province":"東京都","city":"多摩市","address":"東京都多摩市南野3丁目15-1","lat":35.61253922,"lon":139.41269633},{"name":"特定非営利活動法人わこうど若人塾","province":"東京都","city":"多摩市","address":"東京都多摩市永山3丁目12-1","lat":35.62115014,"lon":139.44400996},{"name":"特定非営利活動法人ＦｉｌｏＡＲＯＭＡ","province":"東京都","city":"多摩市","address":"東京都多摩市落合1丁目3-7","lat":35.62722115,"lon":139.42870271},{"name":"桜ケ丘記念病院","province":"東京都","city":"多摩市","address":"多摩市連光寺1-1-1","lat":35.647819,"lon":139.457608},{"name":"多摩市社会福祉協議会","province":"東京都","city":"多摩市","address":"多摩市南野3-15-1多摩市総合福祉センター内","lat":35.612536,"lon":139.412677},{"name":"日本医科大学多摩永山病院（休止）","province":"東京都","city":"多摩市","address":"多摩市永山1-7-1","lat":35.631138,"lon":139.446655},{"name":"多摩市社会福祉協議会","province":"東京都","city":"多摩市","address":"多摩市南野3-15-1多摩市総合福祉センター内","lat":35.61226,"lon":139.41402},{"name":"日本医科大学多摩永山病院","province":"東京都","city":"多摩市","address":"多摩市永山1-7-1","lat":35.631138,"lon":139.446655},{"name":"特定非営利活動法人多摩市身体障害者福祉協会アートひまわり","province":"東京都","city":"多摩市","address":"東京都多摩市南野3丁目15-1","lat":35.61253922,"lon":139.41269633},{"name":"特定非営利活動法人わこうど若人塾","province":"東京都","city":"多摩市","address":"東京都多摩市永山3丁目12-1","lat":35.62115014,"lon":139.44400996},{"name":"特定非営利活動法人ＦｉｌｏＡＲＯＭＡ","province":"東京都","city":"多摩市","address":"東京都多摩市落合1丁目3-7","lat":35.62722115,"lon":139.42870271},{"name":"桜ケ丘記念病院","province":"東京都","city":"多摩市","address":"多摩市連光寺1-1-1","lat":35.647819,"lon":139.457608},{"name":"多摩市社会福祉協議会","province":"東京都","city":"多摩市","address":"多摩市南野3-15-1多摩市総合福祉センター内","lat":35.612536,"lon":139.412677},{"name":"日本医科大学多摩永山病院（休止）","province":"東京都","city":"多摩市","address":"多摩市永山1-7-1","lat":35.631138,"lon":139.446655},{"name":"多摩市社会福祉協議会","province":"東京都","city":"多摩市","address":"多摩市南野3-15-1多摩市総合福祉センター内","lat":35.61226,"lon":139.41402},{"name":"日本医科大学多摩永山病院","province":"東京都","city":"多摩市","address":"多摩市永山1-7-1","lat":35.631138,"lon":139.446655},{"name":"特定非営利活動法人多摩市身体障害者福祉協会アートひまわり","province":"東京都","city":"多摩市","address":"東京都多摩市南野3丁目15-1","lat":35.61253922,"lon":139.41269633},{"name":"特定非営利活動法人わこうど若人塾","province":"東京都","city":"多摩市","address":"東京都多摩市永山3丁目12-1","lat":35.62115014,"lon":139.44400996},{"name":"特定非営利活動法人ＦｉｌｏＡＲＯＭＡ","province":"東京都","city":"多摩市","address":"東京都多摩市落合1丁目3-7","lat":35.62722115,"lon":139.42870271},{"name":"桜ケ丘記念病院","province":"東京都","city":"多摩市","address":"多摩市連光寺1-1-1","lat":35.647819,"lon":139.457608},{"name":"多摩市社会福祉協議会","province":"東京都","city":"多摩市","address":"多摩市南野3-15-1多摩市総合福祉センター内","lat":35.612536,"lon":139.412677},{"name":"日本医科大学多摩永山病院（休止）","province":"東京都","city":"多摩市","address":"多摩市永山1-7-1","lat":35.631138,"lon":139.446655},{"name":"多摩市社会福祉協議会","province":"東京都","city":"多摩市","address":"多摩市南野3-15-1多摩市総合福祉センター内","lat":35.61226,"lon":139.41402},{"name":"日本医科大学多摩永山病院","province":"東京都","city":"多摩市","address":"多摩市永山1-7-1","lat":35.631138,"lon":139.446655},{"name":"特定非営利活動法人多摩市身体障害者福祉協会アートひまわり","province":"東京都","city":"多摩市","address":"東京都多摩市南野3丁目15-1","lat":35.61253922,"lon":139.41269633},{"name":"特定非営利活動法人わこうど若人塾","province":"東京都","city":"多摩市","address":"東京都多摩市永山3丁目12-1","lat":35.62115014,"lon":139.44400996},{"name":"特定非営利活動法人ＦｉｌｏＡＲＯＭＡ","province":"東京都","city":"多摩市","address":"東京都多摩市落合1丁目3-7","lat":35.62722115,"lon":139.42870271},{"name":"桜ケ丘記念病院","province":"東京都","city":"多摩市","address":"多摩市連光寺1-1-1","lat":35.647819,"lon":139.457608},{"name":"多摩市社会福祉協議会","province":"東京都","city":"多摩市","address":"多摩市南野3-15-1多摩市総合福祉センター内","lat":35.612536,"lon":139.412677},{"name":"日本医科大学多摩永山病院（休止）","province":"東京都","city":"多摩市","address":"多摩市永山1-7-1","lat":35.631138,"lon":139.446655},{"name":"多摩市社会福祉協議会","province":"東京都","city":"多摩市","address":"多摩市南野3-15-1多摩市総合福祉センター内","lat":35.61226,"lon":139.41402},{"name":"日本医科大学多摩永山病院","province":"東京都","city":"多摩市","address":"多摩市永山1-7-1","lat":35.631138,"lon":139.446655},{"name":"特定非営利活動法人多摩市身体障害者福祉協会アートひまわり","province":"東京都","city":"多摩市","address":"東京都多摩市南野3丁目15-1","lat":35.61253922,"lon":139.41269633},{"name":"特定非営利活動法人わこうど若人塾","province":"東京都","city":"多摩市","address":"東京都多摩市永山3丁目12-1","lat":35.62115014,"lon":139.44400996},{"name":"特定非営利活動法人ＦｉｌｏＡＲＯＭＡ","province":"東京都","city":"多摩市","address":"東京都多摩市落合1丁目3-7","lat":35.62722115,"lon":139.42870271},{"name":"桜ケ丘記念病院","province":"東京都","city":"多摩市","address":"多摩市連光寺1-1-1","lat":35.647819,"lon":139.457608},{"name":"多摩市社会福祉協議会","province":"東京都","city":"多摩市","address":"多摩市南野3-15-1多摩市総合福祉センター内","lat":35.612536,"lon":139.412677},{"name":"日本医科大学多摩永山病院（休止）","province":"東京都","city":"多摩市","address":"多摩市永山1-7-1","lat":35.631138,"lon":139.446655},{"name":"多摩市社会福祉協議会","province":"東京都","city":"多摩市","address":"多摩市南野3-15-1多摩市総合福祉センター内","lat":35.61226,"lon":139.41402},{"name":"日本医科大学多摩永山病院","province":"東京都","city":"多摩市","address":"多摩市永山1-7-1","lat":35.631138,"lon":139.446655},{"name":"特定非営利活動法人多摩市身体障害者福祉協会アートひまわり","province":"東京都","city":"多摩市","address":"東京都多摩市南野3丁目15-1","lat":35.61253922,"lon":139.41269633},{"name":"特定非営利活動法人わこうど若人塾","province":"東京都","city":"多摩市","address":"東京都多摩市永山3丁目12-1","lat":35.62115014,"lon":139.44400996},{"name":"特定非営利活動法人ＦｉｌｏＡＲＯＭＡ","province":"東京都","city":"多摩市","address":"東京都多摩市落合1丁目3-7","lat":35.62722115,"lon":139.42870271},{"name":"桜ケ丘記念病院","province":"東京都","city":"多摩市","address":"多摩市連光寺1-1-1","lat":35.647819,"lon":139.457608},{"name":"多摩市社会福祉協議会","province":"東京都","city":"多摩市","address":"多摩市南野3-15-1多摩市総合福祉センター内","lat":35.612536,"lon":139.412677},{"name":"日本医科大学多摩永山病院（休止）","province":"東京都","city":"多摩市","address":"多摩市永山1-7-1","lat":35.631138,"lon":139.446655},{"name":"多摩市社会福祉協議会","province":"東京都","city":"多摩市","address":"多摩市南野3-15-1多摩市総合福祉センター内","lat":35.61226,"lon":139.41402},{"name":"日本医科大学多摩永山病院","province":"東京都","city":"多摩市","address":"多摩市永山1-7-1","lat":35.631138,"lon":139.446655},{"name":"特定非営利活動法人多摩市身体障害者福祉協会アートひまわり","province":"東京都","city":"多摩市","address":"東京都多摩市南野3丁目15-1","lat":35.61253922,"lon":139.41269633},{"name":"特定非営利活動法人わこうど若人塾","province":"東京都","city":"多摩市","address":"東京都多摩市永山3丁目12-1","lat":35.62115014,"lon":139.44400996},{"name":"特定非営利活動法人ＦｉｌｏＡＲＯＭＡ","province":"東京都","city":"多摩市","address":"東京都多摩市落合1丁目3-7","lat":35.62722115,"lon":139.42870271},{"name":"桜ケ丘記念病院","province":"東京都","city":"多摩市","address":"多摩市連光寺1-1-1","lat":35.647819,"lon":139.457608},{"name":"多摩市社会福祉協議会","province":"東京都","city":"多摩市","address":"多摩市南野3-15-1多摩市総合福祉センター内","lat":35.612536,"lon":139.412677},{"name":"日本医科大学多摩永山病院（休止）","province":"東京都","city":"多摩市","address":"多摩市永山1-7-1","lat":35.631138,"lon":139.446655},{"name":"多摩市社会福祉協議会","province":"東京都","city":"多摩市","address":"多摩市南野3-15-1多摩市総合福祉センター内","lat":35.61226,"lon":139.41402},{"name":"日本医科大学多摩永山病院","province":"東京都","city":"多摩市","address":"多摩市永山1-7-1","lat":35.631138,"lon":139.446655},{"name":"特定非営利活動法人多摩市身体障害者福祉協会アートひまわり","province":"東京都","city":"多摩市","address":"東京都多摩市南野3丁目15-1","lat":35.61253922,"lon":139.41269633},{"name":"特定非営利活動法人わこうど若人塾","province":"東京都","city":"多摩市","address":"東京都多摩市永山3丁目12-1","lat":35.62115014,"lon":139.44400996},{"name":"特定非営利活動法人ＦｉｌｏＡＲＯＭＡ","province":"東京都","city":"多摩市","address":"東京都多摩市落合1丁目3-7","lat":35.62722115,"lon":139.42870271},{"name":"桜ケ丘記念病院","province":"東京都","city":"多摩市","address":"多摩市連光寺1-1-1","lat":35.647819,"lon":139.457608},{"name":"多摩市社会福祉協議会","province":"東京都","city":"多摩市","address":"多摩市南野3-15-1多摩市総合福祉センター内","lat":35.612536,"lon":139.412677},{"name":"日本医科大学多摩永山病院（休止）","province":"東京都","city":"多摩市","address":"多摩市永山1-7-1","lat":35.631138,"lon":139.446655},{"name":"多摩市社会福祉協議会","province":"東京都","city":"多摩市","address":"多摩市南野3-15-1多摩市総合福祉センター内","lat":35.61226,"lon":139.41402},{"name":"日本医科大学多摩永山病院","province":"東京都","city":"多摩市","address":"多摩市永山1-7-1","lat":35.631138,"lon":139.446655},{"name":"特定非営利活動法人多摩市身体障害者福祉協会アートひまわり","province":"東京都","city":"多摩市","address":"東京都多摩市南野3丁目15-1","lat":35.61253922,"lon":139.41269633},{"name":"特定非営利活動法人わこうど若人塾","province":"東京都","city":"多摩市","address":"東京都多摩市永山3丁目12-1","lat":35.62115014,"lon":139.44400996},{"name":"特定非営利活動法人ＦｉｌｏＡＲＯＭＡ","province":"東京都","city":"多摩市","address":"東京都多摩市落合1丁目3-7","lat":35.62722115,"lon":139.42870271},{"name":"桜ケ丘記念病院","province":"東京都","city":"多摩市","address":"多摩市連光寺1-1-1","lat":35.647819,"lon":139.457608},{"name":"多摩市社会福祉協議会","province":"東京都","city":"多摩市","address":"多摩市南野3-15-1多摩市総合福祉センター内","lat":35.612536,"lon":139.412677},{"name":"日本医科大学多摩永山病院（休止）","province":"東京都","city":"多摩市","address":"多摩市永山1-7-1","lat":35.631138,"lon":139.446655},{"name":"多摩市社会福祉協議会","province":"東京都","city":"多摩市","address":"多摩市南野3-15-1多摩市総合福祉センター内","lat":35.61226,"lon":139.41402},{"name":"日本医科大学多摩永山病院","province":"東京都","city":"多摩市","address":"多摩市永山1-7-1","lat":35.631138,"lon":139.446655},{"name":"特定非営利活動法人多摩市身体障害者福祉協会アートひまわり","province":"東京都","city":"多摩市","address":"東京都多摩市南野3丁目15-1","lat":35.61253922,"lon":139.41269633},{"name":"特定非営利活動法人わこうど若人塾","province":"東京都","city":"多摩市","address":"東京都多摩市永山3丁目12-1","lat":35.62115014,"lon":139.44400996},{"name":"特定非営利活動法人ＦｉｌｏＡＲＯＭＡ","province":"東京都","city":"多摩市","address":"東京都多摩市落合1丁目3-7","lat":35.62722115,"lon":139.42870271},{"name":"桜ケ丘記念病院","province":"東京都","city":"多摩市","address":"多摩市連光寺1-1-1","lat":35.647819,"lon":139.457608},{"name":"多摩市社会福祉協議会","province":"東京都","city":"多摩市","address":"多摩市南野3-15-1多摩市総合福祉センター内","lat":35.612536,"lon":139.412677},{"name":"日本医科大学多摩永山病院（休止）","province":"東京都","city":"多摩市","address":"多摩市永山1-7-1","lat":35.631138,"lon":139.446655},{"name":"多摩市社会福祉協議会","province":"東京都","city":"多摩市","address":"多摩市南野3-15-1多摩市総合福祉センター内","lat":35.61226,"lon":139.41402},{"name":"日本医科大学多摩永山病院","province":"東京都","city":"多摩市","address":"多摩市永山1-7-1","lat":35.631138,"lon":139.446655},{"name":"特定非営利活動法人多摩市身体障害者福祉協会アートひまわり","province":"東京都","city":"多摩市","address":"東京都多摩市南野3丁目15-1","lat":35.61253922,"lon":139.41269633},{"name":"特定非営利活動法人わこうど若人塾","province":"東京都","city":"多摩市","address":"東京都多摩市永山3丁目12-1","lat":35.62115014,"lon":139.44400996},{"name":"特定非営利活動法人ＦｉｌｏＡＲＯＭＡ","province":"東京都","city":"多摩市","address":"東京都多摩市落合1丁目3-7","lat":35.62722115,"lon":139.42870271},{"name":"桜ケ丘記念病院","province":"東京都","city":"多摩市","address":"多摩市連光寺1-1-1","lat":35.647819,"lon":139.457608},{"name":"多摩市社会福祉協議会","province":"東京都","city":"多摩市","address":"多摩市南野3-15-1多摩市総合福祉センター内","lat":35.612536,"lon":139.412677},{"name":"日本医科大学多摩永山病院（休止）","province":"東京都","city":"多摩市","address":"多摩市永山1-7-1","lat":35.631138,"lon":139.446655},{"name":"多摩市社会福祉協議会","province":"東京都","city":"多摩市","address":"多摩市南野3-15-1多摩市総合福祉センター内","lat":35.61226,"lon":139.41402},{"name":"日本医科大学多摩永山病院","province":"東京都","city":"多摩市","address":"多摩市永山1-7-1","lat":35.631138,"lon":139.446655},{"name":"特定非営利活動法人多摩市身体障害者福祉協会アートひまわり","province":"東京都","city":"多摩市","address":"東京都多摩市南野3丁目15-1","lat":35.61253922,"lon":139.41269633},{"name":"特定非営利活動法人わこうど若人塾","province":"東京都","city":"多摩市","address":"東京都多摩市永山3丁目12-1","lat":35.62115014,"lon":139.44400996},{"name":"特定非営利活動法人ＦｉｌｏＡＲＯＭＡ","province":"東京都","city":"多摩市","address":"東京都多摩市落合1丁目3-7","lat":35.62722115,"lon":139.42870271},{"name":"桜ケ丘記念病院","province":"東京都","city":"多摩市","address":"多摩市連光寺1-1-1","lat":35.647819,"lon":139.457608},{"name":"多摩市社会福祉協議会","province":"東京都","city":"多摩市","address":"多摩市南野3-15-1多摩市総合福祉センター内","lat":35.612536,"lon":139.412677},{"name":"日本医科大学多摩永山病院（休止）","province":"東京都","city":"多摩市","address":"多摩市永山1-7-1","lat":35.631138,"lon":139.446655},{"name":"多摩市社会福祉協議会","province":"東京都","city":"多摩市","address":"多摩市南野3-15-1多摩市総合福祉センター内","lat":35.61226,"lon":139.41402},{"name":"日本医科大学多摩永山病院","province":"東京都","city":"多摩市","address":"多摩市永山1-7-1","lat":35.631138,"lon":139.446655},{"name":"特定非営利活動法人多摩市身体障害者福祉協会アートひまわり","province":"東京都","city":"多摩市","address":"東京都多摩市南野3丁目15-1","lat":35.61253922,"lon":139.41269633},{"name":"特定非営利活動法人わこうど若人塾","province":"東京都","city":"多摩市","address":"東京都多摩市永山3丁目12-1","lat":35.62115014,"lon":139.44400996},{"name":"特定非営利活動法人ＦｉｌｏＡＲＯＭＡ","province":"東京都","city":"多摩市","address":"東京都多摩市落合1丁目3-7","lat":35.62722115,"lon":139.42870271},{"name":"桜ケ丘記念病院","province":"東京都","city":"多摩市","address":"多摩市連光寺1-1-1","lat":35.647819,"lon":139.457608},{"name":"多摩市社会福祉協議会","province":"東京都","city":"多摩市","address":"多摩市南野3-15-1多摩市総合福祉センター内","lat":35.612536,"lon":139.412677},{"name":"日本医科大学多摩永山病院（休止）","province":"東京都","city":"多摩市","address":"多摩市永山1-7-1","lat":35.631138,"lon":139.446655},{"name":"多摩市社会福祉協議会","province":"東京都","city":"多摩市","address":"多摩市南野3-15-1多摩市総合福祉センター内","lat":35.61226,"lon":139.41402},{"name":"日本医科大学多摩永山病院","province":"東京都","city":"多摩市","address":"多摩市永山1-7-1","lat":35.631138,"lon":139.446655},{"name":"特定非営利活動法人多摩市身体障害者福祉協会アートひまわり","province":"東京都","city":"多摩市","address":"東京都多摩市南野3丁目15-1","lat":35.61253922,"lon":139.41269633},{"name":"特定非営利活動法人わこうど若人塾","province":"東京都","city":"多摩市","address":"東京都多摩市永山3丁目12-1","lat":35.62115014,"lon":139.44400996},{"name":"特定非営利活動法人ＦｉｌｏＡＲＯＭＡ","province":"東京都","city":"多摩市","address":"東京都多摩市落合1丁目3-7","lat":35.62722115,"lon":139.42870271},{"name":"桜ケ丘記念病院","province":"東京都","city":"多摩市","address":"多摩市連光寺1-1-1","lat":35.647819,"lon":139.457608},{"name":"多摩市社会福祉協議会","province":"東京都","city":"多摩市","address":"多摩市南野3-15-1多摩市総合福祉センター内","lat":35.612536,"lon":139.412677},{"name":"日本医科大学多摩永山病院（休止）","province":"東京都","city":"多摩市","address":"多摩市永山1-7-1","lat":35.631138,"lon":139.446655},{"name":"多摩市社会福祉協議会","province":"東京都","city":"多摩市","address":"多摩市南野3-15-1多摩市総合福祉センター内","lat":35.61226,"lon":139.41402},{"name":"日本医科大学多摩永山病院","province":"東京都","city":"多摩市","address":"多摩市永山1-7-1","lat":35.631138,"lon":139.446655},{"name":"特定非営利活動法人多摩市身体障害者福祉協会アートひまわり","province":"東京都","city":"多摩市","address":"東京都多摩市南野3丁目15-1","lat":35.61253922,"lon":139.41269633},{"name":"特定非営利活動法人わこうど若人塾","province":"東京都","city":"多摩市","address":"東京都多摩市永山3丁目12-1","lat":35.62115014,"lon":139.44400996},{"name":"特定非営利活動法人ＦｉｌｏＡＲＯＭＡ","province":"東京都","city":"多摩市","address":"東京都多摩市落合1丁目3-7","lat":35.62722115,"lon":139.42870271},{"name":"桜ケ丘記念病院","province":"東京都","city":"多摩市","address":"多摩市連光寺1-1-1","lat":35.647819,"lon":139.457608},{"name":"多摩市社会福祉協議会","province":"東京都","city":"多摩市","address":"多摩市南野3-15-1多摩市総合福祉センター内","lat":35.612536,"lon":139.412677},{"name":"日本医科大学多摩永山病院（休止）","province":"東京都","city":"多摩市","address":"多摩市永山1-7-1","lat":35.631138,"lon":139.446655},{"name":"多摩市社会福祉協議会","province":"東京都","city":"多摩市","address":"多摩市南野3-15-1多摩市総合福祉センター内","lat":35.61226,"lon":139.41402},{"name":"日本医科大学多摩永山病院","province":"東京都","city":"多摩市","address":"多摩市永山1-7-1","lat":35.631138,"lon":139.446655},{"name":"特定非営利活動法人多摩市身体障害者福祉協会アートひまわり","province":"東京都","city":"多摩市","address":"東京都多摩市南野3丁目15-1","lat":35.61253922,"lon":139.41269633},{"name":"特定非営利活動法人わこうど若人塾","province":"東京都","city":"多摩市","address":"東京都多摩市永山3丁目12-1","lat":35.62115014,"lon":139.44400996},{"name":"特定非営利活動法人ＦｉｌｏＡＲＯＭＡ","province":"東京都","city":"多摩市","address":"東京都多摩市落合1丁目3-7","lat":35.62722115,"lon":139.42870271},{"name":"桜ケ丘記念病院","province":"東京都","city":"多摩市","address":"多摩市連光寺1-1-1","lat":35.647819,"lon":139.457608},{"name":"多摩市社会福祉協議会","province":"東京都","city":"多摩市","address":"多摩市南野3-15-1多摩市総合福祉センター内","lat":35.612536,"lon":139.412677},{"name":"日本医科大学多摩永山病院（休止）","province":"東京都","city":"多摩市","address":"多摩市永山1-7-1","lat":35.631138,"lon":139.446655},{"name":"多摩市社会福祉協議会","province":"東京都","city":"多摩市","address":"多摩市南野3-15-1多摩市総合福祉センター内","lat":35.61226,"lon":139.41402},{"name":"日本医科大学多摩永山病院","province":"東京都","city":"多摩市","address":"多摩市永山1-7-1","lat":35.631138,"lon":139.446655},{"name":"特定非営利活動法人多摩市身体障害者福祉協会アートひまわり","province":"東京都","city":"多摩市","address":"東京都多摩市南野3丁目15-1","lat":35.61253922,"lon":139.41269633},{"name":"特定非営利活動法人わこうど若人塾","province":"東京都","city":"多摩市","address":"東京都多摩市永山3丁目12-1","lat":35.62115014,"lon":139.44400996},{"name":"特定非営利活動法人ＦｉｌｏＡＲＯＭＡ","province":"東京都","city":"多摩市","address":"東京都多摩市落合1丁目3-7","lat":35.62722115,"lon":139.42870271},{"name":"桜ケ丘記念病院","province":"東京都","city":"多摩市","address":"多摩市連光寺1-1-1","lat":35.647819,"lon":139.457608},{"name":"多摩市社会福祉協議会","province":"東京都","city":"多摩市","address":"多摩市南野3-15-1多摩市総合福祉センター内","lat":35.612536,"lon":139.412677},{"name":"日本医科大学多摩永山病院（休止）","province":"東京都","city":"多摩市","address":"多摩市永山1-7-1","lat":35.631138,"lon":139.446655},{"name":"多摩市社会福祉協議会","province":"東京都","city":"多摩市","address":"多摩市南野3-15-1多摩市総合福祉センター内","lat":35.61226,"lon":139.41402},{"name":"日本医科大学多摩永山病院","province":"東京都","city":"多摩市","address":"多摩市永山1-7-1","lat":35.631138,"lon":139.446655},{"name":"特定非営利活動法人多摩市身体障害者福祉協会アートひまわり","province":"東京都","city":"多摩市","address":"東京都多摩市南野3丁目15-1","lat":35.61253922,"lon":139.41269633},{"name":"特定非営利活動法人わこうど若人塾","province":"東京都","city":"多摩市","address":"東京都多摩市永山3丁目12-1","lat":35.62115014,"lon":139.44400996},{"name":"特定非営利活動法人ＦｉｌｏＡＲＯＭＡ","province":"東京都","city":"多摩市","address":"東京都多摩市落合1丁目3-7","lat":35.62722115,"lon":139.42870271},{"name":"桜ケ丘記念病院","province":"東京都","city":"多摩市","address":"多摩市連光寺1-1-1","lat":35.647819,"lon":139.457608},{"name":"多摩市社会福祉協議会","province":"東京都","city":"多摩市","address":"多摩市南野3-15-1多摩市総合福祉センター内","lat":35.612536,"lon":139.412677},{"name":"日本医科大学多摩永山病院（休止）","province":"東京都","city":"多摩市","address":"多摩市永山1-7-1","lat":35.631138,"lon":139.446655},{"name":"多摩市社会福祉協議会","province":"東京都","city":"多摩市","address":"多摩市南野3-15-1多摩市総合福祉センター内","lat":35.61226,"lon":139.41402},{"name":"日本医科大学多摩永山病院","province":"東京都","city":"多摩市","address":"多摩市永山1-7-1","lat":35.631138,"lon":139.446655},{"name":"特定非営利活動法人多摩市身体障害者福祉協会アートひまわり","province":"東京都","city":"多摩市","address":"東京都多摩市南野3丁目15-1","lat":35.61253922,"lon":139.41269633},{"name":"特定非営利活動法人わこうど若人塾","province":"東京都","city":"多摩市","address":"東京都多摩市永山3丁目12-1","lat":35.62115014,"lon":139.44400996},{"name":"特定非営利活動法人ＦｉｌｏＡＲＯＭＡ","province":"東京都","city":"多摩市","address":"東京都多摩市落合1丁目3-7","lat":35.62722115,"lon":139.42870271},{"name":"桜ケ丘記念病院","province":"東京都","city":"多摩市","address":"多摩市連光寺1-1-1","lat":35.647819,"lon":139.457608},{"name":"多摩市社会福祉協議会","province":"東京都","city":"多摩市","address":"多摩市南野3-15-1多摩市総合福祉センター内","lat":35.612536,"lon":139.412677},{"name":"日本医科大学多摩永山病院（休止）","province":"東京都","city":"多摩市","address":"多摩市永山1-7-1","lat":35.631138,"lon":139.446655},{"name":"多摩市社会福祉協議会","province":"東京都","city":"多摩市","address":"多摩市南野3-15-1多摩市総合福祉センター内","lat":35.61226,"lon":139.41402},{"name":"日本医科大学多摩永山病院","province":"東京都","city":"多摩市","address":"多摩市永山1-7-1","lat":35.631138,"lon":139.446655},{"name":"特定非営利活動法人多摩市身体障害者福祉協会アートひまわり","province":"東京都","city":"多摩市","address":"東京都多摩市南野3丁目15-1","lat":35.61253922,"lon":139.41269633},{"name":"特定非営利活動法人わこうど若人塾","province":"東京都","city":"多摩市","address":"東京都多摩市永山3丁目12-1","lat":35.62115014,"lon":139.44400996},{"name":"特定非営利活動法人ＦｉｌｏＡＲＯＭＡ","province":"東京都","city":"多摩市","address":"東京都多摩市落合1丁目3-7","lat":35.62722115,"lon":139.42870271},{"name":"桜ケ丘記念病院","province":"東京都","city":"多摩市","address":"多摩市連光寺1-1-1","lat":35.647819,"lon":139.457608},{"name":"多摩市社会福祉協議会","province":"東京都","city":"多摩市","address":"多摩市南野3-15-1多摩市総合福祉センター内","lat":35.612536,"lon":139.412677},{"name":"日本医科大学多摩永山病院（休止）","province":"東京都","city":"多摩市","address":"多摩市永山1-7-1","lat":35.631138,"lon":139.446655},{"name":"多摩市社会福祉協議会","province":"東京都","city":"多摩市","address":"多摩市南野3-15-1多摩市総合福祉センター内","lat":35.61226,"lon":139.41402},{"name":"日本医科大学多摩永山病院","province":"東京都","city":"多摩市","address":"多摩市永山1-7-1","lat":35.631138,"lon":139.446655},{"name":"特定非営利活動法人多摩市身体障害者福祉協会アートひまわり","province":"東京都","city":"多摩市","address":"東京都多摩市南野3丁目15-1","lat":35.61253922,"lon":139.41269633},{"name":"特定非営利活動法人わこうど若人塾","province":"東京都","city":"多摩市","address":"東京都多摩市永山3丁目12-1","lat":35.62115014,"lon":139.44400996},{"name":"特定非営利活動法人ＦｉｌｏＡＲＯＭＡ","province":"東京都","city":"多摩市","address":"東京都多摩市落合1丁目3-7","lat":35.62722115,"lon":139.42870271},{"name":"桜ケ丘記念病院","province":"東京都","city":"多摩市","address":"多摩市連光寺1-1-1","lat":35.647819,"lon":139.457608},{"name":"多摩市社会福祉協議会","province":"東京都","city":"多摩市","address":"多摩市南野3-15-1多摩市総合福祉センター内","lat":35.612536,"lon":139.412677},{"name":"日本医科大学多摩永山病院（休止）","province":"東京都","city":"多摩市","address":"多摩市永山1-7-1","lat":35.631138,"lon":139.446655},{"name":"多摩市社会福祉協議会","province":"東京都","city":"多摩市","address":"多摩市南野3-15-1多摩市総合福祉センター内","lat":35.61226,"lon":139.41402},{"name":"日本医科大学多摩永山病院","province":"東京都","city":"多摩市","address":"多摩市永山1-7-1","lat":35.631138,"lon":139.446655},{"name":"特定非営利活動法人多摩市身体障害者福祉協会アートひまわり","province":"東京都","city":"多摩市","address":"東京都多摩市南野3丁目15-1","lat":35.61253922,"lon":139.41269633},{"name":"特定非営利活動法人わこうど若人塾","province":"東京都","city":"多摩市","address":"東京都多摩市永山3丁目12-1","lat":35.62115014,"lon":139.44400996},{"name":"特定非営利活動法人ＦｉｌｏＡＲＯＭＡ","province":"東京都","city":"多摩市","address":"東京都多摩市落合1丁目3-7","lat":35.62722115,"lon":139.42870271},{"name":"桜ケ丘記念病院","province":"東京都","city":"多摩市","address":"多摩市連光寺1-1-1","lat":35.647819,"lon":139.457608},{"name":"多摩市社会福祉協議会","province":"東京都","city":"多摩市","address":"多摩市南野3-15-1多摩市総合福祉センター内","lat":35.612536,"lon":139.412677},{"name":"日本医科大学多摩永山病院（休止）","province":"東京都","city":"多摩市","address":"多摩市永山1-7-1","lat":35.631138,"lon":139.446655},{"name":"多摩市社会福祉協議会","province":"東京都","city":"多摩市","address":"多摩市南野3-15-1多摩市総合福祉センター内","lat":35.61226,"lon":139.41402},{"name":"日本医科大学多摩永山病院","province":"東京都","city":"多摩市","address":"多摩市永山1-7-1","lat":35.631138,"lon":139.446655},{"name":"特定非営利活動法人多摩市身体障害者福祉協会アートひまわり","province":"東京都","city":"多摩市","address":"東京都多摩市南野3丁目15-1","lat":35.61253922,"lon":139.41269633},{"name":"特定非営利活動法人わこうど若人塾","province":"東京都","city":"多摩市","address":"東京都多摩市永山3丁目12-1","lat":35.62115014,"lon":139.44400996},{"name":"特定非営利活動法人ＦｉｌｏＡＲＯＭＡ","province":"東京都","city":"多摩市","address":"東京都多摩市落合1丁目3-7","lat":35.62722115,"lon":139.42870271},{"name":"桜ケ丘記念病院","province":"東京都","city":"多摩市","address":"多摩市連光寺1-1-1","lat":35.647819,"lon":139.457608},{"name":"多摩市社会福祉協議会","province":"東京都","city":"多摩市","address":"多摩市南野3-15-1多摩市総合福祉センター内","lat":35.612536,"lon":139.412677},{"name":"日本医科大学多摩永山病院（休止）","province":"東京都","city":"多摩市","address":"多摩市永山1-7-1","lat":35.631138,"lon":139.446655},{"name":"多摩市社会福祉協議会","province":"東京都","city":"多摩市","address":"多摩市南野3-15-1多摩市総合福祉センター内","lat":35.61226,"lon":139.41402},{"name":"日本医科大学多摩永山病院","province":"東京都","city":"多摩市","address":"多摩市永山1-7-1","lat":35.631138,"lon":139.446655},{"name":"桜ケ丘記念病院","province":"東京都","city":"多摩市","address":"多摩市連光寺1-1-1","lat":35.647819,"lon":139.457608},{"name":"多摩市社会福祉協議会","province":"東京都","city":"多摩市","address":"多摩市南野3-15-1多摩市総合福祉センター内","lat":35.612536,"lon":139.412677},{"name":"日本医科大学多摩永山病院（休止）","province":"東京都","city":"多摩市","address":"多摩市永山1-7-1","lat":35.631138,"lon":139.446655},{"name":"多摩市社会福祉協議会","province":"東京都","city":"多摩市","address":"多摩市南野3-15-1多摩市総合福祉センター内","lat":35.61226,"lon":139.41402},{"name":"日本医科大学多摩永山病院","province":"東京都","city":"多摩市","address":"多摩市永山1-7-1","lat":35.631138,"lon":139.446655},{"name":"桜ケ丘記念病院","province":"東京都","city":"多摩市","address":"多摩市連光寺1-1-1","lat":35.647819,"lon":139.457608},{"name":"多摩市社会福祉協議会","province":"東京都","city":"多摩市","address":"多摩市南野3-15-1多摩市総合福祉センター内","lat":35.612536,"lon":139.412677},{"name":"日本医科大学多摩永山病院（休止）","province":"東京都","city":"多摩市","address":"多摩市永山1-7-1","lat":35.631138,"lon":139.446655},{"name":"多摩市社会福祉協議会","province":"東京都","city":"多摩市","address":"多摩市南野3-15-1多摩市総合福祉センター内","lat":35.61226,"lon":139.41402},{"name":"日本医科大学多摩永山病院","province":"東京都","city":"多摩市","address":"多摩市永山1-7-1","lat":35.631138,"lon":139.446655},{"name":"桜ケ丘記念病院","province":"東京都","city":"多摩市","address":"多摩市連光寺1-1-1","lat":35.647819,"lon":139.457608},{"name":"多摩市社会福祉協議会","province":"東京都","city":"多摩市","address":"多摩市南野3-15-1多摩市総合福祉センター内","lat":35.612536,"lon":139.412677},{"name":"日本医科大学多摩永山病院（休止）","province":"東京都","city":"多摩市","address":"多摩市永山1-7-1","lat":35.631138,"lon":139.446655},{"name":"多摩市社会福祉協議会","province":"東京都","city":"多摩市","address":"多摩市南野3-15-1多摩市総合福祉センター内","lat":35.61226,"lon":139.41402},{"name":"日本医科大学多摩永山病院","province":"東京都","city":"多摩市","address":"多摩市永山1-7-1","lat":35.631138,"lon":139.446655},{"name":"桜ケ丘記念病院","province":"東京都","city":"多摩市","address":"多摩市連光寺1-1-1","lat":35.647819,"lon":139.457608},{"name":"多摩市社会福祉協議会","province":"東京都","city":"多摩市","address":"多摩市南野3-15-1多摩市総合福祉センター内","lat":35.612536,"lon":139.412677},{"name":"日本医科大学多摩永山病院（休止）","province":"東京都","city":"多摩市","address":"多摩市永山1-7-1","lat":35.631138,"lon":139.446655},{"name":"多摩市社会福祉協議会","province":"東京都","city":"多摩市","address":"多摩市南野3-15-1多摩市総合福祉センター内","lat":35.61226,"lon":139.41402},{"name":"日本医科大学多摩永山病院","province":"東京都","city":"多摩市","address":"多摩市永山1-7-1","lat":35.631138,"lon":139.446655},{"name":"桜ケ丘記念病院","province":"東京都","city":"多摩市","address":"多摩市連光寺1-1-1","lat":35.647819,"lon":139.457608},{"name":"多摩市社会福祉協議会","province":"東京都","city":"多摩市","address":"多摩市南野3-15-1多摩市総合福祉センター内","lat":35.612536,"lon":139.412677},{"name":"日本医科大学多摩永山病院（休止）","province":"東京都","city":"多摩市","address":"多摩市永山1-7-1","lat":35.631138,"lon":139.446655},{"name":"多摩市社会福祉協議会","province":"東京都","city":"多摩市","address":"多摩市南野3-15-1多摩市総合福祉センター内","lat":35.61226,"lon":139.41402},{"name":"日本医科大学多摩永山病院","province":"東京都","city":"多摩市","address":"多摩市永山1-7-1","lat":35.631138,"lon":139.446655},{"name":"桜ケ丘記念病院","province":"東京都","city":"多摩市","address":"多摩市連光寺1-1-1","lat":35.647819,"lon":139.457608},{"name":"多摩市社会福祉協議会","province":"東京都","city":"多摩市","address":"多摩市南野3-15-1多摩市総合福祉センター内","lat":35.612536,"lon":139.412677},{"name":"日本医科大学多摩永山病院（休止）","province":"東京都","city":"多摩市","address":"多摩市永山1-7-1","lat":35.631138,"lon":139.446655},{"name":"多摩市社会福祉協議会","province":"東京都","city":"多摩市","address":"多摩市南野3-15-1多摩市総合福祉センター内","lat":35.61226,"lon":139.41402},{"name":"日本医科大学多摩永山病院","province":"東京都","city":"多摩市","address":"多摩市永山1-7-1","lat":35.631138,"lon":139.446655},{"name":"桜ケ丘記念病院","province":"東京都","city":"多摩市","address":"多摩市連光寺1-1-1","lat":35.647819,"lon":139.457608},{"name":"多摩市社会福祉協議会","province":"東京都","city":"多摩市","address":"多摩市南野3-15-1多摩市総合福祉センター内","lat":35.612536,"lon":139.412677},{"name":"日本医科大学多摩永山病院（休止）","province":"東京都","city":"多摩市","address":"多摩市永山1-7-1","lat":35.631138,"lon":139.446655},{"name":"多摩市社会福祉協議会","province":"東京都","city":"多摩市","address":"多摩市南野3-15-1多摩市総合福祉センター内","lat":35.61226,"lon":139.41402},{"name":"日本医科大学多摩永山病院","province":"東京都","city":"多摩市","address":"多摩市永山1-7-1","lat":35.631138,"lon":139.446655},{"name":"桜ケ丘記念病院","province":"東京都","city":"多摩市","address":"多摩市連光寺1-1-1","lat":35.647819,"lon":139.457608},{"name":"多摩市社会福祉協議会","province":"東京都","city":"多摩市","address":"多摩市南野3-15-1多摩市総合福祉センター内","lat":35.612536,"lon":139.412677},{"name":"日本医科大学多摩永山病院（休止）","province":"東京都","city":"多摩市","address":"多摩市永山1-7-1","lat":35.631138,"lon":139.446655},{"name":"多摩市社会福祉協議会","province":"東京都","city":"多摩市","address":"多摩市南野3-15-1多摩市総合福祉センター内","lat":35.61226,"lon":139.41402},{"name":"日本医科大学多摩永山病院","province":"東京都","city":"多摩市","address":"多摩市永山1-7-1","lat":35.631138,"lon":139.446655},{"name":"桜ケ丘記念病院","province":"東京都","city":"多摩市","address":"多摩市連光寺1-1-1","lat":35.647819,"lon":139.457608},{"name":"多摩市社会福祉協議会","province":"東京都","city":"多摩市","address":"多摩市南野3-15-1多摩市総合福祉センター内","lat":35.612536,"lon":139.412677},{"name":"日本医科大学多摩永山病院（休止）","province":"東京都","city":"多摩市","address":"多摩市永山1-7-1","lat":35.631138,"lon":139.446655},{"name":"多摩市社会福祉協議会","province":"東京都","city":"多摩市","address":"多摩市南野3-15-1多摩市総合福祉センター内","lat":35.61226,"lon":139.41402},{"name":"日本医科大学多摩永山病院","province":"東京都","city":"多摩市","address":"多摩市永山1-7-1","lat":35.631138,"lon":139.446655},{"name":"桜ケ丘記念病院","province":"東京都","city":"多摩市","address":"多摩市連光寺1-1-1","lat":35.647819,"lon":139.457608},{"name":"多摩市社会福祉協議会","province":"東京都","city":"多摩市","address":"多摩市南野3-15-1多摩市総合福祉センター内","lat":35.612536,"lon":139.412677},{"name":"日本医科大学多摩永山病院（休止）","province":"東京都","city":"多摩市","address":"多摩市永山1-7-1","lat":35.631138,"lon":139.446655},{"name":"多摩市社会福祉協議会","province":"東京都","city":"多摩市","address":"多摩市南野3-15-1多摩市総合福祉センター内","lat":35.61226,"lon":139.41402},{"name":"日本医科大学多摩永山病院","province":"東京都","city":"多摩市","address":"多摩市永山1-7-1","lat":35.631138,"lon":139.446655},{"name":"桜ケ丘記念病院","province":"東京都","city":"多摩市","address":"多摩市連光寺1-1-1","lat":35.647819,"lon":139.457608},{"name":"多摩市社会福祉協議会","province":"東京都","city":"多摩市","address":"多摩市南野3-15-1多摩市総合福祉センター内","lat":35.612536,"lon":139.412677},{"name":"日本医科大学多摩永山病院（休止）","province":"東京都","city":"多摩市","address":"多摩市永山1-7-1","lat":35.631138,"lon":139.446655},{"name":"多摩市社会福祉協議会","province":"東京都","city":"多摩市","address":"多摩市南野3-15-1多摩市総合福祉センター内","lat":35.61226,"lon":139.41402},{"name":"日本医科大学多摩永山病院","province":"東京都","city":"多摩市","address":"多摩市永山1-7-1","lat":35.631138,"lon":139.446655},{"name":"桜ケ丘記念病院","province":"東京都","city":"多摩市","address":"多摩市連光寺1-1-1","lat":35.647819,"lon":139.457608},{"name":"多摩市社会福祉協議会","province":"東京都","city":"多摩市","address":"多摩市南野3-15-1多摩市総合福祉センター内","lat":35.612536,"lon":139.412677},{"name":"日本医科大学多摩永山病院（休止）","province":"東京都","city":"多摩市","address":"多摩市永山1-7-1","lat":35.631138,"lon":139.446655},{"name":"多摩市社会福祉協議会","province":"東京都","city":"多摩市","address":"多摩市南野3-15-1多摩市総合福祉センター内","lat":35.61226,"lon":139.41402},{"name":"日本医科大学多摩永山病院","province":"東京都","city":"多摩市","address":"多摩市永山1-7-1","lat":35.631138,"lon":139.446655},{"name":"桜ケ丘記念病院","province":"東京都","city":"多摩市","address":"多摩市連光寺1-1-1","lat":35.647819,"lon":139.457608},{"name":"多摩市社会福祉協議会","province":"東京都","city":"多摩市","address":"多摩市南野3-15-1多摩市総合福祉センター内","lat":35.612536,"lon":139.412677},{"name":"日本医科大学多摩永山病院（休止）","province":"東京都","city":"多摩市","address":"多摩市永山1-7-1","lat":35.631138,"lon":139.446655},{"name":"多摩市社会福祉協議会","province":"東京都","city":"多摩市","address":"多摩市南野3-15-1多摩市総合福祉センター内","lat":35.61226,"lon":139.41402},{"name":"日本医科大学多摩永山病院","province":"東京都","city":"多摩市","address":"多摩市永山1-7-1","lat":35.631138,"lon":139.446655},{"name":"桜ケ丘記念病院","province":"東京都","city":"多摩市","address":"多摩市連光寺1-1-1","lat":35.647819,"lon":139.457608},{"name":"多摩市社会福祉協議会","province":"東京都","city":"多摩市","address":"多摩市南野3-15-1多摩市総合福祉センター内","lat":35.612536,"lon":139.412677},{"name":"日本医科大学多摩永山病院（休止）","province":"東京都","city":"多摩市","address":"多摩市永山1-7-1","lat":35.631138,"lon":139.446655},{"name":"多摩市社会福祉協議会","province":"東京都","city":"多摩市","address":"多摩市南野3-15-1多摩市総合福祉センター内","lat":35.61226,"lon":139.41402},{"name":"日本医科大学多摩永山病院","province":"東京都","city":"多摩市","address":"多摩市永山1-7-1","lat":35.631138,"lon":139.446655},{"name":"桜ケ丘記念病院","province":"東京都","city":"多摩市","address":"多摩市連光寺1-1-1","lat":35.647819,"lon":139.457608},{"name":"多摩市社会福祉協議会","province":"東京都","city":"多摩市","address":"多摩市南野3-15-1多摩市総合福祉センター内","lat":35.612536,"lon":139.412677},{"name":"日本医科大学多摩永山病院（休止）","province":"東京都","city":"多摩市","address":"多摩市永山1-7-1","lat":35.631138,"lon":139.446655},{"name":"多摩市社会福祉協議会","province":"東京都","city":"多摩市","address":"多摩市南野3-15-1多摩市総合福祉センター内","lat":35.61226,"lon":139.41402},{"name":"日本医科大学多摩永山病院","province":"東京都","city":"多摩市","address":"多摩市永山1-7-1","lat":35.631138,"lon":139.446655},{"name":"桜ケ丘記念病院","province":"東京都","city":"多摩市","address":"多摩市連光寺1-1-1","lat":35.647819,"lon":139.457608},{"name":"多摩市社会福祉協議会","province":"東京都","city":"多摩市","address":"多摩市南野3-15-1多摩市総合福祉センター内","lat":35.612536,"lon":139.412677},{"name":"日本医科大学多摩永山病院（休止）","province":"東京都","city":"多摩市","address":"多摩市永山1-7-1","lat":35.631138,"lon":139.446655},{"name":"多摩市社会福祉協議会","province":"東京都","city":"多摩市","address":"多摩市南野3-15-1多摩市総合福祉センター内","lat":35.61226,"lon":139.41402},{"name":"日本医科大学多摩永山病院","province":"東京都","city":"多摩市","address":"多摩市永山1-7-1","lat":35.631138,"lon":139.446655},{"name":"桜ケ丘記念病院","province":"東京都","city":"多摩市","address":"多摩市連光寺1-1-1","lat":35.647819,"lon":139.457608},{"name":"多摩市社会福祉協議会","province":"東京都","city":"多摩市","address":"多摩市南野3-15-1多摩市総合福祉センター内","lat":35.612536,"lon":139.412677},{"name":"日本医科大学多摩永山病院（休止）","province":"東京都","city":"多摩市","address":"多摩市永山1-7-1","lat":35.631138,"lon":139.446655},{"name":"多摩市社会福祉協議会","province":"東京都","city":"多摩市","address":"多摩市南野3-15-1多摩市総合福祉センター内","lat":35.61226,"lon":139.41402},{"name":"日本医科大学多摩永山病院","province":"東京都","city":"多摩市","address":"多摩市永山1-7-1","lat":35.631138,"lon":139.446655},{"name":"桜ケ丘記念病院","province":"東京都","city":"多摩市","address":"多摩市連光寺1-1-1","lat":35.647819,"lon":139.457608},{"name":"多摩市社会福祉協議会","province":"東京都","city":"多摩市","address":"多摩市南野3-15-1多摩市総合福祉センター内","lat":35.612536,"lon":139.412677},{"name":"日本医科大学多摩永山病院（休止）","province":"東京都","city":"多摩市","address":"多摩市永山1-7-1","lat":35.631138,"lon":139.446655},{"name":"多摩市社会福祉協議会","province":"東京都","city":"多摩市","address":"多摩市南野3-15-1多摩市総合福祉センター内","lat":35.61226,"lon":139.41402},{"name":"日本医科大学多摩永山病院","province":"東京都","city":"多摩市","address":"多摩市永山1-7-1","lat":35.631138,"lon":139.446655},{"name":"桜ケ丘記念病院","province":"東京都","city":"多摩市","address":"多摩市連光寺1-1-1","lat":35.647819,"lon":139.457608},{"name":"多摩市社会福祉協議会","province":"東京都","city":"多摩市","address":"多摩市南野3-15-1多摩市総合福祉センター内","lat":35.612536,"lon":139.412677},{"name":"日本医科大学多摩永山病院（休止）","province":"東京都","city":"多摩市","address":"多摩市永山1-7-1","lat":35.631138,"lon":139.446655},{"name":"多摩市社会福祉協議会","province":"東京都","city":"多摩市","address":"多摩市南野3-15-1多摩市総合福祉センター内","lat":35.61226,"lon":139.41402},{"name":"日本医科大学多摩永山病院","province":"東京都","city":"多摩市","address":"多摩市永山1-7-1","lat":35.631138,"lon":139.446655}]}