{"keyword":"戸数","data":[{"name":"多摩南部地域病院","province":"東京都","city":"多摩市","address":"東京都多摩市中沢2丁目1-2","lat":35.622938,"lon":139.41525124},{"name":"多摩市社会福祉協議会","province":"東京都","city":"多摩市","address":"多摩市南野3-15-1多摩市総合福祉センター内","lat":35.612536,"lon":139.412677},{"name":"多摩市","province":"東京都","city":"多摩市","address":"多摩市関戸6-12-1","lat":35.6377597,"lon":139.44689},{"name":"株式会社としまフューネス","province":"東京都","city":"多摩市","address":"東京都多摩市永山1丁目17-11","lat":35.63153767,"lon":139.44278463},{"name":"京王フェアウェルサポート株式会社","province":"東京都","city":"多摩市","address":"東京都多摩市関戸1丁目9-1","lat":35.65133548,"lon":139.44824454},{"name":"SKKフューネラルサービス","province":"東京都","city":"多摩市","address":"東京都多摩市乞田752-1","lat":35.63176248,"lon":139.4366185},{"name":"（株）としまフューネス","province":"東京都","city":"多摩市","address":"東京都多摩市永山1丁目17-11","lat":35.63153767,"lon":139.44278463},{"name":"多摩市社会福祉協議会","province":"東京都","city":"多摩市","address":"多摩市南野3-15-1多摩市総合福祉センター内","lat":35.61226,"lon":139.41402},{"name":"西部地域包括支援センター","province":"東京都","city":"多摩市","address":"多摩市和田1532","lat":35.646027,"lon":139.430664},{"name":"東部地域包括支援センター","province":"東京都","city":"多摩市","address":"多摩市諏訪5-1諏訪複合教育施設内","lat":35.623512,"lon":139.45459},{"name":"多摩センター地域包括支援センター","province":"東京都","city":"多摩市","address":"多摩市山王下1-18-2","lat":35.625328,"lon":139.415207},{"name":"中部地域包括支援センター","province":"東京都","city":"多摩市","address":"多摩市永山4-2-5-105","lat":35.618931,"lon":139.444321},{"name":"北部地域包括支援センター","province":"東京都","city":"多摩市","address":"多摩市関戸4-19-5多摩市立健康センター3階","lat":35.648975,"lon":139.449585},{"name":"基幹型地域包括支援センター（多摩市健康福祉部高齢支援課内）","province":"東京都","city":"多摩市","address":"多摩市関戸6-12-1","lat":35.637653,"lon":139.447174},{"name":"多摩市消費生活センター","province":"東京都","city":"多摩市","address":"多摩市永山1-5ベルブ永山3階","lat":35.649658,"lon":139.444519},{"name":"関戸公民館","province":"東京都","city":"多摩市","address":"多摩市関戸4-72","lat":35.649825,"lon":139.446818},{"name":"永山公民館","province":"東京都","city":"多摩市","address":"多摩市永山1-5","lat":35.628308,"lon":139.448407},{"name":"唐木田コミュニティセンター（からきだ菖蒲館）","province":"東京都","city":"多摩市","address":"多摩市鶴牧6-14","lat":35.615405,"lon":139.413274},{"name":"桜ヶ丘コミュニティセンター（ゆう桜ヶ丘）","province":"東京都","city":"多摩市","address":"多摩市桜ヶ丘1-17-7","lat":35.639911,"lon":139.44649},{"name":"乞田・貝取コミュニティセンター（乞田・貝取ふれあい館）","province":"東京都","city":"多摩市","address":"多摩市乞田810","lat":35.630901,"lon":139.434555},{"name":"愛宕コミュニティセンター（愛宕かえで館）","province":"東京都","city":"多摩市","address":"多摩市愛宕3-2","lat":35.633543,"lon":139.434482},{"name":"東寺方図書館","province":"東京都","city":"多摩市","address":"多摩市東寺方626-7","lat":35.643261,"lon":139.437713},{"name":"豊ヶ丘図書館","province":"東京都","city":"多摩市","address":"多摩市豊ヶ丘5-6","lat":35.614618,"lon":139.434865},{"name":"関戸図書館","province":"東京都","city":"多摩市","address":"多摩市関戸1-1-5","lat":35.651829,"lon":139.44592},{"name":"永山図書館","province":"東京都","city":"多摩市","address":"多摩市永山1-5","lat":35.628308,"lon":139.448237},{"name":"唐木田図書館","province":"東京都","city":"多摩市","address":"多摩市鶴牧6-14","lat":35.615407,"lon":139.413357},{"name":"総合体育館","province":"東京都","city":"多摩市","address":"多摩市東寺方588-1","lat":35.643555,"lon":139.436244},{"name":"日本医科大学多摩永山病院","province":"東京都","city":"多摩市","address":"東京都多摩市永山1丁目7-1","lat":35.63113783,"lon":139.44665098},{"name":"東京都保健医療公社多摩南部地域病院","province":"東京都","city":"多摩市","address":"東京都多摩市中沢2丁目1-2","lat":35.622938,"lon":139.41525124},{"name":"落合浄水所","province":"東京都","city":"多摩市","address":"東京都多摩市中沢1丁目12","lat":35.62444889,"lon":139.41365963},{"name":"愛宕配水所","province":"東京都","city":"多摩市","address":"東京都多摩市愛宕2丁目51","lat":35.63483719,"lon":139.43953479},{"name":"南野給水所","province":"東京都","city":"多摩市","address":"東京都多摩市南野2丁目16","lat":35.60863738,"lon":139.43101436},{"name":"聖ヶ丘給水所","province":"東京都","city":"多摩市","address":"東京都多摩市聖ヶ丘4丁目1","lat":35.62952201,"lon":139.46372188},{"name":"多摩市立多摩市東公園陸上競技場","province":"東京都","city":"多摩市","address":"東京都多摩市諏訪4丁目9","lat":35.62459204,"lon":139.46102787},{"name":"多摩市立関戸公園グラウンド","province":"東京都","city":"多摩市","address":"東京都多摩市関戸3丁目5","lat":35.65016368,"lon":139.45949912},{"name":"宝野公園","province":"東京都","city":"多摩市","address":"東京都多摩市落合5丁目5","lat":35.61428925,"lon":139.42303984},{"name":"多摩市選挙管理委員会","province":"東京都","city":"多摩市","address":"多摩市関戸6-12-1","lat":35.637126,"lon":139.446269},{"name":"多摩ニュータウン市場","province":"東京都","city":"多摩市","address":"東京都多摩市永山7丁目4","lat":35.60927671,"lon":139.44523259},{"name":"永山高等学校","province":"東京都","city":"多摩市","address":"東京都多摩市永山5丁目22","lat":35.61369294,"lon":139.44800719},{"name":"京王電鉄（株）","province":"東京都","city":"多摩市","address":"多摩市関戸1-9-1","lat":35.65134,"lon":139.4482},{"name":"ＫＤＤＩ東京Ⅱ","province":"東京都","city":"多摩市","address":"多摩市南野3-15-3","lat":35.6121,"lon":139.4149},{"name":"ＫＤＤＩ東京Ⅲ","province":"東京都","city":"多摩市","address":"多摩市唐木田3-7-1","lat":35.60897,"lon":139.3955},{"name":"ＫＤＤＩ東京Ⅳ","province":"東京都","city":"多摩市","address":"多摩市唐木田3-2","lat":35.60936,"lon":139.4031},{"name":"多摩清掃工場","province":"東京都","city":"多摩市","address":"多摩市唐木田2-1-1","lat":35.612419,"lon":139.409958},{"name":"多摩南部地域病院","province":"東京都","city":"多摩市","address":"東京都多摩市中沢2丁目1-2","lat":35.622938,"lon":139.41525124},{"name":"多摩市社会福祉協議会","province":"東京都","city":"多摩市","address":"多摩市南野3-15-1多摩市総合福祉センター内","lat":35.612536,"lon":139.412677},{"name":"多摩市社会福祉協議会","province":"東京都","city":"多摩市","address":"多摩市南野3-15-1多摩市総合福祉センター内","lat":35.61226,"lon":139.41402},{"name":"西部地域包括支援センター","province":"東京都","city":"多摩市","address":"多摩市和田1532","lat":35.646027,"lon":139.430664},{"name":"東部地域包括支援センター","province":"東京都","city":"多摩市","address":"多摩市諏訪5-1諏訪複合教育施設内","lat":35.623512,"lon":139.45459},{"name":"多摩センター地域包括支援センター","province":"東京都","city":"多摩市","address":"多摩市山王下1-18-2","lat":35.625328,"lon":139.415207},{"name":"中部地域包括支援センター","province":"東京都","city":"多摩市","address":"多摩市永山4-2-5-105","lat":35.618931,"lon":139.444321},{"name":"北部地域包括支援センター","province":"東京都","city":"多摩市","address":"多摩市関戸4-19-5多摩市立健康センター3階","lat":35.648975,"lon":139.449585},{"name":"基幹型地域包括支援センター（多摩市健康福祉部高齢支援課内）","province":"東京都","city":"多摩市","address":"多摩市関戸6-12-1","lat":35.637653,"lon":139.447174},{"name":"多摩市消費生活センター","province":"東京都","city":"多摩市","address":"多摩市永山1-5ベルブ永山3階","lat":35.649658,"lon":139.444519},{"name":"日本医科大学多摩永山病院","province":"東京都","city":"多摩市","address":"東京都多摩市永山1丁目7-1","lat":35.63113783,"lon":139.44665098},{"name":"東京都保健医療公社多摩南部地域病院","province":"東京都","city":"多摩市","address":"東京都多摩市中沢2丁目1-2","lat":35.622938,"lon":139.41525124},{"name":"落合浄水所","province":"東京都","city":"多摩市","address":"東京都多摩市中沢1丁目12","lat":35.62444889,"lon":139.41365963},{"name":"愛宕配水所","province":"東京都","city":"多摩市","address":"東京都多摩市愛宕2丁目51","lat":35.63483719,"lon":139.43953479},{"name":"南野給水所","province":"東京都","city":"多摩市","address":"東京都多摩市南野2丁目16","lat":35.60863738,"lon":139.43101436},{"name":"聖ヶ丘給水所","province":"東京都","city":"多摩市","address":"東京都多摩市聖ヶ丘4丁目1","lat":35.62952201,"lon":139.46372188},{"name":"多摩市立多摩市東公園陸上競技場","province":"東京都","city":"多摩市","address":"東京都多摩市諏訪4丁目9","lat":35.62459204,"lon":139.46102787},{"name":"多摩市立関戸公園グラウンド","province":"東京都","city":"多摩市","address":"東京都多摩市関戸3丁目5","lat":35.65016368,"lon":139.45949912},{"name":"宝野公園","province":"東京都","city":"多摩市","address":"東京都多摩市落合5丁目5","lat":35.61428925,"lon":139.42303984},{"name":"多摩ニュータウン市場","province":"東京都","city":"多摩市","address":"東京都多摩市永山7丁目4","lat":35.60927671,"lon":139.44523259},{"name":"永山高等学校","province":"東京都","city":"多摩市","address":"東京都多摩市永山5丁目22","lat":35.61369294,"lon":139.44800719},{"name":"京王電鉄（株）","province":"東京都","city":"多摩市","address":"多摩市関戸1-9-1","lat":35.65134,"lon":139.4482},{"name":"ＫＤＤＩ東京Ⅱ","province":"東京都","city":"多摩市","address":"多摩市南野3-15-3","lat":35.6121,"lon":139.4149},{"name":"ＫＤＤＩ東京Ⅲ","province":"東京都","city":"多摩市","address":"多摩市唐木田3-7-1","lat":35.60897,"lon":139.3955},{"name":"ＫＤＤＩ東京Ⅳ","province":"東京都","city":"多摩市","address":"多摩市唐木田3-2","lat":35.60936,"lon":139.4031},{"name":"多摩清掃工場","province":"東京都","city":"多摩市","address":"多摩市唐木田2-1-1","lat":35.612419,"lon":139.409958},{"name":"多摩南部地域病院","province":"東京都","city":"多摩市","address":"東京都多摩市中沢2丁目1-2","lat":35.622938,"lon":139.41525124},{"name":"西部地域包括支援センター","province":"東京都","city":"多摩市","address":"多摩市和田1532","lat":35.646027,"lon":139.430664},{"name":"東部地域包括支援センター","province":"東京都","city":"多摩市","address":"多摩市諏訪5-1諏訪複合教育施設内","lat":35.623512,"lon":139.45459},{"name":"多摩センター地域包括支援センター","province":"東京都","city":"多摩市","address":"多摩市山王下1-18-2","lat":35.625328,"lon":139.415207},{"name":"中部地域包括支援センター","province":"東京都","city":"多摩市","address":"多摩市永山4-2-5-105","lat":35.618931,"lon":139.444321},{"name":"北部地域包括支援センター","province":"東京都","city":"多摩市","address":"多摩市関戸4-19-5多摩市立健康センター3階","lat":35.648975,"lon":139.449585},{"name":"基幹型地域包括支援センター（多摩市健康福祉部高齢支援課内）","province":"東京都","city":"多摩市","address":"多摩市関戸6-12-1","lat":35.637653,"lon":139.447174},{"name":"多摩市消費生活センター","province":"東京都","city":"多摩市","address":"多摩市永山1-5ベルブ永山3階","lat":35.649658,"lon":139.444519},{"name":"日本医科大学多摩永山病院","province":"東京都","city":"多摩市","address":"東京都多摩市永山1丁目7-1","lat":35.63113783,"lon":139.44665098},{"name":"東京都保健医療公社多摩南部地域病院","province":"東京都","city":"多摩市","address":"東京都多摩市中沢2丁目1-2","lat":35.622938,"lon":139.41525124},{"name":"多摩ニュータウン市場","province":"東京都","city":"多摩市","address":"東京都多摩市永山7丁目4","lat":35.60927671,"lon":139.44523259},{"name":"永山高等学校","province":"東京都","city":"多摩市","address":"東京都多摩市永山5丁目22","lat":35.61369294,"lon":139.44800719},{"name":"多摩南部地域病院","province":"東京都","city":"多摩市","address":"東京都多摩市中沢2丁目1-2","lat":35.622938,"lon":139.41525124},{"name":"西部地域包括支援センター","province":"東京都","city":"多摩市","address":"多摩市和田1532","lat":35.646027,"lon":139.430664},{"name":"東部地域包括支援センター","province":"東京都","city":"多摩市","address":"多摩市諏訪5-1諏訪複合教育施設内","lat":35.623512,"lon":139.45459},{"name":"多摩センター地域包括支援センター","province":"東京都","city":"多摩市","address":"多摩市山王下1-18-2","lat":35.625328,"lon":139.415207},{"name":"中部地域包括支援センター","province":"東京都","city":"多摩市","address":"多摩市永山4-2-5-105","lat":35.618931,"lon":139.444321},{"name":"北部地域包括支援センター","province":"東京都","city":"多摩市","address":"多摩市関戸4-19-5多摩市立健康センター3階","lat":35.648975,"lon":139.449585},{"name":"基幹型地域包括支援センター（多摩市健康福祉部高齢支援課内）","province":"東京都","city":"多摩市","address":"多摩市関戸6-12-1","lat":35.637653,"lon":139.447174},{"name":"多摩市消費生活センター","province":"東京都","city":"多摩市","address":"多摩市永山1-5ベルブ永山3階","lat":35.649658,"lon":139.444519},{"name":"日本医科大学多摩永山病院","province":"東京都","city":"多摩市","address":"東京都多摩市永山1丁目7-1","lat":35.63113783,"lon":139.44665098},{"name":"東京都保健医療公社多摩南部地域病院","province":"東京都","city":"多摩市","address":"東京都多摩市中沢2丁目1-2","lat":35.622938,"lon":139.41525124},{"name":"多摩ニュータウン市場","province":"東京都","city":"多摩市","address":"東京都多摩市永山7丁目4","lat":35.60927671,"lon":139.44523259},{"name":"永山高等学校","province":"東京都","city":"多摩市","address":"東京都多摩市永山5丁目22","lat":35.61369294,"lon":139.44800719},{"name":"多摩南部地域病院","province":"東京都","city":"多摩市","address":"東京都多摩市中沢2丁目1-2","lat":35.622938,"lon":139.41525124},{"name":"西部地域包括支援センター","province":"東京都","city":"多摩市","address":"多摩市和田1532","lat":35.646027,"lon":139.430664},{"name":"東部地域包括支援センター","province":"東京都","city":"多摩市","address":"多摩市諏訪5-1諏訪複合教育施設内","lat":35.623512,"lon":139.45459},{"name":"多摩センター地域包括支援センター","province":"東京都","city":"多摩市","address":"多摩市山王下1-18-2","lat":35.625328,"lon":139.415207},{"name":"中部地域包括支援センター","province":"東京都","city":"多摩市","address":"多摩市永山4-2-5-105","lat":35.618931,"lon":139.444321},{"name":"北部地域包括支援センター","province":"東京都","city":"多摩市","address":"多摩市関戸4-19-5多摩市立健康センター3階","lat":35.648975,"lon":139.449585},{"name":"基幹型地域包括支援センター（多摩市健康福祉部高齢支援課内）","province":"東京都","city":"多摩市","address":"多摩市関戸6-12-1","lat":35.637653,"lon":139.447174},{"name":"多摩市消費生活センター","province":"東京都","city":"多摩市","address":"多摩市永山1-5ベルブ永山3階","lat":35.649658,"lon":139.444519},{"name":"多摩南部地域病院","province":"東京都","city":"多摩市","address":"東京都多摩市中沢2丁目1-2","lat":35.622938,"lon":139.41525124},{"name":"西部地域包括支援センター","province":"東京都","city":"多摩市","address":"多摩市和田1532","lat":35.646027,"lon":139.430664},{"name":"東部地域包括支援センター","province":"東京都","city":"多摩市","address":"多摩市諏訪5-1諏訪複合教育施設内","lat":35.623512,"lon":139.45459},{"name":"多摩センター地域包括支援センター","province":"東京都","city":"多摩市","address":"多摩市山王下1-18-2","lat":35.625328,"lon":139.415207},{"name":"中部地域包括支援センター","province":"東京都","city":"多摩市","address":"多摩市永山4-2-5-105","lat":35.618931,"lon":139.444321},{"name":"北部地域包括支援センター","province":"東京都","city":"多摩市","address":"多摩市関戸4-19-5多摩市立健康センター3階","lat":35.648975,"lon":139.449585},{"name":"基幹型地域包括支援センター（多摩市健康福祉部高齢支援課内）","province":"東京都","city":"多摩市","address":"多摩市関戸6-12-1","lat":35.637653,"lon":139.447174},{"name":"多摩市消費生活センター","province":"東京都","city":"多摩市","address":"多摩市永山1-5ベルブ永山3階","lat":35.649658,"lon":139.444519},{"name":"西部地域包括支援センター","province":"東京都","city":"多摩市","address":"多摩市和田1532","lat":35.646027,"lon":139.430664},{"name":"東部地域包括支援センター","province":"東京都","city":"多摩市","address":"多摩市諏訪5-1諏訪複合教育施設内","lat":35.623512,"lon":139.45459},{"name":"多摩センター地域包括支援センター","province":"東京都","city":"多摩市","address":"多摩市山王下1-18-2","lat":35.625328,"lon":139.415207},{"name":"中部地域包括支援センター","province":"東京都","city":"多摩市","address":"多摩市永山4-2-5-105","lat":35.618931,"lon":139.444321},{"name":"北部地域包括支援センター","province":"東京都","city":"多摩市","address":"多摩市関戸4-19-5多摩市立健康センター3階","lat":35.648975,"lon":139.449585},{"name":"基幹型地域包括支援センター（多摩市健康福祉部高齢支援課内）","province":"東京都","city":"多摩市","address":"多摩市関戸6-12-1","lat":35.637653,"lon":139.447174},{"name":"多摩市消費生活センター","province":"東京都","city":"多摩市","address":"多摩市永山1-5ベルブ永山3階","lat":35.649658,"lon":139.444519},{"name":"西部地域包括支援センター","province":"東京都","city":"多摩市","address":"多摩市和田1532","lat":35.646027,"lon":139.430664},{"name":"東部地域包括支援センター","province":"東京都","city":"多摩市","address":"多摩市諏訪5-1諏訪複合教育施設内","lat":35.623512,"lon":139.45459},{"name":"多摩センター地域包括支援センター","province":"東京都","city":"多摩市","address":"多摩市山王下1-18-2","lat":35.625328,"lon":139.415207},{"name":"中部地域包括支援センター","province":"東京都","city":"多摩市","address":"多摩市永山4-2-5-105","lat":35.618931,"lon":139.444321},{"name":"北部地域包括支援センター","province":"東京都","city":"多摩市","address":"多摩市関戸4-19-5多摩市立健康センター3階","lat":35.648975,"lon":139.449585},{"name":"基幹型地域包括支援センター（多摩市健康福祉部高齢支援課内）","province":"東京都","city":"多摩市","address":"多摩市関戸6-12-1","lat":35.637653,"lon":139.447174},{"name":"多摩市消費生活センター","province":"東京都","city":"多摩市","address":"多摩市永山1-5ベルブ永山3階","lat":35.649658,"lon":139.444519},{"name":"西部地域包括支援センター","province":"東京都","city":"多摩市","address":"多摩市和田1532","lat":35.646027,"lon":139.430664},{"name":"東部地域包括支援センター","province":"東京都","city":"多摩市","address":"多摩市諏訪5-1諏訪複合教育施設内","lat":35.623512,"lon":139.45459},{"name":"多摩センター地域包括支援センター","province":"東京都","city":"多摩市","address":"多摩市山王下1-18-2","lat":35.625328,"lon":139.415207},{"name":"中部地域包括支援センター","province":"東京都","city":"多摩市","address":"多摩市永山4-2-5-105","lat":35.618931,"lon":139.444321},{"name":"北部地域包括支援センター","province":"東京都","city":"多摩市","address":"多摩市関戸4-19-5多摩市立健康センター3階","lat":35.648975,"lon":139.449585},{"name":"基幹型地域包括支援センター（多摩市健康福祉部高齢支援課内）","province":"東京都","city":"多摩市","address":"多摩市関戸6-12-1","lat":35.637653,"lon":139.447174},{"name":"多摩市消費生活センター","province":"東京都","city":"多摩市","address":"多摩市永山1-5ベルブ永山3階","lat":35.649658,"lon":139.444519},{"name":"西部地域包括支援センター","province":"東京都","city":"多摩市","address":"多摩市和田1532","lat":35.646027,"lon":139.430664},{"name":"東部地域包括支援センター","province":"東京都","city":"多摩市","address":"多摩市諏訪5-1諏訪複合教育施設内","lat":35.623512,"lon":139.45459},{"name":"多摩センター地域包括支援センター","province":"東京都","city":"多摩市","address":"多摩市山王下1-18-2","lat":35.625328,"lon":139.415207},{"name":"中部地域包括支援センター","province":"東京都","city":"多摩市","address":"多摩市永山4-2-5-105","lat":35.618931,"lon":139.444321},{"name":"北部地域包括支援センター","province":"東京都","city":"多摩市","address":"多摩市関戸4-19-5多摩市立健康センター3階","lat":35.648975,"lon":139.449585},{"name":"基幹型地域包括支援センター（多摩市健康福祉部高齢支援課内）","province":"東京都","city":"多摩市","address":"多摩市関戸6-12-1","lat":35.637653,"lon":139.447174},{"name":"多摩市消費生活センター","province":"東京都","city":"多摩市","address":"多摩市永山1-5ベルブ永山3階","lat":35.649658,"lon":139.444519},{"name":"西部地域包括支援センター","province":"東京都","city":"多摩市","address":"多摩市和田1532","lat":35.646027,"lon":139.430664},{"name":"東部地域包括支援センター","province":"東京都","city":"多摩市","address":"多摩市諏訪5-1諏訪複合教育施設内","lat":35.623512,"lon":139.45459},{"name":"多摩センター地域包括支援センター","province":"東京都","city":"多摩市","address":"多摩市山王下1-18-2","lat":35.625328,"lon":139.415207},{"name":"中部地域包括支援センター","province":"東京都","city":"多摩市","address":"多摩市永山4-2-5-105","lat":35.618931,"lon":139.444321},{"name":"北部地域包括支援センター","province":"東京都","city":"多摩市","address":"多摩市関戸4-19-5多摩市立健康センター3階","lat":35.648975,"lon":139.449585},{"name":"基幹型地域包括支援センター（多摩市健康福祉部高齢支援課内）","province":"東京都","city":"多摩市","address":"多摩市関戸6-12-1","lat":35.637653,"lon":139.447174},{"name":"多摩市消費生活センター","province":"東京都","city":"多摩市","address":"多摩市永山1-5ベルブ永山3階","lat":35.649658,"lon":139.444519},{"name":"西部地域包括支援センター","province":"東京都","city":"多摩市","address":"多摩市和田1532","lat":35.646027,"lon":139.430664},{"name":"東部地域包括支援センター","province":"東京都","city":"多摩市","address":"多摩市諏訪5-1諏訪複合教育施設内","lat":35.623512,"lon":139.45459},{"name":"多摩センター地域包括支援センター","province":"東京都","city":"多摩市","address":"多摩市山王下1-18-2","lat":35.625328,"lon":139.415207},{"name":"中部地域包括支援センター","province":"東京都","city":"多摩市","address":"多摩市永山4-2-5-105","lat":35.618931,"lon":139.444321},{"name":"北部地域包括支援センター","province":"東京都","city":"多摩市","address":"多摩市関戸4-19-5多摩市立健康センター3階","lat":35.648975,"lon":139.449585},{"name":"基幹型地域包括支援センター（多摩市健康福祉部高齢支援課内）","province":"東京都","city":"多摩市","address":"多摩市関戸6-12-1","lat":35.637653,"lon":139.447174},{"name":"多摩市消費生活センター","province":"東京都","city":"多摩市","address":"多摩市永山1-5ベルブ永山3階","lat":35.649658,"lon":139.444519},{"name":"西部地域包括支援センター","province":"東京都","city":"多摩市","address":"多摩市和田1532","lat":35.646027,"lon":139.430664},{"name":"東部地域包括支援センター","province":"東京都","city":"多摩市","address":"多摩市諏訪5-1諏訪複合教育施設内","lat":35.623512,"lon":139.45459},{"name":"多摩センター地域包括支援センター","province":"東京都","city":"多摩市","address":"多摩市山王下1-18-2","lat":35.625328,"lon":139.415207},{"name":"中部地域包括支援センター","province":"東京都","city":"多摩市","address":"多摩市永山4-2-5-105","lat":35.618931,"lon":139.444321},{"name":"北部地域包括支援センター","province":"東京都","city":"多摩市","address":"多摩市関戸4-19-5多摩市立健康センター3階","lat":35.648975,"lon":139.449585},{"name":"基幹型地域包括支援センター（多摩市健康福祉部高齢支援課内）","province":"東京都","city":"多摩市","address":"多摩市関戸6-12-1","lat":35.637653,"lon":139.447174},{"name":"多摩市消費生活センター","province":"東京都","city":"多摩市","address":"多摩市永山1-5ベルブ永山3階","lat":35.649658,"lon":139.444519},{"name":"西部地域包括支援センター","province":"東京都","city":"多摩市","address":"多摩市和田1532","lat":35.646027,"lon":139.430664},{"name":"東部地域包括支援センター","province":"東京都","city":"多摩市","address":"多摩市諏訪5-1諏訪複合教育施設内","lat":35.623512,"lon":139.45459},{"name":"多摩センター地域包括支援センター","province":"東京都","city":"多摩市","address":"多摩市山王下1-18-2","lat":35.625328,"lon":139.415207},{"name":"中部地域包括支援センター","province":"東京都","city":"多摩市","address":"多摩市永山4-2-5-105","lat":35.618931,"lon":139.444321},{"name":"北部地域包括支援センター","province":"東京都","city":"多摩市","address":"多摩市関戸4-19-5多摩市立健康センター3階","lat":35.648975,"lon":139.449585},{"name":"基幹型地域包括支援センター（多摩市健康福祉部高齢支援課内）","province":"東京都","city":"多摩市","address":"多摩市関戸6-12-1","lat":35.637653,"lon":139.447174},{"name":"多摩市消費生活センター","province":"東京都","city":"多摩市","address":"多摩市永山1-5ベルブ永山3階","lat":35.649658,"lon":139.444519},{"name":"西部地域包括支援センター","province":"東京都","city":"多摩市","address":"多摩市和田1532","lat":35.646027,"lon":139.430664},{"name":"東部地域包括支援センター","province":"東京都","city":"多摩市","address":"多摩市諏訪5-1諏訪複合教育施設内","lat":35.623512,"lon":139.45459},{"name":"多摩センター地域包括支援センター","province":"東京都","city":"多摩市","address":"多摩市山王下1-18-2","lat":35.625328,"lon":139.415207},{"name":"中部地域包括支援センター","province":"東京都","city":"多摩市","address":"多摩市永山4-2-5-105","lat":35.618931,"lon":139.444321},{"name":"北部地域包括支援センター","province":"東京都","city":"多摩市","address":"多摩市関戸4-19-5多摩市立健康センター3階","lat":35.648975,"lon":139.449585},{"name":"基幹型地域包括支援センター（多摩市健康福祉部高齢支援課内）","province":"東京都","city":"多摩市","address":"多摩市関戸6-12-1","lat":35.637653,"lon":139.447174},{"name":"多摩市消費生活センター","province":"東京都","city":"多摩市","address":"多摩市永山1-5ベルブ永山3階","lat":35.649658,"lon":139.444519},{"name":"西部地域包括支援センター","province":"東京都","city":"多摩市","address":"多摩市和田1532","lat":35.646027,"lon":139.430664},{"name":"東部地域包括支援センター","province":"東京都","city":"多摩市","address":"多摩市諏訪5-1諏訪複合教育施設内","lat":35.623512,"lon":139.45459},{"name":"多摩センター地域包括支援センター","province":"東京都","city":"多摩市","address":"多摩市山王下1-18-2","lat":35.625328,"lon":139.415207},{"name":"中部地域包括支援センター","province":"東京都","city":"多摩市","address":"多摩市永山4-2-5-105","lat":35.618931,"lon":139.444321},{"name":"北部地域包括支援センター","province":"東京都","city":"多摩市","address":"多摩市関戸4-19-5多摩市立健康センター3階","lat":35.648975,"lon":139.449585},{"name":"基幹型地域包括支援センター（多摩市健康福祉部高齢支援課内）","province":"東京都","city":"多摩市","address":"多摩市関戸6-12-1","lat":35.637653,"lon":139.447174},{"name":"多摩市消費生活センター","province":"東京都","city":"多摩市","address":"多摩市永山1-5ベルブ永山3階","lat":35.649658,"lon":139.444519},{"name":"西部地域包括支援センター","province":"東京都","city":"多摩市","address":"多摩市和田1532","lat":35.646027,"lon":139.430664},{"name":"東部地域包括支援センター","province":"東京都","city":"多摩市","address":"多摩市諏訪5-1諏訪複合教育施設内","lat":35.623512,"lon":139.45459},{"name":"多摩センター地域包括支援センター","province":"東京都","city":"多摩市","address":"多摩市山王下1-18-2","lat":35.625328,"lon":139.415207},{"name":"中部地域包括支援センター","province":"東京都","city":"多摩市","address":"多摩市永山4-2-5-105","lat":35.618931,"lon":139.444321},{"name":"北部地域包括支援センター","province":"東京都","city":"多摩市","address":"多摩市関戸4-19-5多摩市立健康センター3階","lat":35.648975,"lon":139.449585},{"name":"基幹型地域包括支援センター（多摩市健康福祉部高齢支援課内）","province":"東京都","city":"多摩市","address":"多摩市関戸6-12-1","lat":35.637653,"lon":139.447174},{"name":"多摩市消費生活センター","province":"東京都","city":"多摩市","address":"多摩市永山1-5ベルブ永山3階","lat":35.649658,"lon":139.444519},{"name":"西部地域包括支援センター","province":"東京都","city":"多摩市","address":"多摩市和田1532","lat":35.646027,"lon":139.430664},{"name":"東部地域包括支援センター","province":"東京都","city":"多摩市","address":"多摩市諏訪5-1諏訪複合教育施設内","lat":35.623512,"lon":139.45459},{"name":"多摩センター地域包括支援センター","province":"東京都","city":"多摩市","address":"多摩市山王下1-18-2","lat":35.625328,"lon":139.415207},{"name":"中部地域包括支援センター","province":"東京都","city":"多摩市","address":"多摩市永山4-2-5-105","lat":35.618931,"lon":139.444321},{"name":"北部地域包括支援センター","province":"東京都","city":"多摩市","address":"多摩市関戸4-19-5多摩市立健康センター3階","lat":35.648975,"lon":139.449585},{"name":"基幹型地域包括支援センター（多摩市健康福祉部高齢支援課内）","province":"東京都","city":"多摩市","address":"多摩市関戸6-12-1","lat":35.637653,"lon":139.447174},{"name":"多摩市消費生活センター","province":"東京都","city":"多摩市","address":"多摩市永山1-5ベルブ永山3階","lat":35.649658,"lon":139.444519},{"name":"西部地域包括支援センター","province":"東京都","city":"多摩市","address":"多摩市和田1532","lat":35.646027,"lon":139.430664},{"name":"東部地域包括支援センター","province":"東京都","city":"多摩市","address":"多摩市諏訪5-1諏訪複合教育施設内","lat":35.623512,"lon":139.45459},{"name":"多摩センター地域包括支援センター","province":"東京都","city":"多摩市","address":"多摩市山王下1-18-2","lat":35.625328,"lon":139.415207},{"name":"中部地域包括支援センター","province":"東京都","city":"多摩市","address":"多摩市永山4-2-5-105","lat":35.618931,"lon":139.444321},{"name":"北部地域包括支援センター","province":"東京都","city":"多摩市","address":"多摩市関戸4-19-5多摩市立健康センター3階","lat":35.648975,"lon":139.449585},{"name":"基幹型地域包括支援センター（多摩市健康福祉部高齢支援課内）","province":"東京都","city":"多摩市","address":"多摩市関戸6-12-1","lat":35.637653,"lon":139.447174},{"name":"多摩市消費生活センター","province":"東京都","city":"多摩市","address":"多摩市永山1-5ベルブ永山3階","lat":35.649658,"lon":139.444519},{"name":"西部地域包括支援センター","province":"東京都","city":"多摩市","address":"多摩市和田1532","lat":35.646027,"lon":139.430664},{"name":"東部地域包括支援センター","province":"東京都","city":"多摩市","address":"多摩市諏訪5-1諏訪複合教育施設内","lat":35.623512,"lon":139.45459},{"name":"多摩センター地域包括支援センター","province":"東京都","city":"多摩市","address":"多摩市山王下1-18-2","lat":35.625328,"lon":139.415207},{"name":"中部地域包括支援センター","province":"東京都","city":"多摩市","address":"多摩市永山4-2-5-105","lat":35.618931,"lon":139.444321},{"name":"北部地域包括支援センター","province":"東京都","city":"多摩市","address":"多摩市関戸4-19-5多摩市立健康センター3階","lat":35.648975,"lon":139.449585},{"name":"基幹型地域包括支援センター（多摩市健康福祉部高齢支援課内）","province":"東京都","city":"多摩市","address":"多摩市関戸6-12-1","lat":35.637653,"lon":139.447174},{"name":"多摩市消費生活センター","province":"東京都","city":"多摩市","address":"多摩市永山1-5ベルブ永山3階","lat":35.649658,"lon":139.444519},{"name":"西部地域包括支援センター","province":"東京都","city":"多摩市","address":"多摩市和田1532","lat":35.646027,"lon":139.430664},{"name":"東部地域包括支援センター","province":"東京都","city":"多摩市","address":"多摩市諏訪5-1諏訪複合教育施設内","lat":35.623512,"lon":139.45459},{"name":"多摩センター地域包括支援センター","province":"東京都","city":"多摩市","address":"多摩市山王下1-18-2","lat":35.625328,"lon":139.415207},{"name":"中部地域包括支援センター","province":"東京都","city":"多摩市","address":"多摩市永山4-2-5-105","lat":35.618931,"lon":139.444321},{"name":"北部地域包括支援センター","province":"東京都","city":"多摩市","address":"多摩市関戸4-19-5多摩市立健康センター3階","lat":35.648975,"lon":139.449585},{"name":"基幹型地域包括支援センター（多摩市健康福祉部高齢支援課内）","province":"東京都","city":"多摩市","address":"多摩市関戸6-12-1","lat":35.637653,"lon":139.447174},{"name":"多摩市消費生活センター","province":"東京都","city":"多摩市","address":"多摩市永山1-5ベルブ永山3階","lat":35.649658,"lon":139.444519}]}