{"keyword":"放課後","data":[{"name":"遊び・運動療育・学びの場　発達支援教室　アルファーラ聖蹟桜ヶ丘教室","province":"東京都","city":"多摩市","address":"多摩市一ノ宮2-19-27太喜ビル第一1階","lat":35.653096,"lon":139.44345},{"name":"グラシアス聖蹟桜ヶ丘駅前教室","province":"東京都","city":"多摩市","address":"多摩市関戸1-12-4糀屋ビル6階","lat":35.650222,"lon":139.448186},{"name":"キャンビー","province":"東京都","city":"多摩市","address":"多摩市貝取4-3-1-110","lat":35.61459,"lon":139.438525},{"name":"メロディ","province":"東京都","city":"多摩市","address":"多摩市聖ヶ丘二丁目第21街区第3号棟第4号室","lat":35.631336,"lon":139.457585},{"name":"ドリームボックス馬引沢","province":"東京都","city":"多摩市","address":"多摩市馬引沢2-3-9レジデンス永山1階A号室","lat":35.633118,"lon":139.452681},{"name":"ドリームボックス諏訪","province":"東京都","city":"多摩市","address":"多摩市諏訪1-53-2ハウスアメニティ1階B号室","lat":35.629647,"lon":139.454475},{"name":"子どもクラブ","province":"東京都","city":"多摩市","address":"多摩市永山4-2-4-106・206","lat":35.621103,"lon":139.449676},{"name":"くぬぎ","province":"東京都","city":"多摩市","address":"多摩市永山3-9東永山複合施設","lat":35.623381,"lon":139.449454},{"name":"ジョイフル","province":"東京都","city":"多摩市","address":"多摩市永山1-8-17ボヌール永山208","lat":35.631968,"lon":139.44722},{"name":"こどもデイサービス　ラフ","province":"東京都","city":"多摩市","address":"多摩市永山2-14-6アドラブールK店舗B","lat":35.630021,"lon":139.443362},{"name":"発達相談支援センター　ＣＯＲＯＮＯＡＨ","province":"東京都","city":"多摩市","address":"多摩市落合3-17-1、105号","lat":35.616514,"lon":139.430489},{"name":"ドリームボックス鶴牧","province":"東京都","city":"多摩市","address":"多摩市鶴牧2-23-21コンフォート鶴牧1階","lat":35.618233,"lon":139.414282},{"name":"島田療育センター","province":"東京都","city":"多摩市","address":"多摩市中沢1-31-1","lat":35.621988,"lon":139.411496},{"name":"あんふぁん愛宕事業所","province":"東京都","city":"多摩市","address":"多摩市愛宕四丁目9番22号池田ビル2階201号室","lat":35.628657,"lon":139.428953},{"name":"ドリームボックス多摩センター","province":"東京都","city":"多摩市","address":"多摩市山王下1-13-12パールプラザ103","lat":35.62536,"lon":139.419904}]}