{"keyword":"月間","data":[{"name":"遊び・運動療育・学びの場　発達支援教室　アルファーラ聖蹟桜ヶ丘教室","province":"東京都","city":"多摩市","address":"多摩市一ノ宮2-19-27太喜ビル第一1階","lat":35.653096,"lon":139.44345},{"name":"グラシアス聖蹟桜ヶ丘駅前教室","province":"東京都","city":"多摩市","address":"多摩市関戸1-12-4糀屋ビル6階","lat":35.650222,"lon":139.448186},{"name":"キャンビー","province":"東京都","city":"多摩市","address":"多摩市貝取4-3-1-110","lat":35.61459,"lon":139.438525},{"name":"メロディ","province":"東京都","city":"多摩市","address":"多摩市聖ヶ丘二丁目第21街区第3号棟第4号室","lat":35.631336,"lon":139.457585},{"name":"ドリームボックス馬引沢","province":"東京都","city":"多摩市","address":"多摩市馬引沢2-3-9レジデンス永山1階A号室","lat":35.633118,"lon":139.452681},{"name":"ドリームボックス諏訪","province":"東京都","city":"多摩市","address":"多摩市諏訪1-53-2ハウスアメニティ1階B号室","lat":35.629647,"lon":139.454475},{"name":"子どもクラブ","province":"東京都","city":"多摩市","address":"多摩市永山4-2-4-106・206","lat":35.621103,"lon":139.449676},{"name":"くぬぎ","province":"東京都","city":"多摩市","address":"多摩市永山3-9東永山複合施設","lat":35.623381,"lon":139.449454},{"name":"ジョイフル","province":"東京都","city":"多摩市","address":"多摩市永山1-8-17ボヌール永山208","lat":35.631968,"lon":139.44722},{"name":"こどもデイサービス　ラフ","province":"東京都","city":"多摩市","address":"多摩市永山2-14-6アドラブールK店舗B","lat":35.630021,"lon":139.443362},{"name":"発達相談支援センター　ＣＯＲＯＮＯＡＨ","province":"東京都","city":"多摩市","address":"多摩市落合3-17-1、105号","lat":35.616514,"lon":139.430489},{"name":"ドリームボックス鶴牧","province":"東京都","city":"多摩市","address":"多摩市鶴牧2-23-21コンフォート鶴牧1階","lat":35.618233,"lon":139.414282},{"name":"島田療育センター","province":"東京都","city":"多摩市","address":"多摩市中沢1-31-1","lat":35.621988,"lon":139.411496},{"name":"あんふぁん愛宕事業所","province":"東京都","city":"多摩市","address":"多摩市愛宕四丁目9番22号池田ビル2階201号室","lat":35.628657,"lon":139.428953},{"name":"ドリームボックス多摩センター","province":"東京都","city":"多摩市","address":"多摩市山王下1-13-12パールプラザ103","lat":35.62536,"lon":139.419904},{"name":"多摩市立子育て総合センター","province":"東京都","city":"多摩市","address":"多摩市豊ヶ丘1-21-3","lat":35.627768,"lon":139.429841},{"name":"多摩市子ども家庭支援センター","province":"東京都","city":"多摩市","address":"多摩市豊ヶ丘1-21-3","lat":35.62764,"lon":139.42989},{"name":"多摩市子ども家庭支援センター","province":"東京都","city":"多摩市","address":"多摩市豊ヶ丘1-21-3","lat":35.627768,"lon":139.429841},{"name":"聖蹟桜ヶ丘駅前","province":"東京都","city":"多摩市","address":"東京都多摩市関戸1丁目11-16","lat":35.65043832,"lon":139.44670028},{"name":"聖蹟桜ヶ丘駅前東","province":"東京都","city":"多摩市","address":"東京都多摩市関戸1丁目12-5","lat":35.65013562,"lon":139.44821959},{"name":"新大栗橋","province":"東京都","city":"多摩市","address":"東京都多摩市関戸4丁目10","lat":35.64784988,"lon":139.45292481},{"name":"宝蔵橋","province":"東京都","city":"多摩市","address":"東京都多摩市和田1760-4","lat":35.64854107,"lon":139.43706229},{"name":"諏訪下橋","province":"東京都","city":"多摩市","address":"東京都多摩市貝取1506","lat":35.63534013,"lon":139.44802291},{"name":"永山橋","province":"東京都","city":"多摩市","address":"東京都多摩市乞田1431","lat":35.63512344,"lon":139.4463064},{"name":"多摩消防署前","province":"東京都","city":"多摩市","address":"東京都多摩市永山1丁目2","lat":35.63254878,"lon":139.4473453},{"name":"多摩市役所前","province":"東京都","city":"多摩市","address":"東京都多摩市関戸6丁目13","lat":35.63723988,"lon":139.44764788},{"name":"多摩山王橋南","province":"東京都","city":"多摩市","address":"東京都多摩市落合1丁目9-1","lat":35.62532124,"lon":139.42357823},{"name":"多摩センター駅東","province":"東京都","city":"多摩市","address":"東京都多摩市落合1丁目39-2","lat":35.62459638,"lon":139.4256003},{"name":"多摩センター駅前","province":"東京都","city":"多摩市","address":"東京都多摩市落合1丁目39-1","lat":35.62484357,"lon":139.42555308},{"name":"東電多摩営業所前","province":"東京都","city":"多摩市","address":"東京都多摩市落合1丁目8-4","lat":35.62592121,"lon":139.4253225},{"name":"多摩南部地域病院","province":"東京都","city":"多摩市","address":"東京都多摩市中沢2丁目3-3","lat":35.62247975,"lon":139.41650948},{"name":"多摩中央警察署東","province":"東京都","city":"多摩市","address":"東京都多摩市落合1丁目","lat":35.62318834,"lon":139.43004441},{"name":"多摩保健所前","province":"東京都","city":"多摩市","address":"東京都多摩市永山5丁目5","lat":35.61893655,"lon":139.44431836},{"name":"多摩鶴牧二丁目","province":"東京都","city":"多摩市","address":"東京都多摩市鶴牧1丁目25-1","lat":35.62169382,"lon":139.42006478},{"name":"多摩鶴牧六丁目","province":"東京都","city":"多摩市","address":"東京都多摩市鶴牧6丁目5","lat":35.61383074,"lon":139.41356009},{"name":"多摩青木葉","province":"東京都","city":"多摩市","address":"東京都多摩市落合3丁目5-2","lat":35.62176632,"lon":139.43086662},{"name":"聖蹟桜ヶ丘駅東口","province":"東京都","city":"多摩市","address":"東京都多摩市関戸2丁目41-1","lat":35.65105496,"lon":139.4484001},{"name":"多摩桜の丘学園前","province":"東京都","city":"多摩市","address":"東京都多摩市聖ヶ丘2丁目23","lat":35.6313992,"lon":139.45668896},{"name":"聖ヶ丘一丁目","province":"東京都","city":"多摩市","address":"東京都多摩市聖ヶ丘1丁目","lat":35.63897034,"lon":139.4516308},{"name":"多摩市総合福祉センター前","province":"東京都","city":"多摩市","address":"東京都多摩市南野3丁目15","lat":35.6122226,"lon":139.41298243},{"name":"聖蹟桜ヶ丘駅西口","province":"東京都","city":"多摩市","address":"東京都多摩市関戸1丁目1-5","lat":35.65178259,"lon":139.44601416},{"name":"唐木田駅東","province":"東京都","city":"多摩市","address":"東京都多摩市鶴牧2丁目25-1","lat":35.61624987,"lon":139.41246008},{"name":"鶴牧中学校前","province":"東京都","city":"多摩市","address":"東京都多摩市鶴牧6丁目3","lat":35.61428908,"lon":139.41615986},{"name":"永山駅北","province":"東京都","city":"多摩市","address":"東京都多摩市永山1丁目8-17","lat":35.63195163,"lon":139.44723145},{"name":"熊野橋南","province":"東京都","city":"多摩市","address":"東京都多摩市聖ヶ丘1丁目9","lat":35.63859267,"lon":139.45387506},{"name":"日本医科大学多摩永山病院","province":"東京都","city":"多摩市","address":"東京都多摩市永山1丁目7-1","lat":35.63113783,"lon":139.44665098},{"name":"東京都保健医療公社多摩南部地域病院","province":"東京都","city":"多摩市","address":"東京都多摩市中沢2丁目1-2","lat":35.622938,"lon":139.41525124},{"name":"落合浄水所","province":"東京都","city":"多摩市","address":"東京都多摩市中沢1丁目12","lat":35.62444889,"lon":139.41365963},{"name":"愛宕配水所","province":"東京都","city":"多摩市","address":"東京都多摩市愛宕2丁目51","lat":35.63483719,"lon":139.43953479},{"name":"南野給水所","province":"東京都","city":"多摩市","address":"東京都多摩市南野2丁目16","lat":35.60863738,"lon":139.43101436},{"name":"聖ヶ丘給水所","province":"東京都","city":"多摩市","address":"東京都多摩市聖ヶ丘4丁目1","lat":35.62952201,"lon":139.46372188},{"name":"多摩南部地域病院","province":"東京都","city":"多摩市","address":"東京都多摩市中沢2丁目1-2","lat":35.622938,"lon":139.41525124},{"name":"多摩市立多摩市東公園陸上競技場","province":"東京都","city":"多摩市","address":"東京都多摩市諏訪4丁目9","lat":35.62459204,"lon":139.46102787},{"name":"多摩市立関戸公園グラウンド","province":"東京都","city":"多摩市","address":"東京都多摩市関戸3丁目5","lat":35.65016368,"lon":139.45949912},{"name":"宝野公園","province":"東京都","city":"多摩市","address":"東京都多摩市落合5丁目5","lat":35.61428925,"lon":139.42303984},{"name":"南多摩保健所","province":"東京都","city":"多摩市","address":"東京都多摩市永山2丁目1-5","lat":35.62794936,"lon":139.44743715},{"name":"多摩ニュータウン市場","province":"東京都","city":"多摩市","address":"東京都多摩市永山7丁目4","lat":35.60927671,"lon":139.44523259},{"name":"永山高等学校","province":"東京都","city":"多摩市","address":"東京都多摩市永山5丁目22","lat":35.61369294,"lon":139.44800719},{"name":"多摩市立武道館・陸上競技場","province":"東京都","city":"多摩市","address":"東京都多摩市諏訪4丁目9","lat":35.62459204,"lon":139.46102787},{"name":"多摩市本庁舎","province":"東京都","city":"多摩市","address":"多摩市関戸6-12-1","lat":35.63776,"lon":139.44689},{"name":"京王電鉄（株）","province":"東京都","city":"多摩市","address":"多摩市関戸1-9-1","lat":35.65134,"lon":139.4482},{"name":"多摩中央警察署","province":"東京都","city":"多摩市","address":"多摩市鶴牧1-26-1","lat":35.623,"lon":139.421},{"name":"多摩消防署","province":"東京都","city":"多摩市","address":"多摩市諏訪1-69","lat":35.63252,"lon":139.4484},{"name":"多摩市立陸上競技場（陸上競技場）","province":"東京都","city":"多摩市","address":"多摩市諏訪4丁目地内","lat":35.62597,"lon":139.4561},{"name":"多摩清掃工場","province":"東京都","city":"多摩市","address":"多摩市唐木田2-1-1","lat":35.61217,"lon":139.41},{"name":"多摩市立多摩東公園陸上競技場","province":"東京都","city":"多摩市","address":"多摩市諏訪4-9","lat":35.62459,"lon":139.461},{"name":"ＫＤＤＩ東京Ⅱ","province":"東京都","city":"多摩市","address":"多摩市南野3-15-3","lat":35.6121,"lon":139.4149},{"name":"ＫＤＤＩ東京Ⅲ","province":"東京都","city":"多摩市","address":"多摩市唐木田3-7-1","lat":35.60897,"lon":139.3955},{"name":"ＫＤＤＩ東京Ⅳ","province":"東京都","city":"多摩市","address":"多摩市唐木田3-2","lat":35.60936,"lon":139.4031},{"name":"東京ガス（株）多摩備蓄倉庫","province":"東京都","city":"多摩市","address":"多摩市唐木田2-2","lat":35.61162,"lon":139.405},{"name":"水道局多摩水道改革推進本部／多摩給水管理事務所","province":"東京都","city":"多摩市","address":"多摩市山王下1-17","lat":35.62549,"lon":139.4165},{"name":"多摩センター駅","province":"東京都","city":"多摩市","address":"東京都多摩市","lat":35.63703153,"lon":139.44628412},{"name":"遊び・運動療育・学びの場　発達支援教室　アルファーラ聖蹟桜ヶ丘教室","province":"東京都","city":"多摩市","address":"多摩市一ノ宮2-19-27太喜ビル第一1階","lat":35.653096,"lon":139.44345},{"name":"グラシアス聖蹟桜ヶ丘駅前教室","province":"東京都","city":"多摩市","address":"多摩市関戸1-12-4糀屋ビル6階","lat":35.650222,"lon":139.448186},{"name":"キャンビー","province":"東京都","city":"多摩市","address":"多摩市貝取4-3-1-110","lat":35.61459,"lon":139.438525},{"name":"メロディ","province":"東京都","city":"多摩市","address":"多摩市聖ヶ丘二丁目第21街区第3号棟第4号室","lat":35.631336,"lon":139.457585},{"name":"ドリームボックス馬引沢","province":"東京都","city":"多摩市","address":"多摩市馬引沢2-3-9レジデンス永山1階A号室","lat":35.633118,"lon":139.452681},{"name":"ドリームボックス諏訪","province":"東京都","city":"多摩市","address":"多摩市諏訪1-53-2ハウスアメニティ1階B号室","lat":35.629647,"lon":139.454475},{"name":"子どもクラブ","province":"東京都","city":"多摩市","address":"多摩市永山4-2-4-106・206","lat":35.621103,"lon":139.449676},{"name":"くぬぎ","province":"東京都","city":"多摩市","address":"多摩市永山3-9東永山複合施設","lat":35.623381,"lon":139.449454},{"name":"ジョイフル","province":"東京都","city":"多摩市","address":"多摩市永山1-8-17ボヌール永山208","lat":35.631968,"lon":139.44722},{"name":"こどもデイサービス　ラフ","province":"東京都","city":"多摩市","address":"多摩市永山2-14-6アドラブールK店舗B","lat":35.630021,"lon":139.443362},{"name":"発達相談支援センター　ＣＯＲＯＮＯＡＨ","province":"東京都","city":"多摩市","address":"多摩市落合3-17-1、105号","lat":35.616514,"lon":139.430489},{"name":"ドリームボックス鶴牧","province":"東京都","city":"多摩市","address":"多摩市鶴牧2-23-21コンフォート鶴牧1階","lat":35.618233,"lon":139.414282},{"name":"島田療育センター","province":"東京都","city":"多摩市","address":"多摩市中沢1-31-1","lat":35.621988,"lon":139.411496},{"name":"あんふぁん愛宕事業所","province":"東京都","city":"多摩市","address":"多摩市愛宕四丁目9番22号池田ビル2階201号室","lat":35.628657,"lon":139.428953},{"name":"ドリームボックス多摩センター","province":"東京都","city":"多摩市","address":"多摩市山王下1-13-12パールプラザ103","lat":35.62536,"lon":139.419904},{"name":"多摩市立子育て総合センター","province":"東京都","city":"多摩市","address":"多摩市豊ヶ丘1-21-3","lat":35.627768,"lon":139.429841},{"name":"多摩市子ども家庭支援センター","province":"東京都","city":"多摩市","address":"多摩市豊ヶ丘1-21-3","lat":35.62764,"lon":139.42989},{"name":"多摩市子ども家庭支援センター","province":"東京都","city":"多摩市","address":"多摩市豊ヶ丘1-21-3","lat":35.627768,"lon":139.429841},{"name":"聖蹟桜ヶ丘駅前","province":"東京都","city":"多摩市","address":"東京都多摩市関戸1丁目11-16","lat":35.65043832,"lon":139.44670028},{"name":"聖蹟桜ヶ丘駅前東","province":"東京都","city":"多摩市","address":"東京都多摩市関戸1丁目12-5","lat":35.65013562,"lon":139.44821959},{"name":"新大栗橋","province":"東京都","city":"多摩市","address":"東京都多摩市関戸4丁目10","lat":35.64784988,"lon":139.45292481},{"name":"宝蔵橋","province":"東京都","city":"多摩市","address":"東京都多摩市和田1760-4","lat":35.64854107,"lon":139.43706229},{"name":"諏訪下橋","province":"東京都","city":"多摩市","address":"東京都多摩市貝取1506","lat":35.63534013,"lon":139.44802291},{"name":"永山橋","province":"東京都","city":"多摩市","address":"東京都多摩市乞田1431","lat":35.63512344,"lon":139.4463064},{"name":"多摩消防署前","province":"東京都","city":"多摩市","address":"東京都多摩市永山1丁目2","lat":35.63254878,"lon":139.4473453},{"name":"多摩市役所前","province":"東京都","city":"多摩市","address":"東京都多摩市関戸6丁目13","lat":35.63723988,"lon":139.44764788},{"name":"多摩山王橋南","province":"東京都","city":"多摩市","address":"東京都多摩市落合1丁目9-1","lat":35.62532124,"lon":139.42357823},{"name":"多摩センター駅東","province":"東京都","city":"多摩市","address":"東京都多摩市落合1丁目39-2","lat":35.62459638,"lon":139.4256003},{"name":"多摩センター駅前","province":"東京都","city":"多摩市","address":"東京都多摩市落合1丁目39-1","lat":35.62484357,"lon":139.42555308},{"name":"東電多摩営業所前","province":"東京都","city":"多摩市","address":"東京都多摩市落合1丁目8-4","lat":35.62592121,"lon":139.4253225},{"name":"多摩南部地域病院","province":"東京都","city":"多摩市","address":"東京都多摩市中沢2丁目3-3","lat":35.62247975,"lon":139.41650948},{"name":"多摩中央警察署東","province":"東京都","city":"多摩市","address":"東京都多摩市落合1丁目","lat":35.62318834,"lon":139.43004441},{"name":"多摩保健所前","province":"東京都","city":"多摩市","address":"東京都多摩市永山5丁目5","lat":35.61893655,"lon":139.44431836},{"name":"多摩鶴牧二丁目","province":"東京都","city":"多摩市","address":"東京都多摩市鶴牧1丁目25-1","lat":35.62169382,"lon":139.42006478},{"name":"多摩鶴牧六丁目","province":"東京都","city":"多摩市","address":"東京都多摩市鶴牧6丁目5","lat":35.61383074,"lon":139.41356009},{"name":"多摩青木葉","province":"東京都","city":"多摩市","address":"東京都多摩市落合3丁目5-2","lat":35.62176632,"lon":139.43086662},{"name":"聖蹟桜ヶ丘駅東口","province":"東京都","city":"多摩市","address":"東京都多摩市関戸2丁目41-1","lat":35.65105496,"lon":139.4484001},{"name":"多摩桜の丘学園前","province":"東京都","city":"多摩市","address":"東京都多摩市聖ヶ丘2丁目23","lat":35.6313992,"lon":139.45668896},{"name":"聖ヶ丘一丁目","province":"東京都","city":"多摩市","address":"東京都多摩市聖ヶ丘1丁目","lat":35.63897034,"lon":139.4516308},{"name":"多摩市総合福祉センター前","province":"東京都","city":"多摩市","address":"東京都多摩市南野3丁目15","lat":35.6122226,"lon":139.41298243},{"name":"聖蹟桜ヶ丘駅西口","province":"東京都","city":"多摩市","address":"東京都多摩市関戸1丁目1-5","lat":35.65178259,"lon":139.44601416},{"name":"唐木田駅東","province":"東京都","city":"多摩市","address":"東京都多摩市鶴牧2丁目25-1","lat":35.61624987,"lon":139.41246008},{"name":"鶴牧中学校前","province":"東京都","city":"多摩市","address":"東京都多摩市鶴牧6丁目3","lat":35.61428908,"lon":139.41615986},{"name":"永山駅北","province":"東京都","city":"多摩市","address":"東京都多摩市永山1丁目8-17","lat":35.63195163,"lon":139.44723145},{"name":"熊野橋南","province":"東京都","city":"多摩市","address":"東京都多摩市聖ヶ丘1丁目9","lat":35.63859267,"lon":139.45387506},{"name":"日本医科大学多摩永山病院","province":"東京都","city":"多摩市","address":"東京都多摩市永山1丁目7-1","lat":35.63113783,"lon":139.44665098},{"name":"東京都保健医療公社多摩南部地域病院","province":"東京都","city":"多摩市","address":"東京都多摩市中沢2丁目1-2","lat":35.622938,"lon":139.41525124},{"name":"落合浄水所","province":"東京都","city":"多摩市","address":"東京都多摩市中沢1丁目12","lat":35.62444889,"lon":139.41365963},{"name":"愛宕配水所","province":"東京都","city":"多摩市","address":"東京都多摩市愛宕2丁目51","lat":35.63483719,"lon":139.43953479},{"name":"南野給水所","province":"東京都","city":"多摩市","address":"東京都多摩市南野2丁目16","lat":35.60863738,"lon":139.43101436},{"name":"聖ヶ丘給水所","province":"東京都","city":"多摩市","address":"東京都多摩市聖ヶ丘4丁目1","lat":35.62952201,"lon":139.46372188},{"name":"多摩南部地域病院","province":"東京都","city":"多摩市","address":"東京都多摩市中沢2丁目1-2","lat":35.622938,"lon":139.41525124},{"name":"多摩市立多摩市東公園陸上競技場","province":"東京都","city":"多摩市","address":"東京都多摩市諏訪4丁目9","lat":35.62459204,"lon":139.46102787},{"name":"多摩市立関戸公園グラウンド","province":"東京都","city":"多摩市","address":"東京都多摩市関戸3丁目5","lat":35.65016368,"lon":139.45949912},{"name":"宝野公園","province":"東京都","city":"多摩市","address":"東京都多摩市落合5丁目5","lat":35.61428925,"lon":139.42303984},{"name":"多摩ニュータウン市場","province":"東京都","city":"多摩市","address":"東京都多摩市永山7丁目4","lat":35.60927671,"lon":139.44523259},{"name":"永山高等学校","province":"東京都","city":"多摩市","address":"東京都多摩市永山5丁目22","lat":35.61369294,"lon":139.44800719},{"name":"遊び・運動療育・学びの場　発達支援教室　アルファーラ聖蹟桜ヶ丘教室","province":"東京都","city":"多摩市","address":"多摩市一ノ宮2-19-27太喜ビル第一1階","lat":35.653096,"lon":139.44345},{"name":"グラシアス聖蹟桜ヶ丘駅前教室","province":"東京都","city":"多摩市","address":"多摩市関戸1-12-4糀屋ビル6階","lat":35.650222,"lon":139.448186},{"name":"キャンビー","province":"東京都","city":"多摩市","address":"多摩市貝取4-3-1-110","lat":35.61459,"lon":139.438525},{"name":"メロディ","province":"東京都","city":"多摩市","address":"多摩市聖ヶ丘二丁目第21街区第3号棟第4号室","lat":35.631336,"lon":139.457585},{"name":"ドリームボックス馬引沢","province":"東京都","city":"多摩市","address":"多摩市馬引沢2-3-9レジデンス永山1階A号室","lat":35.633118,"lon":139.452681},{"name":"ドリームボックス諏訪","province":"東京都","city":"多摩市","address":"多摩市諏訪1-53-2ハウスアメニティ1階B号室","lat":35.629647,"lon":139.454475},{"name":"子どもクラブ","province":"東京都","city":"多摩市","address":"多摩市永山4-2-4-106・206","lat":35.621103,"lon":139.449676},{"name":"くぬぎ","province":"東京都","city":"多摩市","address":"多摩市永山3-9東永山複合施設","lat":35.623381,"lon":139.449454},{"name":"ジョイフル","province":"東京都","city":"多摩市","address":"多摩市永山1-8-17ボヌール永山208","lat":35.631968,"lon":139.44722},{"name":"こどもデイサービス　ラフ","province":"東京都","city":"多摩市","address":"多摩市永山2-14-6アドラブールK店舗B","lat":35.630021,"lon":139.443362},{"name":"発達相談支援センター　ＣＯＲＯＮＯＡＨ","province":"東京都","city":"多摩市","address":"多摩市落合3-17-1、105号","lat":35.616514,"lon":139.430489},{"name":"ドリームボックス鶴牧","province":"東京都","city":"多摩市","address":"多摩市鶴牧2-23-21コンフォート鶴牧1階","lat":35.618233,"lon":139.414282},{"name":"島田療育センター","province":"東京都","city":"多摩市","address":"多摩市中沢1-31-1","lat":35.621988,"lon":139.411496},{"name":"あんふぁん愛宕事業所","province":"東京都","city":"多摩市","address":"多摩市愛宕四丁目9番22号池田ビル2階201号室","lat":35.628657,"lon":139.428953},{"name":"ドリームボックス多摩センター","province":"東京都","city":"多摩市","address":"多摩市山王下1-13-12パールプラザ103","lat":35.62536,"lon":139.419904},{"name":"多摩市立子育て総合センター","province":"東京都","city":"多摩市","address":"多摩市豊ヶ丘1-21-3","lat":35.627768,"lon":139.429841},{"name":"多摩市子ども家庭支援センター","province":"東京都","city":"多摩市","address":"多摩市豊ヶ丘1-21-3","lat":35.62764,"lon":139.42989},{"name":"多摩市子ども家庭支援センター","province":"東京都","city":"多摩市","address":"多摩市豊ヶ丘1-21-3","lat":35.627768,"lon":139.429841},{"name":"聖蹟桜ヶ丘駅前","province":"東京都","city":"多摩市","address":"東京都多摩市関戸1丁目11-16","lat":35.65043832,"lon":139.44670028},{"name":"聖蹟桜ヶ丘駅前東","province":"東京都","city":"多摩市","address":"東京都多摩市関戸1丁目12-5","lat":35.65013562,"lon":139.44821959},{"name":"新大栗橋","province":"東京都","city":"多摩市","address":"東京都多摩市関戸4丁目10","lat":35.64784988,"lon":139.45292481},{"name":"宝蔵橋","province":"東京都","city":"多摩市","address":"東京都多摩市和田1760-4","lat":35.64854107,"lon":139.43706229},{"name":"諏訪下橋","province":"東京都","city":"多摩市","address":"東京都多摩市貝取1506","lat":35.63534013,"lon":139.44802291},{"name":"永山橋","province":"東京都","city":"多摩市","address":"東京都多摩市乞田1431","lat":35.63512344,"lon":139.4463064},{"name":"多摩消防署前","province":"東京都","city":"多摩市","address":"東京都多摩市永山1丁目2","lat":35.63254878,"lon":139.4473453},{"name":"多摩市役所前","province":"東京都","city":"多摩市","address":"東京都多摩市関戸6丁目13","lat":35.63723988,"lon":139.44764788},{"name":"多摩山王橋南","province":"東京都","city":"多摩市","address":"東京都多摩市落合1丁目9-1","lat":35.62532124,"lon":139.42357823},{"name":"多摩センター駅東","province":"東京都","city":"多摩市","address":"東京都多摩市落合1丁目39-2","lat":35.62459638,"lon":139.4256003},{"name":"多摩センター駅前","province":"東京都","city":"多摩市","address":"東京都多摩市落合1丁目39-1","lat":35.62484357,"lon":139.42555308},{"name":"東電多摩営業所前","province":"東京都","city":"多摩市","address":"東京都多摩市落合1丁目8-4","lat":35.62592121,"lon":139.4253225},{"name":"多摩南部地域病院","province":"東京都","city":"多摩市","address":"東京都多摩市中沢2丁目3-3","lat":35.62247975,"lon":139.41650948},{"name":"多摩中央警察署東","province":"東京都","city":"多摩市","address":"東京都多摩市落合1丁目","lat":35.62318834,"lon":139.43004441},{"name":"多摩保健所前","province":"東京都","city":"多摩市","address":"東京都多摩市永山5丁目5","lat":35.61893655,"lon":139.44431836},{"name":"多摩鶴牧二丁目","province":"東京都","city":"多摩市","address":"東京都多摩市鶴牧1丁目25-1","lat":35.62169382,"lon":139.42006478},{"name":"多摩鶴牧六丁目","province":"東京都","city":"多摩市","address":"東京都多摩市鶴牧6丁目5","lat":35.61383074,"lon":139.41356009},{"name":"多摩青木葉","province":"東京都","city":"多摩市","address":"東京都多摩市落合3丁目5-2","lat":35.62176632,"lon":139.43086662},{"name":"聖蹟桜ヶ丘駅東口","province":"東京都","city":"多摩市","address":"東京都多摩市関戸2丁目41-1","lat":35.65105496,"lon":139.4484001},{"name":"多摩桜の丘学園前","province":"東京都","city":"多摩市","address":"東京都多摩市聖ヶ丘2丁目23","lat":35.6313992,"lon":139.45668896},{"name":"聖ヶ丘一丁目","province":"東京都","city":"多摩市","address":"東京都多摩市聖ヶ丘1丁目","lat":35.63897034,"lon":139.4516308},{"name":"多摩市総合福祉センター前","province":"東京都","city":"多摩市","address":"東京都多摩市南野3丁目15","lat":35.6122226,"lon":139.41298243},{"name":"聖蹟桜ヶ丘駅西口","province":"東京都","city":"多摩市","address":"東京都多摩市関戸1丁目1-5","lat":35.65178259,"lon":139.44601416},{"name":"唐木田駅東","province":"東京都","city":"多摩市","address":"東京都多摩市鶴牧2丁目25-1","lat":35.61624987,"lon":139.41246008},{"name":"鶴牧中学校前","province":"東京都","city":"多摩市","address":"東京都多摩市鶴牧6丁目3","lat":35.61428908,"lon":139.41615986},{"name":"永山駅北","province":"東京都","city":"多摩市","address":"東京都多摩市永山1丁目8-17","lat":35.63195163,"lon":139.44723145},{"name":"熊野橋南","province":"東京都","city":"多摩市","address":"東京都多摩市聖ヶ丘1丁目9","lat":35.63859267,"lon":139.45387506},{"name":"日本医科大学多摩永山病院","province":"東京都","city":"多摩市","address":"東京都多摩市永山1丁目7-1","lat":35.63113783,"lon":139.44665098},{"name":"東京都保健医療公社多摩南部地域病院","province":"東京都","city":"多摩市","address":"東京都多摩市中沢2丁目1-2","lat":35.622938,"lon":139.41525124},{"name":"落合浄水所","province":"東京都","city":"多摩市","address":"東京都多摩市中沢1丁目12","lat":35.62444889,"lon":139.41365963},{"name":"愛宕配水所","province":"東京都","city":"多摩市","address":"東京都多摩市愛宕2丁目51","lat":35.63483719,"lon":139.43953479},{"name":"南野給水所","province":"東京都","city":"多摩市","address":"東京都多摩市南野2丁目16","lat":35.60863738,"lon":139.43101436},{"name":"聖ヶ丘給水所","province":"東京都","city":"多摩市","address":"東京都多摩市聖ヶ丘4丁目1","lat":35.62952201,"lon":139.46372188},{"name":"多摩南部地域病院","province":"東京都","city":"多摩市","address":"東京都多摩市中沢2丁目1-2","lat":35.622938,"lon":139.41525124},{"name":"多摩市立多摩市東公園陸上競技場","province":"東京都","city":"多摩市","address":"東京都多摩市諏訪4丁目9","lat":35.62459204,"lon":139.46102787},{"name":"多摩市立関戸公園グラウンド","province":"東京都","city":"多摩市","address":"東京都多摩市関戸3丁目5","lat":35.65016368,"lon":139.45949912},{"name":"宝野公園","province":"東京都","city":"多摩市","address":"東京都多摩市落合5丁目5","lat":35.61428925,"lon":139.42303984},{"name":"多摩ニュータウン市場","province":"東京都","city":"多摩市","address":"東京都多摩市永山7丁目4","lat":35.60927671,"lon":139.44523259},{"name":"永山高等学校","province":"東京都","city":"多摩市","address":"東京都多摩市永山5丁目22","lat":35.61369294,"lon":139.44800719},{"name":"遊び・運動療育・学びの場　発達支援教室　アルファーラ聖蹟桜ヶ丘教室","province":"東京都","city":"多摩市","address":"多摩市一ノ宮2-19-27太喜ビル第一1階","lat":35.653096,"lon":139.44345},{"name":"グラシアス聖蹟桜ヶ丘駅前教室","province":"東京都","city":"多摩市","address":"多摩市関戸1-12-4糀屋ビル6階","lat":35.650222,"lon":139.448186},{"name":"キャンビー","province":"東京都","city":"多摩市","address":"多摩市貝取4-3-1-110","lat":35.61459,"lon":139.438525},{"name":"メロディ","province":"東京都","city":"多摩市","address":"多摩市聖ヶ丘二丁目第21街区第3号棟第4号室","lat":35.631336,"lon":139.457585},{"name":"ドリームボックス馬引沢","province":"東京都","city":"多摩市","address":"多摩市馬引沢2-3-9レジデンス永山1階A号室","lat":35.633118,"lon":139.452681},{"name":"ドリームボックス諏訪","province":"東京都","city":"多摩市","address":"多摩市諏訪1-53-2ハウスアメニティ1階B号室","lat":35.629647,"lon":139.454475},{"name":"子どもクラブ","province":"東京都","city":"多摩市","address":"多摩市永山4-2-4-106・206","lat":35.621103,"lon":139.449676},{"name":"くぬぎ","province":"東京都","city":"多摩市","address":"多摩市永山3-9東永山複合施設","lat":35.623381,"lon":139.449454},{"name":"ジョイフル","province":"東京都","city":"多摩市","address":"多摩市永山1-8-17ボヌール永山208","lat":35.631968,"lon":139.44722},{"name":"こどもデイサービス　ラフ","province":"東京都","city":"多摩市","address":"多摩市永山2-14-6アドラブールK店舗B","lat":35.630021,"lon":139.443362},{"name":"発達相談支援センター　ＣＯＲＯＮＯＡＨ","province":"東京都","city":"多摩市","address":"多摩市落合3-17-1、105号","lat":35.616514,"lon":139.430489},{"name":"ドリームボックス鶴牧","province":"東京都","city":"多摩市","address":"多摩市鶴牧2-23-21コンフォート鶴牧1階","lat":35.618233,"lon":139.414282},{"name":"島田療育センター","province":"東京都","city":"多摩市","address":"多摩市中沢1-31-1","lat":35.621988,"lon":139.411496},{"name":"あんふぁん愛宕事業所","province":"東京都","city":"多摩市","address":"多摩市愛宕四丁目9番22号池田ビル2階201号室","lat":35.628657,"lon":139.428953},{"name":"ドリームボックス多摩センター","province":"東京都","city":"多摩市","address":"多摩市山王下1-13-12パールプラザ103","lat":35.62536,"lon":139.419904},{"name":"多摩市立子育て総合センター","province":"東京都","city":"多摩市","address":"多摩市豊ヶ丘1-21-3","lat":35.627768,"lon":139.429841},{"name":"多摩市子ども家庭支援センター","province":"東京都","city":"多摩市","address":"多摩市豊ヶ丘1-21-3","lat":35.62764,"lon":139.42989},{"name":"多摩市子ども家庭支援センター","province":"東京都","city":"多摩市","address":"多摩市豊ヶ丘1-21-3","lat":35.627768,"lon":139.429841},{"name":"多摩市立多摩市東公園陸上競技場","province":"東京都","city":"多摩市","address":"東京都多摩市諏訪4丁目9","lat":35.62459204,"lon":139.46102787},{"name":"多摩市立関戸公園グラウンド","province":"東京都","city":"多摩市","address":"東京都多摩市関戸3丁目5","lat":35.65016368,"lon":139.45949912},{"name":"宝野公園","province":"東京都","city":"多摩市","address":"東京都多摩市落合5丁目5","lat":35.61428925,"lon":139.42303984},{"name":"多摩ニュータウン市場","province":"東京都","city":"多摩市","address":"東京都多摩市永山7丁目4","lat":35.60927671,"lon":139.44523259},{"name":"永山高等学校","province":"東京都","city":"多摩市","address":"東京都多摩市永山5丁目22","lat":35.61369294,"lon":139.44800719},{"name":"遊び・運動療育・学びの場　発達支援教室　アルファーラ聖蹟桜ヶ丘教室","province":"東京都","city":"多摩市","address":"多摩市一ノ宮2-19-27太喜ビル第一1階","lat":35.653096,"lon":139.44345},{"name":"グラシアス聖蹟桜ヶ丘駅前教室","province":"東京都","city":"多摩市","address":"多摩市関戸1-12-4糀屋ビル6階","lat":35.650222,"lon":139.448186},{"name":"キャンビー","province":"東京都","city":"多摩市","address":"多摩市貝取4-3-1-110","lat":35.61459,"lon":139.438525},{"name":"メロディ","province":"東京都","city":"多摩市","address":"多摩市聖ヶ丘二丁目第21街区第3号棟第4号室","lat":35.631336,"lon":139.457585},{"name":"ドリームボックス馬引沢","province":"東京都","city":"多摩市","address":"多摩市馬引沢2-3-9レジデンス永山1階A号室","lat":35.633118,"lon":139.452681},{"name":"ドリームボックス諏訪","province":"東京都","city":"多摩市","address":"多摩市諏訪1-53-2ハウスアメニティ1階B号室","lat":35.629647,"lon":139.454475},{"name":"子どもクラブ","province":"東京都","city":"多摩市","address":"多摩市永山4-2-4-106・206","lat":35.621103,"lon":139.449676},{"name":"くぬぎ","province":"東京都","city":"多摩市","address":"多摩市永山3-9東永山複合施設","lat":35.623381,"lon":139.449454},{"name":"ジョイフル","province":"東京都","city":"多摩市","address":"多摩市永山1-8-17ボヌール永山208","lat":35.631968,"lon":139.44722},{"name":"こどもデイサービス　ラフ","province":"東京都","city":"多摩市","address":"多摩市永山2-14-6アドラブールK店舗B","lat":35.630021,"lon":139.443362},{"name":"発達相談支援センター　ＣＯＲＯＮＯＡＨ","province":"東京都","city":"多摩市","address":"多摩市落合3-17-1、105号","lat":35.616514,"lon":139.430489},{"name":"ドリームボックス鶴牧","province":"東京都","city":"多摩市","address":"多摩市鶴牧2-23-21コンフォート鶴牧1階","lat":35.618233,"lon":139.414282},{"name":"島田療育センター","province":"東京都","city":"多摩市","address":"多摩市中沢1-31-1","lat":35.621988,"lon":139.411496},{"name":"あんふぁん愛宕事業所","province":"東京都","city":"多摩市","address":"多摩市愛宕四丁目9番22号池田ビル2階201号室","lat":35.628657,"lon":139.428953},{"name":"ドリームボックス多摩センター","province":"東京都","city":"多摩市","address":"多摩市山王下1-13-12パールプラザ103","lat":35.62536,"lon":139.419904},{"name":"多摩市立子育て総合センター","province":"東京都","city":"多摩市","address":"多摩市豊ヶ丘1-21-3","lat":35.627768,"lon":139.429841},{"name":"多摩市子ども家庭支援センター","province":"東京都","city":"多摩市","address":"多摩市豊ヶ丘1-21-3","lat":35.62764,"lon":139.42989},{"name":"多摩市子ども家庭支援センター","province":"東京都","city":"多摩市","address":"多摩市豊ヶ丘1-21-3","lat":35.627768,"lon":139.429841},{"name":"多摩ニュータウン市場","province":"東京都","city":"多摩市","address":"東京都多摩市永山7丁目4","lat":35.60927671,"lon":139.44523259},{"name":"永山高等学校","province":"東京都","city":"多摩市","address":"東京都多摩市永山5丁目22","lat":35.61369294,"lon":139.44800719},{"name":"遊び・運動療育・学びの場　発達支援教室　アルファーラ聖蹟桜ヶ丘教室","province":"東京都","city":"多摩市","address":"多摩市一ノ宮2-19-27太喜ビル第一1階","lat":35.653096,"lon":139.44345},{"name":"グラシアス聖蹟桜ヶ丘駅前教室","province":"東京都","city":"多摩市","address":"多摩市関戸1-12-4糀屋ビル6階","lat":35.650222,"lon":139.448186},{"name":"キャンビー","province":"東京都","city":"多摩市","address":"多摩市貝取4-3-1-110","lat":35.61459,"lon":139.438525},{"name":"メロディ","province":"東京都","city":"多摩市","address":"多摩市聖ヶ丘二丁目第21街区第3号棟第4号室","lat":35.631336,"lon":139.457585},{"name":"ドリームボックス馬引沢","province":"東京都","city":"多摩市","address":"多摩市馬引沢2-3-9レジデンス永山1階A号室","lat":35.633118,"lon":139.452681},{"name":"ドリームボックス諏訪","province":"東京都","city":"多摩市","address":"多摩市諏訪1-53-2ハウスアメニティ1階B号室","lat":35.629647,"lon":139.454475},{"name":"子どもクラブ","province":"東京都","city":"多摩市","address":"多摩市永山4-2-4-106・206","lat":35.621103,"lon":139.449676},{"name":"くぬぎ","province":"東京都","city":"多摩市","address":"多摩市永山3-9東永山複合施設","lat":35.623381,"lon":139.449454},{"name":"ジョイフル","province":"東京都","city":"多摩市","address":"多摩市永山1-8-17ボヌール永山208","lat":35.631968,"lon":139.44722},{"name":"こどもデイサービス　ラフ","province":"東京都","city":"多摩市","address":"多摩市永山2-14-6アドラブールK店舗B","lat":35.630021,"lon":139.443362},{"name":"発達相談支援センター　ＣＯＲＯＮＯＡＨ","province":"東京都","city":"多摩市","address":"多摩市落合3-17-1、105号","lat":35.616514,"lon":139.430489},{"name":"ドリームボックス鶴牧","province":"東京都","city":"多摩市","address":"多摩市鶴牧2-23-21コンフォート鶴牧1階","lat":35.618233,"lon":139.414282},{"name":"島田療育センター","province":"東京都","city":"多摩市","address":"多摩市中沢1-31-1","lat":35.621988,"lon":139.411496},{"name":"あんふぁん愛宕事業所","province":"東京都","city":"多摩市","address":"多摩市愛宕四丁目9番22号池田ビル2階201号室","lat":35.628657,"lon":139.428953},{"name":"ドリームボックス多摩センター","province":"東京都","city":"多摩市","address":"多摩市山王下1-13-12パールプラザ103","lat":35.62536,"lon":139.419904},{"name":"多摩市立子育て総合センター","province":"東京都","city":"多摩市","address":"多摩市豊ヶ丘1-21-3","lat":35.627768,"lon":139.429841},{"name":"多摩市子ども家庭支援センター","province":"東京都","city":"多摩市","address":"多摩市豊ヶ丘1-21-3","lat":35.62764,"lon":139.42989},{"name":"多摩市子ども家庭支援センター","province":"東京都","city":"多摩市","address":"多摩市豊ヶ丘1-21-3","lat":35.627768,"lon":139.429841},{"name":"多摩ニュータウン市場","province":"東京都","city":"多摩市","address":"東京都多摩市永山7丁目4","lat":35.60927671,"lon":139.44523259},{"name":"永山高等学校","province":"東京都","city":"多摩市","address":"東京都多摩市永山5丁目22","lat":35.61369294,"lon":139.44800719},{"name":"遊び・運動療育・学びの場　発達支援教室　アルファーラ聖蹟桜ヶ丘教室","province":"東京都","city":"多摩市","address":"多摩市一ノ宮2-19-27太喜ビル第一1階","lat":35.653096,"lon":139.44345},{"name":"グラシアス聖蹟桜ヶ丘駅前教室","province":"東京都","city":"多摩市","address":"多摩市関戸1-12-4糀屋ビル6階","lat":35.650222,"lon":139.448186},{"name":"キャンビー","province":"東京都","city":"多摩市","address":"多摩市貝取4-3-1-110","lat":35.61459,"lon":139.438525},{"name":"メロディ","province":"東京都","city":"多摩市","address":"多摩市聖ヶ丘二丁目第21街区第3号棟第4号室","lat":35.631336,"lon":139.457585},{"name":"ドリームボックス馬引沢","province":"東京都","city":"多摩市","address":"多摩市馬引沢2-3-9レジデンス永山1階A号室","lat":35.633118,"lon":139.452681},{"name":"ドリームボックス諏訪","province":"東京都","city":"多摩市","address":"多摩市諏訪1-53-2ハウスアメニティ1階B号室","lat":35.629647,"lon":139.454475},{"name":"子どもクラブ","province":"東京都","city":"多摩市","address":"多摩市永山4-2-4-106・206","lat":35.621103,"lon":139.449676},{"name":"くぬぎ","province":"東京都","city":"多摩市","address":"多摩市永山3-9東永山複合施設","lat":35.623381,"lon":139.449454},{"name":"ジョイフル","province":"東京都","city":"多摩市","address":"多摩市永山1-8-17ボヌール永山208","lat":35.631968,"lon":139.44722},{"name":"こどもデイサービス　ラフ","province":"東京都","city":"多摩市","address":"多摩市永山2-14-6アドラブールK店舗B","lat":35.630021,"lon":139.443362},{"name":"発達相談支援センター　ＣＯＲＯＮＯＡＨ","province":"東京都","city":"多摩市","address":"多摩市落合3-17-1、105号","lat":35.616514,"lon":139.430489},{"name":"ドリームボックス鶴牧","province":"東京都","city":"多摩市","address":"多摩市鶴牧2-23-21コンフォート鶴牧1階","lat":35.618233,"lon":139.414282},{"name":"島田療育センター","province":"東京都","city":"多摩市","address":"多摩市中沢1-31-1","lat":35.621988,"lon":139.411496},{"name":"あんふぁん愛宕事業所","province":"東京都","city":"多摩市","address":"多摩市愛宕四丁目9番22号池田ビル2階201号室","lat":35.628657,"lon":139.428953},{"name":"ドリームボックス多摩センター","province":"東京都","city":"多摩市","address":"多摩市山王下1-13-12パールプラザ103","lat":35.62536,"lon":139.419904},{"name":"多摩市立子育て総合センター","province":"東京都","city":"多摩市","address":"多摩市豊ヶ丘1-21-3","lat":35.627768,"lon":139.429841},{"name":"多摩市子ども家庭支援センター","province":"東京都","city":"多摩市","address":"多摩市豊ヶ丘1-21-3","lat":35.62764,"lon":139.42989},{"name":"多摩市子ども家庭支援センター","province":"東京都","city":"多摩市","address":"多摩市豊ヶ丘1-21-3","lat":35.627768,"lon":139.429841},{"name":"多摩ニュータウン市場","province":"東京都","city":"多摩市","address":"東京都多摩市永山7丁目4","lat":35.60927671,"lon":139.44523259},{"name":"永山高等学校","province":"東京都","city":"多摩市","address":"東京都多摩市永山5丁目22","lat":35.61369294,"lon":139.44800719},{"name":"遊び・運動療育・学びの場　発達支援教室　アルファーラ聖蹟桜ヶ丘教室","province":"東京都","city":"多摩市","address":"多摩市一ノ宮2-19-27太喜ビル第一1階","lat":35.653096,"lon":139.44345},{"name":"グラシアス聖蹟桜ヶ丘駅前教室","province":"東京都","city":"多摩市","address":"多摩市関戸1-12-4糀屋ビル6階","lat":35.650222,"lon":139.448186},{"name":"キャンビー","province":"東京都","city":"多摩市","address":"多摩市貝取4-3-1-110","lat":35.61459,"lon":139.438525},{"name":"メロディ","province":"東京都","city":"多摩市","address":"多摩市聖ヶ丘二丁目第21街区第3号棟第4号室","lat":35.631336,"lon":139.457585},{"name":"ドリームボックス馬引沢","province":"東京都","city":"多摩市","address":"多摩市馬引沢2-3-9レジデンス永山1階A号室","lat":35.633118,"lon":139.452681},{"name":"ドリームボックス諏訪","province":"東京都","city":"多摩市","address":"多摩市諏訪1-53-2ハウスアメニティ1階B号室","lat":35.629647,"lon":139.454475},{"name":"子どもクラブ","province":"東京都","city":"多摩市","address":"多摩市永山4-2-4-106・206","lat":35.621103,"lon":139.449676},{"name":"くぬぎ","province":"東京都","city":"多摩市","address":"多摩市永山3-9東永山複合施設","lat":35.623381,"lon":139.449454},{"name":"ジョイフル","province":"東京都","city":"多摩市","address":"多摩市永山1-8-17ボヌール永山208","lat":35.631968,"lon":139.44722},{"name":"こどもデイサービス　ラフ","province":"東京都","city":"多摩市","address":"多摩市永山2-14-6アドラブールK店舗B","lat":35.630021,"lon":139.443362},{"name":"発達相談支援センター　ＣＯＲＯＮＯＡＨ","province":"東京都","city":"多摩市","address":"多摩市落合3-17-1、105号","lat":35.616514,"lon":139.430489},{"name":"ドリームボックス鶴牧","province":"東京都","city":"多摩市","address":"多摩市鶴牧2-23-21コンフォート鶴牧1階","lat":35.618233,"lon":139.414282},{"name":"島田療育センター","province":"東京都","city":"多摩市","address":"多摩市中沢1-31-1","lat":35.621988,"lon":139.411496},{"name":"あんふぁん愛宕事業所","province":"東京都","city":"多摩市","address":"多摩市愛宕四丁目9番22号池田ビル2階201号室","lat":35.628657,"lon":139.428953},{"name":"ドリームボックス多摩センター","province":"東京都","city":"多摩市","address":"多摩市山王下1-13-12パールプラザ103","lat":35.62536,"lon":139.419904},{"name":"多摩市立子育て総合センター","province":"東京都","city":"多摩市","address":"多摩市豊ヶ丘1-21-3","lat":35.627768,"lon":139.429841},{"name":"多摩市子ども家庭支援センター","province":"東京都","city":"多摩市","address":"多摩市豊ヶ丘1-21-3","lat":35.62764,"lon":139.42989},{"name":"多摩市子ども家庭支援センター","province":"東京都","city":"多摩市","address":"多摩市豊ヶ丘1-21-3","lat":35.627768,"lon":139.429841},{"name":"多摩ニュータウン市場","province":"東京都","city":"多摩市","address":"東京都多摩市永山7丁目4","lat":35.60927671,"lon":139.44523259},{"name":"永山高等学校","province":"東京都","city":"多摩市","address":"東京都多摩市永山5丁目22","lat":35.61369294,"lon":139.44800719},{"name":"遊び・運動療育・学びの場　発達支援教室　アルファーラ聖蹟桜ヶ丘教室","province":"東京都","city":"多摩市","address":"多摩市一ノ宮2-19-27太喜ビル第一1階","lat":35.653096,"lon":139.44345},{"name":"グラシアス聖蹟桜ヶ丘駅前教室","province":"東京都","city":"多摩市","address":"多摩市関戸1-12-4糀屋ビル6階","lat":35.650222,"lon":139.448186},{"name":"キャンビー","province":"東京都","city":"多摩市","address":"多摩市貝取4-3-1-110","lat":35.61459,"lon":139.438525},{"name":"メロディ","province":"東京都","city":"多摩市","address":"多摩市聖ヶ丘二丁目第21街区第3号棟第4号室","lat":35.631336,"lon":139.457585},{"name":"ドリームボックス馬引沢","province":"東京都","city":"多摩市","address":"多摩市馬引沢2-3-9レジデンス永山1階A号室","lat":35.633118,"lon":139.452681},{"name":"ドリームボックス諏訪","province":"東京都","city":"多摩市","address":"多摩市諏訪1-53-2ハウスアメニティ1階B号室","lat":35.629647,"lon":139.454475},{"name":"子どもクラブ","province":"東京都","city":"多摩市","address":"多摩市永山4-2-4-106・206","lat":35.621103,"lon":139.449676},{"name":"くぬぎ","province":"東京都","city":"多摩市","address":"多摩市永山3-9東永山複合施設","lat":35.623381,"lon":139.449454},{"name":"ジョイフル","province":"東京都","city":"多摩市","address":"多摩市永山1-8-17ボヌール永山208","lat":35.631968,"lon":139.44722},{"name":"こどもデイサービス　ラフ","province":"東京都","city":"多摩市","address":"多摩市永山2-14-6アドラブールK店舗B","lat":35.630021,"lon":139.443362},{"name":"発達相談支援センター　ＣＯＲＯＮＯＡＨ","province":"東京都","city":"多摩市","address":"多摩市落合3-17-1、105号","lat":35.616514,"lon":139.430489},{"name":"ドリームボックス鶴牧","province":"東京都","city":"多摩市","address":"多摩市鶴牧2-23-21コンフォート鶴牧1階","lat":35.618233,"lon":139.414282},{"name":"島田療育センター","province":"東京都","city":"多摩市","address":"多摩市中沢1-31-1","lat":35.621988,"lon":139.411496},{"name":"あんふぁん愛宕事業所","province":"東京都","city":"多摩市","address":"多摩市愛宕四丁目9番22号池田ビル2階201号室","lat":35.628657,"lon":139.428953},{"name":"ドリームボックス多摩センター","province":"東京都","city":"多摩市","address":"多摩市山王下1-13-12パールプラザ103","lat":35.62536,"lon":139.419904},{"name":"多摩市立子育て総合センター","province":"東京都","city":"多摩市","address":"多摩市豊ヶ丘1-21-3","lat":35.627768,"lon":139.429841},{"name":"多摩市子ども家庭支援センター","province":"東京都","city":"多摩市","address":"多摩市豊ヶ丘1-21-3","lat":35.62764,"lon":139.42989},{"name":"多摩市子ども家庭支援センター","province":"東京都","city":"多摩市","address":"多摩市豊ヶ丘1-21-3","lat":35.627768,"lon":139.429841},{"name":"多摩ニュータウン市場","province":"東京都","city":"多摩市","address":"東京都多摩市永山7丁目4","lat":35.60927671,"lon":139.44523259},{"name":"永山高等学校","province":"東京都","city":"多摩市","address":"東京都多摩市永山5丁目22","lat":35.61369294,"lon":139.44800719},{"name":"遊び・運動療育・学びの場　発達支援教室　アルファーラ聖蹟桜ヶ丘教室","province":"東京都","city":"多摩市","address":"多摩市一ノ宮2-19-27太喜ビル第一1階","lat":35.653096,"lon":139.44345},{"name":"グラシアス聖蹟桜ヶ丘駅前教室","province":"東京都","city":"多摩市","address":"多摩市関戸1-12-4糀屋ビル6階","lat":35.650222,"lon":139.448186},{"name":"キャンビー","province":"東京都","city":"多摩市","address":"多摩市貝取4-3-1-110","lat":35.61459,"lon":139.438525},{"name":"メロディ","province":"東京都","city":"多摩市","address":"多摩市聖ヶ丘二丁目第21街区第3号棟第4号室","lat":35.631336,"lon":139.457585},{"name":"ドリームボックス馬引沢","province":"東京都","city":"多摩市","address":"多摩市馬引沢2-3-9レジデンス永山1階A号室","lat":35.633118,"lon":139.452681},{"name":"ドリームボックス諏訪","province":"東京都","city":"多摩市","address":"多摩市諏訪1-53-2ハウスアメニティ1階B号室","lat":35.629647,"lon":139.454475},{"name":"子どもクラブ","province":"東京都","city":"多摩市","address":"多摩市永山4-2-4-106・206","lat":35.621103,"lon":139.449676},{"name":"くぬぎ","province":"東京都","city":"多摩市","address":"多摩市永山3-9東永山複合施設","lat":35.623381,"lon":139.449454},{"name":"ジョイフル","province":"東京都","city":"多摩市","address":"多摩市永山1-8-17ボヌール永山208","lat":35.631968,"lon":139.44722},{"name":"こどもデイサービス　ラフ","province":"東京都","city":"多摩市","address":"多摩市永山2-14-6アドラブールK店舗B","lat":35.630021,"lon":139.443362},{"name":"発達相談支援センター　ＣＯＲＯＮＯＡＨ","province":"東京都","city":"多摩市","address":"多摩市落合3-17-1、105号","lat":35.616514,"lon":139.430489},{"name":"ドリームボックス鶴牧","province":"東京都","city":"多摩市","address":"多摩市鶴牧2-23-21コンフォート鶴牧1階","lat":35.618233,"lon":139.414282},{"name":"島田療育センター","province":"東京都","city":"多摩市","address":"多摩市中沢1-31-1","lat":35.621988,"lon":139.411496},{"name":"あんふぁん愛宕事業所","province":"東京都","city":"多摩市","address":"多摩市愛宕四丁目9番22号池田ビル2階201号室","lat":35.628657,"lon":139.428953},{"name":"ドリームボックス多摩センター","province":"東京都","city":"多摩市","address":"多摩市山王下1-13-12パールプラザ103","lat":35.62536,"lon":139.419904},{"name":"多摩市立子育て総合センター","province":"東京都","city":"多摩市","address":"多摩市豊ヶ丘1-21-3","lat":35.627768,"lon":139.429841},{"name":"多摩市子ども家庭支援センター","province":"東京都","city":"多摩市","address":"多摩市豊ヶ丘1-21-3","lat":35.62764,"lon":139.42989},{"name":"多摩市子ども家庭支援センター","province":"東京都","city":"多摩市","address":"多摩市豊ヶ丘1-21-3","lat":35.627768,"lon":139.429841},{"name":"多摩ニュータウン市場","province":"東京都","city":"多摩市","address":"東京都多摩市永山7丁目4","lat":35.60927671,"lon":139.44523259},{"name":"永山高等学校","province":"東京都","city":"多摩市","address":"東京都多摩市永山5丁目22","lat":35.61369294,"lon":139.44800719},{"name":"遊び・運動療育・学びの場　発達支援教室　アルファーラ聖蹟桜ヶ丘教室","province":"東京都","city":"多摩市","address":"多摩市一ノ宮2-19-27太喜ビル第一1階","lat":35.653096,"lon":139.44345},{"name":"グラシアス聖蹟桜ヶ丘駅前教室","province":"東京都","city":"多摩市","address":"多摩市関戸1-12-4糀屋ビル6階","lat":35.650222,"lon":139.448186},{"name":"キャンビー","province":"東京都","city":"多摩市","address":"多摩市貝取4-3-1-110","lat":35.61459,"lon":139.438525},{"name":"メロディ","province":"東京都","city":"多摩市","address":"多摩市聖ヶ丘二丁目第21街区第3号棟第4号室","lat":35.631336,"lon":139.457585},{"name":"ドリームボックス馬引沢","province":"東京都","city":"多摩市","address":"多摩市馬引沢2-3-9レジデンス永山1階A号室","lat":35.633118,"lon":139.452681},{"name":"ドリームボックス諏訪","province":"東京都","city":"多摩市","address":"多摩市諏訪1-53-2ハウスアメニティ1階B号室","lat":35.629647,"lon":139.454475},{"name":"子どもクラブ","province":"東京都","city":"多摩市","address":"多摩市永山4-2-4-106・206","lat":35.621103,"lon":139.449676},{"name":"くぬぎ","province":"東京都","city":"多摩市","address":"多摩市永山3-9東永山複合施設","lat":35.623381,"lon":139.449454},{"name":"ジョイフル","province":"東京都","city":"多摩市","address":"多摩市永山1-8-17ボヌール永山208","lat":35.631968,"lon":139.44722},{"name":"こどもデイサービス　ラフ","province":"東京都","city":"多摩市","address":"多摩市永山2-14-6アドラブールK店舗B","lat":35.630021,"lon":139.443362},{"name":"発達相談支援センター　ＣＯＲＯＮＯＡＨ","province":"東京都","city":"多摩市","address":"多摩市落合3-17-1、105号","lat":35.616514,"lon":139.430489},{"name":"ドリームボックス鶴牧","province":"東京都","city":"多摩市","address":"多摩市鶴牧2-23-21コンフォート鶴牧1階","lat":35.618233,"lon":139.414282},{"name":"島田療育センター","province":"東京都","city":"多摩市","address":"多摩市中沢1-31-1","lat":35.621988,"lon":139.411496},{"name":"あんふぁん愛宕事業所","province":"東京都","city":"多摩市","address":"多摩市愛宕四丁目9番22号池田ビル2階201号室","lat":35.628657,"lon":139.428953},{"name":"ドリームボックス多摩センター","province":"東京都","city":"多摩市","address":"多摩市山王下1-13-12パールプラザ103","lat":35.62536,"lon":139.419904},{"name":"多摩市立子育て総合センター","province":"東京都","city":"多摩市","address":"多摩市豊ヶ丘1-21-3","lat":35.627768,"lon":139.429841},{"name":"多摩市子ども家庭支援センター","province":"東京都","city":"多摩市","address":"多摩市豊ヶ丘1-21-3","lat":35.62764,"lon":139.42989},{"name":"多摩市子ども家庭支援センター","province":"東京都","city":"多摩市","address":"多摩市豊ヶ丘1-21-3","lat":35.627768,"lon":139.429841},{"name":"多摩ニュータウン市場","province":"東京都","city":"多摩市","address":"東京都多摩市永山7丁目4","lat":35.60927671,"lon":139.44523259},{"name":"永山高等学校","province":"東京都","city":"多摩市","address":"東京都多摩市永山5丁目22","lat":35.61369294,"lon":139.44800719},{"name":"遊び・運動療育・学びの場　発達支援教室　アルファーラ聖蹟桜ヶ丘教室","province":"東京都","city":"多摩市","address":"多摩市一ノ宮2-19-27太喜ビル第一1階","lat":35.653096,"lon":139.44345},{"name":"グラシアス聖蹟桜ヶ丘駅前教室","province":"東京都","city":"多摩市","address":"多摩市関戸1-12-4糀屋ビル6階","lat":35.650222,"lon":139.448186},{"name":"キャンビー","province":"東京都","city":"多摩市","address":"多摩市貝取4-3-1-110","lat":35.61459,"lon":139.438525},{"name":"メロディ","province":"東京都","city":"多摩市","address":"多摩市聖ヶ丘二丁目第21街区第3号棟第4号室","lat":35.631336,"lon":139.457585},{"name":"ドリームボックス馬引沢","province":"東京都","city":"多摩市","address":"多摩市馬引沢2-3-9レジデンス永山1階A号室","lat":35.633118,"lon":139.452681},{"name":"ドリームボックス諏訪","province":"東京都","city":"多摩市","address":"多摩市諏訪1-53-2ハウスアメニティ1階B号室","lat":35.629647,"lon":139.454475},{"name":"子どもクラブ","province":"東京都","city":"多摩市","address":"多摩市永山4-2-4-106・206","lat":35.621103,"lon":139.449676},{"name":"くぬぎ","province":"東京都","city":"多摩市","address":"多摩市永山3-9東永山複合施設","lat":35.623381,"lon":139.449454},{"name":"ジョイフル","province":"東京都","city":"多摩市","address":"多摩市永山1-8-17ボヌール永山208","lat":35.631968,"lon":139.44722},{"name":"こどもデイサービス　ラフ","province":"東京都","city":"多摩市","address":"多摩市永山2-14-6アドラブールK店舗B","lat":35.630021,"lon":139.443362},{"name":"発達相談支援センター　ＣＯＲＯＮＯＡＨ","province":"東京都","city":"多摩市","address":"多摩市落合3-17-1、105号","lat":35.616514,"lon":139.430489},{"name":"ドリームボックス鶴牧","province":"東京都","city":"多摩市","address":"多摩市鶴牧2-23-21コンフォート鶴牧1階","lat":35.618233,"lon":139.414282},{"name":"島田療育センター","province":"東京都","city":"多摩市","address":"多摩市中沢1-31-1","lat":35.621988,"lon":139.411496},{"name":"あんふぁん愛宕事業所","province":"東京都","city":"多摩市","address":"多摩市愛宕四丁目9番22号池田ビル2階201号室","lat":35.628657,"lon":139.428953},{"name":"ドリームボックス多摩センター","province":"東京都","city":"多摩市","address":"多摩市山王下1-13-12パールプラザ103","lat":35.62536,"lon":139.419904},{"name":"多摩市立子育て総合センター","province":"東京都","city":"多摩市","address":"多摩市豊ヶ丘1-21-3","lat":35.627768,"lon":139.429841},{"name":"多摩市子ども家庭支援センター","province":"東京都","city":"多摩市","address":"多摩市豊ヶ丘1-21-3","lat":35.62764,"lon":139.42989},{"name":"多摩市子ども家庭支援センター","province":"東京都","city":"多摩市","address":"多摩市豊ヶ丘1-21-3","lat":35.627768,"lon":139.429841},{"name":"多摩ニュータウン市場","province":"東京都","city":"多摩市","address":"東京都多摩市永山7丁目4","lat":35.60927671,"lon":139.44523259},{"name":"永山高等学校","province":"東京都","city":"多摩市","address":"東京都多摩市永山5丁目22","lat":35.61369294,"lon":139.44800719},{"name":"遊び・運動療育・学びの場　発達支援教室　アルファーラ聖蹟桜ヶ丘教室","province":"東京都","city":"多摩市","address":"多摩市一ノ宮2-19-27太喜ビル第一1階","lat":35.653096,"lon":139.44345},{"name":"グラシアス聖蹟桜ヶ丘駅前教室","province":"東京都","city":"多摩市","address":"多摩市関戸1-12-4糀屋ビル6階","lat":35.650222,"lon":139.448186},{"name":"キャンビー","province":"東京都","city":"多摩市","address":"多摩市貝取4-3-1-110","lat":35.61459,"lon":139.438525},{"name":"メロディ","province":"東京都","city":"多摩市","address":"多摩市聖ヶ丘二丁目第21街区第3号棟第4号室","lat":35.631336,"lon":139.457585},{"name":"ドリームボックス馬引沢","province":"東京都","city":"多摩市","address":"多摩市馬引沢2-3-9レジデンス永山1階A号室","lat":35.633118,"lon":139.452681},{"name":"ドリームボックス諏訪","province":"東京都","city":"多摩市","address":"多摩市諏訪1-53-2ハウスアメニティ1階B号室","lat":35.629647,"lon":139.454475},{"name":"子どもクラブ","province":"東京都","city":"多摩市","address":"多摩市永山4-2-4-106・206","lat":35.621103,"lon":139.449676},{"name":"くぬぎ","province":"東京都","city":"多摩市","address":"多摩市永山3-9東永山複合施設","lat":35.623381,"lon":139.449454},{"name":"ジョイフル","province":"東京都","city":"多摩市","address":"多摩市永山1-8-17ボヌール永山208","lat":35.631968,"lon":139.44722},{"name":"こどもデイサービス　ラフ","province":"東京都","city":"多摩市","address":"多摩市永山2-14-6アドラブールK店舗B","lat":35.630021,"lon":139.443362},{"name":"発達相談支援センター　ＣＯＲＯＮＯＡＨ","province":"東京都","city":"多摩市","address":"多摩市落合3-17-1、105号","lat":35.616514,"lon":139.430489},{"name":"ドリームボックス鶴牧","province":"東京都","city":"多摩市","address":"多摩市鶴牧2-23-21コンフォート鶴牧1階","lat":35.618233,"lon":139.414282},{"name":"島田療育センター","province":"東京都","city":"多摩市","address":"多摩市中沢1-31-1","lat":35.621988,"lon":139.411496},{"name":"あんふぁん愛宕事業所","province":"東京都","city":"多摩市","address":"多摩市愛宕四丁目9番22号池田ビル2階201号室","lat":35.628657,"lon":139.428953},{"name":"ドリームボックス多摩センター","province":"東京都","city":"多摩市","address":"多摩市山王下1-13-12パールプラザ103","lat":35.62536,"lon":139.419904},{"name":"多摩市立子育て総合センター","province":"東京都","city":"多摩市","address":"多摩市豊ヶ丘1-21-3","lat":35.627768,"lon":139.429841},{"name":"多摩市子ども家庭支援センター","province":"東京都","city":"多摩市","address":"多摩市豊ヶ丘1-21-3","lat":35.62764,"lon":139.42989},{"name":"多摩市子ども家庭支援センター","province":"東京都","city":"多摩市","address":"多摩市豊ヶ丘1-21-3","lat":35.627768,"lon":139.429841},{"name":"多摩ニュータウン市場","province":"東京都","city":"多摩市","address":"東京都多摩市永山7丁目4","lat":35.60927671,"lon":139.44523259},{"name":"永山高等学校","province":"東京都","city":"多摩市","address":"東京都多摩市永山5丁目22","lat":35.61369294,"lon":139.44800719},{"name":"遊び・運動療育・学びの場　発達支援教室　アルファーラ聖蹟桜ヶ丘教室","province":"東京都","city":"多摩市","address":"多摩市一ノ宮2-19-27太喜ビル第一1階","lat":35.653096,"lon":139.44345},{"name":"グラシアス聖蹟桜ヶ丘駅前教室","province":"東京都","city":"多摩市","address":"多摩市関戸1-12-4糀屋ビル6階","lat":35.650222,"lon":139.448186},{"name":"キャンビー","province":"東京都","city":"多摩市","address":"多摩市貝取4-3-1-110","lat":35.61459,"lon":139.438525},{"name":"メロディ","province":"東京都","city":"多摩市","address":"多摩市聖ヶ丘二丁目第21街区第3号棟第4号室","lat":35.631336,"lon":139.457585},{"name":"ドリームボックス馬引沢","province":"東京都","city":"多摩市","address":"多摩市馬引沢2-3-9レジデンス永山1階A号室","lat":35.633118,"lon":139.452681},{"name":"ドリームボックス諏訪","province":"東京都","city":"多摩市","address":"多摩市諏訪1-53-2ハウスアメニティ1階B号室","lat":35.629647,"lon":139.454475},{"name":"子どもクラブ","province":"東京都","city":"多摩市","address":"多摩市永山4-2-4-106・206","lat":35.621103,"lon":139.449676},{"name":"くぬぎ","province":"東京都","city":"多摩市","address":"多摩市永山3-9東永山複合施設","lat":35.623381,"lon":139.449454},{"name":"ジョイフル","province":"東京都","city":"多摩市","address":"多摩市永山1-8-17ボヌール永山208","lat":35.631968,"lon":139.44722},{"name":"こどもデイサービス　ラフ","province":"東京都","city":"多摩市","address":"多摩市永山2-14-6アドラブールK店舗B","lat":35.630021,"lon":139.443362},{"name":"発達相談支援センター　ＣＯＲＯＮＯＡＨ","province":"東京都","city":"多摩市","address":"多摩市落合3-17-1、105号","lat":35.616514,"lon":139.430489},{"name":"ドリームボックス鶴牧","province":"東京都","city":"多摩市","address":"多摩市鶴牧2-23-21コンフォート鶴牧1階","lat":35.618233,"lon":139.414282},{"name":"島田療育センター","province":"東京都","city":"多摩市","address":"多摩市中沢1-31-1","lat":35.621988,"lon":139.411496},{"name":"あんふぁん愛宕事業所","province":"東京都","city":"多摩市","address":"多摩市愛宕四丁目9番22号池田ビル2階201号室","lat":35.628657,"lon":139.428953},{"name":"ドリームボックス多摩センター","province":"東京都","city":"多摩市","address":"多摩市山王下1-13-12パールプラザ103","lat":35.62536,"lon":139.419904},{"name":"多摩市立子育て総合センター","province":"東京都","city":"多摩市","address":"多摩市豊ヶ丘1-21-3","lat":35.627768,"lon":139.429841},{"name":"多摩市子ども家庭支援センター","province":"東京都","city":"多摩市","address":"多摩市豊ヶ丘1-21-3","lat":35.62764,"lon":139.42989},{"name":"多摩市子ども家庭支援センター","province":"東京都","city":"多摩市","address":"多摩市豊ヶ丘1-21-3","lat":35.627768,"lon":139.429841},{"name":"多摩ニュータウン市場","province":"東京都","city":"多摩市","address":"東京都多摩市永山7丁目4","lat":35.60927671,"lon":139.44523259},{"name":"永山高等学校","province":"東京都","city":"多摩市","address":"東京都多摩市永山5丁目22","lat":35.61369294,"lon":139.44800719},{"name":"遊び・運動療育・学びの場　発達支援教室　アルファーラ聖蹟桜ヶ丘教室","province":"東京都","city":"多摩市","address":"多摩市一ノ宮2-19-27太喜ビル第一1階","lat":35.653096,"lon":139.44345},{"name":"グラシアス聖蹟桜ヶ丘駅前教室","province":"東京都","city":"多摩市","address":"多摩市関戸1-12-4糀屋ビル6階","lat":35.650222,"lon":139.448186},{"name":"キャンビー","province":"東京都","city":"多摩市","address":"多摩市貝取4-3-1-110","lat":35.61459,"lon":139.438525},{"name":"メロディ","province":"東京都","city":"多摩市","address":"多摩市聖ヶ丘二丁目第21街区第3号棟第4号室","lat":35.631336,"lon":139.457585},{"name":"ドリームボックス馬引沢","province":"東京都","city":"多摩市","address":"多摩市馬引沢2-3-9レジデンス永山1階A号室","lat":35.633118,"lon":139.452681},{"name":"ドリームボックス諏訪","province":"東京都","city":"多摩市","address":"多摩市諏訪1-53-2ハウスアメニティ1階B号室","lat":35.629647,"lon":139.454475},{"name":"子どもクラブ","province":"東京都","city":"多摩市","address":"多摩市永山4-2-4-106・206","lat":35.621103,"lon":139.449676},{"name":"くぬぎ","province":"東京都","city":"多摩市","address":"多摩市永山3-9東永山複合施設","lat":35.623381,"lon":139.449454},{"name":"ジョイフル","province":"東京都","city":"多摩市","address":"多摩市永山1-8-17ボヌール永山208","lat":35.631968,"lon":139.44722},{"name":"こどもデイサービス　ラフ","province":"東京都","city":"多摩市","address":"多摩市永山2-14-6アドラブールK店舗B","lat":35.630021,"lon":139.443362},{"name":"発達相談支援センター　ＣＯＲＯＮＯＡＨ","province":"東京都","city":"多摩市","address":"多摩市落合3-17-1、105号","lat":35.616514,"lon":139.430489},{"name":"ドリームボックス鶴牧","province":"東京都","city":"多摩市","address":"多摩市鶴牧2-23-21コンフォート鶴牧1階","lat":35.618233,"lon":139.414282},{"name":"島田療育センター","province":"東京都","city":"多摩市","address":"多摩市中沢1-31-1","lat":35.621988,"lon":139.411496},{"name":"あんふぁん愛宕事業所","province":"東京都","city":"多摩市","address":"多摩市愛宕四丁目9番22号池田ビル2階201号室","lat":35.628657,"lon":139.428953},{"name":"ドリームボックス多摩センター","province":"東京都","city":"多摩市","address":"多摩市山王下1-13-12パールプラザ103","lat":35.62536,"lon":139.419904},{"name":"多摩市立子育て総合センター","province":"東京都","city":"多摩市","address":"多摩市豊ヶ丘1-21-3","lat":35.627768,"lon":139.429841},{"name":"多摩市子ども家庭支援センター","province":"東京都","city":"多摩市","address":"多摩市豊ヶ丘1-21-3","lat":35.62764,"lon":139.42989},{"name":"多摩市子ども家庭支援センター","province":"東京都","city":"多摩市","address":"多摩市豊ヶ丘1-21-3","lat":35.627768,"lon":139.429841},{"name":"多摩ニュータウン市場","province":"東京都","city":"多摩市","address":"東京都多摩市永山7丁目4","lat":35.60927671,"lon":139.44523259},{"name":"永山高等学校","province":"東京都","city":"多摩市","address":"東京都多摩市永山5丁目22","lat":35.61369294,"lon":139.44800719},{"name":"遊び・運動療育・学びの場　発達支援教室　アルファーラ聖蹟桜ヶ丘教室","province":"東京都","city":"多摩市","address":"多摩市一ノ宮2-19-27太喜ビル第一1階","lat":35.653096,"lon":139.44345},{"name":"グラシアス聖蹟桜ヶ丘駅前教室","province":"東京都","city":"多摩市","address":"多摩市関戸1-12-4糀屋ビル6階","lat":35.650222,"lon":139.448186},{"name":"キャンビー","province":"東京都","city":"多摩市","address":"多摩市貝取4-3-1-110","lat":35.61459,"lon":139.438525},{"name":"メロディ","province":"東京都","city":"多摩市","address":"多摩市聖ヶ丘二丁目第21街区第3号棟第4号室","lat":35.631336,"lon":139.457585},{"name":"ドリームボックス馬引沢","province":"東京都","city":"多摩市","address":"多摩市馬引沢2-3-9レジデンス永山1階A号室","lat":35.633118,"lon":139.452681},{"name":"ドリームボックス諏訪","province":"東京都","city":"多摩市","address":"多摩市諏訪1-53-2ハウスアメニティ1階B号室","lat":35.629647,"lon":139.454475},{"name":"子どもクラブ","province":"東京都","city":"多摩市","address":"多摩市永山4-2-4-106・206","lat":35.621103,"lon":139.449676},{"name":"くぬぎ","province":"東京都","city":"多摩市","address":"多摩市永山3-9東永山複合施設","lat":35.623381,"lon":139.449454},{"name":"ジョイフル","province":"東京都","city":"多摩市","address":"多摩市永山1-8-17ボヌール永山208","lat":35.631968,"lon":139.44722},{"name":"こどもデイサービス　ラフ","province":"東京都","city":"多摩市","address":"多摩市永山2-14-6アドラブールK店舗B","lat":35.630021,"lon":139.443362},{"name":"発達相談支援センター　ＣＯＲＯＮＯＡＨ","province":"東京都","city":"多摩市","address":"多摩市落合3-17-1、105号","lat":35.616514,"lon":139.430489},{"name":"ドリームボックス鶴牧","province":"東京都","city":"多摩市","address":"多摩市鶴牧2-23-21コンフォート鶴牧1階","lat":35.618233,"lon":139.414282},{"name":"島田療育センター","province":"東京都","city":"多摩市","address":"多摩市中沢1-31-1","lat":35.621988,"lon":139.411496},{"name":"あんふぁん愛宕事業所","province":"東京都","city":"多摩市","address":"多摩市愛宕四丁目9番22号池田ビル2階201号室","lat":35.628657,"lon":139.428953},{"name":"ドリームボックス多摩センター","province":"東京都","city":"多摩市","address":"多摩市山王下1-13-12パールプラザ103","lat":35.62536,"lon":139.419904},{"name":"多摩市立子育て総合センター","province":"東京都","city":"多摩市","address":"多摩市豊ヶ丘1-21-3","lat":35.627768,"lon":139.429841},{"name":"多摩市子ども家庭支援センター","province":"東京都","city":"多摩市","address":"多摩市豊ヶ丘1-21-3","lat":35.62764,"lon":139.42989},{"name":"多摩市子ども家庭支援センター","province":"東京都","city":"多摩市","address":"多摩市豊ヶ丘1-21-3","lat":35.627768,"lon":139.429841},{"name":"多摩ニュータウン市場","province":"東京都","city":"多摩市","address":"東京都多摩市永山7丁目4","lat":35.60927671,"lon":139.44523259},{"name":"永山高等学校","province":"東京都","city":"多摩市","address":"東京都多摩市永山5丁目22","lat":35.61369294,"lon":139.44800719},{"name":"遊び・運動療育・学びの場　発達支援教室　アルファーラ聖蹟桜ヶ丘教室","province":"東京都","city":"多摩市","address":"多摩市一ノ宮2-19-27太喜ビル第一1階","lat":35.653096,"lon":139.44345},{"name":"グラシアス聖蹟桜ヶ丘駅前教室","province":"東京都","city":"多摩市","address":"多摩市関戸1-12-4糀屋ビル6階","lat":35.650222,"lon":139.448186},{"name":"キャンビー","province":"東京都","city":"多摩市","address":"多摩市貝取4-3-1-110","lat":35.61459,"lon":139.438525},{"name":"メロディ","province":"東京都","city":"多摩市","address":"多摩市聖ヶ丘二丁目第21街区第3号棟第4号室","lat":35.631336,"lon":139.457585},{"name":"ドリームボックス馬引沢","province":"東京都","city":"多摩市","address":"多摩市馬引沢2-3-9レジデンス永山1階A号室","lat":35.633118,"lon":139.452681},{"name":"ドリームボックス諏訪","province":"東京都","city":"多摩市","address":"多摩市諏訪1-53-2ハウスアメニティ1階B号室","lat":35.629647,"lon":139.454475},{"name":"子どもクラブ","province":"東京都","city":"多摩市","address":"多摩市永山4-2-4-106・206","lat":35.621103,"lon":139.449676},{"name":"くぬぎ","province":"東京都","city":"多摩市","address":"多摩市永山3-9東永山複合施設","lat":35.623381,"lon":139.449454},{"name":"ジョイフル","province":"東京都","city":"多摩市","address":"多摩市永山1-8-17ボヌール永山208","lat":35.631968,"lon":139.44722},{"name":"こどもデイサービス　ラフ","province":"東京都","city":"多摩市","address":"多摩市永山2-14-6アドラブールK店舗B","lat":35.630021,"lon":139.443362},{"name":"発達相談支援センター　ＣＯＲＯＮＯＡＨ","province":"東京都","city":"多摩市","address":"多摩市落合3-17-1、105号","lat":35.616514,"lon":139.430489},{"name":"ドリームボックス鶴牧","province":"東京都","city":"多摩市","address":"多摩市鶴牧2-23-21コンフォート鶴牧1階","lat":35.618233,"lon":139.414282},{"name":"島田療育センター","province":"東京都","city":"多摩市","address":"多摩市中沢1-31-1","lat":35.621988,"lon":139.411496},{"name":"あんふぁん愛宕事業所","province":"東京都","city":"多摩市","address":"多摩市愛宕四丁目9番22号池田ビル2階201号室","lat":35.628657,"lon":139.428953},{"name":"ドリームボックス多摩センター","province":"東京都","city":"多摩市","address":"多摩市山王下1-13-12パールプラザ103","lat":35.62536,"lon":139.419904},{"name":"多摩市立子育て総合センター","province":"東京都","city":"多摩市","address":"多摩市豊ヶ丘1-21-3","lat":35.627768,"lon":139.429841},{"name":"多摩市子ども家庭支援センター","province":"東京都","city":"多摩市","address":"多摩市豊ヶ丘1-21-3","lat":35.62764,"lon":139.42989},{"name":"多摩市子ども家庭支援センター","province":"東京都","city":"多摩市","address":"多摩市豊ヶ丘1-21-3","lat":35.627768,"lon":139.429841},{"name":"多摩ニュータウン市場","province":"東京都","city":"多摩市","address":"東京都多摩市永山7丁目4","lat":35.60927671,"lon":139.44523259},{"name":"永山高等学校","province":"東京都","city":"多摩市","address":"東京都多摩市永山5丁目22","lat":35.61369294,"lon":139.44800719},{"name":"遊び・運動療育・学びの場　発達支援教室　アルファーラ聖蹟桜ヶ丘教室","province":"東京都","city":"多摩市","address":"多摩市一ノ宮2-19-27太喜ビル第一1階","lat":35.653096,"lon":139.44345},{"name":"グラシアス聖蹟桜ヶ丘駅前教室","province":"東京都","city":"多摩市","address":"多摩市関戸1-12-4糀屋ビル6階","lat":35.650222,"lon":139.448186},{"name":"キャンビー","province":"東京都","city":"多摩市","address":"多摩市貝取4-3-1-110","lat":35.61459,"lon":139.438525},{"name":"メロディ","province":"東京都","city":"多摩市","address":"多摩市聖ヶ丘二丁目第21街区第3号棟第4号室","lat":35.631336,"lon":139.457585},{"name":"ドリームボックス馬引沢","province":"東京都","city":"多摩市","address":"多摩市馬引沢2-3-9レジデンス永山1階A号室","lat":35.633118,"lon":139.452681},{"name":"ドリームボックス諏訪","province":"東京都","city":"多摩市","address":"多摩市諏訪1-53-2ハウスアメニティ1階B号室","lat":35.629647,"lon":139.454475},{"name":"子どもクラブ","province":"東京都","city":"多摩市","address":"多摩市永山4-2-4-106・206","lat":35.621103,"lon":139.449676},{"name":"くぬぎ","province":"東京都","city":"多摩市","address":"多摩市永山3-9東永山複合施設","lat":35.623381,"lon":139.449454},{"name":"ジョイフル","province":"東京都","city":"多摩市","address":"多摩市永山1-8-17ボヌール永山208","lat":35.631968,"lon":139.44722},{"name":"こどもデイサービス　ラフ","province":"東京都","city":"多摩市","address":"多摩市永山2-14-6アドラブールK店舗B","lat":35.630021,"lon":139.443362},{"name":"発達相談支援センター　ＣＯＲＯＮＯＡＨ","province":"東京都","city":"多摩市","address":"多摩市落合3-17-1、105号","lat":35.616514,"lon":139.430489},{"name":"ドリームボックス鶴牧","province":"東京都","city":"多摩市","address":"多摩市鶴牧2-23-21コンフォート鶴牧1階","lat":35.618233,"lon":139.414282},{"name":"島田療育センター","province":"東京都","city":"多摩市","address":"多摩市中沢1-31-1","lat":35.621988,"lon":139.411496},{"name":"あんふぁん愛宕事業所","province":"東京都","city":"多摩市","address":"多摩市愛宕四丁目9番22号池田ビル2階201号室","lat":35.628657,"lon":139.428953},{"name":"ドリームボックス多摩センター","province":"東京都","city":"多摩市","address":"多摩市山王下1-13-12パールプラザ103","lat":35.62536,"lon":139.419904},{"name":"多摩市立子育て総合センター","province":"東京都","city":"多摩市","address":"多摩市豊ヶ丘1-21-3","lat":35.627768,"lon":139.429841},{"name":"多摩市子ども家庭支援センター","province":"東京都","city":"多摩市","address":"多摩市豊ヶ丘1-21-3","lat":35.62764,"lon":139.42989},{"name":"多摩市子ども家庭支援センター","province":"東京都","city":"多摩市","address":"多摩市豊ヶ丘1-21-3","lat":35.627768,"lon":139.429841},{"name":"多摩ニュータウン市場","province":"東京都","city":"多摩市","address":"東京都多摩市永山7丁目4","lat":35.60927671,"lon":139.44523259},{"name":"永山高等学校","province":"東京都","city":"多摩市","address":"東京都多摩市永山5丁目22","lat":35.61369294,"lon":139.44800719},{"name":"遊び・運動療育・学びの場　発達支援教室　アルファーラ聖蹟桜ヶ丘教室","province":"東京都","city":"多摩市","address":"多摩市一ノ宮2-19-27太喜ビル第一1階","lat":35.653096,"lon":139.44345},{"name":"グラシアス聖蹟桜ヶ丘駅前教室","province":"東京都","city":"多摩市","address":"多摩市関戸1-12-4糀屋ビル6階","lat":35.650222,"lon":139.448186},{"name":"キャンビー","province":"東京都","city":"多摩市","address":"多摩市貝取4-3-1-110","lat":35.61459,"lon":139.438525},{"name":"メロディ","province":"東京都","city":"多摩市","address":"多摩市聖ヶ丘二丁目第21街区第3号棟第4号室","lat":35.631336,"lon":139.457585},{"name":"ドリームボックス馬引沢","province":"東京都","city":"多摩市","address":"多摩市馬引沢2-3-9レジデンス永山1階A号室","lat":35.633118,"lon":139.452681},{"name":"ドリームボックス諏訪","province":"東京都","city":"多摩市","address":"多摩市諏訪1-53-2ハウスアメニティ1階B号室","lat":35.629647,"lon":139.454475},{"name":"子どもクラブ","province":"東京都","city":"多摩市","address":"多摩市永山4-2-4-106・206","lat":35.621103,"lon":139.449676},{"name":"くぬぎ","province":"東京都","city":"多摩市","address":"多摩市永山3-9東永山複合施設","lat":35.623381,"lon":139.449454},{"name":"ジョイフル","province":"東京都","city":"多摩市","address":"多摩市永山1-8-17ボヌール永山208","lat":35.631968,"lon":139.44722},{"name":"こどもデイサービス　ラフ","province":"東京都","city":"多摩市","address":"多摩市永山2-14-6アドラブールK店舗B","lat":35.630021,"lon":139.443362},{"name":"発達相談支援センター　ＣＯＲＯＮＯＡＨ","province":"東京都","city":"多摩市","address":"多摩市落合3-17-1、105号","lat":35.616514,"lon":139.430489},{"name":"ドリームボックス鶴牧","province":"東京都","city":"多摩市","address":"多摩市鶴牧2-23-21コンフォート鶴牧1階","lat":35.618233,"lon":139.414282},{"name":"島田療育センター","province":"東京都","city":"多摩市","address":"多摩市中沢1-31-1","lat":35.621988,"lon":139.411496},{"name":"あんふぁん愛宕事業所","province":"東京都","city":"多摩市","address":"多摩市愛宕四丁目9番22号池田ビル2階201号室","lat":35.628657,"lon":139.428953},{"name":"ドリームボックス多摩センター","province":"東京都","city":"多摩市","address":"多摩市山王下1-13-12パールプラザ103","lat":35.62536,"lon":139.419904},{"name":"多摩市立子育て総合センター","province":"東京都","city":"多摩市","address":"多摩市豊ヶ丘1-21-3","lat":35.627768,"lon":139.429841},{"name":"多摩市子ども家庭支援センター","province":"東京都","city":"多摩市","address":"多摩市豊ヶ丘1-21-3","lat":35.62764,"lon":139.42989},{"name":"多摩市子ども家庭支援センター","province":"東京都","city":"多摩市","address":"多摩市豊ヶ丘1-21-3","lat":35.627768,"lon":139.429841},{"name":"遊び・運動療育・学びの場　発達支援教室　アルファーラ聖蹟桜ヶ丘教室","province":"東京都","city":"多摩市","address":"多摩市一ノ宮2-19-27太喜ビル第一1階","lat":35.653096,"lon":139.44345},{"name":"グラシアス聖蹟桜ヶ丘駅前教室","province":"東京都","city":"多摩市","address":"多摩市関戸1-12-4糀屋ビル6階","lat":35.650222,"lon":139.448186},{"name":"キャンビー","province":"東京都","city":"多摩市","address":"多摩市貝取4-3-1-110","lat":35.61459,"lon":139.438525},{"name":"メロディ","province":"東京都","city":"多摩市","address":"多摩市聖ヶ丘二丁目第21街区第3号棟第4号室","lat":35.631336,"lon":139.457585},{"name":"ドリームボックス馬引沢","province":"東京都","city":"多摩市","address":"多摩市馬引沢2-3-9レジデンス永山1階A号室","lat":35.633118,"lon":139.452681},{"name":"ドリームボックス諏訪","province":"東京都","city":"多摩市","address":"多摩市諏訪1-53-2ハウスアメニティ1階B号室","lat":35.629647,"lon":139.454475},{"name":"子どもクラブ","province":"東京都","city":"多摩市","address":"多摩市永山4-2-4-106・206","lat":35.621103,"lon":139.449676},{"name":"くぬぎ","province":"東京都","city":"多摩市","address":"多摩市永山3-9東永山複合施設","lat":35.623381,"lon":139.449454},{"name":"ジョイフル","province":"東京都","city":"多摩市","address":"多摩市永山1-8-17ボヌール永山208","lat":35.631968,"lon":139.44722},{"name":"こどもデイサービス　ラフ","province":"東京都","city":"多摩市","address":"多摩市永山2-14-6アドラブールK店舗B","lat":35.630021,"lon":139.443362},{"name":"発達相談支援センター　ＣＯＲＯＮＯＡＨ","province":"東京都","city":"多摩市","address":"多摩市落合3-17-1、105号","lat":35.616514,"lon":139.430489},{"name":"ドリームボックス鶴牧","province":"東京都","city":"多摩市","address":"多摩市鶴牧2-23-21コンフォート鶴牧1階","lat":35.618233,"lon":139.414282},{"name":"島田療育センター","province":"東京都","city":"多摩市","address":"多摩市中沢1-31-1","lat":35.621988,"lon":139.411496},{"name":"あんふぁん愛宕事業所","province":"東京都","city":"多摩市","address":"多摩市愛宕四丁目9番22号池田ビル2階201号室","lat":35.628657,"lon":139.428953},{"name":"ドリームボックス多摩センター","province":"東京都","city":"多摩市","address":"多摩市山王下1-13-12パールプラザ103","lat":35.62536,"lon":139.419904},{"name":"多摩市立子育て総合センター","province":"東京都","city":"多摩市","address":"多摩市豊ヶ丘1-21-3","lat":35.627768,"lon":139.429841},{"name":"多摩市子ども家庭支援センター","province":"東京都","city":"多摩市","address":"多摩市豊ヶ丘1-21-3","lat":35.62764,"lon":139.42989},{"name":"多摩市子ども家庭支援センター","province":"東京都","city":"多摩市","address":"多摩市豊ヶ丘1-21-3","lat":35.627768,"lon":139.429841},{"name":"遊び・運動療育・学びの場　発達支援教室　アルファーラ聖蹟桜ヶ丘教室","province":"東京都","city":"多摩市","address":"多摩市一ノ宮2-19-27太喜ビル第一1階","lat":35.653096,"lon":139.44345},{"name":"グラシアス聖蹟桜ヶ丘駅前教室","province":"東京都","city":"多摩市","address":"多摩市関戸1-12-4糀屋ビル6階","lat":35.650222,"lon":139.448186},{"name":"キャンビー","province":"東京都","city":"多摩市","address":"多摩市貝取4-3-1-110","lat":35.61459,"lon":139.438525},{"name":"メロディ","province":"東京都","city":"多摩市","address":"多摩市聖ヶ丘二丁目第21街区第3号棟第4号室","lat":35.631336,"lon":139.457585},{"name":"ドリームボックス馬引沢","province":"東京都","city":"多摩市","address":"多摩市馬引沢2-3-9レジデンス永山1階A号室","lat":35.633118,"lon":139.452681},{"name":"ドリームボックス諏訪","province":"東京都","city":"多摩市","address":"多摩市諏訪1-53-2ハウスアメニティ1階B号室","lat":35.629647,"lon":139.454475},{"name":"子どもクラブ","province":"東京都","city":"多摩市","address":"多摩市永山4-2-4-106・206","lat":35.621103,"lon":139.449676},{"name":"くぬぎ","province":"東京都","city":"多摩市","address":"多摩市永山3-9東永山複合施設","lat":35.623381,"lon":139.449454},{"name":"ジョイフル","province":"東京都","city":"多摩市","address":"多摩市永山1-8-17ボヌール永山208","lat":35.631968,"lon":139.44722},{"name":"こどもデイサービス　ラフ","province":"東京都","city":"多摩市","address":"多摩市永山2-14-6アドラブールK店舗B","lat":35.630021,"lon":139.443362},{"name":"発達相談支援センター　ＣＯＲＯＮＯＡＨ","province":"東京都","city":"多摩市","address":"多摩市落合3-17-1、105号","lat":35.616514,"lon":139.430489},{"name":"ドリームボックス鶴牧","province":"東京都","city":"多摩市","address":"多摩市鶴牧2-23-21コンフォート鶴牧1階","lat":35.618233,"lon":139.414282},{"name":"島田療育センター","province":"東京都","city":"多摩市","address":"多摩市中沢1-31-1","lat":35.621988,"lon":139.411496},{"name":"あんふぁん愛宕事業所","province":"東京都","city":"多摩市","address":"多摩市愛宕四丁目9番22号池田ビル2階201号室","lat":35.628657,"lon":139.428953},{"name":"ドリームボックス多摩センター","province":"東京都","city":"多摩市","address":"多摩市山王下1-13-12パールプラザ103","lat":35.62536,"lon":139.419904},{"name":"多摩市立子育て総合センター","province":"東京都","city":"多摩市","address":"多摩市豊ヶ丘1-21-3","lat":35.627768,"lon":139.429841},{"name":"多摩市子ども家庭支援センター","province":"東京都","city":"多摩市","address":"多摩市豊ヶ丘1-21-3","lat":35.62764,"lon":139.42989},{"name":"多摩市子ども家庭支援センター","province":"東京都","city":"多摩市","address":"多摩市豊ヶ丘1-21-3","lat":35.627768,"lon":139.429841},{"name":"遊び・運動療育・学びの場　発達支援教室　アルファーラ聖蹟桜ヶ丘教室","province":"東京都","city":"多摩市","address":"多摩市一ノ宮2-19-27太喜ビル第一1階","lat":35.653096,"lon":139.44345},{"name":"グラシアス聖蹟桜ヶ丘駅前教室","province":"東京都","city":"多摩市","address":"多摩市関戸1-12-4糀屋ビル6階","lat":35.650222,"lon":139.448186},{"name":"キャンビー","province":"東京都","city":"多摩市","address":"多摩市貝取4-3-1-110","lat":35.61459,"lon":139.438525},{"name":"メロディ","province":"東京都","city":"多摩市","address":"多摩市聖ヶ丘二丁目第21街区第3号棟第4号室","lat":35.631336,"lon":139.457585},{"name":"ドリームボックス馬引沢","province":"東京都","city":"多摩市","address":"多摩市馬引沢2-3-9レジデンス永山1階A号室","lat":35.633118,"lon":139.452681},{"name":"ドリームボックス諏訪","province":"東京都","city":"多摩市","address":"多摩市諏訪1-53-2ハウスアメニティ1階B号室","lat":35.629647,"lon":139.454475},{"name":"子どもクラブ","province":"東京都","city":"多摩市","address":"多摩市永山4-2-4-106・206","lat":35.621103,"lon":139.449676},{"name":"くぬぎ","province":"東京都","city":"多摩市","address":"多摩市永山3-9東永山複合施設","lat":35.623381,"lon":139.449454},{"name":"ジョイフル","province":"東京都","city":"多摩市","address":"多摩市永山1-8-17ボヌール永山208","lat":35.631968,"lon":139.44722},{"name":"こどもデイサービス　ラフ","province":"東京都","city":"多摩市","address":"多摩市永山2-14-6アドラブールK店舗B","lat":35.630021,"lon":139.443362},{"name":"発達相談支援センター　ＣＯＲＯＮＯＡＨ","province":"東京都","city":"多摩市","address":"多摩市落合3-17-1、105号","lat":35.616514,"lon":139.430489},{"name":"ドリームボックス鶴牧","province":"東京都","city":"多摩市","address":"多摩市鶴牧2-23-21コンフォート鶴牧1階","lat":35.618233,"lon":139.414282},{"name":"島田療育センター","province":"東京都","city":"多摩市","address":"多摩市中沢1-31-1","lat":35.621988,"lon":139.411496},{"name":"あんふぁん愛宕事業所","province":"東京都","city":"多摩市","address":"多摩市愛宕四丁目9番22号池田ビル2階201号室","lat":35.628657,"lon":139.428953},{"name":"ドリームボックス多摩センター","province":"東京都","city":"多摩市","address":"多摩市山王下1-13-12パールプラザ103","lat":35.62536,"lon":139.419904},{"name":"多摩市立子育て総合センター","province":"東京都","city":"多摩市","address":"多摩市豊ヶ丘1-21-3","lat":35.627768,"lon":139.429841},{"name":"多摩市子ども家庭支援センター","province":"東京都","city":"多摩市","address":"多摩市豊ヶ丘1-21-3","lat":35.62764,"lon":139.42989},{"name":"多摩市子ども家庭支援センター","province":"東京都","city":"多摩市","address":"多摩市豊ヶ丘1-21-3","lat":35.627768,"lon":139.429841},{"name":"遊び・運動療育・学びの場　発達支援教室　アルファーラ聖蹟桜ヶ丘教室","province":"東京都","city":"多摩市","address":"多摩市一ノ宮2-19-27太喜ビル第一1階","lat":35.653096,"lon":139.44345},{"name":"グラシアス聖蹟桜ヶ丘駅前教室","province":"東京都","city":"多摩市","address":"多摩市関戸1-12-4糀屋ビル6階","lat":35.650222,"lon":139.448186},{"name":"キャンビー","province":"東京都","city":"多摩市","address":"多摩市貝取4-3-1-110","lat":35.61459,"lon":139.438525},{"name":"メロディ","province":"東京都","city":"多摩市","address":"多摩市聖ヶ丘二丁目第21街区第3号棟第4号室","lat":35.631336,"lon":139.457585},{"name":"ドリームボックス馬引沢","province":"東京都","city":"多摩市","address":"多摩市馬引沢2-3-9レジデンス永山1階A号室","lat":35.633118,"lon":139.452681},{"name":"ドリームボックス諏訪","province":"東京都","city":"多摩市","address":"多摩市諏訪1-53-2ハウスアメニティ1階B号室","lat":35.629647,"lon":139.454475},{"name":"子どもクラブ","province":"東京都","city":"多摩市","address":"多摩市永山4-2-4-106・206","lat":35.621103,"lon":139.449676},{"name":"くぬぎ","province":"東京都","city":"多摩市","address":"多摩市永山3-9東永山複合施設","lat":35.623381,"lon":139.449454},{"name":"ジョイフル","province":"東京都","city":"多摩市","address":"多摩市永山1-8-17ボヌール永山208","lat":35.631968,"lon":139.44722},{"name":"こどもデイサービス　ラフ","province":"東京都","city":"多摩市","address":"多摩市永山2-14-6アドラブールK店舗B","lat":35.630021,"lon":139.443362},{"name":"発達相談支援センター　ＣＯＲＯＮＯＡＨ","province":"東京都","city":"多摩市","address":"多摩市落合3-17-1、105号","lat":35.616514,"lon":139.430489},{"name":"ドリームボックス鶴牧","province":"東京都","city":"多摩市","address":"多摩市鶴牧2-23-21コンフォート鶴牧1階","lat":35.618233,"lon":139.414282},{"name":"島田療育センター","province":"東京都","city":"多摩市","address":"多摩市中沢1-31-1","lat":35.621988,"lon":139.411496},{"name":"あんふぁん愛宕事業所","province":"東京都","city":"多摩市","address":"多摩市愛宕四丁目9番22号池田ビル2階201号室","lat":35.628657,"lon":139.428953},{"name":"ドリームボックス多摩センター","province":"東京都","city":"多摩市","address":"多摩市山王下1-13-12パールプラザ103","lat":35.62536,"lon":139.419904},{"name":"多摩市立子育て総合センター","province":"東京都","city":"多摩市","address":"多摩市豊ヶ丘1-21-3","lat":35.627768,"lon":139.429841},{"name":"多摩市子ども家庭支援センター","province":"東京都","city":"多摩市","address":"多摩市豊ヶ丘1-21-3","lat":35.62764,"lon":139.42989},{"name":"多摩市子ども家庭支援センター","province":"東京都","city":"多摩市","address":"多摩市豊ヶ丘1-21-3","lat":35.627768,"lon":139.429841},{"name":"遊び・運動療育・学びの場　発達支援教室　アルファーラ聖蹟桜ヶ丘教室","province":"東京都","city":"多摩市","address":"多摩市一ノ宮2-19-27太喜ビル第一1階","lat":35.653096,"lon":139.44345},{"name":"グラシアス聖蹟桜ヶ丘駅前教室","province":"東京都","city":"多摩市","address":"多摩市関戸1-12-4糀屋ビル6階","lat":35.650222,"lon":139.448186},{"name":"キャンビー","province":"東京都","city":"多摩市","address":"多摩市貝取4-3-1-110","lat":35.61459,"lon":139.438525},{"name":"メロディ","province":"東京都","city":"多摩市","address":"多摩市聖ヶ丘二丁目第21街区第3号棟第4号室","lat":35.631336,"lon":139.457585},{"name":"ドリームボックス馬引沢","province":"東京都","city":"多摩市","address":"多摩市馬引沢2-3-9レジデンス永山1階A号室","lat":35.633118,"lon":139.452681},{"name":"ドリームボックス諏訪","province":"東京都","city":"多摩市","address":"多摩市諏訪1-53-2ハウスアメニティ1階B号室","lat":35.629647,"lon":139.454475},{"name":"子どもクラブ","province":"東京都","city":"多摩市","address":"多摩市永山4-2-4-106・206","lat":35.621103,"lon":139.449676},{"name":"くぬぎ","province":"東京都","city":"多摩市","address":"多摩市永山3-9東永山複合施設","lat":35.623381,"lon":139.449454},{"name":"ジョイフル","province":"東京都","city":"多摩市","address":"多摩市永山1-8-17ボヌール永山208","lat":35.631968,"lon":139.44722},{"name":"こどもデイサービス　ラフ","province":"東京都","city":"多摩市","address":"多摩市永山2-14-6アドラブールK店舗B","lat":35.630021,"lon":139.443362},{"name":"発達相談支援センター　ＣＯＲＯＮＯＡＨ","province":"東京都","city":"多摩市","address":"多摩市落合3-17-1、105号","lat":35.616514,"lon":139.430489},{"name":"ドリームボックス鶴牧","province":"東京都","city":"多摩市","address":"多摩市鶴牧2-23-21コンフォート鶴牧1階","lat":35.618233,"lon":139.414282},{"name":"島田療育センター","province":"東京都","city":"多摩市","address":"多摩市中沢1-31-1","lat":35.621988,"lon":139.411496},{"name":"あんふぁん愛宕事業所","province":"東京都","city":"多摩市","address":"多摩市愛宕四丁目9番22号池田ビル2階201号室","lat":35.628657,"lon":139.428953},{"name":"ドリームボックス多摩センター","province":"東京都","city":"多摩市","address":"多摩市山王下1-13-12パールプラザ103","lat":35.62536,"lon":139.419904},{"name":"多摩市立子育て総合センター","province":"東京都","city":"多摩市","address":"多摩市豊ヶ丘1-21-3","lat":35.627768,"lon":139.429841},{"name":"多摩市子ども家庭支援センター","province":"東京都","city":"多摩市","address":"多摩市豊ヶ丘1-21-3","lat":35.62764,"lon":139.42989},{"name":"多摩市子ども家庭支援センター","province":"東京都","city":"多摩市","address":"多摩市豊ヶ丘1-21-3","lat":35.627768,"lon":139.429841},{"name":"遊び・運動療育・学びの場　発達支援教室　アルファーラ聖蹟桜ヶ丘教室","province":"東京都","city":"多摩市","address":"多摩市一ノ宮2-19-27太喜ビル第一1階","lat":35.653096,"lon":139.44345},{"name":"グラシアス聖蹟桜ヶ丘駅前教室","province":"東京都","city":"多摩市","address":"多摩市関戸1-12-4糀屋ビル6階","lat":35.650222,"lon":139.448186},{"name":"キャンビー","province":"東京都","city":"多摩市","address":"多摩市貝取4-3-1-110","lat":35.61459,"lon":139.438525},{"name":"メロディ","province":"東京都","city":"多摩市","address":"多摩市聖ヶ丘二丁目第21街区第3号棟第4号室","lat":35.631336,"lon":139.457585},{"name":"ドリームボックス馬引沢","province":"東京都","city":"多摩市","address":"多摩市馬引沢2-3-9レジデンス永山1階A号室","lat":35.633118,"lon":139.452681},{"name":"ドリームボックス諏訪","province":"東京都","city":"多摩市","address":"多摩市諏訪1-53-2ハウスアメニティ1階B号室","lat":35.629647,"lon":139.454475},{"name":"子どもクラブ","province":"東京都","city":"多摩市","address":"多摩市永山4-2-4-106・206","lat":35.621103,"lon":139.449676},{"name":"くぬぎ","province":"東京都","city":"多摩市","address":"多摩市永山3-9東永山複合施設","lat":35.623381,"lon":139.449454},{"name":"ジョイフル","province":"東京都","city":"多摩市","address":"多摩市永山1-8-17ボヌール永山208","lat":35.631968,"lon":139.44722},{"name":"こどもデイサービス　ラフ","province":"東京都","city":"多摩市","address":"多摩市永山2-14-6アドラブールK店舗B","lat":35.630021,"lon":139.443362},{"name":"発達相談支援センター　ＣＯＲＯＮＯＡＨ","province":"東京都","city":"多摩市","address":"多摩市落合3-17-1、105号","lat":35.616514,"lon":139.430489},{"name":"ドリームボックス鶴牧","province":"東京都","city":"多摩市","address":"多摩市鶴牧2-23-21コンフォート鶴牧1階","lat":35.618233,"lon":139.414282},{"name":"島田療育センター","province":"東京都","city":"多摩市","address":"多摩市中沢1-31-1","lat":35.621988,"lon":139.411496},{"name":"あんふぁん愛宕事業所","province":"東京都","city":"多摩市","address":"多摩市愛宕四丁目9番22号池田ビル2階201号室","lat":35.628657,"lon":139.428953},{"name":"ドリームボックス多摩センター","province":"東京都","city":"多摩市","address":"多摩市山王下1-13-12パールプラザ103","lat":35.62536,"lon":139.419904},{"name":"多摩市立子育て総合センター","province":"東京都","city":"多摩市","address":"多摩市豊ヶ丘1-21-3","lat":35.627768,"lon":139.429841},{"name":"多摩市子ども家庭支援センター","province":"東京都","city":"多摩市","address":"多摩市豊ヶ丘1-21-3","lat":35.62764,"lon":139.42989},{"name":"多摩市子ども家庭支援センター","province":"東京都","city":"多摩市","address":"多摩市豊ヶ丘1-21-3","lat":35.627768,"lon":139.429841},{"name":"遊び・運動療育・学びの場　発達支援教室　アルファーラ聖蹟桜ヶ丘教室","province":"東京都","city":"多摩市","address":"多摩市一ノ宮2-19-27太喜ビル第一1階","lat":35.653096,"lon":139.44345},{"name":"グラシアス聖蹟桜ヶ丘駅前教室","province":"東京都","city":"多摩市","address":"多摩市関戸1-12-4糀屋ビル6階","lat":35.650222,"lon":139.448186},{"name":"キャンビー","province":"東京都","city":"多摩市","address":"多摩市貝取4-3-1-110","lat":35.61459,"lon":139.438525},{"name":"メロディ","province":"東京都","city":"多摩市","address":"多摩市聖ヶ丘二丁目第21街区第3号棟第4号室","lat":35.631336,"lon":139.457585},{"name":"ドリームボックス馬引沢","province":"東京都","city":"多摩市","address":"多摩市馬引沢2-3-9レジデンス永山1階A号室","lat":35.633118,"lon":139.452681},{"name":"ドリームボックス諏訪","province":"東京都","city":"多摩市","address":"多摩市諏訪1-53-2ハウスアメニティ1階B号室","lat":35.629647,"lon":139.454475},{"name":"子どもクラブ","province":"東京都","city":"多摩市","address":"多摩市永山4-2-4-106・206","lat":35.621103,"lon":139.449676},{"name":"くぬぎ","province":"東京都","city":"多摩市","address":"多摩市永山3-9東永山複合施設","lat":35.623381,"lon":139.449454},{"name":"ジョイフル","province":"東京都","city":"多摩市","address":"多摩市永山1-8-17ボヌール永山208","lat":35.631968,"lon":139.44722},{"name":"こどもデイサービス　ラフ","province":"東京都","city":"多摩市","address":"多摩市永山2-14-6アドラブールK店舗B","lat":35.630021,"lon":139.443362},{"name":"発達相談支援センター　ＣＯＲＯＮＯＡＨ","province":"東京都","city":"多摩市","address":"多摩市落合3-17-1、105号","lat":35.616514,"lon":139.430489},{"name":"ドリームボックス鶴牧","province":"東京都","city":"多摩市","address":"多摩市鶴牧2-23-21コンフォート鶴牧1階","lat":35.618233,"lon":139.414282},{"name":"島田療育センター","province":"東京都","city":"多摩市","address":"多摩市中沢1-31-1","lat":35.621988,"lon":139.411496},{"name":"あんふぁん愛宕事業所","province":"東京都","city":"多摩市","address":"多摩市愛宕四丁目9番22号池田ビル2階201号室","lat":35.628657,"lon":139.428953},{"name":"ドリームボックス多摩センター","province":"東京都","city":"多摩市","address":"多摩市山王下1-13-12パールプラザ103","lat":35.62536,"lon":139.419904},{"name":"多摩市立子育て総合センター","province":"東京都","city":"多摩市","address":"多摩市豊ヶ丘1-21-3","lat":35.627768,"lon":139.429841},{"name":"多摩市子ども家庭支援センター","province":"東京都","city":"多摩市","address":"多摩市豊ヶ丘1-21-3","lat":35.62764,"lon":139.42989},{"name":"多摩市子ども家庭支援センター","province":"東京都","city":"多摩市","address":"多摩市豊ヶ丘1-21-3","lat":35.627768,"lon":139.429841},{"name":"遊び・運動療育・学びの場　発達支援教室　アルファーラ聖蹟桜ヶ丘教室","province":"東京都","city":"多摩市","address":"多摩市一ノ宮2-19-27太喜ビル第一1階","lat":35.653096,"lon":139.44345},{"name":"グラシアス聖蹟桜ヶ丘駅前教室","province":"東京都","city":"多摩市","address":"多摩市関戸1-12-4糀屋ビル6階","lat":35.650222,"lon":139.448186},{"name":"キャンビー","province":"東京都","city":"多摩市","address":"多摩市貝取4-3-1-110","lat":35.61459,"lon":139.438525},{"name":"メロディ","province":"東京都","city":"多摩市","address":"多摩市聖ヶ丘二丁目第21街区第3号棟第4号室","lat":35.631336,"lon":139.457585},{"name":"ドリームボックス馬引沢","province":"東京都","city":"多摩市","address":"多摩市馬引沢2-3-9レジデンス永山1階A号室","lat":35.633118,"lon":139.452681},{"name":"ドリームボックス諏訪","province":"東京都","city":"多摩市","address":"多摩市諏訪1-53-2ハウスアメニティ1階B号室","lat":35.629647,"lon":139.454475},{"name":"子どもクラブ","province":"東京都","city":"多摩市","address":"多摩市永山4-2-4-106・206","lat":35.621103,"lon":139.449676},{"name":"くぬぎ","province":"東京都","city":"多摩市","address":"多摩市永山3-9東永山複合施設","lat":35.623381,"lon":139.449454},{"name":"ジョイフル","province":"東京都","city":"多摩市","address":"多摩市永山1-8-17ボヌール永山208","lat":35.631968,"lon":139.44722},{"name":"こどもデイサービス　ラフ","province":"東京都","city":"多摩市","address":"多摩市永山2-14-6アドラブールK店舗B","lat":35.630021,"lon":139.443362},{"name":"発達相談支援センター　ＣＯＲＯＮＯＡＨ","province":"東京都","city":"多摩市","address":"多摩市落合3-17-1、105号","lat":35.616514,"lon":139.430489},{"name":"ドリームボックス鶴牧","province":"東京都","city":"多摩市","address":"多摩市鶴牧2-23-21コンフォート鶴牧1階","lat":35.618233,"lon":139.414282},{"name":"島田療育センター","province":"東京都","city":"多摩市","address":"多摩市中沢1-31-1","lat":35.621988,"lon":139.411496},{"name":"あんふぁん愛宕事業所","province":"東京都","city":"多摩市","address":"多摩市愛宕四丁目9番22号池田ビル2階201号室","lat":35.628657,"lon":139.428953},{"name":"ドリームボックス多摩センター","province":"東京都","city":"多摩市","address":"多摩市山王下1-13-12パールプラザ103","lat":35.62536,"lon":139.419904},{"name":"多摩市立子育て総合センター","province":"東京都","city":"多摩市","address":"多摩市豊ヶ丘1-21-3","lat":35.627768,"lon":139.429841},{"name":"多摩市子ども家庭支援センター","province":"東京都","city":"多摩市","address":"多摩市豊ヶ丘1-21-3","lat":35.62764,"lon":139.42989},{"name":"多摩市子ども家庭支援センター","province":"東京都","city":"多摩市","address":"多摩市豊ヶ丘1-21-3","lat":35.627768,"lon":139.429841},{"name":"遊び・運動療育・学びの場　発達支援教室　アルファーラ聖蹟桜ヶ丘教室","province":"東京都","city":"多摩市","address":"多摩市一ノ宮2-19-27太喜ビル第一1階","lat":35.653096,"lon":139.44345},{"name":"グラシアス聖蹟桜ヶ丘駅前教室","province":"東京都","city":"多摩市","address":"多摩市関戸1-12-4糀屋ビル6階","lat":35.650222,"lon":139.448186},{"name":"キャンビー","province":"東京都","city":"多摩市","address":"多摩市貝取4-3-1-110","lat":35.61459,"lon":139.438525},{"name":"メロディ","province":"東京都","city":"多摩市","address":"多摩市聖ヶ丘二丁目第21街区第3号棟第4号室","lat":35.631336,"lon":139.457585},{"name":"ドリームボックス馬引沢","province":"東京都","city":"多摩市","address":"多摩市馬引沢2-3-9レジデンス永山1階A号室","lat":35.633118,"lon":139.452681},{"name":"ドリームボックス諏訪","province":"東京都","city":"多摩市","address":"多摩市諏訪1-53-2ハウスアメニティ1階B号室","lat":35.629647,"lon":139.454475},{"name":"子どもクラブ","province":"東京都","city":"多摩市","address":"多摩市永山4-2-4-106・206","lat":35.621103,"lon":139.449676},{"name":"くぬぎ","province":"東京都","city":"多摩市","address":"多摩市永山3-9東永山複合施設","lat":35.623381,"lon":139.449454},{"name":"ジョイフル","province":"東京都","city":"多摩市","address":"多摩市永山1-8-17ボヌール永山208","lat":35.631968,"lon":139.44722},{"name":"こどもデイサービス　ラフ","province":"東京都","city":"多摩市","address":"多摩市永山2-14-6アドラブールK店舗B","lat":35.630021,"lon":139.443362},{"name":"発達相談支援センター　ＣＯＲＯＮＯＡＨ","province":"東京都","city":"多摩市","address":"多摩市落合3-17-1、105号","lat":35.616514,"lon":139.430489},{"name":"ドリームボックス鶴牧","province":"東京都","city":"多摩市","address":"多摩市鶴牧2-23-21コンフォート鶴牧1階","lat":35.618233,"lon":139.414282},{"name":"島田療育センター","province":"東京都","city":"多摩市","address":"多摩市中沢1-31-1","lat":35.621988,"lon":139.411496},{"name":"あんふぁん愛宕事業所","province":"東京都","city":"多摩市","address":"多摩市愛宕四丁目9番22号池田ビル2階201号室","lat":35.628657,"lon":139.428953},{"name":"ドリームボックス多摩センター","province":"東京都","city":"多摩市","address":"多摩市山王下1-13-12パールプラザ103","lat":35.62536,"lon":139.419904},{"name":"多摩市立子育て総合センター","province":"東京都","city":"多摩市","address":"多摩市豊ヶ丘1-21-3","lat":35.627768,"lon":139.429841},{"name":"多摩市子ども家庭支援センター","province":"東京都","city":"多摩市","address":"多摩市豊ヶ丘1-21-3","lat":35.62764,"lon":139.42989},{"name":"多摩市子ども家庭支援センター","province":"東京都","city":"多摩市","address":"多摩市豊ヶ丘1-21-3","lat":35.627768,"lon":139.429841},{"name":"遊び・運動療育・学びの場　発達支援教室　アルファーラ聖蹟桜ヶ丘教室","province":"東京都","city":"多摩市","address":"多摩市一ノ宮2-19-27太喜ビル第一1階","lat":35.653096,"lon":139.44345},{"name":"グラシアス聖蹟桜ヶ丘駅前教室","province":"東京都","city":"多摩市","address":"多摩市関戸1-12-4糀屋ビル6階","lat":35.650222,"lon":139.448186},{"name":"キャンビー","province":"東京都","city":"多摩市","address":"多摩市貝取4-3-1-110","lat":35.61459,"lon":139.438525},{"name":"メロディ","province":"東京都","city":"多摩市","address":"多摩市聖ヶ丘二丁目第21街区第3号棟第4号室","lat":35.631336,"lon":139.457585},{"name":"ドリームボックス馬引沢","province":"東京都","city":"多摩市","address":"多摩市馬引沢2-3-9レジデンス永山1階A号室","lat":35.633118,"lon":139.452681},{"name":"ドリームボックス諏訪","province":"東京都","city":"多摩市","address":"多摩市諏訪1-53-2ハウスアメニティ1階B号室","lat":35.629647,"lon":139.454475},{"name":"子どもクラブ","province":"東京都","city":"多摩市","address":"多摩市永山4-2-4-106・206","lat":35.621103,"lon":139.449676},{"name":"くぬぎ","province":"東京都","city":"多摩市","address":"多摩市永山3-9東永山複合施設","lat":35.623381,"lon":139.449454},{"name":"ジョイフル","province":"東京都","city":"多摩市","address":"多摩市永山1-8-17ボヌール永山208","lat":35.631968,"lon":139.44722},{"name":"こどもデイサービス　ラフ","province":"東京都","city":"多摩市","address":"多摩市永山2-14-6アドラブールK店舗B","lat":35.630021,"lon":139.443362},{"name":"発達相談支援センター　ＣＯＲＯＮＯＡＨ","province":"東京都","city":"多摩市","address":"多摩市落合3-17-1、105号","lat":35.616514,"lon":139.430489},{"name":"ドリームボックス鶴牧","province":"東京都","city":"多摩市","address":"多摩市鶴牧2-23-21コンフォート鶴牧1階","lat":35.618233,"lon":139.414282},{"name":"島田療育センター","province":"東京都","city":"多摩市","address":"多摩市中沢1-31-1","lat":35.621988,"lon":139.411496},{"name":"あんふぁん愛宕事業所","province":"東京都","city":"多摩市","address":"多摩市愛宕四丁目9番22号池田ビル2階201号室","lat":35.628657,"lon":139.428953},{"name":"ドリームボックス多摩センター","province":"東京都","city":"多摩市","address":"多摩市山王下1-13-12パールプラザ103","lat":35.62536,"lon":139.419904},{"name":"多摩市立子育て総合センター","province":"東京都","city":"多摩市","address":"多摩市豊ヶ丘1-21-3","lat":35.627768,"lon":139.429841},{"name":"多摩市子ども家庭支援センター","province":"東京都","city":"多摩市","address":"多摩市豊ヶ丘1-21-3","lat":35.62764,"lon":139.42989},{"name":"多摩市子ども家庭支援センター","province":"東京都","city":"多摩市","address":"多摩市豊ヶ丘1-21-3","lat":35.627768,"lon":139.429841},{"name":"遊び・運動療育・学びの場　発達支援教室　アルファーラ聖蹟桜ヶ丘教室","province":"東京都","city":"多摩市","address":"多摩市一ノ宮2-19-27太喜ビル第一1階","lat":35.653096,"lon":139.44345},{"name":"グラシアス聖蹟桜ヶ丘駅前教室","province":"東京都","city":"多摩市","address":"多摩市関戸1-12-4糀屋ビル6階","lat":35.650222,"lon":139.448186},{"name":"キャンビー","province":"東京都","city":"多摩市","address":"多摩市貝取4-3-1-110","lat":35.61459,"lon":139.438525},{"name":"メロディ","province":"東京都","city":"多摩市","address":"多摩市聖ヶ丘二丁目第21街区第3号棟第4号室","lat":35.631336,"lon":139.457585},{"name":"ドリームボックス馬引沢","province":"東京都","city":"多摩市","address":"多摩市馬引沢2-3-9レジデンス永山1階A号室","lat":35.633118,"lon":139.452681},{"name":"ドリームボックス諏訪","province":"東京都","city":"多摩市","address":"多摩市諏訪1-53-2ハウスアメニティ1階B号室","lat":35.629647,"lon":139.454475},{"name":"子どもクラブ","province":"東京都","city":"多摩市","address":"多摩市永山4-2-4-106・206","lat":35.621103,"lon":139.449676},{"name":"くぬぎ","province":"東京都","city":"多摩市","address":"多摩市永山3-9東永山複合施設","lat":35.623381,"lon":139.449454},{"name":"ジョイフル","province":"東京都","city":"多摩市","address":"多摩市永山1-8-17ボヌール永山208","lat":35.631968,"lon":139.44722},{"name":"こどもデイサービス　ラフ","province":"東京都","city":"多摩市","address":"多摩市永山2-14-6アドラブールK店舗B","lat":35.630021,"lon":139.443362},{"name":"発達相談支援センター　ＣＯＲＯＮＯＡＨ","province":"東京都","city":"多摩市","address":"多摩市落合3-17-1、105号","lat":35.616514,"lon":139.430489},{"name":"ドリームボックス鶴牧","province":"東京都","city":"多摩市","address":"多摩市鶴牧2-23-21コンフォート鶴牧1階","lat":35.618233,"lon":139.414282},{"name":"島田療育センター","province":"東京都","city":"多摩市","address":"多摩市中沢1-31-1","lat":35.621988,"lon":139.411496},{"name":"あんふぁん愛宕事業所","province":"東京都","city":"多摩市","address":"多摩市愛宕四丁目9番22号池田ビル2階201号室","lat":35.628657,"lon":139.428953},{"name":"ドリームボックス多摩センター","province":"東京都","city":"多摩市","address":"多摩市山王下1-13-12パールプラザ103","lat":35.62536,"lon":139.419904},{"name":"多摩市立子育て総合センター","province":"東京都","city":"多摩市","address":"多摩市豊ヶ丘1-21-3","lat":35.627768,"lon":139.429841},{"name":"多摩市子ども家庭支援センター","province":"東京都","city":"多摩市","address":"多摩市豊ヶ丘1-21-3","lat":35.62764,"lon":139.42989},{"name":"多摩市子ども家庭支援センター","province":"東京都","city":"多摩市","address":"多摩市豊ヶ丘1-21-3","lat":35.627768,"lon":139.429841},{"name":"遊び・運動療育・学びの場　発達支援教室　アルファーラ聖蹟桜ヶ丘教室","province":"東京都","city":"多摩市","address":"多摩市一ノ宮2-19-27太喜ビル第一1階","lat":35.653096,"lon":139.44345},{"name":"グラシアス聖蹟桜ヶ丘駅前教室","province":"東京都","city":"多摩市","address":"多摩市関戸1-12-4糀屋ビル6階","lat":35.650222,"lon":139.448186},{"name":"キャンビー","province":"東京都","city":"多摩市","address":"多摩市貝取4-3-1-110","lat":35.61459,"lon":139.438525},{"name":"メロディ","province":"東京都","city":"多摩市","address":"多摩市聖ヶ丘二丁目第21街区第3号棟第4号室","lat":35.631336,"lon":139.457585},{"name":"ドリームボックス馬引沢","province":"東京都","city":"多摩市","address":"多摩市馬引沢2-3-9レジデンス永山1階A号室","lat":35.633118,"lon":139.452681},{"name":"ドリームボックス諏訪","province":"東京都","city":"多摩市","address":"多摩市諏訪1-53-2ハウスアメニティ1階B号室","lat":35.629647,"lon":139.454475},{"name":"子どもクラブ","province":"東京都","city":"多摩市","address":"多摩市永山4-2-4-106・206","lat":35.621103,"lon":139.449676},{"name":"くぬぎ","province":"東京都","city":"多摩市","address":"多摩市永山3-9東永山複合施設","lat":35.623381,"lon":139.449454},{"name":"ジョイフル","province":"東京都","city":"多摩市","address":"多摩市永山1-8-17ボヌール永山208","lat":35.631968,"lon":139.44722},{"name":"こどもデイサービス　ラフ","province":"東京都","city":"多摩市","address":"多摩市永山2-14-6アドラブールK店舗B","lat":35.630021,"lon":139.443362},{"name":"発達相談支援センター　ＣＯＲＯＮＯＡＨ","province":"東京都","city":"多摩市","address":"多摩市落合3-17-1、105号","lat":35.616514,"lon":139.430489},{"name":"ドリームボックス鶴牧","province":"東京都","city":"多摩市","address":"多摩市鶴牧2-23-21コンフォート鶴牧1階","lat":35.618233,"lon":139.414282},{"name":"島田療育センター","province":"東京都","city":"多摩市","address":"多摩市中沢1-31-1","lat":35.621988,"lon":139.411496},{"name":"あんふぁん愛宕事業所","province":"東京都","city":"多摩市","address":"多摩市愛宕四丁目9番22号池田ビル2階201号室","lat":35.628657,"lon":139.428953},{"name":"ドリームボックス多摩センター","province":"東京都","city":"多摩市","address":"多摩市山王下1-13-12パールプラザ103","lat":35.62536,"lon":139.419904},{"name":"多摩市立子育て総合センター","province":"東京都","city":"多摩市","address":"多摩市豊ヶ丘1-21-3","lat":35.627768,"lon":139.429841},{"name":"多摩市子ども家庭支援センター","province":"東京都","city":"多摩市","address":"多摩市豊ヶ丘1-21-3","lat":35.62764,"lon":139.42989},{"name":"多摩市子ども家庭支援センター","province":"東京都","city":"多摩市","address":"多摩市豊ヶ丘1-21-3","lat":35.627768,"lon":139.429841},{"name":"遊び・運動療育・学びの場　発達支援教室　アルファーラ聖蹟桜ヶ丘教室","province":"東京都","city":"多摩市","address":"多摩市一ノ宮2-19-27太喜ビル第一1階","lat":35.653096,"lon":139.44345},{"name":"グラシアス聖蹟桜ヶ丘駅前教室","province":"東京都","city":"多摩市","address":"多摩市関戸1-12-4糀屋ビル6階","lat":35.650222,"lon":139.448186},{"name":"キャンビー","province":"東京都","city":"多摩市","address":"多摩市貝取4-3-1-110","lat":35.61459,"lon":139.438525},{"name":"メロディ","province":"東京都","city":"多摩市","address":"多摩市聖ヶ丘二丁目第21街区第3号棟第4号室","lat":35.631336,"lon":139.457585},{"name":"ドリームボックス馬引沢","province":"東京都","city":"多摩市","address":"多摩市馬引沢2-3-9レジデンス永山1階A号室","lat":35.633118,"lon":139.452681},{"name":"ドリームボックス諏訪","province":"東京都","city":"多摩市","address":"多摩市諏訪1-53-2ハウスアメニティ1階B号室","lat":35.629647,"lon":139.454475},{"name":"子どもクラブ","province":"東京都","city":"多摩市","address":"多摩市永山4-2-4-106・206","lat":35.621103,"lon":139.449676},{"name":"くぬぎ","province":"東京都","city":"多摩市","address":"多摩市永山3-9東永山複合施設","lat":35.623381,"lon":139.449454},{"name":"ジョイフル","province":"東京都","city":"多摩市","address":"多摩市永山1-8-17ボヌール永山208","lat":35.631968,"lon":139.44722},{"name":"こどもデイサービス　ラフ","province":"東京都","city":"多摩市","address":"多摩市永山2-14-6アドラブールK店舗B","lat":35.630021,"lon":139.443362},{"name":"発達相談支援センター　ＣＯＲＯＮＯＡＨ","province":"東京都","city":"多摩市","address":"多摩市落合3-17-1、105号","lat":35.616514,"lon":139.430489},{"name":"ドリームボックス鶴牧","province":"東京都","city":"多摩市","address":"多摩市鶴牧2-23-21コンフォート鶴牧1階","lat":35.618233,"lon":139.414282},{"name":"島田療育センター","province":"東京都","city":"多摩市","address":"多摩市中沢1-31-1","lat":35.621988,"lon":139.411496},{"name":"あんふぁん愛宕事業所","province":"東京都","city":"多摩市","address":"多摩市愛宕四丁目9番22号池田ビル2階201号室","lat":35.628657,"lon":139.428953},{"name":"ドリームボックス多摩センター","province":"東京都","city":"多摩市","address":"多摩市山王下1-13-12パールプラザ103","lat":35.62536,"lon":139.419904},{"name":"多摩市立子育て総合センター","province":"東京都","city":"多摩市","address":"多摩市豊ヶ丘1-21-3","lat":35.627768,"lon":139.429841},{"name":"多摩市子ども家庭支援センター","province":"東京都","city":"多摩市","address":"多摩市豊ヶ丘1-21-3","lat":35.62764,"lon":139.42989},{"name":"多摩市子ども家庭支援センター","province":"東京都","city":"多摩市","address":"多摩市豊ヶ丘1-21-3","lat":35.627768,"lon":139.429841},{"name":"遊び・運動療育・学びの場　発達支援教室　アルファーラ聖蹟桜ヶ丘教室","province":"東京都","city":"多摩市","address":"多摩市一ノ宮2-19-27太喜ビル第一1階","lat":35.653096,"lon":139.44345},{"name":"グラシアス聖蹟桜ヶ丘駅前教室","province":"東京都","city":"多摩市","address":"多摩市関戸1-12-4糀屋ビル6階","lat":35.650222,"lon":139.448186},{"name":"キャンビー","province":"東京都","city":"多摩市","address":"多摩市貝取4-3-1-110","lat":35.61459,"lon":139.438525},{"name":"メロディ","province":"東京都","city":"多摩市","address":"多摩市聖ヶ丘二丁目第21街区第3号棟第4号室","lat":35.631336,"lon":139.457585},{"name":"ドリームボックス馬引沢","province":"東京都","city":"多摩市","address":"多摩市馬引沢2-3-9レジデンス永山1階A号室","lat":35.633118,"lon":139.452681},{"name":"ドリームボックス諏訪","province":"東京都","city":"多摩市","address":"多摩市諏訪1-53-2ハウスアメニティ1階B号室","lat":35.629647,"lon":139.454475},{"name":"子どもクラブ","province":"東京都","city":"多摩市","address":"多摩市永山4-2-4-106・206","lat":35.621103,"lon":139.449676},{"name":"くぬぎ","province":"東京都","city":"多摩市","address":"多摩市永山3-9東永山複合施設","lat":35.623381,"lon":139.449454},{"name":"ジョイフル","province":"東京都","city":"多摩市","address":"多摩市永山1-8-17ボヌール永山208","lat":35.631968,"lon":139.44722},{"name":"こどもデイサービス　ラフ","province":"東京都","city":"多摩市","address":"多摩市永山2-14-6アドラブールK店舗B","lat":35.630021,"lon":139.443362},{"name":"発達相談支援センター　ＣＯＲＯＮＯＡＨ","province":"東京都","city":"多摩市","address":"多摩市落合3-17-1、105号","lat":35.616514,"lon":139.430489},{"name":"ドリームボックス鶴牧","province":"東京都","city":"多摩市","address":"多摩市鶴牧2-23-21コンフォート鶴牧1階","lat":35.618233,"lon":139.414282},{"name":"島田療育センター","province":"東京都","city":"多摩市","address":"多摩市中沢1-31-1","lat":35.621988,"lon":139.411496},{"name":"あんふぁん愛宕事業所","province":"東京都","city":"多摩市","address":"多摩市愛宕四丁目9番22号池田ビル2階201号室","lat":35.628657,"lon":139.428953},{"name":"ドリームボックス多摩センター","province":"東京都","city":"多摩市","address":"多摩市山王下1-13-12パールプラザ103","lat":35.62536,"lon":139.419904},{"name":"多摩市立子育て総合センター","province":"東京都","city":"多摩市","address":"多摩市豊ヶ丘1-21-3","lat":35.627768,"lon":139.429841},{"name":"多摩市子ども家庭支援センター","province":"東京都","city":"多摩市","address":"多摩市豊ヶ丘1-21-3","lat":35.62764,"lon":139.42989},{"name":"多摩市子ども家庭支援センター","province":"東京都","city":"多摩市","address":"多摩市豊ヶ丘1-21-3","lat":35.627768,"lon":139.429841},{"name":"遊び・運動療育・学びの場　発達支援教室　アルファーラ聖蹟桜ヶ丘教室","province":"東京都","city":"多摩市","address":"多摩市一ノ宮2-19-27太喜ビル第一1階","lat":35.653096,"lon":139.44345},{"name":"グラシアス聖蹟桜ヶ丘駅前教室","province":"東京都","city":"多摩市","address":"多摩市関戸1-12-4糀屋ビル6階","lat":35.650222,"lon":139.448186},{"name":"キャンビー","province":"東京都","city":"多摩市","address":"多摩市貝取4-3-1-110","lat":35.61459,"lon":139.438525},{"name":"メロディ","province":"東京都","city":"多摩市","address":"多摩市聖ヶ丘二丁目第21街区第3号棟第4号室","lat":35.631336,"lon":139.457585},{"name":"ドリームボックス馬引沢","province":"東京都","city":"多摩市","address":"多摩市馬引沢2-3-9レジデンス永山1階A号室","lat":35.633118,"lon":139.452681},{"name":"ドリームボックス諏訪","province":"東京都","city":"多摩市","address":"多摩市諏訪1-53-2ハウスアメニティ1階B号室","lat":35.629647,"lon":139.454475},{"name":"子どもクラブ","province":"東京都","city":"多摩市","address":"多摩市永山4-2-4-106・206","lat":35.621103,"lon":139.449676},{"name":"くぬぎ","province":"東京都","city":"多摩市","address":"多摩市永山3-9東永山複合施設","lat":35.623381,"lon":139.449454},{"name":"ジョイフル","province":"東京都","city":"多摩市","address":"多摩市永山1-8-17ボヌール永山208","lat":35.631968,"lon":139.44722},{"name":"こどもデイサービス　ラフ","province":"東京都","city":"多摩市","address":"多摩市永山2-14-6アドラブールK店舗B","lat":35.630021,"lon":139.443362},{"name":"発達相談支援センター　ＣＯＲＯＮＯＡＨ","province":"東京都","city":"多摩市","address":"多摩市落合3-17-1、105号","lat":35.616514,"lon":139.430489},{"name":"ドリームボックス鶴牧","province":"東京都","city":"多摩市","address":"多摩市鶴牧2-23-21コンフォート鶴牧1階","lat":35.618233,"lon":139.414282},{"name":"島田療育センター","province":"東京都","city":"多摩市","address":"多摩市中沢1-31-1","lat":35.621988,"lon":139.411496},{"name":"あんふぁん愛宕事業所","province":"東京都","city":"多摩市","address":"多摩市愛宕四丁目9番22号池田ビル2階201号室","lat":35.628657,"lon":139.428953},{"name":"ドリームボックス多摩センター","province":"東京都","city":"多摩市","address":"多摩市山王下1-13-12パールプラザ103","lat":35.62536,"lon":139.419904},{"name":"多摩市立子育て総合センター","province":"東京都","city":"多摩市","address":"多摩市豊ヶ丘1-21-3","lat":35.627768,"lon":139.429841},{"name":"多摩市子ども家庭支援センター","province":"東京都","city":"多摩市","address":"多摩市豊ヶ丘1-21-3","lat":35.62764,"lon":139.42989},{"name":"多摩市子ども家庭支援センター","province":"東京都","city":"多摩市","address":"多摩市豊ヶ丘1-21-3","lat":35.627768,"lon":139.429841},{"name":"遊び・運動療育・学びの場　発達支援教室　アルファーラ聖蹟桜ヶ丘教室","province":"東京都","city":"多摩市","address":"多摩市一ノ宮2-19-27太喜ビル第一1階","lat":35.653096,"lon":139.44345},{"name":"グラシアス聖蹟桜ヶ丘駅前教室","province":"東京都","city":"多摩市","address":"多摩市関戸1-12-4糀屋ビル6階","lat":35.650222,"lon":139.448186},{"name":"キャンビー","province":"東京都","city":"多摩市","address":"多摩市貝取4-3-1-110","lat":35.61459,"lon":139.438525},{"name":"メロディ","province":"東京都","city":"多摩市","address":"多摩市聖ヶ丘二丁目第21街区第3号棟第4号室","lat":35.631336,"lon":139.457585},{"name":"ドリームボックス馬引沢","province":"東京都","city":"多摩市","address":"多摩市馬引沢2-3-9レジデンス永山1階A号室","lat":35.633118,"lon":139.452681},{"name":"ドリームボックス諏訪","province":"東京都","city":"多摩市","address":"多摩市諏訪1-53-2ハウスアメニティ1階B号室","lat":35.629647,"lon":139.454475},{"name":"子どもクラブ","province":"東京都","city":"多摩市","address":"多摩市永山4-2-4-106・206","lat":35.621103,"lon":139.449676},{"name":"くぬぎ","province":"東京都","city":"多摩市","address":"多摩市永山3-9東永山複合施設","lat":35.623381,"lon":139.449454},{"name":"ジョイフル","province":"東京都","city":"多摩市","address":"多摩市永山1-8-17ボヌール永山208","lat":35.631968,"lon":139.44722},{"name":"こどもデイサービス　ラフ","province":"東京都","city":"多摩市","address":"多摩市永山2-14-6アドラブールK店舗B","lat":35.630021,"lon":139.443362},{"name":"発達相談支援センター　ＣＯＲＯＮＯＡＨ","province":"東京都","city":"多摩市","address":"多摩市落合3-17-1、105号","lat":35.616514,"lon":139.430489},{"name":"ドリームボックス鶴牧","province":"東京都","city":"多摩市","address":"多摩市鶴牧2-23-21コンフォート鶴牧1階","lat":35.618233,"lon":139.414282},{"name":"島田療育センター","province":"東京都","city":"多摩市","address":"多摩市中沢1-31-1","lat":35.621988,"lon":139.411496},{"name":"あんふぁん愛宕事業所","province":"東京都","city":"多摩市","address":"多摩市愛宕四丁目9番22号池田ビル2階201号室","lat":35.628657,"lon":139.428953},{"name":"ドリームボックス多摩センター","province":"東京都","city":"多摩市","address":"多摩市山王下1-13-12パールプラザ103","lat":35.62536,"lon":139.419904},{"name":"多摩市立子育て総合センター","province":"東京都","city":"多摩市","address":"多摩市豊ヶ丘1-21-3","lat":35.627768,"lon":139.429841},{"name":"多摩市子ども家庭支援センター","province":"東京都","city":"多摩市","address":"多摩市豊ヶ丘1-21-3","lat":35.62764,"lon":139.42989},{"name":"多摩市子ども家庭支援センター","province":"東京都","city":"多摩市","address":"多摩市豊ヶ丘1-21-3","lat":35.627768,"lon":139.429841},{"name":"遊び・運動療育・学びの場　発達支援教室　アルファーラ聖蹟桜ヶ丘教室","province":"東京都","city":"多摩市","address":"多摩市一ノ宮2-19-27太喜ビル第一1階","lat":35.653096,"lon":139.44345},{"name":"グラシアス聖蹟桜ヶ丘駅前教室","province":"東京都","city":"多摩市","address":"多摩市関戸1-12-4糀屋ビル6階","lat":35.650222,"lon":139.448186},{"name":"キャンビー","province":"東京都","city":"多摩市","address":"多摩市貝取4-3-1-110","lat":35.61459,"lon":139.438525},{"name":"メロディ","province":"東京都","city":"多摩市","address":"多摩市聖ヶ丘二丁目第21街区第3号棟第4号室","lat":35.631336,"lon":139.457585},{"name":"ドリームボックス馬引沢","province":"東京都","city":"多摩市","address":"多摩市馬引沢2-3-9レジデンス永山1階A号室","lat":35.633118,"lon":139.452681},{"name":"ドリームボックス諏訪","province":"東京都","city":"多摩市","address":"多摩市諏訪1-53-2ハウスアメニティ1階B号室","lat":35.629647,"lon":139.454475},{"name":"子どもクラブ","province":"東京都","city":"多摩市","address":"多摩市永山4-2-4-106・206","lat":35.621103,"lon":139.449676},{"name":"くぬぎ","province":"東京都","city":"多摩市","address":"多摩市永山3-9東永山複合施設","lat":35.623381,"lon":139.449454},{"name":"ジョイフル","province":"東京都","city":"多摩市","address":"多摩市永山1-8-17ボヌール永山208","lat":35.631968,"lon":139.44722},{"name":"こどもデイサービス　ラフ","province":"東京都","city":"多摩市","address":"多摩市永山2-14-6アドラブールK店舗B","lat":35.630021,"lon":139.443362},{"name":"発達相談支援センター　ＣＯＲＯＮＯＡＨ","province":"東京都","city":"多摩市","address":"多摩市落合3-17-1、105号","lat":35.616514,"lon":139.430489},{"name":"ドリームボックス鶴牧","province":"東京都","city":"多摩市","address":"多摩市鶴牧2-23-21コンフォート鶴牧1階","lat":35.618233,"lon":139.414282},{"name":"島田療育センター","province":"東京都","city":"多摩市","address":"多摩市中沢1-31-1","lat":35.621988,"lon":139.411496},{"name":"あんふぁん愛宕事業所","province":"東京都","city":"多摩市","address":"多摩市愛宕四丁目9番22号池田ビル2階201号室","lat":35.628657,"lon":139.428953},{"name":"ドリームボックス多摩センター","province":"東京都","city":"多摩市","address":"多摩市山王下1-13-12パールプラザ103","lat":35.62536,"lon":139.419904},{"name":"多摩市立子育て総合センター","province":"東京都","city":"多摩市","address":"多摩市豊ヶ丘1-21-3","lat":35.627768,"lon":139.429841},{"name":"多摩市子ども家庭支援センター","province":"東京都","city":"多摩市","address":"多摩市豊ヶ丘1-21-3","lat":35.62764,"lon":139.42989},{"name":"多摩市子ども家庭支援センター","province":"東京都","city":"多摩市","address":"多摩市豊ヶ丘1-21-3","lat":35.627768,"lon":139.429841},{"name":"遊び・運動療育・学びの場　発達支援教室　アルファーラ聖蹟桜ヶ丘教室","province":"東京都","city":"多摩市","address":"多摩市一ノ宮2-19-27太喜ビル第一1階","lat":35.653096,"lon":139.44345},{"name":"グラシアス聖蹟桜ヶ丘駅前教室","province":"東京都","city":"多摩市","address":"多摩市関戸1-12-4糀屋ビル6階","lat":35.650222,"lon":139.448186},{"name":"キャンビー","province":"東京都","city":"多摩市","address":"多摩市貝取4-3-1-110","lat":35.61459,"lon":139.438525},{"name":"メロディ","province":"東京都","city":"多摩市","address":"多摩市聖ヶ丘二丁目第21街区第3号棟第4号室","lat":35.631336,"lon":139.457585},{"name":"ドリームボックス馬引沢","province":"東京都","city":"多摩市","address":"多摩市馬引沢2-3-9レジデンス永山1階A号室","lat":35.633118,"lon":139.452681},{"name":"ドリームボックス諏訪","province":"東京都","city":"多摩市","address":"多摩市諏訪1-53-2ハウスアメニティ1階B号室","lat":35.629647,"lon":139.454475},{"name":"子どもクラブ","province":"東京都","city":"多摩市","address":"多摩市永山4-2-4-106・206","lat":35.621103,"lon":139.449676},{"name":"くぬぎ","province":"東京都","city":"多摩市","address":"多摩市永山3-9東永山複合施設","lat":35.623381,"lon":139.449454},{"name":"ジョイフル","province":"東京都","city":"多摩市","address":"多摩市永山1-8-17ボヌール永山208","lat":35.631968,"lon":139.44722},{"name":"こどもデイサービス　ラフ","province":"東京都","city":"多摩市","address":"多摩市永山2-14-6アドラブールK店舗B","lat":35.630021,"lon":139.443362},{"name":"発達相談支援センター　ＣＯＲＯＮＯＡＨ","province":"東京都","city":"多摩市","address":"多摩市落合3-17-1、105号","lat":35.616514,"lon":139.430489},{"name":"ドリームボックス鶴牧","province":"東京都","city":"多摩市","address":"多摩市鶴牧2-23-21コンフォート鶴牧1階","lat":35.618233,"lon":139.414282},{"name":"島田療育センター","province":"東京都","city":"多摩市","address":"多摩市中沢1-31-1","lat":35.621988,"lon":139.411496},{"name":"あんふぁん愛宕事業所","province":"東京都","city":"多摩市","address":"多摩市愛宕四丁目9番22号池田ビル2階201号室","lat":35.628657,"lon":139.428953},{"name":"ドリームボックス多摩センター","province":"東京都","city":"多摩市","address":"多摩市山王下1-13-12パールプラザ103","lat":35.62536,"lon":139.419904},{"name":"多摩市立子育て総合センター","province":"東京都","city":"多摩市","address":"多摩市豊ヶ丘1-21-3","lat":35.627768,"lon":139.429841},{"name":"多摩市子ども家庭支援センター","province":"東京都","city":"多摩市","address":"多摩市豊ヶ丘1-21-3","lat":35.62764,"lon":139.42989},{"name":"多摩市子ども家庭支援センター","province":"東京都","city":"多摩市","address":"多摩市豊ヶ丘1-21-3","lat":35.627768,"lon":139.429841},{"name":"遊び・運動療育・学びの場　発達支援教室　アルファーラ聖蹟桜ヶ丘教室","province":"東京都","city":"多摩市","address":"多摩市一ノ宮2-19-27太喜ビル第一1階","lat":35.653096,"lon":139.44345},{"name":"グラシアス聖蹟桜ヶ丘駅前教室","province":"東京都","city":"多摩市","address":"多摩市関戸1-12-4糀屋ビル6階","lat":35.650222,"lon":139.448186},{"name":"キャンビー","province":"東京都","city":"多摩市","address":"多摩市貝取4-3-1-110","lat":35.61459,"lon":139.438525},{"name":"メロディ","province":"東京都","city":"多摩市","address":"多摩市聖ヶ丘二丁目第21街区第3号棟第4号室","lat":35.631336,"lon":139.457585},{"name":"ドリームボックス馬引沢","province":"東京都","city":"多摩市","address":"多摩市馬引沢2-3-9レジデンス永山1階A号室","lat":35.633118,"lon":139.452681},{"name":"ドリームボックス諏訪","province":"東京都","city":"多摩市","address":"多摩市諏訪1-53-2ハウスアメニティ1階B号室","lat":35.629647,"lon":139.454475},{"name":"子どもクラブ","province":"東京都","city":"多摩市","address":"多摩市永山4-2-4-106・206","lat":35.621103,"lon":139.449676},{"name":"くぬぎ","province":"東京都","city":"多摩市","address":"多摩市永山3-9東永山複合施設","lat":35.623381,"lon":139.449454},{"name":"ジョイフル","province":"東京都","city":"多摩市","address":"多摩市永山1-8-17ボヌール永山208","lat":35.631968,"lon":139.44722},{"name":"こどもデイサービス　ラフ","province":"東京都","city":"多摩市","address":"多摩市永山2-14-6アドラブールK店舗B","lat":35.630021,"lon":139.443362},{"name":"発達相談支援センター　ＣＯＲＯＮＯＡＨ","province":"東京都","city":"多摩市","address":"多摩市落合3-17-1、105号","lat":35.616514,"lon":139.430489},{"name":"ドリームボックス鶴牧","province":"東京都","city":"多摩市","address":"多摩市鶴牧2-23-21コンフォート鶴牧1階","lat":35.618233,"lon":139.414282},{"name":"島田療育センター","province":"東京都","city":"多摩市","address":"多摩市中沢1-31-1","lat":35.621988,"lon":139.411496},{"name":"あんふぁん愛宕事業所","province":"東京都","city":"多摩市","address":"多摩市愛宕四丁目9番22号池田ビル2階201号室","lat":35.628657,"lon":139.428953},{"name":"ドリームボックス多摩センター","province":"東京都","city":"多摩市","address":"多摩市山王下1-13-12パールプラザ103","lat":35.62536,"lon":139.419904},{"name":"多摩市立子育て総合センター","province":"東京都","city":"多摩市","address":"多摩市豊ヶ丘1-21-3","lat":35.627768,"lon":139.429841},{"name":"多摩市子ども家庭支援センター","province":"東京都","city":"多摩市","address":"多摩市豊ヶ丘1-21-3","lat":35.62764,"lon":139.42989},{"name":"多摩市子ども家庭支援センター","province":"東京都","city":"多摩市","address":"多摩市豊ヶ丘1-21-3","lat":35.627768,"lon":139.429841},{"name":"遊び・運動療育・学びの場　発達支援教室　アルファーラ聖蹟桜ヶ丘教室","province":"東京都","city":"多摩市","address":"多摩市一ノ宮2-19-27太喜ビル第一1階","lat":35.653096,"lon":139.44345},{"name":"グラシアス聖蹟桜ヶ丘駅前教室","province":"東京都","city":"多摩市","address":"多摩市関戸1-12-4糀屋ビル6階","lat":35.650222,"lon":139.448186},{"name":"キャンビー","province":"東京都","city":"多摩市","address":"多摩市貝取4-3-1-110","lat":35.61459,"lon":139.438525},{"name":"メロディ","province":"東京都","city":"多摩市","address":"多摩市聖ヶ丘二丁目第21街区第3号棟第4号室","lat":35.631336,"lon":139.457585},{"name":"ドリームボックス馬引沢","province":"東京都","city":"多摩市","address":"多摩市馬引沢2-3-9レジデンス永山1階A号室","lat":35.633118,"lon":139.452681},{"name":"ドリームボックス諏訪","province":"東京都","city":"多摩市","address":"多摩市諏訪1-53-2ハウスアメニティ1階B号室","lat":35.629647,"lon":139.454475},{"name":"子どもクラブ","province":"東京都","city":"多摩市","address":"多摩市永山4-2-4-106・206","lat":35.621103,"lon":139.449676},{"name":"くぬぎ","province":"東京都","city":"多摩市","address":"多摩市永山3-9東永山複合施設","lat":35.623381,"lon":139.449454},{"name":"ジョイフル","province":"東京都","city":"多摩市","address":"多摩市永山1-8-17ボヌール永山208","lat":35.631968,"lon":139.44722},{"name":"こどもデイサービス　ラフ","province":"東京都","city":"多摩市","address":"多摩市永山2-14-6アドラブールK店舗B","lat":35.630021,"lon":139.443362},{"name":"発達相談支援センター　ＣＯＲＯＮＯＡＨ","province":"東京都","city":"多摩市","address":"多摩市落合3-17-1、105号","lat":35.616514,"lon":139.430489},{"name":"ドリームボックス鶴牧","province":"東京都","city":"多摩市","address":"多摩市鶴牧2-23-21コンフォート鶴牧1階","lat":35.618233,"lon":139.414282},{"name":"島田療育センター","province":"東京都","city":"多摩市","address":"多摩市中沢1-31-1","lat":35.621988,"lon":139.411496},{"name":"あんふぁん愛宕事業所","province":"東京都","city":"多摩市","address":"多摩市愛宕四丁目9番22号池田ビル2階201号室","lat":35.628657,"lon":139.428953},{"name":"ドリームボックス多摩センター","province":"東京都","city":"多摩市","address":"多摩市山王下1-13-12パールプラザ103","lat":35.62536,"lon":139.419904},{"name":"多摩市立子育て総合センター","province":"東京都","city":"多摩市","address":"多摩市豊ヶ丘1-21-3","lat":35.627768,"lon":139.429841},{"name":"多摩市子ども家庭支援センター","province":"東京都","city":"多摩市","address":"多摩市豊ヶ丘1-21-3","lat":35.62764,"lon":139.42989},{"name":"多摩市子ども家庭支援センター","province":"東京都","city":"多摩市","address":"多摩市豊ヶ丘1-21-3","lat":35.627768,"lon":139.429841},{"name":"遊び・運動療育・学びの場　発達支援教室　アルファーラ聖蹟桜ヶ丘教室","province":"東京都","city":"多摩市","address":"多摩市一ノ宮2-19-27太喜ビル第一1階","lat":35.653096,"lon":139.44345},{"name":"グラシアス聖蹟桜ヶ丘駅前教室","province":"東京都","city":"多摩市","address":"多摩市関戸1-12-4糀屋ビル6階","lat":35.650222,"lon":139.448186},{"name":"キャンビー","province":"東京都","city":"多摩市","address":"多摩市貝取4-3-1-110","lat":35.61459,"lon":139.438525},{"name":"メロディ","province":"東京都","city":"多摩市","address":"多摩市聖ヶ丘二丁目第21街区第3号棟第4号室","lat":35.631336,"lon":139.457585},{"name":"ドリームボックス馬引沢","province":"東京都","city":"多摩市","address":"多摩市馬引沢2-3-9レジデンス永山1階A号室","lat":35.633118,"lon":139.452681},{"name":"ドリームボックス諏訪","province":"東京都","city":"多摩市","address":"多摩市諏訪1-53-2ハウスアメニティ1階B号室","lat":35.629647,"lon":139.454475},{"name":"子どもクラブ","province":"東京都","city":"多摩市","address":"多摩市永山4-2-4-106・206","lat":35.621103,"lon":139.449676},{"name":"くぬぎ","province":"東京都","city":"多摩市","address":"多摩市永山3-9東永山複合施設","lat":35.623381,"lon":139.449454},{"name":"ジョイフル","province":"東京都","city":"多摩市","address":"多摩市永山1-8-17ボヌール永山208","lat":35.631968,"lon":139.44722},{"name":"こどもデイサービス　ラフ","province":"東京都","city":"多摩市","address":"多摩市永山2-14-6アドラブールK店舗B","lat":35.630021,"lon":139.443362},{"name":"発達相談支援センター　ＣＯＲＯＮＯＡＨ","province":"東京都","city":"多摩市","address":"多摩市落合3-17-1、105号","lat":35.616514,"lon":139.430489},{"name":"ドリームボックス鶴牧","province":"東京都","city":"多摩市","address":"多摩市鶴牧2-23-21コンフォート鶴牧1階","lat":35.618233,"lon":139.414282},{"name":"島田療育センター","province":"東京都","city":"多摩市","address":"多摩市中沢1-31-1","lat":35.621988,"lon":139.411496},{"name":"あんふぁん愛宕事業所","province":"東京都","city":"多摩市","address":"多摩市愛宕四丁目9番22号池田ビル2階201号室","lat":35.628657,"lon":139.428953},{"name":"ドリームボックス多摩センター","province":"東京都","city":"多摩市","address":"多摩市山王下1-13-12パールプラザ103","lat":35.62536,"lon":139.419904},{"name":"多摩市立子育て総合センター","province":"東京都","city":"多摩市","address":"多摩市豊ヶ丘1-21-3","lat":35.627768,"lon":139.429841},{"name":"多摩市子ども家庭支援センター","province":"東京都","city":"多摩市","address":"多摩市豊ヶ丘1-21-3","lat":35.62764,"lon":139.42989},{"name":"多摩市子ども家庭支援センター","province":"東京都","city":"多摩市","address":"多摩市豊ヶ丘1-21-3","lat":35.627768,"lon":139.429841},{"name":"遊び・運動療育・学びの場　発達支援教室　アルファーラ聖蹟桜ヶ丘教室","province":"東京都","city":"多摩市","address":"多摩市一ノ宮2-19-27太喜ビル第一1階","lat":35.653096,"lon":139.44345},{"name":"グラシアス聖蹟桜ヶ丘駅前教室","province":"東京都","city":"多摩市","address":"多摩市関戸1-12-4糀屋ビル6階","lat":35.650222,"lon":139.448186},{"name":"キャンビー","province":"東京都","city":"多摩市","address":"多摩市貝取4-3-1-110","lat":35.61459,"lon":139.438525},{"name":"メロディ","province":"東京都","city":"多摩市","address":"多摩市聖ヶ丘二丁目第21街区第3号棟第4号室","lat":35.631336,"lon":139.457585},{"name":"ドリームボックス馬引沢","province":"東京都","city":"多摩市","address":"多摩市馬引沢2-3-9レジデンス永山1階A号室","lat":35.633118,"lon":139.452681},{"name":"ドリームボックス諏訪","province":"東京都","city":"多摩市","address":"多摩市諏訪1-53-2ハウスアメニティ1階B号室","lat":35.629647,"lon":139.454475},{"name":"子どもクラブ","province":"東京都","city":"多摩市","address":"多摩市永山4-2-4-106・206","lat":35.621103,"lon":139.449676},{"name":"くぬぎ","province":"東京都","city":"多摩市","address":"多摩市永山3-9東永山複合施設","lat":35.623381,"lon":139.449454},{"name":"ジョイフル","province":"東京都","city":"多摩市","address":"多摩市永山1-8-17ボヌール永山208","lat":35.631968,"lon":139.44722},{"name":"こどもデイサービス　ラフ","province":"東京都","city":"多摩市","address":"多摩市永山2-14-6アドラブールK店舗B","lat":35.630021,"lon":139.443362},{"name":"発達相談支援センター　ＣＯＲＯＮＯＡＨ","province":"東京都","city":"多摩市","address":"多摩市落合3-17-1、105号","lat":35.616514,"lon":139.430489},{"name":"ドリームボックス鶴牧","province":"東京都","city":"多摩市","address":"多摩市鶴牧2-23-21コンフォート鶴牧1階","lat":35.618233,"lon":139.414282},{"name":"島田療育センター","province":"東京都","city":"多摩市","address":"多摩市中沢1-31-1","lat":35.621988,"lon":139.411496},{"name":"あんふぁん愛宕事業所","province":"東京都","city":"多摩市","address":"多摩市愛宕四丁目9番22号池田ビル2階201号室","lat":35.628657,"lon":139.428953},{"name":"ドリームボックス多摩センター","province":"東京都","city":"多摩市","address":"多摩市山王下1-13-12パールプラザ103","lat":35.62536,"lon":139.419904},{"name":"多摩市立子育て総合センター","province":"東京都","city":"多摩市","address":"多摩市豊ヶ丘1-21-3","lat":35.627768,"lon":139.429841},{"name":"多摩市子ども家庭支援センター","province":"東京都","city":"多摩市","address":"多摩市豊ヶ丘1-21-3","lat":35.62764,"lon":139.42989},{"name":"多摩市子ども家庭支援センター","province":"東京都","city":"多摩市","address":"多摩市豊ヶ丘1-21-3","lat":35.627768,"lon":139.429841},{"name":"遊び・運動療育・学びの場　発達支援教室　アルファーラ聖蹟桜ヶ丘教室","province":"東京都","city":"多摩市","address":"多摩市一ノ宮2-19-27太喜ビル第一1階","lat":35.653096,"lon":139.44345},{"name":"グラシアス聖蹟桜ヶ丘駅前教室","province":"東京都","city":"多摩市","address":"多摩市関戸1-12-4糀屋ビル6階","lat":35.650222,"lon":139.448186},{"name":"キャンビー","province":"東京都","city":"多摩市","address":"多摩市貝取4-3-1-110","lat":35.61459,"lon":139.438525},{"name":"メロディ","province":"東京都","city":"多摩市","address":"多摩市聖ヶ丘二丁目第21街区第3号棟第4号室","lat":35.631336,"lon":139.457585},{"name":"ドリームボックス馬引沢","province":"東京都","city":"多摩市","address":"多摩市馬引沢2-3-9レジデンス永山1階A号室","lat":35.633118,"lon":139.452681},{"name":"ドリームボックス諏訪","province":"東京都","city":"多摩市","address":"多摩市諏訪1-53-2ハウスアメニティ1階B号室","lat":35.629647,"lon":139.454475},{"name":"子どもクラブ","province":"東京都","city":"多摩市","address":"多摩市永山4-2-4-106・206","lat":35.621103,"lon":139.449676},{"name":"くぬぎ","province":"東京都","city":"多摩市","address":"多摩市永山3-9東永山複合施設","lat":35.623381,"lon":139.449454},{"name":"ジョイフル","province":"東京都","city":"多摩市","address":"多摩市永山1-8-17ボヌール永山208","lat":35.631968,"lon":139.44722},{"name":"こどもデイサービス　ラフ","province":"東京都","city":"多摩市","address":"多摩市永山2-14-6アドラブールK店舗B","lat":35.630021,"lon":139.443362},{"name":"発達相談支援センター　ＣＯＲＯＮＯＡＨ","province":"東京都","city":"多摩市","address":"多摩市落合3-17-1、105号","lat":35.616514,"lon":139.430489},{"name":"ドリームボックス鶴牧","province":"東京都","city":"多摩市","address":"多摩市鶴牧2-23-21コンフォート鶴牧1階","lat":35.618233,"lon":139.414282},{"name":"島田療育センター","province":"東京都","city":"多摩市","address":"多摩市中沢1-31-1","lat":35.621988,"lon":139.411496},{"name":"あんふぁん愛宕事業所","province":"東京都","city":"多摩市","address":"多摩市愛宕四丁目9番22号池田ビル2階201号室","lat":35.628657,"lon":139.428953},{"name":"ドリームボックス多摩センター","province":"東京都","city":"多摩市","address":"多摩市山王下1-13-12パールプラザ103","lat":35.62536,"lon":139.419904},{"name":"多摩市立子育て総合センター","province":"東京都","city":"多摩市","address":"多摩市豊ヶ丘1-21-3","lat":35.627768,"lon":139.429841},{"name":"多摩市子ども家庭支援センター","province":"東京都","city":"多摩市","address":"多摩市豊ヶ丘1-21-3","lat":35.62764,"lon":139.42989},{"name":"多摩市子ども家庭支援センター","province":"東京都","city":"多摩市","address":"多摩市豊ヶ丘1-21-3","lat":35.627768,"lon":139.429841},{"name":"遊び・運動療育・学びの場　発達支援教室　アルファーラ聖蹟桜ヶ丘教室","province":"東京都","city":"多摩市","address":"多摩市一ノ宮2-19-27太喜ビル第一1階","lat":35.653096,"lon":139.44345},{"name":"グラシアス聖蹟桜ヶ丘駅前教室","province":"東京都","city":"多摩市","address":"多摩市関戸1-12-4糀屋ビル6階","lat":35.650222,"lon":139.448186},{"name":"キャンビー","province":"東京都","city":"多摩市","address":"多摩市貝取4-3-1-110","lat":35.61459,"lon":139.438525},{"name":"メロディ","province":"東京都","city":"多摩市","address":"多摩市聖ヶ丘二丁目第21街区第3号棟第4号室","lat":35.631336,"lon":139.457585},{"name":"ドリームボックス馬引沢","province":"東京都","city":"多摩市","address":"多摩市馬引沢2-3-9レジデンス永山1階A号室","lat":35.633118,"lon":139.452681},{"name":"ドリームボックス諏訪","province":"東京都","city":"多摩市","address":"多摩市諏訪1-53-2ハウスアメニティ1階B号室","lat":35.629647,"lon":139.454475},{"name":"子どもクラブ","province":"東京都","city":"多摩市","address":"多摩市永山4-2-4-106・206","lat":35.621103,"lon":139.449676},{"name":"くぬぎ","province":"東京都","city":"多摩市","address":"多摩市永山3-9東永山複合施設","lat":35.623381,"lon":139.449454},{"name":"ジョイフル","province":"東京都","city":"多摩市","address":"多摩市永山1-8-17ボヌール永山208","lat":35.631968,"lon":139.44722},{"name":"こどもデイサービス　ラフ","province":"東京都","city":"多摩市","address":"多摩市永山2-14-6アドラブールK店舗B","lat":35.630021,"lon":139.443362},{"name":"発達相談支援センター　ＣＯＲＯＮＯＡＨ","province":"東京都","city":"多摩市","address":"多摩市落合3-17-1、105号","lat":35.616514,"lon":139.430489},{"name":"ドリームボックス鶴牧","province":"東京都","city":"多摩市","address":"多摩市鶴牧2-23-21コンフォート鶴牧1階","lat":35.618233,"lon":139.414282},{"name":"島田療育センター","province":"東京都","city":"多摩市","address":"多摩市中沢1-31-1","lat":35.621988,"lon":139.411496},{"name":"あんふぁん愛宕事業所","province":"東京都","city":"多摩市","address":"多摩市愛宕四丁目9番22号池田ビル2階201号室","lat":35.628657,"lon":139.428953},{"name":"ドリームボックス多摩センター","province":"東京都","city":"多摩市","address":"多摩市山王下1-13-12パールプラザ103","lat":35.62536,"lon":139.419904},{"name":"多摩市立子育て総合センター","province":"東京都","city":"多摩市","address":"多摩市豊ヶ丘1-21-3","lat":35.627768,"lon":139.429841},{"name":"多摩市子ども家庭支援センター","province":"東京都","city":"多摩市","address":"多摩市豊ヶ丘1-21-3","lat":35.62764,"lon":139.42989},{"name":"多摩市子ども家庭支援センター","province":"東京都","city":"多摩市","address":"多摩市豊ヶ丘1-21-3","lat":35.627768,"lon":139.429841},{"name":"遊び・運動療育・学びの場　発達支援教室　アルファーラ聖蹟桜ヶ丘教室","province":"東京都","city":"多摩市","address":"多摩市一ノ宮2-19-27太喜ビル第一1階","lat":35.653096,"lon":139.44345},{"name":"グラシアス聖蹟桜ヶ丘駅前教室","province":"東京都","city":"多摩市","address":"多摩市関戸1-12-4糀屋ビル6階","lat":35.650222,"lon":139.448186},{"name":"キャンビー","province":"東京都","city":"多摩市","address":"多摩市貝取4-3-1-110","lat":35.61459,"lon":139.438525},{"name":"メロディ","province":"東京都","city":"多摩市","address":"多摩市聖ヶ丘二丁目第21街区第3号棟第4号室","lat":35.631336,"lon":139.457585},{"name":"ドリームボックス馬引沢","province":"東京都","city":"多摩市","address":"多摩市馬引沢2-3-9レジデンス永山1階A号室","lat":35.633118,"lon":139.452681},{"name":"ドリームボックス諏訪","province":"東京都","city":"多摩市","address":"多摩市諏訪1-53-2ハウスアメニティ1階B号室","lat":35.629647,"lon":139.454475},{"name":"子どもクラブ","province":"東京都","city":"多摩市","address":"多摩市永山4-2-4-106・206","lat":35.621103,"lon":139.449676},{"name":"くぬぎ","province":"東京都","city":"多摩市","address":"多摩市永山3-9東永山複合施設","lat":35.623381,"lon":139.449454},{"name":"ジョイフル","province":"東京都","city":"多摩市","address":"多摩市永山1-8-17ボヌール永山208","lat":35.631968,"lon":139.44722},{"name":"こどもデイサービス　ラフ","province":"東京都","city":"多摩市","address":"多摩市永山2-14-6アドラブールK店舗B","lat":35.630021,"lon":139.443362},{"name":"発達相談支援センター　ＣＯＲＯＮＯＡＨ","province":"東京都","city":"多摩市","address":"多摩市落合3-17-1、105号","lat":35.616514,"lon":139.430489},{"name":"ドリームボックス鶴牧","province":"東京都","city":"多摩市","address":"多摩市鶴牧2-23-21コンフォート鶴牧1階","lat":35.618233,"lon":139.414282},{"name":"島田療育センター","province":"東京都","city":"多摩市","address":"多摩市中沢1-31-1","lat":35.621988,"lon":139.411496},{"name":"あんふぁん愛宕事業所","province":"東京都","city":"多摩市","address":"多摩市愛宕四丁目9番22号池田ビル2階201号室","lat":35.628657,"lon":139.428953},{"name":"ドリームボックス多摩センター","province":"東京都","city":"多摩市","address":"多摩市山王下1-13-12パールプラザ103","lat":35.62536,"lon":139.419904},{"name":"多摩市立子育て総合センター","province":"東京都","city":"多摩市","address":"多摩市豊ヶ丘1-21-3","lat":35.627768,"lon":139.429841},{"name":"多摩市子ども家庭支援センター","province":"東京都","city":"多摩市","address":"多摩市豊ヶ丘1-21-3","lat":35.62764,"lon":139.42989},{"name":"多摩市子ども家庭支援センター","province":"東京都","city":"多摩市","address":"多摩市豊ヶ丘1-21-3","lat":35.627768,"lon":139.429841},{"name":"遊び・運動療育・学びの場　発達支援教室　アルファーラ聖蹟桜ヶ丘教室","province":"東京都","city":"多摩市","address":"多摩市一ノ宮2-19-27太喜ビル第一1階","lat":35.653096,"lon":139.44345},{"name":"グラシアス聖蹟桜ヶ丘駅前教室","province":"東京都","city":"多摩市","address":"多摩市関戸1-12-4糀屋ビル6階","lat":35.650222,"lon":139.448186},{"name":"キャンビー","province":"東京都","city":"多摩市","address":"多摩市貝取4-3-1-110","lat":35.61459,"lon":139.438525},{"name":"メロディ","province":"東京都","city":"多摩市","address":"多摩市聖ヶ丘二丁目第21街区第3号棟第4号室","lat":35.631336,"lon":139.457585},{"name":"ドリームボックス馬引沢","province":"東京都","city":"多摩市","address":"多摩市馬引沢2-3-9レジデンス永山1階A号室","lat":35.633118,"lon":139.452681},{"name":"ドリームボックス諏訪","province":"東京都","city":"多摩市","address":"多摩市諏訪1-53-2ハウスアメニティ1階B号室","lat":35.629647,"lon":139.454475},{"name":"子どもクラブ","province":"東京都","city":"多摩市","address":"多摩市永山4-2-4-106・206","lat":35.621103,"lon":139.449676},{"name":"くぬぎ","province":"東京都","city":"多摩市","address":"多摩市永山3-9東永山複合施設","lat":35.623381,"lon":139.449454},{"name":"ジョイフル","province":"東京都","city":"多摩市","address":"多摩市永山1-8-17ボヌール永山208","lat":35.631968,"lon":139.44722},{"name":"こどもデイサービス　ラフ","province":"東京都","city":"多摩市","address":"多摩市永山2-14-6アドラブールK店舗B","lat":35.630021,"lon":139.443362},{"name":"発達相談支援センター　ＣＯＲＯＮＯＡＨ","province":"東京都","city":"多摩市","address":"多摩市落合3-17-1、105号","lat":35.616514,"lon":139.430489},{"name":"ドリームボックス鶴牧","province":"東京都","city":"多摩市","address":"多摩市鶴牧2-23-21コンフォート鶴牧1階","lat":35.618233,"lon":139.414282},{"name":"島田療育センター","province":"東京都","city":"多摩市","address":"多摩市中沢1-31-1","lat":35.621988,"lon":139.411496},{"name":"あんふぁん愛宕事業所","province":"東京都","city":"多摩市","address":"多摩市愛宕四丁目9番22号池田ビル2階201号室","lat":35.628657,"lon":139.428953},{"name":"ドリームボックス多摩センター","province":"東京都","city":"多摩市","address":"多摩市山王下1-13-12パールプラザ103","lat":35.62536,"lon":139.419904},{"name":"多摩市立子育て総合センター","province":"東京都","city":"多摩市","address":"多摩市豊ヶ丘1-21-3","lat":35.627768,"lon":139.429841},{"name":"多摩市子ども家庭支援センター","province":"東京都","city":"多摩市","address":"多摩市豊ヶ丘1-21-3","lat":35.62764,"lon":139.42989},{"name":"多摩市子ども家庭支援センター","province":"東京都","city":"多摩市","address":"多摩市豊ヶ丘1-21-3","lat":35.627768,"lon":139.429841},{"name":"遊び・運動療育・学びの場　発達支援教室　アルファーラ聖蹟桜ヶ丘教室","province":"東京都","city":"多摩市","address":"多摩市一ノ宮2-19-27太喜ビル第一1階","lat":35.653096,"lon":139.44345},{"name":"グラシアス聖蹟桜ヶ丘駅前教室","province":"東京都","city":"多摩市","address":"多摩市関戸1-12-4糀屋ビル6階","lat":35.650222,"lon":139.448186},{"name":"キャンビー","province":"東京都","city":"多摩市","address":"多摩市貝取4-3-1-110","lat":35.61459,"lon":139.438525},{"name":"メロディ","province":"東京都","city":"多摩市","address":"多摩市聖ヶ丘二丁目第21街区第3号棟第4号室","lat":35.631336,"lon":139.457585},{"name":"ドリームボックス馬引沢","province":"東京都","city":"多摩市","address":"多摩市馬引沢2-3-9レジデンス永山1階A号室","lat":35.633118,"lon":139.452681},{"name":"ドリームボックス諏訪","province":"東京都","city":"多摩市","address":"多摩市諏訪1-53-2ハウスアメニティ1階B号室","lat":35.629647,"lon":139.454475},{"name":"子どもクラブ","province":"東京都","city":"多摩市","address":"多摩市永山4-2-4-106・206","lat":35.621103,"lon":139.449676},{"name":"くぬぎ","province":"東京都","city":"多摩市","address":"多摩市永山3-9東永山複合施設","lat":35.623381,"lon":139.449454},{"name":"ジョイフル","province":"東京都","city":"多摩市","address":"多摩市永山1-8-17ボヌール永山208","lat":35.631968,"lon":139.44722},{"name":"こどもデイサービス　ラフ","province":"東京都","city":"多摩市","address":"多摩市永山2-14-6アドラブールK店舗B","lat":35.630021,"lon":139.443362},{"name":"発達相談支援センター　ＣＯＲＯＮＯＡＨ","province":"東京都","city":"多摩市","address":"多摩市落合3-17-1、105号","lat":35.616514,"lon":139.430489},{"name":"ドリームボックス鶴牧","province":"東京都","city":"多摩市","address":"多摩市鶴牧2-23-21コンフォート鶴牧1階","lat":35.618233,"lon":139.414282},{"name":"島田療育センター","province":"東京都","city":"多摩市","address":"多摩市中沢1-31-1","lat":35.621988,"lon":139.411496},{"name":"あんふぁん愛宕事業所","province":"東京都","city":"多摩市","address":"多摩市愛宕四丁目9番22号池田ビル2階201号室","lat":35.628657,"lon":139.428953},{"name":"ドリームボックス多摩センター","province":"東京都","city":"多摩市","address":"多摩市山王下1-13-12パールプラザ103","lat":35.62536,"lon":139.419904},{"name":"多摩市立子育て総合センター","province":"東京都","city":"多摩市","address":"多摩市豊ヶ丘1-21-3","lat":35.627768,"lon":139.429841},{"name":"多摩市子ども家庭支援センター","province":"東京都","city":"多摩市","address":"多摩市豊ヶ丘1-21-3","lat":35.62764,"lon":139.42989},{"name":"多摩市子ども家庭支援センター","province":"東京都","city":"多摩市","address":"多摩市豊ヶ丘1-21-3","lat":35.627768,"lon":139.429841},{"name":"遊び・運動療育・学びの場　発達支援教室　アルファーラ聖蹟桜ヶ丘教室","province":"東京都","city":"多摩市","address":"多摩市一ノ宮2-19-27太喜ビル第一1階","lat":35.653096,"lon":139.44345},{"name":"グラシアス聖蹟桜ヶ丘駅前教室","province":"東京都","city":"多摩市","address":"多摩市関戸1-12-4糀屋ビル6階","lat":35.650222,"lon":139.448186},{"name":"キャンビー","province":"東京都","city":"多摩市","address":"多摩市貝取4-3-1-110","lat":35.61459,"lon":139.438525},{"name":"メロディ","province":"東京都","city":"多摩市","address":"多摩市聖ヶ丘二丁目第21街区第3号棟第4号室","lat":35.631336,"lon":139.457585},{"name":"ドリームボックス馬引沢","province":"東京都","city":"多摩市","address":"多摩市馬引沢2-3-9レジデンス永山1階A号室","lat":35.633118,"lon":139.452681},{"name":"ドリームボックス諏訪","province":"東京都","city":"多摩市","address":"多摩市諏訪1-53-2ハウスアメニティ1階B号室","lat":35.629647,"lon":139.454475},{"name":"子どもクラブ","province":"東京都","city":"多摩市","address":"多摩市永山4-2-4-106・206","lat":35.621103,"lon":139.449676},{"name":"くぬぎ","province":"東京都","city":"多摩市","address":"多摩市永山3-9東永山複合施設","lat":35.623381,"lon":139.449454},{"name":"ジョイフル","province":"東京都","city":"多摩市","address":"多摩市永山1-8-17ボヌール永山208","lat":35.631968,"lon":139.44722},{"name":"こどもデイサービス　ラフ","province":"東京都","city":"多摩市","address":"多摩市永山2-14-6アドラブールK店舗B","lat":35.630021,"lon":139.443362},{"name":"発達相談支援センター　ＣＯＲＯＮＯＡＨ","province":"東京都","city":"多摩市","address":"多摩市落合3-17-1、105号","lat":35.616514,"lon":139.430489},{"name":"ドリームボックス鶴牧","province":"東京都","city":"多摩市","address":"多摩市鶴牧2-23-21コンフォート鶴牧1階","lat":35.618233,"lon":139.414282},{"name":"島田療育センター","province":"東京都","city":"多摩市","address":"多摩市中沢1-31-1","lat":35.621988,"lon":139.411496},{"name":"あんふぁん愛宕事業所","province":"東京都","city":"多摩市","address":"多摩市愛宕四丁目9番22号池田ビル2階201号室","lat":35.628657,"lon":139.428953},{"name":"ドリームボックス多摩センター","province":"東京都","city":"多摩市","address":"多摩市山王下1-13-12パールプラザ103","lat":35.62536,"lon":139.419904},{"name":"多摩市立子育て総合センター","province":"東京都","city":"多摩市","address":"多摩市豊ヶ丘1-21-3","lat":35.627768,"lon":139.429841},{"name":"多摩市子ども家庭支援センター","province":"東京都","city":"多摩市","address":"多摩市豊ヶ丘1-21-3","lat":35.62764,"lon":139.42989},{"name":"多摩市子ども家庭支援センター","province":"東京都","city":"多摩市","address":"多摩市豊ヶ丘1-21-3","lat":35.627768,"lon":139.429841},{"name":"遊び・運動療育・学びの場　発達支援教室　アルファーラ聖蹟桜ヶ丘教室","province":"東京都","city":"多摩市","address":"多摩市一ノ宮2-19-27太喜ビル第一1階","lat":35.653096,"lon":139.44345},{"name":"グラシアス聖蹟桜ヶ丘駅前教室","province":"東京都","city":"多摩市","address":"多摩市関戸1-12-4糀屋ビル6階","lat":35.650222,"lon":139.448186},{"name":"キャンビー","province":"東京都","city":"多摩市","address":"多摩市貝取4-3-1-110","lat":35.61459,"lon":139.438525},{"name":"メロディ","province":"東京都","city":"多摩市","address":"多摩市聖ヶ丘二丁目第21街区第3号棟第4号室","lat":35.631336,"lon":139.457585},{"name":"ドリームボックス馬引沢","province":"東京都","city":"多摩市","address":"多摩市馬引沢2-3-9レジデンス永山1階A号室","lat":35.633118,"lon":139.452681},{"name":"ドリームボックス諏訪","province":"東京都","city":"多摩市","address":"多摩市諏訪1-53-2ハウスアメニティ1階B号室","lat":35.629647,"lon":139.454475},{"name":"子どもクラブ","province":"東京都","city":"多摩市","address":"多摩市永山4-2-4-106・206","lat":35.621103,"lon":139.449676},{"name":"くぬぎ","province":"東京都","city":"多摩市","address":"多摩市永山3-9東永山複合施設","lat":35.623381,"lon":139.449454},{"name":"ジョイフル","province":"東京都","city":"多摩市","address":"多摩市永山1-8-17ボヌール永山208","lat":35.631968,"lon":139.44722},{"name":"こどもデイサービス　ラフ","province":"東京都","city":"多摩市","address":"多摩市永山2-14-6アドラブールK店舗B","lat":35.630021,"lon":139.443362},{"name":"発達相談支援センター　ＣＯＲＯＮＯＡＨ","province":"東京都","city":"多摩市","address":"多摩市落合3-17-1、105号","lat":35.616514,"lon":139.430489},{"name":"ドリームボックス鶴牧","province":"東京都","city":"多摩市","address":"多摩市鶴牧2-23-21コンフォート鶴牧1階","lat":35.618233,"lon":139.414282},{"name":"島田療育センター","province":"東京都","city":"多摩市","address":"多摩市中沢1-31-1","lat":35.621988,"lon":139.411496},{"name":"あんふぁん愛宕事業所","province":"東京都","city":"多摩市","address":"多摩市愛宕四丁目9番22号池田ビル2階201号室","lat":35.628657,"lon":139.428953},{"name":"ドリームボックス多摩センター","province":"東京都","city":"多摩市","address":"多摩市山王下1-13-12パールプラザ103","lat":35.62536,"lon":139.419904},{"name":"多摩市立子育て総合センター","province":"東京都","city":"多摩市","address":"多摩市豊ヶ丘1-21-3","lat":35.627768,"lon":139.429841},{"name":"多摩市子ども家庭支援センター","province":"東京都","city":"多摩市","address":"多摩市豊ヶ丘1-21-3","lat":35.62764,"lon":139.42989},{"name":"多摩市子ども家庭支援センター","province":"東京都","city":"多摩市","address":"多摩市豊ヶ丘1-21-3","lat":35.627768,"lon":139.429841},{"name":"遊び・運動療育・学びの場　発達支援教室　アルファーラ聖蹟桜ヶ丘教室","province":"東京都","city":"多摩市","address":"多摩市一ノ宮2-19-27太喜ビル第一1階","lat":35.653096,"lon":139.44345},{"name":"グラシアス聖蹟桜ヶ丘駅前教室","province":"東京都","city":"多摩市","address":"多摩市関戸1-12-4糀屋ビル6階","lat":35.650222,"lon":139.448186},{"name":"キャンビー","province":"東京都","city":"多摩市","address":"多摩市貝取4-3-1-110","lat":35.61459,"lon":139.438525},{"name":"メロディ","province":"東京都","city":"多摩市","address":"多摩市聖ヶ丘二丁目第21街区第3号棟第4号室","lat":35.631336,"lon":139.457585},{"name":"ドリームボックス馬引沢","province":"東京都","city":"多摩市","address":"多摩市馬引沢2-3-9レジデンス永山1階A号室","lat":35.633118,"lon":139.452681},{"name":"ドリームボックス諏訪","province":"東京都","city":"多摩市","address":"多摩市諏訪1-53-2ハウスアメニティ1階B号室","lat":35.629647,"lon":139.454475},{"name":"子どもクラブ","province":"東京都","city":"多摩市","address":"多摩市永山4-2-4-106・206","lat":35.621103,"lon":139.449676},{"name":"くぬぎ","province":"東京都","city":"多摩市","address":"多摩市永山3-9東永山複合施設","lat":35.623381,"lon":139.449454},{"name":"ジョイフル","province":"東京都","city":"多摩市","address":"多摩市永山1-8-17ボヌール永山208","lat":35.631968,"lon":139.44722},{"name":"こどもデイサービス　ラフ","province":"東京都","city":"多摩市","address":"多摩市永山2-14-6アドラブールK店舗B","lat":35.630021,"lon":139.443362},{"name":"発達相談支援センター　ＣＯＲＯＮＯＡＨ","province":"東京都","city":"多摩市","address":"多摩市落合3-17-1、105号","lat":35.616514,"lon":139.430489},{"name":"ドリームボックス鶴牧","province":"東京都","city":"多摩市","address":"多摩市鶴牧2-23-21コンフォート鶴牧1階","lat":35.618233,"lon":139.414282},{"name":"島田療育センター","province":"東京都","city":"多摩市","address":"多摩市中沢1-31-1","lat":35.621988,"lon":139.411496},{"name":"あんふぁん愛宕事業所","province":"東京都","city":"多摩市","address":"多摩市愛宕四丁目9番22号池田ビル2階201号室","lat":35.628657,"lon":139.428953},{"name":"ドリームボックス多摩センター","province":"東京都","city":"多摩市","address":"多摩市山王下1-13-12パールプラザ103","lat":35.62536,"lon":139.419904},{"name":"多摩市立子育て総合センター","province":"東京都","city":"多摩市","address":"多摩市豊ヶ丘1-21-3","lat":35.627768,"lon":139.429841},{"name":"多摩市子ども家庭支援センター","province":"東京都","city":"多摩市","address":"多摩市豊ヶ丘1-21-3","lat":35.62764,"lon":139.42989},{"name":"多摩市子ども家庭支援センター","province":"東京都","city":"多摩市","address":"多摩市豊ヶ丘1-21-3","lat":35.627768,"lon":139.429841},{"name":"遊び・運動療育・学びの場　発達支援教室　アルファーラ聖蹟桜ヶ丘教室","province":"東京都","city":"多摩市","address":"多摩市一ノ宮2-19-27太喜ビル第一1階","lat":35.653096,"lon":139.44345},{"name":"グラシアス聖蹟桜ヶ丘駅前教室","province":"東京都","city":"多摩市","address":"多摩市関戸1-12-4糀屋ビル6階","lat":35.650222,"lon":139.448186},{"name":"キャンビー","province":"東京都","city":"多摩市","address":"多摩市貝取4-3-1-110","lat":35.61459,"lon":139.438525},{"name":"メロディ","province":"東京都","city":"多摩市","address":"多摩市聖ヶ丘二丁目第21街区第3号棟第4号室","lat":35.631336,"lon":139.457585},{"name":"ドリームボックス馬引沢","province":"東京都","city":"多摩市","address":"多摩市馬引沢2-3-9レジデンス永山1階A号室","lat":35.633118,"lon":139.452681},{"name":"ドリームボックス諏訪","province":"東京都","city":"多摩市","address":"多摩市諏訪1-53-2ハウスアメニティ1階B号室","lat":35.629647,"lon":139.454475},{"name":"子どもクラブ","province":"東京都","city":"多摩市","address":"多摩市永山4-2-4-106・206","lat":35.621103,"lon":139.449676},{"name":"くぬぎ","province":"東京都","city":"多摩市","address":"多摩市永山3-9東永山複合施設","lat":35.623381,"lon":139.449454},{"name":"ジョイフル","province":"東京都","city":"多摩市","address":"多摩市永山1-8-17ボヌール永山208","lat":35.631968,"lon":139.44722},{"name":"こどもデイサービス　ラフ","province":"東京都","city":"多摩市","address":"多摩市永山2-14-6アドラブールK店舗B","lat":35.630021,"lon":139.443362},{"name":"発達相談支援センター　ＣＯＲＯＮＯＡＨ","province":"東京都","city":"多摩市","address":"多摩市落合3-17-1、105号","lat":35.616514,"lon":139.430489},{"name":"ドリームボックス鶴牧","province":"東京都","city":"多摩市","address":"多摩市鶴牧2-23-21コンフォート鶴牧1階","lat":35.618233,"lon":139.414282},{"name":"島田療育センター","province":"東京都","city":"多摩市","address":"多摩市中沢1-31-1","lat":35.621988,"lon":139.411496},{"name":"あんふぁん愛宕事業所","province":"東京都","city":"多摩市","address":"多摩市愛宕四丁目9番22号池田ビル2階201号室","lat":35.628657,"lon":139.428953},{"name":"ドリームボックス多摩センター","province":"東京都","city":"多摩市","address":"多摩市山王下1-13-12パールプラザ103","lat":35.62536,"lon":139.419904},{"name":"多摩市立子育て総合センター","province":"東京都","city":"多摩市","address":"多摩市豊ヶ丘1-21-3","lat":35.627768,"lon":139.429841},{"name":"多摩市子ども家庭支援センター","province":"東京都","city":"多摩市","address":"多摩市豊ヶ丘1-21-3","lat":35.62764,"lon":139.42989},{"name":"多摩市子ども家庭支援センター","province":"東京都","city":"多摩市","address":"多摩市豊ヶ丘1-21-3","lat":35.627768,"lon":139.429841}]}