{"keyword":"破損","data":[{"name":"西部地域包括支援センター","province":"東京都","city":"多摩市","address":"多摩市和田1532","lat":35.646027,"lon":139.430664},{"name":"東部地域包括支援センター","province":"東京都","city":"多摩市","address":"多摩市諏訪5-1諏訪複合教育施設内","lat":35.623512,"lon":139.45459},{"name":"多摩センター地域包括支援センター","province":"東京都","city":"多摩市","address":"多摩市山王下1-18-2","lat":35.625328,"lon":139.415207},{"name":"中部地域包括支援センター","province":"東京都","city":"多摩市","address":"多摩市永山4-2-5-105","lat":35.618931,"lon":139.444321},{"name":"北部地域包括支援センター","province":"東京都","city":"多摩市","address":"多摩市関戸4-19-5多摩市立健康センター3階","lat":35.648975,"lon":139.449585},{"name":"基幹型地域包括支援センター（多摩市健康福祉部高齢支援課内）","province":"東京都","city":"多摩市","address":"多摩市関戸6-12-1","lat":35.637653,"lon":139.447174},{"name":"多摩市消費生活センター","province":"東京都","city":"多摩市","address":"多摩市永山1-5ベルブ永山3階","lat":35.649658,"lon":139.444519},{"name":"聖蹟桜ヶ丘駅前","province":"東京都","city":"多摩市","address":"東京都多摩市関戸1丁目11-16","lat":35.65043832,"lon":139.44670028},{"name":"聖蹟桜ヶ丘駅前東","province":"東京都","city":"多摩市","address":"東京都多摩市関戸1丁目12-5","lat":35.65013562,"lon":139.44821959},{"name":"新大栗橋","province":"東京都","city":"多摩市","address":"東京都多摩市関戸4丁目10","lat":35.64784988,"lon":139.45292481},{"name":"宝蔵橋","province":"東京都","city":"多摩市","address":"東京都多摩市和田1760-4","lat":35.64854107,"lon":139.43706229},{"name":"諏訪下橋","province":"東京都","city":"多摩市","address":"東京都多摩市貝取1506","lat":35.63534013,"lon":139.44802291},{"name":"永山橋","province":"東京都","city":"多摩市","address":"東京都多摩市乞田1431","lat":35.63512344,"lon":139.4463064},{"name":"多摩消防署前","province":"東京都","city":"多摩市","address":"東京都多摩市永山1丁目2","lat":35.63254878,"lon":139.4473453},{"name":"多摩市役所前","province":"東京都","city":"多摩市","address":"東京都多摩市関戸6丁目13","lat":35.63723988,"lon":139.44764788},{"name":"多摩山王橋南","province":"東京都","city":"多摩市","address":"東京都多摩市落合1丁目9-1","lat":35.62532124,"lon":139.42357823},{"name":"多摩センター駅東","province":"東京都","city":"多摩市","address":"東京都多摩市落合1丁目39-2","lat":35.62459638,"lon":139.4256003},{"name":"多摩センター駅前","province":"東京都","city":"多摩市","address":"東京都多摩市落合1丁目39-1","lat":35.62484357,"lon":139.42555308},{"name":"東電多摩営業所前","province":"東京都","city":"多摩市","address":"東京都多摩市落合1丁目8-4","lat":35.62592121,"lon":139.4253225},{"name":"多摩南部地域病院","province":"東京都","city":"多摩市","address":"東京都多摩市中沢2丁目3-3","lat":35.62247975,"lon":139.41650948},{"name":"多摩中央警察署東","province":"東京都","city":"多摩市","address":"東京都多摩市落合1丁目","lat":35.62318834,"lon":139.43004441},{"name":"多摩保健所前","province":"東京都","city":"多摩市","address":"東京都多摩市永山5丁目5","lat":35.61893655,"lon":139.44431836},{"name":"多摩鶴牧二丁目","province":"東京都","city":"多摩市","address":"東京都多摩市鶴牧1丁目25-1","lat":35.62169382,"lon":139.42006478},{"name":"多摩鶴牧六丁目","province":"東京都","city":"多摩市","address":"東京都多摩市鶴牧6丁目5","lat":35.61383074,"lon":139.41356009},{"name":"多摩青木葉","province":"東京都","city":"多摩市","address":"東京都多摩市落合3丁目5-2","lat":35.62176632,"lon":139.43086662},{"name":"聖蹟桜ヶ丘駅東口","province":"東京都","city":"多摩市","address":"東京都多摩市関戸2丁目41-1","lat":35.65105496,"lon":139.4484001},{"name":"多摩桜の丘学園前","province":"東京都","city":"多摩市","address":"東京都多摩市聖ヶ丘2丁目23","lat":35.6313992,"lon":139.45668896},{"name":"聖ヶ丘一丁目","province":"東京都","city":"多摩市","address":"東京都多摩市聖ヶ丘1丁目","lat":35.63897034,"lon":139.4516308},{"name":"多摩市総合福祉センター前","province":"東京都","city":"多摩市","address":"東京都多摩市南野3丁目15","lat":35.6122226,"lon":139.41298243},{"name":"聖蹟桜ヶ丘駅西口","province":"東京都","city":"多摩市","address":"東京都多摩市関戸1丁目1-5","lat":35.65178259,"lon":139.44601416},{"name":"唐木田駅東","province":"東京都","city":"多摩市","address":"東京都多摩市鶴牧2丁目25-1","lat":35.61624987,"lon":139.41246008},{"name":"鶴牧中学校前","province":"東京都","city":"多摩市","address":"東京都多摩市鶴牧6丁目3","lat":35.61428908,"lon":139.41615986},{"name":"永山駅北","province":"東京都","city":"多摩市","address":"東京都多摩市永山1丁目8-17","lat":35.63195163,"lon":139.44723145},{"name":"熊野橋南","province":"東京都","city":"多摩市","address":"東京都多摩市聖ヶ丘1丁目9","lat":35.63859267,"lon":139.45387506},{"name":"落合浄水所","province":"東京都","city":"多摩市","address":"東京都多摩市中沢1丁目12","lat":35.62444889,"lon":139.41365963},{"name":"愛宕配水所","province":"東京都","city":"多摩市","address":"東京都多摩市愛宕2丁目51","lat":35.63483719,"lon":139.43953479},{"name":"南野給水所","province":"東京都","city":"多摩市","address":"東京都多摩市南野2丁目16","lat":35.60863738,"lon":139.43101436},{"name":"聖ヶ丘給水所","province":"東京都","city":"多摩市","address":"東京都多摩市聖ヶ丘4丁目1","lat":35.62952201,"lon":139.46372188},{"name":"西部地域包括支援センター","province":"東京都","city":"多摩市","address":"多摩市和田1532","lat":35.646027,"lon":139.430664},{"name":"東部地域包括支援センター","province":"東京都","city":"多摩市","address":"多摩市諏訪5-1諏訪複合教育施設内","lat":35.623512,"lon":139.45459},{"name":"多摩センター地域包括支援センター","province":"東京都","city":"多摩市","address":"多摩市山王下1-18-2","lat":35.625328,"lon":139.415207},{"name":"中部地域包括支援センター","province":"東京都","city":"多摩市","address":"多摩市永山4-2-5-105","lat":35.618931,"lon":139.444321},{"name":"北部地域包括支援センター","province":"東京都","city":"多摩市","address":"多摩市関戸4-19-5多摩市立健康センター3階","lat":35.648975,"lon":139.449585},{"name":"基幹型地域包括支援センター（多摩市健康福祉部高齢支援課内）","province":"東京都","city":"多摩市","address":"多摩市関戸6-12-1","lat":35.637653,"lon":139.447174},{"name":"多摩市消費生活センター","province":"東京都","city":"多摩市","address":"多摩市永山1-5ベルブ永山3階","lat":35.649658,"lon":139.444519},{"name":"聖蹟桜ヶ丘駅前","province":"東京都","city":"多摩市","address":"東京都多摩市関戸1丁目11-16","lat":35.65043832,"lon":139.44670028},{"name":"聖蹟桜ヶ丘駅前東","province":"東京都","city":"多摩市","address":"東京都多摩市関戸1丁目12-5","lat":35.65013562,"lon":139.44821959},{"name":"新大栗橋","province":"東京都","city":"多摩市","address":"東京都多摩市関戸4丁目10","lat":35.64784988,"lon":139.45292481},{"name":"宝蔵橋","province":"東京都","city":"多摩市","address":"東京都多摩市和田1760-4","lat":35.64854107,"lon":139.43706229},{"name":"諏訪下橋","province":"東京都","city":"多摩市","address":"東京都多摩市貝取1506","lat":35.63534013,"lon":139.44802291},{"name":"永山橋","province":"東京都","city":"多摩市","address":"東京都多摩市乞田1431","lat":35.63512344,"lon":139.4463064},{"name":"多摩消防署前","province":"東京都","city":"多摩市","address":"東京都多摩市永山1丁目2","lat":35.63254878,"lon":139.4473453},{"name":"多摩市役所前","province":"東京都","city":"多摩市","address":"東京都多摩市関戸6丁目13","lat":35.63723988,"lon":139.44764788},{"name":"多摩山王橋南","province":"東京都","city":"多摩市","address":"東京都多摩市落合1丁目9-1","lat":35.62532124,"lon":139.42357823},{"name":"多摩センター駅東","province":"東京都","city":"多摩市","address":"東京都多摩市落合1丁目39-2","lat":35.62459638,"lon":139.4256003},{"name":"多摩センター駅前","province":"東京都","city":"多摩市","address":"東京都多摩市落合1丁目39-1","lat":35.62484357,"lon":139.42555308},{"name":"東電多摩営業所前","province":"東京都","city":"多摩市","address":"東京都多摩市落合1丁目8-4","lat":35.62592121,"lon":139.4253225},{"name":"多摩南部地域病院","province":"東京都","city":"多摩市","address":"東京都多摩市中沢2丁目3-3","lat":35.62247975,"lon":139.41650948},{"name":"多摩中央警察署東","province":"東京都","city":"多摩市","address":"東京都多摩市落合1丁目","lat":35.62318834,"lon":139.43004441},{"name":"多摩保健所前","province":"東京都","city":"多摩市","address":"東京都多摩市永山5丁目5","lat":35.61893655,"lon":139.44431836},{"name":"多摩鶴牧二丁目","province":"東京都","city":"多摩市","address":"東京都多摩市鶴牧1丁目25-1","lat":35.62169382,"lon":139.42006478},{"name":"多摩鶴牧六丁目","province":"東京都","city":"多摩市","address":"東京都多摩市鶴牧6丁目5","lat":35.61383074,"lon":139.41356009},{"name":"多摩青木葉","province":"東京都","city":"多摩市","address":"東京都多摩市落合3丁目5-2","lat":35.62176632,"lon":139.43086662},{"name":"聖蹟桜ヶ丘駅東口","province":"東京都","city":"多摩市","address":"東京都多摩市関戸2丁目41-1","lat":35.65105496,"lon":139.4484001},{"name":"多摩桜の丘学園前","province":"東京都","city":"多摩市","address":"東京都多摩市聖ヶ丘2丁目23","lat":35.6313992,"lon":139.45668896},{"name":"聖ヶ丘一丁目","province":"東京都","city":"多摩市","address":"東京都多摩市聖ヶ丘1丁目","lat":35.63897034,"lon":139.4516308},{"name":"多摩市総合福祉センター前","province":"東京都","city":"多摩市","address":"東京都多摩市南野3丁目15","lat":35.6122226,"lon":139.41298243},{"name":"聖蹟桜ヶ丘駅西口","province":"東京都","city":"多摩市","address":"東京都多摩市関戸1丁目1-5","lat":35.65178259,"lon":139.44601416},{"name":"唐木田駅東","province":"東京都","city":"多摩市","address":"東京都多摩市鶴牧2丁目25-1","lat":35.61624987,"lon":139.41246008},{"name":"鶴牧中学校前","province":"東京都","city":"多摩市","address":"東京都多摩市鶴牧6丁目3","lat":35.61428908,"lon":139.41615986},{"name":"永山駅北","province":"東京都","city":"多摩市","address":"東京都多摩市永山1丁目8-17","lat":35.63195163,"lon":139.44723145},{"name":"熊野橋南","province":"東京都","city":"多摩市","address":"東京都多摩市聖ヶ丘1丁目9","lat":35.63859267,"lon":139.45387506},{"name":"落合浄水所","province":"東京都","city":"多摩市","address":"東京都多摩市中沢1丁目12","lat":35.62444889,"lon":139.41365963},{"name":"愛宕配水所","province":"東京都","city":"多摩市","address":"東京都多摩市愛宕2丁目51","lat":35.63483719,"lon":139.43953479},{"name":"南野給水所","province":"東京都","city":"多摩市","address":"東京都多摩市南野2丁目16","lat":35.60863738,"lon":139.43101436},{"name":"聖ヶ丘給水所","province":"東京都","city":"多摩市","address":"東京都多摩市聖ヶ丘4丁目1","lat":35.62952201,"lon":139.46372188},{"name":"西部地域包括支援センター","province":"東京都","city":"多摩市","address":"多摩市和田1532","lat":35.646027,"lon":139.430664},{"name":"東部地域包括支援センター","province":"東京都","city":"多摩市","address":"多摩市諏訪5-1諏訪複合教育施設内","lat":35.623512,"lon":139.45459},{"name":"多摩センター地域包括支援センター","province":"東京都","city":"多摩市","address":"多摩市山王下1-18-2","lat":35.625328,"lon":139.415207},{"name":"中部地域包括支援センター","province":"東京都","city":"多摩市","address":"多摩市永山4-2-5-105","lat":35.618931,"lon":139.444321},{"name":"北部地域包括支援センター","province":"東京都","city":"多摩市","address":"多摩市関戸4-19-5多摩市立健康センター3階","lat":35.648975,"lon":139.449585},{"name":"基幹型地域包括支援センター（多摩市健康福祉部高齢支援課内）","province":"東京都","city":"多摩市","address":"多摩市関戸6-12-1","lat":35.637653,"lon":139.447174},{"name":"多摩市消費生活センター","province":"東京都","city":"多摩市","address":"多摩市永山1-5ベルブ永山3階","lat":35.649658,"lon":139.444519},{"name":"聖蹟桜ヶ丘駅前","province":"東京都","city":"多摩市","address":"東京都多摩市関戸1丁目11-16","lat":35.65043832,"lon":139.44670028},{"name":"聖蹟桜ヶ丘駅前東","province":"東京都","city":"多摩市","address":"東京都多摩市関戸1丁目12-5","lat":35.65013562,"lon":139.44821959},{"name":"新大栗橋","province":"東京都","city":"多摩市","address":"東京都多摩市関戸4丁目10","lat":35.64784988,"lon":139.45292481},{"name":"宝蔵橋","province":"東京都","city":"多摩市","address":"東京都多摩市和田1760-4","lat":35.64854107,"lon":139.43706229},{"name":"諏訪下橋","province":"東京都","city":"多摩市","address":"東京都多摩市貝取1506","lat":35.63534013,"lon":139.44802291},{"name":"永山橋","province":"東京都","city":"多摩市","address":"東京都多摩市乞田1431","lat":35.63512344,"lon":139.4463064},{"name":"多摩消防署前","province":"東京都","city":"多摩市","address":"東京都多摩市永山1丁目2","lat":35.63254878,"lon":139.4473453},{"name":"多摩市役所前","province":"東京都","city":"多摩市","address":"東京都多摩市関戸6丁目13","lat":35.63723988,"lon":139.44764788},{"name":"多摩山王橋南","province":"東京都","city":"多摩市","address":"東京都多摩市落合1丁目9-1","lat":35.62532124,"lon":139.42357823},{"name":"多摩センター駅東","province":"東京都","city":"多摩市","address":"東京都多摩市落合1丁目39-2","lat":35.62459638,"lon":139.4256003},{"name":"多摩センター駅前","province":"東京都","city":"多摩市","address":"東京都多摩市落合1丁目39-1","lat":35.62484357,"lon":139.42555308},{"name":"東電多摩営業所前","province":"東京都","city":"多摩市","address":"東京都多摩市落合1丁目8-4","lat":35.62592121,"lon":139.4253225},{"name":"多摩南部地域病院","province":"東京都","city":"多摩市","address":"東京都多摩市中沢2丁目3-3","lat":35.62247975,"lon":139.41650948},{"name":"多摩中央警察署東","province":"東京都","city":"多摩市","address":"東京都多摩市落合1丁目","lat":35.62318834,"lon":139.43004441},{"name":"多摩保健所前","province":"東京都","city":"多摩市","address":"東京都多摩市永山5丁目5","lat":35.61893655,"lon":139.44431836},{"name":"多摩鶴牧二丁目","province":"東京都","city":"多摩市","address":"東京都多摩市鶴牧1丁目25-1","lat":35.62169382,"lon":139.42006478},{"name":"多摩鶴牧六丁目","province":"東京都","city":"多摩市","address":"東京都多摩市鶴牧6丁目5","lat":35.61383074,"lon":139.41356009},{"name":"多摩青木葉","province":"東京都","city":"多摩市","address":"東京都多摩市落合3丁目5-2","lat":35.62176632,"lon":139.43086662},{"name":"聖蹟桜ヶ丘駅東口","province":"東京都","city":"多摩市","address":"東京都多摩市関戸2丁目41-1","lat":35.65105496,"lon":139.4484001},{"name":"多摩桜の丘学園前","province":"東京都","city":"多摩市","address":"東京都多摩市聖ヶ丘2丁目23","lat":35.6313992,"lon":139.45668896},{"name":"聖ヶ丘一丁目","province":"東京都","city":"多摩市","address":"東京都多摩市聖ヶ丘1丁目","lat":35.63897034,"lon":139.4516308},{"name":"多摩市総合福祉センター前","province":"東京都","city":"多摩市","address":"東京都多摩市南野3丁目15","lat":35.6122226,"lon":139.41298243},{"name":"聖蹟桜ヶ丘駅西口","province":"東京都","city":"多摩市","address":"東京都多摩市関戸1丁目1-5","lat":35.65178259,"lon":139.44601416},{"name":"唐木田駅東","province":"東京都","city":"多摩市","address":"東京都多摩市鶴牧2丁目25-1","lat":35.61624987,"lon":139.41246008},{"name":"鶴牧中学校前","province":"東京都","city":"多摩市","address":"東京都多摩市鶴牧6丁目3","lat":35.61428908,"lon":139.41615986},{"name":"永山駅北","province":"東京都","city":"多摩市","address":"東京都多摩市永山1丁目8-17","lat":35.63195163,"lon":139.44723145},{"name":"熊野橋南","province":"東京都","city":"多摩市","address":"東京都多摩市聖ヶ丘1丁目9","lat":35.63859267,"lon":139.45387506},{"name":"落合浄水所","province":"東京都","city":"多摩市","address":"東京都多摩市中沢1丁目12","lat":35.62444889,"lon":139.41365963},{"name":"愛宕配水所","province":"東京都","city":"多摩市","address":"東京都多摩市愛宕2丁目51","lat":35.63483719,"lon":139.43953479},{"name":"南野給水所","province":"東京都","city":"多摩市","address":"東京都多摩市南野2丁目16","lat":35.60863738,"lon":139.43101436},{"name":"聖ヶ丘給水所","province":"東京都","city":"多摩市","address":"東京都多摩市聖ヶ丘4丁目1","lat":35.62952201,"lon":139.46372188},{"name":"西部地域包括支援センター","province":"東京都","city":"多摩市","address":"多摩市和田1532","lat":35.646027,"lon":139.430664},{"name":"東部地域包括支援センター","province":"東京都","city":"多摩市","address":"多摩市諏訪5-1諏訪複合教育施設内","lat":35.623512,"lon":139.45459},{"name":"多摩センター地域包括支援センター","province":"東京都","city":"多摩市","address":"多摩市山王下1-18-2","lat":35.625328,"lon":139.415207},{"name":"中部地域包括支援センター","province":"東京都","city":"多摩市","address":"多摩市永山4-2-5-105","lat":35.618931,"lon":139.444321},{"name":"北部地域包括支援センター","province":"東京都","city":"多摩市","address":"多摩市関戸4-19-5多摩市立健康センター3階","lat":35.648975,"lon":139.449585},{"name":"基幹型地域包括支援センター（多摩市健康福祉部高齢支援課内）","province":"東京都","city":"多摩市","address":"多摩市関戸6-12-1","lat":35.637653,"lon":139.447174},{"name":"多摩市消費生活センター","province":"東京都","city":"多摩市","address":"多摩市永山1-5ベルブ永山3階","lat":35.649658,"lon":139.444519},{"name":"聖蹟桜ヶ丘駅前","province":"東京都","city":"多摩市","address":"東京都多摩市関戸1丁目11-16","lat":35.65043832,"lon":139.44670028},{"name":"聖蹟桜ヶ丘駅前東","province":"東京都","city":"多摩市","address":"東京都多摩市関戸1丁目12-5","lat":35.65013562,"lon":139.44821959},{"name":"新大栗橋","province":"東京都","city":"多摩市","address":"東京都多摩市関戸4丁目10","lat":35.64784988,"lon":139.45292481},{"name":"宝蔵橋","province":"東京都","city":"多摩市","address":"東京都多摩市和田1760-4","lat":35.64854107,"lon":139.43706229},{"name":"諏訪下橋","province":"東京都","city":"多摩市","address":"東京都多摩市貝取1506","lat":35.63534013,"lon":139.44802291},{"name":"永山橋","province":"東京都","city":"多摩市","address":"東京都多摩市乞田1431","lat":35.63512344,"lon":139.4463064},{"name":"多摩消防署前","province":"東京都","city":"多摩市","address":"東京都多摩市永山1丁目2","lat":35.63254878,"lon":139.4473453},{"name":"多摩市役所前","province":"東京都","city":"多摩市","address":"東京都多摩市関戸6丁目13","lat":35.63723988,"lon":139.44764788},{"name":"多摩山王橋南","province":"東京都","city":"多摩市","address":"東京都多摩市落合1丁目9-1","lat":35.62532124,"lon":139.42357823},{"name":"多摩センター駅東","province":"東京都","city":"多摩市","address":"東京都多摩市落合1丁目39-2","lat":35.62459638,"lon":139.4256003},{"name":"多摩センター駅前","province":"東京都","city":"多摩市","address":"東京都多摩市落合1丁目39-1","lat":35.62484357,"lon":139.42555308},{"name":"東電多摩営業所前","province":"東京都","city":"多摩市","address":"東京都多摩市落合1丁目8-4","lat":35.62592121,"lon":139.4253225},{"name":"多摩南部地域病院","province":"東京都","city":"多摩市","address":"東京都多摩市中沢2丁目3-3","lat":35.62247975,"lon":139.41650948},{"name":"多摩中央警察署東","province":"東京都","city":"多摩市","address":"東京都多摩市落合1丁目","lat":35.62318834,"lon":139.43004441},{"name":"多摩保健所前","province":"東京都","city":"多摩市","address":"東京都多摩市永山5丁目5","lat":35.61893655,"lon":139.44431836},{"name":"多摩鶴牧二丁目","province":"東京都","city":"多摩市","address":"東京都多摩市鶴牧1丁目25-1","lat":35.62169382,"lon":139.42006478},{"name":"多摩鶴牧六丁目","province":"東京都","city":"多摩市","address":"東京都多摩市鶴牧6丁目5","lat":35.61383074,"lon":139.41356009},{"name":"多摩青木葉","province":"東京都","city":"多摩市","address":"東京都多摩市落合3丁目5-2","lat":35.62176632,"lon":139.43086662},{"name":"聖蹟桜ヶ丘駅東口","province":"東京都","city":"多摩市","address":"東京都多摩市関戸2丁目41-1","lat":35.65105496,"lon":139.4484001},{"name":"多摩桜の丘学園前","province":"東京都","city":"多摩市","address":"東京都多摩市聖ヶ丘2丁目23","lat":35.6313992,"lon":139.45668896},{"name":"聖ヶ丘一丁目","province":"東京都","city":"多摩市","address":"東京都多摩市聖ヶ丘1丁目","lat":35.63897034,"lon":139.4516308},{"name":"多摩市総合福祉センター前","province":"東京都","city":"多摩市","address":"東京都多摩市南野3丁目15","lat":35.6122226,"lon":139.41298243},{"name":"聖蹟桜ヶ丘駅西口","province":"東京都","city":"多摩市","address":"東京都多摩市関戸1丁目1-5","lat":35.65178259,"lon":139.44601416},{"name":"唐木田駅東","province":"東京都","city":"多摩市","address":"東京都多摩市鶴牧2丁目25-1","lat":35.61624987,"lon":139.41246008},{"name":"鶴牧中学校前","province":"東京都","city":"多摩市","address":"東京都多摩市鶴牧6丁目3","lat":35.61428908,"lon":139.41615986},{"name":"永山駅北","province":"東京都","city":"多摩市","address":"東京都多摩市永山1丁目8-17","lat":35.63195163,"lon":139.44723145},{"name":"熊野橋南","province":"東京都","city":"多摩市","address":"東京都多摩市聖ヶ丘1丁目9","lat":35.63859267,"lon":139.45387506},{"name":"落合浄水所","province":"東京都","city":"多摩市","address":"東京都多摩市中沢1丁目12","lat":35.62444889,"lon":139.41365963},{"name":"愛宕配水所","province":"東京都","city":"多摩市","address":"東京都多摩市愛宕2丁目51","lat":35.63483719,"lon":139.43953479},{"name":"南野給水所","province":"東京都","city":"多摩市","address":"東京都多摩市南野2丁目16","lat":35.60863738,"lon":139.43101436},{"name":"聖ヶ丘給水所","province":"東京都","city":"多摩市","address":"東京都多摩市聖ヶ丘4丁目1","lat":35.62952201,"lon":139.46372188},{"name":"西部地域包括支援センター","province":"東京都","city":"多摩市","address":"多摩市和田1532","lat":35.646027,"lon":139.430664},{"name":"東部地域包括支援センター","province":"東京都","city":"多摩市","address":"多摩市諏訪5-1諏訪複合教育施設内","lat":35.623512,"lon":139.45459},{"name":"多摩センター地域包括支援センター","province":"東京都","city":"多摩市","address":"多摩市山王下1-18-2","lat":35.625328,"lon":139.415207},{"name":"中部地域包括支援センター","province":"東京都","city":"多摩市","address":"多摩市永山4-2-5-105","lat":35.618931,"lon":139.444321},{"name":"北部地域包括支援センター","province":"東京都","city":"多摩市","address":"多摩市関戸4-19-5多摩市立健康センター3階","lat":35.648975,"lon":139.449585},{"name":"基幹型地域包括支援センター（多摩市健康福祉部高齢支援課内）","province":"東京都","city":"多摩市","address":"多摩市関戸6-12-1","lat":35.637653,"lon":139.447174},{"name":"多摩市消費生活センター","province":"東京都","city":"多摩市","address":"多摩市永山1-5ベルブ永山3階","lat":35.649658,"lon":139.444519},{"name":"聖蹟桜ヶ丘駅前","province":"東京都","city":"多摩市","address":"東京都多摩市関戸1丁目11-16","lat":35.65043832,"lon":139.44670028},{"name":"聖蹟桜ヶ丘駅前東","province":"東京都","city":"多摩市","address":"東京都多摩市関戸1丁目12-5","lat":35.65013562,"lon":139.44821959},{"name":"新大栗橋","province":"東京都","city":"多摩市","address":"東京都多摩市関戸4丁目10","lat":35.64784988,"lon":139.45292481},{"name":"宝蔵橋","province":"東京都","city":"多摩市","address":"東京都多摩市和田1760-4","lat":35.64854107,"lon":139.43706229},{"name":"諏訪下橋","province":"東京都","city":"多摩市","address":"東京都多摩市貝取1506","lat":35.63534013,"lon":139.44802291},{"name":"永山橋","province":"東京都","city":"多摩市","address":"東京都多摩市乞田1431","lat":35.63512344,"lon":139.4463064},{"name":"多摩消防署前","province":"東京都","city":"多摩市","address":"東京都多摩市永山1丁目2","lat":35.63254878,"lon":139.4473453},{"name":"多摩市役所前","province":"東京都","city":"多摩市","address":"東京都多摩市関戸6丁目13","lat":35.63723988,"lon":139.44764788},{"name":"多摩山王橋南","province":"東京都","city":"多摩市","address":"東京都多摩市落合1丁目9-1","lat":35.62532124,"lon":139.42357823},{"name":"多摩センター駅東","province":"東京都","city":"多摩市","address":"東京都多摩市落合1丁目39-2","lat":35.62459638,"lon":139.4256003},{"name":"多摩センター駅前","province":"東京都","city":"多摩市","address":"東京都多摩市落合1丁目39-1","lat":35.62484357,"lon":139.42555308},{"name":"東電多摩営業所前","province":"東京都","city":"多摩市","address":"東京都多摩市落合1丁目8-4","lat":35.62592121,"lon":139.4253225},{"name":"多摩南部地域病院","province":"東京都","city":"多摩市","address":"東京都多摩市中沢2丁目3-3","lat":35.62247975,"lon":139.41650948},{"name":"多摩中央警察署東","province":"東京都","city":"多摩市","address":"東京都多摩市落合1丁目","lat":35.62318834,"lon":139.43004441},{"name":"多摩保健所前","province":"東京都","city":"多摩市","address":"東京都多摩市永山5丁目5","lat":35.61893655,"lon":139.44431836},{"name":"多摩鶴牧二丁目","province":"東京都","city":"多摩市","address":"東京都多摩市鶴牧1丁目25-1","lat":35.62169382,"lon":139.42006478},{"name":"多摩鶴牧六丁目","province":"東京都","city":"多摩市","address":"東京都多摩市鶴牧6丁目5","lat":35.61383074,"lon":139.41356009},{"name":"多摩青木葉","province":"東京都","city":"多摩市","address":"東京都多摩市落合3丁目5-2","lat":35.62176632,"lon":139.43086662},{"name":"聖蹟桜ヶ丘駅東口","province":"東京都","city":"多摩市","address":"東京都多摩市関戸2丁目41-1","lat":35.65105496,"lon":139.4484001},{"name":"多摩桜の丘学園前","province":"東京都","city":"多摩市","address":"東京都多摩市聖ヶ丘2丁目23","lat":35.6313992,"lon":139.45668896},{"name":"聖ヶ丘一丁目","province":"東京都","city":"多摩市","address":"東京都多摩市聖ヶ丘1丁目","lat":35.63897034,"lon":139.4516308},{"name":"多摩市総合福祉センター前","province":"東京都","city":"多摩市","address":"東京都多摩市南野3丁目15","lat":35.6122226,"lon":139.41298243},{"name":"聖蹟桜ヶ丘駅西口","province":"東京都","city":"多摩市","address":"東京都多摩市関戸1丁目1-5","lat":35.65178259,"lon":139.44601416},{"name":"唐木田駅東","province":"東京都","city":"多摩市","address":"東京都多摩市鶴牧2丁目25-1","lat":35.61624987,"lon":139.41246008},{"name":"鶴牧中学校前","province":"東京都","city":"多摩市","address":"東京都多摩市鶴牧6丁目3","lat":35.61428908,"lon":139.41615986},{"name":"永山駅北","province":"東京都","city":"多摩市","address":"東京都多摩市永山1丁目8-17","lat":35.63195163,"lon":139.44723145},{"name":"熊野橋南","province":"東京都","city":"多摩市","address":"東京都多摩市聖ヶ丘1丁目9","lat":35.63859267,"lon":139.45387506},{"name":"落合浄水所","province":"東京都","city":"多摩市","address":"東京都多摩市中沢1丁目12","lat":35.62444889,"lon":139.41365963},{"name":"愛宕配水所","province":"東京都","city":"多摩市","address":"東京都多摩市愛宕2丁目51","lat":35.63483719,"lon":139.43953479},{"name":"南野給水所","province":"東京都","city":"多摩市","address":"東京都多摩市南野2丁目16","lat":35.60863738,"lon":139.43101436},{"name":"聖ヶ丘給水所","province":"東京都","city":"多摩市","address":"東京都多摩市聖ヶ丘4丁目1","lat":35.62952201,"lon":139.46372188},{"name":"西部地域包括支援センター","province":"東京都","city":"多摩市","address":"多摩市和田1532","lat":35.646027,"lon":139.430664},{"name":"東部地域包括支援センター","province":"東京都","city":"多摩市","address":"多摩市諏訪5-1諏訪複合教育施設内","lat":35.623512,"lon":139.45459},{"name":"多摩センター地域包括支援センター","province":"東京都","city":"多摩市","address":"多摩市山王下1-18-2","lat":35.625328,"lon":139.415207},{"name":"中部地域包括支援センター","province":"東京都","city":"多摩市","address":"多摩市永山4-2-5-105","lat":35.618931,"lon":139.444321},{"name":"北部地域包括支援センター","province":"東京都","city":"多摩市","address":"多摩市関戸4-19-5多摩市立健康センター3階","lat":35.648975,"lon":139.449585},{"name":"基幹型地域包括支援センター（多摩市健康福祉部高齢支援課内）","province":"東京都","city":"多摩市","address":"多摩市関戸6-12-1","lat":35.637653,"lon":139.447174},{"name":"多摩市消費生活センター","province":"東京都","city":"多摩市","address":"多摩市永山1-5ベルブ永山3階","lat":35.649658,"lon":139.444519},{"name":"聖蹟桜ヶ丘駅前","province":"東京都","city":"多摩市","address":"東京都多摩市関戸1丁目11-16","lat":35.65043832,"lon":139.44670028},{"name":"聖蹟桜ヶ丘駅前東","province":"東京都","city":"多摩市","address":"東京都多摩市関戸1丁目12-5","lat":35.65013562,"lon":139.44821959},{"name":"新大栗橋","province":"東京都","city":"多摩市","address":"東京都多摩市関戸4丁目10","lat":35.64784988,"lon":139.45292481},{"name":"宝蔵橋","province":"東京都","city":"多摩市","address":"東京都多摩市和田1760-4","lat":35.64854107,"lon":139.43706229},{"name":"諏訪下橋","province":"東京都","city":"多摩市","address":"東京都多摩市貝取1506","lat":35.63534013,"lon":139.44802291},{"name":"永山橋","province":"東京都","city":"多摩市","address":"東京都多摩市乞田1431","lat":35.63512344,"lon":139.4463064},{"name":"多摩消防署前","province":"東京都","city":"多摩市","address":"東京都多摩市永山1丁目2","lat":35.63254878,"lon":139.4473453},{"name":"多摩市役所前","province":"東京都","city":"多摩市","address":"東京都多摩市関戸6丁目13","lat":35.63723988,"lon":139.44764788},{"name":"多摩山王橋南","province":"東京都","city":"多摩市","address":"東京都多摩市落合1丁目9-1","lat":35.62532124,"lon":139.42357823},{"name":"多摩センター駅東","province":"東京都","city":"多摩市","address":"東京都多摩市落合1丁目39-2","lat":35.62459638,"lon":139.4256003},{"name":"多摩センター駅前","province":"東京都","city":"多摩市","address":"東京都多摩市落合1丁目39-1","lat":35.62484357,"lon":139.42555308},{"name":"東電多摩営業所前","province":"東京都","city":"多摩市","address":"東京都多摩市落合1丁目8-4","lat":35.62592121,"lon":139.4253225},{"name":"多摩南部地域病院","province":"東京都","city":"多摩市","address":"東京都多摩市中沢2丁目3-3","lat":35.62247975,"lon":139.41650948},{"name":"多摩中央警察署東","province":"東京都","city":"多摩市","address":"東京都多摩市落合1丁目","lat":35.62318834,"lon":139.43004441},{"name":"多摩保健所前","province":"東京都","city":"多摩市","address":"東京都多摩市永山5丁目5","lat":35.61893655,"lon":139.44431836},{"name":"多摩鶴牧二丁目","province":"東京都","city":"多摩市","address":"東京都多摩市鶴牧1丁目25-1","lat":35.62169382,"lon":139.42006478},{"name":"多摩鶴牧六丁目","province":"東京都","city":"多摩市","address":"東京都多摩市鶴牧6丁目5","lat":35.61383074,"lon":139.41356009},{"name":"多摩青木葉","province":"東京都","city":"多摩市","address":"東京都多摩市落合3丁目5-2","lat":35.62176632,"lon":139.43086662},{"name":"聖蹟桜ヶ丘駅東口","province":"東京都","city":"多摩市","address":"東京都多摩市関戸2丁目41-1","lat":35.65105496,"lon":139.4484001},{"name":"多摩桜の丘学園前","province":"東京都","city":"多摩市","address":"東京都多摩市聖ヶ丘2丁目23","lat":35.6313992,"lon":139.45668896},{"name":"聖ヶ丘一丁目","province":"東京都","city":"多摩市","address":"東京都多摩市聖ヶ丘1丁目","lat":35.63897034,"lon":139.4516308},{"name":"多摩市総合福祉センター前","province":"東京都","city":"多摩市","address":"東京都多摩市南野3丁目15","lat":35.6122226,"lon":139.41298243},{"name":"聖蹟桜ヶ丘駅西口","province":"東京都","city":"多摩市","address":"東京都多摩市関戸1丁目1-5","lat":35.65178259,"lon":139.44601416},{"name":"唐木田駅東","province":"東京都","city":"多摩市","address":"東京都多摩市鶴牧2丁目25-1","lat":35.61624987,"lon":139.41246008},{"name":"鶴牧中学校前","province":"東京都","city":"多摩市","address":"東京都多摩市鶴牧6丁目3","lat":35.61428908,"lon":139.41615986},{"name":"永山駅北","province":"東京都","city":"多摩市","address":"東京都多摩市永山1丁目8-17","lat":35.63195163,"lon":139.44723145},{"name":"熊野橋南","province":"東京都","city":"多摩市","address":"東京都多摩市聖ヶ丘1丁目9","lat":35.63859267,"lon":139.45387506},{"name":"落合浄水所","province":"東京都","city":"多摩市","address":"東京都多摩市中沢1丁目12","lat":35.62444889,"lon":139.41365963},{"name":"愛宕配水所","province":"東京都","city":"多摩市","address":"東京都多摩市愛宕2丁目51","lat":35.63483719,"lon":139.43953479},{"name":"南野給水所","province":"東京都","city":"多摩市","address":"東京都多摩市南野2丁目16","lat":35.60863738,"lon":139.43101436},{"name":"聖ヶ丘給水所","province":"東京都","city":"多摩市","address":"東京都多摩市聖ヶ丘4丁目1","lat":35.62952201,"lon":139.46372188},{"name":"西部地域包括支援センター","province":"東京都","city":"多摩市","address":"多摩市和田1532","lat":35.646027,"lon":139.430664},{"name":"東部地域包括支援センター","province":"東京都","city":"多摩市","address":"多摩市諏訪5-1諏訪複合教育施設内","lat":35.623512,"lon":139.45459},{"name":"多摩センター地域包括支援センター","province":"東京都","city":"多摩市","address":"多摩市山王下1-18-2","lat":35.625328,"lon":139.415207},{"name":"中部地域包括支援センター","province":"東京都","city":"多摩市","address":"多摩市永山4-2-5-105","lat":35.618931,"lon":139.444321},{"name":"北部地域包括支援センター","province":"東京都","city":"多摩市","address":"多摩市関戸4-19-5多摩市立健康センター3階","lat":35.648975,"lon":139.449585},{"name":"基幹型地域包括支援センター（多摩市健康福祉部高齢支援課内）","province":"東京都","city":"多摩市","address":"多摩市関戸6-12-1","lat":35.637653,"lon":139.447174},{"name":"多摩市消費生活センター","province":"東京都","city":"多摩市","address":"多摩市永山1-5ベルブ永山3階","lat":35.649658,"lon":139.444519},{"name":"聖蹟桜ヶ丘駅前","province":"東京都","city":"多摩市","address":"東京都多摩市関戸1丁目11-16","lat":35.65043832,"lon":139.44670028},{"name":"聖蹟桜ヶ丘駅前東","province":"東京都","city":"多摩市","address":"東京都多摩市関戸1丁目12-5","lat":35.65013562,"lon":139.44821959},{"name":"新大栗橋","province":"東京都","city":"多摩市","address":"東京都多摩市関戸4丁目10","lat":35.64784988,"lon":139.45292481},{"name":"宝蔵橋","province":"東京都","city":"多摩市","address":"東京都多摩市和田1760-4","lat":35.64854107,"lon":139.43706229},{"name":"諏訪下橋","province":"東京都","city":"多摩市","address":"東京都多摩市貝取1506","lat":35.63534013,"lon":139.44802291},{"name":"永山橋","province":"東京都","city":"多摩市","address":"東京都多摩市乞田1431","lat":35.63512344,"lon":139.4463064},{"name":"多摩消防署前","province":"東京都","city":"多摩市","address":"東京都多摩市永山1丁目2","lat":35.63254878,"lon":139.4473453},{"name":"多摩市役所前","province":"東京都","city":"多摩市","address":"東京都多摩市関戸6丁目13","lat":35.63723988,"lon":139.44764788},{"name":"多摩山王橋南","province":"東京都","city":"多摩市","address":"東京都多摩市落合1丁目9-1","lat":35.62532124,"lon":139.42357823},{"name":"多摩センター駅東","province":"東京都","city":"多摩市","address":"東京都多摩市落合1丁目39-2","lat":35.62459638,"lon":139.4256003},{"name":"多摩センター駅前","province":"東京都","city":"多摩市","address":"東京都多摩市落合1丁目39-1","lat":35.62484357,"lon":139.42555308},{"name":"東電多摩営業所前","province":"東京都","city":"多摩市","address":"東京都多摩市落合1丁目8-4","lat":35.62592121,"lon":139.4253225},{"name":"多摩南部地域病院","province":"東京都","city":"多摩市","address":"東京都多摩市中沢2丁目3-3","lat":35.62247975,"lon":139.41650948},{"name":"多摩中央警察署東","province":"東京都","city":"多摩市","address":"東京都多摩市落合1丁目","lat":35.62318834,"lon":139.43004441},{"name":"多摩保健所前","province":"東京都","city":"多摩市","address":"東京都多摩市永山5丁目5","lat":35.61893655,"lon":139.44431836},{"name":"多摩鶴牧二丁目","province":"東京都","city":"多摩市","address":"東京都多摩市鶴牧1丁目25-1","lat":35.62169382,"lon":139.42006478},{"name":"多摩鶴牧六丁目","province":"東京都","city":"多摩市","address":"東京都多摩市鶴牧6丁目5","lat":35.61383074,"lon":139.41356009},{"name":"多摩青木葉","province":"東京都","city":"多摩市","address":"東京都多摩市落合3丁目5-2","lat":35.62176632,"lon":139.43086662},{"name":"聖蹟桜ヶ丘駅東口","province":"東京都","city":"多摩市","address":"東京都多摩市関戸2丁目41-1","lat":35.65105496,"lon":139.4484001},{"name":"多摩桜の丘学園前","province":"東京都","city":"多摩市","address":"東京都多摩市聖ヶ丘2丁目23","lat":35.6313992,"lon":139.45668896},{"name":"聖ヶ丘一丁目","province":"東京都","city":"多摩市","address":"東京都多摩市聖ヶ丘1丁目","lat":35.63897034,"lon":139.4516308},{"name":"多摩市総合福祉センター前","province":"東京都","city":"多摩市","address":"東京都多摩市南野3丁目15","lat":35.6122226,"lon":139.41298243},{"name":"聖蹟桜ヶ丘駅西口","province":"東京都","city":"多摩市","address":"東京都多摩市関戸1丁目1-5","lat":35.65178259,"lon":139.44601416},{"name":"唐木田駅東","province":"東京都","city":"多摩市","address":"東京都多摩市鶴牧2丁目25-1","lat":35.61624987,"lon":139.41246008},{"name":"鶴牧中学校前","province":"東京都","city":"多摩市","address":"東京都多摩市鶴牧6丁目3","lat":35.61428908,"lon":139.41615986},{"name":"永山駅北","province":"東京都","city":"多摩市","address":"東京都多摩市永山1丁目8-17","lat":35.63195163,"lon":139.44723145},{"name":"熊野橋南","province":"東京都","city":"多摩市","address":"東京都多摩市聖ヶ丘1丁目9","lat":35.63859267,"lon":139.45387506},{"name":"落合浄水所","province":"東京都","city":"多摩市","address":"東京都多摩市中沢1丁目12","lat":35.62444889,"lon":139.41365963},{"name":"愛宕配水所","province":"東京都","city":"多摩市","address":"東京都多摩市愛宕2丁目51","lat":35.63483719,"lon":139.43953479},{"name":"南野給水所","province":"東京都","city":"多摩市","address":"東京都多摩市南野2丁目16","lat":35.60863738,"lon":139.43101436},{"name":"聖ヶ丘給水所","province":"東京都","city":"多摩市","address":"東京都多摩市聖ヶ丘4丁目1","lat":35.62952201,"lon":139.46372188},{"name":"西部地域包括支援センター","province":"東京都","city":"多摩市","address":"多摩市和田1532","lat":35.646027,"lon":139.430664},{"name":"東部地域包括支援センター","province":"東京都","city":"多摩市","address":"多摩市諏訪5-1諏訪複合教育施設内","lat":35.623512,"lon":139.45459},{"name":"多摩センター地域包括支援センター","province":"東京都","city":"多摩市","address":"多摩市山王下1-18-2","lat":35.625328,"lon":139.415207},{"name":"中部地域包括支援センター","province":"東京都","city":"多摩市","address":"多摩市永山4-2-5-105","lat":35.618931,"lon":139.444321},{"name":"北部地域包括支援センター","province":"東京都","city":"多摩市","address":"多摩市関戸4-19-5多摩市立健康センター3階","lat":35.648975,"lon":139.449585},{"name":"基幹型地域包括支援センター（多摩市健康福祉部高齢支援課内）","province":"東京都","city":"多摩市","address":"多摩市関戸6-12-1","lat":35.637653,"lon":139.447174},{"name":"多摩市消費生活センター","province":"東京都","city":"多摩市","address":"多摩市永山1-5ベルブ永山3階","lat":35.649658,"lon":139.444519},{"name":"聖蹟桜ヶ丘駅前","province":"東京都","city":"多摩市","address":"東京都多摩市関戸1丁目11-16","lat":35.65043832,"lon":139.44670028},{"name":"聖蹟桜ヶ丘駅前東","province":"東京都","city":"多摩市","address":"東京都多摩市関戸1丁目12-5","lat":35.65013562,"lon":139.44821959},{"name":"新大栗橋","province":"東京都","city":"多摩市","address":"東京都多摩市関戸4丁目10","lat":35.64784988,"lon":139.45292481},{"name":"宝蔵橋","province":"東京都","city":"多摩市","address":"東京都多摩市和田1760-4","lat":35.64854107,"lon":139.43706229},{"name":"諏訪下橋","province":"東京都","city":"多摩市","address":"東京都多摩市貝取1506","lat":35.63534013,"lon":139.44802291},{"name":"永山橋","province":"東京都","city":"多摩市","address":"東京都多摩市乞田1431","lat":35.63512344,"lon":139.4463064},{"name":"多摩消防署前","province":"東京都","city":"多摩市","address":"東京都多摩市永山1丁目2","lat":35.63254878,"lon":139.4473453},{"name":"多摩市役所前","province":"東京都","city":"多摩市","address":"東京都多摩市関戸6丁目13","lat":35.63723988,"lon":139.44764788},{"name":"多摩山王橋南","province":"東京都","city":"多摩市","address":"東京都多摩市落合1丁目9-1","lat":35.62532124,"lon":139.42357823},{"name":"多摩センター駅東","province":"東京都","city":"多摩市","address":"東京都多摩市落合1丁目39-2","lat":35.62459638,"lon":139.4256003},{"name":"多摩センター駅前","province":"東京都","city":"多摩市","address":"東京都多摩市落合1丁目39-1","lat":35.62484357,"lon":139.42555308},{"name":"東電多摩営業所前","province":"東京都","city":"多摩市","address":"東京都多摩市落合1丁目8-4","lat":35.62592121,"lon":139.4253225},{"name":"多摩南部地域病院","province":"東京都","city":"多摩市","address":"東京都多摩市中沢2丁目3-3","lat":35.62247975,"lon":139.41650948},{"name":"多摩中央警察署東","province":"東京都","city":"多摩市","address":"東京都多摩市落合1丁目","lat":35.62318834,"lon":139.43004441},{"name":"多摩保健所前","province":"東京都","city":"多摩市","address":"東京都多摩市永山5丁目5","lat":35.61893655,"lon":139.44431836},{"name":"多摩鶴牧二丁目","province":"東京都","city":"多摩市","address":"東京都多摩市鶴牧1丁目25-1","lat":35.62169382,"lon":139.42006478},{"name":"多摩鶴牧六丁目","province":"東京都","city":"多摩市","address":"東京都多摩市鶴牧6丁目5","lat":35.61383074,"lon":139.41356009},{"name":"多摩青木葉","province":"東京都","city":"多摩市","address":"東京都多摩市落合3丁目5-2","lat":35.62176632,"lon":139.43086662},{"name":"聖蹟桜ヶ丘駅東口","province":"東京都","city":"多摩市","address":"東京都多摩市関戸2丁目41-1","lat":35.65105496,"lon":139.4484001},{"name":"多摩桜の丘学園前","province":"東京都","city":"多摩市","address":"東京都多摩市聖ヶ丘2丁目23","lat":35.6313992,"lon":139.45668896},{"name":"聖ヶ丘一丁目","province":"東京都","city":"多摩市","address":"東京都多摩市聖ヶ丘1丁目","lat":35.63897034,"lon":139.4516308},{"name":"多摩市総合福祉センター前","province":"東京都","city":"多摩市","address":"東京都多摩市南野3丁目15","lat":35.6122226,"lon":139.41298243},{"name":"聖蹟桜ヶ丘駅西口","province":"東京都","city":"多摩市","address":"東京都多摩市関戸1丁目1-5","lat":35.65178259,"lon":139.44601416},{"name":"唐木田駅東","province":"東京都","city":"多摩市","address":"東京都多摩市鶴牧2丁目25-1","lat":35.61624987,"lon":139.41246008},{"name":"鶴牧中学校前","province":"東京都","city":"多摩市","address":"東京都多摩市鶴牧6丁目3","lat":35.61428908,"lon":139.41615986},{"name":"永山駅北","province":"東京都","city":"多摩市","address":"東京都多摩市永山1丁目8-17","lat":35.63195163,"lon":139.44723145},{"name":"熊野橋南","province":"東京都","city":"多摩市","address":"東京都多摩市聖ヶ丘1丁目9","lat":35.63859267,"lon":139.45387506},{"name":"落合浄水所","province":"東京都","city":"多摩市","address":"東京都多摩市中沢1丁目12","lat":35.62444889,"lon":139.41365963},{"name":"愛宕配水所","province":"東京都","city":"多摩市","address":"東京都多摩市愛宕2丁目51","lat":35.63483719,"lon":139.43953479},{"name":"南野給水所","province":"東京都","city":"多摩市","address":"東京都多摩市南野2丁目16","lat":35.60863738,"lon":139.43101436},{"name":"聖ヶ丘給水所","province":"東京都","city":"多摩市","address":"東京都多摩市聖ヶ丘4丁目1","lat":35.62952201,"lon":139.46372188},{"name":"西部地域包括支援センター","province":"東京都","city":"多摩市","address":"多摩市和田1532","lat":35.646027,"lon":139.430664},{"name":"東部地域包括支援センター","province":"東京都","city":"多摩市","address":"多摩市諏訪5-1諏訪複合教育施設内","lat":35.623512,"lon":139.45459},{"name":"多摩センター地域包括支援センター","province":"東京都","city":"多摩市","address":"多摩市山王下1-18-2","lat":35.625328,"lon":139.415207},{"name":"中部地域包括支援センター","province":"東京都","city":"多摩市","address":"多摩市永山4-2-5-105","lat":35.618931,"lon":139.444321},{"name":"北部地域包括支援センター","province":"東京都","city":"多摩市","address":"多摩市関戸4-19-5多摩市立健康センター3階","lat":35.648975,"lon":139.449585},{"name":"基幹型地域包括支援センター（多摩市健康福祉部高齢支援課内）","province":"東京都","city":"多摩市","address":"多摩市関戸6-12-1","lat":35.637653,"lon":139.447174},{"name":"多摩市消費生活センター","province":"東京都","city":"多摩市","address":"多摩市永山1-5ベルブ永山3階","lat":35.649658,"lon":139.444519},{"name":"聖蹟桜ヶ丘駅前","province":"東京都","city":"多摩市","address":"東京都多摩市関戸1丁目11-16","lat":35.65043832,"lon":139.44670028},{"name":"聖蹟桜ヶ丘駅前東","province":"東京都","city":"多摩市","address":"東京都多摩市関戸1丁目12-5","lat":35.65013562,"lon":139.44821959},{"name":"新大栗橋","province":"東京都","city":"多摩市","address":"東京都多摩市関戸4丁目10","lat":35.64784988,"lon":139.45292481},{"name":"宝蔵橋","province":"東京都","city":"多摩市","address":"東京都多摩市和田1760-4","lat":35.64854107,"lon":139.43706229},{"name":"諏訪下橋","province":"東京都","city":"多摩市","address":"東京都多摩市貝取1506","lat":35.63534013,"lon":139.44802291},{"name":"永山橋","province":"東京都","city":"多摩市","address":"東京都多摩市乞田1431","lat":35.63512344,"lon":139.4463064},{"name":"多摩消防署前","province":"東京都","city":"多摩市","address":"東京都多摩市永山1丁目2","lat":35.63254878,"lon":139.4473453},{"name":"多摩市役所前","province":"東京都","city":"多摩市","address":"東京都多摩市関戸6丁目13","lat":35.63723988,"lon":139.44764788},{"name":"多摩山王橋南","province":"東京都","city":"多摩市","address":"東京都多摩市落合1丁目9-1","lat":35.62532124,"lon":139.42357823},{"name":"多摩センター駅東","province":"東京都","city":"多摩市","address":"東京都多摩市落合1丁目39-2","lat":35.62459638,"lon":139.4256003},{"name":"多摩センター駅前","province":"東京都","city":"多摩市","address":"東京都多摩市落合1丁目39-1","lat":35.62484357,"lon":139.42555308},{"name":"東電多摩営業所前","province":"東京都","city":"多摩市","address":"東京都多摩市落合1丁目8-4","lat":35.62592121,"lon":139.4253225},{"name":"多摩南部地域病院","province":"東京都","city":"多摩市","address":"東京都多摩市中沢2丁目3-3","lat":35.62247975,"lon":139.41650948},{"name":"多摩中央警察署東","province":"東京都","city":"多摩市","address":"東京都多摩市落合1丁目","lat":35.62318834,"lon":139.43004441},{"name":"多摩保健所前","province":"東京都","city":"多摩市","address":"東京都多摩市永山5丁目5","lat":35.61893655,"lon":139.44431836},{"name":"多摩鶴牧二丁目","province":"東京都","city":"多摩市","address":"東京都多摩市鶴牧1丁目25-1","lat":35.62169382,"lon":139.42006478},{"name":"多摩鶴牧六丁目","province":"東京都","city":"多摩市","address":"東京都多摩市鶴牧6丁目5","lat":35.61383074,"lon":139.41356009},{"name":"多摩青木葉","province":"東京都","city":"多摩市","address":"東京都多摩市落合3丁目5-2","lat":35.62176632,"lon":139.43086662},{"name":"聖蹟桜ヶ丘駅東口","province":"東京都","city":"多摩市","address":"東京都多摩市関戸2丁目41-1","lat":35.65105496,"lon":139.4484001},{"name":"多摩桜の丘学園前","province":"東京都","city":"多摩市","address":"東京都多摩市聖ヶ丘2丁目23","lat":35.6313992,"lon":139.45668896},{"name":"聖ヶ丘一丁目","province":"東京都","city":"多摩市","address":"東京都多摩市聖ヶ丘1丁目","lat":35.63897034,"lon":139.4516308},{"name":"多摩市総合福祉センター前","province":"東京都","city":"多摩市","address":"東京都多摩市南野3丁目15","lat":35.6122226,"lon":139.41298243},{"name":"聖蹟桜ヶ丘駅西口","province":"東京都","city":"多摩市","address":"東京都多摩市関戸1丁目1-5","lat":35.65178259,"lon":139.44601416},{"name":"唐木田駅東","province":"東京都","city":"多摩市","address":"東京都多摩市鶴牧2丁目25-1","lat":35.61624987,"lon":139.41246008},{"name":"鶴牧中学校前","province":"東京都","city":"多摩市","address":"東京都多摩市鶴牧6丁目3","lat":35.61428908,"lon":139.41615986},{"name":"永山駅北","province":"東京都","city":"多摩市","address":"東京都多摩市永山1丁目8-17","lat":35.63195163,"lon":139.44723145},{"name":"熊野橋南","province":"東京都","city":"多摩市","address":"東京都多摩市聖ヶ丘1丁目9","lat":35.63859267,"lon":139.45387506},{"name":"落合浄水所","province":"東京都","city":"多摩市","address":"東京都多摩市中沢1丁目12","lat":35.62444889,"lon":139.41365963},{"name":"愛宕配水所","province":"東京都","city":"多摩市","address":"東京都多摩市愛宕2丁目51","lat":35.63483719,"lon":139.43953479},{"name":"南野給水所","province":"東京都","city":"多摩市","address":"東京都多摩市南野2丁目16","lat":35.60863738,"lon":139.43101436},{"name":"聖ヶ丘給水所","province":"東京都","city":"多摩市","address":"東京都多摩市聖ヶ丘4丁目1","lat":35.62952201,"lon":139.46372188},{"name":"西部地域包括支援センター","province":"東京都","city":"多摩市","address":"多摩市和田1532","lat":35.646027,"lon":139.430664},{"name":"東部地域包括支援センター","province":"東京都","city":"多摩市","address":"多摩市諏訪5-1諏訪複合教育施設内","lat":35.623512,"lon":139.45459},{"name":"多摩センター地域包括支援センター","province":"東京都","city":"多摩市","address":"多摩市山王下1-18-2","lat":35.625328,"lon":139.415207},{"name":"中部地域包括支援センター","province":"東京都","city":"多摩市","address":"多摩市永山4-2-5-105","lat":35.618931,"lon":139.444321},{"name":"北部地域包括支援センター","province":"東京都","city":"多摩市","address":"多摩市関戸4-19-5多摩市立健康センター3階","lat":35.648975,"lon":139.449585},{"name":"基幹型地域包括支援センター（多摩市健康福祉部高齢支援課内）","province":"東京都","city":"多摩市","address":"多摩市関戸6-12-1","lat":35.637653,"lon":139.447174},{"name":"多摩市消費生活センター","province":"東京都","city":"多摩市","address":"多摩市永山1-5ベルブ永山3階","lat":35.649658,"lon":139.444519},{"name":"聖蹟桜ヶ丘駅前","province":"東京都","city":"多摩市","address":"東京都多摩市関戸1丁目11-16","lat":35.65043832,"lon":139.44670028},{"name":"聖蹟桜ヶ丘駅前東","province":"東京都","city":"多摩市","address":"東京都多摩市関戸1丁目12-5","lat":35.65013562,"lon":139.44821959},{"name":"新大栗橋","province":"東京都","city":"多摩市","address":"東京都多摩市関戸4丁目10","lat":35.64784988,"lon":139.45292481},{"name":"宝蔵橋","province":"東京都","city":"多摩市","address":"東京都多摩市和田1760-4","lat":35.64854107,"lon":139.43706229},{"name":"諏訪下橋","province":"東京都","city":"多摩市","address":"東京都多摩市貝取1506","lat":35.63534013,"lon":139.44802291},{"name":"永山橋","province":"東京都","city":"多摩市","address":"東京都多摩市乞田1431","lat":35.63512344,"lon":139.4463064},{"name":"多摩消防署前","province":"東京都","city":"多摩市","address":"東京都多摩市永山1丁目2","lat":35.63254878,"lon":139.4473453},{"name":"多摩市役所前","province":"東京都","city":"多摩市","address":"東京都多摩市関戸6丁目13","lat":35.63723988,"lon":139.44764788},{"name":"多摩山王橋南","province":"東京都","city":"多摩市","address":"東京都多摩市落合1丁目9-1","lat":35.62532124,"lon":139.42357823},{"name":"多摩センター駅東","province":"東京都","city":"多摩市","address":"東京都多摩市落合1丁目39-2","lat":35.62459638,"lon":139.4256003},{"name":"多摩センター駅前","province":"東京都","city":"多摩市","address":"東京都多摩市落合1丁目39-1","lat":35.62484357,"lon":139.42555308},{"name":"東電多摩営業所前","province":"東京都","city":"多摩市","address":"東京都多摩市落合1丁目8-4","lat":35.62592121,"lon":139.4253225},{"name":"多摩南部地域病院","province":"東京都","city":"多摩市","address":"東京都多摩市中沢2丁目3-3","lat":35.62247975,"lon":139.41650948},{"name":"多摩中央警察署東","province":"東京都","city":"多摩市","address":"東京都多摩市落合1丁目","lat":35.62318834,"lon":139.43004441},{"name":"多摩保健所前","province":"東京都","city":"多摩市","address":"東京都多摩市永山5丁目5","lat":35.61893655,"lon":139.44431836},{"name":"多摩鶴牧二丁目","province":"東京都","city":"多摩市","address":"東京都多摩市鶴牧1丁目25-1","lat":35.62169382,"lon":139.42006478},{"name":"多摩鶴牧六丁目","province":"東京都","city":"多摩市","address":"東京都多摩市鶴牧6丁目5","lat":35.61383074,"lon":139.41356009},{"name":"多摩青木葉","province":"東京都","city":"多摩市","address":"東京都多摩市落合3丁目5-2","lat":35.62176632,"lon":139.43086662},{"name":"聖蹟桜ヶ丘駅東口","province":"東京都","city":"多摩市","address":"東京都多摩市関戸2丁目41-1","lat":35.65105496,"lon":139.4484001},{"name":"多摩桜の丘学園前","province":"東京都","city":"多摩市","address":"東京都多摩市聖ヶ丘2丁目23","lat":35.6313992,"lon":139.45668896},{"name":"聖ヶ丘一丁目","province":"東京都","city":"多摩市","address":"東京都多摩市聖ヶ丘1丁目","lat":35.63897034,"lon":139.4516308},{"name":"多摩市総合福祉センター前","province":"東京都","city":"多摩市","address":"東京都多摩市南野3丁目15","lat":35.6122226,"lon":139.41298243},{"name":"聖蹟桜ヶ丘駅西口","province":"東京都","city":"多摩市","address":"東京都多摩市関戸1丁目1-5","lat":35.65178259,"lon":139.44601416},{"name":"唐木田駅東","province":"東京都","city":"多摩市","address":"東京都多摩市鶴牧2丁目25-1","lat":35.61624987,"lon":139.41246008},{"name":"鶴牧中学校前","province":"東京都","city":"多摩市","address":"東京都多摩市鶴牧6丁目3","lat":35.61428908,"lon":139.41615986},{"name":"永山駅北","province":"東京都","city":"多摩市","address":"東京都多摩市永山1丁目8-17","lat":35.63195163,"lon":139.44723145},{"name":"熊野橋南","province":"東京都","city":"多摩市","address":"東京都多摩市聖ヶ丘1丁目9","lat":35.63859267,"lon":139.45387506},{"name":"落合浄水所","province":"東京都","city":"多摩市","address":"東京都多摩市中沢1丁目12","lat":35.62444889,"lon":139.41365963},{"name":"愛宕配水所","province":"東京都","city":"多摩市","address":"東京都多摩市愛宕2丁目51","lat":35.63483719,"lon":139.43953479},{"name":"南野給水所","province":"東京都","city":"多摩市","address":"東京都多摩市南野2丁目16","lat":35.60863738,"lon":139.43101436},{"name":"聖ヶ丘給水所","province":"東京都","city":"多摩市","address":"東京都多摩市聖ヶ丘4丁目1","lat":35.62952201,"lon":139.46372188},{"name":"西部地域包括支援センター","province":"東京都","city":"多摩市","address":"多摩市和田1532","lat":35.646027,"lon":139.430664},{"name":"東部地域包括支援センター","province":"東京都","city":"多摩市","address":"多摩市諏訪5-1諏訪複合教育施設内","lat":35.623512,"lon":139.45459},{"name":"多摩センター地域包括支援センター","province":"東京都","city":"多摩市","address":"多摩市山王下1-18-2","lat":35.625328,"lon":139.415207},{"name":"中部地域包括支援センター","province":"東京都","city":"多摩市","address":"多摩市永山4-2-5-105","lat":35.618931,"lon":139.444321},{"name":"北部地域包括支援センター","province":"東京都","city":"多摩市","address":"多摩市関戸4-19-5多摩市立健康センター3階","lat":35.648975,"lon":139.449585},{"name":"基幹型地域包括支援センター（多摩市健康福祉部高齢支援課内）","province":"東京都","city":"多摩市","address":"多摩市関戸6-12-1","lat":35.637653,"lon":139.447174},{"name":"多摩市消費生活センター","province":"東京都","city":"多摩市","address":"多摩市永山1-5ベルブ永山3階","lat":35.649658,"lon":139.444519},{"name":"聖蹟桜ヶ丘駅前","province":"東京都","city":"多摩市","address":"東京都多摩市関戸1丁目11-16","lat":35.65043832,"lon":139.44670028},{"name":"聖蹟桜ヶ丘駅前東","province":"東京都","city":"多摩市","address":"東京都多摩市関戸1丁目12-5","lat":35.65013562,"lon":139.44821959},{"name":"新大栗橋","province":"東京都","city":"多摩市","address":"東京都多摩市関戸4丁目10","lat":35.64784988,"lon":139.45292481},{"name":"宝蔵橋","province":"東京都","city":"多摩市","address":"東京都多摩市和田1760-4","lat":35.64854107,"lon":139.43706229},{"name":"諏訪下橋","province":"東京都","city":"多摩市","address":"東京都多摩市貝取1506","lat":35.63534013,"lon":139.44802291},{"name":"永山橋","province":"東京都","city":"多摩市","address":"東京都多摩市乞田1431","lat":35.63512344,"lon":139.4463064},{"name":"多摩消防署前","province":"東京都","city":"多摩市","address":"東京都多摩市永山1丁目2","lat":35.63254878,"lon":139.4473453},{"name":"多摩市役所前","province":"東京都","city":"多摩市","address":"東京都多摩市関戸6丁目13","lat":35.63723988,"lon":139.44764788},{"name":"多摩山王橋南","province":"東京都","city":"多摩市","address":"東京都多摩市落合1丁目9-1","lat":35.62532124,"lon":139.42357823},{"name":"多摩センター駅東","province":"東京都","city":"多摩市","address":"東京都多摩市落合1丁目39-2","lat":35.62459638,"lon":139.4256003},{"name":"多摩センター駅前","province":"東京都","city":"多摩市","address":"東京都多摩市落合1丁目39-1","lat":35.62484357,"lon":139.42555308},{"name":"東電多摩営業所前","province":"東京都","city":"多摩市","address":"東京都多摩市落合1丁目8-4","lat":35.62592121,"lon":139.4253225},{"name":"多摩南部地域病院","province":"東京都","city":"多摩市","address":"東京都多摩市中沢2丁目3-3","lat":35.62247975,"lon":139.41650948},{"name":"多摩中央警察署東","province":"東京都","city":"多摩市","address":"東京都多摩市落合1丁目","lat":35.62318834,"lon":139.43004441},{"name":"多摩保健所前","province":"東京都","city":"多摩市","address":"東京都多摩市永山5丁目5","lat":35.61893655,"lon":139.44431836},{"name":"多摩鶴牧二丁目","province":"東京都","city":"多摩市","address":"東京都多摩市鶴牧1丁目25-1","lat":35.62169382,"lon":139.42006478},{"name":"多摩鶴牧六丁目","province":"東京都","city":"多摩市","address":"東京都多摩市鶴牧6丁目5","lat":35.61383074,"lon":139.41356009},{"name":"多摩青木葉","province":"東京都","city":"多摩市","address":"東京都多摩市落合3丁目5-2","lat":35.62176632,"lon":139.43086662},{"name":"聖蹟桜ヶ丘駅東口","province":"東京都","city":"多摩市","address":"東京都多摩市関戸2丁目41-1","lat":35.65105496,"lon":139.4484001},{"name":"多摩桜の丘学園前","province":"東京都","city":"多摩市","address":"東京都多摩市聖ヶ丘2丁目23","lat":35.6313992,"lon":139.45668896},{"name":"聖ヶ丘一丁目","province":"東京都","city":"多摩市","address":"東京都多摩市聖ヶ丘1丁目","lat":35.63897034,"lon":139.4516308},{"name":"多摩市総合福祉センター前","province":"東京都","city":"多摩市","address":"東京都多摩市南野3丁目15","lat":35.6122226,"lon":139.41298243},{"name":"聖蹟桜ヶ丘駅西口","province":"東京都","city":"多摩市","address":"東京都多摩市関戸1丁目1-5","lat":35.65178259,"lon":139.44601416},{"name":"唐木田駅東","province":"東京都","city":"多摩市","address":"東京都多摩市鶴牧2丁目25-1","lat":35.61624987,"lon":139.41246008},{"name":"鶴牧中学校前","province":"東京都","city":"多摩市","address":"東京都多摩市鶴牧6丁目3","lat":35.61428908,"lon":139.41615986},{"name":"永山駅北","province":"東京都","city":"多摩市","address":"東京都多摩市永山1丁目8-17","lat":35.63195163,"lon":139.44723145},{"name":"熊野橋南","province":"東京都","city":"多摩市","address":"東京都多摩市聖ヶ丘1丁目9","lat":35.63859267,"lon":139.45387506},{"name":"落合浄水所","province":"東京都","city":"多摩市","address":"東京都多摩市中沢1丁目12","lat":35.62444889,"lon":139.41365963},{"name":"愛宕配水所","province":"東京都","city":"多摩市","address":"東京都多摩市愛宕2丁目51","lat":35.63483719,"lon":139.43953479},{"name":"南野給水所","province":"東京都","city":"多摩市","address":"東京都多摩市南野2丁目16","lat":35.60863738,"lon":139.43101436},{"name":"聖ヶ丘給水所","province":"東京都","city":"多摩市","address":"東京都多摩市聖ヶ丘4丁目1","lat":35.62952201,"lon":139.46372188},{"name":"西部地域包括支援センター","province":"東京都","city":"多摩市","address":"多摩市和田1532","lat":35.646027,"lon":139.430664},{"name":"東部地域包括支援センター","province":"東京都","city":"多摩市","address":"多摩市諏訪5-1諏訪複合教育施設内","lat":35.623512,"lon":139.45459},{"name":"多摩センター地域包括支援センター","province":"東京都","city":"多摩市","address":"多摩市山王下1-18-2","lat":35.625328,"lon":139.415207},{"name":"中部地域包括支援センター","province":"東京都","city":"多摩市","address":"多摩市永山4-2-5-105","lat":35.618931,"lon":139.444321},{"name":"北部地域包括支援センター","province":"東京都","city":"多摩市","address":"多摩市関戸4-19-5多摩市立健康センター3階","lat":35.648975,"lon":139.449585},{"name":"基幹型地域包括支援センター（多摩市健康福祉部高齢支援課内）","province":"東京都","city":"多摩市","address":"多摩市関戸6-12-1","lat":35.637653,"lon":139.447174},{"name":"多摩市消費生活センター","province":"東京都","city":"多摩市","address":"多摩市永山1-5ベルブ永山3階","lat":35.649658,"lon":139.444519},{"name":"聖蹟桜ヶ丘駅前","province":"東京都","city":"多摩市","address":"東京都多摩市関戸1丁目11-16","lat":35.65043832,"lon":139.44670028},{"name":"聖蹟桜ヶ丘駅前東","province":"東京都","city":"多摩市","address":"東京都多摩市関戸1丁目12-5","lat":35.65013562,"lon":139.44821959},{"name":"新大栗橋","province":"東京都","city":"多摩市","address":"東京都多摩市関戸4丁目10","lat":35.64784988,"lon":139.45292481},{"name":"宝蔵橋","province":"東京都","city":"多摩市","address":"東京都多摩市和田1760-4","lat":35.64854107,"lon":139.43706229},{"name":"諏訪下橋","province":"東京都","city":"多摩市","address":"東京都多摩市貝取1506","lat":35.63534013,"lon":139.44802291},{"name":"永山橋","province":"東京都","city":"多摩市","address":"東京都多摩市乞田1431","lat":35.63512344,"lon":139.4463064},{"name":"多摩消防署前","province":"東京都","city":"多摩市","address":"東京都多摩市永山1丁目2","lat":35.63254878,"lon":139.4473453},{"name":"多摩市役所前","province":"東京都","city":"多摩市","address":"東京都多摩市関戸6丁目13","lat":35.63723988,"lon":139.44764788},{"name":"多摩山王橋南","province":"東京都","city":"多摩市","address":"東京都多摩市落合1丁目9-1","lat":35.62532124,"lon":139.42357823},{"name":"多摩センター駅東","province":"東京都","city":"多摩市","address":"東京都多摩市落合1丁目39-2","lat":35.62459638,"lon":139.4256003},{"name":"多摩センター駅前","province":"東京都","city":"多摩市","address":"東京都多摩市落合1丁目39-1","lat":35.62484357,"lon":139.42555308},{"name":"東電多摩営業所前","province":"東京都","city":"多摩市","address":"東京都多摩市落合1丁目8-4","lat":35.62592121,"lon":139.4253225},{"name":"多摩南部地域病院","province":"東京都","city":"多摩市","address":"東京都多摩市中沢2丁目3-3","lat":35.62247975,"lon":139.41650948},{"name":"多摩中央警察署東","province":"東京都","city":"多摩市","address":"東京都多摩市落合1丁目","lat":35.62318834,"lon":139.43004441},{"name":"多摩保健所前","province":"東京都","city":"多摩市","address":"東京都多摩市永山5丁目5","lat":35.61893655,"lon":139.44431836},{"name":"多摩鶴牧二丁目","province":"東京都","city":"多摩市","address":"東京都多摩市鶴牧1丁目25-1","lat":35.62169382,"lon":139.42006478},{"name":"多摩鶴牧六丁目","province":"東京都","city":"多摩市","address":"東京都多摩市鶴牧6丁目5","lat":35.61383074,"lon":139.41356009},{"name":"多摩青木葉","province":"東京都","city":"多摩市","address":"東京都多摩市落合3丁目5-2","lat":35.62176632,"lon":139.43086662},{"name":"聖蹟桜ヶ丘駅東口","province":"東京都","city":"多摩市","address":"東京都多摩市関戸2丁目41-1","lat":35.65105496,"lon":139.4484001},{"name":"多摩桜の丘学園前","province":"東京都","city":"多摩市","address":"東京都多摩市聖ヶ丘2丁目23","lat":35.6313992,"lon":139.45668896},{"name":"聖ヶ丘一丁目","province":"東京都","city":"多摩市","address":"東京都多摩市聖ヶ丘1丁目","lat":35.63897034,"lon":139.4516308},{"name":"多摩市総合福祉センター前","province":"東京都","city":"多摩市","address":"東京都多摩市南野3丁目15","lat":35.6122226,"lon":139.41298243},{"name":"聖蹟桜ヶ丘駅西口","province":"東京都","city":"多摩市","address":"東京都多摩市関戸1丁目1-5","lat":35.65178259,"lon":139.44601416},{"name":"唐木田駅東","province":"東京都","city":"多摩市","address":"東京都多摩市鶴牧2丁目25-1","lat":35.61624987,"lon":139.41246008},{"name":"鶴牧中学校前","province":"東京都","city":"多摩市","address":"東京都多摩市鶴牧6丁目3","lat":35.61428908,"lon":139.41615986},{"name":"永山駅北","province":"東京都","city":"多摩市","address":"東京都多摩市永山1丁目8-17","lat":35.63195163,"lon":139.44723145},{"name":"熊野橋南","province":"東京都","city":"多摩市","address":"東京都多摩市聖ヶ丘1丁目9","lat":35.63859267,"lon":139.45387506},{"name":"落合浄水所","province":"東京都","city":"多摩市","address":"東京都多摩市中沢1丁目12","lat":35.62444889,"lon":139.41365963},{"name":"愛宕配水所","province":"東京都","city":"多摩市","address":"東京都多摩市愛宕2丁目51","lat":35.63483719,"lon":139.43953479},{"name":"南野給水所","province":"東京都","city":"多摩市","address":"東京都多摩市南野2丁目16","lat":35.60863738,"lon":139.43101436},{"name":"聖ヶ丘給水所","province":"東京都","city":"多摩市","address":"東京都多摩市聖ヶ丘4丁目1","lat":35.62952201,"lon":139.46372188},{"name":"西部地域包括支援センター","province":"東京都","city":"多摩市","address":"多摩市和田1532","lat":35.646027,"lon":139.430664},{"name":"東部地域包括支援センター","province":"東京都","city":"多摩市","address":"多摩市諏訪5-1諏訪複合教育施設内","lat":35.623512,"lon":139.45459},{"name":"多摩センター地域包括支援センター","province":"東京都","city":"多摩市","address":"多摩市山王下1-18-2","lat":35.625328,"lon":139.415207},{"name":"中部地域包括支援センター","province":"東京都","city":"多摩市","address":"多摩市永山4-2-5-105","lat":35.618931,"lon":139.444321},{"name":"北部地域包括支援センター","province":"東京都","city":"多摩市","address":"多摩市関戸4-19-5多摩市立健康センター3階","lat":35.648975,"lon":139.449585},{"name":"基幹型地域包括支援センター（多摩市健康福祉部高齢支援課内）","province":"東京都","city":"多摩市","address":"多摩市関戸6-12-1","lat":35.637653,"lon":139.447174},{"name":"多摩市消費生活センター","province":"東京都","city":"多摩市","address":"多摩市永山1-5ベルブ永山3階","lat":35.649658,"lon":139.444519},{"name":"聖蹟桜ヶ丘駅前","province":"東京都","city":"多摩市","address":"東京都多摩市関戸1丁目11-16","lat":35.65043832,"lon":139.44670028},{"name":"聖蹟桜ヶ丘駅前東","province":"東京都","city":"多摩市","address":"東京都多摩市関戸1丁目12-5","lat":35.65013562,"lon":139.44821959},{"name":"新大栗橋","province":"東京都","city":"多摩市","address":"東京都多摩市関戸4丁目10","lat":35.64784988,"lon":139.45292481},{"name":"宝蔵橋","province":"東京都","city":"多摩市","address":"東京都多摩市和田1760-4","lat":35.64854107,"lon":139.43706229},{"name":"諏訪下橋","province":"東京都","city":"多摩市","address":"東京都多摩市貝取1506","lat":35.63534013,"lon":139.44802291},{"name":"永山橋","province":"東京都","city":"多摩市","address":"東京都多摩市乞田1431","lat":35.63512344,"lon":139.4463064},{"name":"多摩消防署前","province":"東京都","city":"多摩市","address":"東京都多摩市永山1丁目2","lat":35.63254878,"lon":139.4473453},{"name":"多摩市役所前","province":"東京都","city":"多摩市","address":"東京都多摩市関戸6丁目13","lat":35.63723988,"lon":139.44764788},{"name":"多摩山王橋南","province":"東京都","city":"多摩市","address":"東京都多摩市落合1丁目9-1","lat":35.62532124,"lon":139.42357823},{"name":"多摩センター駅東","province":"東京都","city":"多摩市","address":"東京都多摩市落合1丁目39-2","lat":35.62459638,"lon":139.4256003},{"name":"多摩センター駅前","province":"東京都","city":"多摩市","address":"東京都多摩市落合1丁目39-1","lat":35.62484357,"lon":139.42555308},{"name":"東電多摩営業所前","province":"東京都","city":"多摩市","address":"東京都多摩市落合1丁目8-4","lat":35.62592121,"lon":139.4253225},{"name":"多摩南部地域病院","province":"東京都","city":"多摩市","address":"東京都多摩市中沢2丁目3-3","lat":35.62247975,"lon":139.41650948},{"name":"多摩中央警察署東","province":"東京都","city":"多摩市","address":"東京都多摩市落合1丁目","lat":35.62318834,"lon":139.43004441},{"name":"多摩保健所前","province":"東京都","city":"多摩市","address":"東京都多摩市永山5丁目5","lat":35.61893655,"lon":139.44431836},{"name":"多摩鶴牧二丁目","province":"東京都","city":"多摩市","address":"東京都多摩市鶴牧1丁目25-1","lat":35.62169382,"lon":139.42006478},{"name":"多摩鶴牧六丁目","province":"東京都","city":"多摩市","address":"東京都多摩市鶴牧6丁目5","lat":35.61383074,"lon":139.41356009},{"name":"多摩青木葉","province":"東京都","city":"多摩市","address":"東京都多摩市落合3丁目5-2","lat":35.62176632,"lon":139.43086662},{"name":"聖蹟桜ヶ丘駅東口","province":"東京都","city":"多摩市","address":"東京都多摩市関戸2丁目41-1","lat":35.65105496,"lon":139.4484001},{"name":"多摩桜の丘学園前","province":"東京都","city":"多摩市","address":"東京都多摩市聖ヶ丘2丁目23","lat":35.6313992,"lon":139.45668896},{"name":"聖ヶ丘一丁目","province":"東京都","city":"多摩市","address":"東京都多摩市聖ヶ丘1丁目","lat":35.63897034,"lon":139.4516308},{"name":"多摩市総合福祉センター前","province":"東京都","city":"多摩市","address":"東京都多摩市南野3丁目15","lat":35.6122226,"lon":139.41298243},{"name":"聖蹟桜ヶ丘駅西口","province":"東京都","city":"多摩市","address":"東京都多摩市関戸1丁目1-5","lat":35.65178259,"lon":139.44601416},{"name":"唐木田駅東","province":"東京都","city":"多摩市","address":"東京都多摩市鶴牧2丁目25-1","lat":35.61624987,"lon":139.41246008},{"name":"鶴牧中学校前","province":"東京都","city":"多摩市","address":"東京都多摩市鶴牧6丁目3","lat":35.61428908,"lon":139.41615986},{"name":"永山駅北","province":"東京都","city":"多摩市","address":"東京都多摩市永山1丁目8-17","lat":35.63195163,"lon":139.44723145},{"name":"熊野橋南","province":"東京都","city":"多摩市","address":"東京都多摩市聖ヶ丘1丁目9","lat":35.63859267,"lon":139.45387506},{"name":"落合浄水所","province":"東京都","city":"多摩市","address":"東京都多摩市中沢1丁目12","lat":35.62444889,"lon":139.41365963},{"name":"愛宕配水所","province":"東京都","city":"多摩市","address":"東京都多摩市愛宕2丁目51","lat":35.63483719,"lon":139.43953479},{"name":"南野給水所","province":"東京都","city":"多摩市","address":"東京都多摩市南野2丁目16","lat":35.60863738,"lon":139.43101436},{"name":"聖ヶ丘給水所","province":"東京都","city":"多摩市","address":"東京都多摩市聖ヶ丘4丁目1","lat":35.62952201,"lon":139.46372188},{"name":"西部地域包括支援センター","province":"東京都","city":"多摩市","address":"多摩市和田1532","lat":35.646027,"lon":139.430664},{"name":"東部地域包括支援センター","province":"東京都","city":"多摩市","address":"多摩市諏訪5-1諏訪複合教育施設内","lat":35.623512,"lon":139.45459},{"name":"多摩センター地域包括支援センター","province":"東京都","city":"多摩市","address":"多摩市山王下1-18-2","lat":35.625328,"lon":139.415207},{"name":"中部地域包括支援センター","province":"東京都","city":"多摩市","address":"多摩市永山4-2-5-105","lat":35.618931,"lon":139.444321},{"name":"北部地域包括支援センター","province":"東京都","city":"多摩市","address":"多摩市関戸4-19-5多摩市立健康センター3階","lat":35.648975,"lon":139.449585},{"name":"基幹型地域包括支援センター（多摩市健康福祉部高齢支援課内）","province":"東京都","city":"多摩市","address":"多摩市関戸6-12-1","lat":35.637653,"lon":139.447174},{"name":"多摩市消費生活センター","province":"東京都","city":"多摩市","address":"多摩市永山1-5ベルブ永山3階","lat":35.649658,"lon":139.444519},{"name":"聖蹟桜ヶ丘駅前","province":"東京都","city":"多摩市","address":"東京都多摩市関戸1丁目11-16","lat":35.65043832,"lon":139.44670028},{"name":"聖蹟桜ヶ丘駅前東","province":"東京都","city":"多摩市","address":"東京都多摩市関戸1丁目12-5","lat":35.65013562,"lon":139.44821959},{"name":"新大栗橋","province":"東京都","city":"多摩市","address":"東京都多摩市関戸4丁目10","lat":35.64784988,"lon":139.45292481},{"name":"宝蔵橋","province":"東京都","city":"多摩市","address":"東京都多摩市和田1760-4","lat":35.64854107,"lon":139.43706229},{"name":"諏訪下橋","province":"東京都","city":"多摩市","address":"東京都多摩市貝取1506","lat":35.63534013,"lon":139.44802291},{"name":"永山橋","province":"東京都","city":"多摩市","address":"東京都多摩市乞田1431","lat":35.63512344,"lon":139.4463064},{"name":"多摩消防署前","province":"東京都","city":"多摩市","address":"東京都多摩市永山1丁目2","lat":35.63254878,"lon":139.4473453},{"name":"多摩市役所前","province":"東京都","city":"多摩市","address":"東京都多摩市関戸6丁目13","lat":35.63723988,"lon":139.44764788},{"name":"多摩山王橋南","province":"東京都","city":"多摩市","address":"東京都多摩市落合1丁目9-1","lat":35.62532124,"lon":139.42357823},{"name":"多摩センター駅東","province":"東京都","city":"多摩市","address":"東京都多摩市落合1丁目39-2","lat":35.62459638,"lon":139.4256003},{"name":"多摩センター駅前","province":"東京都","city":"多摩市","address":"東京都多摩市落合1丁目39-1","lat":35.62484357,"lon":139.42555308},{"name":"東電多摩営業所前","province":"東京都","city":"多摩市","address":"東京都多摩市落合1丁目8-4","lat":35.62592121,"lon":139.4253225},{"name":"多摩南部地域病院","province":"東京都","city":"多摩市","address":"東京都多摩市中沢2丁目3-3","lat":35.62247975,"lon":139.41650948},{"name":"多摩中央警察署東","province":"東京都","city":"多摩市","address":"東京都多摩市落合1丁目","lat":35.62318834,"lon":139.43004441},{"name":"多摩保健所前","province":"東京都","city":"多摩市","address":"東京都多摩市永山5丁目5","lat":35.61893655,"lon":139.44431836},{"name":"多摩鶴牧二丁目","province":"東京都","city":"多摩市","address":"東京都多摩市鶴牧1丁目25-1","lat":35.62169382,"lon":139.42006478},{"name":"多摩鶴牧六丁目","province":"東京都","city":"多摩市","address":"東京都多摩市鶴牧6丁目5","lat":35.61383074,"lon":139.41356009},{"name":"多摩青木葉","province":"東京都","city":"多摩市","address":"東京都多摩市落合3丁目5-2","lat":35.62176632,"lon":139.43086662},{"name":"聖蹟桜ヶ丘駅東口","province":"東京都","city":"多摩市","address":"東京都多摩市関戸2丁目41-1","lat":35.65105496,"lon":139.4484001},{"name":"多摩桜の丘学園前","province":"東京都","city":"多摩市","address":"東京都多摩市聖ヶ丘2丁目23","lat":35.6313992,"lon":139.45668896},{"name":"聖ヶ丘一丁目","province":"東京都","city":"多摩市","address":"東京都多摩市聖ヶ丘1丁目","lat":35.63897034,"lon":139.4516308},{"name":"多摩市総合福祉センター前","province":"東京都","city":"多摩市","address":"東京都多摩市南野3丁目15","lat":35.6122226,"lon":139.41298243},{"name":"聖蹟桜ヶ丘駅西口","province":"東京都","city":"多摩市","address":"東京都多摩市関戸1丁目1-5","lat":35.65178259,"lon":139.44601416},{"name":"唐木田駅東","province":"東京都","city":"多摩市","address":"東京都多摩市鶴牧2丁目25-1","lat":35.61624987,"lon":139.41246008},{"name":"鶴牧中学校前","province":"東京都","city":"多摩市","address":"東京都多摩市鶴牧6丁目3","lat":35.61428908,"lon":139.41615986},{"name":"永山駅北","province":"東京都","city":"多摩市","address":"東京都多摩市永山1丁目8-17","lat":35.63195163,"lon":139.44723145},{"name":"熊野橋南","province":"東京都","city":"多摩市","address":"東京都多摩市聖ヶ丘1丁目9","lat":35.63859267,"lon":139.45387506},{"name":"落合浄水所","province":"東京都","city":"多摩市","address":"東京都多摩市中沢1丁目12","lat":35.62444889,"lon":139.41365963},{"name":"愛宕配水所","province":"東京都","city":"多摩市","address":"東京都多摩市愛宕2丁目51","lat":35.63483719,"lon":139.43953479},{"name":"南野給水所","province":"東京都","city":"多摩市","address":"東京都多摩市南野2丁目16","lat":35.60863738,"lon":139.43101436},{"name":"聖ヶ丘給水所","province":"東京都","city":"多摩市","address":"東京都多摩市聖ヶ丘4丁目1","lat":35.62952201,"lon":139.46372188},{"name":"西部地域包括支援センター","province":"東京都","city":"多摩市","address":"多摩市和田1532","lat":35.646027,"lon":139.430664},{"name":"東部地域包括支援センター","province":"東京都","city":"多摩市","address":"多摩市諏訪5-1諏訪複合教育施設内","lat":35.623512,"lon":139.45459},{"name":"多摩センター地域包括支援センター","province":"東京都","city":"多摩市","address":"多摩市山王下1-18-2","lat":35.625328,"lon":139.415207},{"name":"中部地域包括支援センター","province":"東京都","city":"多摩市","address":"多摩市永山4-2-5-105","lat":35.618931,"lon":139.444321},{"name":"北部地域包括支援センター","province":"東京都","city":"多摩市","address":"多摩市関戸4-19-5多摩市立健康センター3階","lat":35.648975,"lon":139.449585},{"name":"基幹型地域包括支援センター（多摩市健康福祉部高齢支援課内）","province":"東京都","city":"多摩市","address":"多摩市関戸6-12-1","lat":35.637653,"lon":139.447174},{"name":"多摩市消費生活センター","province":"東京都","city":"多摩市","address":"多摩市永山1-5ベルブ永山3階","lat":35.649658,"lon":139.444519},{"name":"聖蹟桜ヶ丘駅前","province":"東京都","city":"多摩市","address":"東京都多摩市関戸1丁目11-16","lat":35.65043832,"lon":139.44670028},{"name":"聖蹟桜ヶ丘駅前東","province":"東京都","city":"多摩市","address":"東京都多摩市関戸1丁目12-5","lat":35.65013562,"lon":139.44821959},{"name":"新大栗橋","province":"東京都","city":"多摩市","address":"東京都多摩市関戸4丁目10","lat":35.64784988,"lon":139.45292481},{"name":"宝蔵橋","province":"東京都","city":"多摩市","address":"東京都多摩市和田1760-4","lat":35.64854107,"lon":139.43706229},{"name":"諏訪下橋","province":"東京都","city":"多摩市","address":"東京都多摩市貝取1506","lat":35.63534013,"lon":139.44802291},{"name":"永山橋","province":"東京都","city":"多摩市","address":"東京都多摩市乞田1431","lat":35.63512344,"lon":139.4463064},{"name":"多摩消防署前","province":"東京都","city":"多摩市","address":"東京都多摩市永山1丁目2","lat":35.63254878,"lon":139.4473453},{"name":"多摩市役所前","province":"東京都","city":"多摩市","address":"東京都多摩市関戸6丁目13","lat":35.63723988,"lon":139.44764788},{"name":"多摩山王橋南","province":"東京都","city":"多摩市","address":"東京都多摩市落合1丁目9-1","lat":35.62532124,"lon":139.42357823},{"name":"多摩センター駅東","province":"東京都","city":"多摩市","address":"東京都多摩市落合1丁目39-2","lat":35.62459638,"lon":139.4256003},{"name":"多摩センター駅前","province":"東京都","city":"多摩市","address":"東京都多摩市落合1丁目39-1","lat":35.62484357,"lon":139.42555308},{"name":"東電多摩営業所前","province":"東京都","city":"多摩市","address":"東京都多摩市落合1丁目8-4","lat":35.62592121,"lon":139.4253225},{"name":"多摩南部地域病院","province":"東京都","city":"多摩市","address":"東京都多摩市中沢2丁目3-3","lat":35.62247975,"lon":139.41650948},{"name":"多摩中央警察署東","province":"東京都","city":"多摩市","address":"東京都多摩市落合1丁目","lat":35.62318834,"lon":139.43004441},{"name":"多摩保健所前","province":"東京都","city":"多摩市","address":"東京都多摩市永山5丁目5","lat":35.61893655,"lon":139.44431836},{"name":"多摩鶴牧二丁目","province":"東京都","city":"多摩市","address":"東京都多摩市鶴牧1丁目25-1","lat":35.62169382,"lon":139.42006478},{"name":"多摩鶴牧六丁目","province":"東京都","city":"多摩市","address":"東京都多摩市鶴牧6丁目5","lat":35.61383074,"lon":139.41356009},{"name":"多摩青木葉","province":"東京都","city":"多摩市","address":"東京都多摩市落合3丁目5-2","lat":35.62176632,"lon":139.43086662},{"name":"聖蹟桜ヶ丘駅東口","province":"東京都","city":"多摩市","address":"東京都多摩市関戸2丁目41-1","lat":35.65105496,"lon":139.4484001},{"name":"多摩桜の丘学園前","province":"東京都","city":"多摩市","address":"東京都多摩市聖ヶ丘2丁目23","lat":35.6313992,"lon":139.45668896},{"name":"聖ヶ丘一丁目","province":"東京都","city":"多摩市","address":"東京都多摩市聖ヶ丘1丁目","lat":35.63897034,"lon":139.4516308},{"name":"多摩市総合福祉センター前","province":"東京都","city":"多摩市","address":"東京都多摩市南野3丁目15","lat":35.6122226,"lon":139.41298243},{"name":"聖蹟桜ヶ丘駅西口","province":"東京都","city":"多摩市","address":"東京都多摩市関戸1丁目1-5","lat":35.65178259,"lon":139.44601416},{"name":"唐木田駅東","province":"東京都","city":"多摩市","address":"東京都多摩市鶴牧2丁目25-1","lat":35.61624987,"lon":139.41246008},{"name":"鶴牧中学校前","province":"東京都","city":"多摩市","address":"東京都多摩市鶴牧6丁目3","lat":35.61428908,"lon":139.41615986},{"name":"永山駅北","province":"東京都","city":"多摩市","address":"東京都多摩市永山1丁目8-17","lat":35.63195163,"lon":139.44723145},{"name":"熊野橋南","province":"東京都","city":"多摩市","address":"東京都多摩市聖ヶ丘1丁目9","lat":35.63859267,"lon":139.45387506},{"name":"落合浄水所","province":"東京都","city":"多摩市","address":"東京都多摩市中沢1丁目12","lat":35.62444889,"lon":139.41365963},{"name":"愛宕配水所","province":"東京都","city":"多摩市","address":"東京都多摩市愛宕2丁目51","lat":35.63483719,"lon":139.43953479},{"name":"南野給水所","province":"東京都","city":"多摩市","address":"東京都多摩市南野2丁目16","lat":35.60863738,"lon":139.43101436},{"name":"聖ヶ丘給水所","province":"東京都","city":"多摩市","address":"東京都多摩市聖ヶ丘4丁目1","lat":35.62952201,"lon":139.46372188},{"name":"西部地域包括支援センター","province":"東京都","city":"多摩市","address":"多摩市和田1532","lat":35.646027,"lon":139.430664},{"name":"東部地域包括支援センター","province":"東京都","city":"多摩市","address":"多摩市諏訪5-1諏訪複合教育施設内","lat":35.623512,"lon":139.45459},{"name":"多摩センター地域包括支援センター","province":"東京都","city":"多摩市","address":"多摩市山王下1-18-2","lat":35.625328,"lon":139.415207},{"name":"中部地域包括支援センター","province":"東京都","city":"多摩市","address":"多摩市永山4-2-5-105","lat":35.618931,"lon":139.444321},{"name":"北部地域包括支援センター","province":"東京都","city":"多摩市","address":"多摩市関戸4-19-5多摩市立健康センター3階","lat":35.648975,"lon":139.449585},{"name":"基幹型地域包括支援センター（多摩市健康福祉部高齢支援課内）","province":"東京都","city":"多摩市","address":"多摩市関戸6-12-1","lat":35.637653,"lon":139.447174},{"name":"多摩市消費生活センター","province":"東京都","city":"多摩市","address":"多摩市永山1-5ベルブ永山3階","lat":35.649658,"lon":139.444519},{"name":"聖蹟桜ヶ丘駅前","province":"東京都","city":"多摩市","address":"東京都多摩市関戸1丁目11-16","lat":35.65043832,"lon":139.44670028},{"name":"聖蹟桜ヶ丘駅前東","province":"東京都","city":"多摩市","address":"東京都多摩市関戸1丁目12-5","lat":35.65013562,"lon":139.44821959},{"name":"新大栗橋","province":"東京都","city":"多摩市","address":"東京都多摩市関戸4丁目10","lat":35.64784988,"lon":139.45292481},{"name":"宝蔵橋","province":"東京都","city":"多摩市","address":"東京都多摩市和田1760-4","lat":35.64854107,"lon":139.43706229},{"name":"諏訪下橋","province":"東京都","city":"多摩市","address":"東京都多摩市貝取1506","lat":35.63534013,"lon":139.44802291},{"name":"永山橋","province":"東京都","city":"多摩市","address":"東京都多摩市乞田1431","lat":35.63512344,"lon":139.4463064},{"name":"多摩消防署前","province":"東京都","city":"多摩市","address":"東京都多摩市永山1丁目2","lat":35.63254878,"lon":139.4473453},{"name":"多摩市役所前","province":"東京都","city":"多摩市","address":"東京都多摩市関戸6丁目13","lat":35.63723988,"lon":139.44764788},{"name":"多摩山王橋南","province":"東京都","city":"多摩市","address":"東京都多摩市落合1丁目9-1","lat":35.62532124,"lon":139.42357823},{"name":"多摩センター駅東","province":"東京都","city":"多摩市","address":"東京都多摩市落合1丁目39-2","lat":35.62459638,"lon":139.4256003},{"name":"多摩センター駅前","province":"東京都","city":"多摩市","address":"東京都多摩市落合1丁目39-1","lat":35.62484357,"lon":139.42555308},{"name":"東電多摩営業所前","province":"東京都","city":"多摩市","address":"東京都多摩市落合1丁目8-4","lat":35.62592121,"lon":139.4253225},{"name":"多摩南部地域病院","province":"東京都","city":"多摩市","address":"東京都多摩市中沢2丁目3-3","lat":35.62247975,"lon":139.41650948},{"name":"多摩中央警察署東","province":"東京都","city":"多摩市","address":"東京都多摩市落合1丁目","lat":35.62318834,"lon":139.43004441},{"name":"多摩保健所前","province":"東京都","city":"多摩市","address":"東京都多摩市永山5丁目5","lat":35.61893655,"lon":139.44431836},{"name":"多摩鶴牧二丁目","province":"東京都","city":"多摩市","address":"東京都多摩市鶴牧1丁目25-1","lat":35.62169382,"lon":139.42006478},{"name":"多摩鶴牧六丁目","province":"東京都","city":"多摩市","address":"東京都多摩市鶴牧6丁目5","lat":35.61383074,"lon":139.41356009},{"name":"多摩青木葉","province":"東京都","city":"多摩市","address":"東京都多摩市落合3丁目5-2","lat":35.62176632,"lon":139.43086662},{"name":"聖蹟桜ヶ丘駅東口","province":"東京都","city":"多摩市","address":"東京都多摩市関戸2丁目41-1","lat":35.65105496,"lon":139.4484001},{"name":"多摩桜の丘学園前","province":"東京都","city":"多摩市","address":"東京都多摩市聖ヶ丘2丁目23","lat":35.6313992,"lon":139.45668896},{"name":"聖ヶ丘一丁目","province":"東京都","city":"多摩市","address":"東京都多摩市聖ヶ丘1丁目","lat":35.63897034,"lon":139.4516308},{"name":"多摩市総合福祉センター前","province":"東京都","city":"多摩市","address":"東京都多摩市南野3丁目15","lat":35.6122226,"lon":139.41298243},{"name":"聖蹟桜ヶ丘駅西口","province":"東京都","city":"多摩市","address":"東京都多摩市関戸1丁目1-5","lat":35.65178259,"lon":139.44601416},{"name":"唐木田駅東","province":"東京都","city":"多摩市","address":"東京都多摩市鶴牧2丁目25-1","lat":35.61624987,"lon":139.41246008},{"name":"鶴牧中学校前","province":"東京都","city":"多摩市","address":"東京都多摩市鶴牧6丁目3","lat":35.61428908,"lon":139.41615986},{"name":"永山駅北","province":"東京都","city":"多摩市","address":"東京都多摩市永山1丁目8-17","lat":35.63195163,"lon":139.44723145},{"name":"熊野橋南","province":"東京都","city":"多摩市","address":"東京都多摩市聖ヶ丘1丁目9","lat":35.63859267,"lon":139.45387506},{"name":"落合浄水所","province":"東京都","city":"多摩市","address":"東京都多摩市中沢1丁目12","lat":35.62444889,"lon":139.41365963},{"name":"愛宕配水所","province":"東京都","city":"多摩市","address":"東京都多摩市愛宕2丁目51","lat":35.63483719,"lon":139.43953479},{"name":"南野給水所","province":"東京都","city":"多摩市","address":"東京都多摩市南野2丁目16","lat":35.60863738,"lon":139.43101436},{"name":"聖ヶ丘給水所","province":"東京都","city":"多摩市","address":"東京都多摩市聖ヶ丘4丁目1","lat":35.62952201,"lon":139.46372188},{"name":"西部地域包括支援センター","province":"東京都","city":"多摩市","address":"多摩市和田1532","lat":35.646027,"lon":139.430664},{"name":"東部地域包括支援センター","province":"東京都","city":"多摩市","address":"多摩市諏訪5-1諏訪複合教育施設内","lat":35.623512,"lon":139.45459},{"name":"多摩センター地域包括支援センター","province":"東京都","city":"多摩市","address":"多摩市山王下1-18-2","lat":35.625328,"lon":139.415207},{"name":"中部地域包括支援センター","province":"東京都","city":"多摩市","address":"多摩市永山4-2-5-105","lat":35.618931,"lon":139.444321},{"name":"北部地域包括支援センター","province":"東京都","city":"多摩市","address":"多摩市関戸4-19-5多摩市立健康センター3階","lat":35.648975,"lon":139.449585},{"name":"基幹型地域包括支援センター（多摩市健康福祉部高齢支援課内）","province":"東京都","city":"多摩市","address":"多摩市関戸6-12-1","lat":35.637653,"lon":139.447174},{"name":"多摩市消費生活センター","province":"東京都","city":"多摩市","address":"多摩市永山1-5ベルブ永山3階","lat":35.649658,"lon":139.444519},{"name":"聖蹟桜ヶ丘駅前","province":"東京都","city":"多摩市","address":"東京都多摩市関戸1丁目11-16","lat":35.65043832,"lon":139.44670028},{"name":"聖蹟桜ヶ丘駅前東","province":"東京都","city":"多摩市","address":"東京都多摩市関戸1丁目12-5","lat":35.65013562,"lon":139.44821959},{"name":"新大栗橋","province":"東京都","city":"多摩市","address":"東京都多摩市関戸4丁目10","lat":35.64784988,"lon":139.45292481},{"name":"宝蔵橋","province":"東京都","city":"多摩市","address":"東京都多摩市和田1760-4","lat":35.64854107,"lon":139.43706229},{"name":"諏訪下橋","province":"東京都","city":"多摩市","address":"東京都多摩市貝取1506","lat":35.63534013,"lon":139.44802291},{"name":"永山橋","province":"東京都","city":"多摩市","address":"東京都多摩市乞田1431","lat":35.63512344,"lon":139.4463064},{"name":"多摩消防署前","province":"東京都","city":"多摩市","address":"東京都多摩市永山1丁目2","lat":35.63254878,"lon":139.4473453},{"name":"多摩市役所前","province":"東京都","city":"多摩市","address":"東京都多摩市関戸6丁目13","lat":35.63723988,"lon":139.44764788},{"name":"多摩山王橋南","province":"東京都","city":"多摩市","address":"東京都多摩市落合1丁目9-1","lat":35.62532124,"lon":139.42357823},{"name":"多摩センター駅東","province":"東京都","city":"多摩市","address":"東京都多摩市落合1丁目39-2","lat":35.62459638,"lon":139.4256003},{"name":"多摩センター駅前","province":"東京都","city":"多摩市","address":"東京都多摩市落合1丁目39-1","lat":35.62484357,"lon":139.42555308},{"name":"東電多摩営業所前","province":"東京都","city":"多摩市","address":"東京都多摩市落合1丁目8-4","lat":35.62592121,"lon":139.4253225},{"name":"多摩南部地域病院","province":"東京都","city":"多摩市","address":"東京都多摩市中沢2丁目3-3","lat":35.62247975,"lon":139.41650948},{"name":"多摩中央警察署東","province":"東京都","city":"多摩市","address":"東京都多摩市落合1丁目","lat":35.62318834,"lon":139.43004441},{"name":"多摩保健所前","province":"東京都","city":"多摩市","address":"東京都多摩市永山5丁目5","lat":35.61893655,"lon":139.44431836},{"name":"多摩鶴牧二丁目","province":"東京都","city":"多摩市","address":"東京都多摩市鶴牧1丁目25-1","lat":35.62169382,"lon":139.42006478},{"name":"多摩鶴牧六丁目","province":"東京都","city":"多摩市","address":"東京都多摩市鶴牧6丁目5","lat":35.61383074,"lon":139.41356009},{"name":"多摩青木葉","province":"東京都","city":"多摩市","address":"東京都多摩市落合3丁目5-2","lat":35.62176632,"lon":139.43086662},{"name":"聖蹟桜ヶ丘駅東口","province":"東京都","city":"多摩市","address":"東京都多摩市関戸2丁目41-1","lat":35.65105496,"lon":139.4484001},{"name":"多摩桜の丘学園前","province":"東京都","city":"多摩市","address":"東京都多摩市聖ヶ丘2丁目23","lat":35.6313992,"lon":139.45668896},{"name":"聖ヶ丘一丁目","province":"東京都","city":"多摩市","address":"東京都多摩市聖ヶ丘1丁目","lat":35.63897034,"lon":139.4516308},{"name":"多摩市総合福祉センター前","province":"東京都","city":"多摩市","address":"東京都多摩市南野3丁目15","lat":35.6122226,"lon":139.41298243},{"name":"聖蹟桜ヶ丘駅西口","province":"東京都","city":"多摩市","address":"東京都多摩市関戸1丁目1-5","lat":35.65178259,"lon":139.44601416},{"name":"唐木田駅東","province":"東京都","city":"多摩市","address":"東京都多摩市鶴牧2丁目25-1","lat":35.61624987,"lon":139.41246008},{"name":"鶴牧中学校前","province":"東京都","city":"多摩市","address":"東京都多摩市鶴牧6丁目3","lat":35.61428908,"lon":139.41615986},{"name":"永山駅北","province":"東京都","city":"多摩市","address":"東京都多摩市永山1丁目8-17","lat":35.63195163,"lon":139.44723145},{"name":"熊野橋南","province":"東京都","city":"多摩市","address":"東京都多摩市聖ヶ丘1丁目9","lat":35.63859267,"lon":139.45387506},{"name":"落合浄水所","province":"東京都","city":"多摩市","address":"東京都多摩市中沢1丁目12","lat":35.62444889,"lon":139.41365963},{"name":"愛宕配水所","province":"東京都","city":"多摩市","address":"東京都多摩市愛宕2丁目51","lat":35.63483719,"lon":139.43953479},{"name":"南野給水所","province":"東京都","city":"多摩市","address":"東京都多摩市南野2丁目16","lat":35.60863738,"lon":139.43101436},{"name":"聖ヶ丘給水所","province":"東京都","city":"多摩市","address":"東京都多摩市聖ヶ丘4丁目1","lat":35.62952201,"lon":139.46372188},{"name":"西部地域包括支援センター","province":"東京都","city":"多摩市","address":"多摩市和田1532","lat":35.646027,"lon":139.430664},{"name":"東部地域包括支援センター","province":"東京都","city":"多摩市","address":"多摩市諏訪5-1諏訪複合教育施設内","lat":35.623512,"lon":139.45459},{"name":"多摩センター地域包括支援センター","province":"東京都","city":"多摩市","address":"多摩市山王下1-18-2","lat":35.625328,"lon":139.415207},{"name":"中部地域包括支援センター","province":"東京都","city":"多摩市","address":"多摩市永山4-2-5-105","lat":35.618931,"lon":139.444321},{"name":"北部地域包括支援センター","province":"東京都","city":"多摩市","address":"多摩市関戸4-19-5多摩市立健康センター3階","lat":35.648975,"lon":139.449585},{"name":"基幹型地域包括支援センター（多摩市健康福祉部高齢支援課内）","province":"東京都","city":"多摩市","address":"多摩市関戸6-12-1","lat":35.637653,"lon":139.447174},{"name":"多摩市消費生活センター","province":"東京都","city":"多摩市","address":"多摩市永山1-5ベルブ永山3階","lat":35.649658,"lon":139.444519},{"name":"聖蹟桜ヶ丘駅前","province":"東京都","city":"多摩市","address":"東京都多摩市関戸1丁目11-16","lat":35.65043832,"lon":139.44670028},{"name":"聖蹟桜ヶ丘駅前東","province":"東京都","city":"多摩市","address":"東京都多摩市関戸1丁目12-5","lat":35.65013562,"lon":139.44821959},{"name":"新大栗橋","province":"東京都","city":"多摩市","address":"東京都多摩市関戸4丁目10","lat":35.64784988,"lon":139.45292481},{"name":"宝蔵橋","province":"東京都","city":"多摩市","address":"東京都多摩市和田1760-4","lat":35.64854107,"lon":139.43706229},{"name":"諏訪下橋","province":"東京都","city":"多摩市","address":"東京都多摩市貝取1506","lat":35.63534013,"lon":139.44802291},{"name":"永山橋","province":"東京都","city":"多摩市","address":"東京都多摩市乞田1431","lat":35.63512344,"lon":139.4463064},{"name":"多摩消防署前","province":"東京都","city":"多摩市","address":"東京都多摩市永山1丁目2","lat":35.63254878,"lon":139.4473453},{"name":"多摩市役所前","province":"東京都","city":"多摩市","address":"東京都多摩市関戸6丁目13","lat":35.63723988,"lon":139.44764788},{"name":"多摩山王橋南","province":"東京都","city":"多摩市","address":"東京都多摩市落合1丁目9-1","lat":35.62532124,"lon":139.42357823},{"name":"多摩センター駅東","province":"東京都","city":"多摩市","address":"東京都多摩市落合1丁目39-2","lat":35.62459638,"lon":139.4256003},{"name":"多摩センター駅前","province":"東京都","city":"多摩市","address":"東京都多摩市落合1丁目39-1","lat":35.62484357,"lon":139.42555308},{"name":"東電多摩営業所前","province":"東京都","city":"多摩市","address":"東京都多摩市落合1丁目8-4","lat":35.62592121,"lon":139.4253225},{"name":"多摩南部地域病院","province":"東京都","city":"多摩市","address":"東京都多摩市中沢2丁目3-3","lat":35.62247975,"lon":139.41650948},{"name":"多摩中央警察署東","province":"東京都","city":"多摩市","address":"東京都多摩市落合1丁目","lat":35.62318834,"lon":139.43004441},{"name":"多摩保健所前","province":"東京都","city":"多摩市","address":"東京都多摩市永山5丁目5","lat":35.61893655,"lon":139.44431836},{"name":"多摩鶴牧二丁目","province":"東京都","city":"多摩市","address":"東京都多摩市鶴牧1丁目25-1","lat":35.62169382,"lon":139.42006478},{"name":"多摩鶴牧六丁目","province":"東京都","city":"多摩市","address":"東京都多摩市鶴牧6丁目5","lat":35.61383074,"lon":139.41356009},{"name":"多摩青木葉","province":"東京都","city":"多摩市","address":"東京都多摩市落合3丁目5-2","lat":35.62176632,"lon":139.43086662},{"name":"聖蹟桜ヶ丘駅東口","province":"東京都","city":"多摩市","address":"東京都多摩市関戸2丁目41-1","lat":35.65105496,"lon":139.4484001},{"name":"多摩桜の丘学園前","province":"東京都","city":"多摩市","address":"東京都多摩市聖ヶ丘2丁目23","lat":35.6313992,"lon":139.45668896},{"name":"聖ヶ丘一丁目","province":"東京都","city":"多摩市","address":"東京都多摩市聖ヶ丘1丁目","lat":35.63897034,"lon":139.4516308},{"name":"多摩市総合福祉センター前","province":"東京都","city":"多摩市","address":"東京都多摩市南野3丁目15","lat":35.6122226,"lon":139.41298243},{"name":"聖蹟桜ヶ丘駅西口","province":"東京都","city":"多摩市","address":"東京都多摩市関戸1丁目1-5","lat":35.65178259,"lon":139.44601416},{"name":"唐木田駅東","province":"東京都","city":"多摩市","address":"東京都多摩市鶴牧2丁目25-1","lat":35.61624987,"lon":139.41246008},{"name":"鶴牧中学校前","province":"東京都","city":"多摩市","address":"東京都多摩市鶴牧6丁目3","lat":35.61428908,"lon":139.41615986},{"name":"永山駅北","province":"東京都","city":"多摩市","address":"東京都多摩市永山1丁目8-17","lat":35.63195163,"lon":139.44723145},{"name":"熊野橋南","province":"東京都","city":"多摩市","address":"東京都多摩市聖ヶ丘1丁目9","lat":35.63859267,"lon":139.45387506},{"name":"落合浄水所","province":"東京都","city":"多摩市","address":"東京都多摩市中沢1丁目12","lat":35.62444889,"lon":139.41365963},{"name":"愛宕配水所","province":"東京都","city":"多摩市","address":"東京都多摩市愛宕2丁目51","lat":35.63483719,"lon":139.43953479},{"name":"南野給水所","province":"東京都","city":"多摩市","address":"東京都多摩市南野2丁目16","lat":35.60863738,"lon":139.43101436},{"name":"聖ヶ丘給水所","province":"東京都","city":"多摩市","address":"東京都多摩市聖ヶ丘4丁目1","lat":35.62952201,"lon":139.46372188},{"name":"西部地域包括支援センター","province":"東京都","city":"多摩市","address":"多摩市和田1532","lat":35.646027,"lon":139.430664},{"name":"東部地域包括支援センター","province":"東京都","city":"多摩市","address":"多摩市諏訪5-1諏訪複合教育施設内","lat":35.623512,"lon":139.45459},{"name":"多摩センター地域包括支援センター","province":"東京都","city":"多摩市","address":"多摩市山王下1-18-2","lat":35.625328,"lon":139.415207},{"name":"中部地域包括支援センター","province":"東京都","city":"多摩市","address":"多摩市永山4-2-5-105","lat":35.618931,"lon":139.444321},{"name":"北部地域包括支援センター","province":"東京都","city":"多摩市","address":"多摩市関戸4-19-5多摩市立健康センター3階","lat":35.648975,"lon":139.449585},{"name":"基幹型地域包括支援センター（多摩市健康福祉部高齢支援課内）","province":"東京都","city":"多摩市","address":"多摩市関戸6-12-1","lat":35.637653,"lon":139.447174},{"name":"多摩市消費生活センター","province":"東京都","city":"多摩市","address":"多摩市永山1-5ベルブ永山3階","lat":35.649658,"lon":139.444519},{"name":"聖蹟桜ヶ丘駅前","province":"東京都","city":"多摩市","address":"東京都多摩市関戸1丁目11-16","lat":35.65043832,"lon":139.44670028},{"name":"聖蹟桜ヶ丘駅前東","province":"東京都","city":"多摩市","address":"東京都多摩市関戸1丁目12-5","lat":35.65013562,"lon":139.44821959},{"name":"新大栗橋","province":"東京都","city":"多摩市","address":"東京都多摩市関戸4丁目10","lat":35.64784988,"lon":139.45292481},{"name":"宝蔵橋","province":"東京都","city":"多摩市","address":"東京都多摩市和田1760-4","lat":35.64854107,"lon":139.43706229},{"name":"諏訪下橋","province":"東京都","city":"多摩市","address":"東京都多摩市貝取1506","lat":35.63534013,"lon":139.44802291},{"name":"永山橋","province":"東京都","city":"多摩市","address":"東京都多摩市乞田1431","lat":35.63512344,"lon":139.4463064},{"name":"多摩消防署前","province":"東京都","city":"多摩市","address":"東京都多摩市永山1丁目2","lat":35.63254878,"lon":139.4473453},{"name":"多摩市役所前","province":"東京都","city":"多摩市","address":"東京都多摩市関戸6丁目13","lat":35.63723988,"lon":139.44764788},{"name":"多摩山王橋南","province":"東京都","city":"多摩市","address":"東京都多摩市落合1丁目9-1","lat":35.62532124,"lon":139.42357823},{"name":"多摩センター駅東","province":"東京都","city":"多摩市","address":"東京都多摩市落合1丁目39-2","lat":35.62459638,"lon":139.4256003},{"name":"多摩センター駅前","province":"東京都","city":"多摩市","address":"東京都多摩市落合1丁目39-1","lat":35.62484357,"lon":139.42555308},{"name":"東電多摩営業所前","province":"東京都","city":"多摩市","address":"東京都多摩市落合1丁目8-4","lat":35.62592121,"lon":139.4253225},{"name":"多摩南部地域病院","province":"東京都","city":"多摩市","address":"東京都多摩市中沢2丁目3-3","lat":35.62247975,"lon":139.41650948},{"name":"多摩中央警察署東","province":"東京都","city":"多摩市","address":"東京都多摩市落合1丁目","lat":35.62318834,"lon":139.43004441},{"name":"多摩保健所前","province":"東京都","city":"多摩市","address":"東京都多摩市永山5丁目5","lat":35.61893655,"lon":139.44431836},{"name":"多摩鶴牧二丁目","province":"東京都","city":"多摩市","address":"東京都多摩市鶴牧1丁目25-1","lat":35.62169382,"lon":139.42006478},{"name":"多摩鶴牧六丁目","province":"東京都","city":"多摩市","address":"東京都多摩市鶴牧6丁目5","lat":35.61383074,"lon":139.41356009},{"name":"多摩青木葉","province":"東京都","city":"多摩市","address":"東京都多摩市落合3丁目5-2","lat":35.62176632,"lon":139.43086662},{"name":"聖蹟桜ヶ丘駅東口","province":"東京都","city":"多摩市","address":"東京都多摩市関戸2丁目41-1","lat":35.65105496,"lon":139.4484001},{"name":"多摩桜の丘学園前","province":"東京都","city":"多摩市","address":"東京都多摩市聖ヶ丘2丁目23","lat":35.6313992,"lon":139.45668896},{"name":"聖ヶ丘一丁目","province":"東京都","city":"多摩市","address":"東京都多摩市聖ヶ丘1丁目","lat":35.63897034,"lon":139.4516308},{"name":"多摩市総合福祉センター前","province":"東京都","city":"多摩市","address":"東京都多摩市南野3丁目15","lat":35.6122226,"lon":139.41298243},{"name":"聖蹟桜ヶ丘駅西口","province":"東京都","city":"多摩市","address":"東京都多摩市関戸1丁目1-5","lat":35.65178259,"lon":139.44601416},{"name":"唐木田駅東","province":"東京都","city":"多摩市","address":"東京都多摩市鶴牧2丁目25-1","lat":35.61624987,"lon":139.41246008},{"name":"鶴牧中学校前","province":"東京都","city":"多摩市","address":"東京都多摩市鶴牧6丁目3","lat":35.61428908,"lon":139.41615986},{"name":"永山駅北","province":"東京都","city":"多摩市","address":"東京都多摩市永山1丁目8-17","lat":35.63195163,"lon":139.44723145},{"name":"熊野橋南","province":"東京都","city":"多摩市","address":"東京都多摩市聖ヶ丘1丁目9","lat":35.63859267,"lon":139.45387506},{"name":"落合浄水所","province":"東京都","city":"多摩市","address":"東京都多摩市中沢1丁目12","lat":35.62444889,"lon":139.41365963},{"name":"愛宕配水所","province":"東京都","city":"多摩市","address":"東京都多摩市愛宕2丁目51","lat":35.63483719,"lon":139.43953479},{"name":"南野給水所","province":"東京都","city":"多摩市","address":"東京都多摩市南野2丁目16","lat":35.60863738,"lon":139.43101436},{"name":"聖ヶ丘給水所","province":"東京都","city":"多摩市","address":"東京都多摩市聖ヶ丘4丁目1","lat":35.62952201,"lon":139.46372188},{"name":"西部地域包括支援センター","province":"東京都","city":"多摩市","address":"多摩市和田1532","lat":35.646027,"lon":139.430664},{"name":"東部地域包括支援センター","province":"東京都","city":"多摩市","address":"多摩市諏訪5-1諏訪複合教育施設内","lat":35.623512,"lon":139.45459},{"name":"多摩センター地域包括支援センター","province":"東京都","city":"多摩市","address":"多摩市山王下1-18-2","lat":35.625328,"lon":139.415207},{"name":"中部地域包括支援センター","province":"東京都","city":"多摩市","address":"多摩市永山4-2-5-105","lat":35.618931,"lon":139.444321},{"name":"北部地域包括支援センター","province":"東京都","city":"多摩市","address":"多摩市関戸4-19-5多摩市立健康センター3階","lat":35.648975,"lon":139.449585},{"name":"基幹型地域包括支援センター（多摩市健康福祉部高齢支援課内）","province":"東京都","city":"多摩市","address":"多摩市関戸6-12-1","lat":35.637653,"lon":139.447174},{"name":"多摩市消費生活センター","province":"東京都","city":"多摩市","address":"多摩市永山1-5ベルブ永山3階","lat":35.649658,"lon":139.444519},{"name":"聖蹟桜ヶ丘駅前","province":"東京都","city":"多摩市","address":"東京都多摩市関戸1丁目11-16","lat":35.65043832,"lon":139.44670028},{"name":"聖蹟桜ヶ丘駅前東","province":"東京都","city":"多摩市","address":"東京都多摩市関戸1丁目12-5","lat":35.65013562,"lon":139.44821959},{"name":"新大栗橋","province":"東京都","city":"多摩市","address":"東京都多摩市関戸4丁目10","lat":35.64784988,"lon":139.45292481},{"name":"宝蔵橋","province":"東京都","city":"多摩市","address":"東京都多摩市和田1760-4","lat":35.64854107,"lon":139.43706229},{"name":"諏訪下橋","province":"東京都","city":"多摩市","address":"東京都多摩市貝取1506","lat":35.63534013,"lon":139.44802291},{"name":"永山橋","province":"東京都","city":"多摩市","address":"東京都多摩市乞田1431","lat":35.63512344,"lon":139.4463064},{"name":"多摩消防署前","province":"東京都","city":"多摩市","address":"東京都多摩市永山1丁目2","lat":35.63254878,"lon":139.4473453},{"name":"多摩市役所前","province":"東京都","city":"多摩市","address":"東京都多摩市関戸6丁目13","lat":35.63723988,"lon":139.44764788},{"name":"多摩山王橋南","province":"東京都","city":"多摩市","address":"東京都多摩市落合1丁目9-1","lat":35.62532124,"lon":139.42357823},{"name":"多摩センター駅東","province":"東京都","city":"多摩市","address":"東京都多摩市落合1丁目39-2","lat":35.62459638,"lon":139.4256003},{"name":"多摩センター駅前","province":"東京都","city":"多摩市","address":"東京都多摩市落合1丁目39-1","lat":35.62484357,"lon":139.42555308},{"name":"東電多摩営業所前","province":"東京都","city":"多摩市","address":"東京都多摩市落合1丁目8-4","lat":35.62592121,"lon":139.4253225},{"name":"多摩南部地域病院","province":"東京都","city":"多摩市","address":"東京都多摩市中沢2丁目3-3","lat":35.62247975,"lon":139.41650948},{"name":"多摩中央警察署東","province":"東京都","city":"多摩市","address":"東京都多摩市落合1丁目","lat":35.62318834,"lon":139.43004441},{"name":"多摩保健所前","province":"東京都","city":"多摩市","address":"東京都多摩市永山5丁目5","lat":35.61893655,"lon":139.44431836},{"name":"多摩鶴牧二丁目","province":"東京都","city":"多摩市","address":"東京都多摩市鶴牧1丁目25-1","lat":35.62169382,"lon":139.42006478},{"name":"多摩鶴牧六丁目","province":"東京都","city":"多摩市","address":"東京都多摩市鶴牧6丁目5","lat":35.61383074,"lon":139.41356009},{"name":"多摩青木葉","province":"東京都","city":"多摩市","address":"東京都多摩市落合3丁目5-2","lat":35.62176632,"lon":139.43086662},{"name":"聖蹟桜ヶ丘駅東口","province":"東京都","city":"多摩市","address":"東京都多摩市関戸2丁目41-1","lat":35.65105496,"lon":139.4484001},{"name":"多摩桜の丘学園前","province":"東京都","city":"多摩市","address":"東京都多摩市聖ヶ丘2丁目23","lat":35.6313992,"lon":139.45668896},{"name":"聖ヶ丘一丁目","province":"東京都","city":"多摩市","address":"東京都多摩市聖ヶ丘1丁目","lat":35.63897034,"lon":139.4516308},{"name":"多摩市総合福祉センター前","province":"東京都","city":"多摩市","address":"東京都多摩市南野3丁目15","lat":35.6122226,"lon":139.41298243},{"name":"聖蹟桜ヶ丘駅西口","province":"東京都","city":"多摩市","address":"東京都多摩市関戸1丁目1-5","lat":35.65178259,"lon":139.44601416},{"name":"唐木田駅東","province":"東京都","city":"多摩市","address":"東京都多摩市鶴牧2丁目25-1","lat":35.61624987,"lon":139.41246008},{"name":"鶴牧中学校前","province":"東京都","city":"多摩市","address":"東京都多摩市鶴牧6丁目3","lat":35.61428908,"lon":139.41615986},{"name":"永山駅北","province":"東京都","city":"多摩市","address":"東京都多摩市永山1丁目8-17","lat":35.63195163,"lon":139.44723145},{"name":"熊野橋南","province":"東京都","city":"多摩市","address":"東京都多摩市聖ヶ丘1丁目9","lat":35.63859267,"lon":139.45387506},{"name":"落合浄水所","province":"東京都","city":"多摩市","address":"東京都多摩市中沢1丁目12","lat":35.62444889,"lon":139.41365963},{"name":"愛宕配水所","province":"東京都","city":"多摩市","address":"東京都多摩市愛宕2丁目51","lat":35.63483719,"lon":139.43953479},{"name":"南野給水所","province":"東京都","city":"多摩市","address":"東京都多摩市南野2丁目16","lat":35.60863738,"lon":139.43101436},{"name":"聖ヶ丘給水所","province":"東京都","city":"多摩市","address":"東京都多摩市聖ヶ丘4丁目1","lat":35.62952201,"lon":139.46372188},{"name":"西部地域包括支援センター","province":"東京都","city":"多摩市","address":"多摩市和田1532","lat":35.646027,"lon":139.430664},{"name":"東部地域包括支援センター","province":"東京都","city":"多摩市","address":"多摩市諏訪5-1諏訪複合教育施設内","lat":35.623512,"lon":139.45459},{"name":"多摩センター地域包括支援センター","province":"東京都","city":"多摩市","address":"多摩市山王下1-18-2","lat":35.625328,"lon":139.415207},{"name":"中部地域包括支援センター","province":"東京都","city":"多摩市","address":"多摩市永山4-2-5-105","lat":35.618931,"lon":139.444321},{"name":"北部地域包括支援センター","province":"東京都","city":"多摩市","address":"多摩市関戸4-19-5多摩市立健康センター3階","lat":35.648975,"lon":139.449585},{"name":"基幹型地域包括支援センター（多摩市健康福祉部高齢支援課内）","province":"東京都","city":"多摩市","address":"多摩市関戸6-12-1","lat":35.637653,"lon":139.447174},{"name":"多摩市消費生活センター","province":"東京都","city":"多摩市","address":"多摩市永山1-5ベルブ永山3階","lat":35.649658,"lon":139.444519},{"name":"西部地域包括支援センター","province":"東京都","city":"多摩市","address":"多摩市和田1532","lat":35.646027,"lon":139.430664},{"name":"東部地域包括支援センター","province":"東京都","city":"多摩市","address":"多摩市諏訪5-1諏訪複合教育施設内","lat":35.623512,"lon":139.45459},{"name":"多摩センター地域包括支援センター","province":"東京都","city":"多摩市","address":"多摩市山王下1-18-2","lat":35.625328,"lon":139.415207},{"name":"中部地域包括支援センター","province":"東京都","city":"多摩市","address":"多摩市永山4-2-5-105","lat":35.618931,"lon":139.444321},{"name":"北部地域包括支援センター","province":"東京都","city":"多摩市","address":"多摩市関戸4-19-5多摩市立健康センター3階","lat":35.648975,"lon":139.449585},{"name":"基幹型地域包括支援センター（多摩市健康福祉部高齢支援課内）","province":"東京都","city":"多摩市","address":"多摩市関戸6-12-1","lat":35.637653,"lon":139.447174},{"name":"多摩市消費生活センター","province":"東京都","city":"多摩市","address":"多摩市永山1-5ベルブ永山3階","lat":35.649658,"lon":139.444519},{"name":"西部地域包括支援センター","province":"東京都","city":"多摩市","address":"多摩市和田1532","lat":35.646027,"lon":139.430664},{"name":"東部地域包括支援センター","province":"東京都","city":"多摩市","address":"多摩市諏訪5-1諏訪複合教育施設内","lat":35.623512,"lon":139.45459},{"name":"多摩センター地域包括支援センター","province":"東京都","city":"多摩市","address":"多摩市山王下1-18-2","lat":35.625328,"lon":139.415207},{"name":"中部地域包括支援センター","province":"東京都","city":"多摩市","address":"多摩市永山4-2-5-105","lat":35.618931,"lon":139.444321},{"name":"北部地域包括支援センター","province":"東京都","city":"多摩市","address":"多摩市関戸4-19-5多摩市立健康センター3階","lat":35.648975,"lon":139.449585},{"name":"基幹型地域包括支援センター（多摩市健康福祉部高齢支援課内）","province":"東京都","city":"多摩市","address":"多摩市関戸6-12-1","lat":35.637653,"lon":139.447174},{"name":"多摩市消費生活センター","province":"東京都","city":"多摩市","address":"多摩市永山1-5ベルブ永山3階","lat":35.649658,"lon":139.444519},{"name":"西部地域包括支援センター","province":"東京都","city":"多摩市","address":"多摩市和田1532","lat":35.646027,"lon":139.430664},{"name":"東部地域包括支援センター","province":"東京都","city":"多摩市","address":"多摩市諏訪5-1諏訪複合教育施設内","lat":35.623512,"lon":139.45459},{"name":"多摩センター地域包括支援センター","province":"東京都","city":"多摩市","address":"多摩市山王下1-18-2","lat":35.625328,"lon":139.415207},{"name":"中部地域包括支援センター","province":"東京都","city":"多摩市","address":"多摩市永山4-2-5-105","lat":35.618931,"lon":139.444321},{"name":"北部地域包括支援センター","province":"東京都","city":"多摩市","address":"多摩市関戸4-19-5多摩市立健康センター3階","lat":35.648975,"lon":139.449585},{"name":"基幹型地域包括支援センター（多摩市健康福祉部高齢支援課内）","province":"東京都","city":"多摩市","address":"多摩市関戸6-12-1","lat":35.637653,"lon":139.447174},{"name":"多摩市消費生活センター","province":"東京都","city":"多摩市","address":"多摩市永山1-5ベルブ永山3階","lat":35.649658,"lon":139.444519},{"name":"西部地域包括支援センター","province":"東京都","city":"多摩市","address":"多摩市和田1532","lat":35.646027,"lon":139.430664},{"name":"東部地域包括支援センター","province":"東京都","city":"多摩市","address":"多摩市諏訪5-1諏訪複合教育施設内","lat":35.623512,"lon":139.45459},{"name":"多摩センター地域包括支援センター","province":"東京都","city":"多摩市","address":"多摩市山王下1-18-2","lat":35.625328,"lon":139.415207},{"name":"中部地域包括支援センター","province":"東京都","city":"多摩市","address":"多摩市永山4-2-5-105","lat":35.618931,"lon":139.444321},{"name":"北部地域包括支援センター","province":"東京都","city":"多摩市","address":"多摩市関戸4-19-5多摩市立健康センター3階","lat":35.648975,"lon":139.449585},{"name":"基幹型地域包括支援センター（多摩市健康福祉部高齢支援課内）","province":"東京都","city":"多摩市","address":"多摩市関戸6-12-1","lat":35.637653,"lon":139.447174},{"name":"多摩市消費生活センター","province":"東京都","city":"多摩市","address":"多摩市永山1-5ベルブ永山3階","lat":35.649658,"lon":139.444519},{"name":"西部地域包括支援センター","province":"東京都","city":"多摩市","address":"多摩市和田1532","lat":35.646027,"lon":139.430664},{"name":"東部地域包括支援センター","province":"東京都","city":"多摩市","address":"多摩市諏訪5-1諏訪複合教育施設内","lat":35.623512,"lon":139.45459},{"name":"多摩センター地域包括支援センター","province":"東京都","city":"多摩市","address":"多摩市山王下1-18-2","lat":35.625328,"lon":139.415207},{"name":"中部地域包括支援センター","province":"東京都","city":"多摩市","address":"多摩市永山4-2-5-105","lat":35.618931,"lon":139.444321},{"name":"北部地域包括支援センター","province":"東京都","city":"多摩市","address":"多摩市関戸4-19-5多摩市立健康センター3階","lat":35.648975,"lon":139.449585},{"name":"基幹型地域包括支援センター（多摩市健康福祉部高齢支援課内）","province":"東京都","city":"多摩市","address":"多摩市関戸6-12-1","lat":35.637653,"lon":139.447174},{"name":"多摩市消費生活センター","province":"東京都","city":"多摩市","address":"多摩市永山1-5ベルブ永山3階","lat":35.649658,"lon":139.444519},{"name":"西部地域包括支援センター","province":"東京都","city":"多摩市","address":"多摩市和田1532","lat":35.646027,"lon":139.430664},{"name":"東部地域包括支援センター","province":"東京都","city":"多摩市","address":"多摩市諏訪5-1諏訪複合教育施設内","lat":35.623512,"lon":139.45459},{"name":"多摩センター地域包括支援センター","province":"東京都","city":"多摩市","address":"多摩市山王下1-18-2","lat":35.625328,"lon":139.415207},{"name":"中部地域包括支援センター","province":"東京都","city":"多摩市","address":"多摩市永山4-2-5-105","lat":35.618931,"lon":139.444321},{"name":"北部地域包括支援センター","province":"東京都","city":"多摩市","address":"多摩市関戸4-19-5多摩市立健康センター3階","lat":35.648975,"lon":139.449585},{"name":"基幹型地域包括支援センター（多摩市健康福祉部高齢支援課内）","province":"東京都","city":"多摩市","address":"多摩市関戸6-12-1","lat":35.637653,"lon":139.447174},{"name":"多摩市消費生活センター","province":"東京都","city":"多摩市","address":"多摩市永山1-5ベルブ永山3階","lat":35.649658,"lon":139.444519},{"name":"西部地域包括支援センター","province":"東京都","city":"多摩市","address":"多摩市和田1532","lat":35.646027,"lon":139.430664},{"name":"東部地域包括支援センター","province":"東京都","city":"多摩市","address":"多摩市諏訪5-1諏訪複合教育施設内","lat":35.623512,"lon":139.45459},{"name":"多摩センター地域包括支援センター","province":"東京都","city":"多摩市","address":"多摩市山王下1-18-2","lat":35.625328,"lon":139.415207},{"name":"中部地域包括支援センター","province":"東京都","city":"多摩市","address":"多摩市永山4-2-5-105","lat":35.618931,"lon":139.444321},{"name":"北部地域包括支援センター","province":"東京都","city":"多摩市","address":"多摩市関戸4-19-5多摩市立健康センター3階","lat":35.648975,"lon":139.449585},{"name":"基幹型地域包括支援センター（多摩市健康福祉部高齢支援課内）","province":"東京都","city":"多摩市","address":"多摩市関戸6-12-1","lat":35.637653,"lon":139.447174},{"name":"多摩市消費生活センター","province":"東京都","city":"多摩市","address":"多摩市永山1-5ベルブ永山3階","lat":35.649658,"lon":139.444519},{"name":"西部地域包括支援センター","province":"東京都","city":"多摩市","address":"多摩市和田1532","lat":35.646027,"lon":139.430664},{"name":"東部地域包括支援センター","province":"東京都","city":"多摩市","address":"多摩市諏訪5-1諏訪複合教育施設内","lat":35.623512,"lon":139.45459},{"name":"多摩センター地域包括支援センター","province":"東京都","city":"多摩市","address":"多摩市山王下1-18-2","lat":35.625328,"lon":139.415207},{"name":"中部地域包括支援センター","province":"東京都","city":"多摩市","address":"多摩市永山4-2-5-105","lat":35.618931,"lon":139.444321},{"name":"北部地域包括支援センター","province":"東京都","city":"多摩市","address":"多摩市関戸4-19-5多摩市立健康センター3階","lat":35.648975,"lon":139.449585},{"name":"基幹型地域包括支援センター（多摩市健康福祉部高齢支援課内）","province":"東京都","city":"多摩市","address":"多摩市関戸6-12-1","lat":35.637653,"lon":139.447174},{"name":"多摩市消費生活センター","province":"東京都","city":"多摩市","address":"多摩市永山1-5ベルブ永山3階","lat":35.649658,"lon":139.444519},{"name":"西部地域包括支援センター","province":"東京都","city":"多摩市","address":"多摩市和田1532","lat":35.646027,"lon":139.430664},{"name":"東部地域包括支援センター","province":"東京都","city":"多摩市","address":"多摩市諏訪5-1諏訪複合教育施設内","lat":35.623512,"lon":139.45459},{"name":"多摩センター地域包括支援センター","province":"東京都","city":"多摩市","address":"多摩市山王下1-18-2","lat":35.625328,"lon":139.415207},{"name":"中部地域包括支援センター","province":"東京都","city":"多摩市","address":"多摩市永山4-2-5-105","lat":35.618931,"lon":139.444321},{"name":"北部地域包括支援センター","province":"東京都","city":"多摩市","address":"多摩市関戸4-19-5多摩市立健康センター3階","lat":35.648975,"lon":139.449585},{"name":"基幹型地域包括支援センター（多摩市健康福祉部高齢支援課内）","province":"東京都","city":"多摩市","address":"多摩市関戸6-12-1","lat":35.637653,"lon":139.447174},{"name":"多摩市消費生活センター","province":"東京都","city":"多摩市","address":"多摩市永山1-5ベルブ永山3階","lat":35.649658,"lon":139.444519},{"name":"西部地域包括支援センター","province":"東京都","city":"多摩市","address":"多摩市和田1532","lat":35.646027,"lon":139.430664},{"name":"東部地域包括支援センター","province":"東京都","city":"多摩市","address":"多摩市諏訪5-1諏訪複合教育施設内","lat":35.623512,"lon":139.45459},{"name":"多摩センター地域包括支援センター","province":"東京都","city":"多摩市","address":"多摩市山王下1-18-2","lat":35.625328,"lon":139.415207},{"name":"中部地域包括支援センター","province":"東京都","city":"多摩市","address":"多摩市永山4-2-5-105","lat":35.618931,"lon":139.444321},{"name":"北部地域包括支援センター","province":"東京都","city":"多摩市","address":"多摩市関戸4-19-5多摩市立健康センター3階","lat":35.648975,"lon":139.449585},{"name":"基幹型地域包括支援センター（多摩市健康福祉部高齢支援課内）","province":"東京都","city":"多摩市","address":"多摩市関戸6-12-1","lat":35.637653,"lon":139.447174},{"name":"多摩市消費生活センター","province":"東京都","city":"多摩市","address":"多摩市永山1-5ベルブ永山3階","lat":35.649658,"lon":139.444519},{"name":"西部地域包括支援センター","province":"東京都","city":"多摩市","address":"多摩市和田1532","lat":35.646027,"lon":139.430664},{"name":"東部地域包括支援センター","province":"東京都","city":"多摩市","address":"多摩市諏訪5-1諏訪複合教育施設内","lat":35.623512,"lon":139.45459},{"name":"多摩センター地域包括支援センター","province":"東京都","city":"多摩市","address":"多摩市山王下1-18-2","lat":35.625328,"lon":139.415207},{"name":"中部地域包括支援センター","province":"東京都","city":"多摩市","address":"多摩市永山4-2-5-105","lat":35.618931,"lon":139.444321},{"name":"北部地域包括支援センター","province":"東京都","city":"多摩市","address":"多摩市関戸4-19-5多摩市立健康センター3階","lat":35.648975,"lon":139.449585},{"name":"基幹型地域包括支援センター（多摩市健康福祉部高齢支援課内）","province":"東京都","city":"多摩市","address":"多摩市関戸6-12-1","lat":35.637653,"lon":139.447174},{"name":"多摩市消費生活センター","province":"東京都","city":"多摩市","address":"多摩市永山1-5ベルブ永山3階","lat":35.649658,"lon":139.444519},{"name":"西部地域包括支援センター","province":"東京都","city":"多摩市","address":"多摩市和田1532","lat":35.646027,"lon":139.430664},{"name":"東部地域包括支援センター","province":"東京都","city":"多摩市","address":"多摩市諏訪5-1諏訪複合教育施設内","lat":35.623512,"lon":139.45459},{"name":"多摩センター地域包括支援センター","province":"東京都","city":"多摩市","address":"多摩市山王下1-18-2","lat":35.625328,"lon":139.415207},{"name":"中部地域包括支援センター","province":"東京都","city":"多摩市","address":"多摩市永山4-2-5-105","lat":35.618931,"lon":139.444321},{"name":"北部地域包括支援センター","province":"東京都","city":"多摩市","address":"多摩市関戸4-19-5多摩市立健康センター3階","lat":35.648975,"lon":139.449585},{"name":"基幹型地域包括支援センター（多摩市健康福祉部高齢支援課内）","province":"東京都","city":"多摩市","address":"多摩市関戸6-12-1","lat":35.637653,"lon":139.447174},{"name":"多摩市消費生活センター","province":"東京都","city":"多摩市","address":"多摩市永山1-5ベルブ永山3階","lat":35.649658,"lon":139.444519}]}