{"keyword":"自転車","data":[{"name":"聖蹟桜ヶ丘駅西駐輪場","province":"東京都","city":"多摩市","address":"東京都多摩市一ノ宮2丁目11-25","lat":35.65081325,"lon":139.44558647},{"name":"京王永山駅駐輪場","province":"東京都","city":"多摩市","address":"東京都多摩市永山1丁目18-1","lat":35.63037685,"lon":139.4481481},{"name":"オダクル駐輪場","province":"東京都","city":"多摩市","address":"東京都多摩市永山1丁目18-1","lat":35.63037685,"lon":139.4481481},{"name":"永山駅駐輪場","province":"東京都","city":"多摩市","address":"東京都多摩市永山1丁目5","lat":35.62834655,"lon":139.44841481},{"name":"多摩センター駅東駐輪場","province":"東京都","city":"多摩市","address":"東京都多摩市落合1丁目12-7","lat":35.62620178,"lon":139.42691957},{"name":"多摩センター駅西駐輪場","province":"東京都","city":"多摩市","address":"東京都多摩市鶴牧1丁目19-2","lat":35.62394635,"lon":139.42110905},{"name":"北諏訪小南駐輪場","province":"東京都","city":"多摩市","address":"東京都多摩市諏訪2丁目13","lat":35.62899373,"lon":139.44982578},{"name":"多摩センター駅南駐輪場","province":"東京都","city":"多摩市","address":"東京都多摩市落合1丁目46-1","lat":35.62243274,"lon":139.42487823},{"name":"プラザ永山駐輪場","province":"東京都","city":"多摩市","address":"東京都多摩市永山1丁目3-3","lat":35.63123783,"lon":139.44736202}]}