{"keyword":"財団","data":[{"name":"KEIO BIZ PLAZA 多摩センター","province":"東京都","city":"多摩市","address":"東京都多摩市落合1丁目10-1","lat":35.62536014,"lon":139.42422261},{"name":"関戸公民館","province":"東京都","city":"多摩市","address":"多摩市関戸4-72","lat":35.649825,"lon":139.446818},{"name":"永山公民館","province":"東京都","city":"多摩市","address":"多摩市永山1-5","lat":35.628308,"lon":139.448407},{"name":"唐木田コミュニティセンター（からきだ菖蒲館）","province":"東京都","city":"多摩市","address":"多摩市鶴牧6-14","lat":35.615405,"lon":139.413274},{"name":"桜ヶ丘コミュニティセンター（ゆう桜ヶ丘）","province":"東京都","city":"多摩市","address":"多摩市桜ヶ丘1-17-7","lat":35.639911,"lon":139.44649},{"name":"乞田・貝取コミュニティセンター（乞田・貝取ふれあい館）","province":"東京都","city":"多摩市","address":"多摩市乞田810","lat":35.630901,"lon":139.434555},{"name":"愛宕コミュニティセンター（愛宕かえで館）","province":"東京都","city":"多摩市","address":"多摩市愛宕3-2","lat":35.633543,"lon":139.434482},{"name":"東寺方図書館","province":"東京都","city":"多摩市","address":"多摩市東寺方626-7","lat":35.643261,"lon":139.437713},{"name":"豊ヶ丘図書館","province":"東京都","city":"多摩市","address":"多摩市豊ヶ丘5-6","lat":35.614618,"lon":139.434865},{"name":"関戸図書館","province":"東京都","city":"多摩市","address":"多摩市関戸1-1-5","lat":35.651829,"lon":139.44592},{"name":"永山図書館","province":"東京都","city":"多摩市","address":"多摩市永山1-5","lat":35.628308,"lon":139.448237},{"name":"唐木田図書館","province":"東京都","city":"多摩市","address":"多摩市鶴牧6-14","lat":35.615407,"lon":139.413357},{"name":"総合体育館","province":"東京都","city":"多摩市","address":"多摩市東寺方588-1","lat":35.643555,"lon":139.436244},{"name":"KEIO BIZ PLAZA 多摩センター","province":"東京都","city":"多摩市","address":"東京都多摩市落合1丁目10-1","lat":35.62536014,"lon":139.42422261},{"name":"関戸公民館","province":"東京都","city":"多摩市","address":"多摩市関戸4-72","lat":35.649825,"lon":139.446818},{"name":"永山公民館","province":"東京都","city":"多摩市","address":"多摩市永山1-5","lat":35.628308,"lon":139.448407},{"name":"唐木田コミュニティセンター（からきだ菖蒲館）","province":"東京都","city":"多摩市","address":"多摩市鶴牧6-14","lat":35.615405,"lon":139.413274},{"name":"桜ヶ丘コミュニティセンター（ゆう桜ヶ丘）","province":"東京都","city":"多摩市","address":"多摩市桜ヶ丘1-17-7","lat":35.639911,"lon":139.44649},{"name":"乞田・貝取コミュニティセンター（乞田・貝取ふれあい館）","province":"東京都","city":"多摩市","address":"多摩市乞田810","lat":35.630901,"lon":139.434555},{"name":"愛宕コミュニティセンター（愛宕かえで館）","province":"東京都","city":"多摩市","address":"多摩市愛宕3-2","lat":35.633543,"lon":139.434482},{"name":"東寺方図書館","province":"東京都","city":"多摩市","address":"多摩市東寺方626-7","lat":35.643261,"lon":139.437713},{"name":"豊ヶ丘図書館","province":"東京都","city":"多摩市","address":"多摩市豊ヶ丘5-6","lat":35.614618,"lon":139.434865},{"name":"関戸図書館","province":"東京都","city":"多摩市","address":"多摩市関戸1-1-5","lat":35.651829,"lon":139.44592},{"name":"永山図書館","province":"東京都","city":"多摩市","address":"多摩市永山1-5","lat":35.628308,"lon":139.448237},{"name":"唐木田図書館","province":"東京都","city":"多摩市","address":"多摩市鶴牧6-14","lat":35.615407,"lon":139.413357},{"name":"総合体育館","province":"東京都","city":"多摩市","address":"多摩市東寺方588-1","lat":35.643555,"lon":139.436244},{"name":"KEIO BIZ PLAZA 多摩センター","province":"東京都","city":"多摩市","address":"東京都多摩市落合1丁目10-1","lat":35.62536014,"lon":139.42422261},{"name":"関戸公民館","province":"東京都","city":"多摩市","address":"多摩市関戸4-72","lat":35.649825,"lon":139.446818},{"name":"永山公民館","province":"東京都","city":"多摩市","address":"多摩市永山1-5","lat":35.628308,"lon":139.448407},{"name":"唐木田コミュニティセンター（からきだ菖蒲館）","province":"東京都","city":"多摩市","address":"多摩市鶴牧6-14","lat":35.615405,"lon":139.413274},{"name":"桜ヶ丘コミュニティセンター（ゆう桜ヶ丘）","province":"東京都","city":"多摩市","address":"多摩市桜ヶ丘1-17-7","lat":35.639911,"lon":139.44649},{"name":"乞田・貝取コミュニティセンター（乞田・貝取ふれあい館）","province":"東京都","city":"多摩市","address":"多摩市乞田810","lat":35.630901,"lon":139.434555},{"name":"愛宕コミュニティセンター（愛宕かえで館）","province":"東京都","city":"多摩市","address":"多摩市愛宕3-2","lat":35.633543,"lon":139.434482},{"name":"東寺方図書館","province":"東京都","city":"多摩市","address":"多摩市東寺方626-7","lat":35.643261,"lon":139.437713},{"name":"豊ヶ丘図書館","province":"東京都","city":"多摩市","address":"多摩市豊ヶ丘5-6","lat":35.614618,"lon":139.434865},{"name":"関戸図書館","province":"東京都","city":"多摩市","address":"多摩市関戸1-1-5","lat":35.651829,"lon":139.44592},{"name":"永山図書館","province":"東京都","city":"多摩市","address":"多摩市永山1-5","lat":35.628308,"lon":139.448237},{"name":"唐木田図書館","province":"東京都","city":"多摩市","address":"多摩市鶴牧6-14","lat":35.615407,"lon":139.413357},{"name":"総合体育館","province":"東京都","city":"多摩市","address":"多摩市東寺方588-1","lat":35.643555,"lon":139.436244},{"name":"KEIO BIZ PLAZA 多摩センター","province":"東京都","city":"多摩市","address":"東京都多摩市落合1丁目10-1","lat":35.62536014,"lon":139.42422261},{"name":"関戸公民館","province":"東京都","city":"多摩市","address":"多摩市関戸4-72","lat":35.649825,"lon":139.446818},{"name":"永山公民館","province":"東京都","city":"多摩市","address":"多摩市永山1-5","lat":35.628308,"lon":139.448407},{"name":"唐木田コミュニティセンター（からきだ菖蒲館）","province":"東京都","city":"多摩市","address":"多摩市鶴牧6-14","lat":35.615405,"lon":139.413274},{"name":"桜ヶ丘コミュニティセンター（ゆう桜ヶ丘）","province":"東京都","city":"多摩市","address":"多摩市桜ヶ丘1-17-7","lat":35.639911,"lon":139.44649},{"name":"乞田・貝取コミュニティセンター（乞田・貝取ふれあい館）","province":"東京都","city":"多摩市","address":"多摩市乞田810","lat":35.630901,"lon":139.434555},{"name":"愛宕コミュニティセンター（愛宕かえで館）","province":"東京都","city":"多摩市","address":"多摩市愛宕3-2","lat":35.633543,"lon":139.434482},{"name":"東寺方図書館","province":"東京都","city":"多摩市","address":"多摩市東寺方626-7","lat":35.643261,"lon":139.437713},{"name":"豊ヶ丘図書館","province":"東京都","city":"多摩市","address":"多摩市豊ヶ丘5-6","lat":35.614618,"lon":139.434865},{"name":"関戸図書館","province":"東京都","city":"多摩市","address":"多摩市関戸1-1-5","lat":35.651829,"lon":139.44592},{"name":"永山図書館","province":"東京都","city":"多摩市","address":"多摩市永山1-5","lat":35.628308,"lon":139.448237},{"name":"唐木田図書館","province":"東京都","city":"多摩市","address":"多摩市鶴牧6-14","lat":35.615407,"lon":139.413357},{"name":"総合体育館","province":"東京都","city":"多摩市","address":"多摩市東寺方588-1","lat":35.643555,"lon":139.436244},{"name":"関戸公民館","province":"東京都","city":"多摩市","address":"多摩市関戸4-72","lat":35.649825,"lon":139.446818},{"name":"永山公民館","province":"東京都","city":"多摩市","address":"多摩市永山1-5","lat":35.628308,"lon":139.448407},{"name":"唐木田コミュニティセンター（からきだ菖蒲館）","province":"東京都","city":"多摩市","address":"多摩市鶴牧6-14","lat":35.615405,"lon":139.413274},{"name":"桜ヶ丘コミュニティセンター（ゆう桜ヶ丘）","province":"東京都","city":"多摩市","address":"多摩市桜ヶ丘1-17-7","lat":35.639911,"lon":139.44649},{"name":"乞田・貝取コミュニティセンター（乞田・貝取ふれあい館）","province":"東京都","city":"多摩市","address":"多摩市乞田810","lat":35.630901,"lon":139.434555},{"name":"愛宕コミュニティセンター（愛宕かえで館）","province":"東京都","city":"多摩市","address":"多摩市愛宕3-2","lat":35.633543,"lon":139.434482},{"name":"東寺方図書館","province":"東京都","city":"多摩市","address":"多摩市東寺方626-7","lat":35.643261,"lon":139.437713},{"name":"豊ヶ丘図書館","province":"東京都","city":"多摩市","address":"多摩市豊ヶ丘5-6","lat":35.614618,"lon":139.434865},{"name":"関戸図書館","province":"東京都","city":"多摩市","address":"多摩市関戸1-1-5","lat":35.651829,"lon":139.44592},{"name":"永山図書館","province":"東京都","city":"多摩市","address":"多摩市永山1-5","lat":35.628308,"lon":139.448237},{"name":"唐木田図書館","province":"東京都","city":"多摩市","address":"多摩市鶴牧6-14","lat":35.615407,"lon":139.413357},{"name":"総合体育館","province":"東京都","city":"多摩市","address":"多摩市東寺方588-1","lat":35.643555,"lon":139.436244},{"name":"関戸公民館","province":"東京都","city":"多摩市","address":"多摩市関戸4-72","lat":35.649825,"lon":139.446818},{"name":"永山公民館","province":"東京都","city":"多摩市","address":"多摩市永山1-5","lat":35.628308,"lon":139.448407},{"name":"唐木田コミュニティセンター（からきだ菖蒲館）","province":"東京都","city":"多摩市","address":"多摩市鶴牧6-14","lat":35.615405,"lon":139.413274},{"name":"桜ヶ丘コミュニティセンター（ゆう桜ヶ丘）","province":"東京都","city":"多摩市","address":"多摩市桜ヶ丘1-17-7","lat":35.639911,"lon":139.44649},{"name":"乞田・貝取コミュニティセンター（乞田・貝取ふれあい館）","province":"東京都","city":"多摩市","address":"多摩市乞田810","lat":35.630901,"lon":139.434555},{"name":"愛宕コミュニティセンター（愛宕かえで館）","province":"東京都","city":"多摩市","address":"多摩市愛宕3-2","lat":35.633543,"lon":139.434482},{"name":"東寺方図書館","province":"東京都","city":"多摩市","address":"多摩市東寺方626-7","lat":35.643261,"lon":139.437713},{"name":"豊ヶ丘図書館","province":"東京都","city":"多摩市","address":"多摩市豊ヶ丘5-6","lat":35.614618,"lon":139.434865},{"name":"関戸図書館","province":"東京都","city":"多摩市","address":"多摩市関戸1-1-5","lat":35.651829,"lon":139.44592},{"name":"永山図書館","province":"東京都","city":"多摩市","address":"多摩市永山1-5","lat":35.628308,"lon":139.448237},{"name":"唐木田図書館","province":"東京都","city":"多摩市","address":"多摩市鶴牧6-14","lat":35.615407,"lon":139.413357},{"name":"総合体育館","province":"東京都","city":"多摩市","address":"多摩市東寺方588-1","lat":35.643555,"lon":139.436244},{"name":"関戸公民館","province":"東京都","city":"多摩市","address":"多摩市関戸4-72","lat":35.649825,"lon":139.446818},{"name":"永山公民館","province":"東京都","city":"多摩市","address":"多摩市永山1-5","lat":35.628308,"lon":139.448407},{"name":"唐木田コミュニティセンター（からきだ菖蒲館）","province":"東京都","city":"多摩市","address":"多摩市鶴牧6-14","lat":35.615405,"lon":139.413274},{"name":"桜ヶ丘コミュニティセンター（ゆう桜ヶ丘）","province":"東京都","city":"多摩市","address":"多摩市桜ヶ丘1-17-7","lat":35.639911,"lon":139.44649},{"name":"乞田・貝取コミュニティセンター（乞田・貝取ふれあい館）","province":"東京都","city":"多摩市","address":"多摩市乞田810","lat":35.630901,"lon":139.434555},{"name":"愛宕コミュニティセンター（愛宕かえで館）","province":"東京都","city":"多摩市","address":"多摩市愛宕3-2","lat":35.633543,"lon":139.434482},{"name":"東寺方図書館","province":"東京都","city":"多摩市","address":"多摩市東寺方626-7","lat":35.643261,"lon":139.437713},{"name":"豊ヶ丘図書館","province":"東京都","city":"多摩市","address":"多摩市豊ヶ丘5-6","lat":35.614618,"lon":139.434865},{"name":"関戸図書館","province":"東京都","city":"多摩市","address":"多摩市関戸1-1-5","lat":35.651829,"lon":139.44592},{"name":"永山図書館","province":"東京都","city":"多摩市","address":"多摩市永山1-5","lat":35.628308,"lon":139.448237},{"name":"唐木田図書館","province":"東京都","city":"多摩市","address":"多摩市鶴牧6-14","lat":35.615407,"lon":139.413357},{"name":"総合体育館","province":"東京都","city":"多摩市","address":"多摩市東寺方588-1","lat":35.643555,"lon":139.436244},{"name":"関戸公民館","province":"東京都","city":"多摩市","address":"多摩市関戸4-72","lat":35.649825,"lon":139.446818},{"name":"永山公民館","province":"東京都","city":"多摩市","address":"多摩市永山1-5","lat":35.628308,"lon":139.448407},{"name":"唐木田コミュニティセンター（からきだ菖蒲館）","province":"東京都","city":"多摩市","address":"多摩市鶴牧6-14","lat":35.615405,"lon":139.413274},{"name":"桜ヶ丘コミュニティセンター（ゆう桜ヶ丘）","province":"東京都","city":"多摩市","address":"多摩市桜ヶ丘1-17-7","lat":35.639911,"lon":139.44649},{"name":"乞田・貝取コミュニティセンター（乞田・貝取ふれあい館）","province":"東京都","city":"多摩市","address":"多摩市乞田810","lat":35.630901,"lon":139.434555},{"name":"愛宕コミュニティセンター（愛宕かえで館）","province":"東京都","city":"多摩市","address":"多摩市愛宕3-2","lat":35.633543,"lon":139.434482},{"name":"東寺方図書館","province":"東京都","city":"多摩市","address":"多摩市東寺方626-7","lat":35.643261,"lon":139.437713},{"name":"豊ヶ丘図書館","province":"東京都","city":"多摩市","address":"多摩市豊ヶ丘5-6","lat":35.614618,"lon":139.434865},{"name":"関戸図書館","province":"東京都","city":"多摩市","address":"多摩市関戸1-1-5","lat":35.651829,"lon":139.44592},{"name":"永山図書館","province":"東京都","city":"多摩市","address":"多摩市永山1-5","lat":35.628308,"lon":139.448237},{"name":"唐木田図書館","province":"東京都","city":"多摩市","address":"多摩市鶴牧6-14","lat":35.615407,"lon":139.413357},{"name":"総合体育館","province":"東京都","city":"多摩市","address":"多摩市東寺方588-1","lat":35.643555,"lon":139.436244},{"name":"関戸公民館","province":"東京都","city":"多摩市","address":"多摩市関戸4-72","lat":35.649825,"lon":139.446818},{"name":"永山公民館","province":"東京都","city":"多摩市","address":"多摩市永山1-5","lat":35.628308,"lon":139.448407},{"name":"唐木田コミュニティセンター（からきだ菖蒲館）","province":"東京都","city":"多摩市","address":"多摩市鶴牧6-14","lat":35.615405,"lon":139.413274},{"name":"桜ヶ丘コミュニティセンター（ゆう桜ヶ丘）","province":"東京都","city":"多摩市","address":"多摩市桜ヶ丘1-17-7","lat":35.639911,"lon":139.44649},{"name":"乞田・貝取コミュニティセンター（乞田・貝取ふれあい館）","province":"東京都","city":"多摩市","address":"多摩市乞田810","lat":35.630901,"lon":139.434555},{"name":"愛宕コミュニティセンター（愛宕かえで館）","province":"東京都","city":"多摩市","address":"多摩市愛宕3-2","lat":35.633543,"lon":139.434482},{"name":"東寺方図書館","province":"東京都","city":"多摩市","address":"多摩市東寺方626-7","lat":35.643261,"lon":139.437713},{"name":"豊ヶ丘図書館","province":"東京都","city":"多摩市","address":"多摩市豊ヶ丘5-6","lat":35.614618,"lon":139.434865},{"name":"関戸図書館","province":"東京都","city":"多摩市","address":"多摩市関戸1-1-5","lat":35.651829,"lon":139.44592},{"name":"永山図書館","province":"東京都","city":"多摩市","address":"多摩市永山1-5","lat":35.628308,"lon":139.448237},{"name":"唐木田図書館","province":"東京都","city":"多摩市","address":"多摩市鶴牧6-14","lat":35.615407,"lon":139.413357},{"name":"総合体育館","province":"東京都","city":"多摩市","address":"多摩市東寺方588-1","lat":35.643555,"lon":139.436244},{"name":"関戸公民館","province":"東京都","city":"多摩市","address":"多摩市関戸4-72","lat":35.649825,"lon":139.446818},{"name":"永山公民館","province":"東京都","city":"多摩市","address":"多摩市永山1-5","lat":35.628308,"lon":139.448407},{"name":"唐木田コミュニティセンター（からきだ菖蒲館）","province":"東京都","city":"多摩市","address":"多摩市鶴牧6-14","lat":35.615405,"lon":139.413274},{"name":"桜ヶ丘コミュニティセンター（ゆう桜ヶ丘）","province":"東京都","city":"多摩市","address":"多摩市桜ヶ丘1-17-7","lat":35.639911,"lon":139.44649},{"name":"乞田・貝取コミュニティセンター（乞田・貝取ふれあい館）","province":"東京都","city":"多摩市","address":"多摩市乞田810","lat":35.630901,"lon":139.434555},{"name":"愛宕コミュニティセンター（愛宕かえで館）","province":"東京都","city":"多摩市","address":"多摩市愛宕3-2","lat":35.633543,"lon":139.434482},{"name":"東寺方図書館","province":"東京都","city":"多摩市","address":"多摩市東寺方626-7","lat":35.643261,"lon":139.437713},{"name":"豊ヶ丘図書館","province":"東京都","city":"多摩市","address":"多摩市豊ヶ丘5-6","lat":35.614618,"lon":139.434865},{"name":"関戸図書館","province":"東京都","city":"多摩市","address":"多摩市関戸1-1-5","lat":35.651829,"lon":139.44592},{"name":"永山図書館","province":"東京都","city":"多摩市","address":"多摩市永山1-5","lat":35.628308,"lon":139.448237},{"name":"唐木田図書館","province":"東京都","city":"多摩市","address":"多摩市鶴牧6-14","lat":35.615407,"lon":139.413357},{"name":"総合体育館","province":"東京都","city":"多摩市","address":"多摩市東寺方588-1","lat":35.643555,"lon":139.436244},{"name":"関戸公民館","province":"東京都","city":"多摩市","address":"多摩市関戸4-72","lat":35.649825,"lon":139.446818},{"name":"永山公民館","province":"東京都","city":"多摩市","address":"多摩市永山1-5","lat":35.628308,"lon":139.448407},{"name":"唐木田コミュニティセンター（からきだ菖蒲館）","province":"東京都","city":"多摩市","address":"多摩市鶴牧6-14","lat":35.615405,"lon":139.413274},{"name":"桜ヶ丘コミュニティセンター（ゆう桜ヶ丘）","province":"東京都","city":"多摩市","address":"多摩市桜ヶ丘1-17-7","lat":35.639911,"lon":139.44649},{"name":"乞田・貝取コミュニティセンター（乞田・貝取ふれあい館）","province":"東京都","city":"多摩市","address":"多摩市乞田810","lat":35.630901,"lon":139.434555},{"name":"愛宕コミュニティセンター（愛宕かえで館）","province":"東京都","city":"多摩市","address":"多摩市愛宕3-2","lat":35.633543,"lon":139.434482},{"name":"東寺方図書館","province":"東京都","city":"多摩市","address":"多摩市東寺方626-7","lat":35.643261,"lon":139.437713},{"name":"豊ヶ丘図書館","province":"東京都","city":"多摩市","address":"多摩市豊ヶ丘5-6","lat":35.614618,"lon":139.434865},{"name":"関戸図書館","province":"東京都","city":"多摩市","address":"多摩市関戸1-1-5","lat":35.651829,"lon":139.44592},{"name":"永山図書館","province":"東京都","city":"多摩市","address":"多摩市永山1-5","lat":35.628308,"lon":139.448237},{"name":"唐木田図書館","province":"東京都","city":"多摩市","address":"多摩市鶴牧6-14","lat":35.615407,"lon":139.413357},{"name":"総合体育館","province":"東京都","city":"多摩市","address":"多摩市東寺方588-1","lat":35.643555,"lon":139.436244},{"name":"関戸公民館","province":"東京都","city":"多摩市","address":"多摩市関戸4-72","lat":35.649825,"lon":139.446818},{"name":"永山公民館","province":"東京都","city":"多摩市","address":"多摩市永山1-5","lat":35.628308,"lon":139.448407},{"name":"唐木田コミュニティセンター（からきだ菖蒲館）","province":"東京都","city":"多摩市","address":"多摩市鶴牧6-14","lat":35.615405,"lon":139.413274},{"name":"桜ヶ丘コミュニティセンター（ゆう桜ヶ丘）","province":"東京都","city":"多摩市","address":"多摩市桜ヶ丘1-17-7","lat":35.639911,"lon":139.44649},{"name":"乞田・貝取コミュニティセンター（乞田・貝取ふれあい館）","province":"東京都","city":"多摩市","address":"多摩市乞田810","lat":35.630901,"lon":139.434555},{"name":"愛宕コミュニティセンター（愛宕かえで館）","province":"東京都","city":"多摩市","address":"多摩市愛宕3-2","lat":35.633543,"lon":139.434482},{"name":"東寺方図書館","province":"東京都","city":"多摩市","address":"多摩市東寺方626-7","lat":35.643261,"lon":139.437713},{"name":"豊ヶ丘図書館","province":"東京都","city":"多摩市","address":"多摩市豊ヶ丘5-6","lat":35.614618,"lon":139.434865},{"name":"関戸図書館","province":"東京都","city":"多摩市","address":"多摩市関戸1-1-5","lat":35.651829,"lon":139.44592},{"name":"永山図書館","province":"東京都","city":"多摩市","address":"多摩市永山1-5","lat":35.628308,"lon":139.448237},{"name":"唐木田図書館","province":"東京都","city":"多摩市","address":"多摩市鶴牧6-14","lat":35.615407,"lon":139.413357},{"name":"総合体育館","province":"東京都","city":"多摩市","address":"多摩市東寺方588-1","lat":35.643555,"lon":139.436244},{"name":"関戸公民館","province":"東京都","city":"多摩市","address":"多摩市関戸4-72","lat":35.649825,"lon":139.446818},{"name":"永山公民館","province":"東京都","city":"多摩市","address":"多摩市永山1-5","lat":35.628308,"lon":139.448407},{"name":"唐木田コミュニティセンター（からきだ菖蒲館）","province":"東京都","city":"多摩市","address":"多摩市鶴牧6-14","lat":35.615405,"lon":139.413274},{"name":"桜ヶ丘コミュニティセンター（ゆう桜ヶ丘）","province":"東京都","city":"多摩市","address":"多摩市桜ヶ丘1-17-7","lat":35.639911,"lon":139.44649},{"name":"乞田・貝取コミュニティセンター（乞田・貝取ふれあい館）","province":"東京都","city":"多摩市","address":"多摩市乞田810","lat":35.630901,"lon":139.434555},{"name":"愛宕コミュニティセンター（愛宕かえで館）","province":"東京都","city":"多摩市","address":"多摩市愛宕3-2","lat":35.633543,"lon":139.434482},{"name":"東寺方図書館","province":"東京都","city":"多摩市","address":"多摩市東寺方626-7","lat":35.643261,"lon":139.437713},{"name":"豊ヶ丘図書館","province":"東京都","city":"多摩市","address":"多摩市豊ヶ丘5-6","lat":35.614618,"lon":139.434865},{"name":"関戸図書館","province":"東京都","city":"多摩市","address":"多摩市関戸1-1-5","lat":35.651829,"lon":139.44592},{"name":"永山図書館","province":"東京都","city":"多摩市","address":"多摩市永山1-5","lat":35.628308,"lon":139.448237},{"name":"唐木田図書館","province":"東京都","city":"多摩市","address":"多摩市鶴牧6-14","lat":35.615407,"lon":139.413357},{"name":"総合体育館","province":"東京都","city":"多摩市","address":"多摩市東寺方588-1","lat":35.643555,"lon":139.436244},{"name":"関戸公民館","province":"東京都","city":"多摩市","address":"多摩市関戸4-72","lat":35.649825,"lon":139.446818},{"name":"永山公民館","province":"東京都","city":"多摩市","address":"多摩市永山1-5","lat":35.628308,"lon":139.448407},{"name":"唐木田コミュニティセンター（からきだ菖蒲館）","province":"東京都","city":"多摩市","address":"多摩市鶴牧6-14","lat":35.615405,"lon":139.413274},{"name":"桜ヶ丘コミュニティセンター（ゆう桜ヶ丘）","province":"東京都","city":"多摩市","address":"多摩市桜ヶ丘1-17-7","lat":35.639911,"lon":139.44649},{"name":"乞田・貝取コミュニティセンター（乞田・貝取ふれあい館）","province":"東京都","city":"多摩市","address":"多摩市乞田810","lat":35.630901,"lon":139.434555},{"name":"愛宕コミュニティセンター（愛宕かえで館）","province":"東京都","city":"多摩市","address":"多摩市愛宕3-2","lat":35.633543,"lon":139.434482},{"name":"東寺方図書館","province":"東京都","city":"多摩市","address":"多摩市東寺方626-7","lat":35.643261,"lon":139.437713},{"name":"豊ヶ丘図書館","province":"東京都","city":"多摩市","address":"多摩市豊ヶ丘5-6","lat":35.614618,"lon":139.434865},{"name":"関戸図書館","province":"東京都","city":"多摩市","address":"多摩市関戸1-1-5","lat":35.651829,"lon":139.44592},{"name":"永山図書館","province":"東京都","city":"多摩市","address":"多摩市永山1-5","lat":35.628308,"lon":139.448237},{"name":"唐木田図書館","province":"東京都","city":"多摩市","address":"多摩市鶴牧6-14","lat":35.615407,"lon":139.413357},{"name":"総合体育館","province":"東京都","city":"多摩市","address":"多摩市東寺方588-1","lat":35.643555,"lon":139.436244},{"name":"関戸公民館","province":"東京都","city":"多摩市","address":"多摩市関戸4-72","lat":35.649825,"lon":139.446818},{"name":"永山公民館","province":"東京都","city":"多摩市","address":"多摩市永山1-5","lat":35.628308,"lon":139.448407},{"name":"唐木田コミュニティセンター（からきだ菖蒲館）","province":"東京都","city":"多摩市","address":"多摩市鶴牧6-14","lat":35.615405,"lon":139.413274},{"name":"桜ヶ丘コミュニティセンター（ゆう桜ヶ丘）","province":"東京都","city":"多摩市","address":"多摩市桜ヶ丘1-17-7","lat":35.639911,"lon":139.44649},{"name":"乞田・貝取コミュニティセンター（乞田・貝取ふれあい館）","province":"東京都","city":"多摩市","address":"多摩市乞田810","lat":35.630901,"lon":139.434555},{"name":"愛宕コミュニティセンター（愛宕かえで館）","province":"東京都","city":"多摩市","address":"多摩市愛宕3-2","lat":35.633543,"lon":139.434482},{"name":"東寺方図書館","province":"東京都","city":"多摩市","address":"多摩市東寺方626-7","lat":35.643261,"lon":139.437713},{"name":"豊ヶ丘図書館","province":"東京都","city":"多摩市","address":"多摩市豊ヶ丘5-6","lat":35.614618,"lon":139.434865},{"name":"関戸図書館","province":"東京都","city":"多摩市","address":"多摩市関戸1-1-5","lat":35.651829,"lon":139.44592},{"name":"永山図書館","province":"東京都","city":"多摩市","address":"多摩市永山1-5","lat":35.628308,"lon":139.448237},{"name":"唐木田図書館","province":"東京都","city":"多摩市","address":"多摩市鶴牧6-14","lat":35.615407,"lon":139.413357},{"name":"総合体育館","province":"東京都","city":"多摩市","address":"多摩市東寺方588-1","lat":35.643555,"lon":139.436244},{"name":"関戸公民館","province":"東京都","city":"多摩市","address":"多摩市関戸4-72","lat":35.649825,"lon":139.446818},{"name":"永山公民館","province":"東京都","city":"多摩市","address":"多摩市永山1-5","lat":35.628308,"lon":139.448407},{"name":"唐木田コミュニティセンター（からきだ菖蒲館）","province":"東京都","city":"多摩市","address":"多摩市鶴牧6-14","lat":35.615405,"lon":139.413274},{"name":"桜ヶ丘コミュニティセンター（ゆう桜ヶ丘）","province":"東京都","city":"多摩市","address":"多摩市桜ヶ丘1-17-7","lat":35.639911,"lon":139.44649},{"name":"乞田・貝取コミュニティセンター（乞田・貝取ふれあい館）","province":"東京都","city":"多摩市","address":"多摩市乞田810","lat":35.630901,"lon":139.434555},{"name":"愛宕コミュニティセンター（愛宕かえで館）","province":"東京都","city":"多摩市","address":"多摩市愛宕3-2","lat":35.633543,"lon":139.434482},{"name":"東寺方図書館","province":"東京都","city":"多摩市","address":"多摩市東寺方626-7","lat":35.643261,"lon":139.437713},{"name":"豊ヶ丘図書館","province":"東京都","city":"多摩市","address":"多摩市豊ヶ丘5-6","lat":35.614618,"lon":139.434865},{"name":"関戸図書館","province":"東京都","city":"多摩市","address":"多摩市関戸1-1-5","lat":35.651829,"lon":139.44592},{"name":"永山図書館","province":"東京都","city":"多摩市","address":"多摩市永山1-5","lat":35.628308,"lon":139.448237},{"name":"唐木田図書館","province":"東京都","city":"多摩市","address":"多摩市鶴牧6-14","lat":35.615407,"lon":139.413357},{"name":"総合体育館","province":"東京都","city":"多摩市","address":"多摩市東寺方588-1","lat":35.643555,"lon":139.436244},{"name":"関戸公民館","province":"東京都","city":"多摩市","address":"多摩市関戸4-72","lat":35.649825,"lon":139.446818},{"name":"永山公民館","province":"東京都","city":"多摩市","address":"多摩市永山1-5","lat":35.628308,"lon":139.448407},{"name":"唐木田コミュニティセンター（からきだ菖蒲館）","province":"東京都","city":"多摩市","address":"多摩市鶴牧6-14","lat":35.615405,"lon":139.413274},{"name":"桜ヶ丘コミュニティセンター（ゆう桜ヶ丘）","province":"東京都","city":"多摩市","address":"多摩市桜ヶ丘1-17-7","lat":35.639911,"lon":139.44649},{"name":"乞田・貝取コミュニティセンター（乞田・貝取ふれあい館）","province":"東京都","city":"多摩市","address":"多摩市乞田810","lat":35.630901,"lon":139.434555},{"name":"愛宕コミュニティセンター（愛宕かえで館）","province":"東京都","city":"多摩市","address":"多摩市愛宕3-2","lat":35.633543,"lon":139.434482},{"name":"東寺方図書館","province":"東京都","city":"多摩市","address":"多摩市東寺方626-7","lat":35.643261,"lon":139.437713},{"name":"豊ヶ丘図書館","province":"東京都","city":"多摩市","address":"多摩市豊ヶ丘5-6","lat":35.614618,"lon":139.434865},{"name":"関戸図書館","province":"東京都","city":"多摩市","address":"多摩市関戸1-1-5","lat":35.651829,"lon":139.44592},{"name":"永山図書館","province":"東京都","city":"多摩市","address":"多摩市永山1-5","lat":35.628308,"lon":139.448237},{"name":"唐木田図書館","province":"東京都","city":"多摩市","address":"多摩市鶴牧6-14","lat":35.615407,"lon":139.413357},{"name":"総合体育館","province":"東京都","city":"多摩市","address":"多摩市東寺方588-1","lat":35.643555,"lon":139.436244},{"name":"関戸公民館","province":"東京都","city":"多摩市","address":"多摩市関戸4-72","lat":35.649825,"lon":139.446818},{"name":"永山公民館","province":"東京都","city":"多摩市","address":"多摩市永山1-5","lat":35.628308,"lon":139.448407},{"name":"唐木田コミュニティセンター（からきだ菖蒲館）","province":"東京都","city":"多摩市","address":"多摩市鶴牧6-14","lat":35.615405,"lon":139.413274},{"name":"桜ヶ丘コミュニティセンター（ゆう桜ヶ丘）","province":"東京都","city":"多摩市","address":"多摩市桜ヶ丘1-17-7","lat":35.639911,"lon":139.44649},{"name":"乞田・貝取コミュニティセンター（乞田・貝取ふれあい館）","province":"東京都","city":"多摩市","address":"多摩市乞田810","lat":35.630901,"lon":139.434555},{"name":"愛宕コミュニティセンター（愛宕かえで館）","province":"東京都","city":"多摩市","address":"多摩市愛宕3-2","lat":35.633543,"lon":139.434482},{"name":"東寺方図書館","province":"東京都","city":"多摩市","address":"多摩市東寺方626-7","lat":35.643261,"lon":139.437713},{"name":"豊ヶ丘図書館","province":"東京都","city":"多摩市","address":"多摩市豊ヶ丘5-6","lat":35.614618,"lon":139.434865},{"name":"関戸図書館","province":"東京都","city":"多摩市","address":"多摩市関戸1-1-5","lat":35.651829,"lon":139.44592},{"name":"永山図書館","province":"東京都","city":"多摩市","address":"多摩市永山1-5","lat":35.628308,"lon":139.448237},{"name":"唐木田図書館","province":"東京都","city":"多摩市","address":"多摩市鶴牧6-14","lat":35.615407,"lon":139.413357},{"name":"総合体育館","province":"東京都","city":"多摩市","address":"多摩市東寺方588-1","lat":35.643555,"lon":139.436244},{"name":"関戸公民館","province":"東京都","city":"多摩市","address":"多摩市関戸4-72","lat":35.649825,"lon":139.446818},{"name":"永山公民館","province":"東京都","city":"多摩市","address":"多摩市永山1-5","lat":35.628308,"lon":139.448407},{"name":"唐木田コミュニティセンター（からきだ菖蒲館）","province":"東京都","city":"多摩市","address":"多摩市鶴牧6-14","lat":35.615405,"lon":139.413274},{"name":"桜ヶ丘コミュニティセンター（ゆう桜ヶ丘）","province":"東京都","city":"多摩市","address":"多摩市桜ヶ丘1-17-7","lat":35.639911,"lon":139.44649},{"name":"乞田・貝取コミュニティセンター（乞田・貝取ふれあい館）","province":"東京都","city":"多摩市","address":"多摩市乞田810","lat":35.630901,"lon":139.434555},{"name":"愛宕コミュニティセンター（愛宕かえで館）","province":"東京都","city":"多摩市","address":"多摩市愛宕3-2","lat":35.633543,"lon":139.434482},{"name":"東寺方図書館","province":"東京都","city":"多摩市","address":"多摩市東寺方626-7","lat":35.643261,"lon":139.437713},{"name":"豊ヶ丘図書館","province":"東京都","city":"多摩市","address":"多摩市豊ヶ丘5-6","lat":35.614618,"lon":139.434865},{"name":"関戸図書館","province":"東京都","city":"多摩市","address":"多摩市関戸1-1-5","lat":35.651829,"lon":139.44592},{"name":"永山図書館","province":"東京都","city":"多摩市","address":"多摩市永山1-5","lat":35.628308,"lon":139.448237},{"name":"唐木田図書館","province":"東京都","city":"多摩市","address":"多摩市鶴牧6-14","lat":35.615407,"lon":139.413357},{"name":"総合体育館","province":"東京都","city":"多摩市","address":"多摩市東寺方588-1","lat":35.643555,"lon":139.436244},{"name":"関戸公民館","province":"東京都","city":"多摩市","address":"多摩市関戸4-72","lat":35.649825,"lon":139.446818},{"name":"永山公民館","province":"東京都","city":"多摩市","address":"多摩市永山1-5","lat":35.628308,"lon":139.448407},{"name":"唐木田コミュニティセンター（からきだ菖蒲館）","province":"東京都","city":"多摩市","address":"多摩市鶴牧6-14","lat":35.615405,"lon":139.413274},{"name":"桜ヶ丘コミュニティセンター（ゆう桜ヶ丘）","province":"東京都","city":"多摩市","address":"多摩市桜ヶ丘1-17-7","lat":35.639911,"lon":139.44649},{"name":"乞田・貝取コミュニティセンター（乞田・貝取ふれあい館）","province":"東京都","city":"多摩市","address":"多摩市乞田810","lat":35.630901,"lon":139.434555},{"name":"愛宕コミュニティセンター（愛宕かえで館）","province":"東京都","city":"多摩市","address":"多摩市愛宕3-2","lat":35.633543,"lon":139.434482},{"name":"東寺方図書館","province":"東京都","city":"多摩市","address":"多摩市東寺方626-7","lat":35.643261,"lon":139.437713},{"name":"豊ヶ丘図書館","province":"東京都","city":"多摩市","address":"多摩市豊ヶ丘5-6","lat":35.614618,"lon":139.434865},{"name":"関戸図書館","province":"東京都","city":"多摩市","address":"多摩市関戸1-1-5","lat":35.651829,"lon":139.44592},{"name":"永山図書館","province":"東京都","city":"多摩市","address":"多摩市永山1-5","lat":35.628308,"lon":139.448237},{"name":"唐木田図書館","province":"東京都","city":"多摩市","address":"多摩市鶴牧6-14","lat":35.615407,"lon":139.413357},{"name":"総合体育館","province":"東京都","city":"多摩市","address":"多摩市東寺方588-1","lat":35.643555,"lon":139.436244},{"name":"関戸公民館","province":"東京都","city":"多摩市","address":"多摩市関戸4-72","lat":35.649825,"lon":139.446818},{"name":"永山公民館","province":"東京都","city":"多摩市","address":"多摩市永山1-5","lat":35.628308,"lon":139.448407},{"name":"唐木田コミュニティセンター（からきだ菖蒲館）","province":"東京都","city":"多摩市","address":"多摩市鶴牧6-14","lat":35.615405,"lon":139.413274},{"name":"桜ヶ丘コミュニティセンター（ゆう桜ヶ丘）","province":"東京都","city":"多摩市","address":"多摩市桜ヶ丘1-17-7","lat":35.639911,"lon":139.44649},{"name":"乞田・貝取コミュニティセンター（乞田・貝取ふれあい館）","province":"東京都","city":"多摩市","address":"多摩市乞田810","lat":35.630901,"lon":139.434555},{"name":"愛宕コミュニティセンター（愛宕かえで館）","province":"東京都","city":"多摩市","address":"多摩市愛宕3-2","lat":35.633543,"lon":139.434482},{"name":"東寺方図書館","province":"東京都","city":"多摩市","address":"多摩市東寺方626-7","lat":35.643261,"lon":139.437713},{"name":"豊ヶ丘図書館","province":"東京都","city":"多摩市","address":"多摩市豊ヶ丘5-6","lat":35.614618,"lon":139.434865},{"name":"関戸図書館","province":"東京都","city":"多摩市","address":"多摩市関戸1-1-5","lat":35.651829,"lon":139.44592},{"name":"永山図書館","province":"東京都","city":"多摩市","address":"多摩市永山1-5","lat":35.628308,"lon":139.448237},{"name":"唐木田図書館","province":"東京都","city":"多摩市","address":"多摩市鶴牧6-14","lat":35.615407,"lon":139.413357},{"name":"総合体育館","province":"東京都","city":"多摩市","address":"多摩市東寺方588-1","lat":35.643555,"lon":139.436244},{"name":"関戸公民館","province":"東京都","city":"多摩市","address":"多摩市関戸4-72","lat":35.649825,"lon":139.446818},{"name":"永山公民館","province":"東京都","city":"多摩市","address":"多摩市永山1-5","lat":35.628308,"lon":139.448407},{"name":"唐木田コミュニティセンター（からきだ菖蒲館）","province":"東京都","city":"多摩市","address":"多摩市鶴牧6-14","lat":35.615405,"lon":139.413274},{"name":"桜ヶ丘コミュニティセンター（ゆう桜ヶ丘）","province":"東京都","city":"多摩市","address":"多摩市桜ヶ丘1-17-7","lat":35.639911,"lon":139.44649},{"name":"乞田・貝取コミュニティセンター（乞田・貝取ふれあい館）","province":"東京都","city":"多摩市","address":"多摩市乞田810","lat":35.630901,"lon":139.434555},{"name":"愛宕コミュニティセンター（愛宕かえで館）","province":"東京都","city":"多摩市","address":"多摩市愛宕3-2","lat":35.633543,"lon":139.434482},{"name":"東寺方図書館","province":"東京都","city":"多摩市","address":"多摩市東寺方626-7","lat":35.643261,"lon":139.437713},{"name":"豊ヶ丘図書館","province":"東京都","city":"多摩市","address":"多摩市豊ヶ丘5-6","lat":35.614618,"lon":139.434865},{"name":"関戸図書館","province":"東京都","city":"多摩市","address":"多摩市関戸1-1-5","lat":35.651829,"lon":139.44592},{"name":"永山図書館","province":"東京都","city":"多摩市","address":"多摩市永山1-5","lat":35.628308,"lon":139.448237},{"name":"唐木田図書館","province":"東京都","city":"多摩市","address":"多摩市鶴牧6-14","lat":35.615407,"lon":139.413357},{"name":"総合体育館","province":"東京都","city":"多摩市","address":"多摩市東寺方588-1","lat":35.643555,"lon":139.436244},{"name":"関戸公民館","province":"東京都","city":"多摩市","address":"多摩市関戸4-72","lat":35.649825,"lon":139.446818},{"name":"永山公民館","province":"東京都","city":"多摩市","address":"多摩市永山1-5","lat":35.628308,"lon":139.448407},{"name":"唐木田コミュニティセンター（からきだ菖蒲館）","province":"東京都","city":"多摩市","address":"多摩市鶴牧6-14","lat":35.615405,"lon":139.413274},{"name":"桜ヶ丘コミュニティセンター（ゆう桜ヶ丘）","province":"東京都","city":"多摩市","address":"多摩市桜ヶ丘1-17-7","lat":35.639911,"lon":139.44649},{"name":"乞田・貝取コミュニティセンター（乞田・貝取ふれあい館）","province":"東京都","city":"多摩市","address":"多摩市乞田810","lat":35.630901,"lon":139.434555},{"name":"愛宕コミュニティセンター（愛宕かえで館）","province":"東京都","city":"多摩市","address":"多摩市愛宕3-2","lat":35.633543,"lon":139.434482},{"name":"東寺方図書館","province":"東京都","city":"多摩市","address":"多摩市東寺方626-7","lat":35.643261,"lon":139.437713},{"name":"豊ヶ丘図書館","province":"東京都","city":"多摩市","address":"多摩市豊ヶ丘5-6","lat":35.614618,"lon":139.434865},{"name":"関戸図書館","province":"東京都","city":"多摩市","address":"多摩市関戸1-1-5","lat":35.651829,"lon":139.44592},{"name":"永山図書館","province":"東京都","city":"多摩市","address":"多摩市永山1-5","lat":35.628308,"lon":139.448237},{"name":"唐木田図書館","province":"東京都","city":"多摩市","address":"多摩市鶴牧6-14","lat":35.615407,"lon":139.413357},{"name":"総合体育館","province":"東京都","city":"多摩市","address":"多摩市東寺方588-1","lat":35.643555,"lon":139.436244},{"name":"関戸公民館","province":"東京都","city":"多摩市","address":"多摩市関戸4-72","lat":35.649825,"lon":139.446818},{"name":"永山公民館","province":"東京都","city":"多摩市","address":"多摩市永山1-5","lat":35.628308,"lon":139.448407},{"name":"唐木田コミュニティセンター（からきだ菖蒲館）","province":"東京都","city":"多摩市","address":"多摩市鶴牧6-14","lat":35.615405,"lon":139.413274},{"name":"桜ヶ丘コミュニティセンター（ゆう桜ヶ丘）","province":"東京都","city":"多摩市","address":"多摩市桜ヶ丘1-17-7","lat":35.639911,"lon":139.44649},{"name":"乞田・貝取コミュニティセンター（乞田・貝取ふれあい館）","province":"東京都","city":"多摩市","address":"多摩市乞田810","lat":35.630901,"lon":139.434555},{"name":"愛宕コミュニティセンター（愛宕かえで館）","province":"東京都","city":"多摩市","address":"多摩市愛宕3-2","lat":35.633543,"lon":139.434482},{"name":"東寺方図書館","province":"東京都","city":"多摩市","address":"多摩市東寺方626-7","lat":35.643261,"lon":139.437713},{"name":"豊ヶ丘図書館","province":"東京都","city":"多摩市","address":"多摩市豊ヶ丘5-6","lat":35.614618,"lon":139.434865},{"name":"関戸図書館","province":"東京都","city":"多摩市","address":"多摩市関戸1-1-5","lat":35.651829,"lon":139.44592},{"name":"永山図書館","province":"東京都","city":"多摩市","address":"多摩市永山1-5","lat":35.628308,"lon":139.448237},{"name":"唐木田図書館","province":"東京都","city":"多摩市","address":"多摩市鶴牧6-14","lat":35.615407,"lon":139.413357},{"name":"総合体育館","province":"東京都","city":"多摩市","address":"多摩市東寺方588-1","lat":35.643555,"lon":139.436244},{"name":"関戸公民館","province":"東京都","city":"多摩市","address":"多摩市関戸4-72","lat":35.649825,"lon":139.446818},{"name":"永山公民館","province":"東京都","city":"多摩市","address":"多摩市永山1-5","lat":35.628308,"lon":139.448407},{"name":"唐木田コミュニティセンター（からきだ菖蒲館）","province":"東京都","city":"多摩市","address":"多摩市鶴牧6-14","lat":35.615405,"lon":139.413274},{"name":"桜ヶ丘コミュニティセンター（ゆう桜ヶ丘）","province":"東京都","city":"多摩市","address":"多摩市桜ヶ丘1-17-7","lat":35.639911,"lon":139.44649},{"name":"乞田・貝取コミュニティセンター（乞田・貝取ふれあい館）","province":"東京都","city":"多摩市","address":"多摩市乞田810","lat":35.630901,"lon":139.434555},{"name":"愛宕コミュニティセンター（愛宕かえで館）","province":"東京都","city":"多摩市","address":"多摩市愛宕3-2","lat":35.633543,"lon":139.434482},{"name":"東寺方図書館","province":"東京都","city":"多摩市","address":"多摩市東寺方626-7","lat":35.643261,"lon":139.437713},{"name":"豊ヶ丘図書館","province":"東京都","city":"多摩市","address":"多摩市豊ヶ丘5-6","lat":35.614618,"lon":139.434865},{"name":"関戸図書館","province":"東京都","city":"多摩市","address":"多摩市関戸1-1-5","lat":35.651829,"lon":139.44592},{"name":"永山図書館","province":"東京都","city":"多摩市","address":"多摩市永山1-5","lat":35.628308,"lon":139.448237},{"name":"唐木田図書館","province":"東京都","city":"多摩市","address":"多摩市鶴牧6-14","lat":35.615407,"lon":139.413357},{"name":"総合体育館","province":"東京都","city":"多摩市","address":"多摩市東寺方588-1","lat":35.643555,"lon":139.436244},{"name":"関戸公民館","province":"東京都","city":"多摩市","address":"多摩市関戸4-72","lat":35.649825,"lon":139.446818},{"name":"永山公民館","province":"東京都","city":"多摩市","address":"多摩市永山1-5","lat":35.628308,"lon":139.448407},{"name":"唐木田コミュニティセンター（からきだ菖蒲館）","province":"東京都","city":"多摩市","address":"多摩市鶴牧6-14","lat":35.615405,"lon":139.413274},{"name":"桜ヶ丘コミュニティセンター（ゆう桜ヶ丘）","province":"東京都","city":"多摩市","address":"多摩市桜ヶ丘1-17-7","lat":35.639911,"lon":139.44649},{"name":"乞田・貝取コミュニティセンター（乞田・貝取ふれあい館）","province":"東京都","city":"多摩市","address":"多摩市乞田810","lat":35.630901,"lon":139.434555},{"name":"愛宕コミュニティセンター（愛宕かえで館）","province":"東京都","city":"多摩市","address":"多摩市愛宕3-2","lat":35.633543,"lon":139.434482},{"name":"東寺方図書館","province":"東京都","city":"多摩市","address":"多摩市東寺方626-7","lat":35.643261,"lon":139.437713},{"name":"豊ヶ丘図書館","province":"東京都","city":"多摩市","address":"多摩市豊ヶ丘5-6","lat":35.614618,"lon":139.434865},{"name":"関戸図書館","province":"東京都","city":"多摩市","address":"多摩市関戸1-1-5","lat":35.651829,"lon":139.44592},{"name":"永山図書館","province":"東京都","city":"多摩市","address":"多摩市永山1-5","lat":35.628308,"lon":139.448237},{"name":"唐木田図書館","province":"東京都","city":"多摩市","address":"多摩市鶴牧6-14","lat":35.615407,"lon":139.413357},{"name":"総合体育館","province":"東京都","city":"多摩市","address":"多摩市東寺方588-1","lat":35.643555,"lon":139.436244},{"name":"関戸公民館","province":"東京都","city":"多摩市","address":"多摩市関戸4-72","lat":35.649825,"lon":139.446818},{"name":"永山公民館","province":"東京都","city":"多摩市","address":"多摩市永山1-5","lat":35.628308,"lon":139.448407},{"name":"唐木田コミュニティセンター（からきだ菖蒲館）","province":"東京都","city":"多摩市","address":"多摩市鶴牧6-14","lat":35.615405,"lon":139.413274},{"name":"桜ヶ丘コミュニティセンター（ゆう桜ヶ丘）","province":"東京都","city":"多摩市","address":"多摩市桜ヶ丘1-17-7","lat":35.639911,"lon":139.44649},{"name":"乞田・貝取コミュニティセンター（乞田・貝取ふれあい館）","province":"東京都","city":"多摩市","address":"多摩市乞田810","lat":35.630901,"lon":139.434555},{"name":"愛宕コミュニティセンター（愛宕かえで館）","province":"東京都","city":"多摩市","address":"多摩市愛宕3-2","lat":35.633543,"lon":139.434482},{"name":"東寺方図書館","province":"東京都","city":"多摩市","address":"多摩市東寺方626-7","lat":35.643261,"lon":139.437713},{"name":"豊ヶ丘図書館","province":"東京都","city":"多摩市","address":"多摩市豊ヶ丘5-6","lat":35.614618,"lon":139.434865},{"name":"関戸図書館","province":"東京都","city":"多摩市","address":"多摩市関戸1-1-5","lat":35.651829,"lon":139.44592},{"name":"永山図書館","province":"東京都","city":"多摩市","address":"多摩市永山1-5","lat":35.628308,"lon":139.448237},{"name":"唐木田図書館","province":"東京都","city":"多摩市","address":"多摩市鶴牧6-14","lat":35.615407,"lon":139.413357},{"name":"総合体育館","province":"東京都","city":"多摩市","address":"多摩市東寺方588-1","lat":35.643555,"lon":139.436244},{"name":"関戸公民館","province":"東京都","city":"多摩市","address":"多摩市関戸4-72","lat":35.649825,"lon":139.446818},{"name":"永山公民館","province":"東京都","city":"多摩市","address":"多摩市永山1-5","lat":35.628308,"lon":139.448407},{"name":"唐木田コミュニティセンター（からきだ菖蒲館）","province":"東京都","city":"多摩市","address":"多摩市鶴牧6-14","lat":35.615405,"lon":139.413274},{"name":"桜ヶ丘コミュニティセンター（ゆう桜ヶ丘）","province":"東京都","city":"多摩市","address":"多摩市桜ヶ丘1-17-7","lat":35.639911,"lon":139.44649},{"name":"乞田・貝取コミュニティセンター（乞田・貝取ふれあい館）","province":"東京都","city":"多摩市","address":"多摩市乞田810","lat":35.630901,"lon":139.434555},{"name":"愛宕コミュニティセンター（愛宕かえで館）","province":"東京都","city":"多摩市","address":"多摩市愛宕3-2","lat":35.633543,"lon":139.434482},{"name":"東寺方図書館","province":"東京都","city":"多摩市","address":"多摩市東寺方626-7","lat":35.643261,"lon":139.437713},{"name":"豊ヶ丘図書館","province":"東京都","city":"多摩市","address":"多摩市豊ヶ丘5-6","lat":35.614618,"lon":139.434865},{"name":"関戸図書館","province":"東京都","city":"多摩市","address":"多摩市関戸1-1-5","lat":35.651829,"lon":139.44592},{"name":"永山図書館","province":"東京都","city":"多摩市","address":"多摩市永山1-5","lat":35.628308,"lon":139.448237},{"name":"唐木田図書館","province":"東京都","city":"多摩市","address":"多摩市鶴牧6-14","lat":35.615407,"lon":139.413357},{"name":"総合体育館","province":"東京都","city":"多摩市","address":"多摩市東寺方588-1","lat":35.643555,"lon":139.436244},{"name":"関戸公民館","province":"東京都","city":"多摩市","address":"多摩市関戸4-72","lat":35.649825,"lon":139.446818},{"name":"永山公民館","province":"東京都","city":"多摩市","address":"多摩市永山1-5","lat":35.628308,"lon":139.448407},{"name":"唐木田コミュニティセンター（からきだ菖蒲館）","province":"東京都","city":"多摩市","address":"多摩市鶴牧6-14","lat":35.615405,"lon":139.413274},{"name":"桜ヶ丘コミュニティセンター（ゆう桜ヶ丘）","province":"東京都","city":"多摩市","address":"多摩市桜ヶ丘1-17-7","lat":35.639911,"lon":139.44649},{"name":"乞田・貝取コミュニティセンター（乞田・貝取ふれあい館）","province":"東京都","city":"多摩市","address":"多摩市乞田810","lat":35.630901,"lon":139.434555},{"name":"愛宕コミュニティセンター（愛宕かえで館）","province":"東京都","city":"多摩市","address":"多摩市愛宕3-2","lat":35.633543,"lon":139.434482},{"name":"東寺方図書館","province":"東京都","city":"多摩市","address":"多摩市東寺方626-7","lat":35.643261,"lon":139.437713},{"name":"豊ヶ丘図書館","province":"東京都","city":"多摩市","address":"多摩市豊ヶ丘5-6","lat":35.614618,"lon":139.434865},{"name":"関戸図書館","province":"東京都","city":"多摩市","address":"多摩市関戸1-1-5","lat":35.651829,"lon":139.44592},{"name":"永山図書館","province":"東京都","city":"多摩市","address":"多摩市永山1-5","lat":35.628308,"lon":139.448237},{"name":"唐木田図書館","province":"東京都","city":"多摩市","address":"多摩市鶴牧6-14","lat":35.615407,"lon":139.413357},{"name":"総合体育館","province":"東京都","city":"多摩市","address":"多摩市東寺方588-1","lat":35.643555,"lon":139.436244},{"name":"関戸公民館","province":"東京都","city":"多摩市","address":"多摩市関戸4-72","lat":35.649825,"lon":139.446818},{"name":"永山公民館","province":"東京都","city":"多摩市","address":"多摩市永山1-5","lat":35.628308,"lon":139.448407},{"name":"唐木田コミュニティセンター（からきだ菖蒲館）","province":"東京都","city":"多摩市","address":"多摩市鶴牧6-14","lat":35.615405,"lon":139.413274},{"name":"桜ヶ丘コミュニティセンター（ゆう桜ヶ丘）","province":"東京都","city":"多摩市","address":"多摩市桜ヶ丘1-17-7","lat":35.639911,"lon":139.44649},{"name":"乞田・貝取コミュニティセンター（乞田・貝取ふれあい館）","province":"東京都","city":"多摩市","address":"多摩市乞田810","lat":35.630901,"lon":139.434555},{"name":"愛宕コミュニティセンター（愛宕かえで館）","province":"東京都","city":"多摩市","address":"多摩市愛宕3-2","lat":35.633543,"lon":139.434482},{"name":"東寺方図書館","province":"東京都","city":"多摩市","address":"多摩市東寺方626-7","lat":35.643261,"lon":139.437713},{"name":"豊ヶ丘図書館","province":"東京都","city":"多摩市","address":"多摩市豊ヶ丘5-6","lat":35.614618,"lon":139.434865},{"name":"関戸図書館","province":"東京都","city":"多摩市","address":"多摩市関戸1-1-5","lat":35.651829,"lon":139.44592},{"name":"永山図書館","province":"東京都","city":"多摩市","address":"多摩市永山1-5","lat":35.628308,"lon":139.448237},{"name":"唐木田図書館","province":"東京都","city":"多摩市","address":"多摩市鶴牧6-14","lat":35.615407,"lon":139.413357},{"name":"総合体育館","province":"東京都","city":"多摩市","address":"多摩市東寺方588-1","lat":35.643555,"lon":139.436244},{"name":"関戸公民館","province":"東京都","city":"多摩市","address":"多摩市関戸4-72","lat":35.649825,"lon":139.446818},{"name":"永山公民館","province":"東京都","city":"多摩市","address":"多摩市永山1-5","lat":35.628308,"lon":139.448407},{"name":"唐木田コミュニティセンター（からきだ菖蒲館）","province":"東京都","city":"多摩市","address":"多摩市鶴牧6-14","lat":35.615405,"lon":139.413274},{"name":"桜ヶ丘コミュニティセンター（ゆう桜ヶ丘）","province":"東京都","city":"多摩市","address":"多摩市桜ヶ丘1-17-7","lat":35.639911,"lon":139.44649},{"name":"乞田・貝取コミュニティセンター（乞田・貝取ふれあい館）","province":"東京都","city":"多摩市","address":"多摩市乞田810","lat":35.630901,"lon":139.434555},{"name":"愛宕コミュニティセンター（愛宕かえで館）","province":"東京都","city":"多摩市","address":"多摩市愛宕3-2","lat":35.633543,"lon":139.434482},{"name":"東寺方図書館","province":"東京都","city":"多摩市","address":"多摩市東寺方626-7","lat":35.643261,"lon":139.437713},{"name":"豊ヶ丘図書館","province":"東京都","city":"多摩市","address":"多摩市豊ヶ丘5-6","lat":35.614618,"lon":139.434865},{"name":"関戸図書館","province":"東京都","city":"多摩市","address":"多摩市関戸1-1-5","lat":35.651829,"lon":139.44592},{"name":"永山図書館","province":"東京都","city":"多摩市","address":"多摩市永山1-5","lat":35.628308,"lon":139.448237},{"name":"唐木田図書館","province":"東京都","city":"多摩市","address":"多摩市鶴牧6-14","lat":35.615407,"lon":139.413357},{"name":"総合体育館","province":"東京都","city":"多摩市","address":"多摩市東寺方588-1","lat":35.643555,"lon":139.436244}]}