{"keyword":"食堂","data":[{"name":"みんなの食堂・スプーン","province":"東京都","city":"多摩市","address":"東京都多摩市一ノ宮1丁目18-7","lat":35.65294071,"lon":139.44278385},{"name":"だれでも食堂","province":"東京都","city":"多摩市","address":"東京都多摩市落合3丁目17-1","lat":35.61649472,"lon":139.43023356},{"name":"わくわく子ども食堂","province":"東京都","city":"多摩市","address":"東京都多摩市東寺方626-2","lat":35.64261955,"lon":139.43752912},{"name":"ハーモニーカフェ","province":"東京都","city":"多摩市","address":"東京都多摩市諏訪4丁目2","lat":35.62308931,"lon":139.45772264},{"name":"子ども食堂　ほくの家","province":"東京都","city":"多摩市","address":"東京都多摩市聖ヶ丘2丁目22-3-1","lat":35.63122424,"lon":139.4573528},{"name":"愛宕だれでも食堂","province":"東京都","city":"多摩市","address":"東京都多摩市愛宕1丁目1-1","lat":35.63468156,"lon":139.43616564},{"name":"子ども食堂　きっちん空","province":"東京都","city":"多摩市","address":"東京都多摩市貝取1丁目47-9","lat":35.62354131,"lon":139.43796871},{"name":"ピンクララタマ子ども誰でも食堂","province":"東京都","city":"多摩市","address":"東京都多摩市一ノ宮3丁目5-24","lat":35.65043268,"lon":139.44348389},{"name":"亀ハウス","province":"東京都","city":"多摩市","address":"東京都多摩市永山1丁目17-11","lat":35.63153767,"lon":139.44278463},{"name":"オリーブきっちん","province":"東京都","city":"多摩市","address":"東京都多摩市山王下1丁目13-13","lat":35.62536559,"lon":139.41969522},{"name":"こども食堂　ほっこりキッチン","province":"東京都","city":"多摩市","address":"東京都多摩市唐木田1丁目15-3","lat":35.61436937,"lon":139.40476912},{"name":"みんなのしょくどう","province":"東京都","city":"多摩市","address":"東京都多摩市馬引沢2丁目3-23","lat":35.63329051,"lon":139.45246149},{"name":"まんまるぱ～る","province":"東京都","city":"多摩市","address":"東京都多摩市一ノ宮2丁目13-25","lat":35.65113537,"lon":139.4429478},{"name":"子ども食堂　ココっと","province":"東京都","city":"多摩市","address":"東京都多摩市一ノ宮1丁目11-26","lat":35.65417109,"lon":139.44110617},{"name":"こども食堂　えんそく","province":"東京都","city":"多摩市","address":"東京都多摩市和田2006-4","lat":35.64102227,"lon":139.42740504},{"name":"メルティング・ダイニング","province":"東京都","city":"多摩市","address":"東京都多摩市永山2丁目8-1","lat":35.62744937,"lon":139.44577621}]}