{"keyword":"文化","data":[{"name":"船田石器時代遺跡","province":"東京都","city":"八王子市","address":"東京都八王子市長房町1360","lat":35.64938454,"lon":139.2872888},{"name":"滝山城跡","province":"東京都","city":"八王子市","address":"東京都八王子市丹木町2丁目","lat":35.69518599,"lon":139.32755042},{"name":"椚田遺跡","province":"東京都","city":"八王子市","address":"東京都八王子市椚田町541","lat":35.636939,"lon":139.305324},{"name":"相模集","province":"東京都","city":"八王子市","address":"東京都八王子市谷野町492-1","lat":35.686268,"lon":139.32907},{"name":"太刀（一）","province":"東京都","city":"八王子市","address":"東京都八王子市谷野町492-1","lat":35.686268,"lon":139.32907},{"name":"太刀（近景）","province":"東京都","city":"八王子市","address":"東京都八王子市谷野町492-1","lat":35.686268,"lon":139.32907},{"name":"太刀（有綱）","province":"東京都","city":"八王子市","address":"東京都八王子市谷野町492-1","lat":35.686268,"lon":139.32907},{"name":"八王子車人形","province":"東京都","city":"八王子市","address":"東京都八王子市下恩方町1566","lat":35.670212,"lon":139.255122},{"name":"薬王院飯縄権現堂","province":"東京都","city":"八王子市","address":"東京都八王子市高尾町2177","lat":35.62743,"lon":139.250311},{"name":"髙尾山不動堂　附　須弥壇一基","province":"東京都","city":"八王子市","address":"東京都八王子市高尾町2177","lat":35.62743,"lon":139.250311},{"name":"西蓮寺薬師堂　附　厨子一基","province":"東京都","city":"八王子市","address":"東京都八王子市大楽寺566","lat":35.669697,"lon":139.300856},{"name":"広園寺　総門・山門・仏殿・鐘楼　附　銅鐘一口","province":"東京都","city":"八王子市","address":"東京都八王子市山田町1577ほか","lat":35.646741,"lon":139.316795},{"name":"薬王院仁王門","province":"東京都","city":"八王子市","address":"東京都八王子市高尾町2177","lat":35.62743,"lon":139.250311},{"name":"浄福寺観音堂内厨子","province":"東京都","city":"八王子市","address":"東京都八王子市下恩方町3259","lat":35.66734,"lon":139.247997},{"name":"薬王院大師堂","province":"東京都","city":"八王子市","address":"東京都八王子市高尾町2177","lat":35.62743,"lon":139.250311},{"name":"紙本着色高野山図絵","province":"東京都","city":"八王子市","address":"東京都八王子市上野町39-2","lat":35.656999,"lon":139.327374},{"name":"紙本着色西王母図","province":"東京都","city":"八王子市","address":"東京都八王子市上野町39-2","lat":35.656999,"lon":139.327374},{"name":"木造蔵王権現立像","province":"東京都","city":"八王子市","address":"東京都八王子市丹木町2-294","lat":35.697402,"lon":139.328264},{"name":"木造十一面観音立像（二躯）・木造菩薩型立像（一躯）","province":"東京都","city":"八王子市","address":"東京都八王子市丹木町2-294","lat":35.697402,"lon":139.328264},{"name":"木造毘沙門天立像","province":"東京都","city":"八王子市","address":"東京都八王子市西寺方町998","lat":35.684983,"lon":139.270372},{"name":"木造盧遮那仏坐像","province":"東京都","city":"八王子市","address":"東京都八王子市別所1-19-10","lat":35.61836,"lon":139.394923},{"name":"木造十一面観世音菩薩立像","province":"東京都","city":"八王子市","address":"東京都八王子市大塚378","lat":35.641172,"lon":139.420081},{"name":"木造薬師如来坐像","province":"東京都","city":"八王子市","address":"東京都八王子市川口町335","lat":35.693226,"lon":139.271247},{"name":"木造法光円融禅師坐像","province":"東京都","city":"八王子市","address":"東京都八王子市山田町1577ほか","lat":35.646741,"lon":139.316795},{"name":"木造大日如来（金剛界）坐像","province":"東京都","city":"八王子市","address":"東京都八王子市館町1630","lat":35.63289,"lon":139.298475},{"name":"木造不動明王及びニ童子立像","province":"東京都","city":"八王子市","address":"東京都八王子市高尾町2177","lat":35.62743,"lon":139.250311},{"name":"木造地蔵菩薩立像","province":"東京都","city":"八王子市","address":"東京都八王子市高尾町2177","lat":35.62743,"lon":139.250311},{"name":"木造軍船ひな形　附正徳四年十二月十六日仁科資真寄付状・寄付目録","province":"東京都","city":"八王子市","address":"東京都八王子市台町3-18-28","lat":35.655957,"lon":139.322352},{"name":"八王子市中山白山神社経塚群出土品","province":"東京都","city":"八王子市","address":"東京都八王子市散田町2-37-1","lat":35.660573,"lon":139.317314},{"name":"広園寺境域","province":"東京都","city":"八王子市","address":"東京都八王子市山田町1577ほか","lat":35.646741,"lon":139.316795},{"name":"長田作左衛門墓","province":"東京都","city":"八王子市","address":"東京都八王子市大横町7-1","lat":35.665009,"lon":139.331271},{"name":"玉田院墓","province":"東京都","city":"八王子市","address":"東京都八王子市大横町7-1","lat":35.665009,"lon":139.331271},{"name":"塩野適斎墓","province":"東京都","city":"八王子市","address":"東京都八王子市大横町7-1","lat":35.665009,"lon":139.331271},{"name":"植田孟縉墓","province":"東京都","city":"八王子市","address":"東京都八王子市滝山町1-7-9","lat":35.688515,"lon":139.342116},{"name":"初沢城跡","province":"東京都","city":"八王子市","address":"東京都八王子市初沢町","lat":35.63929971,"lon":139.27576533},{"name":"北条氏照及び家臣墓","province":"東京都","city":"八王子市","address":"東京都八王子市元八王子町3丁目","lat":35.65087841,"lon":139.26986527},{"name":"松原庵星布墓","province":"東京都","city":"八王子市","address":"東京都八王子市元横山町2-8-4","lat":35.662157,"lon":139.337606},{"name":"横山氏墓","province":"東京都","city":"八王子市","address":"東京都八王子市元横山町2-18-1","lat":35.663298,"lon":139.33547},{"name":"原胤敦墓","province":"東京都","city":"八王子市","address":"東京都八王子市上野町11-1","lat":35.655479,"lon":139.330102},{"name":"横山党根拠地","province":"東京都","city":"八王子市","address":"東京都八王子市元横山町2-15-27","lat":35.661182,"lon":139.335151},{"name":"松本斗機蔵墓","province":"東京都","city":"八王子市","address":"東京都八王子市千人町2-14-18","lat":35.659865,"lon":139.309975},{"name":"高尾山のスギ並木","province":"東京都","city":"八王子市","address":"東京都八王子市高尾町2177","lat":35.62743,"lon":139.250311},{"name":"小仏のカゴノキ","province":"東京都","city":"八王子市","address":"東京都八王子市裏高尾町1785","lat":35.63976,"lon":139.228442},{"name":"高尾山の飯盛スギ","province":"東京都","city":"八王子市","address":"東京都八王子市高尾町2177","lat":35.62743,"lon":139.250311},{"name":"桑都日記稿本","province":"東京都","city":"八王子市","address":"東京都八王子市散田町2-37-1","lat":35.660573,"lon":139.317314},{"name":"旧多摩郡鑓水村名主大塚家文書","province":"東京都","city":"八王子市","address":"東京都八王子市散田町2-37-1","lat":35.660573,"lon":139.317314},{"name":"髙尾山薬王院文書","province":"東京都","city":"八王子市","address":"東京都八王子市散田町2-37-1","lat":35.660573,"lon":139.317314},{"name":"宇津木向原遺跡方形周溝墓出土品","province":"東京都","city":"八王子市","address":"東京都八王子市上野町33","lat":35.65566,"lon":139.326305},{"name":"桂福寺鐘楼山門","province":"東京都","city":"八王子市","address":"東京都八王子市戸吹町193","lat":35.708814,"lon":139.295994},{"name":"絹本着色大内図巻","province":"東京都","city":"八王子市","address":"東京都八王子市散田町2-37-1","lat":35.660573,"lon":139.317314},{"name":"紙本墨画松原庵星布尼自筆自画像","province":"東京都","city":"八王子市","address":"東京都八王子市散田町2-37-1","lat":35.660573,"lon":139.317314},{"name":"木造阿弥陀如来立像","province":"東京都","city":"八王子市","address":"東京都八王子市大横町7-1","lat":35.665009,"lon":139.331271},{"name":"木造松姫坐像","province":"東京都","city":"八王子市","address":"東京都八王子市台町3丁目18-28","lat":35.655957,"lon":139.322352},{"name":"木造石平道人坐像","province":"東京都","city":"八王子市","address":"東京都八王子市長房町1258","lat":35.652862,"lon":139.288466},{"name":"木造聖観音菩薩坐像","province":"東京都","city":"八王子市","address":"東京都八王子市越野728","lat":35.630731,"lon":139.386664},{"name":"龍光寺金銅孔雀文磬","province":"東京都","city":"八王子市","address":"東京都八王子市散田町2-37-1","lat":35.660573,"lon":139.317314},{"name":"金銅薬師如来倚像","province":"東京都","city":"八王子市","address":"東京都八王子市散田町2-37-1","lat":35.660573,"lon":139.317314},{"name":"子安神社懸仏","province":"東京都","city":"八王子市","address":"東京都八王子市明神町4丁目10-3","lat":35.659179,"lon":139.341309},{"name":"勝手神社懸仏","province":"東京都","city":"八王子市","address":"東京都八王子市加住町1丁目257","lat":35.699191,"lon":139.321198},{"name":"大善寺銅造梵鐘","province":"東京都","city":"八王子市","address":"東京都八王子市大谷町1019-1","lat":35.671745,"lon":139.345239},{"name":"八王子神社扁額","province":"東京都","city":"八王子市","address":"東京都八王子市散田町2-37-1","lat":35.660573,"lon":139.317314},{"name":"千人頭六二間筋兜","province":"東京都","city":"八王子市","address":"東京都八王子市散田町2-37-1","lat":35.660573,"lon":139.317314},{"name":"千人頭の具足","province":"東京都","city":"八王子市","address":"東京都八王子市散田町2-37-1","lat":35.660573,"lon":139.317314},{"name":"宗関寺銅造梵鐘","province":"東京都","city":"八王子市","address":"東京都八王子市元八王子町3丁目2562","lat":35.657922,"lon":139.26776},{"name":"銅造地蔵菩薩坐像","province":"東京都","city":"八王子市","address":"東京都八王子市泉町1132","lat":35.672691,"lon":139.30222},{"name":"時の鐘","province":"東京都","city":"八王子市","address":"東京都八王子市上野町1-6","lat":35.656604,"lon":139.328254},{"name":"鉄造聖観音菩薩立像","province":"東京都","city":"八王子市","address":"東京都八王子市散田町2-37-1","lat":35.660573,"lon":139.317314},{"name":"龍光寺の鰐口","province":"東京都","city":"八王子市","address":"東京都八王子市宇津木町738","lat":35.683804,"lon":139.350691},{"name":"住吉神社の鰐口","province":"東京都","city":"八王子市","address":"東京都八王子市散田町2-37-1","lat":35.660573,"lon":139.317314},{"name":"太刀","province":"東京都","city":"八王子市","address":"東京都八王子市散田町2-37-1","lat":35.660573,"lon":139.317314},{"name":"刀（武州下原住山本外記周重）","province":"東京都","city":"八王子市","address":"東京都八王子市散田町2-37-1","lat":35.660573,"lon":139.317314},{"name":"刀（武州下原住広重）","province":"東京都","city":"八王子市","address":"東京都八王子市散田町2-37-1","lat":35.660573,"lon":139.317314},{"name":"脇指（武州住照広）","province":"東京都","city":"八王子市","address":"東京都八王子市散田町2-37-1","lat":35.660573,"lon":139.317314},{"name":"薙刀（武州下原住広重）","province":"東京都","city":"八王子市","address":"東京都八王子市散田町2-37-1","lat":35.660573,"lon":139.317314},{"name":"刀（武州下原住康重）　脇指（武州住康重）","province":"東京都","city":"八王子市","address":"東京都八王子市散田町2-37-1","lat":35.660573,"lon":139.317314},{"name":"槍（下原住康重）","province":"東京都","city":"八王子市","address":"東京都八王子市散田町2-37-1","lat":35.660573,"lon":139.317314},{"name":"脇指（武州住外記利長）","province":"東京都","city":"八王子市","address":"東京都八王子市散田町2-37-1","lat":35.660573,"lon":139.317314},{"name":"脇指（房州下原康重）","province":"東京都","city":"八王子市","address":"東京都八王子市散田町2-37-1","lat":35.660573,"lon":139.317314},{"name":"槍（武州下原住内記康重）","province":"東京都","city":"八王子市","address":"東京都八王子市散田町2-37-1","lat":35.660573,"lon":139.317314},{"name":"考古資料（井上コレクション）","province":"東京都","city":"八王子市","address":"東京都八王子市上野町33","lat":35.65566,"lon":139.326305},{"name":"弥生式土器","province":"東京都","city":"八王子市","address":"東京都八王子市上野町33","lat":35.65566,"lon":139.326305},{"name":"縄文式土器","province":"東京都","city":"八王子市","address":"東京都八王子市上野町33","lat":35.65566,"lon":139.326305},{"name":"小銅鐸（中郷遺跡出土）","province":"東京都","city":"八王子市","address":"東京都八王子市散田町2-37-1","lat":35.660573,"lon":139.317314},{"name":"円福寺の大般若経","province":"東京都","city":"八王子市","address":"東京都八王子市散田町2-37-1","lat":35.660573,"lon":139.317314},{"name":"伊藤家八王子千人同心関係文書","province":"東京都","city":"八王子市","address":"東京都八王子市散田町2-37-1","lat":35.660573,"lon":139.317314},{"name":"粟沢家八王子千人同心関係文書","province":"東京都","city":"八王子市","address":"東京都八王子市散田町2-37-1","lat":35.660573,"lon":139.317314},{"name":"小松茂盛氏収集八王子千人同心関係文書","province":"東京都","city":"八王子市","address":"東京都八王子市散田町2-37-1","lat":35.660573,"lon":139.317314},{"name":"北条氏照書簡他（宝生寺文書）","province":"東京都","city":"八王子市","address":"東京都八王子市西寺方町998","lat":35.684983,"lon":139.270372},{"name":"関文川書簡","province":"東京都","city":"八王子市","address":"東京都八王子市散田町2-37-1","lat":35.660573,"lon":139.317314},{"name":"河野家千人同心関係文書","province":"東京都","city":"八王子市","address":"東京都八王子市散田町2-37-1","lat":35.660573,"lon":139.317314},{"name":"新野家文書","province":"東京都","city":"八王子市","address":"東京都八王子市散田町2-37-1","lat":35.660573,"lon":139.317314},{"name":"磯沼家村方文書","province":"東京都","city":"八王子市","address":"東京都八王子市散田町2-37-1","lat":35.660573,"lon":139.317314},{"name":"武田信玄感状","province":"東京都","city":"八王子市","address":"東京都八王子市散田町2-37-1","lat":35.660573,"lon":139.317314},{"name":"秋山家八王子千人同心関係文書","province":"東京都","city":"八王子市","address":"東京都八王子市散田町2-37-1","lat":35.660573,"lon":139.317314},{"name":"草木家村方文書","province":"東京都","city":"八王子市","address":"東京都八王子市散田町2-37-1","lat":35.660573,"lon":139.317314},{"name":"北条氏朱印状","province":"東京都","city":"八王子市","address":"東京都八王子市大楽寺町566","lat":35.669697,"lon":139.300856},{"name":"高乗寺文書","province":"東京都","city":"八王子市","address":"東京都八王子市散田町2-37-1","lat":35.660573,"lon":139.317314},{"name":"諸色覚日記（石川日記）","province":"東京都","city":"八王子市","address":"東京都八王子市散田町2-37-1","lat":35.660573,"lon":139.317314},{"name":"尾崎日記","province":"東京都","city":"八王子市","address":"東京都八王子市散田町2-37-1","lat":35.660573,"lon":139.317314},{"name":"大石系図","province":"東京都","city":"八王子市","address":"東京都八王子市散田町2-37-1","lat":35.660573,"lon":139.317314},{"name":"北条氏照朱印状","province":"東京都","city":"八王子市","address":"東京都八王子市散田町2-37-1","lat":35.660573,"lon":139.317314},{"name":"清鏡寺の豊臣秀吉禁制","province":"東京都","city":"八王子市","address":"東京都八王子市大塚378","lat":35.641172,"lon":139.420081},{"name":"大野家千人同心関係文書","province":"東京都","city":"八王子市","address":"東京都八王子市散田町2-37-1","lat":35.660573,"lon":139.317314},{"name":"八王子空襲焼け跡写真原板","province":"東京都","city":"八王子市","address":"東京都八王子市散田町2-37-1","lat":35.660573,"lon":139.317314},{"name":"千人同心組頭三木家の肖像画","province":"東京都","city":"八王子市","address":"東京都八王子市散田町2-37-1","lat":35.660573,"lon":139.317314},{"name":"住吉神社の算額","province":"東京都","city":"八王子市","address":"東京都八王子市散田町2-37-1","lat":35.660573,"lon":139.317314},{"name":"傳法院石塀","province":"東京都","city":"八王子市","address":"東京都八王子市南新町4","lat":35.658896,"lon":139.330554},{"name":"松原庵星布の俳額","province":"東京都","city":"八王子市","address":"東京都八王子市散田町2-37-1","lat":35.660573,"lon":139.317314},{"name":"狭間の獅子舞","province":"東京都","city":"八王子市","address":"東京都八王子市狭間町","lat":35.632998,"lon":139.27945145},{"name":"四谷の龍頭舞","province":"東京都","city":"八王子市","address":"東京都八王子市四谷町","lat":35.67852319,"lon":139.29669528},{"name":"梅坪の簓獅子舞","province":"東京都","city":"八王子市","address":"東京都八王子市梅坪町","lat":35.68760096,"lon":139.33717209},{"name":"小津の獅子舞","province":"東京都","city":"八王子市","address":"東京都八王子市小津町","lat":35.67823693,"lon":139.24248426},{"name":"山入の簓獅子舞","province":"東京都","city":"八王子市","address":"東京都八王子市美山町","lat":35.68348828,"lon":139.25873195},{"name":"今熊神社の獅子舞","province":"東京都","city":"八王子市","address":"東京都八王子市上川町","lat":35.70009463,"lon":139.26775541},{"name":"田守神社の獅子舞　附「永代神口官」軸","province":"東京都","city":"八王子市","address":"東京都八王子市上川町","lat":35.70009463,"lon":139.26775541},{"name":"氷川神社の獅子舞","province":"東京都","city":"八王子市","address":"東京都八王子市東浅川町","lat":35.64324658,"lon":139.29387459},{"name":"石川町龍頭の舞","province":"東京都","city":"八王子市","address":"東京都八王子市石川町","lat":35.67357809,"lon":139.36163435},{"name":"木遣","province":"東京都","city":"八王子市","address":"東京都八王子市平岡町","lat":35.66333122,"lon":139.32650438},{"name":"上案下のセエノカミ","province":"東京都","city":"八王子市","address":"東京都八王子市上恩方町","lat":35.66984578,"lon":139.24264545},{"name":"興林寺の弘安の板碑","province":"東京都","city":"八王子市","address":"東京都八王子市子安町4丁目4-18","lat":35.65516,"lon":139.335493},{"name":"龍光寺の文和の板碑","province":"東京都","city":"八王子市","address":"東京都八王子市宇津木町738","lat":35.683804,"lon":139.350691},{"name":"禅東院の応永の板碑","province":"東京都","city":"八王子市","address":"東京都八王子市本町17-1","lat":35.66119,"lon":139.331229},{"name":"多賀神社扁額","province":"東京都","city":"八王子市","address":"東京都八王子市散田町2-37-1","lat":35.660573,"lon":139.317314},{"name":"龍源寺の文安の板碑","province":"東京都","city":"八王子市","address":"東京都八王子市加住町2丁目64","lat":35.695727,"lon":139.321056},{"name":"安楽院の文永の板碑","province":"東京都","city":"八王子市","address":"東京都八王子市散田町2-37-1","lat":35.660573,"lon":139.317314},{"name":"蓮生寺の宝篋印塔","province":"東京都","city":"八王子市","address":"東京都八王子市別所1丁目19-10","lat":35.61836,"lon":139.394923},{"name":"直入院石造五智如来立像","province":"東京都","city":"八王子市","address":"東京都八王子市緑町223","lat":35.649413,"lon":139.325341},{"name":"北野石器時代住居跡","province":"東京都","city":"八王子市","address":"東京都八王子市北野町550-1","lat":35.646798,"lon":139.353067},{"name":"松姫尼公墓","province":"東京都","city":"八王子市","address":"東京都八王子市台町3丁目18-28","lat":35.655957,"lon":139.322352},{"name":"石見土手","province":"東京都","city":"八王子市","address":"東京都八王子市千人町2丁目14-18","lat":35.659865,"lon":139.309975},{"name":"石平道人墓","province":"東京都","city":"八王子市","address":"東京都八王子市長房町1258","lat":35.652862,"lon":139.288466},{"name":"市守神社","province":"東京都","city":"八王子市","address":"東京都八王子市横山町25-3","lat":35.660371,"lon":139.339939},{"name":"石坂弥次右衛門墓","province":"東京都","city":"八王子市","address":"東京都八王子市千人町1丁目2-8","lat":35.659495,"lon":139.316383},{"name":"新町竹の鼻の一里塚跡","province":"東京都","city":"八王子市","address":"東京都八王子市新町5","lat":35.662279,"lon":139.34177},{"name":"大久保石見守長安陣屋跡","province":"東京都","city":"八王子市","address":"東京都八王子市小門町82","lat":35.658676,"lon":139.324888},{"name":"小谷田子寅の碑","province":"東京都","city":"八王子市","address":"東京都八王子市下恩方町1970","lat":35.668918,"lon":139.259566},{"name":"大石氏居館跡","province":"東京都","city":"八王子市","address":"東京都八王子市下柚木4","lat":35.631172,"lon":139.382259},{"name":"中田遺跡","province":"東京都","city":"八王子市","address":"東京都八王子市中野山王3丁目12","lat":35.674174,"lon":139.323363},{"name":"浄福寺城跡（新城跡）","province":"東京都","city":"八王子市","address":"東京都八王子市下恩方町3259","lat":35.66734,"lon":139.247997},{"name":"絹の道","province":"東京都","city":"八王子市","address":"東京都八王子市鑓水","lat":35.615446,"lon":139.35947},{"name":"高楽寺横穴石仏群","province":"東京都","city":"八王子市","address":"東京都八王子市狭間町1868","lat":35.638747,"lon":139.286612},{"name":"長田作左衛門邸跡伝承地","province":"東京都","city":"八王子市","address":"東京都八王子市横山町10-19","lat":35.659735,"lon":139.335501},{"name":"廿里古戦場","province":"東京都","city":"八王子市","address":"東京都八王子市廿里町","lat":35.644577,"lon":139.281137},{"name":"真覚寺蛙合戦の旧地","province":"東京都","city":"八王子市","address":"東京都八王子市散田町5丁目36-10","lat":35.648196,"lon":139.304199},{"name":"高尾たこスギ","province":"東京都","city":"八王子市","address":"東京都八王子市高尾町2177","lat":35.62743,"lon":139.250311},{"name":"甲州街道イチョウ並木","province":"東京都","city":"八王子市","address":"東京都八王子市追分町","lat":35.661837,"lon":139.318788},{"name":"下柚木御嶽神社のスダジイ","province":"東京都","city":"八王子市","address":"東京都八王子市下柚木148","lat":35.632644,"lon":139.379126},{"name":"南大沢のオオツクバネガシ","province":"東京都","city":"八王子市","address":"東京都八王子市南大沢1丁目262","lat":35.616804,"lon":139.381146},{"name":"大塚神明社のイチョウ","province":"東京都","city":"八王子市","address":"東京都八王子市鹿島112-1","lat":35.634556,"lon":139.42057},{"name":"横山事務所のオオツクバネガシ","province":"東京都","city":"八王子市","address":"東京都八王子市並木町15-15","lat":35.651054,"lon":139.30034},{"name":"下野谷遺跡","province":"東京都","city":"西東京市","address":"東京都西東京市東伏見六丁目","lat":35.725451,"lon":139.562007},{"name":"玉川上水・小金井サクラ","province":"東京都","city":"西東京市","address":"東京都西東京市新町五丁目・六丁目","lat":35.711125,"lon":139.53627},{"name":"田無神社本殿・拝殿","province":"東京都","city":"西東京市","address":"東京都西東京市田無町三丁目7-4","lat":35.729783,"lon":139.544085},{"name":"石幢六角地蔵尊","province":"東京都","city":"西東京市","address":"東京都西東京市西原町二丁目5-43","lat":35.736442,"lon":139.536345},{"name":"田無ばやし","province":"東京都","city":"西東京市","address":"東京都西東京市田無町三丁目7-4田無神社・伝承地","lat":35.729783,"lon":139.544085},{"name":"延慶の板碑","province":"東京都","city":"西東京市","address":"東京都西東京市西原町四丁目5-6西原総合教育施設2階郷土資料室","lat":35.736717,"lon":139.529074},{"name":"稗倉","province":"東京都","city":"西東京市","address":"東京都西東京市田無町二丁目12-7","lat":35.728588,"lon":139.542},{"name":"下田家文書（公用分例略記）","province":"東京都","city":"西東京市","address":"東京都西東京市田無町","lat":35.726013,"lon":139.537715},{"name":"北芝久保庚申塔","province":"東京都","city":"西東京市","address":"東京都西東京市芝久保町四丁目12-48","lat":35.73039,"lon":139.521828},{"name":"養老田碑","province":"東京都","city":"西東京市","address":"東京都西東京市田無町二丁目12","lat":35.728554,"lon":139.542004},{"name":"養老畑碑","province":"東京都","city":"西東京市","address":"東京都西東京市田無町四丁目5-21田無小学校","lat":35.728928,"lon":139.537586},{"name":"下田半兵衛富宅の木像","province":"東京都","city":"西東京市","address":"東京都西東京市田無町三丁目8-12総持寺","lat":35.729577,"lon":139.54267},{"name":"獅子頭(雄獅子・雌獅子)","province":"東京都","city":"西東京市","address":"東京都西東京市田無町三丁目7-4","lat":35.729783,"lon":139.544085},{"name":"高札(火付ケ御文言高札)","province":"東京都","city":"西東京市","address":"東京都西東京市西原町四丁目5-6西原総合教育施設2階郷土資料室","lat":35.736717,"lon":139.529074},{"name":"人馬賃銭御定メ掛札","province":"東京都","city":"西東京市","address":"東京都西東京市西原町四丁目5-6西原総合教育施設2階郷土資料室","lat":35.736717,"lon":139.529074},{"name":"韮山笠","province":"東京都","city":"西東京市","address":"東京都西東京市西原町四丁目5-6西原総合教育施設2階郷土資料室","lat":35.736717,"lon":139.529074},{"name":"十王堂一宇建立の碑","province":"東京都","city":"西東京市","address":"東京都西東京市向台町二丁目8向台墓地","lat":35.718767,"lon":139.54172},{"name":"玉井寛海法士の墓","province":"東京都","city":"西東京市","address":"東京都西東京市向台町二丁目8向台墓地","lat":35.718767,"lon":139.54172},{"name":"撃剣家並木先生の墓","province":"東京都","city":"西東京市","address":"東京都西東京市芝久保町二丁目11芝久保墓地","lat":35.728078,"lon":139.528081},{"name":"南芝久保庚申塔","province":"東京都","city":"西東京市","address":"東京都西東京市田無町六丁目1-12","lat":35.727094,"lon":139.53278},{"name":"地租改正絵図","province":"東京都","city":"西東京市","address":"東京都西東京市南町五丁目6-11中央図書館","lat":35.726013,"lon":139.537715},{"name":"文化九年 検地図","province":"東京都","city":"西東京市","address":"東京都西東京市田無町","lat":35.728854,"lon":139.541659},{"name":"文字庚申塔","province":"東京都","city":"西東京市","address":"東京都西東京市新町一丁目2","lat":35.7163,"lon":139.548101},{"name":"招魂塔","province":"東京都","city":"西東京市","address":"東京都西東京市新町一丁目2しらし窪墓地","lat":35.7163,"lon":139.548101},{"name":"六角地蔵石幢","province":"東京都","city":"西東京市","address":"東京都西東京市保谷町四丁目7","lat":35.728494,"lon":139.549841},{"name":"青面金剛庚申像","province":"東京都","city":"西東京市","address":"東京都西東京市泉町二丁目3-2","lat":35.73723,"lon":139.551019},{"name":"又六石仏群","province":"東京都","city":"西東京市","address":"東京都西東京市住吉町三丁目18","lat":35.747822,"lon":139.549585},{"name":"田無村御検地帳","province":"東京都","city":"西東京市","address":"東京都西東京市南町五丁目6-11中央図書館","lat":35.726013,"lon":139.537715},{"name":"真誠学舎関係文書","province":"東京都","city":"西東京市","address":"東京都西東京市西原町四丁目5-6西原総合教育施設2階郷土資料室","lat":35.736717,"lon":139.529074},{"name":"尉殿大権現 神号額","province":"東京都","city":"西東京市","address":"東京都西東京市田無町三丁目8-12総持寺","lat":35.729577,"lon":139.54267},{"name":"柳沢庚申塔","province":"東京都","city":"西東京市","address":"東京都西東京市田無町二丁目22","lat":35.728495,"lon":139.547028},{"name":"旧下田名主役宅","province":"東京都","city":"西東京市","address":"東京都西東京市田無町","lat":35.728854,"lon":139.541659},{"name":"木彫彩色三十番神神像","province":"東京都","city":"西東京市","address":"東京都西東京市下保谷三丁目11-17福泉寺","lat":35.753744,"lon":139.566528},{"name":"木彫彩色倶利迦羅不動明王像","province":"東京都","city":"西東京市","address":"東京都西東京市住吉町一丁目6-5寶晃院","lat":35.740964,"lon":139.549331},{"name":"石製尾張藩鷹場標杭","province":"東京都","city":"西東京市","address":"東京都西東京市保谷町","lat":35.741248,"lon":139.549302},{"name":"總持寺のケヤキ","province":"東京都","city":"西東京市","address":"東京都西東京市田無町三丁目8-12総持寺","lat":35.729577,"lon":139.54267},{"name":"田無神社のイチョウ","province":"東京都","city":"西東京市","address":"東京都西東京市田無町三丁目7-4田無神社","lat":35.729783,"lon":139.544085},{"name":"水子地蔵菩薩立像","province":"東京都","city":"西東京市","address":"東京都西東京市住吉町一丁目6-5寶晃院","lat":35.741248,"lon":139.549302},{"name":"西浦地蔵尊","province":"東京都","city":"西東京市","address":"東京都西東京市保谷町五丁目12-24","lat":35.734234,"lon":139.548413},{"name":"六地蔵菩薩立像","province":"東京都","city":"西東京市","address":"東京都西東京市住吉町一丁目2-12東禅寺","lat":35.742981,"lon":139.549757},{"name":"榛名大権現石造物群","province":"東京都","city":"西東京市","address":"東京都西東京市東伏見二丁目6-13氷川神社","lat":35.727853,"lon":139.563433},{"name":"石燈籠一対","province":"東京都","city":"西東京市","address":"東京都西東京市住吉町一丁目21-1尉殿神社","lat":35.743815,"lon":139.550297},{"name":"奉納絵馬群","province":"東京都","city":"西東京市","address":"東京都西東京市新町二丁目7-24阿波洲神社","lat":35.71568,"lon":139.541942},{"name":"一文銭向い目絵馬","province":"東京都","city":"西東京市","address":"東京都西東京市泉町二丁目7-25寶樹院","lat":35.73927,"lon":139.550767},{"name":"菅原道真石像","province":"東京都","city":"西東京市","address":"東京都西東京市北町六丁目7-19天神社","lat":35.753952,"lon":139.561041},{"name":"観音寺の宝篋印塔","province":"東京都","city":"西東京市","address":"東京都西東京市田無町五丁目7-5観音寺","lat":35.730628,"lon":139.537765},{"name":"馬駈け市大絵馬二枚","province":"東京都","city":"西東京市","address":"東京都西東京市泉町二丁目15-7如意輪寺","lat":35.741475,"lon":139.551457},{"name":"氏子中奉納題目塔二基","province":"東京都","city":"西東京市","address":"東京都西東京市北町六丁目7-19天神社","lat":35.753952,"lon":139.561041},{"name":"保谷囃子","province":"東京都","city":"西東京市","address":"東京都西東京市不定","lat":35.725515,"lon":139.538146},{"name":"岩船地蔵尊","province":"東京都","city":"西東京市","address":"東京都西東京市保谷町六丁目4-7","lat":35.735807,"lon":139.553412},{"name":"蓮見家文書","province":"東京都","city":"西東京市","address":"東京都西東京市北町","lat":35.726013,"lon":139.537715},{"name":"幕末の様式小銃","province":"東京都","city":"西東京市","address":"東京都西東京市向台町","lat":35.722202,"lon":139.525644},{"name":"天神社 拝殿","province":"東京都","city":"西東京市","address":"東京都西東京市北町六丁目7-19天神社","lat":35.753952,"lon":139.561041},{"name":"不動明王立像","province":"東京都","city":"清瀬市","address":"東京都清瀬市中清戸2-616","lat":35.780059,"lon":139.526253},{"name":"三猿の石灯篭","province":"東京都","city":"清瀬市","address":"東京都清瀬市中清戸2-616","lat":35.780059,"lon":139.526253},{"name":"薬師如来立像","province":"東京都","city":"清瀬市","address":"東京都清瀬市下清戸2-470","lat":35.783767,"lon":139.535091},{"name":"観世音菩薩立像(本尊）","province":"東京都","city":"清瀬市","address":"東京都清瀬市下宿2-521","lat":35.797568,"lon":139.534432},{"name":"観世音菩薩立像（前立）","province":"東京都","city":"清瀬市","address":"東京都清瀬市下宿2-521","lat":35.797568,"lon":139.534432},{"name":"薬師如来坐像","province":"東京都","city":"清瀬市","address":"東京都清瀬市野塩3-51","lat":35.777509,"lon":139.506768},{"name":"日光菩薩立像","province":"東京都","city":"清瀬市","address":"東京都清瀬市野塩3-51","lat":35.777509,"lon":139.506768},{"name":"月光菩薩立像","province":"東京都","city":"清瀬市","address":"東京都清瀬市野塩3-51","lat":35.777509,"lon":139.506768},{"name":"十二神将","province":"東京都","city":"清瀬市","address":"東京都清瀬市野塩3-51","lat":35.777509,"lon":139.506768},{"name":"日枝神社本殿","province":"東京都","city":"清瀬市","address":"東京都清瀬市中清戸2-616","lat":35.780059,"lon":139.526253},{"name":"円通寺長屋門","province":"東京都","city":"清瀬市","address":"東京都清瀬市下宿2-521","lat":35.797568,"lon":139.534432},{"name":"旧森田家主屋","province":"東京都","city":"清瀬市","address":"東京都清瀬市2-524-1","lat":35.79759,"lon":139.533366},{"name":"外気舎記念館","province":"東京都","city":"清瀬市","address":"東京都清瀬市竹丘3-1-1","lat":35.76696,"lon":139.504597},{"name":"清戸獅子","province":"東京都","city":"清瀬市","address":"東京都清瀬市中清戸2-616","lat":35.780059,"lon":139.526253},{"name":"下宿囃子","province":"東京都","city":"清瀬市","address":"東京都清瀬市下宿2-515","lat":35.798551,"lon":139.534935},{"name":"スギ","province":"東京都","city":"清瀬市","address":"東京都清瀬市中清戸2-616","lat":35.780059,"lon":139.526253},{"name":"ケヤキ","province":"東京都","city":"清瀬市","address":"東京都清瀬市下宿2-515","lat":35.798551,"lon":139.534935},{"name":"清瀬病院跡地","province":"東京都","city":"清瀬市","address":"東京都清瀬市竹丘3-1-1","lat":35.76696,"lon":139.504597},{"name":"中里の富士塚","province":"東京都","city":"清瀬市","address":"東京都清瀬市中里3-991-1","lat":35.783811,"lon":139.518492},{"name":"中里の火の花祭","province":"東京都","city":"清瀬市","address":"東京都清瀬市中里3-991-1","lat":35.783811,"lon":139.518492},{"name":"下宿のふせぎ行事","province":"東京都","city":"清瀬市","address":"東京都清瀬市下宿2-519","lat":35.796863,"lon":139.534321},{"name":"清瀬のうちおり","province":"東京都","city":"清瀬市","address":"東京都清瀬市上清戸2-6-41","lat":35.779545,"lon":139.521398},{"name":"文明十年月待板碑","province":"東京都","city":"清瀬市","address":"東京都清瀬市上清戸2-6-41","lat":35.779545,"lon":139.521398},{"name":"木造伝阿弥陀如来及び脇侍　千手観世音菩薩・勢至菩薩　坐像","province":"東京都","city":"あきる野市","address":"東京都あきる野市横沢134","lat":35.732374,"lon":139.241529},{"name":"西秋留石器時代住居跡","province":"東京都","city":"あきる野市","address":"東京都あきる野市牛沼265-2","lat":35.719679,"lon":139.288819},{"name":"真照寺薬師堂","province":"東京都","city":"あきる野市","address":"東京都あきる野市引田863","lat":35.721895,"lon":139.268324},{"name":"大悲願寺本堂","province":"東京都","city":"あきる野市","address":"東京都あきる野市横沢134","lat":35.732374,"lon":139.241529},{"name":"木造釈迦如来坐像","province":"東京都","city":"あきる野市","address":"東京都あきる野市戸倉328","lat":35.725616,"lon":139.20214},{"name":"大般若経","province":"東京都","city":"あきる野市","address":"東京都あきる野市横沢134","lat":35.732374,"lon":139.241529},{"name":"旧多摩郡油平村名主中村家文書","province":"東京都","city":"あきる野市","address":"東京都あきる野市五日市920-1","lat":35.728429,"lon":139.216982},{"name":"大悲願寺文書","province":"東京都","city":"あきる野市","address":"東京都あきる野市横沢134","lat":35.732374,"lon":139.241529},{"name":"五日市憲法草案","province":"東京都","city":"あきる野市","address":"東京都あきる野市秋川1-16-2","lat":35.730708,"lon":139.288733},{"name":"田中丘隅回向墓","province":"東京都","city":"あきる野市","address":"東京都あきる野市平沢732","lat":35.730489,"lon":139.315052},{"name":"軍道紙","province":"東京都","city":"あきる野市","address":"東京都あきる野市乙津266・あきる野市乙津671","lat":35.728618,"lon":139.187666},{"name":"菅生の組立舞台","province":"東京都","city":"あきる野市","address":"東京都あきる野市菅生1336","lat":35.746731,"lon":139.289732},{"name":"猿曳駒絵馬","province":"東京都","city":"あきる野市","address":"東京都あきる野市引田863","lat":35.721902,"lon":139.268241},{"name":"広徳寺境域","province":"東京都","city":"あきる野市","address":"東京都あきる野市小和田234","lat":35.721875,"lon":139.21736},{"name":"深沢家屋敷跡","province":"東京都","city":"あきる野市","address":"東京都あきる野市深沢7","lat":35.750161,"lon":139.205403},{"name":"前田耕地遺跡","province":"東京都","city":"あきる野市","address":"東京都あきる野市野辺1-1他","lat":35.723982,"lon":139.316109},{"name":"戸倉城跡","province":"東京都","city":"あきる野市","address":"東京都あきる野市戸倉328-1他","lat":35.725616,"lon":139.20214},{"name":"大塚古墳","province":"東京都","city":"あきる野市","address":"東京都あきる野市雨間232","lat":35.727323,"lon":139.289955},{"name":"二宮神社並びに城跡","province":"東京都","city":"あきる野市","address":"東京都あきる野市二宮2252","lat":35.726873,"lon":139.3136},{"name":"草花石器時代住居跡","province":"東京都","city":"あきる野市","address":"東京都あきる野市草花1371","lat":35.740299,"lon":139.30717},{"name":"羽ケ田石器時代住居跡","province":"東京都","city":"あきる野市","address":"東京都あきる野市草花2859・あきる野市草花2865","lat":35.74156,"lon":139.298237},{"name":"奥御岳景園地","province":"東京都","city":"あきる野市","address":"東京都あきる野市養沢1600-5他","lat":35.752585,"lon":139.180715},{"name":"広徳寺のタラヨウ","province":"東京都","city":"あきる野市","address":"東京都あきる野市小和田234","lat":35.721875,"lon":139.21736},{"name":"広徳寺のカヤ","province":"東京都","city":"あきる野市","address":"東京都あきる野市小和田234","lat":35.721875,"lon":139.21736},{"name":"大岳鍾乳洞","province":"東京都","city":"あきる野市","address":"東京都あきる野市養沢1587","lat":35.76245,"lon":139.155758},{"name":"南沢の鳥ノ巣石灰岩産地","province":"東京都","city":"あきる野市","address":"東京都あきる野市深沢376他","lat":35.750161,"lon":139.205403},{"name":"六枚屏風岩","province":"東京都","city":"あきる野市","address":"東京都あきる野市引田1774","lat":35.724439,"lon":139.268021},{"name":"慈勝寺のモッコク","province":"東京都","city":"あきる野市","address":"東京都あきる野市草花1811","lat":35.741641,"lon":139.312086},{"name":"光厳寺のヤマザクラ","province":"東京都","city":"あきる野市","address":"東京都あきる野市戸倉2102のイ他","lat":35.727333,"lon":139.205064},{"name":"地蔵院のカゴノキ","province":"東京都","city":"あきる野市","address":"東京都あきる野市雨間1109","lat":35.727323,"lon":139.289955},{"name":"広徳寺総門","province":"東京都","city":"あきる野市","address":"東京都あきる野市小和田234","lat":35.721875,"lon":139.21736},{"name":"広徳寺山門","province":"東京都","city":"あきる野市","address":"東京都あきる野市小和田234","lat":35.721875,"lon":139.21736},{"name":"開光院本堂・庫裏","province":"東京都","city":"あきる野市","address":"東京都あきる野市五日市691","lat":35.73111,"lon":139.216043},{"name":"三島神社本殿","province":"東京都","city":"あきる野市","address":"東京都あきる野市戸倉414","lat":35.726675,"lon":139.200724},{"name":"武多摩神社本殿","province":"東京都","city":"あきる野市","address":"東京都あきる野市戸倉414","lat":35.726675,"lon":139.200724},{"name":"八雲神社の五輪塔","province":"東京都","city":"あきる野市","address":"東京都あきる野市野辺316","lat":35.722927,"lon":139.311798},{"name":"花蔵院の山門","province":"東京都","city":"あきる野市","address":"東京都あきる野市草花1740","lat":35.742505,"lon":139.309853},{"name":"真照寺の山門","province":"東京都","city":"あきる野市","address":"東京都あきる野市引田863","lat":35.721895,"lon":139.268324},{"name":"福徳寺の山門","province":"東京都","city":"あきる野市","address":"東京都あきる野市油平246","lat":35.732374,"lon":139.241529},{"name":"大悲願寺観音堂","province":"東京都","city":"あきる野市","address":"東京都あきる野市横沢134","lat":35.732374,"lon":139.241529},{"name":"大悲願寺楼門（仁王門）","province":"東京都","city":"あきる野市","address":"東京都あきる野市横沢134","lat":35.732374,"lon":139.241529},{"name":"大悲願寺中門（朱雀門）","province":"東京都","city":"あきる野市","address":"東京都あきる野市横沢134","lat":35.732374,"lon":139.241529},{"name":"旧市倉家住宅","province":"東京都","city":"あきる野市","address":"東京都あきる野市五日市920-1","lat":35.728429,"lon":139.216982},{"name":"二宮神社本殿","province":"東京都","city":"あきる野市","address":"東京都あきる野市二宮2252","lat":35.726873,"lon":139.3136},{"name":"二宮神社宮殿","province":"東京都","city":"あきる野市","address":"東京都あきる野市二宮2252","lat":35.726873,"lon":139.3136},{"name":"雨武主神社本殿","province":"東京都","city":"あきる野市","address":"東京都あきる野市雨間1941","lat":35.714377,"lon":139.291836},{"name":"子生神社本殿","province":"東京都","city":"あきる野市","address":"東京都あきる野市小中野187","lat":35.725927,"lon":139.209386},{"name":"森山神社本殿","province":"東京都","city":"あきる野市","address":"東京都あきる野市草花275","lat":35.731654,"lon":139.318895},{"name":"阿伎留神社年中十二祭神事絵巻","province":"東京都","city":"あきる野市","address":"東京都あきる野市五日市1081","lat":35.725279,"lon":139.222695},{"name":"光厳寺絹本着色仏涅槃図","province":"東京都","city":"あきる野市","address":"東京都あきる野市戸倉328","lat":35.725616,"lon":139.20214},{"name":"大悲願寺仁王門天井絵","province":"東京都","city":"あきる野市","address":"東京都あきる野市横沢134","lat":35.732374,"lon":139.241529},{"name":"玉林寺本堂天井絵","province":"東京都","city":"あきる野市","address":"東京都あきる野市五日市926","lat":35.72706,"lon":139.217626},{"name":"光厳寺扁額","province":"東京都","city":"あきる野市","address":"東京都あきる野市戸倉328","lat":35.725616,"lon":139.20214},{"name":"貴志嶋神社石造大黒天像","province":"東京都","city":"あきる野市","address":"東京都あきる野市網代83","lat":35.721389,"lon":139.247309},{"name":"大悲願寺懐中仏","province":"東京都","city":"あきる野市","address":"東京都あきる野市横沢134","lat":35.732374,"lon":139.241529},{"name":"東町観音堂木造阿弥陀如来坐像","province":"東京都","city":"あきる野市","address":"東京都あきる野市五日市164","lat":35.729956,"lon":139.225992},{"name":"広徳寺山門木造十六羅漢像","province":"東京都","city":"あきる野市","address":"東京都あきる野市小和田234","lat":35.721875,"lon":139.21736},{"name":"楞厳寺薬師堂木造十二神将立像","province":"東京都","city":"あきる野市","address":"東京都あきる野市五日市576","lat":35.732515,"lon":139.214976},{"name":"足利尊氏坐像","province":"東京都","city":"あきる野市","address":"東京都あきる野市山田496","lat":35.723983,"lon":139.254575},{"name":"広徳寺本尊聖観音像","province":"東京都","city":"あきる野市","address":"東京都あきる野市小和田234","lat":35.721875,"lon":139.21736},{"name":"福徳寺の五輪六地蔵及び中尊","province":"東京都","city":"あきる野市","address":"東京都あきる野市油平246","lat":35.722306,"lon":139.286411},{"name":"大悲願寺の五輪地蔵","province":"東京都","city":"あきる野市","address":"東京都あきる野市横沢134","lat":35.732374,"lon":139.241529},{"name":"春日明神社和鏡","province":"東京都","city":"あきる野市","address":"東京都あきる野市乙津425","lat":35.730352,"lon":139.187268},{"name":"阿伎留神社懸仏台盤","province":"東京都","city":"あきる野市","address":"東京都あきる野市五日市1081","lat":35.725279,"lon":139.222695},{"name":"大悲願寺六角宝幢式経筒","province":"東京都","city":"あきる野市","address":"東京都あきる野市横沢134","lat":35.732374,"lon":139.241529},{"name":"大悲願寺梵鐘","province":"東京都","city":"あきる野市","address":"東京都あきる野市横沢134","lat":35.732374,"lon":139.241529},{"name":"三島神社石棒","province":"東京都","city":"あきる野市","address":"東京都あきる野市二宮1151","lat":35.727373,"lon":139.313475},{"name":"土製耳飾","province":"東京都","city":"あきる野市","address":"東京都あきる野市五日市920-1","lat":35.728429,"lon":139.216982},{"name":"縄文式壺型土器","province":"東京都","city":"あきる野市","address":"東京都あきる野市五日市920-1","lat":35.728429,"lon":139.216982},{"name":"縄文式釣手土器","province":"東京都","city":"あきる野市","address":"東京都あきる野市五日市920-1","lat":35.728429,"lon":139.216982},{"name":"五領式土器","province":"東京都","city":"あきる野市","address":"東京都あきる野市五日市920-1","lat":35.728429,"lon":139.216982},{"name":"雨間地区遺跡群出土の旧石器時代石器群","province":"東京都","city":"あきる野市","address":"東京都あきる野市二宮1151","lat":35.727373,"lon":139.313475},{"name":"大六天遺跡出土の石棒","province":"東京都","city":"あきる野市","address":"東京都あきる野市二宮1151","lat":35.727373,"lon":139.313475},{"name":"如環版木活字並びに活版本","province":"東京都","city":"あきる野市","address":"東京都あきる野市横沢134","lat":35.732374,"lon":139.241529},{"name":"武州南一揆文書","province":"東京都","city":"あきる野市","address":"東京都あきる野市五日市920-1","lat":35.727373,"lon":139.313475},{"name":"武州南一揆文書","province":"東京都","city":"あきる野市","address":"東京都あきる野市五日市1081","lat":35.725279,"lon":139.222695},{"name":"後北条氏虎印文書","province":"東京都","city":"あきる野市","address":"東京都あきる野市小和田234","lat":35.721875,"lon":139.21736},{"name":"後北条氏虎印文書","province":"東京都","city":"あきる野市","address":"東京都あきる野市五日市920-1","lat":35.728429,"lon":139.216982},{"name":"大悲願寺棟札","province":"東京都","city":"あきる野市","address":"東京都あきる野市横沢134","lat":35.732374,"lon":139.241529},{"name":"瑞雲寺板碑","province":"東京都","city":"あきる野市","address":"東京都あきる野市山田496","lat":35.723983,"lon":139.254575},{"name":"大悲願寺井戸枠","province":"東京都","city":"あきる野市","address":"東京都あきる野市横沢134","lat":35.732374,"lon":139.241529},{"name":"ところ芋の碑","province":"東京都","city":"あきる野市","address":"東京都あきる野市戸倉328","lat":35.725616,"lon":139.20214},{"name":"百番供養塔","province":"東京都","city":"あきる野市","address":"東京都あきる野市留原209","lat":35.722399,"lon":139.229384},{"name":"御嶽神社の懸仏","province":"東京都","city":"あきる野市","address":"東京都あきる野市小和田531","lat":35.721169,"lon":139.223449},{"name":"地蔵院の板碑","province":"東京都","city":"あきる野市","address":"東京都あきる野市雨間1101","lat":35.721535,"lon":139.300441},{"name":"福泉寺の板碑","province":"東京都","city":"あきる野市","address":"東京都あきる野市菅生629","lat":35.746731,"lon":139.289732},{"name":"塩野家の板碑","province":"東京都","city":"あきる野市","address":"東京都あきる野市二宮1151","lat":35.727373,"lon":139.313475},{"name":"東郷前の板碑","province":"東京都","city":"あきる野市","address":"東京都あきる野市二宮1151","lat":35.727373,"lon":139.313475},{"name":"珠陽院の巳待供養塔","province":"東京都","city":"あきる野市","address":"東京都あきる野市瀬戸岡511","lat":35.736947,"lon":139.29544},{"name":"五日市の市神様","province":"東京都","city":"あきる野市","address":"東京都あきる野市五日市110-1","lat":35.727874,"lon":139.222259},{"name":"二宮神社の算額絵馬","province":"東京都","city":"あきる野市","address":"東京都あきる野市五日市920-1","lat":35.728429,"lon":139.216982},{"name":"渕上の石積井戸","province":"東京都","city":"あきる野市","address":"東京都あきる野市渕上330","lat":35.722648,"lon":139.273418},{"name":"石神遺跡","province":"東京都","city":"あきる野市","address":"東京都あきる野市原小宮1-18","lat":35.734247,"lon":139.29906},{"name":"玉泉寺のエノキ","province":"東京都","city":"あきる野市","address":"東京都あきる野市二宮2265","lat":35.728962,"lon":139.31395},{"name":"戸田家のクスノキ","province":"東京都","city":"あきる野市","address":"東京都あきる野市二宮2259","lat":35.728768,"lon":139.314675},{"name":"二宮神社のフジ","province":"東京都","city":"あきる野市","address":"東京都あきる野市二宮1189","lat":35.726873,"lon":139.3136},{"name":"二宮神社のヤナギ","province":"東京都","city":"あきる野市","address":"東京都あきる野市二宮1189","lat":35.726873,"lon":139.3136},{"name":"杉田家のタワラグミ","province":"東京都","city":"あきる野市","address":"東京都あきる野市二宮2431","lat":35.729309,"lon":139.319189},{"name":"法林寺のシラカシ","province":"東京都","city":"あきる野市","address":"東京都あきる野市小川東2-12-10","lat":35.719216,"lon":139.319956},{"name":"熊野神社のケヤキ","province":"東京都","city":"あきる野市","address":"東京都あきる野市小川639","lat":35.721305,"lon":139.317081},{"name":"地蔵院のカヤ","province":"東京都","city":"あきる野市","address":"東京都あきる野市雨間1101","lat":35.721535,"lon":139.300441},{"name":"真城寺のシダレザクラ","province":"東京都","city":"あきる野市","address":"東京都あきる野市上代継344","lat":35.723012,"lon":139.278595},{"name":"秋川神明社のスギ","province":"東京都","city":"あきる野市","address":"東京都あきる野市牛沼88","lat":35.718485,"lon":139.285759},{"name":"正勝神社のサカキ","province":"東京都","city":"あきる野市","address":"東京都あきる野市菅生1819","lat":35.757397,"lon":139.277758},{"name":"堀部家のイトヒバ","province":"東京都","city":"あきる野市","address":"東京都あきる野市小川469","lat":35.717425,"lon":139.313951},{"name":"小山家のツルウメモドキ","province":"東京都","city":"あきる野市","address":"東京都あきる野市草花720","lat":35.738491,"lon":139.306901},{"name":"五柱神社のスギ","province":"東京都","city":"あきる野市","address":"東京都あきる野市養沢1392","lat":35.732043,"lon":139.180863},{"name":"山抱きの大カシ（ウラジロガシ）","province":"東京都","city":"あきる野市","address":"東京都あきる野市深沢472","lat":35.750161,"lon":139.205403},{"name":"森田家住宅主屋","province":"東京都","city":"あきる野市","address":"東京都あきる野市小川633-1","lat":35.721158,"lon":139.316364},{"name":"森田家住宅見世蔵","province":"東京都","city":"あきる野市","address":"東京都あきる野市小川633-1","lat":35.721158,"lon":139.316364},{"name":"森田家住宅前の蔵","province":"東京都","city":"あきる野市","address":"東京都あきる野市小川633-1","lat":35.721158,"lon":139.316364},{"name":"森田家住宅味噌蔵","province":"東京都","city":"あきる野市","address":"東京都あきる野市小川633-1","lat":35.721158,"lon":139.316364},{"name":"森田家住宅西蔵","province":"東京都","city":"あきる野市","address":"東京都あきる野市小川633-1","lat":35.721158,"lon":139.316364},{"name":"森田家住宅旧米蔵","province":"東京都","city":"あきる野市","address":"東京都あきる野市小川633-1","lat":35.721158,"lon":139.316364},{"name":"森田家住宅御看経堂","province":"東京都","city":"あきる野市","address":"東京都あきる野市小川633-1","lat":35.721158,"lon":139.316364},{"name":"森田家住宅門","province":"東京都","city":"あきる野市","address":"東京都あきる野市小川633-1","lat":35.721158,"lon":139.316364},{"name":"森田家住宅板塀","province":"東京都","city":"あきる野市","address":"東京都あきる野市小川633-1","lat":35.721158,"lon":139.316364},{"name":"旧島津公爵家袖ヶ崎本邸洋館（清泉女子大学本館）","province":"東京都","city":"品川区","address":"東京都品川区東五反田3-16-21","lat":35.627681,"lon":139.728688},{"name":"滝泉寺前不動堂","province":"東京都","city":"目黒区","address":"東京都目黒区下目黒3-20-26","lat":35.62772,"lon":139.708607},{"name":"武家屋敷門","province":"東京都","city":"世田谷区","address":"東京都世田谷区下馬2-11-6","lat":35.639612,"lon":139.677764},{"name":"御嶽神社旧本殿","province":"東京都","city":"青梅市","address":"東京都青梅市御岳山176","lat":35.782772,"lon":139.150253},{"name":"安楽寺本堂","province":"東京都","city":"青梅市","address":"東京都青梅市成木1-583","lat":35.838484,"lon":139.275364},{"name":"旧吉野家住宅","province":"東京都","city":"青梅市","address":"東京都青梅市新町1-21-9","lat":35.788144,"lon":139.297825},{"name":"馬場家御師住宅","province":"東京都","city":"青梅市","address":"東京都青梅市御岳山54","lat":35.785996,"lon":139.151073},{"name":"虎柏神社本殿","province":"東京都","city":"青梅市","address":"東京都青梅市根ケ布1-313","lat":35.802624,"lon":139.267127},{"name":"旧府中町役場庁舎","province":"東京都","city":"府中市","address":"東京都府中市南町6-32","lat":35.65653,"lon":139.473017},{"name":"旧三岡家長屋門","province":"東京都","city":"府中市","address":"東京都府中市南町6-32","lat":35.65653,"lon":139.473017},{"name":"旧荻野家住宅","province":"東京都","city":"町田市","address":"東京都町田市野津田町1270","lat":35.581958,"lon":139.447453},{"name":"熊川神社本殿","province":"東京都","city":"福生市","address":"東京都福生市熊川660","lat":35.723658,"lon":139.333882},{"name":"阿蘇神社本殿","province":"東京都","city":"羽村市","address":"東京都羽村市羽加美4-6-7","lat":35.762913,"lon":139.297931},{"name":"銅造地蔵菩薩坐像（江戸六地蔵の一）","province":"東京都","city":"江東区","address":"東京都江東区白河1-3-32","lat":35.681494,"lon":139.800204},{"name":"出山遺跡出土注口土器","province":"東京都","city":"三鷹市","address":"東京都三鷹市新川3-7-9","lat":35.676911,"lon":139.572769},{"name":"銅鏡","province":"東京都","city":"大島町","address":"東京都大島町野増字大宮","lat":34.733749,"lon":139.356854},{"name":"銅鏡","province":"東京都","city":"大島町","address":"東京都大島町元町字地の岡30-2","lat":34.773758,"lon":139.358314},{"name":"元暦校本万葉集巻一、巻二、巻七板木","province":"兵庫県","city":"尼崎市","address":"兵庫県尼崎市稲葉元町2丁目","lat":34.73666626,"lon":135.38849113},{"name":"浅草観音戒殺碑","province":"東京都","city":"台東区","address":"東京都台東区雷門2-2","lat":35.708966,"lon":139.796628},{"name":"清瀬市下宿の「ふせぎ」行事","province":"東京都","city":"清瀬市","address":"東京都清瀬市下宿地区","lat":35.799679,"lon":139.537485},{"name":"樫立の手踊","province":"東京都","city":"八丈町","address":"東京都八丈町樫立地区","lat":33.079681,"lon":139.79464},{"name":"利島阿豆佐和気命本宮境域","province":"東京都","city":"","address":"東京都利島村南御神山","lat":34.529696,"lon":139.276952},{"name":"利島大山小山神社境域","province":"東京都","city":"","address":"東京都利島村なが山","lat":34.515663,"lon":139.277276},{"name":"将門塚","province":"東京都","city":"千代田区","address":"東京都千代田区大手町1-2","lat":35.687353,"lon":139.762519},{"name":"藤田東湖護母致命の処","province":"東京都","city":"文京区","address":"東京都文京区後楽1-6-6","lat":35.704826,"lon":139.748192},{"name":"森?外遺跡","province":"東京都","city":"文京区","address":"東京都文京区千駄木1-23-4","lat":35.724849,"lon":139.760629},{"name":"六地蔵石燈籠","province":"東京都","city":"台東区","address":"東京都台東区浅草2-3-1","lat":35.713968,"lon":139.796449},{"name":"玉川庄右衛門及び同清右衛門墓","province":"東京都","city":"台東区","address":"東京都台東区松が谷2-3-3","lat":35.712818,"lon":139.786553},{"name":"大久保主水墓","province":"東京都","city":"台東区","address":"東京都台東区谷中4-2-5","lat":35.723166,"lon":139.767734},{"name":"谷文晁墓","province":"東京都","city":"台東区","address":"東京都台東区東上野6-18-12","lat":35.714121,"lon":139.784692},{"name":"慈海僧正墓","province":"東京都","city":"台東区","address":"東京都台東区上野桜木1-14-11","lat":35.721453,"lon":139.774204},{"name":"葛飾北斎墓","province":"東京都","city":"台東区","address":"東京都台東区元浅草4-6-9","lat":35.709788,"lon":139.785434},{"name":"了翁禅師塔碑","province":"東京都","city":"台東区","address":"東京都台東区上野桜木1-14-11","lat":35.721453,"lon":139.774204},{"name":"天海僧正毛髪塔","province":"東京都","city":"台東区","address":"東京都台東区上野公園1","lat":35.712679,"lon":139.774237},{"name":"樋口定伊墓","province":"東京都","city":"台東区","address":"東京都台東区池之端2-5-30","lat":35.716972,"lon":139.765079},{"name":"山岡鉄舟墓","province":"東京都","city":"台東区","address":"東京都台東区谷中5-4-7","lat":35.724189,"lon":139.766754},{"name":"三遊亭円朝墓","province":"東京都","city":"台東区","address":"東京都台東区谷中5-4-7","lat":35.724189,"lon":139.766754},{"name":"加藤千蔭墓","province":"東京都","city":"墨田区","address":"東京都墨田区両国2-8-10","lat":35.693309,"lon":139.792007},{"name":"磐瀬京伝墓","province":"東京都","city":"墨田区","address":"東京都墨田区両国2-8-10","lat":35.693309,"lon":139.792007},{"name":"磐瀬京山墓","province":"東京都","city":"墨田区","address":"東京都墨田区両国2-8-10","lat":35.693309,"lon":139.792007},{"name":"彰義隊戦死者墓","province":"東京都","city":"荒川区","address":"東京都荒川区南千住1-59-11","lat":35.73403,"lon":139.79286},{"name":"徳丸ケ原","province":"東京都","city":"板橋区","address":"東京都板橋区高島平・新河岸・三園一帯","lat":35.791604,"lon":139.660545},{"name":"池永道雲墓","province":"東京都","city":"練馬区","address":"東京都練馬区練馬4-27","lat":35.742455,"lon":139.65086},{"name":"初代安藤広重墓及び記念碑","province":"東京都","city":"足立区","address":"東京都足立区伊興本町1-5-16","lat":35.797744,"lon":139.788571},{"name":"葛西清重墓","province":"東京都","city":"葛飾区","address":"東京都葛飾区4つ木1-25-8","lat":35.734152,"lon":139.833426},{"name":"山田検校墓","province":"東京都","city":"葛飾区","address":"東京都葛飾区高砂7-13-34","lat":35.754023,"lon":139.865724},{"name":"原胤敦墓","province":"東京都","city":"八王子市","address":"東京都八王子市上野町11-2","lat":35.655468,"lon":139.329732},{"name":"府中高札場","province":"東京都","city":"府中市","address":"東京都府中市宮西町5-1-1","lat":35.669798,"lon":139.476383},{"name":"久米川古戦場","province":"東京都","city":"東村山市","address":"東京都東村山市諏訪町2丁目付近(西宿公園)","lat":35.768836,"lon":139.464478},{"name":"伊藤単朴墓","province":"東京都","city":"国立市","address":"東京都国立市青柳355","lat":35.686214,"lon":139.424643},{"name":"近藤守真墓","province":"東京都","city":"八丈町","address":"東京都八丈町三根125","lat":33.120434,"lon":139.80201},{"name":"清澄庭園","province":"東京都","city":"江東区","address":"東京都江東区清澄3-3","lat":35.679538,"lon":139.796757},{"name":"王子神社のイチョウ","province":"東京都","city":"北区","address":"東京都北区王子本町1-1-12","lat":35.753295,"lon":139.735927},{"name":"延命院のシイ","province":"東京都","city":"荒川区","address":"東京都荒川区西日暮里3-10-1","lat":35.72818,"lon":139.767723},{"name":"安楽寺の大スギ","province":"東京都","city":"青梅市","address":"東京都青梅市成木1-583","lat":35.838484,"lon":139.275364},{"name":"倉沢のヒノキ","province":"東京都","city":"西多摩郡奥多摩町","address":"東京都西多摩郡奥多摩町日原567","lat":35.841557,"lon":139.043247},{"name":"差木地の大クス","province":"東京都","city":"大島町","address":"東京都大島町差木地2","lat":34.688425,"lon":139.403019},{"name":"野増大宮のシイ樹叢","province":"東京都","city":"大島町","address":"東京都大島町野増字大宮","lat":34.733749,"lon":139.356854},{"name":"堂山のシイ","province":"東京都","city":"三宅村","address":"東京都三宅村伊豆1563","lat":34.114022,"lon":139.500935},{"name":"ビャクシン","province":"東京都","city":"","address":"東京都三宅島三宅村神着200-1","lat":34.1208,"lon":139.525119},{"name":"石皿","province":"東京都","city":"東大和市","address":"東京都東大和市清水","lat":35.75158492,"lon":139.44579928},{"name":"徳川氏御朱印状","province":"東京都","city":"東大和市","address":"東京都東大和市清水4-1132","lat":35.748619,"lon":139.446777},{"name":"里正日誌","province":"東京都","city":"東大和市","address":"東京都東大和市蔵敷","lat":35.75053446,"lon":139.42005979},{"name":"上の台遺跡の石器","province":"東京都","city":"東大和市","address":"東京都東大和市清水","lat":35.75158492,"lon":139.44579928},{"name":"上の台遺跡の石器","province":"東京都","city":"東大和市","address":"東京都東大和市奈良橋1-260-2","lat":35.756416,"lon":139.422241},{"name":"八幡谷戸遺跡第4・5号住居跡の出土遺物（一括）","province":"東京都","city":"東大和市","address":"東京都東大和市奈良橋1-260-2","lat":35.756416,"lon":139.422241},{"name":"豊鹿島神社本殿の木製狛犬","province":"東京都","city":"東大和市","address":"東京都東大和市芋窪1-2067","lat":35.757317,"lon":139.413345},{"name":"豊鹿島神社の獅子頭","province":"東京都","city":"東大和市","address":"東京都東大和市芋窪1-2067","lat":35.757317,"lon":139.413345},{"name":"慶性院の水天像","province":"東京都","city":"東大和市","address":"東京都東大和市芋窪6-1352","lat":35.750076,"lon":139.41011},{"name":"高木獅子舞の旧獅子頭","province":"東京都","city":"東大和市","address":"東京都東大和市奈良橋1-260-2","lat":35.756416,"lon":139.422241},{"name":"鹿島台遺跡住居跡の出土遺物（一括）","province":"東京都","city":"東大和市","address":"東京都東大和市奈良橋1-260-2","lat":35.756416,"lon":139.422241},{"name":"徳川氏御朱印状（氷川神社宛8通）","province":"東京都","city":"東大和市","address":"東京都東大和市清水","lat":35.75158492,"lon":139.44579928},{"name":"永仁二年銘の弥陀種子板碑","province":"東京都","city":"東大和市","address":"東京都東大和市奈良橋1-260-2","lat":35.756416,"lon":139.422241},{"name":"旧高木村名主宮鍋家文書","province":"東京都","city":"東大和市","address":"東京都東大和市高木","lat":35.74792111,"lon":139.4313756},{"name":"狭山の栞　紙型（しけい）及び挿図判（一括）","province":"東京都","city":"東大和市","address":"東京都東大和市狭山","lat":35.75673132,"lon":139.43643321},{"name":"名号塔婆","province":"東京都","city":"東大和市","address":"東京都東大和市清水6-1140","lat":35.74691,"lon":139.446823},{"name":"高木獅子舞の道具及び衣裳一式","province":"東京都","city":"東大和市","address":"東京都東大和市高木2-106","lat":35.75206,"lon":139.433228},{"name":"庚申塔（清水3丁目）","province":"東京都","city":"東大和市","address":"東京都東大和市清水3-869","lat":35.752808,"lon":139.442963},{"name":"庚申塔（芋窪6丁目）","province":"東京都","city":"東大和市","address":"東京都東大和市芋窪6-1318","lat":35.751465,"lon":139.410492},{"name":"清水本村橋の石橋供養塔","province":"東京都","city":"東大和市","address":"東京都東大和市清水1-755(清水観音堂敷地内)","lat":35.755527,"lon":139.442566},{"name":"砂の橋の石橋供養塔","province":"東京都","city":"東大和市","address":"東京都東大和市清水1-755(清水観音堂敷地内)","lat":35.755527,"lon":139.442566},{"name":"徳治二年銘の板碑","province":"東京都","city":"東大和市","address":"東京都東大和市狭山3-1354","lat":35.754997,"lon":139.435898},{"name":"庚申塔（阿字庚申）","province":"東京都","city":"東大和市","address":"東京都東大和市奈良橋1-363","lat":35.755196,"lon":139.425003},{"name":"清水囃子","province":"東京都","city":"東大和市","address":"東京都東大和市清水3-786-1","lat":35.752808,"lon":139.442963},{"name":"庚申塚","province":"東京都","city":"東大和市","address":"東京都東大和市蔵敷2-508-3","lat":35.752041,"lon":139.42067},{"name":"八幡谷戸遺跡","province":"東京都","city":"東大和市","address":"東京都東大和市奈良橋1-257ほか","lat":35.756325,"lon":139.423431},{"name":"鹿島台遺跡","province":"東京都","city":"東大和市","address":"東京都東大和市芋窪1-1998ほか","lat":35.757317,"lon":139.413345},{"name":"蔵敷太子堂跡","province":"東京都","city":"東大和市","address":"東京都東大和市蔵敷1-436","lat":35.755863,"lon":139.418884},{"name":"青梅橋跡","province":"東京都","city":"東大和市","address":"東京都東大和市桜が丘1-1415付近","lat":35.732685,"lon":139.431732},{"name":"旧日立航空機株式会社変電所","province":"東京都","city":"東大和市","address":"東京都東大和市桜が丘2-167-18","lat":35.736725,"lon":139.420883},{"name":"高木村外五ヶ村連合戸長役場跡","province":"東京都","city":"東大和市","address":"東京都東大和市高木2-106","lat":35.75206,"lon":139.433228},{"name":"蔵敷調連場跡","province":"東京都","city":"東大和市","address":"東京都東大和市蔵敷2-535付近","lat":35.752499,"lon":139.419189},{"name":"旧吉岡家住宅","province":"東京都","city":"東大和市","address":"東京都東大和市清水3-779","lat":35.7544,"lon":139.442845},{"name":"泉龍寺弁財天池","province":"東京都","city":"狛江市","address":"東京都狛江市元和泉1-8","lat":35.632292,"lon":139.576168},{"name":"伊豆美神社鳥居","province":"東京都","city":"狛江市","address":"東京都狛江市中伊豆美3-21-8","lat":35.634736,"lon":139.569012},{"name":"木造石谷貞清坐像","province":"東京都","city":"狛江市","address":"東京都狛江市元和泉1-6-1","lat":35.63314,"lon":139.576404},{"name":"石川丈山撰文「宗淳居士晩詞并序」の扁額","province":"東京都","city":"狛江市","address":"東京都狛江市元和泉1-6-1","lat":35.63314,"lon":139.576404},{"name":"玉泉寺のボダイジュ","province":"東京都","city":"狛江市","address":"東京都狛江市東和泉3-10-23","lat":35.626988,"lon":139.573948},{"name":"慶長十五年（1610）の雲版","province":"東京都","city":"狛江市","address":"東京都狛江市元和泉1-6-1","lat":35.63314,"lon":139.576404},{"name":"絹本著色石谷貞清画像","province":"東京都","city":"狛江市","address":"東京都狛江市元和泉1-6-1","lat":35.63314,"lon":139.576404},{"name":"石井家文書　附　荒井家・大久保家・谷田部家旧蔵文書","province":"東京都","city":"狛江市","address":"東京都狛江市和泉本町1-1-5","lat":35.634967,"lon":139.578738},{"name":"栗山家文書","province":"東京都","city":"狛江市","address":"東京都狛江市和泉本町1-1-5","lat":35.634967,"lon":139.578738},{"name":"土屋塚古墳","province":"東京都","city":"狛江市","address":"東京都狛江市岩戸南1-4","lat":35.63229,"lon":139.585148},{"name":"旧荒井家住宅主屋","province":"東京都","city":"狛江市","address":"東京都狛江市元和泉2-15-5","lat":35.632911,"lon":139.571155},{"name":"土屋塚古墳出土遺物","province":"東京都","city":"狛江市","address":"東京都狛江市和泉本町1-1-5","lat":35.634967,"lon":139.578738},{"name":"弁財天池遺跡１号方形周溝墓出土遺物","province":"東京都","city":"狛江市","address":"東京都狛江市和泉本町1-1-5","lat":35.634967,"lon":139.578738},{"name":"旧?木家長屋門　附　棟札１枚","province":"東京都","city":"狛江市","address":"東京都狛江市元和泉2-15-5","lat":35.632911,"lon":139.571155},{"name":"泉龍寺本堂、開山堂、鐘楼門、山門　附　棟札３枚","province":"東京都","city":"狛江市","address":"東京都狛江市元和泉1-6-1","lat":35.633101,"lon":139.575696},{"name":"猪方小川塚古墳","province":"東京都","city":"狛江市","address":"東京都狛江市猪方3-21","lat":35.625593,"lon":139.577011},{"name":"猪方小川塚古墳出土遺物","province":"東京都","city":"狛江市","address":"東京都狛江市和泉本町1-1-5","lat":35.634967,"lon":139.578738},{"name":"井伊直弼公敬慕碑","province":"東京都","city":"狛江市","address":"東京都狛江市中伊豆美3-21-8","lat":35.634736,"lon":139.569012}]}