{"keyword":"振興","data":[{"name":"すみだ産業会館","province":"東京都","city":"墨田区","address":"東京都墨田区江東橋3丁目9-10","lat":35.69504482,"lon":139.81366874},{"name":"すみだ中小企業センター","province":"東京都","city":"墨田区","address":"東京都墨田区文花1丁目19-1","lat":35.71053903,"lon":139.82370512},{"name":"消費者センター","province":"東京都","city":"港区","address":"港区芝浦一丁目16番1号みなとパーク芝浦2階","lat":35.645693,"lon":139.749023,"URL":"<a href='https://www.city.minato.tokyo.jp/shisetsu/shokokaikan/shohisha/01.html' target='_blank'>https://www.city.minato.tokyo.jp/shisetsu/shokokaikan/shohisha/01.html</a>","分類":"消費者センター","地区":"芝浦港南地区","連絡先":"消費者センター<相談専用電話番号> 03-3456-6827 ※消費生活相談については関連リンク「消費生活相談」をご覧ください。  代表電話:03-3456-4159 ファックス:03-3453-0458"},{"name":"産業振興センター","province":"東京都","city":"港区","address":"港区芝五丁目36番4号札の辻スクエア9階、10階、11階","lat":35.64522504360484,"lon":139.7447644196809,"URL":"<a href='https://www.city.minato.tokyo.jp/shisetsu/shokokaikan/sangyou.html' target='_blank'>https://www.city.minato.tokyo.jp/shisetsu/shokokaikan/sangyou.html</a>","分類":"","地区":"芝地区","連絡先":"総合受付 電話:03-6435-0601 ※受付時間は開館時間に準じます。"}]}