{"keyword":"拠点","data":[{"name":"子育てひろば西片","province":"東京都","city":"文京区","address":"東京都文京区西片1丁目8番15号","lat":35.712588,"lon":139.754057},{"name":"子育てひろば汐見","province":"東京都","city":"文京区","address":"東京都文京区千駄木2丁目19番23号(汐見小学校内)","lat":35.724296,"lon":139.760809},{"name":"子育てひろば江戸川橋","province":"東京都","city":"文京区","address":"東京都文京区小日向2丁目16番15号(文京総合福祉センター3階)","lat":35.710662,"lon":139.734753},{"name":"子育てひろば水道","province":"東京都","city":"文京区","address":"東京都文京区水道1-3-26(水道保育園内)","lat":35.7095669999999,"lon":139.742295},{"name":"子育てひろば千石","province":"東京都","city":"文京区","address":"東京都文京区千石1丁目4番3号(千石児童館内)","lat":35.7248149999999,"lon":139.743264},{"name":"こまぴよのおうち","province":"東京都","city":"文京区","address":"東京都文京区本駒込五丁目11番6号","lat":35.731435,"lon":139.75271},{"name":"こそだておうえんまちぷら","province":"東京都","city":"文京区","address":"東京都文京区本郷三丁目9番5号NK本郷ビル4階","lat":35.704574,"lon":139.763083},{"name":"さきちゃんちpetit","province":"東京都","city":"文京区","address":"東京都文京区白山二丁目14番17号1階","lat":35.717548,"lon":139.746094},{"name":"子育てひろば水道","province":"東京都","city":"文京区","address":"東京都文京区水道1-3-26(水道保育園内)","lat":35.709567,"lon":139.742295},{"name":"子育てひろば千石","province":"東京都","city":"文京区","address":"東京都文京区千石1丁目4番3号(千石児童館内)","lat":35.724815,"lon":139.743264},{"name":"九段中等教育学校","province":"東京都","city":"千代田区","address":"東京都千代田区九段北2丁目2-1","lat":35.69609634,"lon":139.74728118},{"name":"中央区立総合スポーツセンター","province":"東京都","city":"中央区","address":"東京都中央区日本橋浜町2丁目59-1","lat":35.68785406,"lon":139.78937729},{"name":"港区スポーツセンター","province":"東京都","city":"港区","address":"東京都港区芝浦3丁目1-19","lat":35.64547419,"lon":139.75030505},{"name":"新宿区立新宿コズミックスポーツセンター","province":"東京都","city":"新宿区","address":"東京都新宿区大久保3丁目1-2","lat":35.70498047,"lon":139.70807873},{"name":"文京スポーツセンター","province":"東京都","city":"文京区","address":"東京都文京区大塚3丁目29-2","lat":35.72054062,"lon":139.73641181},{"name":"台東区本庁舎","province":"東京都","city":"台東区","address":"東京都台東区東上野4丁目5-6","lat":35.71261223,"lon":139.779984},{"name":"墨田区本庁舎","province":"東京都","city":"墨田区","address":"東京都墨田区吾妻橋1丁目23-20","lat":35.71072382,"lon":139.80149602},{"name":"江東区本庁舎","province":"東京都","city":"江東区","address":"東京都江東区東陽4丁目11-28","lat":35.67279228,"lon":139.81722917},{"name":"総合区民センター","province":"東京都","city":"江東区","address":"東京都江東区大島4丁目5-1","lat":35.6890932,"lon":139.82686406},{"name":"品川区防災センター","province":"東京都","city":"品川区","address":"東京都品川区広町2丁目1-36","lat":35.60881128,"lon":139.73028866},{"name":"目黒区本庁舎","province":"東京都","city":"目黒区","address":"東京都目黒区上目黒2丁目19-15","lat":35.64110969,"lon":139.69847649},{"name":"大田区体育館","province":"東京都","city":"大田区","address":"東京都大田区東蒲田1丁目11-1","lat":35.56468885,"lon":139.72792128},{"name":"大田区産業プラザ（Ｐｉｏ）","province":"東京都","city":"大田区","address":"東京都大田区南蒲田1丁目20-20","lat":35.55879224,"lon":139.72416907},{"name":"世田谷区立大蔵第二運動場","province":"東京都","city":"世田谷区","address":"東京都世田谷区大蔵4丁目6-1","lat":35.63043134,"lon":139.61231215},{"name":"渋谷区本庁舎","province":"東京都","city":"渋谷区","address":"東京都渋谷区宇田川町1-1","lat":35.66395376,"lon":139.69807679},{"name":"中野区本庁舎","province":"東京都","city":"中野区","address":"東京都中野区中野4丁目8-1","lat":35.70733449,"lon":139.6637464},{"name":"都立稔ヶ丘高等学校","province":"東京都","city":"中野区","address":"東京都中野区上鷺宮5丁目11-1","lat":35.72800066,"lon":139.62576254},{"name":"都立富士高等学校","province":"東京都","city":"中野区","address":"東京都中野区弥生町5丁目21-1","lat":35.68959503,"lon":139.66701353},{"name":"杉並区立永福体育館","province":"東京都","city":"杉並区","address":"東京都杉並区永福3丁目51-17","lat":35.67845941,"lon":139.63804426},{"name":"杉並区立上井草スポーツセンター","province":"東京都","city":"杉並区","address":"東京都杉並区上井草3丁目34-1","lat":35.72411984,"lon":139.60178143},{"name":"杉並区立高円寺体育館","province":"東京都","city":"杉並区","address":"東京都杉並区高円寺南2丁目36-31","lat":35.69969344,"lon":139.65411702},{"name":"にしすがも創造舎（旧朝日中）","province":"東京都","city":"豊島区","address":"東京都豊島区西巣鴨4丁目9-1","lat":35.74388772,"lon":139.73004475},{"name":"豊島区立千登世橋中学校","province":"東京都","city":"豊島区","address":"東京都豊島区目白1丁目1-1","lat":35.7172653,"lon":139.7118946},{"name":"北区本庁舎","province":"東京都","city":"北区","address":"東京都北区王子本町1丁目15-22","lat":35.75280347,"lon":139.73349965},{"name":"北区防災センター","province":"東京都","city":"北区","address":"東京都北区西ケ原2丁目1-6","lat":35.74548783,"lon":139.74511007},{"name":"サンパール荒川","province":"東京都","city":"荒川区","address":"東京都荒川区荒川1丁目1-1","lat":35.73521383,"lon":139.78510844},{"name":"板橋区立小豆沢体育館","province":"東京都","city":"板橋区","address":"東京都板橋区小豆沢3丁目1-1","lat":35.7791632,"lon":139.69744603},{"name":"練馬区立総合体育館","province":"東京都","city":"練馬区","address":"東京都練馬区谷原1丁目7-5","lat":35.74938979,"lon":139.62145652},{"name":"足立区立保木間公園","province":"東京都","city":"足立区","address":"東京都足立区竹の塚3丁目8-1","lat":35.79027618,"lon":139.80209492},{"name":"都立東綾瀬公園","province":"東京都","city":"足立区","address":"東京都足立区東綾瀬3丁目4","lat":35.77023453,"lon":139.83256528},{"name":"都立舎人公園","province":"東京都","city":"足立区","address":"東京都足立区舎人公園1-1","lat":35.79709935,"lon":139.76835863},{"name":"テクノプラザかつしか","province":"東京都","city":"葛飾区","address":"東京都葛飾区青戸7丁目2-1","lat":35.75232874,"lon":139.85253928},{"name":"葛飾区立総合スポーツセンターエイトホール","province":"東京都","city":"葛飾区","address":"東京都葛飾区高砂1丁目2-1","lat":35.74105524,"lon":139.86366937},{"name":"江戸川区総合文化センター","province":"東京都","city":"江戸川区","address":"東京都江戸川区中央4丁目14-1","lat":35.71108906,"lon":139.86826216},{"name":"葛西防災施設","province":"東京都","city":"江戸川区","address":"東京都江戸川区西葛西8丁目17-1","lat":35.65538166,"lon":139.86321174},{"name":"片倉つどいの森公園","province":"東京都","city":"八王子市","address":"東京都八王子市片倉町3506","lat":35.63762703,"lon":139.3311096},{"name":"あったかホール","province":"東京都","city":"八王子市","address":"東京都八王子市北野町596-3","lat":35.65532723,"lon":139.35342175},{"name":"東京工科大学八王子キャンパス","province":"東京都","city":"八王子市","address":"東京都八王子市片倉町1404-1","lat":35.6248611,"lon":139.34197108},{"name":"立川市本庁舎","province":"東京都","city":"立川市","address":"東京都立川市泉町1156-9","lat":35.71399946,"lon":139.4078846},{"name":"柴崎市民体育館","province":"東京都","city":"立川市","address":"東京都立川市柴崎町6丁目15-9","lat":35.68827745,"lon":139.4111158},{"name":"泉市民体育館","province":"東京都","city":"立川市","address":"東京都立川市泉町786-11","lat":35.71897695,"lon":139.41870575},{"name":"武蔵野市立武蔵野総合体育館","province":"東京都","city":"武蔵野市","address":"東京都武蔵野市吉祥寺北町5丁目11-20","lat":35.71788638,"lon":139.56758731},{"name":"三鷹市立第一中学校","province":"東京都","city":"三鷹市","address":"東京都三鷹市下連雀9丁目10-1","lat":35.68538706,"lon":139.55970316},{"name":"青梅市本庁舎","province":"東京都","city":"青梅市","address":"東京都青梅市東青梅1丁目11-1","lat":35.78785689,"lon":139.27583503},{"name":"青梅市民球技場","province":"東京都","city":"青梅市","address":"東京都青梅市河辺町1丁目872-1","lat":35.77784173,"lon":139.28723709},{"name":"青梅市立第六小学校","province":"東京都","city":"青梅市","address":"東京都青梅市二俣尾3丁目903-1","lat":35.80159313,"lon":139.2168608},{"name":"明星大学グラウンド","province":"東京都","city":"青梅市","address":"東京都青梅市長淵2丁目590","lat":35.77275567,"lon":139.26727244},{"name":"府中市役所北庁舎屋内駐車場","province":"東京都","city":"府中市","address":"東京都府中市宮西町2丁目24","lat":35.66907035,"lon":139.47727755},{"name":"府中市水防・防災ステーション","province":"東京都","city":"府中市","address":"東京都府中市小柳町6丁目1","lat":35.65723101,"lon":139.50668392},{"name":"昭島市本庁舎","province":"東京都","city":"昭島市","address":"東京都昭島市田中町1丁目17-1","lat":35.70573804,"lon":139.35361463},{"name":"昭島市総合スポーツセンター","province":"東京都","city":"昭島市","address":"東京都昭島市東町5丁目13-1","lat":35.70343335,"lon":139.38437583},{"name":"大町備蓄倉庫（大町スポーツセンター）","province":"東京都","city":"調布市","address":"東京都調布市菊野台3丁目27-40","lat":35.65252451,"lon":139.5724838},{"name":"町田市役所","province":"東京都","city":"町田市","address":"東京都町田市中町1丁目20-23","lat":35.5486636,"lon":139.44637303},{"name":"小金井市役所第２駐車場","province":"東京都","city":"小金井市","address":"東京都小金井市前原町3丁目41-15","lat":35.69855935,"lon":139.50482412},{"name":"日野市本庁舎","province":"東京都","city":"日野市","address":"東京都日野市神明1丁目12-1","lat":35.67050411,"lon":139.39551218},{"name":"市民の森ふれあいホール","province":"東京都","city":"日野市","address":"東京都日野市日野本町6丁目1-3","lat":35.68078646,"lon":139.40379169},{"name":"東村山市民スポーツセンター","province":"東京都","city":"東村山市","address":"東京都東村山市久米川町3丁目30-5","lat":35.76107658,"lon":139.47965976},{"name":"国分寺市本庁舎","province":"東京都","city":"国分寺市","address":"東京都国分寺市戸倉1丁目6-1","lat":35.71082909,"lon":139.46270502},{"name":"ひかりスポーツセンター","province":"東京都","city":"国分寺市","address":"東京都国分寺市光町1丁目46-8","lat":35.70270738,"lon":139.44470969},{"name":"国分寺市民スポーツセンター","province":"東京都","city":"小平市","address":"東京都小平市上水本町6丁目22-1","lat":35.71079606,"lon":139.47522059},{"name":"くにたち市民総合体育館","province":"東京都","city":"国立市","address":"東京都国立市富士見台2丁目48","lat":35.68475647,"lon":139.4401274},{"name":"福生市民会館","province":"東京都","city":"福生市","address":"東京都福生市福生（大字）2455","lat":35.73403986,"lon":139.33785671},{"name":"さくら会館","province":"東京都","city":"福生市","address":"東京都福生市牛浜163","lat":35.73379544,"lon":139.33723732},{"name":"狛江市民総合体育館","province":"東京都","city":"狛江市","address":"東京都狛江市和泉本町3丁目25-1","lat":35.64199804,"lon":139.57305642},{"name":"東大和市本庁舎","province":"東京都","city":"東大和市","address":"東京都東大和市中央3丁目930","lat":35.74471306,"lon":139.42703715},{"name":"清瀬市本庁舎","province":"東京都","city":"清瀬市","address":"東京都清瀬市中里5丁目842","lat":35.78608019,"lon":139.52608035},{"name":"東久留米市本庁舎","province":"東京都","city":"東久留米市","address":"東京都東久留米市本町3丁目3-1","lat":35.75799202,"lon":139.52967216},{"name":"東久留米市立久留米中学校","province":"東京都","city":"東久留米市","address":"東京都東久留米市幸町5丁目9-11","lat":35.761708,"lon":139.51692595},{"name":"東久留米市立大門中学校","province":"東京都","city":"東久留米市","address":"東京都東久留米市大門町2丁目13-8","lat":35.7628556,"lon":139.54363203},{"name":"武蔵村山市本庁舎","province":"東京都","city":"武蔵村山市","address":"東京都武蔵村山市本町1丁目1-1","lat":35.7548304,"lon":139.38737668},{"name":"多摩市立武道館・陸上競技場","province":"東京都","city":"多摩市","address":"東京都多摩市諏訪4丁目9","lat":35.62459204,"lon":139.46102787},{"name":"稲城市役所西側車庫棟","province":"東京都","city":"稲城市","address":"東京都稲城市東長沼2111","lat":35.63795935,"lon":139.50426905},{"name":"羽村市スポーツセンター","province":"東京都","city":"羽村市","address":"東京都羽村市羽加美1丁目29-5","lat":35.76826834,"lon":139.30764403},{"name":"あきる野市本庁舎","province":"東京都","city":"あきる野市","address":"東京都あきる野市二宮350","lat":35.72920304,"lon":139.29349922},{"name":"西東京市役所田無庁舎","province":"東京都","city":"西東京市","address":"東京都西東京市南町5丁目6-13","lat":35.72567651,"lon":139.53795616},{"name":"西東京市役所保谷庁舎","province":"東京都","city":"西東京市","address":"東京都西東京市中町1丁目5-1","lat":35.74129184,"lon":139.55895096},{"name":"瑞穂スカイホール","province":"東京都","city":"西多摩郡瑞穂町","address":"東京都西多摩郡瑞穂町箱根ケ崎（大字）2475","lat":35.77460487,"lon":139.35533972},{"name":"日の出町本庁舎","province":"東京都","city":"西多摩郡日の出町","address":"東京都西多摩郡日の出町平井（大字）2780","lat":35.74211436,"lon":139.25740482},{"name":"桧原村本庁舎","province":"東京都","city":"西多摩郡檜原村","address":"東京都西多摩郡檜原村上元郷467-1","lat":35.72689989,"lon":139.14880216},{"name":"奥多摩町福祉会館","province":"東京都","city":"西多摩郡奥多摩町","address":"東京都西多摩郡奥多摩町氷川199","lat":35.80875703,"lon":139.09735199},{"name":"日本放送協会","province":"東京都","city":"渋谷区","address":"渋谷区神南2-2-1","lat":35.66656,"lon":139.6969},{"name":"（株）ＴＢＳテレビ","province":"東京都","city":"港区","address":"港区赤坂5-3-6","lat":35.67164,"lon":139.7345},{"name":"（株）文化放送","province":"東京都","city":"港区","address":"港区浜松町1-31","lat":35.65687,"lon":139.7572},{"name":"（株）ニッポン放送","province":"東京都","city":"千代田区","address":"千代田区有楽町1-9-3","lat":35.67521,"lon":139.7606},{"name":"（株）アール・エフ・ラジオ日本","province":"東京都","city":"港区","address":"港区麻布台2-2-1","lat":35.65817,"lon":139.7422},{"name":"（株）エフエム東京","province":"東京都","city":"千代田区","address":"千代田区麹町1-7","lat":35.6835,"lon":139.7429},{"name":"（株）日経ラジオ社","province":"東京都","city":"港区","address":"港区赤坂1-9-15","lat":35.66936,"lon":139.7436},{"name":"日本テレビ放送網（株）","province":"東京都","city":"港区","address":"港区東新橋1-6-1","lat":35.6644,"lon":139.7599},{"name":"（株）フジテレビジョン","province":"東京都","city":"港区","address":"港区台場2-4-8","lat":35.62685,"lon":139.7741},{"name":"（株）テレビ朝日","province":"東京都","city":"港区","address":"港区六本木6-9-1","lat":35.65968,"lon":139.7309},{"name":"（株）テレビ東京","province":"東京都","city":"港区","address":"港区虎ノ門4-3-12","lat":35.66396,"lon":139.7435},{"name":"（株）Ｊ－ＷＡＶＥ","province":"東京都","city":"港区","address":"港区六本木6-10-1六本木ヒルズ森タワー","lat":35.660428,"lon":139.729182},{"name":"東京メトロポリタンテレビジョン（株）","province":"東京都","city":"千代田区","address":"千代田区麹町1-12","lat":35.68479,"lon":139.7439},{"name":"（株）ＩｎｔｅｒＦＭ","province":"","city":"","address":"東品川1-3-3-7F","lat":35.62104,"lon":139.7465},{"name":"（株）ＴＢＳラジオ＆コミュニケーションズ","province":"東京都","city":"港区","address":"港区赤坂5-3-6","lat":35.67164,"lon":139.7345},{"name":"※台東区本庁舎","province":"東京都","city":"台東区","address":"東京都台東区東上野4丁目5-6","lat":35.71261223,"lon":139.779984},{"name":"※墨田区本庁舎","province":"東京都","city":"墨田区","address":"東京都墨田区吾妻橋1丁目23-20","lat":35.71072382,"lon":139.80149602},{"name":"※江東区本庁舎","province":"東京都","city":"江東区","address":"東京都江東区東陽4丁目11-28","lat":35.67279228,"lon":139.81722917},{"name":"※目黒区本庁舎","province":"東京都","city":"目黒区","address":"東京都目黒区上目黒2丁目19-15","lat":35.64110969,"lon":139.69847649},{"name":"※渋谷区本庁舎","province":"東京都","city":"渋谷区","address":"東京都渋谷区宇田川町1-1","lat":35.66395376,"lon":139.69807679},{"name":"※中野区本庁舎","province":"東京都","city":"中野区","address":"東京都中野区中野4丁目8-1","lat":35.70733449,"lon":139.6637464},{"name":"※北区本庁舎","province":"東京都","city":"北区","address":"東京都北区王子本町1丁目15-22","lat":35.75280347,"lon":139.73349965},{"name":"※立川市本庁舎","province":"東京都","city":"立川市","address":"東京都立川市泉町1156-9","lat":35.71399946,"lon":139.4078846},{"name":"※青梅市本庁舎","province":"東京都","city":"青梅市","address":"東京都青梅市東青梅1丁目11-1","lat":35.78785689,"lon":139.27583503},{"name":"※昭島市本庁舎","province":"東京都","city":"昭島市","address":"東京都昭島市田中町1丁目17-1","lat":35.70573804,"lon":139.35361463},{"name":"※町田市役所","province":"東京都","city":"町田市","address":"東京都町田市中町1丁目20-23","lat":35.5486636,"lon":139.44637303},{"name":"※日野市本庁舎","province":"東京都","city":"日野市","address":"東京都日野市神明1丁目12-1","lat":35.67050411,"lon":139.39551218},{"name":"※東村山市役所本庁舎","province":"東京都","city":"東村山市","address":"東京都東村山市本町1丁目2-3","lat":35.75462421,"lon":139.46848323},{"name":"※国分寺市本庁舎","province":"東京都","city":"国分寺市","address":"東京都国分寺市戸倉1丁目6-1","lat":35.71082909,"lon":139.46270502},{"name":"※狛江市役所","province":"東京都","city":"狛江市","address":"東京都狛江市和泉本町1丁目1-5","lat":35.63491314,"lon":139.57873418},{"name":"※東大和市本庁舎","province":"東京都","city":"東大和市","address":"東京都東大和市中央3丁目930","lat":35.74471306,"lon":139.42703715},{"name":"※清瀬市本庁舎","province":"東京都","city":"清瀬市","address":"東京都清瀬市中里5丁目842","lat":35.78608019,"lon":139.52608035},{"name":"※東久留米市本庁舎","province":"東京都","city":"東久留米市","address":"東京都東久留米市本町3丁目3-1","lat":35.75799202,"lon":139.52967216},{"name":"※武蔵村山市本庁舎","province":"東京都","city":"武蔵村山市","address":"東京都武蔵村山市本町1丁目1-1","lat":35.7548304,"lon":139.38737668},{"name":"※あきる野市本庁舎","province":"東京都","city":"あきる野市","address":"東京都あきる野市二宮350","lat":35.72920304,"lon":139.29349922},{"name":"※西東京市役所保谷庁舎","province":"東京都","city":"西東京市","address":"東京都西東京市中町1丁目5-1","lat":35.74129184,"lon":139.55895096},{"name":"※日の出町本庁舎","province":"東京都","city":"西多摩郡日の出町","address":"東京都西多摩郡日の出町平井（大字）2780","lat":35.74211436,"lon":139.25740482},{"name":"※桧原村本庁舎","province":"東京都","city":"西多摩郡檜原村","address":"東京都西多摩郡檜原村上元郷467-1","lat":35.72689989,"lon":139.14880216},{"name":"東京駅","province":"東京都","city":"千代田区","address":"東京都千代田区丸の内1丁目9-1","lat":35.68183174,"lon":139.76677464},{"name":"秋葉原駅","province":"東京都","city":"千代田区","address":"東京都千代田区外神田1丁目17-6","lat":35.6986329,"lon":139.77284615},{"name":"上野駅","province":"東京都","city":"台東区","address":"東京都台東区上野7丁目1-1","lat":35.7135843,"lon":139.77732857},{"name":"日暮里駅","province":"東京都","city":"荒川区","address":"東京都荒川区西日暮里2丁目19","lat":35.72791348,"lon":139.77103415},{"name":"田端駅","province":"東京都","city":"北区","address":"東京都北区東田端1丁目17-1","lat":35.7379979,"lon":139.76093988},{"name":"池袋駅","province":"東京都","city":"豊島区","address":"東京都豊島区南池袋1丁目28-2","lat":35.73090546,"lon":139.71243844},{"name":"新宿駅","province":"東京都","city":"新宿区","address":"東京都新宿区新宿3丁目38-1","lat":35.69130129,"lon":139.70113545},{"name":"渋谷駅","province":"東京都","city":"渋谷区","address":"東京都渋谷区道玄坂1丁目1-1","lat":35.65844945,"lon":139.70127562},{"name":"品川駅","province":"東京都","city":"港区","address":"東京都港区高輪3丁目26-27","lat":35.62871196,"lon":139.73940107},{"name":"赤羽駅","province":"東京都","city":"北区","address":"東京都北区赤羽1丁目1-1","lat":35.77859724,"lon":139.72067745},{"name":"蒲田駅","province":"東京都","city":"大田区","address":"東京都大田区蒲田5丁目13-1","lat":35.56259434,"lon":139.71648618},{"name":"吉祥寺駅","province":"東京都","city":"武蔵野市","address":"東京都武蔵野市吉祥寺南町1丁目1-24","lat":35.70304942,"lon":139.57954798},{"name":"西国分寺駅","province":"東京都","city":"国分寺市","address":"東京都国分寺市西恋ヶ窪2丁目1-18","lat":35.69981377,"lon":139.46571628},{"name":"立川駅","province":"東京都","city":"立川市","address":"東京都立川市曙町2丁目1-1","lat":35.69811809,"lon":139.41402907},{"name":"八王子駅","province":"東京都","city":"八王子市","address":"東京都八王子市旭町1-1","lat":35.65575744,"lon":139.34031456},{"name":"青梅駅","province":"東京都","city":"青梅市","address":"東京都青梅市本町192","lat":35.79023939,"lon":139.2576703},{"name":"町田駅","province":"東京都","city":"町田市","address":"東京都町田市原町田1丁目1-36","lat":35.54200593,"lon":139.44548167},{"name":"北千住駅","province":"東京都","city":"足立区","address":"東京都足立区千住旭町42-2","lat":35.74956738,"lon":139.80483303},{"name":"亀有駅","province":"東京都","city":"葛飾区","address":"東京都葛飾区亀有3丁目25-1","lat":35.76662684,"lon":139.84805579},{"name":"金町駅","province":"東京都","city":"葛飾区","address":"東京都葛飾区金町6丁目4-1","lat":35.76898477,"lon":139.86963197},{"name":"亀戸駅","province":"東京都","city":"江東区","address":"東京都江東区亀戸5丁目1-1","lat":35.69781692,"lon":139.82621403},{"name":"小岩駅","province":"東京都","city":"江戸川区","address":"東京都江戸川区南小岩7丁目24-15","lat":35.73297044,"lon":139.88168766},{"name":"多摩センター駅","province":"東京都","city":"多摩市","address":"東京都多摩市","lat":35.63703153,"lon":139.44628412},{"name":"浅草駅","province":"東京都","city":"台東区","address":"東京都台東区","lat":35.71260667,"lon":139.77999789},{"name":"テレコムセンター駅","province":"東京都","city":"江東区","address":"東京都江東区","lat":35.67307835,"lon":139.8169681},{"name":"日本貨物鉄道（株）八王子駅","province":"東京都","city":"八王子市","address":"東京都八王子市","lat":35.66634173,"lon":139.31580521},{"name":"日本貨物鉄道（株）隅田川駅","province":"東京都","city":"荒川区","address":"東京都荒川区","lat":35.73614432,"lon":139.78333641},{"name":"日本貨物鉄道（株）東京貨物ターミナル駅","province":"東京都","city":"品川区","address":"東京都品川区","lat":35.60890571,"lon":139.73030809},{"name":"加平ＰＡ","province":"東京都","city":"足立区","address":"東京都足立区","lat":35.77563344,"lon":139.80450083},{"name":"駒形ＰＡ","province":"東京都","city":"墨田区","address":"東京都墨田区","lat":35.71040718,"lon":139.80155995},{"name":"箱崎ＰＡ","province":"大阪府","city":"大阪市中央区","address":"大阪府大阪市中央区","lat":34.68107502,"lon":135.50978711},{"name":"志村ＰＡ","province":"東京都","city":"板橋区","address":"東京都板橋区","lat":35.7511642,"lon":139.70924619},{"name":"南池袋ＰＡ","province":"東京都","city":"豊島区","address":"東京都豊島区","lat":35.72611722,"lon":139.71660773},{"name":"永福ＰＡ","province":"東京都","city":"杉並区","address":"東京都杉並区","lat":35.69957353,"lon":139.63638522},{"name":"代々木ＰＡ","province":"東京都","city":"渋谷区","address":"東京都渋谷区","lat":35.66368489,"lon":139.69770072},{"name":"用賀ＰＡ","province":"東京都","city":"世田谷区","address":"東京都世田谷区","lat":35.64657462,"lon":139.65324952},{"name":"辰巳第１ＰＡ","province":"東京都","city":"江東区","address":"東京都江東区","lat":35.67307835,"lon":139.8169681},{"name":"辰巳第２ＰＡ","province":"東京都","city":"江東区","address":"東京都江東区","lat":35.67307835,"lon":139.8169681},{"name":"芝浦ＰＡ","province":"東京都","city":"港区","address":"東京都港区","lat":35.65807282,"lon":139.75140452},{"name":"大井ＰＡ（西行）","province":"東京都","city":"品川区","address":"東京都品川区","lat":35.60890571,"lon":139.73030809},{"name":"大井ＰＡ（東行）","province":"東京都","city":"品川区","address":"東京都品川区","lat":35.60890571,"lon":139.73030809},{"name":"平和島ＰＡ（上り）","province":"東京都","city":"大田区","address":"東京都大田区","lat":35.56140006,"lon":139.7160474},{"name":"平和島ＰＡ（下り）","province":"東京都","city":"大田区","address":"東京都大田区","lat":35.56140006,"lon":139.7160474},{"name":"石川ＰＡ（上り）","province":"東京都","city":"八王子市","address":"東京都八王子市","lat":35.66634173,"lon":139.31580521},{"name":"石川ＰＡ（下り）","province":"東京都","city":"八王子市","address":"東京都八王子市","lat":35.66634173,"lon":139.31580521},{"name":"桐ヶ谷斎場","province":"東京都","city":"品川区","address":"東京都品川区西五反田5丁目32-20","lat":35.62232046,"lon":139.71367573},{"name":"堀之内斎場","province":"東京都","city":"杉並区","address":"東京都杉並区梅里1丁目2-27","lat":35.69562996,"lon":139.65120635},{"name":"思い出を語るロマン社ひので斎場","province":"東京都","city":"西多摩郡日の出町","address":"東京都西多摩郡日の出町平井（大字）3092","lat":35.75204107,"lon":139.25521292},{"name":"瑞穂斎場","province":"東京都","city":"西多摩郡瑞穂町","address":"東京都西多摩郡瑞穂町富士山栗原新田（大字）244","lat":35.78176225,"lon":139.34704573},{"name":"立川聖苑","province":"東京都","city":"立川市","address":"東京都立川市羽衣町3丁目20-18","lat":35.68886941,"lon":139.42420084},{"name":"多磨葬祭場","province":"東京都","city":"府中市","address":"東京都府中市多磨町2丁目1-1","lat":35.681731,"lon":139.51697931},{"name":"1.御成門学園御成門小学校(区民避難所)","province":"東京都","city":"港区","address":"港区芝公園三丁目2番4号","lat":35.660982,"lon":139.749524,"URL":"<a href='https://www.city.minato.tokyo.jp/shisetsu/hinansho/kuminhinansho/01.html' target='_blank'>https://www.city.minato.tokyo.jp/shisetsu/hinansho/kuminhinansho/01.html</a>","分類":"区民避難所(地域防災拠点)","地区":"芝地区","連絡先":""},{"name":"2.芝小学校(区民避難所)","province":"東京都","city":"港区","address":"港区芝二丁目21番3号","lat":35.651298,"lon":139.750139,"URL":"<a href='https://www.city.minato.tokyo.jp/shisetsu/hinansho/kuminhinansho/02.html' target='_blank'>https://www.city.minato.tokyo.jp/shisetsu/hinansho/kuminhinansho/02.html</a>","分類":"区民避難所(地域防災拠点)","地区":"芝地区","連絡先":""},{"name":"3.札の辻スクエア(産業振興センター)(区民避難所)","province":"東京都","city":"港区","address":"港区芝五丁目36番4号","lat":35.6451776357033,"lon":139.7447590552472,"URL":"<a href='https://www.city.minato.tokyo.jp/shisetsu/hinansho/kuminhinansho/03.html' target='_blank'>https://www.city.minato.tokyo.jp/shisetsu/hinansho/kuminhinansho/03.html</a>","分類":"区民避難所(地域防災拠点)","地区":"芝地区","連絡先":""},{"name":"4.赤羽小学校(区民避難所)","province":"東京都","city":"港区","address":"港区三田二丁目6番4号","lat":35.653237,"lon":139.74248,"URL":"<a href='https://www.city.minato.tokyo.jp/shisetsu/hinansho/kuminhinansho/04.html' target='_blank'>https://www.city.minato.tokyo.jp/shisetsu/hinansho/kuminhinansho/04.html</a>","分類":"区民避難所(地域防災拠点)","地区":"芝地区","連絡先":""},{"name":"5.御成門学園御成門中学校(区民避難所)","province":"東京都","city":"港区","address":"港区西新橋三丁目25番30号","lat":35.66164,"lon":139.750329,"URL":"<a href='https://www.city.minato.tokyo.jp/shisetsu/hinansho/kuminhinansho/05.html' target='_blank'>https://www.city.minato.tokyo.jp/shisetsu/hinansho/kuminhinansho/05.html</a>","分類":"区民避難所(地域防災拠点)","地区":"芝地区","連絡先":""},{"name":"6.生涯学習センター(区民避難所)","province":"東京都","city":"港区","address":"港区新橋三丁目16番3号","lat":35.665575,"lon":139.757085,"URL":"<a href='https://www.city.minato.tokyo.jp/shisetsu/hinansho/kuminhinansho/06.html' target='_blank'>https://www.city.minato.tokyo.jp/shisetsu/hinansho/kuminhinansho/06.html</a>","分類":"区民避難所(地域防災拠点)","地区":"芝地区","連絡先":""},{"name":"7.エコプラザ(区民避難所)","province":"東京都","city":"港区","address":"港区浜松町一丁目13番1号","lat":35.658866,"lon":139.756851,"URL":"<a href='https://www.city.minato.tokyo.jp/shisetsu/hinansho/kuminhinansho/07.html' target='_blank'>https://www.city.minato.tokyo.jp/shisetsu/hinansho/kuminhinansho/07.html</a>","分類":"区民避難所(地域防災拠点)","地区":"芝地区","連絡先":""},{"name":"8.福祉プラザさくら川(区民避難所)","province":"東京都","city":"港区","address":"港区新橋六丁目19番2号","lat":35.661172,"lon":139.753823,"URL":"<a href='https://www.city.minato.tokyo.jp/shisetsu/hinansho/kuminhinansho/08.html' target='_blank'>https://www.city.minato.tokyo.jp/shisetsu/hinansho/kuminhinansho/08.html</a>","分類":"区民避難所(地域防災拠点)","地区":"芝地区","連絡先":""},{"name":"9.神明子ども中高生プラザ・神明いきいきプラザ(区民避難所)","province":"東京都","city":"港区","address":"港区浜松町一丁目6番7号","lat":35.65877,"lon":139.757557,"URL":"<a href='https://www.city.minato.tokyo.jp/shisetsu/hinansho/kuminhinansho/09.html' target='_blank'>https://www.city.minato.tokyo.jp/shisetsu/hinansho/kuminhinansho/09.html</a>","分類":"区民避難所(地域防災拠点)","地区":"芝地区","連絡先":""},{"name":"10.虎ノ門いきいきプラザ(区民避難所)","province":"東京都","city":"港区","address":"港区虎ノ門一丁目21番10号","lat":35.667859,"lon":139.748668,"URL":"<a href='https://www.city.minato.tokyo.jp/shisetsu/hinansho/kuminhinansho/10.html' target='_blank'>https://www.city.minato.tokyo.jp/shisetsu/hinansho/kuminhinansho/10.html</a>","分類":"区民避難所(地域防災拠点)","地区":"芝地区","連絡先":""},{"name":"11.三田いきいきプラザ(区民避難所)","province":"東京都","city":"港区","address":"港区芝四丁目1番17号","lat":35.648781,"lon":139.749768,"URL":"<a href='https://www.city.minato.tokyo.jp/shisetsu/hinansho/kuminhinansho/11.html' target='_blank'>https://www.city.minato.tokyo.jp/shisetsu/hinansho/kuminhinansho/11.html</a>","分類":"区民避難所(地域防災拠点)","地区":"高輪地区","連絡先":""},{"name":"12.麻布小学校(区民避難所)","province":"東京都","city":"港区","address":"港区麻布台一丁目5番15号","lat":35.661832,"lon":139.738648,"URL":"<a href='https://www.city.minato.tokyo.jp/shisetsu/hinansho/kuminhinansho/12.html' target='_blank'>https://www.city.minato.tokyo.jp/shisetsu/hinansho/kuminhinansho/12.html</a>","分類":"区民避難所(地域防災拠点)","地区":"麻布地区","連絡先":""},{"name":"13.旧飯倉小学校(区民避難所)","province":"東京都","city":"港区","address":"港区東麻布二丁目1番1号","lat":35.658162,"lon":139.742551,"URL":"<a href='https://www.city.minato.tokyo.jp/shisetsu/hinansho/kuminhinansho/13.html' target='_blank'>https://www.city.minato.tokyo.jp/shisetsu/hinansho/kuminhinansho/13.html</a>","分類":"区民避難所(地域防災拠点)","地区":"麻布地区","連絡先":""},{"name":"14.本村小学校(区民避難所)","province":"東京都","city":"港区","address":"港区南麻布三丁目9番33号","lat":35.649829,"lon":139.72991,"URL":"<a href='https://www.city.minato.tokyo.jp/shisetsu/hinansho/kuminhinansho/14.html' target='_blank'>https://www.city.minato.tokyo.jp/shisetsu/hinansho/kuminhinansho/14.html</a>","分類":"区民避難所(地域防災拠点)","地区":"麻布地区","連絡先":""},{"name":"15.東町小学校(区民避難所)","province":"東京都","city":"港区","address":"港区南麻布一丁目8番11号","lat":35.650901,"lon":139.73584,"URL":"<a href='https://www.city.minato.tokyo.jp/shisetsu/hinansho/kuminhinansho/15.html' target='_blank'>https://www.city.minato.tokyo.jp/shisetsu/hinansho/kuminhinansho/15.html</a>","分類":"区民避難所(地域防災拠点)","地区":"麻布地区","連絡先":""},{"name":"16.笄小学校(区民避難所)","province":"東京都","city":"港区","address":"港区西麻布三丁目11番16号","lat":35.65648,"lon":139.724891,"URL":"<a href='https://www.city.minato.tokyo.jp/shisetsu/hinansho/kuminhinansho/16.html' target='_blank'>https://www.city.minato.tokyo.jp/shisetsu/hinansho/kuminhinansho/16.html</a>","分類":"区民避難所(地域防災拠点)","地区":"麻布地区","連絡先":""},{"name":"17.六本木中学校(区民避難所)","province":"東京都","city":"港区","address":"港区六本木六丁目8番16号","lat":35.660826,"lon":139.732266,"URL":"<a href='https://www.city.minato.tokyo.jp/shisetsu/hinansho/kuminhinansho/17.html' target='_blank'>https://www.city.minato.tokyo.jp/shisetsu/hinansho/kuminhinansho/17.html</a>","分類":"区民避難所(地域防災拠点)","地区":"麻布地区","連絡先":""},{"name":"18.高陵中学校(区民避難所)","province":"東京都","city":"港区","address":"港区西麻布4-14-8","lat":35.656991,"lon":139.720539,"URL":"<a href='https://www.city.minato.tokyo.jp/shisetsu/hinansho/kuminhinansho/18.html' target='_blank'>https://www.city.minato.tokyo.jp/shisetsu/hinansho/kuminhinansho/18.html</a>","分類":"区民避難所(地域防災拠点)","地区":"麻布地区","連絡先":""},{"name":"19.南山小学校(区民避難所)","province":"東京都","city":"港区","address":"港区元麻布三丁目8番15号","lat":35.657271,"lon":139.731056,"URL":"<a href='https://www.city.minato.tokyo.jp/shisetsu/hinansho/kuminhinansho/19.html' target='_blank'>https://www.city.minato.tokyo.jp/shisetsu/hinansho/kuminhinansho/19.html</a>","分類":"区民避難所(地域防災拠点)","地区":"麻布地区","連絡先":""},{"name":"20.麻布区民センター(区民避難所)","province":"東京都","city":"港区","address":"港区六本木五丁目16番45号","lat":35.66067,"lon":139.735011,"URL":"<a href='https://www.city.minato.tokyo.jp/shisetsu/hinansho/kuminhinansho/20.html' target='_blank'>https://www.city.minato.tokyo.jp/shisetsu/hinansho/kuminhinansho/20.html</a>","分類":"区民避難所(地域防災拠点)","地区":"麻布地区","連絡先":""},{"name":"21.南麻布いきいきプラザ(区民避難所)","province":"東京都","city":"港区","address":"港区南麻布一丁目5番26号","lat":35.651414,"lon":139.73509,"URL":"<a href='https://www.city.minato.tokyo.jp/shisetsu/hinansho/kuminhinansho/21.html' target='_blank'>https://www.city.minato.tokyo.jp/shisetsu/hinansho/kuminhinansho/21.html</a>","分類":"区民避難所(地域防災拠点)","地区":"麻布地区","連絡先":""},{"name":"22.麻布子ども中高生プラザ・ありすいきいきプラザ(区民避難所)","province":"東京都","city":"港区","address":"港区南麻布四丁目6番7号","lat":35.651082,"lon":139.727468,"URL":"<a href='https://www.city.minato.tokyo.jp/shisetsu/hinansho/kuminhinansho/22.html' target='_blank'>https://www.city.minato.tokyo.jp/shisetsu/hinansho/kuminhinansho/22.html</a>","分類":"区民避難所(地域防災拠点)","地区":"麻布地区","連絡先":""},{"name":"23.西麻布いきいきプラザ(区民避難所)","province":"東京都","city":"港区","address":"港区西麻布二丁目13番3号","lat":35.660801,"lon":139.722696,"URL":"<a href='https://www.city.minato.tokyo.jp/shisetsu/hinansho/kuminhinansho/23.html' target='_blank'>https://www.city.minato.tokyo.jp/shisetsu/hinansho/kuminhinansho/23.html</a>","分類":"区民避難所(地域防災拠点)","地区":"麻布地区","連絡先":""},{"name":"24.飯倉いきいきプラザ(区民避難所)","province":"東京都","city":"港区","address":"港区南麻布東麻布二丁目16番11号","lat":35.65693,"lon":139.740929,"URL":"<a href='https://www.city.minato.tokyo.jp/shisetsu/hinansho/kuminhinansho/24.html' target='_blank'>https://www.city.minato.tokyo.jp/shisetsu/hinansho/kuminhinansho/24.html</a>","分類":"区民避難所(地域防災拠点)","地区":"麻布地区","連絡先":""},{"name":"25.赤坂学園赤坂小・中学校(区民避難所)","province":"東京都","city":"港区","address":"港区赤坂八丁目13番29号/港区赤坂九丁目2番3号","lat":35.669305,"lon":139.731065,"URL":"<a href='https://www.city.minato.tokyo.jp/shisetsu/hinansho/kuminhinansho/25.html' target='_blank'>https://www.city.minato.tokyo.jp/shisetsu/hinansho/kuminhinansho/25.html</a>","分類":"区民避難所(地域防災拠点)","地区":"赤坂地区","連絡先":""},{"name":"26.青山小学校(区民避難所)","province":"東京都","city":"港区","address":"港区南青山二丁目21番2号","lat":35.669882,"lon":139.719084,"URL":"<a href='https://www.city.minato.tokyo.jp/shisetsu/hinansho/kuminhinansho/26.html' target='_blank'>https://www.city.minato.tokyo.jp/shisetsu/hinansho/kuminhinansho/26.html</a>","分類":"区民避難所(地域防災拠点)","地区":"赤坂地区","連絡先":""},{"name":"27.青南小学校(区民避難所)","province":"東京都","city":"港区","address":"港区南青山四丁目21番15号","lat":35.663506,"lon":139.716153,"URL":"<a href='https://www.city.minato.tokyo.jp/shisetsu/hinansho/kuminhinansho/27.html' target='_blank'>https://www.city.minato.tokyo.jp/shisetsu/hinansho/kuminhinansho/27.html</a>","分類":"区民避難所(地域防災拠点)","地区":"赤坂地区","連絡先":""},{"name":"28.青山中学校(区民避難所)","province":"東京都","city":"港区","address":"港区北青山一丁目1番9号","lat":35.674188,"lon":139.72218,"URL":"<a href='https://www.city.minato.tokyo.jp/shisetsu/hinansho/kuminhinansho/29.html' target='_blank'>https://www.city.minato.tokyo.jp/shisetsu/hinansho/kuminhinansho/29.html</a>","分類":"区民避難所(地域防災拠点)","地区":"赤坂地区","連絡先":""},{"name":"29.赤坂区民センター・健康増進センター(区民避難所)","province":"東京都","city":"港区","address":"港区赤坂四丁目18番13号","lat":35.674759,"lon":139.731598,"URL":"<a href='https://www.city.minato.tokyo.jp/shisetsu/hinansho/kuminhinansho/30.html' target='_blank'>https://www.city.minato.tokyo.jp/shisetsu/hinansho/kuminhinansho/30.html</a>","分類":"区民避難所(地域防災拠点)","地区":"赤坂地区","連絡先":""},{"name":"30.サン・サン赤坂(赤坂子ども中高生プラザ)(区民避難所)","province":"東京都","city":"港区","address":"港区赤坂六丁目6番14号","lat":35.669966,"lon":139.737659,"URL":"<a href='https://www.city.minato.tokyo.jp/shisetsu/hinansho/kuminhinansho/31.html' target='_blank'>https://www.city.minato.tokyo.jp/shisetsu/hinansho/kuminhinansho/31.html</a>","分類":"区民避難所(地域防災拠点)","地区":"赤坂地区","連絡先":""},{"name":"31.赤坂いきいきプラザ(区民避難所)","province":"東京都","city":"港区","address":"港区赤坂六丁目4番8号","lat":35.670334,"lon":139.734952,"URL":"<a href='https://www.city.minato.tokyo.jp/shisetsu/hinansho/kuminhinansho/32.html' target='_blank'>https://www.city.minato.tokyo.jp/shisetsu/hinansho/kuminhinansho/32.html</a>","分類":"区民避難所(地域防災拠点)","地区":"赤坂地区","連絡先":""},{"name":"32.青山いきいきプラザ(区民避難所)","province":"東京都","city":"港区","address":"港区南青山二丁目16番5号","lat":35.669189,"lon":139.721262,"URL":"<a href='https://www.city.minato.tokyo.jp/shisetsu/hinansho/kuminhinansho/33.html' target='_blank'>https://www.city.minato.tokyo.jp/shisetsu/hinansho/kuminhinansho/33.html</a>","分類":"区民避難所(地域防災拠点)","地区":"赤坂地区","連絡先":""},{"name":"33.青南いきいきプラザ(区民避難所)","province":"東京都","city":"港区","address":"港区南青山四丁目10番1号","lat":35.666464,"lon":139.717321,"URL":"<a href='https://www.city.minato.tokyo.jp/shisetsu/hinansho/kuminhinansho/34.html' target='_blank'>https://www.city.minato.tokyo.jp/shisetsu/hinansho/kuminhinansho/34.html</a>","分類":"区民避難所(地域防災拠点)","地区":"赤坂地区","連絡先":""},{"name":"34.御田小学校(区民避難所)","province":"東京都","city":"港区","address":"港区三田四丁目11番38号","lat":35.643181,"lon":139.738044,"URL":"<a href='https://www.city.minato.tokyo.jp/shisetsu/hinansho/kuminhinansho/35.html' target='_blank'>https://www.city.minato.tokyo.jp/shisetsu/hinansho/kuminhinansho/35.html</a>","分類":"区民避難所(地域防災拠点)","地区":"高輪地区","連絡先":""},{"name":"35.高輪区民センター(区民避難所)","province":"東京都","city":"港区","address":"港区高輪一丁目16番25号","lat":35.641984,"lon":139.733975,"URL":"<a href='https://www.city.minato.tokyo.jp/shisetsu/hinansho/kuminhinansho/36.html' target='_blank'>https://www.city.minato.tokyo.jp/shisetsu/hinansho/kuminhinansho/36.html</a>","分類":"区民避難所(地域防災拠点)","地区":"高輪地区","連絡先":""},{"name":"36.白金小学校(区民避難所)","province":"東京都","city":"港区","address":"港区白金台一丁目4番26号","lat":35.636807,"lon":139.728541,"URL":"<a href='https://www.city.minato.tokyo.jp/shisetsu/hinansho/kuminhinansho/37.html' target='_blank'>https://www.city.minato.tokyo.jp/shisetsu/hinansho/kuminhinansho/37.html</a>","分類":"区民避難所(地域防災拠点)","地区":"高輪地区","連絡先":""},{"name":"37.旧三光小学校(区民避難所)","province":"東京都","city":"港区","address":"港区白金三丁目18番2号","lat":35.644328,"lon":139.729204,"URL":"<a href='https://www.city.minato.tokyo.jp/shisetsu/hinansho/kuminhinansho/38.html' target='_blank'>https://www.city.minato.tokyo.jp/shisetsu/hinansho/kuminhinansho/38.html</a>","分類":"区民避難所(地域防災拠点)","地区":"高輪地区","連絡先":""},{"name":"38.白金の丘学園白金の丘小・中学校(区民避難所)","province":"東京都","city":"港区","address":"港区白金四丁目1番12号","lat":35.643658,"lon":139.726753,"URL":"<a href='https://www.city.minato.tokyo.jp/shisetsu/hinansho/kuminhinansho/39.html' target='_blank'>https://www.city.minato.tokyo.jp/shisetsu/hinansho/kuminhinansho/39.html</a>","分類":"区民避難所(地域防災拠点)","地区":"高輪地区","連絡先":""},{"name":"39.神応いきいきプラザ等複合施設(区民避難所)","province":"東京都","city":"港区","address":"港区白金六丁目9番5号","lat":35.643633,"lon":139.724277,"URL":"<a href='https://www.city.minato.tokyo.jp/shisetsu/hinansho/kuminhinansho/40.html' target='_blank'>https://www.city.minato.tokyo.jp/shisetsu/hinansho/kuminhinansho/40.html</a>","分類":"区民避難所(地域防災拠点)","地区":"高輪地区","連絡先":""},{"name":"40.三田中学校(区民避難所)","province":"東京都","city":"港区","address":"港区三田四丁目13番13号","lat":35.645242,"lon":139.740818,"URL":"<a href='https://www.city.minato.tokyo.jp/shisetsu/hinansho/kuminhinansho/41.html' target='_blank'>https://www.city.minato.tokyo.jp/shisetsu/hinansho/kuminhinansho/41.html</a>","分類":"区民避難所(地域防災拠点)","地区":"高輪地区","連絡先":""},{"name":"41.高松中学校(区民避難所)","province":"東京都","city":"港区","address":"港区高輪一丁目16番25号","lat":35.640624,"lon":139.733937,"URL":"<a href='https://www.city.minato.tokyo.jp/shisetsu/hinansho/kuminhinansho/42.html' target='_blank'>https://www.city.minato.tokyo.jp/shisetsu/hinansho/kuminhinansho/42.html</a>","分類":"区民避難所(地域防災拠点)","地区":"高輪地区","連絡先":""},{"name":"42.高輪台小学校(区民避難所)","province":"東京都","city":"港区","address":"港区高輪二丁目8番24号","lat":35.636383,"lon":139.734193,"URL":"<a href='https://www.city.minato.tokyo.jp/shisetsu/hinansho/kuminhinansho/43.html' target='_blank'>https://www.city.minato.tokyo.jp/shisetsu/hinansho/kuminhinansho/43.html</a>","分類":"区民避難所(地域防災拠点)","地区":"高輪地区","連絡先":""},{"name":"43.高輪子ども中高生プラザ(区民避難所)","province":"東京都","city":"港区","address":"港区高輪一丁目4番35号","lat":35.642437,"lon":139.734846,"URL":"<a href='https://www.city.minato.tokyo.jp/shisetsu/hinansho/kuminhinansho/44.html' target='_blank'>https://www.city.minato.tokyo.jp/shisetsu/hinansho/kuminhinansho/44.html</a>","分類":"区民避難所(地域防災拠点)","地区":"高輪地区","連絡先":""},{"name":"44.豊岡いきいきプラザ(区民避難所)","province":"東京都","city":"港区","address":"港区三田五丁目7番7号","lat":35.646517,"lon":139.739624,"URL":"<a href='https://www.city.minato.tokyo.jp/shisetsu/hinansho/kuminhinansho/45.html' target='_blank'>https://www.city.minato.tokyo.jp/shisetsu/hinansho/kuminhinansho/45.html</a>","分類":"区民避難所(地域防災拠点)","地区":"高輪地区","連絡先":""},{"name":"45.高輪いきいきプラザ(区民避難所)","province":"東京都","city":"港区","address":"港区高輪三丁目18番15号","lat":35.63322,"lon":139.73571,"URL":"<a href='https://www.city.minato.tokyo.jp/shisetsu/hinansho/kuminhinansho/46.html' target='_blank'>https://www.city.minato.tokyo.jp/shisetsu/hinansho/kuminhinansho/46.html</a>","分類":"区民避難所(地域防災拠点)","地区":"高輪地区","連絡先":""},{"name":"46.白金いきいきプラザ(区民避難所)","province":"東京都","city":"港区","address":"港区白金三丁目10番12号","lat":35.644875,"lon":139.731098,"URL":"<a href='https://www.city.minato.tokyo.jp/shisetsu/hinansho/kuminhinansho/47.html' target='_blank'>https://www.city.minato.tokyo.jp/shisetsu/hinansho/kuminhinansho/47.html</a>","分類":"区民避難所(地域防災拠点)","地区":"高輪地区","連絡先":""},{"name":"47.白金台いきいきプラザ(区民避難所)","province":"東京都","city":"港区","address":"港区白金台四丁目8番5号","lat":35.637738,"lon":139.724908,"URL":"<a href='https://www.city.minato.tokyo.jp/shisetsu/hinansho/kuminhinansho/48.html' target='_blank'>https://www.city.minato.tokyo.jp/shisetsu/hinansho/kuminhinansho/48.html</a>","分類":"区民避難所(地域防災拠点)","地区":"高輪地区","連絡先":""},{"name":"49.芝浦小学校(区民避難所)","province":"東京都","city":"港区","address":"港区芝浦四丁目8番18号","lat":35.638124,"lon":139.746205,"URL":"<a href='https://www.city.minato.tokyo.jp/shisetsu/hinansho/kuminhinansho/49.html' target='_blank'>https://www.city.minato.tokyo.jp/shisetsu/hinansho/kuminhinansho/49.html</a>","分類":"区民避難所(地域防災拠点)","地区":"芝浦港南地区","連絡先":""},{"name":"50.港南小学校(区民避難所)","province":"東京都","city":"港区","address":"港区港南四丁目3番28号","lat":35.629227,"lon":139.749657,"URL":"<a href='https://www.city.minato.tokyo.jp/shisetsu/hinansho/kuminhinansho/50.html' target='_blank'>https://www.city.minato.tokyo.jp/shisetsu/hinansho/kuminhinansho/50.html</a>","分類":"区民避難所(地域防災拠点)","地区":"芝浦港南地区","連絡先":""},{"name":"51.港南中学校(区民避難所)","province":"東京都","city":"港区","address":"港区港南四丁目3番3号","lat":35.631207,"lon":139.749078,"URL":"<a href='https://www.city.minato.tokyo.jp/shisetsu/hinansho/kuminhinansho/51.html' target='_blank'>https://www.city.minato.tokyo.jp/shisetsu/hinansho/kuminhinansho/51.html</a>","分類":"区民避難所(地域防災拠点)","地区":"芝浦港南地区","連絡先":""},{"name":"52.芝浦港南区民センター(区民避難所)","province":"東京都","city":"港区","address":"港区芝浦四丁目13番1号","lat":35.640555,"lon":139.748687,"URL":"<a href='https://www.city.minato.tokyo.jp/shisetsu/hinansho/kuminhinansho/52.html' target='_blank'>https://www.city.minato.tokyo.jp/shisetsu/hinansho/kuminhinansho/52.html</a>","分類":"区民避難所(地域防災拠点)","地区":"芝浦港南地区","連絡先":""},{"name":"53.みなとパーク芝浦(港区スポーツセンター・男女平等参画センター)(区民避難所)","province":"東京都","city":"港区","address":"港区芝浦一丁目16番1号","lat":35.646717,"lon":139.751751,"URL":"<a href='https://www.city.minato.tokyo.jp/shisetsu/hinansho/kuminhinansho/53.html' target='_blank'>https://www.city.minato.tokyo.jp/shisetsu/hinansho/kuminhinansho/53.html</a>","分類":"区民避難所(地域防災拠点)","地区":"芝浦港南地区","連絡先":""},{"name":"54.港南子ども中高生プラザ(港区スポーツセンター・男女平等参画センター)(区民避難所)","province":"東京都","city":"港区","address":"港区港南四丁目3番7号","lat":35.631063,"lon":139.749897,"URL":"<a href='https://www.city.minato.tokyo.jp/shisetsu/hinansho/kuminhinansho/54.html' target='_blank'>https://www.city.minato.tokyo.jp/shisetsu/hinansho/kuminhinansho/54.html</a>","分類":"区民避難所(地域防災拠点)","地区":"芝浦港南地区","連絡先":""},{"name":"55.港南いきいきプラザ(区民避難所)","province":"東京都","city":"港区","address":"港区港南四丁目2番1号","lat":35.629624,"lon":139.747098,"URL":"<a href='https://www.city.minato.tokyo.jp/shisetsu/hinansho/kuminhinansho/55.html' target='_blank'>https://www.city.minato.tokyo.jp/shisetsu/hinansho/kuminhinansho/55.html</a>","分類":"区民避難所(地域防災拠点)","地区":"芝浦港南地区","連絡先":""},{"name":"56.お台場学園港陽小・中学校(区民避難所)","province":"東京都","city":"港区","address":"港区台場一丁目1番5号","lat":35.633775,"lon":139.77704,"URL":"<a href='https://www.city.minato.tokyo.jp/shisetsu/hinansho/kuminhinansho/56.html' target='_blank'>https://www.city.minato.tokyo.jp/shisetsu/hinansho/kuminhinansho/56.html</a>","分類":"区民避難所(地域防災拠点)","地区":"芝浦港南地区","連絡先":""},{"name":"57.台場区民センター(区民避難所)","province":"東京都","city":"港区","address":"港区台場一丁目5番1号","lat":35.629987,"lon":139.776995,"URL":"<a href='https://www.city.minato.tokyo.jp/shisetsu/hinansho/kuminhinansho/57.html' target='_blank'>https://www.city.minato.tokyo.jp/shisetsu/hinansho/kuminhinansho/57.html</a>","分類":"区民避難所(地域防災拠点)","地区":"芝浦港南地区","連絡先":""},{"name":"1. 障害保健福祉センター(福祉避難所)","province":"東京都","city":"港区","address":"港区芝一丁目8番23号","lat":35.651557,"lon":139.755573,"URL":"<a href='https://www.city.minato.tokyo.jp/shisetsu/hinansho/fukushihinansho/01.html' target='_blank'>https://www.city.minato.tokyo.jp/shisetsu/hinansho/fukushihinansho/01.html</a>","分類":"福祉避難所","地区":"芝地区","連絡先":""},{"name":"2. 新橋はつらつ太陽(福祉避難所)","province":"東京都","city":"港区","address":"港区新橋六丁目19番2号","lat":35.661205,"lon":139.754003,"URL":"<a href='https://www.city.minato.tokyo.jp/shisetsu/hinansho/fukushihinansho/02.html' target='_blank'>https://www.city.minato.tokyo.jp/shisetsu/hinansho/fukushihinansho/02.html</a>","分類":"福祉避難所","地区":"芝地区","連絡先":""},{"name":"7.特別養護老人ホーム白金の森(福祉避難所)","province":"東京都","city":"港区","address":"港区白金台五丁目20番5号","lat":35.63709,"lon":139.722072,"URL":"<a href='https://www.city.minato.tokyo.jp/shisetsu/hinansho/fukushihinansho/03.html' target='_blank'>https://www.city.minato.tokyo.jp/shisetsu/hinansho/fukushihinansho/03.html</a>","分類":"福祉避難所","地区":"高輪地区","連絡先":""},{"name":"8.特別養護老人ホーム港南の郷(福祉避難所)","province":"東京都","city":"港区","address":"港区港南三丁目3番23号","lat":35.633266,"lon":139.749263,"URL":"<a href='https://www.city.minato.tokyo.jp/shisetsu/hinansho/fukushihinansho/04.html' target='_blank'>https://www.city.minato.tokyo.jp/shisetsu/hinansho/fukushihinansho/04.html</a>","分類":"福祉避難所","地区":"芝浦港南地区","連絡先":""},{"name":"9.特別養護老人ホームサン・サン赤坂(福祉避難所)","province":"東京都","city":"港区","address":"港区赤坂六丁目6番14号","lat":35.669761,"lon":139.737559,"URL":"<a href='https://www.city.minato.tokyo.jp/shisetsu/hinansho/fukushihinansho/05.html' target='_blank'>https://www.city.minato.tokyo.jp/shisetsu/hinansho/fukushihinansho/05.html</a>","分類":"福祉避難所","地区":"赤坂地区","連絡先":""},{"name":"10.特別養護老人ホーム麻布慶福苑(福祉避難所)","province":"東京都","city":"港区","address":"港区南麻布五丁目1番20号","lat":35.653668,"lon":139.721819,"URL":"<a href='https://www.city.minato.tokyo.jp/shisetsu/hinansho/fukushihinansho/06.html' target='_blank'>https://www.city.minato.tokyo.jp/shisetsu/hinansho/fukushihinansho/06.html</a>","分類":"福祉避難所","地区":"麻布地区","連絡先":""},{"name":"11.特別養護老人ホーム新橋さくらの園(福祉避難所)","province":"東京都","city":"港区","address":"港区新橋六丁目19番2号","lat":35.661201,"lon":139.753707,"URL":"<a href='https://www.city.minato.tokyo.jp/shisetsu/hinansho/fukushihinansho/08.html' target='_blank'>https://www.city.minato.tokyo.jp/shisetsu/hinansho/fukushihinansho/08.html</a>","分類":"福祉避難所","地区":"芝地区","連絡先":""},{"name":"12.特別養護老人ホームありすの杜きのこ南麻布(福祉避難所)","province":"東京都","city":"港区","address":"港区南麻布四丁目6番1号","lat":35.650765,"lon":139.72666,"URL":"<a href='https://www.city.minato.tokyo.jp/shisetsu/hinansho/fukushihinansho/09.html' target='_blank'>https://www.city.minato.tokyo.jp/shisetsu/hinansho/fukushihinansho/09.html</a>","分類":"福祉避難所","地区":"麻布地区","連絡先":""},{"name":"13.特別養護老人ホーム洛和ヴィラ南麻布(福祉避難所)","province":"東京都","city":"港区","address":"港区南麻布四丁目6番1号","lat":35.650244,"lon":139.72673,"URL":"<a href='https://www.city.minato.tokyo.jp/shisetsu/hinansho/fukushihinansho/10.html' target='_blank'>https://www.city.minato.tokyo.jp/shisetsu/hinansho/fukushihinansho/10.html</a>","分類":"福祉避難所","地区":"麻布地区","連絡先":""},{"name":"14.老人保健施設ルネサンス麻布(福祉避難所)","province":"東京都","city":"港区","address":"港区南麻布二丁目10番21号","lat":35.647927,"lon":139.735179,"URL":"<a href='https://www.city.minato.tokyo.jp/shisetsu/hinansho/fukushihinansho/11.html' target='_blank'>https://www.city.minato.tokyo.jp/shisetsu/hinansho/fukushihinansho/11.html</a>","分類":"福祉避難所","地区":"麻布地区","連絡先":""},{"name":"15.老人保健施設新橋ばらの園(福祉避難所)","province":"東京都","city":"港区","address":"港区新橋六丁目19番2号","lat":35.661181,"lon":139.753838,"URL":"<a href='https://www.city.minato.tokyo.jp/shisetsu/hinansho/fukushihinansho/12.html' target='_blank'>https://www.city.minato.tokyo.jp/shisetsu/hinansho/fukushihinansho/12.html</a>","分類":"福祉避難所","地区":"芝地区","連絡先":""},{"name":"16.老人保健施設洛和ヴィラサラサ(福祉避難所)","province":"東京都","city":"港区","address":"港区南麻布四丁目6番1号","lat":35.650309,"lon":139.726778,"URL":"<a href='https://www.city.minato.tokyo.jp/shisetsu/hinansho/fukushihinansho/13.html' target='_blank'>https://www.city.minato.tokyo.jp/shisetsu/hinansho/fukushihinansho/13.html</a>","分類":"福祉避難所","地区":"芝地区","連絡先":""},{"name":"17.高齢者在宅サービスセンター白金の森(福祉避難所)","province":"東京都","city":"港区","address":"港区白金台五丁目20番5号","lat":35.637094,"lon":139.722065,"URL":"<a href='https://www.city.minato.tokyo.jp/shisetsu/hinansho/fukushihinansho/14.html' target='_blank'>https://www.city.minato.tokyo.jp/shisetsu/hinansho/fukushihinansho/14.html</a>","分類":"福祉避難所","地区":"高輪地区","連絡先":""},{"name":"18.高齢者在宅サービスセンター港南の郷(福祉避難所)","province":"東京都","city":"港区","address":"港区港南三丁目3番23号","lat":35.633218,"lon":139.749097,"URL":"<a href='https://www.city.minato.tokyo.jp/shisetsu/hinansho/fukushihinansho/15.html' target='_blank'>https://www.city.minato.tokyo.jp/shisetsu/hinansho/fukushihinansho/15.html</a>","分類":"福祉避難所","地区":"高輪地区","連絡先":""},{"name":"19.高齢者在宅サービスセンターサン・サン赤坂(福祉避難所)","province":"東京都","city":"港区","address":"港区赤坂六丁目6番14号","lat":35.669778,"lon":139.737515,"URL":"<a href='https://www.city.minato.tokyo.jp/shisetsu/hinansho/fukushihinansho/16.html' target='_blank'>https://www.city.minato.tokyo.jp/shisetsu/hinansho/fukushihinansho/16.html</a>","分類":"福祉避難所","地区":"赤坂地区","連絡先":""},{"name":"20.南麻布高齢者在宅サービスセンター(福祉避難所)","province":"東京都","city":"港区","address":"港区南麻布一丁目5番26号","lat":35.651364,"lon":139.735194,"URL":"<a href='https://www.city.minato.tokyo.jp/shisetsu/hinansho/fukushihinansho/17.html' target='_blank'>https://www.city.minato.tokyo.jp/shisetsu/hinansho/fukushihinansho/17.html</a>","分類":"福祉避難所","地区":"麻布地区","連絡先":""},{"name":"21.台場高齢者在宅サービスセンター(福祉避難所)","province":"東京都","city":"港区","address":"港区台場一丁目5番5号","lat":35.630595,"lon":139.778018,"URL":"<a href='https://www.city.minato.tokyo.jp/shisetsu/hinansho/fukushihinansho/18.html' target='_blank'>https://www.city.minato.tokyo.jp/shisetsu/hinansho/fukushihinansho/18.html</a>","分類":"福祉避難所","地区":"芝浦港南地区","連絡先":""},{"name":"22.北青山高齢者在宅サービスセンター(福祉避難所)","province":"東京都","city":"港区","address":"港区北青山一丁目6番1号","lat":35.673546,"lon":139.721794,"URL":"<a href='https://www.city.minato.tokyo.jp/shisetsu/hinansho/fukushihinansho/19.html' target='_blank'>https://www.city.minato.tokyo.jp/shisetsu/hinansho/fukushihinansho/19.html</a>","分類":"福祉避難所","地区":"芝浦港南地区","連絡先":""},{"name":"23.芝高齢者在宅サービスセンター(福祉避難所)","province":"東京都","city":"港区","address":"港区芝三丁目24番5号","lat":35.651384,"lon":139.748125,"URL":"<a href='https://www.city.minato.tokyo.jp/shisetsu/hinansho/fukushihinansho/20.html' target='_blank'>https://www.city.minato.tokyo.jp/shisetsu/hinansho/fukushihinansho/20.html</a>","分類":"福祉避難所","地区":"芝地区","連絡先":""},{"name":"24.虎ノ門高齢者在宅サービスセンター(福祉避難所)","province":"東京都","city":"港区","address":"港区虎ノ門一丁目21番10号","lat":35.667853,"lon":139.748728,"URL":"<a href='https://www.city.minato.tokyo.jp/shisetsu/hinansho/fukushihinansho/21.html' target='_blank'>https://www.city.minato.tokyo.jp/shisetsu/hinansho/fukushihinansho/21.html</a>","分類":"福祉避難所","地区":"芝地区","連絡先":""},{"name":"4.障害者支援ホーム南麻布(福祉避難所)","province":"東京都","city":"港区","address":"港区南麻布四丁目6番13号","lat":35.650898,"lon":139.727628,"URL":"<a href='https://www.city.minato.tokyo.jp/shisetsu/hinansho/fukushihinansho/22.html' target='_blank'>https://www.city.minato.tokyo.jp/shisetsu/hinansho/fukushihinansho/22.html</a>","分類":"福祉避難所","地区":"麻布地区","連絡先":""},{"name":"6.南麻布シニアガーデンアリス(福祉避難所)","province":"東京都","city":"港区","address":"港区南麻布四丁目6番13号","lat":35.650898,"lon":139.727628,"URL":"<a href='https://www.city.minato.tokyo.jp/shisetsu/hinansho/fukushihinansho/23.html' target='_blank'>https://www.city.minato.tokyo.jp/shisetsu/hinansho/fukushihinansho/23.html</a>","分類":"福祉避難所","地区":"麻布地区","連絡先":""},{"name":"48.芝浜小学校(区民避難所)","province":"東京都","city":"港区","address":"港区芝浦一丁目16番31号","lat":35.646717,"lon":139.751751,"URL":"<a href='https://www.city.minato.tokyo.jp/shisetsu/hinansho/kuminhinansho/58.html' target='_blank'>https://www.city.minato.tokyo.jp/shisetsu/hinansho/kuminhinansho/58.html</a>","分類":"区民避難所(地域防災拠点)","地区":"芝浦港南地区","連絡先":""}]}