{"keyword":"土のう","data":[{"name":"柿の木坂支流緑道上","province":"東京都","city":"目黒区","address":"東京都目黒区柿の木坂3-4-16","lat":35.62765,"lon":139.674439},{"name":"めぐろ区民キャンパス公園歩道","province":"東京都","city":"目黒区","address":"東京都目黒区八雲1-1-12","lat":35.621189,"lon":139.673695},{"name":"九品仏川緑道上","province":"東京都","city":"目黒区","address":"東京都目黒区自由が丘3-12-11","lat":35.610662,"lon":139.663863},{"name":"九品仏川緑道上","province":"東京都","city":"目黒区","address":"東京都目黒区自由が丘3-8-7","lat":35.607712,"lon":139.665179},{"name":"芳窪街かど公園内","province":"東京都","city":"目黒区","address":"東京都目黒区東が丘1-31-1","lat":35.629942,"lon":139.666541},{"name":"九品仏川緑道上","province":"東京都","city":"目黒区","address":"東京都目黒区緑が丘2-6-7","lat":35.608401,"lon":139.674529},{"name":"九品仏川緑道上","province":"東京都","city":"目黒区","address":"東京都目黒区緑ヶ丘2-16-10","lat":35.607871,"lon":139.672136},{"name":"呑川本流緑道上","province":"東京都","city":"目黒区","address":"東京都目黒区八雲2-11-20","lat":35.616446,"lon":139.669528},{"name":"目黒消防署八雲出張所","province":"東京都","city":"目黒区","address":"東京都目黒区八雲3-29-14","lat":35.615363,"lon":139.663876},{"name":"目黒消防署大岡山出張所","province":"東京都","city":"目黒区","address":"東京都目黒区大岡山1-37-15","lat":35.611447,"lon":139.679853},{"name":"呑川本流緑道上","province":"東京都","city":"目黒区","address":"東京都目黒区八雲1-5-16","lat":35.617505,"lon":139.673751},{"name":"呑川本流緑道上","province":"東京都","city":"目黒区","address":"東京都目黒区八雲1-11-10","lat":35.617544,"lon":139.672375},{"name":"呑川本流緑道上","province":"東京都","city":"目黒区","address":"東京都目黒区八雲2-7-18","lat":35.616987,"lon":139.671623},{"name":"呑川本流緑道上","province":"東京都","city":"目黒区","address":"東京都目黒区八雲2-11-25","lat":35.616655,"lon":139.670342},{"name":"呑川本流緑道上","province":"東京都","city":"目黒区","address":"東京都目黒区八雲3-9-20","lat":35.616308,"lon":139.668587},{"name":"呑川本流緑道上","province":"東京都","city":"目黒区","address":"東京都目黒区八雲3-13-21","lat":35.615319,"lon":139.666675},{"name":"呑川本流緑道上","province":"東京都","city":"目黒区","address":"東京都目黒区八雲3-22-15","lat":35.615566,"lon":139.665408},{"name":"やくも街かど公園内","province":"東京都","city":"目黒区","address":"東京都目黒区八雲5-15-1","lat":35.621821,"lon":139.665797},{"name":"境橋街かど公園内","province":"東京都","city":"目黒区","address":"東京都目黒区緑が丘3-10-37","lat":35.603168,"lon":139.6807},{"name":"九品仏川緑道上","province":"東京都","city":"目黒区","address":"東京都目黒区緑が丘3-3-4","lat":35.605579,"lon":139.679911},{"name":"九品仏川緑道上","province":"東京都","city":"目黒区","address":"東京都目黒区緑が丘1-21-15","lat":35.608712,"lon":139.676242},{"name":"中根公園内","province":"東京都","city":"目黒区","address":"東京都目黒区中根2-6-33","lat":35.613138,"lon":139.676929},{"name":"呑川本流緑道上","province":"東京都","city":"目黒区","address":"東京都目黒区大岡山1-35-12","lat":35.608624,"lon":139.679914},{"name":"呑川本流緑道上","province":"東京都","city":"目黒区","address":"東京都目黒区平町2-22-14","lat":35.614632,"lon":139.678406},{"name":"呑川本流緑道上","province":"東京都","city":"目黒区","address":"東京都目黒区平町1-25-8","lat":35.616906,"lon":139.67726},{"name":"すずめのお宿緑地公園","province":"東京都","city":"目黒区","address":"東京都目黒区碑文谷3-8-16","lat":35.618071,"lon":139.685873},{"name":"目黒消防署碑文谷出張所","province":"東京都","city":"目黒区","address":"東京都目黒区碑文谷2-11-14","lat":35.623336,"lon":139.685842},{"name":"東町南児童遊園内","province":"東京都","city":"目黒区","address":"東京都目黒区目黒本町5-7-18","lat":35.616997,"lon":139.698565},{"name":"碑住区センター","province":"東京都","city":"目黒区","address":"東京都目黒区碑文谷2-16-6","lat":35.620754,"lon":139.687678},{"name":"碑文谷公園内","province":"東京都","city":"目黒区","address":"東京都目黒区碑文谷6-9-11","lat":35.626561,"lon":139.681895},{"name":"蛇崩川緑道蛇崩下橋","province":"東京都","city":"目黒区","address":"東京都目黒区上目黒4-36-29","lat":35.641529,"lon":139.687598},{"name":"上目黒四丁目防災ひろば","province":"東京都","city":"目黒区","address":"東京都目黒区上目黒4-17-25","lat":35.640294,"lon":139.690908},{"name":"自然園下","province":"東京都","city":"目黒区","address":"東京都目黒区目黒3-21-19","lat":35.633884,"lon":139.703253},{"name":"防災センター前","province":"東京都","city":"目黒区","address":"東京都目黒区中央町1-9-7","lat":35.629051,"lon":139.692056},{"name":"祐天寺裏交差点","province":"東京都","city":"目黒区","address":"東京都目黒区中町2-2-16","lat":35.635091,"lon":139.697665},{"name":"東横線高架下","province":"東京都","city":"目黒区","address":"東京都目黒区五本木2-10-3","lat":35.635665,"lon":139.689588},{"name":"目黒区清掃事業所","province":"東京都","city":"目黒区","address":"東京都目黒区中目黒4-1-2","lat":35.638841,"lon":139.703419},{"name":"大鳥公園内","province":"東京都","city":"目黒区","address":"東京都目黒区下目黒2-20-19","lat":35.632892,"lon":139.709994},{"name":"目黒消防署中目黒出張所","province":"東京都","city":"目黒区","address":"東京都目黒区上目黒2-9-14","lat":35.641918,"lon":139.700106},{"name":"目黒消防署","province":"東京都","city":"目黒区","address":"東京都目黒区下目黒6-1-22","lat":35.62985,"lon":139.700372},{"name":"林試の森公園北口","province":"東京都","city":"目黒区","address":"東京都目黒区下目黒6-9-22","lat":35.626025,"lon":139.699873},{"name":"目黒区総合庁舎駐車場","province":"東京都","city":"目黒区","address":"東京都目黒区上目黒2-19-15","lat":35.640975,"lon":139.698955},{"name":"目黒区総合庁舎南口","province":"東京都","city":"目黒区","address":"東京都目黒区上目黒2-19-15","lat":35.640482,"lon":139.698063},{"name":"目黒区総合庁舎西口","province":"東京都","city":"目黒区","address":"東京都目黒区上目黒2-19-15","lat":35.641485,"lon":139.697874},{"name":"東山公園拡張部","province":"東京都","city":"目黒区","address":"東京都目黒区東山3-21-9","lat":35.648038,"lon":139.686192},{"name":"目黒土木公園事務所","province":"東京都","city":"目黒区","address":"東京都目黒区上目黒2-48-2","lat":35.642012,"lon":139.694692},{"name":"上一防災ひろば","province":"東京都","city":"目黒区","address":"東京都目黒区上目黒1-17-4","lat":35.64579,"lon":139.698218},{"name":"日の出橋付近","province":"東京都","city":"目黒区","address":"東京都目黒区上目黒1-6-10","lat":35.64524,"lon":139.699893},{"name":"宿山橋付近","province":"東京都","city":"目黒区","address":"東京都目黒区上目黒1-16-2","lat":35.646096,"lon":139.697931},{"name":"宿山橋付近","province":"東京都","city":"目黒区","address":"東京都目黒区上目黒1-15-11","lat":35.64654,"lon":139.698108},{"name":"朝日橋付近","province":"東京都","city":"目黒区","address":"東京都目黒区青葉台1-16-10","lat":35.647369,"lon":139.696612},{"name":"柳橋付近","province":"東京都","city":"目黒区","address":"東京都目黒区青葉台2-17-9","lat":35.649305,"lon":139.693451},{"name":"松見坂付近","province":"東京都","city":"目黒区","address":"東京都目黒区大橋2-2-3","lat":35.654553,"lon":139.689424},{"name":"駒場一丁目2番","province":"東京都","city":"目黒区","address":"東京都目黒区駒場1-2-15","lat":35.65659,"lon":139.689183},{"name":"炊事門付近","province":"東京都","city":"目黒区","address":"東京都目黒区駒場3-8-1","lat":35.659881,"lon":139.686574},{"name":"駒場東大前駅付近","province":"東京都","city":"目黒区","address":"東京都目黒区駒場2-1-7","lat":35.658641,"lon":139.683237},{"name":"高木神社横","province":"東京都","city":"目黒区","address":"東京都目黒区南2-1-40","lat":35.61726,"lon":139.688614},{"name":"中央体育館東側","province":"東京都","city":"目黒区","address":"東京都目黒区目黒本町5-22-8","lat":35.618473,"lon":139.699081},{"name":"目黒区民センター駐車場横","province":"東京都","city":"目黒区","address":"東京都目黒区目黒2-4-36","lat":35.63613,"lon":139.707679},{"name":"三田丘の上公園内","province":"東京都","city":"目黒区","address":"東京都目黒区三田1-4-6","lat":35.641953,"lon":139.716202},{"name":"下五児童遊園内","province":"東京都","city":"目黒区","address":"東京都目黒区下目黒5-33-6","lat":35.625984,"lon":139.702942},{"name":"関口一丁目２３（江戸川橋バス停横）","province":"東京都","city":"文京区","address":"東京都文京区関口1丁目23","lat":35.71041104,"lon":139.73096819},{"name":"関口一丁目２１（華水橋右岸下流）","province":"東京都","city":"文京区","address":"東京都文京区関口1丁目21","lat":35.70997223,"lon":139.7323653},{"name":"関口一丁目１８（掃部橋右岸下流）","province":"東京都","city":"文京区","address":"東京都文京区関口1丁目18-9","lat":35.70886685,"lon":139.73467624},{"name":"関口一丁目１８（古川橋右岸上流）","province":"東京都","city":"文京区","address":"東京都文京区関口1丁目18-9","lat":35.70886685,"lon":139.73467624},{"name":"水道二丁目５（石切橋左岸下流植込内）","province":"東京都","city":"文京区","address":"東京都文京区水道2丁目5","lat":35.70954739,"lon":139.73687325},{"name":"水道二丁目１（小桜橋左岸上流）","province":"東京都","city":"文京区","address":"東京都文京区水道2丁目1","lat":35.70920026,"lon":139.73898973},{"name":"水道一丁目３（中ノ橋左岸上流植込内）","province":"東京都","city":"文京区","address":"東京都文京区水道1丁目3-3","lat":35.70923087,"lon":139.74159505},{"name":"後楽二丁目１６（新隆慶橋左岸上流）","province":"東京都","city":"文京区","address":"東京都文京区後楽2丁目16","lat":35.70637014,"lon":139.74436713},{"name":"後楽二丁目３（隆慶橋脇左岸下流）","province":"東京都","city":"文京区","address":"東京都文京区後楽2丁目3","lat":35.70440095,"lon":139.74573652},{"name":"後楽二丁目３（隆慶橋左岸下流）","province":"東京都","city":"文京区","address":"東京都文京区後楽2丁目3","lat":35.70440095,"lon":139.74573652},{"name":"後楽一丁目１（後楽園歩道橋下）","province":"東京都","city":"文京区","address":"東京都文京区後楽1丁目1","lat":35.7024847,"lon":139.75387761},{"name":"大塚四丁目２（健生病院前歩道）","province":"東京都","city":"文京区","address":"東京都文京区大塚4丁目2","lat":35.72377079,"lon":139.7359895},{"name":"小石川五丁目４１（播磨坂最下部）","province":"東京都","city":"文京区","address":"東京都文京区小石川5丁目41","lat":35.71781332,"lon":139.7433474},{"name":"後楽一丁目８（小石川運動場内）","province":"東京都","city":"文京区","address":"東京都文京区後楽1丁目8","lat":35.70462595,"lon":139.74661143},{"name":"根津一丁目１７（八重垣第一児童遊園内）","province":"東京都","city":"文京区","address":"東京都文京区根津1丁目17-1","lat":35.71888335,"lon":139.76379583},{"name":"根津二丁目２７（都道拡幅予定地内）","province":"東京都","city":"文京区","address":"東京都文京区根津2丁目27","lat":35.71925554,"lon":139.76392915},{"name":"本駒込四丁目３５（勤労福祉会館内）","province":"東京都","city":"文京区","address":"東京都文京区本駒込4丁目35","lat":35.73335648,"lon":139.75564872},{"name":"音羽一丁目１８（首都高高架下）","province":"東京都","city":"文京区","address":"東京都文京区音羽1丁目18","lat":35.71624921,"lon":139.72823766},{"name":"音羽一丁目１９（関口台公園前）","province":"東京都","city":"文京区","address":"東京都文京区音羽1丁目19","lat":35.71495214,"lon":139.7289071},{"name":"音羽一丁目２３（第一自転車保管所横）","province":"東京都","city":"文京区","address":"東京都文京区音羽1丁目23","lat":35.71392172,"lon":139.72940709},{"name":"音羽一丁目２３（関口三丁目公園前）","province":"東京都","city":"文京区","address":"東京都文京区音羽1丁目23","lat":35.71392172,"lon":139.72940709},{"name":"千駄木二丁目1（千駄木二丁目交差点）","province":"東京都","city":"文京区","address":"東京都文京区千駄木2丁目1","lat":35.72146079,"lon":139.76161812},{"name":"本駒込四丁目３６（不忍通り歩道）","province":"東京都","city":"文京区","address":"東京都文京区本駒込4丁目36-10","lat":35.73314266,"lon":139.75658756},{"name":"本駒込四丁目４０（動坂下交差点歩道）","province":"東京都","city":"文京区","address":"東京都文京区本駒込4丁目40-3","lat":35.73222894,"lon":139.75798194},{"name":"千駄木三丁目４８（道灌山下交差点歩道）","province":"東京都","city":"文京区","address":"東京都文京区千駄木3丁目48","lat":35.72987948,"lon":139.76302896},{"name":"千駄木三丁目３７（団子坂下交差点歩道）","province":"東京都","city":"文京区","address":"東京都文京区千駄木3丁目37","lat":35.72502722,"lon":139.76380959},{"name":"大塚六丁目１６（豊島区事業用地）","province":"東京都","city":"文京区","address":"東京都文京区大塚6丁目16","lat":35.72671739,"lon":139.72564582},{"name":"本駒込四丁目３９（不忍通り歩道）","province":"東京都","city":"文京区","address":"東京都文京区本駒込4丁目39-2","lat":35.73260943,"lon":139.75752362},{"name":"千石二丁目１（千川通り歩道）","province":"東京都","city":"文京区","address":"東京都文京区千石2丁目1","lat":35.72118231,"lon":139.74018368},{"name":"小石川四丁目１５（播磨坂最下部）","province":"東京都","city":"文京区","address":"東京都文京区小石川4丁目15","lat":35.7168051,"lon":139.74363906},{"name":"音羽一丁目１９（首都高高架下）","province":"東京都","city":"文京区","address":"東京都文京区音羽1丁目19","lat":35.71495214,"lon":139.7289071},{"name":"関口一丁目２５（一休橋右岸下流階段下）","province":"東京都","city":"文京区","address":"東京都文京区関口1丁目25-2","lat":35.70996378,"lon":139.72746573},{"name":"音羽一丁目２７（首都高高架下）","province":"東京都","city":"文京区","address":"東京都文京区音羽1丁目27","lat":35.71184976,"lon":139.73034597},{"name":"大塚五丁目１８（吹上稲荷神社鳥居裏）","province":"東京都","city":"文京区","address":"東京都文京区大塚5丁目18","lat":35.7215681,"lon":139.72972902}]}