{"keyword":"週","data":[{"name":"市立並木公園","province":"香川県","city":"観音寺市","address":"香川県観音寺市豊浜町和田浜1551-16","lat":34.07312486,"lon":133.63693662},{"name":"便所","province":"香川県","city":"観音寺市","address":"香川県観音寺市豊浜町和田浜","lat":34.07444137,"lon":133.63808649},{"name":"市立並木公園","province":"香川県","city":"観音寺市","address":"香川県観音寺市豊浜町和田浜1551-16","lat":34.07312486,"lon":133.63693662},{"name":"便所","province":"香川県","city":"観音寺市","address":"香川県観音寺市豊浜町和田浜","lat":34.07444137,"lon":133.63808649},{"name":"便所","province":"香川県","city":"観音寺市","address":"香川県観音寺市豊浜町和田浜","lat":34.07444137,"lon":133.63808649},{"name":"便所","province":"香川県","city":"観音寺市","address":"香川県観音寺市豊浜町和田浜","lat":34.07444137,"lon":133.63808649},{"name":"便所","province":"香川県","city":"観音寺市","address":"香川県観音寺市豊浜町和田浜","lat":34.07444137,"lon":133.63808649},{"name":"便所","province":"香川県","city":"観音寺市","address":"香川県観音寺市豊浜町和田浜","lat":34.07444137,"lon":133.63808649},{"name":"便所","province":"香川県","city":"観音寺市","address":"香川県観音寺市豊浜町和田浜","lat":34.07444137,"lon":133.63808649},{"name":"便所","province":"香川県","city":"観音寺市","address":"香川県観音寺市豊浜町和田浜","lat":34.07444137,"lon":133.63808649},{"name":"便所","province":"香川県","city":"観音寺市","address":"香川県観音寺市豊浜町和田浜","lat":34.07444137,"lon":133.63808649},{"name":"便所","province":"香川県","city":"観音寺市","address":"香川県観音寺市豊浜町和田浜","lat":34.07444137,"lon":133.63808649},{"name":"便所","province":"香川県","city":"観音寺市","address":"香川県観音寺市豊浜町和田浜","lat":34.07444137,"lon":133.63808649},{"name":"便所","province":"香川県","city":"観音寺市","address":"香川県観音寺市豊浜町和田浜","lat":34.07444137,"lon":133.63808649},{"name":"便所","province":"香川県","city":"観音寺市","address":"香川県観音寺市豊浜町和田浜","lat":34.07444137,"lon":133.63808649},{"name":"便所","province":"香川県","city":"観音寺市","address":"香川県観音寺市豊浜町和田浜","lat":34.07444137,"lon":133.63808649},{"name":"便所","province":"香川県","city":"観音寺市","address":"香川県観音寺市豊浜町和田浜","lat":34.07444137,"lon":133.63808649},{"name":"便所","province":"香川県","city":"観音寺市","address":"香川県観音寺市豊浜町和田浜","lat":34.07444137,"lon":133.63808649},{"name":"便所","province":"香川県","city":"観音寺市","address":"香川県観音寺市豊浜町和田浜","lat":34.07444137,"lon":133.63808649},{"name":"便所","province":"香川県","city":"観音寺市","address":"香川県観音寺市豊浜町和田浜","lat":34.07444137,"lon":133.63808649},{"name":"便所","province":"香川県","city":"観音寺市","address":"香川県観音寺市豊浜町和田浜","lat":34.07444137,"lon":133.63808649},{"name":"便所","province":"香川県","city":"観音寺市","address":"香川県観音寺市豊浜町和田浜","lat":34.07444137,"lon":133.63808649},{"name":"便所","province":"香川県","city":"観音寺市","address":"香川県観音寺市豊浜町和田浜","lat":34.07444137,"lon":133.63808649},{"name":"便所","province":"香川県","city":"観音寺市","address":"香川県観音寺市豊浜町和田浜","lat":34.07444137,"lon":133.63808649},{"name":"便所","province":"香川県","city":"観音寺市","address":"香川県観音寺市豊浜町和田浜","lat":34.07444137,"lon":133.63808649},{"name":"便所","province":"香川県","city":"観音寺市","address":"香川県観音寺市豊浜町和田浜","lat":34.07444137,"lon":133.63808649},{"name":"便所","province":"香川県","city":"観音寺市","address":"香川県観音寺市豊浜町和田浜","lat":34.07444137,"lon":133.63808649},{"name":"便所","province":"香川県","city":"観音寺市","address":"香川県観音寺市豊浜町和田浜","lat":34.07444137,"lon":133.63808649},{"name":"便所","province":"香川県","city":"観音寺市","address":"香川県観音寺市豊浜町和田浜","lat":34.07444137,"lon":133.63808649},{"name":"便所","province":"香川県","city":"観音寺市","address":"香川県観音寺市豊浜町和田浜","lat":34.07444137,"lon":133.63808649},{"name":"便所","province":"香川県","city":"観音寺市","address":"香川県観音寺市豊浜町和田浜","lat":34.07444137,"lon":133.63808649},{"name":"便所","province":"香川県","city":"観音寺市","address":"香川県観音寺市豊浜町和田浜","lat":34.07444137,"lon":133.63808649},{"name":"便所","province":"香川県","city":"観音寺市","address":"香川県観音寺市豊浜町和田浜","lat":34.07444137,"lon":133.63808649},{"name":"便所","province":"香川県","city":"観音寺市","address":"香川県観音寺市豊浜町和田浜","lat":34.07444137,"lon":133.63808649},{"name":"便所","province":"香川県","city":"観音寺市","address":"香川県観音寺市豊浜町和田浜","lat":34.07444137,"lon":133.63808649},{"name":"便所","province":"香川県","city":"観音寺市","address":"香川県観音寺市豊浜町和田浜","lat":34.07444137,"lon":133.63808649},{"name":"便所","province":"香川県","city":"観音寺市","address":"香川県観音寺市豊浜町和田浜","lat":34.07444137,"lon":133.63808649},{"name":"便所","province":"香川県","city":"観音寺市","address":"香川県観音寺市豊浜町和田浜","lat":34.07444137,"lon":133.63808649},{"name":"便所","province":"香川県","city":"観音寺市","address":"香川県観音寺市豊浜町和田浜","lat":34.07444137,"lon":133.63808649},{"name":"便所","province":"香川県","city":"観音寺市","address":"香川県観音寺市豊浜町和田浜","lat":34.07444137,"lon":133.63808649},{"name":"便所","province":"香川県","city":"観音寺市","address":"香川県観音寺市豊浜町和田浜","lat":34.07444137,"lon":133.63808649},{"name":"便所","province":"香川県","city":"観音寺市","address":"香川県観音寺市豊浜町和田浜","lat":34.07444137,"lon":133.63808649},{"name":"便所","province":"香川県","city":"観音寺市","address":"香川県観音寺市豊浜町和田浜","lat":34.07444137,"lon":133.63808649},{"name":"便所","province":"香川県","city":"観音寺市","address":"香川県観音寺市豊浜町和田浜","lat":34.07444137,"lon":133.63808649},{"name":"便所","province":"香川県","city":"観音寺市","address":"香川県観音寺市豊浜町和田浜","lat":34.07444137,"lon":133.63808649},{"name":"便所","province":"香川県","city":"観音寺市","address":"香川県観音寺市豊浜町和田浜","lat":34.07444137,"lon":133.63808649},{"name":"便所","province":"香川県","city":"観音寺市","address":"香川県観音寺市豊浜町和田浜","lat":34.07444137,"lon":133.63808649},{"name":"便所","province":"香川県","city":"観音寺市","address":"香川県観音寺市豊浜町和田浜","lat":34.07444137,"lon":133.63808649},{"name":"便所","province":"香川県","city":"観音寺市","address":"香川県観音寺市豊浜町和田浜","lat":34.07444137,"lon":133.63808649},{"name":"便所","province":"香川県","city":"観音寺市","address":"香川県観音寺市豊浜町和田浜","lat":34.07444137,"lon":133.63808649},{"name":"便所","province":"香川県","city":"観音寺市","address":"香川県観音寺市豊浜町和田浜","lat":34.07444137,"lon":133.63808649},{"name":"便所","province":"香川県","city":"観音寺市","address":"香川県観音寺市豊浜町和田浜","lat":34.07444137,"lon":133.63808649},{"name":"便所","province":"香川県","city":"観音寺市","address":"香川県観音寺市豊浜町和田浜","lat":34.07444137,"lon":133.63808649},{"name":"便所","province":"香川県","city":"観音寺市","address":"香川県観音寺市豊浜町和田浜","lat":34.07444137,"lon":133.63808649}]}