{"keyword":"電信","data":[{"name":"東日本電信電話（株）東京支店","province":"東京都","city":"港区","address":"港区港南1-9-1","lat":35.6306,"lon":139.7421},{"name":"東日本電信電話（株）葛西ビル","province":"東京都","city":"江戸川区","address":"江戸川区北葛西4-1-43","lat":35.67024,"lon":139.8598},{"name":"東日本電信電話（株）荒川ビル","province":"東京都","city":"荒川区","address":"荒川区荒川1-26-1","lat":35.73501,"lon":139.7872},{"name":"東日本電信電話（株）城東ビル","province":"東京都","city":"江東区","address":"江東区大島3-5-2","lat":35.69309,"lon":139.8267},{"name":"東日本電信電話（株）世田谷ビル","province":"東京都","city":"世田谷区","address":"世田谷区太子堂4-3-4","lat":35.64383,"lon":139.6683},{"name":"東日本電信電話（株）白金ビル","province":"東京都","city":"港区","address":"港区白金台3-14-6","lat":35.6369,"lon":139.7254},{"name":"東日本電信電話（株）霞ヶ関ビル","province":"東京都","city":"千代田区","address":"千代田区内幸町1-1-6","lat":35.67091,"lon":139.7577},{"name":"東日本電信電話（株）四谷ビル","province":"東京都","city":"新宿区","address":"新宿区新宿1-33-13","lat":35.69097,"lon":139.7121},{"name":"東日本電信電話（株）杉並ビル","province":"東京都","city":"杉並区","address":"杉並区梅里2-36-11","lat":35.6975,"lon":139.6409},{"name":"東日本電信電話（株）北町ビル","province":"東京都","city":"練馬区","address":"練馬区北町1-12-1","lat":35.76396,"lon":139.6655},{"name":"東日本電信電話（株）錦町別館ビル","province":"東京都","city":"立川市","address":"立川市錦町4-12-6","lat":35.69015,"lon":139.4198},{"name":"東日本電信電話（株）木曽ビル","province":"東京都","city":"町田市","address":"町田市木曾町144","lat":35.56147,"lon":139.4301},{"name":"東日本電信電話（株）三鷹ビル","province":"東京都","city":"三鷹市","address":"三鷹市下連雀4-14-28","lat":35.69367,"lon":139.5617},{"name":"ＫＤＤＩ東京Ⅱ","province":"東京都","city":"多摩市","address":"多摩市南野3-15-3","lat":35.6121,"lon":139.4149},{"name":"ＫＤＤＩ東京Ⅲ","province":"東京都","city":"多摩市","address":"多摩市唐木田3-7-1","lat":35.60897,"lon":139.3955},{"name":"ＫＤＤＩ東京Ⅳ","province":"東京都","city":"多摩市","address":"多摩市唐木田3-2","lat":35.60936,"lon":139.4031},{"name":"ＫＤＤＩ府中","province":"東京都","city":"府中市","address":"府中市日鋼町1-1","lat":35.67448,"lon":139.4722},{"name":"ＫＤＤＩ府中第二","province":"東京都","city":"府中市","address":"府中市日鋼町1-43","lat":35.67637,"lon":139.47},{"name":"（株）ＮＴＴドコモ","province":"東京都","city":"千代田区","address":"千代田区永田町2-11-1","lat":35.67357,"lon":139.7404},{"name":"（株）ＮＴＴドコモドコモ品川ビル","province":"東京都","city":"港区","address":"港区港南2-1-65","lat":35.63273,"lon":139.7419},{"name":"（株）ＮＴＴドコモドコモ代々木","province":"東京都","city":"渋谷区","address":"渋谷区千駄ヶ谷5-24-3","lat":35.6844,"lon":139.7031},{"name":"（株）ＮＴＴドコモドコモ墨田ビル","province":"東京都","city":"墨田区","address":"墨田区横網1-9-2","lat":35.69848,"lon":139.7957},{"name":"（株）ＮＴＴドコモドコモ立川","province":"東京都","city":"立川市","address":"立川市曙町3-18-55","lat":35.70053,"lon":139.4241},{"name":"ＮＴＴコミュニケーションズ（株）日比谷ビル","province":"東京都","city":"千代田区","address":"千代田区内幸町1-1-6","lat":35.67091,"lon":139.7577},{"name":"ＮＴＴコミュニケーションズ（株）大手町ビル","province":"東京都","city":"千代田区","address":"千代田区大手町2-3-5","lat":35.68797,"lon":139.7673},{"name":"ＮＴＴコミュニケーションズ（株）立川ビル","province":"東京都","city":"立川市","address":"立川市曙町3-3-26","lat":35.69944,"lon":139.4193},{"name":"ＮＴＴコミュニケーションズ（株）唐ヶ崎ビル","province":"東京都","city":"目黒区","address":"目黒区中央町1-11-7","lat":35.6277,"lon":139.6917},{"name":"ＮＴＴコミュニケーションズ（株）白鬚ビル","province":"東京都","city":"台東区","address":"台東区清川2-25-19","lat":35.72815,"lon":139.8035},{"name":"ＮＴＴコミュニケーションズ（株）新宿ビル","province":"東京都","city":"新宿区","address":"新宿区北新宿1-5-1","lat":35.69958,"lon":139.6958},{"name":"ＮＴＴコミュニケーションズ（株）ＴＲＣビル","province":"東京都","city":"港区","address":"港区赤坂8-4-23","lat":35.67323,"lon":139.7267},{"name":"ＮＴＴコミュニケーションズ（株）渋谷鉢山ビル","province":"東京都","city":"渋谷区","address":"渋谷区鉢山町9-31","lat":35.65135,"lon":139.698},{"name":"ソフトバンクモバイル（株）新砂ビル","province":"東京都","city":"江東区","address":"江東区新砂3-4-7","lat":35.66475,"lon":139.8366},{"name":"ソフトバンクモバイル（株）北池袋ビル","province":"東京都","city":"豊島区","address":"豊島区上池袋4-10-17","lat":35.73961,"lon":139.7228},{"name":"ソフトバンクテレコム（株）東京イーストビル","province":"東京都","city":"江東区","address":"江東区新砂3-4-7","lat":35.66475,"lon":139.8366},{"name":"ソフトバンクテレコム（株）東京イースト新ビル","province":"東京都","city":"江東区","address":"江東区新砂3-4-12","lat":35.66683,"lon":139.8363},{"name":"ソフトバンクテレコム（株）新東京ビル","province":"東京都","city":"豊島区","address":"豊島区上池袋4-10-17","lat":35.73961,"lon":139.7228},{"name":"ソフトバンクテレコム（株）新田端ビル","province":"東京都","city":"北区","address":"北区田端6-2-8","lat":35.73911,"lon":139.7589}]}