{"category":"park","data":[{"name":"青梅市役所","province":"東京都","city":"青梅市","address":"東京都青梅市東青梅1-11-1","lat":35.787897,"lon":139.275773},{"name":"青梅市福祉センター","province":"東京都","city":"青梅市","address":"東京都青梅市東青梅1-177-3","lat":35.78752,"lon":139.27421},{"name":"青梅市健康センター","province":"東京都","city":"青梅市","address":"東京都青梅市東青梅1-174-1","lat":35.787812,"lon":139.273304},{"name":"青梅市中央図書館","province":"東京都","city":"青梅市","address":"東京都青梅市河辺町10-8-1","lat":35.785315,"lon":139.285156},{"name":"青梅市青梅図書館","province":"東京都","city":"青梅市","address":"東京都青梅市仲町268-9","lat":35.791102,"lon":139.256524},{"name":"青梅市美術館","province":"東京都","city":"青梅市","address":"東京都青梅市滝ノ上1346-1","lat":35.787562,"lon":139.255893},{"name":"青梅市郷土博物館","province":"東京都","city":"青梅市","address":"東京都青梅市駒木町1-684","lat":35.78394,"lon":139.256591},{"name":"青梅市リサイクルセンター","province":"東京都","city":"青梅市","address":"東京都青梅市新町6-9-1","lat":35.79162,"lon":139.31577},{"name":"青梅市給食センター藤橋調理場","province":"東京都","city":"青梅市","address":"東京都青梅市藤橋3-4","lat":35.795524,"lon":139.306565},{"name":"青梅市民センター（青梅市文化交流センター内）","province":"東京都","city":"青梅市","address":"東京都青梅市上町374","lat":35.790213,"lon":139.254953},{"name":"天ヶ瀬体育館(青梅市民センター)","province":"東京都","city":"青梅市","address":"東京都青梅市天ヶ瀬町1111-1","lat":35.78918,"lon":139.25067},{"name":"長淵市民センター","province":"東京都","city":"青梅市","address":"東京都青梅市長淵6-492-1","lat":35.780365,"lon":139.268569},{"name":"大門市民センター","province":"東京都","city":"青梅市","address":"東京都青梅市大門2-288","lat":35.796764,"lon":139.291205},{"name":"梅郷市民センター・梅郷出張所","province":"東京都","city":"青梅市","address":"東京都青梅市梅郷3-749-1","lat":35.786581,"lon":139.224326},{"name":"沢井市民センター・沢井出張所","province":"東京都","city":"青梅市","address":"東京都青梅市沢井2-682","lat":35.80471,"lon":139.19629},{"name":"小曾木市民センター・小曾木出張所","province":"東京都","city":"青梅市","address":"東京都青梅市小曾木3-1656-1","lat":35.818025,"lon":139.275134},{"name":"成木市民センター・成木出張所","province":"東京都","city":"青梅市","address":"東京都青梅市成木4-644","lat":35.824182,"lon":139.248509},{"name":"東青梅市民センター","province":"東京都","city":"青梅市","address":"東京都青梅市師岡町3-9-6","lat":35.790645,"lon":139.282359},{"name":"新町市民センター","province":"東京都","city":"青梅市","address":"東京都青梅市新町4-17-1","lat":35.785985,"lon":139.305154},{"name":"河辺市民センター","province":"東京都","city":"青梅市","address":"東京都青梅市河辺町6-18-1","lat":35.778539,"lon":139.293644},{"name":"今井市民センター","province":"東京都","city":"青梅市","address":"東京都青梅市今井2-908-1","lat":35.806544,"lon":139.310973},{"name":"永山公園総合運動場","province":"東京都","city":"青梅市","address":"東京都青梅市住江町25","lat":35.791009,"lon":139.261448},{"name":"市民球技場","province":"東京都","city":"青梅市","address":"東京都青梅市河辺町1-872-1","lat":35.77747,"lon":139.28882},{"name":"わかぐさ公園野球場","province":"東京都","city":"青梅市","address":"東京都青梅市河辺町8-14-3","lat":35.78418,"lon":139.29599},{"name":"ちがむら球技場","province":"東京都","city":"青梅市","address":"東京都青梅市小曾木3-2166","lat":35.82763,"lon":139.27639},{"name":"東原公園球技場","province":"東京都","city":"青梅市","address":"東京都青梅市今寺5-11","lat":35.793701,"lon":139.301777},{"name":"友田レクリエーション広場","province":"東京都","city":"青梅市","address":"東京都青梅市友田町5-340","lat":35.774918,"lon":139.283643},{"name":"青梅スタジアム","province":"東京都","city":"青梅市","address":"東京都青梅市今井5-2348-1","lat":35.79528,"lon":139.32141},{"name":"風の子・太陽の子広場","province":"東京都","city":"青梅市","address":"東京都青梅市勝沼2-469","lat":35.79399,"lon":139.26046},{"name":"釜の淵公園水泳場","province":"東京都","city":"青梅市","address":"東京都青梅市大柳町1392","lat":35.78468,"lon":139.25345},{"name":"東原公園水泳場","province":"東京都","city":"青梅市","address":"東京都青梅市今寺5-11","lat":35.79439,"lon":139.30221},{"name":"わかぐさ公園こどもプール","province":"東京都","city":"青梅市","address":"東京都青梅市河辺町8-14-3","lat":35.78407,"lon":139.29753},{"name":"長淵水泳場","province":"東京都","city":"青梅市","address":"東京都青梅市長淵3-333-1","lat":35.780071,"lon":139.277187},{"name":"沢井市民センタープール","province":"東京都","city":"青梅市","address":"東京都青梅市沢井2-727-1","lat":35.804145,"lon":139.195715},{"name":"勝沼１丁目中 運動広場","province":"東京都","city":"青梅市","address":"東京都青梅市勝沼1-45-1","lat":35.789954,"lon":139.269865},{"name":"勝沼２丁目 運動広場","province":"東京都","city":"青梅市","address":"東京都青梅市勝沼2-160-1","lat":35.792543,"lon":139.266284},{"name":"西分町１丁目 運動広場","province":"東京都","city":"青梅市","address":"東京都青梅市西分町1-111-1","lat":35.789102,"lon":139.264621},{"name":"住江町 運動広場","province":"東京都","city":"青梅市","address":"東京都青梅市住江町42-2","lat":35.789677,"lon":139.260762},{"name":"仲町 運動広場","province":"東京都","city":"青梅市","address":"東京都青梅市仲町225","lat":35.792561,"lon":139.257553},{"name":"裏宿 運動広場","province":"東京都","city":"青梅市","address":"東京都青梅市裏宿町893","lat":35.789706,"lon":139.243336},{"name":"天ヶ瀬 運動広場","province":"東京都","city":"青梅市","address":"東京都青梅市天ヶ瀬町1111-1","lat":35.78444,"lon":139.25081},{"name":"友田町中央 運動広場","province":"東京都","city":"青梅市","address":"東京都青梅市友田町2-176-2","lat":35.770724,"lon":139.289764},{"name":"友田自治会館 運動広場","province":"東京都","city":"青梅市","address":"東京都青梅市友田町4-106","lat":35.771884,"lon":139.288826},{"name":"長淵２丁目 運動広場","province":"東京都","city":"青梅市","address":"東京都青梅市長淵2-519","lat":35.77822,"lon":139.27167},{"name":"長淵３丁目 運動広場","province":"東京都","city":"青梅市","address":"東京都青梅市長淵3-285-3","lat":35.780365,"lon":139.275618},{"name":"長淵８丁目 運動広場","province":"東京都","city":"青梅市","address":"東京都青梅市長淵8-127-1","lat":35.779499,"lon":139.261381},{"name":"上長淵小山 運動広場","province":"東京都","city":"青梅市","address":"東京都青梅市長淵8-158-1","lat":35.779951,"lon":139.263414},{"name":"大荷田 運動広場","province":"東京都","city":"青梅市","address":"東京都青梅市長淵9-1018-1","lat":35.765101,"lon":139.266429},{"name":"駒木町１丁目 運動広場","province":"東京都","city":"青梅市","address":"東京都青梅市駒木町1-9-1","lat":35.782438,"lon":139.254643},{"name":"駒木町 運動広場","province":"東京都","city":"青梅市","address":"東京都青梅市駒木町3-591-1","lat":35.781862,"lon":139.251763},{"name":"千ヶ瀬町２丁目 運動広場","province":"東京都","city":"青梅市","address":"東京都青梅市千ヶ瀬町2-122-15","lat":35.784521,"lon":139.275304},{"name":"千ヶ瀬町３丁目 運動広場","province":"東京都","city":"青梅市","address":"東京都青梅市千ヶ瀬町3-551-1","lat":35.785417,"lon":139.266933},{"name":"千ヶ瀬町４丁目 運動広場","province":"東京都","city":"青梅市","address":"東京都青梅市千ヶ瀬町4-375-1","lat":35.786881,"lon":139.267534},{"name":"塩船 運動広場","province":"東京都","city":"青梅市","address":"東京都青梅市塩船210","lat":35.802369,"lon":139.283021},{"name":"吹上天平 運動広場","province":"東京都","city":"青梅市","address":"東京都青梅市吹上44-1","lat":35.798793,"lon":139.282281},{"name":"吹上 運動広場","province":"東京都","city":"青梅市","address":"東京都青梅市吹上214-3","lat":35.795852,"lon":139.280409},{"name":"谷野 運動広場","province":"東京都","city":"青梅市","address":"東京都青梅市木野下2-235-1","lat":35.804027,"lon":139.293319},{"name":"木野下１丁目 運動広場","province":"東京都","city":"青梅市","address":"東京都青梅市木野下1-11","lat":35.807556,"lon":139.299638},{"name":"大門第１ 運動広場","province":"東京都","city":"青梅市","address":"東京都青梅市塩船1","lat":35.802328,"lon":139.282914},{"name":"大門第２ 運動広場","province":"東京都","city":"青梅市","address":"東京都青梅市大門1-367-1","lat":35.797662,"lon":139.288707},{"name":"大門３丁目 運動広場","province":"東京都","city":"青梅市","address":"東京都青梅市大門3-14","lat":35.793779,"lon":139.294853},{"name":"大門中原 運動広場","province":"東京都","city":"青梅市","address":"東京都青梅市大門3-21-2","lat":35.794429,"lon":139.293412},{"name":"野上町１丁目 運動広場","province":"東京都","city":"青梅市","address":"東京都青梅市野上町1-35-3","lat":35.796945,"lon":139.284991},{"name":"野上町２丁目 運動広場","province":"東京都","city":"青梅市","address":"東京都青梅市野上町2-222","lat":35.794449,"lon":139.288481},{"name":"今寺１丁目 運動広場","province":"東京都","city":"青梅市","address":"東京都青梅市今寺1-542-5","lat":35.801055,"lon":139.294307},{"name":"今寺４丁目 運動広場","province":"東京都","city":"青梅市","address":"東京都青梅市今寺4-10","lat":35.795473,"lon":139.299943},{"name":"畑中総合 運動広場","province":"東京都","city":"青梅市","address":"東京都青梅市畑中2-252-1","lat":35.785974,"lon":139.242627},{"name":"和田町 運動広場","province":"東京都","city":"青梅市","address":"東京都青梅市和田町2-422-1","lat":35.779699,"lon":139.229286},{"name":"梅郷１・２丁目 運動広場","province":"東京都","city":"青梅市","address":"東京都青梅市梅郷1-203-3","lat":35.780304,"lon":139.2238},{"name":"梅郷５丁目 運動広場","province":"東京都","city":"青梅市","address":"東京都青梅市梅郷5-1081-1","lat":35.790807,"lon":139.224227},{"name":"梅郷６丁目 運動広場","province":"東京都","city":"青梅市","address":"東京都青梅市梅郷6-1248-1","lat":35.79128,"lon":139.21763},{"name":"柚木町１丁目 運動広場","province":"東京都","city":"青梅市","address":"東京都青梅市柚木町1-240-12","lat":35.798874,"lon":139.214746},{"name":"柚木町 運動広場","province":"東京都","city":"青梅市","address":"東京都青梅市柚木町2-313-1","lat":35.799748,"lon":139.211977},{"name":"柚木町３丁目 運動広場","province":"東京都","city":"青梅市","address":"東京都青梅市柚木町3-521-4","lat":35.801338,"lon":139.208091},{"name":"二俣尾２丁目 運動広場","province":"東京都","city":"青梅市","address":"東京都青梅市二俣尾2-387-1","lat":35.797335,"lon":139.220134},{"name":"二俣尾５丁目南 運動広場","province":"東京都","city":"青梅市","address":"東京都青梅市二俣尾5-1262-1","lat":35.808058,"lon":139.210508},{"name":"二俣尾５丁目第２ 運動広場","province":"東京都","city":"青梅市","address":"東京都青梅市二俣尾5-164","lat":35.813481,"lon":139.207715},{"name":"沢井１丁目 運動広場","province":"東京都","city":"青梅市","address":"東京都青梅市沢井1-462","lat":35.805573,"lon":139.203243},{"name":"沢井市民センター 運動広場","province":"東京都","city":"青梅市","address":"東京都青梅市沢井2-727-1","lat":35.80403,"lon":139.1951},{"name":"御岳 運動広場","province":"東京都","city":"青梅市","address":"東京都青梅市御岳1-115","lat":35.799041,"lon":139.181253},{"name":"御岳２丁目 運動広場","province":"東京都","city":"青梅市","address":"東京都青梅市御岳2-295ーイ","lat":35.802026,"lon":139.173434},{"name":"御岳本町 運動広場","province":"東京都","city":"青梅市","address":"東京都青梅市御岳本町224-3","lat":35.801778,"lon":139.178925},{"name":"富岡３丁目 運動広場","province":"東京都","city":"青梅市","address":"東京都青梅市富岡3-1168","lat":35.827987,"lon":139.292897},{"name":"小曾木２丁目 運動広場","province":"東京都","city":"青梅市","address":"東京都青梅市小會木2-633","lat":35.819107,"lon":139.289611},{"name":"小曾木市民センター 運動広場","province":"東京都","city":"青梅市","address":"東京都青梅市小會木3-1656-1","lat":35.81749,"lon":139.27499},{"name":"小曾木５丁目 運動広場","province":"東京都","city":"青梅市","address":"東京都青梅市小會木5-2977","lat":35.825245,"lon":139.285792},{"name":"黒沢１丁目 運動広場","province":"東京都","city":"青梅市","address":"東京都青梅市黒沢1-17-1","lat":35.815017,"lon":139.269225},{"name":"黒沢１丁目第２ 運動広場","province":"東京都","city":"青梅市","address":"東京都青梅市黒沢1-483-1","lat":35.814298,"lon":139.264487},{"name":"黒沢中央 運動広場","province":"東京都","city":"青梅市","address":"東京都青梅市黒沢2-991-1","lat":35.812347,"lon":139.259034},{"name":"黒沢３丁目第２ 運動広場","province":"東京都","city":"青梅市","address":"東京都青梅市黒沢3-1820-1","lat":35.799475,"lon":139.254498},{"name":"成木２丁目 運動広場","province":"東京都","city":"青梅市","address":"東京都青梅市成木2-161","lat":35.832593,"lon":139.273601},{"name":"成木４丁目 運動広場","province":"東京都","city":"青梅市","address":"東京都青梅市成木4-850","lat":35.823716,"lon":139.248748},{"name":"成木６丁目 運動広場","province":"東京都","city":"青梅市","address":"東京都青梅市成木6-287","lat":35.832715,"lon":139.223691},{"name":"成木７丁目 運動広場","province":"東京都","city":"青梅市","address":"東京都青梅市成木7-828-6","lat":35.834922,"lon":139.208879},{"name":"成木８丁目 運動広場","province":"東京都","city":"青梅市","address":"東京都青梅市成木8-422-2","lat":35.82125,"lon":139.231557},{"name":"早道 運動広場","province":"東京都","city":"青梅市","address":"東京都青梅市東青梅5-17-5","lat":35.789819,"lon":139.279795},{"name":"城前 運動広場","province":"東京都","city":"青梅市","address":"東京都青梅市東青梅6-11-5","lat":35.792723,"lon":139.276026},{"name":"根ヶ布１丁目 運動広場","province":"東京都","city":"青梅市","address":"東京都青梅市根ヶ布1-401","lat":35.798887,"lon":139.268384},{"name":"分教場跡 運動広場","province":"東京都","city":"青梅市","address":"東京都青梅市師岡町1-1301-1","lat":35.792703,"lon":139.277881},{"name":"新町第１ 運動広場","province":"東京都","city":"青梅市","address":"東京都青梅市新町1-32-17","lat":35.789895,"lon":139.296942},{"name":"新町第５ 運動広場","province":"東京都","city":"青梅市","address":"東京都青梅市新町5-17-6","lat":35.789572,"lon":139.304079},{"name":"河辺町６丁目 運動広場","province":"東京都","city":"青梅市","address":"東京都青梅市河辺町6-17-12","lat":35.779878,"lon":139.292631},{"name":"藤橋２丁目 運動広場","province":"東京都","city":"青梅市","address":"東京都青梅市藤橋2-562-2","lat":35.799779,"lon":139.304197},{"name":"今井柳田 運動広場","province":"東京都","city":"青梅市","address":"東京都青梅市今井1-628-1","lat":35.811793,"lon":139.316227},{"name":"今井２丁目 運動広場","province":"東京都","city":"青梅市","address":"東京都青梅市今井2-784-1","lat":35.806796,"lon":139.318134},{"name":"今井七日市場 運動広場","province":"東京都","city":"青梅市","address":"東京都青梅市今井2-1093-1","lat":35.805437,"lon":139.309886},{"name":"今井総合 運動広場","province":"東京都","city":"青梅市","address":"東京都青梅市今井2-1083-1","lat":35.804114,"lon":139.309548},{"name":"今井３丁目 運動広場","province":"東京都","city":"青梅市","address":"東京都青梅市今井3-9-10","lat":35.796213,"lon":139.310294},{"name":"西分町３丁目  児童遊園","province":"東京都","city":"青梅市","address":"東京都青梅市西分町3-77-3","lat":35.788481,"lon":139.262127},{"name":"今井 児童遊園","province":"東京都","city":"青梅市","address":"東京都青梅市今井2-1045","lat":35.805191,"lon":139.307569},{"name":"和田 児童遊園","province":"東京都","city":"青梅市","address":"東京都青梅市和田町2-425","lat":35.780183,"lon":139.229053},{"name":"成木３丁目    児童遊園","province":"東京都","city":"青梅市","address":"東京都青梅市成木3-271-2","lat":35.829229,"lon":139.265356},{"name":"森下 児童遊園","province":"東京都","city":"青梅市","address":"東京都青梅市森下町555","lat":35.790415,"lon":139.249638},{"name":"黒沢２丁目 児童遊園","province":"東京都","city":"青梅市","address":"東京都青梅市黒沢2-990","lat":35.812532,"lon":139.258718},{"name":"野上 児童遊園","province":"東京都","city":"青梅市","address":"東京都青梅市野上町1-35","lat":35.796391,"lon":139.285092},{"name":"梅郷 児童遊園","province":"東京都","city":"青梅市","address":"東京都青梅市梅郷2-399-1","lat":35.784973,"lon":139.224096},{"name":"二俣尾１丁目  児童遊園","province":"東京都","city":"青梅市","address":"東京都青梅市二俣尾1-199-1","lat":35.795723,"lon":139.225582},{"name":"長淵鹿島 児童遊園","province":"東京都","city":"青梅市","address":"東京都青梅市長淵2-519","lat":35.77843,"lon":139.2717},{"name":"谷野 児童遊園","province":"東京都","city":"青梅市","address":"東京都青梅市谷野134-1","lat":35.803936,"lon":139.289676},{"name":"柚木町１丁目  児童遊園","province":"東京都","city":"青梅市","address":"東京都青梅市柚木町1-98-4","lat":35.796235,"lon":139.212409},{"name":"勝沼３丁目 児童遊園","province":"東京都","city":"青梅市","address":"東京都青梅市勝沼3-107-2","lat":35.790815,"lon":139.26704},{"name":"沢井２丁目 児童遊園","province":"東京都","city":"青梅市","address":"東京都青梅市沢井2-902-1","lat":35.805733,"lon":139.191681},{"name":"富岡１丁目 児童遊園","province":"東京都","city":"青梅市","address":"東京都青梅市富岡1-214-1","lat":35.83025,"lon":139.2939},{"name":"日向和田２丁目 児童遊園","province":"東京都","city":"青梅市","address":"東京都青梅市日向和田2-374-7","lat":35.785158,"lon":139.235567},{"name":"梅郷八幡 児童遊園","province":"東京都","city":"青梅市","address":"東京都青梅市梅郷6-1221-1","lat":35.790813,"lon":139.218557},{"name":"河辺春日 児童遊園","province":"東京都","city":"青梅市","address":"東京都青梅市河辺町3-1066-1","lat":35.780204,"lon":139.282383},{"name":"師岡町２丁目  児童遊園","province":"東京都","city":"青梅市","address":"東京都青梅市師岡町2-395-3","lat":35.791929,"lon":139.283445},{"name":"柚木町３丁目  児童遊園","province":"東京都","city":"青梅市","address":"東京都青梅市柚木町3-521-1","lat":35.801338,"lon":139.208091},{"name":"滝ノ上 児童遊園","province":"東京都","city":"青梅市","address":"東京都青梅市滝ノ上町1291-1","lat":35.788502,"lon":139.256467},{"name":"友田町５丁目  児童遊園","province":"東京都","city":"青梅市","address":"東京都青梅市友田町5-566-1","lat":35.769645,"lon":139.286122},{"name":"今井堀の内 児童遊園","province":"東京都","city":"青梅市","address":"東京都青梅市今井2-874-1","lat":35.806727,"lon":139.311976},{"name":"成木１丁目 児童遊園","province":"東京都","city":"青梅市","address":"東京都青梅市成木1-288","lat":35.836763,"lon":139.280258},{"name":"長淵３丁目 児童遊園","province":"東京都","city":"青梅市","address":"東京都青梅市長淵3-301-4","lat":35.779129,"lon":139.276423},{"name":"友田町１丁目  児童遊園","province":"東京都","city":"青梅市","address":"東京都青梅市友田町1-1033-1","lat":35.766307,"lon":139.292253},{"name":"小曾木４丁目  児童遊園","province":"東京都","city":"青梅市","address":"東京都青梅市小曾木4-2560-1","lat":35.821193,"lon":139.283262},{"name":"御岳本町 児童遊園","province":"東京都","city":"青梅市","address":"東京都青梅市御岳本町167-1","lat":35.800707,"lon":139.178042},{"name":"勝沼２丁目 児童遊園","province":"東京都","city":"青梅市","address":"東京都青梅市勝沼2-428-1","lat":35.794566,"lon":139.262706},{"name":"大門稲荷下 児童遊園","province":"東京都","city":"青梅市","address":"東京都青梅市大門1-405-1","lat":35.798623,"lon":139.291553},{"name":"大柳 児童遊園","province":"東京都","city":"青梅市","address":"東京都青梅市大柳町1452-1","lat":35.785308,"lon":139.251409},{"name":"小曾木５丁目  児童遊園","province":"東京都","city":"青梅市","address":"東京都青梅市小曾木5-3061","lat":35.824865,"lon":139.285763},{"name":"日向和田３丁目 児童遊園","province":"東京都","city":"青梅市","address":"東京都青梅市日向和田3-476-1","lat":35.781298,"lon":139.233907},{"name":"根ヶ布１丁目  児童遊園","province":"東京都","city":"青梅市","address":"東京都青梅市根ヶ布1-589-1","lat":35.797262,"lon":139.266783},{"name":"駒木町１丁目  児童遊園","province":"東京都","city":"青梅市","address":"東京都青梅市駒木町1-844-1","lat":35.782258,"lon":139.258288},{"name":"中丸台 児童遊園","province":"東京都","city":"青梅市","address":"東京都青梅市友田町2-684","lat":35.770106,"lon":139.291371},{"name":"小曾木１丁目  児童遊園","province":"東京都","city":"青梅市","address":"東京都青梅市小曾木1-3349","lat":35.820303,"lon":139.291553},{"name":"師岡町１丁目  児童遊園","province":"東京都","city":"青梅市","address":"東京都青梅市師岡町1-288-1","lat":35.793134,"lon":139.279773},{"name":"黒沢１丁目 児童遊園","province":"東京都","city":"青梅市","address":"東京都青梅市黒沢1-541-1","lat":35.813992,"lon":139.267038},{"name":"木野下中央 児童遊園","province":"東京都","city":"青梅市","address":"東京都青梅市木野下1-152-2","lat":35.806161,"lon":139.295528},{"name":"二俣尾３丁目  児童遊園","province":"東京都","city":"青梅市","address":"東京都青梅市二俣尾3-801","lat":35.801821,"lon":139.220574},{"name":"藤橋２丁目 児童遊園","province":"東京都","city":"青梅市","address":"東京都青梅市藤橋2-531-2","lat":35.80107,"lon":139.304361},{"name":"新町東 児童遊園","province":"東京都","city":"青梅市","address":"東京都青梅市新町9-2050-3","lat":35.781926,"lon":139.317344},{"name":"友田町３丁目 児童遊園","province":"東京都","city":"青梅市","address":"東京都青梅市友田町3-154-2","lat":35.771695,"lon":139.290349},{"name":"根ヶ布２丁目 児童遊園","province":"東京都","city":"青梅市","address":"東京都青梅市根ヶ布2-237-548","lat":35.804436,"lon":139.263215},{"name":"長淵第４住宅","province":"東京都","city":"青梅市","address":"東京都青梅市長淵1-1029","lat":35.773514,"lon":139.281951},{"name":"日向和田住宅","province":"東京都","city":"青梅市","address":"東京都青梅市日向和田1-253","lat":35.785852,"lon":139.238632},{"name":"千ヶ瀬第１住宅","province":"東京都","city":"青梅市","address":"東京都青梅市千ヶ瀬町1-44-5","lat":35.783704,"lon":139.278145},{"name":"千ヶ瀬第２住宅","province":"東京都","city":"青梅市","address":"東京都青梅市千ヶ瀬町1-25-1","lat":35.784971,"lon":139.275829},{"name":"千ヶ瀬第３住宅","province":"東京都","city":"青梅市","address":"東京都青梅市千ヶ瀬町1-105","lat":35.785459,"lon":139.276398},{"name":"東青梅住宅","province":"東京都","city":"青梅市","address":"東京都青梅市東青梅5-18-10","lat":35.79032,"lon":139.28087},{"name":"大門第５住宅","province":"東京都","city":"青梅市","address":"東京都青梅市大門1-376","lat":35.797564,"lon":139.290086},{"name":"大門第６住宅","province":"東京都","city":"青梅市","address":"東京都青梅市大門1-376","lat":35.797564,"lon":139.290086},{"name":"駒木住宅","province":"東京都","city":"青梅市","address":"東京都青梅市駒木町2-446-2","lat":35.780225,"lon":139.251671},{"name":"友田住宅","province":"東京都","city":"青梅市","address":"東京都青梅市友田町5-299","lat":35.772322,"lon":139.284426},{"name":"和田第１住宅","province":"東京都","city":"青梅市","address":"東京都青梅市和田町2-268-1","lat":35.780093,"lon":139.229706},{"name":"畑中第１住宅","province":"東京都","city":"青梅市","address":"東京都青梅市畑中2-256-1","lat":35.78583,"lon":139.2438},{"name":"河辺第１住宅","province":"東京都","city":"青梅市","address":"東京都青梅市河辺町6-14-4","lat":35.780127,"lon":139.292042},{"name":"河辺第２住宅","province":"東京都","city":"青梅市","address":"東京都青梅市河辺町6-14-4","lat":35.77988,"lon":139.29192},{"name":"富岡第１住宅","province":"東京都","city":"青梅市","address":"東京都青梅市富岡3-1172","lat":35.829091,"lon":139.293587},{"name":"富岡第２住宅","province":"東京都","city":"青梅市","address":"東京都青梅市富岡3-1172","lat":35.82874,"lon":139.29349},{"name":"藤橋第１住宅","province":"東京都","city":"青梅市","address":"東京都青梅市藤橋1-408-1","lat":35.809032,"lon":139.300759},{"name":"裏宿住宅","province":"東京都","city":"青梅市","address":"東京都青梅市裏宿町711-1","lat":35.791322,"lon":139.245299},{"name":"吹上住宅","province":"東京都","city":"青梅市","address":"東京都青梅市吹上280","lat":35.796833,"lon":139.279762},{"name":"大門第７住宅","province":"東京都","city":"青梅市","address":"東京都青梅市大門1-407-1","lat":35.798933,"lon":139.291988},{"name":"畑中第２住宅","province":"東京都","city":"青梅市","address":"東京都青梅市畑中2-256-1","lat":35.78575,"lon":139.2441},{"name":"畑中第３住宅","province":"東京都","city":"青梅市","address":"東京都青梅市畑中2-228-1","lat":35.784173,"lon":139.242152},{"name":"藤橋第２住宅","province":"東京都","city":"青梅市","address":"東京都青梅市藤橋1-408-1","lat":35.80933,"lon":139.30064},{"name":"柚木住宅","province":"東京都","city":"青梅市","address":"東京都青梅市柚木町3-621-1","lat":35.803142,"lon":139.209475},{"name":"梅園町第２住宅","province":"東京都","city":"青梅市","address":"東京都青梅市裏宿町879","lat":35.788769,"lon":139.242247},{"name":"青梅市立総合病院","province":"東京都","city":"青梅市","address":"東京都青梅市東青梅4-16-5","lat":35.782502,"lon":139.28118},{"name":"青梅市休日夜間診療所","province":"東京都","city":"青梅市","address":"東京都青梅市東青梅1-167-1","lat":35.787981,"lon":139.272962},{"name":"青梅市梅郷診療所","province":"東京都","city":"青梅市","address":"東京都青梅市梅郷3-755-1","lat":35.786759,"lon":139.224966},{"name":"青梅市沢井診療所","province":"東京都","city":"青梅市","address":"東京都青梅市沢井2-850-3","lat":35.805652,"lon":139.193028},{"name":"青梅市小曾木診療所","province":"東京都","city":"青梅市","address":"東京都青梅市小曾木4-2787-3","lat":35.822727,"lon":139.281351},{"name":"永山公園","province":"東京都","city":"青梅市","address":"東京都青梅市本町217","lat":35.79211,"lon":139.26002},{"name":"六万公園","province":"東京都","city":"青梅市","address":"東京都青梅市東青梅3-6-14","lat":35.789673,"lon":139.275903},{"name":"大塚前公園","province":"東京都","city":"青梅市","address":"東京都青梅市東青梅1-10-7","lat":35.788731,"lon":139.274647},{"name":"畑中公園","province":"東京都","city":"青梅市","address":"東京都青梅市畑中2-557-1","lat":35.783511,"lon":139.242989},{"name":"中原公園","province":"東京都","city":"青梅市","address":"東京都青梅市東青梅4-20-1","lat":35.785365,"lon":139.281669},{"name":"末広公園","province":"東京都","city":"青梅市","address":"東京都青梅市末広町2-4","lat":35.778319,"lon":139.307946},{"name":"釜の淵公園","province":"東京都","city":"青梅市","address":"東京都青梅市大柳町1、392","lat":35.78495,"lon":139.25621},{"name":"七兵衛公園","province":"東京都","city":"青梅市","address":"東京都青梅市裏宿町804","lat":35.790308,"lon":139.244773},{"name":"下久保公園","province":"東京都","city":"青梅市","address":"東京都青梅市河辺町4-6","lat":35.782521,"lon":139.282623},{"name":"速川公園","province":"東京都","city":"青梅市","address":"東京都青梅市河辺町5-19","lat":35.782205,"lon":139.286875},{"name":"梨の木公園","province":"東京都","city":"青梅市","address":"東京都青梅市河辺町6-24","lat":35.779116,"lon":139.294244},{"name":"白はけ公園","province":"東京都","city":"青梅市","address":"東京都青梅市河辺町6-7","lat":35.780453,"lon":139.291008},{"name":"南白はけ公園","province":"東京都","city":"青梅市","address":"東京都青梅市河辺町6-11","lat":35.778258,"lon":139.291422},{"name":"中先戸公園","province":"東京都","city":"青梅市","address":"東京都青梅市河辺町4-22","lat":35.780055,"lon":139.288128},{"name":"大塚山公園","province":"東京都","city":"青梅市","address":"東京都青梅市東青梅2-8-14","lat":35.792571,"lon":139.272738},{"name":"株樹公園","province":"東京都","city":"青梅市","address":"東京都青梅市師岡町4-3","lat":35.786246,"lon":139.283131},{"name":"道間公園","province":"東京都","city":"青梅市","address":"東京都青梅市師岡町3-7","lat":35.790373,"lon":139.283778},{"name":"鳥井戸公園","province":"東京都","city":"青梅市","address":"東京都青梅市野上町3-11","lat":35.791576,"lon":139.290036},{"name":"古井戸公園","province":"東京都","city":"青梅市","address":"東京都青梅市野上町4-11","lat":35.786965,"lon":139.290611},{"name":"城前公園","province":"東京都","city":"青梅市","address":"東京都青梅市東青梅6-11-5","lat":35.792723,"lon":139.276026},{"name":"わかぐさ公園","province":"東京都","city":"青梅市","address":"東京都青梅市河辺町8-14-3","lat":35.78329,"lon":139.2964},{"name":"塚の上公園","province":"東京都","city":"青梅市","address":"東京都青梅市大門3-19","lat":35.794262,"lon":139.293897},{"name":"大門中原公園","province":"東京都","city":"青梅市","address":"東京都青梅市大門3-25","lat":35.79559,"lon":139.296813},{"name":"今寺中原公園","province":"東京都","city":"青梅市","address":"東京都青梅市今寺4-9","lat":35.796223,"lon":139.300038},{"name":"細道公園","province":"東京都","city":"青梅市","address":"東京都青梅市藤橋3-15","lat":35.798162,"lon":139.305409},{"name":"水窪公園","province":"東京都","city":"青梅市","address":"東京都青梅市今井3-22","lat":35.799409,"lon":139.310059},{"name":"塚の上南公園","province":"東京都","city":"青梅市","address":"東京都青梅市大門3-5","lat":35.792079,"lon":139.296105},{"name":"二本木公園","province":"東京都","city":"青梅市","address":"東京都青梅市今寺4-20","lat":35.797667,"lon":139.302935},{"name":"東原公園","province":"東京都","city":"青梅市","address":"東京都青梅市今寺5-11","lat":35.793701,"lon":139.301777},{"name":"下和田公園","province":"東京都","city":"青梅市","address":"東京都青梅市和田町2-146-43","lat":35.782919,"lon":139.229817},{"name":"大柳公園","province":"東京都","city":"青梅市","address":"東京都青梅市大柳町1、582-10","lat":35.786736,"lon":139.248375},{"name":"七日市場公園","province":"東京都","city":"青梅市","address":"東京都青梅市今井2-1、13-17","lat":35.805833,"lon":139.306104},{"name":"浜矢場公園","province":"東京都","city":"青梅市","address":"東京都青梅市日向和田3-495-4","lat":35.78176,"lon":139.23211},{"name":"小山公園","province":"東京都","city":"青梅市","address":"東京都青梅市長淵8-170-3","lat":35.78094,"lon":139.26151},{"name":"下長淵公園","province":"東京都","city":"青梅市","address":"東京都青梅市長淵1-36-15","lat":35.777038,"lon":139.280122},{"name":"鈴法寺公園","province":"東京都","city":"青梅市","address":"東京都青梅市新町1-22-18","lat":35.788337,"lon":139.295547},{"name":"大山公園","province":"東京都","city":"青梅市","address":"東京都青梅市新町1-39-17","lat":35.790391,"lon":139.297357},{"name":"西間原公園","province":"東京都","city":"青梅市","address":"東京都青梅市新町5-42","lat":35.791332,"lon":139.305676},{"name":"大井戸公園","province":"東京都","city":"青梅市","address":"東京都青梅市新町2-27","lat":35.789224,"lon":139.299338},{"name":"富士塚公園","province":"東京都","city":"青梅市","address":"東京都青梅市新町5-22","lat":35.789282,"lon":139.307812},{"name":"平松緑地","province":"東京都","city":"青梅市","address":"東京都青梅市新町8-11-21","lat":35.782967,"lon":139.312901},{"name":"新町南公園","province":"東京都","city":"青梅市","address":"東京都青梅市新町3-13","lat":35.779375,"lon":139.304507},{"name":"桜株公園","province":"東京都","city":"青梅市","address":"東京都青梅市新町5-13-18","lat":35.788146,"lon":139.304688},{"name":"南植木外公園","province":"東京都","city":"青梅市","address":"東京都青梅市新町4-13","lat":35.784477,"lon":139.305829},{"name":"植木内公園","province":"東京都","city":"青梅市","address":"東京都青梅市新町3-36","lat":35.781294,"lon":139.300802},{"name":"蔵屋敷公園","province":"東京都","city":"青梅市","address":"東京都青梅市新町2-6","lat":35.785268,"lon":139.300791},{"name":"神宮前公園","province":"東京都","city":"青梅市","address":"東京都青梅市勝沼3-142","lat":35.791912,"lon":139.265294},{"name":"平林公園","province":"東京都","city":"青梅市","address":"東京都青梅市千ケ瀬町1-7-4","lat":35.78352,"lon":139.27784},{"name":"小ケ谷戸公園","province":"東京都","city":"青梅市","address":"東京都青梅市吹上285-11","lat":35.79569,"lon":139.27926},{"name":"柚木木下公園","province":"東京都","city":"青梅市","address":"東京都青梅市柚木町2-449-3","lat":35.801865,"lon":139.210795},{"name":"神明原公園","province":"東京都","city":"青梅市","address":"東京都青梅市今寺3-456-7","lat":35.79901,"lon":139.30042},{"name":"石神前駅前広場","province":"東京都","city":"青梅市","address":"東京都青梅市二俣尾1-201-4","lat":35.796602,"lon":139.224965},{"name":"吹上しょうぶ公園","province":"東京都","city":"青梅市","address":"東京都青梅市吹上425","lat":35.797418,"lon":139.27572},{"name":"後沢公園","province":"東京都","city":"青梅市","address":"東京都青梅市根ヶ布2-237-598","lat":35.805572,"lon":139.263757},{"name":"下前公園","province":"東京都","city":"青梅市","address":"東京都青梅市塩船15-5","lat":35.80151,"lon":139.28761},{"name":"下目ノ内公園","province":"東京都","city":"青梅市","address":"東京都青梅市梅郷6-1、249-8","lat":35.79128,"lon":139.21646},{"name":"新町中原南公園","province":"東京都","city":"青梅市","address":"東京都青梅市新町9-2、16-9","lat":35.780406,"lon":139.318329},{"name":"寺改戸公園","province":"東京都","city":"青梅市","address":"東京都青梅市長淵3-285-1","lat":35.780813,"lon":139.275224},{"name":"西浦公園","province":"東京都","city":"青梅市","address":"東京都青梅市今寺1-816-30","lat":35.800834,"lon":139.291958},{"name":"上開戸公園","province":"東京都","city":"青梅市","address":"東京都青梅市大門1-783-2","lat":35.800946,"lon":139.286475},{"name":"梅の公園","province":"東京都","city":"青梅市","address":"東京都青梅市梅郷4-527","lat":35.785857,"lon":139.219547},{"name":"霞丘陵自然公園","province":"東京都","city":"青梅市","address":"東京都青梅市塩船188","lat":35.806455,"lon":139.280961},{"name":"日向和田臨川庭園","province":"東京都","city":"青梅市","address":"東京都青梅市日向和田2-271","lat":35.784951,"lon":139.238829},{"name":"花木園","province":"東京都","city":"青梅市","address":"東京都青梅市小曾木4-2、615-1","lat":35.817809,"lon":139.283085},{"name":"今井ふれあい公園","province":"東京都","city":"青梅市","address":"東京都青梅市今井2-936","lat":35.80724,"lon":139.308223},{"name":"東京都立青峰学園","province":"東京都","city":"青梅市","address":"東京都青梅市大門3-12","lat":35.793693,"lon":139.297065},{"name":"青梅市第一学童保育所(第一こどもクラブ）","province":"東京都","city":"青梅市","address":"東京都青梅市本町223","lat":35.791486,"lon":139.258442},{"name":"青梅市第二学童保育所（第二こどもクラブ）","province":"東京都","city":"青梅市","address":"東京都青梅市長淵4-437","lat":35.78109,"lon":139.27021},{"name":"青梅市第二学童保育所（千ヶ瀬こどもクラブ）","province":"東京都","city":"青梅市","address":"東京都青梅市千ヶ瀬町2-262-13","lat":35.78455,"lon":139.272583},{"name":"青梅市第三学童保育所（第三こどもクラブ）","province":"東京都","city":"青梅市","address":"東京都青梅市大門2-317","lat":35.798467,"lon":139.293755},{"name":"青梅市第三学童保育所（大門こどもクラブ）","province":"東京都","city":"青梅市","address":"東京都青梅市大門1-364-1","lat":35.797677,"lon":139.289344},{"name":"青梅市第四学童保育所（第四こどもクラブ）","province":"東京都","city":"青梅市","address":"東京都青梅市東青梅6-1-1","lat":35.79409,"lon":139.27159},{"name":"青梅市第五学童保育所（第五こどもクラブ）","province":"東京都","city":"青梅市","address":"東京都青梅市梅郷3-765-1","lat":35.787461,"lon":139.224079},{"name":"青梅市第六学童保育所（第六こどもクラブ）","province":"東京都","city":"青梅市","address":"東京都青梅市二俣尾3-903-1","lat":35.801609,"lon":139.216851},{"name":"青梅市第七学童保育所（第七こどもクラブ）","province":"東京都","city":"青梅市","address":"東京都青梅市小曾木3-1880-1","lat":35.819836,"lon":139.275006},{"name":"青梅市成木学童保育所（成木こどもクラブ）","province":"東京都","city":"青梅市","address":"東京都青梅市成木3-423-1","lat":35.82818,"lon":139.26061},{"name":"青梅市河辺学童保育所（河辺こどもクラブ）","province":"東京都","city":"青梅市","address":"東京都青梅市河辺町5-24","lat":35.782259,"lon":139.288039},{"name":"青梅市新町学童保育所（新町こどもクラブ）","province":"東京都","city":"青梅市","address":"東京都青梅市新町5-7-16","lat":35.78784,"lon":139.30896},{"name":"青梅市新町学童保育所（新町第２こどもクラブ）","province":"東京都","city":"青梅市","address":"東京都青梅市新町5-7-15","lat":35.78797,"lon":139.30893},{"name":"青梅市霞台学童保育所（霞台こどもクラブ）","province":"東京都","city":"青梅市","address":"東京都青梅市新町1-35-1","lat":35.789987,"lon":139.294388},{"name":"青梅市友田学童保育所（友田こどもクラブ）","province":"東京都","city":"青梅市","address":"東京都青梅市友田5-332","lat":35.774259,"lon":139.284528},{"name":"青梅市今井学童保育所（今井こどもクラブ）","province":"東京都","city":"青梅市","address":"東京都青梅市今井2-947-1","lat":35.807292,"lon":139.306227},{"name":"青梅市若草学童保育所（若草こどもクラブ）","province":"東京都","city":"青梅市","address":"東京都青梅市新町1-15-1","lat":35.786465,"lon":139.293732},{"name":"青梅市藤橋学童保育所（藤橋こどもクラブ）","province":"東京都","city":"青梅市","address":"東京都青梅市藤橋3-13-1","lat":35.797632,"lon":139.306015},{"name":"青梅市吹上学童保育所（吹上こどもクラブ）","province":"東京都","city":"青梅市","address":"東京都青梅市吹上176-1","lat":35.797188,"lon":139.282838},{"name":"青梅市立第一小学校","province":"東京都","city":"青梅市","address":"東京都青梅市本町223","lat":35.791527,"lon":139.258615},{"name":"青梅市立第二小学校","province":"東京都","city":"青梅市","address":"東京都青梅市長淵4-437","lat":35.780843,"lon":139.270599},{"name":"青梅市立第三小学校","province":"東京都","city":"青梅市","address":"東京都青梅市大門2-317","lat":35.798415,"lon":139.293717},{"name":"青梅市立第四小学校","province":"東京都","city":"青梅市","address":"東京都青梅市東青梅6-1-1","lat":35.793846,"lon":139.272173},{"name":"青梅市立第五小学校","province":"東京都","city":"青梅市","address":"東京都青梅市梅郷3-765-1","lat":35.787513,"lon":139.224171},{"name":"青梅市立第六小学校","province":"東京都","city":"青梅市","address":"東京都青梅市二俣尾3-903-1","lat":35.801495,"lon":139.216996},{"name":"青梅市立第七小学校","province":"東京都","city":"青梅市","address":"東京都青梅市小曾木3-1880-1","lat":35.819744,"lon":139.275686},{"name":"青梅市立成木小学校","province":"東京都","city":"青梅市","address":"東京都青梅市成木3-423-1","lat":35.828754,"lon":139.260037},{"name":"青梅市立河辺小学校","province":"東京都","city":"青梅市","address":"東京都青梅市河辺町5-24","lat":35.78222,"lon":139.2883},{"name":"青梅市立新町小学校","province":"東京都","city":"青梅市","address":"東京都青梅市新町5-21-1","lat":35.788748,"lon":139.307311},{"name":"青梅市立霞台小学校","province":"東京都","city":"青梅市","address":"東京都青梅市新町1-35-1","lat":35.790118,"lon":139.294208},{"name":"青梅市立友田小学校","province":"東京都","city":"青梅市","address":"東京都青梅市友田町5-332","lat":35.774266,"lon":139.284505},{"name":"青梅市立今井小学校","province":"東京都","city":"青梅市","address":"東京都青梅市今井2-947-1","lat":35.80726,"lon":139.306233},{"name":"青梅市立若草小学校","province":"東京都","city":"青梅市","address":"東京都青梅市新町1-15-1","lat":35.786466,"lon":139.293737},{"name":"青梅市立藤橋小学校","province":"東京都","city":"青梅市","address":"東京都青梅市藤橋3-13-1","lat":35.797619,"lon":139.306015},{"name":"青梅市立吹上小学校","province":"東京都","city":"青梅市","address":"東京都青梅市吹上176-1","lat":35.797185,"lon":139.282837},{"name":"青梅市立第一中学校","province":"東京都","city":"青梅市","address":"東京都青梅市裏宿町615","lat":35.78953,"lon":139.245492},{"name":"青梅市立第二中学校","province":"東京都","city":"青梅市","address":"東京都青梅市千ヶ瀬町2-155","lat":35.78602,"lon":139.274282},{"name":"青梅市立第三中学校","province":"東京都","city":"青梅市","address":"東京都青梅市大門2-301","lat":35.797502,"lon":139.292402},{"name":"青梅市立西中学校","province":"東京都","city":"青梅市","address":"東京都青梅市梅郷6-1460-1","lat":35.794536,"lon":139.219939},{"name":"青梅市立第六中学校","province":"東京都","city":"青梅市","address":"東京都青梅市小曾木4-2040","lat":35.821664,"lon":139.27638},{"name":"青梅市立第七中学校","province":"東京都","city":"青梅市","address":"東京都青梅市成木4-544-2","lat":35.825942,"lon":139.257952},{"name":"青梅市立霞台中学校","province":"東京都","city":"青梅市","address":"東京都青梅市師岡町4-6-1","lat":35.78667,"lon":139.28315},{"name":"青梅市立吹上中学校","province":"東京都","city":"青梅市","address":"東京都青梅市吹上1","lat":35.80074,"lon":139.28287},{"name":"青梅市立新町中学校","province":"東京都","city":"青梅市","address":"東京都青梅市新町5-20-1","lat":35.789023,"lon":139.306427},{"name":"青梅市立泉中学校","province":"東京都","city":"青梅市","address":"東京都青梅市新町1-37","lat":35.790187,"lon":139.296437},{"name":"青梅市立東小・中学校","province":"東京都","city":"青梅市","address":"東京都青梅市新町3-72-1","lat":35.7813,"lon":139.30427},{"name":"東京都立多摩高等学園","province":"東京都","city":"青梅市","address":"東京都青梅市裏宿町580","lat":35.78959,"lon":139.24685},{"name":"東京都立青梅総合高等学校","province":"東京都","city":"青梅市","address":"東京都青梅市勝沼1-60-1","lat":35.78895,"lon":139.26914},{"name":"青梅市障がい者サポートセンター","province":"東京都","city":"青梅市","address":"東京都青梅市大門2-261-1","lat":35.795541,"lon":139.291312},{"name":"青梅市自立センター","province":"東京都","city":"青梅市","address":"東京都青梅市今井5-2434-2","lat":35.793399,"lon":139.328375},{"name":"青梅市子育て支援センター","province":"東京都","city":"青梅市","address":"東京都青梅市新町2-21-9","lat":35.78827,"lon":139.30226},{"name":"青梅市総合体育館","province":"東京都","city":"青梅市","address":"東京都青梅市河辺町4-16-1","lat":35.780697,"lon":139.284362},{"name":"青梅市吉川英治記念館","province":"東京都","city":"青梅市","address":"東京都青梅市柚木1-101-1","lat":35.796294,"lon":139.213024},{"name":"青梅市文化交流センター","province":"東京都","city":"青梅市","address":"東京都青梅市上町374","lat":35.7902,"lon":139.255},{"name":"青梅市御岳山ふれあいセンター","province":"東京都","city":"青梅市","address":"東京都青梅市御岳山38-2","lat":35.78696,"lon":139.15072},{"name":"青梅市民斎場","province":"東京都","city":"青梅市","address":"東京都青梅市長淵5-698-2","lat":35.772386,"lon":139.263095},{"name":"青梅市火葬場","province":"東京都","city":"青梅市","address":"東京都青梅市長淵5-743","lat":35.772774,"lon":139.262309},{"name":"青梅市交通公園","province":"東京都","city":"青梅市","address":"東京都青梅市大門3-14-3","lat":35.79396,"lon":139.29551},{"name":"青梅市御岳交流センター","province":"東京都","city":"青梅市","address":"東京都青梅市御岳本町362-8","lat":35.80143,"lon":139.184519},{"name":"旧宮崎家住宅","province":"東京都","city":"青梅市","address":"東京都青梅市駒木町1-684","lat":35.784189,"lon":139.25631},{"name":"旧吉野家住宅","province":"東京都","city":"青梅市","address":"東京都青梅市新町1-21-9","lat":35.788131,"lon":139.297949},{"name":"旧稲葉家住宅","province":"東京都","city":"青梅市","address":"東京都青梅市森下町499","lat":35.790314,"lon":139.250821},{"name":"青梅市シルバー人材センター","province":"東京都","city":"青梅市","address":"東京都青梅市千ケ瀬1-50","lat":35.783416,"lon":139.279068},{"name":"青梅市墓地公園","province":"東京都","city":"青梅市","address":"東京都青梅市長淵5-742-1","lat":35.77323,"lon":139.261568}]}