{"category":"toilet","data":[{"name":"御岳駅前","province":"東京都","city":"青梅市","address":"東京都青梅市御岳本町332-1","lat":35.801507,"lon":139.183501},{"name":"成木７丁目常磐橋際","province":"東京都","city":"青梅市","address":"東京都青梅市成木7-1591-1","lat":35.8375,"lon":139.18863},{"name":"成木７丁目都バス折返所","province":"東京都","city":"青梅市","address":"東京都青梅市成木7-1081-1","lat":35.837003,"lon":139.202944},{"name":"柚木町３丁目都バス折返所","province":"東京都","city":"青梅市","address":"東京都青梅市柚木町3-621-6","lat":35.802761,"lon":139.209165},{"name":"成木８丁目高水山登山口","province":"東京都","city":"青梅市","address":"東京都青梅市成木8-1071-1","lat":35.82422,"lon":139.21063},{"name":"柚木町１丁目ポンプ場下","province":"東京都","city":"青梅市","address":"東京都青梅市柚木町1-193-3","lat":35.79799,"lon":139.21752},{"name":"二俣尾３丁目海禅寺前","province":"東京都","city":"青梅市","address":"東京都青梅市二俣尾3-960-5","lat":35.80282,"lon":139.21768},{"name":"成木６丁目滝成バス停前","province":"東京都","city":"青梅市","address":"東京都青梅市成木6-169","lat":35.8318,"lon":139.23029},{"name":"成木８丁目都バス折返所","province":"東京都","city":"青梅市","address":"東京都青梅市成木8-531ーイ","lat":35.82155,"lon":139.23052},{"name":"成木８丁目蜆沢院広場","province":"東京都","city":"青梅市","address":"東京都青梅市成木8-122-1","lat":35.81889,"lon":139.24137},{"name":"畑中２丁目ポンプ場脇","province":"東京都","city":"青梅市","address":"東京都青梅市畑中2-179-9","lat":35.78731,"lon":139.24432},{"name":"黒沢水浴場","province":"東京都","city":"青梅市","address":"東京都青梅市黒沢3-1508-3","lat":35.80734,"lon":139.25071},{"name":"青梅駅前","province":"東京都","city":"青梅市","address":"東京都青梅市本町163-16","lat":35.790316,"lon":139.258805},{"name":"成木３丁目バス停前","province":"東京都","city":"青梅市","address":"東京都青梅市成木3-256-4","lat":35.82969,"lon":139.26373},{"name":"東青梅駅南口","province":"東京都","city":"青梅市","address":"東京都青梅市東青梅1-15-7","lat":35.788161,"lon":139.272382},{"name":"東青梅駅北口","province":"東京都","city":"青梅市","address":"東京都青梅市東青梅2-14-9","lat":35.790005,"lon":139.272982},{"name":"千ヶ瀬神社前","province":"東京都","city":"青梅市","address":"東京都青梅市千ヶ瀬町2-138-1","lat":35.78624,"lon":139.27566},{"name":"成木安楽寺前","province":"東京都","city":"青梅市","address":"東京都青梅市成木1-570-1","lat":35.83813,"lon":139.27541},{"name":"長淵３丁目水泳場脇","province":"東京都","city":"青梅市","address":"東京都青梅市長淵3-334-3","lat":35.77989,"lon":139.2777},{"name":"成木１丁目バス停前","province":"東京都","city":"青梅市","address":"東京都青梅市成木1-659-1","lat":35.83754,"lon":139.27826},{"name":"河辺駅南口","province":"東京都","city":"青梅市","address":"東京都青梅市河辺町5-29-1","lat":35.783923,"lon":139.286044},{"name":"河辺駅北口","province":"東京都","city":"青梅市","address":"東京都青梅市河辺町10-18","lat":35.783923,"lon":139.286044},{"name":"富岡１丁目都バス折返所","province":"東京都","city":"青梅市","address":"東京都青梅市富岡1-139-1","lat":35.832043,"lon":139.296718},{"name":"御岳２丁目神路橋トイレ","province":"東京都","city":"青梅市","address":"東京都青梅市御岳2-271","lat":35.80152,"lon":139.17568},{"name":"御岳苑地駐車場トイレ","province":"東京都","city":"青梅市","address":"東京都青梅市御岳1-190-3","lat":35.79897,"lon":139.17777},{"name":"御岳1丁目駐車場トイレ","province":"東京都","city":"青梅市","address":"東京都青梅市御岳1-3","lat":35.7996,"lon":139.18525},{"name":"沢井３丁目御岳渓谷遊歩道トイレ","province":"東京都","city":"青梅市","address":"東京都青梅市沢井3-491-1","lat":35.80529,"lon":139.18776},{"name":"二俣尾５丁目高源寺前トイレ","province":"東京都","city":"青梅市","address":"東京都青梅市二俣尾5-1610","lat":35.81815,"lon":139.20225},{"name":"柚木苑地駐車場トイレ","province":"東京都","city":"青梅市","address":"東京都青梅市柚木町3-643","lat":35.80293,"lon":139.20743},{"name":"梅郷４丁目梅郷ゴルフ前トイレ","province":"東京都","city":"青梅市","address":"東京都青梅市梅郷4-1834","lat":35.78599,"lon":139.21582},{"name":"中道梅園トイレ","province":"東京都","city":"青梅市","address":"東京都青梅市梅郷4-658-5","lat":35.78932,"lon":139.21946},{"name":"青梅丘陵ハイキングコーストイレ","province":"東京都","city":"青梅市","address":"東京都青梅市黒沢3-1992-26","lat":35.79293,"lon":139.23776},{"name":"御岳本町 児童遊園","province":"東京都","city":"青梅市","address":"東京都青梅市御岳本町167-1","lat":35.80067,"lon":139.178},{"name":"沢井２丁目 児童遊園","province":"東京都","city":"青梅市","address":"東京都青梅市沢井2-902-1","lat":35.80583,"lon":139.19174},{"name":"沢井駅前広場","province":"東京都","city":"青梅市","address":"東京都青梅市沢井2-833-4","lat":35.805552,"lon":139.194406},{"name":"柚木町３丁目 児童遊園","province":"東京都","city":"青梅市","address":"東京都青梅市柚木町3-521-1","lat":35.80152,"lon":139.20812},{"name":"柚木木下公園","province":"東京都","city":"青梅市","address":"東京都青梅市柚木町2-449-3","lat":35.80187,"lon":139.21089},{"name":"柚木町１丁目 児童遊園","province":"東京都","city":"青梅市","address":"東京都青梅市柚木町1-98-4","lat":35.79619,"lon":139.21251},{"name":"梅の里駐車場","province":"東京都","city":"青梅市","address":"東京都青梅市柚木町1-69-4","lat":35.7962,"lon":139.21416},{"name":"下目ノ内公園","province":"東京都","city":"青梅市","address":"東京都青梅市梅郷6-1、249-8","lat":35.79136,"lon":139.21632},{"name":"梅郷八幡 児童遊園","province":"東京都","city":"青梅市","address":"東京都青梅市梅郷6-1221-1","lat":35.79089,"lon":139.2186},{"name":"梅の公園","province":"東京都","city":"青梅市","address":"東京都青梅市梅郷4-527","lat":35.78632,"lon":139.21873},{"name":"二俣尾３丁目 児童遊園","province":"東京都","city":"青梅市","address":"東京都青梅市二俣尾3-801","lat":35.80177,"lon":139.2204},{"name":"梅郷 児童遊園","province":"東京都","city":"青梅市","address":"東京都青梅市梅郷2-399-1","lat":35.78488,"lon":139.22407},{"name":"杉平公園","province":"東京都","city":"青梅市","address":"東京都青梅市梅郷1-205-11","lat":35.783756,"lon":139.224277},{"name":"石神前駅前広場","province":"東京都","city":"青梅市","address":"東京都青梅市二俣尾1-201-4","lat":35.7966,"lon":139.22515},{"name":"二俣尾１丁目 児童遊園","province":"東京都","city":"青梅市","address":"東京都青梅市二俣尾1-199-1","lat":35.795723,"lon":139.225582},{"name":"的場公園","province":"東京都","city":"青梅市","address":"東京都青梅市梅郷3-836-1","lat":35.785857,"lon":139.227212},{"name":"和田 児童遊園","province":"東京都","city":"青梅市","address":"東京都青梅市和田町2-425","lat":35.7801,"lon":139.22919},{"name":"下和田公園","province":"東京都","city":"青梅市","address":"東京都青梅市和田町2-146-43","lat":35.78289,"lon":139.22985},{"name":"浜矢場公園","province":"東京都","city":"青梅市","address":"東京都青梅市日向和田3-495-4","lat":35.781738,"lon":139.231963},{"name":"日向和田３丁目児童遊園","province":"東京都","city":"青梅市","address":"東京都青梅市日向和田3-476-1","lat":35.7812,"lon":139.23386},{"name":"日向和田２丁目 児童遊園","province":"東京都","city":"青梅市","address":"東京都青梅市日向和田2-374-7","lat":35.78496,"lon":139.23545},{"name":"宮ノ平駅前広場","province":"東京都","city":"青梅市","address":"東京都青梅市日向和田2-154-16","lat":35.787114,"lon":139.236686},{"name":"畑中戸田山公園","province":"東京都","city":"青梅市","address":"東京都青梅市畑中3-898-2","lat":35.779204,"lon":139.237311},{"name":"日向和田臨川庭園","province":"東京都","city":"青梅市","address":"東京都青梅市日向和田2-271","lat":35.78491,"lon":139.23881},{"name":"成木５丁目 児童遊園","province":"東京都","city":"青梅市","address":"東京都青梅市成木5-1323","lat":35.828415,"lon":139.242276},{"name":"畑中公園","province":"東京都","city":"青梅市","address":"東京都青梅市畑中2-557-1","lat":35.78351,"lon":139.24328},{"name":"七兵衛公園","province":"東京都","city":"青梅市","address":"東京都青梅市裏宿町804","lat":35.779028,"lon":139.24489},{"name":"大柳公園","province":"東京都","city":"青梅市","address":"東京都青梅市大柳町1、582-10","lat":35.78677,"lon":139.24833},{"name":"森下 児童遊園","province":"東京都","city":"青梅市","address":"東京都青梅市森下町555","lat":35.79042,"lon":139.24954},{"name":"天ヶ瀬公園","province":"東京都","city":"青梅市","address":"東京都青梅市天ヶ瀬町1、111-1","lat":35.789057,"lon":139.251063},{"name":"大柳 児童遊園","province":"東京都","city":"青梅市","address":"東京都青梅市大柳町1452-1","lat":35.78531,"lon":139.25149},{"name":"駒木町山根公園","province":"東京都","city":"青梅市","address":"東京都青梅市駒木町2-183-23","lat":35.778104,"lon":139.253176},{"name":"釜の淵公園","province":"東京都","city":"青梅市","address":"東京都青梅市大柳町1、392","lat":35.78561,"lon":139.25571},{"name":"滝ノ上 児童遊園","province":"東京都","city":"青梅市","address":"東京都青梅市滝ノ上町1291-1","lat":35.78857,"lon":139.25634},{"name":"駒木町１丁目 児童遊園","province":"東京都","city":"青梅市","address":"東京都青梅市駒木町1-844-1","lat":35.782258,"lon":139.258288},{"name":"黒沢２丁目 児童遊園","province":"東京都","city":"青梅市","address":"東京都青梅市黒沢2-990","lat":35.81248,"lon":139.25856},{"name":"永山公園","province":"東京都","city":"青梅市","address":"東京都青梅市本町217","lat":35.7919,"lon":139.26045},{"name":"谷津公園","province":"東京都","city":"青梅市","address":"東京都青梅市根ヶ布2-1、370-137","lat":35.804825,"lon":139.260501},{"name":"田端公園","province":"東京都","city":"青梅市","address":"東京都青梅市千ケ瀬町6-788","lat":35.786061,"lon":139.261333},{"name":"小山公園","province":"東京都","city":"青梅市","address":"東京都青梅市長淵8-170-3","lat":35.781107,"lon":139.261504},{"name":"西分町３丁目 児童遊園","province":"東京都","city":"青梅市","address":"東京都青梅市西分町3-77-3","lat":35.78851,"lon":139.2622},{"name":"勝沼２丁目 児童遊園","province":"東京都","city":"青梅市","address":"東京都青梅市勝沼2-428-1","lat":35.79459,"lon":139.26282},{"name":"根ヶ布２丁目 児童遊園","province":"東京都","city":"青梅市","address":"東京都青梅市根ヶ布2-237-548","lat":35.80436,"lon":139.26328},{"name":"長淵７丁目 児童遊園","province":"東京都","city":"青梅市","address":"東京都青梅市長淵7-307-1","lat":35.781283,"lon":139.263782},{"name":"後沢公園","province":"東京都","city":"青梅市","address":"東京都青梅市根ヶ布2-237-598","lat":35.80547,"lon":139.26409},{"name":"若御子緑地","province":"東京都","city":"青梅市","address":"東京都青梅市長淵7-372-24","lat":35.783191,"lon":139.264736},{"name":"神宮前公園","province":"東京都","city":"青梅市","address":"東京都青梅市勝沼3-142","lat":35.79157,"lon":139.26512},{"name":"若御子第２緑地","province":"東京都","city":"青梅市","address":"東京都青梅市長淵6-437-10","lat":35.781081,"lon":139.265415},{"name":"成木３丁目 児童遊園","province":"東京都","city":"青梅市","address":"東京都青梅市成木3-271-2","lat":35.82937,"lon":139.26542},{"name":"千ヶ瀬 児童遊園","province":"東京都","city":"青梅市","address":"東京都青梅市千ヶ瀬町5-537-1","lat":35.784253,"lon":139.265919},{"name":"勝沼３丁目 児童遊園","province":"東京都","city":"青梅市","address":"東京都青梅市勝沼3-107-2","lat":35.7907,"lon":139.2699},{"name":"根ヶ布１丁目 児童遊園","province":"東京都","city":"青梅市","address":"東京都青梅市根ヶ布1-589-1","lat":35.797262,"lon":139.266783},{"name":"品竹西公園","province":"東京都","city":"青梅市","address":"東京都青梅市長淵5-624-11","lat":35.778279,"lon":139.267319},{"name":"南平緑地","province":"東京都","city":"青梅市","address":"東京都青梅市千ケ瀬町3-510","lat":35.784489,"lon":139.267322},{"name":"黒沢１丁目 児童遊園","province":"東京都","city":"青梅市","address":"東京都青梅市黒沢1-541-1","lat":35.81405,"lon":139.26715},{"name":"品竹公園","province":"東京都","city":"青梅市","address":"東京都青梅市長淵5-617-7","lat":35.777786,"lon":139.269076},{"name":"成木２丁目 児童遊園","province":"東京都","city":"青梅市","address":"東京都青梅市成木2-592-4","lat":35.835133,"lon":139.268862},{"name":"長淵鹿島 児童遊園","province":"東京都","city":"青梅市","address":"東京都青梅市長淵2-519","lat":35.77823,"lon":139.27166},{"name":"大塚山公園","province":"東京都","city":"青梅市","address":"東京都青梅市東青梅2-8-14","lat":35.7927,"lon":139.2732},{"name":"鳶巣川公園","province":"東京都","city":"青梅市","address":"東京都青梅市長淵2-724-8","lat":35.776372,"lon":139.274653},{"name":"大塚前公園","province":"東京都","city":"青梅市","address":"東京都青梅市東青梅1-10-7","lat":35.78873,"lon":139.27459},{"name":"東平公園","province":"東京都","city":"青梅市","address":"東京都青梅市千ヶ瀬町2-164-26","lat":35.784399,"lon":139.274926},{"name":"寺改戸公園","province":"東京都","city":"青梅市","address":"東京都青梅市長淵3-285-1","lat":35.78099,"lon":139.27517},{"name":"須高公園","province":"東京都","city":"青梅市","address":"東京都青梅市長淵2-765-3","lat":35.776221,"lon":139.275573},{"name":"六万公園","province":"東京都","city":"青梅市","address":"東京都青梅市東青梅3-6-14","lat":35.78959,"lon":139.2759},{"name":"吹上しょうぶ公園","province":"東京都","city":"青梅市","address":"東京都青梅市吹上425","lat":35.79739,"lon":139.27609},{"name":"城前公園","province":"東京都","city":"青梅市","address":"東京都青梅市東青梅6-11-5","lat":35.79256,"lon":139.27631},{"name":"長淵３丁目 児童遊園","province":"東京都","city":"青梅市","address":"東京都青梅市長淵3-301-4","lat":35.77902,"lon":139.27646},{"name":"筑間公園","province":"東京都","city":"青梅市","address":"東京都青梅市師岡町1-125-32","lat":35.795193,"lon":139.277646},{"name":"平林公園","province":"東京都","city":"青梅市","address":"東京都青梅市千ケ瀬町1-7-4","lat":35.78354,"lon":139.27783},{"name":"下長淵緑地","province":"東京都","city":"青梅市","address":"東京都青梅市長淵3-119-8","lat":35.778917,"lon":139.27809},{"name":"小ケ谷戸公園","province":"東京都","city":"青梅市","address":"東京都青梅市吹上285-11","lat":35.79567,"lon":139.27927},{"name":"師岡町１丁目 児童遊園","province":"東京都","city":"青梅市","address":"東京都青梅市師岡町1-288-1","lat":35.79331,"lon":139.27969},{"name":"下長淵公園","province":"東京都","city":"青梅市","address":"東京都青梅市長淵1-36-15","lat":35.77706,"lon":139.28011},{"name":"湯本緑地","province":"東京都","city":"青梅市","address":"東京都青梅市長淵1-973-1","lat":35.774333,"lon":139.280242},{"name":"早道公園","province":"東京都","city":"青梅市","address":"東京都青梅市東青梅5-17-5","lat":35.789819,"lon":139.279795},{"name":"成木１丁目 児童遊園","province":"東京都","city":"青梅市","address":"東京都青梅市成木1-288","lat":35.83686,"lon":139.28018},{"name":"中原公園","province":"東京都","city":"青梅市","address":"東京都青梅市東青梅4-20-1","lat":35.78565,"lon":139.28169},{"name":"河辺春日 児童遊園","province":"東京都","city":"青梅市","address":"東京都青梅市河辺町3-1066-1","lat":35.78006,"lon":139.2824},{"name":"下久保公園","province":"東京都","city":"青梅市","address":"東京都青梅市河辺町4-6","lat":35.7827,"lon":139.28298},{"name":"株樹公園","province":"東京都","city":"青梅市","address":"東京都青梅市師岡町4-3","lat":35.78623,"lon":139.28309},{"name":"霞丘陵自然公園","province":"東京都","city":"青梅市","address":"東京都青梅市塩船188","lat":35.80252,"lon":139.28314},{"name":"道間公園","province":"東京都","city":"青梅市","address":"東京都青梅市師岡町3-7","lat":35.79041,"lon":139.28351},{"name":"師岡町２丁目 児童遊園","province":"東京都","city":"青梅市","address":"東京都青梅市師岡町2-395-3","lat":35.791929,"lon":139.283445},{"name":"小曾木４丁目 児童遊園","province":"東京都","city":"青梅市","address":"東京都青梅市小曾木4-2560-1","lat":35.82128,"lon":139.28332},{"name":"花木園","province":"東京都","city":"青梅市","address":"東京都青梅市小曾木4-2615-1","lat":35.81805,"lon":139.28425},{"name":"金丘公園","province":"東京都","city":"青梅市","address":"東京都青梅市友田町5-518-7","lat":35.771445,"lon":139.284596},{"name":"大門西公園","province":"東京都","city":"青梅市","address":"東京都青梅市大門1-607-5","lat":35.797714,"lon":139.284577},{"name":"野上 児童遊園","province":"東京都","city":"青梅市","address":"東京都青梅市野上町1-35","lat":35.79647,"lon":139.28498},{"name":"小曾木５丁目 児童遊園","province":"東京都","city":"青梅市","address":"東京都青梅市小曾木5-3061","lat":35.824865,"lon":139.285763},{"name":"友田町５丁目 児童遊園","province":"東京都","city":"青梅市","address":"東京都青梅市友田町5-566-1","lat":35.76977,"lon":139.28623},{"name":"上開戸公園","province":"東京都","city":"青梅市","address":"東京都青梅市大門1-783-2","lat":35.80094,"lon":139.28634},{"name":"速川公園","province":"東京都","city":"青梅市","address":"東京都青梅市河辺町5-19","lat":35.78231,"lon":139.28696},{"name":"下前公園","province":"東京都","city":"青梅市","address":"東京都青梅市塩船15-5","lat":35.80151,"lon":139.28762},{"name":"中先戸公園","province":"東京都","city":"青梅市","address":"東京都青梅市河辺町4-22","lat":35.7799,"lon":139.28822},{"name":"谷野 児童遊園","province":"東京都","city":"青梅市","address":"東京都青梅市谷野134-1","lat":35.80379,"lon":139.28979},{"name":"鳥井戸公園","province":"東京都","city":"青梅市","address":"東京都青梅市野上町3-11","lat":35.79132,"lon":139.29004},{"name":"友田町３丁目 児童遊園","province":"東京都","city":"青梅市","address":"東京都青梅市友田町3-154-2","lat":35.77176,"lon":139.29034},{"name":"富岡２丁目 児童遊園","province":"東京都","city":"青梅市","address":"東京都青梅市富岡2-667-1","lat":35.834045,"lon":139.290376},{"name":"古井戸公園","province":"東京都","city":"青梅市","address":"東京都青梅市野上町4-11","lat":35.78693,"lon":139.29089},{"name":"霞下公園","province":"東京都","city":"青梅市","address":"東京都青梅市大門1-448-19","lat":35.799896,"lon":139.290864},{"name":"白はけ公園","province":"東京都","city":"青梅市","address":"東京都青梅市河辺町6-7","lat":35.7805,"lon":139.29141},{"name":"霞下南公園","province":"東京都","city":"青梅市","address":"東京都青梅市大門1-389-18","lat":35.797607,"lon":139.291414},{"name":"中丸台 児童遊園","province":"東京都","city":"青梅市","address":"東京都青梅市友田町2-684","lat":35.76998,"lon":139.29167},{"name":"南白はけ公園","province":"東京都","city":"青梅市","address":"東京都青梅市河辺町6-11","lat":35.77826,"lon":139.29185},{"name":"小曾木１丁目 児童遊園","province":"東京都","city":"青梅市","address":"東京都青梅市小曾木1-3349","lat":35.82012,"lon":139.29163},{"name":"大門稲荷下 児童遊園","province":"東京都","city":"青梅市","address":"東京都青梅市大門1-405-1","lat":35.79894,"lon":139.29153},{"name":"西浦公園","province":"東京都","city":"青梅市","address":"東京都青梅市今寺1-816-30","lat":35.80085,"lon":139.29186},{"name":"友田町１丁目 児童遊園","province":"東京都","city":"青梅市","address":"東京都青梅市友田町1-1033-1","lat":35.76659,"lon":139.29216},{"name":"白はけ緑地","province":"東京都","city":"青梅市","address":"東京都青梅市河辺町6-31-1","lat":35.776794,"lon":139.293897},{"name":"塚の上公園","province":"東京都","city":"青梅市","address":"東京都青梅市大門3-19","lat":35.79448,"lon":139.29394},{"name":"富岡１丁目 児童遊園","province":"東京都","city":"青梅市","address":"東京都青梅市富岡1-214-1","lat":35.83019,"lon":139.29391},{"name":"梨の木公園","province":"東京都","city":"青梅市","address":"東京都青梅市河辺町6-24","lat":35.77898,"lon":139.29448},{"name":"木野下中央 児童遊園","province":"東京都","city":"青梅市","address":"東京都青梅市木野下1-152-2","lat":35.80606,"lon":139.29521},{"name":"鈴法寺公園","province":"東京都","city":"青梅市","address":"東京都青梅市新町1-22-18","lat":35.78815,"lon":139.29555},{"name":"わかぐさ公園","province":"東京都","city":"青梅市","address":"東京都青梅市河辺町8-14-3","lat":35.78327,"lon":139.29586},{"name":"塚の上南公園","province":"東京都","city":"青梅市","address":"東京都青梅市大門3-5","lat":35.7923,"lon":139.29634},{"name":"大門中原公園","province":"東京都","city":"青梅市","address":"東京都青梅市大門3-25","lat":35.79542,"lon":139.29671},{"name":"神明原西公園","province":"東京都","city":"青梅市","address":"東京都青梅市今寺3-363-3","lat":35.797651,"lon":139.296744},{"name":"大山公園","province":"東京都","city":"青梅市","address":"東京都青梅市新町1-39-17","lat":35.79034,"lon":139.297197},{"name":"常盤樹平公園","province":"東京都","city":"青梅市","address":"東京都青梅市今寺2-500-11","lat":35.799567,"lon":139.297569},{"name":"常盤樹平東公園","province":"東京都","city":"青梅市","address":"東京都青梅市今寺2-473-9","lat":35.801663,"lon":139.299596},{"name":"大井戸公園","province":"東京都","city":"青梅市","address":"東京都青梅市新町2-27","lat":35.78946,"lon":139.29972},{"name":"今寺中原公園","province":"東京都","city":"青梅市","address":"東京都青梅市今寺4-9","lat":35.79632,"lon":139.30025},{"name":"神明原公園","province":"東京都","city":"青梅市","address":"東京都青梅市今寺3-456-7","lat":35.799058,"lon":139.300311},{"name":"植木内公園","province":"東京都","city":"青梅市","address":"東京都青梅市新町3-36","lat":35.78162,"lon":139.30058},{"name":"蔵屋敷公園","province":"東京都","city":"青梅市","address":"東京都青梅市新町2-6","lat":35.78549,"lon":139.3006},{"name":"新町宮ノ前緑地","province":"東京都","city":"青梅市","address":"東京都青梅市新町2-28-6","lat":35.791401,"lon":139.300632},{"name":"東原公園","province":"東京都","city":"青梅市","address":"東京都青梅市今寺5-11","lat":35.79384,"lon":139.30228},{"name":"藤橋二本木公園","province":"東京都","city":"青梅市","address":"東京都青梅市藤橋2-602-4","lat":35.799079,"lon":139.30281},{"name":"桜株広場","province":"東京都","city":"青梅市","address":"東京都青梅市新町2-21-1","lat":35.787441,"lon":139.302928},{"name":"矢端公園","province":"東京都","city":"青梅市","address":"東京都青梅市藤橋2-27-43","lat":35.800181,"lon":139.302961},{"name":"二本木公園","province":"東京都","city":"青梅市","address":"東京都青梅市今寺4-20","lat":35.798,"lon":139.30312},{"name":"東原緑地","province":"東京都","city":"青梅市","address":"東京都青梅市今寺4-16-13","lat":35.796781,"lon":139.303411},{"name":"城ヶ崎公園","province":"東京都","city":"青梅市","address":"東京都青梅市藤橋2-92","lat":35.804758,"lon":139.304259},{"name":"新町南公園","province":"東京都","city":"青梅市","address":"東京都青梅市新町3-13","lat":35.77963,"lon":139.30454},{"name":"桜株公園","province":"東京都","city":"青梅市","address":"東京都青梅市新町5-13-18","lat":35.78831,"lon":139.30451},{"name":"藤橋２丁目 児童遊園","province":"東京都","city":"青梅市","address":"東京都青梅市藤橋2-531-2","lat":35.80117,"lon":139.30448},{"name":"細道公園","province":"東京都","city":"青梅市","address":"東京都青梅市藤橋3-15","lat":35.79797,"lon":139.30522},{"name":"城ヶ崎東公園","province":"東京都","city":"青梅市","address":"東京都青梅市藤橋2-83-28","lat":35.804501,"lon":139.30531},{"name":"西間原公園","province":"東京都","city":"青梅市","address":"東京都青梅市新町5-42","lat":35.79116,"lon":139.30551},{"name":"今井浮島 児童遊園","province":"東京都","city":"青梅市","address":"東京都青梅市今井1-113","lat":35.807595,"lon":139.305562},{"name":"南植木外公園","province":"東京都","city":"青梅市","address":"東京都青梅市新町4-13","lat":35.78429,"lon":139.30593},{"name":"七日市場公園","province":"東京都","city":"青梅市","address":"東京都青梅市今井2-1、13-17","lat":35.80582,"lon":139.30606},{"name":"富士塚公園","province":"東京都","city":"青梅市","address":"東京都青梅市新町5-22","lat":35.789954,"lon":139.30761},{"name":"今井 児童遊園","province":"東京都","city":"青梅市","address":"東京都青梅市今井2-1045","lat":35.80509,"lon":139.30753},{"name":"末広公園","province":"東京都","city":"青梅市","address":"東京都青梅市末広町2-4","lat":35.77847,"lon":139.30828},{"name":"今井ふれあい公園","province":"東京都","city":"青梅市","address":"東京都青梅市今井2-936","lat":35.80697,"lon":139.30835},{"name":"水窪公園","province":"東京都","city":"青梅市","address":"東京都青梅市今井3-22","lat":35.7998,"lon":139.31005},{"name":"今井堀の内 児童遊園","province":"東京都","city":"青梅市","address":"東京都青梅市今井2-874-1","lat":35.80665,"lon":139.31199},{"name":"新田山公園","province":"東京都","city":"青梅市","address":"東京都青梅市新町7-33","lat":35.786621,"lon":139.314459},{"name":"平松緑地","province":"東京都","city":"青梅市","address":"東京都青梅市新町8-11-21","lat":35.783,"lon":139.31275},{"name":"城の腰西公園","province":"東京都","city":"青梅市","address":"東京都青梅市今井1-382-2","lat":35.808417,"lon":139.312611},{"name":"城の腰公園","province":"東京都","city":"青梅市","address":"東京都青梅市今井1-572-2","lat":35.808778,"lon":139.314526},{"name":"原今井公園","province":"東京都","city":"青梅市","address":"東京都青梅市今井2-817-6","lat":35.806098,"lon":139.315457},{"name":"伝馬街道緑地","province":"東京都","city":"青梅市","address":"東京都青梅市新町7-63-4","lat":35.788883,"lon":139.317128},{"name":"新町東 児童遊園","province":"東京都","city":"青梅市","address":"東京都青梅市新町9-2050-3","lat":35.78185,"lon":139.31725},{"name":"新町中原南公園","province":"東京都","city":"青梅市","address":"東京都青梅市新町9-2、16-9","lat":35.78029,"lon":139.31843},{"name":"新町中原緑地","province":"東京都","city":"青梅市","address":"東京都青梅市新町9-2、31-4","lat":35.780099,"lon":139.318635},{"name":"新町中原公園","province":"東京都","city":"青梅市","address":"東京都青梅市新町9-2、15-18","lat":35.781653,"lon":139.321186}]}