{"category":"wireless","data":[{"name":"西多摩福祉事務所","province":"東京都","city":"青梅市","address":"東京都青梅市河辺町6丁目4-1","lat":35.77999986,"lon":139.28959793},{"name":"青梅市立総合病院","province":"東京都","city":"青梅市","address":"東京都青梅市東青梅4丁目16-5","lat":35.78202441,"lon":139.28118194},{"name":"青梅市火葬場","province":"東京都","city":"青梅市","address":"東京都青梅市長淵5丁目743","lat":35.77277491,"lon":139.26230902},{"name":"日向和田浄水所","province":"東京都","city":"青梅市","address":"東京都青梅市日向和田2丁目370","lat":35.78437016,"lon":139.23479499},{"name":"千ヶ瀬第二浄水所","province":"東京都","city":"青梅市","address":"東京都青梅市千ヶ瀬町1丁目69-1","lat":35.78467678,"lon":139.27783217},{"name":"御岳山第一配水所","province":"東京都","city":"青梅市","address":"東京都青梅市御岳山170-3","lat":35.78346895,"lon":139.15124212},{"name":"新町給水所","province":"東京都","city":"青梅市","address":"東京都青梅市新町5丁目24-1","lat":35.78846047,"lon":139.30887384},{"name":"二俣尾配水所","province":"東京都","city":"青梅市","address":"東京都青梅市二俣尾5丁目107-2","lat":35.81524153,"lon":139.2066392},{"name":"城山配水所","province":"東京都","city":"青梅市","address":"東京都青梅市東青梅6丁目95-1","lat":35.79671131,"lon":139.27230447},{"name":"西多摩保健所","province":"東京都","city":"青梅市","address":"東京都青梅市東青梅5丁目19-6","lat":35.78983461,"lon":139.28217046},{"name":"東京都青梅合同庁舎","province":"東京都","city":"青梅市","address":"東京都青梅市河辺町6丁目4-1","lat":35.77999986,"lon":139.28959793},{"name":"東京都農林水産振興財団（青梅庁舎）","province":"東京都","city":"青梅市","address":"東京都青梅市新町6丁目7-1","lat":35.78966597,"lon":139.31169301},{"name":"多摩高等学校","province":"東京都","city":"青梅市","address":"東京都青梅市裏宿町580","lat":35.78959473,"lon":139.24684382},{"name":"青梅総合高等学校","province":"東京都","city":"青梅市","address":"東京都青梅市勝沼1丁目60-1","lat":35.78894824,"lon":139.26913567},{"name":"青梅市本庁舎","province":"東京都","city":"青梅市","address":"東京都青梅市東青梅1丁目11-1","lat":35.78785689,"lon":139.27583503},{"name":"青梅市民球技場","province":"東京都","city":"青梅市","address":"東京都青梅市河辺町1丁目872-1","lat":35.77784173,"lon":139.28723709},{"name":"青梅市立第六小学校","province":"東京都","city":"青梅市","address":"東京都青梅市二俣尾3丁目903-1","lat":35.80159313,"lon":139.2168608},{"name":"明星大学グラウンド","province":"東京都","city":"青梅市","address":"東京都青梅市長淵2丁目590","lat":35.77275567,"lon":139.26727244}]}