{"keyword":"医薬","data":[{"name":"武蔵御嶽神社","province":"東京都","city":"青梅市","address":"東京都青梅市御岳山176","lat":35.78288,"lon":139.14994},{"name":"御岳２丁目神路橋トイレ","province":"東京都","city":"青梅市","address":"東京都青梅市御岳2-271","lat":35.80155,"lon":139.17563},{"name":"御岳苑地駐車場","province":"東京都","city":"青梅市","address":"東京都青梅市御岳1-190-3","lat":35.7991,"lon":139.17757},{"name":"玉堂美術館","province":"東京都","city":"青梅市","address":"東京都青梅市御岳1-75","lat":35.80016,"lon":139.18411},{"name":"御岳交流センター","province":"東京都","city":"青梅市","address":"東京都青梅市御岳本町362-8","lat":35.80144,"lon":139.18451},{"name":"御岳１丁目駐車場","province":"東京都","city":"青梅市","address":"東京都青梅市御岳1-3-4","lat":35.79967,"lon":139.18515},{"name":"沢井３丁目御岳渓谷遊歩道トイレ","province":"東京都","city":"青梅市","address":"東京都青梅市沢井3-491-1","lat":35.80529,"lon":139.1878},{"name":"小澤酒造","province":"東京都","city":"青梅市","address":"東京都青梅市沢井2-770","lat":35.80497,"lon":139.19365},{"name":"櫛かんざし美術館","province":"東京都","city":"青梅市","address":"東京都青梅市柚木町3-764-1","lat":35.80343,"lon":139.1968},{"name":"二俣尾５丁目高源寺前トイレ","province":"東京都","city":"青梅市","address":"東京都青梅市二俣尾5-1610","lat":35.81817,"lon":139.20231},{"name":"柚木苑地駐車場トイレ","province":"東京都","city":"青梅市","address":"東京都青梅市柚木町3-643","lat":35.80294,"lon":139.20743},{"name":"柚木苑地駐車場","province":"東京都","city":"青梅市","address":"東京都青梅市柚木町3-643","lat":35.80308,"lon":139.20771},{"name":"木原梅園","province":"東京都","city":"青梅市","address":"東京都青梅市梅郷4-642-3他","lat":35.78848,"lon":139.21897},{"name":"中道梅園","province":"東京都","city":"青梅市","address":"東京都青梅市梅郷4-658-5","lat":35.78906,"lon":139.22007},{"name":"梅郷４丁目駐車場","province":"東京都","city":"青梅市","address":"東京都青梅市梅郷4-680-3","lat":35.78969,"lon":139.22076},{"name":"昭和レトロ商品博物館","province":"東京都","city":"青梅市","address":"東京都青梅市住江町65","lat":35.78863,"lon":139.26046},{"name":"青梅鉄道公園","province":"東京都","city":"青梅市","address":"東京都青梅市勝沼2-155","lat":35.79232,"lon":139.26324},{"name":"塩船観音寺","province":"東京都","city":"青梅市","address":"東京都青梅市塩船194","lat":35.8047,"lon":139.28046},{"name":"儘多屋","province":"東京都","city":"青梅市","address":"東京都青梅市小曾木5-3140","lat":35.825835,"lon":139.28978},{"name":"御岳山ふれあいセンター","province":"東京都","city":"青梅市","address":"東京都青梅市御岳山38-2","lat":35.7837,"lon":139.1539},{"name":"御岳本町児童遊園","province":"東京都","city":"青梅市","address":"東京都青梅市御岳本町167-1","lat":35.80068,"lon":139.17806},{"name":"御岳本町運動広場","province":"東京都","city":"青梅市","address":"東京都青梅市御岳本町224-3","lat":35.80185,"lon":139.17898},{"name":"御岳運動広場","province":"東京都","city":"青梅市","address":"東京都青梅市御岳1丁目115","lat":35.79908,"lon":139.18157},{"name":"沢井市民センターグラウンド","province":"東京都","city":"青梅市","address":"東京都青梅市沢井2丁目682","lat":35.80406,"lon":139.19524},{"name":"沢井市民センター多目的室","province":"東京都","city":"青梅市","address":"東京都青梅市沢井2丁目727-1","lat":35.8009,"lon":139.199},{"name":"青梅柚木苑地駐車場（駐車場）","province":"東京都","city":"青梅市","address":"東京都青梅市柚木町3-643","lat":35.80301,"lon":139.20749},{"name":"二俣尾５丁目第２運動広場","province":"東京都","city":"青梅市","address":"東京都青梅市二俣尾5丁目164","lat":35.81343,"lon":139.20793},{"name":"旧上成木ふれあいセンター（グラウンド）","province":"東京都","city":"青梅市","address":"東京都青梅市成木7-902","lat":35.83598,"lon":139.20924},{"name":"柚木町運動広場","province":"東京都","city":"青梅市","address":"東京都青梅市柚木町2丁目313-1","lat":35.799107,"lon":139.211953},{"name":"青梅市立第六小学校グラウンド","province":"東京都","city":"青梅市","address":"東京都青梅市二俣尾3丁目903-1","lat":35.80203,"lon":139.21651},{"name":"青梅市立第六小学校体育館","province":"東京都","city":"青梅市","address":"東京都青梅市二俣尾3丁目903-1","lat":35.7984,"lon":139.2201},{"name":"青梅市立西中学校体育館","province":"東京都","city":"青梅市","address":"東京都青梅市梅郷6丁目1460-1","lat":35.7915,"lon":139.2231},{"name":"青梅市立西中学校グラウンド","province":"東京都","city":"青梅市","address":"東京都青梅市梅郷6丁目1460-1","lat":35.79498,"lon":139.2208},{"name":"青梅市立第五小学校体育館","province":"東京都","city":"青梅市","address":"東京都青梅市梅郷3丁目765-1","lat":35.7843,"lon":139.2273},{"name":"梅郷市民センター","province":"東京都","city":"青梅市","address":"東京都青梅市梅郷3丁目749-1","lat":35.7834,"lon":139.2275},{"name":"青梅市立第五小学校グラウンド","province":"東京都","city":"青梅市","address":"東京都青梅市梅郷3丁目765-1","lat":35.78775,"lon":139.22521},{"name":"和田町運動広場","province":"東京都","city":"青梅市","address":"東京都青梅市和田町2丁目422-1","lat":35.77974,"lon":139.22938},{"name":"旧北小曾木ふれあいセンター（グラウンド）","province":"東京都","city":"青梅市","address":"東京都青梅市成木8-676","lat":35.8219,"lon":139.22938},{"name":"日向和田２丁目児童遊園","province":"東京都","city":"青梅市","address":"東京都青梅市日向和田2丁目374-7","lat":35.78507,"lon":139.23547},{"name":"畑中保育園","province":"東京都","city":"青梅市","address":"東京都青梅市畑中2丁目593","lat":35.78,"lon":139.2442},{"name":"青梅市立第一中学校グラウンド","province":"東京都","city":"青梅市","address":"東京都青梅市裏宿町615","lat":35.78937,"lon":139.24472},{"name":"青梅市立第一中学校体育館","province":"東京都","city":"青梅市","address":"東京都青梅市裏宿町615","lat":35.7862,"lon":139.2489},{"name":"成木市民センター","province":"東京都","city":"青梅市","address":"東京都青梅市成木4丁目644","lat":35.821,"lon":139.2517},{"name":"天ヶ瀬体育館","province":"東京都","city":"青梅市","address":"東京都青梅市天ヶ瀬町1111-1","lat":35.789198,"lon":139.250633},{"name":"天ヶ瀬運動広場","province":"東京都","city":"青梅市","address":"東京都青梅市天ヶ瀬町1111-1","lat":35.78844,"lon":139.25093},{"name":"駒木町１丁目運動広場","province":"東京都","city":"青梅市","address":"東京都青梅市駒木町1丁目9-1","lat":35.78188,"lon":139.25197},{"name":"青梅市文化交流センター","province":"東京都","city":"青梅市","address":"東京都青梅市上町374","lat":35.79019,"lon":139.25482},{"name":"青梅市立第七中学校体育館","province":"東京都","city":"青梅市","address":"東京都青梅市成木4丁目544-2","lat":35.8227,"lon":139.2612},{"name":"青梅市立第一小学校体育館","province":"東京都","city":"青梅市","address":"東京都青梅市本町223","lat":35.7883,"lon":139.2616},{"name":"青梅市立第一小学校グラウンド","province":"東京都","city":"青梅市","address":"東京都青梅市本町223","lat":35.79102,"lon":139.25849},{"name":"青梅市立第七中学校グラウンド","province":"東京都","city":"青梅市","address":"東京都青梅市成木4丁目544-2","lat":35.82612,"lon":139.25837},{"name":"黒沢中央運動広場","province":"東京都","city":"青梅市","address":"東京都青梅市黒沢2丁目991-1","lat":35.81243,"lon":139.25898},{"name":"永山公園グラウンド","province":"東京都","city":"青梅市","address":"東京都青梅市本町217","lat":35.79214,"lon":139.26003},{"name":"青梅市立成木小学校体育館","province":"東京都","city":"青梅市","address":"東京都青梅市成木3丁目423-1","lat":35.82907,"lon":139.26053},{"name":"青梅市立成木小学校グラウンド","province":"東京都","city":"青梅市","address":"東京都青梅市成木3丁目423-1","lat":35.8286,"lon":139.26059},{"name":"長淵市民センター","province":"東京都","city":"青梅市","address":"東京都青梅市長淵6丁目492-1","lat":35.7772,"lon":139.2718},{"name":"都立青梅総合高校（体育館、グラウンド）","province":"東京都","city":"青梅市","address":"東京都青梅市勝沼1-60","lat":35.78819,"lon":139.27037},{"name":"青梅市立第二小学校体育館","province":"東京都","city":"青梅市","address":"東京都青梅市長淵4丁目437","lat":35.7777,"lon":139.2739},{"name":"青梅市立第二小学校グラウンド","province":"東京都","city":"青梅市","address":"東京都青梅市長淵4丁目437","lat":35.7802,"lon":139.2711},{"name":"青梅市立第四小学校グラウンド","province":"東京都","city":"青梅市","address":"東京都青梅市東青梅6丁目1-1","lat":35.79376,"lon":139.27161},{"name":"青梅市立第四小学校体育館","province":"東京都","city":"青梅市","address":"東京都青梅市東青梅6丁目1-1","lat":35.7909,"lon":139.2751},{"name":"青梅市立第二中学校体育館","province":"東京都","city":"青梅市","address":"東京都青梅市千ヶ瀬町2丁目155","lat":35.7825,"lon":139.2776},{"name":"青梅市立第二中学校グラウンド","province":"東京都","city":"青梅市","address":"東京都青梅市千ヶ瀬町2丁目155","lat":35.78576,"lon":139.27445},{"name":"青梅市立第七小学校体育館","province":"東京都","city":"青梅市","address":"東京都青梅市小曾木3丁目1880-1","lat":35.8166,"lon":139.2782},{"name":"小曾木市民センター","province":"東京都","city":"青梅市","address":"東京都青梅市小曾木3丁目1656-1","lat":35.8148,"lon":139.2783},{"name":"青梅市立第七小学校グラウンド","province":"東京都","city":"青梅市","address":"東京都青梅市小曾木3丁目1880-1","lat":35.81951,"lon":139.27522},{"name":"青梅市役所（庁舎・駐車場）","province":"東京都","city":"青梅市","address":"東京都青梅市東青梅1-11-1","lat":35.78776,"lon":139.27566},{"name":"青梅市立第六中学校グラウンド","province":"東京都","city":"青梅市","address":"東京都青梅市小曾木4丁目2040","lat":35.82141,"lon":139.2764},{"name":"青梅市立第六中学校体育館","province":"東京都","city":"青梅市","address":"東京都青梅市小曾木4丁目2040","lat":35.8185,"lon":139.2796},{"name":"東青梅市民センター","province":"東京都","city":"青梅市","address":"東京都青梅市師岡町3丁目9-6","lat":35.7874,"lon":139.2856},{"name":"青梅市立吹上小学校体育館","province":"東京都","city":"青梅市","address":"東京都青梅市吹上176-1","lat":35.7939,"lon":139.2858},{"name":"青梅市立吹上中学校体育館","province":"東京都","city":"青梅市","address":"東京都青梅市吹上1","lat":35.7978,"lon":139.286},{"name":"青梅市立吹上小学校グラウンド","province":"東京都","city":"青梅市","address":"東京都青梅市吹上176-1","lat":35.79681,"lon":139.28293},{"name":"青梅市立霞台中学校グラウンド","province":"東京都","city":"青梅市","address":"東京都青梅市師岡町4丁目6-1","lat":35.78731,"lon":139.28317},{"name":"青梅市立霞台中学校体育館","province":"東京都","city":"青梅市","address":"東京都青梅市師岡町4丁目6-1","lat":35.7835,"lon":139.2864},{"name":"青梅市立吹上中学校グラウンド","province":"東京都","city":"青梅市","address":"東京都青梅市吹上1","lat":35.80035,"lon":139.28331},{"name":"河辺町南自治会館","province":"東京都","city":"青梅市","address":"東京都青梅市河辺町2丁目1026","lat":35.7764,"lon":139.287},{"name":"住友金属鉱山アリーナ青梅","province":"東京都","city":"青梅市","address":"東京都青梅市河辺町4丁目16-1","lat":35.7775,"lon":139.2876},{"name":"青梅市立友田小学校体育館","province":"東京都","city":"青梅市","address":"東京都青梅市友田町5丁目332","lat":35.7709,"lon":139.2879},{"name":"青梅市立友田小学校グラウンド","province":"東京都","city":"青梅市","address":"東京都青梅市友田町5丁目332","lat":35.77438,"lon":139.28553},{"name":"青梅市立河辺小学校グラウンド","province":"東京都","city":"青梅市","address":"東京都青梅市河辺町5丁目24","lat":35.78172,"lon":139.28771},{"name":"青梅市立河辺小学校体育館","province":"東京都","city":"青梅市","address":"東京都青梅市河辺町5丁目24","lat":35.7785,"lon":139.2909},{"name":"小曾木２丁目運動広場","province":"東京都","city":"青梅市","address":"東京都青梅市小曾木2丁目633","lat":35.81913,"lon":139.28972},{"name":"大門市民センター","province":"東京都","city":"青梅市","address":"東京都青梅市大門2丁目288","lat":35.7936,"lon":139.2944},{"name":"青梅市立第三中学校体育館","province":"東京都","city":"青梅市","address":"東京都青梅市大門2丁目301","lat":35.7941,"lon":139.2955},{"name":"青梅市立第三中学校グラウンド","province":"東京都","city":"青梅市","address":"東京都青梅市大門2丁目301","lat":35.79704,"lon":139.2928},{"name":"富岡３丁目運動広場","province":"東京都","city":"青梅市","address":"東京都青梅市富岡3丁目1168","lat":35.820806,"lon":139.29313},{"name":"青梅市立若草小学校体育館","province":"東京都","city":"青梅市","address":"東京都青梅市新町1丁目15-1","lat":35.783,"lon":139.2968},{"name":"河辺市民センター","province":"東京都","city":"青梅市","address":"東京都青梅市河辺町6丁目18-1","lat":35.7753,"lon":139.2969},{"name":"青梅市立第三小学校体育館","province":"東京都","city":"青梅市","address":"東京都青梅市大門2丁目317","lat":35.7953,"lon":139.297},{"name":"青梅市立第三小学校グラウンド","province":"東京都","city":"青梅市","address":"東京都青梅市大門2丁目317","lat":35.79812,"lon":139.29421},{"name":"青梅市立霞台小学校体育館","province":"東京都","city":"青梅市","address":"東京都青梅市新町1丁目35-1","lat":35.7868,"lon":139.2975},{"name":"青梅市立霞台小学校グラウンド","province":"東京都","city":"青梅市","address":"東京都青梅市新町1丁目35-1","lat":35.7895,"lon":139.29443},{"name":"青梅市立若草小学校グラウンド","province":"東京都","city":"青梅市","address":"東京都青梅市新町1丁目15-1","lat":35.78637,"lon":139.29452},{"name":"青梅市立泉中学校体育館","province":"東京都","city":"青梅市","address":"東京都青梅市新町1丁目37","lat":35.7865,"lon":139.2992},{"name":"青梅市立泉中学校グラウンド","province":"東京都","city":"青梅市","address":"東京都青梅市新町1丁目37","lat":35.78971,"lon":139.296},{"name":"わかぐさ公園","province":"東京都","city":"青梅市","address":"東京都青梅市河辺町8丁目14-3","lat":35.78342,"lon":139.2966},{"name":"東原公園球技場","province":"東京都","city":"青梅市","address":"東京都青梅市今寺5丁目11","lat":35.7905,"lon":139.305},{"name":"都立誠明学園グラウンド","province":"東京都","city":"青梅市","address":"東京都青梅市新町3-72-1","lat":35.781,"lon":139.30438},{"name":"新町市民センター","province":"東京都","city":"青梅市","address":"東京都青梅市新町4丁目17-1","lat":35.7828,"lon":139.3084},{"name":"青梅市立新町中学校体育館","province":"東京都","city":"青梅市","address":"東京都青梅市新町5丁目20-1","lat":35.789067,"lon":139.306076},{"name":"青梅市立新町中学校グラウンド","province":"東京都","city":"青梅市","address":"東京都青梅市新町5丁目20-1","lat":35.789067,"lon":139.306076},{"name":"青梅市立藤橋小学校体育館","province":"東京都","city":"青梅市","address":"東京都青梅市藤橋3丁目13-1","lat":35.7946,"lon":139.3095},{"name":"青梅市立藤橋小学校グラウンド","province":"東京都","city":"青梅市","address":"東京都青梅市藤橋3丁目13-1","lat":35.79766,"lon":139.30671},{"name":"青梅市立今井小学校体育館","province":"東京都","city":"青梅市","address":"東京都青梅市今井2丁目947-1","lat":35.8043,"lon":139.31},{"name":"青梅市立今井小学校グラウンド","province":"東京都","city":"青梅市","address":"東京都青梅市今井2丁目947-1","lat":35.80707,"lon":139.30705},{"name":"青梅市立新町小学校グラウンド","province":"東京都","city":"青梅市","address":"東京都青梅市新町5丁目21-1","lat":35.78836,"lon":139.30755},{"name":"青梅市立新町小学校体育館","province":"東京都","city":"青梅市","address":"東京都青梅市新町5丁目21-1","lat":35.7856,"lon":139.3108},{"name":"都農林総合研究センター青梅庁舎（グラウンド）","province":"東京都","city":"青梅市","address":"東京都青梅市新町6-7-1","lat":35.79175,"lon":139.31029},{"name":"今井市民センター","province":"東京都","city":"青梅市","address":"東京都青梅市今井2丁目908-1","lat":35.8033,"lon":139.3142},{"name":"新田山公園","province":"東京都","city":"青梅市","address":"東京都青梅市新町7丁目33","lat":35.7834,"lon":139.3177},{"name":"自立センター","province":"東京都","city":"青梅市","address":"東京都青梅市今井5丁目2434-2","lat":35.7902,"lon":139.3316},{"name":"青梅市消防団第５分団第４部詰所","province":"東京都","city":"青梅市","address":"東京都青梅市御岳山114","lat":35.783911,"lon":139.152387},{"name":"青梅市御岳交流センター","province":"東京都","city":"青梅市","address":"東京都青梅市御岳本町362-8","lat":35.801414,"lon":139.184498},{"name":"沢井市民センター・沢井出張所","province":"東京都","city":"青梅市","address":"東京都青梅市沢井2-682","lat":35.804726,"lon":139.196684},{"name":"青梅市立第六小学校","province":"東京都","city":"青梅市","address":"東京都青梅市二俣尾3-903-1","lat":35.801609,"lon":139.216851},{"name":"青梅市立西中学校","province":"東京都","city":"青梅市","address":"東京都青梅市梅郷6-1460","lat":35.794663,"lon":139.219874},{"name":"青梅市立第五小学校","province":"東京都","city":"青梅市","address":"東京都青梅市梅郷3-765-1","lat":35.787461,"lon":139.224079},{"name":"旧北小曽木ふれあいセンター","province":"東京都","city":"青梅市","address":"東京都青梅市成木8-676","lat":35.822008,"lon":139.229306},{"name":"日向和田第２ポンプ場","province":"東京都","city":"青梅市","address":"東京都青梅市日向和田1-252","lat":35.785863,"lon":139.239395},{"name":"青梅市立第一中学校","province":"東京都","city":"青梅市","address":"東京都青梅市裏宿町615","lat":35.7894,"lon":139.245713},{"name":"天ヶ瀬体育館","province":"東京都","city":"青梅市","address":"東京都青梅市天ヶ瀬町1111-1","lat":35.789161,"lon":139.250648},{"name":"ネッツたまぐーセンター","province":"東京都","city":"青梅市","address":"東京都青梅市上町374","lat":35.790054,"lon":139.254889},{"name":"美術館","province":"東京都","city":"青梅市","address":"東京都青梅市滝の上町1346-1","lat":35.787561,"lon":139.255892},{"name":"郷土博物館","province":"東京都","city":"青梅市","address":"東京都青梅市駒木町1-684","lat":35.78373,"lon":139.25679},{"name":"青梅市立第七中学校","province":"東京都","city":"青梅市","address":"東京都青梅市成木4-544","lat":35.82592,"lon":139.2579},{"name":"青梅市立第一小学校","province":"東京都","city":"青梅市","address":"東京都青梅市本町223","lat":35.791486,"lon":139.258442},{"name":"青梅市立成木小学校","province":"東京都","city":"青梅市","address":"東京都青梅市成木3-423-1","lat":35.828721,"lon":139.259977},{"name":"永山公園総合グラウンド","province":"東京都","city":"青梅市","address":"東京都青梅市住江町25","lat":35.791992,"lon":139.260469},{"name":"風の子・太陽の子広場","province":"東京都","city":"青梅市","address":"東京都青梅市勝沼2-469","lat":35.793927,"lon":139.261031},{"name":"永山公園体育館","province":"東京都","city":"青梅市","address":"東京都青梅市本町217","lat":35.791009,"lon":139.261448},{"name":"市民斎場","province":"東京都","city":"青梅市","address":"東京都青梅市長淵5-698-2","lat":35.772386,"lon":139.263095},{"name":"青梅市立第二小学校","province":"東京都","city":"青梅市","address":"東京都青梅市長淵4-437","lat":35.780552,"lon":139.270899},{"name":"東青梅センタービル３階","province":"東京都","city":"青梅市","address":"東京都青梅市東青梅1-2-5","lat":35.790067,"lon":139.271396},{"name":"青梅市立第四小学校","province":"東京都","city":"青梅市","address":"東京都青梅市東青梅6-1-1","lat":35.794078,"lon":139.271863},{"name":"青梅市福祉センター","province":"東京都","city":"青梅市","address":"東京都青梅市東青梅1-177-3","lat":35.787579,"lon":139.274085},{"name":"青梅市立第二中学校","province":"東京都","city":"青梅市","address":"東京都青梅市千ヶ瀬町2-155","lat":35.785673,"lon":139.274421},{"name":"青梅市立第七小学校","province":"東京都","city":"青梅市","address":"東京都青梅市小曾木3-1880-1","lat":35.819836,"lon":139.275006},{"name":"青梅市役所","province":"東京都","city":"青梅市","address":"東京都青梅市東青梅1-11-1","lat":35.787881,"lon":139.275818},{"name":"スポーツ推進課","province":"東京都","city":"青梅市","address":"東京都青梅市東青梅1-11-1","lat":35.787881,"lon":139.275818},{"name":"ちがむら球技場","province":"東京都","city":"青梅市","address":"東京都青梅市小曾木3-2166","lat":35.827748,"lon":139.275806},{"name":"青梅市立第六中学校","province":"東京都","city":"青梅市","address":"東京都青梅市小曾木4-2040","lat":35.821669,"lon":139.276389},{"name":"青梅市立吹上中学校","province":"東京都","city":"青梅市","address":"東京都青梅市吹上1","lat":35.801005,"lon":139.282838},{"name":"青梅市立霞台中学校","province":"東京都","city":"青梅市","address":"東京都青梅市師岡町4-6-1","lat":35.786679,"lon":139.283178},{"name":"青梅市立吹上小学校","province":"東京都","city":"青梅市","address":"東京都青梅市吹上176-1","lat":35.797251,"lon":139.283119},{"name":"友田レクレーション広場","province":"東京都","city":"青梅市","address":"東京都青梅市友田町5-340","lat":35.774918,"lon":139.283643},{"name":"総合体育館","province":"東京都","city":"青梅市","address":"東京都青梅市河辺町4-16-1","lat":35.780694,"lon":139.284362},{"name":"青梅市立友田小学校","province":"東京都","city":"青梅市","address":"東京都青梅市友田町5-332","lat":35.774142,"lon":139.284723},{"name":"中央図書館","province":"東京都","city":"青梅市","address":"東京都青梅市河辺町10-8-1","lat":35.785387,"lon":139.285073},{"name":"市民球技場","province":"東京都","city":"青梅市","address":"東京都青梅市河辺町1-872-1","lat":35.777841,"lon":139.287237},{"name":"青梅市立河辺小学校","province":"東京都","city":"青梅市","address":"東京都青梅市河辺町5-24","lat":35.782259,"lon":139.288039},{"name":"障がい者サポートセンター","province":"東京都","city":"青梅市","address":"東京都青梅市大門2-261-1","lat":35.795431,"lon":139.291205},{"name":"青梅市立第三中学校","province":"東京都","city":"青梅市","address":"東京都青梅市大門2-301","lat":35.797328,"lon":139.292255},{"name":"青梅市立若草小学校","province":"東京都","city":"青梅市","address":"東京都青梅市新町1-15-1","lat":35.786254,"lon":139.293591},{"name":"青梅市立第三小学校","province":"東京都","city":"青梅市","address":"東京都青梅市大門2-317","lat":35.798467,"lon":139.293755},{"name":"青梅市立霞台小学校","province":"東京都","city":"青梅市","address":"東京都青梅市新町1-35-1","lat":35.789987,"lon":139.294388},{"name":"交通公園","province":"東京都","city":"青梅市","address":"東京都青梅市大門3-14-3","lat":35.793915,"lon":139.295776},{"name":"青梅市立泉中学校","province":"東京都","city":"青梅市","address":"東京都青梅市新町1-37","lat":35.789682,"lon":139.295958},{"name":"わかぐさ公園","province":"東京都","city":"青梅市","address":"東京都青梅市河辺町8-14-3","lat":35.783605,"lon":139.297455},{"name":"子育て支援センター","province":"東京都","city":"青梅市","address":"東京都青梅市新町2-21-9","lat":35.78839,"lon":139.30222},{"name":"青梅市立東小中学校","province":"東京都","city":"青梅市","address":"東京都青梅市新町3-72-1","lat":35.781336,"lon":139.304106},{"name":"青梅市立新町中学校","province":"東京都","city":"青梅市","address":"東京都青梅市新町5-20-1","lat":35.789174,"lon":139.305954},{"name":"青梅市立藤橋小学校","province":"東京都","city":"青梅市","address":"東京都青梅市藤橋3-13-1","lat":35.797798,"lon":139.306276},{"name":"青梅市立今井小学校","province":"東京都","city":"青梅市","address":"東京都青梅市今井2-947-1","lat":35.807533,"lon":139.306764},{"name":"青梅市立新町小学校","province":"東京都","city":"青梅市","address":"東京都青梅市新町5-21-1","lat":35.788796,"lon":139.307632},{"name":"新田山公園","province":"東京都","city":"青梅市","address":"東京都青梅市新町7-33","lat":35.78661,"lon":139.31446},{"name":"リサイクルセンター","province":"東京都","city":"青梅市","address":"東京都青梅市新町6-9-1","lat":35.79164,"lon":139.31596},{"name":"青梅スタジアム","province":"東京都","city":"青梅市","address":"東京都青梅市今井5-2348-1","lat":35.796037,"lon":139.321519},{"name":"自立センター","province":"東京都","city":"青梅市","address":"東京都青梅市今井5-2434-2","lat":35.793474,"lon":139.328322},{"name":"青梅市","province":"東京都","city":"青梅市","address":"青梅市東青梅1-11-1","lat":35.7878569,"lon":139.2758353},{"name":"軍畑園地","province":"東京都","city":"青梅市","address":"東京都青梅市柚木町2丁目","lat":35.804419,"lon":139.211754},{"name":"御岳丸山園地","province":"東京都","city":"青梅市","address":"東京都青梅市御岳山","lat":35.784061,"lon":139.150989},{"name":"御岳渓谷","province":"東京都","city":"青梅市","address":"東京都青梅市沢井3丁目","lat":35.805331,"lon":139.187804},{"name":"御岳渓谷園地","province":"東京都","city":"青梅市","address":"東京都青梅市御岳本町","lat":35.801307,"lon":139.184876},{"name":"御岳射山渓駐車場","province":"東京都","city":"青梅市","address":"東京都青梅市柚木町3丁目","lat":35.802681,"lon":139.195699},{"name":"御岳平園地","province":"東京都","city":"青梅市","address":"東京都青梅市御岳山","lat":35.790007,"lon":139.152976},{"name":"丹縄園地","province":"東京都","city":"青梅市","address":"東京都青梅市御岳2丁目","lat":35.805966,"lon":139.176097},{"name":"御岳ビジターセンター","province":"東京都","city":"青梅市","address":"東京都青梅市御岳山38-5","lat":35.78675,"lon":139.150582},{"name":"東京都西多摩保健所","province":"東京都","city":"青梅市","address":"東京都青梅市東青梅1丁目167-15","lat":35.787716,"lon":139.27145},{"name":"東京都青梅合同庁舎","province":"東京都","city":"青梅市","address":"東京都青梅市河辺町6丁目4-1","lat":35.779982,"lon":139.289651},{"name":"東京都青梅合同庁舎","province":"東京都","city":"青梅市","address":"東京都青梅市河辺町6丁目4-1","lat":35.779972,"lon":139.289675},{"name":"青梅サービスステーション","province":"東京都","city":"青梅市","address":"東京都青梅市師岡町1丁目1301-10","lat":35.792569,"lon":139.277224},{"name":"青梅市健康センター","province":"東京都","city":"青梅市","address":"東京都青梅市東青梅1丁目174-1","lat":35.787704,"lon":139.273322},{"name":"青梅市役所","province":"東京都","city":"青梅市","address":"東京都青梅市東青梅1丁目11-1","lat":35.78774,"lon":139.275435},{"name":"青梅市役所","province":"東京都","city":"青梅市","address":"東京都青梅市東青梅1丁目11-1","lat":35.78805,"lon":139.275487},{"name":"青梅市役所","province":"東京都","city":"青梅市","address":"東京都青梅市東青梅1丁目11-1","lat":35.78769,"lon":139.275769},{"name":"青梅図書館","province":"東京都","city":"青梅市","address":"東京都青梅市仲町268-9","lat":35.791136,"lon":139.256646},{"name":"青梅市長淵市民センター","province":"東京都","city":"青梅市","address":"東京都青梅市長淵6丁目492-1","lat":35.780438,"lon":139.268494},{"name":"青梅市大門市民センター","province":"東京都","city":"青梅市","address":"東京都青梅市大門2丁目288","lat":35.79682,"lon":139.291215},{"name":"青梅市沢井市民センター","province":"東京都","city":"青梅市","address":"東京都青梅市沢井2丁目682","lat":35.804706,"lon":139.196294},{"name":"青梅市成木市民センター","province":"東京都","city":"青梅市","address":"東京都青梅市成木4丁目644","lat":35.824075,"lon":139.248524},{"name":"青梅市東青梅市民センター","province":"東京都","city":"青梅市","address":"東京都青梅市師岡町3丁目9-6","lat":35.790692,"lon":139.282318},{"name":"青梅市新町市民センター","province":"東京都","city":"青梅市","address":"東京都青梅市新町4丁目17-1","lat":35.785987,"lon":139.305157},{"name":"青梅市河辺市民センター","province":"東京都","city":"青梅市","address":"東京都青梅市河辺町6丁目18-1","lat":35.778477,"lon":139.293653},{"name":"青梅市今井市民センター","province":"東京都","city":"青梅市","address":"東京都青梅市今井2丁目908-1","lat":35.806537,"lon":139.310886},{"name":"青梅市吉川英治記念館","province":"東京都","city":"青梅市","address":"東京都青梅市柚木町1丁目101-1","lat":35.79633,"lon":139.212881},{"name":"青梅市健康センター","province":"東京都","city":"青梅市","address":"東京都青梅市東青梅1丁目174-1","lat":35.78768,"lon":139.273271},{"name":"青梅市福祉センター","province":"東京都","city":"青梅市","address":"東京都青梅市東青梅1丁目177-3","lat":35.78741,"lon":139.274074},{"name":"青梅市子育て支援センター","province":"東京都","city":"青梅市","address":"東京都青梅市新町2丁目21-9","lat":35.788284,"lon":139.302211},{"name":"S＆Dたまぐーセンター（青梅市文化交流センター）","province":"東京都","city":"青梅市","address":"東京都青梅市上町374","lat":35.790212,"lon":139.254873},{"name":"青梅市御岳交流センター","province":"東京都","city":"青梅市","address":"東京都青梅市御岳本町362-8","lat":35.801451,"lon":139.184586},{"name":"青梅市中央図書館","province":"東京都","city":"青梅市","address":"東京都青梅市河辺町10丁目8-1","lat":35.785465,"lon":139.284962},{"name":"青梅市中央図書館","province":"東京都","city":"青梅市","address":"東京都青梅市河辺町10丁目8-1","lat":35.785489,"lon":139.284943},{"name":"青梅市立美術館","province":"東京都","city":"青梅市","address":"東京都青梅市滝ノ上町1346-1","lat":35.787614,"lon":139.255873},{"name":"住友金属鉱山アリーナ青梅（青梅市総合体育館）","province":"東京都","city":"青梅市","address":"東京都青梅市河辺町4丁目16-1","lat":35.780782,"lon":139.284745},{"name":"青梅市民斎場","province":"東京都","city":"青梅市","address":"東京都青梅市長淵5丁目698-2","lat":35.772368,"lon":139.262981},{"name":"青梅市青梅市民センター天ケ瀬体育館","province":"東京都","city":"青梅市","address":"東京都青梅市天ヶ瀬町1111-1","lat":35.789187,"lon":139.250654},{"name":"永山公園","province":"東京都","city":"青梅市","address":"東京都青梅市本町","lat":35.791453,"lon":139.260213},{"name":"釜の淵公園大柳駐車場","province":"東京都","city":"青梅市","address":"東京都青梅市大柳町","lat":35.785637,"lon":139.253232},{"name":"早道公園","province":"東京都","city":"青梅市","address":"東京都青梅市東青梅5丁目17","lat":35.789971,"lon":139.280184},{"name":"わかぐさ公園","province":"東京都","city":"青梅市","address":"東京都青梅市河辺町8丁目14","lat":35.783264,"lon":139.295897},{"name":"吹上しょうぶ公園","province":"東京都","city":"青梅市","address":"東京都青梅市吹上","lat":35.797394,"lon":139.276045},{"name":"富士塚公園","province":"東京都","city":"青梅市","address":"東京都青梅市新町5丁目22","lat":35.789516,"lon":139.307604},{"name":"新田山公園","province":"東京都","city":"青梅市","address":"東京都青梅市新町7丁目33","lat":35.786312,"lon":139.314355},{"name":"新田山公園","province":"東京都","city":"青梅市","address":"東京都青梅市新町7丁目33","lat":35.786935,"lon":139.31267},{"name":"沢井駅前広場","province":"東京都","city":"青梅市","address":"東京都青梅市沢井2丁目","lat":35.805641,"lon":139.194182},{"name":"御岳苑地駐車場","province":"東京都","city":"青梅市","address":"東京都青梅市御岳1丁目","lat":35.798964,"lon":139.177744},{"name":"寺改戸公園","province":"東京都","city":"青梅市","address":"東京都青梅市長淵3丁目","lat":35.780987,"lon":139.275158},{"name":"畑中戸田山公園","province":"東京都","city":"青梅市","address":"東京都青梅市畑中3丁目","lat":35.779212,"lon":139.237305},{"name":"上開戸公園","province":"東京都","city":"青梅市","address":"東京都青梅市大門1丁目","lat":35.800961,"lon":139.286326},{"name":"梅の公園","province":"東京都","city":"青梅市","address":"東京都青梅市梅郷4丁目","lat":35.786315,"lon":139.218732},{"name":"梅の公園","province":"東京都","city":"青梅市","address":"東京都青梅市梅郷2丁目","lat":35.7849,"lon":139.221137},{"name":"今井ふれあい公園","province":"東京都","city":"青梅市","address":"東京都青梅市今井2丁目","lat":35.806944,"lon":139.308784},{"name":"花木園","province":"東京都","city":"青梅市","address":"東京都青梅市小曾木4丁目","lat":35.818034,"lon":139.284252},{"name":"梅郷１・２丁目運動広場","province":"東京都","city":"青梅市","address":"東京都青梅市梅郷1丁目","lat":35.783223,"lon":139.223786},{"name":"青梅駅前公衆便所","province":"東京都","city":"青梅市","address":"東京都青梅市本町","lat":35.790268,"lon":139.258815},{"name":"東青梅駅南口公衆便所","province":"東京都","city":"青梅市","address":"東京都青梅市東青梅1丁目9","lat":35.790096,"lon":139.271865},{"name":"東青梅駅北口公衆便所","province":"東京都","city":"青梅市","address":"東京都青梅市東青梅2丁目14-9","lat":35.789972,"lon":139.272971},{"name":"河辺駅南口公衆便所","province":"東京都","city":"青梅市","address":"東京都青梅市河辺町5丁目29","lat":35.784241,"lon":139.28478},{"name":"河辺駅北口公衆便所","province":"東京都","city":"青梅市","address":"東京都青梅市河辺町10丁目18","lat":35.78465,"lon":139.284839},{"name":"長淵３丁目水泳場脇","province":"東京都","city":"青梅市","address":"東京都青梅市長淵3丁目","lat":35.7799,"lon":139.277735},{"name":"青梅市火葬場","province":"東京都","city":"青梅市","address":"東京都青梅市長淵5丁目743","lat":35.772696,"lon":139.262383},{"name":"梅の里駐車場","province":"東京都","city":"青梅市","address":"東京都青梅市柚木町1丁目","lat":35.796215,"lon":139.214148},{"name":"青梅柚木苑地駐車場","province":"東京都","city":"青梅市","address":"東京都青梅市柚木町3丁目","lat":35.802944,"lon":139.207536},{"name":"日向和田浄水所","province":"東京都","city":"青梅市","address":"東京都青梅市日向和田2-370","lat":35.7843741,"lon":139.234717},{"name":"千ヶ瀬第二浄水所","province":"東京都","city":"青梅市","address":"東京都青梅市千ヶ瀬町1-69-1","lat":35.7846878,"lon":139.277824},{"name":"御岳山第一配水所","province":"東京都","city":"青梅市","address":"東京都青梅市御岳山170-3","lat":35.78347,"lon":139.15112},{"name":"成木配水所","province":"東京都","city":"青梅市","address":"東京都青梅市成木8-690-3","lat":35.8187204,"lon":139.241891},{"name":"新町給水所","province":"東京都","city":"青梅市","address":"東京都青梅市新町5-24-1","lat":35.7884612,"lon":139.308874},{"name":"二俣尾配水所","province":"東京都","city":"青梅市","address":"東京都青梅市二俣尾5-107-2","lat":35.8152563,"lon":139.2066375},{"name":"城山配水所","province":"東京都","city":"青梅市","address":"東京都青梅市東青梅6-95-1","lat":35.796712,"lon":139.272305},{"name":"梅郷配水所","province":"東京都","city":"青梅市","address":"東京都青梅市和田町2-578-1","lat":35.782215,"lon":139.226243},{"name":"河辺駅北口自転車等駐車場","province":"東京都","city":"青梅市","address":"東京都青梅市河辺町5丁目29-39","lat":35.78495746,"lon":139.28394548},{"name":"河辺駅南口自転車等駐車場","province":"東京都","city":"青梅市","address":"東京都青梅市河辺町5丁目29-40","lat":35.78390762,"lon":139.28538428},{"name":"青梅駅自転車等駐車場","province":"東京都","city":"青梅市","address":"東京都青梅市本町163-11","lat":35.79005612,"lon":139.25916734},{"name":"東青梅駅北口自転車等駐車場","province":"東京都","city":"青梅市","address":"東京都青梅市東青梅2丁目14-9","lat":35.78988713,"lon":139.27302133},{"name":"東青梅駅南口自転車等駐車場","province":"東京都","city":"青梅市","address":"東京都青梅市東青梅1丁目6-8","lat":35.7889039,"lon":139.27222421},{"name":"青梅市役所前第一","province":"東京都","city":"青梅市","address":"東京都青梅市東青梅1丁目11-1","lat":35.78785689,"lon":139.27583503},{"name":"青梅末広町二丁目西","province":"東京都","city":"青梅市","address":"東京都青梅市末広町2丁目2-8","lat":35.77942258,"lon":139.30691877},{"name":"千ヶ瀬二丁目","province":"東京都","city":"青梅市","address":"東京都青梅市千ヶ瀬町2丁目243","lat":35.78593481,"lon":139.27255762},{"name":"河辺小学校南","province":"東京都","city":"青梅市","address":"東京都青梅市河辺町6丁目2","lat":35.7806081,"lon":139.28894797},{"name":"河辺駅北口","province":"東京都","city":"青梅市","address":"東京都青梅市河辺町10丁目7","lat":35.78578519,"lon":139.28627025},{"name":"わかぐさ公園前","province":"東京都","city":"青梅市","address":"東京都青梅市河辺町7丁目14-2","lat":35.78147483,"lon":139.29581681},{"name":"小作駅北","province":"東京都","city":"青梅市","address":"東京都青梅市新町3丁目2","lat":35.77804486,"lon":139.30261082},{"name":"みち境","province":"東京都","city":"青梅市","address":"東京都青梅市根ヶ布2丁目722","lat":35.8065628,"lon":139.2666466},{"name":"青梅合同庁舎前","province":"東京都","city":"青梅市","address":"東京都青梅市河辺町6丁目4-1","lat":35.77999986,"lon":139.28959793},{"name":"永山公園入口","province":"東京都","city":"青梅市","address":"東京都青梅市住江町55","lat":35.78902572,"lon":139.26029501},{"name":"青梅市立総合病院","province":"東京都","city":"青梅市","address":"東京都青梅市東青梅4丁目16-5","lat":35.78202441,"lon":139.28118194},{"name":"日向和田浄水所","province":"東京都","city":"青梅市","address":"東京都青梅市日向和田2丁目370","lat":35.78437016,"lon":139.23479499},{"name":"千ヶ瀬第二浄水所","province":"東京都","city":"青梅市","address":"東京都青梅市千ヶ瀬町1丁目69-1","lat":35.78467678,"lon":139.27783217},{"name":"御岳山第一配水所","province":"東京都","city":"青梅市","address":"東京都青梅市御岳山170-3","lat":35.78346895,"lon":139.15124212},{"name":"新町給水所","province":"東京都","city":"青梅市","address":"東京都青梅市新町5丁目24-1","lat":35.78846047,"lon":139.30887384},{"name":"二俣尾配水所","province":"東京都","city":"青梅市","address":"東京都青梅市二俣尾5丁目107-2","lat":35.81524153,"lon":139.2066392},{"name":"城山配水所","province":"東京都","city":"青梅市","address":"東京都青梅市東青梅6丁目95-1","lat":35.79671131,"lon":139.27230447},{"name":"青梅坂トンネル","province":"東京都","city":"青梅市","address":"東京都青梅市","lat":35.78799021,"lon":139.27579057},{"name":"吹上トンネル","province":"東京都","city":"青梅市","address":"東京都青梅市","lat":35.78799021,"lon":139.27579057},{"name":"西多摩保健所","province":"東京都","city":"青梅市","address":"東京都青梅市東青梅5丁目19-6","lat":35.78983461,"lon":139.28217046},{"name":"青梅市本庁舎","province":"東京都","city":"青梅市","address":"東京都青梅市東青梅1丁目11-1","lat":35.78785689,"lon":139.27583503},{"name":"青梅市民球技場","province":"東京都","city":"青梅市","address":"東京都青梅市河辺町1丁目872-1","lat":35.77784173,"lon":139.28723709},{"name":"青梅市立第六小学校","province":"東京都","city":"青梅市","address":"東京都青梅市二俣尾3丁目903-1","lat":35.80159313,"lon":139.2168608},{"name":"明星大学グラウンド","province":"東京都","city":"青梅市","address":"東京都青梅市長淵2丁目590","lat":35.77275567,"lon":139.26727244},{"name":"青梅市本庁舎","province":"東京都","city":"青梅市","address":"青梅市東青梅1-11-1","lat":35.787857,"lon":139.275835},{"name":"西多摩建設事務所","province":"東京都","city":"青梅市","address":"青梅市東青梅3-20-1","lat":35.7909,"lon":139.2776},{"name":"第九方面交通機動隊青梅分駐所","province":"東京都","city":"青梅市","address":"青梅市野上町4-6-3","lat":35.787391,"lon":139.289092},{"name":"青梅警察署","province":"東京都","city":"青梅市","address":"青梅市野上町4-6-3","lat":35.787391,"lon":139.289092},{"name":"青梅消防署","province":"東京都","city":"青梅市","address":"青梅市師岡町3-2-5","lat":35.78895,"lon":139.2836},{"name":"西多摩地区","province":"東京都","city":"青梅市","address":"青梅市東青梅4-17-41","lat":35.78327,"lon":139.2817},{"name":"青梅市市民球技場（野球場）","province":"東京都","city":"青梅市","address":"青梅市河辺町1丁目地先","lat":35.77862,"lon":139.2878},{"name":"青梅市民球技場","province":"東京都","city":"青梅市","address":"青梅市河辺町1-872-1","lat":35.77784,"lon":139.2872},{"name":"青梅市立総合病院ヘリポート","province":"東京都","city":"青梅市","address":"青梅市東青梅4-16-5","lat":35.782547,"lon":139.281268},{"name":"※青梅市本庁舎","province":"東京都","city":"青梅市","address":"東京都青梅市東青梅1丁目11-1","lat":35.78785689,"lon":139.27583503},{"name":"青梅駅","province":"東京都","city":"青梅市","address":"東京都青梅市本町192","lat":35.79023939,"lon":139.2576703},{"name":"西多摩福祉事務所倉庫","province":"東京都","city":"青梅市","address":"東京都青梅市河辺町6丁目4-1","lat":35.77999986,"lon":139.28959793},{"name":"武蔵御嶽神社","province":"東京都","city":"青梅市","address":"東京都青梅市御岳山176","lat":35.78288,"lon":139.14994},{"name":"御岳２丁目神路橋トイレ","province":"東京都","city":"青梅市","address":"東京都青梅市御岳2-271","lat":35.80155,"lon":139.17563},{"name":"御岳苑地駐車場","province":"東京都","city":"青梅市","address":"東京都青梅市御岳1-190-3","lat":35.7991,"lon":139.17757},{"name":"玉堂美術館","province":"東京都","city":"青梅市","address":"東京都青梅市御岳1-75","lat":35.80016,"lon":139.18411},{"name":"御岳交流センター","province":"東京都","city":"青梅市","address":"東京都青梅市御岳本町362-8","lat":35.80144,"lon":139.18451},{"name":"御岳１丁目駐車場","province":"東京都","city":"青梅市","address":"東京都青梅市御岳1-3-4","lat":35.79967,"lon":139.18515},{"name":"沢井３丁目御岳渓谷遊歩道トイレ","province":"東京都","city":"青梅市","address":"東京都青梅市沢井3-491-1","lat":35.80529,"lon":139.1878},{"name":"小澤酒造","province":"東京都","city":"青梅市","address":"東京都青梅市沢井2-770","lat":35.80497,"lon":139.19365},{"name":"櫛かんざし美術館","province":"東京都","city":"青梅市","address":"東京都青梅市柚木町3-764-1","lat":35.80343,"lon":139.1968},{"name":"二俣尾５丁目高源寺前トイレ","province":"東京都","city":"青梅市","address":"東京都青梅市二俣尾5-1610","lat":35.81817,"lon":139.20231},{"name":"柚木苑地駐車場トイレ","province":"東京都","city":"青梅市","address":"東京都青梅市柚木町3-643","lat":35.80294,"lon":139.20743},{"name":"柚木苑地駐車場","province":"東京都","city":"青梅市","address":"東京都青梅市柚木町3-643","lat":35.80308,"lon":139.20771},{"name":"木原梅園","province":"東京都","city":"青梅市","address":"東京都青梅市梅郷4-642-3他","lat":35.78848,"lon":139.21897},{"name":"中道梅園","province":"東京都","city":"青梅市","address":"東京都青梅市梅郷4-658-5","lat":35.78906,"lon":139.22007},{"name":"梅郷４丁目駐車場","province":"東京都","city":"青梅市","address":"東京都青梅市梅郷4-680-3","lat":35.78969,"lon":139.22076},{"name":"昭和レトロ商品博物館","province":"東京都","city":"青梅市","address":"東京都青梅市住江町65","lat":35.78863,"lon":139.26046},{"name":"青梅鉄道公園","province":"東京都","city":"青梅市","address":"東京都青梅市勝沼2-155","lat":35.79232,"lon":139.26324},{"name":"塩船観音寺","province":"東京都","city":"青梅市","address":"東京都青梅市塩船194","lat":35.8047,"lon":139.28046},{"name":"儘多屋","province":"東京都","city":"青梅市","address":"東京都青梅市小曾木5-3140","lat":35.825835,"lon":139.28978},{"name":"御岳山ふれあいセンター","province":"東京都","city":"青梅市","address":"東京都青梅市御岳山38-2","lat":35.7837,"lon":139.1539},{"name":"御岳本町児童遊園","province":"東京都","city":"青梅市","address":"東京都青梅市御岳本町167-1","lat":35.80068,"lon":139.17806},{"name":"御岳本町運動広場","province":"東京都","city":"青梅市","address":"東京都青梅市御岳本町224-3","lat":35.80185,"lon":139.17898},{"name":"御岳運動広場","province":"東京都","city":"青梅市","address":"東京都青梅市御岳1丁目115","lat":35.79908,"lon":139.18157},{"name":"沢井市民センターグラウンド","province":"東京都","city":"青梅市","address":"東京都青梅市沢井2丁目682","lat":35.80406,"lon":139.19524},{"name":"沢井市民センター多目的室","province":"東京都","city":"青梅市","address":"東京都青梅市沢井2丁目727-1","lat":35.8009,"lon":139.199},{"name":"青梅柚木苑地駐車場（駐車場）","province":"東京都","city":"青梅市","address":"東京都青梅市柚木町3-643","lat":35.80301,"lon":139.20749},{"name":"二俣尾５丁目第２運動広場","province":"東京都","city":"青梅市","address":"東京都青梅市二俣尾5丁目164","lat":35.81343,"lon":139.20793},{"name":"旧上成木ふれあいセンター（グラウンド）","province":"東京都","city":"青梅市","address":"東京都青梅市成木7-902","lat":35.83598,"lon":139.20924},{"name":"柚木町運動広場","province":"東京都","city":"青梅市","address":"東京都青梅市柚木町2丁目313-1","lat":35.799107,"lon":139.211953},{"name":"青梅市立第六小学校グラウンド","province":"東京都","city":"青梅市","address":"東京都青梅市二俣尾3丁目903-1","lat":35.80203,"lon":139.21651},{"name":"青梅市立第六小学校体育館","province":"東京都","city":"青梅市","address":"東京都青梅市二俣尾3丁目903-1","lat":35.7984,"lon":139.2201},{"name":"青梅市立西中学校体育館","province":"東京都","city":"青梅市","address":"東京都青梅市梅郷6丁目1460-1","lat":35.7915,"lon":139.2231},{"name":"青梅市立西中学校グラウンド","province":"東京都","city":"青梅市","address":"東京都青梅市梅郷6丁目1460-1","lat":35.79498,"lon":139.2208},{"name":"青梅市立第五小学校体育館","province":"東京都","city":"青梅市","address":"東京都青梅市梅郷3丁目765-1","lat":35.7843,"lon":139.2273},{"name":"梅郷市民センター","province":"東京都","city":"青梅市","address":"東京都青梅市梅郷3丁目749-1","lat":35.7834,"lon":139.2275},{"name":"青梅市立第五小学校グラウンド","province":"東京都","city":"青梅市","address":"東京都青梅市梅郷3丁目765-1","lat":35.78775,"lon":139.22521},{"name":"和田町運動広場","province":"東京都","city":"青梅市","address":"東京都青梅市和田町2丁目422-1","lat":35.77974,"lon":139.22938},{"name":"旧北小曾木ふれあいセンター（グラウンド）","province":"東京都","city":"青梅市","address":"東京都青梅市成木8-676","lat":35.8219,"lon":139.22938},{"name":"日向和田２丁目児童遊園","province":"東京都","city":"青梅市","address":"東京都青梅市日向和田2丁目374-7","lat":35.78507,"lon":139.23547},{"name":"畑中保育園","province":"東京都","city":"青梅市","address":"東京都青梅市畑中2丁目593","lat":35.78,"lon":139.2442},{"name":"青梅市立第一中学校グラウンド","province":"東京都","city":"青梅市","address":"東京都青梅市裏宿町615","lat":35.78937,"lon":139.24472},{"name":"青梅市立第一中学校体育館","province":"東京都","city":"青梅市","address":"東京都青梅市裏宿町615","lat":35.7862,"lon":139.2489},{"name":"成木市民センター","province":"東京都","city":"青梅市","address":"東京都青梅市成木4丁目644","lat":35.821,"lon":139.2517},{"name":"天ヶ瀬体育館","province":"東京都","city":"青梅市","address":"東京都青梅市天ヶ瀬町1111-1","lat":35.789198,"lon":139.250633},{"name":"天ヶ瀬運動広場","province":"東京都","city":"青梅市","address":"東京都青梅市天ヶ瀬町1111-1","lat":35.78844,"lon":139.25093},{"name":"駒木町１丁目運動広場","province":"東京都","city":"青梅市","address":"東京都青梅市駒木町1丁目9-1","lat":35.78188,"lon":139.25197},{"name":"青梅市文化交流センター","province":"東京都","city":"青梅市","address":"東京都青梅市上町374","lat":35.79019,"lon":139.25482},{"name":"青梅市立第七中学校体育館","province":"東京都","city":"青梅市","address":"東京都青梅市成木4丁目544-2","lat":35.8227,"lon":139.2612},{"name":"青梅市立第一小学校体育館","province":"東京都","city":"青梅市","address":"東京都青梅市本町223","lat":35.7883,"lon":139.2616},{"name":"青梅市立第一小学校グラウンド","province":"東京都","city":"青梅市","address":"東京都青梅市本町223","lat":35.79102,"lon":139.25849},{"name":"青梅市立第七中学校グラウンド","province":"東京都","city":"青梅市","address":"東京都青梅市成木4丁目544-2","lat":35.82612,"lon":139.25837},{"name":"黒沢中央運動広場","province":"東京都","city":"青梅市","address":"東京都青梅市黒沢2丁目991-1","lat":35.81243,"lon":139.25898},{"name":"永山公園グラウンド","province":"東京都","city":"青梅市","address":"東京都青梅市本町217","lat":35.79214,"lon":139.26003},{"name":"青梅市立成木小学校体育館","province":"東京都","city":"青梅市","address":"東京都青梅市成木3丁目423-1","lat":35.82907,"lon":139.26053},{"name":"青梅市立成木小学校グラウンド","province":"東京都","city":"青梅市","address":"東京都青梅市成木3丁目423-1","lat":35.8286,"lon":139.26059},{"name":"長淵市民センター","province":"東京都","city":"青梅市","address":"東京都青梅市長淵6丁目492-1","lat":35.7772,"lon":139.2718},{"name":"都立青梅総合高校（体育館、グラウンド）","province":"東京都","city":"青梅市","address":"東京都青梅市勝沼1-60","lat":35.78819,"lon":139.27037},{"name":"青梅市立第二小学校体育館","province":"東京都","city":"青梅市","address":"東京都青梅市長淵4丁目437","lat":35.7777,"lon":139.2739},{"name":"青梅市立第二小学校グラウンド","province":"東京都","city":"青梅市","address":"東京都青梅市長淵4丁目437","lat":35.7802,"lon":139.2711},{"name":"青梅市立第四小学校グラウンド","province":"東京都","city":"青梅市","address":"東京都青梅市東青梅6丁目1-1","lat":35.79376,"lon":139.27161},{"name":"青梅市立第四小学校体育館","province":"東京都","city":"青梅市","address":"東京都青梅市東青梅6丁目1-1","lat":35.7909,"lon":139.2751},{"name":"青梅市立第二中学校体育館","province":"東京都","city":"青梅市","address":"東京都青梅市千ヶ瀬町2丁目155","lat":35.7825,"lon":139.2776},{"name":"青梅市立第二中学校グラウンド","province":"東京都","city":"青梅市","address":"東京都青梅市千ヶ瀬町2丁目155","lat":35.78576,"lon":139.27445},{"name":"青梅市立第七小学校体育館","province":"東京都","city":"青梅市","address":"東京都青梅市小曾木3丁目1880-1","lat":35.8166,"lon":139.2782},{"name":"小曾木市民センター","province":"東京都","city":"青梅市","address":"東京都青梅市小曾木3丁目1656-1","lat":35.8148,"lon":139.2783},{"name":"青梅市立第七小学校グラウンド","province":"東京都","city":"青梅市","address":"東京都青梅市小曾木3丁目1880-1","lat":35.81951,"lon":139.27522},{"name":"青梅市役所（庁舎・駐車場）","province":"東京都","city":"青梅市","address":"東京都青梅市東青梅1-11-1","lat":35.78776,"lon":139.27566},{"name":"青梅市立第六中学校グラウンド","province":"東京都","city":"青梅市","address":"東京都青梅市小曾木4丁目2040","lat":35.82141,"lon":139.2764},{"name":"青梅市立第六中学校体育館","province":"東京都","city":"青梅市","address":"東京都青梅市小曾木4丁目2040","lat":35.8185,"lon":139.2796},{"name":"東青梅市民センター","province":"東京都","city":"青梅市","address":"東京都青梅市師岡町3丁目9-6","lat":35.7874,"lon":139.2856},{"name":"青梅市立吹上小学校体育館","province":"東京都","city":"青梅市","address":"東京都青梅市吹上176-1","lat":35.7939,"lon":139.2858},{"name":"青梅市立吹上中学校体育館","province":"東京都","city":"青梅市","address":"東京都青梅市吹上1","lat":35.7978,"lon":139.286},{"name":"青梅市立吹上小学校グラウンド","province":"東京都","city":"青梅市","address":"東京都青梅市吹上176-1","lat":35.79681,"lon":139.28293},{"name":"青梅市立霞台中学校グラウンド","province":"東京都","city":"青梅市","address":"東京都青梅市師岡町4丁目6-1","lat":35.78731,"lon":139.28317},{"name":"青梅市立霞台中学校体育館","province":"東京都","city":"青梅市","address":"東京都青梅市師岡町4丁目6-1","lat":35.7835,"lon":139.2864},{"name":"青梅市立吹上中学校グラウンド","province":"東京都","city":"青梅市","address":"東京都青梅市吹上1","lat":35.80035,"lon":139.28331},{"name":"河辺町南自治会館","province":"東京都","city":"青梅市","address":"東京都青梅市河辺町2丁目1026","lat":35.7764,"lon":139.287},{"name":"住友金属鉱山アリーナ青梅","province":"東京都","city":"青梅市","address":"東京都青梅市河辺町4丁目16-1","lat":35.7775,"lon":139.2876},{"name":"青梅市立友田小学校体育館","province":"東京都","city":"青梅市","address":"東京都青梅市友田町5丁目332","lat":35.7709,"lon":139.2879},{"name":"青梅市立友田小学校グラウンド","province":"東京都","city":"青梅市","address":"東京都青梅市友田町5丁目332","lat":35.77438,"lon":139.28553},{"name":"青梅市立河辺小学校グラウンド","province":"東京都","city":"青梅市","address":"東京都青梅市河辺町5丁目24","lat":35.78172,"lon":139.28771},{"name":"青梅市立河辺小学校体育館","province":"東京都","city":"青梅市","address":"東京都青梅市河辺町5丁目24","lat":35.7785,"lon":139.2909},{"name":"小曾木２丁目運動広場","province":"東京都","city":"青梅市","address":"東京都青梅市小曾木2丁目633","lat":35.81913,"lon":139.28972},{"name":"大門市民センター","province":"東京都","city":"青梅市","address":"東京都青梅市大門2丁目288","lat":35.7936,"lon":139.2944},{"name":"青梅市立第三中学校体育館","province":"東京都","city":"青梅市","address":"東京都青梅市大門2丁目301","lat":35.7941,"lon":139.2955},{"name":"青梅市立第三中学校グラウンド","province":"東京都","city":"青梅市","address":"東京都青梅市大門2丁目301","lat":35.79704,"lon":139.2928},{"name":"富岡３丁目運動広場","province":"東京都","city":"青梅市","address":"東京都青梅市富岡3丁目1168","lat":35.820806,"lon":139.29313},{"name":"青梅市立若草小学校体育館","province":"東京都","city":"青梅市","address":"東京都青梅市新町1丁目15-1","lat":35.783,"lon":139.2968},{"name":"河辺市民センター","province":"東京都","city":"青梅市","address":"東京都青梅市河辺町6丁目18-1","lat":35.7753,"lon":139.2969},{"name":"青梅市立第三小学校体育館","province":"東京都","city":"青梅市","address":"東京都青梅市大門2丁目317","lat":35.7953,"lon":139.297},{"name":"青梅市立第三小学校グラウンド","province":"東京都","city":"青梅市","address":"東京都青梅市大門2丁目317","lat":35.79812,"lon":139.29421},{"name":"青梅市立霞台小学校体育館","province":"東京都","city":"青梅市","address":"東京都青梅市新町1丁目35-1","lat":35.7868,"lon":139.2975},{"name":"青梅市立霞台小学校グラウンド","province":"東京都","city":"青梅市","address":"東京都青梅市新町1丁目35-1","lat":35.7895,"lon":139.29443},{"name":"青梅市立若草小学校グラウンド","province":"東京都","city":"青梅市","address":"東京都青梅市新町1丁目15-1","lat":35.78637,"lon":139.29452},{"name":"青梅市立泉中学校体育館","province":"東京都","city":"青梅市","address":"東京都青梅市新町1丁目37","lat":35.7865,"lon":139.2992},{"name":"青梅市立泉中学校グラウンド","province":"東京都","city":"青梅市","address":"東京都青梅市新町1丁目37","lat":35.78971,"lon":139.296},{"name":"わかぐさ公園","province":"東京都","city":"青梅市","address":"東京都青梅市河辺町8丁目14-3","lat":35.78342,"lon":139.2966},{"name":"東原公園球技場","province":"東京都","city":"青梅市","address":"東京都青梅市今寺5丁目11","lat":35.7905,"lon":139.305},{"name":"都立誠明学園グラウンド","province":"東京都","city":"青梅市","address":"東京都青梅市新町3-72-1","lat":35.781,"lon":139.30438},{"name":"新町市民センター","province":"東京都","city":"青梅市","address":"東京都青梅市新町4丁目17-1","lat":35.7828,"lon":139.3084},{"name":"青梅市立新町中学校体育館","province":"東京都","city":"青梅市","address":"東京都青梅市新町5丁目20-1","lat":35.789067,"lon":139.306076},{"name":"青梅市立新町中学校グラウンド","province":"東京都","city":"青梅市","address":"東京都青梅市新町5丁目20-1","lat":35.789067,"lon":139.306076},{"name":"青梅市立藤橋小学校体育館","province":"東京都","city":"青梅市","address":"東京都青梅市藤橋3丁目13-1","lat":35.7946,"lon":139.3095},{"name":"青梅市立藤橋小学校グラウンド","province":"東京都","city":"青梅市","address":"東京都青梅市藤橋3丁目13-1","lat":35.79766,"lon":139.30671},{"name":"青梅市立今井小学校体育館","province":"東京都","city":"青梅市","address":"東京都青梅市今井2丁目947-1","lat":35.8043,"lon":139.31},{"name":"青梅市立今井小学校グラウンド","province":"東京都","city":"青梅市","address":"東京都青梅市今井2丁目947-1","lat":35.80707,"lon":139.30705},{"name":"青梅市立新町小学校グラウンド","province":"東京都","city":"青梅市","address":"東京都青梅市新町5丁目21-1","lat":35.78836,"lon":139.30755},{"name":"青梅市立新町小学校体育館","province":"東京都","city":"青梅市","address":"東京都青梅市新町5丁目21-1","lat":35.7856,"lon":139.3108},{"name":"都農林総合研究センター青梅庁舎（グラウンド）","province":"東京都","city":"青梅市","address":"東京都青梅市新町6-7-1","lat":35.79175,"lon":139.31029},{"name":"今井市民センター","province":"東京都","city":"青梅市","address":"東京都青梅市今井2丁目908-1","lat":35.8033,"lon":139.3142},{"name":"新田山公園","province":"東京都","city":"青梅市","address":"東京都青梅市新町7丁目33","lat":35.7834,"lon":139.3177},{"name":"自立センター","province":"東京都","city":"青梅市","address":"東京都青梅市今井5丁目2434-2","lat":35.7902,"lon":139.3316},{"name":"青梅市","province":"東京都","city":"青梅市","address":"青梅市東青梅1-11-1","lat":35.7878569,"lon":139.2758353},{"name":"軍畑園地","province":"東京都","city":"青梅市","address":"東京都青梅市柚木町2丁目","lat":35.804419,"lon":139.211754},{"name":"御岳丸山園地","province":"東京都","city":"青梅市","address":"東京都青梅市御岳山","lat":35.784061,"lon":139.150989},{"name":"御岳渓谷","province":"東京都","city":"青梅市","address":"東京都青梅市沢井3丁目","lat":35.805331,"lon":139.187804},{"name":"御岳渓谷園地","province":"東京都","city":"青梅市","address":"東京都青梅市御岳本町","lat":35.801307,"lon":139.184876},{"name":"御岳射山渓駐車場","province":"東京都","city":"青梅市","address":"東京都青梅市柚木町3丁目","lat":35.802681,"lon":139.195699},{"name":"御岳平園地","province":"東京都","city":"青梅市","address":"東京都青梅市御岳山","lat":35.790007,"lon":139.152976},{"name":"丹縄園地","province":"東京都","city":"青梅市","address":"東京都青梅市御岳2丁目","lat":35.805966,"lon":139.176097},{"name":"御岳ビジターセンター","province":"東京都","city":"青梅市","address":"東京都青梅市御岳山38-5","lat":35.78675,"lon":139.150582},{"name":"東京都西多摩保健所","province":"東京都","city":"青梅市","address":"東京都青梅市東青梅1丁目167-15","lat":35.787716,"lon":139.27145},{"name":"東京都青梅合同庁舎","province":"東京都","city":"青梅市","address":"東京都青梅市河辺町6丁目4-1","lat":35.779982,"lon":139.289651},{"name":"東京都青梅合同庁舎","province":"東京都","city":"青梅市","address":"東京都青梅市河辺町6丁目4-1","lat":35.779972,"lon":139.289675},{"name":"青梅サービスステーション","province":"東京都","city":"青梅市","address":"東京都青梅市師岡町1丁目1301-10","lat":35.792569,"lon":139.277224},{"name":"青梅市健康センター","province":"東京都","city":"青梅市","address":"東京都青梅市東青梅1丁目174-1","lat":35.787704,"lon":139.273322},{"name":"青梅市役所","province":"東京都","city":"青梅市","address":"東京都青梅市東青梅1丁目11-1","lat":35.78774,"lon":139.275435},{"name":"青梅市役所","province":"東京都","city":"青梅市","address":"東京都青梅市東青梅1丁目11-1","lat":35.78805,"lon":139.275487},{"name":"青梅市役所","province":"東京都","city":"青梅市","address":"東京都青梅市東青梅1丁目11-1","lat":35.78769,"lon":139.275769},{"name":"青梅図書館","province":"東京都","city":"青梅市","address":"東京都青梅市仲町268-9","lat":35.791136,"lon":139.256646},{"name":"青梅市長淵市民センター","province":"東京都","city":"青梅市","address":"東京都青梅市長淵6丁目492-1","lat":35.780438,"lon":139.268494},{"name":"青梅市大門市民センター","province":"東京都","city":"青梅市","address":"東京都青梅市大門2丁目288","lat":35.79682,"lon":139.291215},{"name":"青梅市沢井市民センター","province":"東京都","city":"青梅市","address":"東京都青梅市沢井2丁目682","lat":35.804706,"lon":139.196294},{"name":"青梅市成木市民センター","province":"東京都","city":"青梅市","address":"東京都青梅市成木4丁目644","lat":35.824075,"lon":139.248524},{"name":"青梅市東青梅市民センター","province":"東京都","city":"青梅市","address":"東京都青梅市師岡町3丁目9-6","lat":35.790692,"lon":139.282318},{"name":"青梅市新町市民センター","province":"東京都","city":"青梅市","address":"東京都青梅市新町4丁目17-1","lat":35.785987,"lon":139.305157},{"name":"青梅市河辺市民センター","province":"東京都","city":"青梅市","address":"東京都青梅市河辺町6丁目18-1","lat":35.778477,"lon":139.293653},{"name":"青梅市今井市民センター","province":"東京都","city":"青梅市","address":"東京都青梅市今井2丁目908-1","lat":35.806537,"lon":139.310886},{"name":"青梅市吉川英治記念館","province":"東京都","city":"青梅市","address":"東京都青梅市柚木町1丁目101-1","lat":35.79633,"lon":139.212881},{"name":"青梅市健康センター","province":"東京都","city":"青梅市","address":"東京都青梅市東青梅1丁目174-1","lat":35.78768,"lon":139.273271},{"name":"青梅市福祉センター","province":"東京都","city":"青梅市","address":"東京都青梅市東青梅1丁目177-3","lat":35.78741,"lon":139.274074},{"name":"青梅市子育て支援センター","province":"東京都","city":"青梅市","address":"東京都青梅市新町2丁目21-9","lat":35.788284,"lon":139.302211},{"name":"S＆Dたまぐーセンター（青梅市文化交流センター）","province":"東京都","city":"青梅市","address":"東京都青梅市上町374","lat":35.790212,"lon":139.254873},{"name":"青梅市御岳交流センター","province":"東京都","city":"青梅市","address":"東京都青梅市御岳本町362-8","lat":35.801451,"lon":139.184586},{"name":"青梅市中央図書館","province":"東京都","city":"青梅市","address":"東京都青梅市河辺町10丁目8-1","lat":35.785465,"lon":139.284962},{"name":"青梅市中央図書館","province":"東京都","city":"青梅市","address":"東京都青梅市河辺町10丁目8-1","lat":35.785489,"lon":139.284943},{"name":"青梅市立美術館","province":"東京都","city":"青梅市","address":"東京都青梅市滝ノ上町1346-1","lat":35.787614,"lon":139.255873},{"name":"住友金属鉱山アリーナ青梅（青梅市総合体育館）","province":"東京都","city":"青梅市","address":"東京都青梅市河辺町4丁目16-1","lat":35.780782,"lon":139.284745},{"name":"青梅市民斎場","province":"東京都","city":"青梅市","address":"東京都青梅市長淵5丁目698-2","lat":35.772368,"lon":139.262981},{"name":"青梅市青梅市民センター天ケ瀬体育館","province":"東京都","city":"青梅市","address":"東京都青梅市天ヶ瀬町1111-1","lat":35.789187,"lon":139.250654},{"name":"永山公園","province":"東京都","city":"青梅市","address":"東京都青梅市本町","lat":35.791453,"lon":139.260213},{"name":"釜の淵公園大柳駐車場","province":"東京都","city":"青梅市","address":"東京都青梅市大柳町","lat":35.785637,"lon":139.253232},{"name":"早道公園","province":"東京都","city":"青梅市","address":"東京都青梅市東青梅5丁目17","lat":35.789971,"lon":139.280184},{"name":"わかぐさ公園","province":"東京都","city":"青梅市","address":"東京都青梅市河辺町8丁目14","lat":35.783264,"lon":139.295897},{"name":"吹上しょうぶ公園","province":"東京都","city":"青梅市","address":"東京都青梅市吹上","lat":35.797394,"lon":139.276045},{"name":"富士塚公園","province":"東京都","city":"青梅市","address":"東京都青梅市新町5丁目22","lat":35.789516,"lon":139.307604},{"name":"新田山公園","province":"東京都","city":"青梅市","address":"東京都青梅市新町7丁目33","lat":35.786312,"lon":139.314355},{"name":"新田山公園","province":"東京都","city":"青梅市","address":"東京都青梅市新町7丁目33","lat":35.786935,"lon":139.31267},{"name":"沢井駅前広場","province":"東京都","city":"青梅市","address":"東京都青梅市沢井2丁目","lat":35.805641,"lon":139.194182},{"name":"御岳苑地駐車場","province":"東京都","city":"青梅市","address":"東京都青梅市御岳1丁目","lat":35.798964,"lon":139.177744},{"name":"寺改戸公園","province":"東京都","city":"青梅市","address":"東京都青梅市長淵3丁目","lat":35.780987,"lon":139.275158},{"name":"畑中戸田山公園","province":"東京都","city":"青梅市","address":"東京都青梅市畑中3丁目","lat":35.779212,"lon":139.237305},{"name":"上開戸公園","province":"東京都","city":"青梅市","address":"東京都青梅市大門1丁目","lat":35.800961,"lon":139.286326},{"name":"梅の公園","province":"東京都","city":"青梅市","address":"東京都青梅市梅郷4丁目","lat":35.786315,"lon":139.218732},{"name":"梅の公園","province":"東京都","city":"青梅市","address":"東京都青梅市梅郷2丁目","lat":35.7849,"lon":139.221137},{"name":"今井ふれあい公園","province":"東京都","city":"青梅市","address":"東京都青梅市今井2丁目","lat":35.806944,"lon":139.308784},{"name":"花木園","province":"東京都","city":"青梅市","address":"東京都青梅市小曾木4丁目","lat":35.818034,"lon":139.284252},{"name":"梅郷１・２丁目運動広場","province":"東京都","city":"青梅市","address":"東京都青梅市梅郷1丁目","lat":35.783223,"lon":139.223786},{"name":"青梅駅前公衆便所","province":"東京都","city":"青梅市","address":"東京都青梅市本町","lat":35.790268,"lon":139.258815},{"name":"東青梅駅南口公衆便所","province":"東京都","city":"青梅市","address":"東京都青梅市東青梅1丁目9","lat":35.790096,"lon":139.271865},{"name":"東青梅駅北口公衆便所","province":"東京都","city":"青梅市","address":"東京都青梅市東青梅2丁目14-9","lat":35.789972,"lon":139.272971},{"name":"河辺駅南口公衆便所","province":"東京都","city":"青梅市","address":"東京都青梅市河辺町5丁目29","lat":35.784241,"lon":139.28478},{"name":"河辺駅北口公衆便所","province":"東京都","city":"青梅市","address":"東京都青梅市河辺町10丁目18","lat":35.78465,"lon":139.284839},{"name":"長淵３丁目水泳場脇","province":"東京都","city":"青梅市","address":"東京都青梅市長淵3丁目","lat":35.7799,"lon":139.277735},{"name":"青梅市火葬場","province":"東京都","city":"青梅市","address":"東京都青梅市長淵5丁目743","lat":35.772696,"lon":139.262383},{"name":"梅の里駐車場","province":"東京都","city":"青梅市","address":"東京都青梅市柚木町1丁目","lat":35.796215,"lon":139.214148},{"name":"青梅柚木苑地駐車場","province":"東京都","city":"青梅市","address":"東京都青梅市柚木町3丁目","lat":35.802944,"lon":139.207536},{"name":"日向和田浄水所","province":"東京都","city":"青梅市","address":"東京都青梅市日向和田2-370","lat":35.7843741,"lon":139.234717},{"name":"千ヶ瀬第二浄水所","province":"東京都","city":"青梅市","address":"東京都青梅市千ヶ瀬町1-69-1","lat":35.7846878,"lon":139.277824},{"name":"御岳山第一配水所","province":"東京都","city":"青梅市","address":"東京都青梅市御岳山170-3","lat":35.78347,"lon":139.15112},{"name":"成木配水所","province":"東京都","city":"青梅市","address":"東京都青梅市成木8-690-3","lat":35.8187204,"lon":139.241891},{"name":"新町給水所","province":"東京都","city":"青梅市","address":"東京都青梅市新町5-24-1","lat":35.7884612,"lon":139.308874},{"name":"二俣尾配水所","province":"東京都","city":"青梅市","address":"東京都青梅市二俣尾5-107-2","lat":35.8152563,"lon":139.2066375},{"name":"城山配水所","province":"東京都","city":"青梅市","address":"東京都青梅市東青梅6-95-1","lat":35.796712,"lon":139.272305},{"name":"梅郷配水所","province":"東京都","city":"青梅市","address":"東京都青梅市和田町2-578-1","lat":35.782215,"lon":139.226243},{"name":"河辺駅北口自転車等駐車場","province":"東京都","city":"青梅市","address":"東京都青梅市河辺町5丁目29-39","lat":35.78495746,"lon":139.28394548},{"name":"河辺駅南口自転車等駐車場","province":"東京都","city":"青梅市","address":"東京都青梅市河辺町5丁目29-40","lat":35.78390762,"lon":139.28538428},{"name":"青梅駅自転車等駐車場","province":"東京都","city":"青梅市","address":"東京都青梅市本町163-11","lat":35.79005612,"lon":139.25916734},{"name":"東青梅駅北口自転車等駐車場","province":"東京都","city":"青梅市","address":"東京都青梅市東青梅2丁目14-9","lat":35.78988713,"lon":139.27302133},{"name":"東青梅駅南口自転車等駐車場","province":"東京都","city":"青梅市","address":"東京都青梅市東青梅1丁目6-8","lat":35.7889039,"lon":139.27222421},{"name":"青梅市役所前第一","province":"東京都","city":"青梅市","address":"東京都青梅市東青梅1丁目11-1","lat":35.78785689,"lon":139.27583503},{"name":"青梅末広町二丁目西","province":"東京都","city":"青梅市","address":"東京都青梅市末広町2丁目2-8","lat":35.77942258,"lon":139.30691877},{"name":"千ヶ瀬二丁目","province":"東京都","city":"青梅市","address":"東京都青梅市千ヶ瀬町2丁目243","lat":35.78593481,"lon":139.27255762},{"name":"河辺小学校南","province":"東京都","city":"青梅市","address":"東京都青梅市河辺町6丁目2","lat":35.7806081,"lon":139.28894797},{"name":"河辺駅北口","province":"東京都","city":"青梅市","address":"東京都青梅市河辺町10丁目7","lat":35.78578519,"lon":139.28627025},{"name":"わかぐさ公園前","province":"東京都","city":"青梅市","address":"東京都青梅市河辺町7丁目14-2","lat":35.78147483,"lon":139.29581681},{"name":"小作駅北","province":"東京都","city":"青梅市","address":"東京都青梅市新町3丁目2","lat":35.77804486,"lon":139.30261082},{"name":"みち境","province":"東京都","city":"青梅市","address":"東京都青梅市根ヶ布2丁目722","lat":35.8065628,"lon":139.2666466},{"name":"青梅合同庁舎前","province":"東京都","city":"青梅市","address":"東京都青梅市河辺町6丁目4-1","lat":35.77999986,"lon":139.28959793},{"name":"永山公園入口","province":"東京都","city":"青梅市","address":"東京都青梅市住江町55","lat":35.78902572,"lon":139.26029501},{"name":"青梅市立総合病院","province":"東京都","city":"青梅市","address":"東京都青梅市東青梅4丁目16-5","lat":35.78202441,"lon":139.28118194},{"name":"青梅坂トンネル","province":"東京都","city":"青梅市","address":"東京都青梅市","lat":35.78799021,"lon":139.27579057},{"name":"吹上トンネル","province":"東京都","city":"青梅市","address":"東京都青梅市","lat":35.78799021,"lon":139.27579057},{"name":"西多摩保健所","province":"東京都","city":"青梅市","address":"東京都青梅市東青梅5丁目19-6","lat":35.78983461,"lon":139.28217046},{"name":"青梅市本庁舎","province":"東京都","city":"青梅市","address":"東京都青梅市東青梅1丁目11-1","lat":35.78785689,"lon":139.27583503},{"name":"青梅市民球技場","province":"東京都","city":"青梅市","address":"東京都青梅市河辺町1丁目872-1","lat":35.77784173,"lon":139.28723709},{"name":"青梅市立第六小学校","province":"東京都","city":"青梅市","address":"東京都青梅市二俣尾3丁目903-1","lat":35.80159313,"lon":139.2168608},{"name":"明星大学グラウンド","province":"東京都","city":"青梅市","address":"東京都青梅市長淵2丁目590","lat":35.77275567,"lon":139.26727244},{"name":"青梅市本庁舎","province":"東京都","city":"青梅市","address":"青梅市東青梅1-11-1","lat":35.787857,"lon":139.275835},{"name":"西多摩建設事務所","province":"東京都","city":"青梅市","address":"青梅市東青梅3-20-1","lat":35.7909,"lon":139.2776},{"name":"第九方面交通機動隊青梅分駐所","province":"東京都","city":"青梅市","address":"青梅市野上町4-6-3","lat":35.787391,"lon":139.289092},{"name":"青梅警察署","province":"東京都","city":"青梅市","address":"青梅市野上町4-6-3","lat":35.787391,"lon":139.289092},{"name":"青梅消防署","province":"東京都","city":"青梅市","address":"青梅市師岡町3-2-5","lat":35.78895,"lon":139.2836},{"name":"西多摩地区","province":"東京都","city":"青梅市","address":"青梅市東青梅4-17-41","lat":35.78327,"lon":139.2817},{"name":"青梅市市民球技場（野球場）","province":"東京都","city":"青梅市","address":"青梅市河辺町1丁目地先","lat":35.77862,"lon":139.2878},{"name":"青梅市民球技場","province":"東京都","city":"青梅市","address":"青梅市河辺町1-872-1","lat":35.77784,"lon":139.2872},{"name":"青梅市立総合病院ヘリポート","province":"東京都","city":"青梅市","address":"青梅市東青梅4-16-5","lat":35.782547,"lon":139.281268},{"name":"※青梅市本庁舎","province":"東京都","city":"青梅市","address":"東京都青梅市東青梅1丁目11-1","lat":35.78785689,"lon":139.27583503},{"name":"青梅駅","province":"東京都","city":"青梅市","address":"東京都青梅市本町192","lat":35.79023939,"lon":139.2576703},{"name":"西多摩福祉事務所倉庫","province":"東京都","city":"青梅市","address":"東京都青梅市河辺町6丁目4-1","lat":35.77999986,"lon":139.28959793},{"name":"武蔵御嶽神社","province":"東京都","city":"青梅市","address":"東京都青梅市御岳山176","lat":35.78288,"lon":139.14994},{"name":"御岳２丁目神路橋トイレ","province":"東京都","city":"青梅市","address":"東京都青梅市御岳2-271","lat":35.80155,"lon":139.17563},{"name":"御岳苑地駐車場","province":"東京都","city":"青梅市","address":"東京都青梅市御岳1-190-3","lat":35.7991,"lon":139.17757},{"name":"玉堂美術館","province":"東京都","city":"青梅市","address":"東京都青梅市御岳1-75","lat":35.80016,"lon":139.18411},{"name":"御岳交流センター","province":"東京都","city":"青梅市","address":"東京都青梅市御岳本町362-8","lat":35.80144,"lon":139.18451},{"name":"御岳１丁目駐車場","province":"東京都","city":"青梅市","address":"東京都青梅市御岳1-3-4","lat":35.79967,"lon":139.18515},{"name":"沢井３丁目御岳渓谷遊歩道トイレ","province":"東京都","city":"青梅市","address":"東京都青梅市沢井3-491-1","lat":35.80529,"lon":139.1878},{"name":"小澤酒造","province":"東京都","city":"青梅市","address":"東京都青梅市沢井2-770","lat":35.80497,"lon":139.19365},{"name":"櫛かんざし美術館","province":"東京都","city":"青梅市","address":"東京都青梅市柚木町3-764-1","lat":35.80343,"lon":139.1968},{"name":"二俣尾５丁目高源寺前トイレ","province":"東京都","city":"青梅市","address":"東京都青梅市二俣尾5-1610","lat":35.81817,"lon":139.20231},{"name":"柚木苑地駐車場トイレ","province":"東京都","city":"青梅市","address":"東京都青梅市柚木町3-643","lat":35.80294,"lon":139.20743},{"name":"柚木苑地駐車場","province":"東京都","city":"青梅市","address":"東京都青梅市柚木町3-643","lat":35.80308,"lon":139.20771},{"name":"木原梅園","province":"東京都","city":"青梅市","address":"東京都青梅市梅郷4-642-3他","lat":35.78848,"lon":139.21897},{"name":"中道梅園","province":"東京都","city":"青梅市","address":"東京都青梅市梅郷4-658-5","lat":35.78906,"lon":139.22007},{"name":"梅郷４丁目駐車場","province":"東京都","city":"青梅市","address":"東京都青梅市梅郷4-680-3","lat":35.78969,"lon":139.22076},{"name":"昭和レトロ商品博物館","province":"東京都","city":"青梅市","address":"東京都青梅市住江町65","lat":35.78863,"lon":139.26046},{"name":"青梅鉄道公園","province":"東京都","city":"青梅市","address":"東京都青梅市勝沼2-155","lat":35.79232,"lon":139.26324},{"name":"塩船観音寺","province":"東京都","city":"青梅市","address":"東京都青梅市塩船194","lat":35.8047,"lon":139.28046},{"name":"儘多屋","province":"東京都","city":"青梅市","address":"東京都青梅市小曾木5-3140","lat":35.825835,"lon":139.28978},{"name":"御岳山ふれあいセンター","province":"東京都","city":"青梅市","address":"東京都青梅市御岳山38-2","lat":35.7837,"lon":139.1539},{"name":"御岳本町児童遊園","province":"東京都","city":"青梅市","address":"東京都青梅市御岳本町167-1","lat":35.80068,"lon":139.17806},{"name":"御岳本町運動広場","province":"東京都","city":"青梅市","address":"東京都青梅市御岳本町224-3","lat":35.80185,"lon":139.17898},{"name":"御岳運動広場","province":"東京都","city":"青梅市","address":"東京都青梅市御岳1丁目115","lat":35.79908,"lon":139.18157},{"name":"沢井市民センターグラウンド","province":"東京都","city":"青梅市","address":"東京都青梅市沢井2丁目682","lat":35.80406,"lon":139.19524},{"name":"沢井市民センター多目的室","province":"東京都","city":"青梅市","address":"東京都青梅市沢井2丁目727-1","lat":35.8009,"lon":139.199},{"name":"青梅柚木苑地駐車場（駐車場）","province":"東京都","city":"青梅市","address":"東京都青梅市柚木町3-643","lat":35.80301,"lon":139.20749},{"name":"二俣尾５丁目第２運動広場","province":"東京都","city":"青梅市","address":"東京都青梅市二俣尾5丁目164","lat":35.81343,"lon":139.20793},{"name":"旧上成木ふれあいセンター（グラウンド）","province":"東京都","city":"青梅市","address":"東京都青梅市成木7-902","lat":35.83598,"lon":139.20924},{"name":"柚木町運動広場","province":"東京都","city":"青梅市","address":"東京都青梅市柚木町2丁目313-1","lat":35.799107,"lon":139.211953},{"name":"青梅市立第六小学校グラウンド","province":"東京都","city":"青梅市","address":"東京都青梅市二俣尾3丁目903-1","lat":35.80203,"lon":139.21651},{"name":"青梅市立第六小学校体育館","province":"東京都","city":"青梅市","address":"東京都青梅市二俣尾3丁目903-1","lat":35.7984,"lon":139.2201},{"name":"青梅市立西中学校体育館","province":"東京都","city":"青梅市","address":"東京都青梅市梅郷6丁目1460-1","lat":35.7915,"lon":139.2231},{"name":"青梅市立西中学校グラウンド","province":"東京都","city":"青梅市","address":"東京都青梅市梅郷6丁目1460-1","lat":35.79498,"lon":139.2208},{"name":"青梅市立第五小学校体育館","province":"東京都","city":"青梅市","address":"東京都青梅市梅郷3丁目765-1","lat":35.7843,"lon":139.2273},{"name":"梅郷市民センター","province":"東京都","city":"青梅市","address":"東京都青梅市梅郷3丁目749-1","lat":35.7834,"lon":139.2275},{"name":"青梅市立第五小学校グラウンド","province":"東京都","city":"青梅市","address":"東京都青梅市梅郷3丁目765-1","lat":35.78775,"lon":139.22521},{"name":"和田町運動広場","province":"東京都","city":"青梅市","address":"東京都青梅市和田町2丁目422-1","lat":35.77974,"lon":139.22938},{"name":"旧北小曾木ふれあいセンター（グラウンド）","province":"東京都","city":"青梅市","address":"東京都青梅市成木8-676","lat":35.8219,"lon":139.22938},{"name":"日向和田２丁目児童遊園","province":"東京都","city":"青梅市","address":"東京都青梅市日向和田2丁目374-7","lat":35.78507,"lon":139.23547},{"name":"畑中保育園","province":"東京都","city":"青梅市","address":"東京都青梅市畑中2丁目593","lat":35.78,"lon":139.2442},{"name":"青梅市立第一中学校グラウンド","province":"東京都","city":"青梅市","address":"東京都青梅市裏宿町615","lat":35.78937,"lon":139.24472},{"name":"青梅市立第一中学校体育館","province":"東京都","city":"青梅市","address":"東京都青梅市裏宿町615","lat":35.7862,"lon":139.2489},{"name":"成木市民センター","province":"東京都","city":"青梅市","address":"東京都青梅市成木4丁目644","lat":35.821,"lon":139.2517},{"name":"天ヶ瀬体育館","province":"東京都","city":"青梅市","address":"東京都青梅市天ヶ瀬町1111-1","lat":35.789198,"lon":139.250633},{"name":"天ヶ瀬運動広場","province":"東京都","city":"青梅市","address":"東京都青梅市天ヶ瀬町1111-1","lat":35.78844,"lon":139.25093},{"name":"駒木町１丁目運動広場","province":"東京都","city":"青梅市","address":"東京都青梅市駒木町1丁目9-1","lat":35.78188,"lon":139.25197},{"name":"青梅市文化交流センター","province":"東京都","city":"青梅市","address":"東京都青梅市上町374","lat":35.79019,"lon":139.25482},{"name":"青梅市立第七中学校体育館","province":"東京都","city":"青梅市","address":"東京都青梅市成木4丁目544-2","lat":35.8227,"lon":139.2612},{"name":"青梅市立第一小学校体育館","province":"東京都","city":"青梅市","address":"東京都青梅市本町223","lat":35.7883,"lon":139.2616},{"name":"青梅市立第一小学校グラウンド","province":"東京都","city":"青梅市","address":"東京都青梅市本町223","lat":35.79102,"lon":139.25849},{"name":"青梅市立第七中学校グラウンド","province":"東京都","city":"青梅市","address":"東京都青梅市成木4丁目544-2","lat":35.82612,"lon":139.25837},{"name":"黒沢中央運動広場","province":"東京都","city":"青梅市","address":"東京都青梅市黒沢2丁目991-1","lat":35.81243,"lon":139.25898},{"name":"永山公園グラウンド","province":"東京都","city":"青梅市","address":"東京都青梅市本町217","lat":35.79214,"lon":139.26003},{"name":"青梅市立成木小学校体育館","province":"東京都","city":"青梅市","address":"東京都青梅市成木3丁目423-1","lat":35.82907,"lon":139.26053},{"name":"青梅市立成木小学校グラウンド","province":"東京都","city":"青梅市","address":"東京都青梅市成木3丁目423-1","lat":35.8286,"lon":139.26059},{"name":"長淵市民センター","province":"東京都","city":"青梅市","address":"東京都青梅市長淵6丁目492-1","lat":35.7772,"lon":139.2718},{"name":"都立青梅総合高校（体育館、グラウンド）","province":"東京都","city":"青梅市","address":"東京都青梅市勝沼1-60","lat":35.78819,"lon":139.27037},{"name":"青梅市立第二小学校体育館","province":"東京都","city":"青梅市","address":"東京都青梅市長淵4丁目437","lat":35.7777,"lon":139.2739},{"name":"青梅市立第二小学校グラウンド","province":"東京都","city":"青梅市","address":"東京都青梅市長淵4丁目437","lat":35.7802,"lon":139.2711},{"name":"青梅市立第四小学校グラウンド","province":"東京都","city":"青梅市","address":"東京都青梅市東青梅6丁目1-1","lat":35.79376,"lon":139.27161},{"name":"青梅市立第四小学校体育館","province":"東京都","city":"青梅市","address":"東京都青梅市東青梅6丁目1-1","lat":35.7909,"lon":139.2751},{"name":"青梅市立第二中学校体育館","province":"東京都","city":"青梅市","address":"東京都青梅市千ヶ瀬町2丁目155","lat":35.7825,"lon":139.2776},{"name":"青梅市立第二中学校グラウンド","province":"東京都","city":"青梅市","address":"東京都青梅市千ヶ瀬町2丁目155","lat":35.78576,"lon":139.27445},{"name":"青梅市立第七小学校体育館","province":"東京都","city":"青梅市","address":"東京都青梅市小曾木3丁目1880-1","lat":35.8166,"lon":139.2782},{"name":"小曾木市民センター","province":"東京都","city":"青梅市","address":"東京都青梅市小曾木3丁目1656-1","lat":35.8148,"lon":139.2783},{"name":"青梅市立第七小学校グラウンド","province":"東京都","city":"青梅市","address":"東京都青梅市小曾木3丁目1880-1","lat":35.81951,"lon":139.27522},{"name":"青梅市役所（庁舎・駐車場）","province":"東京都","city":"青梅市","address":"東京都青梅市東青梅1-11-1","lat":35.78776,"lon":139.27566},{"name":"青梅市立第六中学校グラウンド","province":"東京都","city":"青梅市","address":"東京都青梅市小曾木4丁目2040","lat":35.82141,"lon":139.2764},{"name":"青梅市立第六中学校体育館","province":"東京都","city":"青梅市","address":"東京都青梅市小曾木4丁目2040","lat":35.8185,"lon":139.2796},{"name":"東青梅市民センター","province":"東京都","city":"青梅市","address":"東京都青梅市師岡町3丁目9-6","lat":35.7874,"lon":139.2856},{"name":"青梅市立吹上小学校体育館","province":"東京都","city":"青梅市","address":"東京都青梅市吹上176-1","lat":35.7939,"lon":139.2858},{"name":"青梅市立吹上中学校体育館","province":"東京都","city":"青梅市","address":"東京都青梅市吹上1","lat":35.7978,"lon":139.286},{"name":"青梅市立吹上小学校グラウンド","province":"東京都","city":"青梅市","address":"東京都青梅市吹上176-1","lat":35.79681,"lon":139.28293},{"name":"青梅市立霞台中学校グラウンド","province":"東京都","city":"青梅市","address":"東京都青梅市師岡町4丁目6-1","lat":35.78731,"lon":139.28317},{"name":"青梅市立霞台中学校体育館","province":"東京都","city":"青梅市","address":"東京都青梅市師岡町4丁目6-1","lat":35.7835,"lon":139.2864},{"name":"青梅市立吹上中学校グラウンド","province":"東京都","city":"青梅市","address":"東京都青梅市吹上1","lat":35.80035,"lon":139.28331},{"name":"河辺町南自治会館","province":"東京都","city":"青梅市","address":"東京都青梅市河辺町2丁目1026","lat":35.7764,"lon":139.287},{"name":"住友金属鉱山アリーナ青梅","province":"東京都","city":"青梅市","address":"東京都青梅市河辺町4丁目16-1","lat":35.7775,"lon":139.2876},{"name":"青梅市立友田小学校体育館","province":"東京都","city":"青梅市","address":"東京都青梅市友田町5丁目332","lat":35.7709,"lon":139.2879},{"name":"青梅市立友田小学校グラウンド","province":"東京都","city":"青梅市","address":"東京都青梅市友田町5丁目332","lat":35.77438,"lon":139.28553},{"name":"青梅市立河辺小学校グラウンド","province":"東京都","city":"青梅市","address":"東京都青梅市河辺町5丁目24","lat":35.78172,"lon":139.28771},{"name":"青梅市立河辺小学校体育館","province":"東京都","city":"青梅市","address":"東京都青梅市河辺町5丁目24","lat":35.7785,"lon":139.2909},{"name":"小曾木２丁目運動広場","province":"東京都","city":"青梅市","address":"東京都青梅市小曾木2丁目633","lat":35.81913,"lon":139.28972},{"name":"大門市民センター","province":"東京都","city":"青梅市","address":"東京都青梅市大門2丁目288","lat":35.7936,"lon":139.2944},{"name":"青梅市立第三中学校体育館","province":"東京都","city":"青梅市","address":"東京都青梅市大門2丁目301","lat":35.7941,"lon":139.2955},{"name":"青梅市立第三中学校グラウンド","province":"東京都","city":"青梅市","address":"東京都青梅市大門2丁目301","lat":35.79704,"lon":139.2928},{"name":"富岡３丁目運動広場","province":"東京都","city":"青梅市","address":"東京都青梅市富岡3丁目1168","lat":35.820806,"lon":139.29313},{"name":"青梅市立若草小学校体育館","province":"東京都","city":"青梅市","address":"東京都青梅市新町1丁目15-1","lat":35.783,"lon":139.2968},{"name":"河辺市民センター","province":"東京都","city":"青梅市","address":"東京都青梅市河辺町6丁目18-1","lat":35.7753,"lon":139.2969},{"name":"青梅市立第三小学校体育館","province":"東京都","city":"青梅市","address":"東京都青梅市大門2丁目317","lat":35.7953,"lon":139.297},{"name":"青梅市立第三小学校グラウンド","province":"東京都","city":"青梅市","address":"東京都青梅市大門2丁目317","lat":35.79812,"lon":139.29421},{"name":"青梅市立霞台小学校体育館","province":"東京都","city":"青梅市","address":"東京都青梅市新町1丁目35-1","lat":35.7868,"lon":139.2975},{"name":"青梅市立霞台小学校グラウンド","province":"東京都","city":"青梅市","address":"東京都青梅市新町1丁目35-1","lat":35.7895,"lon":139.29443},{"name":"青梅市立若草小学校グラウンド","province":"東京都","city":"青梅市","address":"東京都青梅市新町1丁目15-1","lat":35.78637,"lon":139.29452},{"name":"青梅市立泉中学校体育館","province":"東京都","city":"青梅市","address":"東京都青梅市新町1丁目37","lat":35.7865,"lon":139.2992},{"name":"青梅市立泉中学校グラウンド","province":"東京都","city":"青梅市","address":"東京都青梅市新町1丁目37","lat":35.78971,"lon":139.296},{"name":"わかぐさ公園","province":"東京都","city":"青梅市","address":"東京都青梅市河辺町8丁目14-3","lat":35.78342,"lon":139.2966},{"name":"東原公園球技場","province":"東京都","city":"青梅市","address":"東京都青梅市今寺5丁目11","lat":35.7905,"lon":139.305},{"name":"都立誠明学園グラウンド","province":"東京都","city":"青梅市","address":"東京都青梅市新町3-72-1","lat":35.781,"lon":139.30438},{"name":"新町市民センター","province":"東京都","city":"青梅市","address":"東京都青梅市新町4丁目17-1","lat":35.7828,"lon":139.3084},{"name":"青梅市立新町中学校体育館","province":"東京都","city":"青梅市","address":"東京都青梅市新町5丁目20-1","lat":35.789067,"lon":139.306076},{"name":"青梅市立新町中学校グラウンド","province":"東京都","city":"青梅市","address":"東京都青梅市新町5丁目20-1","lat":35.789067,"lon":139.306076},{"name":"青梅市立藤橋小学校体育館","province":"東京都","city":"青梅市","address":"東京都青梅市藤橋3丁目13-1","lat":35.7946,"lon":139.3095},{"name":"青梅市立藤橋小学校グラウンド","province":"東京都","city":"青梅市","address":"東京都青梅市藤橋3丁目13-1","lat":35.79766,"lon":139.30671},{"name":"青梅市立今井小学校体育館","province":"東京都","city":"青梅市","address":"東京都青梅市今井2丁目947-1","lat":35.8043,"lon":139.31},{"name":"青梅市立今井小学校グラウンド","province":"東京都","city":"青梅市","address":"東京都青梅市今井2丁目947-1","lat":35.80707,"lon":139.30705},{"name":"青梅市立新町小学校グラウンド","province":"東京都","city":"青梅市","address":"東京都青梅市新町5丁目21-1","lat":35.78836,"lon":139.30755},{"name":"青梅市立新町小学校体育館","province":"東京都","city":"青梅市","address":"東京都青梅市新町5丁目21-1","lat":35.7856,"lon":139.3108},{"name":"都農林総合研究センター青梅庁舎（グラウンド）","province":"東京都","city":"青梅市","address":"東京都青梅市新町6-7-1","lat":35.79175,"lon":139.31029},{"name":"今井市民センター","province":"東京都","city":"青梅市","address":"東京都青梅市今井2丁目908-1","lat":35.8033,"lon":139.3142},{"name":"新田山公園","province":"東京都","city":"青梅市","address":"東京都青梅市新町7丁目33","lat":35.7834,"lon":139.3177},{"name":"自立センター","province":"東京都","city":"青梅市","address":"東京都青梅市今井5丁目2434-2","lat":35.7902,"lon":139.3316},{"name":"青梅市","province":"東京都","city":"青梅市","address":"青梅市東青梅1-11-1","lat":35.7878569,"lon":139.2758353},{"name":"軍畑園地","province":"東京都","city":"青梅市","address":"東京都青梅市柚木町2丁目","lat":35.804419,"lon":139.211754},{"name":"御岳丸山園地","province":"東京都","city":"青梅市","address":"東京都青梅市御岳山","lat":35.784061,"lon":139.150989},{"name":"御岳渓谷","province":"東京都","city":"青梅市","address":"東京都青梅市沢井3丁目","lat":35.805331,"lon":139.187804},{"name":"御岳渓谷園地","province":"東京都","city":"青梅市","address":"東京都青梅市御岳本町","lat":35.801307,"lon":139.184876},{"name":"御岳射山渓駐車場","province":"東京都","city":"青梅市","address":"東京都青梅市柚木町3丁目","lat":35.802681,"lon":139.195699},{"name":"御岳平園地","province":"東京都","city":"青梅市","address":"東京都青梅市御岳山","lat":35.790007,"lon":139.152976},{"name":"丹縄園地","province":"東京都","city":"青梅市","address":"東京都青梅市御岳2丁目","lat":35.805966,"lon":139.176097},{"name":"御岳ビジターセンター","province":"東京都","city":"青梅市","address":"東京都青梅市御岳山38-5","lat":35.78675,"lon":139.150582},{"name":"東京都西多摩保健所","province":"東京都","city":"青梅市","address":"東京都青梅市東青梅1丁目167-15","lat":35.787716,"lon":139.27145},{"name":"東京都青梅合同庁舎","province":"東京都","city":"青梅市","address":"東京都青梅市河辺町6丁目4-1","lat":35.779982,"lon":139.289651},{"name":"東京都青梅合同庁舎","province":"東京都","city":"青梅市","address":"東京都青梅市河辺町6丁目4-1","lat":35.779972,"lon":139.289675},{"name":"青梅サービスステーション","province":"東京都","city":"青梅市","address":"東京都青梅市師岡町1丁目1301-10","lat":35.792569,"lon":139.277224},{"name":"青梅市健康センター","province":"東京都","city":"青梅市","address":"東京都青梅市東青梅1丁目174-1","lat":35.787704,"lon":139.273322},{"name":"青梅市役所","province":"東京都","city":"青梅市","address":"東京都青梅市東青梅1丁目11-1","lat":35.78774,"lon":139.275435},{"name":"青梅市役所","province":"東京都","city":"青梅市","address":"東京都青梅市東青梅1丁目11-1","lat":35.78805,"lon":139.275487},{"name":"青梅市役所","province":"東京都","city":"青梅市","address":"東京都青梅市東青梅1丁目11-1","lat":35.78769,"lon":139.275769},{"name":"青梅図書館","province":"東京都","city":"青梅市","address":"東京都青梅市仲町268-9","lat":35.791136,"lon":139.256646},{"name":"青梅市長淵市民センター","province":"東京都","city":"青梅市","address":"東京都青梅市長淵6丁目492-1","lat":35.780438,"lon":139.268494},{"name":"青梅市大門市民センター","province":"東京都","city":"青梅市","address":"東京都青梅市大門2丁目288","lat":35.79682,"lon":139.291215},{"name":"青梅市沢井市民センター","province":"東京都","city":"青梅市","address":"東京都青梅市沢井2丁目682","lat":35.804706,"lon":139.196294},{"name":"青梅市成木市民センター","province":"東京都","city":"青梅市","address":"東京都青梅市成木4丁目644","lat":35.824075,"lon":139.248524},{"name":"青梅市東青梅市民センター","province":"東京都","city":"青梅市","address":"東京都青梅市師岡町3丁目9-6","lat":35.790692,"lon":139.282318},{"name":"青梅市新町市民センター","province":"東京都","city":"青梅市","address":"東京都青梅市新町4丁目17-1","lat":35.785987,"lon":139.305157},{"name":"青梅市河辺市民センター","province":"東京都","city":"青梅市","address":"東京都青梅市河辺町6丁目18-1","lat":35.778477,"lon":139.293653},{"name":"青梅市今井市民センター","province":"東京都","city":"青梅市","address":"東京都青梅市今井2丁目908-1","lat":35.806537,"lon":139.310886},{"name":"青梅市吉川英治記念館","province":"東京都","city":"青梅市","address":"東京都青梅市柚木町1丁目101-1","lat":35.79633,"lon":139.212881},{"name":"青梅市健康センター","province":"東京都","city":"青梅市","address":"東京都青梅市東青梅1丁目174-1","lat":35.78768,"lon":139.273271},{"name":"青梅市福祉センター","province":"東京都","city":"青梅市","address":"東京都青梅市東青梅1丁目177-3","lat":35.78741,"lon":139.274074},{"name":"青梅市子育て支援センター","province":"東京都","city":"青梅市","address":"東京都青梅市新町2丁目21-9","lat":35.788284,"lon":139.302211},{"name":"S＆Dたまぐーセンター（青梅市文化交流センター）","province":"東京都","city":"青梅市","address":"東京都青梅市上町374","lat":35.790212,"lon":139.254873},{"name":"青梅市御岳交流センター","province":"東京都","city":"青梅市","address":"東京都青梅市御岳本町362-8","lat":35.801451,"lon":139.184586},{"name":"青梅市中央図書館","province":"東京都","city":"青梅市","address":"東京都青梅市河辺町10丁目8-1","lat":35.785465,"lon":139.284962},{"name":"青梅市中央図書館","province":"東京都","city":"青梅市","address":"東京都青梅市河辺町10丁目8-1","lat":35.785489,"lon":139.284943},{"name":"青梅市立美術館","province":"東京都","city":"青梅市","address":"東京都青梅市滝ノ上町1346-1","lat":35.787614,"lon":139.255873},{"name":"住友金属鉱山アリーナ青梅（青梅市総合体育館）","province":"東京都","city":"青梅市","address":"東京都青梅市河辺町4丁目16-1","lat":35.780782,"lon":139.284745},{"name":"青梅市民斎場","province":"東京都","city":"青梅市","address":"東京都青梅市長淵5丁目698-2","lat":35.772368,"lon":139.262981},{"name":"青梅市青梅市民センター天ケ瀬体育館","province":"東京都","city":"青梅市","address":"東京都青梅市天ヶ瀬町1111-1","lat":35.789187,"lon":139.250654},{"name":"永山公園","province":"東京都","city":"青梅市","address":"東京都青梅市本町","lat":35.791453,"lon":139.260213},{"name":"釜の淵公園大柳駐車場","province":"東京都","city":"青梅市","address":"東京都青梅市大柳町","lat":35.785637,"lon":139.253232},{"name":"早道公園","province":"東京都","city":"青梅市","address":"東京都青梅市東青梅5丁目17","lat":35.789971,"lon":139.280184},{"name":"わかぐさ公園","province":"東京都","city":"青梅市","address":"東京都青梅市河辺町8丁目14","lat":35.783264,"lon":139.295897},{"name":"吹上しょうぶ公園","province":"東京都","city":"青梅市","address":"東京都青梅市吹上","lat":35.797394,"lon":139.276045},{"name":"富士塚公園","province":"東京都","city":"青梅市","address":"東京都青梅市新町5丁目22","lat":35.789516,"lon":139.307604},{"name":"新田山公園","province":"東京都","city":"青梅市","address":"東京都青梅市新町7丁目33","lat":35.786312,"lon":139.314355},{"name":"新田山公園","province":"東京都","city":"青梅市","address":"東京都青梅市新町7丁目33","lat":35.786935,"lon":139.31267},{"name":"沢井駅前広場","province":"東京都","city":"青梅市","address":"東京都青梅市沢井2丁目","lat":35.805641,"lon":139.194182},{"name":"御岳苑地駐車場","province":"東京都","city":"青梅市","address":"東京都青梅市御岳1丁目","lat":35.798964,"lon":139.177744},{"name":"寺改戸公園","province":"東京都","city":"青梅市","address":"東京都青梅市長淵3丁目","lat":35.780987,"lon":139.275158},{"name":"畑中戸田山公園","province":"東京都","city":"青梅市","address":"東京都青梅市畑中3丁目","lat":35.779212,"lon":139.237305},{"name":"上開戸公園","province":"東京都","city":"青梅市","address":"東京都青梅市大門1丁目","lat":35.800961,"lon":139.286326},{"name":"梅の公園","province":"東京都","city":"青梅市","address":"東京都青梅市梅郷4丁目","lat":35.786315,"lon":139.218732},{"name":"梅の公園","province":"東京都","city":"青梅市","address":"東京都青梅市梅郷2丁目","lat":35.7849,"lon":139.221137},{"name":"今井ふれあい公園","province":"東京都","city":"青梅市","address":"東京都青梅市今井2丁目","lat":35.806944,"lon":139.308784},{"name":"花木園","province":"東京都","city":"青梅市","address":"東京都青梅市小曾木4丁目","lat":35.818034,"lon":139.284252},{"name":"梅郷１・２丁目運動広場","province":"東京都","city":"青梅市","address":"東京都青梅市梅郷1丁目","lat":35.783223,"lon":139.223786},{"name":"青梅駅前公衆便所","province":"東京都","city":"青梅市","address":"東京都青梅市本町","lat":35.790268,"lon":139.258815},{"name":"東青梅駅南口公衆便所","province":"東京都","city":"青梅市","address":"東京都青梅市東青梅1丁目9","lat":35.790096,"lon":139.271865},{"name":"東青梅駅北口公衆便所","province":"東京都","city":"青梅市","address":"東京都青梅市東青梅2丁目14-9","lat":35.789972,"lon":139.272971},{"name":"河辺駅南口公衆便所","province":"東京都","city":"青梅市","address":"東京都青梅市河辺町5丁目29","lat":35.784241,"lon":139.28478},{"name":"河辺駅北口公衆便所","province":"東京都","city":"青梅市","address":"東京都青梅市河辺町10丁目18","lat":35.78465,"lon":139.284839},{"name":"長淵３丁目水泳場脇","province":"東京都","city":"青梅市","address":"東京都青梅市長淵3丁目","lat":35.7799,"lon":139.277735},{"name":"青梅市火葬場","province":"東京都","city":"青梅市","address":"東京都青梅市長淵5丁目743","lat":35.772696,"lon":139.262383},{"name":"梅の里駐車場","province":"東京都","city":"青梅市","address":"東京都青梅市柚木町1丁目","lat":35.796215,"lon":139.214148},{"name":"青梅柚木苑地駐車場","province":"東京都","city":"青梅市","address":"東京都青梅市柚木町3丁目","lat":35.802944,"lon":139.207536},{"name":"河辺駅北口自転車等駐車場","province":"東京都","city":"青梅市","address":"東京都青梅市河辺町5丁目29-39","lat":35.78495746,"lon":139.28394548},{"name":"河辺駅南口自転車等駐車場","province":"東京都","city":"青梅市","address":"東京都青梅市河辺町5丁目29-40","lat":35.78390762,"lon":139.28538428},{"name":"青梅駅自転車等駐車場","province":"東京都","city":"青梅市","address":"東京都青梅市本町163-11","lat":35.79005612,"lon":139.25916734},{"name":"東青梅駅北口自転車等駐車場","province":"東京都","city":"青梅市","address":"東京都青梅市東青梅2丁目14-9","lat":35.78988713,"lon":139.27302133},{"name":"東青梅駅南口自転車等駐車場","province":"東京都","city":"青梅市","address":"東京都青梅市東青梅1丁目6-8","lat":35.7889039,"lon":139.27222421},{"name":"青梅市役所前第一","province":"東京都","city":"青梅市","address":"東京都青梅市東青梅1丁目11-1","lat":35.78785689,"lon":139.27583503},{"name":"青梅末広町二丁目西","province":"東京都","city":"青梅市","address":"東京都青梅市末広町2丁目2-8","lat":35.77942258,"lon":139.30691877},{"name":"千ヶ瀬二丁目","province":"東京都","city":"青梅市","address":"東京都青梅市千ヶ瀬町2丁目243","lat":35.78593481,"lon":139.27255762},{"name":"河辺小学校南","province":"東京都","city":"青梅市","address":"東京都青梅市河辺町6丁目2","lat":35.7806081,"lon":139.28894797},{"name":"河辺駅北口","province":"東京都","city":"青梅市","address":"東京都青梅市河辺町10丁目7","lat":35.78578519,"lon":139.28627025},{"name":"わかぐさ公園前","province":"東京都","city":"青梅市","address":"東京都青梅市河辺町7丁目14-2","lat":35.78147483,"lon":139.29581681},{"name":"小作駅北","province":"東京都","city":"青梅市","address":"東京都青梅市新町3丁目2","lat":35.77804486,"lon":139.30261082},{"name":"みち境","province":"東京都","city":"青梅市","address":"東京都青梅市根ヶ布2丁目722","lat":35.8065628,"lon":139.2666466},{"name":"青梅合同庁舎前","province":"東京都","city":"青梅市","address":"東京都青梅市河辺町6丁目4-1","lat":35.77999986,"lon":139.28959793},{"name":"永山公園入口","province":"東京都","city":"青梅市","address":"東京都青梅市住江町55","lat":35.78902572,"lon":139.26029501},{"name":"青梅坂トンネル","province":"東京都","city":"青梅市","address":"東京都青梅市","lat":35.78799021,"lon":139.27579057},{"name":"吹上トンネル","province":"東京都","city":"青梅市","address":"東京都青梅市","lat":35.78799021,"lon":139.27579057},{"name":"西多摩保健所","province":"東京都","city":"青梅市","address":"東京都青梅市東青梅5丁目19-6","lat":35.78983461,"lon":139.28217046},{"name":"青梅市本庁舎","province":"東京都","city":"青梅市","address":"東京都青梅市東青梅1丁目11-1","lat":35.78785689,"lon":139.27583503},{"name":"青梅市民球技場","province":"東京都","city":"青梅市","address":"東京都青梅市河辺町1丁目872-1","lat":35.77784173,"lon":139.28723709},{"name":"青梅市立第六小学校","province":"東京都","city":"青梅市","address":"東京都青梅市二俣尾3丁目903-1","lat":35.80159313,"lon":139.2168608},{"name":"明星大学グラウンド","province":"東京都","city":"青梅市","address":"東京都青梅市長淵2丁目590","lat":35.77275567,"lon":139.26727244},{"name":"青梅市本庁舎","province":"東京都","city":"青梅市","address":"青梅市東青梅1-11-1","lat":35.787857,"lon":139.275835},{"name":"西多摩建設事務所","province":"東京都","city":"青梅市","address":"青梅市東青梅3-20-1","lat":35.7909,"lon":139.2776},{"name":"第九方面交通機動隊青梅分駐所","province":"東京都","city":"青梅市","address":"青梅市野上町4-6-3","lat":35.787391,"lon":139.289092},{"name":"青梅警察署","province":"東京都","city":"青梅市","address":"青梅市野上町4-6-3","lat":35.787391,"lon":139.289092},{"name":"青梅消防署","province":"東京都","city":"青梅市","address":"青梅市師岡町3-2-5","lat":35.78895,"lon":139.2836},{"name":"青梅市市民球技場（野球場）","province":"東京都","city":"青梅市","address":"青梅市河辺町1丁目地先","lat":35.77862,"lon":139.2878},{"name":"青梅市民球技場","province":"東京都","city":"青梅市","address":"青梅市河辺町1-872-1","lat":35.77784,"lon":139.2872},{"name":"青梅市立総合病院ヘリポート","province":"東京都","city":"青梅市","address":"青梅市東青梅4-16-5","lat":35.782547,"lon":139.281268},{"name":"※青梅市本庁舎","province":"東京都","city":"青梅市","address":"東京都青梅市東青梅1丁目11-1","lat":35.78785689,"lon":139.27583503},{"name":"青梅駅","province":"東京都","city":"青梅市","address":"東京都青梅市本町192","lat":35.79023939,"lon":139.2576703},{"name":"武蔵御嶽神社","province":"東京都","city":"青梅市","address":"東京都青梅市御岳山176","lat":35.78288,"lon":139.14994},{"name":"御岳２丁目神路橋トイレ","province":"東京都","city":"青梅市","address":"東京都青梅市御岳2-271","lat":35.80155,"lon":139.17563},{"name":"御岳苑地駐車場","province":"東京都","city":"青梅市","address":"東京都青梅市御岳1-190-3","lat":35.7991,"lon":139.17757},{"name":"玉堂美術館","province":"東京都","city":"青梅市","address":"東京都青梅市御岳1-75","lat":35.80016,"lon":139.18411},{"name":"御岳交流センター","province":"東京都","city":"青梅市","address":"東京都青梅市御岳本町362-8","lat":35.80144,"lon":139.18451},{"name":"御岳１丁目駐車場","province":"東京都","city":"青梅市","address":"東京都青梅市御岳1-3-4","lat":35.79967,"lon":139.18515},{"name":"沢井３丁目御岳渓谷遊歩道トイレ","province":"東京都","city":"青梅市","address":"東京都青梅市沢井3-491-1","lat":35.80529,"lon":139.1878},{"name":"小澤酒造","province":"東京都","city":"青梅市","address":"東京都青梅市沢井2-770","lat":35.80497,"lon":139.19365},{"name":"櫛かんざし美術館","province":"東京都","city":"青梅市","address":"東京都青梅市柚木町3-764-1","lat":35.80343,"lon":139.1968},{"name":"二俣尾５丁目高源寺前トイレ","province":"東京都","city":"青梅市","address":"東京都青梅市二俣尾5-1610","lat":35.81817,"lon":139.20231},{"name":"柚木苑地駐車場トイレ","province":"東京都","city":"青梅市","address":"東京都青梅市柚木町3-643","lat":35.80294,"lon":139.20743},{"name":"柚木苑地駐車場","province":"東京都","city":"青梅市","address":"東京都青梅市柚木町3-643","lat":35.80308,"lon":139.20771},{"name":"木原梅園","province":"東京都","city":"青梅市","address":"東京都青梅市梅郷4-642-3他","lat":35.78848,"lon":139.21897},{"name":"中道梅園","province":"東京都","city":"青梅市","address":"東京都青梅市梅郷4-658-5","lat":35.78906,"lon":139.22007},{"name":"梅郷４丁目駐車場","province":"東京都","city":"青梅市","address":"東京都青梅市梅郷4-680-3","lat":35.78969,"lon":139.22076},{"name":"昭和レトロ商品博物館","province":"東京都","city":"青梅市","address":"東京都青梅市住江町65","lat":35.78863,"lon":139.26046},{"name":"青梅鉄道公園","province":"東京都","city":"青梅市","address":"東京都青梅市勝沼2-155","lat":35.79232,"lon":139.26324},{"name":"塩船観音寺","province":"東京都","city":"青梅市","address":"東京都青梅市塩船194","lat":35.8047,"lon":139.28046},{"name":"儘多屋","province":"東京都","city":"青梅市","address":"東京都青梅市小曾木5-3140","lat":35.825835,"lon":139.28978},{"name":"御岳山ふれあいセンター","province":"東京都","city":"青梅市","address":"東京都青梅市御岳山38-2","lat":35.7837,"lon":139.1539},{"name":"御岳本町児童遊園","province":"東京都","city":"青梅市","address":"東京都青梅市御岳本町167-1","lat":35.80068,"lon":139.17806},{"name":"御岳本町運動広場","province":"東京都","city":"青梅市","address":"東京都青梅市御岳本町224-3","lat":35.80185,"lon":139.17898},{"name":"御岳運動広場","province":"東京都","city":"青梅市","address":"東京都青梅市御岳1丁目115","lat":35.79908,"lon":139.18157},{"name":"沢井市民センターグラウンド","province":"東京都","city":"青梅市","address":"東京都青梅市沢井2丁目682","lat":35.80406,"lon":139.19524},{"name":"沢井市民センター多目的室","province":"東京都","city":"青梅市","address":"東京都青梅市沢井2丁目727-1","lat":35.8009,"lon":139.199},{"name":"青梅柚木苑地駐車場（駐車場）","province":"東京都","city":"青梅市","address":"東京都青梅市柚木町3-643","lat":35.80301,"lon":139.20749},{"name":"二俣尾５丁目第２運動広場","province":"東京都","city":"青梅市","address":"東京都青梅市二俣尾5丁目164","lat":35.81343,"lon":139.20793},{"name":"旧上成木ふれあいセンター（グラウンド）","province":"東京都","city":"青梅市","address":"東京都青梅市成木7-902","lat":35.83598,"lon":139.20924},{"name":"柚木町運動広場","province":"東京都","city":"青梅市","address":"東京都青梅市柚木町2丁目313-1","lat":35.799107,"lon":139.211953},{"name":"青梅市立第六小学校グラウンド","province":"東京都","city":"青梅市","address":"東京都青梅市二俣尾3丁目903-1","lat":35.80203,"lon":139.21651},{"name":"青梅市立第六小学校体育館","province":"東京都","city":"青梅市","address":"東京都青梅市二俣尾3丁目903-1","lat":35.7984,"lon":139.2201},{"name":"青梅市立西中学校体育館","province":"東京都","city":"青梅市","address":"東京都青梅市梅郷6丁目1460-1","lat":35.7915,"lon":139.2231},{"name":"青梅市立西中学校グラウンド","province":"東京都","city":"青梅市","address":"東京都青梅市梅郷6丁目1460-1","lat":35.79498,"lon":139.2208},{"name":"青梅市立第五小学校体育館","province":"東京都","city":"青梅市","address":"東京都青梅市梅郷3丁目765-1","lat":35.7843,"lon":139.2273},{"name":"梅郷市民センター","province":"東京都","city":"青梅市","address":"東京都青梅市梅郷3丁目749-1","lat":35.7834,"lon":139.2275},{"name":"青梅市立第五小学校グラウンド","province":"東京都","city":"青梅市","address":"東京都青梅市梅郷3丁目765-1","lat":35.78775,"lon":139.22521},{"name":"和田町運動広場","province":"東京都","city":"青梅市","address":"東京都青梅市和田町2丁目422-1","lat":35.77974,"lon":139.22938},{"name":"旧北小曾木ふれあいセンター（グラウンド）","province":"東京都","city":"青梅市","address":"東京都青梅市成木8-676","lat":35.8219,"lon":139.22938},{"name":"日向和田２丁目児童遊園","province":"東京都","city":"青梅市","address":"東京都青梅市日向和田2丁目374-7","lat":35.78507,"lon":139.23547},{"name":"畑中保育園","province":"東京都","city":"青梅市","address":"東京都青梅市畑中2丁目593","lat":35.78,"lon":139.2442},{"name":"青梅市立第一中学校グラウンド","province":"東京都","city":"青梅市","address":"東京都青梅市裏宿町615","lat":35.78937,"lon":139.24472},{"name":"青梅市立第一中学校体育館","province":"東京都","city":"青梅市","address":"東京都青梅市裏宿町615","lat":35.7862,"lon":139.2489},{"name":"成木市民センター","province":"東京都","city":"青梅市","address":"東京都青梅市成木4丁目644","lat":35.821,"lon":139.2517},{"name":"天ヶ瀬体育館","province":"東京都","city":"青梅市","address":"東京都青梅市天ヶ瀬町1111-1","lat":35.789198,"lon":139.250633},{"name":"天ヶ瀬運動広場","province":"東京都","city":"青梅市","address":"東京都青梅市天ヶ瀬町1111-1","lat":35.78844,"lon":139.25093},{"name":"駒木町１丁目運動広場","province":"東京都","city":"青梅市","address":"東京都青梅市駒木町1丁目9-1","lat":35.78188,"lon":139.25197},{"name":"青梅市文化交流センター","province":"東京都","city":"青梅市","address":"東京都青梅市上町374","lat":35.79019,"lon":139.25482},{"name":"青梅市立第七中学校体育館","province":"東京都","city":"青梅市","address":"東京都青梅市成木4丁目544-2","lat":35.8227,"lon":139.2612},{"name":"青梅市立第一小学校体育館","province":"東京都","city":"青梅市","address":"東京都青梅市本町223","lat":35.7883,"lon":139.2616},{"name":"青梅市立第一小学校グラウンド","province":"東京都","city":"青梅市","address":"東京都青梅市本町223","lat":35.79102,"lon":139.25849},{"name":"青梅市立第七中学校グラウンド","province":"東京都","city":"青梅市","address":"東京都青梅市成木4丁目544-2","lat":35.82612,"lon":139.25837},{"name":"黒沢中央運動広場","province":"東京都","city":"青梅市","address":"東京都青梅市黒沢2丁目991-1","lat":35.81243,"lon":139.25898},{"name":"永山公園グラウンド","province":"東京都","city":"青梅市","address":"東京都青梅市本町217","lat":35.79214,"lon":139.26003},{"name":"青梅市立成木小学校体育館","province":"東京都","city":"青梅市","address":"東京都青梅市成木3丁目423-1","lat":35.82907,"lon":139.26053},{"name":"青梅市立成木小学校グラウンド","province":"東京都","city":"青梅市","address":"東京都青梅市成木3丁目423-1","lat":35.8286,"lon":139.26059},{"name":"長淵市民センター","province":"東京都","city":"青梅市","address":"東京都青梅市長淵6丁目492-1","lat":35.7772,"lon":139.2718},{"name":"都立青梅総合高校（体育館、グラウンド）","province":"東京都","city":"青梅市","address":"東京都青梅市勝沼1-60","lat":35.78819,"lon":139.27037},{"name":"青梅市立第二小学校体育館","province":"東京都","city":"青梅市","address":"東京都青梅市長淵4丁目437","lat":35.7777,"lon":139.2739},{"name":"青梅市立第二小学校グラウンド","province":"東京都","city":"青梅市","address":"東京都青梅市長淵4丁目437","lat":35.7802,"lon":139.2711},{"name":"青梅市立第四小学校グラウンド","province":"東京都","city":"青梅市","address":"東京都青梅市東青梅6丁目1-1","lat":35.79376,"lon":139.27161},{"name":"青梅市立第四小学校体育館","province":"東京都","city":"青梅市","address":"東京都青梅市東青梅6丁目1-1","lat":35.7909,"lon":139.2751},{"name":"青梅市立第二中学校体育館","province":"東京都","city":"青梅市","address":"東京都青梅市千ヶ瀬町2丁目155","lat":35.7825,"lon":139.2776},{"name":"青梅市立第二中学校グラウンド","province":"東京都","city":"青梅市","address":"東京都青梅市千ヶ瀬町2丁目155","lat":35.78576,"lon":139.27445},{"name":"青梅市立第七小学校体育館","province":"東京都","city":"青梅市","address":"東京都青梅市小曾木3丁目1880-1","lat":35.8166,"lon":139.2782},{"name":"小曾木市民センター","province":"東京都","city":"青梅市","address":"東京都青梅市小曾木3丁目1656-1","lat":35.8148,"lon":139.2783},{"name":"青梅市立第七小学校グラウンド","province":"東京都","city":"青梅市","address":"東京都青梅市小曾木3丁目1880-1","lat":35.81951,"lon":139.27522},{"name":"青梅市役所（庁舎・駐車場）","province":"東京都","city":"青梅市","address":"東京都青梅市東青梅1-11-1","lat":35.78776,"lon":139.27566},{"name":"青梅市立第六中学校グラウンド","province":"東京都","city":"青梅市","address":"東京都青梅市小曾木4丁目2040","lat":35.82141,"lon":139.2764},{"name":"青梅市立第六中学校体育館","province":"東京都","city":"青梅市","address":"東京都青梅市小曾木4丁目2040","lat":35.8185,"lon":139.2796},{"name":"東青梅市民センター","province":"東京都","city":"青梅市","address":"東京都青梅市師岡町3丁目9-6","lat":35.7874,"lon":139.2856},{"name":"青梅市立吹上小学校体育館","province":"東京都","city":"青梅市","address":"東京都青梅市吹上176-1","lat":35.7939,"lon":139.2858},{"name":"青梅市立吹上中学校体育館","province":"東京都","city":"青梅市","address":"東京都青梅市吹上1","lat":35.7978,"lon":139.286},{"name":"青梅市立吹上小学校グラウンド","province":"東京都","city":"青梅市","address":"東京都青梅市吹上176-1","lat":35.79681,"lon":139.28293},{"name":"青梅市立霞台中学校グラウンド","province":"東京都","city":"青梅市","address":"東京都青梅市師岡町4丁目6-1","lat":35.78731,"lon":139.28317},{"name":"青梅市立霞台中学校体育館","province":"東京都","city":"青梅市","address":"東京都青梅市師岡町4丁目6-1","lat":35.7835,"lon":139.2864},{"name":"青梅市立吹上中学校グラウンド","province":"東京都","city":"青梅市","address":"東京都青梅市吹上1","lat":35.80035,"lon":139.28331},{"name":"河辺町南自治会館","province":"東京都","city":"青梅市","address":"東京都青梅市河辺町2丁目1026","lat":35.7764,"lon":139.287},{"name":"住友金属鉱山アリーナ青梅","province":"東京都","city":"青梅市","address":"東京都青梅市河辺町4丁目16-1","lat":35.7775,"lon":139.2876},{"name":"青梅市立友田小学校体育館","province":"東京都","city":"青梅市","address":"東京都青梅市友田町5丁目332","lat":35.7709,"lon":139.2879},{"name":"青梅市立友田小学校グラウンド","province":"東京都","city":"青梅市","address":"東京都青梅市友田町5丁目332","lat":35.77438,"lon":139.28553},{"name":"青梅市立河辺小学校グラウンド","province":"東京都","city":"青梅市","address":"東京都青梅市河辺町5丁目24","lat":35.78172,"lon":139.28771},{"name":"青梅市立河辺小学校体育館","province":"東京都","city":"青梅市","address":"東京都青梅市河辺町5丁目24","lat":35.7785,"lon":139.2909},{"name":"小曾木２丁目運動広場","province":"東京都","city":"青梅市","address":"東京都青梅市小曾木2丁目633","lat":35.81913,"lon":139.28972},{"name":"大門市民センター","province":"東京都","city":"青梅市","address":"東京都青梅市大門2丁目288","lat":35.7936,"lon":139.2944},{"name":"青梅市立第三中学校体育館","province":"東京都","city":"青梅市","address":"東京都青梅市大門2丁目301","lat":35.7941,"lon":139.2955},{"name":"青梅市立第三中学校グラウンド","province":"東京都","city":"青梅市","address":"東京都青梅市大門2丁目301","lat":35.79704,"lon":139.2928},{"name":"富岡３丁目運動広場","province":"東京都","city":"青梅市","address":"東京都青梅市富岡3丁目1168","lat":35.820806,"lon":139.29313},{"name":"青梅市立若草小学校体育館","province":"東京都","city":"青梅市","address":"東京都青梅市新町1丁目15-1","lat":35.783,"lon":139.2968},{"name":"河辺市民センター","province":"東京都","city":"青梅市","address":"東京都青梅市河辺町6丁目18-1","lat":35.7753,"lon":139.2969},{"name":"青梅市立第三小学校体育館","province":"東京都","city":"青梅市","address":"東京都青梅市大門2丁目317","lat":35.7953,"lon":139.297},{"name":"青梅市立第三小学校グラウンド","province":"東京都","city":"青梅市","address":"東京都青梅市大門2丁目317","lat":35.79812,"lon":139.29421},{"name":"青梅市立霞台小学校体育館","province":"東京都","city":"青梅市","address":"東京都青梅市新町1丁目35-1","lat":35.7868,"lon":139.2975},{"name":"青梅市立霞台小学校グラウンド","province":"東京都","city":"青梅市","address":"東京都青梅市新町1丁目35-1","lat":35.7895,"lon":139.29443},{"name":"青梅市立若草小学校グラウンド","province":"東京都","city":"青梅市","address":"東京都青梅市新町1丁目15-1","lat":35.78637,"lon":139.29452},{"name":"青梅市立泉中学校体育館","province":"東京都","city":"青梅市","address":"東京都青梅市新町1丁目37","lat":35.7865,"lon":139.2992},{"name":"青梅市立泉中学校グラウンド","province":"東京都","city":"青梅市","address":"東京都青梅市新町1丁目37","lat":35.78971,"lon":139.296},{"name":"わかぐさ公園","province":"東京都","city":"青梅市","address":"東京都青梅市河辺町8丁目14-3","lat":35.78342,"lon":139.2966},{"name":"東原公園球技場","province":"東京都","city":"青梅市","address":"東京都青梅市今寺5丁目11","lat":35.7905,"lon":139.305},{"name":"都立誠明学園グラウンド","province":"東京都","city":"青梅市","address":"東京都青梅市新町3-72-1","lat":35.781,"lon":139.30438},{"name":"新町市民センター","province":"東京都","city":"青梅市","address":"東京都青梅市新町4丁目17-1","lat":35.7828,"lon":139.3084},{"name":"青梅市立新町中学校体育館","province":"東京都","city":"青梅市","address":"東京都青梅市新町5丁目20-1","lat":35.789067,"lon":139.306076},{"name":"青梅市立新町中学校グラウンド","province":"東京都","city":"青梅市","address":"東京都青梅市新町5丁目20-1","lat":35.789067,"lon":139.306076},{"name":"青梅市立藤橋小学校体育館","province":"東京都","city":"青梅市","address":"東京都青梅市藤橋3丁目13-1","lat":35.7946,"lon":139.3095},{"name":"青梅市立藤橋小学校グラウンド","province":"東京都","city":"青梅市","address":"東京都青梅市藤橋3丁目13-1","lat":35.79766,"lon":139.30671},{"name":"青梅市立今井小学校体育館","province":"東京都","city":"青梅市","address":"東京都青梅市今井2丁目947-1","lat":35.8043,"lon":139.31},{"name":"青梅市立今井小学校グラウンド","province":"東京都","city":"青梅市","address":"東京都青梅市今井2丁目947-1","lat":35.80707,"lon":139.30705},{"name":"青梅市立新町小学校グラウンド","province":"東京都","city":"青梅市","address":"東京都青梅市新町5丁目21-1","lat":35.78836,"lon":139.30755},{"name":"青梅市立新町小学校体育館","province":"東京都","city":"青梅市","address":"東京都青梅市新町5丁目21-1","lat":35.7856,"lon":139.3108},{"name":"都農林総合研究センター青梅庁舎（グラウンド）","province":"東京都","city":"青梅市","address":"東京都青梅市新町6-7-1","lat":35.79175,"lon":139.31029},{"name":"今井市民センター","province":"東京都","city":"青梅市","address":"東京都青梅市今井2丁目908-1","lat":35.8033,"lon":139.3142},{"name":"新田山公園","province":"東京都","city":"青梅市","address":"東京都青梅市新町7丁目33","lat":35.7834,"lon":139.3177},{"name":"自立センター","province":"東京都","city":"青梅市","address":"東京都青梅市今井5丁目2434-2","lat":35.7902,"lon":139.3316},{"name":"青梅市","province":"東京都","city":"青梅市","address":"青梅市東青梅1-11-1","lat":35.7878569,"lon":139.2758353},{"name":"軍畑園地","province":"東京都","city":"青梅市","address":"東京都青梅市柚木町2丁目","lat":35.804419,"lon":139.211754},{"name":"御岳丸山園地","province":"東京都","city":"青梅市","address":"東京都青梅市御岳山","lat":35.784061,"lon":139.150989},{"name":"御岳渓谷","province":"東京都","city":"青梅市","address":"東京都青梅市沢井3丁目","lat":35.805331,"lon":139.187804},{"name":"御岳渓谷園地","province":"東京都","city":"青梅市","address":"東京都青梅市御岳本町","lat":35.801307,"lon":139.184876},{"name":"御岳射山渓駐車場","province":"東京都","city":"青梅市","address":"東京都青梅市柚木町3丁目","lat":35.802681,"lon":139.195699},{"name":"御岳平園地","province":"東京都","city":"青梅市","address":"東京都青梅市御岳山","lat":35.790007,"lon":139.152976},{"name":"丹縄園地","province":"東京都","city":"青梅市","address":"東京都青梅市御岳2丁目","lat":35.805966,"lon":139.176097},{"name":"御岳ビジターセンター","province":"東京都","city":"青梅市","address":"東京都青梅市御岳山38-5","lat":35.78675,"lon":139.150582},{"name":"東京都西多摩保健所","province":"東京都","city":"青梅市","address":"東京都青梅市東青梅1丁目167-15","lat":35.787716,"lon":139.27145},{"name":"東京都青梅合同庁舎","province":"東京都","city":"青梅市","address":"東京都青梅市河辺町6丁目4-1","lat":35.779982,"lon":139.289651},{"name":"東京都青梅合同庁舎","province":"東京都","city":"青梅市","address":"東京都青梅市河辺町6丁目4-1","lat":35.779972,"lon":139.289675},{"name":"青梅サービスステーション","province":"東京都","city":"青梅市","address":"東京都青梅市師岡町1丁目1301-10","lat":35.792569,"lon":139.277224},{"name":"青梅市健康センター","province":"東京都","city":"青梅市","address":"東京都青梅市東青梅1丁目174-1","lat":35.787704,"lon":139.273322},{"name":"青梅市役所","province":"東京都","city":"青梅市","address":"東京都青梅市東青梅1丁目11-1","lat":35.78774,"lon":139.275435},{"name":"青梅市役所","province":"東京都","city":"青梅市","address":"東京都青梅市東青梅1丁目11-1","lat":35.78805,"lon":139.275487},{"name":"青梅市役所","province":"東京都","city":"青梅市","address":"東京都青梅市東青梅1丁目11-1","lat":35.78769,"lon":139.275769},{"name":"青梅図書館","province":"東京都","city":"青梅市","address":"東京都青梅市仲町268-9","lat":35.791136,"lon":139.256646},{"name":"青梅市長淵市民センター","province":"東京都","city":"青梅市","address":"東京都青梅市長淵6丁目492-1","lat":35.780438,"lon":139.268494},{"name":"青梅市大門市民センター","province":"東京都","city":"青梅市","address":"東京都青梅市大門2丁目288","lat":35.79682,"lon":139.291215},{"name":"青梅市沢井市民センター","province":"東京都","city":"青梅市","address":"東京都青梅市沢井2丁目682","lat":35.804706,"lon":139.196294},{"name":"青梅市成木市民センター","province":"東京都","city":"青梅市","address":"東京都青梅市成木4丁目644","lat":35.824075,"lon":139.248524},{"name":"青梅市東青梅市民センター","province":"東京都","city":"青梅市","address":"東京都青梅市師岡町3丁目9-6","lat":35.790692,"lon":139.282318},{"name":"青梅市新町市民センター","province":"東京都","city":"青梅市","address":"東京都青梅市新町4丁目17-1","lat":35.785987,"lon":139.305157},{"name":"青梅市河辺市民センター","province":"東京都","city":"青梅市","address":"東京都青梅市河辺町6丁目18-1","lat":35.778477,"lon":139.293653},{"name":"青梅市今井市民センター","province":"東京都","city":"青梅市","address":"東京都青梅市今井2丁目908-1","lat":35.806537,"lon":139.310886},{"name":"青梅市吉川英治記念館","province":"東京都","city":"青梅市","address":"東京都青梅市柚木町1丁目101-1","lat":35.79633,"lon":139.212881},{"name":"青梅市健康センター","province":"東京都","city":"青梅市","address":"東京都青梅市東青梅1丁目174-1","lat":35.78768,"lon":139.273271},{"name":"青梅市福祉センター","province":"東京都","city":"青梅市","address":"東京都青梅市東青梅1丁目177-3","lat":35.78741,"lon":139.274074},{"name":"青梅市子育て支援センター","province":"東京都","city":"青梅市","address":"東京都青梅市新町2丁目21-9","lat":35.788284,"lon":139.302211},{"name":"S＆Dたまぐーセンター（青梅市文化交流センター）","province":"東京都","city":"青梅市","address":"東京都青梅市上町374","lat":35.790212,"lon":139.254873},{"name":"青梅市御岳交流センター","province":"東京都","city":"青梅市","address":"東京都青梅市御岳本町362-8","lat":35.801451,"lon":139.184586},{"name":"青梅市中央図書館","province":"東京都","city":"青梅市","address":"東京都青梅市河辺町10丁目8-1","lat":35.785465,"lon":139.284962},{"name":"青梅市中央図書館","province":"東京都","city":"青梅市","address":"東京都青梅市河辺町10丁目8-1","lat":35.785489,"lon":139.284943},{"name":"青梅市立美術館","province":"東京都","city":"青梅市","address":"東京都青梅市滝ノ上町1346-1","lat":35.787614,"lon":139.255873},{"name":"住友金属鉱山アリーナ青梅（青梅市総合体育館）","province":"東京都","city":"青梅市","address":"東京都青梅市河辺町4丁目16-1","lat":35.780782,"lon":139.284745},{"name":"青梅市民斎場","province":"東京都","city":"青梅市","address":"東京都青梅市長淵5丁目698-2","lat":35.772368,"lon":139.262981},{"name":"青梅市青梅市民センター天ケ瀬体育館","province":"東京都","city":"青梅市","address":"東京都青梅市天ヶ瀬町1111-1","lat":35.789187,"lon":139.250654},{"name":"永山公園","province":"東京都","city":"青梅市","address":"東京都青梅市本町","lat":35.791453,"lon":139.260213},{"name":"釜の淵公園大柳駐車場","province":"東京都","city":"青梅市","address":"東京都青梅市大柳町","lat":35.785637,"lon":139.253232},{"name":"早道公園","province":"東京都","city":"青梅市","address":"東京都青梅市東青梅5丁目17","lat":35.789971,"lon":139.280184},{"name":"わかぐさ公園","province":"東京都","city":"青梅市","address":"東京都青梅市河辺町8丁目14","lat":35.783264,"lon":139.295897},{"name":"吹上しょうぶ公園","province":"東京都","city":"青梅市","address":"東京都青梅市吹上","lat":35.797394,"lon":139.276045},{"name":"富士塚公園","province":"東京都","city":"青梅市","address":"東京都青梅市新町5丁目22","lat":35.789516,"lon":139.307604},{"name":"新田山公園","province":"東京都","city":"青梅市","address":"東京都青梅市新町7丁目33","lat":35.786312,"lon":139.314355},{"name":"新田山公園","province":"東京都","city":"青梅市","address":"東京都青梅市新町7丁目33","lat":35.786935,"lon":139.31267},{"name":"沢井駅前広場","province":"東京都","city":"青梅市","address":"東京都青梅市沢井2丁目","lat":35.805641,"lon":139.194182},{"name":"御岳苑地駐車場","province":"東京都","city":"青梅市","address":"東京都青梅市御岳1丁目","lat":35.798964,"lon":139.177744},{"name":"寺改戸公園","province":"東京都","city":"青梅市","address":"東京都青梅市長淵3丁目","lat":35.780987,"lon":139.275158},{"name":"畑中戸田山公園","province":"東京都","city":"青梅市","address":"東京都青梅市畑中3丁目","lat":35.779212,"lon":139.237305},{"name":"上開戸公園","province":"東京都","city":"青梅市","address":"東京都青梅市大門1丁目","lat":35.800961,"lon":139.286326},{"name":"梅の公園","province":"東京都","city":"青梅市","address":"東京都青梅市梅郷4丁目","lat":35.786315,"lon":139.218732},{"name":"梅の公園","province":"東京都","city":"青梅市","address":"東京都青梅市梅郷2丁目","lat":35.7849,"lon":139.221137},{"name":"今井ふれあい公園","province":"東京都","city":"青梅市","address":"東京都青梅市今井2丁目","lat":35.806944,"lon":139.308784},{"name":"花木園","province":"東京都","city":"青梅市","address":"東京都青梅市小曾木4丁目","lat":35.818034,"lon":139.284252},{"name":"梅郷１・２丁目運動広場","province":"東京都","city":"青梅市","address":"東京都青梅市梅郷1丁目","lat":35.783223,"lon":139.223786},{"name":"青梅駅前公衆便所","province":"東京都","city":"青梅市","address":"東京都青梅市本町","lat":35.790268,"lon":139.258815},{"name":"東青梅駅南口公衆便所","province":"東京都","city":"青梅市","address":"東京都青梅市東青梅1丁目9","lat":35.790096,"lon":139.271865},{"name":"東青梅駅北口公衆便所","province":"東京都","city":"青梅市","address":"東京都青梅市東青梅2丁目14-9","lat":35.789972,"lon":139.272971},{"name":"河辺駅南口公衆便所","province":"東京都","city":"青梅市","address":"東京都青梅市河辺町5丁目29","lat":35.784241,"lon":139.28478},{"name":"河辺駅北口公衆便所","province":"東京都","city":"青梅市","address":"東京都青梅市河辺町10丁目18","lat":35.78465,"lon":139.284839},{"name":"長淵３丁目水泳場脇","province":"東京都","city":"青梅市","address":"東京都青梅市長淵3丁目","lat":35.7799,"lon":139.277735},{"name":"青梅市火葬場","province":"東京都","city":"青梅市","address":"東京都青梅市長淵5丁目743","lat":35.772696,"lon":139.262383},{"name":"梅の里駐車場","province":"東京都","city":"青梅市","address":"東京都青梅市柚木町1丁目","lat":35.796215,"lon":139.214148},{"name":"青梅柚木苑地駐車場","province":"東京都","city":"青梅市","address":"東京都青梅市柚木町3丁目","lat":35.802944,"lon":139.207536},{"name":"河辺駅北口自転車等駐車場","province":"東京都","city":"青梅市","address":"東京都青梅市河辺町5丁目29-39","lat":35.78495746,"lon":139.28394548},{"name":"河辺駅南口自転車等駐車場","province":"東京都","city":"青梅市","address":"東京都青梅市河辺町5丁目29-40","lat":35.78390762,"lon":139.28538428},{"name":"青梅駅自転車等駐車場","province":"東京都","city":"青梅市","address":"東京都青梅市本町163-11","lat":35.79005612,"lon":139.25916734},{"name":"東青梅駅北口自転車等駐車場","province":"東京都","city":"青梅市","address":"東京都青梅市東青梅2丁目14-9","lat":35.78988713,"lon":139.27302133},{"name":"東青梅駅南口自転車等駐車場","province":"東京都","city":"青梅市","address":"東京都青梅市東青梅1丁目6-8","lat":35.7889039,"lon":139.27222421},{"name":"青梅市役所前第一","province":"東京都","city":"青梅市","address":"東京都青梅市東青梅1丁目11-1","lat":35.78785689,"lon":139.27583503},{"name":"青梅末広町二丁目西","province":"東京都","city":"青梅市","address":"東京都青梅市末広町2丁目2-8","lat":35.77942258,"lon":139.30691877},{"name":"千ヶ瀬二丁目","province":"東京都","city":"青梅市","address":"東京都青梅市千ヶ瀬町2丁目243","lat":35.78593481,"lon":139.27255762},{"name":"河辺小学校南","province":"東京都","city":"青梅市","address":"東京都青梅市河辺町6丁目2","lat":35.7806081,"lon":139.28894797},{"name":"河辺駅北口","province":"東京都","city":"青梅市","address":"東京都青梅市河辺町10丁目7","lat":35.78578519,"lon":139.28627025},{"name":"わかぐさ公園前","province":"東京都","city":"青梅市","address":"東京都青梅市河辺町7丁目14-2","lat":35.78147483,"lon":139.29581681},{"name":"小作駅北","province":"東京都","city":"青梅市","address":"東京都青梅市新町3丁目2","lat":35.77804486,"lon":139.30261082},{"name":"みち境","province":"東京都","city":"青梅市","address":"東京都青梅市根ヶ布2丁目722","lat":35.8065628,"lon":139.2666466},{"name":"青梅合同庁舎前","province":"東京都","city":"青梅市","address":"東京都青梅市河辺町6丁目4-1","lat":35.77999986,"lon":139.28959793},{"name":"永山公園入口","province":"東京都","city":"青梅市","address":"東京都青梅市住江町55","lat":35.78902572,"lon":139.26029501},{"name":"青梅坂トンネル","province":"東京都","city":"青梅市","address":"東京都青梅市","lat":35.78799021,"lon":139.27579057},{"name":"吹上トンネル","province":"東京都","city":"青梅市","address":"東京都青梅市","lat":35.78799021,"lon":139.27579057},{"name":"西多摩保健所","province":"東京都","city":"青梅市","address":"東京都青梅市東青梅5丁目19-6","lat":35.78983461,"lon":139.28217046},{"name":"青梅市本庁舎","province":"東京都","city":"青梅市","address":"東京都青梅市東青梅1丁目11-1","lat":35.78785689,"lon":139.27583503},{"name":"青梅市民球技場","province":"東京都","city":"青梅市","address":"東京都青梅市河辺町1丁目872-1","lat":35.77784173,"lon":139.28723709},{"name":"青梅市立第六小学校","province":"東京都","city":"青梅市","address":"東京都青梅市二俣尾3丁目903-1","lat":35.80159313,"lon":139.2168608},{"name":"明星大学グラウンド","province":"東京都","city":"青梅市","address":"東京都青梅市長淵2丁目590","lat":35.77275567,"lon":139.26727244},{"name":"西多摩建設事務所","province":"東京都","city":"青梅市","address":"青梅市東青梅3-20-1","lat":35.7909,"lon":139.2776},{"name":"第九方面交通機動隊青梅分駐所","province":"東京都","city":"青梅市","address":"青梅市野上町4-6-3","lat":35.787391,"lon":139.289092},{"name":"青梅警察署","province":"東京都","city":"青梅市","address":"青梅市野上町4-6-3","lat":35.787391,"lon":139.289092},{"name":"青梅消防署","province":"東京都","city":"青梅市","address":"青梅市師岡町3-2-5","lat":35.78895,"lon":139.2836},{"name":"青梅市市民球技場（野球場）","province":"東京都","city":"青梅市","address":"青梅市河辺町1丁目地先","lat":35.77862,"lon":139.2878},{"name":"青梅市民球技場","province":"東京都","city":"青梅市","address":"青梅市河辺町1-872-1","lat":35.77784,"lon":139.2872},{"name":"青梅市立総合病院ヘリポート","province":"東京都","city":"青梅市","address":"青梅市東青梅4-16-5","lat":35.782547,"lon":139.281268},{"name":"※青梅市本庁舎","province":"東京都","city":"青梅市","address":"東京都青梅市東青梅1丁目11-1","lat":35.78785689,"lon":139.27583503},{"name":"青梅駅","province":"東京都","city":"青梅市","address":"東京都青梅市本町192","lat":35.79023939,"lon":139.2576703},{"name":"武蔵御嶽神社","province":"東京都","city":"青梅市","address":"東京都青梅市御岳山176","lat":35.78288,"lon":139.14994},{"name":"御岳２丁目神路橋トイレ","province":"東京都","city":"青梅市","address":"東京都青梅市御岳2-271","lat":35.80155,"lon":139.17563},{"name":"御岳苑地駐車場","province":"東京都","city":"青梅市","address":"東京都青梅市御岳1-190-3","lat":35.7991,"lon":139.17757},{"name":"玉堂美術館","province":"東京都","city":"青梅市","address":"東京都青梅市御岳1-75","lat":35.80016,"lon":139.18411},{"name":"御岳交流センター","province":"東京都","city":"青梅市","address":"東京都青梅市御岳本町362-8","lat":35.80144,"lon":139.18451},{"name":"御岳１丁目駐車場","province":"東京都","city":"青梅市","address":"東京都青梅市御岳1-3-4","lat":35.79967,"lon":139.18515},{"name":"沢井３丁目御岳渓谷遊歩道トイレ","province":"東京都","city":"青梅市","address":"東京都青梅市沢井3-491-1","lat":35.80529,"lon":139.1878},{"name":"小澤酒造","province":"東京都","city":"青梅市","address":"東京都青梅市沢井2-770","lat":35.80497,"lon":139.19365},{"name":"櫛かんざし美術館","province":"東京都","city":"青梅市","address":"東京都青梅市柚木町3-764-1","lat":35.80343,"lon":139.1968},{"name":"二俣尾５丁目高源寺前トイレ","province":"東京都","city":"青梅市","address":"東京都青梅市二俣尾5-1610","lat":35.81817,"lon":139.20231},{"name":"柚木苑地駐車場トイレ","province":"東京都","city":"青梅市","address":"東京都青梅市柚木町3-643","lat":35.80294,"lon":139.20743},{"name":"柚木苑地駐車場","province":"東京都","city":"青梅市","address":"東京都青梅市柚木町3-643","lat":35.80308,"lon":139.20771},{"name":"木原梅園","province":"東京都","city":"青梅市","address":"東京都青梅市梅郷4-642-3他","lat":35.78848,"lon":139.21897},{"name":"中道梅園","province":"東京都","city":"青梅市","address":"東京都青梅市梅郷4-658-5","lat":35.78906,"lon":139.22007},{"name":"梅郷４丁目駐車場","province":"東京都","city":"青梅市","address":"東京都青梅市梅郷4-680-3","lat":35.78969,"lon":139.22076},{"name":"昭和レトロ商品博物館","province":"東京都","city":"青梅市","address":"東京都青梅市住江町65","lat":35.78863,"lon":139.26046},{"name":"青梅鉄道公園","province":"東京都","city":"青梅市","address":"東京都青梅市勝沼2-155","lat":35.79232,"lon":139.26324},{"name":"塩船観音寺","province":"東京都","city":"青梅市","address":"東京都青梅市塩船194","lat":35.8047,"lon":139.28046},{"name":"儘多屋","province":"東京都","city":"青梅市","address":"東京都青梅市小曾木5-3140","lat":35.825835,"lon":139.28978},{"name":"御岳山ふれあいセンター","province":"東京都","city":"青梅市","address":"東京都青梅市御岳山38-2","lat":35.7837,"lon":139.1539},{"name":"御岳本町児童遊園","province":"東京都","city":"青梅市","address":"東京都青梅市御岳本町167-1","lat":35.80068,"lon":139.17806},{"name":"御岳本町運動広場","province":"東京都","city":"青梅市","address":"東京都青梅市御岳本町224-3","lat":35.80185,"lon":139.17898},{"name":"御岳運動広場","province":"東京都","city":"青梅市","address":"東京都青梅市御岳1丁目115","lat":35.79908,"lon":139.18157},{"name":"沢井市民センターグラウンド","province":"東京都","city":"青梅市","address":"東京都青梅市沢井2丁目682","lat":35.80406,"lon":139.19524},{"name":"沢井市民センター多目的室","province":"東京都","city":"青梅市","address":"東京都青梅市沢井2丁目727-1","lat":35.8009,"lon":139.199},{"name":"青梅柚木苑地駐車場（駐車場）","province":"東京都","city":"青梅市","address":"東京都青梅市柚木町3-643","lat":35.80301,"lon":139.20749},{"name":"二俣尾５丁目第２運動広場","province":"東京都","city":"青梅市","address":"東京都青梅市二俣尾5丁目164","lat":35.81343,"lon":139.20793},{"name":"旧上成木ふれあいセンター（グラウンド）","province":"東京都","city":"青梅市","address":"東京都青梅市成木7-902","lat":35.83598,"lon":139.20924},{"name":"柚木町運動広場","province":"東京都","city":"青梅市","address":"東京都青梅市柚木町2丁目313-1","lat":35.799107,"lon":139.211953},{"name":"青梅市立第六小学校グラウンド","province":"東京都","city":"青梅市","address":"東京都青梅市二俣尾3丁目903-1","lat":35.80203,"lon":139.21651},{"name":"青梅市立第六小学校体育館","province":"東京都","city":"青梅市","address":"東京都青梅市二俣尾3丁目903-1","lat":35.7984,"lon":139.2201},{"name":"青梅市立西中学校体育館","province":"東京都","city":"青梅市","address":"東京都青梅市梅郷6丁目1460-1","lat":35.7915,"lon":139.2231},{"name":"青梅市立西中学校グラウンド","province":"東京都","city":"青梅市","address":"東京都青梅市梅郷6丁目1460-1","lat":35.79498,"lon":139.2208},{"name":"青梅市立第五小学校体育館","province":"東京都","city":"青梅市","address":"東京都青梅市梅郷3丁目765-1","lat":35.7843,"lon":139.2273},{"name":"梅郷市民センター","province":"東京都","city":"青梅市","address":"東京都青梅市梅郷3丁目749-1","lat":35.7834,"lon":139.2275},{"name":"青梅市立第五小学校グラウンド","province":"東京都","city":"青梅市","address":"東京都青梅市梅郷3丁目765-1","lat":35.78775,"lon":139.22521},{"name":"和田町運動広場","province":"東京都","city":"青梅市","address":"東京都青梅市和田町2丁目422-1","lat":35.77974,"lon":139.22938},{"name":"旧北小曾木ふれあいセンター（グラウンド）","province":"東京都","city":"青梅市","address":"東京都青梅市成木8-676","lat":35.8219,"lon":139.22938},{"name":"日向和田２丁目児童遊園","province":"東京都","city":"青梅市","address":"東京都青梅市日向和田2丁目374-7","lat":35.78507,"lon":139.23547},{"name":"畑中保育園","province":"東京都","city":"青梅市","address":"東京都青梅市畑中2丁目593","lat":35.78,"lon":139.2442},{"name":"青梅市立第一中学校グラウンド","province":"東京都","city":"青梅市","address":"東京都青梅市裏宿町615","lat":35.78937,"lon":139.24472},{"name":"青梅市立第一中学校体育館","province":"東京都","city":"青梅市","address":"東京都青梅市裏宿町615","lat":35.7862,"lon":139.2489},{"name":"成木市民センター","province":"東京都","city":"青梅市","address":"東京都青梅市成木4丁目644","lat":35.821,"lon":139.2517},{"name":"天ヶ瀬体育館","province":"東京都","city":"青梅市","address":"東京都青梅市天ヶ瀬町1111-1","lat":35.789198,"lon":139.250633},{"name":"天ヶ瀬運動広場","province":"東京都","city":"青梅市","address":"東京都青梅市天ヶ瀬町1111-1","lat":35.78844,"lon":139.25093},{"name":"駒木町１丁目運動広場","province":"東京都","city":"青梅市","address":"東京都青梅市駒木町1丁目9-1","lat":35.78188,"lon":139.25197},{"name":"青梅市文化交流センター","province":"東京都","city":"青梅市","address":"東京都青梅市上町374","lat":35.79019,"lon":139.25482},{"name":"青梅市立第七中学校体育館","province":"東京都","city":"青梅市","address":"東京都青梅市成木4丁目544-2","lat":35.8227,"lon":139.2612},{"name":"青梅市立第一小学校体育館","province":"東京都","city":"青梅市","address":"東京都青梅市本町223","lat":35.7883,"lon":139.2616},{"name":"青梅市立第一小学校グラウンド","province":"東京都","city":"青梅市","address":"東京都青梅市本町223","lat":35.79102,"lon":139.25849},{"name":"青梅市立第七中学校グラウンド","province":"東京都","city":"青梅市","address":"東京都青梅市成木4丁目544-2","lat":35.82612,"lon":139.25837},{"name":"黒沢中央運動広場","province":"東京都","city":"青梅市","address":"東京都青梅市黒沢2丁目991-1","lat":35.81243,"lon":139.25898},{"name":"永山公園グラウンド","province":"東京都","city":"青梅市","address":"東京都青梅市本町217","lat":35.79214,"lon":139.26003},{"name":"青梅市立成木小学校体育館","province":"東京都","city":"青梅市","address":"東京都青梅市成木3丁目423-1","lat":35.82907,"lon":139.26053},{"name":"青梅市立成木小学校グラウンド","province":"東京都","city":"青梅市","address":"東京都青梅市成木3丁目423-1","lat":35.8286,"lon":139.26059},{"name":"長淵市民センター","province":"東京都","city":"青梅市","address":"東京都青梅市長淵6丁目492-1","lat":35.7772,"lon":139.2718},{"name":"都立青梅総合高校（体育館、グラウンド）","province":"東京都","city":"青梅市","address":"東京都青梅市勝沼1-60","lat":35.78819,"lon":139.27037},{"name":"青梅市立第二小学校体育館","province":"東京都","city":"青梅市","address":"東京都青梅市長淵4丁目437","lat":35.7777,"lon":139.2739},{"name":"青梅市立第二小学校グラウンド","province":"東京都","city":"青梅市","address":"東京都青梅市長淵4丁目437","lat":35.7802,"lon":139.2711},{"name":"青梅市立第四小学校グラウンド","province":"東京都","city":"青梅市","address":"東京都青梅市東青梅6丁目1-1","lat":35.79376,"lon":139.27161},{"name":"青梅市立第四小学校体育館","province":"東京都","city":"青梅市","address":"東京都青梅市東青梅6丁目1-1","lat":35.7909,"lon":139.2751},{"name":"青梅市立第二中学校体育館","province":"東京都","city":"青梅市","address":"東京都青梅市千ヶ瀬町2丁目155","lat":35.7825,"lon":139.2776},{"name":"青梅市立第二中学校グラウンド","province":"東京都","city":"青梅市","address":"東京都青梅市千ヶ瀬町2丁目155","lat":35.78576,"lon":139.27445},{"name":"青梅市立第七小学校体育館","province":"東京都","city":"青梅市","address":"東京都青梅市小曾木3丁目1880-1","lat":35.8166,"lon":139.2782},{"name":"小曾木市民センター","province":"東京都","city":"青梅市","address":"東京都青梅市小曾木3丁目1656-1","lat":35.8148,"lon":139.2783},{"name":"青梅市立第七小学校グラウンド","province":"東京都","city":"青梅市","address":"東京都青梅市小曾木3丁目1880-1","lat":35.81951,"lon":139.27522},{"name":"青梅市役所（庁舎・駐車場）","province":"東京都","city":"青梅市","address":"東京都青梅市東青梅1-11-1","lat":35.78776,"lon":139.27566},{"name":"青梅市立第六中学校グラウンド","province":"東京都","city":"青梅市","address":"東京都青梅市小曾木4丁目2040","lat":35.82141,"lon":139.2764},{"name":"青梅市立第六中学校体育館","province":"東京都","city":"青梅市","address":"東京都青梅市小曾木4丁目2040","lat":35.8185,"lon":139.2796},{"name":"東青梅市民センター","province":"東京都","city":"青梅市","address":"東京都青梅市師岡町3丁目9-6","lat":35.7874,"lon":139.2856},{"name":"青梅市立吹上小学校体育館","province":"東京都","city":"青梅市","address":"東京都青梅市吹上176-1","lat":35.7939,"lon":139.2858},{"name":"青梅市立吹上中学校体育館","province":"東京都","city":"青梅市","address":"東京都青梅市吹上1","lat":35.7978,"lon":139.286},{"name":"青梅市立吹上小学校グラウンド","province":"東京都","city":"青梅市","address":"東京都青梅市吹上176-1","lat":35.79681,"lon":139.28293},{"name":"青梅市立霞台中学校グラウンド","province":"東京都","city":"青梅市","address":"東京都青梅市師岡町4丁目6-1","lat":35.78731,"lon":139.28317},{"name":"青梅市立霞台中学校体育館","province":"東京都","city":"青梅市","address":"東京都青梅市師岡町4丁目6-1","lat":35.7835,"lon":139.2864},{"name":"青梅市立吹上中学校グラウンド","province":"東京都","city":"青梅市","address":"東京都青梅市吹上1","lat":35.80035,"lon":139.28331},{"name":"河辺町南自治会館","province":"東京都","city":"青梅市","address":"東京都青梅市河辺町2丁目1026","lat":35.7764,"lon":139.287},{"name":"住友金属鉱山アリーナ青梅","province":"東京都","city":"青梅市","address":"東京都青梅市河辺町4丁目16-1","lat":35.7775,"lon":139.2876},{"name":"青梅市立友田小学校体育館","province":"東京都","city":"青梅市","address":"東京都青梅市友田町5丁目332","lat":35.7709,"lon":139.2879},{"name":"青梅市立友田小学校グラウンド","province":"東京都","city":"青梅市","address":"東京都青梅市友田町5丁目332","lat":35.77438,"lon":139.28553},{"name":"青梅市立河辺小学校グラウンド","province":"東京都","city":"青梅市","address":"東京都青梅市河辺町5丁目24","lat":35.78172,"lon":139.28771},{"name":"青梅市立河辺小学校体育館","province":"東京都","city":"青梅市","address":"東京都青梅市河辺町5丁目24","lat":35.7785,"lon":139.2909},{"name":"小曾木２丁目運動広場","province":"東京都","city":"青梅市","address":"東京都青梅市小曾木2丁目633","lat":35.81913,"lon":139.28972},{"name":"大門市民センター","province":"東京都","city":"青梅市","address":"東京都青梅市大門2丁目288","lat":35.7936,"lon":139.2944},{"name":"青梅市立第三中学校体育館","province":"東京都","city":"青梅市","address":"東京都青梅市大門2丁目301","lat":35.7941,"lon":139.2955},{"name":"青梅市立第三中学校グラウンド","province":"東京都","city":"青梅市","address":"東京都青梅市大門2丁目301","lat":35.79704,"lon":139.2928},{"name":"富岡３丁目運動広場","province":"東京都","city":"青梅市","address":"東京都青梅市富岡3丁目1168","lat":35.820806,"lon":139.29313},{"name":"青梅市立若草小学校体育館","province":"東京都","city":"青梅市","address":"東京都青梅市新町1丁目15-1","lat":35.783,"lon":139.2968},{"name":"河辺市民センター","province":"東京都","city":"青梅市","address":"東京都青梅市河辺町6丁目18-1","lat":35.7753,"lon":139.2969},{"name":"青梅市立第三小学校体育館","province":"東京都","city":"青梅市","address":"東京都青梅市大門2丁目317","lat":35.7953,"lon":139.297},{"name":"青梅市立第三小学校グラウンド","province":"東京都","city":"青梅市","address":"東京都青梅市大門2丁目317","lat":35.79812,"lon":139.29421},{"name":"青梅市立霞台小学校体育館","province":"東京都","city":"青梅市","address":"東京都青梅市新町1丁目35-1","lat":35.7868,"lon":139.2975},{"name":"青梅市立霞台小学校グラウンド","province":"東京都","city":"青梅市","address":"東京都青梅市新町1丁目35-1","lat":35.7895,"lon":139.29443},{"name":"青梅市立若草小学校グラウンド","province":"東京都","city":"青梅市","address":"東京都青梅市新町1丁目15-1","lat":35.78637,"lon":139.29452},{"name":"青梅市立泉中学校体育館","province":"東京都","city":"青梅市","address":"東京都青梅市新町1丁目37","lat":35.7865,"lon":139.2992},{"name":"青梅市立泉中学校グラウンド","province":"東京都","city":"青梅市","address":"東京都青梅市新町1丁目37","lat":35.78971,"lon":139.296},{"name":"わかぐさ公園","province":"東京都","city":"青梅市","address":"東京都青梅市河辺町8丁目14-3","lat":35.78342,"lon":139.2966},{"name":"東原公園球技場","province":"東京都","city":"青梅市","address":"東京都青梅市今寺5丁目11","lat":35.7905,"lon":139.305},{"name":"都立誠明学園グラウンド","province":"東京都","city":"青梅市","address":"東京都青梅市新町3-72-1","lat":35.781,"lon":139.30438},{"name":"新町市民センター","province":"東京都","city":"青梅市","address":"東京都青梅市新町4丁目17-1","lat":35.7828,"lon":139.3084},{"name":"青梅市立新町中学校体育館","province":"東京都","city":"青梅市","address":"東京都青梅市新町5丁目20-1","lat":35.789067,"lon":139.306076},{"name":"青梅市立新町中学校グラウンド","province":"東京都","city":"青梅市","address":"東京都青梅市新町5丁目20-1","lat":35.789067,"lon":139.306076},{"name":"青梅市立藤橋小学校体育館","province":"東京都","city":"青梅市","address":"東京都青梅市藤橋3丁目13-1","lat":35.7946,"lon":139.3095},{"name":"青梅市立藤橋小学校グラウンド","province":"東京都","city":"青梅市","address":"東京都青梅市藤橋3丁目13-1","lat":35.79766,"lon":139.30671},{"name":"青梅市立今井小学校体育館","province":"東京都","city":"青梅市","address":"東京都青梅市今井2丁目947-1","lat":35.8043,"lon":139.31},{"name":"青梅市立今井小学校グラウンド","province":"東京都","city":"青梅市","address":"東京都青梅市今井2丁目947-1","lat":35.80707,"lon":139.30705},{"name":"青梅市立新町小学校グラウンド","province":"東京都","city":"青梅市","address":"東京都青梅市新町5丁目21-1","lat":35.78836,"lon":139.30755},{"name":"青梅市立新町小学校体育館","province":"東京都","city":"青梅市","address":"東京都青梅市新町5丁目21-1","lat":35.7856,"lon":139.3108},{"name":"都農林総合研究センター青梅庁舎（グラウンド）","province":"東京都","city":"青梅市","address":"東京都青梅市新町6-7-1","lat":35.79175,"lon":139.31029},{"name":"今井市民センター","province":"東京都","city":"青梅市","address":"東京都青梅市今井2丁目908-1","lat":35.8033,"lon":139.3142},{"name":"新田山公園","province":"東京都","city":"青梅市","address":"東京都青梅市新町7丁目33","lat":35.7834,"lon":139.3177},{"name":"自立センター","province":"東京都","city":"青梅市","address":"東京都青梅市今井5丁目2434-2","lat":35.7902,"lon":139.3316},{"name":"青梅市","province":"東京都","city":"青梅市","address":"青梅市東青梅1-11-1","lat":35.7878569,"lon":139.2758353},{"name":"河辺駅北口自転車等駐車場","province":"東京都","city":"青梅市","address":"東京都青梅市河辺町5丁目29-39","lat":35.78495746,"lon":139.28394548},{"name":"河辺駅南口自転車等駐車場","province":"東京都","city":"青梅市","address":"東京都青梅市河辺町5丁目29-40","lat":35.78390762,"lon":139.28538428},{"name":"青梅駅自転車等駐車場","province":"東京都","city":"青梅市","address":"東京都青梅市本町163-11","lat":35.79005612,"lon":139.25916734},{"name":"東青梅駅北口自転車等駐車場","province":"東京都","city":"青梅市","address":"東京都青梅市東青梅2丁目14-9","lat":35.78988713,"lon":139.27302133},{"name":"東青梅駅南口自転車等駐車場","province":"東京都","city":"青梅市","address":"東京都青梅市東青梅1丁目6-8","lat":35.7889039,"lon":139.27222421},{"name":"青梅市役所前第一","province":"東京都","city":"青梅市","address":"東京都青梅市東青梅1丁目11-1","lat":35.78785689,"lon":139.27583503},{"name":"青梅末広町二丁目西","province":"東京都","city":"青梅市","address":"東京都青梅市末広町2丁目2-8","lat":35.77942258,"lon":139.30691877},{"name":"千ヶ瀬二丁目","province":"東京都","city":"青梅市","address":"東京都青梅市千ヶ瀬町2丁目243","lat":35.78593481,"lon":139.27255762},{"name":"河辺小学校南","province":"東京都","city":"青梅市","address":"東京都青梅市河辺町6丁目2","lat":35.7806081,"lon":139.28894797},{"name":"河辺駅北口","province":"東京都","city":"青梅市","address":"東京都青梅市河辺町10丁目7","lat":35.78578519,"lon":139.28627025},{"name":"わかぐさ公園前","province":"東京都","city":"青梅市","address":"東京都青梅市河辺町7丁目14-2","lat":35.78147483,"lon":139.29581681},{"name":"小作駅北","province":"東京都","city":"青梅市","address":"東京都青梅市新町3丁目2","lat":35.77804486,"lon":139.30261082},{"name":"みち境","province":"東京都","city":"青梅市","address":"東京都青梅市根ヶ布2丁目722","lat":35.8065628,"lon":139.2666466},{"name":"青梅合同庁舎前","province":"東京都","city":"青梅市","address":"東京都青梅市河辺町6丁目4-1","lat":35.77999986,"lon":139.28959793},{"name":"永山公園入口","province":"東京都","city":"青梅市","address":"東京都青梅市住江町55","lat":35.78902572,"lon":139.26029501},{"name":"青梅坂トンネル","province":"東京都","city":"青梅市","address":"東京都青梅市","lat":35.78799021,"lon":139.27579057},{"name":"吹上トンネル","province":"東京都","city":"青梅市","address":"東京都青梅市","lat":35.78799021,"lon":139.27579057},{"name":"西多摩保健所","province":"東京都","city":"青梅市","address":"東京都青梅市東青梅5丁目19-6","lat":35.78983461,"lon":139.28217046},{"name":"青梅市本庁舎","province":"東京都","city":"青梅市","address":"東京都青梅市東青梅1丁目11-1","lat":35.78785689,"lon":139.27583503},{"name":"青梅市民球技場","province":"東京都","city":"青梅市","address":"東京都青梅市河辺町1丁目872-1","lat":35.77784173,"lon":139.28723709},{"name":"青梅市立第六小学校","province":"東京都","city":"青梅市","address":"東京都青梅市二俣尾3丁目903-1","lat":35.80159313,"lon":139.2168608},{"name":"明星大学グラウンド","province":"東京都","city":"青梅市","address":"東京都青梅市長淵2丁目590","lat":35.77275567,"lon":139.26727244},{"name":"西多摩建設事務所","province":"東京都","city":"青梅市","address":"青梅市東青梅3-20-1","lat":35.7909,"lon":139.2776},{"name":"第九方面交通機動隊青梅分駐所","province":"東京都","city":"青梅市","address":"青梅市野上町4-6-3","lat":35.787391,"lon":139.289092},{"name":"青梅警察署","province":"東京都","city":"青梅市","address":"青梅市野上町4-6-3","lat":35.787391,"lon":139.289092},{"name":"青梅消防署","province":"東京都","city":"青梅市","address":"青梅市師岡町3-2-5","lat":35.78895,"lon":139.2836},{"name":"青梅市市民球技場（野球場）","province":"東京都","city":"青梅市","address":"青梅市河辺町1丁目地先","lat":35.77862,"lon":139.2878},{"name":"青梅市民球技場","province":"東京都","city":"青梅市","address":"青梅市河辺町1-872-1","lat":35.77784,"lon":139.2872},{"name":"青梅市立総合病院ヘリポート","province":"東京都","city":"青梅市","address":"青梅市東青梅4-16-5","lat":35.782547,"lon":139.281268},{"name":"※青梅市本庁舎","province":"東京都","city":"青梅市","address":"東京都青梅市東青梅1丁目11-1","lat":35.78785689,"lon":139.27583503},{"name":"青梅駅","province":"東京都","city":"青梅市","address":"東京都青梅市本町192","lat":35.79023939,"lon":139.2576703},{"name":"青梅市","province":"東京都","city":"青梅市","address":"青梅市東青梅1-11-1","lat":35.7878569,"lon":139.2758353},{"name":"河辺駅北口自転車等駐車場","province":"東京都","city":"青梅市","address":"東京都青梅市河辺町5丁目29-39","lat":35.78495746,"lon":139.28394548},{"name":"河辺駅南口自転車等駐車場","province":"東京都","city":"青梅市","address":"東京都青梅市河辺町5丁目29-40","lat":35.78390762,"lon":139.28538428},{"name":"青梅駅自転車等駐車場","province":"東京都","city":"青梅市","address":"東京都青梅市本町163-11","lat":35.79005612,"lon":139.25916734},{"name":"東青梅駅北口自転車等駐車場","province":"東京都","city":"青梅市","address":"東京都青梅市東青梅2丁目14-9","lat":35.78988713,"lon":139.27302133},{"name":"東青梅駅南口自転車等駐車場","province":"東京都","city":"青梅市","address":"東京都青梅市東青梅1丁目6-8","lat":35.7889039,"lon":139.27222421},{"name":"青梅坂トンネル","province":"東京都","city":"青梅市","address":"東京都青梅市","lat":35.78799021,"lon":139.27579057},{"name":"吹上トンネル","province":"東京都","city":"青梅市","address":"東京都青梅市","lat":35.78799021,"lon":139.27579057},{"name":"西多摩保健所","province":"東京都","city":"青梅市","address":"東京都青梅市東青梅5丁目19-6","lat":35.78983461,"lon":139.28217046},{"name":"青梅市本庁舎","province":"東京都","city":"青梅市","address":"東京都青梅市東青梅1丁目11-1","lat":35.78785689,"lon":139.27583503},{"name":"青梅市民球技場","province":"東京都","city":"青梅市","address":"東京都青梅市河辺町1丁目872-1","lat":35.77784173,"lon":139.28723709},{"name":"青梅市立第六小学校","province":"東京都","city":"青梅市","address":"東京都青梅市二俣尾3丁目903-1","lat":35.80159313,"lon":139.2168608},{"name":"明星大学グラウンド","province":"東京都","city":"青梅市","address":"東京都青梅市長淵2丁目590","lat":35.77275567,"lon":139.26727244},{"name":"西多摩建設事務所","province":"東京都","city":"青梅市","address":"青梅市東青梅3-20-1","lat":35.7909,"lon":139.2776},{"name":"第九方面交通機動隊青梅分駐所","province":"東京都","city":"青梅市","address":"青梅市野上町4-6-3","lat":35.787391,"lon":139.289092},{"name":"青梅警察署","province":"東京都","city":"青梅市","address":"青梅市野上町4-6-3","lat":35.787391,"lon":139.289092},{"name":"青梅消防署","province":"東京都","city":"青梅市","address":"青梅市師岡町3-2-5","lat":35.78895,"lon":139.2836},{"name":"青梅市市民球技場（野球場）","province":"東京都","city":"青梅市","address":"青梅市河辺町1丁目地先","lat":35.77862,"lon":139.2878},{"name":"青梅市民球技場","province":"東京都","city":"青梅市","address":"青梅市河辺町1-872-1","lat":35.77784,"lon":139.2872},{"name":"青梅市立総合病院ヘリポート","province":"東京都","city":"青梅市","address":"青梅市東青梅4-16-5","lat":35.782547,"lon":139.281268},{"name":"※青梅市本庁舎","province":"東京都","city":"青梅市","address":"東京都青梅市東青梅1丁目11-1","lat":35.78785689,"lon":139.27583503},{"name":"青梅駅","province":"東京都","city":"青梅市","address":"東京都青梅市本町192","lat":35.79023939,"lon":139.2576703},{"name":"河辺駅北口自転車等駐車場","province":"東京都","city":"青梅市","address":"東京都青梅市河辺町5丁目29-39","lat":35.78495746,"lon":139.28394548},{"name":"河辺駅南口自転車等駐車場","province":"東京都","city":"青梅市","address":"東京都青梅市河辺町5丁目29-40","lat":35.78390762,"lon":139.28538428},{"name":"青梅駅自転車等駐車場","province":"東京都","city":"青梅市","address":"東京都青梅市本町163-11","lat":35.79005612,"lon":139.25916734},{"name":"東青梅駅北口自転車等駐車場","province":"東京都","city":"青梅市","address":"東京都青梅市東青梅2丁目14-9","lat":35.78988713,"lon":139.27302133},{"name":"東青梅駅南口自転車等駐車場","province":"東京都","city":"青梅市","address":"東京都青梅市東青梅1丁目6-8","lat":35.7889039,"lon":139.27222421},{"name":"西多摩保健所","province":"東京都","city":"青梅市","address":"東京都青梅市東青梅5丁目19-6","lat":35.78983461,"lon":139.28217046},{"name":"青梅市本庁舎","province":"東京都","city":"青梅市","address":"東京都青梅市東青梅1丁目11-1","lat":35.78785689,"lon":139.27583503},{"name":"青梅市民球技場","province":"東京都","city":"青梅市","address":"東京都青梅市河辺町1丁目872-1","lat":35.77784173,"lon":139.28723709},{"name":"青梅市立第六小学校","province":"東京都","city":"青梅市","address":"東京都青梅市二俣尾3丁目903-1","lat":35.80159313,"lon":139.2168608},{"name":"明星大学グラウンド","province":"東京都","city":"青梅市","address":"東京都青梅市長淵2丁目590","lat":35.77275567,"lon":139.26727244},{"name":"西多摩建設事務所","province":"東京都","city":"青梅市","address":"青梅市東青梅3-20-1","lat":35.7909,"lon":139.2776},{"name":"第九方面交通機動隊青梅分駐所","province":"東京都","city":"青梅市","address":"青梅市野上町4-6-3","lat":35.787391,"lon":139.289092},{"name":"青梅警察署","province":"東京都","city":"青梅市","address":"青梅市野上町4-6-3","lat":35.787391,"lon":139.289092},{"name":"青梅消防署","province":"東京都","city":"青梅市","address":"青梅市師岡町3-2-5","lat":35.78895,"lon":139.2836},{"name":"青梅市市民球技場（野球場）","province":"東京都","city":"青梅市","address":"青梅市河辺町1丁目地先","lat":35.77862,"lon":139.2878},{"name":"青梅市民球技場","province":"東京都","city":"青梅市","address":"青梅市河辺町1-872-1","lat":35.77784,"lon":139.2872},{"name":"青梅市立総合病院ヘリポート","province":"東京都","city":"青梅市","address":"青梅市東青梅4-16-5","lat":35.782547,"lon":139.281268},{"name":"※青梅市本庁舎","province":"東京都","city":"青梅市","address":"東京都青梅市東青梅1丁目11-1","lat":35.78785689,"lon":139.27583503},{"name":"青梅駅","province":"東京都","city":"青梅市","address":"東京都青梅市本町192","lat":35.79023939,"lon":139.2576703},{"name":"河辺駅北口自転車等駐車場","province":"東京都","city":"青梅市","address":"東京都青梅市河辺町5丁目29-39","lat":35.78495746,"lon":139.28394548},{"name":"河辺駅南口自転車等駐車場","province":"東京都","city":"青梅市","address":"東京都青梅市河辺町5丁目29-40","lat":35.78390762,"lon":139.28538428},{"name":"青梅駅自転車等駐車場","province":"東京都","city":"青梅市","address":"東京都青梅市本町163-11","lat":35.79005612,"lon":139.25916734},{"name":"東青梅駅北口自転車等駐車場","province":"東京都","city":"青梅市","address":"東京都青梅市東青梅2丁目14-9","lat":35.78988713,"lon":139.27302133},{"name":"東青梅駅南口自転車等駐車場","province":"東京都","city":"青梅市","address":"東京都青梅市東青梅1丁目6-8","lat":35.7889039,"lon":139.27222421},{"name":"西多摩保健所","province":"東京都","city":"青梅市","address":"東京都青梅市東青梅5丁目19-6","lat":35.78983461,"lon":139.28217046},{"name":"青梅市本庁舎","province":"東京都","city":"青梅市","address":"東京都青梅市東青梅1丁目11-1","lat":35.78785689,"lon":139.27583503},{"name":"青梅市民球技場","province":"東京都","city":"青梅市","address":"東京都青梅市河辺町1丁目872-1","lat":35.77784173,"lon":139.28723709},{"name":"青梅市立第六小学校","province":"東京都","city":"青梅市","address":"東京都青梅市二俣尾3丁目903-1","lat":35.80159313,"lon":139.2168608},{"name":"明星大学グラウンド","province":"東京都","city":"青梅市","address":"東京都青梅市長淵2丁目590","lat":35.77275567,"lon":139.26727244},{"name":"西多摩建設事務所","province":"東京都","city":"青梅市","address":"青梅市東青梅3-20-1","lat":35.7909,"lon":139.2776},{"name":"第九方面交通機動隊青梅分駐所","province":"東京都","city":"青梅市","address":"青梅市野上町4-6-3","lat":35.787391,"lon":139.289092},{"name":"青梅警察署","province":"東京都","city":"青梅市","address":"青梅市野上町4-6-3","lat":35.787391,"lon":139.289092},{"name":"青梅消防署","province":"東京都","city":"青梅市","address":"青梅市師岡町3-2-5","lat":35.78895,"lon":139.2836},{"name":"青梅市市民球技場（野球場）","province":"東京都","city":"青梅市","address":"青梅市河辺町1丁目地先","lat":35.77862,"lon":139.2878},{"name":"青梅市民球技場","province":"東京都","city":"青梅市","address":"青梅市河辺町1-872-1","lat":35.77784,"lon":139.2872},{"name":"青梅市立総合病院ヘリポート","province":"東京都","city":"青梅市","address":"青梅市東青梅4-16-5","lat":35.782547,"lon":139.281268},{"name":"※青梅市本庁舎","province":"東京都","city":"青梅市","address":"東京都青梅市東青梅1丁目11-1","lat":35.78785689,"lon":139.27583503},{"name":"青梅駅","province":"東京都","city":"青梅市","address":"東京都青梅市本町192","lat":35.79023939,"lon":139.2576703},{"name":"河辺駅北口自転車等駐車場","province":"東京都","city":"青梅市","address":"東京都青梅市河辺町5丁目29-39","lat":35.78495746,"lon":139.28394548},{"name":"河辺駅南口自転車等駐車場","province":"東京都","city":"青梅市","address":"東京都青梅市河辺町5丁目29-40","lat":35.78390762,"lon":139.28538428},{"name":"青梅駅自転車等駐車場","province":"東京都","city":"青梅市","address":"東京都青梅市本町163-11","lat":35.79005612,"lon":139.25916734},{"name":"東青梅駅北口自転車等駐車場","province":"東京都","city":"青梅市","address":"東京都青梅市東青梅2丁目14-9","lat":35.78988713,"lon":139.27302133},{"name":"東青梅駅南口自転車等駐車場","province":"東京都","city":"青梅市","address":"東京都青梅市東青梅1丁目6-8","lat":35.7889039,"lon":139.27222421},{"name":"西多摩保健所","province":"東京都","city":"青梅市","address":"東京都青梅市東青梅5丁目19-6","lat":35.78983461,"lon":139.28217046},{"name":"青梅市本庁舎","province":"東京都","city":"青梅市","address":"東京都青梅市東青梅1丁目11-1","lat":35.78785689,"lon":139.27583503},{"name":"青梅市民球技場","province":"東京都","city":"青梅市","address":"東京都青梅市河辺町1丁目872-1","lat":35.77784173,"lon":139.28723709},{"name":"青梅市立第六小学校","province":"東京都","city":"青梅市","address":"東京都青梅市二俣尾3丁目903-1","lat":35.80159313,"lon":139.2168608},{"name":"明星大学グラウンド","province":"東京都","city":"青梅市","address":"東京都青梅市長淵2丁目590","lat":35.77275567,"lon":139.26727244},{"name":"西多摩建設事務所","province":"東京都","city":"青梅市","address":"青梅市東青梅3-20-1","lat":35.7909,"lon":139.2776},{"name":"第九方面交通機動隊青梅分駐所","province":"東京都","city":"青梅市","address":"青梅市野上町4-6-3","lat":35.787391,"lon":139.289092},{"name":"青梅警察署","province":"東京都","city":"青梅市","address":"青梅市野上町4-6-3","lat":35.787391,"lon":139.289092},{"name":"青梅消防署","province":"東京都","city":"青梅市","address":"青梅市師岡町3-2-5","lat":35.78895,"lon":139.2836},{"name":"青梅市市民球技場（野球場）","province":"東京都","city":"青梅市","address":"青梅市河辺町1丁目地先","lat":35.77862,"lon":139.2878},{"name":"青梅市民球技場","province":"東京都","city":"青梅市","address":"青梅市河辺町1-872-1","lat":35.77784,"lon":139.2872},{"name":"青梅市立総合病院ヘリポート","province":"東京都","city":"青梅市","address":"青梅市東青梅4-16-5","lat":35.782547,"lon":139.281268},{"name":"※青梅市本庁舎","province":"東京都","city":"青梅市","address":"東京都青梅市東青梅1丁目11-1","lat":35.78785689,"lon":139.27583503},{"name":"青梅駅","province":"東京都","city":"青梅市","address":"東京都青梅市本町192","lat":35.79023939,"lon":139.2576703},{"name":"河辺駅北口自転車等駐車場","province":"東京都","city":"青梅市","address":"東京都青梅市河辺町5丁目29-39","lat":35.78495746,"lon":139.28394548},{"name":"河辺駅南口自転車等駐車場","province":"東京都","city":"青梅市","address":"東京都青梅市河辺町5丁目29-40","lat":35.78390762,"lon":139.28538428},{"name":"青梅駅自転車等駐車場","province":"東京都","city":"青梅市","address":"東京都青梅市本町163-11","lat":35.79005612,"lon":139.25916734},{"name":"東青梅駅北口自転車等駐車場","province":"東京都","city":"青梅市","address":"東京都青梅市東青梅2丁目14-9","lat":35.78988713,"lon":139.27302133},{"name":"東青梅駅南口自転車等駐車場","province":"東京都","city":"青梅市","address":"東京都青梅市東青梅1丁目6-8","lat":35.7889039,"lon":139.27222421},{"name":"西多摩保健所","province":"東京都","city":"青梅市","address":"東京都青梅市東青梅5丁目19-6","lat":35.78983461,"lon":139.28217046},{"name":"青梅市本庁舎","province":"東京都","city":"青梅市","address":"東京都青梅市東青梅1丁目11-1","lat":35.78785689,"lon":139.27583503},{"name":"青梅市民球技場","province":"東京都","city":"青梅市","address":"東京都青梅市河辺町1丁目872-1","lat":35.77784173,"lon":139.28723709},{"name":"青梅市立第六小学校","province":"東京都","city":"青梅市","address":"東京都青梅市二俣尾3丁目903-1","lat":35.80159313,"lon":139.2168608},{"name":"明星大学グラウンド","province":"東京都","city":"青梅市","address":"東京都青梅市長淵2丁目590","lat":35.77275567,"lon":139.26727244},{"name":"第九方面交通機動隊青梅分駐所","province":"東京都","city":"青梅市","address":"青梅市野上町4-6-3","lat":35.787391,"lon":139.289092},{"name":"青梅警察署","province":"東京都","city":"青梅市","address":"青梅市野上町4-6-3","lat":35.787391,"lon":139.289092},{"name":"青梅消防署","province":"東京都","city":"青梅市","address":"青梅市師岡町3-2-5","lat":35.78895,"lon":139.2836},{"name":"青梅市市民球技場（野球場）","province":"東京都","city":"青梅市","address":"青梅市河辺町1丁目地先","lat":35.77862,"lon":139.2878},{"name":"青梅市民球技場","province":"東京都","city":"青梅市","address":"青梅市河辺町1-872-1","lat":35.77784,"lon":139.2872},{"name":"青梅市立総合病院ヘリポート","province":"東京都","city":"青梅市","address":"青梅市東青梅4-16-5","lat":35.782547,"lon":139.281268},{"name":"※青梅市本庁舎","province":"東京都","city":"青梅市","address":"東京都青梅市東青梅1丁目11-1","lat":35.78785689,"lon":139.27583503},{"name":"青梅駅","province":"東京都","city":"青梅市","address":"東京都青梅市本町192","lat":35.79023939,"lon":139.2576703},{"name":"河辺駅北口自転車等駐車場","province":"東京都","city":"青梅市","address":"東京都青梅市河辺町5丁目29-39","lat":35.78495746,"lon":139.28394548},{"name":"河辺駅南口自転車等駐車場","province":"東京都","city":"青梅市","address":"東京都青梅市河辺町5丁目29-40","lat":35.78390762,"lon":139.28538428},{"name":"青梅駅自転車等駐車場","province":"東京都","city":"青梅市","address":"東京都青梅市本町163-11","lat":35.79005612,"lon":139.25916734},{"name":"東青梅駅北口自転車等駐車場","province":"東京都","city":"青梅市","address":"東京都青梅市東青梅2丁目14-9","lat":35.78988713,"lon":139.27302133},{"name":"東青梅駅南口自転車等駐車場","province":"東京都","city":"青梅市","address":"東京都青梅市東青梅1丁目6-8","lat":35.7889039,"lon":139.27222421},{"name":"西多摩保健所","province":"東京都","city":"青梅市","address":"東京都青梅市東青梅5丁目19-6","lat":35.78983461,"lon":139.28217046},{"name":"青梅市本庁舎","province":"東京都","city":"青梅市","address":"東京都青梅市東青梅1丁目11-1","lat":35.78785689,"lon":139.27583503},{"name":"青梅市民球技場","province":"東京都","city":"青梅市","address":"東京都青梅市河辺町1丁目872-1","lat":35.77784173,"lon":139.28723709},{"name":"青梅市立第六小学校","province":"東京都","city":"青梅市","address":"東京都青梅市二俣尾3丁目903-1","lat":35.80159313,"lon":139.2168608},{"name":"明星大学グラウンド","province":"東京都","city":"青梅市","address":"東京都青梅市長淵2丁目590","lat":35.77275567,"lon":139.26727244},{"name":"第九方面交通機動隊青梅分駐所","province":"東京都","city":"青梅市","address":"青梅市野上町4-6-3","lat":35.787391,"lon":139.289092},{"name":"青梅警察署","province":"東京都","city":"青梅市","address":"青梅市野上町4-6-3","lat":35.787391,"lon":139.289092},{"name":"青梅消防署","province":"東京都","city":"青梅市","address":"青梅市師岡町3-2-5","lat":35.78895,"lon":139.2836},{"name":"青梅市市民球技場（野球場）","province":"東京都","city":"青梅市","address":"青梅市河辺町1丁目地先","lat":35.77862,"lon":139.2878},{"name":"青梅市民球技場","province":"東京都","city":"青梅市","address":"青梅市河辺町1-872-1","lat":35.77784,"lon":139.2872},{"name":"青梅市立総合病院ヘリポート","province":"東京都","city":"青梅市","address":"青梅市東青梅4-16-5","lat":35.782547,"lon":139.281268},{"name":"※青梅市本庁舎","province":"東京都","city":"青梅市","address":"東京都青梅市東青梅1丁目11-1","lat":35.78785689,"lon":139.27583503},{"name":"青梅駅","province":"東京都","city":"青梅市","address":"東京都青梅市本町192","lat":35.79023939,"lon":139.2576703},{"name":"河辺駅北口自転車等駐車場","province":"東京都","city":"青梅市","address":"東京都青梅市河辺町5丁目29-39","lat":35.78495746,"lon":139.28394548},{"name":"河辺駅南口自転車等駐車場","province":"東京都","city":"青梅市","address":"東京都青梅市河辺町5丁目29-40","lat":35.78390762,"lon":139.28538428},{"name":"青梅駅自転車等駐車場","province":"東京都","city":"青梅市","address":"東京都青梅市本町163-11","lat":35.79005612,"lon":139.25916734},{"name":"東青梅駅北口自転車等駐車場","province":"東京都","city":"青梅市","address":"東京都青梅市東青梅2丁目14-9","lat":35.78988713,"lon":139.27302133},{"name":"東青梅駅南口自転車等駐車場","province":"東京都","city":"青梅市","address":"東京都青梅市東青梅1丁目6-8","lat":35.7889039,"lon":139.27222421},{"name":"西多摩保健所","province":"東京都","city":"青梅市","address":"東京都青梅市東青梅5丁目19-6","lat":35.78983461,"lon":139.28217046},{"name":"青梅市本庁舎","province":"東京都","city":"青梅市","address":"東京都青梅市東青梅1丁目11-1","lat":35.78785689,"lon":139.27583503},{"name":"青梅市民球技場","province":"東京都","city":"青梅市","address":"東京都青梅市河辺町1丁目872-1","lat":35.77784173,"lon":139.28723709},{"name":"青梅市立第六小学校","province":"東京都","city":"青梅市","address":"東京都青梅市二俣尾3丁目903-1","lat":35.80159313,"lon":139.2168608},{"name":"明星大学グラウンド","province":"東京都","city":"青梅市","address":"東京都青梅市長淵2丁目590","lat":35.77275567,"lon":139.26727244},{"name":"第九方面交通機動隊青梅分駐所","province":"東京都","city":"青梅市","address":"青梅市野上町4-6-3","lat":35.787391,"lon":139.289092},{"name":"青梅警察署","province":"東京都","city":"青梅市","address":"青梅市野上町4-6-3","lat":35.787391,"lon":139.289092},{"name":"青梅消防署","province":"東京都","city":"青梅市","address":"青梅市師岡町3-2-5","lat":35.78895,"lon":139.2836},{"name":"青梅市市民球技場（野球場）","province":"東京都","city":"青梅市","address":"青梅市河辺町1丁目地先","lat":35.77862,"lon":139.2878},{"name":"青梅市民球技場","province":"東京都","city":"青梅市","address":"青梅市河辺町1-872-1","lat":35.77784,"lon":139.2872},{"name":"青梅市立総合病院ヘリポート","province":"東京都","city":"青梅市","address":"青梅市東青梅4-16-5","lat":35.782547,"lon":139.281268},{"name":"※青梅市本庁舎","province":"東京都","city":"青梅市","address":"東京都青梅市東青梅1丁目11-1","lat":35.78785689,"lon":139.27583503},{"name":"青梅駅","province":"東京都","city":"青梅市","address":"東京都青梅市本町192","lat":35.79023939,"lon":139.2576703},{"name":"河辺駅北口自転車等駐車場","province":"東京都","city":"青梅市","address":"東京都青梅市河辺町5丁目29-39","lat":35.78495746,"lon":139.28394548},{"name":"河辺駅南口自転車等駐車場","province":"東京都","city":"青梅市","address":"東京都青梅市河辺町5丁目29-40","lat":35.78390762,"lon":139.28538428},{"name":"青梅駅自転車等駐車場","province":"東京都","city":"青梅市","address":"東京都青梅市本町163-11","lat":35.79005612,"lon":139.25916734},{"name":"東青梅駅北口自転車等駐車場","province":"東京都","city":"青梅市","address":"東京都青梅市東青梅2丁目14-9","lat":35.78988713,"lon":139.27302133},{"name":"東青梅駅南口自転車等駐車場","province":"東京都","city":"青梅市","address":"東京都青梅市東青梅1丁目6-8","lat":35.7889039,"lon":139.27222421},{"name":"西多摩保健所","province":"東京都","city":"青梅市","address":"東京都青梅市東青梅5丁目19-6","lat":35.78983461,"lon":139.28217046},{"name":"青梅市本庁舎","province":"東京都","city":"青梅市","address":"東京都青梅市東青梅1丁目11-1","lat":35.78785689,"lon":139.27583503},{"name":"青梅市民球技場","province":"東京都","city":"青梅市","address":"東京都青梅市河辺町1丁目872-1","lat":35.77784173,"lon":139.28723709},{"name":"青梅市立第六小学校","province":"東京都","city":"青梅市","address":"東京都青梅市二俣尾3丁目903-1","lat":35.80159313,"lon":139.2168608},{"name":"明星大学グラウンド","province":"東京都","city":"青梅市","address":"東京都青梅市長淵2丁目590","lat":35.77275567,"lon":139.26727244},{"name":"第九方面交通機動隊青梅分駐所","province":"東京都","city":"青梅市","address":"青梅市野上町4-6-3","lat":35.787391,"lon":139.289092},{"name":"青梅警察署","province":"東京都","city":"青梅市","address":"青梅市野上町4-6-3","lat":35.787391,"lon":139.289092},{"name":"青梅消防署","province":"東京都","city":"青梅市","address":"青梅市師岡町3-2-5","lat":35.78895,"lon":139.2836},{"name":"青梅市市民球技場（野球場）","province":"東京都","city":"青梅市","address":"青梅市河辺町1丁目地先","lat":35.77862,"lon":139.2878},{"name":"青梅市民球技場","province":"東京都","city":"青梅市","address":"青梅市河辺町1-872-1","lat":35.77784,"lon":139.2872},{"name":"青梅市立総合病院ヘリポート","province":"東京都","city":"青梅市","address":"青梅市東青梅4-16-5","lat":35.782547,"lon":139.281268},{"name":"※青梅市本庁舎","province":"東京都","city":"青梅市","address":"東京都青梅市東青梅1丁目11-1","lat":35.78785689,"lon":139.27583503},{"name":"青梅駅","province":"東京都","city":"青梅市","address":"東京都青梅市本町192","lat":35.79023939,"lon":139.2576703},{"name":"河辺駅北口自転車等駐車場","province":"東京都","city":"青梅市","address":"東京都青梅市河辺町5丁目29-39","lat":35.78495746,"lon":139.28394548},{"name":"河辺駅南口自転車等駐車場","province":"東京都","city":"青梅市","address":"東京都青梅市河辺町5丁目29-40","lat":35.78390762,"lon":139.28538428},{"name":"青梅駅自転車等駐車場","province":"東京都","city":"青梅市","address":"東京都青梅市本町163-11","lat":35.79005612,"lon":139.25916734},{"name":"東青梅駅北口自転車等駐車場","province":"東京都","city":"青梅市","address":"東京都青梅市東青梅2丁目14-9","lat":35.78988713,"lon":139.27302133},{"name":"東青梅駅南口自転車等駐車場","province":"東京都","city":"青梅市","address":"東京都青梅市東青梅1丁目6-8","lat":35.7889039,"lon":139.27222421},{"name":"西多摩保健所","province":"東京都","city":"青梅市","address":"東京都青梅市東青梅5丁目19-6","lat":35.78983461,"lon":139.28217046},{"name":"青梅市本庁舎","province":"東京都","city":"青梅市","address":"東京都青梅市東青梅1丁目11-1","lat":35.78785689,"lon":139.27583503},{"name":"青梅市民球技場","province":"東京都","city":"青梅市","address":"東京都青梅市河辺町1丁目872-1","lat":35.77784173,"lon":139.28723709},{"name":"青梅市立第六小学校","province":"東京都","city":"青梅市","address":"東京都青梅市二俣尾3丁目903-1","lat":35.80159313,"lon":139.2168608},{"name":"明星大学グラウンド","province":"東京都","city":"青梅市","address":"東京都青梅市長淵2丁目590","lat":35.77275567,"lon":139.26727244},{"name":"第九方面交通機動隊青梅分駐所","province":"東京都","city":"青梅市","address":"青梅市野上町4-6-3","lat":35.787391,"lon":139.289092},{"name":"青梅警察署","province":"東京都","city":"青梅市","address":"青梅市野上町4-6-3","lat":35.787391,"lon":139.289092},{"name":"青梅消防署","province":"東京都","city":"青梅市","address":"青梅市師岡町3-2-5","lat":35.78895,"lon":139.2836},{"name":"青梅市市民球技場（野球場）","province":"東京都","city":"青梅市","address":"青梅市河辺町1丁目地先","lat":35.77862,"lon":139.2878},{"name":"青梅市民球技場","province":"東京都","city":"青梅市","address":"青梅市河辺町1-872-1","lat":35.77784,"lon":139.2872},{"name":"青梅市立総合病院ヘリポート","province":"東京都","city":"青梅市","address":"青梅市東青梅4-16-5","lat":35.782547,"lon":139.281268},{"name":"※青梅市本庁舎","province":"東京都","city":"青梅市","address":"東京都青梅市東青梅1丁目11-1","lat":35.78785689,"lon":139.27583503},{"name":"青梅駅","province":"東京都","city":"青梅市","address":"東京都青梅市本町192","lat":35.79023939,"lon":139.2576703},{"name":"河辺駅北口自転車等駐車場","province":"東京都","city":"青梅市","address":"東京都青梅市河辺町5丁目29-39","lat":35.78495746,"lon":139.28394548},{"name":"河辺駅南口自転車等駐車場","province":"東京都","city":"青梅市","address":"東京都青梅市河辺町5丁目29-40","lat":35.78390762,"lon":139.28538428},{"name":"青梅駅自転車等駐車場","province":"東京都","city":"青梅市","address":"東京都青梅市本町163-11","lat":35.79005612,"lon":139.25916734},{"name":"東青梅駅北口自転車等駐車場","province":"東京都","city":"青梅市","address":"東京都青梅市東青梅2丁目14-9","lat":35.78988713,"lon":139.27302133},{"name":"東青梅駅南口自転車等駐車場","province":"東京都","city":"青梅市","address":"東京都青梅市東青梅1丁目6-8","lat":35.7889039,"lon":139.27222421},{"name":"西多摩保健所","province":"東京都","city":"青梅市","address":"東京都青梅市東青梅5丁目19-6","lat":35.78983461,"lon":139.28217046},{"name":"青梅市本庁舎","province":"東京都","city":"青梅市","address":"東京都青梅市東青梅1丁目11-1","lat":35.78785689,"lon":139.27583503},{"name":"青梅市民球技場","province":"東京都","city":"青梅市","address":"東京都青梅市河辺町1丁目872-1","lat":35.77784173,"lon":139.28723709},{"name":"青梅市立第六小学校","province":"東京都","city":"青梅市","address":"東京都青梅市二俣尾3丁目903-1","lat":35.80159313,"lon":139.2168608},{"name":"明星大学グラウンド","province":"東京都","city":"青梅市","address":"東京都青梅市長淵2丁目590","lat":35.77275567,"lon":139.26727244},{"name":"第九方面交通機動隊青梅分駐所","province":"東京都","city":"青梅市","address":"青梅市野上町4-6-3","lat":35.787391,"lon":139.289092},{"name":"青梅警察署","province":"東京都","city":"青梅市","address":"青梅市野上町4-6-3","lat":35.787391,"lon":139.289092},{"name":"青梅消防署","province":"東京都","city":"青梅市","address":"青梅市師岡町3-2-5","lat":35.78895,"lon":139.2836},{"name":"青梅市市民球技場（野球場）","province":"東京都","city":"青梅市","address":"青梅市河辺町1丁目地先","lat":35.77862,"lon":139.2878},{"name":"青梅市民球技場","province":"東京都","city":"青梅市","address":"青梅市河辺町1-872-1","lat":35.77784,"lon":139.2872},{"name":"青梅市立総合病院ヘリポート","province":"東京都","city":"青梅市","address":"青梅市東青梅4-16-5","lat":35.782547,"lon":139.281268},{"name":"※青梅市本庁舎","province":"東京都","city":"青梅市","address":"東京都青梅市東青梅1丁目11-1","lat":35.78785689,"lon":139.27583503},{"name":"青梅駅","province":"東京都","city":"青梅市","address":"東京都青梅市本町192","lat":35.79023939,"lon":139.2576703},{"name":"河辺駅北口自転車等駐車場","province":"東京都","city":"青梅市","address":"東京都青梅市河辺町5丁目29-39","lat":35.78495746,"lon":139.28394548},{"name":"河辺駅南口自転車等駐車場","province":"東京都","city":"青梅市","address":"東京都青梅市河辺町5丁目29-40","lat":35.78390762,"lon":139.28538428},{"name":"青梅駅自転車等駐車場","province":"東京都","city":"青梅市","address":"東京都青梅市本町163-11","lat":35.79005612,"lon":139.25916734},{"name":"東青梅駅北口自転車等駐車場","province":"東京都","city":"青梅市","address":"東京都青梅市東青梅2丁目14-9","lat":35.78988713,"lon":139.27302133},{"name":"東青梅駅南口自転車等駐車場","province":"東京都","city":"青梅市","address":"東京都青梅市東青梅1丁目6-8","lat":35.7889039,"lon":139.27222421},{"name":"西多摩保健所","province":"東京都","city":"青梅市","address":"東京都青梅市東青梅5丁目19-6","lat":35.78983461,"lon":139.28217046},{"name":"青梅市本庁舎","province":"東京都","city":"青梅市","address":"東京都青梅市東青梅1丁目11-1","lat":35.78785689,"lon":139.27583503},{"name":"青梅市民球技場","province":"東京都","city":"青梅市","address":"東京都青梅市河辺町1丁目872-1","lat":35.77784173,"lon":139.28723709},{"name":"青梅市立第六小学校","province":"東京都","city":"青梅市","address":"東京都青梅市二俣尾3丁目903-1","lat":35.80159313,"lon":139.2168608},{"name":"明星大学グラウンド","province":"東京都","city":"青梅市","address":"東京都青梅市長淵2丁目590","lat":35.77275567,"lon":139.26727244},{"name":"第九方面交通機動隊青梅分駐所","province":"東京都","city":"青梅市","address":"青梅市野上町4-6-3","lat":35.787391,"lon":139.289092},{"name":"青梅警察署","province":"東京都","city":"青梅市","address":"青梅市野上町4-6-3","lat":35.787391,"lon":139.289092},{"name":"青梅消防署","province":"東京都","city":"青梅市","address":"青梅市師岡町3-2-5","lat":35.78895,"lon":139.2836},{"name":"青梅市市民球技場（野球場）","province":"東京都","city":"青梅市","address":"青梅市河辺町1丁目地先","lat":35.77862,"lon":139.2878},{"name":"青梅市民球技場","province":"東京都","city":"青梅市","address":"青梅市河辺町1-872-1","lat":35.77784,"lon":139.2872},{"name":"青梅市立総合病院ヘリポート","province":"東京都","city":"青梅市","address":"青梅市東青梅4-16-5","lat":35.782547,"lon":139.281268},{"name":"※青梅市本庁舎","province":"東京都","city":"青梅市","address":"東京都青梅市東青梅1丁目11-1","lat":35.78785689,"lon":139.27583503},{"name":"青梅駅","province":"東京都","city":"青梅市","address":"東京都青梅市本町192","lat":35.79023939,"lon":139.2576703},{"name":"河辺駅北口自転車等駐車場","province":"東京都","city":"青梅市","address":"東京都青梅市河辺町5丁目29-39","lat":35.78495746,"lon":139.28394548},{"name":"河辺駅南口自転車等駐車場","province":"東京都","city":"青梅市","address":"東京都青梅市河辺町5丁目29-40","lat":35.78390762,"lon":139.28538428},{"name":"青梅駅自転車等駐車場","province":"東京都","city":"青梅市","address":"東京都青梅市本町163-11","lat":35.79005612,"lon":139.25916734},{"name":"東青梅駅北口自転車等駐車場","province":"東京都","city":"青梅市","address":"東京都青梅市東青梅2丁目14-9","lat":35.78988713,"lon":139.27302133},{"name":"東青梅駅南口自転車等駐車場","province":"東京都","city":"青梅市","address":"東京都青梅市東青梅1丁目6-8","lat":35.7889039,"lon":139.27222421},{"name":"西多摩保健所","province":"東京都","city":"青梅市","address":"東京都青梅市東青梅5丁目19-6","lat":35.78983461,"lon":139.28217046},{"name":"青梅市本庁舎","province":"東京都","city":"青梅市","address":"東京都青梅市東青梅1丁目11-1","lat":35.78785689,"lon":139.27583503},{"name":"青梅市民球技場","province":"東京都","city":"青梅市","address":"東京都青梅市河辺町1丁目872-1","lat":35.77784173,"lon":139.28723709},{"name":"青梅市立第六小学校","province":"東京都","city":"青梅市","address":"東京都青梅市二俣尾3丁目903-1","lat":35.80159313,"lon":139.2168608},{"name":"明星大学グラウンド","province":"東京都","city":"青梅市","address":"東京都青梅市長淵2丁目590","lat":35.77275567,"lon":139.26727244},{"name":"第九方面交通機動隊青梅分駐所","province":"東京都","city":"青梅市","address":"青梅市野上町4-6-3","lat":35.787391,"lon":139.289092},{"name":"青梅警察署","province":"東京都","city":"青梅市","address":"青梅市野上町4-6-3","lat":35.787391,"lon":139.289092},{"name":"青梅消防署","province":"東京都","city":"青梅市","address":"青梅市師岡町3-2-5","lat":35.78895,"lon":139.2836},{"name":"青梅市市民球技場（野球場）","province":"東京都","city":"青梅市","address":"青梅市河辺町1丁目地先","lat":35.77862,"lon":139.2878},{"name":"青梅市民球技場","province":"東京都","city":"青梅市","address":"青梅市河辺町1-872-1","lat":35.77784,"lon":139.2872},{"name":"青梅市立総合病院ヘリポート","province":"東京都","city":"青梅市","address":"青梅市東青梅4-16-5","lat":35.782547,"lon":139.281268},{"name":"※青梅市本庁舎","province":"東京都","city":"青梅市","address":"東京都青梅市東青梅1丁目11-1","lat":35.78785689,"lon":139.27583503},{"name":"青梅駅","province":"東京都","city":"青梅市","address":"東京都青梅市本町192","lat":35.79023939,"lon":139.2576703},{"name":"河辺駅北口自転車等駐車場","province":"東京都","city":"青梅市","address":"東京都青梅市河辺町5丁目29-39","lat":35.78495746,"lon":139.28394548},{"name":"河辺駅南口自転車等駐車場","province":"東京都","city":"青梅市","address":"東京都青梅市河辺町5丁目29-40","lat":35.78390762,"lon":139.28538428},{"name":"青梅駅自転車等駐車場","province":"東京都","city":"青梅市","address":"東京都青梅市本町163-11","lat":35.79005612,"lon":139.25916734},{"name":"東青梅駅北口自転車等駐車場","province":"東京都","city":"青梅市","address":"東京都青梅市東青梅2丁目14-9","lat":35.78988713,"lon":139.27302133},{"name":"東青梅駅南口自転車等駐車場","province":"東京都","city":"青梅市","address":"東京都青梅市東青梅1丁目6-8","lat":35.7889039,"lon":139.27222421},{"name":"西多摩保健所","province":"東京都","city":"青梅市","address":"東京都青梅市東青梅5丁目19-6","lat":35.78983461,"lon":139.28217046},{"name":"青梅市本庁舎","province":"東京都","city":"青梅市","address":"東京都青梅市東青梅1丁目11-1","lat":35.78785689,"lon":139.27583503},{"name":"青梅市民球技場","province":"東京都","city":"青梅市","address":"東京都青梅市河辺町1丁目872-1","lat":35.77784173,"lon":139.28723709},{"name":"青梅市立第六小学校","province":"東京都","city":"青梅市","address":"東京都青梅市二俣尾3丁目903-1","lat":35.80159313,"lon":139.2168608},{"name":"明星大学グラウンド","province":"東京都","city":"青梅市","address":"東京都青梅市長淵2丁目590","lat":35.77275567,"lon":139.26727244},{"name":"第九方面交通機動隊青梅分駐所","province":"東京都","city":"青梅市","address":"青梅市野上町4-6-3","lat":35.787391,"lon":139.289092},{"name":"青梅警察署","province":"東京都","city":"青梅市","address":"青梅市野上町4-6-3","lat":35.787391,"lon":139.289092},{"name":"青梅消防署","province":"東京都","city":"青梅市","address":"青梅市師岡町3-2-5","lat":35.78895,"lon":139.2836},{"name":"青梅市市民球技場（野球場）","province":"東京都","city":"青梅市","address":"青梅市河辺町1丁目地先","lat":35.77862,"lon":139.2878},{"name":"青梅市民球技場","province":"東京都","city":"青梅市","address":"青梅市河辺町1-872-1","lat":35.77784,"lon":139.2872},{"name":"青梅市立総合病院ヘリポート","province":"東京都","city":"青梅市","address":"青梅市東青梅4-16-5","lat":35.782547,"lon":139.281268},{"name":"※青梅市本庁舎","province":"東京都","city":"青梅市","address":"東京都青梅市東青梅1丁目11-1","lat":35.78785689,"lon":139.27583503},{"name":"青梅駅","province":"東京都","city":"青梅市","address":"東京都青梅市本町192","lat":35.79023939,"lon":139.2576703},{"name":"河辺駅北口自転車等駐車場","province":"東京都","city":"青梅市","address":"東京都青梅市河辺町5丁目29-39","lat":35.78495746,"lon":139.28394548},{"name":"河辺駅南口自転車等駐車場","province":"東京都","city":"青梅市","address":"東京都青梅市河辺町5丁目29-40","lat":35.78390762,"lon":139.28538428},{"name":"青梅駅自転車等駐車場","province":"東京都","city":"青梅市","address":"東京都青梅市本町163-11","lat":35.79005612,"lon":139.25916734},{"name":"東青梅駅北口自転車等駐車場","province":"東京都","city":"青梅市","address":"東京都青梅市東青梅2丁目14-9","lat":35.78988713,"lon":139.27302133},{"name":"東青梅駅南口自転車等駐車場","province":"東京都","city":"青梅市","address":"東京都青梅市東青梅1丁目6-8","lat":35.7889039,"lon":139.27222421},{"name":"西多摩保健所","province":"東京都","city":"青梅市","address":"東京都青梅市東青梅5丁目19-6","lat":35.78983461,"lon":139.28217046},{"name":"青梅市本庁舎","province":"東京都","city":"青梅市","address":"東京都青梅市東青梅1丁目11-1","lat":35.78785689,"lon":139.27583503},{"name":"青梅市民球技場","province":"東京都","city":"青梅市","address":"東京都青梅市河辺町1丁目872-1","lat":35.77784173,"lon":139.28723709},{"name":"青梅市立第六小学校","province":"東京都","city":"青梅市","address":"東京都青梅市二俣尾3丁目903-1","lat":35.80159313,"lon":139.2168608},{"name":"明星大学グラウンド","province":"東京都","city":"青梅市","address":"東京都青梅市長淵2丁目590","lat":35.77275567,"lon":139.26727244},{"name":"第九方面交通機動隊青梅分駐所","province":"東京都","city":"青梅市","address":"青梅市野上町4-6-3","lat":35.787391,"lon":139.289092},{"name":"青梅警察署","province":"東京都","city":"青梅市","address":"青梅市野上町4-6-3","lat":35.787391,"lon":139.289092},{"name":"青梅消防署","province":"東京都","city":"青梅市","address":"青梅市師岡町3-2-5","lat":35.78895,"lon":139.2836},{"name":"青梅市市民球技場（野球場）","province":"東京都","city":"青梅市","address":"青梅市河辺町1丁目地先","lat":35.77862,"lon":139.2878},{"name":"青梅市民球技場","province":"東京都","city":"青梅市","address":"青梅市河辺町1-872-1","lat":35.77784,"lon":139.2872},{"name":"青梅市立総合病院ヘリポート","province":"東京都","city":"青梅市","address":"青梅市東青梅4-16-5","lat":35.782547,"lon":139.281268},{"name":"※青梅市本庁舎","province":"東京都","city":"青梅市","address":"東京都青梅市東青梅1丁目11-1","lat":35.78785689,"lon":139.27583503},{"name":"青梅駅","province":"東京都","city":"青梅市","address":"東京都青梅市本町192","lat":35.79023939,"lon":139.2576703},{"name":"河辺駅北口自転車等駐車場","province":"東京都","city":"青梅市","address":"東京都青梅市河辺町5丁目29-39","lat":35.78495746,"lon":139.28394548},{"name":"河辺駅南口自転車等駐車場","province":"東京都","city":"青梅市","address":"東京都青梅市河辺町5丁目29-40","lat":35.78390762,"lon":139.28538428},{"name":"青梅駅自転車等駐車場","province":"東京都","city":"青梅市","address":"東京都青梅市本町163-11","lat":35.79005612,"lon":139.25916734},{"name":"東青梅駅北口自転車等駐車場","province":"東京都","city":"青梅市","address":"東京都青梅市東青梅2丁目14-9","lat":35.78988713,"lon":139.27302133},{"name":"東青梅駅南口自転車等駐車場","province":"東京都","city":"青梅市","address":"東京都青梅市東青梅1丁目6-8","lat":35.7889039,"lon":139.27222421},{"name":"西多摩保健所","province":"東京都","city":"青梅市","address":"東京都青梅市東青梅5丁目19-6","lat":35.78983461,"lon":139.28217046},{"name":"青梅市本庁舎","province":"東京都","city":"青梅市","address":"東京都青梅市東青梅1丁目11-1","lat":35.78785689,"lon":139.27583503},{"name":"青梅市民球技場","province":"東京都","city":"青梅市","address":"東京都青梅市河辺町1丁目872-1","lat":35.77784173,"lon":139.28723709},{"name":"青梅市立第六小学校","province":"東京都","city":"青梅市","address":"東京都青梅市二俣尾3丁目903-1","lat":35.80159313,"lon":139.2168608},{"name":"明星大学グラウンド","province":"東京都","city":"青梅市","address":"東京都青梅市長淵2丁目590","lat":35.77275567,"lon":139.26727244},{"name":"第九方面交通機動隊青梅分駐所","province":"東京都","city":"青梅市","address":"青梅市野上町4-6-3","lat":35.787391,"lon":139.289092},{"name":"青梅警察署","province":"東京都","city":"青梅市","address":"青梅市野上町4-6-3","lat":35.787391,"lon":139.289092},{"name":"青梅消防署","province":"東京都","city":"青梅市","address":"青梅市師岡町3-2-5","lat":35.78895,"lon":139.2836},{"name":"青梅市市民球技場（野球場）","province":"東京都","city":"青梅市","address":"青梅市河辺町1丁目地先","lat":35.77862,"lon":139.2878},{"name":"青梅市民球技場","province":"東京都","city":"青梅市","address":"青梅市河辺町1-872-1","lat":35.77784,"lon":139.2872},{"name":"青梅市立総合病院ヘリポート","province":"東京都","city":"青梅市","address":"青梅市東青梅4-16-5","lat":35.782547,"lon":139.281268},{"name":"※青梅市本庁舎","province":"東京都","city":"青梅市","address":"東京都青梅市東青梅1丁目11-1","lat":35.78785689,"lon":139.27583503},{"name":"青梅駅","province":"東京都","city":"青梅市","address":"東京都青梅市本町192","lat":35.79023939,"lon":139.2576703},{"name":"河辺駅北口自転車等駐車場","province":"東京都","city":"青梅市","address":"東京都青梅市河辺町5丁目29-39","lat":35.78495746,"lon":139.28394548},{"name":"河辺駅南口自転車等駐車場","province":"東京都","city":"青梅市","address":"東京都青梅市河辺町5丁目29-40","lat":35.78390762,"lon":139.28538428},{"name":"青梅駅自転車等駐車場","province":"東京都","city":"青梅市","address":"東京都青梅市本町163-11","lat":35.79005612,"lon":139.25916734},{"name":"東青梅駅北口自転車等駐車場","province":"東京都","city":"青梅市","address":"東京都青梅市東青梅2丁目14-9","lat":35.78988713,"lon":139.27302133},{"name":"東青梅駅南口自転車等駐車場","province":"東京都","city":"青梅市","address":"東京都青梅市東青梅1丁目6-8","lat":35.7889039,"lon":139.27222421},{"name":"西多摩保健所","province":"東京都","city":"青梅市","address":"東京都青梅市東青梅5丁目19-6","lat":35.78983461,"lon":139.28217046},{"name":"青梅市本庁舎","province":"東京都","city":"青梅市","address":"東京都青梅市東青梅1丁目11-1","lat":35.78785689,"lon":139.27583503},{"name":"青梅市民球技場","province":"東京都","city":"青梅市","address":"東京都青梅市河辺町1丁目872-1","lat":35.77784173,"lon":139.28723709},{"name":"青梅市立第六小学校","province":"東京都","city":"青梅市","address":"東京都青梅市二俣尾3丁目903-1","lat":35.80159313,"lon":139.2168608},{"name":"明星大学グラウンド","province":"東京都","city":"青梅市","address":"東京都青梅市長淵2丁目590","lat":35.77275567,"lon":139.26727244},{"name":"第九方面交通機動隊青梅分駐所","province":"東京都","city":"青梅市","address":"青梅市野上町4-6-3","lat":35.787391,"lon":139.289092},{"name":"青梅警察署","province":"東京都","city":"青梅市","address":"青梅市野上町4-6-3","lat":35.787391,"lon":139.289092},{"name":"青梅消防署","province":"東京都","city":"青梅市","address":"青梅市師岡町3-2-5","lat":35.78895,"lon":139.2836},{"name":"青梅市市民球技場（野球場）","province":"東京都","city":"青梅市","address":"青梅市河辺町1丁目地先","lat":35.77862,"lon":139.2878},{"name":"青梅市民球技場","province":"東京都","city":"青梅市","address":"青梅市河辺町1-872-1","lat":35.77784,"lon":139.2872},{"name":"青梅市立総合病院ヘリポート","province":"東京都","city":"青梅市","address":"青梅市東青梅4-16-5","lat":35.782547,"lon":139.281268},{"name":"※青梅市本庁舎","province":"東京都","city":"青梅市","address":"東京都青梅市東青梅1丁目11-1","lat":35.78785689,"lon":139.27583503},{"name":"青梅駅","province":"東京都","city":"青梅市","address":"東京都青梅市本町192","lat":35.79023939,"lon":139.2576703},{"name":"河辺駅北口自転車等駐車場","province":"東京都","city":"青梅市","address":"東京都青梅市河辺町5丁目29-39","lat":35.78495746,"lon":139.28394548},{"name":"河辺駅南口自転車等駐車場","province":"東京都","city":"青梅市","address":"東京都青梅市河辺町5丁目29-40","lat":35.78390762,"lon":139.28538428},{"name":"青梅駅自転車等駐車場","province":"東京都","city":"青梅市","address":"東京都青梅市本町163-11","lat":35.79005612,"lon":139.25916734},{"name":"東青梅駅北口自転車等駐車場","province":"東京都","city":"青梅市","address":"東京都青梅市東青梅2丁目14-9","lat":35.78988713,"lon":139.27302133},{"name":"東青梅駅南口自転車等駐車場","province":"東京都","city":"青梅市","address":"東京都青梅市東青梅1丁目6-8","lat":35.7889039,"lon":139.27222421},{"name":"西多摩保健所","province":"東京都","city":"青梅市","address":"東京都青梅市東青梅5丁目19-6","lat":35.78983461,"lon":139.28217046},{"name":"青梅市本庁舎","province":"東京都","city":"青梅市","address":"東京都青梅市東青梅1丁目11-1","lat":35.78785689,"lon":139.27583503},{"name":"青梅市民球技場","province":"東京都","city":"青梅市","address":"東京都青梅市河辺町1丁目872-1","lat":35.77784173,"lon":139.28723709},{"name":"青梅市立第六小学校","province":"東京都","city":"青梅市","address":"東京都青梅市二俣尾3丁目903-1","lat":35.80159313,"lon":139.2168608},{"name":"明星大学グラウンド","province":"東京都","city":"青梅市","address":"東京都青梅市長淵2丁目590","lat":35.77275567,"lon":139.26727244},{"name":"第九方面交通機動隊青梅分駐所","province":"東京都","city":"青梅市","address":"青梅市野上町4-6-3","lat":35.787391,"lon":139.289092},{"name":"青梅警察署","province":"東京都","city":"青梅市","address":"青梅市野上町4-6-3","lat":35.787391,"lon":139.289092},{"name":"青梅消防署","province":"東京都","city":"青梅市","address":"青梅市師岡町3-2-5","lat":35.78895,"lon":139.2836},{"name":"青梅市市民球技場（野球場）","province":"東京都","city":"青梅市","address":"青梅市河辺町1丁目地先","lat":35.77862,"lon":139.2878},{"name":"青梅市民球技場","province":"東京都","city":"青梅市","address":"青梅市河辺町1-872-1","lat":35.77784,"lon":139.2872},{"name":"青梅市立総合病院ヘリポート","province":"東京都","city":"青梅市","address":"青梅市東青梅4-16-5","lat":35.782547,"lon":139.281268},{"name":"※青梅市本庁舎","province":"東京都","city":"青梅市","address":"東京都青梅市東青梅1丁目11-1","lat":35.78785689,"lon":139.27583503},{"name":"青梅駅","province":"東京都","city":"青梅市","address":"東京都青梅市本町192","lat":35.79023939,"lon":139.2576703},{"name":"河辺駅北口自転車等駐車場","province":"東京都","city":"青梅市","address":"東京都青梅市河辺町5丁目29-39","lat":35.78495746,"lon":139.28394548},{"name":"河辺駅南口自転車等駐車場","province":"東京都","city":"青梅市","address":"東京都青梅市河辺町5丁目29-40","lat":35.78390762,"lon":139.28538428},{"name":"青梅駅自転車等駐車場","province":"東京都","city":"青梅市","address":"東京都青梅市本町163-11","lat":35.79005612,"lon":139.25916734},{"name":"東青梅駅北口自転車等駐車場","province":"東京都","city":"青梅市","address":"東京都青梅市東青梅2丁目14-9","lat":35.78988713,"lon":139.27302133},{"name":"東青梅駅南口自転車等駐車場","province":"東京都","city":"青梅市","address":"東京都青梅市東青梅1丁目6-8","lat":35.7889039,"lon":139.27222421},{"name":"西多摩保健所","province":"東京都","city":"青梅市","address":"東京都青梅市東青梅5丁目19-6","lat":35.78983461,"lon":139.28217046},{"name":"青梅市本庁舎","province":"東京都","city":"青梅市","address":"東京都青梅市東青梅1丁目11-1","lat":35.78785689,"lon":139.27583503},{"name":"青梅市民球技場","province":"東京都","city":"青梅市","address":"東京都青梅市河辺町1丁目872-1","lat":35.77784173,"lon":139.28723709},{"name":"青梅市立第六小学校","province":"東京都","city":"青梅市","address":"東京都青梅市二俣尾3丁目903-1","lat":35.80159313,"lon":139.2168608},{"name":"明星大学グラウンド","province":"東京都","city":"青梅市","address":"東京都青梅市長淵2丁目590","lat":35.77275567,"lon":139.26727244},{"name":"第九方面交通機動隊青梅分駐所","province":"東京都","city":"青梅市","address":"青梅市野上町4-6-3","lat":35.787391,"lon":139.289092},{"name":"青梅警察署","province":"東京都","city":"青梅市","address":"青梅市野上町4-6-3","lat":35.787391,"lon":139.289092},{"name":"青梅消防署","province":"東京都","city":"青梅市","address":"青梅市師岡町3-2-5","lat":35.78895,"lon":139.2836},{"name":"青梅市市民球技場（野球場）","province":"東京都","city":"青梅市","address":"青梅市河辺町1丁目地先","lat":35.77862,"lon":139.2878},{"name":"青梅市民球技場","province":"東京都","city":"青梅市","address":"青梅市河辺町1-872-1","lat":35.77784,"lon":139.2872},{"name":"青梅市立総合病院ヘリポート","province":"東京都","city":"青梅市","address":"青梅市東青梅4-16-5","lat":35.782547,"lon":139.281268},{"name":"※青梅市本庁舎","province":"東京都","city":"青梅市","address":"東京都青梅市東青梅1丁目11-1","lat":35.78785689,"lon":139.27583503},{"name":"青梅駅","province":"東京都","city":"青梅市","address":"東京都青梅市本町192","lat":35.79023939,"lon":139.2576703},{"name":"河辺駅北口自転車等駐車場","province":"東京都","city":"青梅市","address":"東京都青梅市河辺町5丁目29-39","lat":35.78495746,"lon":139.28394548},{"name":"河辺駅南口自転車等駐車場","province":"東京都","city":"青梅市","address":"東京都青梅市河辺町5丁目29-40","lat":35.78390762,"lon":139.28538428},{"name":"青梅駅自転車等駐車場","province":"東京都","city":"青梅市","address":"東京都青梅市本町163-11","lat":35.79005612,"lon":139.25916734},{"name":"東青梅駅北口自転車等駐車場","province":"東京都","city":"青梅市","address":"東京都青梅市東青梅2丁目14-9","lat":35.78988713,"lon":139.27302133},{"name":"東青梅駅南口自転車等駐車場","province":"東京都","city":"青梅市","address":"東京都青梅市東青梅1丁目6-8","lat":35.7889039,"lon":139.27222421},{"name":"西多摩保健所","province":"東京都","city":"青梅市","address":"東京都青梅市東青梅5丁目19-6","lat":35.78983461,"lon":139.28217046},{"name":"青梅市本庁舎","province":"東京都","city":"青梅市","address":"東京都青梅市東青梅1丁目11-1","lat":35.78785689,"lon":139.27583503},{"name":"青梅市民球技場","province":"東京都","city":"青梅市","address":"東京都青梅市河辺町1丁目872-1","lat":35.77784173,"lon":139.28723709},{"name":"青梅市立第六小学校","province":"東京都","city":"青梅市","address":"東京都青梅市二俣尾3丁目903-1","lat":35.80159313,"lon":139.2168608},{"name":"明星大学グラウンド","province":"東京都","city":"青梅市","address":"東京都青梅市長淵2丁目590","lat":35.77275567,"lon":139.26727244},{"name":"第九方面交通機動隊青梅分駐所","province":"東京都","city":"青梅市","address":"青梅市野上町4-6-3","lat":35.787391,"lon":139.289092},{"name":"青梅警察署","province":"東京都","city":"青梅市","address":"青梅市野上町4-6-3","lat":35.787391,"lon":139.289092},{"name":"青梅消防署","province":"東京都","city":"青梅市","address":"青梅市師岡町3-2-5","lat":35.78895,"lon":139.2836},{"name":"青梅市市民球技場（野球場）","province":"東京都","city":"青梅市","address":"青梅市河辺町1丁目地先","lat":35.77862,"lon":139.2878},{"name":"青梅市民球技場","province":"東京都","city":"青梅市","address":"青梅市河辺町1-872-1","lat":35.77784,"lon":139.2872},{"name":"青梅市立総合病院ヘリポート","province":"東京都","city":"青梅市","address":"青梅市東青梅4-16-5","lat":35.782547,"lon":139.281268},{"name":"※青梅市本庁舎","province":"東京都","city":"青梅市","address":"東京都青梅市東青梅1丁目11-1","lat":35.78785689,"lon":139.27583503},{"name":"青梅駅","province":"東京都","city":"青梅市","address":"東京都青梅市本町192","lat":35.79023939,"lon":139.2576703},{"name":"河辺駅北口自転車等駐車場","province":"東京都","city":"青梅市","address":"東京都青梅市河辺町5丁目29-39","lat":35.78495746,"lon":139.28394548},{"name":"河辺駅南口自転車等駐車場","province":"東京都","city":"青梅市","address":"東京都青梅市河辺町5丁目29-40","lat":35.78390762,"lon":139.28538428},{"name":"青梅駅自転車等駐車場","province":"東京都","city":"青梅市","address":"東京都青梅市本町163-11","lat":35.79005612,"lon":139.25916734},{"name":"東青梅駅北口自転車等駐車場","province":"東京都","city":"青梅市","address":"東京都青梅市東青梅2丁目14-9","lat":35.78988713,"lon":139.27302133},{"name":"東青梅駅南口自転車等駐車場","province":"東京都","city":"青梅市","address":"東京都青梅市東青梅1丁目6-8","lat":35.7889039,"lon":139.27222421},{"name":"西多摩保健所","province":"東京都","city":"青梅市","address":"東京都青梅市東青梅5丁目19-6","lat":35.78983461,"lon":139.28217046},{"name":"青梅市本庁舎","province":"東京都","city":"青梅市","address":"東京都青梅市東青梅1丁目11-1","lat":35.78785689,"lon":139.27583503},{"name":"青梅市民球技場","province":"東京都","city":"青梅市","address":"東京都青梅市河辺町1丁目872-1","lat":35.77784173,"lon":139.28723709},{"name":"青梅市立第六小学校","province":"東京都","city":"青梅市","address":"東京都青梅市二俣尾3丁目903-1","lat":35.80159313,"lon":139.2168608},{"name":"明星大学グラウンド","province":"東京都","city":"青梅市","address":"東京都青梅市長淵2丁目590","lat":35.77275567,"lon":139.26727244},{"name":"第九方面交通機動隊青梅分駐所","province":"東京都","city":"青梅市","address":"青梅市野上町4-6-3","lat":35.787391,"lon":139.289092},{"name":"青梅警察署","province":"東京都","city":"青梅市","address":"青梅市野上町4-6-3","lat":35.787391,"lon":139.289092},{"name":"青梅消防署","province":"東京都","city":"青梅市","address":"青梅市師岡町3-2-5","lat":35.78895,"lon":139.2836},{"name":"青梅市市民球技場（野球場）","province":"東京都","city":"青梅市","address":"青梅市河辺町1丁目地先","lat":35.77862,"lon":139.2878},{"name":"青梅市民球技場","province":"東京都","city":"青梅市","address":"青梅市河辺町1-872-1","lat":35.77784,"lon":139.2872},{"name":"青梅市立総合病院ヘリポート","province":"東京都","city":"青梅市","address":"青梅市東青梅4-16-5","lat":35.782547,"lon":139.281268},{"name":"※青梅市本庁舎","province":"東京都","city":"青梅市","address":"東京都青梅市東青梅1丁目11-1","lat":35.78785689,"lon":139.27583503},{"name":"青梅駅","province":"東京都","city":"青梅市","address":"東京都青梅市本町192","lat":35.79023939,"lon":139.2576703},{"name":"河辺駅北口自転車等駐車場","province":"東京都","city":"青梅市","address":"東京都青梅市河辺町5丁目29-39","lat":35.78495746,"lon":139.28394548},{"name":"河辺駅南口自転車等駐車場","province":"東京都","city":"青梅市","address":"東京都青梅市河辺町5丁目29-40","lat":35.78390762,"lon":139.28538428},{"name":"青梅駅自転車等駐車場","province":"東京都","city":"青梅市","address":"東京都青梅市本町163-11","lat":35.79005612,"lon":139.25916734},{"name":"東青梅駅北口自転車等駐車場","province":"東京都","city":"青梅市","address":"東京都青梅市東青梅2丁目14-9","lat":35.78988713,"lon":139.27302133},{"name":"東青梅駅南口自転車等駐車場","province":"東京都","city":"青梅市","address":"東京都青梅市東青梅1丁目6-8","lat":35.7889039,"lon":139.27222421},{"name":"西多摩保健所","province":"東京都","city":"青梅市","address":"東京都青梅市東青梅5丁目19-6","lat":35.78983461,"lon":139.28217046},{"name":"青梅市本庁舎","province":"東京都","city":"青梅市","address":"東京都青梅市東青梅1丁目11-1","lat":35.78785689,"lon":139.27583503},{"name":"青梅市民球技場","province":"東京都","city":"青梅市","address":"東京都青梅市河辺町1丁目872-1","lat":35.77784173,"lon":139.28723709},{"name":"青梅市立第六小学校","province":"東京都","city":"青梅市","address":"東京都青梅市二俣尾3丁目903-1","lat":35.80159313,"lon":139.2168608},{"name":"明星大学グラウンド","province":"東京都","city":"青梅市","address":"東京都青梅市長淵2丁目590","lat":35.77275567,"lon":139.26727244},{"name":"第九方面交通機動隊青梅分駐所","province":"東京都","city":"青梅市","address":"青梅市野上町4-6-3","lat":35.787391,"lon":139.289092},{"name":"青梅警察署","province":"東京都","city":"青梅市","address":"青梅市野上町4-6-3","lat":35.787391,"lon":139.289092},{"name":"青梅消防署","province":"東京都","city":"青梅市","address":"青梅市師岡町3-2-5","lat":35.78895,"lon":139.2836},{"name":"青梅市市民球技場（野球場）","province":"東京都","city":"青梅市","address":"青梅市河辺町1丁目地先","lat":35.77862,"lon":139.2878},{"name":"青梅市民球技場","province":"東京都","city":"青梅市","address":"青梅市河辺町1-872-1","lat":35.77784,"lon":139.2872},{"name":"青梅市立総合病院ヘリポート","province":"東京都","city":"青梅市","address":"青梅市東青梅4-16-5","lat":35.782547,"lon":139.281268},{"name":"※青梅市本庁舎","province":"東京都","city":"青梅市","address":"東京都青梅市東青梅1丁目11-1","lat":35.78785689,"lon":139.27583503},{"name":"青梅駅","province":"東京都","city":"青梅市","address":"東京都青梅市本町192","lat":35.79023939,"lon":139.2576703},{"name":"河辺駅北口自転車等駐車場","province":"東京都","city":"青梅市","address":"東京都青梅市河辺町5丁目29-39","lat":35.78495746,"lon":139.28394548},{"name":"河辺駅南口自転車等駐車場","province":"東京都","city":"青梅市","address":"東京都青梅市河辺町5丁目29-40","lat":35.78390762,"lon":139.28538428},{"name":"青梅駅自転車等駐車場","province":"東京都","city":"青梅市","address":"東京都青梅市本町163-11","lat":35.79005612,"lon":139.25916734},{"name":"東青梅駅北口自転車等駐車場","province":"東京都","city":"青梅市","address":"東京都青梅市東青梅2丁目14-9","lat":35.78988713,"lon":139.27302133},{"name":"東青梅駅南口自転車等駐車場","province":"東京都","city":"青梅市","address":"東京都青梅市東青梅1丁目6-8","lat":35.7889039,"lon":139.27222421},{"name":"西多摩保健所","province":"東京都","city":"青梅市","address":"東京都青梅市東青梅5丁目19-6","lat":35.78983461,"lon":139.28217046},{"name":"青梅市本庁舎","province":"東京都","city":"青梅市","address":"東京都青梅市東青梅1丁目11-1","lat":35.78785689,"lon":139.27583503},{"name":"青梅市民球技場","province":"東京都","city":"青梅市","address":"東京都青梅市河辺町1丁目872-1","lat":35.77784173,"lon":139.28723709},{"name":"青梅市立第六小学校","province":"東京都","city":"青梅市","address":"東京都青梅市二俣尾3丁目903-1","lat":35.80159313,"lon":139.2168608},{"name":"明星大学グラウンド","province":"東京都","city":"青梅市","address":"東京都青梅市長淵2丁目590","lat":35.77275567,"lon":139.26727244},{"name":"第九方面交通機動隊青梅分駐所","province":"東京都","city":"青梅市","address":"青梅市野上町4-6-3","lat":35.787391,"lon":139.289092},{"name":"青梅警察署","province":"東京都","city":"青梅市","address":"青梅市野上町4-6-3","lat":35.787391,"lon":139.289092},{"name":"青梅消防署","province":"東京都","city":"青梅市","address":"青梅市師岡町3-2-5","lat":35.78895,"lon":139.2836},{"name":"青梅市市民球技場（野球場）","province":"東京都","city":"青梅市","address":"青梅市河辺町1丁目地先","lat":35.77862,"lon":139.2878},{"name":"青梅市民球技場","province":"東京都","city":"青梅市","address":"青梅市河辺町1-872-1","lat":35.77784,"lon":139.2872},{"name":"青梅市立総合病院ヘリポート","province":"東京都","city":"青梅市","address":"青梅市東青梅4-16-5","lat":35.782547,"lon":139.281268},{"name":"※青梅市本庁舎","province":"東京都","city":"青梅市","address":"東京都青梅市東青梅1丁目11-1","lat":35.78785689,"lon":139.27583503},{"name":"青梅駅","province":"東京都","city":"青梅市","address":"東京都青梅市本町192","lat":35.79023939,"lon":139.2576703},{"name":"河辺駅北口自転車等駐車場","province":"東京都","city":"青梅市","address":"東京都青梅市河辺町5丁目29-39","lat":35.78495746,"lon":139.28394548},{"name":"河辺駅南口自転車等駐車場","province":"東京都","city":"青梅市","address":"東京都青梅市河辺町5丁目29-40","lat":35.78390762,"lon":139.28538428},{"name":"青梅駅自転車等駐車場","province":"東京都","city":"青梅市","address":"東京都青梅市本町163-11","lat":35.79005612,"lon":139.25916734},{"name":"東青梅駅北口自転車等駐車場","province":"東京都","city":"青梅市","address":"東京都青梅市東青梅2丁目14-9","lat":35.78988713,"lon":139.27302133},{"name":"東青梅駅南口自転車等駐車場","province":"東京都","city":"青梅市","address":"東京都青梅市東青梅1丁目6-8","lat":35.7889039,"lon":139.27222421},{"name":"西多摩保健所","province":"東京都","city":"青梅市","address":"東京都青梅市東青梅5丁目19-6","lat":35.78983461,"lon":139.28217046},{"name":"青梅市本庁舎","province":"東京都","city":"青梅市","address":"東京都青梅市東青梅1丁目11-1","lat":35.78785689,"lon":139.27583503},{"name":"青梅市民球技場","province":"東京都","city":"青梅市","address":"東京都青梅市河辺町1丁目872-1","lat":35.77784173,"lon":139.28723709},{"name":"青梅市立第六小学校","province":"東京都","city":"青梅市","address":"東京都青梅市二俣尾3丁目903-1","lat":35.80159313,"lon":139.2168608},{"name":"明星大学グラウンド","province":"東京都","city":"青梅市","address":"東京都青梅市長淵2丁目590","lat":35.77275567,"lon":139.26727244},{"name":"第九方面交通機動隊青梅分駐所","province":"東京都","city":"青梅市","address":"青梅市野上町4-6-3","lat":35.787391,"lon":139.289092},{"name":"青梅警察署","province":"東京都","city":"青梅市","address":"青梅市野上町4-6-3","lat":35.787391,"lon":139.289092},{"name":"青梅消防署","province":"東京都","city":"青梅市","address":"青梅市師岡町3-2-5","lat":35.78895,"lon":139.2836},{"name":"青梅市市民球技場（野球場）","province":"東京都","city":"青梅市","address":"青梅市河辺町1丁目地先","lat":35.77862,"lon":139.2878},{"name":"青梅市民球技場","province":"東京都","city":"青梅市","address":"青梅市河辺町1-872-1","lat":35.77784,"lon":139.2872},{"name":"青梅市立総合病院ヘリポート","province":"東京都","city":"青梅市","address":"青梅市東青梅4-16-5","lat":35.782547,"lon":139.281268},{"name":"※青梅市本庁舎","province":"東京都","city":"青梅市","address":"東京都青梅市東青梅1丁目11-1","lat":35.78785689,"lon":139.27583503},{"name":"青梅駅","province":"東京都","city":"青梅市","address":"東京都青梅市本町192","lat":35.79023939,"lon":139.2576703},{"name":"河辺駅北口自転車等駐車場","province":"東京都","city":"青梅市","address":"東京都青梅市河辺町5丁目29-39","lat":35.78495746,"lon":139.28394548},{"name":"河辺駅南口自転車等駐車場","province":"東京都","city":"青梅市","address":"東京都青梅市河辺町5丁目29-40","lat":35.78390762,"lon":139.28538428},{"name":"青梅駅自転車等駐車場","province":"東京都","city":"青梅市","address":"東京都青梅市本町163-11","lat":35.79005612,"lon":139.25916734},{"name":"東青梅駅北口自転車等駐車場","province":"東京都","city":"青梅市","address":"東京都青梅市東青梅2丁目14-9","lat":35.78988713,"lon":139.27302133},{"name":"東青梅駅南口自転車等駐車場","province":"東京都","city":"青梅市","address":"東京都青梅市東青梅1丁目6-8","lat":35.7889039,"lon":139.27222421},{"name":"西多摩保健所","province":"東京都","city":"青梅市","address":"東京都青梅市東青梅5丁目19-6","lat":35.78983461,"lon":139.28217046},{"name":"青梅市本庁舎","province":"東京都","city":"青梅市","address":"東京都青梅市東青梅1丁目11-1","lat":35.78785689,"lon":139.27583503},{"name":"青梅市民球技場","province":"東京都","city":"青梅市","address":"東京都青梅市河辺町1丁目872-1","lat":35.77784173,"lon":139.28723709},{"name":"青梅市立第六小学校","province":"東京都","city":"青梅市","address":"東京都青梅市二俣尾3丁目903-1","lat":35.80159313,"lon":139.2168608},{"name":"明星大学グラウンド","province":"東京都","city":"青梅市","address":"東京都青梅市長淵2丁目590","lat":35.77275567,"lon":139.26727244},{"name":"第九方面交通機動隊青梅分駐所","province":"東京都","city":"青梅市","address":"青梅市野上町4-6-3","lat":35.787391,"lon":139.289092},{"name":"青梅警察署","province":"東京都","city":"青梅市","address":"青梅市野上町4-6-3","lat":35.787391,"lon":139.289092},{"name":"青梅消防署","province":"東京都","city":"青梅市","address":"青梅市師岡町3-2-5","lat":35.78895,"lon":139.2836},{"name":"青梅市市民球技場（野球場）","province":"東京都","city":"青梅市","address":"青梅市河辺町1丁目地先","lat":35.77862,"lon":139.2878},{"name":"青梅市民球技場","province":"東京都","city":"青梅市","address":"青梅市河辺町1-872-1","lat":35.77784,"lon":139.2872},{"name":"青梅市立総合病院ヘリポート","province":"東京都","city":"青梅市","address":"青梅市東青梅4-16-5","lat":35.782547,"lon":139.281268},{"name":"※青梅市本庁舎","province":"東京都","city":"青梅市","address":"東京都青梅市東青梅1丁目11-1","lat":35.78785689,"lon":139.27583503},{"name":"青梅駅","province":"東京都","city":"青梅市","address":"東京都青梅市本町192","lat":35.79023939,"lon":139.2576703},{"name":"河辺駅北口自転車等駐車場","province":"東京都","city":"青梅市","address":"東京都青梅市河辺町5丁目29-39","lat":35.78495746,"lon":139.28394548},{"name":"河辺駅南口自転車等駐車場","province":"東京都","city":"青梅市","address":"東京都青梅市河辺町5丁目29-40","lat":35.78390762,"lon":139.28538428},{"name":"青梅駅自転車等駐車場","province":"東京都","city":"青梅市","address":"東京都青梅市本町163-11","lat":35.79005612,"lon":139.25916734},{"name":"東青梅駅北口自転車等駐車場","province":"東京都","city":"青梅市","address":"東京都青梅市東青梅2丁目14-9","lat":35.78988713,"lon":139.27302133},{"name":"東青梅駅南口自転車等駐車場","province":"東京都","city":"青梅市","address":"東京都青梅市東青梅1丁目6-8","lat":35.7889039,"lon":139.27222421},{"name":"西多摩保健所","province":"東京都","city":"青梅市","address":"東京都青梅市東青梅5丁目19-6","lat":35.78983461,"lon":139.28217046},{"name":"青梅市本庁舎","province":"東京都","city":"青梅市","address":"東京都青梅市東青梅1丁目11-1","lat":35.78785689,"lon":139.27583503},{"name":"青梅市民球技場","province":"東京都","city":"青梅市","address":"東京都青梅市河辺町1丁目872-1","lat":35.77784173,"lon":139.28723709},{"name":"青梅市立第六小学校","province":"東京都","city":"青梅市","address":"東京都青梅市二俣尾3丁目903-1","lat":35.80159313,"lon":139.2168608},{"name":"明星大学グラウンド","province":"東京都","city":"青梅市","address":"東京都青梅市長淵2丁目590","lat":35.77275567,"lon":139.26727244},{"name":"第九方面交通機動隊青梅分駐所","province":"東京都","city":"青梅市","address":"青梅市野上町4-6-3","lat":35.787391,"lon":139.289092},{"name":"青梅警察署","province":"東京都","city":"青梅市","address":"青梅市野上町4-6-3","lat":35.787391,"lon":139.289092},{"name":"青梅消防署","province":"東京都","city":"青梅市","address":"青梅市師岡町3-2-5","lat":35.78895,"lon":139.2836},{"name":"青梅市市民球技場（野球場）","province":"東京都","city":"青梅市","address":"青梅市河辺町1丁目地先","lat":35.77862,"lon":139.2878},{"name":"青梅市民球技場","province":"東京都","city":"青梅市","address":"青梅市河辺町1-872-1","lat":35.77784,"lon":139.2872},{"name":"青梅市立総合病院ヘリポート","province":"東京都","city":"青梅市","address":"青梅市東青梅4-16-5","lat":35.782547,"lon":139.281268},{"name":"※青梅市本庁舎","province":"東京都","city":"青梅市","address":"東京都青梅市東青梅1丁目11-1","lat":35.78785689,"lon":139.27583503},{"name":"青梅駅","province":"東京都","city":"青梅市","address":"東京都青梅市本町192","lat":35.79023939,"lon":139.2576703},{"name":"河辺駅北口自転車等駐車場","province":"東京都","city":"青梅市","address":"東京都青梅市河辺町5丁目29-39","lat":35.78495746,"lon":139.28394548},{"name":"河辺駅南口自転車等駐車場","province":"東京都","city":"青梅市","address":"東京都青梅市河辺町5丁目29-40","lat":35.78390762,"lon":139.28538428},{"name":"青梅駅自転車等駐車場","province":"東京都","city":"青梅市","address":"東京都青梅市本町163-11","lat":35.79005612,"lon":139.25916734},{"name":"東青梅駅北口自転車等駐車場","province":"東京都","city":"青梅市","address":"東京都青梅市東青梅2丁目14-9","lat":35.78988713,"lon":139.27302133},{"name":"東青梅駅南口自転車等駐車場","province":"東京都","city":"青梅市","address":"東京都青梅市東青梅1丁目6-8","lat":35.7889039,"lon":139.27222421},{"name":"西多摩保健所","province":"東京都","city":"青梅市","address":"東京都青梅市東青梅5丁目19-6","lat":35.78983461,"lon":139.28217046},{"name":"青梅市本庁舎","province":"東京都","city":"青梅市","address":"東京都青梅市東青梅1丁目11-1","lat":35.78785689,"lon":139.27583503},{"name":"青梅市民球技場","province":"東京都","city":"青梅市","address":"東京都青梅市河辺町1丁目872-1","lat":35.77784173,"lon":139.28723709},{"name":"青梅市立第六小学校","province":"東京都","city":"青梅市","address":"東京都青梅市二俣尾3丁目903-1","lat":35.80159313,"lon":139.2168608},{"name":"明星大学グラウンド","province":"東京都","city":"青梅市","address":"東京都青梅市長淵2丁目590","lat":35.77275567,"lon":139.26727244},{"name":"第九方面交通機動隊青梅分駐所","province":"東京都","city":"青梅市","address":"青梅市野上町4-6-3","lat":35.787391,"lon":139.289092},{"name":"青梅警察署","province":"東京都","city":"青梅市","address":"青梅市野上町4-6-3","lat":35.787391,"lon":139.289092},{"name":"青梅消防署","province":"東京都","city":"青梅市","address":"青梅市師岡町3-2-5","lat":35.78895,"lon":139.2836},{"name":"青梅市市民球技場（野球場）","province":"東京都","city":"青梅市","address":"青梅市河辺町1丁目地先","lat":35.77862,"lon":139.2878},{"name":"青梅市民球技場","province":"東京都","city":"青梅市","address":"青梅市河辺町1-872-1","lat":35.77784,"lon":139.2872},{"name":"青梅市立総合病院ヘリポート","province":"東京都","city":"青梅市","address":"青梅市東青梅4-16-5","lat":35.782547,"lon":139.281268},{"name":"※青梅市本庁舎","province":"東京都","city":"青梅市","address":"東京都青梅市東青梅1丁目11-1","lat":35.78785689,"lon":139.27583503},{"name":"青梅駅","province":"東京都","city":"青梅市","address":"東京都青梅市本町192","lat":35.79023939,"lon":139.2576703},{"name":"河辺駅北口自転車等駐車場","province":"東京都","city":"青梅市","address":"東京都青梅市河辺町5丁目29-39","lat":35.78495746,"lon":139.28394548},{"name":"河辺駅南口自転車等駐車場","province":"東京都","city":"青梅市","address":"東京都青梅市河辺町5丁目29-40","lat":35.78390762,"lon":139.28538428},{"name":"青梅駅自転車等駐車場","province":"東京都","city":"青梅市","address":"東京都青梅市本町163-11","lat":35.79005612,"lon":139.25916734},{"name":"東青梅駅北口自転車等駐車場","province":"東京都","city":"青梅市","address":"東京都青梅市東青梅2丁目14-9","lat":35.78988713,"lon":139.27302133},{"name":"東青梅駅南口自転車等駐車場","province":"東京都","city":"青梅市","address":"東京都青梅市東青梅1丁目6-8","lat":35.7889039,"lon":139.27222421},{"name":"西多摩保健所","province":"東京都","city":"青梅市","address":"東京都青梅市東青梅5丁目19-6","lat":35.78983461,"lon":139.28217046},{"name":"青梅市本庁舎","province":"東京都","city":"青梅市","address":"東京都青梅市東青梅1丁目11-1","lat":35.78785689,"lon":139.27583503},{"name":"青梅市民球技場","province":"東京都","city":"青梅市","address":"東京都青梅市河辺町1丁目872-1","lat":35.77784173,"lon":139.28723709},{"name":"青梅市立第六小学校","province":"東京都","city":"青梅市","address":"東京都青梅市二俣尾3丁目903-1","lat":35.80159313,"lon":139.2168608},{"name":"明星大学グラウンド","province":"東京都","city":"青梅市","address":"東京都青梅市長淵2丁目590","lat":35.77275567,"lon":139.26727244},{"name":"第九方面交通機動隊青梅分駐所","province":"東京都","city":"青梅市","address":"青梅市野上町4-6-3","lat":35.787391,"lon":139.289092},{"name":"青梅警察署","province":"東京都","city":"青梅市","address":"青梅市野上町4-6-3","lat":35.787391,"lon":139.289092},{"name":"青梅消防署","province":"東京都","city":"青梅市","address":"青梅市師岡町3-2-5","lat":35.78895,"lon":139.2836},{"name":"青梅市市民球技場（野球場）","province":"東京都","city":"青梅市","address":"青梅市河辺町1丁目地先","lat":35.77862,"lon":139.2878},{"name":"青梅市民球技場","province":"東京都","city":"青梅市","address":"青梅市河辺町1-872-1","lat":35.77784,"lon":139.2872},{"name":"青梅市立総合病院ヘリポート","province":"東京都","city":"青梅市","address":"青梅市東青梅4-16-5","lat":35.782547,"lon":139.281268},{"name":"※青梅市本庁舎","province":"東京都","city":"青梅市","address":"東京都青梅市東青梅1丁目11-1","lat":35.78785689,"lon":139.27583503},{"name":"青梅駅","province":"東京都","city":"青梅市","address":"東京都青梅市本町192","lat":35.79023939,"lon":139.2576703},{"name":"河辺駅北口自転車等駐車場","province":"東京都","city":"青梅市","address":"東京都青梅市河辺町5丁目29-39","lat":35.78495746,"lon":139.28394548},{"name":"河辺駅南口自転車等駐車場","province":"東京都","city":"青梅市","address":"東京都青梅市河辺町5丁目29-40","lat":35.78390762,"lon":139.28538428},{"name":"青梅駅自転車等駐車場","province":"東京都","city":"青梅市","address":"東京都青梅市本町163-11","lat":35.79005612,"lon":139.25916734},{"name":"東青梅駅北口自転車等駐車場","province":"東京都","city":"青梅市","address":"東京都青梅市東青梅2丁目14-9","lat":35.78988713,"lon":139.27302133},{"name":"東青梅駅南口自転車等駐車場","province":"東京都","city":"青梅市","address":"東京都青梅市東青梅1丁目6-8","lat":35.7889039,"lon":139.27222421},{"name":"西多摩保健所","province":"東京都","city":"青梅市","address":"東京都青梅市東青梅5丁目19-6","lat":35.78983461,"lon":139.28217046},{"name":"青梅市本庁舎","province":"東京都","city":"青梅市","address":"東京都青梅市東青梅1丁目11-1","lat":35.78785689,"lon":139.27583503},{"name":"青梅市民球技場","province":"東京都","city":"青梅市","address":"東京都青梅市河辺町1丁目872-1","lat":35.77784173,"lon":139.28723709},{"name":"青梅市立第六小学校","province":"東京都","city":"青梅市","address":"東京都青梅市二俣尾3丁目903-1","lat":35.80159313,"lon":139.2168608},{"name":"明星大学グラウンド","province":"東京都","city":"青梅市","address":"東京都青梅市長淵2丁目590","lat":35.77275567,"lon":139.26727244},{"name":"第九方面交通機動隊青梅分駐所","province":"東京都","city":"青梅市","address":"青梅市野上町4-6-3","lat":35.787391,"lon":139.289092},{"name":"青梅警察署","province":"東京都","city":"青梅市","address":"青梅市野上町4-6-3","lat":35.787391,"lon":139.289092},{"name":"青梅消防署","province":"東京都","city":"青梅市","address":"青梅市師岡町3-2-5","lat":35.78895,"lon":139.2836},{"name":"青梅市市民球技場（野球場）","province":"東京都","city":"青梅市","address":"青梅市河辺町1丁目地先","lat":35.77862,"lon":139.2878},{"name":"青梅市民球技場","province":"東京都","city":"青梅市","address":"青梅市河辺町1-872-1","lat":35.77784,"lon":139.2872},{"name":"青梅市立総合病院ヘリポート","province":"東京都","city":"青梅市","address":"青梅市東青梅4-16-5","lat":35.782547,"lon":139.281268},{"name":"※青梅市本庁舎","province":"東京都","city":"青梅市","address":"東京都青梅市東青梅1丁目11-1","lat":35.78785689,"lon":139.27583503},{"name":"青梅駅","province":"東京都","city":"青梅市","address":"東京都青梅市本町192","lat":35.79023939,"lon":139.2576703},{"name":"河辺駅北口自転車等駐車場","province":"東京都","city":"青梅市","address":"東京都青梅市河辺町5丁目29-39","lat":35.78495746,"lon":139.28394548},{"name":"河辺駅南口自転車等駐車場","province":"東京都","city":"青梅市","address":"東京都青梅市河辺町5丁目29-40","lat":35.78390762,"lon":139.28538428},{"name":"青梅駅自転車等駐車場","province":"東京都","city":"青梅市","address":"東京都青梅市本町163-11","lat":35.79005612,"lon":139.25916734},{"name":"東青梅駅北口自転車等駐車場","province":"東京都","city":"青梅市","address":"東京都青梅市東青梅2丁目14-9","lat":35.78988713,"lon":139.27302133},{"name":"東青梅駅南口自転車等駐車場","province":"東京都","city":"青梅市","address":"東京都青梅市東青梅1丁目6-8","lat":35.7889039,"lon":139.27222421},{"name":"西多摩保健所","province":"東京都","city":"青梅市","address":"東京都青梅市東青梅5丁目19-6","lat":35.78983461,"lon":139.28217046},{"name":"青梅市本庁舎","province":"東京都","city":"青梅市","address":"東京都青梅市東青梅1丁目11-1","lat":35.78785689,"lon":139.27583503},{"name":"青梅市民球技場","province":"東京都","city":"青梅市","address":"東京都青梅市河辺町1丁目872-1","lat":35.77784173,"lon":139.28723709},{"name":"青梅市立第六小学校","province":"東京都","city":"青梅市","address":"東京都青梅市二俣尾3丁目903-1","lat":35.80159313,"lon":139.2168608},{"name":"明星大学グラウンド","province":"東京都","city":"青梅市","address":"東京都青梅市長淵2丁目590","lat":35.77275567,"lon":139.26727244},{"name":"第九方面交通機動隊青梅分駐所","province":"東京都","city":"青梅市","address":"青梅市野上町4-6-3","lat":35.787391,"lon":139.289092},{"name":"青梅警察署","province":"東京都","city":"青梅市","address":"青梅市野上町4-6-3","lat":35.787391,"lon":139.289092},{"name":"青梅消防署","province":"東京都","city":"青梅市","address":"青梅市師岡町3-2-5","lat":35.78895,"lon":139.2836},{"name":"青梅市市民球技場（野球場）","province":"東京都","city":"青梅市","address":"青梅市河辺町1丁目地先","lat":35.77862,"lon":139.2878},{"name":"青梅市民球技場","province":"東京都","city":"青梅市","address":"青梅市河辺町1-872-1","lat":35.77784,"lon":139.2872},{"name":"青梅市立総合病院ヘリポート","province":"東京都","city":"青梅市","address":"青梅市東青梅4-16-5","lat":35.782547,"lon":139.281268},{"name":"※青梅市本庁舎","province":"東京都","city":"青梅市","address":"東京都青梅市東青梅1丁目11-1","lat":35.78785689,"lon":139.27583503},{"name":"青梅駅","province":"東京都","city":"青梅市","address":"東京都青梅市本町192","lat":35.79023939,"lon":139.2576703},{"name":"河辺駅北口自転車等駐車場","province":"東京都","city":"青梅市","address":"東京都青梅市河辺町5丁目29-39","lat":35.78495746,"lon":139.28394548},{"name":"河辺駅南口自転車等駐車場","province":"東京都","city":"青梅市","address":"東京都青梅市河辺町5丁目29-40","lat":35.78390762,"lon":139.28538428},{"name":"青梅駅自転車等駐車場","province":"東京都","city":"青梅市","address":"東京都青梅市本町163-11","lat":35.79005612,"lon":139.25916734},{"name":"東青梅駅北口自転車等駐車場","province":"東京都","city":"青梅市","address":"東京都青梅市東青梅2丁目14-9","lat":35.78988713,"lon":139.27302133},{"name":"東青梅駅南口自転車等駐車場","province":"東京都","city":"青梅市","address":"東京都青梅市東青梅1丁目6-8","lat":35.7889039,"lon":139.27222421},{"name":"青梅市本庁舎","province":"東京都","city":"青梅市","address":"東京都青梅市東青梅1丁目11-1","lat":35.78785689,"lon":139.27583503},{"name":"青梅市民球技場","province":"東京都","city":"青梅市","address":"東京都青梅市河辺町1丁目872-1","lat":35.77784173,"lon":139.28723709},{"name":"青梅市立第六小学校","province":"東京都","city":"青梅市","address":"東京都青梅市二俣尾3丁目903-1","lat":35.80159313,"lon":139.2168608},{"name":"明星大学グラウンド","province":"東京都","city":"青梅市","address":"東京都青梅市長淵2丁目590","lat":35.77275567,"lon":139.26727244},{"name":"※青梅市本庁舎","province":"東京都","city":"青梅市","address":"東京都青梅市東青梅1丁目11-1","lat":35.78785689,"lon":139.27583503},{"name":"青梅駅","province":"東京都","city":"青梅市","address":"東京都青梅市本町192","lat":35.79023939,"lon":139.2576703},{"name":"河辺駅北口自転車等駐車場","province":"東京都","city":"青梅市","address":"東京都青梅市河辺町5丁目29-39","lat":35.78495746,"lon":139.28394548},{"name":"河辺駅南口自転車等駐車場","province":"東京都","city":"青梅市","address":"東京都青梅市河辺町5丁目29-40","lat":35.78390762,"lon":139.28538428},{"name":"青梅駅自転車等駐車場","province":"東京都","city":"青梅市","address":"東京都青梅市本町163-11","lat":35.79005612,"lon":139.25916734},{"name":"東青梅駅北口自転車等駐車場","province":"東京都","city":"青梅市","address":"東京都青梅市東青梅2丁目14-9","lat":35.78988713,"lon":139.27302133},{"name":"東青梅駅南口自転車等駐車場","province":"東京都","city":"青梅市","address":"東京都青梅市東青梅1丁目6-8","lat":35.7889039,"lon":139.27222421},{"name":"青梅市本庁舎","province":"東京都","city":"青梅市","address":"東京都青梅市東青梅1丁目11-1","lat":35.78785689,"lon":139.27583503},{"name":"青梅市民球技場","province":"東京都","city":"青梅市","address":"東京都青梅市河辺町1丁目872-1","lat":35.77784173,"lon":139.28723709},{"name":"青梅市立第六小学校","province":"東京都","city":"青梅市","address":"東京都青梅市二俣尾3丁目903-1","lat":35.80159313,"lon":139.2168608},{"name":"明星大学グラウンド","province":"東京都","city":"青梅市","address":"東京都青梅市長淵2丁目590","lat":35.77275567,"lon":139.26727244},{"name":"※青梅市本庁舎","province":"東京都","city":"青梅市","address":"東京都青梅市東青梅1丁目11-1","lat":35.78785689,"lon":139.27583503},{"name":"青梅駅","province":"東京都","city":"青梅市","address":"東京都青梅市本町192","lat":35.79023939,"lon":139.2576703},{"name":"河辺駅北口自転車等駐車場","province":"東京都","city":"青梅市","address":"東京都青梅市河辺町5丁目29-39","lat":35.78495746,"lon":139.28394548},{"name":"河辺駅南口自転車等駐車場","province":"東京都","city":"青梅市","address":"東京都青梅市河辺町5丁目29-40","lat":35.78390762,"lon":139.28538428},{"name":"青梅駅自転車等駐車場","province":"東京都","city":"青梅市","address":"東京都青梅市本町163-11","lat":35.79005612,"lon":139.25916734},{"name":"東青梅駅北口自転車等駐車場","province":"東京都","city":"青梅市","address":"東京都青梅市東青梅2丁目14-9","lat":35.78988713,"lon":139.27302133},{"name":"東青梅駅南口自転車等駐車場","province":"東京都","city":"青梅市","address":"東京都青梅市東青梅1丁目6-8","lat":35.7889039,"lon":139.27222421},{"name":"青梅市本庁舎","province":"東京都","city":"青梅市","address":"東京都青梅市東青梅1丁目11-1","lat":35.78785689,"lon":139.27583503},{"name":"青梅市民球技場","province":"東京都","city":"青梅市","address":"東京都青梅市河辺町1丁目872-1","lat":35.77784173,"lon":139.28723709},{"name":"青梅市立第六小学校","province":"東京都","city":"青梅市","address":"東京都青梅市二俣尾3丁目903-1","lat":35.80159313,"lon":139.2168608},{"name":"明星大学グラウンド","province":"東京都","city":"青梅市","address":"東京都青梅市長淵2丁目590","lat":35.77275567,"lon":139.26727244},{"name":"※青梅市本庁舎","province":"東京都","city":"青梅市","address":"東京都青梅市東青梅1丁目11-1","lat":35.78785689,"lon":139.27583503},{"name":"青梅駅","province":"東京都","city":"青梅市","address":"東京都青梅市本町192","lat":35.79023939,"lon":139.2576703},{"name":"河辺駅北口自転車等駐車場","province":"東京都","city":"青梅市","address":"東京都青梅市河辺町5丁目29-39","lat":35.78495746,"lon":139.28394548},{"name":"河辺駅南口自転車等駐車場","province":"東京都","city":"青梅市","address":"東京都青梅市河辺町5丁目29-40","lat":35.78390762,"lon":139.28538428},{"name":"青梅駅自転車等駐車場","province":"東京都","city":"青梅市","address":"東京都青梅市本町163-11","lat":35.79005612,"lon":139.25916734},{"name":"東青梅駅北口自転車等駐車場","province":"東京都","city":"青梅市","address":"東京都青梅市東青梅2丁目14-9","lat":35.78988713,"lon":139.27302133},{"name":"東青梅駅南口自転車等駐車場","province":"東京都","city":"青梅市","address":"東京都青梅市東青梅1丁目6-8","lat":35.7889039,"lon":139.27222421},{"name":"青梅市本庁舎","province":"東京都","city":"青梅市","address":"東京都青梅市東青梅1丁目11-1","lat":35.78785689,"lon":139.27583503},{"name":"青梅市民球技場","province":"東京都","city":"青梅市","address":"東京都青梅市河辺町1丁目872-1","lat":35.77784173,"lon":139.28723709},{"name":"青梅市立第六小学校","province":"東京都","city":"青梅市","address":"東京都青梅市二俣尾3丁目903-1","lat":35.80159313,"lon":139.2168608},{"name":"明星大学グラウンド","province":"東京都","city":"青梅市","address":"東京都青梅市長淵2丁目590","lat":35.77275567,"lon":139.26727244},{"name":"※青梅市本庁舎","province":"東京都","city":"青梅市","address":"東京都青梅市東青梅1丁目11-1","lat":35.78785689,"lon":139.27583503},{"name":"青梅駅","province":"東京都","city":"青梅市","address":"東京都青梅市本町192","lat":35.79023939,"lon":139.2576703},{"name":"河辺駅北口自転車等駐車場","province":"東京都","city":"青梅市","address":"東京都青梅市河辺町5丁目29-39","lat":35.78495746,"lon":139.28394548},{"name":"河辺駅南口自転車等駐車場","province":"東京都","city":"青梅市","address":"東京都青梅市河辺町5丁目29-40","lat":35.78390762,"lon":139.28538428},{"name":"青梅駅自転車等駐車場","province":"東京都","city":"青梅市","address":"東京都青梅市本町163-11","lat":35.79005612,"lon":139.25916734},{"name":"東青梅駅北口自転車等駐車場","province":"東京都","city":"青梅市","address":"東京都青梅市東青梅2丁目14-9","lat":35.78988713,"lon":139.27302133},{"name":"東青梅駅南口自転車等駐車場","province":"東京都","city":"青梅市","address":"東京都青梅市東青梅1丁目6-8","lat":35.7889039,"lon":139.27222421},{"name":"青梅市本庁舎","province":"東京都","city":"青梅市","address":"東京都青梅市東青梅1丁目11-1","lat":35.78785689,"lon":139.27583503},{"name":"青梅市民球技場","province":"東京都","city":"青梅市","address":"東京都青梅市河辺町1丁目872-1","lat":35.77784173,"lon":139.28723709},{"name":"青梅市立第六小学校","province":"東京都","city":"青梅市","address":"東京都青梅市二俣尾3丁目903-1","lat":35.80159313,"lon":139.2168608},{"name":"明星大学グラウンド","province":"東京都","city":"青梅市","address":"東京都青梅市長淵2丁目590","lat":35.77275567,"lon":139.26727244},{"name":"※青梅市本庁舎","province":"東京都","city":"青梅市","address":"東京都青梅市東青梅1丁目11-1","lat":35.78785689,"lon":139.27583503},{"name":"青梅駅","province":"東京都","city":"青梅市","address":"東京都青梅市本町192","lat":35.79023939,"lon":139.2576703},{"name":"河辺駅北口自転車等駐車場","province":"東京都","city":"青梅市","address":"東京都青梅市河辺町5丁目29-39","lat":35.78495746,"lon":139.28394548},{"name":"河辺駅南口自転車等駐車場","province":"東京都","city":"青梅市","address":"東京都青梅市河辺町5丁目29-40","lat":35.78390762,"lon":139.28538428},{"name":"青梅駅自転車等駐車場","province":"東京都","city":"青梅市","address":"東京都青梅市本町163-11","lat":35.79005612,"lon":139.25916734},{"name":"東青梅駅北口自転車等駐車場","province":"東京都","city":"青梅市","address":"東京都青梅市東青梅2丁目14-9","lat":35.78988713,"lon":139.27302133},{"name":"東青梅駅南口自転車等駐車場","province":"東京都","city":"青梅市","address":"東京都青梅市東青梅1丁目6-8","lat":35.7889039,"lon":139.27222421},{"name":"青梅市本庁舎","province":"東京都","city":"青梅市","address":"東京都青梅市東青梅1丁目11-1","lat":35.78785689,"lon":139.27583503},{"name":"青梅市民球技場","province":"東京都","city":"青梅市","address":"東京都青梅市河辺町1丁目872-1","lat":35.77784173,"lon":139.28723709},{"name":"青梅市立第六小学校","province":"東京都","city":"青梅市","address":"東京都青梅市二俣尾3丁目903-1","lat":35.80159313,"lon":139.2168608},{"name":"明星大学グラウンド","province":"東京都","city":"青梅市","address":"東京都青梅市長淵2丁目590","lat":35.77275567,"lon":139.26727244},{"name":"※青梅市本庁舎","province":"東京都","city":"青梅市","address":"東京都青梅市東青梅1丁目11-1","lat":35.78785689,"lon":139.27583503},{"name":"青梅駅","province":"東京都","city":"青梅市","address":"東京都青梅市本町192","lat":35.79023939,"lon":139.2576703},{"name":"河辺駅北口自転車等駐車場","province":"東京都","city":"青梅市","address":"東京都青梅市河辺町5丁目29-39","lat":35.78495746,"lon":139.28394548},{"name":"河辺駅南口自転車等駐車場","province":"東京都","city":"青梅市","address":"東京都青梅市河辺町5丁目29-40","lat":35.78390762,"lon":139.28538428},{"name":"青梅駅自転車等駐車場","province":"東京都","city":"青梅市","address":"東京都青梅市本町163-11","lat":35.79005612,"lon":139.25916734},{"name":"東青梅駅北口自転車等駐車場","province":"東京都","city":"青梅市","address":"東京都青梅市東青梅2丁目14-9","lat":35.78988713,"lon":139.27302133},{"name":"東青梅駅南口自転車等駐車場","province":"東京都","city":"青梅市","address":"東京都青梅市東青梅1丁目6-8","lat":35.7889039,"lon":139.27222421},{"name":"青梅市本庁舎","province":"東京都","city":"青梅市","address":"東京都青梅市東青梅1丁目11-1","lat":35.78785689,"lon":139.27583503},{"name":"青梅市民球技場","province":"東京都","city":"青梅市","address":"東京都青梅市河辺町1丁目872-1","lat":35.77784173,"lon":139.28723709},{"name":"青梅市立第六小学校","province":"東京都","city":"青梅市","address":"東京都青梅市二俣尾3丁目903-1","lat":35.80159313,"lon":139.2168608},{"name":"明星大学グラウンド","province":"東京都","city":"青梅市","address":"東京都青梅市長淵2丁目590","lat":35.77275567,"lon":139.26727244},{"name":"※青梅市本庁舎","province":"東京都","city":"青梅市","address":"東京都青梅市東青梅1丁目11-1","lat":35.78785689,"lon":139.27583503},{"name":"青梅駅","province":"東京都","city":"青梅市","address":"東京都青梅市本町192","lat":35.79023939,"lon":139.2576703},{"name":"河辺駅北口自転車等駐車場","province":"東京都","city":"青梅市","address":"東京都青梅市河辺町5丁目29-39","lat":35.78495746,"lon":139.28394548},{"name":"河辺駅南口自転車等駐車場","province":"東京都","city":"青梅市","address":"東京都青梅市河辺町5丁目29-40","lat":35.78390762,"lon":139.28538428},{"name":"青梅駅自転車等駐車場","province":"東京都","city":"青梅市","address":"東京都青梅市本町163-11","lat":35.79005612,"lon":139.25916734},{"name":"東青梅駅北口自転車等駐車場","province":"東京都","city":"青梅市","address":"東京都青梅市東青梅2丁目14-9","lat":35.78988713,"lon":139.27302133},{"name":"東青梅駅南口自転車等駐車場","province":"東京都","city":"青梅市","address":"東京都青梅市東青梅1丁目6-8","lat":35.7889039,"lon":139.27222421},{"name":"青梅市本庁舎","province":"東京都","city":"青梅市","address":"東京都青梅市東青梅1丁目11-1","lat":35.78785689,"lon":139.27583503},{"name":"青梅市民球技場","province":"東京都","city":"青梅市","address":"東京都青梅市河辺町1丁目872-1","lat":35.77784173,"lon":139.28723709},{"name":"青梅市立第六小学校","province":"東京都","city":"青梅市","address":"東京都青梅市二俣尾3丁目903-1","lat":35.80159313,"lon":139.2168608},{"name":"明星大学グラウンド","province":"東京都","city":"青梅市","address":"東京都青梅市長淵2丁目590","lat":35.77275567,"lon":139.26727244},{"name":"※青梅市本庁舎","province":"東京都","city":"青梅市","address":"東京都青梅市東青梅1丁目11-1","lat":35.78785689,"lon":139.27583503},{"name":"青梅駅","province":"東京都","city":"青梅市","address":"東京都青梅市本町192","lat":35.79023939,"lon":139.2576703},{"name":"河辺駅北口自転車等駐車場","province":"東京都","city":"青梅市","address":"東京都青梅市河辺町5丁目29-39","lat":35.78495746,"lon":139.28394548},{"name":"河辺駅南口自転車等駐車場","province":"東京都","city":"青梅市","address":"東京都青梅市河辺町5丁目29-40","lat":35.78390762,"lon":139.28538428},{"name":"青梅駅自転車等駐車場","province":"東京都","city":"青梅市","address":"東京都青梅市本町163-11","lat":35.79005612,"lon":139.25916734},{"name":"東青梅駅北口自転車等駐車場","province":"東京都","city":"青梅市","address":"東京都青梅市東青梅2丁目14-9","lat":35.78988713,"lon":139.27302133},{"name":"東青梅駅南口自転車等駐車場","province":"東京都","city":"青梅市","address":"東京都青梅市東青梅1丁目6-8","lat":35.7889039,"lon":139.27222421},{"name":"青梅市本庁舎","province":"東京都","city":"青梅市","address":"東京都青梅市東青梅1丁目11-1","lat":35.78785689,"lon":139.27583503},{"name":"青梅市民球技場","province":"東京都","city":"青梅市","address":"東京都青梅市河辺町1丁目872-1","lat":35.77784173,"lon":139.28723709},{"name":"青梅市立第六小学校","province":"東京都","city":"青梅市","address":"東京都青梅市二俣尾3丁目903-1","lat":35.80159313,"lon":139.2168608},{"name":"明星大学グラウンド","province":"東京都","city":"青梅市","address":"東京都青梅市長淵2丁目590","lat":35.77275567,"lon":139.26727244},{"name":"※青梅市本庁舎","province":"東京都","city":"青梅市","address":"東京都青梅市東青梅1丁目11-1","lat":35.78785689,"lon":139.27583503},{"name":"青梅駅","province":"東京都","city":"青梅市","address":"東京都青梅市本町192","lat":35.79023939,"lon":139.2576703},{"name":"河辺駅北口自転車等駐車場","province":"東京都","city":"青梅市","address":"東京都青梅市河辺町5丁目29-39","lat":35.78495746,"lon":139.28394548},{"name":"河辺駅南口自転車等駐車場","province":"東京都","city":"青梅市","address":"東京都青梅市河辺町5丁目29-40","lat":35.78390762,"lon":139.28538428},{"name":"青梅駅自転車等駐車場","province":"東京都","city":"青梅市","address":"東京都青梅市本町163-11","lat":35.79005612,"lon":139.25916734},{"name":"東青梅駅北口自転車等駐車場","province":"東京都","city":"青梅市","address":"東京都青梅市東青梅2丁目14-9","lat":35.78988713,"lon":139.27302133},{"name":"東青梅駅南口自転車等駐車場","province":"東京都","city":"青梅市","address":"東京都青梅市東青梅1丁目6-8","lat":35.7889039,"lon":139.27222421},{"name":"青梅市本庁舎","province":"東京都","city":"青梅市","address":"東京都青梅市東青梅1丁目11-1","lat":35.78785689,"lon":139.27583503},{"name":"青梅市民球技場","province":"東京都","city":"青梅市","address":"東京都青梅市河辺町1丁目872-1","lat":35.77784173,"lon":139.28723709},{"name":"青梅市立第六小学校","province":"東京都","city":"青梅市","address":"東京都青梅市二俣尾3丁目903-1","lat":35.80159313,"lon":139.2168608},{"name":"明星大学グラウンド","province":"東京都","city":"青梅市","address":"東京都青梅市長淵2丁目590","lat":35.77275567,"lon":139.26727244},{"name":"※青梅市本庁舎","province":"東京都","city":"青梅市","address":"東京都青梅市東青梅1丁目11-1","lat":35.78785689,"lon":139.27583503},{"name":"青梅駅","province":"東京都","city":"青梅市","address":"東京都青梅市本町192","lat":35.79023939,"lon":139.2576703},{"name":"河辺駅北口自転車等駐車場","province":"東京都","city":"青梅市","address":"東京都青梅市河辺町5丁目29-39","lat":35.78495746,"lon":139.28394548},{"name":"河辺駅南口自転車等駐車場","province":"東京都","city":"青梅市","address":"東京都青梅市河辺町5丁目29-40","lat":35.78390762,"lon":139.28538428},{"name":"青梅駅自転車等駐車場","province":"東京都","city":"青梅市","address":"東京都青梅市本町163-11","lat":35.79005612,"lon":139.25916734},{"name":"東青梅駅北口自転車等駐車場","province":"東京都","city":"青梅市","address":"東京都青梅市東青梅2丁目14-9","lat":35.78988713,"lon":139.27302133},{"name":"東青梅駅南口自転車等駐車場","province":"東京都","city":"青梅市","address":"東京都青梅市東青梅1丁目6-8","lat":35.7889039,"lon":139.27222421},{"name":"青梅市本庁舎","province":"東京都","city":"青梅市","address":"東京都青梅市東青梅1丁目11-1","lat":35.78785689,"lon":139.27583503},{"name":"青梅市民球技場","province":"東京都","city":"青梅市","address":"東京都青梅市河辺町1丁目872-1","lat":35.77784173,"lon":139.28723709},{"name":"青梅市立第六小学校","province":"東京都","city":"青梅市","address":"東京都青梅市二俣尾3丁目903-1","lat":35.80159313,"lon":139.2168608},{"name":"明星大学グラウンド","province":"東京都","city":"青梅市","address":"東京都青梅市長淵2丁目590","lat":35.77275567,"lon":139.26727244},{"name":"※青梅市本庁舎","province":"東京都","city":"青梅市","address":"東京都青梅市東青梅1丁目11-1","lat":35.78785689,"lon":139.27583503},{"name":"青梅駅","province":"東京都","city":"青梅市","address":"東京都青梅市本町192","lat":35.79023939,"lon":139.2576703},{"name":"河辺駅北口自転車等駐車場","province":"東京都","city":"青梅市","address":"東京都青梅市河辺町5丁目29-39","lat":35.78495746,"lon":139.28394548},{"name":"河辺駅南口自転車等駐車場","province":"東京都","city":"青梅市","address":"東京都青梅市河辺町5丁目29-40","lat":35.78390762,"lon":139.28538428},{"name":"青梅駅自転車等駐車場","province":"東京都","city":"青梅市","address":"東京都青梅市本町163-11","lat":35.79005612,"lon":139.25916734},{"name":"東青梅駅北口自転車等駐車場","province":"東京都","city":"青梅市","address":"東京都青梅市東青梅2丁目14-9","lat":35.78988713,"lon":139.27302133},{"name":"東青梅駅南口自転車等駐車場","province":"東京都","city":"青梅市","address":"東京都青梅市東青梅1丁目6-8","lat":35.7889039,"lon":139.27222421},{"name":"青梅市本庁舎","province":"東京都","city":"青梅市","address":"東京都青梅市東青梅1丁目11-1","lat":35.78785689,"lon":139.27583503},{"name":"青梅市民球技場","province":"東京都","city":"青梅市","address":"東京都青梅市河辺町1丁目872-1","lat":35.77784173,"lon":139.28723709},{"name":"青梅市立第六小学校","province":"東京都","city":"青梅市","address":"東京都青梅市二俣尾3丁目903-1","lat":35.80159313,"lon":139.2168608},{"name":"明星大学グラウンド","province":"東京都","city":"青梅市","address":"東京都青梅市長淵2丁目590","lat":35.77275567,"lon":139.26727244},{"name":"※青梅市本庁舎","province":"東京都","city":"青梅市","address":"東京都青梅市東青梅1丁目11-1","lat":35.78785689,"lon":139.27583503},{"name":"青梅駅","province":"東京都","city":"青梅市","address":"東京都青梅市本町192","lat":35.79023939,"lon":139.2576703},{"name":"河辺駅北口自転車等駐車場","province":"東京都","city":"青梅市","address":"東京都青梅市河辺町5丁目29-39","lat":35.78495746,"lon":139.28394548},{"name":"河辺駅南口自転車等駐車場","province":"東京都","city":"青梅市","address":"東京都青梅市河辺町5丁目29-40","lat":35.78390762,"lon":139.28538428},{"name":"青梅駅自転車等駐車場","province":"東京都","city":"青梅市","address":"東京都青梅市本町163-11","lat":35.79005612,"lon":139.25916734},{"name":"東青梅駅北口自転車等駐車場","province":"東京都","city":"青梅市","address":"東京都青梅市東青梅2丁目14-9","lat":35.78988713,"lon":139.27302133},{"name":"東青梅駅南口自転車等駐車場","province":"東京都","city":"青梅市","address":"東京都青梅市東青梅1丁目6-8","lat":35.7889039,"lon":139.27222421},{"name":"青梅市本庁舎","province":"東京都","city":"青梅市","address":"東京都青梅市東青梅1丁目11-1","lat":35.78785689,"lon":139.27583503},{"name":"青梅市民球技場","province":"東京都","city":"青梅市","address":"東京都青梅市河辺町1丁目872-1","lat":35.77784173,"lon":139.28723709},{"name":"青梅市立第六小学校","province":"東京都","city":"青梅市","address":"東京都青梅市二俣尾3丁目903-1","lat":35.80159313,"lon":139.2168608},{"name":"明星大学グラウンド","province":"東京都","city":"青梅市","address":"東京都青梅市長淵2丁目590","lat":35.77275567,"lon":139.26727244},{"name":"※青梅市本庁舎","province":"東京都","city":"青梅市","address":"東京都青梅市東青梅1丁目11-1","lat":35.78785689,"lon":139.27583503},{"name":"青梅駅","province":"東京都","city":"青梅市","address":"東京都青梅市本町192","lat":35.79023939,"lon":139.2576703}]}