{"keyword":"収蔵","data":[{"name":"三田保育園","province":"東京都","city":"青梅市","address":"東京都青梅市沢井2-843","lat":35.806381,"lon":139.194046},{"name":"よしの保育園","province":"東京都","city":"青梅市","address":"東京都青梅市柚木町2-312-1","lat":35.799951,"lon":139.212102},{"name":"二俣尾保育園","province":"東京都","city":"青梅市","address":"東京都青梅市二俣尾4-1067","lat":35.805276,"lon":139.216183},{"name":"梅郷保育園","province":"東京都","city":"青梅市","address":"東京都青梅市梅郷3-776-7","lat":35.787845,"lon":139.223669},{"name":"青梅あけぼの幼稚園","province":"東京都","city":"青梅市","address":"東京都青梅市梅郷3-904-3","lat":35.789369,"lon":139.226434},{"name":"日向和田保育園","province":"東京都","city":"青梅市","address":"東京都青梅市日向和田2-374-7","lat":35.785411,"lon":139.235589},{"name":"畑中保育園","province":"東京都","city":"青梅市","address":"東京都青梅市畑中2-593","lat":35.783134,"lon":139.240923},{"name":"四恩幼稚園","province":"東京都","city":"青梅市","address":"東京都青梅市天ヶ瀬町1032","lat":35.789647,"lon":139.249935},{"name":"成木保育園","province":"東京都","city":"青梅市","address":"東京都青梅市成木4-683-5","lat":35.82291,"lon":139.24972},{"name":"駒木野保育園","province":"東京都","city":"青梅市","address":"東京都青梅市駒木町2-46-1","lat":35.78051,"lon":139.25259},{"name":"青梅保育園","province":"東京都","city":"青梅市","address":"東京都青梅市滝ノ上町1274-1","lat":35.78916,"lon":139.255594},{"name":"福島学園幼稚園","province":"東京都","city":"青梅市","address":"東京都青梅市千ヶ瀬町6-763","lat":35.787292,"lon":139.260425},{"name":"上長渕保育園","province":"東京都","city":"青梅市","address":"東京都青梅市長淵7-311","lat":35.781457,"lon":139.263236},{"name":"ちがせ保育園","province":"東京都","city":"青梅市","address":"東京都青梅市千ヶ瀬町3-389-9","lat":35.785466,"lon":139.268434},{"name":"聖母幼稚園","province":"東京都","city":"青梅市","address":"東京都青梅市勝沼1-197-1","lat":35.79256,"lon":139.26961},{"name":"かすみ保育園","province":"東京都","city":"青梅市","address":"東京都青梅市東青梅6-1-12","lat":35.793475,"lon":139.273004},{"name":"長渕保育園","province":"東京都","city":"青梅市","address":"東京都青梅市長淵4-225","lat":35.778491,"lon":139.274727},{"name":"おそき保育園","province":"東京都","city":"青梅市","address":"東京都青梅市小曾木4-2227-1","lat":35.822459,"lon":139.278145},{"name":"川村富美枝家庭的保育者","province":"東京都","city":"青梅市","address":"東京都青梅市東青梅5-25-36","lat":35.792084,"lon":139.279286},{"name":"青梅ゆりかご第二保育園","province":"東京都","city":"青梅市","address":"東京都青梅市東青梅5-18-55","lat":35.79012,"lon":139.28045},{"name":"青梅みどり第二保育園","province":"東京都","city":"青梅市","address":"東京都青梅市師岡町1-113-20","lat":35.794922,"lon":139.280987},{"name":"青梅ゆりかご保育園","province":"東京都","city":"青梅市","address":"東京都青梅市師岡町3-10-5","lat":35.791339,"lon":139.282423},{"name":"青梅みどり第一保育園","province":"東京都","city":"青梅市","address":"東京都青梅市師岡町4-8-8","lat":35.788476,"lon":139.283128},{"name":"河辺保育園","province":"東京都","city":"青梅市","address":"東京都青梅市河辺町4-20-12","lat":35.78097,"lon":139.286537},{"name":"友田保育園","province":"東京都","city":"青梅市","address":"東京都青梅市友田町4-106","lat":35.772175,"lon":139.288928},{"name":"かすみ台第三保育園","province":"東京都","city":"青梅市","address":"東京都青梅市谷野191-1","lat":35.80492,"lon":139.2897},{"name":"かすみ台第二保育園","province":"東京都","city":"青梅市","address":"東京都青梅市野上町3-12-1","lat":35.791709,"lon":139.290683},{"name":"青梅梨の木保育園","province":"東京都","city":"青梅市","address":"東京都青梅市河辺町6-12-3","lat":35.779331,"lon":139.291011},{"name":"木﨑久美子家庭的保育者","province":"東京都","city":"青梅市","address":"東京都青梅市谷野27-5","lat":35.80204,"lon":139.29108},{"name":"青梅幼稚園","province":"東京都","city":"青梅市","address":"東京都青梅市河辺町7-2-3","lat":35.781827,"lon":139.291589},{"name":"かすみ台第一保育園","province":"東京都","city":"青梅市","address":"東京都青梅市大門2-253","lat":35.795175,"lon":139.292544},{"name":"新町西保育園","province":"東京都","city":"青梅市","address":"東京都青梅市河辺町7-14-2","lat":35.78166,"lon":139.29542},{"name":"今寺保育園","province":"東京都","city":"青梅市","address":"東京都青梅市今寺1-531-2","lat":35.80009,"lon":139.29607},{"name":"鈴の音保育園","province":"東京都","city":"青梅市","address":"東京都青梅市大門3-4-5","lat":35.792429,"lon":139.297174},{"name":"ねむのき幼稚園","province":"東京都","city":"青梅市","address":"東京都青梅市新町2-33-4","lat":35.790524,"lon":139.302339},{"name":"新町保育園","province":"東京都","city":"青梅市","address":"東京都青梅市新町2-21-9","lat":35.788418,"lon":139.302566},{"name":"井梅清美家庭的保育者","province":"東京都","city":"青梅市","address":"東京都青梅市藤橋2-27-6","lat":35.799939,"lon":139.30309},{"name":"ＮＩＣＯＬＡＮＤほいくえん","province":"東京都","city":"青梅市","address":"東京都青梅市新町4-18-9","lat":35.786341,"lon":139.303379},{"name":"にこ森保育園","province":"東京都","city":"青梅市","address":"東京都青梅市新町4-14-16","lat":35.7854,"lon":139.30529},{"name":"あんじゅ保育園","province":"東京都","city":"青梅市","address":"東京都青梅市藤橋2-494-1","lat":35.80286,"lon":139.306607},{"name":"ちいさな鈴","province":"東京都","city":"青梅市","address":"東京都青梅市末広町2-7-34","lat":35.77799,"lon":139.30833},{"name":"今井保育園","province":"東京都","city":"青梅市","address":"東京都青梅市今井2-1125-2","lat":35.80408,"lon":139.31013},{"name":"青梅エンゼル保育園","province":"東京都","city":"青梅市","address":"東京都青梅市新町8-3-8","lat":35.781789,"lon":139.310976},{"name":"新町東保育園","province":"東京都","city":"青梅市","address":"東京都青梅市新町8-5-2","lat":35.782838,"lon":139.311615},{"name":"島崎千春家庭的保育者","province":"東京都","city":"青梅市","address":"東京都青梅市新町9-2016-40","lat":35.78073,"lon":139.31874},{"name":"あゆみ保育園","province":"東京都","city":"青梅市","address":"東京都青梅市新町9-2153-3","lat":35.780718,"lon":139.321096},{"name":"日向和田浄水所","province":"東京都","city":"青梅市","address":"東京都青梅市日向和田2-370","lat":35.7843741,"lon":139.234717},{"name":"千ヶ瀬第二浄水所","province":"東京都","city":"青梅市","address":"東京都青梅市千ヶ瀬町1-69-1","lat":35.7846878,"lon":139.277824},{"name":"御岳山第一配水所","province":"東京都","city":"青梅市","address":"東京都青梅市御岳山170-3","lat":35.78347,"lon":139.15112},{"name":"成木配水所","province":"東京都","city":"青梅市","address":"東京都青梅市成木8-690-3","lat":35.8187204,"lon":139.241891},{"name":"新町給水所","province":"東京都","city":"青梅市","address":"東京都青梅市新町5-24-1","lat":35.7884612,"lon":139.308874},{"name":"二俣尾配水所","province":"東京都","city":"青梅市","address":"東京都青梅市二俣尾5-107-2","lat":35.8152563,"lon":139.2066375},{"name":"城山配水所","province":"東京都","city":"青梅市","address":"東京都青梅市東青梅6-95-1","lat":35.796712,"lon":139.272305},{"name":"梅郷配水所","province":"東京都","city":"青梅市","address":"東京都青梅市和田町2-578-1","lat":35.782215,"lon":139.226243},{"name":"西多摩福祉事務所","province":"東京都","city":"青梅市","address":"東京都青梅市河辺町6丁目4-1","lat":35.77999986,"lon":139.28959793},{"name":"青梅市立総合病院","province":"東京都","city":"青梅市","address":"東京都青梅市東青梅4丁目16-5","lat":35.78202441,"lon":139.28118194},{"name":"日向和田浄水所","province":"東京都","city":"青梅市","address":"東京都青梅市日向和田2丁目370","lat":35.78437016,"lon":139.23479499},{"name":"千ヶ瀬第二浄水所","province":"東京都","city":"青梅市","address":"東京都青梅市千ヶ瀬町1丁目69-1","lat":35.78467678,"lon":139.27783217},{"name":"御岳山第一配水所","province":"東京都","city":"青梅市","address":"東京都青梅市御岳山170-3","lat":35.78346895,"lon":139.15124212},{"name":"新町給水所","province":"東京都","city":"青梅市","address":"東京都青梅市新町5丁目24-1","lat":35.78846047,"lon":139.30887384},{"name":"二俣尾配水所","province":"東京都","city":"青梅市","address":"東京都青梅市二俣尾5丁目107-2","lat":35.81524153,"lon":139.2066392},{"name":"城山配水所","province":"東京都","city":"青梅市","address":"東京都青梅市東青梅6丁目95-1","lat":35.79671131,"lon":139.27230447},{"name":"立正佼成会青梅練成道場グラウンド","province":"東京都","city":"青梅市","address":"東京都青梅市小曾木2丁目450","lat":35.81221561,"lon":139.29602679},{"name":"明星大学青梅キャンパスグラウンド","province":"東京都","city":"青梅市","address":"東京都青梅市長淵2丁目590","lat":35.77275567,"lon":139.26727244},{"name":"青梅市市民球技場野球場","province":"東京都","city":"青梅市","address":"東京都青梅市河辺町1丁目872-1","lat":35.77784173,"lon":139.28723709},{"name":"青梅市立総合病院ヘリポート","province":"東京都","city":"青梅市","address":"東京都青梅市東青梅4丁目16-5","lat":35.78202441,"lon":139.28118194},{"name":"青梅市立第六小学校校庭","province":"東京都","city":"青梅市","address":"東京都青梅市二俣尾3丁目903-1","lat":35.80159313,"lon":139.2168608},{"name":"西多摩地区","province":"東京都","city":"青梅市","address":"青梅市東青梅4-17-41","lat":35.78327,"lon":139.2817},{"name":"西多摩福祉事務所倉庫","province":"東京都","city":"青梅市","address":"東京都青梅市河辺町6丁目4-1","lat":35.77999986,"lon":139.28959793},{"name":"三田保育園","province":"東京都","city":"青梅市","address":"東京都青梅市沢井2-843","lat":35.806381,"lon":139.194046},{"name":"よしの保育園","province":"東京都","city":"青梅市","address":"東京都青梅市柚木町2-312-1","lat":35.799951,"lon":139.212102},{"name":"二俣尾保育園","province":"東京都","city":"青梅市","address":"東京都青梅市二俣尾4-1067","lat":35.805276,"lon":139.216183},{"name":"梅郷保育園","province":"東京都","city":"青梅市","address":"東京都青梅市梅郷3-776-7","lat":35.787845,"lon":139.223669},{"name":"青梅あけぼの幼稚園","province":"東京都","city":"青梅市","address":"東京都青梅市梅郷3-904-3","lat":35.789369,"lon":139.226434},{"name":"日向和田保育園","province":"東京都","city":"青梅市","address":"東京都青梅市日向和田2-374-7","lat":35.785411,"lon":139.235589},{"name":"畑中保育園","province":"東京都","city":"青梅市","address":"東京都青梅市畑中2-593","lat":35.783134,"lon":139.240923},{"name":"四恩幼稚園","province":"東京都","city":"青梅市","address":"東京都青梅市天ヶ瀬町1032","lat":35.789647,"lon":139.249935},{"name":"成木保育園","province":"東京都","city":"青梅市","address":"東京都青梅市成木4-683-5","lat":35.82291,"lon":139.24972},{"name":"駒木野保育園","province":"東京都","city":"青梅市","address":"東京都青梅市駒木町2-46-1","lat":35.78051,"lon":139.25259},{"name":"青梅保育園","province":"東京都","city":"青梅市","address":"東京都青梅市滝ノ上町1274-1","lat":35.78916,"lon":139.255594},{"name":"福島学園幼稚園","province":"東京都","city":"青梅市","address":"東京都青梅市千ヶ瀬町6-763","lat":35.787292,"lon":139.260425},{"name":"上長渕保育園","province":"東京都","city":"青梅市","address":"東京都青梅市長淵7-311","lat":35.781457,"lon":139.263236},{"name":"ちがせ保育園","province":"東京都","city":"青梅市","address":"東京都青梅市千ヶ瀬町3-389-9","lat":35.785466,"lon":139.268434},{"name":"聖母幼稚園","province":"東京都","city":"青梅市","address":"東京都青梅市勝沼1-197-1","lat":35.79256,"lon":139.26961},{"name":"かすみ保育園","province":"東京都","city":"青梅市","address":"東京都青梅市東青梅6-1-12","lat":35.793475,"lon":139.273004},{"name":"長渕保育園","province":"東京都","city":"青梅市","address":"東京都青梅市長淵4-225","lat":35.778491,"lon":139.274727},{"name":"おそき保育園","province":"東京都","city":"青梅市","address":"東京都青梅市小曾木4-2227-1","lat":35.822459,"lon":139.278145},{"name":"川村富美枝家庭的保育者","province":"東京都","city":"青梅市","address":"東京都青梅市東青梅5-25-36","lat":35.792084,"lon":139.279286},{"name":"青梅ゆりかご第二保育園","province":"東京都","city":"青梅市","address":"東京都青梅市東青梅5-18-55","lat":35.79012,"lon":139.28045},{"name":"青梅みどり第二保育園","province":"東京都","city":"青梅市","address":"東京都青梅市師岡町1-113-20","lat":35.794922,"lon":139.280987},{"name":"青梅ゆりかご保育園","province":"東京都","city":"青梅市","address":"東京都青梅市師岡町3-10-5","lat":35.791339,"lon":139.282423},{"name":"青梅みどり第一保育園","province":"東京都","city":"青梅市","address":"東京都青梅市師岡町4-8-8","lat":35.788476,"lon":139.283128},{"name":"河辺保育園","province":"東京都","city":"青梅市","address":"東京都青梅市河辺町4-20-12","lat":35.78097,"lon":139.286537},{"name":"友田保育園","province":"東京都","city":"青梅市","address":"東京都青梅市友田町4-106","lat":35.772175,"lon":139.288928},{"name":"かすみ台第三保育園","province":"東京都","city":"青梅市","address":"東京都青梅市谷野191-1","lat":35.80492,"lon":139.2897},{"name":"かすみ台第二保育園","province":"東京都","city":"青梅市","address":"東京都青梅市野上町3-12-1","lat":35.791709,"lon":139.290683},{"name":"青梅梨の木保育園","province":"東京都","city":"青梅市","address":"東京都青梅市河辺町6-12-3","lat":35.779331,"lon":139.291011},{"name":"木﨑久美子家庭的保育者","province":"東京都","city":"青梅市","address":"東京都青梅市谷野27-5","lat":35.80204,"lon":139.29108},{"name":"青梅幼稚園","province":"東京都","city":"青梅市","address":"東京都青梅市河辺町7-2-3","lat":35.781827,"lon":139.291589},{"name":"かすみ台第一保育園","province":"東京都","city":"青梅市","address":"東京都青梅市大門2-253","lat":35.795175,"lon":139.292544},{"name":"新町西保育園","province":"東京都","city":"青梅市","address":"東京都青梅市河辺町7-14-2","lat":35.78166,"lon":139.29542},{"name":"今寺保育園","province":"東京都","city":"青梅市","address":"東京都青梅市今寺1-531-2","lat":35.80009,"lon":139.29607},{"name":"鈴の音保育園","province":"東京都","city":"青梅市","address":"東京都青梅市大門3-4-5","lat":35.792429,"lon":139.297174},{"name":"ねむのき幼稚園","province":"東京都","city":"青梅市","address":"東京都青梅市新町2-33-4","lat":35.790524,"lon":139.302339},{"name":"新町保育園","province":"東京都","city":"青梅市","address":"東京都青梅市新町2-21-9","lat":35.788418,"lon":139.302566},{"name":"井梅清美家庭的保育者","province":"東京都","city":"青梅市","address":"東京都青梅市藤橋2-27-6","lat":35.799939,"lon":139.30309},{"name":"ＮＩＣＯＬＡＮＤほいくえん","province":"東京都","city":"青梅市","address":"東京都青梅市新町4-18-9","lat":35.786341,"lon":139.303379},{"name":"にこ森保育園","province":"東京都","city":"青梅市","address":"東京都青梅市新町4-14-16","lat":35.7854,"lon":139.30529},{"name":"あんじゅ保育園","province":"東京都","city":"青梅市","address":"東京都青梅市藤橋2-494-1","lat":35.80286,"lon":139.306607},{"name":"ちいさな鈴","province":"東京都","city":"青梅市","address":"東京都青梅市末広町2-7-34","lat":35.77799,"lon":139.30833},{"name":"今井保育園","province":"東京都","city":"青梅市","address":"東京都青梅市今井2-1125-2","lat":35.80408,"lon":139.31013},{"name":"青梅エンゼル保育園","province":"東京都","city":"青梅市","address":"東京都青梅市新町8-3-8","lat":35.781789,"lon":139.310976},{"name":"新町東保育園","province":"東京都","city":"青梅市","address":"東京都青梅市新町8-5-2","lat":35.782838,"lon":139.311615},{"name":"島崎千春家庭的保育者","province":"東京都","city":"青梅市","address":"東京都青梅市新町9-2016-40","lat":35.78073,"lon":139.31874},{"name":"あゆみ保育園","province":"東京都","city":"青梅市","address":"東京都青梅市新町9-2153-3","lat":35.780718,"lon":139.321096},{"name":"日向和田浄水所","province":"東京都","city":"青梅市","address":"東京都青梅市日向和田2-370","lat":35.7843741,"lon":139.234717},{"name":"千ヶ瀬第二浄水所","province":"東京都","city":"青梅市","address":"東京都青梅市千ヶ瀬町1-69-1","lat":35.7846878,"lon":139.277824},{"name":"御岳山第一配水所","province":"東京都","city":"青梅市","address":"東京都青梅市御岳山170-3","lat":35.78347,"lon":139.15112},{"name":"成木配水所","province":"東京都","city":"青梅市","address":"東京都青梅市成木8-690-3","lat":35.8187204,"lon":139.241891},{"name":"新町給水所","province":"東京都","city":"青梅市","address":"東京都青梅市新町5-24-1","lat":35.7884612,"lon":139.308874},{"name":"二俣尾配水所","province":"東京都","city":"青梅市","address":"東京都青梅市二俣尾5-107-2","lat":35.8152563,"lon":139.2066375},{"name":"城山配水所","province":"東京都","city":"青梅市","address":"東京都青梅市東青梅6-95-1","lat":35.796712,"lon":139.272305},{"name":"梅郷配水所","province":"東京都","city":"青梅市","address":"東京都青梅市和田町2-578-1","lat":35.782215,"lon":139.226243},{"name":"西多摩福祉事務所","province":"東京都","city":"青梅市","address":"東京都青梅市河辺町6丁目4-1","lat":35.77999986,"lon":139.28959793},{"name":"青梅市立総合病院","province":"東京都","city":"青梅市","address":"東京都青梅市東青梅4丁目16-5","lat":35.78202441,"lon":139.28118194},{"name":"日向和田浄水所","province":"東京都","city":"青梅市","address":"東京都青梅市日向和田2丁目370","lat":35.78437016,"lon":139.23479499},{"name":"千ヶ瀬第二浄水所","province":"東京都","city":"青梅市","address":"東京都青梅市千ヶ瀬町1丁目69-1","lat":35.78467678,"lon":139.27783217},{"name":"御岳山第一配水所","province":"東京都","city":"青梅市","address":"東京都青梅市御岳山170-3","lat":35.78346895,"lon":139.15124212},{"name":"新町給水所","province":"東京都","city":"青梅市","address":"東京都青梅市新町5丁目24-1","lat":35.78846047,"lon":139.30887384},{"name":"二俣尾配水所","province":"東京都","city":"青梅市","address":"東京都青梅市二俣尾5丁目107-2","lat":35.81524153,"lon":139.2066392},{"name":"城山配水所","province":"東京都","city":"青梅市","address":"東京都青梅市東青梅6丁目95-1","lat":35.79671131,"lon":139.27230447},{"name":"立正佼成会青梅練成道場グラウンド","province":"東京都","city":"青梅市","address":"東京都青梅市小曾木2丁目450","lat":35.81221561,"lon":139.29602679},{"name":"明星大学青梅キャンパスグラウンド","province":"東京都","city":"青梅市","address":"東京都青梅市長淵2丁目590","lat":35.77275567,"lon":139.26727244},{"name":"青梅市市民球技場野球場","province":"東京都","city":"青梅市","address":"東京都青梅市河辺町1丁目872-1","lat":35.77784173,"lon":139.28723709},{"name":"青梅市立総合病院ヘリポート","province":"東京都","city":"青梅市","address":"東京都青梅市東青梅4丁目16-5","lat":35.78202441,"lon":139.28118194},{"name":"青梅市立第六小学校校庭","province":"東京都","city":"青梅市","address":"東京都青梅市二俣尾3丁目903-1","lat":35.80159313,"lon":139.2168608},{"name":"西多摩地区","province":"東京都","city":"青梅市","address":"青梅市東青梅4-17-41","lat":35.78327,"lon":139.2817},{"name":"西多摩福祉事務所倉庫","province":"東京都","city":"青梅市","address":"東京都青梅市河辺町6丁目4-1","lat":35.77999986,"lon":139.28959793},{"name":"三田保育園","province":"東京都","city":"青梅市","address":"東京都青梅市沢井2-843","lat":35.806381,"lon":139.194046},{"name":"よしの保育園","province":"東京都","city":"青梅市","address":"東京都青梅市柚木町2-312-1","lat":35.799951,"lon":139.212102},{"name":"二俣尾保育園","province":"東京都","city":"青梅市","address":"東京都青梅市二俣尾4-1067","lat":35.805276,"lon":139.216183},{"name":"梅郷保育園","province":"東京都","city":"青梅市","address":"東京都青梅市梅郷3-776-7","lat":35.787845,"lon":139.223669},{"name":"青梅あけぼの幼稚園","province":"東京都","city":"青梅市","address":"東京都青梅市梅郷3-904-3","lat":35.789369,"lon":139.226434},{"name":"日向和田保育園","province":"東京都","city":"青梅市","address":"東京都青梅市日向和田2-374-7","lat":35.785411,"lon":139.235589},{"name":"畑中保育園","province":"東京都","city":"青梅市","address":"東京都青梅市畑中2-593","lat":35.783134,"lon":139.240923},{"name":"四恩幼稚園","province":"東京都","city":"青梅市","address":"東京都青梅市天ヶ瀬町1032","lat":35.789647,"lon":139.249935},{"name":"成木保育園","province":"東京都","city":"青梅市","address":"東京都青梅市成木4-683-5","lat":35.82291,"lon":139.24972},{"name":"駒木野保育園","province":"東京都","city":"青梅市","address":"東京都青梅市駒木町2-46-1","lat":35.78051,"lon":139.25259},{"name":"青梅保育園","province":"東京都","city":"青梅市","address":"東京都青梅市滝ノ上町1274-1","lat":35.78916,"lon":139.255594},{"name":"福島学園幼稚園","province":"東京都","city":"青梅市","address":"東京都青梅市千ヶ瀬町6-763","lat":35.787292,"lon":139.260425},{"name":"上長渕保育園","province":"東京都","city":"青梅市","address":"東京都青梅市長淵7-311","lat":35.781457,"lon":139.263236},{"name":"ちがせ保育園","province":"東京都","city":"青梅市","address":"東京都青梅市千ヶ瀬町3-389-9","lat":35.785466,"lon":139.268434},{"name":"聖母幼稚園","province":"東京都","city":"青梅市","address":"東京都青梅市勝沼1-197-1","lat":35.79256,"lon":139.26961},{"name":"かすみ保育園","province":"東京都","city":"青梅市","address":"東京都青梅市東青梅6-1-12","lat":35.793475,"lon":139.273004},{"name":"長渕保育園","province":"東京都","city":"青梅市","address":"東京都青梅市長淵4-225","lat":35.778491,"lon":139.274727},{"name":"おそき保育園","province":"東京都","city":"青梅市","address":"東京都青梅市小曾木4-2227-1","lat":35.822459,"lon":139.278145},{"name":"川村富美枝家庭的保育者","province":"東京都","city":"青梅市","address":"東京都青梅市東青梅5-25-36","lat":35.792084,"lon":139.279286},{"name":"青梅ゆりかご第二保育園","province":"東京都","city":"青梅市","address":"東京都青梅市東青梅5-18-55","lat":35.79012,"lon":139.28045},{"name":"青梅みどり第二保育園","province":"東京都","city":"青梅市","address":"東京都青梅市師岡町1-113-20","lat":35.794922,"lon":139.280987},{"name":"青梅ゆりかご保育園","province":"東京都","city":"青梅市","address":"東京都青梅市師岡町3-10-5","lat":35.791339,"lon":139.282423},{"name":"青梅みどり第一保育園","province":"東京都","city":"青梅市","address":"東京都青梅市師岡町4-8-8","lat":35.788476,"lon":139.283128},{"name":"河辺保育園","province":"東京都","city":"青梅市","address":"東京都青梅市河辺町4-20-12","lat":35.78097,"lon":139.286537},{"name":"友田保育園","province":"東京都","city":"青梅市","address":"東京都青梅市友田町4-106","lat":35.772175,"lon":139.288928},{"name":"かすみ台第三保育園","province":"東京都","city":"青梅市","address":"東京都青梅市谷野191-1","lat":35.80492,"lon":139.2897},{"name":"かすみ台第二保育園","province":"東京都","city":"青梅市","address":"東京都青梅市野上町3-12-1","lat":35.791709,"lon":139.290683},{"name":"青梅梨の木保育園","province":"東京都","city":"青梅市","address":"東京都青梅市河辺町6-12-3","lat":35.779331,"lon":139.291011},{"name":"木﨑久美子家庭的保育者","province":"東京都","city":"青梅市","address":"東京都青梅市谷野27-5","lat":35.80204,"lon":139.29108},{"name":"青梅幼稚園","province":"東京都","city":"青梅市","address":"東京都青梅市河辺町7-2-3","lat":35.781827,"lon":139.291589},{"name":"かすみ台第一保育園","province":"東京都","city":"青梅市","address":"東京都青梅市大門2-253","lat":35.795175,"lon":139.292544},{"name":"新町西保育園","province":"東京都","city":"青梅市","address":"東京都青梅市河辺町7-14-2","lat":35.78166,"lon":139.29542},{"name":"今寺保育園","province":"東京都","city":"青梅市","address":"東京都青梅市今寺1-531-2","lat":35.80009,"lon":139.29607},{"name":"鈴の音保育園","province":"東京都","city":"青梅市","address":"東京都青梅市大門3-4-5","lat":35.792429,"lon":139.297174},{"name":"ねむのき幼稚園","province":"東京都","city":"青梅市","address":"東京都青梅市新町2-33-4","lat":35.790524,"lon":139.302339},{"name":"新町保育園","province":"東京都","city":"青梅市","address":"東京都青梅市新町2-21-9","lat":35.788418,"lon":139.302566},{"name":"井梅清美家庭的保育者","province":"東京都","city":"青梅市","address":"東京都青梅市藤橋2-27-6","lat":35.799939,"lon":139.30309},{"name":"ＮＩＣＯＬＡＮＤほいくえん","province":"東京都","city":"青梅市","address":"東京都青梅市新町4-18-9","lat":35.786341,"lon":139.303379},{"name":"にこ森保育園","province":"東京都","city":"青梅市","address":"東京都青梅市新町4-14-16","lat":35.7854,"lon":139.30529},{"name":"あんじゅ保育園","province":"東京都","city":"青梅市","address":"東京都青梅市藤橋2-494-1","lat":35.80286,"lon":139.306607},{"name":"ちいさな鈴","province":"東京都","city":"青梅市","address":"東京都青梅市末広町2-7-34","lat":35.77799,"lon":139.30833},{"name":"今井保育園","province":"東京都","city":"青梅市","address":"東京都青梅市今井2-1125-2","lat":35.80408,"lon":139.31013},{"name":"青梅エンゼル保育園","province":"東京都","city":"青梅市","address":"東京都青梅市新町8-3-8","lat":35.781789,"lon":139.310976},{"name":"新町東保育園","province":"東京都","city":"青梅市","address":"東京都青梅市新町8-5-2","lat":35.782838,"lon":139.311615},{"name":"島崎千春家庭的保育者","province":"東京都","city":"青梅市","address":"東京都青梅市新町9-2016-40","lat":35.78073,"lon":139.31874},{"name":"あゆみ保育園","province":"東京都","city":"青梅市","address":"東京都青梅市新町9-2153-3","lat":35.780718,"lon":139.321096},{"name":"日向和田浄水所","province":"東京都","city":"青梅市","address":"東京都青梅市日向和田2-370","lat":35.7843741,"lon":139.234717},{"name":"千ヶ瀬第二浄水所","province":"東京都","city":"青梅市","address":"東京都青梅市千ヶ瀬町1-69-1","lat":35.7846878,"lon":139.277824},{"name":"御岳山第一配水所","province":"東京都","city":"青梅市","address":"東京都青梅市御岳山170-3","lat":35.78347,"lon":139.15112},{"name":"成木配水所","province":"東京都","city":"青梅市","address":"東京都青梅市成木8-690-3","lat":35.8187204,"lon":139.241891},{"name":"新町給水所","province":"東京都","city":"青梅市","address":"東京都青梅市新町5-24-1","lat":35.7884612,"lon":139.308874},{"name":"二俣尾配水所","province":"東京都","city":"青梅市","address":"東京都青梅市二俣尾5-107-2","lat":35.8152563,"lon":139.2066375},{"name":"城山配水所","province":"東京都","city":"青梅市","address":"東京都青梅市東青梅6-95-1","lat":35.796712,"lon":139.272305},{"name":"梅郷配水所","province":"東京都","city":"青梅市","address":"東京都青梅市和田町2-578-1","lat":35.782215,"lon":139.226243},{"name":"西多摩福祉事務所","province":"東京都","city":"青梅市","address":"東京都青梅市河辺町6丁目4-1","lat":35.77999986,"lon":139.28959793},{"name":"青梅市立総合病院","province":"東京都","city":"青梅市","address":"東京都青梅市東青梅4丁目16-5","lat":35.78202441,"lon":139.28118194},{"name":"日向和田浄水所","province":"東京都","city":"青梅市","address":"東京都青梅市日向和田2丁目370","lat":35.78437016,"lon":139.23479499},{"name":"千ヶ瀬第二浄水所","province":"東京都","city":"青梅市","address":"東京都青梅市千ヶ瀬町1丁目69-1","lat":35.78467678,"lon":139.27783217},{"name":"御岳山第一配水所","province":"東京都","city":"青梅市","address":"東京都青梅市御岳山170-3","lat":35.78346895,"lon":139.15124212},{"name":"新町給水所","province":"東京都","city":"青梅市","address":"東京都青梅市新町5丁目24-1","lat":35.78846047,"lon":139.30887384},{"name":"二俣尾配水所","province":"東京都","city":"青梅市","address":"東京都青梅市二俣尾5丁目107-2","lat":35.81524153,"lon":139.2066392},{"name":"城山配水所","province":"東京都","city":"青梅市","address":"東京都青梅市東青梅6丁目95-1","lat":35.79671131,"lon":139.27230447},{"name":"立正佼成会青梅練成道場グラウンド","province":"東京都","city":"青梅市","address":"東京都青梅市小曾木2丁目450","lat":35.81221561,"lon":139.29602679},{"name":"明星大学青梅キャンパスグラウンド","province":"東京都","city":"青梅市","address":"東京都青梅市長淵2丁目590","lat":35.77275567,"lon":139.26727244},{"name":"青梅市市民球技場野球場","province":"東京都","city":"青梅市","address":"東京都青梅市河辺町1丁目872-1","lat":35.77784173,"lon":139.28723709},{"name":"青梅市立総合病院ヘリポート","province":"東京都","city":"青梅市","address":"東京都青梅市東青梅4丁目16-5","lat":35.78202441,"lon":139.28118194},{"name":"青梅市立第六小学校校庭","province":"東京都","city":"青梅市","address":"東京都青梅市二俣尾3丁目903-1","lat":35.80159313,"lon":139.2168608},{"name":"西多摩地区","province":"東京都","city":"青梅市","address":"青梅市東青梅4-17-41","lat":35.78327,"lon":139.2817},{"name":"西多摩福祉事務所倉庫","province":"東京都","city":"青梅市","address":"東京都青梅市河辺町6丁目4-1","lat":35.77999986,"lon":139.28959793},{"name":"日向和田浄水所","province":"東京都","city":"青梅市","address":"東京都青梅市日向和田2-370","lat":35.7843741,"lon":139.234717},{"name":"千ヶ瀬第二浄水所","province":"東京都","city":"青梅市","address":"東京都青梅市千ヶ瀬町1-69-1","lat":35.7846878,"lon":139.277824},{"name":"御岳山第一配水所","province":"東京都","city":"青梅市","address":"東京都青梅市御岳山170-3","lat":35.78347,"lon":139.15112},{"name":"成木配水所","province":"東京都","city":"青梅市","address":"東京都青梅市成木8-690-3","lat":35.8187204,"lon":139.241891},{"name":"新町給水所","province":"東京都","city":"青梅市","address":"東京都青梅市新町5-24-1","lat":35.7884612,"lon":139.308874},{"name":"二俣尾配水所","province":"東京都","city":"青梅市","address":"東京都青梅市二俣尾5-107-2","lat":35.8152563,"lon":139.2066375},{"name":"城山配水所","province":"東京都","city":"青梅市","address":"東京都青梅市東青梅6-95-1","lat":35.796712,"lon":139.272305},{"name":"梅郷配水所","province":"東京都","city":"青梅市","address":"東京都青梅市和田町2-578-1","lat":35.782215,"lon":139.226243},{"name":"西多摩福祉事務所","province":"東京都","city":"青梅市","address":"東京都青梅市河辺町6丁目4-1","lat":35.77999986,"lon":139.28959793},{"name":"青梅市立総合病院","province":"東京都","city":"青梅市","address":"東京都青梅市東青梅4丁目16-5","lat":35.78202441,"lon":139.28118194},{"name":"立正佼成会青梅練成道場グラウンド","province":"東京都","city":"青梅市","address":"東京都青梅市小曾木2丁目450","lat":35.81221561,"lon":139.29602679},{"name":"明星大学青梅キャンパスグラウンド","province":"東京都","city":"青梅市","address":"東京都青梅市長淵2丁目590","lat":35.77275567,"lon":139.26727244},{"name":"青梅市市民球技場野球場","province":"東京都","city":"青梅市","address":"東京都青梅市河辺町1丁目872-1","lat":35.77784173,"lon":139.28723709},{"name":"青梅市立総合病院ヘリポート","province":"東京都","city":"青梅市","address":"東京都青梅市東青梅4丁目16-5","lat":35.78202441,"lon":139.28118194},{"name":"青梅市立第六小学校校庭","province":"東京都","city":"青梅市","address":"東京都青梅市二俣尾3丁目903-1","lat":35.80159313,"lon":139.2168608},{"name":"西多摩地区","province":"東京都","city":"青梅市","address":"青梅市東青梅4-17-41","lat":35.78327,"lon":139.2817},{"name":"西多摩福祉事務所倉庫","province":"東京都","city":"青梅市","address":"東京都青梅市河辺町6丁目4-1","lat":35.77999986,"lon":139.28959793},{"name":"日向和田浄水所","province":"東京都","city":"青梅市","address":"東京都青梅市日向和田2-370","lat":35.7843741,"lon":139.234717},{"name":"千ヶ瀬第二浄水所","province":"東京都","city":"青梅市","address":"東京都青梅市千ヶ瀬町1-69-1","lat":35.7846878,"lon":139.277824},{"name":"御岳山第一配水所","province":"東京都","city":"青梅市","address":"東京都青梅市御岳山170-3","lat":35.78347,"lon":139.15112},{"name":"成木配水所","province":"東京都","city":"青梅市","address":"東京都青梅市成木8-690-3","lat":35.8187204,"lon":139.241891},{"name":"新町給水所","province":"東京都","city":"青梅市","address":"東京都青梅市新町5-24-1","lat":35.7884612,"lon":139.308874},{"name":"二俣尾配水所","province":"東京都","city":"青梅市","address":"東京都青梅市二俣尾5-107-2","lat":35.8152563,"lon":139.2066375},{"name":"城山配水所","province":"東京都","city":"青梅市","address":"東京都青梅市東青梅6-95-1","lat":35.796712,"lon":139.272305},{"name":"梅郷配水所","province":"東京都","city":"青梅市","address":"東京都青梅市和田町2-578-1","lat":35.782215,"lon":139.226243},{"name":"西多摩福祉事務所","province":"東京都","city":"青梅市","address":"東京都青梅市河辺町6丁目4-1","lat":35.77999986,"lon":139.28959793},{"name":"青梅市立総合病院","province":"東京都","city":"青梅市","address":"東京都青梅市東青梅4丁目16-5","lat":35.78202441,"lon":139.28118194},{"name":"西多摩地区","province":"東京都","city":"青梅市","address":"青梅市東青梅4-17-41","lat":35.78327,"lon":139.2817},{"name":"西多摩福祉事務所倉庫","province":"東京都","city":"青梅市","address":"東京都青梅市河辺町6丁目4-1","lat":35.77999986,"lon":139.28959793},{"name":"日向和田浄水所","province":"東京都","city":"青梅市","address":"東京都青梅市日向和田2-370","lat":35.7843741,"lon":139.234717},{"name":"千ヶ瀬第二浄水所","province":"東京都","city":"青梅市","address":"東京都青梅市千ヶ瀬町1-69-1","lat":35.7846878,"lon":139.277824},{"name":"御岳山第一配水所","province":"東京都","city":"青梅市","address":"東京都青梅市御岳山170-3","lat":35.78347,"lon":139.15112},{"name":"成木配水所","province":"東京都","city":"青梅市","address":"東京都青梅市成木8-690-3","lat":35.8187204,"lon":139.241891},{"name":"新町給水所","province":"東京都","city":"青梅市","address":"東京都青梅市新町5-24-1","lat":35.7884612,"lon":139.308874},{"name":"二俣尾配水所","province":"東京都","city":"青梅市","address":"東京都青梅市二俣尾5-107-2","lat":35.8152563,"lon":139.2066375},{"name":"城山配水所","province":"東京都","city":"青梅市","address":"東京都青梅市東青梅6-95-1","lat":35.796712,"lon":139.272305},{"name":"梅郷配水所","province":"東京都","city":"青梅市","address":"東京都青梅市和田町2-578-1","lat":35.782215,"lon":139.226243},{"name":"西多摩福祉事務所","province":"東京都","city":"青梅市","address":"東京都青梅市河辺町6丁目4-1","lat":35.77999986,"lon":139.28959793},{"name":"青梅市立総合病院","province":"東京都","city":"青梅市","address":"東京都青梅市東青梅4丁目16-5","lat":35.78202441,"lon":139.28118194},{"name":"西多摩地区","province":"東京都","city":"青梅市","address":"青梅市東青梅4-17-41","lat":35.78327,"lon":139.2817},{"name":"西多摩福祉事務所倉庫","province":"東京都","city":"青梅市","address":"東京都青梅市河辺町6丁目4-1","lat":35.77999986,"lon":139.28959793},{"name":"日向和田浄水所","province":"東京都","city":"青梅市","address":"東京都青梅市日向和田2-370","lat":35.7843741,"lon":139.234717},{"name":"千ヶ瀬第二浄水所","province":"東京都","city":"青梅市","address":"東京都青梅市千ヶ瀬町1-69-1","lat":35.7846878,"lon":139.277824},{"name":"御岳山第一配水所","province":"東京都","city":"青梅市","address":"東京都青梅市御岳山170-3","lat":35.78347,"lon":139.15112},{"name":"成木配水所","province":"東京都","city":"青梅市","address":"東京都青梅市成木8-690-3","lat":35.8187204,"lon":139.241891},{"name":"新町給水所","province":"東京都","city":"青梅市","address":"東京都青梅市新町5-24-1","lat":35.7884612,"lon":139.308874},{"name":"二俣尾配水所","province":"東京都","city":"青梅市","address":"東京都青梅市二俣尾5-107-2","lat":35.8152563,"lon":139.2066375},{"name":"城山配水所","province":"東京都","city":"青梅市","address":"東京都青梅市東青梅6-95-1","lat":35.796712,"lon":139.272305},{"name":"梅郷配水所","province":"東京都","city":"青梅市","address":"東京都青梅市和田町2-578-1","lat":35.782215,"lon":139.226243},{"name":"西多摩福祉事務所","province":"東京都","city":"青梅市","address":"東京都青梅市河辺町6丁目4-1","lat":35.77999986,"lon":139.28959793},{"name":"青梅市立総合病院","province":"東京都","city":"青梅市","address":"東京都青梅市東青梅4丁目16-5","lat":35.78202441,"lon":139.28118194},{"name":"西多摩地区","province":"東京都","city":"青梅市","address":"青梅市東青梅4-17-41","lat":35.78327,"lon":139.2817},{"name":"西多摩福祉事務所倉庫","province":"東京都","city":"青梅市","address":"東京都青梅市河辺町6丁目4-1","lat":35.77999986,"lon":139.28959793},{"name":"日向和田浄水所","province":"東京都","city":"青梅市","address":"東京都青梅市日向和田2-370","lat":35.7843741,"lon":139.234717},{"name":"千ヶ瀬第二浄水所","province":"東京都","city":"青梅市","address":"東京都青梅市千ヶ瀬町1-69-1","lat":35.7846878,"lon":139.277824},{"name":"御岳山第一配水所","province":"東京都","city":"青梅市","address":"東京都青梅市御岳山170-3","lat":35.78347,"lon":139.15112},{"name":"成木配水所","province":"東京都","city":"青梅市","address":"東京都青梅市成木8-690-3","lat":35.8187204,"lon":139.241891},{"name":"新町給水所","province":"東京都","city":"青梅市","address":"東京都青梅市新町5-24-1","lat":35.7884612,"lon":139.308874},{"name":"二俣尾配水所","province":"東京都","city":"青梅市","address":"東京都青梅市二俣尾5-107-2","lat":35.8152563,"lon":139.2066375},{"name":"城山配水所","province":"東京都","city":"青梅市","address":"東京都青梅市東青梅6-95-1","lat":35.796712,"lon":139.272305},{"name":"梅郷配水所","province":"東京都","city":"青梅市","address":"東京都青梅市和田町2-578-1","lat":35.782215,"lon":139.226243},{"name":"西多摩福祉事務所","province":"東京都","city":"青梅市","address":"東京都青梅市河辺町6丁目4-1","lat":35.77999986,"lon":139.28959793},{"name":"青梅市立総合病院","province":"東京都","city":"青梅市","address":"東京都青梅市東青梅4丁目16-5","lat":35.78202441,"lon":139.28118194},{"name":"西多摩地区","province":"東京都","city":"青梅市","address":"青梅市東青梅4-17-41","lat":35.78327,"lon":139.2817},{"name":"西多摩福祉事務所倉庫","province":"東京都","city":"青梅市","address":"東京都青梅市河辺町6丁目4-1","lat":35.77999986,"lon":139.28959793},{"name":"日向和田浄水所","province":"東京都","city":"青梅市","address":"東京都青梅市日向和田2-370","lat":35.7843741,"lon":139.234717},{"name":"千ヶ瀬第二浄水所","province":"東京都","city":"青梅市","address":"東京都青梅市千ヶ瀬町1-69-1","lat":35.7846878,"lon":139.277824},{"name":"御岳山第一配水所","province":"東京都","city":"青梅市","address":"東京都青梅市御岳山170-3","lat":35.78347,"lon":139.15112},{"name":"成木配水所","province":"東京都","city":"青梅市","address":"東京都青梅市成木8-690-3","lat":35.8187204,"lon":139.241891},{"name":"新町給水所","province":"東京都","city":"青梅市","address":"東京都青梅市新町5-24-1","lat":35.7884612,"lon":139.308874},{"name":"二俣尾配水所","province":"東京都","city":"青梅市","address":"東京都青梅市二俣尾5-107-2","lat":35.8152563,"lon":139.2066375},{"name":"城山配水所","province":"東京都","city":"青梅市","address":"東京都青梅市東青梅6-95-1","lat":35.796712,"lon":139.272305},{"name":"梅郷配水所","province":"東京都","city":"青梅市","address":"東京都青梅市和田町2-578-1","lat":35.782215,"lon":139.226243},{"name":"西多摩福祉事務所","province":"東京都","city":"青梅市","address":"東京都青梅市河辺町6丁目4-1","lat":35.77999986,"lon":139.28959793},{"name":"青梅市立総合病院","province":"東京都","city":"青梅市","address":"東京都青梅市東青梅4丁目16-5","lat":35.78202441,"lon":139.28118194},{"name":"西多摩地区","province":"東京都","city":"青梅市","address":"青梅市東青梅4-17-41","lat":35.78327,"lon":139.2817},{"name":"西多摩福祉事務所倉庫","province":"東京都","city":"青梅市","address":"東京都青梅市河辺町6丁目4-1","lat":35.77999986,"lon":139.28959793},{"name":"日向和田浄水所","province":"東京都","city":"青梅市","address":"東京都青梅市日向和田2-370","lat":35.7843741,"lon":139.234717},{"name":"千ヶ瀬第二浄水所","province":"東京都","city":"青梅市","address":"東京都青梅市千ヶ瀬町1-69-1","lat":35.7846878,"lon":139.277824},{"name":"御岳山第一配水所","province":"東京都","city":"青梅市","address":"東京都青梅市御岳山170-3","lat":35.78347,"lon":139.15112},{"name":"成木配水所","province":"東京都","city":"青梅市","address":"東京都青梅市成木8-690-3","lat":35.8187204,"lon":139.241891},{"name":"新町給水所","province":"東京都","city":"青梅市","address":"東京都青梅市新町5-24-1","lat":35.7884612,"lon":139.308874},{"name":"二俣尾配水所","province":"東京都","city":"青梅市","address":"東京都青梅市二俣尾5-107-2","lat":35.8152563,"lon":139.2066375},{"name":"城山配水所","province":"東京都","city":"青梅市","address":"東京都青梅市東青梅6-95-1","lat":35.796712,"lon":139.272305},{"name":"梅郷配水所","province":"東京都","city":"青梅市","address":"東京都青梅市和田町2-578-1","lat":35.782215,"lon":139.226243},{"name":"西多摩福祉事務所","province":"東京都","city":"青梅市","address":"東京都青梅市河辺町6丁目4-1","lat":35.77999986,"lon":139.28959793},{"name":"青梅市立総合病院","province":"東京都","city":"青梅市","address":"東京都青梅市東青梅4丁目16-5","lat":35.78202441,"lon":139.28118194},{"name":"西多摩地区","province":"東京都","city":"青梅市","address":"青梅市東青梅4-17-41","lat":35.78327,"lon":139.2817},{"name":"西多摩福祉事務所倉庫","province":"東京都","city":"青梅市","address":"東京都青梅市河辺町6丁目4-1","lat":35.77999986,"lon":139.28959793},{"name":"日向和田浄水所","province":"東京都","city":"青梅市","address":"東京都青梅市日向和田2-370","lat":35.7843741,"lon":139.234717},{"name":"千ヶ瀬第二浄水所","province":"東京都","city":"青梅市","address":"東京都青梅市千ヶ瀬町1-69-1","lat":35.7846878,"lon":139.277824},{"name":"御岳山第一配水所","province":"東京都","city":"青梅市","address":"東京都青梅市御岳山170-3","lat":35.78347,"lon":139.15112},{"name":"成木配水所","province":"東京都","city":"青梅市","address":"東京都青梅市成木8-690-3","lat":35.8187204,"lon":139.241891},{"name":"新町給水所","province":"東京都","city":"青梅市","address":"東京都青梅市新町5-24-1","lat":35.7884612,"lon":139.308874},{"name":"二俣尾配水所","province":"東京都","city":"青梅市","address":"東京都青梅市二俣尾5-107-2","lat":35.8152563,"lon":139.2066375},{"name":"城山配水所","province":"東京都","city":"青梅市","address":"東京都青梅市東青梅6-95-1","lat":35.796712,"lon":139.272305},{"name":"梅郷配水所","province":"東京都","city":"青梅市","address":"東京都青梅市和田町2-578-1","lat":35.782215,"lon":139.226243},{"name":"西多摩福祉事務所","province":"東京都","city":"青梅市","address":"東京都青梅市河辺町6丁目4-1","lat":35.77999986,"lon":139.28959793},{"name":"西多摩地区","province":"東京都","city":"青梅市","address":"青梅市東青梅4-17-41","lat":35.78327,"lon":139.2817},{"name":"西多摩福祉事務所倉庫","province":"東京都","city":"青梅市","address":"東京都青梅市河辺町6丁目4-1","lat":35.77999986,"lon":139.28959793},{"name":"日向和田浄水所","province":"東京都","city":"青梅市","address":"東京都青梅市日向和田2-370","lat":35.7843741,"lon":139.234717},{"name":"千ヶ瀬第二浄水所","province":"東京都","city":"青梅市","address":"東京都青梅市千ヶ瀬町1-69-1","lat":35.7846878,"lon":139.277824},{"name":"御岳山第一配水所","province":"東京都","city":"青梅市","address":"東京都青梅市御岳山170-3","lat":35.78347,"lon":139.15112},{"name":"成木配水所","province":"東京都","city":"青梅市","address":"東京都青梅市成木8-690-3","lat":35.8187204,"lon":139.241891},{"name":"新町給水所","province":"東京都","city":"青梅市","address":"東京都青梅市新町5-24-1","lat":35.7884612,"lon":139.308874},{"name":"二俣尾配水所","province":"東京都","city":"青梅市","address":"東京都青梅市二俣尾5-107-2","lat":35.8152563,"lon":139.2066375},{"name":"城山配水所","province":"東京都","city":"青梅市","address":"東京都青梅市東青梅6-95-1","lat":35.796712,"lon":139.272305},{"name":"梅郷配水所","province":"東京都","city":"青梅市","address":"東京都青梅市和田町2-578-1","lat":35.782215,"lon":139.226243},{"name":"西多摩福祉事務所","province":"東京都","city":"青梅市","address":"東京都青梅市河辺町6丁目4-1","lat":35.77999986,"lon":139.28959793},{"name":"西多摩地区","province":"東京都","city":"青梅市","address":"青梅市東青梅4-17-41","lat":35.78327,"lon":139.2817},{"name":"西多摩福祉事務所倉庫","province":"東京都","city":"青梅市","address":"東京都青梅市河辺町6丁目4-1","lat":35.77999986,"lon":139.28959793},{"name":"日向和田浄水所","province":"東京都","city":"青梅市","address":"東京都青梅市日向和田2-370","lat":35.7843741,"lon":139.234717},{"name":"千ヶ瀬第二浄水所","province":"東京都","city":"青梅市","address":"東京都青梅市千ヶ瀬町1-69-1","lat":35.7846878,"lon":139.277824},{"name":"御岳山第一配水所","province":"東京都","city":"青梅市","address":"東京都青梅市御岳山170-3","lat":35.78347,"lon":139.15112},{"name":"成木配水所","province":"東京都","city":"青梅市","address":"東京都青梅市成木8-690-3","lat":35.8187204,"lon":139.241891},{"name":"新町給水所","province":"東京都","city":"青梅市","address":"東京都青梅市新町5-24-1","lat":35.7884612,"lon":139.308874},{"name":"二俣尾配水所","province":"東京都","city":"青梅市","address":"東京都青梅市二俣尾5-107-2","lat":35.8152563,"lon":139.2066375},{"name":"城山配水所","province":"東京都","city":"青梅市","address":"東京都青梅市東青梅6-95-1","lat":35.796712,"lon":139.272305},{"name":"梅郷配水所","province":"東京都","city":"青梅市","address":"東京都青梅市和田町2-578-1","lat":35.782215,"lon":139.226243},{"name":"西多摩福祉事務所","province":"東京都","city":"青梅市","address":"東京都青梅市河辺町6丁目4-1","lat":35.77999986,"lon":139.28959793},{"name":"西多摩地区","province":"東京都","city":"青梅市","address":"青梅市東青梅4-17-41","lat":35.78327,"lon":139.2817},{"name":"西多摩福祉事務所倉庫","province":"東京都","city":"青梅市","address":"東京都青梅市河辺町6丁目4-1","lat":35.77999986,"lon":139.28959793},{"name":"日向和田浄水所","province":"東京都","city":"青梅市","address":"東京都青梅市日向和田2-370","lat":35.7843741,"lon":139.234717},{"name":"千ヶ瀬第二浄水所","province":"東京都","city":"青梅市","address":"東京都青梅市千ヶ瀬町1-69-1","lat":35.7846878,"lon":139.277824},{"name":"御岳山第一配水所","province":"東京都","city":"青梅市","address":"東京都青梅市御岳山170-3","lat":35.78347,"lon":139.15112},{"name":"成木配水所","province":"東京都","city":"青梅市","address":"東京都青梅市成木8-690-3","lat":35.8187204,"lon":139.241891},{"name":"新町給水所","province":"東京都","city":"青梅市","address":"東京都青梅市新町5-24-1","lat":35.7884612,"lon":139.308874},{"name":"二俣尾配水所","province":"東京都","city":"青梅市","address":"東京都青梅市二俣尾5-107-2","lat":35.8152563,"lon":139.2066375},{"name":"城山配水所","province":"東京都","city":"青梅市","address":"東京都青梅市東青梅6-95-1","lat":35.796712,"lon":139.272305},{"name":"梅郷配水所","province":"東京都","city":"青梅市","address":"東京都青梅市和田町2-578-1","lat":35.782215,"lon":139.226243},{"name":"西多摩福祉事務所","province":"東京都","city":"青梅市","address":"東京都青梅市河辺町6丁目4-1","lat":35.77999986,"lon":139.28959793},{"name":"西多摩地区","province":"東京都","city":"青梅市","address":"青梅市東青梅4-17-41","lat":35.78327,"lon":139.2817},{"name":"西多摩福祉事務所倉庫","province":"東京都","city":"青梅市","address":"東京都青梅市河辺町6丁目4-1","lat":35.77999986,"lon":139.28959793},{"name":"日向和田浄水所","province":"東京都","city":"青梅市","address":"東京都青梅市日向和田2-370","lat":35.7843741,"lon":139.234717},{"name":"千ヶ瀬第二浄水所","province":"東京都","city":"青梅市","address":"東京都青梅市千ヶ瀬町1-69-1","lat":35.7846878,"lon":139.277824},{"name":"御岳山第一配水所","province":"東京都","city":"青梅市","address":"東京都青梅市御岳山170-3","lat":35.78347,"lon":139.15112},{"name":"成木配水所","province":"東京都","city":"青梅市","address":"東京都青梅市成木8-690-3","lat":35.8187204,"lon":139.241891},{"name":"新町給水所","province":"東京都","city":"青梅市","address":"東京都青梅市新町5-24-1","lat":35.7884612,"lon":139.308874},{"name":"二俣尾配水所","province":"東京都","city":"青梅市","address":"東京都青梅市二俣尾5-107-2","lat":35.8152563,"lon":139.2066375},{"name":"城山配水所","province":"東京都","city":"青梅市","address":"東京都青梅市東青梅6-95-1","lat":35.796712,"lon":139.272305},{"name":"梅郷配水所","province":"東京都","city":"青梅市","address":"東京都青梅市和田町2-578-1","lat":35.782215,"lon":139.226243},{"name":"西多摩福祉事務所","province":"東京都","city":"青梅市","address":"東京都青梅市河辺町6丁目4-1","lat":35.77999986,"lon":139.28959793},{"name":"西多摩地区","province":"東京都","city":"青梅市","address":"青梅市東青梅4-17-41","lat":35.78327,"lon":139.2817},{"name":"西多摩福祉事務所倉庫","province":"東京都","city":"青梅市","address":"東京都青梅市河辺町6丁目4-1","lat":35.77999986,"lon":139.28959793},{"name":"日向和田浄水所","province":"東京都","city":"青梅市","address":"東京都青梅市日向和田2-370","lat":35.7843741,"lon":139.234717},{"name":"千ヶ瀬第二浄水所","province":"東京都","city":"青梅市","address":"東京都青梅市千ヶ瀬町1-69-1","lat":35.7846878,"lon":139.277824},{"name":"御岳山第一配水所","province":"東京都","city":"青梅市","address":"東京都青梅市御岳山170-3","lat":35.78347,"lon":139.15112},{"name":"成木配水所","province":"東京都","city":"青梅市","address":"東京都青梅市成木8-690-3","lat":35.8187204,"lon":139.241891},{"name":"新町給水所","province":"東京都","city":"青梅市","address":"東京都青梅市新町5-24-1","lat":35.7884612,"lon":139.308874},{"name":"二俣尾配水所","province":"東京都","city":"青梅市","address":"東京都青梅市二俣尾5-107-2","lat":35.8152563,"lon":139.2066375},{"name":"城山配水所","province":"東京都","city":"青梅市","address":"東京都青梅市東青梅6-95-1","lat":35.796712,"lon":139.272305},{"name":"梅郷配水所","province":"東京都","city":"青梅市","address":"東京都青梅市和田町2-578-1","lat":35.782215,"lon":139.226243},{"name":"西多摩福祉事務所","province":"東京都","city":"青梅市","address":"東京都青梅市河辺町6丁目4-1","lat":35.77999986,"lon":139.28959793},{"name":"西多摩地区","province":"東京都","city":"青梅市","address":"青梅市東青梅4-17-41","lat":35.78327,"lon":139.2817},{"name":"西多摩福祉事務所倉庫","province":"東京都","city":"青梅市","address":"東京都青梅市河辺町6丁目4-1","lat":35.77999986,"lon":139.28959793},{"name":"日向和田浄水所","province":"東京都","city":"青梅市","address":"東京都青梅市日向和田2-370","lat":35.7843741,"lon":139.234717},{"name":"千ヶ瀬第二浄水所","province":"東京都","city":"青梅市","address":"東京都青梅市千ヶ瀬町1-69-1","lat":35.7846878,"lon":139.277824},{"name":"御岳山第一配水所","province":"東京都","city":"青梅市","address":"東京都青梅市御岳山170-3","lat":35.78347,"lon":139.15112},{"name":"成木配水所","province":"東京都","city":"青梅市","address":"東京都青梅市成木8-690-3","lat":35.8187204,"lon":139.241891},{"name":"新町給水所","province":"東京都","city":"青梅市","address":"東京都青梅市新町5-24-1","lat":35.7884612,"lon":139.308874},{"name":"二俣尾配水所","province":"東京都","city":"青梅市","address":"東京都青梅市二俣尾5-107-2","lat":35.8152563,"lon":139.2066375},{"name":"城山配水所","province":"東京都","city":"青梅市","address":"東京都青梅市東青梅6-95-1","lat":35.796712,"lon":139.272305},{"name":"梅郷配水所","province":"東京都","city":"青梅市","address":"東京都青梅市和田町2-578-1","lat":35.782215,"lon":139.226243},{"name":"西多摩福祉事務所","province":"東京都","city":"青梅市","address":"東京都青梅市河辺町6丁目4-1","lat":35.77999986,"lon":139.28959793},{"name":"西多摩地区","province":"東京都","city":"青梅市","address":"青梅市東青梅4-17-41","lat":35.78327,"lon":139.2817},{"name":"西多摩福祉事務所倉庫","province":"東京都","city":"青梅市","address":"東京都青梅市河辺町6丁目4-1","lat":35.77999986,"lon":139.28959793},{"name":"日向和田浄水所","province":"東京都","city":"青梅市","address":"東京都青梅市日向和田2-370","lat":35.7843741,"lon":139.234717},{"name":"千ヶ瀬第二浄水所","province":"東京都","city":"青梅市","address":"東京都青梅市千ヶ瀬町1-69-1","lat":35.7846878,"lon":139.277824},{"name":"御岳山第一配水所","province":"東京都","city":"青梅市","address":"東京都青梅市御岳山170-3","lat":35.78347,"lon":139.15112},{"name":"成木配水所","province":"東京都","city":"青梅市","address":"東京都青梅市成木8-690-3","lat":35.8187204,"lon":139.241891},{"name":"新町給水所","province":"東京都","city":"青梅市","address":"東京都青梅市新町5-24-1","lat":35.7884612,"lon":139.308874},{"name":"二俣尾配水所","province":"東京都","city":"青梅市","address":"東京都青梅市二俣尾5-107-2","lat":35.8152563,"lon":139.2066375},{"name":"城山配水所","province":"東京都","city":"青梅市","address":"東京都青梅市東青梅6-95-1","lat":35.796712,"lon":139.272305},{"name":"梅郷配水所","province":"東京都","city":"青梅市","address":"東京都青梅市和田町2-578-1","lat":35.782215,"lon":139.226243},{"name":"西多摩福祉事務所","province":"東京都","city":"青梅市","address":"東京都青梅市河辺町6丁目4-1","lat":35.77999986,"lon":139.28959793},{"name":"西多摩地区","province":"東京都","city":"青梅市","address":"青梅市東青梅4-17-41","lat":35.78327,"lon":139.2817},{"name":"西多摩福祉事務所倉庫","province":"東京都","city":"青梅市","address":"東京都青梅市河辺町6丁目4-1","lat":35.77999986,"lon":139.28959793},{"name":"日向和田浄水所","province":"東京都","city":"青梅市","address":"東京都青梅市日向和田2-370","lat":35.7843741,"lon":139.234717},{"name":"千ヶ瀬第二浄水所","province":"東京都","city":"青梅市","address":"東京都青梅市千ヶ瀬町1-69-1","lat":35.7846878,"lon":139.277824},{"name":"御岳山第一配水所","province":"東京都","city":"青梅市","address":"東京都青梅市御岳山170-3","lat":35.78347,"lon":139.15112},{"name":"成木配水所","province":"東京都","city":"青梅市","address":"東京都青梅市成木8-690-3","lat":35.8187204,"lon":139.241891},{"name":"新町給水所","province":"東京都","city":"青梅市","address":"東京都青梅市新町5-24-1","lat":35.7884612,"lon":139.308874},{"name":"二俣尾配水所","province":"東京都","city":"青梅市","address":"東京都青梅市二俣尾5-107-2","lat":35.8152563,"lon":139.2066375},{"name":"城山配水所","province":"東京都","city":"青梅市","address":"東京都青梅市東青梅6-95-1","lat":35.796712,"lon":139.272305},{"name":"梅郷配水所","province":"東京都","city":"青梅市","address":"東京都青梅市和田町2-578-1","lat":35.782215,"lon":139.226243},{"name":"西多摩福祉事務所","province":"東京都","city":"青梅市","address":"東京都青梅市河辺町6丁目4-1","lat":35.77999986,"lon":139.28959793},{"name":"西多摩地区","province":"東京都","city":"青梅市","address":"青梅市東青梅4-17-41","lat":35.78327,"lon":139.2817},{"name":"西多摩福祉事務所倉庫","province":"東京都","city":"青梅市","address":"東京都青梅市河辺町6丁目4-1","lat":35.77999986,"lon":139.28959793},{"name":"日向和田浄水所","province":"東京都","city":"青梅市","address":"東京都青梅市日向和田2-370","lat":35.7843741,"lon":139.234717},{"name":"千ヶ瀬第二浄水所","province":"東京都","city":"青梅市","address":"東京都青梅市千ヶ瀬町1-69-1","lat":35.7846878,"lon":139.277824},{"name":"御岳山第一配水所","province":"東京都","city":"青梅市","address":"東京都青梅市御岳山170-3","lat":35.78347,"lon":139.15112},{"name":"成木配水所","province":"東京都","city":"青梅市","address":"東京都青梅市成木8-690-3","lat":35.8187204,"lon":139.241891},{"name":"新町給水所","province":"東京都","city":"青梅市","address":"東京都青梅市新町5-24-1","lat":35.7884612,"lon":139.308874},{"name":"二俣尾配水所","province":"東京都","city":"青梅市","address":"東京都青梅市二俣尾5-107-2","lat":35.8152563,"lon":139.2066375},{"name":"城山配水所","province":"東京都","city":"青梅市","address":"東京都青梅市東青梅6-95-1","lat":35.796712,"lon":139.272305},{"name":"梅郷配水所","province":"東京都","city":"青梅市","address":"東京都青梅市和田町2-578-1","lat":35.782215,"lon":139.226243},{"name":"西多摩福祉事務所","province":"東京都","city":"青梅市","address":"東京都青梅市河辺町6丁目4-1","lat":35.77999986,"lon":139.28959793},{"name":"西多摩地区","province":"東京都","city":"青梅市","address":"青梅市東青梅4-17-41","lat":35.78327,"lon":139.2817},{"name":"西多摩福祉事務所倉庫","province":"東京都","city":"青梅市","address":"東京都青梅市河辺町6丁目4-1","lat":35.77999986,"lon":139.28959793},{"name":"日向和田浄水所","province":"東京都","city":"青梅市","address":"東京都青梅市日向和田2-370","lat":35.7843741,"lon":139.234717},{"name":"千ヶ瀬第二浄水所","province":"東京都","city":"青梅市","address":"東京都青梅市千ヶ瀬町1-69-1","lat":35.7846878,"lon":139.277824},{"name":"御岳山第一配水所","province":"東京都","city":"青梅市","address":"東京都青梅市御岳山170-3","lat":35.78347,"lon":139.15112},{"name":"成木配水所","province":"東京都","city":"青梅市","address":"東京都青梅市成木8-690-3","lat":35.8187204,"lon":139.241891},{"name":"新町給水所","province":"東京都","city":"青梅市","address":"東京都青梅市新町5-24-1","lat":35.7884612,"lon":139.308874},{"name":"二俣尾配水所","province":"東京都","city":"青梅市","address":"東京都青梅市二俣尾5-107-2","lat":35.8152563,"lon":139.2066375},{"name":"城山配水所","province":"東京都","city":"青梅市","address":"東京都青梅市東青梅6-95-1","lat":35.796712,"lon":139.272305},{"name":"梅郷配水所","province":"東京都","city":"青梅市","address":"東京都青梅市和田町2-578-1","lat":35.782215,"lon":139.226243},{"name":"西多摩福祉事務所","province":"東京都","city":"青梅市","address":"東京都青梅市河辺町6丁目4-1","lat":35.77999986,"lon":139.28959793},{"name":"西多摩地区","province":"東京都","city":"青梅市","address":"青梅市東青梅4-17-41","lat":35.78327,"lon":139.2817},{"name":"西多摩福祉事務所倉庫","province":"東京都","city":"青梅市","address":"東京都青梅市河辺町6丁目4-1","lat":35.77999986,"lon":139.28959793},{"name":"日向和田浄水所","province":"東京都","city":"青梅市","address":"東京都青梅市日向和田2-370","lat":35.7843741,"lon":139.234717},{"name":"千ヶ瀬第二浄水所","province":"東京都","city":"青梅市","address":"東京都青梅市千ヶ瀬町1-69-1","lat":35.7846878,"lon":139.277824},{"name":"御岳山第一配水所","province":"東京都","city":"青梅市","address":"東京都青梅市御岳山170-3","lat":35.78347,"lon":139.15112},{"name":"成木配水所","province":"東京都","city":"青梅市","address":"東京都青梅市成木8-690-3","lat":35.8187204,"lon":139.241891},{"name":"新町給水所","province":"東京都","city":"青梅市","address":"東京都青梅市新町5-24-1","lat":35.7884612,"lon":139.308874},{"name":"二俣尾配水所","province":"東京都","city":"青梅市","address":"東京都青梅市二俣尾5-107-2","lat":35.8152563,"lon":139.2066375},{"name":"城山配水所","province":"東京都","city":"青梅市","address":"東京都青梅市東青梅6-95-1","lat":35.796712,"lon":139.272305},{"name":"梅郷配水所","province":"東京都","city":"青梅市","address":"東京都青梅市和田町2-578-1","lat":35.782215,"lon":139.226243},{"name":"西多摩福祉事務所","province":"東京都","city":"青梅市","address":"東京都青梅市河辺町6丁目4-1","lat":35.77999986,"lon":139.28959793},{"name":"西多摩地区","province":"東京都","city":"青梅市","address":"青梅市東青梅4-17-41","lat":35.78327,"lon":139.2817},{"name":"西多摩福祉事務所倉庫","province":"東京都","city":"青梅市","address":"東京都青梅市河辺町6丁目4-1","lat":35.77999986,"lon":139.28959793},{"name":"日向和田浄水所","province":"東京都","city":"青梅市","address":"東京都青梅市日向和田2-370","lat":35.7843741,"lon":139.234717},{"name":"千ヶ瀬第二浄水所","province":"東京都","city":"青梅市","address":"東京都青梅市千ヶ瀬町1-69-1","lat":35.7846878,"lon":139.277824},{"name":"御岳山第一配水所","province":"東京都","city":"青梅市","address":"東京都青梅市御岳山170-3","lat":35.78347,"lon":139.15112},{"name":"成木配水所","province":"東京都","city":"青梅市","address":"東京都青梅市成木8-690-3","lat":35.8187204,"lon":139.241891},{"name":"新町給水所","province":"東京都","city":"青梅市","address":"東京都青梅市新町5-24-1","lat":35.7884612,"lon":139.308874},{"name":"二俣尾配水所","province":"東京都","city":"青梅市","address":"東京都青梅市二俣尾5-107-2","lat":35.8152563,"lon":139.2066375},{"name":"城山配水所","province":"東京都","city":"青梅市","address":"東京都青梅市東青梅6-95-1","lat":35.796712,"lon":139.272305},{"name":"梅郷配水所","province":"東京都","city":"青梅市","address":"東京都青梅市和田町2-578-1","lat":35.782215,"lon":139.226243},{"name":"西多摩福祉事務所","province":"東京都","city":"青梅市","address":"東京都青梅市河辺町6丁目4-1","lat":35.77999986,"lon":139.28959793},{"name":"西多摩地区","province":"東京都","city":"青梅市","address":"青梅市東青梅4-17-41","lat":35.78327,"lon":139.2817},{"name":"西多摩福祉事務所倉庫","province":"東京都","city":"青梅市","address":"東京都青梅市河辺町6丁目4-1","lat":35.77999986,"lon":139.28959793},{"name":"日向和田浄水所","province":"東京都","city":"青梅市","address":"東京都青梅市日向和田2-370","lat":35.7843741,"lon":139.234717},{"name":"千ヶ瀬第二浄水所","province":"東京都","city":"青梅市","address":"東京都青梅市千ヶ瀬町1-69-1","lat":35.7846878,"lon":139.277824},{"name":"御岳山第一配水所","province":"東京都","city":"青梅市","address":"東京都青梅市御岳山170-3","lat":35.78347,"lon":139.15112},{"name":"成木配水所","province":"東京都","city":"青梅市","address":"東京都青梅市成木8-690-3","lat":35.8187204,"lon":139.241891},{"name":"新町給水所","province":"東京都","city":"青梅市","address":"東京都青梅市新町5-24-1","lat":35.7884612,"lon":139.308874},{"name":"二俣尾配水所","province":"東京都","city":"青梅市","address":"東京都青梅市二俣尾5-107-2","lat":35.8152563,"lon":139.2066375},{"name":"城山配水所","province":"東京都","city":"青梅市","address":"東京都青梅市東青梅6-95-1","lat":35.796712,"lon":139.272305},{"name":"梅郷配水所","province":"東京都","city":"青梅市","address":"東京都青梅市和田町2-578-1","lat":35.782215,"lon":139.226243},{"name":"西多摩福祉事務所","province":"東京都","city":"青梅市","address":"東京都青梅市河辺町6丁目4-1","lat":35.77999986,"lon":139.28959793},{"name":"西多摩地区","province":"東京都","city":"青梅市","address":"青梅市東青梅4-17-41","lat":35.78327,"lon":139.2817},{"name":"西多摩福祉事務所倉庫","province":"東京都","city":"青梅市","address":"東京都青梅市河辺町6丁目4-1","lat":35.77999986,"lon":139.28959793},{"name":"日向和田浄水所","province":"東京都","city":"青梅市","address":"東京都青梅市日向和田2-370","lat":35.7843741,"lon":139.234717},{"name":"千ヶ瀬第二浄水所","province":"東京都","city":"青梅市","address":"東京都青梅市千ヶ瀬町1-69-1","lat":35.7846878,"lon":139.277824},{"name":"御岳山第一配水所","province":"東京都","city":"青梅市","address":"東京都青梅市御岳山170-3","lat":35.78347,"lon":139.15112},{"name":"成木配水所","province":"東京都","city":"青梅市","address":"東京都青梅市成木8-690-3","lat":35.8187204,"lon":139.241891},{"name":"新町給水所","province":"東京都","city":"青梅市","address":"東京都青梅市新町5-24-1","lat":35.7884612,"lon":139.308874},{"name":"二俣尾配水所","province":"東京都","city":"青梅市","address":"東京都青梅市二俣尾5-107-2","lat":35.8152563,"lon":139.2066375},{"name":"城山配水所","province":"東京都","city":"青梅市","address":"東京都青梅市東青梅6-95-1","lat":35.796712,"lon":139.272305},{"name":"梅郷配水所","province":"東京都","city":"青梅市","address":"東京都青梅市和田町2-578-1","lat":35.782215,"lon":139.226243},{"name":"西多摩福祉事務所","province":"東京都","city":"青梅市","address":"東京都青梅市河辺町6丁目4-1","lat":35.77999986,"lon":139.28959793},{"name":"西多摩地区","province":"東京都","city":"青梅市","address":"青梅市東青梅4-17-41","lat":35.78327,"lon":139.2817},{"name":"西多摩福祉事務所倉庫","province":"東京都","city":"青梅市","address":"東京都青梅市河辺町6丁目4-1","lat":35.77999986,"lon":139.28959793},{"name":"日向和田浄水所","province":"東京都","city":"青梅市","address":"東京都青梅市日向和田2-370","lat":35.7843741,"lon":139.234717},{"name":"千ヶ瀬第二浄水所","province":"東京都","city":"青梅市","address":"東京都青梅市千ヶ瀬町1-69-1","lat":35.7846878,"lon":139.277824},{"name":"御岳山第一配水所","province":"東京都","city":"青梅市","address":"東京都青梅市御岳山170-3","lat":35.78347,"lon":139.15112},{"name":"成木配水所","province":"東京都","city":"青梅市","address":"東京都青梅市成木8-690-3","lat":35.8187204,"lon":139.241891},{"name":"新町給水所","province":"東京都","city":"青梅市","address":"東京都青梅市新町5-24-1","lat":35.7884612,"lon":139.308874},{"name":"二俣尾配水所","province":"東京都","city":"青梅市","address":"東京都青梅市二俣尾5-107-2","lat":35.8152563,"lon":139.2066375},{"name":"城山配水所","province":"東京都","city":"青梅市","address":"東京都青梅市東青梅6-95-1","lat":35.796712,"lon":139.272305},{"name":"梅郷配水所","province":"東京都","city":"青梅市","address":"東京都青梅市和田町2-578-1","lat":35.782215,"lon":139.226243},{"name":"西多摩福祉事務所","province":"東京都","city":"青梅市","address":"東京都青梅市河辺町6丁目4-1","lat":35.77999986,"lon":139.28959793},{"name":"西多摩地区","province":"東京都","city":"青梅市","address":"青梅市東青梅4-17-41","lat":35.78327,"lon":139.2817},{"name":"西多摩福祉事務所倉庫","province":"東京都","city":"青梅市","address":"東京都青梅市河辺町6丁目4-1","lat":35.77999986,"lon":139.28959793},{"name":"日向和田浄水所","province":"東京都","city":"青梅市","address":"東京都青梅市日向和田2-370","lat":35.7843741,"lon":139.234717},{"name":"千ヶ瀬第二浄水所","province":"東京都","city":"青梅市","address":"東京都青梅市千ヶ瀬町1-69-1","lat":35.7846878,"lon":139.277824},{"name":"御岳山第一配水所","province":"東京都","city":"青梅市","address":"東京都青梅市御岳山170-3","lat":35.78347,"lon":139.15112},{"name":"成木配水所","province":"東京都","city":"青梅市","address":"東京都青梅市成木8-690-3","lat":35.8187204,"lon":139.241891},{"name":"新町給水所","province":"東京都","city":"青梅市","address":"東京都青梅市新町5-24-1","lat":35.7884612,"lon":139.308874},{"name":"二俣尾配水所","province":"東京都","city":"青梅市","address":"東京都青梅市二俣尾5-107-2","lat":35.8152563,"lon":139.2066375},{"name":"城山配水所","province":"東京都","city":"青梅市","address":"東京都青梅市東青梅6-95-1","lat":35.796712,"lon":139.272305},{"name":"梅郷配水所","province":"東京都","city":"青梅市","address":"東京都青梅市和田町2-578-1","lat":35.782215,"lon":139.226243},{"name":"西多摩福祉事務所","province":"東京都","city":"青梅市","address":"東京都青梅市河辺町6丁目4-1","lat":35.77999986,"lon":139.28959793},{"name":"西多摩地区","province":"東京都","city":"青梅市","address":"青梅市東青梅4-17-41","lat":35.78327,"lon":139.2817},{"name":"西多摩福祉事務所倉庫","province":"東京都","city":"青梅市","address":"東京都青梅市河辺町6丁目4-1","lat":35.77999986,"lon":139.28959793},{"name":"日向和田浄水所","province":"東京都","city":"青梅市","address":"東京都青梅市日向和田2-370","lat":35.7843741,"lon":139.234717},{"name":"千ヶ瀬第二浄水所","province":"東京都","city":"青梅市","address":"東京都青梅市千ヶ瀬町1-69-1","lat":35.7846878,"lon":139.277824},{"name":"御岳山第一配水所","province":"東京都","city":"青梅市","address":"東京都青梅市御岳山170-3","lat":35.78347,"lon":139.15112},{"name":"成木配水所","province":"東京都","city":"青梅市","address":"東京都青梅市成木8-690-3","lat":35.8187204,"lon":139.241891},{"name":"新町給水所","province":"東京都","city":"青梅市","address":"東京都青梅市新町5-24-1","lat":35.7884612,"lon":139.308874},{"name":"二俣尾配水所","province":"東京都","city":"青梅市","address":"東京都青梅市二俣尾5-107-2","lat":35.8152563,"lon":139.2066375},{"name":"城山配水所","province":"東京都","city":"青梅市","address":"東京都青梅市東青梅6-95-1","lat":35.796712,"lon":139.272305},{"name":"梅郷配水所","province":"東京都","city":"青梅市","address":"東京都青梅市和田町2-578-1","lat":35.782215,"lon":139.226243},{"name":"西多摩福祉事務所","province":"東京都","city":"青梅市","address":"東京都青梅市河辺町6丁目4-1","lat":35.77999986,"lon":139.28959793},{"name":"西多摩地区","province":"東京都","city":"青梅市","address":"青梅市東青梅4-17-41","lat":35.78327,"lon":139.2817},{"name":"西多摩福祉事務所倉庫","province":"東京都","city":"青梅市","address":"東京都青梅市河辺町6丁目4-1","lat":35.77999986,"lon":139.28959793},{"name":"日向和田浄水所","province":"東京都","city":"青梅市","address":"東京都青梅市日向和田2-370","lat":35.7843741,"lon":139.234717},{"name":"千ヶ瀬第二浄水所","province":"東京都","city":"青梅市","address":"東京都青梅市千ヶ瀬町1-69-1","lat":35.7846878,"lon":139.277824},{"name":"御岳山第一配水所","province":"東京都","city":"青梅市","address":"東京都青梅市御岳山170-3","lat":35.78347,"lon":139.15112},{"name":"成木配水所","province":"東京都","city":"青梅市","address":"東京都青梅市成木8-690-3","lat":35.8187204,"lon":139.241891},{"name":"新町給水所","province":"東京都","city":"青梅市","address":"東京都青梅市新町5-24-1","lat":35.7884612,"lon":139.308874},{"name":"二俣尾配水所","province":"東京都","city":"青梅市","address":"東京都青梅市二俣尾5-107-2","lat":35.8152563,"lon":139.2066375},{"name":"城山配水所","province":"東京都","city":"青梅市","address":"東京都青梅市東青梅6-95-1","lat":35.796712,"lon":139.272305},{"name":"梅郷配水所","province":"東京都","city":"青梅市","address":"東京都青梅市和田町2-578-1","lat":35.782215,"lon":139.226243},{"name":"西多摩福祉事務所","province":"東京都","city":"青梅市","address":"東京都青梅市河辺町6丁目4-1","lat":35.77999986,"lon":139.28959793},{"name":"西多摩地区","province":"東京都","city":"青梅市","address":"青梅市東青梅4-17-41","lat":35.78327,"lon":139.2817},{"name":"西多摩福祉事務所倉庫","province":"東京都","city":"青梅市","address":"東京都青梅市河辺町6丁目4-1","lat":35.77999986,"lon":139.28959793},{"name":"日向和田浄水所","province":"東京都","city":"青梅市","address":"東京都青梅市日向和田2-370","lat":35.7843741,"lon":139.234717},{"name":"千ヶ瀬第二浄水所","province":"東京都","city":"青梅市","address":"東京都青梅市千ヶ瀬町1-69-1","lat":35.7846878,"lon":139.277824},{"name":"御岳山第一配水所","province":"東京都","city":"青梅市","address":"東京都青梅市御岳山170-3","lat":35.78347,"lon":139.15112},{"name":"成木配水所","province":"東京都","city":"青梅市","address":"東京都青梅市成木8-690-3","lat":35.8187204,"lon":139.241891},{"name":"新町給水所","province":"東京都","city":"青梅市","address":"東京都青梅市新町5-24-1","lat":35.7884612,"lon":139.308874},{"name":"二俣尾配水所","province":"東京都","city":"青梅市","address":"東京都青梅市二俣尾5-107-2","lat":35.8152563,"lon":139.2066375},{"name":"城山配水所","province":"東京都","city":"青梅市","address":"東京都青梅市東青梅6-95-1","lat":35.796712,"lon":139.272305},{"name":"梅郷配水所","province":"東京都","city":"青梅市","address":"東京都青梅市和田町2-578-1","lat":35.782215,"lon":139.226243},{"name":"西多摩福祉事務所","province":"東京都","city":"青梅市","address":"東京都青梅市河辺町6丁目4-1","lat":35.77999986,"lon":139.28959793},{"name":"西多摩地区","province":"東京都","city":"青梅市","address":"青梅市東青梅4-17-41","lat":35.78327,"lon":139.2817},{"name":"西多摩福祉事務所倉庫","province":"東京都","city":"青梅市","address":"東京都青梅市河辺町6丁目4-1","lat":35.77999986,"lon":139.28959793},{"name":"日向和田浄水所","province":"東京都","city":"青梅市","address":"東京都青梅市日向和田2-370","lat":35.7843741,"lon":139.234717},{"name":"千ヶ瀬第二浄水所","province":"東京都","city":"青梅市","address":"東京都青梅市千ヶ瀬町1-69-1","lat":35.7846878,"lon":139.277824},{"name":"御岳山第一配水所","province":"東京都","city":"青梅市","address":"東京都青梅市御岳山170-3","lat":35.78347,"lon":139.15112},{"name":"成木配水所","province":"東京都","city":"青梅市","address":"東京都青梅市成木8-690-3","lat":35.8187204,"lon":139.241891},{"name":"新町給水所","province":"東京都","city":"青梅市","address":"東京都青梅市新町5-24-1","lat":35.7884612,"lon":139.308874},{"name":"二俣尾配水所","province":"東京都","city":"青梅市","address":"東京都青梅市二俣尾5-107-2","lat":35.8152563,"lon":139.2066375},{"name":"城山配水所","province":"東京都","city":"青梅市","address":"東京都青梅市東青梅6-95-1","lat":35.796712,"lon":139.272305},{"name":"梅郷配水所","province":"東京都","city":"青梅市","address":"東京都青梅市和田町2-578-1","lat":35.782215,"lon":139.226243},{"name":"西多摩福祉事務所","province":"東京都","city":"青梅市","address":"東京都青梅市河辺町6丁目4-1","lat":35.77999986,"lon":139.28959793},{"name":"西多摩地区","province":"東京都","city":"青梅市","address":"青梅市東青梅4-17-41","lat":35.78327,"lon":139.2817},{"name":"西多摩福祉事務所倉庫","province":"東京都","city":"青梅市","address":"東京都青梅市河辺町6丁目4-1","lat":35.77999986,"lon":139.28959793},{"name":"日向和田浄水所","province":"東京都","city":"青梅市","address":"東京都青梅市日向和田2-370","lat":35.7843741,"lon":139.234717},{"name":"千ヶ瀬第二浄水所","province":"東京都","city":"青梅市","address":"東京都青梅市千ヶ瀬町1-69-1","lat":35.7846878,"lon":139.277824},{"name":"御岳山第一配水所","province":"東京都","city":"青梅市","address":"東京都青梅市御岳山170-3","lat":35.78347,"lon":139.15112},{"name":"成木配水所","province":"東京都","city":"青梅市","address":"東京都青梅市成木8-690-3","lat":35.8187204,"lon":139.241891},{"name":"新町給水所","province":"東京都","city":"青梅市","address":"東京都青梅市新町5-24-1","lat":35.7884612,"lon":139.308874},{"name":"二俣尾配水所","province":"東京都","city":"青梅市","address":"東京都青梅市二俣尾5-107-2","lat":35.8152563,"lon":139.2066375},{"name":"城山配水所","province":"東京都","city":"青梅市","address":"東京都青梅市東青梅6-95-1","lat":35.796712,"lon":139.272305},{"name":"梅郷配水所","province":"東京都","city":"青梅市","address":"東京都青梅市和田町2-578-1","lat":35.782215,"lon":139.226243},{"name":"西多摩福祉事務所","province":"東京都","city":"青梅市","address":"東京都青梅市河辺町6丁目4-1","lat":35.77999986,"lon":139.28959793},{"name":"西多摩地区","province":"東京都","city":"青梅市","address":"青梅市東青梅4-17-41","lat":35.78327,"lon":139.2817},{"name":"西多摩福祉事務所倉庫","province":"東京都","city":"青梅市","address":"東京都青梅市河辺町6丁目4-1","lat":35.77999986,"lon":139.28959793},{"name":"日向和田浄水所","province":"東京都","city":"青梅市","address":"東京都青梅市日向和田2-370","lat":35.7843741,"lon":139.234717},{"name":"千ヶ瀬第二浄水所","province":"東京都","city":"青梅市","address":"東京都青梅市千ヶ瀬町1-69-1","lat":35.7846878,"lon":139.277824},{"name":"御岳山第一配水所","province":"東京都","city":"青梅市","address":"東京都青梅市御岳山170-3","lat":35.78347,"lon":139.15112},{"name":"成木配水所","province":"東京都","city":"青梅市","address":"東京都青梅市成木8-690-3","lat":35.8187204,"lon":139.241891},{"name":"新町給水所","province":"東京都","city":"青梅市","address":"東京都青梅市新町5-24-1","lat":35.7884612,"lon":139.308874},{"name":"二俣尾配水所","province":"東京都","city":"青梅市","address":"東京都青梅市二俣尾5-107-2","lat":35.8152563,"lon":139.2066375},{"name":"城山配水所","province":"東京都","city":"青梅市","address":"東京都青梅市東青梅6-95-1","lat":35.796712,"lon":139.272305},{"name":"梅郷配水所","province":"東京都","city":"青梅市","address":"東京都青梅市和田町2-578-1","lat":35.782215,"lon":139.226243},{"name":"西多摩福祉事務所","province":"東京都","city":"青梅市","address":"東京都青梅市河辺町6丁目4-1","lat":35.77999986,"lon":139.28959793},{"name":"西多摩福祉事務所倉庫","province":"東京都","city":"青梅市","address":"東京都青梅市河辺町6丁目4-1","lat":35.77999986,"lon":139.28959793},{"name":"日向和田浄水所","province":"東京都","city":"青梅市","address":"東京都青梅市日向和田2-370","lat":35.7843741,"lon":139.234717},{"name":"千ヶ瀬第二浄水所","province":"東京都","city":"青梅市","address":"東京都青梅市千ヶ瀬町1-69-1","lat":35.7846878,"lon":139.277824},{"name":"御岳山第一配水所","province":"東京都","city":"青梅市","address":"東京都青梅市御岳山170-3","lat":35.78347,"lon":139.15112},{"name":"成木配水所","province":"東京都","city":"青梅市","address":"東京都青梅市成木8-690-3","lat":35.8187204,"lon":139.241891},{"name":"新町給水所","province":"東京都","city":"青梅市","address":"東京都青梅市新町5-24-1","lat":35.7884612,"lon":139.308874},{"name":"二俣尾配水所","province":"東京都","city":"青梅市","address":"東京都青梅市二俣尾5-107-2","lat":35.8152563,"lon":139.2066375},{"name":"城山配水所","province":"東京都","city":"青梅市","address":"東京都青梅市東青梅6-95-1","lat":35.796712,"lon":139.272305},{"name":"梅郷配水所","province":"東京都","city":"青梅市","address":"東京都青梅市和田町2-578-1","lat":35.782215,"lon":139.226243},{"name":"西多摩福祉事務所","province":"東京都","city":"青梅市","address":"東京都青梅市河辺町6丁目4-1","lat":35.77999986,"lon":139.28959793},{"name":"西多摩福祉事務所倉庫","province":"東京都","city":"青梅市","address":"東京都青梅市河辺町6丁目4-1","lat":35.77999986,"lon":139.28959793},{"name":"日向和田浄水所","province":"東京都","city":"青梅市","address":"東京都青梅市日向和田2-370","lat":35.7843741,"lon":139.234717},{"name":"千ヶ瀬第二浄水所","province":"東京都","city":"青梅市","address":"東京都青梅市千ヶ瀬町1-69-1","lat":35.7846878,"lon":139.277824},{"name":"御岳山第一配水所","province":"東京都","city":"青梅市","address":"東京都青梅市御岳山170-3","lat":35.78347,"lon":139.15112},{"name":"成木配水所","province":"東京都","city":"青梅市","address":"東京都青梅市成木8-690-3","lat":35.8187204,"lon":139.241891},{"name":"新町給水所","province":"東京都","city":"青梅市","address":"東京都青梅市新町5-24-1","lat":35.7884612,"lon":139.308874},{"name":"二俣尾配水所","province":"東京都","city":"青梅市","address":"東京都青梅市二俣尾5-107-2","lat":35.8152563,"lon":139.2066375},{"name":"城山配水所","province":"東京都","city":"青梅市","address":"東京都青梅市東青梅6-95-1","lat":35.796712,"lon":139.272305},{"name":"梅郷配水所","province":"東京都","city":"青梅市","address":"東京都青梅市和田町2-578-1","lat":35.782215,"lon":139.226243},{"name":"西多摩福祉事務所","province":"東京都","city":"青梅市","address":"東京都青梅市河辺町6丁目4-1","lat":35.77999986,"lon":139.28959793},{"name":"西多摩福祉事務所倉庫","province":"東京都","city":"青梅市","address":"東京都青梅市河辺町6丁目4-1","lat":35.77999986,"lon":139.28959793},{"name":"日向和田浄水所","province":"東京都","city":"青梅市","address":"東京都青梅市日向和田2-370","lat":35.7843741,"lon":139.234717},{"name":"千ヶ瀬第二浄水所","province":"東京都","city":"青梅市","address":"東京都青梅市千ヶ瀬町1-69-1","lat":35.7846878,"lon":139.277824},{"name":"御岳山第一配水所","province":"東京都","city":"青梅市","address":"東京都青梅市御岳山170-3","lat":35.78347,"lon":139.15112},{"name":"成木配水所","province":"東京都","city":"青梅市","address":"東京都青梅市成木8-690-3","lat":35.8187204,"lon":139.241891},{"name":"新町給水所","province":"東京都","city":"青梅市","address":"東京都青梅市新町5-24-1","lat":35.7884612,"lon":139.308874},{"name":"二俣尾配水所","province":"東京都","city":"青梅市","address":"東京都青梅市二俣尾5-107-2","lat":35.8152563,"lon":139.2066375},{"name":"城山配水所","province":"東京都","city":"青梅市","address":"東京都青梅市東青梅6-95-1","lat":35.796712,"lon":139.272305},{"name":"梅郷配水所","province":"東京都","city":"青梅市","address":"東京都青梅市和田町2-578-1","lat":35.782215,"lon":139.226243},{"name":"西多摩福祉事務所","province":"東京都","city":"青梅市","address":"東京都青梅市河辺町6丁目4-1","lat":35.77999986,"lon":139.28959793},{"name":"西多摩福祉事務所倉庫","province":"東京都","city":"青梅市","address":"東京都青梅市河辺町6丁目4-1","lat":35.77999986,"lon":139.28959793},{"name":"日向和田浄水所","province":"東京都","city":"青梅市","address":"東京都青梅市日向和田2-370","lat":35.7843741,"lon":139.234717},{"name":"千ヶ瀬第二浄水所","province":"東京都","city":"青梅市","address":"東京都青梅市千ヶ瀬町1-69-1","lat":35.7846878,"lon":139.277824},{"name":"御岳山第一配水所","province":"東京都","city":"青梅市","address":"東京都青梅市御岳山170-3","lat":35.78347,"lon":139.15112},{"name":"成木配水所","province":"東京都","city":"青梅市","address":"東京都青梅市成木8-690-3","lat":35.8187204,"lon":139.241891},{"name":"新町給水所","province":"東京都","city":"青梅市","address":"東京都青梅市新町5-24-1","lat":35.7884612,"lon":139.308874},{"name":"二俣尾配水所","province":"東京都","city":"青梅市","address":"東京都青梅市二俣尾5-107-2","lat":35.8152563,"lon":139.2066375},{"name":"城山配水所","province":"東京都","city":"青梅市","address":"東京都青梅市東青梅6-95-1","lat":35.796712,"lon":139.272305},{"name":"梅郷配水所","province":"東京都","city":"青梅市","address":"東京都青梅市和田町2-578-1","lat":35.782215,"lon":139.226243},{"name":"西多摩福祉事務所","province":"東京都","city":"青梅市","address":"東京都青梅市河辺町6丁目4-1","lat":35.77999986,"lon":139.28959793},{"name":"西多摩福祉事務所倉庫","province":"東京都","city":"青梅市","address":"東京都青梅市河辺町6丁目4-1","lat":35.77999986,"lon":139.28959793},{"name":"日向和田浄水所","province":"東京都","city":"青梅市","address":"東京都青梅市日向和田2-370","lat":35.7843741,"lon":139.234717},{"name":"千ヶ瀬第二浄水所","province":"東京都","city":"青梅市","address":"東京都青梅市千ヶ瀬町1-69-1","lat":35.7846878,"lon":139.277824},{"name":"御岳山第一配水所","province":"東京都","city":"青梅市","address":"東京都青梅市御岳山170-3","lat":35.78347,"lon":139.15112},{"name":"成木配水所","province":"東京都","city":"青梅市","address":"東京都青梅市成木8-690-3","lat":35.8187204,"lon":139.241891},{"name":"新町給水所","province":"東京都","city":"青梅市","address":"東京都青梅市新町5-24-1","lat":35.7884612,"lon":139.308874},{"name":"二俣尾配水所","province":"東京都","city":"青梅市","address":"東京都青梅市二俣尾5-107-2","lat":35.8152563,"lon":139.2066375},{"name":"城山配水所","province":"東京都","city":"青梅市","address":"東京都青梅市東青梅6-95-1","lat":35.796712,"lon":139.272305},{"name":"梅郷配水所","province":"東京都","city":"青梅市","address":"東京都青梅市和田町2-578-1","lat":35.782215,"lon":139.226243},{"name":"西多摩福祉事務所","province":"東京都","city":"青梅市","address":"東京都青梅市河辺町6丁目4-1","lat":35.77999986,"lon":139.28959793},{"name":"西多摩福祉事務所倉庫","province":"東京都","city":"青梅市","address":"東京都青梅市河辺町6丁目4-1","lat":35.77999986,"lon":139.28959793},{"name":"日向和田浄水所","province":"東京都","city":"青梅市","address":"東京都青梅市日向和田2-370","lat":35.7843741,"lon":139.234717},{"name":"千ヶ瀬第二浄水所","province":"東京都","city":"青梅市","address":"東京都青梅市千ヶ瀬町1-69-1","lat":35.7846878,"lon":139.277824},{"name":"御岳山第一配水所","province":"東京都","city":"青梅市","address":"東京都青梅市御岳山170-3","lat":35.78347,"lon":139.15112},{"name":"成木配水所","province":"東京都","city":"青梅市","address":"東京都青梅市成木8-690-3","lat":35.8187204,"lon":139.241891},{"name":"新町給水所","province":"東京都","city":"青梅市","address":"東京都青梅市新町5-24-1","lat":35.7884612,"lon":139.308874},{"name":"二俣尾配水所","province":"東京都","city":"青梅市","address":"東京都青梅市二俣尾5-107-2","lat":35.8152563,"lon":139.2066375},{"name":"城山配水所","province":"東京都","city":"青梅市","address":"東京都青梅市東青梅6-95-1","lat":35.796712,"lon":139.272305},{"name":"梅郷配水所","province":"東京都","city":"青梅市","address":"東京都青梅市和田町2-578-1","lat":35.782215,"lon":139.226243},{"name":"西多摩福祉事務所","province":"東京都","city":"青梅市","address":"東京都青梅市河辺町6丁目4-1","lat":35.77999986,"lon":139.28959793},{"name":"西多摩福祉事務所倉庫","province":"東京都","city":"青梅市","address":"東京都青梅市河辺町6丁目4-1","lat":35.77999986,"lon":139.28959793},{"name":"日向和田浄水所","province":"東京都","city":"青梅市","address":"東京都青梅市日向和田2-370","lat":35.7843741,"lon":139.234717},{"name":"千ヶ瀬第二浄水所","province":"東京都","city":"青梅市","address":"東京都青梅市千ヶ瀬町1-69-1","lat":35.7846878,"lon":139.277824},{"name":"御岳山第一配水所","province":"東京都","city":"青梅市","address":"東京都青梅市御岳山170-3","lat":35.78347,"lon":139.15112},{"name":"成木配水所","province":"東京都","city":"青梅市","address":"東京都青梅市成木8-690-3","lat":35.8187204,"lon":139.241891},{"name":"新町給水所","province":"東京都","city":"青梅市","address":"東京都青梅市新町5-24-1","lat":35.7884612,"lon":139.308874},{"name":"二俣尾配水所","province":"東京都","city":"青梅市","address":"東京都青梅市二俣尾5-107-2","lat":35.8152563,"lon":139.2066375},{"name":"城山配水所","province":"東京都","city":"青梅市","address":"東京都青梅市東青梅6-95-1","lat":35.796712,"lon":139.272305},{"name":"梅郷配水所","province":"東京都","city":"青梅市","address":"東京都青梅市和田町2-578-1","lat":35.782215,"lon":139.226243},{"name":"西多摩福祉事務所","province":"東京都","city":"青梅市","address":"東京都青梅市河辺町6丁目4-1","lat":35.77999986,"lon":139.28959793},{"name":"西多摩福祉事務所倉庫","province":"東京都","city":"青梅市","address":"東京都青梅市河辺町6丁目4-1","lat":35.77999986,"lon":139.28959793},{"name":"日向和田浄水所","province":"東京都","city":"青梅市","address":"東京都青梅市日向和田2-370","lat":35.7843741,"lon":139.234717},{"name":"千ヶ瀬第二浄水所","province":"東京都","city":"青梅市","address":"東京都青梅市千ヶ瀬町1-69-1","lat":35.7846878,"lon":139.277824},{"name":"御岳山第一配水所","province":"東京都","city":"青梅市","address":"東京都青梅市御岳山170-3","lat":35.78347,"lon":139.15112},{"name":"成木配水所","province":"東京都","city":"青梅市","address":"東京都青梅市成木8-690-3","lat":35.8187204,"lon":139.241891},{"name":"新町給水所","province":"東京都","city":"青梅市","address":"東京都青梅市新町5-24-1","lat":35.7884612,"lon":139.308874},{"name":"二俣尾配水所","province":"東京都","city":"青梅市","address":"東京都青梅市二俣尾5-107-2","lat":35.8152563,"lon":139.2066375},{"name":"城山配水所","province":"東京都","city":"青梅市","address":"東京都青梅市東青梅6-95-1","lat":35.796712,"lon":139.272305},{"name":"梅郷配水所","province":"東京都","city":"青梅市","address":"東京都青梅市和田町2-578-1","lat":35.782215,"lon":139.226243},{"name":"西多摩福祉事務所","province":"東京都","city":"青梅市","address":"東京都青梅市河辺町6丁目4-1","lat":35.77999986,"lon":139.28959793},{"name":"西多摩福祉事務所倉庫","province":"東京都","city":"青梅市","address":"東京都青梅市河辺町6丁目4-1","lat":35.77999986,"lon":139.28959793},{"name":"日向和田浄水所","province":"東京都","city":"青梅市","address":"東京都青梅市日向和田2-370","lat":35.7843741,"lon":139.234717},{"name":"千ヶ瀬第二浄水所","province":"東京都","city":"青梅市","address":"東京都青梅市千ヶ瀬町1-69-1","lat":35.7846878,"lon":139.277824},{"name":"御岳山第一配水所","province":"東京都","city":"青梅市","address":"東京都青梅市御岳山170-3","lat":35.78347,"lon":139.15112},{"name":"成木配水所","province":"東京都","city":"青梅市","address":"東京都青梅市成木8-690-3","lat":35.8187204,"lon":139.241891},{"name":"新町給水所","province":"東京都","city":"青梅市","address":"東京都青梅市新町5-24-1","lat":35.7884612,"lon":139.308874},{"name":"二俣尾配水所","province":"東京都","city":"青梅市","address":"東京都青梅市二俣尾5-107-2","lat":35.8152563,"lon":139.2066375},{"name":"城山配水所","province":"東京都","city":"青梅市","address":"東京都青梅市東青梅6-95-1","lat":35.796712,"lon":139.272305},{"name":"梅郷配水所","province":"東京都","city":"青梅市","address":"東京都青梅市和田町2-578-1","lat":35.782215,"lon":139.226243},{"name":"西多摩福祉事務所","province":"東京都","city":"青梅市","address":"東京都青梅市河辺町6丁目4-1","lat":35.77999986,"lon":139.28959793},{"name":"西多摩福祉事務所倉庫","province":"東京都","city":"青梅市","address":"東京都青梅市河辺町6丁目4-1","lat":35.77999986,"lon":139.28959793},{"name":"日向和田浄水所","province":"東京都","city":"青梅市","address":"東京都青梅市日向和田2-370","lat":35.7843741,"lon":139.234717},{"name":"千ヶ瀬第二浄水所","province":"東京都","city":"青梅市","address":"東京都青梅市千ヶ瀬町1-69-1","lat":35.7846878,"lon":139.277824},{"name":"御岳山第一配水所","province":"東京都","city":"青梅市","address":"東京都青梅市御岳山170-3","lat":35.78347,"lon":139.15112},{"name":"成木配水所","province":"東京都","city":"青梅市","address":"東京都青梅市成木8-690-3","lat":35.8187204,"lon":139.241891},{"name":"新町給水所","province":"東京都","city":"青梅市","address":"東京都青梅市新町5-24-1","lat":35.7884612,"lon":139.308874},{"name":"二俣尾配水所","province":"東京都","city":"青梅市","address":"東京都青梅市二俣尾5-107-2","lat":35.8152563,"lon":139.2066375},{"name":"城山配水所","province":"東京都","city":"青梅市","address":"東京都青梅市東青梅6-95-1","lat":35.796712,"lon":139.272305},{"name":"梅郷配水所","province":"東京都","city":"青梅市","address":"東京都青梅市和田町2-578-1","lat":35.782215,"lon":139.226243},{"name":"西多摩福祉事務所","province":"東京都","city":"青梅市","address":"東京都青梅市河辺町6丁目4-1","lat":35.77999986,"lon":139.28959793},{"name":"西多摩福祉事務所倉庫","province":"東京都","city":"青梅市","address":"東京都青梅市河辺町6丁目4-1","lat":35.77999986,"lon":139.28959793},{"name":"日向和田浄水所","province":"東京都","city":"青梅市","address":"東京都青梅市日向和田2-370","lat":35.7843741,"lon":139.234717},{"name":"千ヶ瀬第二浄水所","province":"東京都","city":"青梅市","address":"東京都青梅市千ヶ瀬町1-69-1","lat":35.7846878,"lon":139.277824},{"name":"御岳山第一配水所","province":"東京都","city":"青梅市","address":"東京都青梅市御岳山170-3","lat":35.78347,"lon":139.15112},{"name":"成木配水所","province":"東京都","city":"青梅市","address":"東京都青梅市成木8-690-3","lat":35.8187204,"lon":139.241891},{"name":"新町給水所","province":"東京都","city":"青梅市","address":"東京都青梅市新町5-24-1","lat":35.7884612,"lon":139.308874},{"name":"二俣尾配水所","province":"東京都","city":"青梅市","address":"東京都青梅市二俣尾5-107-2","lat":35.8152563,"lon":139.2066375},{"name":"城山配水所","province":"東京都","city":"青梅市","address":"東京都青梅市東青梅6-95-1","lat":35.796712,"lon":139.272305},{"name":"梅郷配水所","province":"東京都","city":"青梅市","address":"東京都青梅市和田町2-578-1","lat":35.782215,"lon":139.226243},{"name":"西多摩福祉事務所","province":"東京都","city":"青梅市","address":"東京都青梅市河辺町6丁目4-1","lat":35.77999986,"lon":139.28959793},{"name":"西多摩福祉事務所倉庫","province":"東京都","city":"青梅市","address":"東京都青梅市河辺町6丁目4-1","lat":35.77999986,"lon":139.28959793},{"name":"日向和田浄水所","province":"東京都","city":"青梅市","address":"東京都青梅市日向和田2-370","lat":35.7843741,"lon":139.234717},{"name":"千ヶ瀬第二浄水所","province":"東京都","city":"青梅市","address":"東京都青梅市千ヶ瀬町1-69-1","lat":35.7846878,"lon":139.277824},{"name":"御岳山第一配水所","province":"東京都","city":"青梅市","address":"東京都青梅市御岳山170-3","lat":35.78347,"lon":139.15112},{"name":"成木配水所","province":"東京都","city":"青梅市","address":"東京都青梅市成木8-690-3","lat":35.8187204,"lon":139.241891},{"name":"新町給水所","province":"東京都","city":"青梅市","address":"東京都青梅市新町5-24-1","lat":35.7884612,"lon":139.308874},{"name":"二俣尾配水所","province":"東京都","city":"青梅市","address":"東京都青梅市二俣尾5-107-2","lat":35.8152563,"lon":139.2066375},{"name":"城山配水所","province":"東京都","city":"青梅市","address":"東京都青梅市東青梅6-95-1","lat":35.796712,"lon":139.272305},{"name":"梅郷配水所","province":"東京都","city":"青梅市","address":"東京都青梅市和田町2-578-1","lat":35.782215,"lon":139.226243},{"name":"西多摩福祉事務所","province":"東京都","city":"青梅市","address":"東京都青梅市河辺町6丁目4-1","lat":35.77999986,"lon":139.28959793},{"name":"西多摩福祉事務所倉庫","province":"東京都","city":"青梅市","address":"東京都青梅市河辺町6丁目4-1","lat":35.77999986,"lon":139.28959793}]}