{"keyword":"子ども","data":[{"name":"軍畑園地","province":"東京都","city":"青梅市","address":"東京都青梅市柚木町2丁目","lat":35.804419,"lon":139.211754},{"name":"御岳丸山園地","province":"東京都","city":"青梅市","address":"東京都青梅市御岳山","lat":35.784061,"lon":139.150989},{"name":"御岳渓谷","province":"東京都","city":"青梅市","address":"東京都青梅市沢井3丁目","lat":35.805331,"lon":139.187804},{"name":"御岳渓谷園地","province":"東京都","city":"青梅市","address":"東京都青梅市御岳本町","lat":35.801307,"lon":139.184876},{"name":"御岳射山渓駐車場","province":"東京都","city":"青梅市","address":"東京都青梅市柚木町3丁目","lat":35.802681,"lon":139.195699},{"name":"御岳平園地","province":"東京都","city":"青梅市","address":"東京都青梅市御岳山","lat":35.790007,"lon":139.152976},{"name":"丹縄園地","province":"東京都","city":"青梅市","address":"東京都青梅市御岳2丁目","lat":35.805966,"lon":139.176097},{"name":"御岳ビジターセンター","province":"東京都","city":"青梅市","address":"東京都青梅市御岳山38-5","lat":35.78675,"lon":139.150582},{"name":"東京都西多摩保健所","province":"東京都","city":"青梅市","address":"東京都青梅市東青梅1丁目167-15","lat":35.787716,"lon":139.27145},{"name":"東京都青梅合同庁舎","province":"東京都","city":"青梅市","address":"東京都青梅市河辺町6丁目4-1","lat":35.779982,"lon":139.289651},{"name":"東京都青梅合同庁舎","province":"東京都","city":"青梅市","address":"東京都青梅市河辺町6丁目4-1","lat":35.779972,"lon":139.289675},{"name":"青梅サービスステーション","province":"東京都","city":"青梅市","address":"東京都青梅市師岡町1丁目1301-10","lat":35.792569,"lon":139.277224},{"name":"青梅市健康センター","province":"東京都","city":"青梅市","address":"東京都青梅市東青梅1丁目174-1","lat":35.787704,"lon":139.273322},{"name":"青梅市役所","province":"東京都","city":"青梅市","address":"東京都青梅市東青梅1丁目11-1","lat":35.78774,"lon":139.275435},{"name":"青梅市役所","province":"東京都","city":"青梅市","address":"東京都青梅市東青梅1丁目11-1","lat":35.78805,"lon":139.275487},{"name":"青梅市役所","province":"東京都","city":"青梅市","address":"東京都青梅市東青梅1丁目11-1","lat":35.78769,"lon":139.275769},{"name":"青梅図書館","province":"東京都","city":"青梅市","address":"東京都青梅市仲町268-9","lat":35.791136,"lon":139.256646},{"name":"青梅市長淵市民センター","province":"東京都","city":"青梅市","address":"東京都青梅市長淵6丁目492-1","lat":35.780438,"lon":139.268494},{"name":"青梅市大門市民センター","province":"東京都","city":"青梅市","address":"東京都青梅市大門2丁目288","lat":35.79682,"lon":139.291215},{"name":"青梅市沢井市民センター","province":"東京都","city":"青梅市","address":"東京都青梅市沢井2丁目682","lat":35.804706,"lon":139.196294},{"name":"青梅市成木市民センター","province":"東京都","city":"青梅市","address":"東京都青梅市成木4丁目644","lat":35.824075,"lon":139.248524},{"name":"青梅市東青梅市民センター","province":"東京都","city":"青梅市","address":"東京都青梅市師岡町3丁目9-6","lat":35.790692,"lon":139.282318},{"name":"青梅市新町市民センター","province":"東京都","city":"青梅市","address":"東京都青梅市新町4丁目17-1","lat":35.785987,"lon":139.305157},{"name":"青梅市河辺市民センター","province":"東京都","city":"青梅市","address":"東京都青梅市河辺町6丁目18-1","lat":35.778477,"lon":139.293653},{"name":"青梅市今井市民センター","province":"東京都","city":"青梅市","address":"東京都青梅市今井2丁目908-1","lat":35.806537,"lon":139.310886},{"name":"青梅市吉川英治記念館","province":"東京都","city":"青梅市","address":"東京都青梅市柚木町1丁目101-1","lat":35.79633,"lon":139.212881},{"name":"青梅市健康センター","province":"東京都","city":"青梅市","address":"東京都青梅市東青梅1丁目174-1","lat":35.78768,"lon":139.273271},{"name":"青梅市福祉センター","province":"東京都","city":"青梅市","address":"東京都青梅市東青梅1丁目177-3","lat":35.78741,"lon":139.274074},{"name":"青梅市子育て支援センター","province":"東京都","city":"青梅市","address":"東京都青梅市新町2丁目21-9","lat":35.788284,"lon":139.302211},{"name":"S＆Dたまぐーセンター（青梅市文化交流センター）","province":"東京都","city":"青梅市","address":"東京都青梅市上町374","lat":35.790212,"lon":139.254873},{"name":"青梅市御岳交流センター","province":"東京都","city":"青梅市","address":"東京都青梅市御岳本町362-8","lat":35.801451,"lon":139.184586},{"name":"青梅市中央図書館","province":"東京都","city":"青梅市","address":"東京都青梅市河辺町10丁目8-1","lat":35.785465,"lon":139.284962},{"name":"青梅市中央図書館","province":"東京都","city":"青梅市","address":"東京都青梅市河辺町10丁目8-1","lat":35.785489,"lon":139.284943},{"name":"青梅市立美術館","province":"東京都","city":"青梅市","address":"東京都青梅市滝ノ上町1346-1","lat":35.787614,"lon":139.255873},{"name":"住友金属鉱山アリーナ青梅（青梅市総合体育館）","province":"東京都","city":"青梅市","address":"東京都青梅市河辺町4丁目16-1","lat":35.780782,"lon":139.284745},{"name":"青梅市民斎場","province":"東京都","city":"青梅市","address":"東京都青梅市長淵5丁目698-2","lat":35.772368,"lon":139.262981},{"name":"青梅市青梅市民センター天ケ瀬体育館","province":"東京都","city":"青梅市","address":"東京都青梅市天ヶ瀬町1111-1","lat":35.789187,"lon":139.250654},{"name":"永山公園","province":"東京都","city":"青梅市","address":"東京都青梅市本町","lat":35.791453,"lon":139.260213},{"name":"釜の淵公園大柳駐車場","province":"東京都","city":"青梅市","address":"東京都青梅市大柳町","lat":35.785637,"lon":139.253232},{"name":"早道公園","province":"東京都","city":"青梅市","address":"東京都青梅市東青梅5丁目17","lat":35.789971,"lon":139.280184},{"name":"わかぐさ公園","province":"東京都","city":"青梅市","address":"東京都青梅市河辺町8丁目14","lat":35.783264,"lon":139.295897},{"name":"吹上しょうぶ公園","province":"東京都","city":"青梅市","address":"東京都青梅市吹上","lat":35.797394,"lon":139.276045},{"name":"富士塚公園","province":"東京都","city":"青梅市","address":"東京都青梅市新町5丁目22","lat":35.789516,"lon":139.307604},{"name":"新田山公園","province":"東京都","city":"青梅市","address":"東京都青梅市新町7丁目33","lat":35.786312,"lon":139.314355},{"name":"新田山公園","province":"東京都","city":"青梅市","address":"東京都青梅市新町7丁目33","lat":35.786935,"lon":139.31267},{"name":"沢井駅前広場","province":"東京都","city":"青梅市","address":"東京都青梅市沢井2丁目","lat":35.805641,"lon":139.194182},{"name":"御岳苑地駐車場","province":"東京都","city":"青梅市","address":"東京都青梅市御岳1丁目","lat":35.798964,"lon":139.177744},{"name":"寺改戸公園","province":"東京都","city":"青梅市","address":"東京都青梅市長淵3丁目","lat":35.780987,"lon":139.275158},{"name":"畑中戸田山公園","province":"東京都","city":"青梅市","address":"東京都青梅市畑中3丁目","lat":35.779212,"lon":139.237305},{"name":"上開戸公園","province":"東京都","city":"青梅市","address":"東京都青梅市大門1丁目","lat":35.800961,"lon":139.286326},{"name":"梅の公園","province":"東京都","city":"青梅市","address":"東京都青梅市梅郷4丁目","lat":35.786315,"lon":139.218732},{"name":"梅の公園","province":"東京都","city":"青梅市","address":"東京都青梅市梅郷2丁目","lat":35.7849,"lon":139.221137},{"name":"今井ふれあい公園","province":"東京都","city":"青梅市","address":"東京都青梅市今井2丁目","lat":35.806944,"lon":139.308784},{"name":"花木園","province":"東京都","city":"青梅市","address":"東京都青梅市小曾木4丁目","lat":35.818034,"lon":139.284252},{"name":"梅郷１・２丁目運動広場","province":"東京都","city":"青梅市","address":"東京都青梅市梅郷1丁目","lat":35.783223,"lon":139.223786},{"name":"青梅駅前公衆便所","province":"東京都","city":"青梅市","address":"東京都青梅市本町","lat":35.790268,"lon":139.258815},{"name":"東青梅駅南口公衆便所","province":"東京都","city":"青梅市","address":"東京都青梅市東青梅1丁目9","lat":35.790096,"lon":139.271865},{"name":"東青梅駅北口公衆便所","province":"東京都","city":"青梅市","address":"東京都青梅市東青梅2丁目14-9","lat":35.789972,"lon":139.272971},{"name":"河辺駅南口公衆便所","province":"東京都","city":"青梅市","address":"東京都青梅市河辺町5丁目29","lat":35.784241,"lon":139.28478},{"name":"河辺駅北口公衆便所","province":"東京都","city":"青梅市","address":"東京都青梅市河辺町10丁目18","lat":35.78465,"lon":139.284839},{"name":"長淵３丁目水泳場脇","province":"東京都","city":"青梅市","address":"東京都青梅市長淵3丁目","lat":35.7799,"lon":139.277735},{"name":"青梅市火葬場","province":"東京都","city":"青梅市","address":"東京都青梅市長淵5丁目743","lat":35.772696,"lon":139.262383},{"name":"梅の里駐車場","province":"東京都","city":"青梅市","address":"東京都青梅市柚木町1丁目","lat":35.796215,"lon":139.214148},{"name":"青梅柚木苑地駐車場","province":"東京都","city":"青梅市","address":"東京都青梅市柚木町3丁目","lat":35.802944,"lon":139.207536},{"name":"武尊塾","province":"東京都","city":"青梅市","address":"東京都青梅市東青梅3-22-4","lat":35.789616,"lon":139.278397},{"name":"すぺーすまゆだま","province":"東京都","city":"青梅市","address":"東京都青梅市友田町3-96-1","lat":35.772816,"lon":139.288696},{"name":"か～もくの会","province":"東京都","city":"青梅市","address":"東京都青梅市勝沼3-78","lat":35.789818,"lon":139.266708},{"name":"子どもFREE・CAFE","province":"東京都","city":"青梅市","address":"東京都青梅市勝沼3-78","lat":35.789818,"lon":139.266708},{"name":"なかま亭","province":"東京都","city":"青梅市","address":"東京都青梅市今寺4-6-25","lat":35.79657,"lon":139.299545},{"name":"どんぐりやま","province":"東京都","city":"青梅市","address":"東京都青梅市今寺3-379-8","lat":35.798805,"lon":139.298676},{"name":"ゆうやけ子ども食堂かすみ","province":"東京都","city":"青梅市","address":"東京都青梅市藤橋2-614-18","lat":35.79903,"lon":139.301941},{"name":"Kanpa cafe mio","province":"東京都","city":"青梅市","address":"東京都青梅市勝沼3-78","lat":35.789818,"lon":139.266708},{"name":"和楽倶楽部","province":"東京都","city":"青梅市","address":"東京都青梅市今井2","lat":35.805725,"lon":139.312744},{"name":"CAFE TOIRO","province":"東京都","city":"青梅市","address":"東京都青梅市野上町3-19-4","lat":35.789551,"lon":139.290253},{"name":"西多摩福祉事務所","province":"東京都","city":"青梅市","address":"東京都青梅市河辺町6丁目4-1","lat":35.77999986,"lon":139.28959793},{"name":"立正佼成会青梅練成道場グラウンド","province":"東京都","city":"青梅市","address":"東京都青梅市小曾木2丁目450","lat":35.81221561,"lon":139.29602679},{"name":"明星大学青梅キャンパスグラウンド","province":"東京都","city":"青梅市","address":"東京都青梅市長淵2丁目590","lat":35.77275567,"lon":139.26727244},{"name":"青梅市市民球技場野球場","province":"東京都","city":"青梅市","address":"東京都青梅市河辺町1丁目872-1","lat":35.77784173,"lon":139.28723709},{"name":"青梅市立総合病院ヘリポート","province":"東京都","city":"青梅市","address":"東京都青梅市東青梅4丁目16-5","lat":35.78202441,"lon":139.28118194},{"name":"青梅市立第六小学校校庭","province":"東京都","city":"青梅市","address":"東京都青梅市二俣尾3丁目903-1","lat":35.80159313,"lon":139.2168608},{"name":"＊?青梅市釜の淵市民館","province":"東京都","city":"青梅市","address":"青梅市大柳1392","lat":35.784837,"lon":139.253346},{"name":"＊?青梅市御岳山ふれあいセンター","province":"東京都","city":"青梅市","address":"青梅市御岳山38-2","lat":35.786892,"lon":139.150779},{"name":"＊?青梅市永山ふれあいセンター","province":"東京都","city":"青梅市","address":"青梅市勝沼2-160-2","lat":35.792566,"lon":139.265119},{"name":"青梅市本庁舎","province":"東京都","city":"青梅市","address":"東京都青梅市東青梅1丁目11-1","lat":35.78785689,"lon":139.27583503},{"name":"青梅市民球技場","province":"東京都","city":"青梅市","address":"東京都青梅市河辺町1丁目872-1","lat":35.77784173,"lon":139.28723709},{"name":"青梅市立第六小学校","province":"東京都","city":"青梅市","address":"東京都青梅市二俣尾3丁目903-1","lat":35.80159313,"lon":139.2168608},{"name":"明星大学グラウンド","province":"東京都","city":"青梅市","address":"東京都青梅市長淵2丁目590","lat":35.77275567,"lon":139.26727244},{"name":"西多摩建設事務所","province":"東京都","city":"青梅市","address":"青梅市東青梅3-20-1","lat":35.7909,"lon":139.2776},{"name":"西多摩地区","province":"東京都","city":"青梅市","address":"青梅市東青梅4-17-41","lat":35.78327,"lon":139.2817},{"name":"※青梅市本庁舎","province":"東京都","city":"青梅市","address":"東京都青梅市東青梅1丁目11-1","lat":35.78785689,"lon":139.27583503},{"name":"青梅駅","province":"東京都","city":"青梅市","address":"東京都青梅市本町192","lat":35.79023939,"lon":139.2576703},{"name":"西多摩福祉事務所倉庫","province":"東京都","city":"青梅市","address":"東京都青梅市河辺町6丁目4-1","lat":35.77999986,"lon":139.28959793},{"name":"軍畑園地","province":"東京都","city":"青梅市","address":"東京都青梅市柚木町2丁目","lat":35.804419,"lon":139.211754},{"name":"御岳丸山園地","province":"東京都","city":"青梅市","address":"東京都青梅市御岳山","lat":35.784061,"lon":139.150989},{"name":"御岳渓谷","province":"東京都","city":"青梅市","address":"東京都青梅市沢井3丁目","lat":35.805331,"lon":139.187804},{"name":"御岳渓谷園地","province":"東京都","city":"青梅市","address":"東京都青梅市御岳本町","lat":35.801307,"lon":139.184876},{"name":"御岳射山渓駐車場","province":"東京都","city":"青梅市","address":"東京都青梅市柚木町3丁目","lat":35.802681,"lon":139.195699},{"name":"御岳平園地","province":"東京都","city":"青梅市","address":"東京都青梅市御岳山","lat":35.790007,"lon":139.152976},{"name":"丹縄園地","province":"東京都","city":"青梅市","address":"東京都青梅市御岳2丁目","lat":35.805966,"lon":139.176097},{"name":"御岳ビジターセンター","province":"東京都","city":"青梅市","address":"東京都青梅市御岳山38-5","lat":35.78675,"lon":139.150582},{"name":"東京都西多摩保健所","province":"東京都","city":"青梅市","address":"東京都青梅市東青梅1丁目167-15","lat":35.787716,"lon":139.27145},{"name":"東京都青梅合同庁舎","province":"東京都","city":"青梅市","address":"東京都青梅市河辺町6丁目4-1","lat":35.779982,"lon":139.289651},{"name":"東京都青梅合同庁舎","province":"東京都","city":"青梅市","address":"東京都青梅市河辺町6丁目4-1","lat":35.779972,"lon":139.289675},{"name":"青梅サービスステーション","province":"東京都","city":"青梅市","address":"東京都青梅市師岡町1丁目1301-10","lat":35.792569,"lon":139.277224},{"name":"青梅市健康センター","province":"東京都","city":"青梅市","address":"東京都青梅市東青梅1丁目174-1","lat":35.787704,"lon":139.273322},{"name":"青梅市役所","province":"東京都","city":"青梅市","address":"東京都青梅市東青梅1丁目11-1","lat":35.78774,"lon":139.275435},{"name":"青梅市役所","province":"東京都","city":"青梅市","address":"東京都青梅市東青梅1丁目11-1","lat":35.78805,"lon":139.275487},{"name":"青梅市役所","province":"東京都","city":"青梅市","address":"東京都青梅市東青梅1丁目11-1","lat":35.78769,"lon":139.275769},{"name":"青梅図書館","province":"東京都","city":"青梅市","address":"東京都青梅市仲町268-9","lat":35.791136,"lon":139.256646},{"name":"青梅市長淵市民センター","province":"東京都","city":"青梅市","address":"東京都青梅市長淵6丁目492-1","lat":35.780438,"lon":139.268494},{"name":"青梅市大門市民センター","province":"東京都","city":"青梅市","address":"東京都青梅市大門2丁目288","lat":35.79682,"lon":139.291215},{"name":"青梅市沢井市民センター","province":"東京都","city":"青梅市","address":"東京都青梅市沢井2丁目682","lat":35.804706,"lon":139.196294},{"name":"青梅市成木市民センター","province":"東京都","city":"青梅市","address":"東京都青梅市成木4丁目644","lat":35.824075,"lon":139.248524},{"name":"青梅市東青梅市民センター","province":"東京都","city":"青梅市","address":"東京都青梅市師岡町3丁目9-6","lat":35.790692,"lon":139.282318},{"name":"青梅市新町市民センター","province":"東京都","city":"青梅市","address":"東京都青梅市新町4丁目17-1","lat":35.785987,"lon":139.305157},{"name":"青梅市河辺市民センター","province":"東京都","city":"青梅市","address":"東京都青梅市河辺町6丁目18-1","lat":35.778477,"lon":139.293653},{"name":"青梅市今井市民センター","province":"東京都","city":"青梅市","address":"東京都青梅市今井2丁目908-1","lat":35.806537,"lon":139.310886},{"name":"青梅市吉川英治記念館","province":"東京都","city":"青梅市","address":"東京都青梅市柚木町1丁目101-1","lat":35.79633,"lon":139.212881},{"name":"青梅市健康センター","province":"東京都","city":"青梅市","address":"東京都青梅市東青梅1丁目174-1","lat":35.78768,"lon":139.273271},{"name":"青梅市福祉センター","province":"東京都","city":"青梅市","address":"東京都青梅市東青梅1丁目177-3","lat":35.78741,"lon":139.274074},{"name":"青梅市子育て支援センター","province":"東京都","city":"青梅市","address":"東京都青梅市新町2丁目21-9","lat":35.788284,"lon":139.302211},{"name":"S＆Dたまぐーセンター（青梅市文化交流センター）","province":"東京都","city":"青梅市","address":"東京都青梅市上町374","lat":35.790212,"lon":139.254873},{"name":"青梅市御岳交流センター","province":"東京都","city":"青梅市","address":"東京都青梅市御岳本町362-8","lat":35.801451,"lon":139.184586},{"name":"青梅市中央図書館","province":"東京都","city":"青梅市","address":"東京都青梅市河辺町10丁目8-1","lat":35.785465,"lon":139.284962},{"name":"青梅市中央図書館","province":"東京都","city":"青梅市","address":"東京都青梅市河辺町10丁目8-1","lat":35.785489,"lon":139.284943},{"name":"青梅市立美術館","province":"東京都","city":"青梅市","address":"東京都青梅市滝ノ上町1346-1","lat":35.787614,"lon":139.255873},{"name":"住友金属鉱山アリーナ青梅（青梅市総合体育館）","province":"東京都","city":"青梅市","address":"東京都青梅市河辺町4丁目16-1","lat":35.780782,"lon":139.284745},{"name":"青梅市民斎場","province":"東京都","city":"青梅市","address":"東京都青梅市長淵5丁目698-2","lat":35.772368,"lon":139.262981},{"name":"青梅市青梅市民センター天ケ瀬体育館","province":"東京都","city":"青梅市","address":"東京都青梅市天ヶ瀬町1111-1","lat":35.789187,"lon":139.250654},{"name":"永山公園","province":"東京都","city":"青梅市","address":"東京都青梅市本町","lat":35.791453,"lon":139.260213},{"name":"釜の淵公園大柳駐車場","province":"東京都","city":"青梅市","address":"東京都青梅市大柳町","lat":35.785637,"lon":139.253232},{"name":"早道公園","province":"東京都","city":"青梅市","address":"東京都青梅市東青梅5丁目17","lat":35.789971,"lon":139.280184},{"name":"わかぐさ公園","province":"東京都","city":"青梅市","address":"東京都青梅市河辺町8丁目14","lat":35.783264,"lon":139.295897},{"name":"吹上しょうぶ公園","province":"東京都","city":"青梅市","address":"東京都青梅市吹上","lat":35.797394,"lon":139.276045},{"name":"富士塚公園","province":"東京都","city":"青梅市","address":"東京都青梅市新町5丁目22","lat":35.789516,"lon":139.307604},{"name":"新田山公園","province":"東京都","city":"青梅市","address":"東京都青梅市新町7丁目33","lat":35.786312,"lon":139.314355},{"name":"新田山公園","province":"東京都","city":"青梅市","address":"東京都青梅市新町7丁目33","lat":35.786935,"lon":139.31267},{"name":"沢井駅前広場","province":"東京都","city":"青梅市","address":"東京都青梅市沢井2丁目","lat":35.805641,"lon":139.194182},{"name":"御岳苑地駐車場","province":"東京都","city":"青梅市","address":"東京都青梅市御岳1丁目","lat":35.798964,"lon":139.177744},{"name":"寺改戸公園","province":"東京都","city":"青梅市","address":"東京都青梅市長淵3丁目","lat":35.780987,"lon":139.275158},{"name":"畑中戸田山公園","province":"東京都","city":"青梅市","address":"東京都青梅市畑中3丁目","lat":35.779212,"lon":139.237305},{"name":"上開戸公園","province":"東京都","city":"青梅市","address":"東京都青梅市大門1丁目","lat":35.800961,"lon":139.286326},{"name":"梅の公園","province":"東京都","city":"青梅市","address":"東京都青梅市梅郷4丁目","lat":35.786315,"lon":139.218732},{"name":"梅の公園","province":"東京都","city":"青梅市","address":"東京都青梅市梅郷2丁目","lat":35.7849,"lon":139.221137},{"name":"今井ふれあい公園","province":"東京都","city":"青梅市","address":"東京都青梅市今井2丁目","lat":35.806944,"lon":139.308784},{"name":"花木園","province":"東京都","city":"青梅市","address":"東京都青梅市小曾木4丁目","lat":35.818034,"lon":139.284252},{"name":"梅郷１・２丁目運動広場","province":"東京都","city":"青梅市","address":"東京都青梅市梅郷1丁目","lat":35.783223,"lon":139.223786},{"name":"青梅駅前公衆便所","province":"東京都","city":"青梅市","address":"東京都青梅市本町","lat":35.790268,"lon":139.258815},{"name":"東青梅駅南口公衆便所","province":"東京都","city":"青梅市","address":"東京都青梅市東青梅1丁目9","lat":35.790096,"lon":139.271865},{"name":"東青梅駅北口公衆便所","province":"東京都","city":"青梅市","address":"東京都青梅市東青梅2丁目14-9","lat":35.789972,"lon":139.272971},{"name":"河辺駅南口公衆便所","province":"東京都","city":"青梅市","address":"東京都青梅市河辺町5丁目29","lat":35.784241,"lon":139.28478},{"name":"河辺駅北口公衆便所","province":"東京都","city":"青梅市","address":"東京都青梅市河辺町10丁目18","lat":35.78465,"lon":139.284839},{"name":"長淵３丁目水泳場脇","province":"東京都","city":"青梅市","address":"東京都青梅市長淵3丁目","lat":35.7799,"lon":139.277735},{"name":"青梅市火葬場","province":"東京都","city":"青梅市","address":"東京都青梅市長淵5丁目743","lat":35.772696,"lon":139.262383},{"name":"梅の里駐車場","province":"東京都","city":"青梅市","address":"東京都青梅市柚木町1丁目","lat":35.796215,"lon":139.214148},{"name":"青梅柚木苑地駐車場","province":"東京都","city":"青梅市","address":"東京都青梅市柚木町3丁目","lat":35.802944,"lon":139.207536},{"name":"武尊塾","province":"東京都","city":"青梅市","address":"東京都青梅市東青梅3-22-4","lat":35.789616,"lon":139.278397},{"name":"すぺーすまゆだま","province":"東京都","city":"青梅市","address":"東京都青梅市友田町3-96-1","lat":35.772816,"lon":139.288696},{"name":"か～もくの会","province":"東京都","city":"青梅市","address":"東京都青梅市勝沼3-78","lat":35.789818,"lon":139.266708},{"name":"子どもFREE・CAFE","province":"東京都","city":"青梅市","address":"東京都青梅市勝沼3-78","lat":35.789818,"lon":139.266708},{"name":"なかま亭","province":"東京都","city":"青梅市","address":"東京都青梅市今寺4-6-25","lat":35.79657,"lon":139.299545},{"name":"どんぐりやま","province":"東京都","city":"青梅市","address":"東京都青梅市今寺3-379-8","lat":35.798805,"lon":139.298676},{"name":"ゆうやけ子ども食堂かすみ","province":"東京都","city":"青梅市","address":"東京都青梅市藤橋2-614-18","lat":35.79903,"lon":139.301941},{"name":"Kanpa cafe mio","province":"東京都","city":"青梅市","address":"東京都青梅市勝沼3-78","lat":35.789818,"lon":139.266708},{"name":"和楽倶楽部","province":"東京都","city":"青梅市","address":"東京都青梅市今井2","lat":35.805725,"lon":139.312744},{"name":"CAFE TOIRO","province":"東京都","city":"青梅市","address":"東京都青梅市野上町3-19-4","lat":35.789551,"lon":139.290253},{"name":"西多摩福祉事務所","province":"東京都","city":"青梅市","address":"東京都青梅市河辺町6丁目4-1","lat":35.77999986,"lon":139.28959793},{"name":"＊?青梅市釜の淵市民館","province":"東京都","city":"青梅市","address":"青梅市大柳1392","lat":35.784837,"lon":139.253346},{"name":"＊?青梅市御岳山ふれあいセンター","province":"東京都","city":"青梅市","address":"青梅市御岳山38-2","lat":35.786892,"lon":139.150779},{"name":"＊?青梅市永山ふれあいセンター","province":"東京都","city":"青梅市","address":"青梅市勝沼2-160-2","lat":35.792566,"lon":139.265119},{"name":"軍畑園地","province":"東京都","city":"青梅市","address":"東京都青梅市柚木町2丁目","lat":35.804419,"lon":139.211754},{"name":"御岳丸山園地","province":"東京都","city":"青梅市","address":"東京都青梅市御岳山","lat":35.784061,"lon":139.150989},{"name":"御岳渓谷","province":"東京都","city":"青梅市","address":"東京都青梅市沢井3丁目","lat":35.805331,"lon":139.187804},{"name":"御岳渓谷園地","province":"東京都","city":"青梅市","address":"東京都青梅市御岳本町","lat":35.801307,"lon":139.184876},{"name":"御岳射山渓駐車場","province":"東京都","city":"青梅市","address":"東京都青梅市柚木町3丁目","lat":35.802681,"lon":139.195699},{"name":"御岳平園地","province":"東京都","city":"青梅市","address":"東京都青梅市御岳山","lat":35.790007,"lon":139.152976},{"name":"丹縄園地","province":"東京都","city":"青梅市","address":"東京都青梅市御岳2丁目","lat":35.805966,"lon":139.176097},{"name":"御岳ビジターセンター","province":"東京都","city":"青梅市","address":"東京都青梅市御岳山38-5","lat":35.78675,"lon":139.150582},{"name":"東京都西多摩保健所","province":"東京都","city":"青梅市","address":"東京都青梅市東青梅1丁目167-15","lat":35.787716,"lon":139.27145},{"name":"東京都青梅合同庁舎","province":"東京都","city":"青梅市","address":"東京都青梅市河辺町6丁目4-1","lat":35.779982,"lon":139.289651},{"name":"東京都青梅合同庁舎","province":"東京都","city":"青梅市","address":"東京都青梅市河辺町6丁目4-1","lat":35.779972,"lon":139.289675},{"name":"青梅サービスステーション","province":"東京都","city":"青梅市","address":"東京都青梅市師岡町1丁目1301-10","lat":35.792569,"lon":139.277224},{"name":"青梅市健康センター","province":"東京都","city":"青梅市","address":"東京都青梅市東青梅1丁目174-1","lat":35.787704,"lon":139.273322},{"name":"青梅市役所","province":"東京都","city":"青梅市","address":"東京都青梅市東青梅1丁目11-1","lat":35.78774,"lon":139.275435},{"name":"青梅市役所","province":"東京都","city":"青梅市","address":"東京都青梅市東青梅1丁目11-1","lat":35.78805,"lon":139.275487},{"name":"青梅市役所","province":"東京都","city":"青梅市","address":"東京都青梅市東青梅1丁目11-1","lat":35.78769,"lon":139.275769},{"name":"青梅図書館","province":"東京都","city":"青梅市","address":"東京都青梅市仲町268-9","lat":35.791136,"lon":139.256646},{"name":"青梅市長淵市民センター","province":"東京都","city":"青梅市","address":"東京都青梅市長淵6丁目492-1","lat":35.780438,"lon":139.268494},{"name":"青梅市大門市民センター","province":"東京都","city":"青梅市","address":"東京都青梅市大門2丁目288","lat":35.79682,"lon":139.291215},{"name":"青梅市沢井市民センター","province":"東京都","city":"青梅市","address":"東京都青梅市沢井2丁目682","lat":35.804706,"lon":139.196294},{"name":"青梅市成木市民センター","province":"東京都","city":"青梅市","address":"東京都青梅市成木4丁目644","lat":35.824075,"lon":139.248524},{"name":"青梅市東青梅市民センター","province":"東京都","city":"青梅市","address":"東京都青梅市師岡町3丁目9-6","lat":35.790692,"lon":139.282318},{"name":"青梅市新町市民センター","province":"東京都","city":"青梅市","address":"東京都青梅市新町4丁目17-1","lat":35.785987,"lon":139.305157},{"name":"青梅市河辺市民センター","province":"東京都","city":"青梅市","address":"東京都青梅市河辺町6丁目18-1","lat":35.778477,"lon":139.293653},{"name":"青梅市今井市民センター","province":"東京都","city":"青梅市","address":"東京都青梅市今井2丁目908-1","lat":35.806537,"lon":139.310886},{"name":"青梅市吉川英治記念館","province":"東京都","city":"青梅市","address":"東京都青梅市柚木町1丁目101-1","lat":35.79633,"lon":139.212881},{"name":"青梅市健康センター","province":"東京都","city":"青梅市","address":"東京都青梅市東青梅1丁目174-1","lat":35.78768,"lon":139.273271},{"name":"青梅市福祉センター","province":"東京都","city":"青梅市","address":"東京都青梅市東青梅1丁目177-3","lat":35.78741,"lon":139.274074},{"name":"青梅市子育て支援センター","province":"東京都","city":"青梅市","address":"東京都青梅市新町2丁目21-9","lat":35.788284,"lon":139.302211},{"name":"S＆Dたまぐーセンター（青梅市文化交流センター）","province":"東京都","city":"青梅市","address":"東京都青梅市上町374","lat":35.790212,"lon":139.254873},{"name":"青梅市御岳交流センター","province":"東京都","city":"青梅市","address":"東京都青梅市御岳本町362-8","lat":35.801451,"lon":139.184586},{"name":"青梅市中央図書館","province":"東京都","city":"青梅市","address":"東京都青梅市河辺町10丁目8-1","lat":35.785465,"lon":139.284962},{"name":"青梅市中央図書館","province":"東京都","city":"青梅市","address":"東京都青梅市河辺町10丁目8-1","lat":35.785489,"lon":139.284943},{"name":"青梅市立美術館","province":"東京都","city":"青梅市","address":"東京都青梅市滝ノ上町1346-1","lat":35.787614,"lon":139.255873},{"name":"住友金属鉱山アリーナ青梅（青梅市総合体育館）","province":"東京都","city":"青梅市","address":"東京都青梅市河辺町4丁目16-1","lat":35.780782,"lon":139.284745},{"name":"青梅市民斎場","province":"東京都","city":"青梅市","address":"東京都青梅市長淵5丁目698-2","lat":35.772368,"lon":139.262981},{"name":"青梅市青梅市民センター天ケ瀬体育館","province":"東京都","city":"青梅市","address":"東京都青梅市天ヶ瀬町1111-1","lat":35.789187,"lon":139.250654},{"name":"永山公園","province":"東京都","city":"青梅市","address":"東京都青梅市本町","lat":35.791453,"lon":139.260213},{"name":"釜の淵公園大柳駐車場","province":"東京都","city":"青梅市","address":"東京都青梅市大柳町","lat":35.785637,"lon":139.253232},{"name":"早道公園","province":"東京都","city":"青梅市","address":"東京都青梅市東青梅5丁目17","lat":35.789971,"lon":139.280184},{"name":"わかぐさ公園","province":"東京都","city":"青梅市","address":"東京都青梅市河辺町8丁目14","lat":35.783264,"lon":139.295897},{"name":"吹上しょうぶ公園","province":"東京都","city":"青梅市","address":"東京都青梅市吹上","lat":35.797394,"lon":139.276045},{"name":"富士塚公園","province":"東京都","city":"青梅市","address":"東京都青梅市新町5丁目22","lat":35.789516,"lon":139.307604},{"name":"新田山公園","province":"東京都","city":"青梅市","address":"東京都青梅市新町7丁目33","lat":35.786312,"lon":139.314355},{"name":"新田山公園","province":"東京都","city":"青梅市","address":"東京都青梅市新町7丁目33","lat":35.786935,"lon":139.31267},{"name":"沢井駅前広場","province":"東京都","city":"青梅市","address":"東京都青梅市沢井2丁目","lat":35.805641,"lon":139.194182},{"name":"御岳苑地駐車場","province":"東京都","city":"青梅市","address":"東京都青梅市御岳1丁目","lat":35.798964,"lon":139.177744},{"name":"寺改戸公園","province":"東京都","city":"青梅市","address":"東京都青梅市長淵3丁目","lat":35.780987,"lon":139.275158},{"name":"畑中戸田山公園","province":"東京都","city":"青梅市","address":"東京都青梅市畑中3丁目","lat":35.779212,"lon":139.237305},{"name":"上開戸公園","province":"東京都","city":"青梅市","address":"東京都青梅市大門1丁目","lat":35.800961,"lon":139.286326},{"name":"梅の公園","province":"東京都","city":"青梅市","address":"東京都青梅市梅郷4丁目","lat":35.786315,"lon":139.218732},{"name":"梅の公園","province":"東京都","city":"青梅市","address":"東京都青梅市梅郷2丁目","lat":35.7849,"lon":139.221137},{"name":"今井ふれあい公園","province":"東京都","city":"青梅市","address":"東京都青梅市今井2丁目","lat":35.806944,"lon":139.308784},{"name":"花木園","province":"東京都","city":"青梅市","address":"東京都青梅市小曾木4丁目","lat":35.818034,"lon":139.284252},{"name":"梅郷１・２丁目運動広場","province":"東京都","city":"青梅市","address":"東京都青梅市梅郷1丁目","lat":35.783223,"lon":139.223786},{"name":"青梅駅前公衆便所","province":"東京都","city":"青梅市","address":"東京都青梅市本町","lat":35.790268,"lon":139.258815},{"name":"東青梅駅南口公衆便所","province":"東京都","city":"青梅市","address":"東京都青梅市東青梅1丁目9","lat":35.790096,"lon":139.271865},{"name":"東青梅駅北口公衆便所","province":"東京都","city":"青梅市","address":"東京都青梅市東青梅2丁目14-9","lat":35.789972,"lon":139.272971},{"name":"河辺駅南口公衆便所","province":"東京都","city":"青梅市","address":"東京都青梅市河辺町5丁目29","lat":35.784241,"lon":139.28478},{"name":"河辺駅北口公衆便所","province":"東京都","city":"青梅市","address":"東京都青梅市河辺町10丁目18","lat":35.78465,"lon":139.284839},{"name":"長淵３丁目水泳場脇","province":"東京都","city":"青梅市","address":"東京都青梅市長淵3丁目","lat":35.7799,"lon":139.277735},{"name":"青梅市火葬場","province":"東京都","city":"青梅市","address":"東京都青梅市長淵5丁目743","lat":35.772696,"lon":139.262383},{"name":"梅の里駐車場","province":"東京都","city":"青梅市","address":"東京都青梅市柚木町1丁目","lat":35.796215,"lon":139.214148},{"name":"青梅柚木苑地駐車場","province":"東京都","city":"青梅市","address":"東京都青梅市柚木町3丁目","lat":35.802944,"lon":139.207536},{"name":"武尊塾","province":"東京都","city":"青梅市","address":"東京都青梅市東青梅3-22-4","lat":35.789616,"lon":139.278397},{"name":"すぺーすまゆだま","province":"東京都","city":"青梅市","address":"東京都青梅市友田町3-96-1","lat":35.772816,"lon":139.288696},{"name":"か～もくの会","province":"東京都","city":"青梅市","address":"東京都青梅市勝沼3-78","lat":35.789818,"lon":139.266708},{"name":"子どもFREE・CAFE","province":"東京都","city":"青梅市","address":"東京都青梅市勝沼3-78","lat":35.789818,"lon":139.266708},{"name":"なかま亭","province":"東京都","city":"青梅市","address":"東京都青梅市今寺4-6-25","lat":35.79657,"lon":139.299545},{"name":"どんぐりやま","province":"東京都","city":"青梅市","address":"東京都青梅市今寺3-379-8","lat":35.798805,"lon":139.298676},{"name":"ゆうやけ子ども食堂かすみ","province":"東京都","city":"青梅市","address":"東京都青梅市藤橋2-614-18","lat":35.79903,"lon":139.301941},{"name":"Kanpa cafe mio","province":"東京都","city":"青梅市","address":"東京都青梅市勝沼3-78","lat":35.789818,"lon":139.266708},{"name":"和楽倶楽部","province":"東京都","city":"青梅市","address":"東京都青梅市今井2","lat":35.805725,"lon":139.312744},{"name":"CAFE TOIRO","province":"東京都","city":"青梅市","address":"東京都青梅市野上町3-19-4","lat":35.789551,"lon":139.290253},{"name":"西多摩福祉事務所","province":"東京都","city":"青梅市","address":"東京都青梅市河辺町6丁目4-1","lat":35.77999986,"lon":139.28959793},{"name":"＊?青梅市釜の淵市民館","province":"東京都","city":"青梅市","address":"青梅市大柳1392","lat":35.784837,"lon":139.253346},{"name":"＊?青梅市御岳山ふれあいセンター","province":"東京都","city":"青梅市","address":"青梅市御岳山38-2","lat":35.786892,"lon":139.150779},{"name":"＊?青梅市永山ふれあいセンター","province":"東京都","city":"青梅市","address":"青梅市勝沼2-160-2","lat":35.792566,"lon":139.265119},{"name":"軍畑園地","province":"東京都","city":"青梅市","address":"東京都青梅市柚木町2丁目","lat":35.804419,"lon":139.211754},{"name":"御岳丸山園地","province":"東京都","city":"青梅市","address":"東京都青梅市御岳山","lat":35.784061,"lon":139.150989},{"name":"御岳渓谷","province":"東京都","city":"青梅市","address":"東京都青梅市沢井3丁目","lat":35.805331,"lon":139.187804},{"name":"御岳渓谷園地","province":"東京都","city":"青梅市","address":"東京都青梅市御岳本町","lat":35.801307,"lon":139.184876},{"name":"御岳射山渓駐車場","province":"東京都","city":"青梅市","address":"東京都青梅市柚木町3丁目","lat":35.802681,"lon":139.195699},{"name":"御岳平園地","province":"東京都","city":"青梅市","address":"東京都青梅市御岳山","lat":35.790007,"lon":139.152976},{"name":"丹縄園地","province":"東京都","city":"青梅市","address":"東京都青梅市御岳2丁目","lat":35.805966,"lon":139.176097},{"name":"御岳ビジターセンター","province":"東京都","city":"青梅市","address":"東京都青梅市御岳山38-5","lat":35.78675,"lon":139.150582},{"name":"東京都西多摩保健所","province":"東京都","city":"青梅市","address":"東京都青梅市東青梅1丁目167-15","lat":35.787716,"lon":139.27145},{"name":"東京都青梅合同庁舎","province":"東京都","city":"青梅市","address":"東京都青梅市河辺町6丁目4-1","lat":35.779982,"lon":139.289651},{"name":"東京都青梅合同庁舎","province":"東京都","city":"青梅市","address":"東京都青梅市河辺町6丁目4-1","lat":35.779972,"lon":139.289675},{"name":"青梅サービスステーション","province":"東京都","city":"青梅市","address":"東京都青梅市師岡町1丁目1301-10","lat":35.792569,"lon":139.277224},{"name":"青梅市健康センター","province":"東京都","city":"青梅市","address":"東京都青梅市東青梅1丁目174-1","lat":35.787704,"lon":139.273322},{"name":"青梅市役所","province":"東京都","city":"青梅市","address":"東京都青梅市東青梅1丁目11-1","lat":35.78774,"lon":139.275435},{"name":"青梅市役所","province":"東京都","city":"青梅市","address":"東京都青梅市東青梅1丁目11-1","lat":35.78805,"lon":139.275487},{"name":"青梅市役所","province":"東京都","city":"青梅市","address":"東京都青梅市東青梅1丁目11-1","lat":35.78769,"lon":139.275769},{"name":"青梅図書館","province":"東京都","city":"青梅市","address":"東京都青梅市仲町268-9","lat":35.791136,"lon":139.256646},{"name":"青梅市長淵市民センター","province":"東京都","city":"青梅市","address":"東京都青梅市長淵6丁目492-1","lat":35.780438,"lon":139.268494},{"name":"青梅市大門市民センター","province":"東京都","city":"青梅市","address":"東京都青梅市大門2丁目288","lat":35.79682,"lon":139.291215},{"name":"青梅市沢井市民センター","province":"東京都","city":"青梅市","address":"東京都青梅市沢井2丁目682","lat":35.804706,"lon":139.196294},{"name":"青梅市成木市民センター","province":"東京都","city":"青梅市","address":"東京都青梅市成木4丁目644","lat":35.824075,"lon":139.248524},{"name":"青梅市東青梅市民センター","province":"東京都","city":"青梅市","address":"東京都青梅市師岡町3丁目9-6","lat":35.790692,"lon":139.282318},{"name":"青梅市新町市民センター","province":"東京都","city":"青梅市","address":"東京都青梅市新町4丁目17-1","lat":35.785987,"lon":139.305157},{"name":"青梅市河辺市民センター","province":"東京都","city":"青梅市","address":"東京都青梅市河辺町6丁目18-1","lat":35.778477,"lon":139.293653},{"name":"青梅市今井市民センター","province":"東京都","city":"青梅市","address":"東京都青梅市今井2丁目908-1","lat":35.806537,"lon":139.310886},{"name":"青梅市吉川英治記念館","province":"東京都","city":"青梅市","address":"東京都青梅市柚木町1丁目101-1","lat":35.79633,"lon":139.212881},{"name":"青梅市健康センター","province":"東京都","city":"青梅市","address":"東京都青梅市東青梅1丁目174-1","lat":35.78768,"lon":139.273271},{"name":"青梅市福祉センター","province":"東京都","city":"青梅市","address":"東京都青梅市東青梅1丁目177-3","lat":35.78741,"lon":139.274074},{"name":"青梅市子育て支援センター","province":"東京都","city":"青梅市","address":"東京都青梅市新町2丁目21-9","lat":35.788284,"lon":139.302211},{"name":"S＆Dたまぐーセンター（青梅市文化交流センター）","province":"東京都","city":"青梅市","address":"東京都青梅市上町374","lat":35.790212,"lon":139.254873},{"name":"青梅市御岳交流センター","province":"東京都","city":"青梅市","address":"東京都青梅市御岳本町362-8","lat":35.801451,"lon":139.184586},{"name":"青梅市中央図書館","province":"東京都","city":"青梅市","address":"東京都青梅市河辺町10丁目8-1","lat":35.785465,"lon":139.284962},{"name":"青梅市中央図書館","province":"東京都","city":"青梅市","address":"東京都青梅市河辺町10丁目8-1","lat":35.785489,"lon":139.284943},{"name":"青梅市立美術館","province":"東京都","city":"青梅市","address":"東京都青梅市滝ノ上町1346-1","lat":35.787614,"lon":139.255873},{"name":"住友金属鉱山アリーナ青梅（青梅市総合体育館）","province":"東京都","city":"青梅市","address":"東京都青梅市河辺町4丁目16-1","lat":35.780782,"lon":139.284745},{"name":"青梅市民斎場","province":"東京都","city":"青梅市","address":"東京都青梅市長淵5丁目698-2","lat":35.772368,"lon":139.262981},{"name":"青梅市青梅市民センター天ケ瀬体育館","province":"東京都","city":"青梅市","address":"東京都青梅市天ヶ瀬町1111-1","lat":35.789187,"lon":139.250654},{"name":"永山公園","province":"東京都","city":"青梅市","address":"東京都青梅市本町","lat":35.791453,"lon":139.260213},{"name":"釜の淵公園大柳駐車場","province":"東京都","city":"青梅市","address":"東京都青梅市大柳町","lat":35.785637,"lon":139.253232},{"name":"早道公園","province":"東京都","city":"青梅市","address":"東京都青梅市東青梅5丁目17","lat":35.789971,"lon":139.280184},{"name":"わかぐさ公園","province":"東京都","city":"青梅市","address":"東京都青梅市河辺町8丁目14","lat":35.783264,"lon":139.295897},{"name":"吹上しょうぶ公園","province":"東京都","city":"青梅市","address":"東京都青梅市吹上","lat":35.797394,"lon":139.276045},{"name":"富士塚公園","province":"東京都","city":"青梅市","address":"東京都青梅市新町5丁目22","lat":35.789516,"lon":139.307604},{"name":"新田山公園","province":"東京都","city":"青梅市","address":"東京都青梅市新町7丁目33","lat":35.786312,"lon":139.314355},{"name":"新田山公園","province":"東京都","city":"青梅市","address":"東京都青梅市新町7丁目33","lat":35.786935,"lon":139.31267},{"name":"沢井駅前広場","province":"東京都","city":"青梅市","address":"東京都青梅市沢井2丁目","lat":35.805641,"lon":139.194182},{"name":"御岳苑地駐車場","province":"東京都","city":"青梅市","address":"東京都青梅市御岳1丁目","lat":35.798964,"lon":139.177744},{"name":"寺改戸公園","province":"東京都","city":"青梅市","address":"東京都青梅市長淵3丁目","lat":35.780987,"lon":139.275158},{"name":"畑中戸田山公園","province":"東京都","city":"青梅市","address":"東京都青梅市畑中3丁目","lat":35.779212,"lon":139.237305},{"name":"上開戸公園","province":"東京都","city":"青梅市","address":"東京都青梅市大門1丁目","lat":35.800961,"lon":139.286326},{"name":"梅の公園","province":"東京都","city":"青梅市","address":"東京都青梅市梅郷4丁目","lat":35.786315,"lon":139.218732},{"name":"梅の公園","province":"東京都","city":"青梅市","address":"東京都青梅市梅郷2丁目","lat":35.7849,"lon":139.221137},{"name":"今井ふれあい公園","province":"東京都","city":"青梅市","address":"東京都青梅市今井2丁目","lat":35.806944,"lon":139.308784},{"name":"花木園","province":"東京都","city":"青梅市","address":"東京都青梅市小曾木4丁目","lat":35.818034,"lon":139.284252},{"name":"梅郷１・２丁目運動広場","province":"東京都","city":"青梅市","address":"東京都青梅市梅郷1丁目","lat":35.783223,"lon":139.223786},{"name":"青梅駅前公衆便所","province":"東京都","city":"青梅市","address":"東京都青梅市本町","lat":35.790268,"lon":139.258815},{"name":"東青梅駅南口公衆便所","province":"東京都","city":"青梅市","address":"東京都青梅市東青梅1丁目9","lat":35.790096,"lon":139.271865},{"name":"東青梅駅北口公衆便所","province":"東京都","city":"青梅市","address":"東京都青梅市東青梅2丁目14-9","lat":35.789972,"lon":139.272971},{"name":"河辺駅南口公衆便所","province":"東京都","city":"青梅市","address":"東京都青梅市河辺町5丁目29","lat":35.784241,"lon":139.28478},{"name":"河辺駅北口公衆便所","province":"東京都","city":"青梅市","address":"東京都青梅市河辺町10丁目18","lat":35.78465,"lon":139.284839},{"name":"長淵３丁目水泳場脇","province":"東京都","city":"青梅市","address":"東京都青梅市長淵3丁目","lat":35.7799,"lon":139.277735},{"name":"青梅市火葬場","province":"東京都","city":"青梅市","address":"東京都青梅市長淵5丁目743","lat":35.772696,"lon":139.262383},{"name":"梅の里駐車場","province":"東京都","city":"青梅市","address":"東京都青梅市柚木町1丁目","lat":35.796215,"lon":139.214148},{"name":"青梅柚木苑地駐車場","province":"東京都","city":"青梅市","address":"東京都青梅市柚木町3丁目","lat":35.802944,"lon":139.207536},{"name":"武尊塾","province":"東京都","city":"青梅市","address":"東京都青梅市東青梅3-22-4","lat":35.789616,"lon":139.278397},{"name":"すぺーすまゆだま","province":"東京都","city":"青梅市","address":"東京都青梅市友田町3-96-1","lat":35.772816,"lon":139.288696},{"name":"か～もくの会","province":"東京都","city":"青梅市","address":"東京都青梅市勝沼3-78","lat":35.789818,"lon":139.266708},{"name":"子どもFREE・CAFE","province":"東京都","city":"青梅市","address":"東京都青梅市勝沼3-78","lat":35.789818,"lon":139.266708},{"name":"なかま亭","province":"東京都","city":"青梅市","address":"東京都青梅市今寺4-6-25","lat":35.79657,"lon":139.299545},{"name":"どんぐりやま","province":"東京都","city":"青梅市","address":"東京都青梅市今寺3-379-8","lat":35.798805,"lon":139.298676},{"name":"ゆうやけ子ども食堂かすみ","province":"東京都","city":"青梅市","address":"東京都青梅市藤橋2-614-18","lat":35.79903,"lon":139.301941},{"name":"Kanpa cafe mio","province":"東京都","city":"青梅市","address":"東京都青梅市勝沼3-78","lat":35.789818,"lon":139.266708},{"name":"和楽倶楽部","province":"東京都","city":"青梅市","address":"東京都青梅市今井2","lat":35.805725,"lon":139.312744},{"name":"CAFE TOIRO","province":"東京都","city":"青梅市","address":"東京都青梅市野上町3-19-4","lat":35.789551,"lon":139.290253},{"name":"西多摩福祉事務所","province":"東京都","city":"青梅市","address":"東京都青梅市河辺町6丁目4-1","lat":35.77999986,"lon":139.28959793},{"name":"＊?青梅市釜の淵市民館","province":"東京都","city":"青梅市","address":"青梅市大柳1392","lat":35.784837,"lon":139.253346},{"name":"＊?青梅市御岳山ふれあいセンター","province":"東京都","city":"青梅市","address":"青梅市御岳山38-2","lat":35.786892,"lon":139.150779},{"name":"＊?青梅市永山ふれあいセンター","province":"東京都","city":"青梅市","address":"青梅市勝沼2-160-2","lat":35.792566,"lon":139.265119},{"name":"武尊塾","province":"東京都","city":"青梅市","address":"東京都青梅市東青梅3-22-4","lat":35.789616,"lon":139.278397},{"name":"すぺーすまゆだま","province":"東京都","city":"青梅市","address":"東京都青梅市友田町3-96-1","lat":35.772816,"lon":139.288696},{"name":"か～もくの会","province":"東京都","city":"青梅市","address":"東京都青梅市勝沼3-78","lat":35.789818,"lon":139.266708},{"name":"子どもFREE・CAFE","province":"東京都","city":"青梅市","address":"東京都青梅市勝沼3-78","lat":35.789818,"lon":139.266708},{"name":"なかま亭","province":"東京都","city":"青梅市","address":"東京都青梅市今寺4-6-25","lat":35.79657,"lon":139.299545},{"name":"どんぐりやま","province":"東京都","city":"青梅市","address":"東京都青梅市今寺3-379-8","lat":35.798805,"lon":139.298676},{"name":"ゆうやけ子ども食堂かすみ","province":"東京都","city":"青梅市","address":"東京都青梅市藤橋2-614-18","lat":35.79903,"lon":139.301941},{"name":"Kanpa cafe mio","province":"東京都","city":"青梅市","address":"東京都青梅市勝沼3-78","lat":35.789818,"lon":139.266708},{"name":"和楽倶楽部","province":"東京都","city":"青梅市","address":"東京都青梅市今井2","lat":35.805725,"lon":139.312744},{"name":"CAFE TOIRO","province":"東京都","city":"青梅市","address":"東京都青梅市野上町3-19-4","lat":35.789551,"lon":139.290253},{"name":"西多摩福祉事務所","province":"東京都","city":"青梅市","address":"東京都青梅市河辺町6丁目4-1","lat":35.77999986,"lon":139.28959793},{"name":"＊?青梅市釜の淵市民館","province":"東京都","city":"青梅市","address":"青梅市大柳1392","lat":35.784837,"lon":139.253346},{"name":"＊?青梅市御岳山ふれあいセンター","province":"東京都","city":"青梅市","address":"青梅市御岳山38-2","lat":35.786892,"lon":139.150779},{"name":"＊?青梅市永山ふれあいセンター","province":"東京都","city":"青梅市","address":"青梅市勝沼2-160-2","lat":35.792566,"lon":139.265119},{"name":"武尊塾","province":"東京都","city":"青梅市","address":"東京都青梅市東青梅3-22-4","lat":35.789616,"lon":139.278397},{"name":"すぺーすまゆだま","province":"東京都","city":"青梅市","address":"東京都青梅市友田町3-96-1","lat":35.772816,"lon":139.288696},{"name":"か～もくの会","province":"東京都","city":"青梅市","address":"東京都青梅市勝沼3-78","lat":35.789818,"lon":139.266708},{"name":"子どもFREE・CAFE","province":"東京都","city":"青梅市","address":"東京都青梅市勝沼3-78","lat":35.789818,"lon":139.266708},{"name":"なかま亭","province":"東京都","city":"青梅市","address":"東京都青梅市今寺4-6-25","lat":35.79657,"lon":139.299545},{"name":"どんぐりやま","province":"東京都","city":"青梅市","address":"東京都青梅市今寺3-379-8","lat":35.798805,"lon":139.298676},{"name":"ゆうやけ子ども食堂かすみ","province":"東京都","city":"青梅市","address":"東京都青梅市藤橋2-614-18","lat":35.79903,"lon":139.301941},{"name":"Kanpa cafe mio","province":"東京都","city":"青梅市","address":"東京都青梅市勝沼3-78","lat":35.789818,"lon":139.266708},{"name":"和楽倶楽部","province":"東京都","city":"青梅市","address":"東京都青梅市今井2","lat":35.805725,"lon":139.312744},{"name":"CAFE TOIRO","province":"東京都","city":"青梅市","address":"東京都青梅市野上町3-19-4","lat":35.789551,"lon":139.290253},{"name":"西多摩福祉事務所","province":"東京都","city":"青梅市","address":"東京都青梅市河辺町6丁目4-1","lat":35.77999986,"lon":139.28959793},{"name":"＊?青梅市釜の淵市民館","province":"東京都","city":"青梅市","address":"青梅市大柳1392","lat":35.784837,"lon":139.253346},{"name":"＊?青梅市御岳山ふれあいセンター","province":"東京都","city":"青梅市","address":"青梅市御岳山38-2","lat":35.786892,"lon":139.150779},{"name":"＊?青梅市永山ふれあいセンター","province":"東京都","city":"青梅市","address":"青梅市勝沼2-160-2","lat":35.792566,"lon":139.265119},{"name":"武尊塾","province":"東京都","city":"青梅市","address":"東京都青梅市東青梅3-22-4","lat":35.789616,"lon":139.278397},{"name":"すぺーすまゆだま","province":"東京都","city":"青梅市","address":"東京都青梅市友田町3-96-1","lat":35.772816,"lon":139.288696},{"name":"か～もくの会","province":"東京都","city":"青梅市","address":"東京都青梅市勝沼3-78","lat":35.789818,"lon":139.266708},{"name":"子どもFREE・CAFE","province":"東京都","city":"青梅市","address":"東京都青梅市勝沼3-78","lat":35.789818,"lon":139.266708},{"name":"なかま亭","province":"東京都","city":"青梅市","address":"東京都青梅市今寺4-6-25","lat":35.79657,"lon":139.299545},{"name":"どんぐりやま","province":"東京都","city":"青梅市","address":"東京都青梅市今寺3-379-8","lat":35.798805,"lon":139.298676},{"name":"ゆうやけ子ども食堂かすみ","province":"東京都","city":"青梅市","address":"東京都青梅市藤橋2-614-18","lat":35.79903,"lon":139.301941},{"name":"Kanpa cafe mio","province":"東京都","city":"青梅市","address":"東京都青梅市勝沼3-78","lat":35.789818,"lon":139.266708},{"name":"和楽倶楽部","province":"東京都","city":"青梅市","address":"東京都青梅市今井2","lat":35.805725,"lon":139.312744},{"name":"CAFE TOIRO","province":"東京都","city":"青梅市","address":"東京都青梅市野上町3-19-4","lat":35.789551,"lon":139.290253},{"name":"＊?青梅市釜の淵市民館","province":"東京都","city":"青梅市","address":"青梅市大柳1392","lat":35.784837,"lon":139.253346},{"name":"＊?青梅市御岳山ふれあいセンター","province":"東京都","city":"青梅市","address":"青梅市御岳山38-2","lat":35.786892,"lon":139.150779},{"name":"＊?青梅市永山ふれあいセンター","province":"東京都","city":"青梅市","address":"青梅市勝沼2-160-2","lat":35.792566,"lon":139.265119},{"name":"武尊塾","province":"東京都","city":"青梅市","address":"東京都青梅市東青梅3-22-4","lat":35.789616,"lon":139.278397},{"name":"すぺーすまゆだま","province":"東京都","city":"青梅市","address":"東京都青梅市友田町3-96-1","lat":35.772816,"lon":139.288696},{"name":"か～もくの会","province":"東京都","city":"青梅市","address":"東京都青梅市勝沼3-78","lat":35.789818,"lon":139.266708},{"name":"子どもFREE・CAFE","province":"東京都","city":"青梅市","address":"東京都青梅市勝沼3-78","lat":35.789818,"lon":139.266708},{"name":"なかま亭","province":"東京都","city":"青梅市","address":"東京都青梅市今寺4-6-25","lat":35.79657,"lon":139.299545},{"name":"どんぐりやま","province":"東京都","city":"青梅市","address":"東京都青梅市今寺3-379-8","lat":35.798805,"lon":139.298676},{"name":"ゆうやけ子ども食堂かすみ","province":"東京都","city":"青梅市","address":"東京都青梅市藤橋2-614-18","lat":35.79903,"lon":139.301941},{"name":"Kanpa cafe mio","province":"東京都","city":"青梅市","address":"東京都青梅市勝沼3-78","lat":35.789818,"lon":139.266708},{"name":"和楽倶楽部","province":"東京都","city":"青梅市","address":"東京都青梅市今井2","lat":35.805725,"lon":139.312744},{"name":"CAFE TOIRO","province":"東京都","city":"青梅市","address":"東京都青梅市野上町3-19-4","lat":35.789551,"lon":139.290253},{"name":"＊?青梅市釜の淵市民館","province":"東京都","city":"青梅市","address":"青梅市大柳1392","lat":35.784837,"lon":139.253346},{"name":"＊?青梅市御岳山ふれあいセンター","province":"東京都","city":"青梅市","address":"青梅市御岳山38-2","lat":35.786892,"lon":139.150779},{"name":"＊?青梅市永山ふれあいセンター","province":"東京都","city":"青梅市","address":"青梅市勝沼2-160-2","lat":35.792566,"lon":139.265119},{"name":"武尊塾","province":"東京都","city":"青梅市","address":"東京都青梅市東青梅3-22-4","lat":35.789616,"lon":139.278397},{"name":"すぺーすまゆだま","province":"東京都","city":"青梅市","address":"東京都青梅市友田町3-96-1","lat":35.772816,"lon":139.288696},{"name":"か～もくの会","province":"東京都","city":"青梅市","address":"東京都青梅市勝沼3-78","lat":35.789818,"lon":139.266708},{"name":"子どもFREE・CAFE","province":"東京都","city":"青梅市","address":"東京都青梅市勝沼3-78","lat":35.789818,"lon":139.266708},{"name":"なかま亭","province":"東京都","city":"青梅市","address":"東京都青梅市今寺4-6-25","lat":35.79657,"lon":139.299545},{"name":"どんぐりやま","province":"東京都","city":"青梅市","address":"東京都青梅市今寺3-379-8","lat":35.798805,"lon":139.298676},{"name":"ゆうやけ子ども食堂かすみ","province":"東京都","city":"青梅市","address":"東京都青梅市藤橋2-614-18","lat":35.79903,"lon":139.301941},{"name":"Kanpa cafe mio","province":"東京都","city":"青梅市","address":"東京都青梅市勝沼3-78","lat":35.789818,"lon":139.266708},{"name":"和楽倶楽部","province":"東京都","city":"青梅市","address":"東京都青梅市今井2","lat":35.805725,"lon":139.312744},{"name":"CAFE TOIRO","province":"東京都","city":"青梅市","address":"東京都青梅市野上町3-19-4","lat":35.789551,"lon":139.290253},{"name":"＊?青梅市釜の淵市民館","province":"東京都","city":"青梅市","address":"青梅市大柳1392","lat":35.784837,"lon":139.253346},{"name":"＊?青梅市御岳山ふれあいセンター","province":"東京都","city":"青梅市","address":"青梅市御岳山38-2","lat":35.786892,"lon":139.150779},{"name":"＊?青梅市永山ふれあいセンター","province":"東京都","city":"青梅市","address":"青梅市勝沼2-160-2","lat":35.792566,"lon":139.265119},{"name":"＊?青梅市釜の淵市民館","province":"東京都","city":"青梅市","address":"青梅市大柳1392","lat":35.784837,"lon":139.253346},{"name":"＊?青梅市御岳山ふれあいセンター","province":"東京都","city":"青梅市","address":"青梅市御岳山38-2","lat":35.786892,"lon":139.150779},{"name":"＊?青梅市永山ふれあいセンター","province":"東京都","city":"青梅市","address":"青梅市勝沼2-160-2","lat":35.792566,"lon":139.265119},{"name":"＊?青梅市釜の淵市民館","province":"東京都","city":"青梅市","address":"青梅市大柳1392","lat":35.784837,"lon":139.253346},{"name":"＊?青梅市御岳山ふれあいセンター","province":"東京都","city":"青梅市","address":"青梅市御岳山38-2","lat":35.786892,"lon":139.150779},{"name":"＊?青梅市永山ふれあいセンター","province":"東京都","city":"青梅市","address":"青梅市勝沼2-160-2","lat":35.792566,"lon":139.265119},{"name":"＊?青梅市釜の淵市民館","province":"東京都","city":"青梅市","address":"青梅市大柳1392","lat":35.784837,"lon":139.253346},{"name":"＊?青梅市御岳山ふれあいセンター","province":"東京都","city":"青梅市","address":"青梅市御岳山38-2","lat":35.786892,"lon":139.150779},{"name":"＊?青梅市永山ふれあいセンター","province":"東京都","city":"青梅市","address":"青梅市勝沼2-160-2","lat":35.792566,"lon":139.265119},{"name":"＊?青梅市釜の淵市民館","province":"東京都","city":"青梅市","address":"青梅市大柳1392","lat":35.784837,"lon":139.253346},{"name":"＊?青梅市御岳山ふれあいセンター","province":"東京都","city":"青梅市","address":"青梅市御岳山38-2","lat":35.786892,"lon":139.150779},{"name":"＊?青梅市永山ふれあいセンター","province":"東京都","city":"青梅市","address":"青梅市勝沼2-160-2","lat":35.792566,"lon":139.265119},{"name":"＊?青梅市釜の淵市民館","province":"東京都","city":"青梅市","address":"青梅市大柳1392","lat":35.784837,"lon":139.253346},{"name":"＊?青梅市御岳山ふれあいセンター","province":"東京都","city":"青梅市","address":"青梅市御岳山38-2","lat":35.786892,"lon":139.150779},{"name":"＊?青梅市永山ふれあいセンター","province":"東京都","city":"青梅市","address":"青梅市勝沼2-160-2","lat":35.792566,"lon":139.265119},{"name":"＊?青梅市釜の淵市民館","province":"東京都","city":"青梅市","address":"青梅市大柳1392","lat":35.784837,"lon":139.253346},{"name":"＊?青梅市御岳山ふれあいセンター","province":"東京都","city":"青梅市","address":"青梅市御岳山38-2","lat":35.786892,"lon":139.150779},{"name":"＊?青梅市永山ふれあいセンター","province":"東京都","city":"青梅市","address":"青梅市勝沼2-160-2","lat":35.792566,"lon":139.265119},{"name":"＊?青梅市釜の淵市民館","province":"東京都","city":"青梅市","address":"青梅市大柳1392","lat":35.784837,"lon":139.253346},{"name":"＊?青梅市御岳山ふれあいセンター","province":"東京都","city":"青梅市","address":"青梅市御岳山38-2","lat":35.786892,"lon":139.150779},{"name":"＊?青梅市永山ふれあいセンター","province":"東京都","city":"青梅市","address":"青梅市勝沼2-160-2","lat":35.792566,"lon":139.265119},{"name":"＊?青梅市釜の淵市民館","province":"東京都","city":"青梅市","address":"青梅市大柳1392","lat":35.784837,"lon":139.253346},{"name":"＊?青梅市御岳山ふれあいセンター","province":"東京都","city":"青梅市","address":"青梅市御岳山38-2","lat":35.786892,"lon":139.150779},{"name":"＊?青梅市永山ふれあいセンター","province":"東京都","city":"青梅市","address":"青梅市勝沼2-160-2","lat":35.792566,"lon":139.265119},{"name":"＊?青梅市釜の淵市民館","province":"東京都","city":"青梅市","address":"青梅市大柳1392","lat":35.784837,"lon":139.253346},{"name":"＊?青梅市御岳山ふれあいセンター","province":"東京都","city":"青梅市","address":"青梅市御岳山38-2","lat":35.786892,"lon":139.150779},{"name":"＊?青梅市永山ふれあいセンター","province":"東京都","city":"青梅市","address":"青梅市勝沼2-160-2","lat":35.792566,"lon":139.265119},{"name":"＊?青梅市釜の淵市民館","province":"東京都","city":"青梅市","address":"青梅市大柳1392","lat":35.784837,"lon":139.253346},{"name":"＊?青梅市御岳山ふれあいセンター","province":"東京都","city":"青梅市","address":"青梅市御岳山38-2","lat":35.786892,"lon":139.150779},{"name":"＊?青梅市永山ふれあいセンター","province":"東京都","city":"青梅市","address":"青梅市勝沼2-160-2","lat":35.792566,"lon":139.265119},{"name":"＊?青梅市釜の淵市民館","province":"東京都","city":"青梅市","address":"青梅市大柳1392","lat":35.784837,"lon":139.253346},{"name":"＊?青梅市御岳山ふれあいセンター","province":"東京都","city":"青梅市","address":"青梅市御岳山38-2","lat":35.786892,"lon":139.150779},{"name":"＊?青梅市永山ふれあいセンター","province":"東京都","city":"青梅市","address":"青梅市勝沼2-160-2","lat":35.792566,"lon":139.265119},{"name":"＊?青梅市釜の淵市民館","province":"東京都","city":"青梅市","address":"青梅市大柳1392","lat":35.784837,"lon":139.253346},{"name":"＊?青梅市御岳山ふれあいセンター","province":"東京都","city":"青梅市","address":"青梅市御岳山38-2","lat":35.786892,"lon":139.150779},{"name":"＊?青梅市永山ふれあいセンター","province":"東京都","city":"青梅市","address":"青梅市勝沼2-160-2","lat":35.792566,"lon":139.265119},{"name":"＊?青梅市釜の淵市民館","province":"東京都","city":"青梅市","address":"青梅市大柳1392","lat":35.784837,"lon":139.253346},{"name":"＊?青梅市御岳山ふれあいセンター","province":"東京都","city":"青梅市","address":"青梅市御岳山38-2","lat":35.786892,"lon":139.150779},{"name":"＊?青梅市永山ふれあいセンター","province":"東京都","city":"青梅市","address":"青梅市勝沼2-160-2","lat":35.792566,"lon":139.265119},{"name":"＊?青梅市釜の淵市民館","province":"東京都","city":"青梅市","address":"青梅市大柳1392","lat":35.784837,"lon":139.253346},{"name":"＊?青梅市御岳山ふれあいセンター","province":"東京都","city":"青梅市","address":"青梅市御岳山38-2","lat":35.786892,"lon":139.150779},{"name":"＊?青梅市永山ふれあいセンター","province":"東京都","city":"青梅市","address":"青梅市勝沼2-160-2","lat":35.792566,"lon":139.265119},{"name":"＊?青梅市釜の淵市民館","province":"東京都","city":"青梅市","address":"青梅市大柳1392","lat":35.784837,"lon":139.253346},{"name":"＊?青梅市御岳山ふれあいセンター","province":"東京都","city":"青梅市","address":"青梅市御岳山38-2","lat":35.786892,"lon":139.150779},{"name":"＊?青梅市永山ふれあいセンター","province":"東京都","city":"青梅市","address":"青梅市勝沼2-160-2","lat":35.792566,"lon":139.265119},{"name":"＊?青梅市釜の淵市民館","province":"東京都","city":"青梅市","address":"青梅市大柳1392","lat":35.784837,"lon":139.253346},{"name":"＊?青梅市御岳山ふれあいセンター","province":"東京都","city":"青梅市","address":"青梅市御岳山38-2","lat":35.786892,"lon":139.150779},{"name":"＊?青梅市永山ふれあいセンター","province":"東京都","city":"青梅市","address":"青梅市勝沼2-160-2","lat":35.792566,"lon":139.265119},{"name":"＊?青梅市釜の淵市民館","province":"東京都","city":"青梅市","address":"青梅市大柳1392","lat":35.784837,"lon":139.253346},{"name":"＊?青梅市御岳山ふれあいセンター","province":"東京都","city":"青梅市","address":"青梅市御岳山38-2","lat":35.786892,"lon":139.150779},{"name":"＊?青梅市永山ふれあいセンター","province":"東京都","city":"青梅市","address":"青梅市勝沼2-160-2","lat":35.792566,"lon":139.265119},{"name":"＊?青梅市釜の淵市民館","province":"東京都","city":"青梅市","address":"青梅市大柳1392","lat":35.784837,"lon":139.253346},{"name":"＊?青梅市御岳山ふれあいセンター","province":"東京都","city":"青梅市","address":"青梅市御岳山38-2","lat":35.786892,"lon":139.150779},{"name":"＊?青梅市永山ふれあいセンター","province":"東京都","city":"青梅市","address":"青梅市勝沼2-160-2","lat":35.792566,"lon":139.265119},{"name":"＊?青梅市釜の淵市民館","province":"東京都","city":"青梅市","address":"青梅市大柳1392","lat":35.784837,"lon":139.253346},{"name":"＊?青梅市御岳山ふれあいセンター","province":"東京都","city":"青梅市","address":"青梅市御岳山38-2","lat":35.786892,"lon":139.150779},{"name":"＊?青梅市永山ふれあいセンター","province":"東京都","city":"青梅市","address":"青梅市勝沼2-160-2","lat":35.792566,"lon":139.265119},{"name":"＊?青梅市釜の淵市民館","province":"東京都","city":"青梅市","address":"青梅市大柳1392","lat":35.784837,"lon":139.253346},{"name":"＊?青梅市御岳山ふれあいセンター","province":"東京都","city":"青梅市","address":"青梅市御岳山38-2","lat":35.786892,"lon":139.150779},{"name":"＊?青梅市永山ふれあいセンター","province":"東京都","city":"青梅市","address":"青梅市勝沼2-160-2","lat":35.792566,"lon":139.265119},{"name":"＊?青梅市釜の淵市民館","province":"東京都","city":"青梅市","address":"青梅市大柳1392","lat":35.784837,"lon":139.253346},{"name":"＊?青梅市御岳山ふれあいセンター","province":"東京都","city":"青梅市","address":"青梅市御岳山38-2","lat":35.786892,"lon":139.150779},{"name":"＊?青梅市永山ふれあいセンター","province":"東京都","city":"青梅市","address":"青梅市勝沼2-160-2","lat":35.792566,"lon":139.265119},{"name":"＊?青梅市釜の淵市民館","province":"東京都","city":"青梅市","address":"青梅市大柳1392","lat":35.784837,"lon":139.253346},{"name":"＊?青梅市御岳山ふれあいセンター","province":"東京都","city":"青梅市","address":"青梅市御岳山38-2","lat":35.786892,"lon":139.150779},{"name":"＊?青梅市永山ふれあいセンター","province":"東京都","city":"青梅市","address":"青梅市勝沼2-160-2","lat":35.792566,"lon":139.265119},{"name":"＊?青梅市釜の淵市民館","province":"東京都","city":"青梅市","address":"青梅市大柳1392","lat":35.784837,"lon":139.253346},{"name":"＊?青梅市御岳山ふれあいセンター","province":"東京都","city":"青梅市","address":"青梅市御岳山38-2","lat":35.786892,"lon":139.150779},{"name":"＊?青梅市永山ふれあいセンター","province":"東京都","city":"青梅市","address":"青梅市勝沼2-160-2","lat":35.792566,"lon":139.265119},{"name":"＊?青梅市釜の淵市民館","province":"東京都","city":"青梅市","address":"青梅市大柳1392","lat":35.784837,"lon":139.253346},{"name":"＊?青梅市御岳山ふれあいセンター","province":"東京都","city":"青梅市","address":"青梅市御岳山38-2","lat":35.786892,"lon":139.150779},{"name":"＊?青梅市永山ふれあいセンター","province":"東京都","city":"青梅市","address":"青梅市勝沼2-160-2","lat":35.792566,"lon":139.265119},{"name":"＊?青梅市釜の淵市民館","province":"東京都","city":"青梅市","address":"青梅市大柳1392","lat":35.784837,"lon":139.253346},{"name":"＊?青梅市御岳山ふれあいセンター","province":"東京都","city":"青梅市","address":"青梅市御岳山38-2","lat":35.786892,"lon":139.150779},{"name":"＊?青梅市永山ふれあいセンター","province":"東京都","city":"青梅市","address":"青梅市勝沼2-160-2","lat":35.792566,"lon":139.265119},{"name":"＊?青梅市釜の淵市民館","province":"東京都","city":"青梅市","address":"青梅市大柳1392","lat":35.784837,"lon":139.253346},{"name":"＊?青梅市御岳山ふれあいセンター","province":"東京都","city":"青梅市","address":"青梅市御岳山38-2","lat":35.786892,"lon":139.150779},{"name":"＊?青梅市永山ふれあいセンター","province":"東京都","city":"青梅市","address":"青梅市勝沼2-160-2","lat":35.792566,"lon":139.265119},{"name":"＊?青梅市釜の淵市民館","province":"東京都","city":"青梅市","address":"青梅市大柳1392","lat":35.784837,"lon":139.253346},{"name":"＊?青梅市御岳山ふれあいセンター","province":"東京都","city":"青梅市","address":"青梅市御岳山38-2","lat":35.786892,"lon":139.150779},{"name":"＊?青梅市永山ふれあいセンター","province":"東京都","city":"青梅市","address":"青梅市勝沼2-160-2","lat":35.792566,"lon":139.265119},{"name":"＊?青梅市釜の淵市民館","province":"東京都","city":"青梅市","address":"青梅市大柳1392","lat":35.784837,"lon":139.253346},{"name":"＊?青梅市御岳山ふれあいセンター","province":"東京都","city":"青梅市","address":"青梅市御岳山38-2","lat":35.786892,"lon":139.150779},{"name":"＊?青梅市永山ふれあいセンター","province":"東京都","city":"青梅市","address":"青梅市勝沼2-160-2","lat":35.792566,"lon":139.265119},{"name":"＊?青梅市釜の淵市民館","province":"東京都","city":"青梅市","address":"青梅市大柳1392","lat":35.784837,"lon":139.253346},{"name":"＊?青梅市御岳山ふれあいセンター","province":"東京都","city":"青梅市","address":"青梅市御岳山38-2","lat":35.786892,"lon":139.150779},{"name":"＊?青梅市永山ふれあいセンター","province":"東京都","city":"青梅市","address":"青梅市勝沼2-160-2","lat":35.792566,"lon":139.265119},{"name":"＊?青梅市釜の淵市民館","province":"東京都","city":"青梅市","address":"青梅市大柳1392","lat":35.784837,"lon":139.253346},{"name":"＊?青梅市御岳山ふれあいセンター","province":"東京都","city":"青梅市","address":"青梅市御岳山38-2","lat":35.786892,"lon":139.150779},{"name":"＊?青梅市永山ふれあいセンター","province":"東京都","city":"青梅市","address":"青梅市勝沼2-160-2","lat":35.792566,"lon":139.265119},{"name":"＊?青梅市釜の淵市民館","province":"東京都","city":"青梅市","address":"青梅市大柳1392","lat":35.784837,"lon":139.253346},{"name":"＊?青梅市御岳山ふれあいセンター","province":"東京都","city":"青梅市","address":"青梅市御岳山38-2","lat":35.786892,"lon":139.150779},{"name":"＊?青梅市永山ふれあいセンター","province":"東京都","city":"青梅市","address":"青梅市勝沼2-160-2","lat":35.792566,"lon":139.265119},{"name":"＊?青梅市釜の淵市民館","province":"東京都","city":"青梅市","address":"青梅市大柳1392","lat":35.784837,"lon":139.253346},{"name":"＊?青梅市御岳山ふれあいセンター","province":"東京都","city":"青梅市","address":"青梅市御岳山38-2","lat":35.786892,"lon":139.150779},{"name":"＊?青梅市永山ふれあいセンター","province":"東京都","city":"青梅市","address":"青梅市勝沼2-160-2","lat":35.792566,"lon":139.265119},{"name":"＊?青梅市釜の淵市民館","province":"東京都","city":"青梅市","address":"青梅市大柳1392","lat":35.784837,"lon":139.253346},{"name":"＊?青梅市御岳山ふれあいセンター","province":"東京都","city":"青梅市","address":"青梅市御岳山38-2","lat":35.786892,"lon":139.150779},{"name":"＊?青梅市永山ふれあいセンター","province":"東京都","city":"青梅市","address":"青梅市勝沼2-160-2","lat":35.792566,"lon":139.265119},{"name":"＊?青梅市釜の淵市民館","province":"東京都","city":"青梅市","address":"青梅市大柳1392","lat":35.784837,"lon":139.253346},{"name":"＊?青梅市御岳山ふれあいセンター","province":"東京都","city":"青梅市","address":"青梅市御岳山38-2","lat":35.786892,"lon":139.150779},{"name":"＊?青梅市永山ふれあいセンター","province":"東京都","city":"青梅市","address":"青梅市勝沼2-160-2","lat":35.792566,"lon":139.265119},{"name":"＊?青梅市釜の淵市民館","province":"東京都","city":"青梅市","address":"青梅市大柳1392","lat":35.784837,"lon":139.253346},{"name":"＊?青梅市御岳山ふれあいセンター","province":"東京都","city":"青梅市","address":"青梅市御岳山38-2","lat":35.786892,"lon":139.150779},{"name":"＊?青梅市永山ふれあいセンター","province":"東京都","city":"青梅市","address":"青梅市勝沼2-160-2","lat":35.792566,"lon":139.265119},{"name":"＊?青梅市釜の淵市民館","province":"東京都","city":"青梅市","address":"青梅市大柳1392","lat":35.784837,"lon":139.253346},{"name":"＊?青梅市御岳山ふれあいセンター","province":"東京都","city":"青梅市","address":"青梅市御岳山38-2","lat":35.786892,"lon":139.150779},{"name":"＊?青梅市永山ふれあいセンター","province":"東京都","city":"青梅市","address":"青梅市勝沼2-160-2","lat":35.792566,"lon":139.265119},{"name":"＊?青梅市釜の淵市民館","province":"東京都","city":"青梅市","address":"青梅市大柳1392","lat":35.784837,"lon":139.253346},{"name":"＊?青梅市御岳山ふれあいセンター","province":"東京都","city":"青梅市","address":"青梅市御岳山38-2","lat":35.786892,"lon":139.150779},{"name":"＊?青梅市永山ふれあいセンター","province":"東京都","city":"青梅市","address":"青梅市勝沼2-160-2","lat":35.792566,"lon":139.265119},{"name":"＊?青梅市釜の淵市民館","province":"東京都","city":"青梅市","address":"青梅市大柳1392","lat":35.784837,"lon":139.253346},{"name":"＊?青梅市御岳山ふれあいセンター","province":"東京都","city":"青梅市","address":"青梅市御岳山38-2","lat":35.786892,"lon":139.150779},{"name":"＊?青梅市永山ふれあいセンター","province":"東京都","city":"青梅市","address":"青梅市勝沼2-160-2","lat":35.792566,"lon":139.265119},{"name":"＊?青梅市釜の淵市民館","province":"東京都","city":"青梅市","address":"青梅市大柳1392","lat":35.784837,"lon":139.253346},{"name":"＊?青梅市御岳山ふれあいセンター","province":"東京都","city":"青梅市","address":"青梅市御岳山38-2","lat":35.786892,"lon":139.150779},{"name":"＊?青梅市永山ふれあいセンター","province":"東京都","city":"青梅市","address":"青梅市勝沼2-160-2","lat":35.792566,"lon":139.265119},{"name":"＊?青梅市釜の淵市民館","province":"東京都","city":"青梅市","address":"青梅市大柳1392","lat":35.784837,"lon":139.253346},{"name":"＊?青梅市御岳山ふれあいセンター","province":"東京都","city":"青梅市","address":"青梅市御岳山38-2","lat":35.786892,"lon":139.150779},{"name":"＊?青梅市永山ふれあいセンター","province":"東京都","city":"青梅市","address":"青梅市勝沼2-160-2","lat":35.792566,"lon":139.265119},{"name":"＊?青梅市釜の淵市民館","province":"東京都","city":"青梅市","address":"青梅市大柳1392","lat":35.784837,"lon":139.253346},{"name":"＊?青梅市御岳山ふれあいセンター","province":"東京都","city":"青梅市","address":"青梅市御岳山38-2","lat":35.786892,"lon":139.150779},{"name":"＊?青梅市永山ふれあいセンター","province":"東京都","city":"青梅市","address":"青梅市勝沼2-160-2","lat":35.792566,"lon":139.265119},{"name":"＊?青梅市釜の淵市民館","province":"東京都","city":"青梅市","address":"青梅市大柳1392","lat":35.784837,"lon":139.253346},{"name":"＊?青梅市御岳山ふれあいセンター","province":"東京都","city":"青梅市","address":"青梅市御岳山38-2","lat":35.786892,"lon":139.150779},{"name":"＊?青梅市永山ふれあいセンター","province":"東京都","city":"青梅市","address":"青梅市勝沼2-160-2","lat":35.792566,"lon":139.265119}]}