{"keyword":"戸数","data":[{"name":"青梅市社会福祉協議会","province":"東京都","city":"青梅市","address":"青梅市東青梅1-177-3福祉センター2階","lat":35.787565,"lon":139.274124},{"name":"青梅市","province":"東京都","city":"青梅市","address":"青梅市東青梅1-11-1","lat":35.7878569,"lon":139.2758353},{"name":"青梅市社会福祉協議会","province":"東京都","city":"青梅市","address":"青梅市東青梅1-177-3青梅市福祉センター2階","lat":35.78766,"lon":139.27274},{"name":"青梅市地域包括支援センター","province":"東京都","city":"青梅市","address":"青梅市東青梅1-11-1青梅市役所内","lat":35.788086,"lon":139.275269},{"name":"青梅市地域包括支援センターうめぞの","province":"東京都","city":"青梅市","address":"青梅市駒木町3-594-1メディケア梅の園内","lat":35.781685,"lon":139.251923},{"name":"青梅市地域包括支援センターすえひろ","province":"東京都","city":"青梅市","address":"青梅市末広町1-4-5青梅すえひろ苑内","lat":35.778828,"lon":139.312836},{"name":"青梅市消費者相談室","province":"東京都","city":"青梅市","address":"青梅市東青梅1-11-1青梅市役所3階","lat":35.788086,"lon":139.275269},{"name":"青梅市立総合病院","province":"東京都","city":"青梅市","address":"東京都青梅市東青梅4丁目16-5","lat":35.78202441,"lon":139.28118194},{"name":"青梅市火葬場","province":"東京都","city":"青梅市","address":"東京都青梅市長淵5丁目743","lat":35.77277491,"lon":139.26230902},{"name":"日向和田浄水所","province":"東京都","city":"青梅市","address":"東京都青梅市日向和田2丁目370","lat":35.78437016,"lon":139.23479499},{"name":"千ヶ瀬第二浄水所","province":"東京都","city":"青梅市","address":"東京都青梅市千ヶ瀬町1丁目69-1","lat":35.78467678,"lon":139.27783217},{"name":"御岳山第一配水所","province":"東京都","city":"青梅市","address":"東京都青梅市御岳山170-3","lat":35.78346895,"lon":139.15124212},{"name":"新町給水所","province":"東京都","city":"青梅市","address":"東京都青梅市新町5丁目24-1","lat":35.78846047,"lon":139.30887384},{"name":"二俣尾配水所","province":"東京都","city":"青梅市","address":"東京都青梅市二俣尾5丁目107-2","lat":35.81524153,"lon":139.2066392},{"name":"城山配水所","province":"東京都","city":"青梅市","address":"東京都青梅市東青梅6丁目95-1","lat":35.79671131,"lon":139.27230447},{"name":"立正佼成会青梅練成道場グラウンド","province":"東京都","city":"青梅市","address":"東京都青梅市小曾木2丁目450","lat":35.81221561,"lon":139.29602679},{"name":"明星大学青梅キャンパスグラウンド","province":"東京都","city":"青梅市","address":"東京都青梅市長淵2丁目590","lat":35.77275567,"lon":139.26727244},{"name":"青梅市市民球技場野球場","province":"東京都","city":"青梅市","address":"東京都青梅市河辺町1丁目872-1","lat":35.77784173,"lon":139.28723709},{"name":"青梅市立総合病院ヘリポート","province":"東京都","city":"青梅市","address":"東京都青梅市東青梅4丁目16-5","lat":35.78202441,"lon":139.28118194},{"name":"青梅市立第六小学校校庭","province":"東京都","city":"青梅市","address":"東京都青梅市二俣尾3丁目903-1","lat":35.80159313,"lon":139.2168608},{"name":"青梅市選挙管理委員会","province":"東京都","city":"青梅市","address":"青梅市東青梅1-11-1","lat":35.787856,"lon":139.275831},{"name":"東京都青梅合同庁舎","province":"東京都","city":"青梅市","address":"東京都青梅市河辺町6丁目4-1","lat":35.77999986,"lon":139.28959793},{"name":"東京都農林水産振興財団（青梅庁舎）","province":"東京都","city":"青梅市","address":"東京都青梅市新町6丁目7-1","lat":35.78966597,"lon":139.31169301},{"name":"多摩高等学校","province":"東京都","city":"青梅市","address":"東京都青梅市裏宿町580","lat":35.78959473,"lon":139.24684382},{"name":"青梅総合高等学校","province":"東京都","city":"青梅市","address":"東京都青梅市勝沼1丁目60-1","lat":35.78894824,"lon":139.26913567},{"name":"西多摩建設事務所","province":"東京都","city":"青梅市","address":"青梅市東青梅3-20-1","lat":35.7909,"lon":139.2776},{"name":"西多摩地区","province":"東京都","city":"青梅市","address":"青梅市東青梅4-17-41","lat":35.78327,"lon":139.2817},{"name":"青梅市社会福祉協議会","province":"東京都","city":"青梅市","address":"青梅市東青梅1-177-3福祉センター2階","lat":35.787565,"lon":139.274124},{"name":"青梅市社会福祉協議会","province":"東京都","city":"青梅市","address":"青梅市東青梅1-177-3青梅市福祉センター2階","lat":35.78766,"lon":139.27274},{"name":"青梅市地域包括支援センター","province":"東京都","city":"青梅市","address":"青梅市東青梅1-11-1青梅市役所内","lat":35.788086,"lon":139.275269},{"name":"青梅市地域包括支援センターうめぞの","province":"東京都","city":"青梅市","address":"青梅市駒木町3-594-1メディケア梅の園内","lat":35.781685,"lon":139.251923},{"name":"青梅市地域包括支援センターすえひろ","province":"東京都","city":"青梅市","address":"青梅市末広町1-4-5青梅すえひろ苑内","lat":35.778828,"lon":139.312836},{"name":"青梅市消費者相談室","province":"東京都","city":"青梅市","address":"青梅市東青梅1-11-1青梅市役所3階","lat":35.788086,"lon":139.275269},{"name":"青梅市立総合病院","province":"東京都","city":"青梅市","address":"東京都青梅市東青梅4丁目16-5","lat":35.78202441,"lon":139.28118194},{"name":"青梅市火葬場","province":"東京都","city":"青梅市","address":"東京都青梅市長淵5丁目743","lat":35.77277491,"lon":139.26230902},{"name":"日向和田浄水所","province":"東京都","city":"青梅市","address":"東京都青梅市日向和田2丁目370","lat":35.78437016,"lon":139.23479499},{"name":"千ヶ瀬第二浄水所","province":"東京都","city":"青梅市","address":"東京都青梅市千ヶ瀬町1丁目69-1","lat":35.78467678,"lon":139.27783217},{"name":"御岳山第一配水所","province":"東京都","city":"青梅市","address":"東京都青梅市御岳山170-3","lat":35.78346895,"lon":139.15124212},{"name":"新町給水所","province":"東京都","city":"青梅市","address":"東京都青梅市新町5丁目24-1","lat":35.78846047,"lon":139.30887384},{"name":"二俣尾配水所","province":"東京都","city":"青梅市","address":"東京都青梅市二俣尾5丁目107-2","lat":35.81524153,"lon":139.2066392},{"name":"城山配水所","province":"東京都","city":"青梅市","address":"東京都青梅市東青梅6丁目95-1","lat":35.79671131,"lon":139.27230447},{"name":"立正佼成会青梅練成道場グラウンド","province":"東京都","city":"青梅市","address":"東京都青梅市小曾木2丁目450","lat":35.81221561,"lon":139.29602679},{"name":"明星大学青梅キャンパスグラウンド","province":"東京都","city":"青梅市","address":"東京都青梅市長淵2丁目590","lat":35.77275567,"lon":139.26727244},{"name":"青梅市市民球技場野球場","province":"東京都","city":"青梅市","address":"東京都青梅市河辺町1丁目872-1","lat":35.77784173,"lon":139.28723709},{"name":"青梅市立総合病院ヘリポート","province":"東京都","city":"青梅市","address":"東京都青梅市東青梅4丁目16-5","lat":35.78202441,"lon":139.28118194},{"name":"青梅市立第六小学校校庭","province":"東京都","city":"青梅市","address":"東京都青梅市二俣尾3丁目903-1","lat":35.80159313,"lon":139.2168608},{"name":"東京都青梅合同庁舎","province":"東京都","city":"青梅市","address":"東京都青梅市河辺町6丁目4-1","lat":35.77999986,"lon":139.28959793},{"name":"東京都農林水産振興財団（青梅庁舎）","province":"東京都","city":"青梅市","address":"東京都青梅市新町6丁目7-1","lat":35.78966597,"lon":139.31169301},{"name":"多摩高等学校","province":"東京都","city":"青梅市","address":"東京都青梅市裏宿町580","lat":35.78959473,"lon":139.24684382},{"name":"青梅総合高等学校","province":"東京都","city":"青梅市","address":"東京都青梅市勝沼1丁目60-1","lat":35.78894824,"lon":139.26913567},{"name":"西多摩建設事務所","province":"東京都","city":"青梅市","address":"青梅市東青梅3-20-1","lat":35.7909,"lon":139.2776},{"name":"西多摩地区","province":"東京都","city":"青梅市","address":"青梅市東青梅4-17-41","lat":35.78327,"lon":139.2817},{"name":"青梅市地域包括支援センター","province":"東京都","city":"青梅市","address":"青梅市東青梅1-11-1青梅市役所内","lat":35.788086,"lon":139.275269},{"name":"青梅市地域包括支援センターうめぞの","province":"東京都","city":"青梅市","address":"青梅市駒木町3-594-1メディケア梅の園内","lat":35.781685,"lon":139.251923},{"name":"青梅市地域包括支援センターすえひろ","province":"東京都","city":"青梅市","address":"青梅市末広町1-4-5青梅すえひろ苑内","lat":35.778828,"lon":139.312836},{"name":"青梅市消費者相談室","province":"東京都","city":"青梅市","address":"青梅市東青梅1-11-1青梅市役所3階","lat":35.788086,"lon":139.275269},{"name":"青梅市立総合病院","province":"東京都","city":"青梅市","address":"東京都青梅市東青梅4丁目16-5","lat":35.78202441,"lon":139.28118194},{"name":"東京都青梅合同庁舎","province":"東京都","city":"青梅市","address":"東京都青梅市河辺町6丁目4-1","lat":35.77999986,"lon":139.28959793},{"name":"東京都農林水産振興財団（青梅庁舎）","province":"東京都","city":"青梅市","address":"東京都青梅市新町6丁目7-1","lat":35.78966597,"lon":139.31169301},{"name":"多摩高等学校","province":"東京都","city":"青梅市","address":"東京都青梅市裏宿町580","lat":35.78959473,"lon":139.24684382},{"name":"青梅総合高等学校","province":"東京都","city":"青梅市","address":"東京都青梅市勝沼1丁目60-1","lat":35.78894824,"lon":139.26913567},{"name":"青梅市地域包括支援センター","province":"東京都","city":"青梅市","address":"青梅市東青梅1-11-1青梅市役所内","lat":35.788086,"lon":139.275269},{"name":"青梅市地域包括支援センターうめぞの","province":"東京都","city":"青梅市","address":"青梅市駒木町3-594-1メディケア梅の園内","lat":35.781685,"lon":139.251923},{"name":"青梅市地域包括支援センターすえひろ","province":"東京都","city":"青梅市","address":"青梅市末広町1-4-5青梅すえひろ苑内","lat":35.778828,"lon":139.312836},{"name":"青梅市消費者相談室","province":"東京都","city":"青梅市","address":"青梅市東青梅1-11-1青梅市役所3階","lat":35.788086,"lon":139.275269},{"name":"青梅市立総合病院","province":"東京都","city":"青梅市","address":"東京都青梅市東青梅4丁目16-5","lat":35.78202441,"lon":139.28118194},{"name":"東京都青梅合同庁舎","province":"東京都","city":"青梅市","address":"東京都青梅市河辺町6丁目4-1","lat":35.77999986,"lon":139.28959793},{"name":"東京都農林水産振興財団（青梅庁舎）","province":"東京都","city":"青梅市","address":"東京都青梅市新町6丁目7-1","lat":35.78966597,"lon":139.31169301},{"name":"多摩高等学校","province":"東京都","city":"青梅市","address":"東京都青梅市裏宿町580","lat":35.78959473,"lon":139.24684382},{"name":"青梅総合高等学校","province":"東京都","city":"青梅市","address":"東京都青梅市勝沼1丁目60-1","lat":35.78894824,"lon":139.26913567},{"name":"青梅市地域包括支援センター","province":"東京都","city":"青梅市","address":"青梅市東青梅1-11-1青梅市役所内","lat":35.788086,"lon":139.275269},{"name":"青梅市地域包括支援センターうめぞの","province":"東京都","city":"青梅市","address":"青梅市駒木町3-594-1メディケア梅の園内","lat":35.781685,"lon":139.251923},{"name":"青梅市地域包括支援センターすえひろ","province":"東京都","city":"青梅市","address":"青梅市末広町1-4-5青梅すえひろ苑内","lat":35.778828,"lon":139.312836},{"name":"青梅市消費者相談室","province":"東京都","city":"青梅市","address":"青梅市東青梅1-11-1青梅市役所3階","lat":35.788086,"lon":139.275269},{"name":"青梅市地域包括支援センター","province":"東京都","city":"青梅市","address":"青梅市東青梅1-11-1青梅市役所内","lat":35.788086,"lon":139.275269},{"name":"青梅市地域包括支援センターうめぞの","province":"東京都","city":"青梅市","address":"青梅市駒木町3-594-1メディケア梅の園内","lat":35.781685,"lon":139.251923},{"name":"青梅市地域包括支援センターすえひろ","province":"東京都","city":"青梅市","address":"青梅市末広町1-4-5青梅すえひろ苑内","lat":35.778828,"lon":139.312836},{"name":"青梅市消費者相談室","province":"東京都","city":"青梅市","address":"青梅市東青梅1-11-1青梅市役所3階","lat":35.788086,"lon":139.275269},{"name":"青梅市地域包括支援センター","province":"東京都","city":"青梅市","address":"青梅市東青梅1-11-1青梅市役所内","lat":35.788086,"lon":139.275269},{"name":"青梅市地域包括支援センターうめぞの","province":"東京都","city":"青梅市","address":"青梅市駒木町3-594-1メディケア梅の園内","lat":35.781685,"lon":139.251923},{"name":"青梅市地域包括支援センターすえひろ","province":"東京都","city":"青梅市","address":"青梅市末広町1-4-5青梅すえひろ苑内","lat":35.778828,"lon":139.312836},{"name":"青梅市消費者相談室","province":"東京都","city":"青梅市","address":"青梅市東青梅1-11-1青梅市役所3階","lat":35.788086,"lon":139.275269},{"name":"青梅市地域包括支援センター","province":"東京都","city":"青梅市","address":"青梅市東青梅1-11-1青梅市役所内","lat":35.788086,"lon":139.275269},{"name":"青梅市地域包括支援センターうめぞの","province":"東京都","city":"青梅市","address":"青梅市駒木町3-594-1メディケア梅の園内","lat":35.781685,"lon":139.251923},{"name":"青梅市地域包括支援センターすえひろ","province":"東京都","city":"青梅市","address":"青梅市末広町1-4-5青梅すえひろ苑内","lat":35.778828,"lon":139.312836},{"name":"青梅市消費者相談室","province":"東京都","city":"青梅市","address":"青梅市東青梅1-11-1青梅市役所3階","lat":35.788086,"lon":139.275269},{"name":"青梅市地域包括支援センター","province":"東京都","city":"青梅市","address":"青梅市東青梅1-11-1青梅市役所内","lat":35.788086,"lon":139.275269},{"name":"青梅市地域包括支援センターうめぞの","province":"東京都","city":"青梅市","address":"青梅市駒木町3-594-1メディケア梅の園内","lat":35.781685,"lon":139.251923},{"name":"青梅市地域包括支援センターすえひろ","province":"東京都","city":"青梅市","address":"青梅市末広町1-4-5青梅すえひろ苑内","lat":35.778828,"lon":139.312836},{"name":"青梅市消費者相談室","province":"東京都","city":"青梅市","address":"青梅市東青梅1-11-1青梅市役所3階","lat":35.788086,"lon":139.275269},{"name":"青梅市地域包括支援センター","province":"東京都","city":"青梅市","address":"青梅市東青梅1-11-1青梅市役所内","lat":35.788086,"lon":139.275269},{"name":"青梅市地域包括支援センターうめぞの","province":"東京都","city":"青梅市","address":"青梅市駒木町3-594-1メディケア梅の園内","lat":35.781685,"lon":139.251923},{"name":"青梅市地域包括支援センターすえひろ","province":"東京都","city":"青梅市","address":"青梅市末広町1-4-5青梅すえひろ苑内","lat":35.778828,"lon":139.312836},{"name":"青梅市消費者相談室","province":"東京都","city":"青梅市","address":"青梅市東青梅1-11-1青梅市役所3階","lat":35.788086,"lon":139.275269},{"name":"青梅市地域包括支援センター","province":"東京都","city":"青梅市","address":"青梅市東青梅1-11-1青梅市役所内","lat":35.788086,"lon":139.275269},{"name":"青梅市地域包括支援センターうめぞの","province":"東京都","city":"青梅市","address":"青梅市駒木町3-594-1メディケア梅の園内","lat":35.781685,"lon":139.251923},{"name":"青梅市地域包括支援センターすえひろ","province":"東京都","city":"青梅市","address":"青梅市末広町1-4-5青梅すえひろ苑内","lat":35.778828,"lon":139.312836},{"name":"青梅市消費者相談室","province":"東京都","city":"青梅市","address":"青梅市東青梅1-11-1青梅市役所3階","lat":35.788086,"lon":139.275269},{"name":"青梅市地域包括支援センター","province":"東京都","city":"青梅市","address":"青梅市東青梅1-11-1青梅市役所内","lat":35.788086,"lon":139.275269},{"name":"青梅市地域包括支援センターうめぞの","province":"東京都","city":"青梅市","address":"青梅市駒木町3-594-1メディケア梅の園内","lat":35.781685,"lon":139.251923},{"name":"青梅市地域包括支援センターすえひろ","province":"東京都","city":"青梅市","address":"青梅市末広町1-4-5青梅すえひろ苑内","lat":35.778828,"lon":139.312836},{"name":"青梅市消費者相談室","province":"東京都","city":"青梅市","address":"青梅市東青梅1-11-1青梅市役所3階","lat":35.788086,"lon":139.275269},{"name":"青梅市地域包括支援センター","province":"東京都","city":"青梅市","address":"青梅市東青梅1-11-1青梅市役所内","lat":35.788086,"lon":139.275269},{"name":"青梅市地域包括支援センターうめぞの","province":"東京都","city":"青梅市","address":"青梅市駒木町3-594-1メディケア梅の園内","lat":35.781685,"lon":139.251923},{"name":"青梅市地域包括支援センターすえひろ","province":"東京都","city":"青梅市","address":"青梅市末広町1-4-5青梅すえひろ苑内","lat":35.778828,"lon":139.312836},{"name":"青梅市消費者相談室","province":"東京都","city":"青梅市","address":"青梅市東青梅1-11-1青梅市役所3階","lat":35.788086,"lon":139.275269},{"name":"青梅市地域包括支援センター","province":"東京都","city":"青梅市","address":"青梅市東青梅1-11-1青梅市役所内","lat":35.788086,"lon":139.275269},{"name":"青梅市地域包括支援センターうめぞの","province":"東京都","city":"青梅市","address":"青梅市駒木町3-594-1メディケア梅の園内","lat":35.781685,"lon":139.251923},{"name":"青梅市地域包括支援センターすえひろ","province":"東京都","city":"青梅市","address":"青梅市末広町1-4-5青梅すえひろ苑内","lat":35.778828,"lon":139.312836},{"name":"青梅市消費者相談室","province":"東京都","city":"青梅市","address":"青梅市東青梅1-11-1青梅市役所3階","lat":35.788086,"lon":139.275269},{"name":"青梅市地域包括支援センター","province":"東京都","city":"青梅市","address":"青梅市東青梅1-11-1青梅市役所内","lat":35.788086,"lon":139.275269},{"name":"青梅市地域包括支援センターうめぞの","province":"東京都","city":"青梅市","address":"青梅市駒木町3-594-1メディケア梅の園内","lat":35.781685,"lon":139.251923},{"name":"青梅市地域包括支援センターすえひろ","province":"東京都","city":"青梅市","address":"青梅市末広町1-4-5青梅すえひろ苑内","lat":35.778828,"lon":139.312836},{"name":"青梅市消費者相談室","province":"東京都","city":"青梅市","address":"青梅市東青梅1-11-1青梅市役所3階","lat":35.788086,"lon":139.275269},{"name":"青梅市地域包括支援センター","province":"東京都","city":"青梅市","address":"青梅市東青梅1-11-1青梅市役所内","lat":35.788086,"lon":139.275269},{"name":"青梅市地域包括支援センターうめぞの","province":"東京都","city":"青梅市","address":"青梅市駒木町3-594-1メディケア梅の園内","lat":35.781685,"lon":139.251923},{"name":"青梅市地域包括支援センターすえひろ","province":"東京都","city":"青梅市","address":"青梅市末広町1-4-5青梅すえひろ苑内","lat":35.778828,"lon":139.312836},{"name":"青梅市消費者相談室","province":"東京都","city":"青梅市","address":"青梅市東青梅1-11-1青梅市役所3階","lat":35.788086,"lon":139.275269},{"name":"青梅市地域包括支援センター","province":"東京都","city":"青梅市","address":"青梅市東青梅1-11-1青梅市役所内","lat":35.788086,"lon":139.275269},{"name":"青梅市地域包括支援センターうめぞの","province":"東京都","city":"青梅市","address":"青梅市駒木町3-594-1メディケア梅の園内","lat":35.781685,"lon":139.251923},{"name":"青梅市地域包括支援センターすえひろ","province":"東京都","city":"青梅市","address":"青梅市末広町1-4-5青梅すえひろ苑内","lat":35.778828,"lon":139.312836},{"name":"青梅市消費者相談室","province":"東京都","city":"青梅市","address":"青梅市東青梅1-11-1青梅市役所3階","lat":35.788086,"lon":139.275269},{"name":"青梅市地域包括支援センター","province":"東京都","city":"青梅市","address":"青梅市東青梅1-11-1青梅市役所内","lat":35.788086,"lon":139.275269},{"name":"青梅市地域包括支援センターうめぞの","province":"東京都","city":"青梅市","address":"青梅市駒木町3-594-1メディケア梅の園内","lat":35.781685,"lon":139.251923},{"name":"青梅市地域包括支援センターすえひろ","province":"東京都","city":"青梅市","address":"青梅市末広町1-4-5青梅すえひろ苑内","lat":35.778828,"lon":139.312836},{"name":"青梅市消費者相談室","province":"東京都","city":"青梅市","address":"青梅市東青梅1-11-1青梅市役所3階","lat":35.788086,"lon":139.275269},{"name":"青梅市地域包括支援センター","province":"東京都","city":"青梅市","address":"青梅市東青梅1-11-1青梅市役所内","lat":35.788086,"lon":139.275269},{"name":"青梅市地域包括支援センターうめぞの","province":"東京都","city":"青梅市","address":"青梅市駒木町3-594-1メディケア梅の園内","lat":35.781685,"lon":139.251923},{"name":"青梅市地域包括支援センターすえひろ","province":"東京都","city":"青梅市","address":"青梅市末広町1-4-5青梅すえひろ苑内","lat":35.778828,"lon":139.312836},{"name":"青梅市消費者相談室","province":"東京都","city":"青梅市","address":"青梅市東青梅1-11-1青梅市役所3階","lat":35.788086,"lon":139.275269},{"name":"青梅市地域包括支援センター","province":"東京都","city":"青梅市","address":"青梅市東青梅1-11-1青梅市役所内","lat":35.788086,"lon":139.275269},{"name":"青梅市地域包括支援センターうめぞの","province":"東京都","city":"青梅市","address":"青梅市駒木町3-594-1メディケア梅の園内","lat":35.781685,"lon":139.251923},{"name":"青梅市地域包括支援センターすえひろ","province":"東京都","city":"青梅市","address":"青梅市末広町1-4-5青梅すえひろ苑内","lat":35.778828,"lon":139.312836},{"name":"青梅市消費者相談室","province":"東京都","city":"青梅市","address":"青梅市東青梅1-11-1青梅市役所3階","lat":35.788086,"lon":139.275269},{"name":"青梅市地域包括支援センター","province":"東京都","city":"青梅市","address":"青梅市東青梅1-11-1青梅市役所内","lat":35.788086,"lon":139.275269},{"name":"青梅市地域包括支援センターうめぞの","province":"東京都","city":"青梅市","address":"青梅市駒木町3-594-1メディケア梅の園内","lat":35.781685,"lon":139.251923},{"name":"青梅市地域包括支援センターすえひろ","province":"東京都","city":"青梅市","address":"青梅市末広町1-4-5青梅すえひろ苑内","lat":35.778828,"lon":139.312836},{"name":"青梅市消費者相談室","province":"東京都","city":"青梅市","address":"青梅市東青梅1-11-1青梅市役所3階","lat":35.788086,"lon":139.275269}]}