{"keyword":"放課後","data":[{"name":"友愛こどもクラブとことこ","province":"東京都","city":"青梅市","address":"青梅市成木2-107","lat":35.832282,"lon":139.271068},{"name":"きらきらすばる","province":"東京都","city":"青梅市","address":"青梅市大門2-281-1","lat":35.796084,"lon":139.290447},{"name":"らんらんすばる","province":"東京都","city":"青梅市","address":"青梅市新町3-20-3ダイヤパレス1階","lat":35.78002,"lon":139.302077},{"name":"オルオルハウスかすみ","province":"東京都","city":"青梅市","address":"青梅市新町1-43-6","lat":35.791196,"lon":139.296172},{"name":"おひさま放課後デイサービス","province":"東京都","city":"青梅市","address":"青梅市新町5-24-3","lat":35.789733,"lon":139.308771},{"name":"ポラリスキッズ","province":"東京都","city":"青梅市","address":"青梅市新町7-5-5","lat":35.783836,"lon":139.315835},{"name":"ドリームボックス河辺","province":"東京都","city":"青梅市","address":"青梅市師岡町4-11-1ヴィラ・エイジ101","lat":35.787377,"lon":139.285726},{"name":"こどもプラス青梅教室","province":"東京都","city":"青梅市","address":"青梅市野上町2-10-2平沼ビル1階101","lat":35.793248,"lon":139.28997},{"name":"オルオルネクストかべ","province":"東京都","city":"青梅市","address":"青梅市河辺町5-23-7","lat":35.782891,"lon":139.287531},{"name":"ありえす","province":"東京都","city":"青梅市","address":"青梅市千ケ瀬町4-572-6","lat":35.786726,"lon":139.266619}]}