{"keyword":"破損","data":[{"name":"青梅市地域包括支援センター","province":"東京都","city":"青梅市","address":"青梅市東青梅1-11-1青梅市役所内","lat":35.788086,"lon":139.275269},{"name":"青梅市地域包括支援センターうめぞの","province":"東京都","city":"青梅市","address":"青梅市駒木町3-594-1メディケア梅の園内","lat":35.781685,"lon":139.251923},{"name":"青梅市地域包括支援センターすえひろ","province":"東京都","city":"青梅市","address":"青梅市末広町1-4-5青梅すえひろ苑内","lat":35.778828,"lon":139.312836},{"name":"青梅市消費者相談室","province":"東京都","city":"青梅市","address":"青梅市東青梅1-11-1青梅市役所3階","lat":35.788086,"lon":139.275269},{"name":"青梅市役所前第一","province":"東京都","city":"青梅市","address":"東京都青梅市東青梅1丁目11-1","lat":35.78785689,"lon":139.27583503},{"name":"青梅末広町二丁目西","province":"東京都","city":"青梅市","address":"東京都青梅市末広町2丁目2-8","lat":35.77942258,"lon":139.30691877},{"name":"千ヶ瀬二丁目","province":"東京都","city":"青梅市","address":"東京都青梅市千ヶ瀬町2丁目243","lat":35.78593481,"lon":139.27255762},{"name":"河辺小学校南","province":"東京都","city":"青梅市","address":"東京都青梅市河辺町6丁目2","lat":35.7806081,"lon":139.28894797},{"name":"河辺駅北口","province":"東京都","city":"青梅市","address":"東京都青梅市河辺町10丁目7","lat":35.78578519,"lon":139.28627025},{"name":"わかぐさ公園前","province":"東京都","city":"青梅市","address":"東京都青梅市河辺町7丁目14-2","lat":35.78147483,"lon":139.29581681},{"name":"小作駅北","province":"東京都","city":"青梅市","address":"東京都青梅市新町3丁目2","lat":35.77804486,"lon":139.30261082},{"name":"みち境","province":"東京都","city":"青梅市","address":"東京都青梅市根ヶ布2丁目722","lat":35.8065628,"lon":139.2666466},{"name":"青梅合同庁舎前","province":"東京都","city":"青梅市","address":"東京都青梅市河辺町6丁目4-1","lat":35.77999986,"lon":139.28959793},{"name":"永山公園入口","province":"東京都","city":"青梅市","address":"東京都青梅市住江町55","lat":35.78902572,"lon":139.26029501},{"name":"日向和田浄水所","province":"東京都","city":"青梅市","address":"東京都青梅市日向和田2丁目370","lat":35.78437016,"lon":139.23479499},{"name":"千ヶ瀬第二浄水所","province":"東京都","city":"青梅市","address":"東京都青梅市千ヶ瀬町1丁目69-1","lat":35.78467678,"lon":139.27783217},{"name":"御岳山第一配水所","province":"東京都","city":"青梅市","address":"東京都青梅市御岳山170-3","lat":35.78346895,"lon":139.15124212},{"name":"新町給水所","province":"東京都","city":"青梅市","address":"東京都青梅市新町5丁目24-1","lat":35.78846047,"lon":139.30887384},{"name":"二俣尾配水所","province":"東京都","city":"青梅市","address":"東京都青梅市二俣尾5丁目107-2","lat":35.81524153,"lon":139.2066392},{"name":"城山配水所","province":"東京都","city":"青梅市","address":"東京都青梅市東青梅6丁目95-1","lat":35.79671131,"lon":139.27230447},{"name":"青梅市地域包括支援センター","province":"東京都","city":"青梅市","address":"青梅市東青梅1-11-1青梅市役所内","lat":35.788086,"lon":139.275269},{"name":"青梅市地域包括支援センターうめぞの","province":"東京都","city":"青梅市","address":"青梅市駒木町3-594-1メディケア梅の園内","lat":35.781685,"lon":139.251923},{"name":"青梅市地域包括支援センターすえひろ","province":"東京都","city":"青梅市","address":"青梅市末広町1-4-5青梅すえひろ苑内","lat":35.778828,"lon":139.312836},{"name":"青梅市消費者相談室","province":"東京都","city":"青梅市","address":"青梅市東青梅1-11-1青梅市役所3階","lat":35.788086,"lon":139.275269},{"name":"青梅市役所前第一","province":"東京都","city":"青梅市","address":"東京都青梅市東青梅1丁目11-1","lat":35.78785689,"lon":139.27583503},{"name":"青梅末広町二丁目西","province":"東京都","city":"青梅市","address":"東京都青梅市末広町2丁目2-8","lat":35.77942258,"lon":139.30691877},{"name":"千ヶ瀬二丁目","province":"東京都","city":"青梅市","address":"東京都青梅市千ヶ瀬町2丁目243","lat":35.78593481,"lon":139.27255762},{"name":"河辺小学校南","province":"東京都","city":"青梅市","address":"東京都青梅市河辺町6丁目2","lat":35.7806081,"lon":139.28894797},{"name":"河辺駅北口","province":"東京都","city":"青梅市","address":"東京都青梅市河辺町10丁目7","lat":35.78578519,"lon":139.28627025},{"name":"わかぐさ公園前","province":"東京都","city":"青梅市","address":"東京都青梅市河辺町7丁目14-2","lat":35.78147483,"lon":139.29581681},{"name":"小作駅北","province":"東京都","city":"青梅市","address":"東京都青梅市新町3丁目2","lat":35.77804486,"lon":139.30261082},{"name":"みち境","province":"東京都","city":"青梅市","address":"東京都青梅市根ヶ布2丁目722","lat":35.8065628,"lon":139.2666466},{"name":"青梅合同庁舎前","province":"東京都","city":"青梅市","address":"東京都青梅市河辺町6丁目4-1","lat":35.77999986,"lon":139.28959793},{"name":"永山公園入口","province":"東京都","city":"青梅市","address":"東京都青梅市住江町55","lat":35.78902572,"lon":139.26029501},{"name":"日向和田浄水所","province":"東京都","city":"青梅市","address":"東京都青梅市日向和田2丁目370","lat":35.78437016,"lon":139.23479499},{"name":"千ヶ瀬第二浄水所","province":"東京都","city":"青梅市","address":"東京都青梅市千ヶ瀬町1丁目69-1","lat":35.78467678,"lon":139.27783217},{"name":"御岳山第一配水所","province":"東京都","city":"青梅市","address":"東京都青梅市御岳山170-3","lat":35.78346895,"lon":139.15124212},{"name":"新町給水所","province":"東京都","city":"青梅市","address":"東京都青梅市新町5丁目24-1","lat":35.78846047,"lon":139.30887384},{"name":"二俣尾配水所","province":"東京都","city":"青梅市","address":"東京都青梅市二俣尾5丁目107-2","lat":35.81524153,"lon":139.2066392},{"name":"城山配水所","province":"東京都","city":"青梅市","address":"東京都青梅市東青梅6丁目95-1","lat":35.79671131,"lon":139.27230447},{"name":"青梅市地域包括支援センター","province":"東京都","city":"青梅市","address":"青梅市東青梅1-11-1青梅市役所内","lat":35.788086,"lon":139.275269},{"name":"青梅市地域包括支援センターうめぞの","province":"東京都","city":"青梅市","address":"青梅市駒木町3-594-1メディケア梅の園内","lat":35.781685,"lon":139.251923},{"name":"青梅市地域包括支援センターすえひろ","province":"東京都","city":"青梅市","address":"青梅市末広町1-4-5青梅すえひろ苑内","lat":35.778828,"lon":139.312836},{"name":"青梅市消費者相談室","province":"東京都","city":"青梅市","address":"青梅市東青梅1-11-1青梅市役所3階","lat":35.788086,"lon":139.275269},{"name":"青梅市役所前第一","province":"東京都","city":"青梅市","address":"東京都青梅市東青梅1丁目11-1","lat":35.78785689,"lon":139.27583503},{"name":"青梅末広町二丁目西","province":"東京都","city":"青梅市","address":"東京都青梅市末広町2丁目2-8","lat":35.77942258,"lon":139.30691877},{"name":"千ヶ瀬二丁目","province":"東京都","city":"青梅市","address":"東京都青梅市千ヶ瀬町2丁目243","lat":35.78593481,"lon":139.27255762},{"name":"河辺小学校南","province":"東京都","city":"青梅市","address":"東京都青梅市河辺町6丁目2","lat":35.7806081,"lon":139.28894797},{"name":"河辺駅北口","province":"東京都","city":"青梅市","address":"東京都青梅市河辺町10丁目7","lat":35.78578519,"lon":139.28627025},{"name":"わかぐさ公園前","province":"東京都","city":"青梅市","address":"東京都青梅市河辺町7丁目14-2","lat":35.78147483,"lon":139.29581681},{"name":"小作駅北","province":"東京都","city":"青梅市","address":"東京都青梅市新町3丁目2","lat":35.77804486,"lon":139.30261082},{"name":"みち境","province":"東京都","city":"青梅市","address":"東京都青梅市根ヶ布2丁目722","lat":35.8065628,"lon":139.2666466},{"name":"青梅合同庁舎前","province":"東京都","city":"青梅市","address":"東京都青梅市河辺町6丁目4-1","lat":35.77999986,"lon":139.28959793},{"name":"永山公園入口","province":"東京都","city":"青梅市","address":"東京都青梅市住江町55","lat":35.78902572,"lon":139.26029501},{"name":"日向和田浄水所","province":"東京都","city":"青梅市","address":"東京都青梅市日向和田2丁目370","lat":35.78437016,"lon":139.23479499},{"name":"千ヶ瀬第二浄水所","province":"東京都","city":"青梅市","address":"東京都青梅市千ヶ瀬町1丁目69-1","lat":35.78467678,"lon":139.27783217},{"name":"御岳山第一配水所","province":"東京都","city":"青梅市","address":"東京都青梅市御岳山170-3","lat":35.78346895,"lon":139.15124212},{"name":"新町給水所","province":"東京都","city":"青梅市","address":"東京都青梅市新町5丁目24-1","lat":35.78846047,"lon":139.30887384},{"name":"二俣尾配水所","province":"東京都","city":"青梅市","address":"東京都青梅市二俣尾5丁目107-2","lat":35.81524153,"lon":139.2066392},{"name":"城山配水所","province":"東京都","city":"青梅市","address":"東京都青梅市東青梅6丁目95-1","lat":35.79671131,"lon":139.27230447},{"name":"青梅市地域包括支援センター","province":"東京都","city":"青梅市","address":"青梅市東青梅1-11-1青梅市役所内","lat":35.788086,"lon":139.275269},{"name":"青梅市地域包括支援センターうめぞの","province":"東京都","city":"青梅市","address":"青梅市駒木町3-594-1メディケア梅の園内","lat":35.781685,"lon":139.251923},{"name":"青梅市地域包括支援センターすえひろ","province":"東京都","city":"青梅市","address":"青梅市末広町1-4-5青梅すえひろ苑内","lat":35.778828,"lon":139.312836},{"name":"青梅市消費者相談室","province":"東京都","city":"青梅市","address":"青梅市東青梅1-11-1青梅市役所3階","lat":35.788086,"lon":139.275269},{"name":"青梅市役所前第一","province":"東京都","city":"青梅市","address":"東京都青梅市東青梅1丁目11-1","lat":35.78785689,"lon":139.27583503},{"name":"青梅末広町二丁目西","province":"東京都","city":"青梅市","address":"東京都青梅市末広町2丁目2-8","lat":35.77942258,"lon":139.30691877},{"name":"千ヶ瀬二丁目","province":"東京都","city":"青梅市","address":"東京都青梅市千ヶ瀬町2丁目243","lat":35.78593481,"lon":139.27255762},{"name":"河辺小学校南","province":"東京都","city":"青梅市","address":"東京都青梅市河辺町6丁目2","lat":35.7806081,"lon":139.28894797},{"name":"河辺駅北口","province":"東京都","city":"青梅市","address":"東京都青梅市河辺町10丁目7","lat":35.78578519,"lon":139.28627025},{"name":"わかぐさ公園前","province":"東京都","city":"青梅市","address":"東京都青梅市河辺町7丁目14-2","lat":35.78147483,"lon":139.29581681},{"name":"小作駅北","province":"東京都","city":"青梅市","address":"東京都青梅市新町3丁目2","lat":35.77804486,"lon":139.30261082},{"name":"みち境","province":"東京都","city":"青梅市","address":"東京都青梅市根ヶ布2丁目722","lat":35.8065628,"lon":139.2666466},{"name":"青梅合同庁舎前","province":"東京都","city":"青梅市","address":"東京都青梅市河辺町6丁目4-1","lat":35.77999986,"lon":139.28959793},{"name":"永山公園入口","province":"東京都","city":"青梅市","address":"東京都青梅市住江町55","lat":35.78902572,"lon":139.26029501},{"name":"日向和田浄水所","province":"東京都","city":"青梅市","address":"東京都青梅市日向和田2丁目370","lat":35.78437016,"lon":139.23479499},{"name":"千ヶ瀬第二浄水所","province":"東京都","city":"青梅市","address":"東京都青梅市千ヶ瀬町1丁目69-1","lat":35.78467678,"lon":139.27783217},{"name":"御岳山第一配水所","province":"東京都","city":"青梅市","address":"東京都青梅市御岳山170-3","lat":35.78346895,"lon":139.15124212},{"name":"新町給水所","province":"東京都","city":"青梅市","address":"東京都青梅市新町5丁目24-1","lat":35.78846047,"lon":139.30887384},{"name":"二俣尾配水所","province":"東京都","city":"青梅市","address":"東京都青梅市二俣尾5丁目107-2","lat":35.81524153,"lon":139.2066392},{"name":"城山配水所","province":"東京都","city":"青梅市","address":"東京都青梅市東青梅6丁目95-1","lat":35.79671131,"lon":139.27230447},{"name":"青梅市地域包括支援センター","province":"東京都","city":"青梅市","address":"青梅市東青梅1-11-1青梅市役所内","lat":35.788086,"lon":139.275269},{"name":"青梅市地域包括支援センターうめぞの","province":"東京都","city":"青梅市","address":"青梅市駒木町3-594-1メディケア梅の園内","lat":35.781685,"lon":139.251923},{"name":"青梅市地域包括支援センターすえひろ","province":"東京都","city":"青梅市","address":"青梅市末広町1-4-5青梅すえひろ苑内","lat":35.778828,"lon":139.312836},{"name":"青梅市消費者相談室","province":"東京都","city":"青梅市","address":"青梅市東青梅1-11-1青梅市役所3階","lat":35.788086,"lon":139.275269},{"name":"青梅市役所前第一","province":"東京都","city":"青梅市","address":"東京都青梅市東青梅1丁目11-1","lat":35.78785689,"lon":139.27583503},{"name":"青梅末広町二丁目西","province":"東京都","city":"青梅市","address":"東京都青梅市末広町2丁目2-8","lat":35.77942258,"lon":139.30691877},{"name":"千ヶ瀬二丁目","province":"東京都","city":"青梅市","address":"東京都青梅市千ヶ瀬町2丁目243","lat":35.78593481,"lon":139.27255762},{"name":"河辺小学校南","province":"東京都","city":"青梅市","address":"東京都青梅市河辺町6丁目2","lat":35.7806081,"lon":139.28894797},{"name":"河辺駅北口","province":"東京都","city":"青梅市","address":"東京都青梅市河辺町10丁目7","lat":35.78578519,"lon":139.28627025},{"name":"わかぐさ公園前","province":"東京都","city":"青梅市","address":"東京都青梅市河辺町7丁目14-2","lat":35.78147483,"lon":139.29581681},{"name":"小作駅北","province":"東京都","city":"青梅市","address":"東京都青梅市新町3丁目2","lat":35.77804486,"lon":139.30261082},{"name":"みち境","province":"東京都","city":"青梅市","address":"東京都青梅市根ヶ布2丁目722","lat":35.8065628,"lon":139.2666466},{"name":"青梅合同庁舎前","province":"東京都","city":"青梅市","address":"東京都青梅市河辺町6丁目4-1","lat":35.77999986,"lon":139.28959793},{"name":"永山公園入口","province":"東京都","city":"青梅市","address":"東京都青梅市住江町55","lat":35.78902572,"lon":139.26029501},{"name":"日向和田浄水所","province":"東京都","city":"青梅市","address":"東京都青梅市日向和田2丁目370","lat":35.78437016,"lon":139.23479499},{"name":"千ヶ瀬第二浄水所","province":"東京都","city":"青梅市","address":"東京都青梅市千ヶ瀬町1丁目69-1","lat":35.78467678,"lon":139.27783217},{"name":"御岳山第一配水所","province":"東京都","city":"青梅市","address":"東京都青梅市御岳山170-3","lat":35.78346895,"lon":139.15124212},{"name":"新町給水所","province":"東京都","city":"青梅市","address":"東京都青梅市新町5丁目24-1","lat":35.78846047,"lon":139.30887384},{"name":"二俣尾配水所","province":"東京都","city":"青梅市","address":"東京都青梅市二俣尾5丁目107-2","lat":35.81524153,"lon":139.2066392},{"name":"城山配水所","province":"東京都","city":"青梅市","address":"東京都青梅市東青梅6丁目95-1","lat":35.79671131,"lon":139.27230447},{"name":"青梅市地域包括支援センター","province":"東京都","city":"青梅市","address":"青梅市東青梅1-11-1青梅市役所内","lat":35.788086,"lon":139.275269},{"name":"青梅市地域包括支援センターうめぞの","province":"東京都","city":"青梅市","address":"青梅市駒木町3-594-1メディケア梅の園内","lat":35.781685,"lon":139.251923},{"name":"青梅市地域包括支援センターすえひろ","province":"東京都","city":"青梅市","address":"青梅市末広町1-4-5青梅すえひろ苑内","lat":35.778828,"lon":139.312836},{"name":"青梅市消費者相談室","province":"東京都","city":"青梅市","address":"青梅市東青梅1-11-1青梅市役所3階","lat":35.788086,"lon":139.275269},{"name":"青梅市役所前第一","province":"東京都","city":"青梅市","address":"東京都青梅市東青梅1丁目11-1","lat":35.78785689,"lon":139.27583503},{"name":"青梅末広町二丁目西","province":"東京都","city":"青梅市","address":"東京都青梅市末広町2丁目2-8","lat":35.77942258,"lon":139.30691877},{"name":"千ヶ瀬二丁目","province":"東京都","city":"青梅市","address":"東京都青梅市千ヶ瀬町2丁目243","lat":35.78593481,"lon":139.27255762},{"name":"河辺小学校南","province":"東京都","city":"青梅市","address":"東京都青梅市河辺町6丁目2","lat":35.7806081,"lon":139.28894797},{"name":"河辺駅北口","province":"東京都","city":"青梅市","address":"東京都青梅市河辺町10丁目7","lat":35.78578519,"lon":139.28627025},{"name":"わかぐさ公園前","province":"東京都","city":"青梅市","address":"東京都青梅市河辺町7丁目14-2","lat":35.78147483,"lon":139.29581681},{"name":"小作駅北","province":"東京都","city":"青梅市","address":"東京都青梅市新町3丁目2","lat":35.77804486,"lon":139.30261082},{"name":"みち境","province":"東京都","city":"青梅市","address":"東京都青梅市根ヶ布2丁目722","lat":35.8065628,"lon":139.2666466},{"name":"青梅合同庁舎前","province":"東京都","city":"青梅市","address":"東京都青梅市河辺町6丁目4-1","lat":35.77999986,"lon":139.28959793},{"name":"永山公園入口","province":"東京都","city":"青梅市","address":"東京都青梅市住江町55","lat":35.78902572,"lon":139.26029501},{"name":"日向和田浄水所","province":"東京都","city":"青梅市","address":"東京都青梅市日向和田2丁目370","lat":35.78437016,"lon":139.23479499},{"name":"千ヶ瀬第二浄水所","province":"東京都","city":"青梅市","address":"東京都青梅市千ヶ瀬町1丁目69-1","lat":35.78467678,"lon":139.27783217},{"name":"御岳山第一配水所","province":"東京都","city":"青梅市","address":"東京都青梅市御岳山170-3","lat":35.78346895,"lon":139.15124212},{"name":"新町給水所","province":"東京都","city":"青梅市","address":"東京都青梅市新町5丁目24-1","lat":35.78846047,"lon":139.30887384},{"name":"二俣尾配水所","province":"東京都","city":"青梅市","address":"東京都青梅市二俣尾5丁目107-2","lat":35.81524153,"lon":139.2066392},{"name":"城山配水所","province":"東京都","city":"青梅市","address":"東京都青梅市東青梅6丁目95-1","lat":35.79671131,"lon":139.27230447},{"name":"青梅市地域包括支援センター","province":"東京都","city":"青梅市","address":"青梅市東青梅1-11-1青梅市役所内","lat":35.788086,"lon":139.275269},{"name":"青梅市地域包括支援センターうめぞの","province":"東京都","city":"青梅市","address":"青梅市駒木町3-594-1メディケア梅の園内","lat":35.781685,"lon":139.251923},{"name":"青梅市地域包括支援センターすえひろ","province":"東京都","city":"青梅市","address":"青梅市末広町1-4-5青梅すえひろ苑内","lat":35.778828,"lon":139.312836},{"name":"青梅市消費者相談室","province":"東京都","city":"青梅市","address":"青梅市東青梅1-11-1青梅市役所3階","lat":35.788086,"lon":139.275269},{"name":"青梅市役所前第一","province":"東京都","city":"青梅市","address":"東京都青梅市東青梅1丁目11-1","lat":35.78785689,"lon":139.27583503},{"name":"青梅末広町二丁目西","province":"東京都","city":"青梅市","address":"東京都青梅市末広町2丁目2-8","lat":35.77942258,"lon":139.30691877},{"name":"千ヶ瀬二丁目","province":"東京都","city":"青梅市","address":"東京都青梅市千ヶ瀬町2丁目243","lat":35.78593481,"lon":139.27255762},{"name":"河辺小学校南","province":"東京都","city":"青梅市","address":"東京都青梅市河辺町6丁目2","lat":35.7806081,"lon":139.28894797},{"name":"河辺駅北口","province":"東京都","city":"青梅市","address":"東京都青梅市河辺町10丁目7","lat":35.78578519,"lon":139.28627025},{"name":"わかぐさ公園前","province":"東京都","city":"青梅市","address":"東京都青梅市河辺町7丁目14-2","lat":35.78147483,"lon":139.29581681},{"name":"小作駅北","province":"東京都","city":"青梅市","address":"東京都青梅市新町3丁目2","lat":35.77804486,"lon":139.30261082},{"name":"みち境","province":"東京都","city":"青梅市","address":"東京都青梅市根ヶ布2丁目722","lat":35.8065628,"lon":139.2666466},{"name":"青梅合同庁舎前","province":"東京都","city":"青梅市","address":"東京都青梅市河辺町6丁目4-1","lat":35.77999986,"lon":139.28959793},{"name":"永山公園入口","province":"東京都","city":"青梅市","address":"東京都青梅市住江町55","lat":35.78902572,"lon":139.26029501},{"name":"日向和田浄水所","province":"東京都","city":"青梅市","address":"東京都青梅市日向和田2丁目370","lat":35.78437016,"lon":139.23479499},{"name":"千ヶ瀬第二浄水所","province":"東京都","city":"青梅市","address":"東京都青梅市千ヶ瀬町1丁目69-1","lat":35.78467678,"lon":139.27783217},{"name":"御岳山第一配水所","province":"東京都","city":"青梅市","address":"東京都青梅市御岳山170-3","lat":35.78346895,"lon":139.15124212},{"name":"新町給水所","province":"東京都","city":"青梅市","address":"東京都青梅市新町5丁目24-1","lat":35.78846047,"lon":139.30887384},{"name":"二俣尾配水所","province":"東京都","city":"青梅市","address":"東京都青梅市二俣尾5丁目107-2","lat":35.81524153,"lon":139.2066392},{"name":"城山配水所","province":"東京都","city":"青梅市","address":"東京都青梅市東青梅6丁目95-1","lat":35.79671131,"lon":139.27230447},{"name":"青梅市地域包括支援センター","province":"東京都","city":"青梅市","address":"青梅市東青梅1-11-1青梅市役所内","lat":35.788086,"lon":139.275269},{"name":"青梅市地域包括支援センターうめぞの","province":"東京都","city":"青梅市","address":"青梅市駒木町3-594-1メディケア梅の園内","lat":35.781685,"lon":139.251923},{"name":"青梅市地域包括支援センターすえひろ","province":"東京都","city":"青梅市","address":"青梅市末広町1-4-5青梅すえひろ苑内","lat":35.778828,"lon":139.312836},{"name":"青梅市消費者相談室","province":"東京都","city":"青梅市","address":"青梅市東青梅1-11-1青梅市役所3階","lat":35.788086,"lon":139.275269},{"name":"青梅市役所前第一","province":"東京都","city":"青梅市","address":"東京都青梅市東青梅1丁目11-1","lat":35.78785689,"lon":139.27583503},{"name":"青梅末広町二丁目西","province":"東京都","city":"青梅市","address":"東京都青梅市末広町2丁目2-8","lat":35.77942258,"lon":139.30691877},{"name":"千ヶ瀬二丁目","province":"東京都","city":"青梅市","address":"東京都青梅市千ヶ瀬町2丁目243","lat":35.78593481,"lon":139.27255762},{"name":"河辺小学校南","province":"東京都","city":"青梅市","address":"東京都青梅市河辺町6丁目2","lat":35.7806081,"lon":139.28894797},{"name":"河辺駅北口","province":"東京都","city":"青梅市","address":"東京都青梅市河辺町10丁目7","lat":35.78578519,"lon":139.28627025},{"name":"わかぐさ公園前","province":"東京都","city":"青梅市","address":"東京都青梅市河辺町7丁目14-2","lat":35.78147483,"lon":139.29581681},{"name":"小作駅北","province":"東京都","city":"青梅市","address":"東京都青梅市新町3丁目2","lat":35.77804486,"lon":139.30261082},{"name":"みち境","province":"東京都","city":"青梅市","address":"東京都青梅市根ヶ布2丁目722","lat":35.8065628,"lon":139.2666466},{"name":"青梅合同庁舎前","province":"東京都","city":"青梅市","address":"東京都青梅市河辺町6丁目4-1","lat":35.77999986,"lon":139.28959793},{"name":"永山公園入口","province":"東京都","city":"青梅市","address":"東京都青梅市住江町55","lat":35.78902572,"lon":139.26029501},{"name":"日向和田浄水所","province":"東京都","city":"青梅市","address":"東京都青梅市日向和田2丁目370","lat":35.78437016,"lon":139.23479499},{"name":"千ヶ瀬第二浄水所","province":"東京都","city":"青梅市","address":"東京都青梅市千ヶ瀬町1丁目69-1","lat":35.78467678,"lon":139.27783217},{"name":"御岳山第一配水所","province":"東京都","city":"青梅市","address":"東京都青梅市御岳山170-3","lat":35.78346895,"lon":139.15124212},{"name":"新町給水所","province":"東京都","city":"青梅市","address":"東京都青梅市新町5丁目24-1","lat":35.78846047,"lon":139.30887384},{"name":"二俣尾配水所","province":"東京都","city":"青梅市","address":"東京都青梅市二俣尾5丁目107-2","lat":35.81524153,"lon":139.2066392},{"name":"城山配水所","province":"東京都","city":"青梅市","address":"東京都青梅市東青梅6丁目95-1","lat":35.79671131,"lon":139.27230447},{"name":"青梅市地域包括支援センター","province":"東京都","city":"青梅市","address":"青梅市東青梅1-11-1青梅市役所内","lat":35.788086,"lon":139.275269},{"name":"青梅市地域包括支援センターうめぞの","province":"東京都","city":"青梅市","address":"青梅市駒木町3-594-1メディケア梅の園内","lat":35.781685,"lon":139.251923},{"name":"青梅市地域包括支援センターすえひろ","province":"東京都","city":"青梅市","address":"青梅市末広町1-4-5青梅すえひろ苑内","lat":35.778828,"lon":139.312836},{"name":"青梅市消費者相談室","province":"東京都","city":"青梅市","address":"青梅市東青梅1-11-1青梅市役所3階","lat":35.788086,"lon":139.275269},{"name":"青梅市役所前第一","province":"東京都","city":"青梅市","address":"東京都青梅市東青梅1丁目11-1","lat":35.78785689,"lon":139.27583503},{"name":"青梅末広町二丁目西","province":"東京都","city":"青梅市","address":"東京都青梅市末広町2丁目2-8","lat":35.77942258,"lon":139.30691877},{"name":"千ヶ瀬二丁目","province":"東京都","city":"青梅市","address":"東京都青梅市千ヶ瀬町2丁目243","lat":35.78593481,"lon":139.27255762},{"name":"河辺小学校南","province":"東京都","city":"青梅市","address":"東京都青梅市河辺町6丁目2","lat":35.7806081,"lon":139.28894797},{"name":"河辺駅北口","province":"東京都","city":"青梅市","address":"東京都青梅市河辺町10丁目7","lat":35.78578519,"lon":139.28627025},{"name":"わかぐさ公園前","province":"東京都","city":"青梅市","address":"東京都青梅市河辺町7丁目14-2","lat":35.78147483,"lon":139.29581681},{"name":"小作駅北","province":"東京都","city":"青梅市","address":"東京都青梅市新町3丁目2","lat":35.77804486,"lon":139.30261082},{"name":"みち境","province":"東京都","city":"青梅市","address":"東京都青梅市根ヶ布2丁目722","lat":35.8065628,"lon":139.2666466},{"name":"青梅合同庁舎前","province":"東京都","city":"青梅市","address":"東京都青梅市河辺町6丁目4-1","lat":35.77999986,"lon":139.28959793},{"name":"永山公園入口","province":"東京都","city":"青梅市","address":"東京都青梅市住江町55","lat":35.78902572,"lon":139.26029501},{"name":"日向和田浄水所","province":"東京都","city":"青梅市","address":"東京都青梅市日向和田2丁目370","lat":35.78437016,"lon":139.23479499},{"name":"千ヶ瀬第二浄水所","province":"東京都","city":"青梅市","address":"東京都青梅市千ヶ瀬町1丁目69-1","lat":35.78467678,"lon":139.27783217},{"name":"御岳山第一配水所","province":"東京都","city":"青梅市","address":"東京都青梅市御岳山170-3","lat":35.78346895,"lon":139.15124212},{"name":"新町給水所","province":"東京都","city":"青梅市","address":"東京都青梅市新町5丁目24-1","lat":35.78846047,"lon":139.30887384},{"name":"二俣尾配水所","province":"東京都","city":"青梅市","address":"東京都青梅市二俣尾5丁目107-2","lat":35.81524153,"lon":139.2066392},{"name":"城山配水所","province":"東京都","city":"青梅市","address":"東京都青梅市東青梅6丁目95-1","lat":35.79671131,"lon":139.27230447},{"name":"青梅市地域包括支援センター","province":"東京都","city":"青梅市","address":"青梅市東青梅1-11-1青梅市役所内","lat":35.788086,"lon":139.275269},{"name":"青梅市地域包括支援センターうめぞの","province":"東京都","city":"青梅市","address":"青梅市駒木町3-594-1メディケア梅の園内","lat":35.781685,"lon":139.251923},{"name":"青梅市地域包括支援センターすえひろ","province":"東京都","city":"青梅市","address":"青梅市末広町1-4-5青梅すえひろ苑内","lat":35.778828,"lon":139.312836},{"name":"青梅市消費者相談室","province":"東京都","city":"青梅市","address":"青梅市東青梅1-11-1青梅市役所3階","lat":35.788086,"lon":139.275269},{"name":"青梅市役所前第一","province":"東京都","city":"青梅市","address":"東京都青梅市東青梅1丁目11-1","lat":35.78785689,"lon":139.27583503},{"name":"青梅末広町二丁目西","province":"東京都","city":"青梅市","address":"東京都青梅市末広町2丁目2-8","lat":35.77942258,"lon":139.30691877},{"name":"千ヶ瀬二丁目","province":"東京都","city":"青梅市","address":"東京都青梅市千ヶ瀬町2丁目243","lat":35.78593481,"lon":139.27255762},{"name":"河辺小学校南","province":"東京都","city":"青梅市","address":"東京都青梅市河辺町6丁目2","lat":35.7806081,"lon":139.28894797},{"name":"河辺駅北口","province":"東京都","city":"青梅市","address":"東京都青梅市河辺町10丁目7","lat":35.78578519,"lon":139.28627025},{"name":"わかぐさ公園前","province":"東京都","city":"青梅市","address":"東京都青梅市河辺町7丁目14-2","lat":35.78147483,"lon":139.29581681},{"name":"小作駅北","province":"東京都","city":"青梅市","address":"東京都青梅市新町3丁目2","lat":35.77804486,"lon":139.30261082},{"name":"みち境","province":"東京都","city":"青梅市","address":"東京都青梅市根ヶ布2丁目722","lat":35.8065628,"lon":139.2666466},{"name":"青梅合同庁舎前","province":"東京都","city":"青梅市","address":"東京都青梅市河辺町6丁目4-1","lat":35.77999986,"lon":139.28959793},{"name":"永山公園入口","province":"東京都","city":"青梅市","address":"東京都青梅市住江町55","lat":35.78902572,"lon":139.26029501},{"name":"日向和田浄水所","province":"東京都","city":"青梅市","address":"東京都青梅市日向和田2丁目370","lat":35.78437016,"lon":139.23479499},{"name":"千ヶ瀬第二浄水所","province":"東京都","city":"青梅市","address":"東京都青梅市千ヶ瀬町1丁目69-1","lat":35.78467678,"lon":139.27783217},{"name":"御岳山第一配水所","province":"東京都","city":"青梅市","address":"東京都青梅市御岳山170-3","lat":35.78346895,"lon":139.15124212},{"name":"新町給水所","province":"東京都","city":"青梅市","address":"東京都青梅市新町5丁目24-1","lat":35.78846047,"lon":139.30887384},{"name":"二俣尾配水所","province":"東京都","city":"青梅市","address":"東京都青梅市二俣尾5丁目107-2","lat":35.81524153,"lon":139.2066392},{"name":"城山配水所","province":"東京都","city":"青梅市","address":"東京都青梅市東青梅6丁目95-1","lat":35.79671131,"lon":139.27230447},{"name":"青梅市地域包括支援センター","province":"東京都","city":"青梅市","address":"青梅市東青梅1-11-1青梅市役所内","lat":35.788086,"lon":139.275269},{"name":"青梅市地域包括支援センターうめぞの","province":"東京都","city":"青梅市","address":"青梅市駒木町3-594-1メディケア梅の園内","lat":35.781685,"lon":139.251923},{"name":"青梅市地域包括支援センターすえひろ","province":"東京都","city":"青梅市","address":"青梅市末広町1-4-5青梅すえひろ苑内","lat":35.778828,"lon":139.312836},{"name":"青梅市消費者相談室","province":"東京都","city":"青梅市","address":"青梅市東青梅1-11-1青梅市役所3階","lat":35.788086,"lon":139.275269},{"name":"青梅市役所前第一","province":"東京都","city":"青梅市","address":"東京都青梅市東青梅1丁目11-1","lat":35.78785689,"lon":139.27583503},{"name":"青梅末広町二丁目西","province":"東京都","city":"青梅市","address":"東京都青梅市末広町2丁目2-8","lat":35.77942258,"lon":139.30691877},{"name":"千ヶ瀬二丁目","province":"東京都","city":"青梅市","address":"東京都青梅市千ヶ瀬町2丁目243","lat":35.78593481,"lon":139.27255762},{"name":"河辺小学校南","province":"東京都","city":"青梅市","address":"東京都青梅市河辺町6丁目2","lat":35.7806081,"lon":139.28894797},{"name":"河辺駅北口","province":"東京都","city":"青梅市","address":"東京都青梅市河辺町10丁目7","lat":35.78578519,"lon":139.28627025},{"name":"わかぐさ公園前","province":"東京都","city":"青梅市","address":"東京都青梅市河辺町7丁目14-2","lat":35.78147483,"lon":139.29581681},{"name":"小作駅北","province":"東京都","city":"青梅市","address":"東京都青梅市新町3丁目2","lat":35.77804486,"lon":139.30261082},{"name":"みち境","province":"東京都","city":"青梅市","address":"東京都青梅市根ヶ布2丁目722","lat":35.8065628,"lon":139.2666466},{"name":"青梅合同庁舎前","province":"東京都","city":"青梅市","address":"東京都青梅市河辺町6丁目4-1","lat":35.77999986,"lon":139.28959793},{"name":"永山公園入口","province":"東京都","city":"青梅市","address":"東京都青梅市住江町55","lat":35.78902572,"lon":139.26029501},{"name":"日向和田浄水所","province":"東京都","city":"青梅市","address":"東京都青梅市日向和田2丁目370","lat":35.78437016,"lon":139.23479499},{"name":"千ヶ瀬第二浄水所","province":"東京都","city":"青梅市","address":"東京都青梅市千ヶ瀬町1丁目69-1","lat":35.78467678,"lon":139.27783217},{"name":"御岳山第一配水所","province":"東京都","city":"青梅市","address":"東京都青梅市御岳山170-3","lat":35.78346895,"lon":139.15124212},{"name":"新町給水所","province":"東京都","city":"青梅市","address":"東京都青梅市新町5丁目24-1","lat":35.78846047,"lon":139.30887384},{"name":"二俣尾配水所","province":"東京都","city":"青梅市","address":"東京都青梅市二俣尾5丁目107-2","lat":35.81524153,"lon":139.2066392},{"name":"城山配水所","province":"東京都","city":"青梅市","address":"東京都青梅市東青梅6丁目95-1","lat":35.79671131,"lon":139.27230447},{"name":"青梅市地域包括支援センター","province":"東京都","city":"青梅市","address":"青梅市東青梅1-11-1青梅市役所内","lat":35.788086,"lon":139.275269},{"name":"青梅市地域包括支援センターうめぞの","province":"東京都","city":"青梅市","address":"青梅市駒木町3-594-1メディケア梅の園内","lat":35.781685,"lon":139.251923},{"name":"青梅市地域包括支援センターすえひろ","province":"東京都","city":"青梅市","address":"青梅市末広町1-4-5青梅すえひろ苑内","lat":35.778828,"lon":139.312836},{"name":"青梅市消費者相談室","province":"東京都","city":"青梅市","address":"青梅市東青梅1-11-1青梅市役所3階","lat":35.788086,"lon":139.275269},{"name":"青梅市役所前第一","province":"東京都","city":"青梅市","address":"東京都青梅市東青梅1丁目11-1","lat":35.78785689,"lon":139.27583503},{"name":"青梅末広町二丁目西","province":"東京都","city":"青梅市","address":"東京都青梅市末広町2丁目2-8","lat":35.77942258,"lon":139.30691877},{"name":"千ヶ瀬二丁目","province":"東京都","city":"青梅市","address":"東京都青梅市千ヶ瀬町2丁目243","lat":35.78593481,"lon":139.27255762},{"name":"河辺小学校南","province":"東京都","city":"青梅市","address":"東京都青梅市河辺町6丁目2","lat":35.7806081,"lon":139.28894797},{"name":"河辺駅北口","province":"東京都","city":"青梅市","address":"東京都青梅市河辺町10丁目7","lat":35.78578519,"lon":139.28627025},{"name":"わかぐさ公園前","province":"東京都","city":"青梅市","address":"東京都青梅市河辺町7丁目14-2","lat":35.78147483,"lon":139.29581681},{"name":"小作駅北","province":"東京都","city":"青梅市","address":"東京都青梅市新町3丁目2","lat":35.77804486,"lon":139.30261082},{"name":"みち境","province":"東京都","city":"青梅市","address":"東京都青梅市根ヶ布2丁目722","lat":35.8065628,"lon":139.2666466},{"name":"青梅合同庁舎前","province":"東京都","city":"青梅市","address":"東京都青梅市河辺町6丁目4-1","lat":35.77999986,"lon":139.28959793},{"name":"永山公園入口","province":"東京都","city":"青梅市","address":"東京都青梅市住江町55","lat":35.78902572,"lon":139.26029501},{"name":"日向和田浄水所","province":"東京都","city":"青梅市","address":"東京都青梅市日向和田2丁目370","lat":35.78437016,"lon":139.23479499},{"name":"千ヶ瀬第二浄水所","province":"東京都","city":"青梅市","address":"東京都青梅市千ヶ瀬町1丁目69-1","lat":35.78467678,"lon":139.27783217},{"name":"御岳山第一配水所","province":"東京都","city":"青梅市","address":"東京都青梅市御岳山170-3","lat":35.78346895,"lon":139.15124212},{"name":"新町給水所","province":"東京都","city":"青梅市","address":"東京都青梅市新町5丁目24-1","lat":35.78846047,"lon":139.30887384},{"name":"二俣尾配水所","province":"東京都","city":"青梅市","address":"東京都青梅市二俣尾5丁目107-2","lat":35.81524153,"lon":139.2066392},{"name":"城山配水所","province":"東京都","city":"青梅市","address":"東京都青梅市東青梅6丁目95-1","lat":35.79671131,"lon":139.27230447},{"name":"青梅市地域包括支援センター","province":"東京都","city":"青梅市","address":"青梅市東青梅1-11-1青梅市役所内","lat":35.788086,"lon":139.275269},{"name":"青梅市地域包括支援センターうめぞの","province":"東京都","city":"青梅市","address":"青梅市駒木町3-594-1メディケア梅の園内","lat":35.781685,"lon":139.251923},{"name":"青梅市地域包括支援センターすえひろ","province":"東京都","city":"青梅市","address":"青梅市末広町1-4-5青梅すえひろ苑内","lat":35.778828,"lon":139.312836},{"name":"青梅市消費者相談室","province":"東京都","city":"青梅市","address":"青梅市東青梅1-11-1青梅市役所3階","lat":35.788086,"lon":139.275269},{"name":"青梅市役所前第一","province":"東京都","city":"青梅市","address":"東京都青梅市東青梅1丁目11-1","lat":35.78785689,"lon":139.27583503},{"name":"青梅末広町二丁目西","province":"東京都","city":"青梅市","address":"東京都青梅市末広町2丁目2-8","lat":35.77942258,"lon":139.30691877},{"name":"千ヶ瀬二丁目","province":"東京都","city":"青梅市","address":"東京都青梅市千ヶ瀬町2丁目243","lat":35.78593481,"lon":139.27255762},{"name":"河辺小学校南","province":"東京都","city":"青梅市","address":"東京都青梅市河辺町6丁目2","lat":35.7806081,"lon":139.28894797},{"name":"河辺駅北口","province":"東京都","city":"青梅市","address":"東京都青梅市河辺町10丁目7","lat":35.78578519,"lon":139.28627025},{"name":"わかぐさ公園前","province":"東京都","city":"青梅市","address":"東京都青梅市河辺町7丁目14-2","lat":35.78147483,"lon":139.29581681},{"name":"小作駅北","province":"東京都","city":"青梅市","address":"東京都青梅市新町3丁目2","lat":35.77804486,"lon":139.30261082},{"name":"みち境","province":"東京都","city":"青梅市","address":"東京都青梅市根ヶ布2丁目722","lat":35.8065628,"lon":139.2666466},{"name":"青梅合同庁舎前","province":"東京都","city":"青梅市","address":"東京都青梅市河辺町6丁目4-1","lat":35.77999986,"lon":139.28959793},{"name":"永山公園入口","province":"東京都","city":"青梅市","address":"東京都青梅市住江町55","lat":35.78902572,"lon":139.26029501},{"name":"日向和田浄水所","province":"東京都","city":"青梅市","address":"東京都青梅市日向和田2丁目370","lat":35.78437016,"lon":139.23479499},{"name":"千ヶ瀬第二浄水所","province":"東京都","city":"青梅市","address":"東京都青梅市千ヶ瀬町1丁目69-1","lat":35.78467678,"lon":139.27783217},{"name":"御岳山第一配水所","province":"東京都","city":"青梅市","address":"東京都青梅市御岳山170-3","lat":35.78346895,"lon":139.15124212},{"name":"新町給水所","province":"東京都","city":"青梅市","address":"東京都青梅市新町5丁目24-1","lat":35.78846047,"lon":139.30887384},{"name":"二俣尾配水所","province":"東京都","city":"青梅市","address":"東京都青梅市二俣尾5丁目107-2","lat":35.81524153,"lon":139.2066392},{"name":"城山配水所","province":"東京都","city":"青梅市","address":"東京都青梅市東青梅6丁目95-1","lat":35.79671131,"lon":139.27230447},{"name":"青梅市地域包括支援センター","province":"東京都","city":"青梅市","address":"青梅市東青梅1-11-1青梅市役所内","lat":35.788086,"lon":139.275269},{"name":"青梅市地域包括支援センターうめぞの","province":"東京都","city":"青梅市","address":"青梅市駒木町3-594-1メディケア梅の園内","lat":35.781685,"lon":139.251923},{"name":"青梅市地域包括支援センターすえひろ","province":"東京都","city":"青梅市","address":"青梅市末広町1-4-5青梅すえひろ苑内","lat":35.778828,"lon":139.312836},{"name":"青梅市消費者相談室","province":"東京都","city":"青梅市","address":"青梅市東青梅1-11-1青梅市役所3階","lat":35.788086,"lon":139.275269},{"name":"青梅市役所前第一","province":"東京都","city":"青梅市","address":"東京都青梅市東青梅1丁目11-1","lat":35.78785689,"lon":139.27583503},{"name":"青梅末広町二丁目西","province":"東京都","city":"青梅市","address":"東京都青梅市末広町2丁目2-8","lat":35.77942258,"lon":139.30691877},{"name":"千ヶ瀬二丁目","province":"東京都","city":"青梅市","address":"東京都青梅市千ヶ瀬町2丁目243","lat":35.78593481,"lon":139.27255762},{"name":"河辺小学校南","province":"東京都","city":"青梅市","address":"東京都青梅市河辺町6丁目2","lat":35.7806081,"lon":139.28894797},{"name":"河辺駅北口","province":"東京都","city":"青梅市","address":"東京都青梅市河辺町10丁目7","lat":35.78578519,"lon":139.28627025},{"name":"わかぐさ公園前","province":"東京都","city":"青梅市","address":"東京都青梅市河辺町7丁目14-2","lat":35.78147483,"lon":139.29581681},{"name":"小作駅北","province":"東京都","city":"青梅市","address":"東京都青梅市新町3丁目2","lat":35.77804486,"lon":139.30261082},{"name":"みち境","province":"東京都","city":"青梅市","address":"東京都青梅市根ヶ布2丁目722","lat":35.8065628,"lon":139.2666466},{"name":"青梅合同庁舎前","province":"東京都","city":"青梅市","address":"東京都青梅市河辺町6丁目4-1","lat":35.77999986,"lon":139.28959793},{"name":"永山公園入口","province":"東京都","city":"青梅市","address":"東京都青梅市住江町55","lat":35.78902572,"lon":139.26029501},{"name":"日向和田浄水所","province":"東京都","city":"青梅市","address":"東京都青梅市日向和田2丁目370","lat":35.78437016,"lon":139.23479499},{"name":"千ヶ瀬第二浄水所","province":"東京都","city":"青梅市","address":"東京都青梅市千ヶ瀬町1丁目69-1","lat":35.78467678,"lon":139.27783217},{"name":"御岳山第一配水所","province":"東京都","city":"青梅市","address":"東京都青梅市御岳山170-3","lat":35.78346895,"lon":139.15124212},{"name":"新町給水所","province":"東京都","city":"青梅市","address":"東京都青梅市新町5丁目24-1","lat":35.78846047,"lon":139.30887384},{"name":"二俣尾配水所","province":"東京都","city":"青梅市","address":"東京都青梅市二俣尾5丁目107-2","lat":35.81524153,"lon":139.2066392},{"name":"城山配水所","province":"東京都","city":"青梅市","address":"東京都青梅市東青梅6丁目95-1","lat":35.79671131,"lon":139.27230447},{"name":"青梅市地域包括支援センター","province":"東京都","city":"青梅市","address":"青梅市東青梅1-11-1青梅市役所内","lat":35.788086,"lon":139.275269},{"name":"青梅市地域包括支援センターうめぞの","province":"東京都","city":"青梅市","address":"青梅市駒木町3-594-1メディケア梅の園内","lat":35.781685,"lon":139.251923},{"name":"青梅市地域包括支援センターすえひろ","province":"東京都","city":"青梅市","address":"青梅市末広町1-4-5青梅すえひろ苑内","lat":35.778828,"lon":139.312836},{"name":"青梅市消費者相談室","province":"東京都","city":"青梅市","address":"青梅市東青梅1-11-1青梅市役所3階","lat":35.788086,"lon":139.275269},{"name":"青梅市役所前第一","province":"東京都","city":"青梅市","address":"東京都青梅市東青梅1丁目11-1","lat":35.78785689,"lon":139.27583503},{"name":"青梅末広町二丁目西","province":"東京都","city":"青梅市","address":"東京都青梅市末広町2丁目2-8","lat":35.77942258,"lon":139.30691877},{"name":"千ヶ瀬二丁目","province":"東京都","city":"青梅市","address":"東京都青梅市千ヶ瀬町2丁目243","lat":35.78593481,"lon":139.27255762},{"name":"河辺小学校南","province":"東京都","city":"青梅市","address":"東京都青梅市河辺町6丁目2","lat":35.7806081,"lon":139.28894797},{"name":"河辺駅北口","province":"東京都","city":"青梅市","address":"東京都青梅市河辺町10丁目7","lat":35.78578519,"lon":139.28627025},{"name":"わかぐさ公園前","province":"東京都","city":"青梅市","address":"東京都青梅市河辺町7丁目14-2","lat":35.78147483,"lon":139.29581681},{"name":"小作駅北","province":"東京都","city":"青梅市","address":"東京都青梅市新町3丁目2","lat":35.77804486,"lon":139.30261082},{"name":"みち境","province":"東京都","city":"青梅市","address":"東京都青梅市根ヶ布2丁目722","lat":35.8065628,"lon":139.2666466},{"name":"青梅合同庁舎前","province":"東京都","city":"青梅市","address":"東京都青梅市河辺町6丁目4-1","lat":35.77999986,"lon":139.28959793},{"name":"永山公園入口","province":"東京都","city":"青梅市","address":"東京都青梅市住江町55","lat":35.78902572,"lon":139.26029501},{"name":"日向和田浄水所","province":"東京都","city":"青梅市","address":"東京都青梅市日向和田2丁目370","lat":35.78437016,"lon":139.23479499},{"name":"千ヶ瀬第二浄水所","province":"東京都","city":"青梅市","address":"東京都青梅市千ヶ瀬町1丁目69-1","lat":35.78467678,"lon":139.27783217},{"name":"御岳山第一配水所","province":"東京都","city":"青梅市","address":"東京都青梅市御岳山170-3","lat":35.78346895,"lon":139.15124212},{"name":"新町給水所","province":"東京都","city":"青梅市","address":"東京都青梅市新町5丁目24-1","lat":35.78846047,"lon":139.30887384},{"name":"二俣尾配水所","province":"東京都","city":"青梅市","address":"東京都青梅市二俣尾5丁目107-2","lat":35.81524153,"lon":139.2066392},{"name":"城山配水所","province":"東京都","city":"青梅市","address":"東京都青梅市東青梅6丁目95-1","lat":35.79671131,"lon":139.27230447},{"name":"青梅市地域包括支援センター","province":"東京都","city":"青梅市","address":"青梅市東青梅1-11-1青梅市役所内","lat":35.788086,"lon":139.275269},{"name":"青梅市地域包括支援センターうめぞの","province":"東京都","city":"青梅市","address":"青梅市駒木町3-594-1メディケア梅の園内","lat":35.781685,"lon":139.251923},{"name":"青梅市地域包括支援センターすえひろ","province":"東京都","city":"青梅市","address":"青梅市末広町1-4-5青梅すえひろ苑内","lat":35.778828,"lon":139.312836},{"name":"青梅市消費者相談室","province":"東京都","city":"青梅市","address":"青梅市東青梅1-11-1青梅市役所3階","lat":35.788086,"lon":139.275269},{"name":"青梅市役所前第一","province":"東京都","city":"青梅市","address":"東京都青梅市東青梅1丁目11-1","lat":35.78785689,"lon":139.27583503},{"name":"青梅末広町二丁目西","province":"東京都","city":"青梅市","address":"東京都青梅市末広町2丁目2-8","lat":35.77942258,"lon":139.30691877},{"name":"千ヶ瀬二丁目","province":"東京都","city":"青梅市","address":"東京都青梅市千ヶ瀬町2丁目243","lat":35.78593481,"lon":139.27255762},{"name":"河辺小学校南","province":"東京都","city":"青梅市","address":"東京都青梅市河辺町6丁目2","lat":35.7806081,"lon":139.28894797},{"name":"河辺駅北口","province":"東京都","city":"青梅市","address":"東京都青梅市河辺町10丁目7","lat":35.78578519,"lon":139.28627025},{"name":"わかぐさ公園前","province":"東京都","city":"青梅市","address":"東京都青梅市河辺町7丁目14-2","lat":35.78147483,"lon":139.29581681},{"name":"小作駅北","province":"東京都","city":"青梅市","address":"東京都青梅市新町3丁目2","lat":35.77804486,"lon":139.30261082},{"name":"みち境","province":"東京都","city":"青梅市","address":"東京都青梅市根ヶ布2丁目722","lat":35.8065628,"lon":139.2666466},{"name":"青梅合同庁舎前","province":"東京都","city":"青梅市","address":"東京都青梅市河辺町6丁目4-1","lat":35.77999986,"lon":139.28959793},{"name":"永山公園入口","province":"東京都","city":"青梅市","address":"東京都青梅市住江町55","lat":35.78902572,"lon":139.26029501},{"name":"日向和田浄水所","province":"東京都","city":"青梅市","address":"東京都青梅市日向和田2丁目370","lat":35.78437016,"lon":139.23479499},{"name":"千ヶ瀬第二浄水所","province":"東京都","city":"青梅市","address":"東京都青梅市千ヶ瀬町1丁目69-1","lat":35.78467678,"lon":139.27783217},{"name":"御岳山第一配水所","province":"東京都","city":"青梅市","address":"東京都青梅市御岳山170-3","lat":35.78346895,"lon":139.15124212},{"name":"新町給水所","province":"東京都","city":"青梅市","address":"東京都青梅市新町5丁目24-1","lat":35.78846047,"lon":139.30887384},{"name":"二俣尾配水所","province":"東京都","city":"青梅市","address":"東京都青梅市二俣尾5丁目107-2","lat":35.81524153,"lon":139.2066392},{"name":"城山配水所","province":"東京都","city":"青梅市","address":"東京都青梅市東青梅6丁目95-1","lat":35.79671131,"lon":139.27230447},{"name":"青梅市地域包括支援センター","province":"東京都","city":"青梅市","address":"青梅市東青梅1-11-1青梅市役所内","lat":35.788086,"lon":139.275269},{"name":"青梅市地域包括支援センターうめぞの","province":"東京都","city":"青梅市","address":"青梅市駒木町3-594-1メディケア梅の園内","lat":35.781685,"lon":139.251923},{"name":"青梅市地域包括支援センターすえひろ","province":"東京都","city":"青梅市","address":"青梅市末広町1-4-5青梅すえひろ苑内","lat":35.778828,"lon":139.312836},{"name":"青梅市消費者相談室","province":"東京都","city":"青梅市","address":"青梅市東青梅1-11-1青梅市役所3階","lat":35.788086,"lon":139.275269},{"name":"青梅市役所前第一","province":"東京都","city":"青梅市","address":"東京都青梅市東青梅1丁目11-1","lat":35.78785689,"lon":139.27583503},{"name":"青梅末広町二丁目西","province":"東京都","city":"青梅市","address":"東京都青梅市末広町2丁目2-8","lat":35.77942258,"lon":139.30691877},{"name":"千ヶ瀬二丁目","province":"東京都","city":"青梅市","address":"東京都青梅市千ヶ瀬町2丁目243","lat":35.78593481,"lon":139.27255762},{"name":"河辺小学校南","province":"東京都","city":"青梅市","address":"東京都青梅市河辺町6丁目2","lat":35.7806081,"lon":139.28894797},{"name":"河辺駅北口","province":"東京都","city":"青梅市","address":"東京都青梅市河辺町10丁目7","lat":35.78578519,"lon":139.28627025},{"name":"わかぐさ公園前","province":"東京都","city":"青梅市","address":"東京都青梅市河辺町7丁目14-2","lat":35.78147483,"lon":139.29581681},{"name":"小作駅北","province":"東京都","city":"青梅市","address":"東京都青梅市新町3丁目2","lat":35.77804486,"lon":139.30261082},{"name":"みち境","province":"東京都","city":"青梅市","address":"東京都青梅市根ヶ布2丁目722","lat":35.8065628,"lon":139.2666466},{"name":"青梅合同庁舎前","province":"東京都","city":"青梅市","address":"東京都青梅市河辺町6丁目4-1","lat":35.77999986,"lon":139.28959793},{"name":"永山公園入口","province":"東京都","city":"青梅市","address":"東京都青梅市住江町55","lat":35.78902572,"lon":139.26029501},{"name":"日向和田浄水所","province":"東京都","city":"青梅市","address":"東京都青梅市日向和田2丁目370","lat":35.78437016,"lon":139.23479499},{"name":"千ヶ瀬第二浄水所","province":"東京都","city":"青梅市","address":"東京都青梅市千ヶ瀬町1丁目69-1","lat":35.78467678,"lon":139.27783217},{"name":"御岳山第一配水所","province":"東京都","city":"青梅市","address":"東京都青梅市御岳山170-3","lat":35.78346895,"lon":139.15124212},{"name":"新町給水所","province":"東京都","city":"青梅市","address":"東京都青梅市新町5丁目24-1","lat":35.78846047,"lon":139.30887384},{"name":"二俣尾配水所","province":"東京都","city":"青梅市","address":"東京都青梅市二俣尾5丁目107-2","lat":35.81524153,"lon":139.2066392},{"name":"城山配水所","province":"東京都","city":"青梅市","address":"東京都青梅市東青梅6丁目95-1","lat":35.79671131,"lon":139.27230447},{"name":"青梅市地域包括支援センター","province":"東京都","city":"青梅市","address":"青梅市東青梅1-11-1青梅市役所内","lat":35.788086,"lon":139.275269},{"name":"青梅市地域包括支援センターうめぞの","province":"東京都","city":"青梅市","address":"青梅市駒木町3-594-1メディケア梅の園内","lat":35.781685,"lon":139.251923},{"name":"青梅市地域包括支援センターすえひろ","province":"東京都","city":"青梅市","address":"青梅市末広町1-4-5青梅すえひろ苑内","lat":35.778828,"lon":139.312836},{"name":"青梅市消費者相談室","province":"東京都","city":"青梅市","address":"青梅市東青梅1-11-1青梅市役所3階","lat":35.788086,"lon":139.275269},{"name":"青梅市役所前第一","province":"東京都","city":"青梅市","address":"東京都青梅市東青梅1丁目11-1","lat":35.78785689,"lon":139.27583503},{"name":"青梅末広町二丁目西","province":"東京都","city":"青梅市","address":"東京都青梅市末広町2丁目2-8","lat":35.77942258,"lon":139.30691877},{"name":"千ヶ瀬二丁目","province":"東京都","city":"青梅市","address":"東京都青梅市千ヶ瀬町2丁目243","lat":35.78593481,"lon":139.27255762},{"name":"河辺小学校南","province":"東京都","city":"青梅市","address":"東京都青梅市河辺町6丁目2","lat":35.7806081,"lon":139.28894797},{"name":"河辺駅北口","province":"東京都","city":"青梅市","address":"東京都青梅市河辺町10丁目7","lat":35.78578519,"lon":139.28627025},{"name":"わかぐさ公園前","province":"東京都","city":"青梅市","address":"東京都青梅市河辺町7丁目14-2","lat":35.78147483,"lon":139.29581681},{"name":"小作駅北","province":"東京都","city":"青梅市","address":"東京都青梅市新町3丁目2","lat":35.77804486,"lon":139.30261082},{"name":"みち境","province":"東京都","city":"青梅市","address":"東京都青梅市根ヶ布2丁目722","lat":35.8065628,"lon":139.2666466},{"name":"青梅合同庁舎前","province":"東京都","city":"青梅市","address":"東京都青梅市河辺町6丁目4-1","lat":35.77999986,"lon":139.28959793},{"name":"永山公園入口","province":"東京都","city":"青梅市","address":"東京都青梅市住江町55","lat":35.78902572,"lon":139.26029501},{"name":"日向和田浄水所","province":"東京都","city":"青梅市","address":"東京都青梅市日向和田2丁目370","lat":35.78437016,"lon":139.23479499},{"name":"千ヶ瀬第二浄水所","province":"東京都","city":"青梅市","address":"東京都青梅市千ヶ瀬町1丁目69-1","lat":35.78467678,"lon":139.27783217},{"name":"御岳山第一配水所","province":"東京都","city":"青梅市","address":"東京都青梅市御岳山170-3","lat":35.78346895,"lon":139.15124212},{"name":"新町給水所","province":"東京都","city":"青梅市","address":"東京都青梅市新町5丁目24-1","lat":35.78846047,"lon":139.30887384},{"name":"二俣尾配水所","province":"東京都","city":"青梅市","address":"東京都青梅市二俣尾5丁目107-2","lat":35.81524153,"lon":139.2066392},{"name":"城山配水所","province":"東京都","city":"青梅市","address":"東京都青梅市東青梅6丁目95-1","lat":35.79671131,"lon":139.27230447},{"name":"青梅市地域包括支援センター","province":"東京都","city":"青梅市","address":"青梅市東青梅1-11-1青梅市役所内","lat":35.788086,"lon":139.275269},{"name":"青梅市地域包括支援センターうめぞの","province":"東京都","city":"青梅市","address":"青梅市駒木町3-594-1メディケア梅の園内","lat":35.781685,"lon":139.251923},{"name":"青梅市地域包括支援センターすえひろ","province":"東京都","city":"青梅市","address":"青梅市末広町1-4-5青梅すえひろ苑内","lat":35.778828,"lon":139.312836},{"name":"青梅市消費者相談室","province":"東京都","city":"青梅市","address":"青梅市東青梅1-11-1青梅市役所3階","lat":35.788086,"lon":139.275269},{"name":"青梅市役所前第一","province":"東京都","city":"青梅市","address":"東京都青梅市東青梅1丁目11-1","lat":35.78785689,"lon":139.27583503},{"name":"青梅末広町二丁目西","province":"東京都","city":"青梅市","address":"東京都青梅市末広町2丁目2-8","lat":35.77942258,"lon":139.30691877},{"name":"千ヶ瀬二丁目","province":"東京都","city":"青梅市","address":"東京都青梅市千ヶ瀬町2丁目243","lat":35.78593481,"lon":139.27255762},{"name":"河辺小学校南","province":"東京都","city":"青梅市","address":"東京都青梅市河辺町6丁目2","lat":35.7806081,"lon":139.28894797},{"name":"河辺駅北口","province":"東京都","city":"青梅市","address":"東京都青梅市河辺町10丁目7","lat":35.78578519,"lon":139.28627025},{"name":"わかぐさ公園前","province":"東京都","city":"青梅市","address":"東京都青梅市河辺町7丁目14-2","lat":35.78147483,"lon":139.29581681},{"name":"小作駅北","province":"東京都","city":"青梅市","address":"東京都青梅市新町3丁目2","lat":35.77804486,"lon":139.30261082},{"name":"みち境","province":"東京都","city":"青梅市","address":"東京都青梅市根ヶ布2丁目722","lat":35.8065628,"lon":139.2666466},{"name":"青梅合同庁舎前","province":"東京都","city":"青梅市","address":"東京都青梅市河辺町6丁目4-1","lat":35.77999986,"lon":139.28959793},{"name":"永山公園入口","province":"東京都","city":"青梅市","address":"東京都青梅市住江町55","lat":35.78902572,"lon":139.26029501},{"name":"日向和田浄水所","province":"東京都","city":"青梅市","address":"東京都青梅市日向和田2丁目370","lat":35.78437016,"lon":139.23479499},{"name":"千ヶ瀬第二浄水所","province":"東京都","city":"青梅市","address":"東京都青梅市千ヶ瀬町1丁目69-1","lat":35.78467678,"lon":139.27783217},{"name":"御岳山第一配水所","province":"東京都","city":"青梅市","address":"東京都青梅市御岳山170-3","lat":35.78346895,"lon":139.15124212},{"name":"新町給水所","province":"東京都","city":"青梅市","address":"東京都青梅市新町5丁目24-1","lat":35.78846047,"lon":139.30887384},{"name":"二俣尾配水所","province":"東京都","city":"青梅市","address":"東京都青梅市二俣尾5丁目107-2","lat":35.81524153,"lon":139.2066392},{"name":"城山配水所","province":"東京都","city":"青梅市","address":"東京都青梅市東青梅6丁目95-1","lat":35.79671131,"lon":139.27230447},{"name":"青梅市地域包括支援センター","province":"東京都","city":"青梅市","address":"青梅市東青梅1-11-1青梅市役所内","lat":35.788086,"lon":139.275269},{"name":"青梅市地域包括支援センターうめぞの","province":"東京都","city":"青梅市","address":"青梅市駒木町3-594-1メディケア梅の園内","lat":35.781685,"lon":139.251923},{"name":"青梅市地域包括支援センターすえひろ","province":"東京都","city":"青梅市","address":"青梅市末広町1-4-5青梅すえひろ苑内","lat":35.778828,"lon":139.312836},{"name":"青梅市消費者相談室","province":"東京都","city":"青梅市","address":"青梅市東青梅1-11-1青梅市役所3階","lat":35.788086,"lon":139.275269},{"name":"青梅市役所前第一","province":"東京都","city":"青梅市","address":"東京都青梅市東青梅1丁目11-1","lat":35.78785689,"lon":139.27583503},{"name":"青梅末広町二丁目西","province":"東京都","city":"青梅市","address":"東京都青梅市末広町2丁目2-8","lat":35.77942258,"lon":139.30691877},{"name":"千ヶ瀬二丁目","province":"東京都","city":"青梅市","address":"東京都青梅市千ヶ瀬町2丁目243","lat":35.78593481,"lon":139.27255762},{"name":"河辺小学校南","province":"東京都","city":"青梅市","address":"東京都青梅市河辺町6丁目2","lat":35.7806081,"lon":139.28894797},{"name":"河辺駅北口","province":"東京都","city":"青梅市","address":"東京都青梅市河辺町10丁目7","lat":35.78578519,"lon":139.28627025},{"name":"わかぐさ公園前","province":"東京都","city":"青梅市","address":"東京都青梅市河辺町7丁目14-2","lat":35.78147483,"lon":139.29581681},{"name":"小作駅北","province":"東京都","city":"青梅市","address":"東京都青梅市新町3丁目2","lat":35.77804486,"lon":139.30261082},{"name":"みち境","province":"東京都","city":"青梅市","address":"東京都青梅市根ヶ布2丁目722","lat":35.8065628,"lon":139.2666466},{"name":"青梅合同庁舎前","province":"東京都","city":"青梅市","address":"東京都青梅市河辺町6丁目4-1","lat":35.77999986,"lon":139.28959793},{"name":"永山公園入口","province":"東京都","city":"青梅市","address":"東京都青梅市住江町55","lat":35.78902572,"lon":139.26029501},{"name":"日向和田浄水所","province":"東京都","city":"青梅市","address":"東京都青梅市日向和田2丁目370","lat":35.78437016,"lon":139.23479499},{"name":"千ヶ瀬第二浄水所","province":"東京都","city":"青梅市","address":"東京都青梅市千ヶ瀬町1丁目69-1","lat":35.78467678,"lon":139.27783217},{"name":"御岳山第一配水所","province":"東京都","city":"青梅市","address":"東京都青梅市御岳山170-3","lat":35.78346895,"lon":139.15124212},{"name":"新町給水所","province":"東京都","city":"青梅市","address":"東京都青梅市新町5丁目24-1","lat":35.78846047,"lon":139.30887384},{"name":"二俣尾配水所","province":"東京都","city":"青梅市","address":"東京都青梅市二俣尾5丁目107-2","lat":35.81524153,"lon":139.2066392},{"name":"城山配水所","province":"東京都","city":"青梅市","address":"東京都青梅市東青梅6丁目95-1","lat":35.79671131,"lon":139.27230447},{"name":"青梅市地域包括支援センター","province":"東京都","city":"青梅市","address":"青梅市東青梅1-11-1青梅市役所内","lat":35.788086,"lon":139.275269},{"name":"青梅市地域包括支援センターうめぞの","province":"東京都","city":"青梅市","address":"青梅市駒木町3-594-1メディケア梅の園内","lat":35.781685,"lon":139.251923},{"name":"青梅市地域包括支援センターすえひろ","province":"東京都","city":"青梅市","address":"青梅市末広町1-4-5青梅すえひろ苑内","lat":35.778828,"lon":139.312836},{"name":"青梅市消費者相談室","province":"東京都","city":"青梅市","address":"青梅市東青梅1-11-1青梅市役所3階","lat":35.788086,"lon":139.275269},{"name":"青梅市地域包括支援センター","province":"東京都","city":"青梅市","address":"青梅市東青梅1-11-1青梅市役所内","lat":35.788086,"lon":139.275269},{"name":"青梅市地域包括支援センターうめぞの","province":"東京都","city":"青梅市","address":"青梅市駒木町3-594-1メディケア梅の園内","lat":35.781685,"lon":139.251923},{"name":"青梅市地域包括支援センターすえひろ","province":"東京都","city":"青梅市","address":"青梅市末広町1-4-5青梅すえひろ苑内","lat":35.778828,"lon":139.312836},{"name":"青梅市消費者相談室","province":"東京都","city":"青梅市","address":"青梅市東青梅1-11-1青梅市役所3階","lat":35.788086,"lon":139.275269},{"name":"青梅市地域包括支援センター","province":"東京都","city":"青梅市","address":"青梅市東青梅1-11-1青梅市役所内","lat":35.788086,"lon":139.275269},{"name":"青梅市地域包括支援センターうめぞの","province":"東京都","city":"青梅市","address":"青梅市駒木町3-594-1メディケア梅の園内","lat":35.781685,"lon":139.251923},{"name":"青梅市地域包括支援センターすえひろ","province":"東京都","city":"青梅市","address":"青梅市末広町1-4-5青梅すえひろ苑内","lat":35.778828,"lon":139.312836},{"name":"青梅市消費者相談室","province":"東京都","city":"青梅市","address":"青梅市東青梅1-11-1青梅市役所3階","lat":35.788086,"lon":139.275269},{"name":"青梅市地域包括支援センター","province":"東京都","city":"青梅市","address":"青梅市東青梅1-11-1青梅市役所内","lat":35.788086,"lon":139.275269},{"name":"青梅市地域包括支援センターうめぞの","province":"東京都","city":"青梅市","address":"青梅市駒木町3-594-1メディケア梅の園内","lat":35.781685,"lon":139.251923},{"name":"青梅市地域包括支援センターすえひろ","province":"東京都","city":"青梅市","address":"青梅市末広町1-4-5青梅すえひろ苑内","lat":35.778828,"lon":139.312836},{"name":"青梅市消費者相談室","province":"東京都","city":"青梅市","address":"青梅市東青梅1-11-1青梅市役所3階","lat":35.788086,"lon":139.275269},{"name":"青梅市地域包括支援センター","province":"東京都","city":"青梅市","address":"青梅市東青梅1-11-1青梅市役所内","lat":35.788086,"lon":139.275269},{"name":"青梅市地域包括支援センターうめぞの","province":"東京都","city":"青梅市","address":"青梅市駒木町3-594-1メディケア梅の園内","lat":35.781685,"lon":139.251923},{"name":"青梅市地域包括支援センターすえひろ","province":"東京都","city":"青梅市","address":"青梅市末広町1-4-5青梅すえひろ苑内","lat":35.778828,"lon":139.312836},{"name":"青梅市消費者相談室","province":"東京都","city":"青梅市","address":"青梅市東青梅1-11-1青梅市役所3階","lat":35.788086,"lon":139.275269},{"name":"青梅市地域包括支援センター","province":"東京都","city":"青梅市","address":"青梅市東青梅1-11-1青梅市役所内","lat":35.788086,"lon":139.275269},{"name":"青梅市地域包括支援センターうめぞの","province":"東京都","city":"青梅市","address":"青梅市駒木町3-594-1メディケア梅の園内","lat":35.781685,"lon":139.251923},{"name":"青梅市地域包括支援センターすえひろ","province":"東京都","city":"青梅市","address":"青梅市末広町1-4-5青梅すえひろ苑内","lat":35.778828,"lon":139.312836},{"name":"青梅市消費者相談室","province":"東京都","city":"青梅市","address":"青梅市東青梅1-11-1青梅市役所3階","lat":35.788086,"lon":139.275269},{"name":"青梅市地域包括支援センター","province":"東京都","city":"青梅市","address":"青梅市東青梅1-11-1青梅市役所内","lat":35.788086,"lon":139.275269},{"name":"青梅市地域包括支援センターうめぞの","province":"東京都","city":"青梅市","address":"青梅市駒木町3-594-1メディケア梅の園内","lat":35.781685,"lon":139.251923},{"name":"青梅市地域包括支援センターすえひろ","province":"東京都","city":"青梅市","address":"青梅市末広町1-4-5青梅すえひろ苑内","lat":35.778828,"lon":139.312836},{"name":"青梅市消費者相談室","province":"東京都","city":"青梅市","address":"青梅市東青梅1-11-1青梅市役所3階","lat":35.788086,"lon":139.275269},{"name":"青梅市地域包括支援センター","province":"東京都","city":"青梅市","address":"青梅市東青梅1-11-1青梅市役所内","lat":35.788086,"lon":139.275269},{"name":"青梅市地域包括支援センターうめぞの","province":"東京都","city":"青梅市","address":"青梅市駒木町3-594-1メディケア梅の園内","lat":35.781685,"lon":139.251923},{"name":"青梅市地域包括支援センターすえひろ","province":"東京都","city":"青梅市","address":"青梅市末広町1-4-5青梅すえひろ苑内","lat":35.778828,"lon":139.312836},{"name":"青梅市消費者相談室","province":"東京都","city":"青梅市","address":"青梅市東青梅1-11-1青梅市役所3階","lat":35.788086,"lon":139.275269},{"name":"青梅市地域包括支援センター","province":"東京都","city":"青梅市","address":"青梅市東青梅1-11-1青梅市役所内","lat":35.788086,"lon":139.275269},{"name":"青梅市地域包括支援センターうめぞの","province":"東京都","city":"青梅市","address":"青梅市駒木町3-594-1メディケア梅の園内","lat":35.781685,"lon":139.251923},{"name":"青梅市地域包括支援センターすえひろ","province":"東京都","city":"青梅市","address":"青梅市末広町1-4-5青梅すえひろ苑内","lat":35.778828,"lon":139.312836},{"name":"青梅市消費者相談室","province":"東京都","city":"青梅市","address":"青梅市東青梅1-11-1青梅市役所3階","lat":35.788086,"lon":139.275269},{"name":"青梅市地域包括支援センター","province":"東京都","city":"青梅市","address":"青梅市東青梅1-11-1青梅市役所内","lat":35.788086,"lon":139.275269},{"name":"青梅市地域包括支援センターうめぞの","province":"東京都","city":"青梅市","address":"青梅市駒木町3-594-1メディケア梅の園内","lat":35.781685,"lon":139.251923},{"name":"青梅市地域包括支援センターすえひろ","province":"東京都","city":"青梅市","address":"青梅市末広町1-4-5青梅すえひろ苑内","lat":35.778828,"lon":139.312836},{"name":"青梅市消費者相談室","province":"東京都","city":"青梅市","address":"青梅市東青梅1-11-1青梅市役所3階","lat":35.788086,"lon":139.275269},{"name":"青梅市地域包括支援センター","province":"東京都","city":"青梅市","address":"青梅市東青梅1-11-1青梅市役所内","lat":35.788086,"lon":139.275269},{"name":"青梅市地域包括支援センターうめぞの","province":"東京都","city":"青梅市","address":"青梅市駒木町3-594-1メディケア梅の園内","lat":35.781685,"lon":139.251923},{"name":"青梅市地域包括支援センターすえひろ","province":"東京都","city":"青梅市","address":"青梅市末広町1-4-5青梅すえひろ苑内","lat":35.778828,"lon":139.312836},{"name":"青梅市消費者相談室","province":"東京都","city":"青梅市","address":"青梅市東青梅1-11-1青梅市役所3階","lat":35.788086,"lon":139.275269},{"name":"青梅市地域包括支援センター","province":"東京都","city":"青梅市","address":"青梅市東青梅1-11-1青梅市役所内","lat":35.788086,"lon":139.275269},{"name":"青梅市地域包括支援センターうめぞの","province":"東京都","city":"青梅市","address":"青梅市駒木町3-594-1メディケア梅の園内","lat":35.781685,"lon":139.251923},{"name":"青梅市地域包括支援センターすえひろ","province":"東京都","city":"青梅市","address":"青梅市末広町1-4-5青梅すえひろ苑内","lat":35.778828,"lon":139.312836},{"name":"青梅市消費者相談室","province":"東京都","city":"青梅市","address":"青梅市東青梅1-11-1青梅市役所3階","lat":35.788086,"lon":139.275269},{"name":"青梅市地域包括支援センター","province":"東京都","city":"青梅市","address":"青梅市東青梅1-11-1青梅市役所内","lat":35.788086,"lon":139.275269},{"name":"青梅市地域包括支援センターうめぞの","province":"東京都","city":"青梅市","address":"青梅市駒木町3-594-1メディケア梅の園内","lat":35.781685,"lon":139.251923},{"name":"青梅市地域包括支援センターすえひろ","province":"東京都","city":"青梅市","address":"青梅市末広町1-4-5青梅すえひろ苑内","lat":35.778828,"lon":139.312836},{"name":"青梅市消費者相談室","province":"東京都","city":"青梅市","address":"青梅市東青梅1-11-1青梅市役所3階","lat":35.788086,"lon":139.275269}]}