{"keyword":"週","data":[{"name":"小林天淵画像","province":"東京都","city":"青梅市","address":"東京都青梅市駒木町1-684","lat":35.78376,"lon":139.256702},{"name":"旧宝林寺文書","province":"東京都","city":"青梅市","address":"東京都青梅市駒木町1-684","lat":35.78376,"lon":139.256702},{"name":"石皿","province":"東京都","city":"青梅市","address":"東京都青梅市駒木町1-684","lat":35.78376,"lon":139.256702},{"name":"並木家中世文書","province":"東京都","city":"青梅市","address":"東京都青梅市駒木町1-684","lat":35.78376,"lon":139.256702},{"name":"地機","province":"東京都","city":"青梅市","address":"東京都青梅市駒木町1-684","lat":35.78376,"lon":139.256702},{"name":"青梅縞","province":"東京都","city":"青梅市","address":"東京都青梅市駒木町1-684","lat":35.78376,"lon":139.256702},{"name":"日本産狼頭骨および版木その他付属品","province":"東京都","city":"青梅市","address":"東京都青梅市駒木町1-684","lat":35.78376,"lon":139.256702},{"name":"一里塚のエノキ","province":"東京都","city":"青梅市","address":"東京都青梅市今寺2-504","lat":35.802971,"lon":139.298029},{"name":"青梅市社会福祉協議会","province":"東京都","city":"青梅市","address":"青梅市東青梅1-177-3福祉センター2階","lat":35.787565,"lon":139.274124},{"name":"御嶽神社旧本殿","province":"東京都","city":"青梅市","address":"東京都青梅市御岳山176","lat":35.782772,"lon":139.150253},{"name":"安楽寺本堂","province":"東京都","city":"青梅市","address":"東京都青梅市成木1-583","lat":35.838484,"lon":139.275364},{"name":"旧吉野家住宅","province":"東京都","city":"青梅市","address":"東京都青梅市新町1-21-9","lat":35.788144,"lon":139.297825},{"name":"馬場家御師住宅","province":"東京都","city":"青梅市","address":"東京都青梅市御岳山54","lat":35.785996,"lon":139.151073},{"name":"虎柏神社本殿","province":"東京都","city":"青梅市","address":"東京都青梅市根ケ布1-313","lat":35.802624,"lon":139.267127},{"name":"安楽寺の大スギ","province":"東京都","city":"青梅市","address":"東京都青梅市成木1-583","lat":35.838484,"lon":139.275364},{"name":"青梅市中央図書館","province":"東京都","city":"青梅市","address":"東京都青梅市河辺町10丁目8番地の1","lat":35.785387,"lon":139.285073},{"name":"青梅市青梅図書館","province":"東京都","city":"青梅市","address":"東京都青梅市仲町268番地の9","lat":35.791133,"lon":139.256484},{"name":"青梅市長淵図書館","province":"東京都","city":"青梅市","address":"東京都青梅市長淵6丁目492番地の1","lat":35.780335,"lon":139.268546},{"name":"青梅市大門図書館","province":"東京都","city":"青梅市","address":"東京都青梅市大門2丁目288番地","lat":35.796765,"lon":139.291206},{"name":"青梅市梅郷図書館","province":"東京都","city":"青梅市","address":"東京都青梅市梅郷3丁目749番地の1","lat":35.786581,"lon":139.224326},{"name":"青梅市沢井図書館","province":"東京都","city":"青梅市","address":"東京都青梅市沢井2丁目682番地","lat":35.804711,"lon":139.196279},{"name":"青梅市成木図書館","province":"東京都","city":"青梅市","address":"東京都青梅市成木4丁目644番地","lat":35.824186,"lon":139.24851},{"name":"青梅市新町図書館","province":"東京都","city":"青梅市","address":"東京都青梅市新町4丁目17番地の1","lat":35.785985,"lon":139.305154},{"name":"青梅市今井図書館","province":"東京都","city":"青梅市","address":"東京都青梅市今井2丁目908番地の1","lat":35.806544,"lon":139.310973},{"name":"青梅市社会福祉協議会","province":"東京都","city":"青梅市","address":"青梅市東青梅1-177-3青梅市福祉センター2階","lat":35.78766,"lon":139.27274},{"name":"青梅市火葬場","province":"東京都","city":"青梅市","address":"東京都青梅市長淵5丁目743","lat":35.77277491,"lon":139.26230902},{"name":"日向和田浄水所","province":"東京都","city":"青梅市","address":"東京都青梅市日向和田2丁目370","lat":35.78437016,"lon":139.23479499},{"name":"千ヶ瀬第二浄水所","province":"東京都","city":"青梅市","address":"東京都青梅市千ヶ瀬町1丁目69-1","lat":35.78467678,"lon":139.27783217},{"name":"御岳山第一配水所","province":"東京都","city":"青梅市","address":"東京都青梅市御岳山170-3","lat":35.78346895,"lon":139.15124212},{"name":"新町給水所","province":"東京都","city":"青梅市","address":"東京都青梅市新町5丁目24-1","lat":35.78846047,"lon":139.30887384},{"name":"二俣尾配水所","province":"東京都","city":"青梅市","address":"東京都青梅市二俣尾5丁目107-2","lat":35.81524153,"lon":139.2066392},{"name":"城山配水所","province":"東京都","city":"青梅市","address":"東京都青梅市東青梅6丁目95-1","lat":35.79671131,"lon":139.27230447},{"name":"立正佼成会青梅練成道場グラウンド","province":"東京都","city":"青梅市","address":"東京都青梅市小曾木2丁目450","lat":35.81221561,"lon":139.29602679},{"name":"明星大学青梅キャンパスグラウンド","province":"東京都","city":"青梅市","address":"東京都青梅市長淵2丁目590","lat":35.77275567,"lon":139.26727244},{"name":"青梅市市民球技場野球場","province":"東京都","city":"青梅市","address":"東京都青梅市河辺町1丁目872-1","lat":35.77784173,"lon":139.28723709},{"name":"青梅市立総合病院ヘリポート","province":"東京都","city":"青梅市","address":"東京都青梅市東青梅4丁目16-5","lat":35.78202441,"lon":139.28118194},{"name":"青梅市立第六小学校校庭","province":"東京都","city":"青梅市","address":"東京都青梅市二俣尾3丁目903-1","lat":35.80159313,"lon":139.2168608},{"name":"ｓ釜の淵市民館","province":"東京都","city":"青梅市","address":"東京都青梅市大柳町1392","lat":35.78482878,"lon":139.25300977},{"name":"＊?青梅市郷土博物館","province":"東京都","city":"青梅市","address":"青梅市駒木町1-684","lat":35.783794,"lon":139.25672},{"name":"＊?青梅市立美術館","province":"東京都","city":"青梅市","address":"青梅市滝ノ上町1346-1","lat":35.787547,"lon":139.255959},{"name":"＊?青梅市長淵図書館","province":"東京都","city":"青梅市","address":"青梅市長淵6-492-1","lat":35.780194,"lon":139.268855},{"name":"＊?青梅市中央図書館","province":"東京都","city":"青梅市","address":"青梅市河辺町10-8-1","lat":35.785364,"lon":139.285038},{"name":"＊?青梅市大門図書館","province":"東京都","city":"青梅市","address":"青梅市大門2-288","lat":35.796684,"lon":139.290865},{"name":"＊?青梅市新町図書館","province":"東京都","city":"青梅市","address":"青梅市新町4-17-1","lat":35.786079,"lon":139.304925},{"name":"＊?青梅市今井図書館","province":"東京都","city":"青梅市","address":"青梅市今井2-908-1","lat":35.806511,"lon":139.311031},{"name":"＊?青梅市成木図書館","province":"東京都","city":"青梅市","address":"青梅市成木4-644","lat":35.824159,"lon":139.248541},{"name":"＊?青梅市小曾木図書館","province":"東京都","city":"青梅市","address":"青梅市小曾木3-1656-1","lat":35.818065,"lon":139.275106},{"name":"＊?青梅市梅郷図書館","province":"東京都","city":"青梅市","address":"青梅市梅郷3-749-1","lat":35.786795,"lon":139.224431},{"name":"＊?青梅市沢井図書館","province":"東京都","city":"青梅市","address":"青梅市沢井2-682","lat":35.804713,"lon":139.196304},{"name":"＊?青梅市青梅図書館","province":"東京都","city":"青梅市","address":"青梅市仲町268-9","lat":35.791133,"lon":139.25652},{"name":"＊?河辺市民センター","province":"東京都","city":"青梅市","address":"青梅市河辺町6-18-1","lat":35.778488,"lon":139.293633},{"name":"＊?東青梅市民センター","province":"東京都","city":"青梅市","address":"青梅市師岡町3-9-6","lat":35.790631,"lon":139.282374},{"name":"西多摩保健所","province":"東京都","city":"青梅市","address":"東京都青梅市東青梅5丁目19-6","lat":35.78983461,"lon":139.28217046},{"name":"青梅市本庁舎","province":"東京都","city":"青梅市","address":"青梅市東青梅1-11-1","lat":35.787857,"lon":139.275835},{"name":"西多摩建設事務所","province":"東京都","city":"青梅市","address":"青梅市東青梅3-20-1","lat":35.7909,"lon":139.2776},{"name":"第九方面交通機動隊青梅分駐所","province":"東京都","city":"青梅市","address":"青梅市野上町4-6-3","lat":35.787391,"lon":139.289092},{"name":"青梅警察署","province":"東京都","city":"青梅市","address":"青梅市野上町4-6-3","lat":35.787391,"lon":139.289092},{"name":"青梅消防署","province":"東京都","city":"青梅市","address":"青梅市師岡町3-2-5","lat":35.78895,"lon":139.2836},{"name":"西多摩地区","province":"東京都","city":"青梅市","address":"青梅市東青梅4-17-41","lat":35.78327,"lon":139.2817},{"name":"青梅市市民球技場（野球場）","province":"東京都","city":"青梅市","address":"青梅市河辺町1丁目地先","lat":35.77862,"lon":139.2878},{"name":"青梅市民球技場","province":"東京都","city":"青梅市","address":"青梅市河辺町1-872-1","lat":35.77784,"lon":139.2872},{"name":"青梅市立総合病院ヘリポート","province":"東京都","city":"青梅市","address":"青梅市東青梅4-16-5","lat":35.782547,"lon":139.281268},{"name":"※青梅市本庁舎","province":"東京都","city":"青梅市","address":"東京都青梅市東青梅1丁目11-1","lat":35.78785689,"lon":139.27583503},{"name":"青梅駅","province":"東京都","city":"青梅市","address":"東京都青梅市本町192","lat":35.79023939,"lon":139.2576703},{"name":"西多摩福祉事務所倉庫","province":"東京都","city":"青梅市","address":"東京都青梅市河辺町6丁目4-1","lat":35.77999986,"lon":139.28959793},{"name":"小林天淵画像","province":"東京都","city":"青梅市","address":"東京都青梅市駒木町1-684","lat":35.78376,"lon":139.256702},{"name":"旧宝林寺文書","province":"東京都","city":"青梅市","address":"東京都青梅市駒木町1-684","lat":35.78376,"lon":139.256702},{"name":"石皿","province":"東京都","city":"青梅市","address":"東京都青梅市駒木町1-684","lat":35.78376,"lon":139.256702},{"name":"並木家中世文書","province":"東京都","city":"青梅市","address":"東京都青梅市駒木町1-684","lat":35.78376,"lon":139.256702},{"name":"地機","province":"東京都","city":"青梅市","address":"東京都青梅市駒木町1-684","lat":35.78376,"lon":139.256702},{"name":"青梅縞","province":"東京都","city":"青梅市","address":"東京都青梅市駒木町1-684","lat":35.78376,"lon":139.256702},{"name":"日本産狼頭骨および版木その他付属品","province":"東京都","city":"青梅市","address":"東京都青梅市駒木町1-684","lat":35.78376,"lon":139.256702},{"name":"一里塚のエノキ","province":"東京都","city":"青梅市","address":"東京都青梅市今寺2-504","lat":35.802971,"lon":139.298029},{"name":"青梅市社会福祉協議会","province":"東京都","city":"青梅市","address":"青梅市東青梅1-177-3福祉センター2階","lat":35.787565,"lon":139.274124},{"name":"御嶽神社旧本殿","province":"東京都","city":"青梅市","address":"東京都青梅市御岳山176","lat":35.782772,"lon":139.150253},{"name":"安楽寺本堂","province":"東京都","city":"青梅市","address":"東京都青梅市成木1-583","lat":35.838484,"lon":139.275364},{"name":"旧吉野家住宅","province":"東京都","city":"青梅市","address":"東京都青梅市新町1-21-9","lat":35.788144,"lon":139.297825},{"name":"馬場家御師住宅","province":"東京都","city":"青梅市","address":"東京都青梅市御岳山54","lat":35.785996,"lon":139.151073},{"name":"虎柏神社本殿","province":"東京都","city":"青梅市","address":"東京都青梅市根ケ布1-313","lat":35.802624,"lon":139.267127},{"name":"安楽寺の大スギ","province":"東京都","city":"青梅市","address":"東京都青梅市成木1-583","lat":35.838484,"lon":139.275364},{"name":"青梅市中央図書館","province":"東京都","city":"青梅市","address":"東京都青梅市河辺町10丁目8番地の1","lat":35.785387,"lon":139.285073},{"name":"青梅市青梅図書館","province":"東京都","city":"青梅市","address":"東京都青梅市仲町268番地の9","lat":35.791133,"lon":139.256484},{"name":"青梅市長淵図書館","province":"東京都","city":"青梅市","address":"東京都青梅市長淵6丁目492番地の1","lat":35.780335,"lon":139.268546},{"name":"青梅市大門図書館","province":"東京都","city":"青梅市","address":"東京都青梅市大門2丁目288番地","lat":35.796765,"lon":139.291206},{"name":"青梅市梅郷図書館","province":"東京都","city":"青梅市","address":"東京都青梅市梅郷3丁目749番地の1","lat":35.786581,"lon":139.224326},{"name":"青梅市沢井図書館","province":"東京都","city":"青梅市","address":"東京都青梅市沢井2丁目682番地","lat":35.804711,"lon":139.196279},{"name":"青梅市成木図書館","province":"東京都","city":"青梅市","address":"東京都青梅市成木4丁目644番地","lat":35.824186,"lon":139.24851},{"name":"青梅市新町図書館","province":"東京都","city":"青梅市","address":"東京都青梅市新町4丁目17番地の1","lat":35.785985,"lon":139.305154},{"name":"青梅市今井図書館","province":"東京都","city":"青梅市","address":"東京都青梅市今井2丁目908番地の1","lat":35.806544,"lon":139.310973},{"name":"青梅市社会福祉協議会","province":"東京都","city":"青梅市","address":"青梅市東青梅1-177-3青梅市福祉センター2階","lat":35.78766,"lon":139.27274},{"name":"青梅市火葬場","province":"東京都","city":"青梅市","address":"東京都青梅市長淵5丁目743","lat":35.77277491,"lon":139.26230902},{"name":"日向和田浄水所","province":"東京都","city":"青梅市","address":"東京都青梅市日向和田2丁目370","lat":35.78437016,"lon":139.23479499},{"name":"千ヶ瀬第二浄水所","province":"東京都","city":"青梅市","address":"東京都青梅市千ヶ瀬町1丁目69-1","lat":35.78467678,"lon":139.27783217},{"name":"御岳山第一配水所","province":"東京都","city":"青梅市","address":"東京都青梅市御岳山170-3","lat":35.78346895,"lon":139.15124212},{"name":"新町給水所","province":"東京都","city":"青梅市","address":"東京都青梅市新町5丁目24-1","lat":35.78846047,"lon":139.30887384},{"name":"二俣尾配水所","province":"東京都","city":"青梅市","address":"東京都青梅市二俣尾5丁目107-2","lat":35.81524153,"lon":139.2066392},{"name":"城山配水所","province":"東京都","city":"青梅市","address":"東京都青梅市東青梅6丁目95-1","lat":35.79671131,"lon":139.27230447},{"name":"ｓ釜の淵市民館","province":"東京都","city":"青梅市","address":"東京都青梅市大柳町1392","lat":35.78482878,"lon":139.25300977},{"name":"＊?青梅市郷土博物館","province":"東京都","city":"青梅市","address":"青梅市駒木町1-684","lat":35.783794,"lon":139.25672},{"name":"＊?青梅市立美術館","province":"東京都","city":"青梅市","address":"青梅市滝ノ上町1346-1","lat":35.787547,"lon":139.255959},{"name":"＊?青梅市長淵図書館","province":"東京都","city":"青梅市","address":"青梅市長淵6-492-1","lat":35.780194,"lon":139.268855},{"name":"＊?青梅市中央図書館","province":"東京都","city":"青梅市","address":"青梅市河辺町10-8-1","lat":35.785364,"lon":139.285038},{"name":"＊?青梅市大門図書館","province":"東京都","city":"青梅市","address":"青梅市大門2-288","lat":35.796684,"lon":139.290865},{"name":"＊?青梅市新町図書館","province":"東京都","city":"青梅市","address":"青梅市新町4-17-1","lat":35.786079,"lon":139.304925},{"name":"＊?青梅市今井図書館","province":"東京都","city":"青梅市","address":"青梅市今井2-908-1","lat":35.806511,"lon":139.311031},{"name":"＊?青梅市成木図書館","province":"東京都","city":"青梅市","address":"青梅市成木4-644","lat":35.824159,"lon":139.248541},{"name":"＊?青梅市小曾木図書館","province":"東京都","city":"青梅市","address":"青梅市小曾木3-1656-1","lat":35.818065,"lon":139.275106},{"name":"＊?青梅市梅郷図書館","province":"東京都","city":"青梅市","address":"青梅市梅郷3-749-1","lat":35.786795,"lon":139.224431},{"name":"＊?青梅市沢井図書館","province":"東京都","city":"青梅市","address":"青梅市沢井2-682","lat":35.804713,"lon":139.196304},{"name":"＊?青梅市青梅図書館","province":"東京都","city":"青梅市","address":"青梅市仲町268-9","lat":35.791133,"lon":139.25652},{"name":"＊?河辺市民センター","province":"東京都","city":"青梅市","address":"青梅市河辺町6-18-1","lat":35.778488,"lon":139.293633},{"name":"＊?東青梅市民センター","province":"東京都","city":"青梅市","address":"青梅市師岡町3-9-6","lat":35.790631,"lon":139.282374},{"name":"西多摩保健所","province":"東京都","city":"青梅市","address":"東京都青梅市東青梅5丁目19-6","lat":35.78983461,"lon":139.28217046},{"name":"青梅市本庁舎","province":"東京都","city":"青梅市","address":"青梅市東青梅1-11-1","lat":35.787857,"lon":139.275835},{"name":"第九方面交通機動隊青梅分駐所","province":"東京都","city":"青梅市","address":"青梅市野上町4-6-3","lat":35.787391,"lon":139.289092},{"name":"青梅警察署","province":"東京都","city":"青梅市","address":"青梅市野上町4-6-3","lat":35.787391,"lon":139.289092},{"name":"青梅消防署","province":"東京都","city":"青梅市","address":"青梅市師岡町3-2-5","lat":35.78895,"lon":139.2836},{"name":"青梅市市民球技場（野球場）","province":"東京都","city":"青梅市","address":"青梅市河辺町1丁目地先","lat":35.77862,"lon":139.2878},{"name":"青梅市民球技場","province":"東京都","city":"青梅市","address":"青梅市河辺町1-872-1","lat":35.77784,"lon":139.2872},{"name":"青梅市立総合病院ヘリポート","province":"東京都","city":"青梅市","address":"青梅市東青梅4-16-5","lat":35.782547,"lon":139.281268},{"name":"小林天淵画像","province":"東京都","city":"青梅市","address":"東京都青梅市駒木町1-684","lat":35.78376,"lon":139.256702},{"name":"旧宝林寺文書","province":"東京都","city":"青梅市","address":"東京都青梅市駒木町1-684","lat":35.78376,"lon":139.256702},{"name":"石皿","province":"東京都","city":"青梅市","address":"東京都青梅市駒木町1-684","lat":35.78376,"lon":139.256702},{"name":"並木家中世文書","province":"東京都","city":"青梅市","address":"東京都青梅市駒木町1-684","lat":35.78376,"lon":139.256702},{"name":"地機","province":"東京都","city":"青梅市","address":"東京都青梅市駒木町1-684","lat":35.78376,"lon":139.256702},{"name":"青梅縞","province":"東京都","city":"青梅市","address":"東京都青梅市駒木町1-684","lat":35.78376,"lon":139.256702},{"name":"日本産狼頭骨および版木その他付属品","province":"東京都","city":"青梅市","address":"東京都青梅市駒木町1-684","lat":35.78376,"lon":139.256702},{"name":"一里塚のエノキ","province":"東京都","city":"青梅市","address":"東京都青梅市今寺2-504","lat":35.802971,"lon":139.298029},{"name":"青梅市社会福祉協議会","province":"東京都","city":"青梅市","address":"青梅市東青梅1-177-3福祉センター2階","lat":35.787565,"lon":139.274124},{"name":"御嶽神社旧本殿","province":"東京都","city":"青梅市","address":"東京都青梅市御岳山176","lat":35.782772,"lon":139.150253},{"name":"安楽寺本堂","province":"東京都","city":"青梅市","address":"東京都青梅市成木1-583","lat":35.838484,"lon":139.275364},{"name":"旧吉野家住宅","province":"東京都","city":"青梅市","address":"東京都青梅市新町1-21-9","lat":35.788144,"lon":139.297825},{"name":"馬場家御師住宅","province":"東京都","city":"青梅市","address":"東京都青梅市御岳山54","lat":35.785996,"lon":139.151073},{"name":"虎柏神社本殿","province":"東京都","city":"青梅市","address":"東京都青梅市根ケ布1-313","lat":35.802624,"lon":139.267127},{"name":"安楽寺の大スギ","province":"東京都","city":"青梅市","address":"東京都青梅市成木1-583","lat":35.838484,"lon":139.275364},{"name":"青梅市中央図書館","province":"東京都","city":"青梅市","address":"東京都青梅市河辺町10丁目8番地の1","lat":35.785387,"lon":139.285073},{"name":"青梅市青梅図書館","province":"東京都","city":"青梅市","address":"東京都青梅市仲町268番地の9","lat":35.791133,"lon":139.256484},{"name":"青梅市長淵図書館","province":"東京都","city":"青梅市","address":"東京都青梅市長淵6丁目492番地の1","lat":35.780335,"lon":139.268546},{"name":"青梅市大門図書館","province":"東京都","city":"青梅市","address":"東京都青梅市大門2丁目288番地","lat":35.796765,"lon":139.291206},{"name":"青梅市梅郷図書館","province":"東京都","city":"青梅市","address":"東京都青梅市梅郷3丁目749番地の1","lat":35.786581,"lon":139.224326},{"name":"青梅市沢井図書館","province":"東京都","city":"青梅市","address":"東京都青梅市沢井2丁目682番地","lat":35.804711,"lon":139.196279},{"name":"青梅市成木図書館","province":"東京都","city":"青梅市","address":"東京都青梅市成木4丁目644番地","lat":35.824186,"lon":139.24851},{"name":"青梅市新町図書館","province":"東京都","city":"青梅市","address":"東京都青梅市新町4丁目17番地の1","lat":35.785985,"lon":139.305154},{"name":"青梅市今井図書館","province":"東京都","city":"青梅市","address":"東京都青梅市今井2丁目908番地の1","lat":35.806544,"lon":139.310973},{"name":"青梅市社会福祉協議会","province":"東京都","city":"青梅市","address":"青梅市東青梅1-177-3青梅市福祉センター2階","lat":35.78766,"lon":139.27274},{"name":"ｓ釜の淵市民館","province":"東京都","city":"青梅市","address":"東京都青梅市大柳町1392","lat":35.78482878,"lon":139.25300977},{"name":"＊?青梅市郷土博物館","province":"東京都","city":"青梅市","address":"青梅市駒木町1-684","lat":35.783794,"lon":139.25672},{"name":"＊?青梅市立美術館","province":"東京都","city":"青梅市","address":"青梅市滝ノ上町1346-1","lat":35.787547,"lon":139.255959},{"name":"＊?青梅市長淵図書館","province":"東京都","city":"青梅市","address":"青梅市長淵6-492-1","lat":35.780194,"lon":139.268855},{"name":"＊?青梅市中央図書館","province":"東京都","city":"青梅市","address":"青梅市河辺町10-8-1","lat":35.785364,"lon":139.285038},{"name":"＊?青梅市大門図書館","province":"東京都","city":"青梅市","address":"青梅市大門2-288","lat":35.796684,"lon":139.290865},{"name":"＊?青梅市新町図書館","province":"東京都","city":"青梅市","address":"青梅市新町4-17-1","lat":35.786079,"lon":139.304925},{"name":"＊?青梅市今井図書館","province":"東京都","city":"青梅市","address":"青梅市今井2-908-1","lat":35.806511,"lon":139.311031},{"name":"＊?青梅市成木図書館","province":"東京都","city":"青梅市","address":"青梅市成木4-644","lat":35.824159,"lon":139.248541},{"name":"＊?青梅市小曾木図書館","province":"東京都","city":"青梅市","address":"青梅市小曾木3-1656-1","lat":35.818065,"lon":139.275106},{"name":"＊?青梅市梅郷図書館","province":"東京都","city":"青梅市","address":"青梅市梅郷3-749-1","lat":35.786795,"lon":139.224431},{"name":"＊?青梅市沢井図書館","province":"東京都","city":"青梅市","address":"青梅市沢井2-682","lat":35.804713,"lon":139.196304},{"name":"＊?青梅市青梅図書館","province":"東京都","city":"青梅市","address":"青梅市仲町268-9","lat":35.791133,"lon":139.25652},{"name":"＊?河辺市民センター","province":"東京都","city":"青梅市","address":"青梅市河辺町6-18-1","lat":35.778488,"lon":139.293633},{"name":"＊?東青梅市民センター","province":"東京都","city":"青梅市","address":"青梅市師岡町3-9-6","lat":35.790631,"lon":139.282374},{"name":"小林天淵画像","province":"東京都","city":"青梅市","address":"東京都青梅市駒木町1-684","lat":35.78376,"lon":139.256702},{"name":"旧宝林寺文書","province":"東京都","city":"青梅市","address":"東京都青梅市駒木町1-684","lat":35.78376,"lon":139.256702},{"name":"石皿","province":"東京都","city":"青梅市","address":"東京都青梅市駒木町1-684","lat":35.78376,"lon":139.256702},{"name":"並木家中世文書","province":"東京都","city":"青梅市","address":"東京都青梅市駒木町1-684","lat":35.78376,"lon":139.256702},{"name":"地機","province":"東京都","city":"青梅市","address":"東京都青梅市駒木町1-684","lat":35.78376,"lon":139.256702},{"name":"青梅縞","province":"東京都","city":"青梅市","address":"東京都青梅市駒木町1-684","lat":35.78376,"lon":139.256702},{"name":"日本産狼頭骨および版木その他付属品","province":"東京都","city":"青梅市","address":"東京都青梅市駒木町1-684","lat":35.78376,"lon":139.256702},{"name":"一里塚のエノキ","province":"東京都","city":"青梅市","address":"東京都青梅市今寺2-504","lat":35.802971,"lon":139.298029},{"name":"青梅市社会福祉協議会","province":"東京都","city":"青梅市","address":"青梅市東青梅1-177-3福祉センター2階","lat":35.787565,"lon":139.274124},{"name":"御嶽神社旧本殿","province":"東京都","city":"青梅市","address":"東京都青梅市御岳山176","lat":35.782772,"lon":139.150253},{"name":"安楽寺本堂","province":"東京都","city":"青梅市","address":"東京都青梅市成木1-583","lat":35.838484,"lon":139.275364},{"name":"旧吉野家住宅","province":"東京都","city":"青梅市","address":"東京都青梅市新町1-21-9","lat":35.788144,"lon":139.297825},{"name":"馬場家御師住宅","province":"東京都","city":"青梅市","address":"東京都青梅市御岳山54","lat":35.785996,"lon":139.151073},{"name":"虎柏神社本殿","province":"東京都","city":"青梅市","address":"東京都青梅市根ケ布1-313","lat":35.802624,"lon":139.267127},{"name":"安楽寺の大スギ","province":"東京都","city":"青梅市","address":"東京都青梅市成木1-583","lat":35.838484,"lon":139.275364},{"name":"青梅市中央図書館","province":"東京都","city":"青梅市","address":"東京都青梅市河辺町10丁目8番地の1","lat":35.785387,"lon":139.285073},{"name":"青梅市青梅図書館","province":"東京都","city":"青梅市","address":"東京都青梅市仲町268番地の9","lat":35.791133,"lon":139.256484},{"name":"青梅市長淵図書館","province":"東京都","city":"青梅市","address":"東京都青梅市長淵6丁目492番地の1","lat":35.780335,"lon":139.268546},{"name":"青梅市大門図書館","province":"東京都","city":"青梅市","address":"東京都青梅市大門2丁目288番地","lat":35.796765,"lon":139.291206},{"name":"青梅市梅郷図書館","province":"東京都","city":"青梅市","address":"東京都青梅市梅郷3丁目749番地の1","lat":35.786581,"lon":139.224326},{"name":"青梅市沢井図書館","province":"東京都","city":"青梅市","address":"東京都青梅市沢井2丁目682番地","lat":35.804711,"lon":139.196279},{"name":"青梅市成木図書館","province":"東京都","city":"青梅市","address":"東京都青梅市成木4丁目644番地","lat":35.824186,"lon":139.24851},{"name":"青梅市新町図書館","province":"東京都","city":"青梅市","address":"東京都青梅市新町4丁目17番地の1","lat":35.785985,"lon":139.305154},{"name":"青梅市今井図書館","province":"東京都","city":"青梅市","address":"東京都青梅市今井2丁目908番地の1","lat":35.806544,"lon":139.310973},{"name":"青梅市社会福祉協議会","province":"東京都","city":"青梅市","address":"青梅市東青梅1-177-3青梅市福祉センター2階","lat":35.78766,"lon":139.27274},{"name":"ｓ釜の淵市民館","province":"東京都","city":"青梅市","address":"東京都青梅市大柳町1392","lat":35.78482878,"lon":139.25300977},{"name":"＊?青梅市郷土博物館","province":"東京都","city":"青梅市","address":"青梅市駒木町1-684","lat":35.783794,"lon":139.25672},{"name":"＊?青梅市立美術館","province":"東京都","city":"青梅市","address":"青梅市滝ノ上町1346-1","lat":35.787547,"lon":139.255959},{"name":"＊?青梅市長淵図書館","province":"東京都","city":"青梅市","address":"青梅市長淵6-492-1","lat":35.780194,"lon":139.268855},{"name":"＊?青梅市中央図書館","province":"東京都","city":"青梅市","address":"青梅市河辺町10-8-1","lat":35.785364,"lon":139.285038},{"name":"＊?青梅市大門図書館","province":"東京都","city":"青梅市","address":"青梅市大門2-288","lat":35.796684,"lon":139.290865},{"name":"＊?青梅市新町図書館","province":"東京都","city":"青梅市","address":"青梅市新町4-17-1","lat":35.786079,"lon":139.304925},{"name":"＊?青梅市今井図書館","province":"東京都","city":"青梅市","address":"青梅市今井2-908-1","lat":35.806511,"lon":139.311031},{"name":"＊?青梅市成木図書館","province":"東京都","city":"青梅市","address":"青梅市成木4-644","lat":35.824159,"lon":139.248541},{"name":"＊?青梅市小曾木図書館","province":"東京都","city":"青梅市","address":"青梅市小曾木3-1656-1","lat":35.818065,"lon":139.275106},{"name":"＊?青梅市梅郷図書館","province":"東京都","city":"青梅市","address":"青梅市梅郷3-749-1","lat":35.786795,"lon":139.224431},{"name":"＊?青梅市沢井図書館","province":"東京都","city":"青梅市","address":"青梅市沢井2-682","lat":35.804713,"lon":139.196304},{"name":"＊?青梅市青梅図書館","province":"東京都","city":"青梅市","address":"青梅市仲町268-9","lat":35.791133,"lon":139.25652},{"name":"＊?河辺市民センター","province":"東京都","city":"青梅市","address":"青梅市河辺町6-18-1","lat":35.778488,"lon":139.293633},{"name":"＊?東青梅市民センター","province":"東京都","city":"青梅市","address":"青梅市師岡町3-9-6","lat":35.790631,"lon":139.282374},{"name":"小林天淵画像","province":"東京都","city":"青梅市","address":"東京都青梅市駒木町1-684","lat":35.78376,"lon":139.256702},{"name":"旧宝林寺文書","province":"東京都","city":"青梅市","address":"東京都青梅市駒木町1-684","lat":35.78376,"lon":139.256702},{"name":"石皿","province":"東京都","city":"青梅市","address":"東京都青梅市駒木町1-684","lat":35.78376,"lon":139.256702},{"name":"並木家中世文書","province":"東京都","city":"青梅市","address":"東京都青梅市駒木町1-684","lat":35.78376,"lon":139.256702},{"name":"地機","province":"東京都","city":"青梅市","address":"東京都青梅市駒木町1-684","lat":35.78376,"lon":139.256702},{"name":"青梅縞","province":"東京都","city":"青梅市","address":"東京都青梅市駒木町1-684","lat":35.78376,"lon":139.256702},{"name":"日本産狼頭骨および版木その他付属品","province":"東京都","city":"青梅市","address":"東京都青梅市駒木町1-684","lat":35.78376,"lon":139.256702},{"name":"一里塚のエノキ","province":"東京都","city":"青梅市","address":"東京都青梅市今寺2-504","lat":35.802971,"lon":139.298029},{"name":"御嶽神社旧本殿","province":"東京都","city":"青梅市","address":"東京都青梅市御岳山176","lat":35.782772,"lon":139.150253},{"name":"安楽寺本堂","province":"東京都","city":"青梅市","address":"東京都青梅市成木1-583","lat":35.838484,"lon":139.275364},{"name":"旧吉野家住宅","province":"東京都","city":"青梅市","address":"東京都青梅市新町1-21-9","lat":35.788144,"lon":139.297825},{"name":"馬場家御師住宅","province":"東京都","city":"青梅市","address":"東京都青梅市御岳山54","lat":35.785996,"lon":139.151073},{"name":"虎柏神社本殿","province":"東京都","city":"青梅市","address":"東京都青梅市根ケ布1-313","lat":35.802624,"lon":139.267127},{"name":"安楽寺の大スギ","province":"東京都","city":"青梅市","address":"東京都青梅市成木1-583","lat":35.838484,"lon":139.275364},{"name":"青梅市中央図書館","province":"東京都","city":"青梅市","address":"東京都青梅市河辺町10丁目8番地の1","lat":35.785387,"lon":139.285073},{"name":"青梅市青梅図書館","province":"東京都","city":"青梅市","address":"東京都青梅市仲町268番地の9","lat":35.791133,"lon":139.256484},{"name":"青梅市長淵図書館","province":"東京都","city":"青梅市","address":"東京都青梅市長淵6丁目492番地の1","lat":35.780335,"lon":139.268546},{"name":"青梅市大門図書館","province":"東京都","city":"青梅市","address":"東京都青梅市大門2丁目288番地","lat":35.796765,"lon":139.291206},{"name":"青梅市梅郷図書館","province":"東京都","city":"青梅市","address":"東京都青梅市梅郷3丁目749番地の1","lat":35.786581,"lon":139.224326},{"name":"青梅市沢井図書館","province":"東京都","city":"青梅市","address":"東京都青梅市沢井2丁目682番地","lat":35.804711,"lon":139.196279},{"name":"青梅市成木図書館","province":"東京都","city":"青梅市","address":"東京都青梅市成木4丁目644番地","lat":35.824186,"lon":139.24851},{"name":"青梅市新町図書館","province":"東京都","city":"青梅市","address":"東京都青梅市新町4丁目17番地の1","lat":35.785985,"lon":139.305154},{"name":"青梅市今井図書館","province":"東京都","city":"青梅市","address":"東京都青梅市今井2丁目908番地の1","lat":35.806544,"lon":139.310973},{"name":"ｓ釜の淵市民館","province":"東京都","city":"青梅市","address":"東京都青梅市大柳町1392","lat":35.78482878,"lon":139.25300977},{"name":"＊?青梅市郷土博物館","province":"東京都","city":"青梅市","address":"青梅市駒木町1-684","lat":35.783794,"lon":139.25672},{"name":"＊?青梅市立美術館","province":"東京都","city":"青梅市","address":"青梅市滝ノ上町1346-1","lat":35.787547,"lon":139.255959},{"name":"＊?青梅市長淵図書館","province":"東京都","city":"青梅市","address":"青梅市長淵6-492-1","lat":35.780194,"lon":139.268855},{"name":"＊?青梅市中央図書館","province":"東京都","city":"青梅市","address":"青梅市河辺町10-8-1","lat":35.785364,"lon":139.285038},{"name":"＊?青梅市大門図書館","province":"東京都","city":"青梅市","address":"青梅市大門2-288","lat":35.796684,"lon":139.290865},{"name":"＊?青梅市新町図書館","province":"東京都","city":"青梅市","address":"青梅市新町4-17-1","lat":35.786079,"lon":139.304925},{"name":"＊?青梅市今井図書館","province":"東京都","city":"青梅市","address":"青梅市今井2-908-1","lat":35.806511,"lon":139.311031},{"name":"＊?青梅市成木図書館","province":"東京都","city":"青梅市","address":"青梅市成木4-644","lat":35.824159,"lon":139.248541},{"name":"＊?青梅市小曾木図書館","province":"東京都","city":"青梅市","address":"青梅市小曾木3-1656-1","lat":35.818065,"lon":139.275106},{"name":"＊?青梅市梅郷図書館","province":"東京都","city":"青梅市","address":"青梅市梅郷3-749-1","lat":35.786795,"lon":139.224431},{"name":"＊?青梅市沢井図書館","province":"東京都","city":"青梅市","address":"青梅市沢井2-682","lat":35.804713,"lon":139.196304},{"name":"＊?青梅市青梅図書館","province":"東京都","city":"青梅市","address":"青梅市仲町268-9","lat":35.791133,"lon":139.25652},{"name":"＊?河辺市民センター","province":"東京都","city":"青梅市","address":"青梅市河辺町6-18-1","lat":35.778488,"lon":139.293633},{"name":"＊?東青梅市民センター","province":"東京都","city":"青梅市","address":"青梅市師岡町3-9-6","lat":35.790631,"lon":139.282374},{"name":"小林天淵画像","province":"東京都","city":"青梅市","address":"東京都青梅市駒木町1-684","lat":35.78376,"lon":139.256702},{"name":"旧宝林寺文書","province":"東京都","city":"青梅市","address":"東京都青梅市駒木町1-684","lat":35.78376,"lon":139.256702},{"name":"石皿","province":"東京都","city":"青梅市","address":"東京都青梅市駒木町1-684","lat":35.78376,"lon":139.256702},{"name":"並木家中世文書","province":"東京都","city":"青梅市","address":"東京都青梅市駒木町1-684","lat":35.78376,"lon":139.256702},{"name":"地機","province":"東京都","city":"青梅市","address":"東京都青梅市駒木町1-684","lat":35.78376,"lon":139.256702},{"name":"青梅縞","province":"東京都","city":"青梅市","address":"東京都青梅市駒木町1-684","lat":35.78376,"lon":139.256702},{"name":"日本産狼頭骨および版木その他付属品","province":"東京都","city":"青梅市","address":"東京都青梅市駒木町1-684","lat":35.78376,"lon":139.256702},{"name":"一里塚のエノキ","province":"東京都","city":"青梅市","address":"東京都青梅市今寺2-504","lat":35.802971,"lon":139.298029},{"name":"御嶽神社旧本殿","province":"東京都","city":"青梅市","address":"東京都青梅市御岳山176","lat":35.782772,"lon":139.150253},{"name":"安楽寺本堂","province":"東京都","city":"青梅市","address":"東京都青梅市成木1-583","lat":35.838484,"lon":139.275364},{"name":"旧吉野家住宅","province":"東京都","city":"青梅市","address":"東京都青梅市新町1-21-9","lat":35.788144,"lon":139.297825},{"name":"馬場家御師住宅","province":"東京都","city":"青梅市","address":"東京都青梅市御岳山54","lat":35.785996,"lon":139.151073},{"name":"虎柏神社本殿","province":"東京都","city":"青梅市","address":"東京都青梅市根ケ布1-313","lat":35.802624,"lon":139.267127},{"name":"安楽寺の大スギ","province":"東京都","city":"青梅市","address":"東京都青梅市成木1-583","lat":35.838484,"lon":139.275364},{"name":"青梅市中央図書館","province":"東京都","city":"青梅市","address":"東京都青梅市河辺町10丁目8番地の1","lat":35.785387,"lon":139.285073},{"name":"青梅市青梅図書館","province":"東京都","city":"青梅市","address":"東京都青梅市仲町268番地の9","lat":35.791133,"lon":139.256484},{"name":"青梅市長淵図書館","province":"東京都","city":"青梅市","address":"東京都青梅市長淵6丁目492番地の1","lat":35.780335,"lon":139.268546},{"name":"青梅市大門図書館","province":"東京都","city":"青梅市","address":"東京都青梅市大門2丁目288番地","lat":35.796765,"lon":139.291206},{"name":"青梅市梅郷図書館","province":"東京都","city":"青梅市","address":"東京都青梅市梅郷3丁目749番地の1","lat":35.786581,"lon":139.224326},{"name":"青梅市沢井図書館","province":"東京都","city":"青梅市","address":"東京都青梅市沢井2丁目682番地","lat":35.804711,"lon":139.196279},{"name":"青梅市成木図書館","province":"東京都","city":"青梅市","address":"東京都青梅市成木4丁目644番地","lat":35.824186,"lon":139.24851},{"name":"青梅市新町図書館","province":"東京都","city":"青梅市","address":"東京都青梅市新町4丁目17番地の1","lat":35.785985,"lon":139.305154},{"name":"青梅市今井図書館","province":"東京都","city":"青梅市","address":"東京都青梅市今井2丁目908番地の1","lat":35.806544,"lon":139.310973},{"name":"ｓ釜の淵市民館","province":"東京都","city":"青梅市","address":"東京都青梅市大柳町1392","lat":35.78482878,"lon":139.25300977},{"name":"＊?青梅市郷土博物館","province":"東京都","city":"青梅市","address":"青梅市駒木町1-684","lat":35.783794,"lon":139.25672},{"name":"＊?青梅市立美術館","province":"東京都","city":"青梅市","address":"青梅市滝ノ上町1346-1","lat":35.787547,"lon":139.255959},{"name":"＊?青梅市長淵図書館","province":"東京都","city":"青梅市","address":"青梅市長淵6-492-1","lat":35.780194,"lon":139.268855},{"name":"＊?青梅市中央図書館","province":"東京都","city":"青梅市","address":"青梅市河辺町10-8-1","lat":35.785364,"lon":139.285038},{"name":"＊?青梅市大門図書館","province":"東京都","city":"青梅市","address":"青梅市大門2-288","lat":35.796684,"lon":139.290865},{"name":"＊?青梅市新町図書館","province":"東京都","city":"青梅市","address":"青梅市新町4-17-1","lat":35.786079,"lon":139.304925},{"name":"＊?青梅市今井図書館","province":"東京都","city":"青梅市","address":"青梅市今井2-908-1","lat":35.806511,"lon":139.311031},{"name":"＊?青梅市成木図書館","province":"東京都","city":"青梅市","address":"青梅市成木4-644","lat":35.824159,"lon":139.248541},{"name":"＊?青梅市小曾木図書館","province":"東京都","city":"青梅市","address":"青梅市小曾木3-1656-1","lat":35.818065,"lon":139.275106},{"name":"＊?青梅市梅郷図書館","province":"東京都","city":"青梅市","address":"青梅市梅郷3-749-1","lat":35.786795,"lon":139.224431},{"name":"＊?青梅市沢井図書館","province":"東京都","city":"青梅市","address":"青梅市沢井2-682","lat":35.804713,"lon":139.196304},{"name":"＊?青梅市青梅図書館","province":"東京都","city":"青梅市","address":"青梅市仲町268-9","lat":35.791133,"lon":139.25652},{"name":"＊?河辺市民センター","province":"東京都","city":"青梅市","address":"青梅市河辺町6-18-1","lat":35.778488,"lon":139.293633},{"name":"＊?東青梅市民センター","province":"東京都","city":"青梅市","address":"青梅市師岡町3-9-6","lat":35.790631,"lon":139.282374},{"name":"小林天淵画像","province":"東京都","city":"青梅市","address":"東京都青梅市駒木町1-684","lat":35.78376,"lon":139.256702},{"name":"旧宝林寺文書","province":"東京都","city":"青梅市","address":"東京都青梅市駒木町1-684","lat":35.78376,"lon":139.256702},{"name":"石皿","province":"東京都","city":"青梅市","address":"東京都青梅市駒木町1-684","lat":35.78376,"lon":139.256702},{"name":"並木家中世文書","province":"東京都","city":"青梅市","address":"東京都青梅市駒木町1-684","lat":35.78376,"lon":139.256702},{"name":"地機","province":"東京都","city":"青梅市","address":"東京都青梅市駒木町1-684","lat":35.78376,"lon":139.256702},{"name":"青梅縞","province":"東京都","city":"青梅市","address":"東京都青梅市駒木町1-684","lat":35.78376,"lon":139.256702},{"name":"日本産狼頭骨および版木その他付属品","province":"東京都","city":"青梅市","address":"東京都青梅市駒木町1-684","lat":35.78376,"lon":139.256702},{"name":"一里塚のエノキ","province":"東京都","city":"青梅市","address":"東京都青梅市今寺2-504","lat":35.802971,"lon":139.298029},{"name":"御嶽神社旧本殿","province":"東京都","city":"青梅市","address":"東京都青梅市御岳山176","lat":35.782772,"lon":139.150253},{"name":"安楽寺本堂","province":"東京都","city":"青梅市","address":"東京都青梅市成木1-583","lat":35.838484,"lon":139.275364},{"name":"旧吉野家住宅","province":"東京都","city":"青梅市","address":"東京都青梅市新町1-21-9","lat":35.788144,"lon":139.297825},{"name":"馬場家御師住宅","province":"東京都","city":"青梅市","address":"東京都青梅市御岳山54","lat":35.785996,"lon":139.151073},{"name":"虎柏神社本殿","province":"東京都","city":"青梅市","address":"東京都青梅市根ケ布1-313","lat":35.802624,"lon":139.267127},{"name":"安楽寺の大スギ","province":"東京都","city":"青梅市","address":"東京都青梅市成木1-583","lat":35.838484,"lon":139.275364},{"name":"青梅市中央図書館","province":"東京都","city":"青梅市","address":"東京都青梅市河辺町10丁目8番地の1","lat":35.785387,"lon":139.285073},{"name":"青梅市青梅図書館","province":"東京都","city":"青梅市","address":"東京都青梅市仲町268番地の9","lat":35.791133,"lon":139.256484},{"name":"青梅市長淵図書館","province":"東京都","city":"青梅市","address":"東京都青梅市長淵6丁目492番地の1","lat":35.780335,"lon":139.268546},{"name":"青梅市大門図書館","province":"東京都","city":"青梅市","address":"東京都青梅市大門2丁目288番地","lat":35.796765,"lon":139.291206},{"name":"青梅市梅郷図書館","province":"東京都","city":"青梅市","address":"東京都青梅市梅郷3丁目749番地の1","lat":35.786581,"lon":139.224326},{"name":"青梅市沢井図書館","province":"東京都","city":"青梅市","address":"東京都青梅市沢井2丁目682番地","lat":35.804711,"lon":139.196279},{"name":"青梅市成木図書館","province":"東京都","city":"青梅市","address":"東京都青梅市成木4丁目644番地","lat":35.824186,"lon":139.24851},{"name":"青梅市新町図書館","province":"東京都","city":"青梅市","address":"東京都青梅市新町4丁目17番地の1","lat":35.785985,"lon":139.305154},{"name":"青梅市今井図書館","province":"東京都","city":"青梅市","address":"東京都青梅市今井2丁目908番地の1","lat":35.806544,"lon":139.310973},{"name":"ｓ釜の淵市民館","province":"東京都","city":"青梅市","address":"東京都青梅市大柳町1392","lat":35.78482878,"lon":139.25300977},{"name":"＊?青梅市郷土博物館","province":"東京都","city":"青梅市","address":"青梅市駒木町1-684","lat":35.783794,"lon":139.25672},{"name":"＊?青梅市立美術館","province":"東京都","city":"青梅市","address":"青梅市滝ノ上町1346-1","lat":35.787547,"lon":139.255959},{"name":"＊?青梅市長淵図書館","province":"東京都","city":"青梅市","address":"青梅市長淵6-492-1","lat":35.780194,"lon":139.268855},{"name":"＊?青梅市中央図書館","province":"東京都","city":"青梅市","address":"青梅市河辺町10-8-1","lat":35.785364,"lon":139.285038},{"name":"＊?青梅市大門図書館","province":"東京都","city":"青梅市","address":"青梅市大門2-288","lat":35.796684,"lon":139.290865},{"name":"＊?青梅市新町図書館","province":"東京都","city":"青梅市","address":"青梅市新町4-17-1","lat":35.786079,"lon":139.304925},{"name":"＊?青梅市今井図書館","province":"東京都","city":"青梅市","address":"青梅市今井2-908-1","lat":35.806511,"lon":139.311031},{"name":"＊?青梅市成木図書館","province":"東京都","city":"青梅市","address":"青梅市成木4-644","lat":35.824159,"lon":139.248541},{"name":"＊?青梅市小曾木図書館","province":"東京都","city":"青梅市","address":"青梅市小曾木3-1656-1","lat":35.818065,"lon":139.275106},{"name":"＊?青梅市梅郷図書館","province":"東京都","city":"青梅市","address":"青梅市梅郷3-749-1","lat":35.786795,"lon":139.224431},{"name":"＊?青梅市沢井図書館","province":"東京都","city":"青梅市","address":"青梅市沢井2-682","lat":35.804713,"lon":139.196304},{"name":"＊?青梅市青梅図書館","province":"東京都","city":"青梅市","address":"青梅市仲町268-9","lat":35.791133,"lon":139.25652},{"name":"＊?河辺市民センター","province":"東京都","city":"青梅市","address":"青梅市河辺町6-18-1","lat":35.778488,"lon":139.293633},{"name":"＊?東青梅市民センター","province":"東京都","city":"青梅市","address":"青梅市師岡町3-9-6","lat":35.790631,"lon":139.282374},{"name":"小林天淵画像","province":"東京都","city":"青梅市","address":"東京都青梅市駒木町1-684","lat":35.78376,"lon":139.256702},{"name":"旧宝林寺文書","province":"東京都","city":"青梅市","address":"東京都青梅市駒木町1-684","lat":35.78376,"lon":139.256702},{"name":"石皿","province":"東京都","city":"青梅市","address":"東京都青梅市駒木町1-684","lat":35.78376,"lon":139.256702},{"name":"並木家中世文書","province":"東京都","city":"青梅市","address":"東京都青梅市駒木町1-684","lat":35.78376,"lon":139.256702},{"name":"地機","province":"東京都","city":"青梅市","address":"東京都青梅市駒木町1-684","lat":35.78376,"lon":139.256702},{"name":"青梅縞","province":"東京都","city":"青梅市","address":"東京都青梅市駒木町1-684","lat":35.78376,"lon":139.256702},{"name":"日本産狼頭骨および版木その他付属品","province":"東京都","city":"青梅市","address":"東京都青梅市駒木町1-684","lat":35.78376,"lon":139.256702},{"name":"一里塚のエノキ","province":"東京都","city":"青梅市","address":"東京都青梅市今寺2-504","lat":35.802971,"lon":139.298029},{"name":"御嶽神社旧本殿","province":"東京都","city":"青梅市","address":"東京都青梅市御岳山176","lat":35.782772,"lon":139.150253},{"name":"安楽寺本堂","province":"東京都","city":"青梅市","address":"東京都青梅市成木1-583","lat":35.838484,"lon":139.275364},{"name":"旧吉野家住宅","province":"東京都","city":"青梅市","address":"東京都青梅市新町1-21-9","lat":35.788144,"lon":139.297825},{"name":"馬場家御師住宅","province":"東京都","city":"青梅市","address":"東京都青梅市御岳山54","lat":35.785996,"lon":139.151073},{"name":"虎柏神社本殿","province":"東京都","city":"青梅市","address":"東京都青梅市根ケ布1-313","lat":35.802624,"lon":139.267127},{"name":"安楽寺の大スギ","province":"東京都","city":"青梅市","address":"東京都青梅市成木1-583","lat":35.838484,"lon":139.275364},{"name":"青梅市中央図書館","province":"東京都","city":"青梅市","address":"東京都青梅市河辺町10丁目8番地の1","lat":35.785387,"lon":139.285073},{"name":"青梅市青梅図書館","province":"東京都","city":"青梅市","address":"東京都青梅市仲町268番地の9","lat":35.791133,"lon":139.256484},{"name":"青梅市長淵図書館","province":"東京都","city":"青梅市","address":"東京都青梅市長淵6丁目492番地の1","lat":35.780335,"lon":139.268546},{"name":"青梅市大門図書館","province":"東京都","city":"青梅市","address":"東京都青梅市大門2丁目288番地","lat":35.796765,"lon":139.291206},{"name":"青梅市梅郷図書館","province":"東京都","city":"青梅市","address":"東京都青梅市梅郷3丁目749番地の1","lat":35.786581,"lon":139.224326},{"name":"青梅市沢井図書館","province":"東京都","city":"青梅市","address":"東京都青梅市沢井2丁目682番地","lat":35.804711,"lon":139.196279},{"name":"青梅市成木図書館","province":"東京都","city":"青梅市","address":"東京都青梅市成木4丁目644番地","lat":35.824186,"lon":139.24851},{"name":"青梅市新町図書館","province":"東京都","city":"青梅市","address":"東京都青梅市新町4丁目17番地の1","lat":35.785985,"lon":139.305154},{"name":"青梅市今井図書館","province":"東京都","city":"青梅市","address":"東京都青梅市今井2丁目908番地の1","lat":35.806544,"lon":139.310973},{"name":"ｓ釜の淵市民館","province":"東京都","city":"青梅市","address":"東京都青梅市大柳町1392","lat":35.78482878,"lon":139.25300977},{"name":"＊?青梅市郷土博物館","province":"東京都","city":"青梅市","address":"青梅市駒木町1-684","lat":35.783794,"lon":139.25672},{"name":"＊?青梅市立美術館","province":"東京都","city":"青梅市","address":"青梅市滝ノ上町1346-1","lat":35.787547,"lon":139.255959},{"name":"＊?青梅市長淵図書館","province":"東京都","city":"青梅市","address":"青梅市長淵6-492-1","lat":35.780194,"lon":139.268855},{"name":"＊?青梅市中央図書館","province":"東京都","city":"青梅市","address":"青梅市河辺町10-8-1","lat":35.785364,"lon":139.285038},{"name":"＊?青梅市大門図書館","province":"東京都","city":"青梅市","address":"青梅市大門2-288","lat":35.796684,"lon":139.290865},{"name":"＊?青梅市新町図書館","province":"東京都","city":"青梅市","address":"青梅市新町4-17-1","lat":35.786079,"lon":139.304925},{"name":"＊?青梅市今井図書館","province":"東京都","city":"青梅市","address":"青梅市今井2-908-1","lat":35.806511,"lon":139.311031},{"name":"＊?青梅市成木図書館","province":"東京都","city":"青梅市","address":"青梅市成木4-644","lat":35.824159,"lon":139.248541},{"name":"＊?青梅市小曾木図書館","province":"東京都","city":"青梅市","address":"青梅市小曾木3-1656-1","lat":35.818065,"lon":139.275106},{"name":"＊?青梅市梅郷図書館","province":"東京都","city":"青梅市","address":"青梅市梅郷3-749-1","lat":35.786795,"lon":139.224431},{"name":"＊?青梅市沢井図書館","province":"東京都","city":"青梅市","address":"青梅市沢井2-682","lat":35.804713,"lon":139.196304},{"name":"＊?青梅市青梅図書館","province":"東京都","city":"青梅市","address":"青梅市仲町268-9","lat":35.791133,"lon":139.25652},{"name":"＊?河辺市民センター","province":"東京都","city":"青梅市","address":"青梅市河辺町6-18-1","lat":35.778488,"lon":139.293633},{"name":"＊?東青梅市民センター","province":"東京都","city":"青梅市","address":"青梅市師岡町3-9-6","lat":35.790631,"lon":139.282374},{"name":"小林天淵画像","province":"東京都","city":"青梅市","address":"東京都青梅市駒木町1-684","lat":35.78376,"lon":139.256702},{"name":"旧宝林寺文書","province":"東京都","city":"青梅市","address":"東京都青梅市駒木町1-684","lat":35.78376,"lon":139.256702},{"name":"石皿","province":"東京都","city":"青梅市","address":"東京都青梅市駒木町1-684","lat":35.78376,"lon":139.256702},{"name":"並木家中世文書","province":"東京都","city":"青梅市","address":"東京都青梅市駒木町1-684","lat":35.78376,"lon":139.256702},{"name":"地機","province":"東京都","city":"青梅市","address":"東京都青梅市駒木町1-684","lat":35.78376,"lon":139.256702},{"name":"青梅縞","province":"東京都","city":"青梅市","address":"東京都青梅市駒木町1-684","lat":35.78376,"lon":139.256702},{"name":"日本産狼頭骨および版木その他付属品","province":"東京都","city":"青梅市","address":"東京都青梅市駒木町1-684","lat":35.78376,"lon":139.256702},{"name":"一里塚のエノキ","province":"東京都","city":"青梅市","address":"東京都青梅市今寺2-504","lat":35.802971,"lon":139.298029},{"name":"御嶽神社旧本殿","province":"東京都","city":"青梅市","address":"東京都青梅市御岳山176","lat":35.782772,"lon":139.150253},{"name":"安楽寺本堂","province":"東京都","city":"青梅市","address":"東京都青梅市成木1-583","lat":35.838484,"lon":139.275364},{"name":"旧吉野家住宅","province":"東京都","city":"青梅市","address":"東京都青梅市新町1-21-9","lat":35.788144,"lon":139.297825},{"name":"馬場家御師住宅","province":"東京都","city":"青梅市","address":"東京都青梅市御岳山54","lat":35.785996,"lon":139.151073},{"name":"虎柏神社本殿","province":"東京都","city":"青梅市","address":"東京都青梅市根ケ布1-313","lat":35.802624,"lon":139.267127},{"name":"安楽寺の大スギ","province":"東京都","city":"青梅市","address":"東京都青梅市成木1-583","lat":35.838484,"lon":139.275364},{"name":"青梅市中央図書館","province":"東京都","city":"青梅市","address":"東京都青梅市河辺町10丁目8番地の1","lat":35.785387,"lon":139.285073},{"name":"青梅市青梅図書館","province":"東京都","city":"青梅市","address":"東京都青梅市仲町268番地の9","lat":35.791133,"lon":139.256484},{"name":"青梅市長淵図書館","province":"東京都","city":"青梅市","address":"東京都青梅市長淵6丁目492番地の1","lat":35.780335,"lon":139.268546},{"name":"青梅市大門図書館","province":"東京都","city":"青梅市","address":"東京都青梅市大門2丁目288番地","lat":35.796765,"lon":139.291206},{"name":"青梅市梅郷図書館","province":"東京都","city":"青梅市","address":"東京都青梅市梅郷3丁目749番地の1","lat":35.786581,"lon":139.224326},{"name":"青梅市沢井図書館","province":"東京都","city":"青梅市","address":"東京都青梅市沢井2丁目682番地","lat":35.804711,"lon":139.196279},{"name":"青梅市成木図書館","province":"東京都","city":"青梅市","address":"東京都青梅市成木4丁目644番地","lat":35.824186,"lon":139.24851},{"name":"青梅市新町図書館","province":"東京都","city":"青梅市","address":"東京都青梅市新町4丁目17番地の1","lat":35.785985,"lon":139.305154},{"name":"青梅市今井図書館","province":"東京都","city":"青梅市","address":"東京都青梅市今井2丁目908番地の1","lat":35.806544,"lon":139.310973},{"name":"ｓ釜の淵市民館","province":"東京都","city":"青梅市","address":"東京都青梅市大柳町1392","lat":35.78482878,"lon":139.25300977},{"name":"＊?青梅市郷土博物館","province":"東京都","city":"青梅市","address":"青梅市駒木町1-684","lat":35.783794,"lon":139.25672},{"name":"＊?青梅市立美術館","province":"東京都","city":"青梅市","address":"青梅市滝ノ上町1346-1","lat":35.787547,"lon":139.255959},{"name":"＊?青梅市長淵図書館","province":"東京都","city":"青梅市","address":"青梅市長淵6-492-1","lat":35.780194,"lon":139.268855},{"name":"＊?青梅市中央図書館","province":"東京都","city":"青梅市","address":"青梅市河辺町10-8-1","lat":35.785364,"lon":139.285038},{"name":"＊?青梅市大門図書館","province":"東京都","city":"青梅市","address":"青梅市大門2-288","lat":35.796684,"lon":139.290865},{"name":"＊?青梅市新町図書館","province":"東京都","city":"青梅市","address":"青梅市新町4-17-1","lat":35.786079,"lon":139.304925},{"name":"＊?青梅市今井図書館","province":"東京都","city":"青梅市","address":"青梅市今井2-908-1","lat":35.806511,"lon":139.311031},{"name":"＊?青梅市成木図書館","province":"東京都","city":"青梅市","address":"青梅市成木4-644","lat":35.824159,"lon":139.248541},{"name":"＊?青梅市小曾木図書館","province":"東京都","city":"青梅市","address":"青梅市小曾木3-1656-1","lat":35.818065,"lon":139.275106},{"name":"＊?青梅市梅郷図書館","province":"東京都","city":"青梅市","address":"青梅市梅郷3-749-1","lat":35.786795,"lon":139.224431},{"name":"＊?青梅市沢井図書館","province":"東京都","city":"青梅市","address":"青梅市沢井2-682","lat":35.804713,"lon":139.196304},{"name":"＊?青梅市青梅図書館","province":"東京都","city":"青梅市","address":"青梅市仲町268-9","lat":35.791133,"lon":139.25652},{"name":"＊?河辺市民センター","province":"東京都","city":"青梅市","address":"青梅市河辺町6-18-1","lat":35.778488,"lon":139.293633},{"name":"＊?東青梅市民センター","province":"東京都","city":"青梅市","address":"青梅市師岡町3-9-6","lat":35.790631,"lon":139.282374},{"name":"小林天淵画像","province":"東京都","city":"青梅市","address":"東京都青梅市駒木町1-684","lat":35.78376,"lon":139.256702},{"name":"旧宝林寺文書","province":"東京都","city":"青梅市","address":"東京都青梅市駒木町1-684","lat":35.78376,"lon":139.256702},{"name":"石皿","province":"東京都","city":"青梅市","address":"東京都青梅市駒木町1-684","lat":35.78376,"lon":139.256702},{"name":"並木家中世文書","province":"東京都","city":"青梅市","address":"東京都青梅市駒木町1-684","lat":35.78376,"lon":139.256702},{"name":"地機","province":"東京都","city":"青梅市","address":"東京都青梅市駒木町1-684","lat":35.78376,"lon":139.256702},{"name":"青梅縞","province":"東京都","city":"青梅市","address":"東京都青梅市駒木町1-684","lat":35.78376,"lon":139.256702},{"name":"日本産狼頭骨および版木その他付属品","province":"東京都","city":"青梅市","address":"東京都青梅市駒木町1-684","lat":35.78376,"lon":139.256702},{"name":"一里塚のエノキ","province":"東京都","city":"青梅市","address":"東京都青梅市今寺2-504","lat":35.802971,"lon":139.298029},{"name":"御嶽神社旧本殿","province":"東京都","city":"青梅市","address":"東京都青梅市御岳山176","lat":35.782772,"lon":139.150253},{"name":"安楽寺本堂","province":"東京都","city":"青梅市","address":"東京都青梅市成木1-583","lat":35.838484,"lon":139.275364},{"name":"旧吉野家住宅","province":"東京都","city":"青梅市","address":"東京都青梅市新町1-21-9","lat":35.788144,"lon":139.297825},{"name":"馬場家御師住宅","province":"東京都","city":"青梅市","address":"東京都青梅市御岳山54","lat":35.785996,"lon":139.151073},{"name":"虎柏神社本殿","province":"東京都","city":"青梅市","address":"東京都青梅市根ケ布1-313","lat":35.802624,"lon":139.267127},{"name":"安楽寺の大スギ","province":"東京都","city":"青梅市","address":"東京都青梅市成木1-583","lat":35.838484,"lon":139.275364},{"name":"青梅市中央図書館","province":"東京都","city":"青梅市","address":"東京都青梅市河辺町10丁目8番地の1","lat":35.785387,"lon":139.285073},{"name":"青梅市青梅図書館","province":"東京都","city":"青梅市","address":"東京都青梅市仲町268番地の9","lat":35.791133,"lon":139.256484},{"name":"青梅市長淵図書館","province":"東京都","city":"青梅市","address":"東京都青梅市長淵6丁目492番地の1","lat":35.780335,"lon":139.268546},{"name":"青梅市大門図書館","province":"東京都","city":"青梅市","address":"東京都青梅市大門2丁目288番地","lat":35.796765,"lon":139.291206},{"name":"青梅市梅郷図書館","province":"東京都","city":"青梅市","address":"東京都青梅市梅郷3丁目749番地の1","lat":35.786581,"lon":139.224326},{"name":"青梅市沢井図書館","province":"東京都","city":"青梅市","address":"東京都青梅市沢井2丁目682番地","lat":35.804711,"lon":139.196279},{"name":"青梅市成木図書館","province":"東京都","city":"青梅市","address":"東京都青梅市成木4丁目644番地","lat":35.824186,"lon":139.24851},{"name":"青梅市新町図書館","province":"東京都","city":"青梅市","address":"東京都青梅市新町4丁目17番地の1","lat":35.785985,"lon":139.305154},{"name":"青梅市今井図書館","province":"東京都","city":"青梅市","address":"東京都青梅市今井2丁目908番地の1","lat":35.806544,"lon":139.310973},{"name":"ｓ釜の淵市民館","province":"東京都","city":"青梅市","address":"東京都青梅市大柳町1392","lat":35.78482878,"lon":139.25300977},{"name":"＊?青梅市郷土博物館","province":"東京都","city":"青梅市","address":"青梅市駒木町1-684","lat":35.783794,"lon":139.25672},{"name":"＊?青梅市立美術館","province":"東京都","city":"青梅市","address":"青梅市滝ノ上町1346-1","lat":35.787547,"lon":139.255959},{"name":"＊?青梅市長淵図書館","province":"東京都","city":"青梅市","address":"青梅市長淵6-492-1","lat":35.780194,"lon":139.268855},{"name":"＊?青梅市中央図書館","province":"東京都","city":"青梅市","address":"青梅市河辺町10-8-1","lat":35.785364,"lon":139.285038},{"name":"＊?青梅市大門図書館","province":"東京都","city":"青梅市","address":"青梅市大門2-288","lat":35.796684,"lon":139.290865},{"name":"＊?青梅市新町図書館","province":"東京都","city":"青梅市","address":"青梅市新町4-17-1","lat":35.786079,"lon":139.304925},{"name":"＊?青梅市今井図書館","province":"東京都","city":"青梅市","address":"青梅市今井2-908-1","lat":35.806511,"lon":139.311031},{"name":"＊?青梅市成木図書館","province":"東京都","city":"青梅市","address":"青梅市成木4-644","lat":35.824159,"lon":139.248541},{"name":"＊?青梅市小曾木図書館","province":"東京都","city":"青梅市","address":"青梅市小曾木3-1656-1","lat":35.818065,"lon":139.275106},{"name":"＊?青梅市梅郷図書館","province":"東京都","city":"青梅市","address":"青梅市梅郷3-749-1","lat":35.786795,"lon":139.224431},{"name":"＊?青梅市沢井図書館","province":"東京都","city":"青梅市","address":"青梅市沢井2-682","lat":35.804713,"lon":139.196304},{"name":"＊?青梅市青梅図書館","province":"東京都","city":"青梅市","address":"青梅市仲町268-9","lat":35.791133,"lon":139.25652},{"name":"＊?河辺市民センター","province":"東京都","city":"青梅市","address":"青梅市河辺町6-18-1","lat":35.778488,"lon":139.293633},{"name":"＊?東青梅市民センター","province":"東京都","city":"青梅市","address":"青梅市師岡町3-9-6","lat":35.790631,"lon":139.282374},{"name":"御嶽神社旧本殿","province":"東京都","city":"青梅市","address":"東京都青梅市御岳山176","lat":35.782772,"lon":139.150253},{"name":"安楽寺本堂","province":"東京都","city":"青梅市","address":"東京都青梅市成木1-583","lat":35.838484,"lon":139.275364},{"name":"旧吉野家住宅","province":"東京都","city":"青梅市","address":"東京都青梅市新町1-21-9","lat":35.788144,"lon":139.297825},{"name":"馬場家御師住宅","province":"東京都","city":"青梅市","address":"東京都青梅市御岳山54","lat":35.785996,"lon":139.151073},{"name":"虎柏神社本殿","province":"東京都","city":"青梅市","address":"東京都青梅市根ケ布1-313","lat":35.802624,"lon":139.267127},{"name":"安楽寺の大スギ","province":"東京都","city":"青梅市","address":"東京都青梅市成木1-583","lat":35.838484,"lon":139.275364},{"name":"青梅市中央図書館","province":"東京都","city":"青梅市","address":"東京都青梅市河辺町10丁目8番地の1","lat":35.785387,"lon":139.285073},{"name":"青梅市青梅図書館","province":"東京都","city":"青梅市","address":"東京都青梅市仲町268番地の9","lat":35.791133,"lon":139.256484},{"name":"青梅市長淵図書館","province":"東京都","city":"青梅市","address":"東京都青梅市長淵6丁目492番地の1","lat":35.780335,"lon":139.268546},{"name":"青梅市大門図書館","province":"東京都","city":"青梅市","address":"東京都青梅市大門2丁目288番地","lat":35.796765,"lon":139.291206},{"name":"青梅市梅郷図書館","province":"東京都","city":"青梅市","address":"東京都青梅市梅郷3丁目749番地の1","lat":35.786581,"lon":139.224326},{"name":"青梅市沢井図書館","province":"東京都","city":"青梅市","address":"東京都青梅市沢井2丁目682番地","lat":35.804711,"lon":139.196279},{"name":"青梅市成木図書館","province":"東京都","city":"青梅市","address":"東京都青梅市成木4丁目644番地","lat":35.824186,"lon":139.24851},{"name":"青梅市新町図書館","province":"東京都","city":"青梅市","address":"東京都青梅市新町4丁目17番地の1","lat":35.785985,"lon":139.305154},{"name":"青梅市今井図書館","province":"東京都","city":"青梅市","address":"東京都青梅市今井2丁目908番地の1","lat":35.806544,"lon":139.310973},{"name":"ｓ釜の淵市民館","province":"東京都","city":"青梅市","address":"東京都青梅市大柳町1392","lat":35.78482878,"lon":139.25300977},{"name":"＊?青梅市郷土博物館","province":"東京都","city":"青梅市","address":"青梅市駒木町1-684","lat":35.783794,"lon":139.25672},{"name":"＊?青梅市立美術館","province":"東京都","city":"青梅市","address":"青梅市滝ノ上町1346-1","lat":35.787547,"lon":139.255959},{"name":"＊?青梅市長淵図書館","province":"東京都","city":"青梅市","address":"青梅市長淵6-492-1","lat":35.780194,"lon":139.268855},{"name":"＊?青梅市中央図書館","province":"東京都","city":"青梅市","address":"青梅市河辺町10-8-1","lat":35.785364,"lon":139.285038},{"name":"＊?青梅市大門図書館","province":"東京都","city":"青梅市","address":"青梅市大門2-288","lat":35.796684,"lon":139.290865},{"name":"＊?青梅市新町図書館","province":"東京都","city":"青梅市","address":"青梅市新町4-17-1","lat":35.786079,"lon":139.304925},{"name":"＊?青梅市今井図書館","province":"東京都","city":"青梅市","address":"青梅市今井2-908-1","lat":35.806511,"lon":139.311031},{"name":"＊?青梅市成木図書館","province":"東京都","city":"青梅市","address":"青梅市成木4-644","lat":35.824159,"lon":139.248541},{"name":"＊?青梅市小曾木図書館","province":"東京都","city":"青梅市","address":"青梅市小曾木3-1656-1","lat":35.818065,"lon":139.275106},{"name":"＊?青梅市梅郷図書館","province":"東京都","city":"青梅市","address":"青梅市梅郷3-749-1","lat":35.786795,"lon":139.224431},{"name":"＊?青梅市沢井図書館","province":"東京都","city":"青梅市","address":"青梅市沢井2-682","lat":35.804713,"lon":139.196304},{"name":"＊?青梅市青梅図書館","province":"東京都","city":"青梅市","address":"青梅市仲町268-9","lat":35.791133,"lon":139.25652},{"name":"＊?河辺市民センター","province":"東京都","city":"青梅市","address":"青梅市河辺町6-18-1","lat":35.778488,"lon":139.293633},{"name":"＊?東青梅市民センター","province":"東京都","city":"青梅市","address":"青梅市師岡町3-9-6","lat":35.790631,"lon":139.282374},{"name":"御嶽神社旧本殿","province":"東京都","city":"青梅市","address":"東京都青梅市御岳山176","lat":35.782772,"lon":139.150253},{"name":"安楽寺本堂","province":"東京都","city":"青梅市","address":"東京都青梅市成木1-583","lat":35.838484,"lon":139.275364},{"name":"旧吉野家住宅","province":"東京都","city":"青梅市","address":"東京都青梅市新町1-21-9","lat":35.788144,"lon":139.297825},{"name":"馬場家御師住宅","province":"東京都","city":"青梅市","address":"東京都青梅市御岳山54","lat":35.785996,"lon":139.151073},{"name":"虎柏神社本殿","province":"東京都","city":"青梅市","address":"東京都青梅市根ケ布1-313","lat":35.802624,"lon":139.267127},{"name":"安楽寺の大スギ","province":"東京都","city":"青梅市","address":"東京都青梅市成木1-583","lat":35.838484,"lon":139.275364},{"name":"青梅市中央図書館","province":"東京都","city":"青梅市","address":"東京都青梅市河辺町10丁目8番地の1","lat":35.785387,"lon":139.285073},{"name":"青梅市青梅図書館","province":"東京都","city":"青梅市","address":"東京都青梅市仲町268番地の9","lat":35.791133,"lon":139.256484},{"name":"青梅市長淵図書館","province":"東京都","city":"青梅市","address":"東京都青梅市長淵6丁目492番地の1","lat":35.780335,"lon":139.268546},{"name":"青梅市大門図書館","province":"東京都","city":"青梅市","address":"東京都青梅市大門2丁目288番地","lat":35.796765,"lon":139.291206},{"name":"青梅市梅郷図書館","province":"東京都","city":"青梅市","address":"東京都青梅市梅郷3丁目749番地の1","lat":35.786581,"lon":139.224326},{"name":"青梅市沢井図書館","province":"東京都","city":"青梅市","address":"東京都青梅市沢井2丁目682番地","lat":35.804711,"lon":139.196279},{"name":"青梅市成木図書館","province":"東京都","city":"青梅市","address":"東京都青梅市成木4丁目644番地","lat":35.824186,"lon":139.24851},{"name":"青梅市新町図書館","province":"東京都","city":"青梅市","address":"東京都青梅市新町4丁目17番地の1","lat":35.785985,"lon":139.305154},{"name":"青梅市今井図書館","province":"東京都","city":"青梅市","address":"東京都青梅市今井2丁目908番地の1","lat":35.806544,"lon":139.310973},{"name":"ｓ釜の淵市民館","province":"東京都","city":"青梅市","address":"東京都青梅市大柳町1392","lat":35.78482878,"lon":139.25300977},{"name":"＊?青梅市郷土博物館","province":"東京都","city":"青梅市","address":"青梅市駒木町1-684","lat":35.783794,"lon":139.25672},{"name":"＊?青梅市立美術館","province":"東京都","city":"青梅市","address":"青梅市滝ノ上町1346-1","lat":35.787547,"lon":139.255959},{"name":"＊?青梅市長淵図書館","province":"東京都","city":"青梅市","address":"青梅市長淵6-492-1","lat":35.780194,"lon":139.268855},{"name":"＊?青梅市中央図書館","province":"東京都","city":"青梅市","address":"青梅市河辺町10-8-1","lat":35.785364,"lon":139.285038},{"name":"＊?青梅市大門図書館","province":"東京都","city":"青梅市","address":"青梅市大門2-288","lat":35.796684,"lon":139.290865},{"name":"＊?青梅市新町図書館","province":"東京都","city":"青梅市","address":"青梅市新町4-17-1","lat":35.786079,"lon":139.304925},{"name":"＊?青梅市今井図書館","province":"東京都","city":"青梅市","address":"青梅市今井2-908-1","lat":35.806511,"lon":139.311031},{"name":"＊?青梅市成木図書館","province":"東京都","city":"青梅市","address":"青梅市成木4-644","lat":35.824159,"lon":139.248541},{"name":"＊?青梅市小曾木図書館","province":"東京都","city":"青梅市","address":"青梅市小曾木3-1656-1","lat":35.818065,"lon":139.275106},{"name":"＊?青梅市梅郷図書館","province":"東京都","city":"青梅市","address":"青梅市梅郷3-749-1","lat":35.786795,"lon":139.224431},{"name":"＊?青梅市沢井図書館","province":"東京都","city":"青梅市","address":"青梅市沢井2-682","lat":35.804713,"lon":139.196304},{"name":"＊?青梅市青梅図書館","province":"東京都","city":"青梅市","address":"青梅市仲町268-9","lat":35.791133,"lon":139.25652},{"name":"＊?河辺市民センター","province":"東京都","city":"青梅市","address":"青梅市河辺町6-18-1","lat":35.778488,"lon":139.293633},{"name":"＊?東青梅市民センター","province":"東京都","city":"青梅市","address":"青梅市師岡町3-9-6","lat":35.790631,"lon":139.282374},{"name":"御嶽神社旧本殿","province":"東京都","city":"青梅市","address":"東京都青梅市御岳山176","lat":35.782772,"lon":139.150253},{"name":"安楽寺本堂","province":"東京都","city":"青梅市","address":"東京都青梅市成木1-583","lat":35.838484,"lon":139.275364},{"name":"旧吉野家住宅","province":"東京都","city":"青梅市","address":"東京都青梅市新町1-21-9","lat":35.788144,"lon":139.297825},{"name":"馬場家御師住宅","province":"東京都","city":"青梅市","address":"東京都青梅市御岳山54","lat":35.785996,"lon":139.151073},{"name":"虎柏神社本殿","province":"東京都","city":"青梅市","address":"東京都青梅市根ケ布1-313","lat":35.802624,"lon":139.267127},{"name":"安楽寺の大スギ","province":"東京都","city":"青梅市","address":"東京都青梅市成木1-583","lat":35.838484,"lon":139.275364},{"name":"青梅市中央図書館","province":"東京都","city":"青梅市","address":"東京都青梅市河辺町10丁目8番地の1","lat":35.785387,"lon":139.285073},{"name":"青梅市青梅図書館","province":"東京都","city":"青梅市","address":"東京都青梅市仲町268番地の9","lat":35.791133,"lon":139.256484},{"name":"青梅市長淵図書館","province":"東京都","city":"青梅市","address":"東京都青梅市長淵6丁目492番地の1","lat":35.780335,"lon":139.268546},{"name":"青梅市大門図書館","province":"東京都","city":"青梅市","address":"東京都青梅市大門2丁目288番地","lat":35.796765,"lon":139.291206},{"name":"青梅市梅郷図書館","province":"東京都","city":"青梅市","address":"東京都青梅市梅郷3丁目749番地の1","lat":35.786581,"lon":139.224326},{"name":"青梅市沢井図書館","province":"東京都","city":"青梅市","address":"東京都青梅市沢井2丁目682番地","lat":35.804711,"lon":139.196279},{"name":"青梅市成木図書館","province":"東京都","city":"青梅市","address":"東京都青梅市成木4丁目644番地","lat":35.824186,"lon":139.24851},{"name":"青梅市新町図書館","province":"東京都","city":"青梅市","address":"東京都青梅市新町4丁目17番地の1","lat":35.785985,"lon":139.305154},{"name":"青梅市今井図書館","province":"東京都","city":"青梅市","address":"東京都青梅市今井2丁目908番地の1","lat":35.806544,"lon":139.310973},{"name":"ｓ釜の淵市民館","province":"東京都","city":"青梅市","address":"東京都青梅市大柳町1392","lat":35.78482878,"lon":139.25300977},{"name":"＊?青梅市郷土博物館","province":"東京都","city":"青梅市","address":"青梅市駒木町1-684","lat":35.783794,"lon":139.25672},{"name":"＊?青梅市立美術館","province":"東京都","city":"青梅市","address":"青梅市滝ノ上町1346-1","lat":35.787547,"lon":139.255959},{"name":"＊?青梅市長淵図書館","province":"東京都","city":"青梅市","address":"青梅市長淵6-492-1","lat":35.780194,"lon":139.268855},{"name":"＊?青梅市中央図書館","province":"東京都","city":"青梅市","address":"青梅市河辺町10-8-1","lat":35.785364,"lon":139.285038},{"name":"＊?青梅市大門図書館","province":"東京都","city":"青梅市","address":"青梅市大門2-288","lat":35.796684,"lon":139.290865},{"name":"＊?青梅市新町図書館","province":"東京都","city":"青梅市","address":"青梅市新町4-17-1","lat":35.786079,"lon":139.304925},{"name":"＊?青梅市今井図書館","province":"東京都","city":"青梅市","address":"青梅市今井2-908-1","lat":35.806511,"lon":139.311031},{"name":"＊?青梅市成木図書館","province":"東京都","city":"青梅市","address":"青梅市成木4-644","lat":35.824159,"lon":139.248541},{"name":"＊?青梅市小曾木図書館","province":"東京都","city":"青梅市","address":"青梅市小曾木3-1656-1","lat":35.818065,"lon":139.275106},{"name":"＊?青梅市梅郷図書館","province":"東京都","city":"青梅市","address":"青梅市梅郷3-749-1","lat":35.786795,"lon":139.224431},{"name":"＊?青梅市沢井図書館","province":"東京都","city":"青梅市","address":"青梅市沢井2-682","lat":35.804713,"lon":139.196304},{"name":"＊?青梅市青梅図書館","province":"東京都","city":"青梅市","address":"青梅市仲町268-9","lat":35.791133,"lon":139.25652},{"name":"＊?河辺市民センター","province":"東京都","city":"青梅市","address":"青梅市河辺町6-18-1","lat":35.778488,"lon":139.293633},{"name":"＊?東青梅市民センター","province":"東京都","city":"青梅市","address":"青梅市師岡町3-9-6","lat":35.790631,"lon":139.282374},{"name":"御嶽神社旧本殿","province":"東京都","city":"青梅市","address":"東京都青梅市御岳山176","lat":35.782772,"lon":139.150253},{"name":"安楽寺本堂","province":"東京都","city":"青梅市","address":"東京都青梅市成木1-583","lat":35.838484,"lon":139.275364},{"name":"旧吉野家住宅","province":"東京都","city":"青梅市","address":"東京都青梅市新町1-21-9","lat":35.788144,"lon":139.297825},{"name":"馬場家御師住宅","province":"東京都","city":"青梅市","address":"東京都青梅市御岳山54","lat":35.785996,"lon":139.151073},{"name":"虎柏神社本殿","province":"東京都","city":"青梅市","address":"東京都青梅市根ケ布1-313","lat":35.802624,"lon":139.267127},{"name":"安楽寺の大スギ","province":"東京都","city":"青梅市","address":"東京都青梅市成木1-583","lat":35.838484,"lon":139.275364},{"name":"青梅市中央図書館","province":"東京都","city":"青梅市","address":"東京都青梅市河辺町10丁目8番地の1","lat":35.785387,"lon":139.285073},{"name":"青梅市青梅図書館","province":"東京都","city":"青梅市","address":"東京都青梅市仲町268番地の9","lat":35.791133,"lon":139.256484},{"name":"青梅市長淵図書館","province":"東京都","city":"青梅市","address":"東京都青梅市長淵6丁目492番地の1","lat":35.780335,"lon":139.268546},{"name":"青梅市大門図書館","province":"東京都","city":"青梅市","address":"東京都青梅市大門2丁目288番地","lat":35.796765,"lon":139.291206},{"name":"青梅市梅郷図書館","province":"東京都","city":"青梅市","address":"東京都青梅市梅郷3丁目749番地の1","lat":35.786581,"lon":139.224326},{"name":"青梅市沢井図書館","province":"東京都","city":"青梅市","address":"東京都青梅市沢井2丁目682番地","lat":35.804711,"lon":139.196279},{"name":"青梅市成木図書館","province":"東京都","city":"青梅市","address":"東京都青梅市成木4丁目644番地","lat":35.824186,"lon":139.24851},{"name":"青梅市新町図書館","province":"東京都","city":"青梅市","address":"東京都青梅市新町4丁目17番地の1","lat":35.785985,"lon":139.305154},{"name":"青梅市今井図書館","province":"東京都","city":"青梅市","address":"東京都青梅市今井2丁目908番地の1","lat":35.806544,"lon":139.310973},{"name":"ｓ釜の淵市民館","province":"東京都","city":"青梅市","address":"東京都青梅市大柳町1392","lat":35.78482878,"lon":139.25300977},{"name":"＊?青梅市郷土博物館","province":"東京都","city":"青梅市","address":"青梅市駒木町1-684","lat":35.783794,"lon":139.25672},{"name":"＊?青梅市立美術館","province":"東京都","city":"青梅市","address":"青梅市滝ノ上町1346-1","lat":35.787547,"lon":139.255959},{"name":"＊?青梅市長淵図書館","province":"東京都","city":"青梅市","address":"青梅市長淵6-492-1","lat":35.780194,"lon":139.268855},{"name":"＊?青梅市中央図書館","province":"東京都","city":"青梅市","address":"青梅市河辺町10-8-1","lat":35.785364,"lon":139.285038},{"name":"＊?青梅市大門図書館","province":"東京都","city":"青梅市","address":"青梅市大門2-288","lat":35.796684,"lon":139.290865},{"name":"＊?青梅市新町図書館","province":"東京都","city":"青梅市","address":"青梅市新町4-17-1","lat":35.786079,"lon":139.304925},{"name":"＊?青梅市今井図書館","province":"東京都","city":"青梅市","address":"青梅市今井2-908-1","lat":35.806511,"lon":139.311031},{"name":"＊?青梅市成木図書館","province":"東京都","city":"青梅市","address":"青梅市成木4-644","lat":35.824159,"lon":139.248541},{"name":"＊?青梅市小曾木図書館","province":"東京都","city":"青梅市","address":"青梅市小曾木3-1656-1","lat":35.818065,"lon":139.275106},{"name":"＊?青梅市梅郷図書館","province":"東京都","city":"青梅市","address":"青梅市梅郷3-749-1","lat":35.786795,"lon":139.224431},{"name":"＊?青梅市沢井図書館","province":"東京都","city":"青梅市","address":"青梅市沢井2-682","lat":35.804713,"lon":139.196304},{"name":"＊?青梅市青梅図書館","province":"東京都","city":"青梅市","address":"青梅市仲町268-9","lat":35.791133,"lon":139.25652},{"name":"＊?河辺市民センター","province":"東京都","city":"青梅市","address":"青梅市河辺町6-18-1","lat":35.778488,"lon":139.293633},{"name":"＊?東青梅市民センター","province":"東京都","city":"青梅市","address":"青梅市師岡町3-9-6","lat":35.790631,"lon":139.282374},{"name":"御嶽神社旧本殿","province":"東京都","city":"青梅市","address":"東京都青梅市御岳山176","lat":35.782772,"lon":139.150253},{"name":"安楽寺本堂","province":"東京都","city":"青梅市","address":"東京都青梅市成木1-583","lat":35.838484,"lon":139.275364},{"name":"旧吉野家住宅","province":"東京都","city":"青梅市","address":"東京都青梅市新町1-21-9","lat":35.788144,"lon":139.297825},{"name":"馬場家御師住宅","province":"東京都","city":"青梅市","address":"東京都青梅市御岳山54","lat":35.785996,"lon":139.151073},{"name":"虎柏神社本殿","province":"東京都","city":"青梅市","address":"東京都青梅市根ケ布1-313","lat":35.802624,"lon":139.267127},{"name":"安楽寺の大スギ","province":"東京都","city":"青梅市","address":"東京都青梅市成木1-583","lat":35.838484,"lon":139.275364},{"name":"青梅市中央図書館","province":"東京都","city":"青梅市","address":"東京都青梅市河辺町10丁目8番地の1","lat":35.785387,"lon":139.285073},{"name":"青梅市青梅図書館","province":"東京都","city":"青梅市","address":"東京都青梅市仲町268番地の9","lat":35.791133,"lon":139.256484},{"name":"青梅市長淵図書館","province":"東京都","city":"青梅市","address":"東京都青梅市長淵6丁目492番地の1","lat":35.780335,"lon":139.268546},{"name":"青梅市大門図書館","province":"東京都","city":"青梅市","address":"東京都青梅市大門2丁目288番地","lat":35.796765,"lon":139.291206},{"name":"青梅市梅郷図書館","province":"東京都","city":"青梅市","address":"東京都青梅市梅郷3丁目749番地の1","lat":35.786581,"lon":139.224326},{"name":"青梅市沢井図書館","province":"東京都","city":"青梅市","address":"東京都青梅市沢井2丁目682番地","lat":35.804711,"lon":139.196279},{"name":"青梅市成木図書館","province":"東京都","city":"青梅市","address":"東京都青梅市成木4丁目644番地","lat":35.824186,"lon":139.24851},{"name":"青梅市新町図書館","province":"東京都","city":"青梅市","address":"東京都青梅市新町4丁目17番地の1","lat":35.785985,"lon":139.305154},{"name":"青梅市今井図書館","province":"東京都","city":"青梅市","address":"東京都青梅市今井2丁目908番地の1","lat":35.806544,"lon":139.310973},{"name":"ｓ釜の淵市民館","province":"東京都","city":"青梅市","address":"東京都青梅市大柳町1392","lat":35.78482878,"lon":139.25300977},{"name":"＊?青梅市郷土博物館","province":"東京都","city":"青梅市","address":"青梅市駒木町1-684","lat":35.783794,"lon":139.25672},{"name":"＊?青梅市立美術館","province":"東京都","city":"青梅市","address":"青梅市滝ノ上町1346-1","lat":35.787547,"lon":139.255959},{"name":"＊?青梅市長淵図書館","province":"東京都","city":"青梅市","address":"青梅市長淵6-492-1","lat":35.780194,"lon":139.268855},{"name":"＊?青梅市中央図書館","province":"東京都","city":"青梅市","address":"青梅市河辺町10-8-1","lat":35.785364,"lon":139.285038},{"name":"＊?青梅市大門図書館","province":"東京都","city":"青梅市","address":"青梅市大門2-288","lat":35.796684,"lon":139.290865},{"name":"＊?青梅市新町図書館","province":"東京都","city":"青梅市","address":"青梅市新町4-17-1","lat":35.786079,"lon":139.304925},{"name":"＊?青梅市今井図書館","province":"東京都","city":"青梅市","address":"青梅市今井2-908-1","lat":35.806511,"lon":139.311031},{"name":"＊?青梅市成木図書館","province":"東京都","city":"青梅市","address":"青梅市成木4-644","lat":35.824159,"lon":139.248541},{"name":"＊?青梅市小曾木図書館","province":"東京都","city":"青梅市","address":"青梅市小曾木3-1656-1","lat":35.818065,"lon":139.275106},{"name":"＊?青梅市梅郷図書館","province":"東京都","city":"青梅市","address":"青梅市梅郷3-749-1","lat":35.786795,"lon":139.224431},{"name":"＊?青梅市沢井図書館","province":"東京都","city":"青梅市","address":"青梅市沢井2-682","lat":35.804713,"lon":139.196304},{"name":"＊?青梅市青梅図書館","province":"東京都","city":"青梅市","address":"青梅市仲町268-9","lat":35.791133,"lon":139.25652},{"name":"＊?河辺市民センター","province":"東京都","city":"青梅市","address":"青梅市河辺町6-18-1","lat":35.778488,"lon":139.293633},{"name":"＊?東青梅市民センター","province":"東京都","city":"青梅市","address":"青梅市師岡町3-9-6","lat":35.790631,"lon":139.282374},{"name":"御嶽神社旧本殿","province":"東京都","city":"青梅市","address":"東京都青梅市御岳山176","lat":35.782772,"lon":139.150253},{"name":"安楽寺本堂","province":"東京都","city":"青梅市","address":"東京都青梅市成木1-583","lat":35.838484,"lon":139.275364},{"name":"旧吉野家住宅","province":"東京都","city":"青梅市","address":"東京都青梅市新町1-21-9","lat":35.788144,"lon":139.297825},{"name":"馬場家御師住宅","province":"東京都","city":"青梅市","address":"東京都青梅市御岳山54","lat":35.785996,"lon":139.151073},{"name":"虎柏神社本殿","province":"東京都","city":"青梅市","address":"東京都青梅市根ケ布1-313","lat":35.802624,"lon":139.267127},{"name":"安楽寺の大スギ","province":"東京都","city":"青梅市","address":"東京都青梅市成木1-583","lat":35.838484,"lon":139.275364},{"name":"青梅市中央図書館","province":"東京都","city":"青梅市","address":"東京都青梅市河辺町10丁目8番地の1","lat":35.785387,"lon":139.285073},{"name":"青梅市青梅図書館","province":"東京都","city":"青梅市","address":"東京都青梅市仲町268番地の9","lat":35.791133,"lon":139.256484},{"name":"青梅市長淵図書館","province":"東京都","city":"青梅市","address":"東京都青梅市長淵6丁目492番地の1","lat":35.780335,"lon":139.268546},{"name":"青梅市大門図書館","province":"東京都","city":"青梅市","address":"東京都青梅市大門2丁目288番地","lat":35.796765,"lon":139.291206},{"name":"青梅市梅郷図書館","province":"東京都","city":"青梅市","address":"東京都青梅市梅郷3丁目749番地の1","lat":35.786581,"lon":139.224326},{"name":"青梅市沢井図書館","province":"東京都","city":"青梅市","address":"東京都青梅市沢井2丁目682番地","lat":35.804711,"lon":139.196279},{"name":"青梅市成木図書館","province":"東京都","city":"青梅市","address":"東京都青梅市成木4丁目644番地","lat":35.824186,"lon":139.24851},{"name":"青梅市新町図書館","province":"東京都","city":"青梅市","address":"東京都青梅市新町4丁目17番地の1","lat":35.785985,"lon":139.305154},{"name":"青梅市今井図書館","province":"東京都","city":"青梅市","address":"東京都青梅市今井2丁目908番地の1","lat":35.806544,"lon":139.310973},{"name":"ｓ釜の淵市民館","province":"東京都","city":"青梅市","address":"東京都青梅市大柳町1392","lat":35.78482878,"lon":139.25300977},{"name":"＊?青梅市郷土博物館","province":"東京都","city":"青梅市","address":"青梅市駒木町1-684","lat":35.783794,"lon":139.25672},{"name":"＊?青梅市立美術館","province":"東京都","city":"青梅市","address":"青梅市滝ノ上町1346-1","lat":35.787547,"lon":139.255959},{"name":"＊?青梅市長淵図書館","province":"東京都","city":"青梅市","address":"青梅市長淵6-492-1","lat":35.780194,"lon":139.268855},{"name":"＊?青梅市中央図書館","province":"東京都","city":"青梅市","address":"青梅市河辺町10-8-1","lat":35.785364,"lon":139.285038},{"name":"＊?青梅市大門図書館","province":"東京都","city":"青梅市","address":"青梅市大門2-288","lat":35.796684,"lon":139.290865},{"name":"＊?青梅市新町図書館","province":"東京都","city":"青梅市","address":"青梅市新町4-17-1","lat":35.786079,"lon":139.304925},{"name":"＊?青梅市今井図書館","province":"東京都","city":"青梅市","address":"青梅市今井2-908-1","lat":35.806511,"lon":139.311031},{"name":"＊?青梅市成木図書館","province":"東京都","city":"青梅市","address":"青梅市成木4-644","lat":35.824159,"lon":139.248541},{"name":"＊?青梅市小曾木図書館","province":"東京都","city":"青梅市","address":"青梅市小曾木3-1656-1","lat":35.818065,"lon":139.275106},{"name":"＊?青梅市梅郷図書館","province":"東京都","city":"青梅市","address":"青梅市梅郷3-749-1","lat":35.786795,"lon":139.224431},{"name":"＊?青梅市沢井図書館","province":"東京都","city":"青梅市","address":"青梅市沢井2-682","lat":35.804713,"lon":139.196304},{"name":"＊?青梅市青梅図書館","province":"東京都","city":"青梅市","address":"青梅市仲町268-9","lat":35.791133,"lon":139.25652},{"name":"＊?河辺市民センター","province":"東京都","city":"青梅市","address":"青梅市河辺町6-18-1","lat":35.778488,"lon":139.293633},{"name":"＊?東青梅市民センター","province":"東京都","city":"青梅市","address":"青梅市師岡町3-9-6","lat":35.790631,"lon":139.282374},{"name":"御嶽神社旧本殿","province":"東京都","city":"青梅市","address":"東京都青梅市御岳山176","lat":35.782772,"lon":139.150253},{"name":"安楽寺本堂","province":"東京都","city":"青梅市","address":"東京都青梅市成木1-583","lat":35.838484,"lon":139.275364},{"name":"旧吉野家住宅","province":"東京都","city":"青梅市","address":"東京都青梅市新町1-21-9","lat":35.788144,"lon":139.297825},{"name":"馬場家御師住宅","province":"東京都","city":"青梅市","address":"東京都青梅市御岳山54","lat":35.785996,"lon":139.151073},{"name":"虎柏神社本殿","province":"東京都","city":"青梅市","address":"東京都青梅市根ケ布1-313","lat":35.802624,"lon":139.267127},{"name":"安楽寺の大スギ","province":"東京都","city":"青梅市","address":"東京都青梅市成木1-583","lat":35.838484,"lon":139.275364},{"name":"青梅市中央図書館","province":"東京都","city":"青梅市","address":"東京都青梅市河辺町10丁目8番地の1","lat":35.785387,"lon":139.285073},{"name":"青梅市青梅図書館","province":"東京都","city":"青梅市","address":"東京都青梅市仲町268番地の9","lat":35.791133,"lon":139.256484},{"name":"青梅市長淵図書館","province":"東京都","city":"青梅市","address":"東京都青梅市長淵6丁目492番地の1","lat":35.780335,"lon":139.268546},{"name":"青梅市大門図書館","province":"東京都","city":"青梅市","address":"東京都青梅市大門2丁目288番地","lat":35.796765,"lon":139.291206},{"name":"青梅市梅郷図書館","province":"東京都","city":"青梅市","address":"東京都青梅市梅郷3丁目749番地の1","lat":35.786581,"lon":139.224326},{"name":"青梅市沢井図書館","province":"東京都","city":"青梅市","address":"東京都青梅市沢井2丁目682番地","lat":35.804711,"lon":139.196279},{"name":"青梅市成木図書館","province":"東京都","city":"青梅市","address":"東京都青梅市成木4丁目644番地","lat":35.824186,"lon":139.24851},{"name":"青梅市新町図書館","province":"東京都","city":"青梅市","address":"東京都青梅市新町4丁目17番地の1","lat":35.785985,"lon":139.305154},{"name":"青梅市今井図書館","province":"東京都","city":"青梅市","address":"東京都青梅市今井2丁目908番地の1","lat":35.806544,"lon":139.310973},{"name":"ｓ釜の淵市民館","province":"東京都","city":"青梅市","address":"東京都青梅市大柳町1392","lat":35.78482878,"lon":139.25300977},{"name":"＊?青梅市郷土博物館","province":"東京都","city":"青梅市","address":"青梅市駒木町1-684","lat":35.783794,"lon":139.25672},{"name":"＊?青梅市立美術館","province":"東京都","city":"青梅市","address":"青梅市滝ノ上町1346-1","lat":35.787547,"lon":139.255959},{"name":"＊?青梅市長淵図書館","province":"東京都","city":"青梅市","address":"青梅市長淵6-492-1","lat":35.780194,"lon":139.268855},{"name":"＊?青梅市中央図書館","province":"東京都","city":"青梅市","address":"青梅市河辺町10-8-1","lat":35.785364,"lon":139.285038},{"name":"＊?青梅市大門図書館","province":"東京都","city":"青梅市","address":"青梅市大門2-288","lat":35.796684,"lon":139.290865},{"name":"＊?青梅市新町図書館","province":"東京都","city":"青梅市","address":"青梅市新町4-17-1","lat":35.786079,"lon":139.304925},{"name":"＊?青梅市今井図書館","province":"東京都","city":"青梅市","address":"青梅市今井2-908-1","lat":35.806511,"lon":139.311031},{"name":"＊?青梅市成木図書館","province":"東京都","city":"青梅市","address":"青梅市成木4-644","lat":35.824159,"lon":139.248541},{"name":"＊?青梅市小曾木図書館","province":"東京都","city":"青梅市","address":"青梅市小曾木3-1656-1","lat":35.818065,"lon":139.275106},{"name":"＊?青梅市梅郷図書館","province":"東京都","city":"青梅市","address":"青梅市梅郷3-749-1","lat":35.786795,"lon":139.224431},{"name":"＊?青梅市沢井図書館","province":"東京都","city":"青梅市","address":"青梅市沢井2-682","lat":35.804713,"lon":139.196304},{"name":"＊?青梅市青梅図書館","province":"東京都","city":"青梅市","address":"青梅市仲町268-9","lat":35.791133,"lon":139.25652},{"name":"＊?河辺市民センター","province":"東京都","city":"青梅市","address":"青梅市河辺町6-18-1","lat":35.778488,"lon":139.293633},{"name":"＊?東青梅市民センター","province":"東京都","city":"青梅市","address":"青梅市師岡町3-9-6","lat":35.790631,"lon":139.282374},{"name":"御嶽神社旧本殿","province":"東京都","city":"青梅市","address":"東京都青梅市御岳山176","lat":35.782772,"lon":139.150253},{"name":"安楽寺本堂","province":"東京都","city":"青梅市","address":"東京都青梅市成木1-583","lat":35.838484,"lon":139.275364},{"name":"旧吉野家住宅","province":"東京都","city":"青梅市","address":"東京都青梅市新町1-21-9","lat":35.788144,"lon":139.297825},{"name":"馬場家御師住宅","province":"東京都","city":"青梅市","address":"東京都青梅市御岳山54","lat":35.785996,"lon":139.151073},{"name":"虎柏神社本殿","province":"東京都","city":"青梅市","address":"東京都青梅市根ケ布1-313","lat":35.802624,"lon":139.267127},{"name":"安楽寺の大スギ","province":"東京都","city":"青梅市","address":"東京都青梅市成木1-583","lat":35.838484,"lon":139.275364},{"name":"青梅市中央図書館","province":"東京都","city":"青梅市","address":"東京都青梅市河辺町10丁目8番地の1","lat":35.785387,"lon":139.285073},{"name":"青梅市青梅図書館","province":"東京都","city":"青梅市","address":"東京都青梅市仲町268番地の9","lat":35.791133,"lon":139.256484},{"name":"青梅市長淵図書館","province":"東京都","city":"青梅市","address":"東京都青梅市長淵6丁目492番地の1","lat":35.780335,"lon":139.268546},{"name":"青梅市大門図書館","province":"東京都","city":"青梅市","address":"東京都青梅市大門2丁目288番地","lat":35.796765,"lon":139.291206},{"name":"青梅市梅郷図書館","province":"東京都","city":"青梅市","address":"東京都青梅市梅郷3丁目749番地の1","lat":35.786581,"lon":139.224326},{"name":"青梅市沢井図書館","province":"東京都","city":"青梅市","address":"東京都青梅市沢井2丁目682番地","lat":35.804711,"lon":139.196279},{"name":"青梅市成木図書館","province":"東京都","city":"青梅市","address":"東京都青梅市成木4丁目644番地","lat":35.824186,"lon":139.24851},{"name":"青梅市新町図書館","province":"東京都","city":"青梅市","address":"東京都青梅市新町4丁目17番地の1","lat":35.785985,"lon":139.305154},{"name":"青梅市今井図書館","province":"東京都","city":"青梅市","address":"東京都青梅市今井2丁目908番地の1","lat":35.806544,"lon":139.310973},{"name":"ｓ釜の淵市民館","province":"東京都","city":"青梅市","address":"東京都青梅市大柳町1392","lat":35.78482878,"lon":139.25300977},{"name":"＊?青梅市郷土博物館","province":"東京都","city":"青梅市","address":"青梅市駒木町1-684","lat":35.783794,"lon":139.25672},{"name":"＊?青梅市立美術館","province":"東京都","city":"青梅市","address":"青梅市滝ノ上町1346-1","lat":35.787547,"lon":139.255959},{"name":"＊?青梅市長淵図書館","province":"東京都","city":"青梅市","address":"青梅市長淵6-492-1","lat":35.780194,"lon":139.268855},{"name":"＊?青梅市中央図書館","province":"東京都","city":"青梅市","address":"青梅市河辺町10-8-1","lat":35.785364,"lon":139.285038},{"name":"＊?青梅市大門図書館","province":"東京都","city":"青梅市","address":"青梅市大門2-288","lat":35.796684,"lon":139.290865},{"name":"＊?青梅市新町図書館","province":"東京都","city":"青梅市","address":"青梅市新町4-17-1","lat":35.786079,"lon":139.304925},{"name":"＊?青梅市今井図書館","province":"東京都","city":"青梅市","address":"青梅市今井2-908-1","lat":35.806511,"lon":139.311031},{"name":"＊?青梅市成木図書館","province":"東京都","city":"青梅市","address":"青梅市成木4-644","lat":35.824159,"lon":139.248541},{"name":"＊?青梅市小曾木図書館","province":"東京都","city":"青梅市","address":"青梅市小曾木3-1656-1","lat":35.818065,"lon":139.275106},{"name":"＊?青梅市梅郷図書館","province":"東京都","city":"青梅市","address":"青梅市梅郷3-749-1","lat":35.786795,"lon":139.224431},{"name":"＊?青梅市沢井図書館","province":"東京都","city":"青梅市","address":"青梅市沢井2-682","lat":35.804713,"lon":139.196304},{"name":"＊?青梅市青梅図書館","province":"東京都","city":"青梅市","address":"青梅市仲町268-9","lat":35.791133,"lon":139.25652},{"name":"＊?河辺市民センター","province":"東京都","city":"青梅市","address":"青梅市河辺町6-18-1","lat":35.778488,"lon":139.293633},{"name":"＊?東青梅市民センター","province":"東京都","city":"青梅市","address":"青梅市師岡町3-9-6","lat":35.790631,"lon":139.282374},{"name":"御嶽神社旧本殿","province":"東京都","city":"青梅市","address":"東京都青梅市御岳山176","lat":35.782772,"lon":139.150253},{"name":"安楽寺本堂","province":"東京都","city":"青梅市","address":"東京都青梅市成木1-583","lat":35.838484,"lon":139.275364},{"name":"旧吉野家住宅","province":"東京都","city":"青梅市","address":"東京都青梅市新町1-21-9","lat":35.788144,"lon":139.297825},{"name":"馬場家御師住宅","province":"東京都","city":"青梅市","address":"東京都青梅市御岳山54","lat":35.785996,"lon":139.151073},{"name":"虎柏神社本殿","province":"東京都","city":"青梅市","address":"東京都青梅市根ケ布1-313","lat":35.802624,"lon":139.267127},{"name":"安楽寺の大スギ","province":"東京都","city":"青梅市","address":"東京都青梅市成木1-583","lat":35.838484,"lon":139.275364},{"name":"青梅市中央図書館","province":"東京都","city":"青梅市","address":"東京都青梅市河辺町10丁目8番地の1","lat":35.785387,"lon":139.285073},{"name":"青梅市青梅図書館","province":"東京都","city":"青梅市","address":"東京都青梅市仲町268番地の9","lat":35.791133,"lon":139.256484},{"name":"青梅市長淵図書館","province":"東京都","city":"青梅市","address":"東京都青梅市長淵6丁目492番地の1","lat":35.780335,"lon":139.268546},{"name":"青梅市大門図書館","province":"東京都","city":"青梅市","address":"東京都青梅市大門2丁目288番地","lat":35.796765,"lon":139.291206},{"name":"青梅市梅郷図書館","province":"東京都","city":"青梅市","address":"東京都青梅市梅郷3丁目749番地の1","lat":35.786581,"lon":139.224326},{"name":"青梅市沢井図書館","province":"東京都","city":"青梅市","address":"東京都青梅市沢井2丁目682番地","lat":35.804711,"lon":139.196279},{"name":"青梅市成木図書館","province":"東京都","city":"青梅市","address":"東京都青梅市成木4丁目644番地","lat":35.824186,"lon":139.24851},{"name":"青梅市新町図書館","province":"東京都","city":"青梅市","address":"東京都青梅市新町4丁目17番地の1","lat":35.785985,"lon":139.305154},{"name":"青梅市今井図書館","province":"東京都","city":"青梅市","address":"東京都青梅市今井2丁目908番地の1","lat":35.806544,"lon":139.310973},{"name":"ｓ釜の淵市民館","province":"東京都","city":"青梅市","address":"東京都青梅市大柳町1392","lat":35.78482878,"lon":139.25300977},{"name":"＊?青梅市郷土博物館","province":"東京都","city":"青梅市","address":"青梅市駒木町1-684","lat":35.783794,"lon":139.25672},{"name":"＊?青梅市立美術館","province":"東京都","city":"青梅市","address":"青梅市滝ノ上町1346-1","lat":35.787547,"lon":139.255959},{"name":"＊?青梅市長淵図書館","province":"東京都","city":"青梅市","address":"青梅市長淵6-492-1","lat":35.780194,"lon":139.268855},{"name":"＊?青梅市中央図書館","province":"東京都","city":"青梅市","address":"青梅市河辺町10-8-1","lat":35.785364,"lon":139.285038},{"name":"＊?青梅市大門図書館","province":"東京都","city":"青梅市","address":"青梅市大門2-288","lat":35.796684,"lon":139.290865},{"name":"＊?青梅市新町図書館","province":"東京都","city":"青梅市","address":"青梅市新町4-17-1","lat":35.786079,"lon":139.304925},{"name":"＊?青梅市今井図書館","province":"東京都","city":"青梅市","address":"青梅市今井2-908-1","lat":35.806511,"lon":139.311031},{"name":"＊?青梅市成木図書館","province":"東京都","city":"青梅市","address":"青梅市成木4-644","lat":35.824159,"lon":139.248541},{"name":"＊?青梅市小曾木図書館","province":"東京都","city":"青梅市","address":"青梅市小曾木3-1656-1","lat":35.818065,"lon":139.275106},{"name":"＊?青梅市梅郷図書館","province":"東京都","city":"青梅市","address":"青梅市梅郷3-749-1","lat":35.786795,"lon":139.224431},{"name":"＊?青梅市沢井図書館","province":"東京都","city":"青梅市","address":"青梅市沢井2-682","lat":35.804713,"lon":139.196304},{"name":"＊?青梅市青梅図書館","province":"東京都","city":"青梅市","address":"青梅市仲町268-9","lat":35.791133,"lon":139.25652},{"name":"＊?河辺市民センター","province":"東京都","city":"青梅市","address":"青梅市河辺町6-18-1","lat":35.778488,"lon":139.293633},{"name":"＊?東青梅市民センター","province":"東京都","city":"青梅市","address":"青梅市師岡町3-9-6","lat":35.790631,"lon":139.282374},{"name":"御嶽神社旧本殿","province":"東京都","city":"青梅市","address":"東京都青梅市御岳山176","lat":35.782772,"lon":139.150253},{"name":"安楽寺本堂","province":"東京都","city":"青梅市","address":"東京都青梅市成木1-583","lat":35.838484,"lon":139.275364},{"name":"旧吉野家住宅","province":"東京都","city":"青梅市","address":"東京都青梅市新町1-21-9","lat":35.788144,"lon":139.297825},{"name":"馬場家御師住宅","province":"東京都","city":"青梅市","address":"東京都青梅市御岳山54","lat":35.785996,"lon":139.151073},{"name":"虎柏神社本殿","province":"東京都","city":"青梅市","address":"東京都青梅市根ケ布1-313","lat":35.802624,"lon":139.267127},{"name":"安楽寺の大スギ","province":"東京都","city":"青梅市","address":"東京都青梅市成木1-583","lat":35.838484,"lon":139.275364},{"name":"青梅市中央図書館","province":"東京都","city":"青梅市","address":"東京都青梅市河辺町10丁目8番地の1","lat":35.785387,"lon":139.285073},{"name":"青梅市青梅図書館","province":"東京都","city":"青梅市","address":"東京都青梅市仲町268番地の9","lat":35.791133,"lon":139.256484},{"name":"青梅市長淵図書館","province":"東京都","city":"青梅市","address":"東京都青梅市長淵6丁目492番地の1","lat":35.780335,"lon":139.268546},{"name":"青梅市大門図書館","province":"東京都","city":"青梅市","address":"東京都青梅市大門2丁目288番地","lat":35.796765,"lon":139.291206},{"name":"青梅市梅郷図書館","province":"東京都","city":"青梅市","address":"東京都青梅市梅郷3丁目749番地の1","lat":35.786581,"lon":139.224326},{"name":"青梅市沢井図書館","province":"東京都","city":"青梅市","address":"東京都青梅市沢井2丁目682番地","lat":35.804711,"lon":139.196279},{"name":"青梅市成木図書館","province":"東京都","city":"青梅市","address":"東京都青梅市成木4丁目644番地","lat":35.824186,"lon":139.24851},{"name":"青梅市新町図書館","province":"東京都","city":"青梅市","address":"東京都青梅市新町4丁目17番地の1","lat":35.785985,"lon":139.305154},{"name":"青梅市今井図書館","province":"東京都","city":"青梅市","address":"東京都青梅市今井2丁目908番地の1","lat":35.806544,"lon":139.310973},{"name":"ｓ釜の淵市民館","province":"東京都","city":"青梅市","address":"東京都青梅市大柳町1392","lat":35.78482878,"lon":139.25300977},{"name":"＊?青梅市郷土博物館","province":"東京都","city":"青梅市","address":"青梅市駒木町1-684","lat":35.783794,"lon":139.25672},{"name":"＊?青梅市立美術館","province":"東京都","city":"青梅市","address":"青梅市滝ノ上町1346-1","lat":35.787547,"lon":139.255959},{"name":"＊?青梅市長淵図書館","province":"東京都","city":"青梅市","address":"青梅市長淵6-492-1","lat":35.780194,"lon":139.268855},{"name":"＊?青梅市中央図書館","province":"東京都","city":"青梅市","address":"青梅市河辺町10-8-1","lat":35.785364,"lon":139.285038},{"name":"＊?青梅市大門図書館","province":"東京都","city":"青梅市","address":"青梅市大門2-288","lat":35.796684,"lon":139.290865},{"name":"＊?青梅市新町図書館","province":"東京都","city":"青梅市","address":"青梅市新町4-17-1","lat":35.786079,"lon":139.304925},{"name":"＊?青梅市今井図書館","province":"東京都","city":"青梅市","address":"青梅市今井2-908-1","lat":35.806511,"lon":139.311031},{"name":"＊?青梅市成木図書館","province":"東京都","city":"青梅市","address":"青梅市成木4-644","lat":35.824159,"lon":139.248541},{"name":"＊?青梅市小曾木図書館","province":"東京都","city":"青梅市","address":"青梅市小曾木3-1656-1","lat":35.818065,"lon":139.275106},{"name":"＊?青梅市梅郷図書館","province":"東京都","city":"青梅市","address":"青梅市梅郷3-749-1","lat":35.786795,"lon":139.224431},{"name":"＊?青梅市沢井図書館","province":"東京都","city":"青梅市","address":"青梅市沢井2-682","lat":35.804713,"lon":139.196304},{"name":"＊?青梅市青梅図書館","province":"東京都","city":"青梅市","address":"青梅市仲町268-9","lat":35.791133,"lon":139.25652},{"name":"＊?河辺市民センター","province":"東京都","city":"青梅市","address":"青梅市河辺町6-18-1","lat":35.778488,"lon":139.293633},{"name":"＊?東青梅市民センター","province":"東京都","city":"青梅市","address":"青梅市師岡町3-9-6","lat":35.790631,"lon":139.282374},{"name":"御嶽神社旧本殿","province":"東京都","city":"青梅市","address":"東京都青梅市御岳山176","lat":35.782772,"lon":139.150253},{"name":"安楽寺本堂","province":"東京都","city":"青梅市","address":"東京都青梅市成木1-583","lat":35.838484,"lon":139.275364},{"name":"旧吉野家住宅","province":"東京都","city":"青梅市","address":"東京都青梅市新町1-21-9","lat":35.788144,"lon":139.297825},{"name":"馬場家御師住宅","province":"東京都","city":"青梅市","address":"東京都青梅市御岳山54","lat":35.785996,"lon":139.151073},{"name":"虎柏神社本殿","province":"東京都","city":"青梅市","address":"東京都青梅市根ケ布1-313","lat":35.802624,"lon":139.267127},{"name":"安楽寺の大スギ","province":"東京都","city":"青梅市","address":"東京都青梅市成木1-583","lat":35.838484,"lon":139.275364},{"name":"青梅市中央図書館","province":"東京都","city":"青梅市","address":"東京都青梅市河辺町10丁目8番地の1","lat":35.785387,"lon":139.285073},{"name":"青梅市青梅図書館","province":"東京都","city":"青梅市","address":"東京都青梅市仲町268番地の9","lat":35.791133,"lon":139.256484},{"name":"青梅市長淵図書館","province":"東京都","city":"青梅市","address":"東京都青梅市長淵6丁目492番地の1","lat":35.780335,"lon":139.268546},{"name":"青梅市大門図書館","province":"東京都","city":"青梅市","address":"東京都青梅市大門2丁目288番地","lat":35.796765,"lon":139.291206},{"name":"青梅市梅郷図書館","province":"東京都","city":"青梅市","address":"東京都青梅市梅郷3丁目749番地の1","lat":35.786581,"lon":139.224326},{"name":"青梅市沢井図書館","province":"東京都","city":"青梅市","address":"東京都青梅市沢井2丁目682番地","lat":35.804711,"lon":139.196279},{"name":"青梅市成木図書館","province":"東京都","city":"青梅市","address":"東京都青梅市成木4丁目644番地","lat":35.824186,"lon":139.24851},{"name":"青梅市新町図書館","province":"東京都","city":"青梅市","address":"東京都青梅市新町4丁目17番地の1","lat":35.785985,"lon":139.305154},{"name":"青梅市今井図書館","province":"東京都","city":"青梅市","address":"東京都青梅市今井2丁目908番地の1","lat":35.806544,"lon":139.310973},{"name":"ｓ釜の淵市民館","province":"東京都","city":"青梅市","address":"東京都青梅市大柳町1392","lat":35.78482878,"lon":139.25300977},{"name":"＊?青梅市郷土博物館","province":"東京都","city":"青梅市","address":"青梅市駒木町1-684","lat":35.783794,"lon":139.25672},{"name":"＊?青梅市立美術館","province":"東京都","city":"青梅市","address":"青梅市滝ノ上町1346-1","lat":35.787547,"lon":139.255959},{"name":"＊?青梅市長淵図書館","province":"東京都","city":"青梅市","address":"青梅市長淵6-492-1","lat":35.780194,"lon":139.268855},{"name":"＊?青梅市中央図書館","province":"東京都","city":"青梅市","address":"青梅市河辺町10-8-1","lat":35.785364,"lon":139.285038},{"name":"＊?青梅市大門図書館","province":"東京都","city":"青梅市","address":"青梅市大門2-288","lat":35.796684,"lon":139.290865},{"name":"＊?青梅市新町図書館","province":"東京都","city":"青梅市","address":"青梅市新町4-17-1","lat":35.786079,"lon":139.304925},{"name":"＊?青梅市今井図書館","province":"東京都","city":"青梅市","address":"青梅市今井2-908-1","lat":35.806511,"lon":139.311031},{"name":"＊?青梅市成木図書館","province":"東京都","city":"青梅市","address":"青梅市成木4-644","lat":35.824159,"lon":139.248541},{"name":"＊?青梅市小曾木図書館","province":"東京都","city":"青梅市","address":"青梅市小曾木3-1656-1","lat":35.818065,"lon":139.275106},{"name":"＊?青梅市梅郷図書館","province":"東京都","city":"青梅市","address":"青梅市梅郷3-749-1","lat":35.786795,"lon":139.224431},{"name":"＊?青梅市沢井図書館","province":"東京都","city":"青梅市","address":"青梅市沢井2-682","lat":35.804713,"lon":139.196304},{"name":"＊?青梅市青梅図書館","province":"東京都","city":"青梅市","address":"青梅市仲町268-9","lat":35.791133,"lon":139.25652},{"name":"＊?河辺市民センター","province":"東京都","city":"青梅市","address":"青梅市河辺町6-18-1","lat":35.778488,"lon":139.293633},{"name":"＊?東青梅市民センター","province":"東京都","city":"青梅市","address":"青梅市師岡町3-9-6","lat":35.790631,"lon":139.282374},{"name":"御嶽神社旧本殿","province":"東京都","city":"青梅市","address":"東京都青梅市御岳山176","lat":35.782772,"lon":139.150253},{"name":"安楽寺本堂","province":"東京都","city":"青梅市","address":"東京都青梅市成木1-583","lat":35.838484,"lon":139.275364},{"name":"旧吉野家住宅","province":"東京都","city":"青梅市","address":"東京都青梅市新町1-21-9","lat":35.788144,"lon":139.297825},{"name":"馬場家御師住宅","province":"東京都","city":"青梅市","address":"東京都青梅市御岳山54","lat":35.785996,"lon":139.151073},{"name":"虎柏神社本殿","province":"東京都","city":"青梅市","address":"東京都青梅市根ケ布1-313","lat":35.802624,"lon":139.267127},{"name":"安楽寺の大スギ","province":"東京都","city":"青梅市","address":"東京都青梅市成木1-583","lat":35.838484,"lon":139.275364},{"name":"青梅市中央図書館","province":"東京都","city":"青梅市","address":"東京都青梅市河辺町10丁目8番地の1","lat":35.785387,"lon":139.285073},{"name":"青梅市青梅図書館","province":"東京都","city":"青梅市","address":"東京都青梅市仲町268番地の9","lat":35.791133,"lon":139.256484},{"name":"青梅市長淵図書館","province":"東京都","city":"青梅市","address":"東京都青梅市長淵6丁目492番地の1","lat":35.780335,"lon":139.268546},{"name":"青梅市大門図書館","province":"東京都","city":"青梅市","address":"東京都青梅市大門2丁目288番地","lat":35.796765,"lon":139.291206},{"name":"青梅市梅郷図書館","province":"東京都","city":"青梅市","address":"東京都青梅市梅郷3丁目749番地の1","lat":35.786581,"lon":139.224326},{"name":"青梅市沢井図書館","province":"東京都","city":"青梅市","address":"東京都青梅市沢井2丁目682番地","lat":35.804711,"lon":139.196279},{"name":"青梅市成木図書館","province":"東京都","city":"青梅市","address":"東京都青梅市成木4丁目644番地","lat":35.824186,"lon":139.24851},{"name":"青梅市新町図書館","province":"東京都","city":"青梅市","address":"東京都青梅市新町4丁目17番地の1","lat":35.785985,"lon":139.305154},{"name":"青梅市今井図書館","province":"東京都","city":"青梅市","address":"東京都青梅市今井2丁目908番地の1","lat":35.806544,"lon":139.310973},{"name":"ｓ釜の淵市民館","province":"東京都","city":"青梅市","address":"東京都青梅市大柳町1392","lat":35.78482878,"lon":139.25300977},{"name":"＊?青梅市郷土博物館","province":"東京都","city":"青梅市","address":"青梅市駒木町1-684","lat":35.783794,"lon":139.25672},{"name":"＊?青梅市立美術館","province":"東京都","city":"青梅市","address":"青梅市滝ノ上町1346-1","lat":35.787547,"lon":139.255959},{"name":"＊?青梅市長淵図書館","province":"東京都","city":"青梅市","address":"青梅市長淵6-492-1","lat":35.780194,"lon":139.268855},{"name":"＊?青梅市中央図書館","province":"東京都","city":"青梅市","address":"青梅市河辺町10-8-1","lat":35.785364,"lon":139.285038},{"name":"＊?青梅市大門図書館","province":"東京都","city":"青梅市","address":"青梅市大門2-288","lat":35.796684,"lon":139.290865},{"name":"＊?青梅市新町図書館","province":"東京都","city":"青梅市","address":"青梅市新町4-17-1","lat":35.786079,"lon":139.304925},{"name":"＊?青梅市今井図書館","province":"東京都","city":"青梅市","address":"青梅市今井2-908-1","lat":35.806511,"lon":139.311031},{"name":"＊?青梅市成木図書館","province":"東京都","city":"青梅市","address":"青梅市成木4-644","lat":35.824159,"lon":139.248541},{"name":"＊?青梅市小曾木図書館","province":"東京都","city":"青梅市","address":"青梅市小曾木3-1656-1","lat":35.818065,"lon":139.275106},{"name":"＊?青梅市梅郷図書館","province":"東京都","city":"青梅市","address":"青梅市梅郷3-749-1","lat":35.786795,"lon":139.224431},{"name":"＊?青梅市沢井図書館","province":"東京都","city":"青梅市","address":"青梅市沢井2-682","lat":35.804713,"lon":139.196304},{"name":"＊?青梅市青梅図書館","province":"東京都","city":"青梅市","address":"青梅市仲町268-9","lat":35.791133,"lon":139.25652},{"name":"＊?河辺市民センター","province":"東京都","city":"青梅市","address":"青梅市河辺町6-18-1","lat":35.778488,"lon":139.293633},{"name":"＊?東青梅市民センター","province":"東京都","city":"青梅市","address":"青梅市師岡町3-9-6","lat":35.790631,"lon":139.282374},{"name":"御嶽神社旧本殿","province":"東京都","city":"青梅市","address":"東京都青梅市御岳山176","lat":35.782772,"lon":139.150253},{"name":"安楽寺本堂","province":"東京都","city":"青梅市","address":"東京都青梅市成木1-583","lat":35.838484,"lon":139.275364},{"name":"旧吉野家住宅","province":"東京都","city":"青梅市","address":"東京都青梅市新町1-21-9","lat":35.788144,"lon":139.297825},{"name":"馬場家御師住宅","province":"東京都","city":"青梅市","address":"東京都青梅市御岳山54","lat":35.785996,"lon":139.151073},{"name":"虎柏神社本殿","province":"東京都","city":"青梅市","address":"東京都青梅市根ケ布1-313","lat":35.802624,"lon":139.267127},{"name":"安楽寺の大スギ","province":"東京都","city":"青梅市","address":"東京都青梅市成木1-583","lat":35.838484,"lon":139.275364},{"name":"青梅市中央図書館","province":"東京都","city":"青梅市","address":"東京都青梅市河辺町10丁目8番地の1","lat":35.785387,"lon":139.285073},{"name":"青梅市青梅図書館","province":"東京都","city":"青梅市","address":"東京都青梅市仲町268番地の9","lat":35.791133,"lon":139.256484},{"name":"青梅市長淵図書館","province":"東京都","city":"青梅市","address":"東京都青梅市長淵6丁目492番地の1","lat":35.780335,"lon":139.268546},{"name":"青梅市大門図書館","province":"東京都","city":"青梅市","address":"東京都青梅市大門2丁目288番地","lat":35.796765,"lon":139.291206},{"name":"青梅市梅郷図書館","province":"東京都","city":"青梅市","address":"東京都青梅市梅郷3丁目749番地の1","lat":35.786581,"lon":139.224326},{"name":"青梅市沢井図書館","province":"東京都","city":"青梅市","address":"東京都青梅市沢井2丁目682番地","lat":35.804711,"lon":139.196279},{"name":"青梅市成木図書館","province":"東京都","city":"青梅市","address":"東京都青梅市成木4丁目644番地","lat":35.824186,"lon":139.24851},{"name":"青梅市新町図書館","province":"東京都","city":"青梅市","address":"東京都青梅市新町4丁目17番地の1","lat":35.785985,"lon":139.305154},{"name":"青梅市今井図書館","province":"東京都","city":"青梅市","address":"東京都青梅市今井2丁目908番地の1","lat":35.806544,"lon":139.310973},{"name":"ｓ釜の淵市民館","province":"東京都","city":"青梅市","address":"東京都青梅市大柳町1392","lat":35.78482878,"lon":139.25300977},{"name":"＊?青梅市郷土博物館","province":"東京都","city":"青梅市","address":"青梅市駒木町1-684","lat":35.783794,"lon":139.25672},{"name":"＊?青梅市立美術館","province":"東京都","city":"青梅市","address":"青梅市滝ノ上町1346-1","lat":35.787547,"lon":139.255959},{"name":"＊?青梅市長淵図書館","province":"東京都","city":"青梅市","address":"青梅市長淵6-492-1","lat":35.780194,"lon":139.268855},{"name":"＊?青梅市中央図書館","province":"東京都","city":"青梅市","address":"青梅市河辺町10-8-1","lat":35.785364,"lon":139.285038},{"name":"＊?青梅市大門図書館","province":"東京都","city":"青梅市","address":"青梅市大門2-288","lat":35.796684,"lon":139.290865},{"name":"＊?青梅市新町図書館","province":"東京都","city":"青梅市","address":"青梅市新町4-17-1","lat":35.786079,"lon":139.304925},{"name":"＊?青梅市今井図書館","province":"東京都","city":"青梅市","address":"青梅市今井2-908-1","lat":35.806511,"lon":139.311031},{"name":"＊?青梅市成木図書館","province":"東京都","city":"青梅市","address":"青梅市成木4-644","lat":35.824159,"lon":139.248541},{"name":"＊?青梅市小曾木図書館","province":"東京都","city":"青梅市","address":"青梅市小曾木3-1656-1","lat":35.818065,"lon":139.275106},{"name":"＊?青梅市梅郷図書館","province":"東京都","city":"青梅市","address":"青梅市梅郷3-749-1","lat":35.786795,"lon":139.224431},{"name":"＊?青梅市沢井図書館","province":"東京都","city":"青梅市","address":"青梅市沢井2-682","lat":35.804713,"lon":139.196304},{"name":"＊?青梅市青梅図書館","province":"東京都","city":"青梅市","address":"青梅市仲町268-9","lat":35.791133,"lon":139.25652},{"name":"＊?河辺市民センター","province":"東京都","city":"青梅市","address":"青梅市河辺町6-18-1","lat":35.778488,"lon":139.293633},{"name":"＊?東青梅市民センター","province":"東京都","city":"青梅市","address":"青梅市師岡町3-9-6","lat":35.790631,"lon":139.282374},{"name":"御嶽神社旧本殿","province":"東京都","city":"青梅市","address":"東京都青梅市御岳山176","lat":35.782772,"lon":139.150253},{"name":"安楽寺本堂","province":"東京都","city":"青梅市","address":"東京都青梅市成木1-583","lat":35.838484,"lon":139.275364},{"name":"旧吉野家住宅","province":"東京都","city":"青梅市","address":"東京都青梅市新町1-21-9","lat":35.788144,"lon":139.297825},{"name":"馬場家御師住宅","province":"東京都","city":"青梅市","address":"東京都青梅市御岳山54","lat":35.785996,"lon":139.151073},{"name":"虎柏神社本殿","province":"東京都","city":"青梅市","address":"東京都青梅市根ケ布1-313","lat":35.802624,"lon":139.267127},{"name":"安楽寺の大スギ","province":"東京都","city":"青梅市","address":"東京都青梅市成木1-583","lat":35.838484,"lon":139.275364},{"name":"青梅市中央図書館","province":"東京都","city":"青梅市","address":"東京都青梅市河辺町10丁目8番地の1","lat":35.785387,"lon":139.285073},{"name":"青梅市青梅図書館","province":"東京都","city":"青梅市","address":"東京都青梅市仲町268番地の9","lat":35.791133,"lon":139.256484},{"name":"青梅市長淵図書館","province":"東京都","city":"青梅市","address":"東京都青梅市長淵6丁目492番地の1","lat":35.780335,"lon":139.268546},{"name":"青梅市大門図書館","province":"東京都","city":"青梅市","address":"東京都青梅市大門2丁目288番地","lat":35.796765,"lon":139.291206},{"name":"青梅市梅郷図書館","province":"東京都","city":"青梅市","address":"東京都青梅市梅郷3丁目749番地の1","lat":35.786581,"lon":139.224326},{"name":"青梅市沢井図書館","province":"東京都","city":"青梅市","address":"東京都青梅市沢井2丁目682番地","lat":35.804711,"lon":139.196279},{"name":"青梅市成木図書館","province":"東京都","city":"青梅市","address":"東京都青梅市成木4丁目644番地","lat":35.824186,"lon":139.24851},{"name":"青梅市新町図書館","province":"東京都","city":"青梅市","address":"東京都青梅市新町4丁目17番地の1","lat":35.785985,"lon":139.305154},{"name":"青梅市今井図書館","province":"東京都","city":"青梅市","address":"東京都青梅市今井2丁目908番地の1","lat":35.806544,"lon":139.310973},{"name":"ｓ釜の淵市民館","province":"東京都","city":"青梅市","address":"東京都青梅市大柳町1392","lat":35.78482878,"lon":139.25300977},{"name":"＊?青梅市郷土博物館","province":"東京都","city":"青梅市","address":"青梅市駒木町1-684","lat":35.783794,"lon":139.25672},{"name":"＊?青梅市立美術館","province":"東京都","city":"青梅市","address":"青梅市滝ノ上町1346-1","lat":35.787547,"lon":139.255959},{"name":"＊?青梅市長淵図書館","province":"東京都","city":"青梅市","address":"青梅市長淵6-492-1","lat":35.780194,"lon":139.268855},{"name":"＊?青梅市中央図書館","province":"東京都","city":"青梅市","address":"青梅市河辺町10-8-1","lat":35.785364,"lon":139.285038},{"name":"＊?青梅市大門図書館","province":"東京都","city":"青梅市","address":"青梅市大門2-288","lat":35.796684,"lon":139.290865},{"name":"＊?青梅市新町図書館","province":"東京都","city":"青梅市","address":"青梅市新町4-17-1","lat":35.786079,"lon":139.304925},{"name":"＊?青梅市今井図書館","province":"東京都","city":"青梅市","address":"青梅市今井2-908-1","lat":35.806511,"lon":139.311031},{"name":"＊?青梅市成木図書館","province":"東京都","city":"青梅市","address":"青梅市成木4-644","lat":35.824159,"lon":139.248541},{"name":"＊?青梅市小曾木図書館","province":"東京都","city":"青梅市","address":"青梅市小曾木3-1656-1","lat":35.818065,"lon":139.275106},{"name":"＊?青梅市梅郷図書館","province":"東京都","city":"青梅市","address":"青梅市梅郷3-749-1","lat":35.786795,"lon":139.224431},{"name":"＊?青梅市沢井図書館","province":"東京都","city":"青梅市","address":"青梅市沢井2-682","lat":35.804713,"lon":139.196304},{"name":"＊?青梅市青梅図書館","province":"東京都","city":"青梅市","address":"青梅市仲町268-9","lat":35.791133,"lon":139.25652},{"name":"＊?河辺市民センター","province":"東京都","city":"青梅市","address":"青梅市河辺町6-18-1","lat":35.778488,"lon":139.293633},{"name":"＊?東青梅市民センター","province":"東京都","city":"青梅市","address":"青梅市師岡町3-9-6","lat":35.790631,"lon":139.282374},{"name":"御嶽神社旧本殿","province":"東京都","city":"青梅市","address":"東京都青梅市御岳山176","lat":35.782772,"lon":139.150253},{"name":"安楽寺本堂","province":"東京都","city":"青梅市","address":"東京都青梅市成木1-583","lat":35.838484,"lon":139.275364},{"name":"旧吉野家住宅","province":"東京都","city":"青梅市","address":"東京都青梅市新町1-21-9","lat":35.788144,"lon":139.297825},{"name":"馬場家御師住宅","province":"東京都","city":"青梅市","address":"東京都青梅市御岳山54","lat":35.785996,"lon":139.151073},{"name":"虎柏神社本殿","province":"東京都","city":"青梅市","address":"東京都青梅市根ケ布1-313","lat":35.802624,"lon":139.267127},{"name":"安楽寺の大スギ","province":"東京都","city":"青梅市","address":"東京都青梅市成木1-583","lat":35.838484,"lon":139.275364},{"name":"青梅市中央図書館","province":"東京都","city":"青梅市","address":"東京都青梅市河辺町10丁目8番地の1","lat":35.785387,"lon":139.285073},{"name":"青梅市青梅図書館","province":"東京都","city":"青梅市","address":"東京都青梅市仲町268番地の9","lat":35.791133,"lon":139.256484},{"name":"青梅市長淵図書館","province":"東京都","city":"青梅市","address":"東京都青梅市長淵6丁目492番地の1","lat":35.780335,"lon":139.268546},{"name":"青梅市大門図書館","province":"東京都","city":"青梅市","address":"東京都青梅市大門2丁目288番地","lat":35.796765,"lon":139.291206},{"name":"青梅市梅郷図書館","province":"東京都","city":"青梅市","address":"東京都青梅市梅郷3丁目749番地の1","lat":35.786581,"lon":139.224326},{"name":"青梅市沢井図書館","province":"東京都","city":"青梅市","address":"東京都青梅市沢井2丁目682番地","lat":35.804711,"lon":139.196279},{"name":"青梅市成木図書館","province":"東京都","city":"青梅市","address":"東京都青梅市成木4丁目644番地","lat":35.824186,"lon":139.24851},{"name":"青梅市新町図書館","province":"東京都","city":"青梅市","address":"東京都青梅市新町4丁目17番地の1","lat":35.785985,"lon":139.305154},{"name":"青梅市今井図書館","province":"東京都","city":"青梅市","address":"東京都青梅市今井2丁目908番地の1","lat":35.806544,"lon":139.310973},{"name":"ｓ釜の淵市民館","province":"東京都","city":"青梅市","address":"東京都青梅市大柳町1392","lat":35.78482878,"lon":139.25300977},{"name":"＊?青梅市郷土博物館","province":"東京都","city":"青梅市","address":"青梅市駒木町1-684","lat":35.783794,"lon":139.25672},{"name":"＊?青梅市立美術館","province":"東京都","city":"青梅市","address":"青梅市滝ノ上町1346-1","lat":35.787547,"lon":139.255959},{"name":"＊?青梅市長淵図書館","province":"東京都","city":"青梅市","address":"青梅市長淵6-492-1","lat":35.780194,"lon":139.268855},{"name":"＊?青梅市中央図書館","province":"東京都","city":"青梅市","address":"青梅市河辺町10-8-1","lat":35.785364,"lon":139.285038},{"name":"＊?青梅市大門図書館","province":"東京都","city":"青梅市","address":"青梅市大門2-288","lat":35.796684,"lon":139.290865},{"name":"＊?青梅市新町図書館","province":"東京都","city":"青梅市","address":"青梅市新町4-17-1","lat":35.786079,"lon":139.304925},{"name":"＊?青梅市今井図書館","province":"東京都","city":"青梅市","address":"青梅市今井2-908-1","lat":35.806511,"lon":139.311031},{"name":"＊?青梅市成木図書館","province":"東京都","city":"青梅市","address":"青梅市成木4-644","lat":35.824159,"lon":139.248541},{"name":"＊?青梅市小曾木図書館","province":"東京都","city":"青梅市","address":"青梅市小曾木3-1656-1","lat":35.818065,"lon":139.275106},{"name":"＊?青梅市梅郷図書館","province":"東京都","city":"青梅市","address":"青梅市梅郷3-749-1","lat":35.786795,"lon":139.224431},{"name":"＊?青梅市沢井図書館","province":"東京都","city":"青梅市","address":"青梅市沢井2-682","lat":35.804713,"lon":139.196304},{"name":"＊?青梅市青梅図書館","province":"東京都","city":"青梅市","address":"青梅市仲町268-9","lat":35.791133,"lon":139.25652},{"name":"＊?河辺市民センター","province":"東京都","city":"青梅市","address":"青梅市河辺町6-18-1","lat":35.778488,"lon":139.293633},{"name":"＊?東青梅市民センター","province":"東京都","city":"青梅市","address":"青梅市師岡町3-9-6","lat":35.790631,"lon":139.282374},{"name":"御嶽神社旧本殿","province":"東京都","city":"青梅市","address":"東京都青梅市御岳山176","lat":35.782772,"lon":139.150253},{"name":"安楽寺本堂","province":"東京都","city":"青梅市","address":"東京都青梅市成木1-583","lat":35.838484,"lon":139.275364},{"name":"旧吉野家住宅","province":"東京都","city":"青梅市","address":"東京都青梅市新町1-21-9","lat":35.788144,"lon":139.297825},{"name":"馬場家御師住宅","province":"東京都","city":"青梅市","address":"東京都青梅市御岳山54","lat":35.785996,"lon":139.151073},{"name":"虎柏神社本殿","province":"東京都","city":"青梅市","address":"東京都青梅市根ケ布1-313","lat":35.802624,"lon":139.267127},{"name":"安楽寺の大スギ","province":"東京都","city":"青梅市","address":"東京都青梅市成木1-583","lat":35.838484,"lon":139.275364},{"name":"青梅市中央図書館","province":"東京都","city":"青梅市","address":"東京都青梅市河辺町10丁目8番地の1","lat":35.785387,"lon":139.285073},{"name":"青梅市青梅図書館","province":"東京都","city":"青梅市","address":"東京都青梅市仲町268番地の9","lat":35.791133,"lon":139.256484},{"name":"青梅市長淵図書館","province":"東京都","city":"青梅市","address":"東京都青梅市長淵6丁目492番地の1","lat":35.780335,"lon":139.268546},{"name":"青梅市大門図書館","province":"東京都","city":"青梅市","address":"東京都青梅市大門2丁目288番地","lat":35.796765,"lon":139.291206},{"name":"青梅市梅郷図書館","province":"東京都","city":"青梅市","address":"東京都青梅市梅郷3丁目749番地の1","lat":35.786581,"lon":139.224326},{"name":"青梅市沢井図書館","province":"東京都","city":"青梅市","address":"東京都青梅市沢井2丁目682番地","lat":35.804711,"lon":139.196279},{"name":"青梅市成木図書館","province":"東京都","city":"青梅市","address":"東京都青梅市成木4丁目644番地","lat":35.824186,"lon":139.24851},{"name":"青梅市新町図書館","province":"東京都","city":"青梅市","address":"東京都青梅市新町4丁目17番地の1","lat":35.785985,"lon":139.305154},{"name":"青梅市今井図書館","province":"東京都","city":"青梅市","address":"東京都青梅市今井2丁目908番地の1","lat":35.806544,"lon":139.310973},{"name":"ｓ釜の淵市民館","province":"東京都","city":"青梅市","address":"東京都青梅市大柳町1392","lat":35.78482878,"lon":139.25300977},{"name":"＊?青梅市郷土博物館","province":"東京都","city":"青梅市","address":"青梅市駒木町1-684","lat":35.783794,"lon":139.25672},{"name":"＊?青梅市立美術館","province":"東京都","city":"青梅市","address":"青梅市滝ノ上町1346-1","lat":35.787547,"lon":139.255959},{"name":"＊?青梅市長淵図書館","province":"東京都","city":"青梅市","address":"青梅市長淵6-492-1","lat":35.780194,"lon":139.268855},{"name":"＊?青梅市中央図書館","province":"東京都","city":"青梅市","address":"青梅市河辺町10-8-1","lat":35.785364,"lon":139.285038},{"name":"＊?青梅市大門図書館","province":"東京都","city":"青梅市","address":"青梅市大門2-288","lat":35.796684,"lon":139.290865},{"name":"＊?青梅市新町図書館","province":"東京都","city":"青梅市","address":"青梅市新町4-17-1","lat":35.786079,"lon":139.304925},{"name":"＊?青梅市今井図書館","province":"東京都","city":"青梅市","address":"青梅市今井2-908-1","lat":35.806511,"lon":139.311031},{"name":"＊?青梅市成木図書館","province":"東京都","city":"青梅市","address":"青梅市成木4-644","lat":35.824159,"lon":139.248541},{"name":"＊?青梅市小曾木図書館","province":"東京都","city":"青梅市","address":"青梅市小曾木3-1656-1","lat":35.818065,"lon":139.275106},{"name":"＊?青梅市梅郷図書館","province":"東京都","city":"青梅市","address":"青梅市梅郷3-749-1","lat":35.786795,"lon":139.224431},{"name":"＊?青梅市沢井図書館","province":"東京都","city":"青梅市","address":"青梅市沢井2-682","lat":35.804713,"lon":139.196304},{"name":"＊?青梅市青梅図書館","province":"東京都","city":"青梅市","address":"青梅市仲町268-9","lat":35.791133,"lon":139.25652},{"name":"＊?河辺市民センター","province":"東京都","city":"青梅市","address":"青梅市河辺町6-18-1","lat":35.778488,"lon":139.293633},{"name":"＊?東青梅市民センター","province":"東京都","city":"青梅市","address":"青梅市師岡町3-9-6","lat":35.790631,"lon":139.282374},{"name":"御嶽神社旧本殿","province":"東京都","city":"青梅市","address":"東京都青梅市御岳山176","lat":35.782772,"lon":139.150253},{"name":"安楽寺本堂","province":"東京都","city":"青梅市","address":"東京都青梅市成木1-583","lat":35.838484,"lon":139.275364},{"name":"旧吉野家住宅","province":"東京都","city":"青梅市","address":"東京都青梅市新町1-21-9","lat":35.788144,"lon":139.297825},{"name":"馬場家御師住宅","province":"東京都","city":"青梅市","address":"東京都青梅市御岳山54","lat":35.785996,"lon":139.151073},{"name":"虎柏神社本殿","province":"東京都","city":"青梅市","address":"東京都青梅市根ケ布1-313","lat":35.802624,"lon":139.267127},{"name":"安楽寺の大スギ","province":"東京都","city":"青梅市","address":"東京都青梅市成木1-583","lat":35.838484,"lon":139.275364},{"name":"青梅市中央図書館","province":"東京都","city":"青梅市","address":"東京都青梅市河辺町10丁目8番地の1","lat":35.785387,"lon":139.285073},{"name":"青梅市青梅図書館","province":"東京都","city":"青梅市","address":"東京都青梅市仲町268番地の9","lat":35.791133,"lon":139.256484},{"name":"青梅市長淵図書館","province":"東京都","city":"青梅市","address":"東京都青梅市長淵6丁目492番地の1","lat":35.780335,"lon":139.268546},{"name":"青梅市大門図書館","province":"東京都","city":"青梅市","address":"東京都青梅市大門2丁目288番地","lat":35.796765,"lon":139.291206},{"name":"青梅市梅郷図書館","province":"東京都","city":"青梅市","address":"東京都青梅市梅郷3丁目749番地の1","lat":35.786581,"lon":139.224326},{"name":"青梅市沢井図書館","province":"東京都","city":"青梅市","address":"東京都青梅市沢井2丁目682番地","lat":35.804711,"lon":139.196279},{"name":"青梅市成木図書館","province":"東京都","city":"青梅市","address":"東京都青梅市成木4丁目644番地","lat":35.824186,"lon":139.24851},{"name":"青梅市新町図書館","province":"東京都","city":"青梅市","address":"東京都青梅市新町4丁目17番地の1","lat":35.785985,"lon":139.305154},{"name":"青梅市今井図書館","province":"東京都","city":"青梅市","address":"東京都青梅市今井2丁目908番地の1","lat":35.806544,"lon":139.310973},{"name":"ｓ釜の淵市民館","province":"東京都","city":"青梅市","address":"東京都青梅市大柳町1392","lat":35.78482878,"lon":139.25300977},{"name":"＊?青梅市郷土博物館","province":"東京都","city":"青梅市","address":"青梅市駒木町1-684","lat":35.783794,"lon":139.25672},{"name":"＊?青梅市立美術館","province":"東京都","city":"青梅市","address":"青梅市滝ノ上町1346-1","lat":35.787547,"lon":139.255959},{"name":"＊?青梅市長淵図書館","province":"東京都","city":"青梅市","address":"青梅市長淵6-492-1","lat":35.780194,"lon":139.268855},{"name":"＊?青梅市中央図書館","province":"東京都","city":"青梅市","address":"青梅市河辺町10-8-1","lat":35.785364,"lon":139.285038},{"name":"＊?青梅市大門図書館","province":"東京都","city":"青梅市","address":"青梅市大門2-288","lat":35.796684,"lon":139.290865},{"name":"＊?青梅市新町図書館","province":"東京都","city":"青梅市","address":"青梅市新町4-17-1","lat":35.786079,"lon":139.304925},{"name":"＊?青梅市今井図書館","province":"東京都","city":"青梅市","address":"青梅市今井2-908-1","lat":35.806511,"lon":139.311031},{"name":"＊?青梅市成木図書館","province":"東京都","city":"青梅市","address":"青梅市成木4-644","lat":35.824159,"lon":139.248541},{"name":"＊?青梅市小曾木図書館","province":"東京都","city":"青梅市","address":"青梅市小曾木3-1656-1","lat":35.818065,"lon":139.275106},{"name":"＊?青梅市梅郷図書館","province":"東京都","city":"青梅市","address":"青梅市梅郷3-749-1","lat":35.786795,"lon":139.224431},{"name":"＊?青梅市沢井図書館","province":"東京都","city":"青梅市","address":"青梅市沢井2-682","lat":35.804713,"lon":139.196304},{"name":"＊?青梅市青梅図書館","province":"東京都","city":"青梅市","address":"青梅市仲町268-9","lat":35.791133,"lon":139.25652},{"name":"＊?河辺市民センター","province":"東京都","city":"青梅市","address":"青梅市河辺町6-18-1","lat":35.778488,"lon":139.293633},{"name":"＊?東青梅市民センター","province":"東京都","city":"青梅市","address":"青梅市師岡町3-9-6","lat":35.790631,"lon":139.282374},{"name":"御嶽神社旧本殿","province":"東京都","city":"青梅市","address":"東京都青梅市御岳山176","lat":35.782772,"lon":139.150253},{"name":"安楽寺本堂","province":"東京都","city":"青梅市","address":"東京都青梅市成木1-583","lat":35.838484,"lon":139.275364},{"name":"旧吉野家住宅","province":"東京都","city":"青梅市","address":"東京都青梅市新町1-21-9","lat":35.788144,"lon":139.297825},{"name":"馬場家御師住宅","province":"東京都","city":"青梅市","address":"東京都青梅市御岳山54","lat":35.785996,"lon":139.151073},{"name":"虎柏神社本殿","province":"東京都","city":"青梅市","address":"東京都青梅市根ケ布1-313","lat":35.802624,"lon":139.267127},{"name":"安楽寺の大スギ","province":"東京都","city":"青梅市","address":"東京都青梅市成木1-583","lat":35.838484,"lon":139.275364},{"name":"青梅市中央図書館","province":"東京都","city":"青梅市","address":"東京都青梅市河辺町10丁目8番地の1","lat":35.785387,"lon":139.285073},{"name":"青梅市青梅図書館","province":"東京都","city":"青梅市","address":"東京都青梅市仲町268番地の9","lat":35.791133,"lon":139.256484},{"name":"青梅市長淵図書館","province":"東京都","city":"青梅市","address":"東京都青梅市長淵6丁目492番地の1","lat":35.780335,"lon":139.268546},{"name":"青梅市大門図書館","province":"東京都","city":"青梅市","address":"東京都青梅市大門2丁目288番地","lat":35.796765,"lon":139.291206},{"name":"青梅市梅郷図書館","province":"東京都","city":"青梅市","address":"東京都青梅市梅郷3丁目749番地の1","lat":35.786581,"lon":139.224326},{"name":"青梅市沢井図書館","province":"東京都","city":"青梅市","address":"東京都青梅市沢井2丁目682番地","lat":35.804711,"lon":139.196279},{"name":"青梅市成木図書館","province":"東京都","city":"青梅市","address":"東京都青梅市成木4丁目644番地","lat":35.824186,"lon":139.24851},{"name":"青梅市新町図書館","province":"東京都","city":"青梅市","address":"東京都青梅市新町4丁目17番地の1","lat":35.785985,"lon":139.305154},{"name":"青梅市今井図書館","province":"東京都","city":"青梅市","address":"東京都青梅市今井2丁目908番地の1","lat":35.806544,"lon":139.310973},{"name":"ｓ釜の淵市民館","province":"東京都","city":"青梅市","address":"東京都青梅市大柳町1392","lat":35.78482878,"lon":139.25300977},{"name":"＊?青梅市郷土博物館","province":"東京都","city":"青梅市","address":"青梅市駒木町1-684","lat":35.783794,"lon":139.25672},{"name":"＊?青梅市立美術館","province":"東京都","city":"青梅市","address":"青梅市滝ノ上町1346-1","lat":35.787547,"lon":139.255959},{"name":"＊?青梅市長淵図書館","province":"東京都","city":"青梅市","address":"青梅市長淵6-492-1","lat":35.780194,"lon":139.268855},{"name":"＊?青梅市中央図書館","province":"東京都","city":"青梅市","address":"青梅市河辺町10-8-1","lat":35.785364,"lon":139.285038},{"name":"＊?青梅市大門図書館","province":"東京都","city":"青梅市","address":"青梅市大門2-288","lat":35.796684,"lon":139.290865},{"name":"＊?青梅市新町図書館","province":"東京都","city":"青梅市","address":"青梅市新町4-17-1","lat":35.786079,"lon":139.304925},{"name":"＊?青梅市今井図書館","province":"東京都","city":"青梅市","address":"青梅市今井2-908-1","lat":35.806511,"lon":139.311031},{"name":"＊?青梅市成木図書館","province":"東京都","city":"青梅市","address":"青梅市成木4-644","lat":35.824159,"lon":139.248541},{"name":"＊?青梅市小曾木図書館","province":"東京都","city":"青梅市","address":"青梅市小曾木3-1656-1","lat":35.818065,"lon":139.275106},{"name":"＊?青梅市梅郷図書館","province":"東京都","city":"青梅市","address":"青梅市梅郷3-749-1","lat":35.786795,"lon":139.224431},{"name":"＊?青梅市沢井図書館","province":"東京都","city":"青梅市","address":"青梅市沢井2-682","lat":35.804713,"lon":139.196304},{"name":"＊?青梅市青梅図書館","province":"東京都","city":"青梅市","address":"青梅市仲町268-9","lat":35.791133,"lon":139.25652},{"name":"＊?河辺市民センター","province":"東京都","city":"青梅市","address":"青梅市河辺町6-18-1","lat":35.778488,"lon":139.293633},{"name":"＊?東青梅市民センター","province":"東京都","city":"青梅市","address":"青梅市師岡町3-9-6","lat":35.790631,"lon":139.282374},{"name":"御嶽神社旧本殿","province":"東京都","city":"青梅市","address":"東京都青梅市御岳山176","lat":35.782772,"lon":139.150253},{"name":"安楽寺本堂","province":"東京都","city":"青梅市","address":"東京都青梅市成木1-583","lat":35.838484,"lon":139.275364},{"name":"旧吉野家住宅","province":"東京都","city":"青梅市","address":"東京都青梅市新町1-21-9","lat":35.788144,"lon":139.297825},{"name":"馬場家御師住宅","province":"東京都","city":"青梅市","address":"東京都青梅市御岳山54","lat":35.785996,"lon":139.151073},{"name":"虎柏神社本殿","province":"東京都","city":"青梅市","address":"東京都青梅市根ケ布1-313","lat":35.802624,"lon":139.267127},{"name":"安楽寺の大スギ","province":"東京都","city":"青梅市","address":"東京都青梅市成木1-583","lat":35.838484,"lon":139.275364},{"name":"青梅市中央図書館","province":"東京都","city":"青梅市","address":"東京都青梅市河辺町10丁目8番地の1","lat":35.785387,"lon":139.285073},{"name":"青梅市青梅図書館","province":"東京都","city":"青梅市","address":"東京都青梅市仲町268番地の9","lat":35.791133,"lon":139.256484},{"name":"青梅市長淵図書館","province":"東京都","city":"青梅市","address":"東京都青梅市長淵6丁目492番地の1","lat":35.780335,"lon":139.268546},{"name":"青梅市大門図書館","province":"東京都","city":"青梅市","address":"東京都青梅市大門2丁目288番地","lat":35.796765,"lon":139.291206},{"name":"青梅市梅郷図書館","province":"東京都","city":"青梅市","address":"東京都青梅市梅郷3丁目749番地の1","lat":35.786581,"lon":139.224326},{"name":"青梅市沢井図書館","province":"東京都","city":"青梅市","address":"東京都青梅市沢井2丁目682番地","lat":35.804711,"lon":139.196279},{"name":"青梅市成木図書館","province":"東京都","city":"青梅市","address":"東京都青梅市成木4丁目644番地","lat":35.824186,"lon":139.24851},{"name":"青梅市新町図書館","province":"東京都","city":"青梅市","address":"東京都青梅市新町4丁目17番地の1","lat":35.785985,"lon":139.305154},{"name":"青梅市今井図書館","province":"東京都","city":"青梅市","address":"東京都青梅市今井2丁目908番地の1","lat":35.806544,"lon":139.310973},{"name":"＊?青梅市郷土博物館","province":"東京都","city":"青梅市","address":"青梅市駒木町1-684","lat":35.783794,"lon":139.25672},{"name":"＊?青梅市立美術館","province":"東京都","city":"青梅市","address":"青梅市滝ノ上町1346-1","lat":35.787547,"lon":139.255959},{"name":"＊?青梅市長淵図書館","province":"東京都","city":"青梅市","address":"青梅市長淵6-492-1","lat":35.780194,"lon":139.268855},{"name":"＊?青梅市中央図書館","province":"東京都","city":"青梅市","address":"青梅市河辺町10-8-1","lat":35.785364,"lon":139.285038},{"name":"＊?青梅市大門図書館","province":"東京都","city":"青梅市","address":"青梅市大門2-288","lat":35.796684,"lon":139.290865},{"name":"＊?青梅市新町図書館","province":"東京都","city":"青梅市","address":"青梅市新町4-17-1","lat":35.786079,"lon":139.304925},{"name":"＊?青梅市今井図書館","province":"東京都","city":"青梅市","address":"青梅市今井2-908-1","lat":35.806511,"lon":139.311031},{"name":"＊?青梅市成木図書館","province":"東京都","city":"青梅市","address":"青梅市成木4-644","lat":35.824159,"lon":139.248541},{"name":"＊?青梅市小曾木図書館","province":"東京都","city":"青梅市","address":"青梅市小曾木3-1656-1","lat":35.818065,"lon":139.275106},{"name":"＊?青梅市梅郷図書館","province":"東京都","city":"青梅市","address":"青梅市梅郷3-749-1","lat":35.786795,"lon":139.224431},{"name":"＊?青梅市沢井図書館","province":"東京都","city":"青梅市","address":"青梅市沢井2-682","lat":35.804713,"lon":139.196304},{"name":"＊?青梅市青梅図書館","province":"東京都","city":"青梅市","address":"青梅市仲町268-9","lat":35.791133,"lon":139.25652},{"name":"＊?河辺市民センター","province":"東京都","city":"青梅市","address":"青梅市河辺町6-18-1","lat":35.778488,"lon":139.293633},{"name":"＊?東青梅市民センター","province":"東京都","city":"青梅市","address":"青梅市師岡町3-9-6","lat":35.790631,"lon":139.282374},{"name":"御嶽神社旧本殿","province":"東京都","city":"青梅市","address":"東京都青梅市御岳山176","lat":35.782772,"lon":139.150253},{"name":"安楽寺本堂","province":"東京都","city":"青梅市","address":"東京都青梅市成木1-583","lat":35.838484,"lon":139.275364},{"name":"旧吉野家住宅","province":"東京都","city":"青梅市","address":"東京都青梅市新町1-21-9","lat":35.788144,"lon":139.297825},{"name":"馬場家御師住宅","province":"東京都","city":"青梅市","address":"東京都青梅市御岳山54","lat":35.785996,"lon":139.151073},{"name":"虎柏神社本殿","province":"東京都","city":"青梅市","address":"東京都青梅市根ケ布1-313","lat":35.802624,"lon":139.267127},{"name":"安楽寺の大スギ","province":"東京都","city":"青梅市","address":"東京都青梅市成木1-583","lat":35.838484,"lon":139.275364},{"name":"青梅市中央図書館","province":"東京都","city":"青梅市","address":"東京都青梅市河辺町10丁目8番地の1","lat":35.785387,"lon":139.285073},{"name":"青梅市青梅図書館","province":"東京都","city":"青梅市","address":"東京都青梅市仲町268番地の9","lat":35.791133,"lon":139.256484},{"name":"青梅市長淵図書館","province":"東京都","city":"青梅市","address":"東京都青梅市長淵6丁目492番地の1","lat":35.780335,"lon":139.268546},{"name":"青梅市大門図書館","province":"東京都","city":"青梅市","address":"東京都青梅市大門2丁目288番地","lat":35.796765,"lon":139.291206},{"name":"青梅市梅郷図書館","province":"東京都","city":"青梅市","address":"東京都青梅市梅郷3丁目749番地の1","lat":35.786581,"lon":139.224326},{"name":"青梅市沢井図書館","province":"東京都","city":"青梅市","address":"東京都青梅市沢井2丁目682番地","lat":35.804711,"lon":139.196279},{"name":"青梅市成木図書館","province":"東京都","city":"青梅市","address":"東京都青梅市成木4丁目644番地","lat":35.824186,"lon":139.24851},{"name":"青梅市新町図書館","province":"東京都","city":"青梅市","address":"東京都青梅市新町4丁目17番地の1","lat":35.785985,"lon":139.305154},{"name":"青梅市今井図書館","province":"東京都","city":"青梅市","address":"東京都青梅市今井2丁目908番地の1","lat":35.806544,"lon":139.310973},{"name":"＊?青梅市郷土博物館","province":"東京都","city":"青梅市","address":"青梅市駒木町1-684","lat":35.783794,"lon":139.25672},{"name":"＊?青梅市立美術館","province":"東京都","city":"青梅市","address":"青梅市滝ノ上町1346-1","lat":35.787547,"lon":139.255959},{"name":"＊?青梅市長淵図書館","province":"東京都","city":"青梅市","address":"青梅市長淵6-492-1","lat":35.780194,"lon":139.268855},{"name":"＊?青梅市中央図書館","province":"東京都","city":"青梅市","address":"青梅市河辺町10-8-1","lat":35.785364,"lon":139.285038},{"name":"＊?青梅市大門図書館","province":"東京都","city":"青梅市","address":"青梅市大門2-288","lat":35.796684,"lon":139.290865},{"name":"＊?青梅市新町図書館","province":"東京都","city":"青梅市","address":"青梅市新町4-17-1","lat":35.786079,"lon":139.304925},{"name":"＊?青梅市今井図書館","province":"東京都","city":"青梅市","address":"青梅市今井2-908-1","lat":35.806511,"lon":139.311031},{"name":"＊?青梅市成木図書館","province":"東京都","city":"青梅市","address":"青梅市成木4-644","lat":35.824159,"lon":139.248541},{"name":"＊?青梅市小曾木図書館","province":"東京都","city":"青梅市","address":"青梅市小曾木3-1656-1","lat":35.818065,"lon":139.275106},{"name":"＊?青梅市梅郷図書館","province":"東京都","city":"青梅市","address":"青梅市梅郷3-749-1","lat":35.786795,"lon":139.224431},{"name":"＊?青梅市沢井図書館","province":"東京都","city":"青梅市","address":"青梅市沢井2-682","lat":35.804713,"lon":139.196304},{"name":"＊?青梅市青梅図書館","province":"東京都","city":"青梅市","address":"青梅市仲町268-9","lat":35.791133,"lon":139.25652},{"name":"＊?河辺市民センター","province":"東京都","city":"青梅市","address":"青梅市河辺町6-18-1","lat":35.778488,"lon":139.293633},{"name":"＊?東青梅市民センター","province":"東京都","city":"青梅市","address":"青梅市師岡町3-9-6","lat":35.790631,"lon":139.282374},{"name":"御嶽神社旧本殿","province":"東京都","city":"青梅市","address":"東京都青梅市御岳山176","lat":35.782772,"lon":139.150253},{"name":"安楽寺本堂","province":"東京都","city":"青梅市","address":"東京都青梅市成木1-583","lat":35.838484,"lon":139.275364},{"name":"旧吉野家住宅","province":"東京都","city":"青梅市","address":"東京都青梅市新町1-21-9","lat":35.788144,"lon":139.297825},{"name":"馬場家御師住宅","province":"東京都","city":"青梅市","address":"東京都青梅市御岳山54","lat":35.785996,"lon":139.151073},{"name":"虎柏神社本殿","province":"東京都","city":"青梅市","address":"東京都青梅市根ケ布1-313","lat":35.802624,"lon":139.267127},{"name":"安楽寺の大スギ","province":"東京都","city":"青梅市","address":"東京都青梅市成木1-583","lat":35.838484,"lon":139.275364},{"name":"青梅市中央図書館","province":"東京都","city":"青梅市","address":"東京都青梅市河辺町10丁目8番地の1","lat":35.785387,"lon":139.285073},{"name":"青梅市青梅図書館","province":"東京都","city":"青梅市","address":"東京都青梅市仲町268番地の9","lat":35.791133,"lon":139.256484},{"name":"青梅市長淵図書館","province":"東京都","city":"青梅市","address":"東京都青梅市長淵6丁目492番地の1","lat":35.780335,"lon":139.268546},{"name":"青梅市大門図書館","province":"東京都","city":"青梅市","address":"東京都青梅市大門2丁目288番地","lat":35.796765,"lon":139.291206},{"name":"青梅市梅郷図書館","province":"東京都","city":"青梅市","address":"東京都青梅市梅郷3丁目749番地の1","lat":35.786581,"lon":139.224326},{"name":"青梅市沢井図書館","province":"東京都","city":"青梅市","address":"東京都青梅市沢井2丁目682番地","lat":35.804711,"lon":139.196279},{"name":"青梅市成木図書館","province":"東京都","city":"青梅市","address":"東京都青梅市成木4丁目644番地","lat":35.824186,"lon":139.24851},{"name":"青梅市新町図書館","province":"東京都","city":"青梅市","address":"東京都青梅市新町4丁目17番地の1","lat":35.785985,"lon":139.305154},{"name":"青梅市今井図書館","province":"東京都","city":"青梅市","address":"東京都青梅市今井2丁目908番地の1","lat":35.806544,"lon":139.310973},{"name":"＊?青梅市郷土博物館","province":"東京都","city":"青梅市","address":"青梅市駒木町1-684","lat":35.783794,"lon":139.25672},{"name":"＊?青梅市立美術館","province":"東京都","city":"青梅市","address":"青梅市滝ノ上町1346-1","lat":35.787547,"lon":139.255959},{"name":"＊?青梅市長淵図書館","province":"東京都","city":"青梅市","address":"青梅市長淵6-492-1","lat":35.780194,"lon":139.268855},{"name":"＊?青梅市中央図書館","province":"東京都","city":"青梅市","address":"青梅市河辺町10-8-1","lat":35.785364,"lon":139.285038},{"name":"＊?青梅市大門図書館","province":"東京都","city":"青梅市","address":"青梅市大門2-288","lat":35.796684,"lon":139.290865},{"name":"＊?青梅市新町図書館","province":"東京都","city":"青梅市","address":"青梅市新町4-17-1","lat":35.786079,"lon":139.304925},{"name":"＊?青梅市今井図書館","province":"東京都","city":"青梅市","address":"青梅市今井2-908-1","lat":35.806511,"lon":139.311031},{"name":"＊?青梅市成木図書館","province":"東京都","city":"青梅市","address":"青梅市成木4-644","lat":35.824159,"lon":139.248541},{"name":"＊?青梅市小曾木図書館","province":"東京都","city":"青梅市","address":"青梅市小曾木3-1656-1","lat":35.818065,"lon":139.275106},{"name":"＊?青梅市梅郷図書館","province":"東京都","city":"青梅市","address":"青梅市梅郷3-749-1","lat":35.786795,"lon":139.224431},{"name":"＊?青梅市沢井図書館","province":"東京都","city":"青梅市","address":"青梅市沢井2-682","lat":35.804713,"lon":139.196304},{"name":"＊?青梅市青梅図書館","province":"東京都","city":"青梅市","address":"青梅市仲町268-9","lat":35.791133,"lon":139.25652},{"name":"＊?河辺市民センター","province":"東京都","city":"青梅市","address":"青梅市河辺町6-18-1","lat":35.778488,"lon":139.293633},{"name":"＊?東青梅市民センター","province":"東京都","city":"青梅市","address":"青梅市師岡町3-9-6","lat":35.790631,"lon":139.282374},{"name":"御嶽神社旧本殿","province":"東京都","city":"青梅市","address":"東京都青梅市御岳山176","lat":35.782772,"lon":139.150253},{"name":"安楽寺本堂","province":"東京都","city":"青梅市","address":"東京都青梅市成木1-583","lat":35.838484,"lon":139.275364},{"name":"旧吉野家住宅","province":"東京都","city":"青梅市","address":"東京都青梅市新町1-21-9","lat":35.788144,"lon":139.297825},{"name":"馬場家御師住宅","province":"東京都","city":"青梅市","address":"東京都青梅市御岳山54","lat":35.785996,"lon":139.151073},{"name":"虎柏神社本殿","province":"東京都","city":"青梅市","address":"東京都青梅市根ケ布1-313","lat":35.802624,"lon":139.267127},{"name":"安楽寺の大スギ","province":"東京都","city":"青梅市","address":"東京都青梅市成木1-583","lat":35.838484,"lon":139.275364},{"name":"青梅市中央図書館","province":"東京都","city":"青梅市","address":"東京都青梅市河辺町10丁目8番地の1","lat":35.785387,"lon":139.285073},{"name":"青梅市青梅図書館","province":"東京都","city":"青梅市","address":"東京都青梅市仲町268番地の9","lat":35.791133,"lon":139.256484},{"name":"青梅市長淵図書館","province":"東京都","city":"青梅市","address":"東京都青梅市長淵6丁目492番地の1","lat":35.780335,"lon":139.268546},{"name":"青梅市大門図書館","province":"東京都","city":"青梅市","address":"東京都青梅市大門2丁目288番地","lat":35.796765,"lon":139.291206},{"name":"青梅市梅郷図書館","province":"東京都","city":"青梅市","address":"東京都青梅市梅郷3丁目749番地の1","lat":35.786581,"lon":139.224326},{"name":"青梅市沢井図書館","province":"東京都","city":"青梅市","address":"東京都青梅市沢井2丁目682番地","lat":35.804711,"lon":139.196279},{"name":"青梅市成木図書館","province":"東京都","city":"青梅市","address":"東京都青梅市成木4丁目644番地","lat":35.824186,"lon":139.24851},{"name":"青梅市新町図書館","province":"東京都","city":"青梅市","address":"東京都青梅市新町4丁目17番地の1","lat":35.785985,"lon":139.305154},{"name":"青梅市今井図書館","province":"東京都","city":"青梅市","address":"東京都青梅市今井2丁目908番地の1","lat":35.806544,"lon":139.310973},{"name":"＊?青梅市郷土博物館","province":"東京都","city":"青梅市","address":"青梅市駒木町1-684","lat":35.783794,"lon":139.25672},{"name":"＊?青梅市立美術館","province":"東京都","city":"青梅市","address":"青梅市滝ノ上町1346-1","lat":35.787547,"lon":139.255959},{"name":"＊?青梅市長淵図書館","province":"東京都","city":"青梅市","address":"青梅市長淵6-492-1","lat":35.780194,"lon":139.268855},{"name":"＊?青梅市中央図書館","province":"東京都","city":"青梅市","address":"青梅市河辺町10-8-1","lat":35.785364,"lon":139.285038},{"name":"＊?青梅市大門図書館","province":"東京都","city":"青梅市","address":"青梅市大門2-288","lat":35.796684,"lon":139.290865},{"name":"＊?青梅市新町図書館","province":"東京都","city":"青梅市","address":"青梅市新町4-17-1","lat":35.786079,"lon":139.304925},{"name":"＊?青梅市今井図書館","province":"東京都","city":"青梅市","address":"青梅市今井2-908-1","lat":35.806511,"lon":139.311031},{"name":"＊?青梅市成木図書館","province":"東京都","city":"青梅市","address":"青梅市成木4-644","lat":35.824159,"lon":139.248541},{"name":"＊?青梅市小曾木図書館","province":"東京都","city":"青梅市","address":"青梅市小曾木3-1656-1","lat":35.818065,"lon":139.275106},{"name":"＊?青梅市梅郷図書館","province":"東京都","city":"青梅市","address":"青梅市梅郷3-749-1","lat":35.786795,"lon":139.224431},{"name":"＊?青梅市沢井図書館","province":"東京都","city":"青梅市","address":"青梅市沢井2-682","lat":35.804713,"lon":139.196304},{"name":"＊?青梅市青梅図書館","province":"東京都","city":"青梅市","address":"青梅市仲町268-9","lat":35.791133,"lon":139.25652},{"name":"＊?河辺市民センター","province":"東京都","city":"青梅市","address":"青梅市河辺町6-18-1","lat":35.778488,"lon":139.293633},{"name":"＊?東青梅市民センター","province":"東京都","city":"青梅市","address":"青梅市師岡町3-9-6","lat":35.790631,"lon":139.282374},{"name":"御嶽神社旧本殿","province":"東京都","city":"青梅市","address":"東京都青梅市御岳山176","lat":35.782772,"lon":139.150253},{"name":"安楽寺本堂","province":"東京都","city":"青梅市","address":"東京都青梅市成木1-583","lat":35.838484,"lon":139.275364},{"name":"旧吉野家住宅","province":"東京都","city":"青梅市","address":"東京都青梅市新町1-21-9","lat":35.788144,"lon":139.297825},{"name":"馬場家御師住宅","province":"東京都","city":"青梅市","address":"東京都青梅市御岳山54","lat":35.785996,"lon":139.151073},{"name":"虎柏神社本殿","province":"東京都","city":"青梅市","address":"東京都青梅市根ケ布1-313","lat":35.802624,"lon":139.267127},{"name":"安楽寺の大スギ","province":"東京都","city":"青梅市","address":"東京都青梅市成木1-583","lat":35.838484,"lon":139.275364},{"name":"青梅市中央図書館","province":"東京都","city":"青梅市","address":"東京都青梅市河辺町10丁目8番地の1","lat":35.785387,"lon":139.285073},{"name":"青梅市青梅図書館","province":"東京都","city":"青梅市","address":"東京都青梅市仲町268番地の9","lat":35.791133,"lon":139.256484},{"name":"青梅市長淵図書館","province":"東京都","city":"青梅市","address":"東京都青梅市長淵6丁目492番地の1","lat":35.780335,"lon":139.268546},{"name":"青梅市大門図書館","province":"東京都","city":"青梅市","address":"東京都青梅市大門2丁目288番地","lat":35.796765,"lon":139.291206},{"name":"青梅市梅郷図書館","province":"東京都","city":"青梅市","address":"東京都青梅市梅郷3丁目749番地の1","lat":35.786581,"lon":139.224326},{"name":"青梅市沢井図書館","province":"東京都","city":"青梅市","address":"東京都青梅市沢井2丁目682番地","lat":35.804711,"lon":139.196279},{"name":"青梅市成木図書館","province":"東京都","city":"青梅市","address":"東京都青梅市成木4丁目644番地","lat":35.824186,"lon":139.24851},{"name":"青梅市新町図書館","province":"東京都","city":"青梅市","address":"東京都青梅市新町4丁目17番地の1","lat":35.785985,"lon":139.305154},{"name":"青梅市今井図書館","province":"東京都","city":"青梅市","address":"東京都青梅市今井2丁目908番地の1","lat":35.806544,"lon":139.310973},{"name":"＊?青梅市郷土博物館","province":"東京都","city":"青梅市","address":"青梅市駒木町1-684","lat":35.783794,"lon":139.25672},{"name":"＊?青梅市立美術館","province":"東京都","city":"青梅市","address":"青梅市滝ノ上町1346-1","lat":35.787547,"lon":139.255959},{"name":"＊?青梅市長淵図書館","province":"東京都","city":"青梅市","address":"青梅市長淵6-492-1","lat":35.780194,"lon":139.268855},{"name":"＊?青梅市中央図書館","province":"東京都","city":"青梅市","address":"青梅市河辺町10-8-1","lat":35.785364,"lon":139.285038},{"name":"＊?青梅市大門図書館","province":"東京都","city":"青梅市","address":"青梅市大門2-288","lat":35.796684,"lon":139.290865},{"name":"＊?青梅市新町図書館","province":"東京都","city":"青梅市","address":"青梅市新町4-17-1","lat":35.786079,"lon":139.304925},{"name":"＊?青梅市今井図書館","province":"東京都","city":"青梅市","address":"青梅市今井2-908-1","lat":35.806511,"lon":139.311031},{"name":"＊?青梅市成木図書館","province":"東京都","city":"青梅市","address":"青梅市成木4-644","lat":35.824159,"lon":139.248541},{"name":"＊?青梅市小曾木図書館","province":"東京都","city":"青梅市","address":"青梅市小曾木3-1656-1","lat":35.818065,"lon":139.275106},{"name":"＊?青梅市梅郷図書館","province":"東京都","city":"青梅市","address":"青梅市梅郷3-749-1","lat":35.786795,"lon":139.224431},{"name":"＊?青梅市沢井図書館","province":"東京都","city":"青梅市","address":"青梅市沢井2-682","lat":35.804713,"lon":139.196304},{"name":"＊?青梅市青梅図書館","province":"東京都","city":"青梅市","address":"青梅市仲町268-9","lat":35.791133,"lon":139.25652},{"name":"＊?河辺市民センター","province":"東京都","city":"青梅市","address":"青梅市河辺町6-18-1","lat":35.778488,"lon":139.293633},{"name":"＊?東青梅市民センター","province":"東京都","city":"青梅市","address":"青梅市師岡町3-9-6","lat":35.790631,"lon":139.282374},{"name":"御嶽神社旧本殿","province":"東京都","city":"青梅市","address":"東京都青梅市御岳山176","lat":35.782772,"lon":139.150253},{"name":"安楽寺本堂","province":"東京都","city":"青梅市","address":"東京都青梅市成木1-583","lat":35.838484,"lon":139.275364},{"name":"旧吉野家住宅","province":"東京都","city":"青梅市","address":"東京都青梅市新町1-21-9","lat":35.788144,"lon":139.297825},{"name":"馬場家御師住宅","province":"東京都","city":"青梅市","address":"東京都青梅市御岳山54","lat":35.785996,"lon":139.151073},{"name":"虎柏神社本殿","province":"東京都","city":"青梅市","address":"東京都青梅市根ケ布1-313","lat":35.802624,"lon":139.267127},{"name":"安楽寺の大スギ","province":"東京都","city":"青梅市","address":"東京都青梅市成木1-583","lat":35.838484,"lon":139.275364},{"name":"青梅市中央図書館","province":"東京都","city":"青梅市","address":"東京都青梅市河辺町10丁目8番地の1","lat":35.785387,"lon":139.285073},{"name":"青梅市青梅図書館","province":"東京都","city":"青梅市","address":"東京都青梅市仲町268番地の9","lat":35.791133,"lon":139.256484},{"name":"青梅市長淵図書館","province":"東京都","city":"青梅市","address":"東京都青梅市長淵6丁目492番地の1","lat":35.780335,"lon":139.268546},{"name":"青梅市大門図書館","province":"東京都","city":"青梅市","address":"東京都青梅市大門2丁目288番地","lat":35.796765,"lon":139.291206},{"name":"青梅市梅郷図書館","province":"東京都","city":"青梅市","address":"東京都青梅市梅郷3丁目749番地の1","lat":35.786581,"lon":139.224326},{"name":"青梅市沢井図書館","province":"東京都","city":"青梅市","address":"東京都青梅市沢井2丁目682番地","lat":35.804711,"lon":139.196279},{"name":"青梅市成木図書館","province":"東京都","city":"青梅市","address":"東京都青梅市成木4丁目644番地","lat":35.824186,"lon":139.24851},{"name":"青梅市新町図書館","province":"東京都","city":"青梅市","address":"東京都青梅市新町4丁目17番地の1","lat":35.785985,"lon":139.305154},{"name":"青梅市今井図書館","province":"東京都","city":"青梅市","address":"東京都青梅市今井2丁目908番地の1","lat":35.806544,"lon":139.310973},{"name":"＊?青梅市郷土博物館","province":"東京都","city":"青梅市","address":"青梅市駒木町1-684","lat":35.783794,"lon":139.25672},{"name":"＊?青梅市立美術館","province":"東京都","city":"青梅市","address":"青梅市滝ノ上町1346-1","lat":35.787547,"lon":139.255959},{"name":"＊?青梅市長淵図書館","province":"東京都","city":"青梅市","address":"青梅市長淵6-492-1","lat":35.780194,"lon":139.268855},{"name":"＊?青梅市中央図書館","province":"東京都","city":"青梅市","address":"青梅市河辺町10-8-1","lat":35.785364,"lon":139.285038},{"name":"＊?青梅市大門図書館","province":"東京都","city":"青梅市","address":"青梅市大門2-288","lat":35.796684,"lon":139.290865},{"name":"＊?青梅市新町図書館","province":"東京都","city":"青梅市","address":"青梅市新町4-17-1","lat":35.786079,"lon":139.304925},{"name":"＊?青梅市今井図書館","province":"東京都","city":"青梅市","address":"青梅市今井2-908-1","lat":35.806511,"lon":139.311031},{"name":"＊?青梅市成木図書館","province":"東京都","city":"青梅市","address":"青梅市成木4-644","lat":35.824159,"lon":139.248541},{"name":"＊?青梅市小曾木図書館","province":"東京都","city":"青梅市","address":"青梅市小曾木3-1656-1","lat":35.818065,"lon":139.275106},{"name":"＊?青梅市梅郷図書館","province":"東京都","city":"青梅市","address":"青梅市梅郷3-749-1","lat":35.786795,"lon":139.224431},{"name":"＊?青梅市沢井図書館","province":"東京都","city":"青梅市","address":"青梅市沢井2-682","lat":35.804713,"lon":139.196304},{"name":"＊?青梅市青梅図書館","province":"東京都","city":"青梅市","address":"青梅市仲町268-9","lat":35.791133,"lon":139.25652},{"name":"＊?河辺市民センター","province":"東京都","city":"青梅市","address":"青梅市河辺町6-18-1","lat":35.778488,"lon":139.293633},{"name":"＊?東青梅市民センター","province":"東京都","city":"青梅市","address":"青梅市師岡町3-9-6","lat":35.790631,"lon":139.282374},{"name":"御嶽神社旧本殿","province":"東京都","city":"青梅市","address":"東京都青梅市御岳山176","lat":35.782772,"lon":139.150253},{"name":"安楽寺本堂","province":"東京都","city":"青梅市","address":"東京都青梅市成木1-583","lat":35.838484,"lon":139.275364},{"name":"旧吉野家住宅","province":"東京都","city":"青梅市","address":"東京都青梅市新町1-21-9","lat":35.788144,"lon":139.297825},{"name":"馬場家御師住宅","province":"東京都","city":"青梅市","address":"東京都青梅市御岳山54","lat":35.785996,"lon":139.151073},{"name":"虎柏神社本殿","province":"東京都","city":"青梅市","address":"東京都青梅市根ケ布1-313","lat":35.802624,"lon":139.267127},{"name":"安楽寺の大スギ","province":"東京都","city":"青梅市","address":"東京都青梅市成木1-583","lat":35.838484,"lon":139.275364},{"name":"青梅市中央図書館","province":"東京都","city":"青梅市","address":"東京都青梅市河辺町10丁目8番地の1","lat":35.785387,"lon":139.285073},{"name":"青梅市青梅図書館","province":"東京都","city":"青梅市","address":"東京都青梅市仲町268番地の9","lat":35.791133,"lon":139.256484},{"name":"青梅市長淵図書館","province":"東京都","city":"青梅市","address":"東京都青梅市長淵6丁目492番地の1","lat":35.780335,"lon":139.268546},{"name":"青梅市大門図書館","province":"東京都","city":"青梅市","address":"東京都青梅市大門2丁目288番地","lat":35.796765,"lon":139.291206},{"name":"青梅市梅郷図書館","province":"東京都","city":"青梅市","address":"東京都青梅市梅郷3丁目749番地の1","lat":35.786581,"lon":139.224326},{"name":"青梅市沢井図書館","province":"東京都","city":"青梅市","address":"東京都青梅市沢井2丁目682番地","lat":35.804711,"lon":139.196279},{"name":"青梅市成木図書館","province":"東京都","city":"青梅市","address":"東京都青梅市成木4丁目644番地","lat":35.824186,"lon":139.24851},{"name":"青梅市新町図書館","province":"東京都","city":"青梅市","address":"東京都青梅市新町4丁目17番地の1","lat":35.785985,"lon":139.305154},{"name":"青梅市今井図書館","province":"東京都","city":"青梅市","address":"東京都青梅市今井2丁目908番地の1","lat":35.806544,"lon":139.310973},{"name":"＊?青梅市郷土博物館","province":"東京都","city":"青梅市","address":"青梅市駒木町1-684","lat":35.783794,"lon":139.25672},{"name":"＊?青梅市立美術館","province":"東京都","city":"青梅市","address":"青梅市滝ノ上町1346-1","lat":35.787547,"lon":139.255959},{"name":"＊?青梅市長淵図書館","province":"東京都","city":"青梅市","address":"青梅市長淵6-492-1","lat":35.780194,"lon":139.268855},{"name":"＊?青梅市中央図書館","province":"東京都","city":"青梅市","address":"青梅市河辺町10-8-1","lat":35.785364,"lon":139.285038},{"name":"＊?青梅市大門図書館","province":"東京都","city":"青梅市","address":"青梅市大門2-288","lat":35.796684,"lon":139.290865},{"name":"＊?青梅市新町図書館","province":"東京都","city":"青梅市","address":"青梅市新町4-17-1","lat":35.786079,"lon":139.304925},{"name":"＊?青梅市今井図書館","province":"東京都","city":"青梅市","address":"青梅市今井2-908-1","lat":35.806511,"lon":139.311031},{"name":"＊?青梅市成木図書館","province":"東京都","city":"青梅市","address":"青梅市成木4-644","lat":35.824159,"lon":139.248541},{"name":"＊?青梅市小曾木図書館","province":"東京都","city":"青梅市","address":"青梅市小曾木3-1656-1","lat":35.818065,"lon":139.275106},{"name":"＊?青梅市梅郷図書館","province":"東京都","city":"青梅市","address":"青梅市梅郷3-749-1","lat":35.786795,"lon":139.224431},{"name":"＊?青梅市沢井図書館","province":"東京都","city":"青梅市","address":"青梅市沢井2-682","lat":35.804713,"lon":139.196304},{"name":"＊?青梅市青梅図書館","province":"東京都","city":"青梅市","address":"青梅市仲町268-9","lat":35.791133,"lon":139.25652},{"name":"＊?河辺市民センター","province":"東京都","city":"青梅市","address":"青梅市河辺町6-18-1","lat":35.778488,"lon":139.293633},{"name":"＊?東青梅市民センター","province":"東京都","city":"青梅市","address":"青梅市師岡町3-9-6","lat":35.790631,"lon":139.282374},{"name":"御嶽神社旧本殿","province":"東京都","city":"青梅市","address":"東京都青梅市御岳山176","lat":35.782772,"lon":139.150253},{"name":"安楽寺本堂","province":"東京都","city":"青梅市","address":"東京都青梅市成木1-583","lat":35.838484,"lon":139.275364},{"name":"旧吉野家住宅","province":"東京都","city":"青梅市","address":"東京都青梅市新町1-21-9","lat":35.788144,"lon":139.297825},{"name":"馬場家御師住宅","province":"東京都","city":"青梅市","address":"東京都青梅市御岳山54","lat":35.785996,"lon":139.151073},{"name":"虎柏神社本殿","province":"東京都","city":"青梅市","address":"東京都青梅市根ケ布1-313","lat":35.802624,"lon":139.267127},{"name":"安楽寺の大スギ","province":"東京都","city":"青梅市","address":"東京都青梅市成木1-583","lat":35.838484,"lon":139.275364},{"name":"青梅市中央図書館","province":"東京都","city":"青梅市","address":"東京都青梅市河辺町10丁目8番地の1","lat":35.785387,"lon":139.285073},{"name":"青梅市青梅図書館","province":"東京都","city":"青梅市","address":"東京都青梅市仲町268番地の9","lat":35.791133,"lon":139.256484},{"name":"青梅市長淵図書館","province":"東京都","city":"青梅市","address":"東京都青梅市長淵6丁目492番地の1","lat":35.780335,"lon":139.268546},{"name":"青梅市大門図書館","province":"東京都","city":"青梅市","address":"東京都青梅市大門2丁目288番地","lat":35.796765,"lon":139.291206},{"name":"青梅市梅郷図書館","province":"東京都","city":"青梅市","address":"東京都青梅市梅郷3丁目749番地の1","lat":35.786581,"lon":139.224326},{"name":"青梅市沢井図書館","province":"東京都","city":"青梅市","address":"東京都青梅市沢井2丁目682番地","lat":35.804711,"lon":139.196279},{"name":"青梅市成木図書館","province":"東京都","city":"青梅市","address":"東京都青梅市成木4丁目644番地","lat":35.824186,"lon":139.24851},{"name":"青梅市新町図書館","province":"東京都","city":"青梅市","address":"東京都青梅市新町4丁目17番地の1","lat":35.785985,"lon":139.305154},{"name":"青梅市今井図書館","province":"東京都","city":"青梅市","address":"東京都青梅市今井2丁目908番地の1","lat":35.806544,"lon":139.310973},{"name":"＊?青梅市郷土博物館","province":"東京都","city":"青梅市","address":"青梅市駒木町1-684","lat":35.783794,"lon":139.25672},{"name":"＊?青梅市立美術館","province":"東京都","city":"青梅市","address":"青梅市滝ノ上町1346-1","lat":35.787547,"lon":139.255959},{"name":"＊?青梅市長淵図書館","province":"東京都","city":"青梅市","address":"青梅市長淵6-492-1","lat":35.780194,"lon":139.268855},{"name":"＊?青梅市中央図書館","province":"東京都","city":"青梅市","address":"青梅市河辺町10-8-1","lat":35.785364,"lon":139.285038},{"name":"＊?青梅市大門図書館","province":"東京都","city":"青梅市","address":"青梅市大門2-288","lat":35.796684,"lon":139.290865},{"name":"＊?青梅市新町図書館","province":"東京都","city":"青梅市","address":"青梅市新町4-17-1","lat":35.786079,"lon":139.304925},{"name":"＊?青梅市今井図書館","province":"東京都","city":"青梅市","address":"青梅市今井2-908-1","lat":35.806511,"lon":139.311031},{"name":"＊?青梅市成木図書館","province":"東京都","city":"青梅市","address":"青梅市成木4-644","lat":35.824159,"lon":139.248541},{"name":"＊?青梅市小曾木図書館","province":"東京都","city":"青梅市","address":"青梅市小曾木3-1656-1","lat":35.818065,"lon":139.275106},{"name":"＊?青梅市梅郷図書館","province":"東京都","city":"青梅市","address":"青梅市梅郷3-749-1","lat":35.786795,"lon":139.224431},{"name":"＊?青梅市沢井図書館","province":"東京都","city":"青梅市","address":"青梅市沢井2-682","lat":35.804713,"lon":139.196304},{"name":"＊?青梅市青梅図書館","province":"東京都","city":"青梅市","address":"青梅市仲町268-9","lat":35.791133,"lon":139.25652},{"name":"＊?河辺市民センター","province":"東京都","city":"青梅市","address":"青梅市河辺町6-18-1","lat":35.778488,"lon":139.293633},{"name":"＊?東青梅市民センター","province":"東京都","city":"青梅市","address":"青梅市師岡町3-9-6","lat":35.790631,"lon":139.282374},{"name":"御嶽神社旧本殿","province":"東京都","city":"青梅市","address":"東京都青梅市御岳山176","lat":35.782772,"lon":139.150253},{"name":"安楽寺本堂","province":"東京都","city":"青梅市","address":"東京都青梅市成木1-583","lat":35.838484,"lon":139.275364},{"name":"旧吉野家住宅","province":"東京都","city":"青梅市","address":"東京都青梅市新町1-21-9","lat":35.788144,"lon":139.297825},{"name":"馬場家御師住宅","province":"東京都","city":"青梅市","address":"東京都青梅市御岳山54","lat":35.785996,"lon":139.151073},{"name":"虎柏神社本殿","province":"東京都","city":"青梅市","address":"東京都青梅市根ケ布1-313","lat":35.802624,"lon":139.267127},{"name":"安楽寺の大スギ","province":"東京都","city":"青梅市","address":"東京都青梅市成木1-583","lat":35.838484,"lon":139.275364},{"name":"青梅市中央図書館","province":"東京都","city":"青梅市","address":"東京都青梅市河辺町10丁目8番地の1","lat":35.785387,"lon":139.285073},{"name":"青梅市青梅図書館","province":"東京都","city":"青梅市","address":"東京都青梅市仲町268番地の9","lat":35.791133,"lon":139.256484},{"name":"青梅市長淵図書館","province":"東京都","city":"青梅市","address":"東京都青梅市長淵6丁目492番地の1","lat":35.780335,"lon":139.268546},{"name":"青梅市大門図書館","province":"東京都","city":"青梅市","address":"東京都青梅市大門2丁目288番地","lat":35.796765,"lon":139.291206},{"name":"青梅市梅郷図書館","province":"東京都","city":"青梅市","address":"東京都青梅市梅郷3丁目749番地の1","lat":35.786581,"lon":139.224326},{"name":"青梅市沢井図書館","province":"東京都","city":"青梅市","address":"東京都青梅市沢井2丁目682番地","lat":35.804711,"lon":139.196279},{"name":"青梅市成木図書館","province":"東京都","city":"青梅市","address":"東京都青梅市成木4丁目644番地","lat":35.824186,"lon":139.24851},{"name":"青梅市新町図書館","province":"東京都","city":"青梅市","address":"東京都青梅市新町4丁目17番地の1","lat":35.785985,"lon":139.305154},{"name":"青梅市今井図書館","province":"東京都","city":"青梅市","address":"東京都青梅市今井2丁目908番地の1","lat":35.806544,"lon":139.310973},{"name":"＊?青梅市郷土博物館","province":"東京都","city":"青梅市","address":"青梅市駒木町1-684","lat":35.783794,"lon":139.25672},{"name":"＊?青梅市立美術館","province":"東京都","city":"青梅市","address":"青梅市滝ノ上町1346-1","lat":35.787547,"lon":139.255959},{"name":"＊?青梅市長淵図書館","province":"東京都","city":"青梅市","address":"青梅市長淵6-492-1","lat":35.780194,"lon":139.268855},{"name":"＊?青梅市中央図書館","province":"東京都","city":"青梅市","address":"青梅市河辺町10-8-1","lat":35.785364,"lon":139.285038},{"name":"＊?青梅市大門図書館","province":"東京都","city":"青梅市","address":"青梅市大門2-288","lat":35.796684,"lon":139.290865},{"name":"＊?青梅市新町図書館","province":"東京都","city":"青梅市","address":"青梅市新町4-17-1","lat":35.786079,"lon":139.304925},{"name":"＊?青梅市今井図書館","province":"東京都","city":"青梅市","address":"青梅市今井2-908-1","lat":35.806511,"lon":139.311031},{"name":"＊?青梅市成木図書館","province":"東京都","city":"青梅市","address":"青梅市成木4-644","lat":35.824159,"lon":139.248541},{"name":"＊?青梅市小曾木図書館","province":"東京都","city":"青梅市","address":"青梅市小曾木3-1656-1","lat":35.818065,"lon":139.275106},{"name":"＊?青梅市梅郷図書館","province":"東京都","city":"青梅市","address":"青梅市梅郷3-749-1","lat":35.786795,"lon":139.224431},{"name":"＊?青梅市沢井図書館","province":"東京都","city":"青梅市","address":"青梅市沢井2-682","lat":35.804713,"lon":139.196304},{"name":"＊?青梅市青梅図書館","province":"東京都","city":"青梅市","address":"青梅市仲町268-9","lat":35.791133,"lon":139.25652},{"name":"＊?河辺市民センター","province":"東京都","city":"青梅市","address":"青梅市河辺町6-18-1","lat":35.778488,"lon":139.293633},{"name":"＊?東青梅市民センター","province":"東京都","city":"青梅市","address":"青梅市師岡町3-9-6","lat":35.790631,"lon":139.282374},{"name":"御嶽神社旧本殿","province":"東京都","city":"青梅市","address":"東京都青梅市御岳山176","lat":35.782772,"lon":139.150253},{"name":"安楽寺本堂","province":"東京都","city":"青梅市","address":"東京都青梅市成木1-583","lat":35.838484,"lon":139.275364},{"name":"旧吉野家住宅","province":"東京都","city":"青梅市","address":"東京都青梅市新町1-21-9","lat":35.788144,"lon":139.297825},{"name":"馬場家御師住宅","province":"東京都","city":"青梅市","address":"東京都青梅市御岳山54","lat":35.785996,"lon":139.151073},{"name":"虎柏神社本殿","province":"東京都","city":"青梅市","address":"東京都青梅市根ケ布1-313","lat":35.802624,"lon":139.267127},{"name":"安楽寺の大スギ","province":"東京都","city":"青梅市","address":"東京都青梅市成木1-583","lat":35.838484,"lon":139.275364},{"name":"青梅市中央図書館","province":"東京都","city":"青梅市","address":"東京都青梅市河辺町10丁目8番地の1","lat":35.785387,"lon":139.285073},{"name":"青梅市青梅図書館","province":"東京都","city":"青梅市","address":"東京都青梅市仲町268番地の9","lat":35.791133,"lon":139.256484},{"name":"青梅市長淵図書館","province":"東京都","city":"青梅市","address":"東京都青梅市長淵6丁目492番地の1","lat":35.780335,"lon":139.268546},{"name":"青梅市大門図書館","province":"東京都","city":"青梅市","address":"東京都青梅市大門2丁目288番地","lat":35.796765,"lon":139.291206},{"name":"青梅市梅郷図書館","province":"東京都","city":"青梅市","address":"東京都青梅市梅郷3丁目749番地の1","lat":35.786581,"lon":139.224326},{"name":"青梅市沢井図書館","province":"東京都","city":"青梅市","address":"東京都青梅市沢井2丁目682番地","lat":35.804711,"lon":139.196279},{"name":"青梅市成木図書館","province":"東京都","city":"青梅市","address":"東京都青梅市成木4丁目644番地","lat":35.824186,"lon":139.24851},{"name":"青梅市新町図書館","province":"東京都","city":"青梅市","address":"東京都青梅市新町4丁目17番地の1","lat":35.785985,"lon":139.305154},{"name":"青梅市今井図書館","province":"東京都","city":"青梅市","address":"東京都青梅市今井2丁目908番地の1","lat":35.806544,"lon":139.310973},{"name":"＊?青梅市郷土博物館","province":"東京都","city":"青梅市","address":"青梅市駒木町1-684","lat":35.783794,"lon":139.25672},{"name":"＊?青梅市立美術館","province":"東京都","city":"青梅市","address":"青梅市滝ノ上町1346-1","lat":35.787547,"lon":139.255959},{"name":"＊?青梅市長淵図書館","province":"東京都","city":"青梅市","address":"青梅市長淵6-492-1","lat":35.780194,"lon":139.268855},{"name":"＊?青梅市中央図書館","province":"東京都","city":"青梅市","address":"青梅市河辺町10-8-1","lat":35.785364,"lon":139.285038},{"name":"＊?青梅市大門図書館","province":"東京都","city":"青梅市","address":"青梅市大門2-288","lat":35.796684,"lon":139.290865},{"name":"＊?青梅市新町図書館","province":"東京都","city":"青梅市","address":"青梅市新町4-17-1","lat":35.786079,"lon":139.304925},{"name":"＊?青梅市今井図書館","province":"東京都","city":"青梅市","address":"青梅市今井2-908-1","lat":35.806511,"lon":139.311031},{"name":"＊?青梅市成木図書館","province":"東京都","city":"青梅市","address":"青梅市成木4-644","lat":35.824159,"lon":139.248541},{"name":"＊?青梅市小曾木図書館","province":"東京都","city":"青梅市","address":"青梅市小曾木3-1656-1","lat":35.818065,"lon":139.275106},{"name":"＊?青梅市梅郷図書館","province":"東京都","city":"青梅市","address":"青梅市梅郷3-749-1","lat":35.786795,"lon":139.224431},{"name":"＊?青梅市沢井図書館","province":"東京都","city":"青梅市","address":"青梅市沢井2-682","lat":35.804713,"lon":139.196304},{"name":"＊?青梅市青梅図書館","province":"東京都","city":"青梅市","address":"青梅市仲町268-9","lat":35.791133,"lon":139.25652},{"name":"＊?河辺市民センター","province":"東京都","city":"青梅市","address":"青梅市河辺町6-18-1","lat":35.778488,"lon":139.293633},{"name":"＊?東青梅市民センター","province":"東京都","city":"青梅市","address":"青梅市師岡町3-9-6","lat":35.790631,"lon":139.282374},{"name":"御嶽神社旧本殿","province":"東京都","city":"青梅市","address":"東京都青梅市御岳山176","lat":35.782772,"lon":139.150253},{"name":"安楽寺本堂","province":"東京都","city":"青梅市","address":"東京都青梅市成木1-583","lat":35.838484,"lon":139.275364},{"name":"旧吉野家住宅","province":"東京都","city":"青梅市","address":"東京都青梅市新町1-21-9","lat":35.788144,"lon":139.297825},{"name":"馬場家御師住宅","province":"東京都","city":"青梅市","address":"東京都青梅市御岳山54","lat":35.785996,"lon":139.151073},{"name":"虎柏神社本殿","province":"東京都","city":"青梅市","address":"東京都青梅市根ケ布1-313","lat":35.802624,"lon":139.267127},{"name":"安楽寺の大スギ","province":"東京都","city":"青梅市","address":"東京都青梅市成木1-583","lat":35.838484,"lon":139.275364},{"name":"青梅市中央図書館","province":"東京都","city":"青梅市","address":"東京都青梅市河辺町10丁目8番地の1","lat":35.785387,"lon":139.285073},{"name":"青梅市青梅図書館","province":"東京都","city":"青梅市","address":"東京都青梅市仲町268番地の9","lat":35.791133,"lon":139.256484},{"name":"青梅市長淵図書館","province":"東京都","city":"青梅市","address":"東京都青梅市長淵6丁目492番地の1","lat":35.780335,"lon":139.268546},{"name":"青梅市大門図書館","province":"東京都","city":"青梅市","address":"東京都青梅市大門2丁目288番地","lat":35.796765,"lon":139.291206},{"name":"青梅市梅郷図書館","province":"東京都","city":"青梅市","address":"東京都青梅市梅郷3丁目749番地の1","lat":35.786581,"lon":139.224326},{"name":"青梅市沢井図書館","province":"東京都","city":"青梅市","address":"東京都青梅市沢井2丁目682番地","lat":35.804711,"lon":139.196279},{"name":"青梅市成木図書館","province":"東京都","city":"青梅市","address":"東京都青梅市成木4丁目644番地","lat":35.824186,"lon":139.24851},{"name":"青梅市新町図書館","province":"東京都","city":"青梅市","address":"東京都青梅市新町4丁目17番地の1","lat":35.785985,"lon":139.305154},{"name":"青梅市今井図書館","province":"東京都","city":"青梅市","address":"東京都青梅市今井2丁目908番地の1","lat":35.806544,"lon":139.310973},{"name":"＊?青梅市郷土博物館","province":"東京都","city":"青梅市","address":"青梅市駒木町1-684","lat":35.783794,"lon":139.25672},{"name":"＊?青梅市立美術館","province":"東京都","city":"青梅市","address":"青梅市滝ノ上町1346-1","lat":35.787547,"lon":139.255959},{"name":"＊?青梅市長淵図書館","province":"東京都","city":"青梅市","address":"青梅市長淵6-492-1","lat":35.780194,"lon":139.268855},{"name":"＊?青梅市中央図書館","province":"東京都","city":"青梅市","address":"青梅市河辺町10-8-1","lat":35.785364,"lon":139.285038},{"name":"＊?青梅市大門図書館","province":"東京都","city":"青梅市","address":"青梅市大門2-288","lat":35.796684,"lon":139.290865},{"name":"＊?青梅市新町図書館","province":"東京都","city":"青梅市","address":"青梅市新町4-17-1","lat":35.786079,"lon":139.304925},{"name":"＊?青梅市今井図書館","province":"東京都","city":"青梅市","address":"青梅市今井2-908-1","lat":35.806511,"lon":139.311031},{"name":"＊?青梅市成木図書館","province":"東京都","city":"青梅市","address":"青梅市成木4-644","lat":35.824159,"lon":139.248541},{"name":"＊?青梅市小曾木図書館","province":"東京都","city":"青梅市","address":"青梅市小曾木3-1656-1","lat":35.818065,"lon":139.275106},{"name":"＊?青梅市梅郷図書館","province":"東京都","city":"青梅市","address":"青梅市梅郷3-749-1","lat":35.786795,"lon":139.224431},{"name":"＊?青梅市沢井図書館","province":"東京都","city":"青梅市","address":"青梅市沢井2-682","lat":35.804713,"lon":139.196304},{"name":"＊?青梅市青梅図書館","province":"東京都","city":"青梅市","address":"青梅市仲町268-9","lat":35.791133,"lon":139.25652},{"name":"＊?河辺市民センター","province":"東京都","city":"青梅市","address":"青梅市河辺町6-18-1","lat":35.778488,"lon":139.293633},{"name":"＊?東青梅市民センター","province":"東京都","city":"青梅市","address":"青梅市師岡町3-9-6","lat":35.790631,"lon":139.282374},{"name":"御嶽神社旧本殿","province":"東京都","city":"青梅市","address":"東京都青梅市御岳山176","lat":35.782772,"lon":139.150253},{"name":"安楽寺本堂","province":"東京都","city":"青梅市","address":"東京都青梅市成木1-583","lat":35.838484,"lon":139.275364},{"name":"旧吉野家住宅","province":"東京都","city":"青梅市","address":"東京都青梅市新町1-21-9","lat":35.788144,"lon":139.297825},{"name":"馬場家御師住宅","province":"東京都","city":"青梅市","address":"東京都青梅市御岳山54","lat":35.785996,"lon":139.151073},{"name":"虎柏神社本殿","province":"東京都","city":"青梅市","address":"東京都青梅市根ケ布1-313","lat":35.802624,"lon":139.267127},{"name":"安楽寺の大スギ","province":"東京都","city":"青梅市","address":"東京都青梅市成木1-583","lat":35.838484,"lon":139.275364},{"name":"青梅市中央図書館","province":"東京都","city":"青梅市","address":"東京都青梅市河辺町10丁目8番地の1","lat":35.785387,"lon":139.285073},{"name":"青梅市青梅図書館","province":"東京都","city":"青梅市","address":"東京都青梅市仲町268番地の9","lat":35.791133,"lon":139.256484},{"name":"青梅市長淵図書館","province":"東京都","city":"青梅市","address":"東京都青梅市長淵6丁目492番地の1","lat":35.780335,"lon":139.268546},{"name":"青梅市大門図書館","province":"東京都","city":"青梅市","address":"東京都青梅市大門2丁目288番地","lat":35.796765,"lon":139.291206},{"name":"青梅市梅郷図書館","province":"東京都","city":"青梅市","address":"東京都青梅市梅郷3丁目749番地の1","lat":35.786581,"lon":139.224326},{"name":"青梅市沢井図書館","province":"東京都","city":"青梅市","address":"東京都青梅市沢井2丁目682番地","lat":35.804711,"lon":139.196279},{"name":"青梅市成木図書館","province":"東京都","city":"青梅市","address":"東京都青梅市成木4丁目644番地","lat":35.824186,"lon":139.24851},{"name":"青梅市新町図書館","province":"東京都","city":"青梅市","address":"東京都青梅市新町4丁目17番地の1","lat":35.785985,"lon":139.305154},{"name":"青梅市今井図書館","province":"東京都","city":"青梅市","address":"東京都青梅市今井2丁目908番地の1","lat":35.806544,"lon":139.310973},{"name":"＊?青梅市郷土博物館","province":"東京都","city":"青梅市","address":"青梅市駒木町1-684","lat":35.783794,"lon":139.25672},{"name":"＊?青梅市立美術館","province":"東京都","city":"青梅市","address":"青梅市滝ノ上町1346-1","lat":35.787547,"lon":139.255959},{"name":"＊?青梅市長淵図書館","province":"東京都","city":"青梅市","address":"青梅市長淵6-492-1","lat":35.780194,"lon":139.268855},{"name":"＊?青梅市中央図書館","province":"東京都","city":"青梅市","address":"青梅市河辺町10-8-1","lat":35.785364,"lon":139.285038},{"name":"＊?青梅市大門図書館","province":"東京都","city":"青梅市","address":"青梅市大門2-288","lat":35.796684,"lon":139.290865},{"name":"＊?青梅市新町図書館","province":"東京都","city":"青梅市","address":"青梅市新町4-17-1","lat":35.786079,"lon":139.304925},{"name":"＊?青梅市今井図書館","province":"東京都","city":"青梅市","address":"青梅市今井2-908-1","lat":35.806511,"lon":139.311031},{"name":"＊?青梅市成木図書館","province":"東京都","city":"青梅市","address":"青梅市成木4-644","lat":35.824159,"lon":139.248541},{"name":"＊?青梅市小曾木図書館","province":"東京都","city":"青梅市","address":"青梅市小曾木3-1656-1","lat":35.818065,"lon":139.275106},{"name":"＊?青梅市梅郷図書館","province":"東京都","city":"青梅市","address":"青梅市梅郷3-749-1","lat":35.786795,"lon":139.224431},{"name":"＊?青梅市沢井図書館","province":"東京都","city":"青梅市","address":"青梅市沢井2-682","lat":35.804713,"lon":139.196304},{"name":"＊?青梅市青梅図書館","province":"東京都","city":"青梅市","address":"青梅市仲町268-9","lat":35.791133,"lon":139.25652},{"name":"＊?河辺市民センター","province":"東京都","city":"青梅市","address":"青梅市河辺町6-18-1","lat":35.778488,"lon":139.293633},{"name":"＊?東青梅市民センター","province":"東京都","city":"青梅市","address":"青梅市師岡町3-9-6","lat":35.790631,"lon":139.282374},{"name":"御嶽神社旧本殿","province":"東京都","city":"青梅市","address":"東京都青梅市御岳山176","lat":35.782772,"lon":139.150253},{"name":"安楽寺本堂","province":"東京都","city":"青梅市","address":"東京都青梅市成木1-583","lat":35.838484,"lon":139.275364},{"name":"旧吉野家住宅","province":"東京都","city":"青梅市","address":"東京都青梅市新町1-21-9","lat":35.788144,"lon":139.297825},{"name":"馬場家御師住宅","province":"東京都","city":"青梅市","address":"東京都青梅市御岳山54","lat":35.785996,"lon":139.151073},{"name":"虎柏神社本殿","province":"東京都","city":"青梅市","address":"東京都青梅市根ケ布1-313","lat":35.802624,"lon":139.267127},{"name":"安楽寺の大スギ","province":"東京都","city":"青梅市","address":"東京都青梅市成木1-583","lat":35.838484,"lon":139.275364},{"name":"青梅市中央図書館","province":"東京都","city":"青梅市","address":"東京都青梅市河辺町10丁目8番地の1","lat":35.785387,"lon":139.285073},{"name":"青梅市青梅図書館","province":"東京都","city":"青梅市","address":"東京都青梅市仲町268番地の9","lat":35.791133,"lon":139.256484},{"name":"青梅市長淵図書館","province":"東京都","city":"青梅市","address":"東京都青梅市長淵6丁目492番地の1","lat":35.780335,"lon":139.268546},{"name":"青梅市大門図書館","province":"東京都","city":"青梅市","address":"東京都青梅市大門2丁目288番地","lat":35.796765,"lon":139.291206},{"name":"青梅市梅郷図書館","province":"東京都","city":"青梅市","address":"東京都青梅市梅郷3丁目749番地の1","lat":35.786581,"lon":139.224326},{"name":"青梅市沢井図書館","province":"東京都","city":"青梅市","address":"東京都青梅市沢井2丁目682番地","lat":35.804711,"lon":139.196279},{"name":"青梅市成木図書館","province":"東京都","city":"青梅市","address":"東京都青梅市成木4丁目644番地","lat":35.824186,"lon":139.24851},{"name":"青梅市新町図書館","province":"東京都","city":"青梅市","address":"東京都青梅市新町4丁目17番地の1","lat":35.785985,"lon":139.305154},{"name":"青梅市今井図書館","province":"東京都","city":"青梅市","address":"東京都青梅市今井2丁目908番地の1","lat":35.806544,"lon":139.310973},{"name":"＊?青梅市郷土博物館","province":"東京都","city":"青梅市","address":"青梅市駒木町1-684","lat":35.783794,"lon":139.25672},{"name":"＊?青梅市立美術館","province":"東京都","city":"青梅市","address":"青梅市滝ノ上町1346-1","lat":35.787547,"lon":139.255959},{"name":"＊?青梅市長淵図書館","province":"東京都","city":"青梅市","address":"青梅市長淵6-492-1","lat":35.780194,"lon":139.268855},{"name":"＊?青梅市中央図書館","province":"東京都","city":"青梅市","address":"青梅市河辺町10-8-1","lat":35.785364,"lon":139.285038},{"name":"＊?青梅市大門図書館","province":"東京都","city":"青梅市","address":"青梅市大門2-288","lat":35.796684,"lon":139.290865},{"name":"＊?青梅市新町図書館","province":"東京都","city":"青梅市","address":"青梅市新町4-17-1","lat":35.786079,"lon":139.304925},{"name":"＊?青梅市今井図書館","province":"東京都","city":"青梅市","address":"青梅市今井2-908-1","lat":35.806511,"lon":139.311031},{"name":"＊?青梅市成木図書館","province":"東京都","city":"青梅市","address":"青梅市成木4-644","lat":35.824159,"lon":139.248541},{"name":"＊?青梅市小曾木図書館","province":"東京都","city":"青梅市","address":"青梅市小曾木3-1656-1","lat":35.818065,"lon":139.275106},{"name":"＊?青梅市梅郷図書館","province":"東京都","city":"青梅市","address":"青梅市梅郷3-749-1","lat":35.786795,"lon":139.224431},{"name":"＊?青梅市沢井図書館","province":"東京都","city":"青梅市","address":"青梅市沢井2-682","lat":35.804713,"lon":139.196304},{"name":"＊?青梅市青梅図書館","province":"東京都","city":"青梅市","address":"青梅市仲町268-9","lat":35.791133,"lon":139.25652},{"name":"＊?河辺市民センター","province":"東京都","city":"青梅市","address":"青梅市河辺町6-18-1","lat":35.778488,"lon":139.293633},{"name":"＊?東青梅市民センター","province":"東京都","city":"青梅市","address":"青梅市師岡町3-9-6","lat":35.790631,"lon":139.282374},{"name":"御嶽神社旧本殿","province":"東京都","city":"青梅市","address":"東京都青梅市御岳山176","lat":35.782772,"lon":139.150253},{"name":"安楽寺本堂","province":"東京都","city":"青梅市","address":"東京都青梅市成木1-583","lat":35.838484,"lon":139.275364},{"name":"旧吉野家住宅","province":"東京都","city":"青梅市","address":"東京都青梅市新町1-21-9","lat":35.788144,"lon":139.297825},{"name":"馬場家御師住宅","province":"東京都","city":"青梅市","address":"東京都青梅市御岳山54","lat":35.785996,"lon":139.151073},{"name":"虎柏神社本殿","province":"東京都","city":"青梅市","address":"東京都青梅市根ケ布1-313","lat":35.802624,"lon":139.267127},{"name":"安楽寺の大スギ","province":"東京都","city":"青梅市","address":"東京都青梅市成木1-583","lat":35.838484,"lon":139.275364},{"name":"青梅市中央図書館","province":"東京都","city":"青梅市","address":"東京都青梅市河辺町10丁目8番地の1","lat":35.785387,"lon":139.285073},{"name":"青梅市青梅図書館","province":"東京都","city":"青梅市","address":"東京都青梅市仲町268番地の9","lat":35.791133,"lon":139.256484},{"name":"青梅市長淵図書館","province":"東京都","city":"青梅市","address":"東京都青梅市長淵6丁目492番地の1","lat":35.780335,"lon":139.268546},{"name":"青梅市大門図書館","province":"東京都","city":"青梅市","address":"東京都青梅市大門2丁目288番地","lat":35.796765,"lon":139.291206},{"name":"青梅市梅郷図書館","province":"東京都","city":"青梅市","address":"東京都青梅市梅郷3丁目749番地の1","lat":35.786581,"lon":139.224326},{"name":"青梅市沢井図書館","province":"東京都","city":"青梅市","address":"東京都青梅市沢井2丁目682番地","lat":35.804711,"lon":139.196279},{"name":"青梅市成木図書館","province":"東京都","city":"青梅市","address":"東京都青梅市成木4丁目644番地","lat":35.824186,"lon":139.24851},{"name":"青梅市新町図書館","province":"東京都","city":"青梅市","address":"東京都青梅市新町4丁目17番地の1","lat":35.785985,"lon":139.305154},{"name":"青梅市今井図書館","province":"東京都","city":"青梅市","address":"東京都青梅市今井2丁目908番地の1","lat":35.806544,"lon":139.310973},{"name":"＊?青梅市郷土博物館","province":"東京都","city":"青梅市","address":"青梅市駒木町1-684","lat":35.783794,"lon":139.25672},{"name":"＊?青梅市立美術館","province":"東京都","city":"青梅市","address":"青梅市滝ノ上町1346-1","lat":35.787547,"lon":139.255959},{"name":"＊?青梅市長淵図書館","province":"東京都","city":"青梅市","address":"青梅市長淵6-492-1","lat":35.780194,"lon":139.268855},{"name":"＊?青梅市中央図書館","province":"東京都","city":"青梅市","address":"青梅市河辺町10-8-1","lat":35.785364,"lon":139.285038},{"name":"＊?青梅市大門図書館","province":"東京都","city":"青梅市","address":"青梅市大門2-288","lat":35.796684,"lon":139.290865},{"name":"＊?青梅市新町図書館","province":"東京都","city":"青梅市","address":"青梅市新町4-17-1","lat":35.786079,"lon":139.304925},{"name":"＊?青梅市今井図書館","province":"東京都","city":"青梅市","address":"青梅市今井2-908-1","lat":35.806511,"lon":139.311031},{"name":"＊?青梅市成木図書館","province":"東京都","city":"青梅市","address":"青梅市成木4-644","lat":35.824159,"lon":139.248541},{"name":"＊?青梅市小曾木図書館","province":"東京都","city":"青梅市","address":"青梅市小曾木3-1656-1","lat":35.818065,"lon":139.275106},{"name":"＊?青梅市梅郷図書館","province":"東京都","city":"青梅市","address":"青梅市梅郷3-749-1","lat":35.786795,"lon":139.224431},{"name":"＊?青梅市沢井図書館","province":"東京都","city":"青梅市","address":"青梅市沢井2-682","lat":35.804713,"lon":139.196304},{"name":"＊?青梅市青梅図書館","province":"東京都","city":"青梅市","address":"青梅市仲町268-9","lat":35.791133,"lon":139.25652},{"name":"＊?河辺市民センター","province":"東京都","city":"青梅市","address":"青梅市河辺町6-18-1","lat":35.778488,"lon":139.293633},{"name":"＊?東青梅市民センター","province":"東京都","city":"青梅市","address":"青梅市師岡町3-9-6","lat":35.790631,"lon":139.282374},{"name":"御嶽神社旧本殿","province":"東京都","city":"青梅市","address":"東京都青梅市御岳山176","lat":35.782772,"lon":139.150253},{"name":"安楽寺本堂","province":"東京都","city":"青梅市","address":"東京都青梅市成木1-583","lat":35.838484,"lon":139.275364},{"name":"旧吉野家住宅","province":"東京都","city":"青梅市","address":"東京都青梅市新町1-21-9","lat":35.788144,"lon":139.297825},{"name":"馬場家御師住宅","province":"東京都","city":"青梅市","address":"東京都青梅市御岳山54","lat":35.785996,"lon":139.151073},{"name":"虎柏神社本殿","province":"東京都","city":"青梅市","address":"東京都青梅市根ケ布1-313","lat":35.802624,"lon":139.267127},{"name":"安楽寺の大スギ","province":"東京都","city":"青梅市","address":"東京都青梅市成木1-583","lat":35.838484,"lon":139.275364},{"name":"青梅市中央図書館","province":"東京都","city":"青梅市","address":"東京都青梅市河辺町10丁目8番地の1","lat":35.785387,"lon":139.285073},{"name":"青梅市青梅図書館","province":"東京都","city":"青梅市","address":"東京都青梅市仲町268番地の9","lat":35.791133,"lon":139.256484},{"name":"青梅市長淵図書館","province":"東京都","city":"青梅市","address":"東京都青梅市長淵6丁目492番地の1","lat":35.780335,"lon":139.268546},{"name":"青梅市大門図書館","province":"東京都","city":"青梅市","address":"東京都青梅市大門2丁目288番地","lat":35.796765,"lon":139.291206},{"name":"青梅市梅郷図書館","province":"東京都","city":"青梅市","address":"東京都青梅市梅郷3丁目749番地の1","lat":35.786581,"lon":139.224326},{"name":"青梅市沢井図書館","province":"東京都","city":"青梅市","address":"東京都青梅市沢井2丁目682番地","lat":35.804711,"lon":139.196279},{"name":"青梅市成木図書館","province":"東京都","city":"青梅市","address":"東京都青梅市成木4丁目644番地","lat":35.824186,"lon":139.24851},{"name":"青梅市新町図書館","province":"東京都","city":"青梅市","address":"東京都青梅市新町4丁目17番地の1","lat":35.785985,"lon":139.305154},{"name":"青梅市今井図書館","province":"東京都","city":"青梅市","address":"東京都青梅市今井2丁目908番地の1","lat":35.806544,"lon":139.310973},{"name":"＊?青梅市郷土博物館","province":"東京都","city":"青梅市","address":"青梅市駒木町1-684","lat":35.783794,"lon":139.25672},{"name":"＊?青梅市立美術館","province":"東京都","city":"青梅市","address":"青梅市滝ノ上町1346-1","lat":35.787547,"lon":139.255959},{"name":"＊?青梅市長淵図書館","province":"東京都","city":"青梅市","address":"青梅市長淵6-492-1","lat":35.780194,"lon":139.268855},{"name":"＊?青梅市中央図書館","province":"東京都","city":"青梅市","address":"青梅市河辺町10-8-1","lat":35.785364,"lon":139.285038},{"name":"＊?青梅市大門図書館","province":"東京都","city":"青梅市","address":"青梅市大門2-288","lat":35.796684,"lon":139.290865},{"name":"＊?青梅市新町図書館","province":"東京都","city":"青梅市","address":"青梅市新町4-17-1","lat":35.786079,"lon":139.304925},{"name":"＊?青梅市今井図書館","province":"東京都","city":"青梅市","address":"青梅市今井2-908-1","lat":35.806511,"lon":139.311031},{"name":"＊?青梅市成木図書館","province":"東京都","city":"青梅市","address":"青梅市成木4-644","lat":35.824159,"lon":139.248541},{"name":"＊?青梅市小曾木図書館","province":"東京都","city":"青梅市","address":"青梅市小曾木3-1656-1","lat":35.818065,"lon":139.275106},{"name":"＊?青梅市梅郷図書館","province":"東京都","city":"青梅市","address":"青梅市梅郷3-749-1","lat":35.786795,"lon":139.224431},{"name":"＊?青梅市沢井図書館","province":"東京都","city":"青梅市","address":"青梅市沢井2-682","lat":35.804713,"lon":139.196304},{"name":"＊?青梅市青梅図書館","province":"東京都","city":"青梅市","address":"青梅市仲町268-9","lat":35.791133,"lon":139.25652},{"name":"＊?河辺市民センター","province":"東京都","city":"青梅市","address":"青梅市河辺町6-18-1","lat":35.778488,"lon":139.293633},{"name":"＊?東青梅市民センター","province":"東京都","city":"青梅市","address":"青梅市師岡町3-9-6","lat":35.790631,"lon":139.282374},{"name":"御嶽神社旧本殿","province":"東京都","city":"青梅市","address":"東京都青梅市御岳山176","lat":35.782772,"lon":139.150253},{"name":"安楽寺本堂","province":"東京都","city":"青梅市","address":"東京都青梅市成木1-583","lat":35.838484,"lon":139.275364},{"name":"旧吉野家住宅","province":"東京都","city":"青梅市","address":"東京都青梅市新町1-21-9","lat":35.788144,"lon":139.297825},{"name":"馬場家御師住宅","province":"東京都","city":"青梅市","address":"東京都青梅市御岳山54","lat":35.785996,"lon":139.151073},{"name":"虎柏神社本殿","province":"東京都","city":"青梅市","address":"東京都青梅市根ケ布1-313","lat":35.802624,"lon":139.267127},{"name":"安楽寺の大スギ","province":"東京都","city":"青梅市","address":"東京都青梅市成木1-583","lat":35.838484,"lon":139.275364},{"name":"青梅市中央図書館","province":"東京都","city":"青梅市","address":"東京都青梅市河辺町10丁目8番地の1","lat":35.785387,"lon":139.285073},{"name":"青梅市青梅図書館","province":"東京都","city":"青梅市","address":"東京都青梅市仲町268番地の9","lat":35.791133,"lon":139.256484},{"name":"青梅市長淵図書館","province":"東京都","city":"青梅市","address":"東京都青梅市長淵6丁目492番地の1","lat":35.780335,"lon":139.268546},{"name":"青梅市大門図書館","province":"東京都","city":"青梅市","address":"東京都青梅市大門2丁目288番地","lat":35.796765,"lon":139.291206},{"name":"青梅市梅郷図書館","province":"東京都","city":"青梅市","address":"東京都青梅市梅郷3丁目749番地の1","lat":35.786581,"lon":139.224326},{"name":"青梅市沢井図書館","province":"東京都","city":"青梅市","address":"東京都青梅市沢井2丁目682番地","lat":35.804711,"lon":139.196279},{"name":"青梅市成木図書館","province":"東京都","city":"青梅市","address":"東京都青梅市成木4丁目644番地","lat":35.824186,"lon":139.24851},{"name":"青梅市新町図書館","province":"東京都","city":"青梅市","address":"東京都青梅市新町4丁目17番地の1","lat":35.785985,"lon":139.305154},{"name":"青梅市今井図書館","province":"東京都","city":"青梅市","address":"東京都青梅市今井2丁目908番地の1","lat":35.806544,"lon":139.310973},{"name":"＊?青梅市郷土博物館","province":"東京都","city":"青梅市","address":"青梅市駒木町1-684","lat":35.783794,"lon":139.25672},{"name":"＊?青梅市立美術館","province":"東京都","city":"青梅市","address":"青梅市滝ノ上町1346-1","lat":35.787547,"lon":139.255959},{"name":"＊?青梅市長淵図書館","province":"東京都","city":"青梅市","address":"青梅市長淵6-492-1","lat":35.780194,"lon":139.268855},{"name":"＊?青梅市中央図書館","province":"東京都","city":"青梅市","address":"青梅市河辺町10-8-1","lat":35.785364,"lon":139.285038},{"name":"＊?青梅市大門図書館","province":"東京都","city":"青梅市","address":"青梅市大門2-288","lat":35.796684,"lon":139.290865},{"name":"＊?青梅市新町図書館","province":"東京都","city":"青梅市","address":"青梅市新町4-17-1","lat":35.786079,"lon":139.304925},{"name":"＊?青梅市今井図書館","province":"東京都","city":"青梅市","address":"青梅市今井2-908-1","lat":35.806511,"lon":139.311031},{"name":"＊?青梅市成木図書館","province":"東京都","city":"青梅市","address":"青梅市成木4-644","lat":35.824159,"lon":139.248541},{"name":"＊?青梅市小曾木図書館","province":"東京都","city":"青梅市","address":"青梅市小曾木3-1656-1","lat":35.818065,"lon":139.275106},{"name":"＊?青梅市梅郷図書館","province":"東京都","city":"青梅市","address":"青梅市梅郷3-749-1","lat":35.786795,"lon":139.224431},{"name":"＊?青梅市沢井図書館","province":"東京都","city":"青梅市","address":"青梅市沢井2-682","lat":35.804713,"lon":139.196304},{"name":"＊?青梅市青梅図書館","province":"東京都","city":"青梅市","address":"青梅市仲町268-9","lat":35.791133,"lon":139.25652},{"name":"＊?河辺市民センター","province":"東京都","city":"青梅市","address":"青梅市河辺町6-18-1","lat":35.778488,"lon":139.293633},{"name":"＊?東青梅市民センター","province":"東京都","city":"青梅市","address":"青梅市師岡町3-9-6","lat":35.790631,"lon":139.282374},{"name":"御嶽神社旧本殿","province":"東京都","city":"青梅市","address":"東京都青梅市御岳山176","lat":35.782772,"lon":139.150253},{"name":"安楽寺本堂","province":"東京都","city":"青梅市","address":"東京都青梅市成木1-583","lat":35.838484,"lon":139.275364},{"name":"旧吉野家住宅","province":"東京都","city":"青梅市","address":"東京都青梅市新町1-21-9","lat":35.788144,"lon":139.297825},{"name":"馬場家御師住宅","province":"東京都","city":"青梅市","address":"東京都青梅市御岳山54","lat":35.785996,"lon":139.151073},{"name":"虎柏神社本殿","province":"東京都","city":"青梅市","address":"東京都青梅市根ケ布1-313","lat":35.802624,"lon":139.267127},{"name":"安楽寺の大スギ","province":"東京都","city":"青梅市","address":"東京都青梅市成木1-583","lat":35.838484,"lon":139.275364},{"name":"青梅市中央図書館","province":"東京都","city":"青梅市","address":"東京都青梅市河辺町10丁目8番地の1","lat":35.785387,"lon":139.285073},{"name":"青梅市青梅図書館","province":"東京都","city":"青梅市","address":"東京都青梅市仲町268番地の9","lat":35.791133,"lon":139.256484},{"name":"青梅市長淵図書館","province":"東京都","city":"青梅市","address":"東京都青梅市長淵6丁目492番地の1","lat":35.780335,"lon":139.268546},{"name":"青梅市大門図書館","province":"東京都","city":"青梅市","address":"東京都青梅市大門2丁目288番地","lat":35.796765,"lon":139.291206},{"name":"青梅市梅郷図書館","province":"東京都","city":"青梅市","address":"東京都青梅市梅郷3丁目749番地の1","lat":35.786581,"lon":139.224326},{"name":"青梅市沢井図書館","province":"東京都","city":"青梅市","address":"東京都青梅市沢井2丁目682番地","lat":35.804711,"lon":139.196279},{"name":"青梅市成木図書館","province":"東京都","city":"青梅市","address":"東京都青梅市成木4丁目644番地","lat":35.824186,"lon":139.24851},{"name":"青梅市新町図書館","province":"東京都","city":"青梅市","address":"東京都青梅市新町4丁目17番地の1","lat":35.785985,"lon":139.305154},{"name":"青梅市今井図書館","province":"東京都","city":"青梅市","address":"東京都青梅市今井2丁目908番地の1","lat":35.806544,"lon":139.310973},{"name":"＊?青梅市郷土博物館","province":"東京都","city":"青梅市","address":"青梅市駒木町1-684","lat":35.783794,"lon":139.25672},{"name":"＊?青梅市立美術館","province":"東京都","city":"青梅市","address":"青梅市滝ノ上町1346-1","lat":35.787547,"lon":139.255959},{"name":"＊?青梅市長淵図書館","province":"東京都","city":"青梅市","address":"青梅市長淵6-492-1","lat":35.780194,"lon":139.268855},{"name":"＊?青梅市中央図書館","province":"東京都","city":"青梅市","address":"青梅市河辺町10-8-1","lat":35.785364,"lon":139.285038},{"name":"＊?青梅市大門図書館","province":"東京都","city":"青梅市","address":"青梅市大門2-288","lat":35.796684,"lon":139.290865},{"name":"＊?青梅市新町図書館","province":"東京都","city":"青梅市","address":"青梅市新町4-17-1","lat":35.786079,"lon":139.304925},{"name":"＊?青梅市今井図書館","province":"東京都","city":"青梅市","address":"青梅市今井2-908-1","lat":35.806511,"lon":139.311031},{"name":"＊?青梅市成木図書館","province":"東京都","city":"青梅市","address":"青梅市成木4-644","lat":35.824159,"lon":139.248541},{"name":"＊?青梅市小曾木図書館","province":"東京都","city":"青梅市","address":"青梅市小曾木3-1656-1","lat":35.818065,"lon":139.275106},{"name":"＊?青梅市梅郷図書館","province":"東京都","city":"青梅市","address":"青梅市梅郷3-749-1","lat":35.786795,"lon":139.224431},{"name":"＊?青梅市沢井図書館","province":"東京都","city":"青梅市","address":"青梅市沢井2-682","lat":35.804713,"lon":139.196304},{"name":"＊?青梅市青梅図書館","province":"東京都","city":"青梅市","address":"青梅市仲町268-9","lat":35.791133,"lon":139.25652},{"name":"＊?河辺市民センター","province":"東京都","city":"青梅市","address":"青梅市河辺町6-18-1","lat":35.778488,"lon":139.293633},{"name":"＊?東青梅市民センター","province":"東京都","city":"青梅市","address":"青梅市師岡町3-9-6","lat":35.790631,"lon":139.282374},{"name":"御嶽神社旧本殿","province":"東京都","city":"青梅市","address":"東京都青梅市御岳山176","lat":35.782772,"lon":139.150253},{"name":"安楽寺本堂","province":"東京都","city":"青梅市","address":"東京都青梅市成木1-583","lat":35.838484,"lon":139.275364},{"name":"旧吉野家住宅","province":"東京都","city":"青梅市","address":"東京都青梅市新町1-21-9","lat":35.788144,"lon":139.297825},{"name":"馬場家御師住宅","province":"東京都","city":"青梅市","address":"東京都青梅市御岳山54","lat":35.785996,"lon":139.151073},{"name":"虎柏神社本殿","province":"東京都","city":"青梅市","address":"東京都青梅市根ケ布1-313","lat":35.802624,"lon":139.267127},{"name":"安楽寺の大スギ","province":"東京都","city":"青梅市","address":"東京都青梅市成木1-583","lat":35.838484,"lon":139.275364},{"name":"青梅市中央図書館","province":"東京都","city":"青梅市","address":"東京都青梅市河辺町10丁目8番地の1","lat":35.785387,"lon":139.285073},{"name":"青梅市青梅図書館","province":"東京都","city":"青梅市","address":"東京都青梅市仲町268番地の9","lat":35.791133,"lon":139.256484},{"name":"青梅市長淵図書館","province":"東京都","city":"青梅市","address":"東京都青梅市長淵6丁目492番地の1","lat":35.780335,"lon":139.268546},{"name":"青梅市大門図書館","province":"東京都","city":"青梅市","address":"東京都青梅市大門2丁目288番地","lat":35.796765,"lon":139.291206},{"name":"青梅市梅郷図書館","province":"東京都","city":"青梅市","address":"東京都青梅市梅郷3丁目749番地の1","lat":35.786581,"lon":139.224326},{"name":"青梅市沢井図書館","province":"東京都","city":"青梅市","address":"東京都青梅市沢井2丁目682番地","lat":35.804711,"lon":139.196279},{"name":"青梅市成木図書館","province":"東京都","city":"青梅市","address":"東京都青梅市成木4丁目644番地","lat":35.824186,"lon":139.24851},{"name":"青梅市新町図書館","province":"東京都","city":"青梅市","address":"東京都青梅市新町4丁目17番地の1","lat":35.785985,"lon":139.305154},{"name":"青梅市今井図書館","province":"東京都","city":"青梅市","address":"東京都青梅市今井2丁目908番地の1","lat":35.806544,"lon":139.310973},{"name":"＊?青梅市郷土博物館","province":"東京都","city":"青梅市","address":"青梅市駒木町1-684","lat":35.783794,"lon":139.25672},{"name":"＊?青梅市立美術館","province":"東京都","city":"青梅市","address":"青梅市滝ノ上町1346-1","lat":35.787547,"lon":139.255959},{"name":"＊?青梅市長淵図書館","province":"東京都","city":"青梅市","address":"青梅市長淵6-492-1","lat":35.780194,"lon":139.268855},{"name":"＊?青梅市中央図書館","province":"東京都","city":"青梅市","address":"青梅市河辺町10-8-1","lat":35.785364,"lon":139.285038},{"name":"＊?青梅市大門図書館","province":"東京都","city":"青梅市","address":"青梅市大門2-288","lat":35.796684,"lon":139.290865},{"name":"＊?青梅市新町図書館","province":"東京都","city":"青梅市","address":"青梅市新町4-17-1","lat":35.786079,"lon":139.304925},{"name":"＊?青梅市今井図書館","province":"東京都","city":"青梅市","address":"青梅市今井2-908-1","lat":35.806511,"lon":139.311031},{"name":"＊?青梅市成木図書館","province":"東京都","city":"青梅市","address":"青梅市成木4-644","lat":35.824159,"lon":139.248541},{"name":"＊?青梅市小曾木図書館","province":"東京都","city":"青梅市","address":"青梅市小曾木3-1656-1","lat":35.818065,"lon":139.275106},{"name":"＊?青梅市梅郷図書館","province":"東京都","city":"青梅市","address":"青梅市梅郷3-749-1","lat":35.786795,"lon":139.224431},{"name":"＊?青梅市沢井図書館","province":"東京都","city":"青梅市","address":"青梅市沢井2-682","lat":35.804713,"lon":139.196304},{"name":"＊?青梅市青梅図書館","province":"東京都","city":"青梅市","address":"青梅市仲町268-9","lat":35.791133,"lon":139.25652},{"name":"＊?河辺市民センター","province":"東京都","city":"青梅市","address":"青梅市河辺町6-18-1","lat":35.778488,"lon":139.293633},{"name":"＊?東青梅市民センター","province":"東京都","city":"青梅市","address":"青梅市師岡町3-9-6","lat":35.790631,"lon":139.282374},{"name":"御嶽神社旧本殿","province":"東京都","city":"青梅市","address":"東京都青梅市御岳山176","lat":35.782772,"lon":139.150253},{"name":"安楽寺本堂","province":"東京都","city":"青梅市","address":"東京都青梅市成木1-583","lat":35.838484,"lon":139.275364},{"name":"旧吉野家住宅","province":"東京都","city":"青梅市","address":"東京都青梅市新町1-21-9","lat":35.788144,"lon":139.297825},{"name":"馬場家御師住宅","province":"東京都","city":"青梅市","address":"東京都青梅市御岳山54","lat":35.785996,"lon":139.151073},{"name":"虎柏神社本殿","province":"東京都","city":"青梅市","address":"東京都青梅市根ケ布1-313","lat":35.802624,"lon":139.267127},{"name":"安楽寺の大スギ","province":"東京都","city":"青梅市","address":"東京都青梅市成木1-583","lat":35.838484,"lon":139.275364},{"name":"青梅市中央図書館","province":"東京都","city":"青梅市","address":"東京都青梅市河辺町10丁目8番地の1","lat":35.785387,"lon":139.285073},{"name":"青梅市青梅図書館","province":"東京都","city":"青梅市","address":"東京都青梅市仲町268番地の9","lat":35.791133,"lon":139.256484},{"name":"青梅市長淵図書館","province":"東京都","city":"青梅市","address":"東京都青梅市長淵6丁目492番地の1","lat":35.780335,"lon":139.268546},{"name":"青梅市大門図書館","province":"東京都","city":"青梅市","address":"東京都青梅市大門2丁目288番地","lat":35.796765,"lon":139.291206},{"name":"青梅市梅郷図書館","province":"東京都","city":"青梅市","address":"東京都青梅市梅郷3丁目749番地の1","lat":35.786581,"lon":139.224326},{"name":"青梅市沢井図書館","province":"東京都","city":"青梅市","address":"東京都青梅市沢井2丁目682番地","lat":35.804711,"lon":139.196279},{"name":"青梅市成木図書館","province":"東京都","city":"青梅市","address":"東京都青梅市成木4丁目644番地","lat":35.824186,"lon":139.24851},{"name":"青梅市新町図書館","province":"東京都","city":"青梅市","address":"東京都青梅市新町4丁目17番地の1","lat":35.785985,"lon":139.305154},{"name":"青梅市今井図書館","province":"東京都","city":"青梅市","address":"東京都青梅市今井2丁目908番地の1","lat":35.806544,"lon":139.310973},{"name":"＊?青梅市郷土博物館","province":"東京都","city":"青梅市","address":"青梅市駒木町1-684","lat":35.783794,"lon":139.25672},{"name":"＊?青梅市立美術館","province":"東京都","city":"青梅市","address":"青梅市滝ノ上町1346-1","lat":35.787547,"lon":139.255959},{"name":"＊?青梅市長淵図書館","province":"東京都","city":"青梅市","address":"青梅市長淵6-492-1","lat":35.780194,"lon":139.268855},{"name":"＊?青梅市中央図書館","province":"東京都","city":"青梅市","address":"青梅市河辺町10-8-1","lat":35.785364,"lon":139.285038},{"name":"＊?青梅市大門図書館","province":"東京都","city":"青梅市","address":"青梅市大門2-288","lat":35.796684,"lon":139.290865},{"name":"＊?青梅市新町図書館","province":"東京都","city":"青梅市","address":"青梅市新町4-17-1","lat":35.786079,"lon":139.304925},{"name":"＊?青梅市今井図書館","province":"東京都","city":"青梅市","address":"青梅市今井2-908-1","lat":35.806511,"lon":139.311031},{"name":"＊?青梅市成木図書館","province":"東京都","city":"青梅市","address":"青梅市成木4-644","lat":35.824159,"lon":139.248541},{"name":"＊?青梅市小曾木図書館","province":"東京都","city":"青梅市","address":"青梅市小曾木3-1656-1","lat":35.818065,"lon":139.275106},{"name":"＊?青梅市梅郷図書館","province":"東京都","city":"青梅市","address":"青梅市梅郷3-749-1","lat":35.786795,"lon":139.224431},{"name":"＊?青梅市沢井図書館","province":"東京都","city":"青梅市","address":"青梅市沢井2-682","lat":35.804713,"lon":139.196304},{"name":"＊?青梅市青梅図書館","province":"東京都","city":"青梅市","address":"青梅市仲町268-9","lat":35.791133,"lon":139.25652},{"name":"＊?河辺市民センター","province":"東京都","city":"青梅市","address":"青梅市河辺町6-18-1","lat":35.778488,"lon":139.293633},{"name":"＊?東青梅市民センター","province":"東京都","city":"青梅市","address":"青梅市師岡町3-9-6","lat":35.790631,"lon":139.282374},{"name":"御嶽神社旧本殿","province":"東京都","city":"青梅市","address":"東京都青梅市御岳山176","lat":35.782772,"lon":139.150253},{"name":"安楽寺本堂","province":"東京都","city":"青梅市","address":"東京都青梅市成木1-583","lat":35.838484,"lon":139.275364},{"name":"旧吉野家住宅","province":"東京都","city":"青梅市","address":"東京都青梅市新町1-21-9","lat":35.788144,"lon":139.297825},{"name":"馬場家御師住宅","province":"東京都","city":"青梅市","address":"東京都青梅市御岳山54","lat":35.785996,"lon":139.151073},{"name":"虎柏神社本殿","province":"東京都","city":"青梅市","address":"東京都青梅市根ケ布1-313","lat":35.802624,"lon":139.267127},{"name":"安楽寺の大スギ","province":"東京都","city":"青梅市","address":"東京都青梅市成木1-583","lat":35.838484,"lon":139.275364},{"name":"青梅市中央図書館","province":"東京都","city":"青梅市","address":"東京都青梅市河辺町10丁目8番地の1","lat":35.785387,"lon":139.285073},{"name":"青梅市青梅図書館","province":"東京都","city":"青梅市","address":"東京都青梅市仲町268番地の9","lat":35.791133,"lon":139.256484},{"name":"青梅市長淵図書館","province":"東京都","city":"青梅市","address":"東京都青梅市長淵6丁目492番地の1","lat":35.780335,"lon":139.268546},{"name":"青梅市大門図書館","province":"東京都","city":"青梅市","address":"東京都青梅市大門2丁目288番地","lat":35.796765,"lon":139.291206},{"name":"青梅市梅郷図書館","province":"東京都","city":"青梅市","address":"東京都青梅市梅郷3丁目749番地の1","lat":35.786581,"lon":139.224326},{"name":"青梅市沢井図書館","province":"東京都","city":"青梅市","address":"東京都青梅市沢井2丁目682番地","lat":35.804711,"lon":139.196279},{"name":"青梅市成木図書館","province":"東京都","city":"青梅市","address":"東京都青梅市成木4丁目644番地","lat":35.824186,"lon":139.24851},{"name":"青梅市新町図書館","province":"東京都","city":"青梅市","address":"東京都青梅市新町4丁目17番地の1","lat":35.785985,"lon":139.305154},{"name":"青梅市今井図書館","province":"東京都","city":"青梅市","address":"東京都青梅市今井2丁目908番地の1","lat":35.806544,"lon":139.310973},{"name":"＊?青梅市郷土博物館","province":"東京都","city":"青梅市","address":"青梅市駒木町1-684","lat":35.783794,"lon":139.25672},{"name":"＊?青梅市立美術館","province":"東京都","city":"青梅市","address":"青梅市滝ノ上町1346-1","lat":35.787547,"lon":139.255959},{"name":"＊?青梅市長淵図書館","province":"東京都","city":"青梅市","address":"青梅市長淵6-492-1","lat":35.780194,"lon":139.268855},{"name":"＊?青梅市中央図書館","province":"東京都","city":"青梅市","address":"青梅市河辺町10-8-1","lat":35.785364,"lon":139.285038},{"name":"＊?青梅市大門図書館","province":"東京都","city":"青梅市","address":"青梅市大門2-288","lat":35.796684,"lon":139.290865},{"name":"＊?青梅市新町図書館","province":"東京都","city":"青梅市","address":"青梅市新町4-17-1","lat":35.786079,"lon":139.304925},{"name":"＊?青梅市今井図書館","province":"東京都","city":"青梅市","address":"青梅市今井2-908-1","lat":35.806511,"lon":139.311031},{"name":"＊?青梅市成木図書館","province":"東京都","city":"青梅市","address":"青梅市成木4-644","lat":35.824159,"lon":139.248541},{"name":"＊?青梅市小曾木図書館","province":"東京都","city":"青梅市","address":"青梅市小曾木3-1656-1","lat":35.818065,"lon":139.275106},{"name":"＊?青梅市梅郷図書館","province":"東京都","city":"青梅市","address":"青梅市梅郷3-749-1","lat":35.786795,"lon":139.224431},{"name":"＊?青梅市沢井図書館","province":"東京都","city":"青梅市","address":"青梅市沢井2-682","lat":35.804713,"lon":139.196304},{"name":"＊?青梅市青梅図書館","province":"東京都","city":"青梅市","address":"青梅市仲町268-9","lat":35.791133,"lon":139.25652},{"name":"＊?河辺市民センター","province":"東京都","city":"青梅市","address":"青梅市河辺町6-18-1","lat":35.778488,"lon":139.293633},{"name":"＊?東青梅市民センター","province":"東京都","city":"青梅市","address":"青梅市師岡町3-9-6","lat":35.790631,"lon":139.282374},{"name":"御嶽神社旧本殿","province":"東京都","city":"青梅市","address":"東京都青梅市御岳山176","lat":35.782772,"lon":139.150253},{"name":"安楽寺本堂","province":"東京都","city":"青梅市","address":"東京都青梅市成木1-583","lat":35.838484,"lon":139.275364},{"name":"旧吉野家住宅","province":"東京都","city":"青梅市","address":"東京都青梅市新町1-21-9","lat":35.788144,"lon":139.297825},{"name":"馬場家御師住宅","province":"東京都","city":"青梅市","address":"東京都青梅市御岳山54","lat":35.785996,"lon":139.151073},{"name":"虎柏神社本殿","province":"東京都","city":"青梅市","address":"東京都青梅市根ケ布1-313","lat":35.802624,"lon":139.267127},{"name":"安楽寺の大スギ","province":"東京都","city":"青梅市","address":"東京都青梅市成木1-583","lat":35.838484,"lon":139.275364},{"name":"青梅市中央図書館","province":"東京都","city":"青梅市","address":"東京都青梅市河辺町10丁目8番地の1","lat":35.785387,"lon":139.285073},{"name":"青梅市青梅図書館","province":"東京都","city":"青梅市","address":"東京都青梅市仲町268番地の9","lat":35.791133,"lon":139.256484},{"name":"青梅市長淵図書館","province":"東京都","city":"青梅市","address":"東京都青梅市長淵6丁目492番地の1","lat":35.780335,"lon":139.268546},{"name":"青梅市大門図書館","province":"東京都","city":"青梅市","address":"東京都青梅市大門2丁目288番地","lat":35.796765,"lon":139.291206},{"name":"青梅市梅郷図書館","province":"東京都","city":"青梅市","address":"東京都青梅市梅郷3丁目749番地の1","lat":35.786581,"lon":139.224326},{"name":"青梅市沢井図書館","province":"東京都","city":"青梅市","address":"東京都青梅市沢井2丁目682番地","lat":35.804711,"lon":139.196279},{"name":"青梅市成木図書館","province":"東京都","city":"青梅市","address":"東京都青梅市成木4丁目644番地","lat":35.824186,"lon":139.24851},{"name":"青梅市新町図書館","province":"東京都","city":"青梅市","address":"東京都青梅市新町4丁目17番地の1","lat":35.785985,"lon":139.305154},{"name":"青梅市今井図書館","province":"東京都","city":"青梅市","address":"東京都青梅市今井2丁目908番地の1","lat":35.806544,"lon":139.310973},{"name":"＊?青梅市郷土博物館","province":"東京都","city":"青梅市","address":"青梅市駒木町1-684","lat":35.783794,"lon":139.25672},{"name":"＊?青梅市立美術館","province":"東京都","city":"青梅市","address":"青梅市滝ノ上町1346-1","lat":35.787547,"lon":139.255959},{"name":"＊?青梅市長淵図書館","province":"東京都","city":"青梅市","address":"青梅市長淵6-492-1","lat":35.780194,"lon":139.268855},{"name":"＊?青梅市中央図書館","province":"東京都","city":"青梅市","address":"青梅市河辺町10-8-1","lat":35.785364,"lon":139.285038},{"name":"＊?青梅市大門図書館","province":"東京都","city":"青梅市","address":"青梅市大門2-288","lat":35.796684,"lon":139.290865},{"name":"＊?青梅市新町図書館","province":"東京都","city":"青梅市","address":"青梅市新町4-17-1","lat":35.786079,"lon":139.304925},{"name":"＊?青梅市今井図書館","province":"東京都","city":"青梅市","address":"青梅市今井2-908-1","lat":35.806511,"lon":139.311031},{"name":"＊?青梅市成木図書館","province":"東京都","city":"青梅市","address":"青梅市成木4-644","lat":35.824159,"lon":139.248541},{"name":"＊?青梅市小曾木図書館","province":"東京都","city":"青梅市","address":"青梅市小曾木3-1656-1","lat":35.818065,"lon":139.275106},{"name":"＊?青梅市梅郷図書館","province":"東京都","city":"青梅市","address":"青梅市梅郷3-749-1","lat":35.786795,"lon":139.224431},{"name":"＊?青梅市沢井図書館","province":"東京都","city":"青梅市","address":"青梅市沢井2-682","lat":35.804713,"lon":139.196304},{"name":"＊?青梅市青梅図書館","province":"東京都","city":"青梅市","address":"青梅市仲町268-9","lat":35.791133,"lon":139.25652},{"name":"＊?河辺市民センター","province":"東京都","city":"青梅市","address":"青梅市河辺町6-18-1","lat":35.778488,"lon":139.293633},{"name":"＊?東青梅市民センター","province":"東京都","city":"青梅市","address":"青梅市師岡町3-9-6","lat":35.790631,"lon":139.282374},{"name":"御嶽神社旧本殿","province":"東京都","city":"青梅市","address":"東京都青梅市御岳山176","lat":35.782772,"lon":139.150253},{"name":"安楽寺本堂","province":"東京都","city":"青梅市","address":"東京都青梅市成木1-583","lat":35.838484,"lon":139.275364},{"name":"旧吉野家住宅","province":"東京都","city":"青梅市","address":"東京都青梅市新町1-21-9","lat":35.788144,"lon":139.297825},{"name":"馬場家御師住宅","province":"東京都","city":"青梅市","address":"東京都青梅市御岳山54","lat":35.785996,"lon":139.151073},{"name":"虎柏神社本殿","province":"東京都","city":"青梅市","address":"東京都青梅市根ケ布1-313","lat":35.802624,"lon":139.267127},{"name":"安楽寺の大スギ","province":"東京都","city":"青梅市","address":"東京都青梅市成木1-583","lat":35.838484,"lon":139.275364},{"name":"青梅市中央図書館","province":"東京都","city":"青梅市","address":"東京都青梅市河辺町10丁目8番地の1","lat":35.785387,"lon":139.285073},{"name":"青梅市青梅図書館","province":"東京都","city":"青梅市","address":"東京都青梅市仲町268番地の9","lat":35.791133,"lon":139.256484},{"name":"青梅市長淵図書館","province":"東京都","city":"青梅市","address":"東京都青梅市長淵6丁目492番地の1","lat":35.780335,"lon":139.268546},{"name":"青梅市大門図書館","province":"東京都","city":"青梅市","address":"東京都青梅市大門2丁目288番地","lat":35.796765,"lon":139.291206},{"name":"青梅市梅郷図書館","province":"東京都","city":"青梅市","address":"東京都青梅市梅郷3丁目749番地の1","lat":35.786581,"lon":139.224326},{"name":"青梅市沢井図書館","province":"東京都","city":"青梅市","address":"東京都青梅市沢井2丁目682番地","lat":35.804711,"lon":139.196279},{"name":"青梅市成木図書館","province":"東京都","city":"青梅市","address":"東京都青梅市成木4丁目644番地","lat":35.824186,"lon":139.24851},{"name":"青梅市新町図書館","province":"東京都","city":"青梅市","address":"東京都青梅市新町4丁目17番地の1","lat":35.785985,"lon":139.305154},{"name":"青梅市今井図書館","province":"東京都","city":"青梅市","address":"東京都青梅市今井2丁目908番地の1","lat":35.806544,"lon":139.310973},{"name":"＊?青梅市郷土博物館","province":"東京都","city":"青梅市","address":"青梅市駒木町1-684","lat":35.783794,"lon":139.25672},{"name":"＊?青梅市立美術館","province":"東京都","city":"青梅市","address":"青梅市滝ノ上町1346-1","lat":35.787547,"lon":139.255959},{"name":"＊?青梅市長淵図書館","province":"東京都","city":"青梅市","address":"青梅市長淵6-492-1","lat":35.780194,"lon":139.268855},{"name":"＊?青梅市中央図書館","province":"東京都","city":"青梅市","address":"青梅市河辺町10-8-1","lat":35.785364,"lon":139.285038},{"name":"＊?青梅市大門図書館","province":"東京都","city":"青梅市","address":"青梅市大門2-288","lat":35.796684,"lon":139.290865},{"name":"＊?青梅市新町図書館","province":"東京都","city":"青梅市","address":"青梅市新町4-17-1","lat":35.786079,"lon":139.304925},{"name":"＊?青梅市今井図書館","province":"東京都","city":"青梅市","address":"青梅市今井2-908-1","lat":35.806511,"lon":139.311031},{"name":"＊?青梅市成木図書館","province":"東京都","city":"青梅市","address":"青梅市成木4-644","lat":35.824159,"lon":139.248541},{"name":"＊?青梅市小曾木図書館","province":"東京都","city":"青梅市","address":"青梅市小曾木3-1656-1","lat":35.818065,"lon":139.275106},{"name":"＊?青梅市梅郷図書館","province":"東京都","city":"青梅市","address":"青梅市梅郷3-749-1","lat":35.786795,"lon":139.224431},{"name":"＊?青梅市沢井図書館","province":"東京都","city":"青梅市","address":"青梅市沢井2-682","lat":35.804713,"lon":139.196304},{"name":"＊?青梅市青梅図書館","province":"東京都","city":"青梅市","address":"青梅市仲町268-9","lat":35.791133,"lon":139.25652},{"name":"＊?河辺市民センター","province":"東京都","city":"青梅市","address":"青梅市河辺町6-18-1","lat":35.778488,"lon":139.293633},{"name":"＊?東青梅市民センター","province":"東京都","city":"青梅市","address":"青梅市師岡町3-9-6","lat":35.790631,"lon":139.282374},{"name":"御嶽神社旧本殿","province":"東京都","city":"青梅市","address":"東京都青梅市御岳山176","lat":35.782772,"lon":139.150253},{"name":"安楽寺本堂","province":"東京都","city":"青梅市","address":"東京都青梅市成木1-583","lat":35.838484,"lon":139.275364},{"name":"旧吉野家住宅","province":"東京都","city":"青梅市","address":"東京都青梅市新町1-21-9","lat":35.788144,"lon":139.297825},{"name":"馬場家御師住宅","province":"東京都","city":"青梅市","address":"東京都青梅市御岳山54","lat":35.785996,"lon":139.151073},{"name":"虎柏神社本殿","province":"東京都","city":"青梅市","address":"東京都青梅市根ケ布1-313","lat":35.802624,"lon":139.267127},{"name":"安楽寺の大スギ","province":"東京都","city":"青梅市","address":"東京都青梅市成木1-583","lat":35.838484,"lon":139.275364},{"name":"青梅市中央図書館","province":"東京都","city":"青梅市","address":"東京都青梅市河辺町10丁目8番地の1","lat":35.785387,"lon":139.285073},{"name":"青梅市青梅図書館","province":"東京都","city":"青梅市","address":"東京都青梅市仲町268番地の9","lat":35.791133,"lon":139.256484},{"name":"青梅市長淵図書館","province":"東京都","city":"青梅市","address":"東京都青梅市長淵6丁目492番地の1","lat":35.780335,"lon":139.268546},{"name":"青梅市大門図書館","province":"東京都","city":"青梅市","address":"東京都青梅市大門2丁目288番地","lat":35.796765,"lon":139.291206},{"name":"青梅市梅郷図書館","province":"東京都","city":"青梅市","address":"東京都青梅市梅郷3丁目749番地の1","lat":35.786581,"lon":139.224326},{"name":"青梅市沢井図書館","province":"東京都","city":"青梅市","address":"東京都青梅市沢井2丁目682番地","lat":35.804711,"lon":139.196279},{"name":"青梅市成木図書館","province":"東京都","city":"青梅市","address":"東京都青梅市成木4丁目644番地","lat":35.824186,"lon":139.24851},{"name":"青梅市新町図書館","province":"東京都","city":"青梅市","address":"東京都青梅市新町4丁目17番地の1","lat":35.785985,"lon":139.305154},{"name":"青梅市今井図書館","province":"東京都","city":"青梅市","address":"東京都青梅市今井2丁目908番地の1","lat":35.806544,"lon":139.310973},{"name":"＊?青梅市郷土博物館","province":"東京都","city":"青梅市","address":"青梅市駒木町1-684","lat":35.783794,"lon":139.25672},{"name":"＊?青梅市立美術館","province":"東京都","city":"青梅市","address":"青梅市滝ノ上町1346-1","lat":35.787547,"lon":139.255959},{"name":"＊?青梅市長淵図書館","province":"東京都","city":"青梅市","address":"青梅市長淵6-492-1","lat":35.780194,"lon":139.268855},{"name":"＊?青梅市中央図書館","province":"東京都","city":"青梅市","address":"青梅市河辺町10-8-1","lat":35.785364,"lon":139.285038},{"name":"＊?青梅市大門図書館","province":"東京都","city":"青梅市","address":"青梅市大門2-288","lat":35.796684,"lon":139.290865},{"name":"＊?青梅市新町図書館","province":"東京都","city":"青梅市","address":"青梅市新町4-17-1","lat":35.786079,"lon":139.304925},{"name":"＊?青梅市今井図書館","province":"東京都","city":"青梅市","address":"青梅市今井2-908-1","lat":35.806511,"lon":139.311031},{"name":"＊?青梅市成木図書館","province":"東京都","city":"青梅市","address":"青梅市成木4-644","lat":35.824159,"lon":139.248541},{"name":"＊?青梅市小曾木図書館","province":"東京都","city":"青梅市","address":"青梅市小曾木3-1656-1","lat":35.818065,"lon":139.275106},{"name":"＊?青梅市梅郷図書館","province":"東京都","city":"青梅市","address":"青梅市梅郷3-749-1","lat":35.786795,"lon":139.224431},{"name":"＊?青梅市沢井図書館","province":"東京都","city":"青梅市","address":"青梅市沢井2-682","lat":35.804713,"lon":139.196304},{"name":"＊?青梅市青梅図書館","province":"東京都","city":"青梅市","address":"青梅市仲町268-9","lat":35.791133,"lon":139.25652},{"name":"＊?河辺市民センター","province":"東京都","city":"青梅市","address":"青梅市河辺町6-18-1","lat":35.778488,"lon":139.293633},{"name":"＊?東青梅市民センター","province":"東京都","city":"青梅市","address":"青梅市師岡町3-9-6","lat":35.790631,"lon":139.282374},{"name":"御嶽神社旧本殿","province":"東京都","city":"青梅市","address":"東京都青梅市御岳山176","lat":35.782772,"lon":139.150253},{"name":"安楽寺本堂","province":"東京都","city":"青梅市","address":"東京都青梅市成木1-583","lat":35.838484,"lon":139.275364},{"name":"旧吉野家住宅","province":"東京都","city":"青梅市","address":"東京都青梅市新町1-21-9","lat":35.788144,"lon":139.297825},{"name":"馬場家御師住宅","province":"東京都","city":"青梅市","address":"東京都青梅市御岳山54","lat":35.785996,"lon":139.151073},{"name":"虎柏神社本殿","province":"東京都","city":"青梅市","address":"東京都青梅市根ケ布1-313","lat":35.802624,"lon":139.267127},{"name":"安楽寺の大スギ","province":"東京都","city":"青梅市","address":"東京都青梅市成木1-583","lat":35.838484,"lon":139.275364},{"name":"青梅市中央図書館","province":"東京都","city":"青梅市","address":"東京都青梅市河辺町10丁目8番地の1","lat":35.785387,"lon":139.285073},{"name":"青梅市青梅図書館","province":"東京都","city":"青梅市","address":"東京都青梅市仲町268番地の9","lat":35.791133,"lon":139.256484},{"name":"青梅市長淵図書館","province":"東京都","city":"青梅市","address":"東京都青梅市長淵6丁目492番地の1","lat":35.780335,"lon":139.268546},{"name":"青梅市大門図書館","province":"東京都","city":"青梅市","address":"東京都青梅市大門2丁目288番地","lat":35.796765,"lon":139.291206},{"name":"青梅市梅郷図書館","province":"東京都","city":"青梅市","address":"東京都青梅市梅郷3丁目749番地の1","lat":35.786581,"lon":139.224326},{"name":"青梅市沢井図書館","province":"東京都","city":"青梅市","address":"東京都青梅市沢井2丁目682番地","lat":35.804711,"lon":139.196279},{"name":"青梅市成木図書館","province":"東京都","city":"青梅市","address":"東京都青梅市成木4丁目644番地","lat":35.824186,"lon":139.24851},{"name":"青梅市新町図書館","province":"東京都","city":"青梅市","address":"東京都青梅市新町4丁目17番地の1","lat":35.785985,"lon":139.305154},{"name":"青梅市今井図書館","province":"東京都","city":"青梅市","address":"東京都青梅市今井2丁目908番地の1","lat":35.806544,"lon":139.310973},{"name":"＊?青梅市郷土博物館","province":"東京都","city":"青梅市","address":"青梅市駒木町1-684","lat":35.783794,"lon":139.25672},{"name":"＊?青梅市立美術館","province":"東京都","city":"青梅市","address":"青梅市滝ノ上町1346-1","lat":35.787547,"lon":139.255959},{"name":"＊?青梅市長淵図書館","province":"東京都","city":"青梅市","address":"青梅市長淵6-492-1","lat":35.780194,"lon":139.268855},{"name":"＊?青梅市中央図書館","province":"東京都","city":"青梅市","address":"青梅市河辺町10-8-1","lat":35.785364,"lon":139.285038},{"name":"＊?青梅市大門図書館","province":"東京都","city":"青梅市","address":"青梅市大門2-288","lat":35.796684,"lon":139.290865},{"name":"＊?青梅市新町図書館","province":"東京都","city":"青梅市","address":"青梅市新町4-17-1","lat":35.786079,"lon":139.304925},{"name":"＊?青梅市今井図書館","province":"東京都","city":"青梅市","address":"青梅市今井2-908-1","lat":35.806511,"lon":139.311031},{"name":"＊?青梅市成木図書館","province":"東京都","city":"青梅市","address":"青梅市成木4-644","lat":35.824159,"lon":139.248541},{"name":"＊?青梅市小曾木図書館","province":"東京都","city":"青梅市","address":"青梅市小曾木3-1656-1","lat":35.818065,"lon":139.275106},{"name":"＊?青梅市梅郷図書館","province":"東京都","city":"青梅市","address":"青梅市梅郷3-749-1","lat":35.786795,"lon":139.224431},{"name":"＊?青梅市沢井図書館","province":"東京都","city":"青梅市","address":"青梅市沢井2-682","lat":35.804713,"lon":139.196304},{"name":"＊?青梅市青梅図書館","province":"東京都","city":"青梅市","address":"青梅市仲町268-9","lat":35.791133,"lon":139.25652},{"name":"＊?河辺市民センター","province":"東京都","city":"青梅市","address":"青梅市河辺町6-18-1","lat":35.778488,"lon":139.293633},{"name":"＊?東青梅市民センター","province":"東京都","city":"青梅市","address":"青梅市師岡町3-9-6","lat":35.790631,"lon":139.282374}]}