{"keyword":"音響","data":[{"name":"青梅市役所前第一","province":"東京都","city":"青梅市","address":"東京都青梅市東青梅1丁目11-1","lat":35.78785689,"lon":139.27583503},{"name":"青梅末広町二丁目西","province":"東京都","city":"青梅市","address":"東京都青梅市末広町2丁目2-8","lat":35.77942258,"lon":139.30691877},{"name":"千ヶ瀬二丁目","province":"東京都","city":"青梅市","address":"東京都青梅市千ヶ瀬町2丁目243","lat":35.78593481,"lon":139.27255762},{"name":"河辺小学校南","province":"東京都","city":"青梅市","address":"東京都青梅市河辺町6丁目2","lat":35.7806081,"lon":139.28894797},{"name":"河辺駅北口","province":"東京都","city":"青梅市","address":"東京都青梅市河辺町10丁目7","lat":35.78578519,"lon":139.28627025},{"name":"わかぐさ公園前","province":"東京都","city":"青梅市","address":"東京都青梅市河辺町7丁目14-2","lat":35.78147483,"lon":139.29581681},{"name":"小作駅北","province":"東京都","city":"青梅市","address":"東京都青梅市新町3丁目2","lat":35.77804486,"lon":139.30261082},{"name":"みち境","province":"東京都","city":"青梅市","address":"東京都青梅市根ヶ布2丁目722","lat":35.8065628,"lon":139.2666466},{"name":"青梅合同庁舎前","province":"東京都","city":"青梅市","address":"東京都青梅市河辺町6丁目4-1","lat":35.77999986,"lon":139.28959793},{"name":"永山公園入口","province":"東京都","city":"青梅市","address":"東京都青梅市住江町55","lat":35.78902572,"lon":139.26029501}]}