{"keyword":"食堂","data":[{"name":"武尊塾","province":"東京都","city":"青梅市","address":"東京都青梅市東青梅3-22-4","lat":35.789616,"lon":139.278397},{"name":"すぺーすまゆだま","province":"東京都","city":"青梅市","address":"東京都青梅市友田町3-96-1","lat":35.772816,"lon":139.288696},{"name":"か～もくの会","province":"東京都","city":"青梅市","address":"東京都青梅市勝沼3-78","lat":35.789818,"lon":139.266708},{"name":"子どもFREE・CAFE","province":"東京都","city":"青梅市","address":"東京都青梅市勝沼3-78","lat":35.789818,"lon":139.266708},{"name":"なかま亭","province":"東京都","city":"青梅市","address":"東京都青梅市今寺4-6-25","lat":35.79657,"lon":139.299545},{"name":"どんぐりやま","province":"東京都","city":"青梅市","address":"東京都青梅市今寺3-379-8","lat":35.798805,"lon":139.298676},{"name":"ゆうやけ子ども食堂かすみ","province":"東京都","city":"青梅市","address":"東京都青梅市藤橋2-614-18","lat":35.79903,"lon":139.301941},{"name":"Kanpa cafe mio","province":"東京都","city":"青梅市","address":"東京都青梅市勝沼3-78","lat":35.789818,"lon":139.266708},{"name":"和楽倶楽部","province":"東京都","city":"青梅市","address":"東京都青梅市今井2","lat":35.805725,"lon":139.312744},{"name":"CAFE TOIRO","province":"東京都","city":"青梅市","address":"東京都青梅市野上町3-19-4","lat":35.789551,"lon":139.290253}]}