{"keyword":"館","data":[{"name":"＊?青梅市長淵図書館","province":"東京都","city":"青梅市","address":"青梅市長淵6-492-1","lat":35.780194,"lon":139.268855},{"name":"＊?青梅市中央図書館","province":"東京都","city":"青梅市","address":"青梅市河辺町10-8-1","lat":35.785364,"lon":139.285038},{"name":"＊?青梅市大門図書館","province":"東京都","city":"青梅市","address":"青梅市大門2-288","lat":35.796684,"lon":139.290865},{"name":"＊?青梅市新町図書館","province":"東京都","city":"青梅市","address":"青梅市新町4-17-1","lat":35.786079,"lon":139.304925},{"name":"＊?青梅市今井図書館","province":"東京都","city":"青梅市","address":"青梅市今井2-908-1","lat":35.806511,"lon":139.311031},{"name":"＊?青梅市成木図書館","province":"東京都","city":"青梅市","address":"青梅市成木4-644","lat":35.824159,"lon":139.248541},{"name":"＊?青梅市小曾木図書館","province":"東京都","city":"青梅市","address":"青梅市小曾木3-1656-1","lat":35.818065,"lon":139.275106},{"name":"＊?青梅市梅郷図書館","province":"東京都","city":"青梅市","address":"青梅市梅郷3-749-1","lat":35.786795,"lon":139.224431},{"name":"＊?青梅市沢井図書館","province":"東京都","city":"青梅市","address":"青梅市沢井2-682","lat":35.804713,"lon":139.196304},{"name":"＊?青梅市青梅図書館","province":"東京都","city":"青梅市","address":"青梅市仲町268-9","lat":35.791133,"lon":139.25652},{"name":"＊?河辺市民センター","province":"東京都","city":"青梅市","address":"青梅市河辺町6-18-1","lat":35.778488,"lon":139.293633},{"name":"＊?東青梅市民センター","province":"東京都","city":"青梅市","address":"青梅市師岡町3-9-6","lat":35.790631,"lon":139.282374}]}