{"keyword":"商品","data":[{"name":"神津島村社会福祉協議会","province":"東京都","city":"神津島村","address":"神津島村903","lat":34.205846,"lon":139.134447},{"name":"神津島村子ども家庭支援センター","province":"東京都","city":"神津島村","address":"神津島村902はまゆう保育園内","lat":34.205741,"lon":139.134896},{"name":"神津島村生活支援ハウスやすらぎの里","province":"東京都","city":"神津島村","address":"神津島村字沢尻11-1","lat":34.219034,"lon":139.133774},{"name":"神津島村保健センター","province":"東京都","city":"神津島村","address":"神津島村1009-1","lat":34.204719,"lon":139.135558},{"name":"神津島前浜園地","province":"東京都","city":"神津島村","address":"東京都神津島村","lat":34.202029,"lon":139.13313},{"name":"神津島前浜園地","province":"東京都","city":"神津島村","address":"東京都神津島村","lat":34.202014,"lon":139.13311},{"name":"神津島村沢尻園地","province":"東京都","city":"神津島村","address":"東京都神津島村字高嶺","lat":34.216757,"lon":139.133355},{"name":"神津島村長浜園地","province":"東京都","city":"神津島村","address":"東京都神津島村字長浜","lat":34.228081,"lon":139.137846},{"name":"三浦漁港便所","province":"東京都","city":"神津島村","address":"東京都神津島村字榎木が沢","lat":34.200618,"lon":139.152874},{"name":"赤崎公衆トイレ","province":"東京都","city":"神津島村","address":"東京都神津島村字神戸山","lat":34.239976,"lon":139.137718},{"name":"神津島村保健センター","province":"東京都","city":"神津島村","address":"東京都神津島村1009-1","lat":34.20471876,"lon":139.13555754},{"name":"神津島村社会福祉協議会","province":"東京都","city":"神津島村","address":"神津島村903神津島村生きがい健康センター内","lat":34.20589,"lon":139.13522},{"name":"神津島村保健センター","province":"東京都","city":"神津島村","address":"神津島村1009-1","lat":34.20461,"lon":139.13504},{"name":"神津島村子ども家庭支援センター","province":"東京都","city":"神津島村","address":"神津島村902はまゆう保育園内","lat":34.20589,"lon":139.13522},{"name":"神津島やすらぎの里","province":"東京都","city":"神津島村","address":"神津島村字沢尻11-1","lat":34.21703,"lon":139.13594},{"name":"神津島やすらぎの里","province":"東京都","city":"神津島村","address":"神津島村字沢尻11-1","lat":34.219034,"lon":139.133774},{"name":"神津島村火葬場","province":"東京都","city":"神津島村","address":"東京都神津島村金長（字）","lat":34.19009808,"lon":139.13493004},{"name":"神津島村子ども家庭支援センター","province":"東京都","city":"神津島村","address":"神津島村902はまゆう保育園内","lat":34.205741,"lon":139.134896},{"name":"神津島村生活支援ハウスやすらぎの里","province":"東京都","city":"神津島村","address":"神津島村字沢尻11-1","lat":34.219034,"lon":139.133774},{"name":"神津島村保健センター","province":"東京都","city":"神津島村","address":"神津島村1009-1","lat":34.204719,"lon":139.135558},{"name":"神津島前浜園地","province":"東京都","city":"神津島村","address":"東京都神津島村","lat":34.202029,"lon":139.13313},{"name":"神津島前浜園地","province":"東京都","city":"神津島村","address":"東京都神津島村","lat":34.202014,"lon":139.13311},{"name":"神津島村沢尻園地","province":"東京都","city":"神津島村","address":"東京都神津島村字高嶺","lat":34.216757,"lon":139.133355},{"name":"神津島村長浜園地","province":"東京都","city":"神津島村","address":"東京都神津島村字長浜","lat":34.228081,"lon":139.137846},{"name":"三浦漁港便所","province":"東京都","city":"神津島村","address":"東京都神津島村字榎木が沢","lat":34.200618,"lon":139.152874},{"name":"赤崎公衆トイレ","province":"東京都","city":"神津島村","address":"東京都神津島村字神戸山","lat":34.239976,"lon":139.137718},{"name":"神津島村保健センター","province":"東京都","city":"神津島村","address":"東京都神津島村1009-1","lat":34.20471876,"lon":139.13555754},{"name":"神津島村保健センター","province":"東京都","city":"神津島村","address":"神津島村1009-1","lat":34.20461,"lon":139.13504},{"name":"神津島村子ども家庭支援センター","province":"東京都","city":"神津島村","address":"神津島村902はまゆう保育園内","lat":34.20589,"lon":139.13522},{"name":"神津島やすらぎの里","province":"東京都","city":"神津島村","address":"神津島村字沢尻11-1","lat":34.21703,"lon":139.13594},{"name":"神津島やすらぎの里","province":"東京都","city":"神津島村","address":"神津島村字沢尻11-1","lat":34.219034,"lon":139.133774},{"name":"神津島村生活支援ハウスやすらぎの里","province":"東京都","city":"神津島村","address":"神津島村字沢尻11-1","lat":34.219034,"lon":139.133774},{"name":"神津島やすらぎの里","province":"東京都","city":"神津島村","address":"神津島村字沢尻11-1","lat":34.21703,"lon":139.13594},{"name":"神津島やすらぎの里","province":"東京都","city":"神津島村","address":"神津島村字沢尻11-1","lat":34.219034,"lon":139.133774},{"name":"神津島村生活支援ハウスやすらぎの里","province":"東京都","city":"神津島村","address":"神津島村字沢尻11-1","lat":34.219034,"lon":139.133774},{"name":"神津島やすらぎの里","province":"東京都","city":"神津島村","address":"神津島村字沢尻11-1","lat":34.21703,"lon":139.13594},{"name":"神津島やすらぎの里","province":"東京都","city":"神津島村","address":"神津島村字沢尻11-1","lat":34.219034,"lon":139.133774},{"name":"神津島村生活支援ハウスやすらぎの里","province":"東京都","city":"神津島村","address":"神津島村字沢尻11-1","lat":34.219034,"lon":139.133774},{"name":"神津島やすらぎの里","province":"東京都","city":"神津島村","address":"神津島村字沢尻11-1","lat":34.21703,"lon":139.13594},{"name":"神津島やすらぎの里","province":"東京都","city":"神津島村","address":"神津島村字沢尻11-1","lat":34.219034,"lon":139.133774},{"name":"神津島村生活支援ハウスやすらぎの里","province":"東京都","city":"神津島村","address":"神津島村字沢尻11-1","lat":34.219034,"lon":139.133774},{"name":"神津島やすらぎの里","province":"東京都","city":"神津島村","address":"神津島村字沢尻11-1","lat":34.21703,"lon":139.13594},{"name":"神津島やすらぎの里","province":"東京都","city":"神津島村","address":"神津島村字沢尻11-1","lat":34.219034,"lon":139.133774},{"name":"神津島村生活支援ハウスやすらぎの里","province":"東京都","city":"神津島村","address":"神津島村字沢尻11-1","lat":34.219034,"lon":139.133774},{"name":"神津島やすらぎの里","province":"東京都","city":"神津島村","address":"神津島村字沢尻11-1","lat":34.21703,"lon":139.13594},{"name":"神津島やすらぎの里","province":"東京都","city":"神津島村","address":"神津島村字沢尻11-1","lat":34.219034,"lon":139.133774}]}