{"keyword":"戸数","data":[{"name":"神津島村社会福祉協議会","province":"東京都","city":"神津島村","address":"神津島村903","lat":34.205846,"lon":139.134447},{"name":"神津島村社会福祉協議会","province":"東京都","city":"神津島村","address":"神津島村903神津島村生きがい健康センター内","lat":34.20589,"lon":139.13522},{"name":"神津島村役場福祉課","province":"東京都","city":"神津島村","address":"神津島村904","lat":34.205669,"lon":139.134155},{"name":"神津島村地域包括支援センター","province":"東京都","city":"神津島村","address":"神津島村字沢尻11-1","lat":34.21703,"lon":139.135941},{"name":"神津島村火葬場","province":"東京都","city":"神津島村","address":"東京都神津島村金長（字）","lat":34.19009808,"lon":139.13493004},{"name":"神津島村役場","province":"東京都","city":"神津島村","address":"神津島村904","lat":34.205533,"lon":139.134455},{"name":"東京都大島支庁神津島出張所","province":"東京都","city":"神津島村","address":"神津島村1204","lat":34.203272,"lon":139.134233},{"name":"神津島港湾空港管理事務所","province":"東京都","city":"神津島村","address":"神津島村字金長","lat":34.190248,"lon":139.134466},{"name":"東京都島しょ保健所大島出張所神津島支所","province":"東京都","city":"神津島村","address":"神津島村1088","lat":34.204734,"lon":139.136476},{"name":"東京都立神津高等学校","province":"東京都","city":"神津島村","address":"神津島村1620","lat":34.202348,"lon":139.134443},{"name":"神津島臨時ヘリポート","province":"東京都","city":"神津島村","address":"東京都神津島村","lat":34.20526867,"lon":139.13425768},{"name":"神津島村役場","province":"東京都","city":"神津島村","address":"東京都神津島村904","lat":34.205524,"lon":139.134499},{"name":"神津島村社会福祉協議会","province":"東京都","city":"神津島村","address":"神津島村903","lat":34.205846,"lon":139.134447},{"name":"神津島村社会福祉協議会","province":"東京都","city":"神津島村","address":"神津島村903神津島村生きがい健康センター内","lat":34.20589,"lon":139.13522},{"name":"神津島村役場福祉課","province":"東京都","city":"神津島村","address":"神津島村904","lat":34.205669,"lon":139.134155},{"name":"神津島村地域包括支援センター","province":"東京都","city":"神津島村","address":"神津島村字沢尻11-1","lat":34.21703,"lon":139.135941},{"name":"神津島村火葬場","province":"東京都","city":"神津島村","address":"東京都神津島村金長（字）","lat":34.19009808,"lon":139.13493004},{"name":"神津島臨時ヘリポート","province":"東京都","city":"神津島村","address":"東京都神津島村","lat":34.20526867,"lon":139.13425768},{"name":"神津島村役場福祉課","province":"東京都","city":"神津島村","address":"神津島村904","lat":34.205669,"lon":139.134155},{"name":"神津島村地域包括支援センター","province":"東京都","city":"神津島村","address":"神津島村字沢尻11-1","lat":34.21703,"lon":139.135941},{"name":"神津島村役場福祉課","province":"東京都","city":"神津島村","address":"神津島村904","lat":34.205669,"lon":139.134155},{"name":"神津島村地域包括支援センター","province":"東京都","city":"神津島村","address":"神津島村字沢尻11-1","lat":34.21703,"lon":139.135941},{"name":"神津島村役場福祉課","province":"東京都","city":"神津島村","address":"神津島村904","lat":34.205669,"lon":139.134155},{"name":"神津島村地域包括支援センター","province":"東京都","city":"神津島村","address":"神津島村字沢尻11-1","lat":34.21703,"lon":139.135941},{"name":"神津島村役場福祉課","province":"東京都","city":"神津島村","address":"神津島村904","lat":34.205669,"lon":139.134155},{"name":"神津島村地域包括支援センター","province":"東京都","city":"神津島村","address":"神津島村字沢尻11-1","lat":34.21703,"lon":139.135941},{"name":"神津島村役場福祉課","province":"東京都","city":"神津島村","address":"神津島村904","lat":34.205669,"lon":139.134155},{"name":"神津島村地域包括支援センター","province":"東京都","city":"神津島村","address":"神津島村字沢尻11-1","lat":34.21703,"lon":139.135941},{"name":"神津島村役場福祉課","province":"東京都","city":"神津島村","address":"神津島村904","lat":34.205669,"lon":139.134155},{"name":"神津島村地域包括支援センター","province":"東京都","city":"神津島村","address":"神津島村字沢尻11-1","lat":34.21703,"lon":139.135941},{"name":"神津島村役場福祉課","province":"東京都","city":"神津島村","address":"神津島村904","lat":34.205669,"lon":139.134155},{"name":"神津島村地域包括支援センター","province":"東京都","city":"神津島村","address":"神津島村字沢尻11-1","lat":34.21703,"lon":139.135941},{"name":"神津島村役場福祉課","province":"東京都","city":"神津島村","address":"神津島村904","lat":34.205669,"lon":139.134155},{"name":"神津島村地域包括支援センター","province":"東京都","city":"神津島村","address":"神津島村字沢尻11-1","lat":34.21703,"lon":139.135941},{"name":"神津島村役場福祉課","province":"東京都","city":"神津島村","address":"神津島村904","lat":34.205669,"lon":139.134155},{"name":"神津島村地域包括支援センター","province":"東京都","city":"神津島村","address":"神津島村字沢尻11-1","lat":34.21703,"lon":139.135941},{"name":"神津島村役場福祉課","province":"東京都","city":"神津島村","address":"神津島村904","lat":34.205669,"lon":139.134155},{"name":"神津島村地域包括支援センター","province":"東京都","city":"神津島村","address":"神津島村字沢尻11-1","lat":34.21703,"lon":139.135941},{"name":"神津島村役場福祉課","province":"東京都","city":"神津島村","address":"神津島村904","lat":34.205669,"lon":139.134155},{"name":"神津島村地域包括支援センター","province":"東京都","city":"神津島村","address":"神津島村字沢尻11-1","lat":34.21703,"lon":139.135941},{"name":"神津島村役場福祉課","province":"東京都","city":"神津島村","address":"神津島村904","lat":34.205669,"lon":139.134155},{"name":"神津島村地域包括支援センター","province":"東京都","city":"神津島村","address":"神津島村字沢尻11-1","lat":34.21703,"lon":139.135941},{"name":"神津島村役場福祉課","province":"東京都","city":"神津島村","address":"神津島村904","lat":34.205669,"lon":139.134155},{"name":"神津島村地域包括支援センター","province":"東京都","city":"神津島村","address":"神津島村字沢尻11-1","lat":34.21703,"lon":139.135941},{"name":"神津島村役場福祉課","province":"東京都","city":"神津島村","address":"神津島村904","lat":34.205669,"lon":139.134155},{"name":"神津島村地域包括支援センター","province":"東京都","city":"神津島村","address":"神津島村字沢尻11-1","lat":34.21703,"lon":139.135941},{"name":"神津島村役場福祉課","province":"東京都","city":"神津島村","address":"神津島村904","lat":34.205669,"lon":139.134155},{"name":"神津島村地域包括支援センター","province":"東京都","city":"神津島村","address":"神津島村字沢尻11-1","lat":34.21703,"lon":139.135941},{"name":"神津島村役場福祉課","province":"東京都","city":"神津島村","address":"神津島村904","lat":34.205669,"lon":139.134155},{"name":"神津島村地域包括支援センター","province":"東京都","city":"神津島村","address":"神津島村字沢尻11-1","lat":34.21703,"lon":139.135941},{"name":"神津島村役場福祉課","province":"東京都","city":"神津島村","address":"神津島村904","lat":34.205669,"lon":139.134155},{"name":"神津島村地域包括支援センター","province":"東京都","city":"神津島村","address":"神津島村字沢尻11-1","lat":34.21703,"lon":139.135941},{"name":"神津島村役場福祉課","province":"東京都","city":"神津島村","address":"神津島村904","lat":34.205669,"lon":139.134155},{"name":"神津島村地域包括支援センター","province":"東京都","city":"神津島村","address":"神津島村字沢尻11-1","lat":34.21703,"lon":139.135941},{"name":"神津島村役場福祉課","province":"東京都","city":"神津島村","address":"神津島村904","lat":34.205669,"lon":139.134155},{"name":"神津島村地域包括支援センター","province":"東京都","city":"神津島村","address":"神津島村字沢尻11-1","lat":34.21703,"lon":139.135941}]}