{"keyword":"支払","data":[{"name":"神津島前浜園地","province":"東京都","city":"神津島村","address":"東京都神津島村","lat":34.202029,"lon":139.13313},{"name":"神津島前浜園地","province":"東京都","city":"神津島村","address":"東京都神津島村","lat":34.202014,"lon":139.13311},{"name":"神津島村沢尻園地","province":"東京都","city":"神津島村","address":"東京都神津島村字高嶺","lat":34.216757,"lon":139.133355},{"name":"神津島村長浜園地","province":"東京都","city":"神津島村","address":"東京都神津島村字長浜","lat":34.228081,"lon":139.137846},{"name":"三浦漁港便所","province":"東京都","city":"神津島村","address":"東京都神津島村字榎木が沢","lat":34.200618,"lon":139.152874},{"name":"赤崎公衆トイレ","province":"東京都","city":"神津島村","address":"東京都神津島村字神戸山","lat":34.239976,"lon":139.137718},{"name":"＊?神津島村郷土資料館","province":"東京都","city":"神津島村","address":"神津島村118","lat":34.20809,"lon":139.135829},{"name":"神津島前浜園地","province":"東京都","city":"神津島村","address":"東京都神津島村","lat":34.202029,"lon":139.13313},{"name":"神津島前浜園地","province":"東京都","city":"神津島村","address":"東京都神津島村","lat":34.202014,"lon":139.13311},{"name":"神津島村沢尻園地","province":"東京都","city":"神津島村","address":"東京都神津島村字高嶺","lat":34.216757,"lon":139.133355},{"name":"神津島村長浜園地","province":"東京都","city":"神津島村","address":"東京都神津島村字長浜","lat":34.228081,"lon":139.137846},{"name":"三浦漁港便所","province":"東京都","city":"神津島村","address":"東京都神津島村字榎木が沢","lat":34.200618,"lon":139.152874},{"name":"赤崎公衆トイレ","province":"東京都","city":"神津島村","address":"東京都神津島村字神戸山","lat":34.239976,"lon":139.137718},{"name":"＊?神津島村郷土資料館","province":"東京都","city":"神津島村","address":"神津島村118","lat":34.20809,"lon":139.135829},{"name":"神津島前浜園地","province":"東京都","city":"神津島村","address":"東京都神津島村","lat":34.202029,"lon":139.13313},{"name":"神津島前浜園地","province":"東京都","city":"神津島村","address":"東京都神津島村","lat":34.202014,"lon":139.13311},{"name":"神津島村沢尻園地","province":"東京都","city":"神津島村","address":"東京都神津島村字高嶺","lat":34.216757,"lon":139.133355},{"name":"神津島村長浜園地","province":"東京都","city":"神津島村","address":"東京都神津島村字長浜","lat":34.228081,"lon":139.137846},{"name":"三浦漁港便所","province":"東京都","city":"神津島村","address":"東京都神津島村字榎木が沢","lat":34.200618,"lon":139.152874},{"name":"赤崎公衆トイレ","province":"東京都","city":"神津島村","address":"東京都神津島村字神戸山","lat":34.239976,"lon":139.137718},{"name":"＊?神津島村郷土資料館","province":"東京都","city":"神津島村","address":"神津島村118","lat":34.20809,"lon":139.135829},{"name":"＊?神津島村郷土資料館","province":"東京都","city":"神津島村","address":"神津島村118","lat":34.20809,"lon":139.135829},{"name":"＊?神津島村郷土資料館","province":"東京都","city":"神津島村","address":"神津島村118","lat":34.20809,"lon":139.135829},{"name":"＊?神津島村郷土資料館","province":"東京都","city":"神津島村","address":"神津島村118","lat":34.20809,"lon":139.135829},{"name":"＊?神津島村郷土資料館","province":"東京都","city":"神津島村","address":"神津島村118","lat":34.20809,"lon":139.135829},{"name":"＊?神津島村郷土資料館","province":"東京都","city":"神津島村","address":"神津島村118","lat":34.20809,"lon":139.135829},{"name":"＊?神津島村郷土資料館","province":"東京都","city":"神津島村","address":"神津島村118","lat":34.20809,"lon":139.135829},{"name":"＊?神津島村郷土資料館","province":"東京都","city":"神津島村","address":"神津島村118","lat":34.20809,"lon":139.135829},{"name":"＊?神津島村郷土資料館","province":"東京都","city":"神津島村","address":"神津島村118","lat":34.20809,"lon":139.135829},{"name":"＊?神津島村郷土資料館","province":"東京都","city":"神津島村","address":"神津島村118","lat":34.20809,"lon":139.135829},{"name":"＊?神津島村郷土資料館","province":"東京都","city":"神津島村","address":"神津島村118","lat":34.20809,"lon":139.135829},{"name":"＊?神津島村郷土資料館","province":"東京都","city":"神津島村","address":"神津島村118","lat":34.20809,"lon":139.135829},{"name":"＊?神津島村郷土資料館","province":"東京都","city":"神津島村","address":"神津島村118","lat":34.20809,"lon":139.135829},{"name":"＊?神津島村郷土資料館","province":"東京都","city":"神津島村","address":"神津島村118","lat":34.20809,"lon":139.135829},{"name":"＊?神津島村郷土資料館","province":"東京都","city":"神津島村","address":"神津島村118","lat":34.20809,"lon":139.135829},{"name":"＊?神津島村郷土資料館","province":"東京都","city":"神津島村","address":"神津島村118","lat":34.20809,"lon":139.135829},{"name":"＊?神津島村郷土資料館","province":"東京都","city":"神津島村","address":"神津島村118","lat":34.20809,"lon":139.135829},{"name":"＊?神津島村郷土資料館","province":"東京都","city":"神津島村","address":"神津島村118","lat":34.20809,"lon":139.135829},{"name":"＊?神津島村郷土資料館","province":"東京都","city":"神津島村","address":"神津島村118","lat":34.20809,"lon":139.135829},{"name":"＊?神津島村郷土資料館","province":"東京都","city":"神津島村","address":"神津島村118","lat":34.20809,"lon":139.135829},{"name":"＊?神津島村郷土資料館","province":"東京都","city":"神津島村","address":"神津島村118","lat":34.20809,"lon":139.135829},{"name":"＊?神津島村郷土資料館","province":"東京都","city":"神津島村","address":"神津島村118","lat":34.20809,"lon":139.135829},{"name":"＊?神津島村郷土資料館","province":"東京都","city":"神津島村","address":"神津島村118","lat":34.20809,"lon":139.135829},{"name":"＊?神津島村郷土資料館","province":"東京都","city":"神津島村","address":"神津島村118","lat":34.20809,"lon":139.135829},{"name":"＊?神津島村郷土資料館","province":"東京都","city":"神津島村","address":"神津島村118","lat":34.20809,"lon":139.135829},{"name":"＊?神津島村郷土資料館","province":"東京都","city":"神津島村","address":"神津島村118","lat":34.20809,"lon":139.135829},{"name":"＊?神津島村郷土資料館","province":"東京都","city":"神津島村","address":"神津島村118","lat":34.20809,"lon":139.135829},{"name":"＊?神津島村郷土資料館","province":"東京都","city":"神津島村","address":"神津島村118","lat":34.20809,"lon":139.135829},{"name":"＊?神津島村郷土資料館","province":"東京都","city":"神津島村","address":"神津島村118","lat":34.20809,"lon":139.135829},{"name":"＊?神津島村郷土資料館","province":"東京都","city":"神津島村","address":"神津島村118","lat":34.20809,"lon":139.135829},{"name":"＊?神津島村郷土資料館","province":"東京都","city":"神津島村","address":"神津島村118","lat":34.20809,"lon":139.135829},{"name":"＊?神津島村郷土資料館","province":"東京都","city":"神津島村","address":"神津島村118","lat":34.20809,"lon":139.135829},{"name":"＊?神津島村郷土資料館","province":"東京都","city":"神津島村","address":"神津島村118","lat":34.20809,"lon":139.135829},{"name":"＊?神津島村郷土資料館","province":"東京都","city":"神津島村","address":"神津島村118","lat":34.20809,"lon":139.135829},{"name":"＊?神津島村郷土資料館","province":"東京都","city":"神津島村","address":"神津島村118","lat":34.20809,"lon":139.135829},{"name":"＊?神津島村郷土資料館","province":"東京都","city":"神津島村","address":"神津島村118","lat":34.20809,"lon":139.135829},{"name":"＊?神津島村郷土資料館","province":"東京都","city":"神津島村","address":"神津島村118","lat":34.20809,"lon":139.135829},{"name":"＊?神津島村郷土資料館","province":"東京都","city":"神津島村","address":"神津島村118","lat":34.20809,"lon":139.135829},{"name":"＊?神津島村郷土資料館","province":"東京都","city":"神津島村","address":"神津島村118","lat":34.20809,"lon":139.135829},{"name":"＊?神津島村郷土資料館","province":"東京都","city":"神津島村","address":"神津島村118","lat":34.20809,"lon":139.135829},{"name":"＊?神津島村郷土資料館","province":"東京都","city":"神津島村","address":"神津島村118","lat":34.20809,"lon":139.135829}]}