{"keyword":"月間","data":[{"name":"神津島村子ども家庭支援センター","province":"東京都","city":"神津島村","address":"神津島村902はまゆう保育園内","lat":34.205741,"lon":139.134896},{"name":"神津島村子ども家庭支援センター","province":"東京都","city":"神津島村","address":"神津島村902はまゆう保育園内","lat":34.20589,"lon":139.13522},{"name":"神津島村火葬場","province":"東京都","city":"神津島村","address":"東京都神津島村金長（字）","lat":34.19009808,"lon":139.13493004},{"name":"神津島臨時ヘリポート","province":"東京都","city":"神津島村","address":"東京都神津島村","lat":34.20526867,"lon":139.13425768},{"name":"神津島村子ども家庭支援センター","province":"東京都","city":"神津島村","address":"神津島村902はまゆう保育園内","lat":34.205741,"lon":139.134896},{"name":"神津島村子ども家庭支援センター","province":"東京都","city":"神津島村","address":"神津島村902はまゆう保育園内","lat":34.20589,"lon":139.13522},{"name":"神津島村火葬場","province":"東京都","city":"神津島村","address":"東京都神津島村金長（字）","lat":34.19009808,"lon":139.13493004},{"name":"神津島臨時ヘリポート","province":"東京都","city":"神津島村","address":"東京都神津島村","lat":34.20526867,"lon":139.13425768},{"name":"神津島村子ども家庭支援センター","province":"東京都","city":"神津島村","address":"神津島村902はまゆう保育園内","lat":34.205741,"lon":139.134896},{"name":"神津島村子ども家庭支援センター","province":"東京都","city":"神津島村","address":"神津島村902はまゆう保育園内","lat":34.20589,"lon":139.13522},{"name":"神津島村火葬場","province":"東京都","city":"神津島村","address":"東京都神津島村金長（字）","lat":34.19009808,"lon":139.13493004},{"name":"神津島臨時ヘリポート","province":"東京都","city":"神津島村","address":"東京都神津島村","lat":34.20526867,"lon":139.13425768},{"name":"神津島村子ども家庭支援センター","province":"東京都","city":"神津島村","address":"神津島村902はまゆう保育園内","lat":34.205741,"lon":139.134896},{"name":"神津島村子ども家庭支援センター","province":"東京都","city":"神津島村","address":"神津島村902はまゆう保育園内","lat":34.20589,"lon":139.13522},{"name":"神津島村火葬場","province":"東京都","city":"神津島村","address":"東京都神津島村金長（字）","lat":34.19009808,"lon":139.13493004},{"name":"神津島臨時ヘリポート","province":"東京都","city":"神津島村","address":"東京都神津島村","lat":34.20526867,"lon":139.13425768},{"name":"神津島村子ども家庭支援センター","province":"東京都","city":"神津島村","address":"神津島村902はまゆう保育園内","lat":34.205741,"lon":139.134896},{"name":"神津島村子ども家庭支援センター","province":"東京都","city":"神津島村","address":"神津島村902はまゆう保育園内","lat":34.20589,"lon":139.13522},{"name":"神津島村火葬場","province":"東京都","city":"神津島村","address":"東京都神津島村金長（字）","lat":34.19009808,"lon":139.13493004},{"name":"神津島村子ども家庭支援センター","province":"東京都","city":"神津島村","address":"神津島村902はまゆう保育園内","lat":34.205741,"lon":139.134896},{"name":"神津島村子ども家庭支援センター","province":"東京都","city":"神津島村","address":"神津島村902はまゆう保育園内","lat":34.20589,"lon":139.13522},{"name":"神津島村火葬場","province":"東京都","city":"神津島村","address":"東京都神津島村金長（字）","lat":34.19009808,"lon":139.13493004},{"name":"神津島村子ども家庭支援センター","province":"東京都","city":"神津島村","address":"神津島村902はまゆう保育園内","lat":34.205741,"lon":139.134896},{"name":"神津島村子ども家庭支援センター","province":"東京都","city":"神津島村","address":"神津島村902はまゆう保育園内","lat":34.20589,"lon":139.13522},{"name":"神津島村火葬場","province":"東京都","city":"神津島村","address":"東京都神津島村金長（字）","lat":34.19009808,"lon":139.13493004},{"name":"神津島村子ども家庭支援センター","province":"東京都","city":"神津島村","address":"神津島村902はまゆう保育園内","lat":34.205741,"lon":139.134896},{"name":"神津島村子ども家庭支援センター","province":"東京都","city":"神津島村","address":"神津島村902はまゆう保育園内","lat":34.20589,"lon":139.13522},{"name":"神津島村火葬場","province":"東京都","city":"神津島村","address":"東京都神津島村金長（字）","lat":34.19009808,"lon":139.13493004},{"name":"神津島村子ども家庭支援センター","province":"東京都","city":"神津島村","address":"神津島村902はまゆう保育園内","lat":34.205741,"lon":139.134896},{"name":"神津島村子ども家庭支援センター","province":"東京都","city":"神津島村","address":"神津島村902はまゆう保育園内","lat":34.20589,"lon":139.13522},{"name":"神津島村火葬場","province":"東京都","city":"神津島村","address":"東京都神津島村金長（字）","lat":34.19009808,"lon":139.13493004},{"name":"神津島村子ども家庭支援センター","province":"東京都","city":"神津島村","address":"神津島村902はまゆう保育園内","lat":34.205741,"lon":139.134896},{"name":"神津島村子ども家庭支援センター","province":"東京都","city":"神津島村","address":"神津島村902はまゆう保育園内","lat":34.20589,"lon":139.13522},{"name":"神津島村火葬場","province":"東京都","city":"神津島村","address":"東京都神津島村金長（字）","lat":34.19009808,"lon":139.13493004},{"name":"神津島村子ども家庭支援センター","province":"東京都","city":"神津島村","address":"神津島村902はまゆう保育園内","lat":34.205741,"lon":139.134896},{"name":"神津島村子ども家庭支援センター","province":"東京都","city":"神津島村","address":"神津島村902はまゆう保育園内","lat":34.20589,"lon":139.13522},{"name":"神津島村火葬場","province":"東京都","city":"神津島村","address":"東京都神津島村金長（字）","lat":34.19009808,"lon":139.13493004},{"name":"神津島村子ども家庭支援センター","province":"東京都","city":"神津島村","address":"神津島村902はまゆう保育園内","lat":34.205741,"lon":139.134896},{"name":"神津島村子ども家庭支援センター","province":"東京都","city":"神津島村","address":"神津島村902はまゆう保育園内","lat":34.20589,"lon":139.13522},{"name":"神津島村火葬場","province":"東京都","city":"神津島村","address":"東京都神津島村金長（字）","lat":34.19009808,"lon":139.13493004},{"name":"神津島村子ども家庭支援センター","province":"東京都","city":"神津島村","address":"神津島村902はまゆう保育園内","lat":34.205741,"lon":139.134896},{"name":"神津島村子ども家庭支援センター","province":"東京都","city":"神津島村","address":"神津島村902はまゆう保育園内","lat":34.20589,"lon":139.13522},{"name":"神津島村火葬場","province":"東京都","city":"神津島村","address":"東京都神津島村金長（字）","lat":34.19009808,"lon":139.13493004},{"name":"神津島村子ども家庭支援センター","province":"東京都","city":"神津島村","address":"神津島村902はまゆう保育園内","lat":34.205741,"lon":139.134896},{"name":"神津島村子ども家庭支援センター","province":"東京都","city":"神津島村","address":"神津島村902はまゆう保育園内","lat":34.20589,"lon":139.13522},{"name":"神津島村火葬場","province":"東京都","city":"神津島村","address":"東京都神津島村金長（字）","lat":34.19009808,"lon":139.13493004},{"name":"神津島村子ども家庭支援センター","province":"東京都","city":"神津島村","address":"神津島村902はまゆう保育園内","lat":34.205741,"lon":139.134896},{"name":"神津島村子ども家庭支援センター","province":"東京都","city":"神津島村","address":"神津島村902はまゆう保育園内","lat":34.20589,"lon":139.13522},{"name":"神津島村火葬場","province":"東京都","city":"神津島村","address":"東京都神津島村金長（字）","lat":34.19009808,"lon":139.13493004},{"name":"神津島村子ども家庭支援センター","province":"東京都","city":"神津島村","address":"神津島村902はまゆう保育園内","lat":34.205741,"lon":139.134896},{"name":"神津島村子ども家庭支援センター","province":"東京都","city":"神津島村","address":"神津島村902はまゆう保育園内","lat":34.20589,"lon":139.13522},{"name":"神津島村火葬場","province":"東京都","city":"神津島村","address":"東京都神津島村金長（字）","lat":34.19009808,"lon":139.13493004},{"name":"神津島村子ども家庭支援センター","province":"東京都","city":"神津島村","address":"神津島村902はまゆう保育園内","lat":34.205741,"lon":139.134896},{"name":"神津島村子ども家庭支援センター","province":"東京都","city":"神津島村","address":"神津島村902はまゆう保育園内","lat":34.20589,"lon":139.13522},{"name":"神津島村火葬場","province":"東京都","city":"神津島村","address":"東京都神津島村金長（字）","lat":34.19009808,"lon":139.13493004},{"name":"神津島村子ども家庭支援センター","province":"東京都","city":"神津島村","address":"神津島村902はまゆう保育園内","lat":34.205741,"lon":139.134896},{"name":"神津島村子ども家庭支援センター","province":"東京都","city":"神津島村","address":"神津島村902はまゆう保育園内","lat":34.20589,"lon":139.13522},{"name":"神津島村火葬場","province":"東京都","city":"神津島村","address":"東京都神津島村金長（字）","lat":34.19009808,"lon":139.13493004},{"name":"神津島村子ども家庭支援センター","province":"東京都","city":"神津島村","address":"神津島村902はまゆう保育園内","lat":34.205741,"lon":139.134896},{"name":"神津島村子ども家庭支援センター","province":"東京都","city":"神津島村","address":"神津島村902はまゆう保育園内","lat":34.20589,"lon":139.13522},{"name":"神津島村火葬場","province":"東京都","city":"神津島村","address":"東京都神津島村金長（字）","lat":34.19009808,"lon":139.13493004},{"name":"神津島村子ども家庭支援センター","province":"東京都","city":"神津島村","address":"神津島村902はまゆう保育園内","lat":34.205741,"lon":139.134896},{"name":"神津島村子ども家庭支援センター","province":"東京都","city":"神津島村","address":"神津島村902はまゆう保育園内","lat":34.20589,"lon":139.13522},{"name":"神津島村火葬場","province":"東京都","city":"神津島村","address":"東京都神津島村金長（字）","lat":34.19009808,"lon":139.13493004},{"name":"神津島村子ども家庭支援センター","province":"東京都","city":"神津島村","address":"神津島村902はまゆう保育園内","lat":34.205741,"lon":139.134896},{"name":"神津島村子ども家庭支援センター","province":"東京都","city":"神津島村","address":"神津島村902はまゆう保育園内","lat":34.20589,"lon":139.13522},{"name":"神津島村火葬場","province":"東京都","city":"神津島村","address":"東京都神津島村金長（字）","lat":34.19009808,"lon":139.13493004},{"name":"神津島村子ども家庭支援センター","province":"東京都","city":"神津島村","address":"神津島村902はまゆう保育園内","lat":34.205741,"lon":139.134896},{"name":"神津島村子ども家庭支援センター","province":"東京都","city":"神津島村","address":"神津島村902はまゆう保育園内","lat":34.20589,"lon":139.13522},{"name":"神津島村火葬場","province":"東京都","city":"神津島村","address":"東京都神津島村金長（字）","lat":34.19009808,"lon":139.13493004},{"name":"神津島村子ども家庭支援センター","province":"東京都","city":"神津島村","address":"神津島村902はまゆう保育園内","lat":34.205741,"lon":139.134896},{"name":"神津島村子ども家庭支援センター","province":"東京都","city":"神津島村","address":"神津島村902はまゆう保育園内","lat":34.20589,"lon":139.13522},{"name":"神津島村火葬場","province":"東京都","city":"神津島村","address":"東京都神津島村金長（字）","lat":34.19009808,"lon":139.13493004},{"name":"神津島村子ども家庭支援センター","province":"東京都","city":"神津島村","address":"神津島村902はまゆう保育園内","lat":34.205741,"lon":139.134896},{"name":"神津島村子ども家庭支援センター","province":"東京都","city":"神津島村","address":"神津島村902はまゆう保育園内","lat":34.20589,"lon":139.13522},{"name":"神津島村火葬場","province":"東京都","city":"神津島村","address":"東京都神津島村金長（字）","lat":34.19009808,"lon":139.13493004},{"name":"神津島村子ども家庭支援センター","province":"東京都","city":"神津島村","address":"神津島村902はまゆう保育園内","lat":34.205741,"lon":139.134896},{"name":"神津島村子ども家庭支援センター","province":"東京都","city":"神津島村","address":"神津島村902はまゆう保育園内","lat":34.20589,"lon":139.13522},{"name":"神津島村火葬場","province":"東京都","city":"神津島村","address":"東京都神津島村金長（字）","lat":34.19009808,"lon":139.13493004},{"name":"神津島村子ども家庭支援センター","province":"東京都","city":"神津島村","address":"神津島村902はまゆう保育園内","lat":34.205741,"lon":139.134896},{"name":"神津島村子ども家庭支援センター","province":"東京都","city":"神津島村","address":"神津島村902はまゆう保育園内","lat":34.20589,"lon":139.13522},{"name":"神津島村子ども家庭支援センター","province":"東京都","city":"神津島村","address":"神津島村902はまゆう保育園内","lat":34.205741,"lon":139.134896},{"name":"神津島村子ども家庭支援センター","province":"東京都","city":"神津島村","address":"神津島村902はまゆう保育園内","lat":34.20589,"lon":139.13522},{"name":"神津島村子ども家庭支援センター","province":"東京都","city":"神津島村","address":"神津島村902はまゆう保育園内","lat":34.205741,"lon":139.134896},{"name":"神津島村子ども家庭支援センター","province":"東京都","city":"神津島村","address":"神津島村902はまゆう保育園内","lat":34.20589,"lon":139.13522},{"name":"神津島村子ども家庭支援センター","province":"東京都","city":"神津島村","address":"神津島村902はまゆう保育園内","lat":34.205741,"lon":139.134896},{"name":"神津島村子ども家庭支援センター","province":"東京都","city":"神津島村","address":"神津島村902はまゆう保育園内","lat":34.20589,"lon":139.13522},{"name":"神津島村子ども家庭支援センター","province":"東京都","city":"神津島村","address":"神津島村902はまゆう保育園内","lat":34.205741,"lon":139.134896},{"name":"神津島村子ども家庭支援センター","province":"東京都","city":"神津島村","address":"神津島村902はまゆう保育園内","lat":34.20589,"lon":139.13522},{"name":"神津島村子ども家庭支援センター","province":"東京都","city":"神津島村","address":"神津島村902はまゆう保育園内","lat":34.205741,"lon":139.134896},{"name":"神津島村子ども家庭支援センター","province":"東京都","city":"神津島村","address":"神津島村902はまゆう保育園内","lat":34.20589,"lon":139.13522},{"name":"神津島村子ども家庭支援センター","province":"東京都","city":"神津島村","address":"神津島村902はまゆう保育園内","lat":34.205741,"lon":139.134896},{"name":"神津島村子ども家庭支援センター","province":"東京都","city":"神津島村","address":"神津島村902はまゆう保育園内","lat":34.20589,"lon":139.13522},{"name":"神津島村子ども家庭支援センター","province":"東京都","city":"神津島村","address":"神津島村902はまゆう保育園内","lat":34.205741,"lon":139.134896},{"name":"神津島村子ども家庭支援センター","province":"東京都","city":"神津島村","address":"神津島村902はまゆう保育園内","lat":34.20589,"lon":139.13522},{"name":"神津島村子ども家庭支援センター","province":"東京都","city":"神津島村","address":"神津島村902はまゆう保育園内","lat":34.205741,"lon":139.134896},{"name":"神津島村子ども家庭支援センター","province":"東京都","city":"神津島村","address":"神津島村902はまゆう保育園内","lat":34.20589,"lon":139.13522},{"name":"神津島村子ども家庭支援センター","province":"東京都","city":"神津島村","address":"神津島村902はまゆう保育園内","lat":34.205741,"lon":139.134896},{"name":"神津島村子ども家庭支援センター","province":"東京都","city":"神津島村","address":"神津島村902はまゆう保育園内","lat":34.20589,"lon":139.13522},{"name":"神津島村子ども家庭支援センター","province":"東京都","city":"神津島村","address":"神津島村902はまゆう保育園内","lat":34.205741,"lon":139.134896},{"name":"神津島村子ども家庭支援センター","province":"東京都","city":"神津島村","address":"神津島村902はまゆう保育園内","lat":34.20589,"lon":139.13522},{"name":"神津島村子ども家庭支援センター","province":"東京都","city":"神津島村","address":"神津島村902はまゆう保育園内","lat":34.205741,"lon":139.134896},{"name":"神津島村子ども家庭支援センター","province":"東京都","city":"神津島村","address":"神津島村902はまゆう保育園内","lat":34.20589,"lon":139.13522},{"name":"神津島村子ども家庭支援センター","province":"東京都","city":"神津島村","address":"神津島村902はまゆう保育園内","lat":34.205741,"lon":139.134896},{"name":"神津島村子ども家庭支援センター","province":"東京都","city":"神津島村","address":"神津島村902はまゆう保育園内","lat":34.20589,"lon":139.13522},{"name":"神津島村子ども家庭支援センター","province":"東京都","city":"神津島村","address":"神津島村902はまゆう保育園内","lat":34.205741,"lon":139.134896},{"name":"神津島村子ども家庭支援センター","province":"東京都","city":"神津島村","address":"神津島村902はまゆう保育園内","lat":34.20589,"lon":139.13522},{"name":"神津島村子ども家庭支援センター","province":"東京都","city":"神津島村","address":"神津島村902はまゆう保育園内","lat":34.205741,"lon":139.134896},{"name":"神津島村子ども家庭支援センター","province":"東京都","city":"神津島村","address":"神津島村902はまゆう保育園内","lat":34.20589,"lon":139.13522},{"name":"神津島村子ども家庭支援センター","province":"東京都","city":"神津島村","address":"神津島村902はまゆう保育園内","lat":34.205741,"lon":139.134896},{"name":"神津島村子ども家庭支援センター","province":"東京都","city":"神津島村","address":"神津島村902はまゆう保育園内","lat":34.20589,"lon":139.13522},{"name":"神津島村子ども家庭支援センター","province":"東京都","city":"神津島村","address":"神津島村902はまゆう保育園内","lat":34.205741,"lon":139.134896},{"name":"神津島村子ども家庭支援センター","province":"東京都","city":"神津島村","address":"神津島村902はまゆう保育園内","lat":34.20589,"lon":139.13522},{"name":"神津島村子ども家庭支援センター","province":"東京都","city":"神津島村","address":"神津島村902はまゆう保育園内","lat":34.205741,"lon":139.134896},{"name":"神津島村子ども家庭支援センター","province":"東京都","city":"神津島村","address":"神津島村902はまゆう保育園内","lat":34.20589,"lon":139.13522},{"name":"神津島村子ども家庭支援センター","province":"東京都","city":"神津島村","address":"神津島村902はまゆう保育園内","lat":34.205741,"lon":139.134896},{"name":"神津島村子ども家庭支援センター","province":"東京都","city":"神津島村","address":"神津島村902はまゆう保育園内","lat":34.20589,"lon":139.13522},{"name":"神津島村子ども家庭支援センター","province":"東京都","city":"神津島村","address":"神津島村902はまゆう保育園内","lat":34.205741,"lon":139.134896},{"name":"神津島村子ども家庭支援センター","province":"東京都","city":"神津島村","address":"神津島村902はまゆう保育園内","lat":34.20589,"lon":139.13522},{"name":"神津島村子ども家庭支援センター","province":"東京都","city":"神津島村","address":"神津島村902はまゆう保育園内","lat":34.205741,"lon":139.134896},{"name":"神津島村子ども家庭支援センター","province":"東京都","city":"神津島村","address":"神津島村902はまゆう保育園内","lat":34.20589,"lon":139.13522},{"name":"神津島村子ども家庭支援センター","province":"東京都","city":"神津島村","address":"神津島村902はまゆう保育園内","lat":34.205741,"lon":139.134896},{"name":"神津島村子ども家庭支援センター","province":"東京都","city":"神津島村","address":"神津島村902はまゆう保育園内","lat":34.20589,"lon":139.13522},{"name":"神津島村子ども家庭支援センター","province":"東京都","city":"神津島村","address":"神津島村902はまゆう保育園内","lat":34.205741,"lon":139.134896},{"name":"神津島村子ども家庭支援センター","province":"東京都","city":"神津島村","address":"神津島村902はまゆう保育園内","lat":34.20589,"lon":139.13522},{"name":"神津島村子ども家庭支援センター","province":"東京都","city":"神津島村","address":"神津島村902はまゆう保育園内","lat":34.205741,"lon":139.134896},{"name":"神津島村子ども家庭支援センター","province":"東京都","city":"神津島村","address":"神津島村902はまゆう保育園内","lat":34.20589,"lon":139.13522},{"name":"神津島村子ども家庭支援センター","province":"東京都","city":"神津島村","address":"神津島村902はまゆう保育園内","lat":34.205741,"lon":139.134896},{"name":"神津島村子ども家庭支援センター","province":"東京都","city":"神津島村","address":"神津島村902はまゆう保育園内","lat":34.20589,"lon":139.13522}]}