{"keyword":"男女","data":[{"name":"神津島村立はまゆう保育園","province":"東京都","city":"神津島村","address":"神津島村902番地","lat":34.205741,"lon":139.134896},{"name":"島しょ保健所大島出張所神津島支所","province":"東京都","city":"神津島村","address":"神津島村1088","lat":34.204652,"lon":139.136305},{"name":"神津島村保健センター","province":"東京都","city":"神津島村","address":"神津島村1009-1","lat":34.204719,"lon":139.135558},{"name":"神津島前浜園地","province":"東京都","city":"神津島村","address":"東京都神津島村","lat":34.202029,"lon":139.13313},{"name":"神津島前浜園地","province":"東京都","city":"神津島村","address":"東京都神津島村","lat":34.202014,"lon":139.13311},{"name":"神津島村沢尻園地","province":"東京都","city":"神津島村","address":"東京都神津島村字高嶺","lat":34.216757,"lon":139.133355},{"name":"神津島村長浜園地","province":"東京都","city":"神津島村","address":"東京都神津島村字長浜","lat":34.228081,"lon":139.137846},{"name":"三浦漁港便所","province":"東京都","city":"神津島村","address":"東京都神津島村字榎木が沢","lat":34.200618,"lon":139.152874},{"name":"赤崎公衆トイレ","province":"東京都","city":"神津島村","address":"東京都神津島村字神戸山","lat":34.239976,"lon":139.137718},{"name":"神津島村立はまゆう保育園","province":"東京都","city":"神津島村","address":"神津島村902番地","lat":34.20589,"lon":139.13522},{"name":"島しょ保健所大島出張所神津島支所","province":"東京都","city":"神津島村","address":"神津島村1088","lat":34.20439,"lon":139.13647},{"name":"神津島村役場福祉課","province":"東京都","city":"神津島村","address":"神津島村904","lat":34.205669,"lon":139.134155},{"name":"神津島村地域包括支援センター","province":"東京都","city":"神津島村","address":"神津島村字沢尻11-1","lat":34.21703,"lon":139.135941},{"name":"島しょ保健所大島出張所神津島支所","province":"東京都","city":"神津島村","address":"神津島村1088","lat":34.20439,"lon":139.13648},{"name":"神津島村火葬場","province":"東京都","city":"神津島村","address":"東京都神津島村金長（字）","lat":34.19009808,"lon":139.13493004},{"name":"便所","province":"東京都","city":"神津島村","address":"東京都神津島村天上山（字）","lat":34.22114257,"lon":139.15756865},{"name":"神津島阿波命神社境域","province":"東京都","city":"神津島村","address":"東京都神津島村","lat":34.20526867,"lon":139.13425768},{"name":"物忌奈命神社本殿拝殿","province":"東京都","city":"神津島村","address":"東京都神津島村","lat":34.20526867,"lon":139.13425768},{"name":"延命山涛響寺本堂","province":"東京都","city":"神津島村","address":"東京都神津島村","lat":34.20526867,"lon":139.13425768},{"name":"庵屋霊場","province":"東京都","city":"神津島村","address":"東京都神津島村","lat":34.20526867,"lon":139.13425768},{"name":"秩父霊場","province":"東京都","city":"神津島村","address":"東京都神津島村","lat":34.20526867,"lon":139.13425768},{"name":"物忌奈命神社御神体","province":"東京都","city":"神津島村","address":"東京都神津島村","lat":34.20526867,"lon":139.13425768},{"name":"物忌奈命神社薬王殿","province":"東京都","city":"神津島村","address":"東京都神津島村","lat":34.20526867,"lon":139.13425768},{"name":"流人墓地","province":"東京都","city":"神津島村","address":"東京都神津島村","lat":34.20526867,"lon":139.13425768},{"name":"高根山霊場","province":"東京都","city":"神津島村","address":"東京都神津島村","lat":34.20526867,"lon":139.13425768},{"name":"続堂霊場","province":"東京都","city":"神津島村","address":"東京都神津島村","lat":34.20526867,"lon":139.13425768},{"name":"観音霊場","province":"東京都","city":"神津島村","address":"東京都神津島村","lat":34.20526867,"lon":139.13425768},{"name":"神津島臨時ヘリポート","province":"東京都","city":"神津島村","address":"東京都神津島村","lat":34.20526867,"lon":139.13425768},{"name":"＊?神津島村郷土資料館","province":"東京都","city":"神津島村","address":"神津島村118","lat":34.20809,"lon":139.135829},{"name":"神津島村開発総合センター","province":"東京都","city":"神津島村","address":"神津島村1761","lat":34.200323,"lon":139.13446},{"name":"神津島村清掃センター","province":"東京都","city":"神津島村","address":"東京都神津島村字鍛治山","lat":34.21719,"lon":139.140686},{"name":"神津島村役場福祉課","province":"東京都","city":"神津島村","address":"神津島村904","lat":34.205669,"lon":139.134155},{"name":"神津島村地域包括支援センター","province":"東京都","city":"神津島村","address":"神津島村字沢尻11-1","lat":34.21703,"lon":139.135941},{"name":"便所","province":"東京都","city":"神津島村","address":"東京都神津島村天上山（字）","lat":34.22114257,"lon":139.15756865},{"name":"＊?神津島村郷土資料館","province":"東京都","city":"神津島村","address":"神津島村118","lat":34.20809,"lon":139.135829},{"name":"神津島村開発総合センター","province":"東京都","city":"神津島村","address":"神津島村1761","lat":34.200323,"lon":139.13446},{"name":"神津島村清掃センター","province":"東京都","city":"神津島村","address":"東京都神津島村字鍛治山","lat":34.21719,"lon":139.140686},{"name":"神津島村役場福祉課","province":"東京都","city":"神津島村","address":"神津島村904","lat":34.205669,"lon":139.134155},{"name":"神津島村地域包括支援センター","province":"東京都","city":"神津島村","address":"神津島村字沢尻11-1","lat":34.21703,"lon":139.135941},{"name":"便所","province":"東京都","city":"神津島村","address":"東京都神津島村天上山（字）","lat":34.22114257,"lon":139.15756865},{"name":"＊?神津島村郷土資料館","province":"東京都","city":"神津島村","address":"神津島村118","lat":34.20809,"lon":139.135829},{"name":"神津島村開発総合センター","province":"東京都","city":"神津島村","address":"神津島村1761","lat":34.200323,"lon":139.13446},{"name":"神津島村清掃センター","province":"東京都","city":"神津島村","address":"東京都神津島村字鍛治山","lat":34.21719,"lon":139.140686},{"name":"便所","province":"東京都","city":"神津島村","address":"東京都神津島村天上山（字）","lat":34.22114257,"lon":139.15756865},{"name":"＊?神津島村郷土資料館","province":"東京都","city":"神津島村","address":"神津島村118","lat":34.20809,"lon":139.135829},{"name":"神津島村開発総合センター","province":"東京都","city":"神津島村","address":"神津島村1761","lat":34.200323,"lon":139.13446},{"name":"神津島村清掃センター","province":"東京都","city":"神津島村","address":"東京都神津島村字鍛治山","lat":34.21719,"lon":139.140686},{"name":"便所","province":"東京都","city":"神津島村","address":"東京都神津島村天上山（字）","lat":34.22114257,"lon":139.15756865},{"name":"＊?神津島村郷土資料館","province":"東京都","city":"神津島村","address":"神津島村118","lat":34.20809,"lon":139.135829},{"name":"神津島村開発総合センター","province":"東京都","city":"神津島村","address":"神津島村1761","lat":34.200323,"lon":139.13446},{"name":"神津島村清掃センター","province":"東京都","city":"神津島村","address":"東京都神津島村字鍛治山","lat":34.21719,"lon":139.140686},{"name":"神津島村開発総合センター","province":"東京都","city":"神津島村","address":"神津島村1761","lat":34.200323,"lon":139.13446},{"name":"神津島村清掃センター","province":"東京都","city":"神津島村","address":"東京都神津島村字鍛治山","lat":34.21719,"lon":139.140686},{"name":"神津島村清掃センター","province":"東京都","city":"神津島村","address":"東京都神津島村字鍛治山","lat":34.21719,"lon":139.140686},{"name":"神津島村清掃センター","province":"東京都","city":"神津島村","address":"東京都神津島村字鍛治山","lat":34.21719,"lon":139.140686},{"name":"神津島村清掃センター","province":"東京都","city":"神津島村","address":"東京都神津島村字鍛治山","lat":34.21719,"lon":139.140686},{"name":"神津島村清掃センター","province":"東京都","city":"神津島村","address":"東京都神津島村字鍛治山","lat":34.21719,"lon":139.140686},{"name":"神津島村清掃センター","province":"東京都","city":"神津島村","address":"東京都神津島村字鍛治山","lat":34.21719,"lon":139.140686},{"name":"神津島村清掃センター","province":"東京都","city":"神津島村","address":"東京都神津島村字鍛治山","lat":34.21719,"lon":139.140686},{"name":"神津島村清掃センター","province":"東京都","city":"神津島村","address":"東京都神津島村字鍛治山","lat":34.21719,"lon":139.140686},{"name":"神津島村清掃センター","province":"東京都","city":"神津島村","address":"東京都神津島村字鍛治山","lat":34.21719,"lon":139.140686},{"name":"神津島村清掃センター","province":"東京都","city":"神津島村","address":"東京都神津島村字鍛治山","lat":34.21719,"lon":139.140686},{"name":"神津島村清掃センター","province":"東京都","city":"神津島村","address":"東京都神津島村字鍛治山","lat":34.21719,"lon":139.140686},{"name":"神津島村清掃センター","province":"東京都","city":"神津島村","address":"東京都神津島村字鍛治山","lat":34.21719,"lon":139.140686},{"name":"神津島村清掃センター","province":"東京都","city":"神津島村","address":"東京都神津島村字鍛治山","lat":34.21719,"lon":139.140686},{"name":"神津島村清掃センター","province":"東京都","city":"神津島村","address":"東京都神津島村字鍛治山","lat":34.21719,"lon":139.140686},{"name":"神津島村清掃センター","province":"東京都","city":"神津島村","address":"東京都神津島村字鍛治山","lat":34.21719,"lon":139.140686},{"name":"神津島村清掃センター","province":"東京都","city":"神津島村","address":"東京都神津島村字鍛治山","lat":34.21719,"lon":139.140686},{"name":"神津島村清掃センター","province":"東京都","city":"神津島村","address":"東京都神津島村字鍛治山","lat":34.21719,"lon":139.140686},{"name":"神津島村清掃センター","province":"東京都","city":"神津島村","address":"東京都神津島村字鍛治山","lat":34.21719,"lon":139.140686},{"name":"神津島村清掃センター","province":"東京都","city":"神津島村","address":"東京都神津島村字鍛治山","lat":34.21719,"lon":139.140686},{"name":"神津島村清掃センター","province":"東京都","city":"神津島村","address":"東京都神津島村字鍛治山","lat":34.21719,"lon":139.140686},{"name":"神津島村清掃センター","province":"東京都","city":"神津島村","address":"東京都神津島村字鍛治山","lat":34.21719,"lon":139.140686},{"name":"神津島村清掃センター","province":"東京都","city":"神津島村","address":"東京都神津島村字鍛治山","lat":34.21719,"lon":139.140686},{"name":"神津島村清掃センター","province":"東京都","city":"神津島村","address":"東京都神津島村字鍛治山","lat":34.21719,"lon":139.140686},{"name":"神津島村清掃センター","province":"東京都","city":"神津島村","address":"東京都神津島村字鍛治山","lat":34.21719,"lon":139.140686},{"name":"神津島村清掃センター","province":"東京都","city":"神津島村","address":"東京都神津島村字鍛治山","lat":34.21719,"lon":139.140686},{"name":"神津島村清掃センター","province":"東京都","city":"神津島村","address":"東京都神津島村字鍛治山","lat":34.21719,"lon":139.140686},{"name":"神津島村清掃センター","province":"東京都","city":"神津島村","address":"東京都神津島村字鍛治山","lat":34.21719,"lon":139.140686},{"name":"神津島村清掃センター","province":"東京都","city":"神津島村","address":"東京都神津島村字鍛治山","lat":34.21719,"lon":139.140686},{"name":"神津島村清掃センター","province":"東京都","city":"神津島村","address":"東京都神津島村字鍛治山","lat":34.21719,"lon":139.140686},{"name":"神津島村清掃センター","province":"東京都","city":"神津島村","address":"東京都神津島村字鍛治山","lat":34.21719,"lon":139.140686},{"name":"神津島村清掃センター","province":"東京都","city":"神津島村","address":"東京都神津島村字鍛治山","lat":34.21719,"lon":139.140686}]}