{"keyword":"管","data":[{"name":"神津島阿波命神社境域","province":"東京都","city":"神津島村","address":"東京都神津島村","lat":34.20526867,"lon":139.13425768},{"name":"物忌奈命神社本殿拝殿","province":"東京都","city":"神津島村","address":"東京都神津島村","lat":34.20526867,"lon":139.13425768},{"name":"延命山涛響寺本堂","province":"東京都","city":"神津島村","address":"東京都神津島村","lat":34.20526867,"lon":139.13425768},{"name":"庵屋霊場","province":"東京都","city":"神津島村","address":"東京都神津島村","lat":34.20526867,"lon":139.13425768},{"name":"秩父霊場","province":"東京都","city":"神津島村","address":"東京都神津島村","lat":34.20526867,"lon":139.13425768},{"name":"物忌奈命神社御神体","province":"東京都","city":"神津島村","address":"東京都神津島村","lat":34.20526867,"lon":139.13425768},{"name":"物忌奈命神社薬王殿","province":"東京都","city":"神津島村","address":"東京都神津島村","lat":34.20526867,"lon":139.13425768},{"name":"流人墓地","province":"東京都","city":"神津島村","address":"東京都神津島村","lat":34.20526867,"lon":139.13425768},{"name":"高根山霊場","province":"東京都","city":"神津島村","address":"東京都神津島村","lat":34.20526867,"lon":139.13425768},{"name":"続堂霊場","province":"東京都","city":"神津島村","address":"東京都神津島村","lat":34.20526867,"lon":139.13425768},{"name":"観音霊場","province":"東京都","city":"神津島村","address":"東京都神津島村","lat":34.20526867,"lon":139.13425768}]}