{"keyword":"週","data":[{"name":"神津島村社会福祉協議会","province":"東京都","city":"神津島村","address":"神津島村903","lat":34.205846,"lon":139.134447},{"name":"神津島村社会福祉協議会","province":"東京都","city":"神津島村","address":"神津島村903神津島村生きがい健康センター内","lat":34.20589,"lon":139.13522},{"name":"神津島村火葬場","province":"東京都","city":"神津島村","address":"東京都神津島村金長（字）","lat":34.19009808,"lon":139.13493004},{"name":"便所","province":"東京都","city":"神津島村","address":"東京都神津島村天上山（字）","lat":34.22114257,"lon":139.15756865},{"name":"神津島阿波命神社境域","province":"東京都","city":"神津島村","address":"東京都神津島村","lat":34.20526867,"lon":139.13425768},{"name":"物忌奈命神社本殿拝殿","province":"東京都","city":"神津島村","address":"東京都神津島村","lat":34.20526867,"lon":139.13425768},{"name":"延命山涛響寺本堂","province":"東京都","city":"神津島村","address":"東京都神津島村","lat":34.20526867,"lon":139.13425768},{"name":"庵屋霊場","province":"東京都","city":"神津島村","address":"東京都神津島村","lat":34.20526867,"lon":139.13425768},{"name":"秩父霊場","province":"東京都","city":"神津島村","address":"東京都神津島村","lat":34.20526867,"lon":139.13425768},{"name":"物忌奈命神社御神体","province":"東京都","city":"神津島村","address":"東京都神津島村","lat":34.20526867,"lon":139.13425768},{"name":"物忌奈命神社薬王殿","province":"東京都","city":"神津島村","address":"東京都神津島村","lat":34.20526867,"lon":139.13425768},{"name":"流人墓地","province":"東京都","city":"神津島村","address":"東京都神津島村","lat":34.20526867,"lon":139.13425768},{"name":"高根山霊場","province":"東京都","city":"神津島村","address":"東京都神津島村","lat":34.20526867,"lon":139.13425768},{"name":"続堂霊場","province":"東京都","city":"神津島村","address":"東京都神津島村","lat":34.20526867,"lon":139.13425768},{"name":"観音霊場","province":"東京都","city":"神津島村","address":"東京都神津島村","lat":34.20526867,"lon":139.13425768},{"name":"神津島臨時ヘリポート","province":"東京都","city":"神津島村","address":"東京都神津島村","lat":34.20526867,"lon":139.13425768},{"name":"＊?神津島村郷土資料館","province":"東京都","city":"神津島村","address":"神津島村118","lat":34.20809,"lon":139.135829},{"name":"＊?神津島村図書館","province":"東京都","city":"神津島村","address":"神津島村974","lat":34.205111,"lon":139.13935},{"name":"神津島村社会福祉協議会","province":"東京都","city":"神津島村","address":"神津島村903","lat":34.205846,"lon":139.134447},{"name":"神津島村社会福祉協議会","province":"東京都","city":"神津島村","address":"神津島村903神津島村生きがい健康センター内","lat":34.20589,"lon":139.13522},{"name":"神津島村火葬場","province":"東京都","city":"神津島村","address":"東京都神津島村金長（字）","lat":34.19009808,"lon":139.13493004},{"name":"便所","province":"東京都","city":"神津島村","address":"東京都神津島村天上山（字）","lat":34.22114257,"lon":139.15756865},{"name":"神津島阿波命神社境域","province":"東京都","city":"神津島村","address":"東京都神津島村","lat":34.20526867,"lon":139.13425768},{"name":"物忌奈命神社本殿拝殿","province":"東京都","city":"神津島村","address":"東京都神津島村","lat":34.20526867,"lon":139.13425768},{"name":"延命山涛響寺本堂","province":"東京都","city":"神津島村","address":"東京都神津島村","lat":34.20526867,"lon":139.13425768},{"name":"庵屋霊場","province":"東京都","city":"神津島村","address":"東京都神津島村","lat":34.20526867,"lon":139.13425768},{"name":"秩父霊場","province":"東京都","city":"神津島村","address":"東京都神津島村","lat":34.20526867,"lon":139.13425768},{"name":"物忌奈命神社御神体","province":"東京都","city":"神津島村","address":"東京都神津島村","lat":34.20526867,"lon":139.13425768},{"name":"物忌奈命神社薬王殿","province":"東京都","city":"神津島村","address":"東京都神津島村","lat":34.20526867,"lon":139.13425768},{"name":"流人墓地","province":"東京都","city":"神津島村","address":"東京都神津島村","lat":34.20526867,"lon":139.13425768},{"name":"高根山霊場","province":"東京都","city":"神津島村","address":"東京都神津島村","lat":34.20526867,"lon":139.13425768},{"name":"続堂霊場","province":"東京都","city":"神津島村","address":"東京都神津島村","lat":34.20526867,"lon":139.13425768},{"name":"観音霊場","province":"東京都","city":"神津島村","address":"東京都神津島村","lat":34.20526867,"lon":139.13425768},{"name":"＊?神津島村郷土資料館","province":"東京都","city":"神津島村","address":"神津島村118","lat":34.20809,"lon":139.135829},{"name":"＊?神津島村図書館","province":"東京都","city":"神津島村","address":"神津島村974","lat":34.205111,"lon":139.13935},{"name":"神津島村社会福祉協議会","province":"東京都","city":"神津島村","address":"神津島村903","lat":34.205846,"lon":139.134447},{"name":"神津島村社会福祉協議会","province":"東京都","city":"神津島村","address":"神津島村903神津島村生きがい健康センター内","lat":34.20589,"lon":139.13522},{"name":"便所","province":"東京都","city":"神津島村","address":"東京都神津島村天上山（字）","lat":34.22114257,"lon":139.15756865},{"name":"神津島阿波命神社境域","province":"東京都","city":"神津島村","address":"東京都神津島村","lat":34.20526867,"lon":139.13425768},{"name":"物忌奈命神社本殿拝殿","province":"東京都","city":"神津島村","address":"東京都神津島村","lat":34.20526867,"lon":139.13425768},{"name":"延命山涛響寺本堂","province":"東京都","city":"神津島村","address":"東京都神津島村","lat":34.20526867,"lon":139.13425768},{"name":"庵屋霊場","province":"東京都","city":"神津島村","address":"東京都神津島村","lat":34.20526867,"lon":139.13425768},{"name":"秩父霊場","province":"東京都","city":"神津島村","address":"東京都神津島村","lat":34.20526867,"lon":139.13425768},{"name":"物忌奈命神社御神体","province":"東京都","city":"神津島村","address":"東京都神津島村","lat":34.20526867,"lon":139.13425768},{"name":"物忌奈命神社薬王殿","province":"東京都","city":"神津島村","address":"東京都神津島村","lat":34.20526867,"lon":139.13425768},{"name":"流人墓地","province":"東京都","city":"神津島村","address":"東京都神津島村","lat":34.20526867,"lon":139.13425768},{"name":"高根山霊場","province":"東京都","city":"神津島村","address":"東京都神津島村","lat":34.20526867,"lon":139.13425768},{"name":"続堂霊場","province":"東京都","city":"神津島村","address":"東京都神津島村","lat":34.20526867,"lon":139.13425768},{"name":"観音霊場","province":"東京都","city":"神津島村","address":"東京都神津島村","lat":34.20526867,"lon":139.13425768},{"name":"＊?神津島村郷土資料館","province":"東京都","city":"神津島村","address":"神津島村118","lat":34.20809,"lon":139.135829},{"name":"＊?神津島村図書館","province":"東京都","city":"神津島村","address":"神津島村974","lat":34.205111,"lon":139.13935},{"name":"神津島村社会福祉協議会","province":"東京都","city":"神津島村","address":"神津島村903","lat":34.205846,"lon":139.134447},{"name":"神津島村社会福祉協議会","province":"東京都","city":"神津島村","address":"神津島村903神津島村生きがい健康センター内","lat":34.20589,"lon":139.13522},{"name":"便所","province":"東京都","city":"神津島村","address":"東京都神津島村天上山（字）","lat":34.22114257,"lon":139.15756865},{"name":"神津島阿波命神社境域","province":"東京都","city":"神津島村","address":"東京都神津島村","lat":34.20526867,"lon":139.13425768},{"name":"物忌奈命神社本殿拝殿","province":"東京都","city":"神津島村","address":"東京都神津島村","lat":34.20526867,"lon":139.13425768},{"name":"延命山涛響寺本堂","province":"東京都","city":"神津島村","address":"東京都神津島村","lat":34.20526867,"lon":139.13425768},{"name":"庵屋霊場","province":"東京都","city":"神津島村","address":"東京都神津島村","lat":34.20526867,"lon":139.13425768},{"name":"秩父霊場","province":"東京都","city":"神津島村","address":"東京都神津島村","lat":34.20526867,"lon":139.13425768},{"name":"物忌奈命神社御神体","province":"東京都","city":"神津島村","address":"東京都神津島村","lat":34.20526867,"lon":139.13425768},{"name":"物忌奈命神社薬王殿","province":"東京都","city":"神津島村","address":"東京都神津島村","lat":34.20526867,"lon":139.13425768},{"name":"流人墓地","province":"東京都","city":"神津島村","address":"東京都神津島村","lat":34.20526867,"lon":139.13425768},{"name":"高根山霊場","province":"東京都","city":"神津島村","address":"東京都神津島村","lat":34.20526867,"lon":139.13425768},{"name":"続堂霊場","province":"東京都","city":"神津島村","address":"東京都神津島村","lat":34.20526867,"lon":139.13425768},{"name":"観音霊場","province":"東京都","city":"神津島村","address":"東京都神津島村","lat":34.20526867,"lon":139.13425768},{"name":"＊?神津島村郷土資料館","province":"東京都","city":"神津島村","address":"神津島村118","lat":34.20809,"lon":139.135829},{"name":"＊?神津島村図書館","province":"東京都","city":"神津島村","address":"神津島村974","lat":34.205111,"lon":139.13935},{"name":"便所","province":"東京都","city":"神津島村","address":"東京都神津島村天上山（字）","lat":34.22114257,"lon":139.15756865},{"name":"神津島阿波命神社境域","province":"東京都","city":"神津島村","address":"東京都神津島村","lat":34.20526867,"lon":139.13425768},{"name":"物忌奈命神社本殿拝殿","province":"東京都","city":"神津島村","address":"東京都神津島村","lat":34.20526867,"lon":139.13425768},{"name":"延命山涛響寺本堂","province":"東京都","city":"神津島村","address":"東京都神津島村","lat":34.20526867,"lon":139.13425768},{"name":"庵屋霊場","province":"東京都","city":"神津島村","address":"東京都神津島村","lat":34.20526867,"lon":139.13425768},{"name":"秩父霊場","province":"東京都","city":"神津島村","address":"東京都神津島村","lat":34.20526867,"lon":139.13425768},{"name":"物忌奈命神社御神体","province":"東京都","city":"神津島村","address":"東京都神津島村","lat":34.20526867,"lon":139.13425768},{"name":"物忌奈命神社薬王殿","province":"東京都","city":"神津島村","address":"東京都神津島村","lat":34.20526867,"lon":139.13425768},{"name":"流人墓地","province":"東京都","city":"神津島村","address":"東京都神津島村","lat":34.20526867,"lon":139.13425768},{"name":"高根山霊場","province":"東京都","city":"神津島村","address":"東京都神津島村","lat":34.20526867,"lon":139.13425768},{"name":"続堂霊場","province":"東京都","city":"神津島村","address":"東京都神津島村","lat":34.20526867,"lon":139.13425768},{"name":"観音霊場","province":"東京都","city":"神津島村","address":"東京都神津島村","lat":34.20526867,"lon":139.13425768},{"name":"＊?神津島村郷土資料館","province":"東京都","city":"神津島村","address":"神津島村118","lat":34.20809,"lon":139.135829},{"name":"＊?神津島村図書館","province":"東京都","city":"神津島村","address":"神津島村974","lat":34.205111,"lon":139.13935},{"name":"便所","province":"東京都","city":"神津島村","address":"東京都神津島村天上山（字）","lat":34.22114257,"lon":139.15756865},{"name":"神津島阿波命神社境域","province":"東京都","city":"神津島村","address":"東京都神津島村","lat":34.20526867,"lon":139.13425768},{"name":"物忌奈命神社本殿拝殿","province":"東京都","city":"神津島村","address":"東京都神津島村","lat":34.20526867,"lon":139.13425768},{"name":"延命山涛響寺本堂","province":"東京都","city":"神津島村","address":"東京都神津島村","lat":34.20526867,"lon":139.13425768},{"name":"庵屋霊場","province":"東京都","city":"神津島村","address":"東京都神津島村","lat":34.20526867,"lon":139.13425768},{"name":"秩父霊場","province":"東京都","city":"神津島村","address":"東京都神津島村","lat":34.20526867,"lon":139.13425768},{"name":"物忌奈命神社御神体","province":"東京都","city":"神津島村","address":"東京都神津島村","lat":34.20526867,"lon":139.13425768},{"name":"物忌奈命神社薬王殿","province":"東京都","city":"神津島村","address":"東京都神津島村","lat":34.20526867,"lon":139.13425768},{"name":"流人墓地","province":"東京都","city":"神津島村","address":"東京都神津島村","lat":34.20526867,"lon":139.13425768},{"name":"高根山霊場","province":"東京都","city":"神津島村","address":"東京都神津島村","lat":34.20526867,"lon":139.13425768},{"name":"続堂霊場","province":"東京都","city":"神津島村","address":"東京都神津島村","lat":34.20526867,"lon":139.13425768},{"name":"観音霊場","province":"東京都","city":"神津島村","address":"東京都神津島村","lat":34.20526867,"lon":139.13425768},{"name":"＊?神津島村郷土資料館","province":"東京都","city":"神津島村","address":"神津島村118","lat":34.20809,"lon":139.135829},{"name":"＊?神津島村図書館","province":"東京都","city":"神津島村","address":"神津島村974","lat":34.205111,"lon":139.13935},{"name":"便所","province":"東京都","city":"神津島村","address":"東京都神津島村天上山（字）","lat":34.22114257,"lon":139.15756865},{"name":"神津島阿波命神社境域","province":"東京都","city":"神津島村","address":"東京都神津島村","lat":34.20526867,"lon":139.13425768},{"name":"物忌奈命神社本殿拝殿","province":"東京都","city":"神津島村","address":"東京都神津島村","lat":34.20526867,"lon":139.13425768},{"name":"延命山涛響寺本堂","province":"東京都","city":"神津島村","address":"東京都神津島村","lat":34.20526867,"lon":139.13425768},{"name":"庵屋霊場","province":"東京都","city":"神津島村","address":"東京都神津島村","lat":34.20526867,"lon":139.13425768},{"name":"秩父霊場","province":"東京都","city":"神津島村","address":"東京都神津島村","lat":34.20526867,"lon":139.13425768},{"name":"物忌奈命神社御神体","province":"東京都","city":"神津島村","address":"東京都神津島村","lat":34.20526867,"lon":139.13425768},{"name":"物忌奈命神社薬王殿","province":"東京都","city":"神津島村","address":"東京都神津島村","lat":34.20526867,"lon":139.13425768},{"name":"流人墓地","province":"東京都","city":"神津島村","address":"東京都神津島村","lat":34.20526867,"lon":139.13425768},{"name":"高根山霊場","province":"東京都","city":"神津島村","address":"東京都神津島村","lat":34.20526867,"lon":139.13425768},{"name":"続堂霊場","province":"東京都","city":"神津島村","address":"東京都神津島村","lat":34.20526867,"lon":139.13425768},{"name":"観音霊場","province":"東京都","city":"神津島村","address":"東京都神津島村","lat":34.20526867,"lon":139.13425768},{"name":"＊?神津島村郷土資料館","province":"東京都","city":"神津島村","address":"神津島村118","lat":34.20809,"lon":139.135829},{"name":"＊?神津島村図書館","province":"東京都","city":"神津島村","address":"神津島村974","lat":34.205111,"lon":139.13935},{"name":"便所","province":"東京都","city":"神津島村","address":"東京都神津島村天上山（字）","lat":34.22114257,"lon":139.15756865},{"name":"神津島阿波命神社境域","province":"東京都","city":"神津島村","address":"東京都神津島村","lat":34.20526867,"lon":139.13425768},{"name":"物忌奈命神社本殿拝殿","province":"東京都","city":"神津島村","address":"東京都神津島村","lat":34.20526867,"lon":139.13425768},{"name":"延命山涛響寺本堂","province":"東京都","city":"神津島村","address":"東京都神津島村","lat":34.20526867,"lon":139.13425768},{"name":"庵屋霊場","province":"東京都","city":"神津島村","address":"東京都神津島村","lat":34.20526867,"lon":139.13425768},{"name":"秩父霊場","province":"東京都","city":"神津島村","address":"東京都神津島村","lat":34.20526867,"lon":139.13425768},{"name":"物忌奈命神社御神体","province":"東京都","city":"神津島村","address":"東京都神津島村","lat":34.20526867,"lon":139.13425768},{"name":"物忌奈命神社薬王殿","province":"東京都","city":"神津島村","address":"東京都神津島村","lat":34.20526867,"lon":139.13425768},{"name":"流人墓地","province":"東京都","city":"神津島村","address":"東京都神津島村","lat":34.20526867,"lon":139.13425768},{"name":"高根山霊場","province":"東京都","city":"神津島村","address":"東京都神津島村","lat":34.20526867,"lon":139.13425768},{"name":"続堂霊場","province":"東京都","city":"神津島村","address":"東京都神津島村","lat":34.20526867,"lon":139.13425768},{"name":"観音霊場","province":"東京都","city":"神津島村","address":"東京都神津島村","lat":34.20526867,"lon":139.13425768},{"name":"＊?神津島村郷土資料館","province":"東京都","city":"神津島村","address":"神津島村118","lat":34.20809,"lon":139.135829},{"name":"＊?神津島村図書館","province":"東京都","city":"神津島村","address":"神津島村974","lat":34.205111,"lon":139.13935},{"name":"便所","province":"東京都","city":"神津島村","address":"東京都神津島村天上山（字）","lat":34.22114257,"lon":139.15756865},{"name":"神津島阿波命神社境域","province":"東京都","city":"神津島村","address":"東京都神津島村","lat":34.20526867,"lon":139.13425768},{"name":"物忌奈命神社本殿拝殿","province":"東京都","city":"神津島村","address":"東京都神津島村","lat":34.20526867,"lon":139.13425768},{"name":"延命山涛響寺本堂","province":"東京都","city":"神津島村","address":"東京都神津島村","lat":34.20526867,"lon":139.13425768},{"name":"庵屋霊場","province":"東京都","city":"神津島村","address":"東京都神津島村","lat":34.20526867,"lon":139.13425768},{"name":"秩父霊場","province":"東京都","city":"神津島村","address":"東京都神津島村","lat":34.20526867,"lon":139.13425768},{"name":"物忌奈命神社御神体","province":"東京都","city":"神津島村","address":"東京都神津島村","lat":34.20526867,"lon":139.13425768},{"name":"物忌奈命神社薬王殿","province":"東京都","city":"神津島村","address":"東京都神津島村","lat":34.20526867,"lon":139.13425768},{"name":"流人墓地","province":"東京都","city":"神津島村","address":"東京都神津島村","lat":34.20526867,"lon":139.13425768},{"name":"高根山霊場","province":"東京都","city":"神津島村","address":"東京都神津島村","lat":34.20526867,"lon":139.13425768},{"name":"続堂霊場","province":"東京都","city":"神津島村","address":"東京都神津島村","lat":34.20526867,"lon":139.13425768},{"name":"観音霊場","province":"東京都","city":"神津島村","address":"東京都神津島村","lat":34.20526867,"lon":139.13425768},{"name":"＊?神津島村郷土資料館","province":"東京都","city":"神津島村","address":"神津島村118","lat":34.20809,"lon":139.135829},{"name":"＊?神津島村図書館","province":"東京都","city":"神津島村","address":"神津島村974","lat":34.205111,"lon":139.13935},{"name":"便所","province":"東京都","city":"神津島村","address":"東京都神津島村天上山（字）","lat":34.22114257,"lon":139.15756865},{"name":"神津島阿波命神社境域","province":"東京都","city":"神津島村","address":"東京都神津島村","lat":34.20526867,"lon":139.13425768},{"name":"物忌奈命神社本殿拝殿","province":"東京都","city":"神津島村","address":"東京都神津島村","lat":34.20526867,"lon":139.13425768},{"name":"延命山涛響寺本堂","province":"東京都","city":"神津島村","address":"東京都神津島村","lat":34.20526867,"lon":139.13425768},{"name":"庵屋霊場","province":"東京都","city":"神津島村","address":"東京都神津島村","lat":34.20526867,"lon":139.13425768},{"name":"秩父霊場","province":"東京都","city":"神津島村","address":"東京都神津島村","lat":34.20526867,"lon":139.13425768},{"name":"物忌奈命神社御神体","province":"東京都","city":"神津島村","address":"東京都神津島村","lat":34.20526867,"lon":139.13425768},{"name":"物忌奈命神社薬王殿","province":"東京都","city":"神津島村","address":"東京都神津島村","lat":34.20526867,"lon":139.13425768},{"name":"流人墓地","province":"東京都","city":"神津島村","address":"東京都神津島村","lat":34.20526867,"lon":139.13425768},{"name":"高根山霊場","province":"東京都","city":"神津島村","address":"東京都神津島村","lat":34.20526867,"lon":139.13425768},{"name":"続堂霊場","province":"東京都","city":"神津島村","address":"東京都神津島村","lat":34.20526867,"lon":139.13425768},{"name":"観音霊場","province":"東京都","city":"神津島村","address":"東京都神津島村","lat":34.20526867,"lon":139.13425768},{"name":"＊?神津島村図書館","province":"東京都","city":"神津島村","address":"神津島村974","lat":34.205111,"lon":139.13935},{"name":"便所","province":"東京都","city":"神津島村","address":"東京都神津島村天上山（字）","lat":34.22114257,"lon":139.15756865},{"name":"神津島阿波命神社境域","province":"東京都","city":"神津島村","address":"東京都神津島村","lat":34.20526867,"lon":139.13425768},{"name":"物忌奈命神社本殿拝殿","province":"東京都","city":"神津島村","address":"東京都神津島村","lat":34.20526867,"lon":139.13425768},{"name":"延命山涛響寺本堂","province":"東京都","city":"神津島村","address":"東京都神津島村","lat":34.20526867,"lon":139.13425768},{"name":"庵屋霊場","province":"東京都","city":"神津島村","address":"東京都神津島村","lat":34.20526867,"lon":139.13425768},{"name":"秩父霊場","province":"東京都","city":"神津島村","address":"東京都神津島村","lat":34.20526867,"lon":139.13425768},{"name":"物忌奈命神社御神体","province":"東京都","city":"神津島村","address":"東京都神津島村","lat":34.20526867,"lon":139.13425768},{"name":"物忌奈命神社薬王殿","province":"東京都","city":"神津島村","address":"東京都神津島村","lat":34.20526867,"lon":139.13425768},{"name":"流人墓地","province":"東京都","city":"神津島村","address":"東京都神津島村","lat":34.20526867,"lon":139.13425768},{"name":"高根山霊場","province":"東京都","city":"神津島村","address":"東京都神津島村","lat":34.20526867,"lon":139.13425768},{"name":"続堂霊場","province":"東京都","city":"神津島村","address":"東京都神津島村","lat":34.20526867,"lon":139.13425768},{"name":"観音霊場","province":"東京都","city":"神津島村","address":"東京都神津島村","lat":34.20526867,"lon":139.13425768},{"name":"＊?神津島村図書館","province":"東京都","city":"神津島村","address":"神津島村974","lat":34.205111,"lon":139.13935},{"name":"便所","province":"東京都","city":"神津島村","address":"東京都神津島村天上山（字）","lat":34.22114257,"lon":139.15756865},{"name":"神津島阿波命神社境域","province":"東京都","city":"神津島村","address":"東京都神津島村","lat":34.20526867,"lon":139.13425768},{"name":"物忌奈命神社本殿拝殿","province":"東京都","city":"神津島村","address":"東京都神津島村","lat":34.20526867,"lon":139.13425768},{"name":"延命山涛響寺本堂","province":"東京都","city":"神津島村","address":"東京都神津島村","lat":34.20526867,"lon":139.13425768},{"name":"庵屋霊場","province":"東京都","city":"神津島村","address":"東京都神津島村","lat":34.20526867,"lon":139.13425768},{"name":"秩父霊場","province":"東京都","city":"神津島村","address":"東京都神津島村","lat":34.20526867,"lon":139.13425768},{"name":"物忌奈命神社御神体","province":"東京都","city":"神津島村","address":"東京都神津島村","lat":34.20526867,"lon":139.13425768},{"name":"物忌奈命神社薬王殿","province":"東京都","city":"神津島村","address":"東京都神津島村","lat":34.20526867,"lon":139.13425768},{"name":"流人墓地","province":"東京都","city":"神津島村","address":"東京都神津島村","lat":34.20526867,"lon":139.13425768},{"name":"高根山霊場","province":"東京都","city":"神津島村","address":"東京都神津島村","lat":34.20526867,"lon":139.13425768},{"name":"続堂霊場","province":"東京都","city":"神津島村","address":"東京都神津島村","lat":34.20526867,"lon":139.13425768},{"name":"観音霊場","province":"東京都","city":"神津島村","address":"東京都神津島村","lat":34.20526867,"lon":139.13425768},{"name":"＊?神津島村図書館","province":"東京都","city":"神津島村","address":"神津島村974","lat":34.205111,"lon":139.13935},{"name":"便所","province":"東京都","city":"神津島村","address":"東京都神津島村天上山（字）","lat":34.22114257,"lon":139.15756865},{"name":"＊?神津島村図書館","province":"東京都","city":"神津島村","address":"神津島村974","lat":34.205111,"lon":139.13935},{"name":"便所","province":"東京都","city":"神津島村","address":"東京都神津島村天上山（字）","lat":34.22114257,"lon":139.15756865},{"name":"＊?神津島村図書館","province":"東京都","city":"神津島村","address":"神津島村974","lat":34.205111,"lon":139.13935},{"name":"便所","province":"東京都","city":"神津島村","address":"東京都神津島村天上山（字）","lat":34.22114257,"lon":139.15756865},{"name":"＊?神津島村図書館","province":"東京都","city":"神津島村","address":"神津島村974","lat":34.205111,"lon":139.13935},{"name":"便所","province":"東京都","city":"神津島村","address":"東京都神津島村天上山（字）","lat":34.22114257,"lon":139.15756865},{"name":"＊?神津島村図書館","province":"東京都","city":"神津島村","address":"神津島村974","lat":34.205111,"lon":139.13935},{"name":"便所","province":"東京都","city":"神津島村","address":"東京都神津島村天上山（字）","lat":34.22114257,"lon":139.15756865},{"name":"＊?神津島村図書館","province":"東京都","city":"神津島村","address":"神津島村974","lat":34.205111,"lon":139.13935},{"name":"便所","province":"東京都","city":"神津島村","address":"東京都神津島村天上山（字）","lat":34.22114257,"lon":139.15756865},{"name":"＊?神津島村図書館","province":"東京都","city":"神津島村","address":"神津島村974","lat":34.205111,"lon":139.13935},{"name":"便所","province":"東京都","city":"神津島村","address":"東京都神津島村天上山（字）","lat":34.22114257,"lon":139.15756865},{"name":"＊?神津島村図書館","province":"東京都","city":"神津島村","address":"神津島村974","lat":34.205111,"lon":139.13935},{"name":"便所","province":"東京都","city":"神津島村","address":"東京都神津島村天上山（字）","lat":34.22114257,"lon":139.15756865},{"name":"＊?神津島村図書館","province":"東京都","city":"神津島村","address":"神津島村974","lat":34.205111,"lon":139.13935},{"name":"便所","province":"東京都","city":"神津島村","address":"東京都神津島村天上山（字）","lat":34.22114257,"lon":139.15756865},{"name":"＊?神津島村図書館","province":"東京都","city":"神津島村","address":"神津島村974","lat":34.205111,"lon":139.13935},{"name":"便所","province":"東京都","city":"神津島村","address":"東京都神津島村天上山（字）","lat":34.22114257,"lon":139.15756865},{"name":"＊?神津島村図書館","province":"東京都","city":"神津島村","address":"神津島村974","lat":34.205111,"lon":139.13935},{"name":"便所","province":"東京都","city":"神津島村","address":"東京都神津島村天上山（字）","lat":34.22114257,"lon":139.15756865},{"name":"＊?神津島村図書館","province":"東京都","city":"神津島村","address":"神津島村974","lat":34.205111,"lon":139.13935},{"name":"便所","province":"東京都","city":"神津島村","address":"東京都神津島村天上山（字）","lat":34.22114257,"lon":139.15756865},{"name":"＊?神津島村図書館","province":"東京都","city":"神津島村","address":"神津島村974","lat":34.205111,"lon":139.13935},{"name":"便所","province":"東京都","city":"神津島村","address":"東京都神津島村天上山（字）","lat":34.22114257,"lon":139.15756865},{"name":"＊?神津島村図書館","province":"東京都","city":"神津島村","address":"神津島村974","lat":34.205111,"lon":139.13935},{"name":"便所","province":"東京都","city":"神津島村","address":"東京都神津島村天上山（字）","lat":34.22114257,"lon":139.15756865},{"name":"＊?神津島村図書館","province":"東京都","city":"神津島村","address":"神津島村974","lat":34.205111,"lon":139.13935},{"name":"便所","province":"東京都","city":"神津島村","address":"東京都神津島村天上山（字）","lat":34.22114257,"lon":139.15756865},{"name":"＊?神津島村図書館","province":"東京都","city":"神津島村","address":"神津島村974","lat":34.205111,"lon":139.13935},{"name":"便所","province":"東京都","city":"神津島村","address":"東京都神津島村天上山（字）","lat":34.22114257,"lon":139.15756865},{"name":"＊?神津島村図書館","province":"東京都","city":"神津島村","address":"神津島村974","lat":34.205111,"lon":139.13935},{"name":"便所","province":"東京都","city":"神津島村","address":"東京都神津島村天上山（字）","lat":34.22114257,"lon":139.15756865},{"name":"＊?神津島村図書館","province":"東京都","city":"神津島村","address":"神津島村974","lat":34.205111,"lon":139.13935},{"name":"便所","province":"東京都","city":"神津島村","address":"東京都神津島村天上山（字）","lat":34.22114257,"lon":139.15756865},{"name":"＊?神津島村図書館","province":"東京都","city":"神津島村","address":"神津島村974","lat":34.205111,"lon":139.13935},{"name":"便所","province":"東京都","city":"神津島村","address":"東京都神津島村天上山（字）","lat":34.22114257,"lon":139.15756865},{"name":"＊?神津島村図書館","province":"東京都","city":"神津島村","address":"神津島村974","lat":34.205111,"lon":139.13935},{"name":"便所","province":"東京都","city":"神津島村","address":"東京都神津島村天上山（字）","lat":34.22114257,"lon":139.15756865},{"name":"＊?神津島村図書館","province":"東京都","city":"神津島村","address":"神津島村974","lat":34.205111,"lon":139.13935},{"name":"便所","province":"東京都","city":"神津島村","address":"東京都神津島村天上山（字）","lat":34.22114257,"lon":139.15756865},{"name":"＊?神津島村図書館","province":"東京都","city":"神津島村","address":"神津島村974","lat":34.205111,"lon":139.13935},{"name":"便所","province":"東京都","city":"神津島村","address":"東京都神津島村天上山（字）","lat":34.22114257,"lon":139.15756865},{"name":"＊?神津島村図書館","province":"東京都","city":"神津島村","address":"神津島村974","lat":34.205111,"lon":139.13935},{"name":"便所","province":"東京都","city":"神津島村","address":"東京都神津島村天上山（字）","lat":34.22114257,"lon":139.15756865},{"name":"＊?神津島村図書館","province":"東京都","city":"神津島村","address":"神津島村974","lat":34.205111,"lon":139.13935},{"name":"便所","province":"東京都","city":"神津島村","address":"東京都神津島村天上山（字）","lat":34.22114257,"lon":139.15756865},{"name":"＊?神津島村図書館","province":"東京都","city":"神津島村","address":"神津島村974","lat":34.205111,"lon":139.13935},{"name":"便所","province":"東京都","city":"神津島村","address":"東京都神津島村天上山（字）","lat":34.22114257,"lon":139.15756865},{"name":"＊?神津島村図書館","province":"東京都","city":"神津島村","address":"神津島村974","lat":34.205111,"lon":139.13935},{"name":"便所","province":"東京都","city":"神津島村","address":"東京都神津島村天上山（字）","lat":34.22114257,"lon":139.15756865},{"name":"＊?神津島村図書館","province":"東京都","city":"神津島村","address":"神津島村974","lat":34.205111,"lon":139.13935},{"name":"便所","province":"東京都","city":"神津島村","address":"東京都神津島村天上山（字）","lat":34.22114257,"lon":139.15756865},{"name":"＊?神津島村図書館","province":"東京都","city":"神津島村","address":"神津島村974","lat":34.205111,"lon":139.13935},{"name":"便所","province":"東京都","city":"神津島村","address":"東京都神津島村天上山（字）","lat":34.22114257,"lon":139.15756865},{"name":"＊?神津島村図書館","province":"東京都","city":"神津島村","address":"神津島村974","lat":34.205111,"lon":139.13935},{"name":"便所","province":"東京都","city":"神津島村","address":"東京都神津島村天上山（字）","lat":34.22114257,"lon":139.15756865},{"name":"＊?神津島村図書館","province":"東京都","city":"神津島村","address":"神津島村974","lat":34.205111,"lon":139.13935},{"name":"便所","province":"東京都","city":"神津島村","address":"東京都神津島村天上山（字）","lat":34.22114257,"lon":139.15756865},{"name":"＊?神津島村図書館","province":"東京都","city":"神津島村","address":"神津島村974","lat":34.205111,"lon":139.13935},{"name":"便所","province":"東京都","city":"神津島村","address":"東京都神津島村天上山（字）","lat":34.22114257,"lon":139.15756865},{"name":"＊?神津島村図書館","province":"東京都","city":"神津島村","address":"神津島村974","lat":34.205111,"lon":139.13935},{"name":"便所","province":"東京都","city":"神津島村","address":"東京都神津島村天上山（字）","lat":34.22114257,"lon":139.15756865},{"name":"＊?神津島村図書館","province":"東京都","city":"神津島村","address":"神津島村974","lat":34.205111,"lon":139.13935},{"name":"便所","province":"東京都","city":"神津島村","address":"東京都神津島村天上山（字）","lat":34.22114257,"lon":139.15756865},{"name":"＊?神津島村図書館","province":"東京都","city":"神津島村","address":"神津島村974","lat":34.205111,"lon":139.13935},{"name":"便所","province":"東京都","city":"神津島村","address":"東京都神津島村天上山（字）","lat":34.22114257,"lon":139.15756865},{"name":"＊?神津島村図書館","province":"東京都","city":"神津島村","address":"神津島村974","lat":34.205111,"lon":139.13935},{"name":"便所","province":"東京都","city":"神津島村","address":"東京都神津島村天上山（字）","lat":34.22114257,"lon":139.15756865},{"name":"＊?神津島村図書館","province":"東京都","city":"神津島村","address":"神津島村974","lat":34.205111,"lon":139.13935},{"name":"便所","province":"東京都","city":"神津島村","address":"東京都神津島村天上山（字）","lat":34.22114257,"lon":139.15756865},{"name":"＊?神津島村図書館","province":"東京都","city":"神津島村","address":"神津島村974","lat":34.205111,"lon":139.13935},{"name":"便所","province":"東京都","city":"神津島村","address":"東京都神津島村天上山（字）","lat":34.22114257,"lon":139.15756865},{"name":"＊?神津島村図書館","province":"東京都","city":"神津島村","address":"神津島村974","lat":34.205111,"lon":139.13935},{"name":"便所","province":"東京都","city":"神津島村","address":"東京都神津島村天上山（字）","lat":34.22114257,"lon":139.15756865},{"name":"＊?神津島村図書館","province":"東京都","city":"神津島村","address":"神津島村974","lat":34.205111,"lon":139.13935},{"name":"便所","province":"東京都","city":"神津島村","address":"東京都神津島村天上山（字）","lat":34.22114257,"lon":139.15756865},{"name":"＊?神津島村図書館","province":"東京都","city":"神津島村","address":"神津島村974","lat":34.205111,"lon":139.13935},{"name":"便所","province":"東京都","city":"神津島村","address":"東京都神津島村天上山（字）","lat":34.22114257,"lon":139.15756865},{"name":"＊?神津島村図書館","province":"東京都","city":"神津島村","address":"神津島村974","lat":34.205111,"lon":139.13935}]}