{"keyword":"ひろば","data":[{"name":"光が丘ぴよぴよ（ひろば室）","province":"東京都","city":"練馬区","address":"練馬区光が丘5-2-5-105","lat":35.75990041,"lon":139.6267944},{"name":"西大泉ぴよぴよ","province":"東京都","city":"練馬区","address":"練馬区西大泉1-27-10","lat":35.75456663,"lon":139.5713063},{"name":"練馬ぴよぴよ（ひろば室）","province":"東京都","city":"練馬区","address":"練馬区豊玉北5-18-12","lat":35.73704173,"lon":139.6543538},{"name":"関ぴよぴよ","province":"東京都","city":"練馬区","address":"練馬区関町北1-21-15","lat":35.72658744,"lon":139.5786593},{"name":"貫井ぴよぴよ","province":"東京都","city":"練馬区","address":"練馬区貫井3-25-15","lat":35.73721233,"lon":139.6273982},{"name":"大泉ぴよぴよ","province":"東京都","city":"練馬区","address":"練馬区東大泉5-35-1","lat":35.74746171,"lon":139.5898116},{"name":"北大泉児童館ぴよぴよ","province":"東京都","city":"練馬区","address":"練馬区大泉町4-15-15","lat":35.76279884,"lon":139.6002238},{"name":"光が丘児童館ぴよぴよ","province":"東京都","city":"練馬区","address":"練馬区光が丘1-3-1","lat":35.76764294,"lon":139.6390999},{"name":"立野地区区民館ぴよぴよ","province":"東京都","city":"練馬区","address":"練馬区立野町15-42","lat":35.71861768,"lon":139.5823075},{"name":"田柄地区区民館ぴよぴよ","province":"東京都","city":"練馬区","address":"練馬区田柄3-28-13","lat":35.7621941,"lon":139.6372434},{"name":"春日町南地区区民館ぴよぴよ","province":"東京都","city":"練馬区","address":"練馬区春日町5-20-25","lat":35.74772008,"lon":139.6385227},{"name":"両国子育てひろば","province":"東京都","city":"墨田区","address":"東京都墨田区横網1丁目2-13","lat":35.6978029,"lon":139.79244854},{"name":"文花子育てひろば","province":"東京都","city":"墨田区","address":"東京都墨田区横網1丁目2-13","lat":35.6978029,"lon":139.79244854},{"name":"両国子育てひろば保育室","province":"東京都","city":"墨田区","address":"東京都墨田区横網1丁目2-13","lat":35.6978029,"lon":139.79244854},{"name":"子育てひろば あっぴぃ港南四丁目","province":"東京都","city":"港区","address":"東京都港区港南四丁目2番4号都営住宅内","lat":35.630213,"lon":139.747604,"連絡先":"03-5796-8862","交通案内":""}]}