{"category":"wireless","data":[{"name":"東京都立多摩・小児総合医療センター","province":"東京都","city":"府中市","address":"東京都府中市武蔵台2丁目8-29","lat":35.69188402,"lon":139.46098088},{"name":"日華多磨葬祭場","province":"東京都","city":"府中市","address":"東京都府中市多磨町2丁目1-1","lat":35.681731,"lon":139.51697931},{"name":"府中の森市民聖苑","province":"東京都","city":"府中市","address":"東京都府中市浅間町1丁目3","lat":35.67765858,"lon":139.49128998},{"name":"府中武蔵台浄水所","province":"東京都","city":"府中市","address":"東京都府中市武蔵台2丁目7","lat":35.68899266,"lon":139.46004218},{"name":"府中南町浄水所","province":"東京都","city":"府中市","address":"東京都府中市南町1丁目50","lat":35.65857132,"lon":139.47090616},{"name":"都立武蔵野公園","province":"東京都","city":"府中市","address":"東京都府中市多磨町3丁目2","lat":35.68861916,"lon":139.51875946},{"name":"都立府中病院","province":"東京都","city":"府中市","address":"東京都府中市武蔵台2丁目9-2","lat":35.6920563,"lon":139.4641806},{"name":"多摩府中保健所","province":"東京都","city":"府中市","address":"東京都府中市美好町2丁目51-1","lat":35.6774275,"lon":139.46746696},{"name":"多摩職業能力開発センター府中校","province":"東京都","city":"府中市","address":"東京都府中市南町4丁目37-2","lat":35.65667142,"lon":139.46563446},{"name":"府中高等学校","province":"東京都","city":"府中市","address":"東京都府中市栄町3丁目3-1","lat":35.68738208,"lon":139.47445767},{"name":"府中西高等学校","province":"東京都","city":"府中市","address":"東京都府中市日新町4丁目6-7","lat":35.67198313,"lon":139.44669394},{"name":"府中東高等学校","province":"東京都","city":"府中市","address":"東京都府中市押立町4丁目21","lat":35.65608157,"lon":139.5158667},{"name":"農業高等学校","province":"東京都","city":"府中市","address":"東京都府中市寿町1丁目10-2","lat":35.6762279,"lon":139.47862997},{"name":"府中市役所北庁舎屋内駐車場","province":"東京都","city":"府中市","address":"東京都府中市宮西町2丁目24","lat":35.66907035,"lon":139.47727755},{"name":"府中市水防・防災ステーション","province":"東京都","city":"府中市","address":"東京都府中市小柳町6丁目1","lat":35.65723101,"lon":139.50668392}]}