{"keyword":"スモッグ","data":[{"name":"浅間山公園","province":"東京都","city":"府中市","address":"東京都府中市浅間町四丁目、若松町五丁目","lat":35.680157,"lon":139.500427},{"name":"府中の森公園","province":"東京都","city":"府中市","address":"東京都府中市浅間町一丁目・緑町二丁目・天神町二丁目","lat":35.676369,"lon":139.491872},{"name":"武蔵野の森公園","province":"東京都","city":"府中市","address":"東京都府中市朝日町三丁目、調布市西町、三鷹市大沢五・六丁目","lat":35.676093,"lon":139.522366},{"name":"府中武蔵台浄水所","province":"東京都","city":"府中市","address":"東京都府中市武蔵台2丁目7","lat":35.68899266,"lon":139.46004218},{"name":"府中南町浄水所","province":"東京都","city":"府中市","address":"東京都府中市南町1丁目50","lat":35.65857132,"lon":139.47090616},{"name":"都立武蔵野公園","province":"東京都","city":"府中市","address":"東京都府中市多磨町3丁目2","lat":35.68861916,"lon":139.51875946},{"name":"都立武蔵野の森公園朝日サッカー場","province":"東京都","city":"府中市","address":"東京都府中市朝日町3丁目","lat":35.6664691,"lon":139.5212629},{"name":"東京競馬場・日吉体育館駐車場","province":"東京都","city":"府中市","address":"東京都府中市八幡町3丁目11","lat":35.66652097,"lon":139.49086538},{"name":"東京競馬場","province":"東京都","city":"府中市","address":"東京都府中市日吉町1","lat":35.66537655,"lon":139.48689909},{"name":"稲城大橋河川敷","province":"東京都","city":"府中市","address":"東京都府中市押立町5丁目","lat":35.65279891,"lon":139.51860288},{"name":"関戸橋河川敷","province":"東京都","city":"府中市","address":"東京都府中市住吉町2丁目","lat":35.65711565,"lon":139.45856007},{"name":"府中市陸上競技場","province":"東京都","city":"府中市","address":"東京都府中市寿町2丁目20","lat":35.67664722,"lon":139.47528856},{"name":"都立多摩・小児総合医療センターヘリポート","province":"東京都","city":"府中市","address":"東京都府中市武蔵台2丁目8-29","lat":35.69188402,"lon":139.46098088},{"name":"郷土の森公園（是政緑地）","province":"東京都","city":"府中市","address":"東京都府中市是政6丁目","lat":35.656008,"lon":139.48189143},{"name":"都立府中の森公園サッカー場","province":"東京都","city":"府中市","address":"東京都府中市浅間町1丁目","lat":35.6770059,"lon":139.49241491},{"name":"(株)大久保  多摩古紙センター府中","province":"東京都","city":"府中市","address":"府中市美好町2-28-4","lat":35.674973,"lon":139.466843},{"name":"(株)小池商店  府中営業所","province":"東京都","city":"府中市","address":"府中市四谷6-56-1","lat":35.671955,"lon":139.432465},{"name":"(株)小池商店  第二工場","province":"東京都","city":"府中市","address":"府中市四谷6-34-7","lat":35.671684,"lon":139.432983},{"name":"浅間山公園","province":"東京都","city":"府中市","address":"東京都府中市浅間町四丁目、若松町五丁目","lat":35.680157,"lon":139.500427},{"name":"府中の森公園","province":"東京都","city":"府中市","address":"東京都府中市浅間町一丁目・緑町二丁目・天神町二丁目","lat":35.676369,"lon":139.491872},{"name":"武蔵野の森公園","province":"東京都","city":"府中市","address":"東京都府中市朝日町三丁目、調布市西町、三鷹市大沢五・六丁目","lat":35.676093,"lon":139.522366},{"name":"(株)大久保  多摩古紙センター府中","province":"東京都","city":"府中市","address":"府中市美好町2-28-4","lat":35.674973,"lon":139.466843},{"name":"(株)小池商店  府中営業所","province":"東京都","city":"府中市","address":"府中市四谷6-56-1","lat":35.671955,"lon":139.432465},{"name":"(株)小池商店  第二工場","province":"東京都","city":"府中市","address":"府中市四谷6-34-7","lat":35.671684,"lon":139.432983},{"name":"浅間山公園","province":"東京都","city":"府中市","address":"東京都府中市浅間町四丁目、若松町五丁目","lat":35.680157,"lon":139.500427},{"name":"府中の森公園","province":"東京都","city":"府中市","address":"東京都府中市浅間町一丁目・緑町二丁目・天神町二丁目","lat":35.676369,"lon":139.491872},{"name":"武蔵野の森公園","province":"東京都","city":"府中市","address":"東京都府中市朝日町三丁目、調布市西町、三鷹市大沢五・六丁目","lat":35.676093,"lon":139.522366},{"name":"(株)大久保  多摩古紙センター府中","province":"東京都","city":"府中市","address":"府中市美好町2-28-4","lat":35.674973,"lon":139.466843},{"name":"(株)小池商店  府中営業所","province":"東京都","city":"府中市","address":"府中市四谷6-56-1","lat":35.671955,"lon":139.432465},{"name":"(株)小池商店  第二工場","province":"東京都","city":"府中市","address":"府中市四谷6-34-7","lat":35.671684,"lon":139.432983},{"name":"浅間山公園","province":"東京都","city":"府中市","address":"東京都府中市浅間町四丁目、若松町五丁目","lat":35.680157,"lon":139.500427},{"name":"府中の森公園","province":"東京都","city":"府中市","address":"東京都府中市浅間町一丁目・緑町二丁目・天神町二丁目","lat":35.676369,"lon":139.491872},{"name":"武蔵野の森公園","province":"東京都","city":"府中市","address":"東京都府中市朝日町三丁目、調布市西町、三鷹市大沢五・六丁目","lat":35.676093,"lon":139.522366},{"name":"(株)大久保  多摩古紙センター府中","province":"東京都","city":"府中市","address":"府中市美好町2-28-4","lat":35.674973,"lon":139.466843},{"name":"(株)小池商店  府中営業所","province":"東京都","city":"府中市","address":"府中市四谷6-56-1","lat":35.671955,"lon":139.432465},{"name":"(株)小池商店  第二工場","province":"東京都","city":"府中市","address":"府中市四谷6-34-7","lat":35.671684,"lon":139.432983},{"name":"浅間山公園","province":"東京都","city":"府中市","address":"東京都府中市浅間町四丁目、若松町五丁目","lat":35.680157,"lon":139.500427},{"name":"府中の森公園","province":"東京都","city":"府中市","address":"東京都府中市浅間町一丁目・緑町二丁目・天神町二丁目","lat":35.676369,"lon":139.491872},{"name":"武蔵野の森公園","province":"東京都","city":"府中市","address":"東京都府中市朝日町三丁目、調布市西町、三鷹市大沢五・六丁目","lat":35.676093,"lon":139.522366},{"name":"(株)大久保  多摩古紙センター府中","province":"東京都","city":"府中市","address":"府中市美好町2-28-4","lat":35.674973,"lon":139.466843},{"name":"(株)小池商店  府中営業所","province":"東京都","city":"府中市","address":"府中市四谷6-56-1","lat":35.671955,"lon":139.432465},{"name":"(株)小池商店  第二工場","province":"東京都","city":"府中市","address":"府中市四谷6-34-7","lat":35.671684,"lon":139.432983},{"name":"浅間山公園","province":"東京都","city":"府中市","address":"東京都府中市浅間町四丁目、若松町五丁目","lat":35.680157,"lon":139.500427},{"name":"府中の森公園","province":"東京都","city":"府中市","address":"東京都府中市浅間町一丁目・緑町二丁目・天神町二丁目","lat":35.676369,"lon":139.491872},{"name":"武蔵野の森公園","province":"東京都","city":"府中市","address":"東京都府中市朝日町三丁目、調布市西町、三鷹市大沢五・六丁目","lat":35.676093,"lon":139.522366},{"name":"(株)大久保  多摩古紙センター府中","province":"東京都","city":"府中市","address":"府中市美好町2-28-4","lat":35.674973,"lon":139.466843},{"name":"(株)小池商店  府中営業所","province":"東京都","city":"府中市","address":"府中市四谷6-56-1","lat":35.671955,"lon":139.432465},{"name":"(株)小池商店  第二工場","province":"東京都","city":"府中市","address":"府中市四谷6-34-7","lat":35.671684,"lon":139.432983},{"name":"浅間山公園","province":"東京都","city":"府中市","address":"東京都府中市浅間町四丁目、若松町五丁目","lat":35.680157,"lon":139.500427},{"name":"府中の森公園","province":"東京都","city":"府中市","address":"東京都府中市浅間町一丁目・緑町二丁目・天神町二丁目","lat":35.676369,"lon":139.491872},{"name":"武蔵野の森公園","province":"東京都","city":"府中市","address":"東京都府中市朝日町三丁目、調布市西町、三鷹市大沢五・六丁目","lat":35.676093,"lon":139.522366},{"name":"(株)大久保  多摩古紙センター府中","province":"東京都","city":"府中市","address":"府中市美好町2-28-4","lat":35.674973,"lon":139.466843},{"name":"(株)小池商店  府中営業所","province":"東京都","city":"府中市","address":"府中市四谷6-56-1","lat":35.671955,"lon":139.432465},{"name":"(株)小池商店  第二工場","province":"東京都","city":"府中市","address":"府中市四谷6-34-7","lat":35.671684,"lon":139.432983},{"name":"浅間山公園","province":"東京都","city":"府中市","address":"東京都府中市浅間町四丁目、若松町五丁目","lat":35.680157,"lon":139.500427},{"name":"府中の森公園","province":"東京都","city":"府中市","address":"東京都府中市浅間町一丁目・緑町二丁目・天神町二丁目","lat":35.676369,"lon":139.491872},{"name":"武蔵野の森公園","province":"東京都","city":"府中市","address":"東京都府中市朝日町三丁目、調布市西町、三鷹市大沢五・六丁目","lat":35.676093,"lon":139.522366},{"name":"(株)大久保  多摩古紙センター府中","province":"東京都","city":"府中市","address":"府中市美好町2-28-4","lat":35.674973,"lon":139.466843},{"name":"(株)小池商店  府中営業所","province":"東京都","city":"府中市","address":"府中市四谷6-56-1","lat":35.671955,"lon":139.432465},{"name":"(株)小池商店  第二工場","province":"東京都","city":"府中市","address":"府中市四谷6-34-7","lat":35.671684,"lon":139.432983},{"name":"浅間山公園","province":"東京都","city":"府中市","address":"東京都府中市浅間町四丁目、若松町五丁目","lat":35.680157,"lon":139.500427},{"name":"府中の森公園","province":"東京都","city":"府中市","address":"東京都府中市浅間町一丁目・緑町二丁目・天神町二丁目","lat":35.676369,"lon":139.491872},{"name":"武蔵野の森公園","province":"東京都","city":"府中市","address":"東京都府中市朝日町三丁目、調布市西町、三鷹市大沢五・六丁目","lat":35.676093,"lon":139.522366},{"name":"(株)大久保  多摩古紙センター府中","province":"東京都","city":"府中市","address":"府中市美好町2-28-4","lat":35.674973,"lon":139.466843},{"name":"(株)小池商店  府中営業所","province":"東京都","city":"府中市","address":"府中市四谷6-56-1","lat":35.671955,"lon":139.432465},{"name":"(株)小池商店  第二工場","province":"東京都","city":"府中市","address":"府中市四谷6-34-7","lat":35.671684,"lon":139.432983},{"name":"浅間山公園","province":"東京都","city":"府中市","address":"東京都府中市浅間町四丁目、若松町五丁目","lat":35.680157,"lon":139.500427},{"name":"府中の森公園","province":"東京都","city":"府中市","address":"東京都府中市浅間町一丁目・緑町二丁目・天神町二丁目","lat":35.676369,"lon":139.491872},{"name":"武蔵野の森公園","province":"東京都","city":"府中市","address":"東京都府中市朝日町三丁目、調布市西町、三鷹市大沢五・六丁目","lat":35.676093,"lon":139.522366},{"name":"(株)大久保  多摩古紙センター府中","province":"東京都","city":"府中市","address":"府中市美好町2-28-4","lat":35.674973,"lon":139.466843},{"name":"(株)小池商店  府中営業所","province":"東京都","city":"府中市","address":"府中市四谷6-56-1","lat":35.671955,"lon":139.432465},{"name":"(株)小池商店  第二工場","province":"東京都","city":"府中市","address":"府中市四谷6-34-7","lat":35.671684,"lon":139.432983},{"name":"浅間山公園","province":"東京都","city":"府中市","address":"東京都府中市浅間町四丁目、若松町五丁目","lat":35.680157,"lon":139.500427},{"name":"府中の森公園","province":"東京都","city":"府中市","address":"東京都府中市浅間町一丁目・緑町二丁目・天神町二丁目","lat":35.676369,"lon":139.491872},{"name":"武蔵野の森公園","province":"東京都","city":"府中市","address":"東京都府中市朝日町三丁目、調布市西町、三鷹市大沢五・六丁目","lat":35.676093,"lon":139.522366},{"name":"(株)大久保  多摩古紙センター府中","province":"東京都","city":"府中市","address":"府中市美好町2-28-4","lat":35.674973,"lon":139.466843},{"name":"(株)小池商店  府中営業所","province":"東京都","city":"府中市","address":"府中市四谷6-56-1","lat":35.671955,"lon":139.432465},{"name":"(株)小池商店  第二工場","province":"東京都","city":"府中市","address":"府中市四谷6-34-7","lat":35.671684,"lon":139.432983},{"name":"浅間山公園","province":"東京都","city":"府中市","address":"東京都府中市浅間町四丁目、若松町五丁目","lat":35.680157,"lon":139.500427},{"name":"府中の森公園","province":"東京都","city":"府中市","address":"東京都府中市浅間町一丁目・緑町二丁目・天神町二丁目","lat":35.676369,"lon":139.491872},{"name":"武蔵野の森公園","province":"東京都","city":"府中市","address":"東京都府中市朝日町三丁目、調布市西町、三鷹市大沢五・六丁目","lat":35.676093,"lon":139.522366},{"name":"(株)大久保  多摩古紙センター府中","province":"東京都","city":"府中市","address":"府中市美好町2-28-4","lat":35.674973,"lon":139.466843},{"name":"(株)小池商店  府中営業所","province":"東京都","city":"府中市","address":"府中市四谷6-56-1","lat":35.671955,"lon":139.432465},{"name":"(株)小池商店  第二工場","province":"東京都","city":"府中市","address":"府中市四谷6-34-7","lat":35.671684,"lon":139.432983},{"name":"浅間山公園","province":"東京都","city":"府中市","address":"東京都府中市浅間町四丁目、若松町五丁目","lat":35.680157,"lon":139.500427},{"name":"府中の森公園","province":"東京都","city":"府中市","address":"東京都府中市浅間町一丁目・緑町二丁目・天神町二丁目","lat":35.676369,"lon":139.491872},{"name":"武蔵野の森公園","province":"東京都","city":"府中市","address":"東京都府中市朝日町三丁目、調布市西町、三鷹市大沢五・六丁目","lat":35.676093,"lon":139.522366},{"name":"(株)大久保  多摩古紙センター府中","province":"東京都","city":"府中市","address":"府中市美好町2-28-4","lat":35.674973,"lon":139.466843},{"name":"(株)小池商店  府中営業所","province":"東京都","city":"府中市","address":"府中市四谷6-56-1","lat":35.671955,"lon":139.432465},{"name":"(株)小池商店  第二工場","province":"東京都","city":"府中市","address":"府中市四谷6-34-7","lat":35.671684,"lon":139.432983},{"name":"浅間山公園","province":"東京都","city":"府中市","address":"東京都府中市浅間町四丁目、若松町五丁目","lat":35.680157,"lon":139.500427},{"name":"府中の森公園","province":"東京都","city":"府中市","address":"東京都府中市浅間町一丁目・緑町二丁目・天神町二丁目","lat":35.676369,"lon":139.491872},{"name":"武蔵野の森公園","province":"東京都","city":"府中市","address":"東京都府中市朝日町三丁目、調布市西町、三鷹市大沢五・六丁目","lat":35.676093,"lon":139.522366},{"name":"(株)大久保  多摩古紙センター府中","province":"東京都","city":"府中市","address":"府中市美好町2-28-4","lat":35.674973,"lon":139.466843},{"name":"(株)小池商店  府中営業所","province":"東京都","city":"府中市","address":"府中市四谷6-56-1","lat":35.671955,"lon":139.432465},{"name":"(株)小池商店  第二工場","province":"東京都","city":"府中市","address":"府中市四谷6-34-7","lat":35.671684,"lon":139.432983},{"name":"浅間山公園","province":"東京都","city":"府中市","address":"東京都府中市浅間町四丁目、若松町五丁目","lat":35.680157,"lon":139.500427},{"name":"府中の森公園","province":"東京都","city":"府中市","address":"東京都府中市浅間町一丁目・緑町二丁目・天神町二丁目","lat":35.676369,"lon":139.491872},{"name":"武蔵野の森公園","province":"東京都","city":"府中市","address":"東京都府中市朝日町三丁目、調布市西町、三鷹市大沢五・六丁目","lat":35.676093,"lon":139.522366},{"name":"(株)大久保  多摩古紙センター府中","province":"東京都","city":"府中市","address":"府中市美好町2-28-4","lat":35.674973,"lon":139.466843},{"name":"(株)小池商店  府中営業所","province":"東京都","city":"府中市","address":"府中市四谷6-56-1","lat":35.671955,"lon":139.432465},{"name":"(株)小池商店  第二工場","province":"東京都","city":"府中市","address":"府中市四谷6-34-7","lat":35.671684,"lon":139.432983},{"name":"浅間山公園","province":"東京都","city":"府中市","address":"東京都府中市浅間町四丁目、若松町五丁目","lat":35.680157,"lon":139.500427},{"name":"府中の森公園","province":"東京都","city":"府中市","address":"東京都府中市浅間町一丁目・緑町二丁目・天神町二丁目","lat":35.676369,"lon":139.491872},{"name":"武蔵野の森公園","province":"東京都","city":"府中市","address":"東京都府中市朝日町三丁目、調布市西町、三鷹市大沢五・六丁目","lat":35.676093,"lon":139.522366},{"name":"(株)大久保  多摩古紙センター府中","province":"東京都","city":"府中市","address":"府中市美好町2-28-4","lat":35.674973,"lon":139.466843},{"name":"(株)小池商店  府中営業所","province":"東京都","city":"府中市","address":"府中市四谷6-56-1","lat":35.671955,"lon":139.432465},{"name":"(株)小池商店  第二工場","province":"東京都","city":"府中市","address":"府中市四谷6-34-7","lat":35.671684,"lon":139.432983},{"name":"浅間山公園","province":"東京都","city":"府中市","address":"東京都府中市浅間町四丁目、若松町五丁目","lat":35.680157,"lon":139.500427},{"name":"府中の森公園","province":"東京都","city":"府中市","address":"東京都府中市浅間町一丁目・緑町二丁目・天神町二丁目","lat":35.676369,"lon":139.491872},{"name":"武蔵野の森公園","province":"東京都","city":"府中市","address":"東京都府中市朝日町三丁目、調布市西町、三鷹市大沢五・六丁目","lat":35.676093,"lon":139.522366},{"name":"(株)大久保  多摩古紙センター府中","province":"東京都","city":"府中市","address":"府中市美好町2-28-4","lat":35.674973,"lon":139.466843},{"name":"(株)小池商店  府中営業所","province":"東京都","city":"府中市","address":"府中市四谷6-56-1","lat":35.671955,"lon":139.432465},{"name":"(株)小池商店  第二工場","province":"東京都","city":"府中市","address":"府中市四谷6-34-7","lat":35.671684,"lon":139.432983},{"name":"浅間山公園","province":"東京都","city":"府中市","address":"東京都府中市浅間町四丁目、若松町五丁目","lat":35.680157,"lon":139.500427},{"name":"府中の森公園","province":"東京都","city":"府中市","address":"東京都府中市浅間町一丁目・緑町二丁目・天神町二丁目","lat":35.676369,"lon":139.491872},{"name":"武蔵野の森公園","province":"東京都","city":"府中市","address":"東京都府中市朝日町三丁目、調布市西町、三鷹市大沢五・六丁目","lat":35.676093,"lon":139.522366},{"name":"(株)大久保  多摩古紙センター府中","province":"東京都","city":"府中市","address":"府中市美好町2-28-4","lat":35.674973,"lon":139.466843},{"name":"(株)小池商店  府中営業所","province":"東京都","city":"府中市","address":"府中市四谷6-56-1","lat":35.671955,"lon":139.432465},{"name":"(株)小池商店  第二工場","province":"東京都","city":"府中市","address":"府中市四谷6-34-7","lat":35.671684,"lon":139.432983},{"name":"浅間山公園","province":"東京都","city":"府中市","address":"東京都府中市浅間町四丁目、若松町五丁目","lat":35.680157,"lon":139.500427},{"name":"府中の森公園","province":"東京都","city":"府中市","address":"東京都府中市浅間町一丁目・緑町二丁目・天神町二丁目","lat":35.676369,"lon":139.491872},{"name":"武蔵野の森公園","province":"東京都","city":"府中市","address":"東京都府中市朝日町三丁目、調布市西町、三鷹市大沢五・六丁目","lat":35.676093,"lon":139.522366},{"name":"(株)大久保  多摩古紙センター府中","province":"東京都","city":"府中市","address":"府中市美好町2-28-4","lat":35.674973,"lon":139.466843},{"name":"(株)小池商店  府中営業所","province":"東京都","city":"府中市","address":"府中市四谷6-56-1","lat":35.671955,"lon":139.432465},{"name":"(株)小池商店  第二工場","province":"東京都","city":"府中市","address":"府中市四谷6-34-7","lat":35.671684,"lon":139.432983},{"name":"浅間山公園","province":"東京都","city":"府中市","address":"東京都府中市浅間町四丁目、若松町五丁目","lat":35.680157,"lon":139.500427},{"name":"府中の森公園","province":"東京都","city":"府中市","address":"東京都府中市浅間町一丁目・緑町二丁目・天神町二丁目","lat":35.676369,"lon":139.491872},{"name":"武蔵野の森公園","province":"東京都","city":"府中市","address":"東京都府中市朝日町三丁目、調布市西町、三鷹市大沢五・六丁目","lat":35.676093,"lon":139.522366},{"name":"(株)大久保  多摩古紙センター府中","province":"東京都","city":"府中市","address":"府中市美好町2-28-4","lat":35.674973,"lon":139.466843},{"name":"(株)小池商店  府中営業所","province":"東京都","city":"府中市","address":"府中市四谷6-56-1","lat":35.671955,"lon":139.432465},{"name":"(株)小池商店  第二工場","province":"東京都","city":"府中市","address":"府中市四谷6-34-7","lat":35.671684,"lon":139.432983},{"name":"浅間山公園","province":"東京都","city":"府中市","address":"東京都府中市浅間町四丁目、若松町五丁目","lat":35.680157,"lon":139.500427},{"name":"府中の森公園","province":"東京都","city":"府中市","address":"東京都府中市浅間町一丁目・緑町二丁目・天神町二丁目","lat":35.676369,"lon":139.491872},{"name":"武蔵野の森公園","province":"東京都","city":"府中市","address":"東京都府中市朝日町三丁目、調布市西町、三鷹市大沢五・六丁目","lat":35.676093,"lon":139.522366},{"name":"(株)大久保  多摩古紙センター府中","province":"東京都","city":"府中市","address":"府中市美好町2-28-4","lat":35.674973,"lon":139.466843},{"name":"(株)小池商店  府中営業所","province":"東京都","city":"府中市","address":"府中市四谷6-56-1","lat":35.671955,"lon":139.432465},{"name":"(株)小池商店  第二工場","province":"東京都","city":"府中市","address":"府中市四谷6-34-7","lat":35.671684,"lon":139.432983},{"name":"浅間山公園","province":"東京都","city":"府中市","address":"東京都府中市浅間町四丁目、若松町五丁目","lat":35.680157,"lon":139.500427},{"name":"府中の森公園","province":"東京都","city":"府中市","address":"東京都府中市浅間町一丁目・緑町二丁目・天神町二丁目","lat":35.676369,"lon":139.491872},{"name":"武蔵野の森公園","province":"東京都","city":"府中市","address":"東京都府中市朝日町三丁目、調布市西町、三鷹市大沢五・六丁目","lat":35.676093,"lon":139.522366},{"name":"(株)大久保  多摩古紙センター府中","province":"東京都","city":"府中市","address":"府中市美好町2-28-4","lat":35.674973,"lon":139.466843},{"name":"(株)小池商店  府中営業所","province":"東京都","city":"府中市","address":"府中市四谷6-56-1","lat":35.671955,"lon":139.432465},{"name":"(株)小池商店  第二工場","province":"東京都","city":"府中市","address":"府中市四谷6-34-7","lat":35.671684,"lon":139.432983},{"name":"浅間山公園","province":"東京都","city":"府中市","address":"東京都府中市浅間町四丁目、若松町五丁目","lat":35.680157,"lon":139.500427},{"name":"府中の森公園","province":"東京都","city":"府中市","address":"東京都府中市浅間町一丁目・緑町二丁目・天神町二丁目","lat":35.676369,"lon":139.491872},{"name":"武蔵野の森公園","province":"東京都","city":"府中市","address":"東京都府中市朝日町三丁目、調布市西町、三鷹市大沢五・六丁目","lat":35.676093,"lon":139.522366},{"name":"(株)大久保  多摩古紙センター府中","province":"東京都","city":"府中市","address":"府中市美好町2-28-4","lat":35.674973,"lon":139.466843},{"name":"(株)小池商店  府中営業所","province":"東京都","city":"府中市","address":"府中市四谷6-56-1","lat":35.671955,"lon":139.432465},{"name":"(株)小池商店  第二工場","province":"東京都","city":"府中市","address":"府中市四谷6-34-7","lat":35.671684,"lon":139.432983},{"name":"浅間山公園","province":"東京都","city":"府中市","address":"東京都府中市浅間町四丁目、若松町五丁目","lat":35.680157,"lon":139.500427},{"name":"府中の森公園","province":"東京都","city":"府中市","address":"東京都府中市浅間町一丁目・緑町二丁目・天神町二丁目","lat":35.676369,"lon":139.491872},{"name":"武蔵野の森公園","province":"東京都","city":"府中市","address":"東京都府中市朝日町三丁目、調布市西町、三鷹市大沢五・六丁目","lat":35.676093,"lon":139.522366},{"name":"(株)大久保  多摩古紙センター府中","province":"東京都","city":"府中市","address":"府中市美好町2-28-4","lat":35.674973,"lon":139.466843},{"name":"(株)小池商店  府中営業所","province":"東京都","city":"府中市","address":"府中市四谷6-56-1","lat":35.671955,"lon":139.432465},{"name":"(株)小池商店  第二工場","province":"東京都","city":"府中市","address":"府中市四谷6-34-7","lat":35.671684,"lon":139.432983},{"name":"浅間山公園","province":"東京都","city":"府中市","address":"東京都府中市浅間町四丁目、若松町五丁目","lat":35.680157,"lon":139.500427},{"name":"府中の森公園","province":"東京都","city":"府中市","address":"東京都府中市浅間町一丁目・緑町二丁目・天神町二丁目","lat":35.676369,"lon":139.491872},{"name":"武蔵野の森公園","province":"東京都","city":"府中市","address":"東京都府中市朝日町三丁目、調布市西町、三鷹市大沢五・六丁目","lat":35.676093,"lon":139.522366},{"name":"(株)大久保  多摩古紙センター府中","province":"東京都","city":"府中市","address":"府中市美好町2-28-4","lat":35.674973,"lon":139.466843},{"name":"(株)小池商店  府中営業所","province":"東京都","city":"府中市","address":"府中市四谷6-56-1","lat":35.671955,"lon":139.432465},{"name":"(株)小池商店  第二工場","province":"東京都","city":"府中市","address":"府中市四谷6-34-7","lat":35.671684,"lon":139.432983},{"name":"浅間山公園","province":"東京都","city":"府中市","address":"東京都府中市浅間町四丁目、若松町五丁目","lat":35.680157,"lon":139.500427},{"name":"府中の森公園","province":"東京都","city":"府中市","address":"東京都府中市浅間町一丁目・緑町二丁目・天神町二丁目","lat":35.676369,"lon":139.491872},{"name":"武蔵野の森公園","province":"東京都","city":"府中市","address":"東京都府中市朝日町三丁目、調布市西町、三鷹市大沢五・六丁目","lat":35.676093,"lon":139.522366},{"name":"(株)大久保  多摩古紙センター府中","province":"東京都","city":"府中市","address":"府中市美好町2-28-4","lat":35.674973,"lon":139.466843},{"name":"(株)小池商店  府中営業所","province":"東京都","city":"府中市","address":"府中市四谷6-56-1","lat":35.671955,"lon":139.432465},{"name":"(株)小池商店  第二工場","province":"東京都","city":"府中市","address":"府中市四谷6-34-7","lat":35.671684,"lon":139.432983},{"name":"浅間山公園","province":"東京都","city":"府中市","address":"東京都府中市浅間町四丁目、若松町五丁目","lat":35.680157,"lon":139.500427},{"name":"府中の森公園","province":"東京都","city":"府中市","address":"東京都府中市浅間町一丁目・緑町二丁目・天神町二丁目","lat":35.676369,"lon":139.491872},{"name":"武蔵野の森公園","province":"東京都","city":"府中市","address":"東京都府中市朝日町三丁目、調布市西町、三鷹市大沢五・六丁目","lat":35.676093,"lon":139.522366},{"name":"(株)大久保  多摩古紙センター府中","province":"東京都","city":"府中市","address":"府中市美好町2-28-4","lat":35.674973,"lon":139.466843},{"name":"(株)小池商店  府中営業所","province":"東京都","city":"府中市","address":"府中市四谷6-56-1","lat":35.671955,"lon":139.432465},{"name":"(株)小池商店  第二工場","province":"東京都","city":"府中市","address":"府中市四谷6-34-7","lat":35.671684,"lon":139.432983},{"name":"浅間山公園","province":"東京都","city":"府中市","address":"東京都府中市浅間町四丁目、若松町五丁目","lat":35.680157,"lon":139.500427},{"name":"府中の森公園","province":"東京都","city":"府中市","address":"東京都府中市浅間町一丁目・緑町二丁目・天神町二丁目","lat":35.676369,"lon":139.491872},{"name":"武蔵野の森公園","province":"東京都","city":"府中市","address":"東京都府中市朝日町三丁目、調布市西町、三鷹市大沢五・六丁目","lat":35.676093,"lon":139.522366},{"name":"(株)大久保  多摩古紙センター府中","province":"東京都","city":"府中市","address":"府中市美好町2-28-4","lat":35.674973,"lon":139.466843},{"name":"(株)小池商店  府中営業所","province":"東京都","city":"府中市","address":"府中市四谷6-56-1","lat":35.671955,"lon":139.432465},{"name":"(株)小池商店  第二工場","province":"東京都","city":"府中市","address":"府中市四谷6-34-7","lat":35.671684,"lon":139.432983},{"name":"浅間山公園","province":"東京都","city":"府中市","address":"東京都府中市浅間町四丁目、若松町五丁目","lat":35.680157,"lon":139.500427},{"name":"府中の森公園","province":"東京都","city":"府中市","address":"東京都府中市浅間町一丁目・緑町二丁目・天神町二丁目","lat":35.676369,"lon":139.491872},{"name":"武蔵野の森公園","province":"東京都","city":"府中市","address":"東京都府中市朝日町三丁目、調布市西町、三鷹市大沢五・六丁目","lat":35.676093,"lon":139.522366},{"name":"(株)大久保  多摩古紙センター府中","province":"東京都","city":"府中市","address":"府中市美好町2-28-4","lat":35.674973,"lon":139.466843},{"name":"(株)小池商店  府中営業所","province":"東京都","city":"府中市","address":"府中市四谷6-56-1","lat":35.671955,"lon":139.432465},{"name":"(株)小池商店  第二工場","province":"東京都","city":"府中市","address":"府中市四谷6-34-7","lat":35.671684,"lon":139.432983},{"name":"浅間山公園","province":"東京都","city":"府中市","address":"東京都府中市浅間町四丁目、若松町五丁目","lat":35.680157,"lon":139.500427},{"name":"府中の森公園","province":"東京都","city":"府中市","address":"東京都府中市浅間町一丁目・緑町二丁目・天神町二丁目","lat":35.676369,"lon":139.491872},{"name":"武蔵野の森公園","province":"東京都","city":"府中市","address":"東京都府中市朝日町三丁目、調布市西町、三鷹市大沢五・六丁目","lat":35.676093,"lon":139.522366},{"name":"(株)大久保  多摩古紙センター府中","province":"東京都","city":"府中市","address":"府中市美好町2-28-4","lat":35.674973,"lon":139.466843},{"name":"(株)小池商店  府中営業所","province":"東京都","city":"府中市","address":"府中市四谷6-56-1","lat":35.671955,"lon":139.432465},{"name":"(株)小池商店  第二工場","province":"東京都","city":"府中市","address":"府中市四谷6-34-7","lat":35.671684,"lon":139.432983},{"name":"浅間山公園","province":"東京都","city":"府中市","address":"東京都府中市浅間町四丁目、若松町五丁目","lat":35.680157,"lon":139.500427},{"name":"府中の森公園","province":"東京都","city":"府中市","address":"東京都府中市浅間町一丁目・緑町二丁目・天神町二丁目","lat":35.676369,"lon":139.491872},{"name":"武蔵野の森公園","province":"東京都","city":"府中市","address":"東京都府中市朝日町三丁目、調布市西町、三鷹市大沢五・六丁目","lat":35.676093,"lon":139.522366},{"name":"(株)大久保  多摩古紙センター府中","province":"東京都","city":"府中市","address":"府中市美好町2-28-4","lat":35.674973,"lon":139.466843},{"name":"(株)小池商店  府中営業所","province":"東京都","city":"府中市","address":"府中市四谷6-56-1","lat":35.671955,"lon":139.432465},{"name":"(株)小池商店  第二工場","province":"東京都","city":"府中市","address":"府中市四谷6-34-7","lat":35.671684,"lon":139.432983},{"name":"浅間山公園","province":"東京都","city":"府中市","address":"東京都府中市浅間町四丁目、若松町五丁目","lat":35.680157,"lon":139.500427},{"name":"府中の森公園","province":"東京都","city":"府中市","address":"東京都府中市浅間町一丁目・緑町二丁目・天神町二丁目","lat":35.676369,"lon":139.491872},{"name":"武蔵野の森公園","province":"東京都","city":"府中市","address":"東京都府中市朝日町三丁目、調布市西町、三鷹市大沢五・六丁目","lat":35.676093,"lon":139.522366},{"name":"(株)大久保  多摩古紙センター府中","province":"東京都","city":"府中市","address":"府中市美好町2-28-4","lat":35.674973,"lon":139.466843},{"name":"(株)小池商店  府中営業所","province":"東京都","city":"府中市","address":"府中市四谷6-56-1","lat":35.671955,"lon":139.432465},{"name":"(株)小池商店  第二工場","province":"東京都","city":"府中市","address":"府中市四谷6-34-7","lat":35.671684,"lon":139.432983},{"name":"浅間山公園","province":"東京都","city":"府中市","address":"東京都府中市浅間町四丁目、若松町五丁目","lat":35.680157,"lon":139.500427},{"name":"府中の森公園","province":"東京都","city":"府中市","address":"東京都府中市浅間町一丁目・緑町二丁目・天神町二丁目","lat":35.676369,"lon":139.491872},{"name":"武蔵野の森公園","province":"東京都","city":"府中市","address":"東京都府中市朝日町三丁目、調布市西町、三鷹市大沢五・六丁目","lat":35.676093,"lon":139.522366},{"name":"(株)大久保  多摩古紙センター府中","province":"東京都","city":"府中市","address":"府中市美好町2-28-4","lat":35.674973,"lon":139.466843},{"name":"(株)小池商店  府中営業所","province":"東京都","city":"府中市","address":"府中市四谷6-56-1","lat":35.671955,"lon":139.432465},{"name":"(株)小池商店  第二工場","province":"東京都","city":"府中市","address":"府中市四谷6-34-7","lat":35.671684,"lon":139.432983},{"name":"浅間山公園","province":"東京都","city":"府中市","address":"東京都府中市浅間町四丁目、若松町五丁目","lat":35.680157,"lon":139.500427},{"name":"府中の森公園","province":"東京都","city":"府中市","address":"東京都府中市浅間町一丁目・緑町二丁目・天神町二丁目","lat":35.676369,"lon":139.491872},{"name":"武蔵野の森公園","province":"東京都","city":"府中市","address":"東京都府中市朝日町三丁目、調布市西町、三鷹市大沢五・六丁目","lat":35.676093,"lon":139.522366},{"name":"(株)大久保  多摩古紙センター府中","province":"東京都","city":"府中市","address":"府中市美好町2-28-4","lat":35.674973,"lon":139.466843},{"name":"(株)小池商店  府中営業所","province":"東京都","city":"府中市","address":"府中市四谷6-56-1","lat":35.671955,"lon":139.432465},{"name":"(株)小池商店  第二工場","province":"東京都","city":"府中市","address":"府中市四谷6-34-7","lat":35.671684,"lon":139.432983},{"name":"浅間山公園","province":"東京都","city":"府中市","address":"東京都府中市浅間町四丁目、若松町五丁目","lat":35.680157,"lon":139.500427},{"name":"府中の森公園","province":"東京都","city":"府中市","address":"東京都府中市浅間町一丁目・緑町二丁目・天神町二丁目","lat":35.676369,"lon":139.491872},{"name":"武蔵野の森公園","province":"東京都","city":"府中市","address":"東京都府中市朝日町三丁目、調布市西町、三鷹市大沢五・六丁目","lat":35.676093,"lon":139.522366},{"name":"(株)大久保  多摩古紙センター府中","province":"東京都","city":"府中市","address":"府中市美好町2-28-4","lat":35.674973,"lon":139.466843},{"name":"(株)小池商店  府中営業所","province":"東京都","city":"府中市","address":"府中市四谷6-56-1","lat":35.671955,"lon":139.432465},{"name":"(株)小池商店  第二工場","province":"東京都","city":"府中市","address":"府中市四谷6-34-7","lat":35.671684,"lon":139.432983},{"name":"浅間山公園","province":"東京都","city":"府中市","address":"東京都府中市浅間町四丁目、若松町五丁目","lat":35.680157,"lon":139.500427},{"name":"府中の森公園","province":"東京都","city":"府中市","address":"東京都府中市浅間町一丁目・緑町二丁目・天神町二丁目","lat":35.676369,"lon":139.491872},{"name":"武蔵野の森公園","province":"東京都","city":"府中市","address":"東京都府中市朝日町三丁目、調布市西町、三鷹市大沢五・六丁目","lat":35.676093,"lon":139.522366},{"name":"(株)大久保  多摩古紙センター府中","province":"東京都","city":"府中市","address":"府中市美好町2-28-4","lat":35.674973,"lon":139.466843},{"name":"(株)小池商店  府中営業所","province":"東京都","city":"府中市","address":"府中市四谷6-56-1","lat":35.671955,"lon":139.432465},{"name":"(株)小池商店  第二工場","province":"東京都","city":"府中市","address":"府中市四谷6-34-7","lat":35.671684,"lon":139.432983},{"name":"浅間山公園","province":"東京都","city":"府中市","address":"東京都府中市浅間町四丁目、若松町五丁目","lat":35.680157,"lon":139.500427},{"name":"府中の森公園","province":"東京都","city":"府中市","address":"東京都府中市浅間町一丁目・緑町二丁目・天神町二丁目","lat":35.676369,"lon":139.491872},{"name":"武蔵野の森公園","province":"東京都","city":"府中市","address":"東京都府中市朝日町三丁目、調布市西町、三鷹市大沢五・六丁目","lat":35.676093,"lon":139.522366},{"name":"(株)大久保  多摩古紙センター府中","province":"東京都","city":"府中市","address":"府中市美好町2-28-4","lat":35.674973,"lon":139.466843},{"name":"(株)小池商店  府中営業所","province":"東京都","city":"府中市","address":"府中市四谷6-56-1","lat":35.671955,"lon":139.432465},{"name":"(株)小池商店  第二工場","province":"東京都","city":"府中市","address":"府中市四谷6-34-7","lat":35.671684,"lon":139.432983},{"name":"浅間山公園","province":"東京都","city":"府中市","address":"東京都府中市浅間町四丁目、若松町五丁目","lat":35.680157,"lon":139.500427},{"name":"府中の森公園","province":"東京都","city":"府中市","address":"東京都府中市浅間町一丁目・緑町二丁目・天神町二丁目","lat":35.676369,"lon":139.491872},{"name":"武蔵野の森公園","province":"東京都","city":"府中市","address":"東京都府中市朝日町三丁目、調布市西町、三鷹市大沢五・六丁目","lat":35.676093,"lon":139.522366},{"name":"(株)大久保  多摩古紙センター府中","province":"東京都","city":"府中市","address":"府中市美好町2-28-4","lat":35.674973,"lon":139.466843},{"name":"(株)小池商店  府中営業所","province":"東京都","city":"府中市","address":"府中市四谷6-56-1","lat":35.671955,"lon":139.432465},{"name":"(株)小池商店  第二工場","province":"東京都","city":"府中市","address":"府中市四谷6-34-7","lat":35.671684,"lon":139.432983},{"name":"浅間山公園","province":"東京都","city":"府中市","address":"東京都府中市浅間町四丁目、若松町五丁目","lat":35.680157,"lon":139.500427},{"name":"府中の森公園","province":"東京都","city":"府中市","address":"東京都府中市浅間町一丁目・緑町二丁目・天神町二丁目","lat":35.676369,"lon":139.491872},{"name":"武蔵野の森公園","province":"東京都","city":"府中市","address":"東京都府中市朝日町三丁目、調布市西町、三鷹市大沢五・六丁目","lat":35.676093,"lon":139.522366},{"name":"(株)大久保  多摩古紙センター府中","province":"東京都","city":"府中市","address":"府中市美好町2-28-4","lat":35.674973,"lon":139.466843},{"name":"(株)小池商店  府中営業所","province":"東京都","city":"府中市","address":"府中市四谷6-56-1","lat":35.671955,"lon":139.432465},{"name":"(株)小池商店  第二工場","province":"東京都","city":"府中市","address":"府中市四谷6-34-7","lat":35.671684,"lon":139.432983},{"name":"浅間山公園","province":"東京都","city":"府中市","address":"東京都府中市浅間町四丁目、若松町五丁目","lat":35.680157,"lon":139.500427},{"name":"府中の森公園","province":"東京都","city":"府中市","address":"東京都府中市浅間町一丁目・緑町二丁目・天神町二丁目","lat":35.676369,"lon":139.491872},{"name":"武蔵野の森公園","province":"東京都","city":"府中市","address":"東京都府中市朝日町三丁目、調布市西町、三鷹市大沢五・六丁目","lat":35.676093,"lon":139.522366},{"name":"(株)大久保  多摩古紙センター府中","province":"東京都","city":"府中市","address":"府中市美好町2-28-4","lat":35.674973,"lon":139.466843},{"name":"(株)小池商店  府中営業所","province":"東京都","city":"府中市","address":"府中市四谷6-56-1","lat":35.671955,"lon":139.432465},{"name":"(株)小池商店  第二工場","province":"東京都","city":"府中市","address":"府中市四谷6-34-7","lat":35.671684,"lon":139.432983},{"name":"浅間山公園","province":"東京都","city":"府中市","address":"東京都府中市浅間町四丁目、若松町五丁目","lat":35.680157,"lon":139.500427},{"name":"府中の森公園","province":"東京都","city":"府中市","address":"東京都府中市浅間町一丁目・緑町二丁目・天神町二丁目","lat":35.676369,"lon":139.491872},{"name":"武蔵野の森公園","province":"東京都","city":"府中市","address":"東京都府中市朝日町三丁目、調布市西町、三鷹市大沢五・六丁目","lat":35.676093,"lon":139.522366},{"name":"(株)大久保  多摩古紙センター府中","province":"東京都","city":"府中市","address":"府中市美好町2-28-4","lat":35.674973,"lon":139.466843},{"name":"(株)小池商店  府中営業所","province":"東京都","city":"府中市","address":"府中市四谷6-56-1","lat":35.671955,"lon":139.432465},{"name":"(株)小池商店  第二工場","province":"東京都","city":"府中市","address":"府中市四谷6-34-7","lat":35.671684,"lon":139.432983},{"name":"浅間山公園","province":"東京都","city":"府中市","address":"東京都府中市浅間町四丁目、若松町五丁目","lat":35.680157,"lon":139.500427},{"name":"府中の森公園","province":"東京都","city":"府中市","address":"東京都府中市浅間町一丁目・緑町二丁目・天神町二丁目","lat":35.676369,"lon":139.491872},{"name":"武蔵野の森公園","province":"東京都","city":"府中市","address":"東京都府中市朝日町三丁目、調布市西町、三鷹市大沢五・六丁目","lat":35.676093,"lon":139.522366},{"name":"(株)大久保  多摩古紙センター府中","province":"東京都","city":"府中市","address":"府中市美好町2-28-4","lat":35.674973,"lon":139.466843},{"name":"(株)小池商店  府中営業所","province":"東京都","city":"府中市","address":"府中市四谷6-56-1","lat":35.671955,"lon":139.432465},{"name":"(株)小池商店  第二工場","province":"東京都","city":"府中市","address":"府中市四谷6-34-7","lat":35.671684,"lon":139.432983},{"name":"浅間山公園","province":"東京都","city":"府中市","address":"東京都府中市浅間町四丁目、若松町五丁目","lat":35.680157,"lon":139.500427},{"name":"府中の森公園","province":"東京都","city":"府中市","address":"東京都府中市浅間町一丁目・緑町二丁目・天神町二丁目","lat":35.676369,"lon":139.491872},{"name":"武蔵野の森公園","province":"東京都","city":"府中市","address":"東京都府中市朝日町三丁目、調布市西町、三鷹市大沢五・六丁目","lat":35.676093,"lon":139.522366},{"name":"(株)大久保  多摩古紙センター府中","province":"東京都","city":"府中市","address":"府中市美好町2-28-4","lat":35.674973,"lon":139.466843},{"name":"(株)小池商店  府中営業所","province":"東京都","city":"府中市","address":"府中市四谷6-56-1","lat":35.671955,"lon":139.432465},{"name":"(株)小池商店  第二工場","province":"東京都","city":"府中市","address":"府中市四谷6-34-7","lat":35.671684,"lon":139.432983},{"name":"浅間山公園","province":"東京都","city":"府中市","address":"東京都府中市浅間町四丁目、若松町五丁目","lat":35.680157,"lon":139.500427},{"name":"府中の森公園","province":"東京都","city":"府中市","address":"東京都府中市浅間町一丁目・緑町二丁目・天神町二丁目","lat":35.676369,"lon":139.491872},{"name":"武蔵野の森公園","province":"東京都","city":"府中市","address":"東京都府中市朝日町三丁目、調布市西町、三鷹市大沢五・六丁目","lat":35.676093,"lon":139.522366},{"name":"(株)大久保  多摩古紙センター府中","province":"東京都","city":"府中市","address":"府中市美好町2-28-4","lat":35.674973,"lon":139.466843},{"name":"(株)小池商店  府中営業所","province":"東京都","city":"府中市","address":"府中市四谷6-56-1","lat":35.671955,"lon":139.432465},{"name":"(株)小池商店  第二工場","province":"東京都","city":"府中市","address":"府中市四谷6-34-7","lat":35.671684,"lon":139.432983},{"name":"浅間山公園","province":"東京都","city":"府中市","address":"東京都府中市浅間町四丁目、若松町五丁目","lat":35.680157,"lon":139.500427},{"name":"府中の森公園","province":"東京都","city":"府中市","address":"東京都府中市浅間町一丁目・緑町二丁目・天神町二丁目","lat":35.676369,"lon":139.491872},{"name":"武蔵野の森公園","province":"東京都","city":"府中市","address":"東京都府中市朝日町三丁目、調布市西町、三鷹市大沢五・六丁目","lat":35.676093,"lon":139.522366},{"name":"(株)大久保  多摩古紙センター府中","province":"東京都","city":"府中市","address":"府中市美好町2-28-4","lat":35.674973,"lon":139.466843},{"name":"(株)小池商店  府中営業所","province":"東京都","city":"府中市","address":"府中市四谷6-56-1","lat":35.671955,"lon":139.432465},{"name":"(株)小池商店  第二工場","province":"東京都","city":"府中市","address":"府中市四谷6-34-7","lat":35.671684,"lon":139.432983},{"name":"浅間山公園","province":"東京都","city":"府中市","address":"東京都府中市浅間町四丁目、若松町五丁目","lat":35.680157,"lon":139.500427},{"name":"府中の森公園","province":"東京都","city":"府中市","address":"東京都府中市浅間町一丁目・緑町二丁目・天神町二丁目","lat":35.676369,"lon":139.491872},{"name":"武蔵野の森公園","province":"東京都","city":"府中市","address":"東京都府中市朝日町三丁目、調布市西町、三鷹市大沢五・六丁目","lat":35.676093,"lon":139.522366},{"name":"(株)大久保  多摩古紙センター府中","province":"東京都","city":"府中市","address":"府中市美好町2-28-4","lat":35.674973,"lon":139.466843},{"name":"(株)小池商店  府中営業所","province":"東京都","city":"府中市","address":"府中市四谷6-56-1","lat":35.671955,"lon":139.432465},{"name":"(株)小池商店  第二工場","province":"東京都","city":"府中市","address":"府中市四谷6-34-7","lat":35.671684,"lon":139.432983}]}