{"keyword":"一覧","data":[{"name":"朝日体育館","province":"東京都","city":"府中市","address":"東京都府中市朝日町2丁目10","lat":35.67403187,"lon":139.51608799},{"name":"府中市美術館","province":"東京都","city":"府中市","address":"東京都府中市浅間町1丁目3","lat":35.67765858,"lon":139.49128998},{"name":"生涯学習センター","province":"東京都","city":"府中市","address":"東京都府中市浅間町1丁目7","lat":35.67845582,"lon":139.49642285},{"name":"栄町体育館","province":"東京都","city":"府中市","address":"東京都府中市栄町1丁目1","lat":35.68799049,"lon":139.48122374},{"name":"押立体育館","province":"東京都","city":"府中市","address":"東京都府中市押立町1丁目37","lat":35.6594975,"lon":139.51183059},{"name":"押立文化センター","province":"東京都","city":"府中市","address":"東京都府中市押立町5丁目4","lat":35.6535432,"lon":139.51813618},{"name":"四谷文化センター","province":"東京都","city":"府中市","address":"東京都府中市四谷2丁目75","lat":35.66544493,"lon":139.44515819},{"name":"片町文化センター","province":"東京都","city":"府中市","address":"東京都府中市片町2丁目17","lat":35.67065053,"lon":139.46938092},{"name":"府中駅北第２庁舎","province":"東京都","city":"府中市","address":"東京都府中市寿町1丁目5","lat":35.67358376,"lon":139.47844675},{"name":"水道局府中サービスステーション","province":"東京都","city":"府中市","address":"東京都府中市寿町3丁目4-6","lat":35.67366976,"lon":139.47448595},{"name":"是政文化センター","province":"東京都","city":"府中市","address":"東京都府中市是政2丁目20","lat":35.66095232,"lon":139.49570406},{"name":"白糸台体育館","province":"東京都","city":"府中市","address":"東京都府中市白糸台1丁目50","lat":35.67090696,"lon":139.50735546},{"name":"白糸台文化センター","province":"東京都","city":"府中市","address":"東京都府中市白糸台1丁目60","lat":35.66700463,"lon":139.50618625},{"name":"新町文化センター","province":"東京都","city":"府中市","address":"東京都府中市新町1丁目66-38","lat":35.68699081,"lon":139.48998971},{"name":"住吉文化センター","province":"東京都","city":"府中市","address":"東京都府中市住吉町1丁目61","lat":35.66017924,"lon":139.46041535},{"name":"女性センター","province":"東京都","city":"府中市","address":"東京都府中市住吉町1丁目84-1","lat":35.66029029,"lon":139.45842663},{"name":"西府文化センター","province":"東京都","city":"府中市","address":"東京都府中市西府町1丁目60","lat":35.67096688,"lon":139.45644591},{"name":"ルミエール府中","province":"東京都","city":"府中市","address":"東京都府中市府中町2丁目24","lat":35.67636691,"lon":139.48406007},{"name":"中央文化センター","province":"東京都","city":"府中市","address":"東京都府中市府中町2丁目25","lat":35.67577528,"lon":139.48285464},{"name":"保健センター","province":"東京都","city":"府中市","address":"東京都府中市府中町2丁目25","lat":35.67577528,"lon":139.48285464},{"name":"本宿体育館","province":"東京都","city":"府中市","address":"東京都府中市本宿町4丁目23","lat":35.67941044,"lon":139.45993975},{"name":"府中市郷土の森博物館","province":"東京都","city":"府中市","address":"東京都府中市南町6丁目32","lat":35.65652993,"lon":139.47301715},{"name":"府中市本庁舎","province":"東京都","city":"府中市","address":"東京都府中市宮西町2丁目24","lat":35.66907035,"lon":139.47727755},{"name":"市民活動センタープラッツ","province":"東京都","city":"府中市","address":"東京都府中市宮町1丁目100","lat":35.67197841,"lon":139.47949673},{"name":"府中市ふるさと府中歴史館","province":"東京都","city":"府中市","address":"東京都府中市宮町3丁目1","lat":35.66815661,"lon":139.47911076},{"name":"武蔵台文化センター","province":"東京都","city":"府中市","address":"東京都府中市武蔵台2丁目2","lat":35.68866772,"lon":139.46109766},{"name":"紅葉丘文化センター","province":"東京都","city":"府中市","address":"東京都府中市紅葉丘2丁目1-5","lat":35.6772174,"lon":139.50927453},{"name":"総合体育館","province":"東京都","city":"府中市","address":"東京都府中市矢崎町5丁目5","lat":35.65587176,"lon":139.4762058},{"name":"四谷体育館","province":"東京都","city":"府中市","address":"東京都府中市四谷5丁目6","lat":35.66426439,"lon":139.44148355}]}