{"keyword":"保育","data":[{"name":"やまびこ保育園","province":"東京都","city":"府中市","address":"府中市多磨町2-56","lat":35.685845,"lon":139.521895},{"name":"朝日保育所","province":"東京都","city":"府中市","address":"府中市朝日町1-33-33","lat":35.669246,"lon":139.518082},{"name":"さくらんぼ保育園","province":"東京都","city":"府中市","address":"府中市紅葉丘1-28-1","lat":35.673968,"lon":139.511511},{"name":"わらしこ第２保育園","province":"東京都","city":"府中市","address":"府中市紅葉丘1-1-2","lat":35.673182,"lon":139.5062},{"name":"東保育所","province":"東京都","city":"府中市","address":"府中市若松町3-21-4","lat":35.673262,"lon":139.503409},{"name":"わらしこ保育園","province":"東京都","city":"府中市","address":"府中市若松町4-27-6","lat":35.676526,"lon":139.507841},{"name":"キッズエイド武蔵保育園","province":"東京都","city":"府中市","address":"府中市若松町4-9-12","lat":35.676128,"lon":139.499153},{"name":"そよかぜハーモニー保育園","province":"東京都","city":"府中市","address":"府中市緑町3-11-5","lat":35.670823,"lon":139.491526},{"name":"よつば保育園","province":"東京都","city":"府中市","address":"府中市緑町2-31-8","lat":35.675945,"lon":139.489801},{"name":"山手保育園","province":"東京都","city":"府中市","address":"府中市白糸台5-4-9","lat":35.664414,"lon":139.513864},{"name":"山手こひつじ保育園","province":"東京都","city":"府中市","address":"府中市白糸台4-13-8","lat":35.664275,"lon":139.511911},{"name":"白糸さくらんぼ保育園","province":"東京都","city":"府中市","address":"府中市白糸台3-36-2","lat":35.668727,"lon":139.518194},{"name":"押立保育園","province":"東京都","city":"府中市","address":"府中市押立町1-27-1","lat":35.660481,"lon":139.512483},{"name":"押立第二保育園","province":"東京都","city":"府中市","address":"府中市押立町2-15-3","lat":35.659045,"lon":139.513139},{"name":"小柳保育所","province":"東京都","city":"府中市","address":"府中市小柳町2-34-2","lat":35.660844,"lon":139.500931},{"name":"是政保育園","province":"東京都","city":"府中市","address":"府中市是政3-6","lat":35.660405,"lon":139.488869},{"name":"にじのいろ保育園","province":"東京都","city":"府中市","address":"府中市是政5-21-47","lat":35.656636,"lon":139.483183},{"name":"キッズルームこっこ保育園","province":"東京都","city":"府中市","address":"府中市清水が丘3-21-25","lat":35.667155,"lon":139.503834},{"name":"太陽の子清水が丘三丁目保育園","province":"東京都","city":"府中市","address":"府中市清水が丘3-23-13","lat":35.666519,"lon":139.50375},{"name":"八幡保育所","province":"東京都","city":"府中市","address":"府中市八幡町1-12-12","lat":35.668976,"lon":139.484821},{"name":"府中愛児園","province":"東京都","city":"府中市","address":"府中市八幡町3-18","lat":35.667693,"lon":139.49271},{"name":"高安寺保育園","province":"東京都","city":"府中市","address":"府中市片町2-4-1","lat":35.669373,"lon":139.471881},{"name":"府中めぐみ保育園","province":"東京都","city":"府中市","address":"府中市宮町1-21-2","lat":35.671098,"lon":139.482466},{"name":"南分倍保育園","province":"東京都","city":"府中市","address":"府中市南町2-41-39","lat":35.658682,"lon":139.468876},{"name":"本町保育所","province":"東京都","city":"府中市","address":"府中市本町3-19-3","lat":35.66441,"lon":139.471292},{"name":"光明府中南保育園","province":"東京都","city":"府中市","address":"府中市本町2-29-11","lat":35.663754,"lon":139.474908},{"name":"アスク府中本町保育園","province":"東京都","city":"府中市","address":"府中市本町2-35-4","lat":35.664937,"lon":139.476936},{"name":"西府保育所","province":"東京都","city":"府中市","address":"府中市西府町3-32-12","lat":35.677272,"lon":139.456151},{"name":"西府の森保育園","province":"東京都","city":"府中市","address":"府中市本宿町1-46-7","lat":35.67095,"lon":139.458074},{"name":"府中保育園","province":"東京都","city":"府中市","address":"府中市分梅町3-19","lat":35.66639,"lon":139.460751},{"name":"光明高倉保育園","province":"東京都","city":"府中市","address":"府中市分梅町1-31","lat":35.666556,"lon":139.467187},{"name":"住吉保育所","province":"東京都","city":"府中市","address":"府中市住吉町2-30-17","lat":35.657063,"lon":139.460846},{"name":"キッズランド府中保育園","province":"東京都","city":"府中市","address":"府中市住吉町2-1-1","lat":35.659724,"lon":139.458674},{"name":"府中中河原雲母保育園","province":"東京都","city":"府中市","address":"府中市住吉町2-9-2","lat":35.658696,"lon":139.459016},{"name":"まなびの森保育園中河原","province":"東京都","city":"府中市","address":"府中市住吉町4-45-3","lat":35.661215,"lon":139.452313},{"name":"四谷保育所","province":"東京都","city":"府中市","address":"府中市四谷5-3-1","lat":35.664862,"lon":139.442792},{"name":"明桜保育園","province":"東京都","city":"府中市","address":"府中市四谷2-31-1","lat":35.665789,"lon":139.448794},{"name":"第２府中保育園","province":"東京都","city":"府中市","address":"府中市日新町5-51-1","lat":35.669542,"lon":139.441011},{"name":"北山保育所","province":"東京都","city":"府中市","address":"府中市北山町3-27-9","lat":35.690495,"lon":139.455073},{"name":"千春保育園","province":"東京都","city":"府中市","address":"府中市武蔵台3-9-4","lat":35.694764,"lon":139.462422},{"name":"西保育所","province":"東京都","city":"府中市","address":"府中市美好町3-23-2","lat":35.670223,"lon":139.46282},{"name":"美好保育所","province":"東京都","city":"府中市","address":"府中市美好町2-4","lat":35.672489,"lon":139.466667},{"name":"分倍保育園","province":"東京都","city":"府中市","address":"府中市美好町2-32-7","lat":35.676217,"lon":139.467036},{"name":"ラフ・クルー分倍河原保育園","province":"東京都","city":"府中市","address":"府中市美好町3-22-2","lat":35.671684,"lon":139.463268},{"name":"北保育所","province":"東京都","city":"府中市","address":"府中市新町1-64-1","lat":35.686994,"lon":139.48889},{"name":"めぐみ第二保育園","province":"東京都","city":"府中市","address":"府中市新町1-64-3","lat":35.686796,"lon":139.489106},{"name":"第２キッズランド府中保育園","province":"東京都","city":"府中市","address":"府中市寿町2-4-42","lat":35.673645,"lon":139.475486},{"name":"中央保育所","province":"東京都","city":"府中市","address":"府中市晴見町2-7-17","lat":35.679825,"lon":139.473655},{"name":"晴見保育園","province":"東京都","city":"府中市","address":"府中市晴見町1-13-5","lat":35.680269,"lon":139.479213}]}