{"keyword":"公民","data":[{"name":"＊?府中市立白糸台文化センター(複合施設）","province":"東京都","city":"府中市","address":"府中市白糸台1-60","lat":35.667081,"lon":139.506149},{"name":"＊?府中市立西府文化センター(複合施設）","province":"東京都","city":"府中市","address":"府中市西府町1-10","lat":35.670886,"lon":139.45627},{"name":"＊?府中市立紅葉丘文化センター(複合施設）","province":"東京都","city":"府中市","address":"府中市紅葉丘2-1","lat":35.676533,"lon":139.509245},{"name":"＊?府中市立是政文化センター(複合施設）","province":"東京都","city":"府中市","address":"府中市是政2-20","lat":35.660891,"lon":139.495318},{"name":"＊?府中市立新町文化センター(複合施設）","province":"東京都","city":"府中市","address":"府中市新町1-66","lat":35.687183,"lon":139.489386},{"name":"＊?府中市立住吉文化センター(複合施設）","province":"東京都","city":"府中市","address":"府中市住吉町1-61","lat":35.660297,"lon":139.460272},{"name":"＊?府中市立四谷文化センター(複合施設）","province":"東京都","city":"府中市","address":"府中市四谷2-75","lat":35.665294,"lon":139.445637},{"name":"＊?府中市立片町文化センター(複合施設）","province":"東京都","city":"府中市","address":"府中市片町2-17","lat":35.670275,"lon":139.469377},{"name":"＊?府中市立押立文化センター(複合施設）","province":"東京都","city":"府中市","address":"府中市押立町5-4","lat":35.653691,"lon":139.517813},{"name":"＊?府中市立武蔵台文化センター(複合施設）","province":"東京都","city":"府中市","address":"府中市武蔵台2-2","lat":35.688581,"lon":139.461425}]}