{"keyword":"収蔵","data":[{"name":"府中武蔵台浄水所及び府中武蔵台ポンプ所","province":"東京都","city":"府中市","address":"東京都府中市武蔵台2-7及び武蔵台1-25","lat":35.688081,"lon":139.460998},{"name":"若松給水所","province":"東京都","city":"府中市","address":"東京都府中市若松町4-10","lat":35.6760322,"lon":139.499748},{"name":"幸町給水所","province":"東京都","city":"府中市","address":"東京都府中市幸町2-24","lat":35.679613,"lon":139.483705},{"name":"府中南町給水所","province":"東京都","city":"府中市","address":"東京都府中市南町1-50","lat":35.6585721,"lon":139.470907},{"name":"都立武蔵野公園","province":"東京都","city":"府中市","address":"東京都府中市多磨町3-2","lat":35.6879393,"lon":139.5176078},{"name":"東京都立多摩・小児総合医療センター","province":"東京都","city":"府中市","address":"東京都府中市武蔵台2丁目8-29","lat":35.69188402,"lon":139.46098088},{"name":"府中武蔵台浄水所","province":"東京都","city":"府中市","address":"東京都府中市武蔵台2丁目7","lat":35.68899266,"lon":139.46004218},{"name":"府中南町浄水所","province":"東京都","city":"府中市","address":"東京都府中市南町1丁目50","lat":35.65857132,"lon":139.47090616},{"name":"都立武蔵野公園","province":"東京都","city":"府中市","address":"東京都府中市多磨町3丁目2","lat":35.68861916,"lon":139.51875946},{"name":"都立府中病院","province":"東京都","city":"府中市","address":"東京都府中市武蔵台2丁目9-2","lat":35.6920563,"lon":139.4641806},{"name":"都立武蔵野の森公園朝日サッカー場","province":"東京都","city":"府中市","address":"東京都府中市朝日町3丁目","lat":35.6664691,"lon":139.5212629},{"name":"東京競馬場・日吉体育館駐車場","province":"東京都","city":"府中市","address":"東京都府中市八幡町3丁目11","lat":35.66652097,"lon":139.49086538},{"name":"東京競馬場","province":"東京都","city":"府中市","address":"東京都府中市日吉町1","lat":35.66537655,"lon":139.48689909},{"name":"稲城大橋河川敷","province":"東京都","city":"府中市","address":"東京都府中市押立町5丁目","lat":35.65279891,"lon":139.51860288},{"name":"関戸橋河川敷","province":"東京都","city":"府中市","address":"東京都府中市住吉町2丁目","lat":35.65711565,"lon":139.45856007},{"name":"府中市陸上競技場","province":"東京都","city":"府中市","address":"東京都府中市寿町2丁目20","lat":35.67664722,"lon":139.47528856},{"name":"都立多摩・小児総合医療センターヘリポート","province":"東京都","city":"府中市","address":"東京都府中市武蔵台2丁目8-29","lat":35.69188402,"lon":139.46098088},{"name":"郷土の森公園（是政緑地）","province":"東京都","city":"府中市","address":"東京都府中市是政6丁目","lat":35.656008,"lon":139.48189143},{"name":"都立府中の森公園サッカー場","province":"東京都","city":"府中市","address":"東京都府中市浅間町1丁目","lat":35.6770059,"lon":139.49241491},{"name":"＊?府中市立白糸台文化センター(複合施設）","province":"東京都","city":"府中市","address":"府中市白糸台1-60","lat":35.667081,"lon":139.506149},{"name":"＊?府中市立西府文化センター(複合施設）","province":"東京都","city":"府中市","address":"府中市西府町1-10","lat":35.670886,"lon":139.45627},{"name":"＊?府中市立紅葉丘文化センター(複合施設）","province":"東京都","city":"府中市","address":"府中市紅葉丘2-1","lat":35.676533,"lon":139.509245},{"name":"＊?府中市立是政文化センター(複合施設）","province":"東京都","city":"府中市","address":"府中市是政2-20","lat":35.660891,"lon":139.495318},{"name":"＊?府中市立新町文化センター(複合施設）","province":"東京都","city":"府中市","address":"府中市新町1-66","lat":35.687183,"lon":139.489386},{"name":"＊?府中市立住吉文化センター(複合施設）","province":"東京都","city":"府中市","address":"府中市住吉町1-61","lat":35.660297,"lon":139.460272},{"name":"＊?府中市立四谷文化センター(複合施設）","province":"東京都","city":"府中市","address":"府中市四谷2-75","lat":35.665294,"lon":139.445637},{"name":"＊?府中市立片町文化センター(複合施設）","province":"東京都","city":"府中市","address":"府中市片町2-17","lat":35.670275,"lon":139.469377},{"name":"＊?府中市立押立文化センター(複合施設）","province":"東京都","city":"府中市","address":"府中市押立町5-4","lat":35.653691,"lon":139.517813},{"name":"＊?府中市立武蔵台文化センター(複合施設）","province":"東京都","city":"府中市","address":"府中市武蔵台2-2","lat":35.688581,"lon":139.461425},{"name":"アルフレッサ（株）調布支店","province":"東京都","city":"府中市","address":"府中市西原町1-5-1","lat":35.68195,"lon":139.4604},{"name":"府中武蔵台浄水所及び府中武蔵台ポンプ所","province":"東京都","city":"府中市","address":"東京都府中市武蔵台2-7及び武蔵台1-25","lat":35.688081,"lon":139.460998},{"name":"若松給水所","province":"東京都","city":"府中市","address":"東京都府中市若松町4-10","lat":35.6760322,"lon":139.499748},{"name":"幸町給水所","province":"東京都","city":"府中市","address":"東京都府中市幸町2-24","lat":35.679613,"lon":139.483705},{"name":"府中南町給水所","province":"東京都","city":"府中市","address":"東京都府中市南町1-50","lat":35.6585721,"lon":139.470907},{"name":"都立武蔵野公園","province":"東京都","city":"府中市","address":"東京都府中市多磨町3-2","lat":35.6879393,"lon":139.5176078},{"name":"東京都立多摩・小児総合医療センター","province":"東京都","city":"府中市","address":"東京都府中市武蔵台2丁目8-29","lat":35.69188402,"lon":139.46098088},{"name":"府中武蔵台浄水所","province":"東京都","city":"府中市","address":"東京都府中市武蔵台2丁目7","lat":35.68899266,"lon":139.46004218},{"name":"府中南町浄水所","province":"東京都","city":"府中市","address":"東京都府中市南町1丁目50","lat":35.65857132,"lon":139.47090616},{"name":"都立武蔵野公園","province":"東京都","city":"府中市","address":"東京都府中市多磨町3丁目2","lat":35.68861916,"lon":139.51875946},{"name":"都立府中病院","province":"東京都","city":"府中市","address":"東京都府中市武蔵台2丁目9-2","lat":35.6920563,"lon":139.4641806},{"name":"都立武蔵野の森公園朝日サッカー場","province":"東京都","city":"府中市","address":"東京都府中市朝日町3丁目","lat":35.6664691,"lon":139.5212629},{"name":"東京競馬場・日吉体育館駐車場","province":"東京都","city":"府中市","address":"東京都府中市八幡町3丁目11","lat":35.66652097,"lon":139.49086538},{"name":"東京競馬場","province":"東京都","city":"府中市","address":"東京都府中市日吉町1","lat":35.66537655,"lon":139.48689909},{"name":"稲城大橋河川敷","province":"東京都","city":"府中市","address":"東京都府中市押立町5丁目","lat":35.65279891,"lon":139.51860288},{"name":"関戸橋河川敷","province":"東京都","city":"府中市","address":"東京都府中市住吉町2丁目","lat":35.65711565,"lon":139.45856007},{"name":"府中市陸上競技場","province":"東京都","city":"府中市","address":"東京都府中市寿町2丁目20","lat":35.67664722,"lon":139.47528856},{"name":"都立多摩・小児総合医療センターヘリポート","province":"東京都","city":"府中市","address":"東京都府中市武蔵台2丁目8-29","lat":35.69188402,"lon":139.46098088},{"name":"郷土の森公園（是政緑地）","province":"東京都","city":"府中市","address":"東京都府中市是政6丁目","lat":35.656008,"lon":139.48189143},{"name":"都立府中の森公園サッカー場","province":"東京都","city":"府中市","address":"東京都府中市浅間町1丁目","lat":35.6770059,"lon":139.49241491},{"name":"＊?府中市立白糸台文化センター(複合施設）","province":"東京都","city":"府中市","address":"府中市白糸台1-60","lat":35.667081,"lon":139.506149},{"name":"＊?府中市立西府文化センター(複合施設）","province":"東京都","city":"府中市","address":"府中市西府町1-10","lat":35.670886,"lon":139.45627},{"name":"＊?府中市立紅葉丘文化センター(複合施設）","province":"東京都","city":"府中市","address":"府中市紅葉丘2-1","lat":35.676533,"lon":139.509245},{"name":"＊?府中市立是政文化センター(複合施設）","province":"東京都","city":"府中市","address":"府中市是政2-20","lat":35.660891,"lon":139.495318},{"name":"＊?府中市立新町文化センター(複合施設）","province":"東京都","city":"府中市","address":"府中市新町1-66","lat":35.687183,"lon":139.489386},{"name":"＊?府中市立住吉文化センター(複合施設）","province":"東京都","city":"府中市","address":"府中市住吉町1-61","lat":35.660297,"lon":139.460272},{"name":"＊?府中市立四谷文化センター(複合施設）","province":"東京都","city":"府中市","address":"府中市四谷2-75","lat":35.665294,"lon":139.445637},{"name":"＊?府中市立片町文化センター(複合施設）","province":"東京都","city":"府中市","address":"府中市片町2-17","lat":35.670275,"lon":139.469377},{"name":"＊?府中市立押立文化センター(複合施設）","province":"東京都","city":"府中市","address":"府中市押立町5-4","lat":35.653691,"lon":139.517813},{"name":"＊?府中市立武蔵台文化センター(複合施設）","province":"東京都","city":"府中市","address":"府中市武蔵台2-2","lat":35.688581,"lon":139.461425},{"name":"アルフレッサ（株）調布支店","province":"東京都","city":"府中市","address":"府中市西原町1-5-1","lat":35.68195,"lon":139.4604},{"name":"府中武蔵台浄水所及び府中武蔵台ポンプ所","province":"東京都","city":"府中市","address":"東京都府中市武蔵台2-7及び武蔵台1-25","lat":35.688081,"lon":139.460998},{"name":"若松給水所","province":"東京都","city":"府中市","address":"東京都府中市若松町4-10","lat":35.6760322,"lon":139.499748},{"name":"幸町給水所","province":"東京都","city":"府中市","address":"東京都府中市幸町2-24","lat":35.679613,"lon":139.483705},{"name":"府中南町給水所","province":"東京都","city":"府中市","address":"東京都府中市南町1-50","lat":35.6585721,"lon":139.470907},{"name":"都立武蔵野公園","province":"東京都","city":"府中市","address":"東京都府中市多磨町3-2","lat":35.6879393,"lon":139.5176078},{"name":"東京都立多摩・小児総合医療センター","province":"東京都","city":"府中市","address":"東京都府中市武蔵台2丁目8-29","lat":35.69188402,"lon":139.46098088},{"name":"府中武蔵台浄水所","province":"東京都","city":"府中市","address":"東京都府中市武蔵台2丁目7","lat":35.68899266,"lon":139.46004218},{"name":"府中南町浄水所","province":"東京都","city":"府中市","address":"東京都府中市南町1丁目50","lat":35.65857132,"lon":139.47090616},{"name":"都立武蔵野公園","province":"東京都","city":"府中市","address":"東京都府中市多磨町3丁目2","lat":35.68861916,"lon":139.51875946},{"name":"都立府中病院","province":"東京都","city":"府中市","address":"東京都府中市武蔵台2丁目9-2","lat":35.6920563,"lon":139.4641806},{"name":"都立武蔵野の森公園朝日サッカー場","province":"東京都","city":"府中市","address":"東京都府中市朝日町3丁目","lat":35.6664691,"lon":139.5212629},{"name":"東京競馬場・日吉体育館駐車場","province":"東京都","city":"府中市","address":"東京都府中市八幡町3丁目11","lat":35.66652097,"lon":139.49086538},{"name":"東京競馬場","province":"東京都","city":"府中市","address":"東京都府中市日吉町1","lat":35.66537655,"lon":139.48689909},{"name":"稲城大橋河川敷","province":"東京都","city":"府中市","address":"東京都府中市押立町5丁目","lat":35.65279891,"lon":139.51860288},{"name":"関戸橋河川敷","province":"東京都","city":"府中市","address":"東京都府中市住吉町2丁目","lat":35.65711565,"lon":139.45856007},{"name":"府中市陸上競技場","province":"東京都","city":"府中市","address":"東京都府中市寿町2丁目20","lat":35.67664722,"lon":139.47528856},{"name":"都立多摩・小児総合医療センターヘリポート","province":"東京都","city":"府中市","address":"東京都府中市武蔵台2丁目8-29","lat":35.69188402,"lon":139.46098088},{"name":"郷土の森公園（是政緑地）","province":"東京都","city":"府中市","address":"東京都府中市是政6丁目","lat":35.656008,"lon":139.48189143},{"name":"都立府中の森公園サッカー場","province":"東京都","city":"府中市","address":"東京都府中市浅間町1丁目","lat":35.6770059,"lon":139.49241491},{"name":"＊?府中市立白糸台文化センター(複合施設）","province":"東京都","city":"府中市","address":"府中市白糸台1-60","lat":35.667081,"lon":139.506149},{"name":"＊?府中市立西府文化センター(複合施設）","province":"東京都","city":"府中市","address":"府中市西府町1-10","lat":35.670886,"lon":139.45627},{"name":"＊?府中市立紅葉丘文化センター(複合施設）","province":"東京都","city":"府中市","address":"府中市紅葉丘2-1","lat":35.676533,"lon":139.509245},{"name":"＊?府中市立是政文化センター(複合施設）","province":"東京都","city":"府中市","address":"府中市是政2-20","lat":35.660891,"lon":139.495318},{"name":"＊?府中市立新町文化センター(複合施設）","province":"東京都","city":"府中市","address":"府中市新町1-66","lat":35.687183,"lon":139.489386},{"name":"＊?府中市立住吉文化センター(複合施設）","province":"東京都","city":"府中市","address":"府中市住吉町1-61","lat":35.660297,"lon":139.460272},{"name":"＊?府中市立四谷文化センター(複合施設）","province":"東京都","city":"府中市","address":"府中市四谷2-75","lat":35.665294,"lon":139.445637},{"name":"＊?府中市立片町文化センター(複合施設）","province":"東京都","city":"府中市","address":"府中市片町2-17","lat":35.670275,"lon":139.469377},{"name":"＊?府中市立押立文化センター(複合施設）","province":"東京都","city":"府中市","address":"府中市押立町5-4","lat":35.653691,"lon":139.517813},{"name":"＊?府中市立武蔵台文化センター(複合施設）","province":"東京都","city":"府中市","address":"府中市武蔵台2-2","lat":35.688581,"lon":139.461425},{"name":"アルフレッサ（株）調布支店","province":"東京都","city":"府中市","address":"府中市西原町1-5-1","lat":35.68195,"lon":139.4604},{"name":"府中武蔵台浄水所及び府中武蔵台ポンプ所","province":"東京都","city":"府中市","address":"東京都府中市武蔵台2-7及び武蔵台1-25","lat":35.688081,"lon":139.460998},{"name":"若松給水所","province":"東京都","city":"府中市","address":"東京都府中市若松町4-10","lat":35.6760322,"lon":139.499748},{"name":"幸町給水所","province":"東京都","city":"府中市","address":"東京都府中市幸町2-24","lat":35.679613,"lon":139.483705},{"name":"府中南町給水所","province":"東京都","city":"府中市","address":"東京都府中市南町1-50","lat":35.6585721,"lon":139.470907},{"name":"都立武蔵野公園","province":"東京都","city":"府中市","address":"東京都府中市多磨町3-2","lat":35.6879393,"lon":139.5176078},{"name":"東京都立多摩・小児総合医療センター","province":"東京都","city":"府中市","address":"東京都府中市武蔵台2丁目8-29","lat":35.69188402,"lon":139.46098088},{"name":"都立府中病院","province":"東京都","city":"府中市","address":"東京都府中市武蔵台2丁目9-2","lat":35.6920563,"lon":139.4641806},{"name":"都立武蔵野の森公園朝日サッカー場","province":"東京都","city":"府中市","address":"東京都府中市朝日町3丁目","lat":35.6664691,"lon":139.5212629},{"name":"東京競馬場・日吉体育館駐車場","province":"東京都","city":"府中市","address":"東京都府中市八幡町3丁目11","lat":35.66652097,"lon":139.49086538},{"name":"東京競馬場","province":"東京都","city":"府中市","address":"東京都府中市日吉町1","lat":35.66537655,"lon":139.48689909},{"name":"稲城大橋河川敷","province":"東京都","city":"府中市","address":"東京都府中市押立町5丁目","lat":35.65279891,"lon":139.51860288},{"name":"関戸橋河川敷","province":"東京都","city":"府中市","address":"東京都府中市住吉町2丁目","lat":35.65711565,"lon":139.45856007},{"name":"府中市陸上競技場","province":"東京都","city":"府中市","address":"東京都府中市寿町2丁目20","lat":35.67664722,"lon":139.47528856},{"name":"都立多摩・小児総合医療センターヘリポート","province":"東京都","city":"府中市","address":"東京都府中市武蔵台2丁目8-29","lat":35.69188402,"lon":139.46098088},{"name":"郷土の森公園（是政緑地）","province":"東京都","city":"府中市","address":"東京都府中市是政6丁目","lat":35.656008,"lon":139.48189143},{"name":"都立府中の森公園サッカー場","province":"東京都","city":"府中市","address":"東京都府中市浅間町1丁目","lat":35.6770059,"lon":139.49241491},{"name":"＊?府中市立白糸台文化センター(複合施設）","province":"東京都","city":"府中市","address":"府中市白糸台1-60","lat":35.667081,"lon":139.506149},{"name":"＊?府中市立西府文化センター(複合施設）","province":"東京都","city":"府中市","address":"府中市西府町1-10","lat":35.670886,"lon":139.45627},{"name":"＊?府中市立紅葉丘文化センター(複合施設）","province":"東京都","city":"府中市","address":"府中市紅葉丘2-1","lat":35.676533,"lon":139.509245},{"name":"＊?府中市立是政文化センター(複合施設）","province":"東京都","city":"府中市","address":"府中市是政2-20","lat":35.660891,"lon":139.495318},{"name":"＊?府中市立新町文化センター(複合施設）","province":"東京都","city":"府中市","address":"府中市新町1-66","lat":35.687183,"lon":139.489386},{"name":"＊?府中市立住吉文化センター(複合施設）","province":"東京都","city":"府中市","address":"府中市住吉町1-61","lat":35.660297,"lon":139.460272},{"name":"＊?府中市立四谷文化センター(複合施設）","province":"東京都","city":"府中市","address":"府中市四谷2-75","lat":35.665294,"lon":139.445637},{"name":"＊?府中市立片町文化センター(複合施設）","province":"東京都","city":"府中市","address":"府中市片町2-17","lat":35.670275,"lon":139.469377},{"name":"＊?府中市立押立文化センター(複合施設）","province":"東京都","city":"府中市","address":"府中市押立町5-4","lat":35.653691,"lon":139.517813},{"name":"＊?府中市立武蔵台文化センター(複合施設）","province":"東京都","city":"府中市","address":"府中市武蔵台2-2","lat":35.688581,"lon":139.461425},{"name":"アルフレッサ（株）調布支店","province":"東京都","city":"府中市","address":"府中市西原町1-5-1","lat":35.68195,"lon":139.4604},{"name":"府中武蔵台浄水所及び府中武蔵台ポンプ所","province":"東京都","city":"府中市","address":"東京都府中市武蔵台2-7及び武蔵台1-25","lat":35.688081,"lon":139.460998},{"name":"若松給水所","province":"東京都","city":"府中市","address":"東京都府中市若松町4-10","lat":35.6760322,"lon":139.499748},{"name":"幸町給水所","province":"東京都","city":"府中市","address":"東京都府中市幸町2-24","lat":35.679613,"lon":139.483705},{"name":"府中南町給水所","province":"東京都","city":"府中市","address":"東京都府中市南町1-50","lat":35.6585721,"lon":139.470907},{"name":"都立武蔵野公園","province":"東京都","city":"府中市","address":"東京都府中市多磨町3-2","lat":35.6879393,"lon":139.5176078},{"name":"東京都立多摩・小児総合医療センター","province":"東京都","city":"府中市","address":"東京都府中市武蔵台2丁目8-29","lat":35.69188402,"lon":139.46098088},{"name":"都立府中病院","province":"東京都","city":"府中市","address":"東京都府中市武蔵台2丁目9-2","lat":35.6920563,"lon":139.4641806},{"name":"＊?府中市立白糸台文化センター(複合施設）","province":"東京都","city":"府中市","address":"府中市白糸台1-60","lat":35.667081,"lon":139.506149},{"name":"＊?府中市立西府文化センター(複合施設）","province":"東京都","city":"府中市","address":"府中市西府町1-10","lat":35.670886,"lon":139.45627},{"name":"＊?府中市立紅葉丘文化センター(複合施設）","province":"東京都","city":"府中市","address":"府中市紅葉丘2-1","lat":35.676533,"lon":139.509245},{"name":"＊?府中市立是政文化センター(複合施設）","province":"東京都","city":"府中市","address":"府中市是政2-20","lat":35.660891,"lon":139.495318},{"name":"＊?府中市立新町文化センター(複合施設）","province":"東京都","city":"府中市","address":"府中市新町1-66","lat":35.687183,"lon":139.489386},{"name":"＊?府中市立住吉文化センター(複合施設）","province":"東京都","city":"府中市","address":"府中市住吉町1-61","lat":35.660297,"lon":139.460272},{"name":"＊?府中市立四谷文化センター(複合施設）","province":"東京都","city":"府中市","address":"府中市四谷2-75","lat":35.665294,"lon":139.445637},{"name":"＊?府中市立片町文化センター(複合施設）","province":"東京都","city":"府中市","address":"府中市片町2-17","lat":35.670275,"lon":139.469377},{"name":"＊?府中市立押立文化センター(複合施設）","province":"東京都","city":"府中市","address":"府中市押立町5-4","lat":35.653691,"lon":139.517813},{"name":"＊?府中市立武蔵台文化センター(複合施設）","province":"東京都","city":"府中市","address":"府中市武蔵台2-2","lat":35.688581,"lon":139.461425},{"name":"アルフレッサ（株）調布支店","province":"東京都","city":"府中市","address":"府中市西原町1-5-1","lat":35.68195,"lon":139.4604},{"name":"府中武蔵台浄水所及び府中武蔵台ポンプ所","province":"東京都","city":"府中市","address":"東京都府中市武蔵台2-7及び武蔵台1-25","lat":35.688081,"lon":139.460998},{"name":"若松給水所","province":"東京都","city":"府中市","address":"東京都府中市若松町4-10","lat":35.6760322,"lon":139.499748},{"name":"幸町給水所","province":"東京都","city":"府中市","address":"東京都府中市幸町2-24","lat":35.679613,"lon":139.483705},{"name":"府中南町給水所","province":"東京都","city":"府中市","address":"東京都府中市南町1-50","lat":35.6585721,"lon":139.470907},{"name":"都立武蔵野公園","province":"東京都","city":"府中市","address":"東京都府中市多磨町3-2","lat":35.6879393,"lon":139.5176078},{"name":"東京都立多摩・小児総合医療センター","province":"東京都","city":"府中市","address":"東京都府中市武蔵台2丁目8-29","lat":35.69188402,"lon":139.46098088},{"name":"都立府中病院","province":"東京都","city":"府中市","address":"東京都府中市武蔵台2丁目9-2","lat":35.6920563,"lon":139.4641806},{"name":"＊?府中市立白糸台文化センター(複合施設）","province":"東京都","city":"府中市","address":"府中市白糸台1-60","lat":35.667081,"lon":139.506149},{"name":"＊?府中市立西府文化センター(複合施設）","province":"東京都","city":"府中市","address":"府中市西府町1-10","lat":35.670886,"lon":139.45627},{"name":"＊?府中市立紅葉丘文化センター(複合施設）","province":"東京都","city":"府中市","address":"府中市紅葉丘2-1","lat":35.676533,"lon":139.509245},{"name":"＊?府中市立是政文化センター(複合施設）","province":"東京都","city":"府中市","address":"府中市是政2-20","lat":35.660891,"lon":139.495318},{"name":"＊?府中市立新町文化センター(複合施設）","province":"東京都","city":"府中市","address":"府中市新町1-66","lat":35.687183,"lon":139.489386},{"name":"＊?府中市立住吉文化センター(複合施設）","province":"東京都","city":"府中市","address":"府中市住吉町1-61","lat":35.660297,"lon":139.460272},{"name":"＊?府中市立四谷文化センター(複合施設）","province":"東京都","city":"府中市","address":"府中市四谷2-75","lat":35.665294,"lon":139.445637},{"name":"＊?府中市立片町文化センター(複合施設）","province":"東京都","city":"府中市","address":"府中市片町2-17","lat":35.670275,"lon":139.469377},{"name":"＊?府中市立押立文化センター(複合施設）","province":"東京都","city":"府中市","address":"府中市押立町5-4","lat":35.653691,"lon":139.517813},{"name":"＊?府中市立武蔵台文化センター(複合施設）","province":"東京都","city":"府中市","address":"府中市武蔵台2-2","lat":35.688581,"lon":139.461425},{"name":"アルフレッサ（株）調布支店","province":"東京都","city":"府中市","address":"府中市西原町1-5-1","lat":35.68195,"lon":139.4604},{"name":"府中武蔵台浄水所及び府中武蔵台ポンプ所","province":"東京都","city":"府中市","address":"東京都府中市武蔵台2-7及び武蔵台1-25","lat":35.688081,"lon":139.460998},{"name":"若松給水所","province":"東京都","city":"府中市","address":"東京都府中市若松町4-10","lat":35.6760322,"lon":139.499748},{"name":"幸町給水所","province":"東京都","city":"府中市","address":"東京都府中市幸町2-24","lat":35.679613,"lon":139.483705},{"name":"府中南町給水所","province":"東京都","city":"府中市","address":"東京都府中市南町1-50","lat":35.6585721,"lon":139.470907},{"name":"都立武蔵野公園","province":"東京都","city":"府中市","address":"東京都府中市多磨町3-2","lat":35.6879393,"lon":139.5176078},{"name":"東京都立多摩・小児総合医療センター","province":"東京都","city":"府中市","address":"東京都府中市武蔵台2丁目8-29","lat":35.69188402,"lon":139.46098088},{"name":"都立府中病院","province":"東京都","city":"府中市","address":"東京都府中市武蔵台2丁目9-2","lat":35.6920563,"lon":139.4641806},{"name":"＊?府中市立白糸台文化センター(複合施設）","province":"東京都","city":"府中市","address":"府中市白糸台1-60","lat":35.667081,"lon":139.506149},{"name":"＊?府中市立西府文化センター(複合施設）","province":"東京都","city":"府中市","address":"府中市西府町1-10","lat":35.670886,"lon":139.45627},{"name":"＊?府中市立紅葉丘文化センター(複合施設）","province":"東京都","city":"府中市","address":"府中市紅葉丘2-1","lat":35.676533,"lon":139.509245},{"name":"＊?府中市立是政文化センター(複合施設）","province":"東京都","city":"府中市","address":"府中市是政2-20","lat":35.660891,"lon":139.495318},{"name":"＊?府中市立新町文化センター(複合施設）","province":"東京都","city":"府中市","address":"府中市新町1-66","lat":35.687183,"lon":139.489386},{"name":"＊?府中市立住吉文化センター(複合施設）","province":"東京都","city":"府中市","address":"府中市住吉町1-61","lat":35.660297,"lon":139.460272},{"name":"＊?府中市立四谷文化センター(複合施設）","province":"東京都","city":"府中市","address":"府中市四谷2-75","lat":35.665294,"lon":139.445637},{"name":"＊?府中市立片町文化センター(複合施設）","province":"東京都","city":"府中市","address":"府中市片町2-17","lat":35.670275,"lon":139.469377},{"name":"＊?府中市立押立文化センター(複合施設）","province":"東京都","city":"府中市","address":"府中市押立町5-4","lat":35.653691,"lon":139.517813},{"name":"＊?府中市立武蔵台文化センター(複合施設）","province":"東京都","city":"府中市","address":"府中市武蔵台2-2","lat":35.688581,"lon":139.461425},{"name":"アルフレッサ（株）調布支店","province":"東京都","city":"府中市","address":"府中市西原町1-5-1","lat":35.68195,"lon":139.4604},{"name":"府中武蔵台浄水所及び府中武蔵台ポンプ所","province":"東京都","city":"府中市","address":"東京都府中市武蔵台2-7及び武蔵台1-25","lat":35.688081,"lon":139.460998},{"name":"若松給水所","province":"東京都","city":"府中市","address":"東京都府中市若松町4-10","lat":35.6760322,"lon":139.499748},{"name":"幸町給水所","province":"東京都","city":"府中市","address":"東京都府中市幸町2-24","lat":35.679613,"lon":139.483705},{"name":"府中南町給水所","province":"東京都","city":"府中市","address":"東京都府中市南町1-50","lat":35.6585721,"lon":139.470907},{"name":"都立武蔵野公園","province":"東京都","city":"府中市","address":"東京都府中市多磨町3-2","lat":35.6879393,"lon":139.5176078},{"name":"東京都立多摩・小児総合医療センター","province":"東京都","city":"府中市","address":"東京都府中市武蔵台2丁目8-29","lat":35.69188402,"lon":139.46098088},{"name":"都立府中病院","province":"東京都","city":"府中市","address":"東京都府中市武蔵台2丁目9-2","lat":35.6920563,"lon":139.4641806},{"name":"＊?府中市立白糸台文化センター(複合施設）","province":"東京都","city":"府中市","address":"府中市白糸台1-60","lat":35.667081,"lon":139.506149},{"name":"＊?府中市立西府文化センター(複合施設）","province":"東京都","city":"府中市","address":"府中市西府町1-10","lat":35.670886,"lon":139.45627},{"name":"＊?府中市立紅葉丘文化センター(複合施設）","province":"東京都","city":"府中市","address":"府中市紅葉丘2-1","lat":35.676533,"lon":139.509245},{"name":"＊?府中市立是政文化センター(複合施設）","province":"東京都","city":"府中市","address":"府中市是政2-20","lat":35.660891,"lon":139.495318},{"name":"＊?府中市立新町文化センター(複合施設）","province":"東京都","city":"府中市","address":"府中市新町1-66","lat":35.687183,"lon":139.489386},{"name":"＊?府中市立住吉文化センター(複合施設）","province":"東京都","city":"府中市","address":"府中市住吉町1-61","lat":35.660297,"lon":139.460272},{"name":"＊?府中市立四谷文化センター(複合施設）","province":"東京都","city":"府中市","address":"府中市四谷2-75","lat":35.665294,"lon":139.445637},{"name":"＊?府中市立片町文化センター(複合施設）","province":"東京都","city":"府中市","address":"府中市片町2-17","lat":35.670275,"lon":139.469377},{"name":"＊?府中市立押立文化センター(複合施設）","province":"東京都","city":"府中市","address":"府中市押立町5-4","lat":35.653691,"lon":139.517813},{"name":"＊?府中市立武蔵台文化センター(複合施設）","province":"東京都","city":"府中市","address":"府中市武蔵台2-2","lat":35.688581,"lon":139.461425},{"name":"アルフレッサ（株）調布支店","province":"東京都","city":"府中市","address":"府中市西原町1-5-1","lat":35.68195,"lon":139.4604},{"name":"府中武蔵台浄水所及び府中武蔵台ポンプ所","province":"東京都","city":"府中市","address":"東京都府中市武蔵台2-7及び武蔵台1-25","lat":35.688081,"lon":139.460998},{"name":"若松給水所","province":"東京都","city":"府中市","address":"東京都府中市若松町4-10","lat":35.6760322,"lon":139.499748},{"name":"幸町給水所","province":"東京都","city":"府中市","address":"東京都府中市幸町2-24","lat":35.679613,"lon":139.483705},{"name":"府中南町給水所","province":"東京都","city":"府中市","address":"東京都府中市南町1-50","lat":35.6585721,"lon":139.470907},{"name":"都立武蔵野公園","province":"東京都","city":"府中市","address":"東京都府中市多磨町3-2","lat":35.6879393,"lon":139.5176078},{"name":"東京都立多摩・小児総合医療センター","province":"東京都","city":"府中市","address":"東京都府中市武蔵台2丁目8-29","lat":35.69188402,"lon":139.46098088},{"name":"都立府中病院","province":"東京都","city":"府中市","address":"東京都府中市武蔵台2丁目9-2","lat":35.6920563,"lon":139.4641806},{"name":"＊?府中市立白糸台文化センター(複合施設）","province":"東京都","city":"府中市","address":"府中市白糸台1-60","lat":35.667081,"lon":139.506149},{"name":"＊?府中市立西府文化センター(複合施設）","province":"東京都","city":"府中市","address":"府中市西府町1-10","lat":35.670886,"lon":139.45627},{"name":"＊?府中市立紅葉丘文化センター(複合施設）","province":"東京都","city":"府中市","address":"府中市紅葉丘2-1","lat":35.676533,"lon":139.509245},{"name":"＊?府中市立是政文化センター(複合施設）","province":"東京都","city":"府中市","address":"府中市是政2-20","lat":35.660891,"lon":139.495318},{"name":"＊?府中市立新町文化センター(複合施設）","province":"東京都","city":"府中市","address":"府中市新町1-66","lat":35.687183,"lon":139.489386},{"name":"＊?府中市立住吉文化センター(複合施設）","province":"東京都","city":"府中市","address":"府中市住吉町1-61","lat":35.660297,"lon":139.460272},{"name":"＊?府中市立四谷文化センター(複合施設）","province":"東京都","city":"府中市","address":"府中市四谷2-75","lat":35.665294,"lon":139.445637},{"name":"＊?府中市立片町文化センター(複合施設）","province":"東京都","city":"府中市","address":"府中市片町2-17","lat":35.670275,"lon":139.469377},{"name":"＊?府中市立押立文化センター(複合施設）","province":"東京都","city":"府中市","address":"府中市押立町5-4","lat":35.653691,"lon":139.517813},{"name":"＊?府中市立武蔵台文化センター(複合施設）","province":"東京都","city":"府中市","address":"府中市武蔵台2-2","lat":35.688581,"lon":139.461425},{"name":"アルフレッサ（株）調布支店","province":"東京都","city":"府中市","address":"府中市西原町1-5-1","lat":35.68195,"lon":139.4604},{"name":"府中武蔵台浄水所及び府中武蔵台ポンプ所","province":"東京都","city":"府中市","address":"東京都府中市武蔵台2-7及び武蔵台1-25","lat":35.688081,"lon":139.460998},{"name":"若松給水所","province":"東京都","city":"府中市","address":"東京都府中市若松町4-10","lat":35.6760322,"lon":139.499748},{"name":"幸町給水所","province":"東京都","city":"府中市","address":"東京都府中市幸町2-24","lat":35.679613,"lon":139.483705},{"name":"府中南町給水所","province":"東京都","city":"府中市","address":"東京都府中市南町1-50","lat":35.6585721,"lon":139.470907},{"name":"都立武蔵野公園","province":"東京都","city":"府中市","address":"東京都府中市多磨町3-2","lat":35.6879393,"lon":139.5176078},{"name":"東京都立多摩・小児総合医療センター","province":"東京都","city":"府中市","address":"東京都府中市武蔵台2丁目8-29","lat":35.69188402,"lon":139.46098088},{"name":"都立府中病院","province":"東京都","city":"府中市","address":"東京都府中市武蔵台2丁目9-2","lat":35.6920563,"lon":139.4641806},{"name":"＊?府中市立白糸台文化センター(複合施設）","province":"東京都","city":"府中市","address":"府中市白糸台1-60","lat":35.667081,"lon":139.506149},{"name":"＊?府中市立西府文化センター(複合施設）","province":"東京都","city":"府中市","address":"府中市西府町1-10","lat":35.670886,"lon":139.45627},{"name":"＊?府中市立紅葉丘文化センター(複合施設）","province":"東京都","city":"府中市","address":"府中市紅葉丘2-1","lat":35.676533,"lon":139.509245},{"name":"＊?府中市立是政文化センター(複合施設）","province":"東京都","city":"府中市","address":"府中市是政2-20","lat":35.660891,"lon":139.495318},{"name":"＊?府中市立新町文化センター(複合施設）","province":"東京都","city":"府中市","address":"府中市新町1-66","lat":35.687183,"lon":139.489386},{"name":"＊?府中市立住吉文化センター(複合施設）","province":"東京都","city":"府中市","address":"府中市住吉町1-61","lat":35.660297,"lon":139.460272},{"name":"＊?府中市立四谷文化センター(複合施設）","province":"東京都","city":"府中市","address":"府中市四谷2-75","lat":35.665294,"lon":139.445637},{"name":"＊?府中市立片町文化センター(複合施設）","province":"東京都","city":"府中市","address":"府中市片町2-17","lat":35.670275,"lon":139.469377},{"name":"＊?府中市立押立文化センター(複合施設）","province":"東京都","city":"府中市","address":"府中市押立町5-4","lat":35.653691,"lon":139.517813},{"name":"＊?府中市立武蔵台文化センター(複合施設）","province":"東京都","city":"府中市","address":"府中市武蔵台2-2","lat":35.688581,"lon":139.461425},{"name":"アルフレッサ（株）調布支店","province":"東京都","city":"府中市","address":"府中市西原町1-5-1","lat":35.68195,"lon":139.4604},{"name":"府中武蔵台浄水所及び府中武蔵台ポンプ所","province":"東京都","city":"府中市","address":"東京都府中市武蔵台2-7及び武蔵台1-25","lat":35.688081,"lon":139.460998},{"name":"若松給水所","province":"東京都","city":"府中市","address":"東京都府中市若松町4-10","lat":35.6760322,"lon":139.499748},{"name":"幸町給水所","province":"東京都","city":"府中市","address":"東京都府中市幸町2-24","lat":35.679613,"lon":139.483705},{"name":"府中南町給水所","province":"東京都","city":"府中市","address":"東京都府中市南町1-50","lat":35.6585721,"lon":139.470907},{"name":"都立武蔵野公園","province":"東京都","city":"府中市","address":"東京都府中市多磨町3-2","lat":35.6879393,"lon":139.5176078},{"name":"＊?府中市立白糸台文化センター(複合施設）","province":"東京都","city":"府中市","address":"府中市白糸台1-60","lat":35.667081,"lon":139.506149},{"name":"＊?府中市立西府文化センター(複合施設）","province":"東京都","city":"府中市","address":"府中市西府町1-10","lat":35.670886,"lon":139.45627},{"name":"＊?府中市立紅葉丘文化センター(複合施設）","province":"東京都","city":"府中市","address":"府中市紅葉丘2-1","lat":35.676533,"lon":139.509245},{"name":"＊?府中市立是政文化センター(複合施設）","province":"東京都","city":"府中市","address":"府中市是政2-20","lat":35.660891,"lon":139.495318},{"name":"＊?府中市立新町文化センター(複合施設）","province":"東京都","city":"府中市","address":"府中市新町1-66","lat":35.687183,"lon":139.489386},{"name":"＊?府中市立住吉文化センター(複合施設）","province":"東京都","city":"府中市","address":"府中市住吉町1-61","lat":35.660297,"lon":139.460272},{"name":"＊?府中市立四谷文化センター(複合施設）","province":"東京都","city":"府中市","address":"府中市四谷2-75","lat":35.665294,"lon":139.445637},{"name":"＊?府中市立片町文化センター(複合施設）","province":"東京都","city":"府中市","address":"府中市片町2-17","lat":35.670275,"lon":139.469377},{"name":"＊?府中市立押立文化センター(複合施設）","province":"東京都","city":"府中市","address":"府中市押立町5-4","lat":35.653691,"lon":139.517813},{"name":"＊?府中市立武蔵台文化センター(複合施設）","province":"東京都","city":"府中市","address":"府中市武蔵台2-2","lat":35.688581,"lon":139.461425},{"name":"アルフレッサ（株）調布支店","province":"東京都","city":"府中市","address":"府中市西原町1-5-1","lat":35.68195,"lon":139.4604},{"name":"府中武蔵台浄水所及び府中武蔵台ポンプ所","province":"東京都","city":"府中市","address":"東京都府中市武蔵台2-7及び武蔵台1-25","lat":35.688081,"lon":139.460998},{"name":"若松給水所","province":"東京都","city":"府中市","address":"東京都府中市若松町4-10","lat":35.6760322,"lon":139.499748},{"name":"幸町給水所","province":"東京都","city":"府中市","address":"東京都府中市幸町2-24","lat":35.679613,"lon":139.483705},{"name":"府中南町給水所","province":"東京都","city":"府中市","address":"東京都府中市南町1-50","lat":35.6585721,"lon":139.470907},{"name":"都立武蔵野公園","province":"東京都","city":"府中市","address":"東京都府中市多磨町3-2","lat":35.6879393,"lon":139.5176078},{"name":"＊?府中市立白糸台文化センター(複合施設）","province":"東京都","city":"府中市","address":"府中市白糸台1-60","lat":35.667081,"lon":139.506149},{"name":"＊?府中市立西府文化センター(複合施設）","province":"東京都","city":"府中市","address":"府中市西府町1-10","lat":35.670886,"lon":139.45627},{"name":"＊?府中市立紅葉丘文化センター(複合施設）","province":"東京都","city":"府中市","address":"府中市紅葉丘2-1","lat":35.676533,"lon":139.509245},{"name":"＊?府中市立是政文化センター(複合施設）","province":"東京都","city":"府中市","address":"府中市是政2-20","lat":35.660891,"lon":139.495318},{"name":"＊?府中市立新町文化センター(複合施設）","province":"東京都","city":"府中市","address":"府中市新町1-66","lat":35.687183,"lon":139.489386},{"name":"＊?府中市立住吉文化センター(複合施設）","province":"東京都","city":"府中市","address":"府中市住吉町1-61","lat":35.660297,"lon":139.460272},{"name":"＊?府中市立四谷文化センター(複合施設）","province":"東京都","city":"府中市","address":"府中市四谷2-75","lat":35.665294,"lon":139.445637},{"name":"＊?府中市立片町文化センター(複合施設）","province":"東京都","city":"府中市","address":"府中市片町2-17","lat":35.670275,"lon":139.469377},{"name":"＊?府中市立押立文化センター(複合施設）","province":"東京都","city":"府中市","address":"府中市押立町5-4","lat":35.653691,"lon":139.517813},{"name":"＊?府中市立武蔵台文化センター(複合施設）","province":"東京都","city":"府中市","address":"府中市武蔵台2-2","lat":35.688581,"lon":139.461425},{"name":"アルフレッサ（株）調布支店","province":"東京都","city":"府中市","address":"府中市西原町1-5-1","lat":35.68195,"lon":139.4604},{"name":"府中武蔵台浄水所及び府中武蔵台ポンプ所","province":"東京都","city":"府中市","address":"東京都府中市武蔵台2-7及び武蔵台1-25","lat":35.688081,"lon":139.460998},{"name":"若松給水所","province":"東京都","city":"府中市","address":"東京都府中市若松町4-10","lat":35.6760322,"lon":139.499748},{"name":"幸町給水所","province":"東京都","city":"府中市","address":"東京都府中市幸町2-24","lat":35.679613,"lon":139.483705},{"name":"府中南町給水所","province":"東京都","city":"府中市","address":"東京都府中市南町1-50","lat":35.6585721,"lon":139.470907},{"name":"都立武蔵野公園","province":"東京都","city":"府中市","address":"東京都府中市多磨町3-2","lat":35.6879393,"lon":139.5176078},{"name":"＊?府中市立白糸台文化センター(複合施設）","province":"東京都","city":"府中市","address":"府中市白糸台1-60","lat":35.667081,"lon":139.506149},{"name":"＊?府中市立西府文化センター(複合施設）","province":"東京都","city":"府中市","address":"府中市西府町1-10","lat":35.670886,"lon":139.45627},{"name":"＊?府中市立紅葉丘文化センター(複合施設）","province":"東京都","city":"府中市","address":"府中市紅葉丘2-1","lat":35.676533,"lon":139.509245},{"name":"＊?府中市立是政文化センター(複合施設）","province":"東京都","city":"府中市","address":"府中市是政2-20","lat":35.660891,"lon":139.495318},{"name":"＊?府中市立新町文化センター(複合施設）","province":"東京都","city":"府中市","address":"府中市新町1-66","lat":35.687183,"lon":139.489386},{"name":"＊?府中市立住吉文化センター(複合施設）","province":"東京都","city":"府中市","address":"府中市住吉町1-61","lat":35.660297,"lon":139.460272},{"name":"＊?府中市立四谷文化センター(複合施設）","province":"東京都","city":"府中市","address":"府中市四谷2-75","lat":35.665294,"lon":139.445637},{"name":"＊?府中市立片町文化センター(複合施設）","province":"東京都","city":"府中市","address":"府中市片町2-17","lat":35.670275,"lon":139.469377},{"name":"＊?府中市立押立文化センター(複合施設）","province":"東京都","city":"府中市","address":"府中市押立町5-4","lat":35.653691,"lon":139.517813},{"name":"＊?府中市立武蔵台文化センター(複合施設）","province":"東京都","city":"府中市","address":"府中市武蔵台2-2","lat":35.688581,"lon":139.461425},{"name":"アルフレッサ（株）調布支店","province":"東京都","city":"府中市","address":"府中市西原町1-5-1","lat":35.68195,"lon":139.4604},{"name":"府中武蔵台浄水所及び府中武蔵台ポンプ所","province":"東京都","city":"府中市","address":"東京都府中市武蔵台2-7及び武蔵台1-25","lat":35.688081,"lon":139.460998},{"name":"若松給水所","province":"東京都","city":"府中市","address":"東京都府中市若松町4-10","lat":35.6760322,"lon":139.499748},{"name":"幸町給水所","province":"東京都","city":"府中市","address":"東京都府中市幸町2-24","lat":35.679613,"lon":139.483705},{"name":"府中南町給水所","province":"東京都","city":"府中市","address":"東京都府中市南町1-50","lat":35.6585721,"lon":139.470907},{"name":"都立武蔵野公園","province":"東京都","city":"府中市","address":"東京都府中市多磨町3-2","lat":35.6879393,"lon":139.5176078},{"name":"＊?府中市立白糸台文化センター(複合施設）","province":"東京都","city":"府中市","address":"府中市白糸台1-60","lat":35.667081,"lon":139.506149},{"name":"＊?府中市立西府文化センター(複合施設）","province":"東京都","city":"府中市","address":"府中市西府町1-10","lat":35.670886,"lon":139.45627},{"name":"＊?府中市立紅葉丘文化センター(複合施設）","province":"東京都","city":"府中市","address":"府中市紅葉丘2-1","lat":35.676533,"lon":139.509245},{"name":"＊?府中市立是政文化センター(複合施設）","province":"東京都","city":"府中市","address":"府中市是政2-20","lat":35.660891,"lon":139.495318},{"name":"＊?府中市立新町文化センター(複合施設）","province":"東京都","city":"府中市","address":"府中市新町1-66","lat":35.687183,"lon":139.489386},{"name":"＊?府中市立住吉文化センター(複合施設）","province":"東京都","city":"府中市","address":"府中市住吉町1-61","lat":35.660297,"lon":139.460272},{"name":"＊?府中市立四谷文化センター(複合施設）","province":"東京都","city":"府中市","address":"府中市四谷2-75","lat":35.665294,"lon":139.445637},{"name":"＊?府中市立片町文化センター(複合施設）","province":"東京都","city":"府中市","address":"府中市片町2-17","lat":35.670275,"lon":139.469377},{"name":"＊?府中市立押立文化センター(複合施設）","province":"東京都","city":"府中市","address":"府中市押立町5-4","lat":35.653691,"lon":139.517813},{"name":"＊?府中市立武蔵台文化センター(複合施設）","province":"東京都","city":"府中市","address":"府中市武蔵台2-2","lat":35.688581,"lon":139.461425},{"name":"アルフレッサ（株）調布支店","province":"東京都","city":"府中市","address":"府中市西原町1-5-1","lat":35.68195,"lon":139.4604},{"name":"府中武蔵台浄水所及び府中武蔵台ポンプ所","province":"東京都","city":"府中市","address":"東京都府中市武蔵台2-7及び武蔵台1-25","lat":35.688081,"lon":139.460998},{"name":"若松給水所","province":"東京都","city":"府中市","address":"東京都府中市若松町4-10","lat":35.6760322,"lon":139.499748},{"name":"幸町給水所","province":"東京都","city":"府中市","address":"東京都府中市幸町2-24","lat":35.679613,"lon":139.483705},{"name":"府中南町給水所","province":"東京都","city":"府中市","address":"東京都府中市南町1-50","lat":35.6585721,"lon":139.470907},{"name":"都立武蔵野公園","province":"東京都","city":"府中市","address":"東京都府中市多磨町3-2","lat":35.6879393,"lon":139.5176078},{"name":"＊?府中市立白糸台文化センター(複合施設）","province":"東京都","city":"府中市","address":"府中市白糸台1-60","lat":35.667081,"lon":139.506149},{"name":"＊?府中市立西府文化センター(複合施設）","province":"東京都","city":"府中市","address":"府中市西府町1-10","lat":35.670886,"lon":139.45627},{"name":"＊?府中市立紅葉丘文化センター(複合施設）","province":"東京都","city":"府中市","address":"府中市紅葉丘2-1","lat":35.676533,"lon":139.509245},{"name":"＊?府中市立是政文化センター(複合施設）","province":"東京都","city":"府中市","address":"府中市是政2-20","lat":35.660891,"lon":139.495318},{"name":"＊?府中市立新町文化センター(複合施設）","province":"東京都","city":"府中市","address":"府中市新町1-66","lat":35.687183,"lon":139.489386},{"name":"＊?府中市立住吉文化センター(複合施設）","province":"東京都","city":"府中市","address":"府中市住吉町1-61","lat":35.660297,"lon":139.460272},{"name":"＊?府中市立四谷文化センター(複合施設）","province":"東京都","city":"府中市","address":"府中市四谷2-75","lat":35.665294,"lon":139.445637},{"name":"＊?府中市立片町文化センター(複合施設）","province":"東京都","city":"府中市","address":"府中市片町2-17","lat":35.670275,"lon":139.469377},{"name":"＊?府中市立押立文化センター(複合施設）","province":"東京都","city":"府中市","address":"府中市押立町5-4","lat":35.653691,"lon":139.517813},{"name":"＊?府中市立武蔵台文化センター(複合施設）","province":"東京都","city":"府中市","address":"府中市武蔵台2-2","lat":35.688581,"lon":139.461425},{"name":"アルフレッサ（株）調布支店","province":"東京都","city":"府中市","address":"府中市西原町1-5-1","lat":35.68195,"lon":139.4604},{"name":"府中武蔵台浄水所及び府中武蔵台ポンプ所","province":"東京都","city":"府中市","address":"東京都府中市武蔵台2-7及び武蔵台1-25","lat":35.688081,"lon":139.460998},{"name":"若松給水所","province":"東京都","city":"府中市","address":"東京都府中市若松町4-10","lat":35.6760322,"lon":139.499748},{"name":"幸町給水所","province":"東京都","city":"府中市","address":"東京都府中市幸町2-24","lat":35.679613,"lon":139.483705},{"name":"府中南町給水所","province":"東京都","city":"府中市","address":"東京都府中市南町1-50","lat":35.6585721,"lon":139.470907},{"name":"都立武蔵野公園","province":"東京都","city":"府中市","address":"東京都府中市多磨町3-2","lat":35.6879393,"lon":139.5176078},{"name":"＊?府中市立白糸台文化センター(複合施設）","province":"東京都","city":"府中市","address":"府中市白糸台1-60","lat":35.667081,"lon":139.506149},{"name":"＊?府中市立西府文化センター(複合施設）","province":"東京都","city":"府中市","address":"府中市西府町1-10","lat":35.670886,"lon":139.45627},{"name":"＊?府中市立紅葉丘文化センター(複合施設）","province":"東京都","city":"府中市","address":"府中市紅葉丘2-1","lat":35.676533,"lon":139.509245},{"name":"＊?府中市立是政文化センター(複合施設）","province":"東京都","city":"府中市","address":"府中市是政2-20","lat":35.660891,"lon":139.495318},{"name":"＊?府中市立新町文化センター(複合施設）","province":"東京都","city":"府中市","address":"府中市新町1-66","lat":35.687183,"lon":139.489386},{"name":"＊?府中市立住吉文化センター(複合施設）","province":"東京都","city":"府中市","address":"府中市住吉町1-61","lat":35.660297,"lon":139.460272},{"name":"＊?府中市立四谷文化センター(複合施設）","province":"東京都","city":"府中市","address":"府中市四谷2-75","lat":35.665294,"lon":139.445637},{"name":"＊?府中市立片町文化センター(複合施設）","province":"東京都","city":"府中市","address":"府中市片町2-17","lat":35.670275,"lon":139.469377},{"name":"＊?府中市立押立文化センター(複合施設）","province":"東京都","city":"府中市","address":"府中市押立町5-4","lat":35.653691,"lon":139.517813},{"name":"＊?府中市立武蔵台文化センター(複合施設）","province":"東京都","city":"府中市","address":"府中市武蔵台2-2","lat":35.688581,"lon":139.461425},{"name":"アルフレッサ（株）調布支店","province":"東京都","city":"府中市","address":"府中市西原町1-5-1","lat":35.68195,"lon":139.4604},{"name":"府中武蔵台浄水所及び府中武蔵台ポンプ所","province":"東京都","city":"府中市","address":"東京都府中市武蔵台2-7及び武蔵台1-25","lat":35.688081,"lon":139.460998},{"name":"若松給水所","province":"東京都","city":"府中市","address":"東京都府中市若松町4-10","lat":35.6760322,"lon":139.499748},{"name":"幸町給水所","province":"東京都","city":"府中市","address":"東京都府中市幸町2-24","lat":35.679613,"lon":139.483705},{"name":"府中南町給水所","province":"東京都","city":"府中市","address":"東京都府中市南町1-50","lat":35.6585721,"lon":139.470907},{"name":"都立武蔵野公園","province":"東京都","city":"府中市","address":"東京都府中市多磨町3-2","lat":35.6879393,"lon":139.5176078},{"name":"＊?府中市立白糸台文化センター(複合施設）","province":"東京都","city":"府中市","address":"府中市白糸台1-60","lat":35.667081,"lon":139.506149},{"name":"＊?府中市立西府文化センター(複合施設）","province":"東京都","city":"府中市","address":"府中市西府町1-10","lat":35.670886,"lon":139.45627},{"name":"＊?府中市立紅葉丘文化センター(複合施設）","province":"東京都","city":"府中市","address":"府中市紅葉丘2-1","lat":35.676533,"lon":139.509245},{"name":"＊?府中市立是政文化センター(複合施設）","province":"東京都","city":"府中市","address":"府中市是政2-20","lat":35.660891,"lon":139.495318},{"name":"＊?府中市立新町文化センター(複合施設）","province":"東京都","city":"府中市","address":"府中市新町1-66","lat":35.687183,"lon":139.489386},{"name":"＊?府中市立住吉文化センター(複合施設）","province":"東京都","city":"府中市","address":"府中市住吉町1-61","lat":35.660297,"lon":139.460272},{"name":"＊?府中市立四谷文化センター(複合施設）","province":"東京都","city":"府中市","address":"府中市四谷2-75","lat":35.665294,"lon":139.445637},{"name":"＊?府中市立片町文化センター(複合施設）","province":"東京都","city":"府中市","address":"府中市片町2-17","lat":35.670275,"lon":139.469377},{"name":"＊?府中市立押立文化センター(複合施設）","province":"東京都","city":"府中市","address":"府中市押立町5-4","lat":35.653691,"lon":139.517813},{"name":"＊?府中市立武蔵台文化センター(複合施設）","province":"東京都","city":"府中市","address":"府中市武蔵台2-2","lat":35.688581,"lon":139.461425},{"name":"アルフレッサ（株）調布支店","province":"東京都","city":"府中市","address":"府中市西原町1-5-1","lat":35.68195,"lon":139.4604},{"name":"府中武蔵台浄水所及び府中武蔵台ポンプ所","province":"東京都","city":"府中市","address":"東京都府中市武蔵台2-7及び武蔵台1-25","lat":35.688081,"lon":139.460998},{"name":"若松給水所","province":"東京都","city":"府中市","address":"東京都府中市若松町4-10","lat":35.6760322,"lon":139.499748},{"name":"幸町給水所","province":"東京都","city":"府中市","address":"東京都府中市幸町2-24","lat":35.679613,"lon":139.483705},{"name":"府中南町給水所","province":"東京都","city":"府中市","address":"東京都府中市南町1-50","lat":35.6585721,"lon":139.470907},{"name":"都立武蔵野公園","province":"東京都","city":"府中市","address":"東京都府中市多磨町3-2","lat":35.6879393,"lon":139.5176078},{"name":"＊?府中市立白糸台文化センター(複合施設）","province":"東京都","city":"府中市","address":"府中市白糸台1-60","lat":35.667081,"lon":139.506149},{"name":"＊?府中市立西府文化センター(複合施設）","province":"東京都","city":"府中市","address":"府中市西府町1-10","lat":35.670886,"lon":139.45627},{"name":"＊?府中市立紅葉丘文化センター(複合施設）","province":"東京都","city":"府中市","address":"府中市紅葉丘2-1","lat":35.676533,"lon":139.509245},{"name":"＊?府中市立是政文化センター(複合施設）","province":"東京都","city":"府中市","address":"府中市是政2-20","lat":35.660891,"lon":139.495318},{"name":"＊?府中市立新町文化センター(複合施設）","province":"東京都","city":"府中市","address":"府中市新町1-66","lat":35.687183,"lon":139.489386},{"name":"＊?府中市立住吉文化センター(複合施設）","province":"東京都","city":"府中市","address":"府中市住吉町1-61","lat":35.660297,"lon":139.460272},{"name":"＊?府中市立四谷文化センター(複合施設）","province":"東京都","city":"府中市","address":"府中市四谷2-75","lat":35.665294,"lon":139.445637},{"name":"＊?府中市立片町文化センター(複合施設）","province":"東京都","city":"府中市","address":"府中市片町2-17","lat":35.670275,"lon":139.469377},{"name":"＊?府中市立押立文化センター(複合施設）","province":"東京都","city":"府中市","address":"府中市押立町5-4","lat":35.653691,"lon":139.517813},{"name":"＊?府中市立武蔵台文化センター(複合施設）","province":"東京都","city":"府中市","address":"府中市武蔵台2-2","lat":35.688581,"lon":139.461425},{"name":"アルフレッサ（株）調布支店","province":"東京都","city":"府中市","address":"府中市西原町1-5-1","lat":35.68195,"lon":139.4604},{"name":"府中武蔵台浄水所及び府中武蔵台ポンプ所","province":"東京都","city":"府中市","address":"東京都府中市武蔵台2-7及び武蔵台1-25","lat":35.688081,"lon":139.460998},{"name":"若松給水所","province":"東京都","city":"府中市","address":"東京都府中市若松町4-10","lat":35.6760322,"lon":139.499748},{"name":"幸町給水所","province":"東京都","city":"府中市","address":"東京都府中市幸町2-24","lat":35.679613,"lon":139.483705},{"name":"府中南町給水所","province":"東京都","city":"府中市","address":"東京都府中市南町1-50","lat":35.6585721,"lon":139.470907},{"name":"都立武蔵野公園","province":"東京都","city":"府中市","address":"東京都府中市多磨町3-2","lat":35.6879393,"lon":139.5176078},{"name":"＊?府中市立白糸台文化センター(複合施設）","province":"東京都","city":"府中市","address":"府中市白糸台1-60","lat":35.667081,"lon":139.506149},{"name":"＊?府中市立西府文化センター(複合施設）","province":"東京都","city":"府中市","address":"府中市西府町1-10","lat":35.670886,"lon":139.45627},{"name":"＊?府中市立紅葉丘文化センター(複合施設）","province":"東京都","city":"府中市","address":"府中市紅葉丘2-1","lat":35.676533,"lon":139.509245},{"name":"＊?府中市立是政文化センター(複合施設）","province":"東京都","city":"府中市","address":"府中市是政2-20","lat":35.660891,"lon":139.495318},{"name":"＊?府中市立新町文化センター(複合施設）","province":"東京都","city":"府中市","address":"府中市新町1-66","lat":35.687183,"lon":139.489386},{"name":"＊?府中市立住吉文化センター(複合施設）","province":"東京都","city":"府中市","address":"府中市住吉町1-61","lat":35.660297,"lon":139.460272},{"name":"＊?府中市立四谷文化センター(複合施設）","province":"東京都","city":"府中市","address":"府中市四谷2-75","lat":35.665294,"lon":139.445637},{"name":"＊?府中市立片町文化センター(複合施設）","province":"東京都","city":"府中市","address":"府中市片町2-17","lat":35.670275,"lon":139.469377},{"name":"＊?府中市立押立文化センター(複合施設）","province":"東京都","city":"府中市","address":"府中市押立町5-4","lat":35.653691,"lon":139.517813},{"name":"＊?府中市立武蔵台文化センター(複合施設）","province":"東京都","city":"府中市","address":"府中市武蔵台2-2","lat":35.688581,"lon":139.461425},{"name":"アルフレッサ（株）調布支店","province":"東京都","city":"府中市","address":"府中市西原町1-5-1","lat":35.68195,"lon":139.4604},{"name":"府中武蔵台浄水所及び府中武蔵台ポンプ所","province":"東京都","city":"府中市","address":"東京都府中市武蔵台2-7及び武蔵台1-25","lat":35.688081,"lon":139.460998},{"name":"若松給水所","province":"東京都","city":"府中市","address":"東京都府中市若松町4-10","lat":35.6760322,"lon":139.499748},{"name":"幸町給水所","province":"東京都","city":"府中市","address":"東京都府中市幸町2-24","lat":35.679613,"lon":139.483705},{"name":"府中南町給水所","province":"東京都","city":"府中市","address":"東京都府中市南町1-50","lat":35.6585721,"lon":139.470907},{"name":"都立武蔵野公園","province":"東京都","city":"府中市","address":"東京都府中市多磨町3-2","lat":35.6879393,"lon":139.5176078},{"name":"＊?府中市立白糸台文化センター(複合施設）","province":"東京都","city":"府中市","address":"府中市白糸台1-60","lat":35.667081,"lon":139.506149},{"name":"＊?府中市立西府文化センター(複合施設）","province":"東京都","city":"府中市","address":"府中市西府町1-10","lat":35.670886,"lon":139.45627},{"name":"＊?府中市立紅葉丘文化センター(複合施設）","province":"東京都","city":"府中市","address":"府中市紅葉丘2-1","lat":35.676533,"lon":139.509245},{"name":"＊?府中市立是政文化センター(複合施設）","province":"東京都","city":"府中市","address":"府中市是政2-20","lat":35.660891,"lon":139.495318},{"name":"＊?府中市立新町文化センター(複合施設）","province":"東京都","city":"府中市","address":"府中市新町1-66","lat":35.687183,"lon":139.489386},{"name":"＊?府中市立住吉文化センター(複合施設）","province":"東京都","city":"府中市","address":"府中市住吉町1-61","lat":35.660297,"lon":139.460272},{"name":"＊?府中市立四谷文化センター(複合施設）","province":"東京都","city":"府中市","address":"府中市四谷2-75","lat":35.665294,"lon":139.445637},{"name":"＊?府中市立片町文化センター(複合施設）","province":"東京都","city":"府中市","address":"府中市片町2-17","lat":35.670275,"lon":139.469377},{"name":"＊?府中市立押立文化センター(複合施設）","province":"東京都","city":"府中市","address":"府中市押立町5-4","lat":35.653691,"lon":139.517813},{"name":"＊?府中市立武蔵台文化センター(複合施設）","province":"東京都","city":"府中市","address":"府中市武蔵台2-2","lat":35.688581,"lon":139.461425},{"name":"アルフレッサ（株）調布支店","province":"東京都","city":"府中市","address":"府中市西原町1-5-1","lat":35.68195,"lon":139.4604},{"name":"府中武蔵台浄水所及び府中武蔵台ポンプ所","province":"東京都","city":"府中市","address":"東京都府中市武蔵台2-7及び武蔵台1-25","lat":35.688081,"lon":139.460998},{"name":"若松給水所","province":"東京都","city":"府中市","address":"東京都府中市若松町4-10","lat":35.6760322,"lon":139.499748},{"name":"幸町給水所","province":"東京都","city":"府中市","address":"東京都府中市幸町2-24","lat":35.679613,"lon":139.483705},{"name":"府中南町給水所","province":"東京都","city":"府中市","address":"東京都府中市南町1-50","lat":35.6585721,"lon":139.470907},{"name":"都立武蔵野公園","province":"東京都","city":"府中市","address":"東京都府中市多磨町3-2","lat":35.6879393,"lon":139.5176078},{"name":"＊?府中市立白糸台文化センター(複合施設）","province":"東京都","city":"府中市","address":"府中市白糸台1-60","lat":35.667081,"lon":139.506149},{"name":"＊?府中市立西府文化センター(複合施設）","province":"東京都","city":"府中市","address":"府中市西府町1-10","lat":35.670886,"lon":139.45627},{"name":"＊?府中市立紅葉丘文化センター(複合施設）","province":"東京都","city":"府中市","address":"府中市紅葉丘2-1","lat":35.676533,"lon":139.509245},{"name":"＊?府中市立是政文化センター(複合施設）","province":"東京都","city":"府中市","address":"府中市是政2-20","lat":35.660891,"lon":139.495318},{"name":"＊?府中市立新町文化センター(複合施設）","province":"東京都","city":"府中市","address":"府中市新町1-66","lat":35.687183,"lon":139.489386},{"name":"＊?府中市立住吉文化センター(複合施設）","province":"東京都","city":"府中市","address":"府中市住吉町1-61","lat":35.660297,"lon":139.460272},{"name":"＊?府中市立四谷文化センター(複合施設）","province":"東京都","city":"府中市","address":"府中市四谷2-75","lat":35.665294,"lon":139.445637},{"name":"＊?府中市立片町文化センター(複合施設）","province":"東京都","city":"府中市","address":"府中市片町2-17","lat":35.670275,"lon":139.469377},{"name":"＊?府中市立押立文化センター(複合施設）","province":"東京都","city":"府中市","address":"府中市押立町5-4","lat":35.653691,"lon":139.517813},{"name":"＊?府中市立武蔵台文化センター(複合施設）","province":"東京都","city":"府中市","address":"府中市武蔵台2-2","lat":35.688581,"lon":139.461425},{"name":"アルフレッサ（株）調布支店","province":"東京都","city":"府中市","address":"府中市西原町1-5-1","lat":35.68195,"lon":139.4604},{"name":"府中武蔵台浄水所及び府中武蔵台ポンプ所","province":"東京都","city":"府中市","address":"東京都府中市武蔵台2-7及び武蔵台1-25","lat":35.688081,"lon":139.460998},{"name":"若松給水所","province":"東京都","city":"府中市","address":"東京都府中市若松町4-10","lat":35.6760322,"lon":139.499748},{"name":"幸町給水所","province":"東京都","city":"府中市","address":"東京都府中市幸町2-24","lat":35.679613,"lon":139.483705},{"name":"府中南町給水所","province":"東京都","city":"府中市","address":"東京都府中市南町1-50","lat":35.6585721,"lon":139.470907},{"name":"都立武蔵野公園","province":"東京都","city":"府中市","address":"東京都府中市多磨町3-2","lat":35.6879393,"lon":139.5176078},{"name":"＊?府中市立白糸台文化センター(複合施設）","province":"東京都","city":"府中市","address":"府中市白糸台1-60","lat":35.667081,"lon":139.506149},{"name":"＊?府中市立西府文化センター(複合施設）","province":"東京都","city":"府中市","address":"府中市西府町1-10","lat":35.670886,"lon":139.45627},{"name":"＊?府中市立紅葉丘文化センター(複合施設）","province":"東京都","city":"府中市","address":"府中市紅葉丘2-1","lat":35.676533,"lon":139.509245},{"name":"＊?府中市立是政文化センター(複合施設）","province":"東京都","city":"府中市","address":"府中市是政2-20","lat":35.660891,"lon":139.495318},{"name":"＊?府中市立新町文化センター(複合施設）","province":"東京都","city":"府中市","address":"府中市新町1-66","lat":35.687183,"lon":139.489386},{"name":"＊?府中市立住吉文化センター(複合施設）","province":"東京都","city":"府中市","address":"府中市住吉町1-61","lat":35.660297,"lon":139.460272},{"name":"＊?府中市立四谷文化センター(複合施設）","province":"東京都","city":"府中市","address":"府中市四谷2-75","lat":35.665294,"lon":139.445637},{"name":"＊?府中市立片町文化センター(複合施設）","province":"東京都","city":"府中市","address":"府中市片町2-17","lat":35.670275,"lon":139.469377},{"name":"＊?府中市立押立文化センター(複合施設）","province":"東京都","city":"府中市","address":"府中市押立町5-4","lat":35.653691,"lon":139.517813},{"name":"＊?府中市立武蔵台文化センター(複合施設）","province":"東京都","city":"府中市","address":"府中市武蔵台2-2","lat":35.688581,"lon":139.461425},{"name":"アルフレッサ（株）調布支店","province":"東京都","city":"府中市","address":"府中市西原町1-5-1","lat":35.68195,"lon":139.4604},{"name":"府中武蔵台浄水所及び府中武蔵台ポンプ所","province":"東京都","city":"府中市","address":"東京都府中市武蔵台2-7及び武蔵台1-25","lat":35.688081,"lon":139.460998},{"name":"若松給水所","province":"東京都","city":"府中市","address":"東京都府中市若松町4-10","lat":35.6760322,"lon":139.499748},{"name":"幸町給水所","province":"東京都","city":"府中市","address":"東京都府中市幸町2-24","lat":35.679613,"lon":139.483705},{"name":"府中南町給水所","province":"東京都","city":"府中市","address":"東京都府中市南町1-50","lat":35.6585721,"lon":139.470907},{"name":"都立武蔵野公園","province":"東京都","city":"府中市","address":"東京都府中市多磨町3-2","lat":35.6879393,"lon":139.5176078},{"name":"＊?府中市立白糸台文化センター(複合施設）","province":"東京都","city":"府中市","address":"府中市白糸台1-60","lat":35.667081,"lon":139.506149},{"name":"＊?府中市立西府文化センター(複合施設）","province":"東京都","city":"府中市","address":"府中市西府町1-10","lat":35.670886,"lon":139.45627},{"name":"＊?府中市立紅葉丘文化センター(複合施設）","province":"東京都","city":"府中市","address":"府中市紅葉丘2-1","lat":35.676533,"lon":139.509245},{"name":"＊?府中市立是政文化センター(複合施設）","province":"東京都","city":"府中市","address":"府中市是政2-20","lat":35.660891,"lon":139.495318},{"name":"＊?府中市立新町文化センター(複合施設）","province":"東京都","city":"府中市","address":"府中市新町1-66","lat":35.687183,"lon":139.489386},{"name":"＊?府中市立住吉文化センター(複合施設）","province":"東京都","city":"府中市","address":"府中市住吉町1-61","lat":35.660297,"lon":139.460272},{"name":"＊?府中市立四谷文化センター(複合施設）","province":"東京都","city":"府中市","address":"府中市四谷2-75","lat":35.665294,"lon":139.445637},{"name":"＊?府中市立片町文化センター(複合施設）","province":"東京都","city":"府中市","address":"府中市片町2-17","lat":35.670275,"lon":139.469377},{"name":"＊?府中市立押立文化センター(複合施設）","province":"東京都","city":"府中市","address":"府中市押立町5-4","lat":35.653691,"lon":139.517813},{"name":"＊?府中市立武蔵台文化センター(複合施設）","province":"東京都","city":"府中市","address":"府中市武蔵台2-2","lat":35.688581,"lon":139.461425},{"name":"アルフレッサ（株）調布支店","province":"東京都","city":"府中市","address":"府中市西原町1-5-1","lat":35.68195,"lon":139.4604},{"name":"府中武蔵台浄水所及び府中武蔵台ポンプ所","province":"東京都","city":"府中市","address":"東京都府中市武蔵台2-7及び武蔵台1-25","lat":35.688081,"lon":139.460998},{"name":"若松給水所","province":"東京都","city":"府中市","address":"東京都府中市若松町4-10","lat":35.6760322,"lon":139.499748},{"name":"幸町給水所","province":"東京都","city":"府中市","address":"東京都府中市幸町2-24","lat":35.679613,"lon":139.483705},{"name":"府中南町給水所","province":"東京都","city":"府中市","address":"東京都府中市南町1-50","lat":35.6585721,"lon":139.470907},{"name":"都立武蔵野公園","province":"東京都","city":"府中市","address":"東京都府中市多磨町3-2","lat":35.6879393,"lon":139.5176078},{"name":"＊?府中市立白糸台文化センター(複合施設）","province":"東京都","city":"府中市","address":"府中市白糸台1-60","lat":35.667081,"lon":139.506149},{"name":"＊?府中市立西府文化センター(複合施設）","province":"東京都","city":"府中市","address":"府中市西府町1-10","lat":35.670886,"lon":139.45627},{"name":"＊?府中市立紅葉丘文化センター(複合施設）","province":"東京都","city":"府中市","address":"府中市紅葉丘2-1","lat":35.676533,"lon":139.509245},{"name":"＊?府中市立是政文化センター(複合施設）","province":"東京都","city":"府中市","address":"府中市是政2-20","lat":35.660891,"lon":139.495318},{"name":"＊?府中市立新町文化センター(複合施設）","province":"東京都","city":"府中市","address":"府中市新町1-66","lat":35.687183,"lon":139.489386},{"name":"＊?府中市立住吉文化センター(複合施設）","province":"東京都","city":"府中市","address":"府中市住吉町1-61","lat":35.660297,"lon":139.460272},{"name":"＊?府中市立四谷文化センター(複合施設）","province":"東京都","city":"府中市","address":"府中市四谷2-75","lat":35.665294,"lon":139.445637},{"name":"＊?府中市立片町文化センター(複合施設）","province":"東京都","city":"府中市","address":"府中市片町2-17","lat":35.670275,"lon":139.469377},{"name":"＊?府中市立押立文化センター(複合施設）","province":"東京都","city":"府中市","address":"府中市押立町5-4","lat":35.653691,"lon":139.517813},{"name":"＊?府中市立武蔵台文化センター(複合施設）","province":"東京都","city":"府中市","address":"府中市武蔵台2-2","lat":35.688581,"lon":139.461425},{"name":"アルフレッサ（株）調布支店","province":"東京都","city":"府中市","address":"府中市西原町1-5-1","lat":35.68195,"lon":139.4604},{"name":"府中武蔵台浄水所及び府中武蔵台ポンプ所","province":"東京都","city":"府中市","address":"東京都府中市武蔵台2-7及び武蔵台1-25","lat":35.688081,"lon":139.460998},{"name":"若松給水所","province":"東京都","city":"府中市","address":"東京都府中市若松町4-10","lat":35.6760322,"lon":139.499748},{"name":"幸町給水所","province":"東京都","city":"府中市","address":"東京都府中市幸町2-24","lat":35.679613,"lon":139.483705},{"name":"府中南町給水所","province":"東京都","city":"府中市","address":"東京都府中市南町1-50","lat":35.6585721,"lon":139.470907},{"name":"都立武蔵野公園","province":"東京都","city":"府中市","address":"東京都府中市多磨町3-2","lat":35.6879393,"lon":139.5176078},{"name":"＊?府中市立白糸台文化センター(複合施設）","province":"東京都","city":"府中市","address":"府中市白糸台1-60","lat":35.667081,"lon":139.506149},{"name":"＊?府中市立西府文化センター(複合施設）","province":"東京都","city":"府中市","address":"府中市西府町1-10","lat":35.670886,"lon":139.45627},{"name":"＊?府中市立紅葉丘文化センター(複合施設）","province":"東京都","city":"府中市","address":"府中市紅葉丘2-1","lat":35.676533,"lon":139.509245},{"name":"＊?府中市立是政文化センター(複合施設）","province":"東京都","city":"府中市","address":"府中市是政2-20","lat":35.660891,"lon":139.495318},{"name":"＊?府中市立新町文化センター(複合施設）","province":"東京都","city":"府中市","address":"府中市新町1-66","lat":35.687183,"lon":139.489386},{"name":"＊?府中市立住吉文化センター(複合施設）","province":"東京都","city":"府中市","address":"府中市住吉町1-61","lat":35.660297,"lon":139.460272},{"name":"＊?府中市立四谷文化センター(複合施設）","province":"東京都","city":"府中市","address":"府中市四谷2-75","lat":35.665294,"lon":139.445637},{"name":"＊?府中市立片町文化センター(複合施設）","province":"東京都","city":"府中市","address":"府中市片町2-17","lat":35.670275,"lon":139.469377},{"name":"＊?府中市立押立文化センター(複合施設）","province":"東京都","city":"府中市","address":"府中市押立町5-4","lat":35.653691,"lon":139.517813},{"name":"＊?府中市立武蔵台文化センター(複合施設）","province":"東京都","city":"府中市","address":"府中市武蔵台2-2","lat":35.688581,"lon":139.461425},{"name":"アルフレッサ（株）調布支店","province":"東京都","city":"府中市","address":"府中市西原町1-5-1","lat":35.68195,"lon":139.4604},{"name":"府中武蔵台浄水所及び府中武蔵台ポンプ所","province":"東京都","city":"府中市","address":"東京都府中市武蔵台2-7及び武蔵台1-25","lat":35.688081,"lon":139.460998},{"name":"若松給水所","province":"東京都","city":"府中市","address":"東京都府中市若松町4-10","lat":35.6760322,"lon":139.499748},{"name":"幸町給水所","province":"東京都","city":"府中市","address":"東京都府中市幸町2-24","lat":35.679613,"lon":139.483705},{"name":"府中南町給水所","province":"東京都","city":"府中市","address":"東京都府中市南町1-50","lat":35.6585721,"lon":139.470907},{"name":"都立武蔵野公園","province":"東京都","city":"府中市","address":"東京都府中市多磨町3-2","lat":35.6879393,"lon":139.5176078},{"name":"＊?府中市立白糸台文化センター(複合施設）","province":"東京都","city":"府中市","address":"府中市白糸台1-60","lat":35.667081,"lon":139.506149},{"name":"＊?府中市立西府文化センター(複合施設）","province":"東京都","city":"府中市","address":"府中市西府町1-10","lat":35.670886,"lon":139.45627},{"name":"＊?府中市立紅葉丘文化センター(複合施設）","province":"東京都","city":"府中市","address":"府中市紅葉丘2-1","lat":35.676533,"lon":139.509245},{"name":"＊?府中市立是政文化センター(複合施設）","province":"東京都","city":"府中市","address":"府中市是政2-20","lat":35.660891,"lon":139.495318},{"name":"＊?府中市立新町文化センター(複合施設）","province":"東京都","city":"府中市","address":"府中市新町1-66","lat":35.687183,"lon":139.489386},{"name":"＊?府中市立住吉文化センター(複合施設）","province":"東京都","city":"府中市","address":"府中市住吉町1-61","lat":35.660297,"lon":139.460272},{"name":"＊?府中市立四谷文化センター(複合施設）","province":"東京都","city":"府中市","address":"府中市四谷2-75","lat":35.665294,"lon":139.445637},{"name":"＊?府中市立片町文化センター(複合施設）","province":"東京都","city":"府中市","address":"府中市片町2-17","lat":35.670275,"lon":139.469377},{"name":"＊?府中市立押立文化センター(複合施設）","province":"東京都","city":"府中市","address":"府中市押立町5-4","lat":35.653691,"lon":139.517813},{"name":"＊?府中市立武蔵台文化センター(複合施設）","province":"東京都","city":"府中市","address":"府中市武蔵台2-2","lat":35.688581,"lon":139.461425},{"name":"アルフレッサ（株）調布支店","province":"東京都","city":"府中市","address":"府中市西原町1-5-1","lat":35.68195,"lon":139.4604},{"name":"府中武蔵台浄水所及び府中武蔵台ポンプ所","province":"東京都","city":"府中市","address":"東京都府中市武蔵台2-7及び武蔵台1-25","lat":35.688081,"lon":139.460998},{"name":"若松給水所","province":"東京都","city":"府中市","address":"東京都府中市若松町4-10","lat":35.6760322,"lon":139.499748},{"name":"幸町給水所","province":"東京都","city":"府中市","address":"東京都府中市幸町2-24","lat":35.679613,"lon":139.483705},{"name":"府中南町給水所","province":"東京都","city":"府中市","address":"東京都府中市南町1-50","lat":35.6585721,"lon":139.470907},{"name":"都立武蔵野公園","province":"東京都","city":"府中市","address":"東京都府中市多磨町3-2","lat":35.6879393,"lon":139.5176078},{"name":"＊?府中市立白糸台文化センター(複合施設）","province":"東京都","city":"府中市","address":"府中市白糸台1-60","lat":35.667081,"lon":139.506149},{"name":"＊?府中市立西府文化センター(複合施設）","province":"東京都","city":"府中市","address":"府中市西府町1-10","lat":35.670886,"lon":139.45627},{"name":"＊?府中市立紅葉丘文化センター(複合施設）","province":"東京都","city":"府中市","address":"府中市紅葉丘2-1","lat":35.676533,"lon":139.509245},{"name":"＊?府中市立是政文化センター(複合施設）","province":"東京都","city":"府中市","address":"府中市是政2-20","lat":35.660891,"lon":139.495318},{"name":"＊?府中市立新町文化センター(複合施設）","province":"東京都","city":"府中市","address":"府中市新町1-66","lat":35.687183,"lon":139.489386},{"name":"＊?府中市立住吉文化センター(複合施設）","province":"東京都","city":"府中市","address":"府中市住吉町1-61","lat":35.660297,"lon":139.460272},{"name":"＊?府中市立四谷文化センター(複合施設）","province":"東京都","city":"府中市","address":"府中市四谷2-75","lat":35.665294,"lon":139.445637},{"name":"＊?府中市立片町文化センター(複合施設）","province":"東京都","city":"府中市","address":"府中市片町2-17","lat":35.670275,"lon":139.469377},{"name":"＊?府中市立押立文化センター(複合施設）","province":"東京都","city":"府中市","address":"府中市押立町5-4","lat":35.653691,"lon":139.517813},{"name":"＊?府中市立武蔵台文化センター(複合施設）","province":"東京都","city":"府中市","address":"府中市武蔵台2-2","lat":35.688581,"lon":139.461425},{"name":"アルフレッサ（株）調布支店","province":"東京都","city":"府中市","address":"府中市西原町1-5-1","lat":35.68195,"lon":139.4604},{"name":"府中武蔵台浄水所及び府中武蔵台ポンプ所","province":"東京都","city":"府中市","address":"東京都府中市武蔵台2-7及び武蔵台1-25","lat":35.688081,"lon":139.460998},{"name":"若松給水所","province":"東京都","city":"府中市","address":"東京都府中市若松町4-10","lat":35.6760322,"lon":139.499748},{"name":"幸町給水所","province":"東京都","city":"府中市","address":"東京都府中市幸町2-24","lat":35.679613,"lon":139.483705},{"name":"府中南町給水所","province":"東京都","city":"府中市","address":"東京都府中市南町1-50","lat":35.6585721,"lon":139.470907},{"name":"都立武蔵野公園","province":"東京都","city":"府中市","address":"東京都府中市多磨町3-2","lat":35.6879393,"lon":139.5176078},{"name":"＊?府中市立白糸台文化センター(複合施設）","province":"東京都","city":"府中市","address":"府中市白糸台1-60","lat":35.667081,"lon":139.506149},{"name":"＊?府中市立西府文化センター(複合施設）","province":"東京都","city":"府中市","address":"府中市西府町1-10","lat":35.670886,"lon":139.45627},{"name":"＊?府中市立紅葉丘文化センター(複合施設）","province":"東京都","city":"府中市","address":"府中市紅葉丘2-1","lat":35.676533,"lon":139.509245},{"name":"＊?府中市立是政文化センター(複合施設）","province":"東京都","city":"府中市","address":"府中市是政2-20","lat":35.660891,"lon":139.495318},{"name":"＊?府中市立新町文化センター(複合施設）","province":"東京都","city":"府中市","address":"府中市新町1-66","lat":35.687183,"lon":139.489386},{"name":"＊?府中市立住吉文化センター(複合施設）","province":"東京都","city":"府中市","address":"府中市住吉町1-61","lat":35.660297,"lon":139.460272},{"name":"＊?府中市立四谷文化センター(複合施設）","province":"東京都","city":"府中市","address":"府中市四谷2-75","lat":35.665294,"lon":139.445637},{"name":"＊?府中市立片町文化センター(複合施設）","province":"東京都","city":"府中市","address":"府中市片町2-17","lat":35.670275,"lon":139.469377},{"name":"＊?府中市立押立文化センター(複合施設）","province":"東京都","city":"府中市","address":"府中市押立町5-4","lat":35.653691,"lon":139.517813},{"name":"＊?府中市立武蔵台文化センター(複合施設）","province":"東京都","city":"府中市","address":"府中市武蔵台2-2","lat":35.688581,"lon":139.461425},{"name":"アルフレッサ（株）調布支店","province":"東京都","city":"府中市","address":"府中市西原町1-5-1","lat":35.68195,"lon":139.4604},{"name":"府中武蔵台浄水所及び府中武蔵台ポンプ所","province":"東京都","city":"府中市","address":"東京都府中市武蔵台2-7及び武蔵台1-25","lat":35.688081,"lon":139.460998},{"name":"若松給水所","province":"東京都","city":"府中市","address":"東京都府中市若松町4-10","lat":35.6760322,"lon":139.499748},{"name":"幸町給水所","province":"東京都","city":"府中市","address":"東京都府中市幸町2-24","lat":35.679613,"lon":139.483705},{"name":"府中南町給水所","province":"東京都","city":"府中市","address":"東京都府中市南町1-50","lat":35.6585721,"lon":139.470907},{"name":"都立武蔵野公園","province":"東京都","city":"府中市","address":"東京都府中市多磨町3-2","lat":35.6879393,"lon":139.5176078},{"name":"＊?府中市立白糸台文化センター(複合施設）","province":"東京都","city":"府中市","address":"府中市白糸台1-60","lat":35.667081,"lon":139.506149},{"name":"＊?府中市立西府文化センター(複合施設）","province":"東京都","city":"府中市","address":"府中市西府町1-10","lat":35.670886,"lon":139.45627},{"name":"＊?府中市立紅葉丘文化センター(複合施設）","province":"東京都","city":"府中市","address":"府中市紅葉丘2-1","lat":35.676533,"lon":139.509245},{"name":"＊?府中市立是政文化センター(複合施設）","province":"東京都","city":"府中市","address":"府中市是政2-20","lat":35.660891,"lon":139.495318},{"name":"＊?府中市立新町文化センター(複合施設）","province":"東京都","city":"府中市","address":"府中市新町1-66","lat":35.687183,"lon":139.489386},{"name":"＊?府中市立住吉文化センター(複合施設）","province":"東京都","city":"府中市","address":"府中市住吉町1-61","lat":35.660297,"lon":139.460272},{"name":"＊?府中市立四谷文化センター(複合施設）","province":"東京都","city":"府中市","address":"府中市四谷2-75","lat":35.665294,"lon":139.445637},{"name":"＊?府中市立片町文化センター(複合施設）","province":"東京都","city":"府中市","address":"府中市片町2-17","lat":35.670275,"lon":139.469377},{"name":"＊?府中市立押立文化センター(複合施設）","province":"東京都","city":"府中市","address":"府中市押立町5-4","lat":35.653691,"lon":139.517813},{"name":"＊?府中市立武蔵台文化センター(複合施設）","province":"東京都","city":"府中市","address":"府中市武蔵台2-2","lat":35.688581,"lon":139.461425},{"name":"アルフレッサ（株）調布支店","province":"東京都","city":"府中市","address":"府中市西原町1-5-1","lat":35.68195,"lon":139.4604},{"name":"府中武蔵台浄水所及び府中武蔵台ポンプ所","province":"東京都","city":"府中市","address":"東京都府中市武蔵台2-7及び武蔵台1-25","lat":35.688081,"lon":139.460998},{"name":"若松給水所","province":"東京都","city":"府中市","address":"東京都府中市若松町4-10","lat":35.6760322,"lon":139.499748},{"name":"幸町給水所","province":"東京都","city":"府中市","address":"東京都府中市幸町2-24","lat":35.679613,"lon":139.483705},{"name":"府中南町給水所","province":"東京都","city":"府中市","address":"東京都府中市南町1-50","lat":35.6585721,"lon":139.470907},{"name":"都立武蔵野公園","province":"東京都","city":"府中市","address":"東京都府中市多磨町3-2","lat":35.6879393,"lon":139.5176078},{"name":"＊?府中市立白糸台文化センター(複合施設）","province":"東京都","city":"府中市","address":"府中市白糸台1-60","lat":35.667081,"lon":139.506149},{"name":"＊?府中市立西府文化センター(複合施設）","province":"東京都","city":"府中市","address":"府中市西府町1-10","lat":35.670886,"lon":139.45627},{"name":"＊?府中市立紅葉丘文化センター(複合施設）","province":"東京都","city":"府中市","address":"府中市紅葉丘2-1","lat":35.676533,"lon":139.509245},{"name":"＊?府中市立是政文化センター(複合施設）","province":"東京都","city":"府中市","address":"府中市是政2-20","lat":35.660891,"lon":139.495318},{"name":"＊?府中市立新町文化センター(複合施設）","province":"東京都","city":"府中市","address":"府中市新町1-66","lat":35.687183,"lon":139.489386},{"name":"＊?府中市立住吉文化センター(複合施設）","province":"東京都","city":"府中市","address":"府中市住吉町1-61","lat":35.660297,"lon":139.460272},{"name":"＊?府中市立四谷文化センター(複合施設）","province":"東京都","city":"府中市","address":"府中市四谷2-75","lat":35.665294,"lon":139.445637},{"name":"＊?府中市立片町文化センター(複合施設）","province":"東京都","city":"府中市","address":"府中市片町2-17","lat":35.670275,"lon":139.469377},{"name":"＊?府中市立押立文化センター(複合施設）","province":"東京都","city":"府中市","address":"府中市押立町5-4","lat":35.653691,"lon":139.517813},{"name":"＊?府中市立武蔵台文化センター(複合施設）","province":"東京都","city":"府中市","address":"府中市武蔵台2-2","lat":35.688581,"lon":139.461425},{"name":"アルフレッサ（株）調布支店","province":"東京都","city":"府中市","address":"府中市西原町1-5-1","lat":35.68195,"lon":139.4604},{"name":"府中武蔵台浄水所及び府中武蔵台ポンプ所","province":"東京都","city":"府中市","address":"東京都府中市武蔵台2-7及び武蔵台1-25","lat":35.688081,"lon":139.460998},{"name":"若松給水所","province":"東京都","city":"府中市","address":"東京都府中市若松町4-10","lat":35.6760322,"lon":139.499748},{"name":"幸町給水所","province":"東京都","city":"府中市","address":"東京都府中市幸町2-24","lat":35.679613,"lon":139.483705},{"name":"府中南町給水所","province":"東京都","city":"府中市","address":"東京都府中市南町1-50","lat":35.6585721,"lon":139.470907},{"name":"都立武蔵野公園","province":"東京都","city":"府中市","address":"東京都府中市多磨町3-2","lat":35.6879393,"lon":139.5176078},{"name":"＊?府中市立白糸台文化センター(複合施設）","province":"東京都","city":"府中市","address":"府中市白糸台1-60","lat":35.667081,"lon":139.506149},{"name":"＊?府中市立西府文化センター(複合施設）","province":"東京都","city":"府中市","address":"府中市西府町1-10","lat":35.670886,"lon":139.45627},{"name":"＊?府中市立紅葉丘文化センター(複合施設）","province":"東京都","city":"府中市","address":"府中市紅葉丘2-1","lat":35.676533,"lon":139.509245},{"name":"＊?府中市立是政文化センター(複合施設）","province":"東京都","city":"府中市","address":"府中市是政2-20","lat":35.660891,"lon":139.495318},{"name":"＊?府中市立新町文化センター(複合施設）","province":"東京都","city":"府中市","address":"府中市新町1-66","lat":35.687183,"lon":139.489386},{"name":"＊?府中市立住吉文化センター(複合施設）","province":"東京都","city":"府中市","address":"府中市住吉町1-61","lat":35.660297,"lon":139.460272},{"name":"＊?府中市立四谷文化センター(複合施設）","province":"東京都","city":"府中市","address":"府中市四谷2-75","lat":35.665294,"lon":139.445637},{"name":"＊?府中市立片町文化センター(複合施設）","province":"東京都","city":"府中市","address":"府中市片町2-17","lat":35.670275,"lon":139.469377},{"name":"＊?府中市立押立文化センター(複合施設）","province":"東京都","city":"府中市","address":"府中市押立町5-4","lat":35.653691,"lon":139.517813},{"name":"＊?府中市立武蔵台文化センター(複合施設）","province":"東京都","city":"府中市","address":"府中市武蔵台2-2","lat":35.688581,"lon":139.461425},{"name":"アルフレッサ（株）調布支店","province":"東京都","city":"府中市","address":"府中市西原町1-5-1","lat":35.68195,"lon":139.4604},{"name":"府中武蔵台浄水所及び府中武蔵台ポンプ所","province":"東京都","city":"府中市","address":"東京都府中市武蔵台2-7及び武蔵台1-25","lat":35.688081,"lon":139.460998},{"name":"若松給水所","province":"東京都","city":"府中市","address":"東京都府中市若松町4-10","lat":35.6760322,"lon":139.499748},{"name":"幸町給水所","province":"東京都","city":"府中市","address":"東京都府中市幸町2-24","lat":35.679613,"lon":139.483705},{"name":"府中南町給水所","province":"東京都","city":"府中市","address":"東京都府中市南町1-50","lat":35.6585721,"lon":139.470907},{"name":"都立武蔵野公園","province":"東京都","city":"府中市","address":"東京都府中市多磨町3-2","lat":35.6879393,"lon":139.5176078},{"name":"＊?府中市立白糸台文化センター(複合施設）","province":"東京都","city":"府中市","address":"府中市白糸台1-60","lat":35.667081,"lon":139.506149},{"name":"＊?府中市立西府文化センター(複合施設）","province":"東京都","city":"府中市","address":"府中市西府町1-10","lat":35.670886,"lon":139.45627},{"name":"＊?府中市立紅葉丘文化センター(複合施設）","province":"東京都","city":"府中市","address":"府中市紅葉丘2-1","lat":35.676533,"lon":139.509245},{"name":"＊?府中市立是政文化センター(複合施設）","province":"東京都","city":"府中市","address":"府中市是政2-20","lat":35.660891,"lon":139.495318},{"name":"＊?府中市立新町文化センター(複合施設）","province":"東京都","city":"府中市","address":"府中市新町1-66","lat":35.687183,"lon":139.489386},{"name":"＊?府中市立住吉文化センター(複合施設）","province":"東京都","city":"府中市","address":"府中市住吉町1-61","lat":35.660297,"lon":139.460272},{"name":"＊?府中市立四谷文化センター(複合施設）","province":"東京都","city":"府中市","address":"府中市四谷2-75","lat":35.665294,"lon":139.445637},{"name":"＊?府中市立片町文化センター(複合施設）","province":"東京都","city":"府中市","address":"府中市片町2-17","lat":35.670275,"lon":139.469377},{"name":"＊?府中市立押立文化センター(複合施設）","province":"東京都","city":"府中市","address":"府中市押立町5-4","lat":35.653691,"lon":139.517813},{"name":"＊?府中市立武蔵台文化センター(複合施設）","province":"東京都","city":"府中市","address":"府中市武蔵台2-2","lat":35.688581,"lon":139.461425},{"name":"アルフレッサ（株）調布支店","province":"東京都","city":"府中市","address":"府中市西原町1-5-1","lat":35.68195,"lon":139.4604},{"name":"府中武蔵台浄水所及び府中武蔵台ポンプ所","province":"東京都","city":"府中市","address":"東京都府中市武蔵台2-7及び武蔵台1-25","lat":35.688081,"lon":139.460998},{"name":"若松給水所","province":"東京都","city":"府中市","address":"東京都府中市若松町4-10","lat":35.6760322,"lon":139.499748},{"name":"幸町給水所","province":"東京都","city":"府中市","address":"東京都府中市幸町2-24","lat":35.679613,"lon":139.483705},{"name":"府中南町給水所","province":"東京都","city":"府中市","address":"東京都府中市南町1-50","lat":35.6585721,"lon":139.470907},{"name":"都立武蔵野公園","province":"東京都","city":"府中市","address":"東京都府中市多磨町3-2","lat":35.6879393,"lon":139.5176078},{"name":"＊?府中市立白糸台文化センター(複合施設）","province":"東京都","city":"府中市","address":"府中市白糸台1-60","lat":35.667081,"lon":139.506149},{"name":"＊?府中市立西府文化センター(複合施設）","province":"東京都","city":"府中市","address":"府中市西府町1-10","lat":35.670886,"lon":139.45627},{"name":"＊?府中市立紅葉丘文化センター(複合施設）","province":"東京都","city":"府中市","address":"府中市紅葉丘2-1","lat":35.676533,"lon":139.509245},{"name":"＊?府中市立是政文化センター(複合施設）","province":"東京都","city":"府中市","address":"府中市是政2-20","lat":35.660891,"lon":139.495318},{"name":"＊?府中市立新町文化センター(複合施設）","province":"東京都","city":"府中市","address":"府中市新町1-66","lat":35.687183,"lon":139.489386},{"name":"＊?府中市立住吉文化センター(複合施設）","province":"東京都","city":"府中市","address":"府中市住吉町1-61","lat":35.660297,"lon":139.460272},{"name":"＊?府中市立四谷文化センター(複合施設）","province":"東京都","city":"府中市","address":"府中市四谷2-75","lat":35.665294,"lon":139.445637},{"name":"＊?府中市立片町文化センター(複合施設）","province":"東京都","city":"府中市","address":"府中市片町2-17","lat":35.670275,"lon":139.469377},{"name":"＊?府中市立押立文化センター(複合施設）","province":"東京都","city":"府中市","address":"府中市押立町5-4","lat":35.653691,"lon":139.517813},{"name":"＊?府中市立武蔵台文化センター(複合施設）","province":"東京都","city":"府中市","address":"府中市武蔵台2-2","lat":35.688581,"lon":139.461425},{"name":"府中武蔵台浄水所及び府中武蔵台ポンプ所","province":"東京都","city":"府中市","address":"東京都府中市武蔵台2-7及び武蔵台1-25","lat":35.688081,"lon":139.460998},{"name":"若松給水所","province":"東京都","city":"府中市","address":"東京都府中市若松町4-10","lat":35.6760322,"lon":139.499748},{"name":"幸町給水所","province":"東京都","city":"府中市","address":"東京都府中市幸町2-24","lat":35.679613,"lon":139.483705},{"name":"府中南町給水所","province":"東京都","city":"府中市","address":"東京都府中市南町1-50","lat":35.6585721,"lon":139.470907},{"name":"都立武蔵野公園","province":"東京都","city":"府中市","address":"東京都府中市多磨町3-2","lat":35.6879393,"lon":139.5176078},{"name":"＊?府中市立白糸台文化センター(複合施設）","province":"東京都","city":"府中市","address":"府中市白糸台1-60","lat":35.667081,"lon":139.506149},{"name":"＊?府中市立西府文化センター(複合施設）","province":"東京都","city":"府中市","address":"府中市西府町1-10","lat":35.670886,"lon":139.45627},{"name":"＊?府中市立紅葉丘文化センター(複合施設）","province":"東京都","city":"府中市","address":"府中市紅葉丘2-1","lat":35.676533,"lon":139.509245},{"name":"＊?府中市立是政文化センター(複合施設）","province":"東京都","city":"府中市","address":"府中市是政2-20","lat":35.660891,"lon":139.495318},{"name":"＊?府中市立新町文化センター(複合施設）","province":"東京都","city":"府中市","address":"府中市新町1-66","lat":35.687183,"lon":139.489386},{"name":"＊?府中市立住吉文化センター(複合施設）","province":"東京都","city":"府中市","address":"府中市住吉町1-61","lat":35.660297,"lon":139.460272},{"name":"＊?府中市立四谷文化センター(複合施設）","province":"東京都","city":"府中市","address":"府中市四谷2-75","lat":35.665294,"lon":139.445637},{"name":"＊?府中市立片町文化センター(複合施設）","province":"東京都","city":"府中市","address":"府中市片町2-17","lat":35.670275,"lon":139.469377},{"name":"＊?府中市立押立文化センター(複合施設）","province":"東京都","city":"府中市","address":"府中市押立町5-4","lat":35.653691,"lon":139.517813},{"name":"＊?府中市立武蔵台文化センター(複合施設）","province":"東京都","city":"府中市","address":"府中市武蔵台2-2","lat":35.688581,"lon":139.461425},{"name":"府中武蔵台浄水所及び府中武蔵台ポンプ所","province":"東京都","city":"府中市","address":"東京都府中市武蔵台2-7及び武蔵台1-25","lat":35.688081,"lon":139.460998},{"name":"若松給水所","province":"東京都","city":"府中市","address":"東京都府中市若松町4-10","lat":35.6760322,"lon":139.499748},{"name":"幸町給水所","province":"東京都","city":"府中市","address":"東京都府中市幸町2-24","lat":35.679613,"lon":139.483705},{"name":"府中南町給水所","province":"東京都","city":"府中市","address":"東京都府中市南町1-50","lat":35.6585721,"lon":139.470907},{"name":"都立武蔵野公園","province":"東京都","city":"府中市","address":"東京都府中市多磨町3-2","lat":35.6879393,"lon":139.5176078},{"name":"＊?府中市立白糸台文化センター(複合施設）","province":"東京都","city":"府中市","address":"府中市白糸台1-60","lat":35.667081,"lon":139.506149},{"name":"＊?府中市立西府文化センター(複合施設）","province":"東京都","city":"府中市","address":"府中市西府町1-10","lat":35.670886,"lon":139.45627},{"name":"＊?府中市立紅葉丘文化センター(複合施設）","province":"東京都","city":"府中市","address":"府中市紅葉丘2-1","lat":35.676533,"lon":139.509245},{"name":"＊?府中市立是政文化センター(複合施設）","province":"東京都","city":"府中市","address":"府中市是政2-20","lat":35.660891,"lon":139.495318},{"name":"＊?府中市立新町文化センター(複合施設）","province":"東京都","city":"府中市","address":"府中市新町1-66","lat":35.687183,"lon":139.489386},{"name":"＊?府中市立住吉文化センター(複合施設）","province":"東京都","city":"府中市","address":"府中市住吉町1-61","lat":35.660297,"lon":139.460272},{"name":"＊?府中市立四谷文化センター(複合施設）","province":"東京都","city":"府中市","address":"府中市四谷2-75","lat":35.665294,"lon":139.445637},{"name":"＊?府中市立片町文化センター(複合施設）","province":"東京都","city":"府中市","address":"府中市片町2-17","lat":35.670275,"lon":139.469377},{"name":"＊?府中市立押立文化センター(複合施設）","province":"東京都","city":"府中市","address":"府中市押立町5-4","lat":35.653691,"lon":139.517813},{"name":"＊?府中市立武蔵台文化センター(複合施設）","province":"東京都","city":"府中市","address":"府中市武蔵台2-2","lat":35.688581,"lon":139.461425},{"name":"府中武蔵台浄水所及び府中武蔵台ポンプ所","province":"東京都","city":"府中市","address":"東京都府中市武蔵台2-7及び武蔵台1-25","lat":35.688081,"lon":139.460998},{"name":"若松給水所","province":"東京都","city":"府中市","address":"東京都府中市若松町4-10","lat":35.6760322,"lon":139.499748},{"name":"幸町給水所","province":"東京都","city":"府中市","address":"東京都府中市幸町2-24","lat":35.679613,"lon":139.483705},{"name":"府中南町給水所","province":"東京都","city":"府中市","address":"東京都府中市南町1-50","lat":35.6585721,"lon":139.470907},{"name":"都立武蔵野公園","province":"東京都","city":"府中市","address":"東京都府中市多磨町3-2","lat":35.6879393,"lon":139.5176078},{"name":"＊?府中市立白糸台文化センター(複合施設）","province":"東京都","city":"府中市","address":"府中市白糸台1-60","lat":35.667081,"lon":139.506149},{"name":"＊?府中市立西府文化センター(複合施設）","province":"東京都","city":"府中市","address":"府中市西府町1-10","lat":35.670886,"lon":139.45627},{"name":"＊?府中市立紅葉丘文化センター(複合施設）","province":"東京都","city":"府中市","address":"府中市紅葉丘2-1","lat":35.676533,"lon":139.509245},{"name":"＊?府中市立是政文化センター(複合施設）","province":"東京都","city":"府中市","address":"府中市是政2-20","lat":35.660891,"lon":139.495318},{"name":"＊?府中市立新町文化センター(複合施設）","province":"東京都","city":"府中市","address":"府中市新町1-66","lat":35.687183,"lon":139.489386},{"name":"＊?府中市立住吉文化センター(複合施設）","province":"東京都","city":"府中市","address":"府中市住吉町1-61","lat":35.660297,"lon":139.460272},{"name":"＊?府中市立四谷文化センター(複合施設）","province":"東京都","city":"府中市","address":"府中市四谷2-75","lat":35.665294,"lon":139.445637},{"name":"＊?府中市立片町文化センター(複合施設）","province":"東京都","city":"府中市","address":"府中市片町2-17","lat":35.670275,"lon":139.469377},{"name":"＊?府中市立押立文化センター(複合施設）","province":"東京都","city":"府中市","address":"府中市押立町5-4","lat":35.653691,"lon":139.517813},{"name":"＊?府中市立武蔵台文化センター(複合施設）","province":"東京都","city":"府中市","address":"府中市武蔵台2-2","lat":35.688581,"lon":139.461425},{"name":"府中武蔵台浄水所及び府中武蔵台ポンプ所","province":"東京都","city":"府中市","address":"東京都府中市武蔵台2-7及び武蔵台1-25","lat":35.688081,"lon":139.460998},{"name":"若松給水所","province":"東京都","city":"府中市","address":"東京都府中市若松町4-10","lat":35.6760322,"lon":139.499748},{"name":"幸町給水所","province":"東京都","city":"府中市","address":"東京都府中市幸町2-24","lat":35.679613,"lon":139.483705},{"name":"府中南町給水所","province":"東京都","city":"府中市","address":"東京都府中市南町1-50","lat":35.6585721,"lon":139.470907},{"name":"都立武蔵野公園","province":"東京都","city":"府中市","address":"東京都府中市多磨町3-2","lat":35.6879393,"lon":139.5176078},{"name":"＊?府中市立白糸台文化センター(複合施設）","province":"東京都","city":"府中市","address":"府中市白糸台1-60","lat":35.667081,"lon":139.506149},{"name":"＊?府中市立西府文化センター(複合施設）","province":"東京都","city":"府中市","address":"府中市西府町1-10","lat":35.670886,"lon":139.45627},{"name":"＊?府中市立紅葉丘文化センター(複合施設）","province":"東京都","city":"府中市","address":"府中市紅葉丘2-1","lat":35.676533,"lon":139.509245},{"name":"＊?府中市立是政文化センター(複合施設）","province":"東京都","city":"府中市","address":"府中市是政2-20","lat":35.660891,"lon":139.495318},{"name":"＊?府中市立新町文化センター(複合施設）","province":"東京都","city":"府中市","address":"府中市新町1-66","lat":35.687183,"lon":139.489386},{"name":"＊?府中市立住吉文化センター(複合施設）","province":"東京都","city":"府中市","address":"府中市住吉町1-61","lat":35.660297,"lon":139.460272},{"name":"＊?府中市立四谷文化センター(複合施設）","province":"東京都","city":"府中市","address":"府中市四谷2-75","lat":35.665294,"lon":139.445637},{"name":"＊?府中市立片町文化センター(複合施設）","province":"東京都","city":"府中市","address":"府中市片町2-17","lat":35.670275,"lon":139.469377},{"name":"＊?府中市立押立文化センター(複合施設）","province":"東京都","city":"府中市","address":"府中市押立町5-4","lat":35.653691,"lon":139.517813},{"name":"＊?府中市立武蔵台文化センター(複合施設）","province":"東京都","city":"府中市","address":"府中市武蔵台2-2","lat":35.688581,"lon":139.461425},{"name":"府中武蔵台浄水所及び府中武蔵台ポンプ所","province":"東京都","city":"府中市","address":"東京都府中市武蔵台2-7及び武蔵台1-25","lat":35.688081,"lon":139.460998},{"name":"若松給水所","province":"東京都","city":"府中市","address":"東京都府中市若松町4-10","lat":35.6760322,"lon":139.499748},{"name":"幸町給水所","province":"東京都","city":"府中市","address":"東京都府中市幸町2-24","lat":35.679613,"lon":139.483705},{"name":"府中南町給水所","province":"東京都","city":"府中市","address":"東京都府中市南町1-50","lat":35.6585721,"lon":139.470907},{"name":"都立武蔵野公園","province":"東京都","city":"府中市","address":"東京都府中市多磨町3-2","lat":35.6879393,"lon":139.5176078},{"name":"＊?府中市立白糸台文化センター(複合施設）","province":"東京都","city":"府中市","address":"府中市白糸台1-60","lat":35.667081,"lon":139.506149},{"name":"＊?府中市立西府文化センター(複合施設）","province":"東京都","city":"府中市","address":"府中市西府町1-10","lat":35.670886,"lon":139.45627},{"name":"＊?府中市立紅葉丘文化センター(複合施設）","province":"東京都","city":"府中市","address":"府中市紅葉丘2-1","lat":35.676533,"lon":139.509245},{"name":"＊?府中市立是政文化センター(複合施設）","province":"東京都","city":"府中市","address":"府中市是政2-20","lat":35.660891,"lon":139.495318},{"name":"＊?府中市立新町文化センター(複合施設）","province":"東京都","city":"府中市","address":"府中市新町1-66","lat":35.687183,"lon":139.489386},{"name":"＊?府中市立住吉文化センター(複合施設）","province":"東京都","city":"府中市","address":"府中市住吉町1-61","lat":35.660297,"lon":139.460272},{"name":"＊?府中市立四谷文化センター(複合施設）","province":"東京都","city":"府中市","address":"府中市四谷2-75","lat":35.665294,"lon":139.445637},{"name":"＊?府中市立片町文化センター(複合施設）","province":"東京都","city":"府中市","address":"府中市片町2-17","lat":35.670275,"lon":139.469377},{"name":"＊?府中市立押立文化センター(複合施設）","province":"東京都","city":"府中市","address":"府中市押立町5-4","lat":35.653691,"lon":139.517813},{"name":"＊?府中市立武蔵台文化センター(複合施設）","province":"東京都","city":"府中市","address":"府中市武蔵台2-2","lat":35.688581,"lon":139.461425},{"name":"府中武蔵台浄水所及び府中武蔵台ポンプ所","province":"東京都","city":"府中市","address":"東京都府中市武蔵台2-7及び武蔵台1-25","lat":35.688081,"lon":139.460998},{"name":"若松給水所","province":"東京都","city":"府中市","address":"東京都府中市若松町4-10","lat":35.6760322,"lon":139.499748},{"name":"幸町給水所","province":"東京都","city":"府中市","address":"東京都府中市幸町2-24","lat":35.679613,"lon":139.483705},{"name":"府中南町給水所","province":"東京都","city":"府中市","address":"東京都府中市南町1-50","lat":35.6585721,"lon":139.470907},{"name":"都立武蔵野公園","province":"東京都","city":"府中市","address":"東京都府中市多磨町3-2","lat":35.6879393,"lon":139.5176078},{"name":"＊?府中市立白糸台文化センター(複合施設）","province":"東京都","city":"府中市","address":"府中市白糸台1-60","lat":35.667081,"lon":139.506149},{"name":"＊?府中市立西府文化センター(複合施設）","province":"東京都","city":"府中市","address":"府中市西府町1-10","lat":35.670886,"lon":139.45627},{"name":"＊?府中市立紅葉丘文化センター(複合施設）","province":"東京都","city":"府中市","address":"府中市紅葉丘2-1","lat":35.676533,"lon":139.509245},{"name":"＊?府中市立是政文化センター(複合施設）","province":"東京都","city":"府中市","address":"府中市是政2-20","lat":35.660891,"lon":139.495318},{"name":"＊?府中市立新町文化センター(複合施設）","province":"東京都","city":"府中市","address":"府中市新町1-66","lat":35.687183,"lon":139.489386},{"name":"＊?府中市立住吉文化センター(複合施設）","province":"東京都","city":"府中市","address":"府中市住吉町1-61","lat":35.660297,"lon":139.460272},{"name":"＊?府中市立四谷文化センター(複合施設）","province":"東京都","city":"府中市","address":"府中市四谷2-75","lat":35.665294,"lon":139.445637},{"name":"＊?府中市立片町文化センター(複合施設）","province":"東京都","city":"府中市","address":"府中市片町2-17","lat":35.670275,"lon":139.469377},{"name":"＊?府中市立押立文化センター(複合施設）","province":"東京都","city":"府中市","address":"府中市押立町5-4","lat":35.653691,"lon":139.517813},{"name":"＊?府中市立武蔵台文化センター(複合施設）","province":"東京都","city":"府中市","address":"府中市武蔵台2-2","lat":35.688581,"lon":139.461425},{"name":"府中武蔵台浄水所及び府中武蔵台ポンプ所","province":"東京都","city":"府中市","address":"東京都府中市武蔵台2-7及び武蔵台1-25","lat":35.688081,"lon":139.460998},{"name":"若松給水所","province":"東京都","city":"府中市","address":"東京都府中市若松町4-10","lat":35.6760322,"lon":139.499748},{"name":"幸町給水所","province":"東京都","city":"府中市","address":"東京都府中市幸町2-24","lat":35.679613,"lon":139.483705},{"name":"府中南町給水所","province":"東京都","city":"府中市","address":"東京都府中市南町1-50","lat":35.6585721,"lon":139.470907},{"name":"都立武蔵野公園","province":"東京都","city":"府中市","address":"東京都府中市多磨町3-2","lat":35.6879393,"lon":139.5176078},{"name":"＊?府中市立白糸台文化センター(複合施設）","province":"東京都","city":"府中市","address":"府中市白糸台1-60","lat":35.667081,"lon":139.506149},{"name":"＊?府中市立西府文化センター(複合施設）","province":"東京都","city":"府中市","address":"府中市西府町1-10","lat":35.670886,"lon":139.45627},{"name":"＊?府中市立紅葉丘文化センター(複合施設）","province":"東京都","city":"府中市","address":"府中市紅葉丘2-1","lat":35.676533,"lon":139.509245},{"name":"＊?府中市立是政文化センター(複合施設）","province":"東京都","city":"府中市","address":"府中市是政2-20","lat":35.660891,"lon":139.495318},{"name":"＊?府中市立新町文化センター(複合施設）","province":"東京都","city":"府中市","address":"府中市新町1-66","lat":35.687183,"lon":139.489386},{"name":"＊?府中市立住吉文化センター(複合施設）","province":"東京都","city":"府中市","address":"府中市住吉町1-61","lat":35.660297,"lon":139.460272},{"name":"＊?府中市立四谷文化センター(複合施設）","province":"東京都","city":"府中市","address":"府中市四谷2-75","lat":35.665294,"lon":139.445637},{"name":"＊?府中市立片町文化センター(複合施設）","province":"東京都","city":"府中市","address":"府中市片町2-17","lat":35.670275,"lon":139.469377},{"name":"＊?府中市立押立文化センター(複合施設）","province":"東京都","city":"府中市","address":"府中市押立町5-4","lat":35.653691,"lon":139.517813},{"name":"＊?府中市立武蔵台文化センター(複合施設）","province":"東京都","city":"府中市","address":"府中市武蔵台2-2","lat":35.688581,"lon":139.461425},{"name":"府中武蔵台浄水所及び府中武蔵台ポンプ所","province":"東京都","city":"府中市","address":"東京都府中市武蔵台2-7及び武蔵台1-25","lat":35.688081,"lon":139.460998},{"name":"若松給水所","province":"東京都","city":"府中市","address":"東京都府中市若松町4-10","lat":35.6760322,"lon":139.499748},{"name":"幸町給水所","province":"東京都","city":"府中市","address":"東京都府中市幸町2-24","lat":35.679613,"lon":139.483705},{"name":"府中南町給水所","province":"東京都","city":"府中市","address":"東京都府中市南町1-50","lat":35.6585721,"lon":139.470907},{"name":"都立武蔵野公園","province":"東京都","city":"府中市","address":"東京都府中市多磨町3-2","lat":35.6879393,"lon":139.5176078},{"name":"＊?府中市立白糸台文化センター(複合施設）","province":"東京都","city":"府中市","address":"府中市白糸台1-60","lat":35.667081,"lon":139.506149},{"name":"＊?府中市立西府文化センター(複合施設）","province":"東京都","city":"府中市","address":"府中市西府町1-10","lat":35.670886,"lon":139.45627},{"name":"＊?府中市立紅葉丘文化センター(複合施設）","province":"東京都","city":"府中市","address":"府中市紅葉丘2-1","lat":35.676533,"lon":139.509245},{"name":"＊?府中市立是政文化センター(複合施設）","province":"東京都","city":"府中市","address":"府中市是政2-20","lat":35.660891,"lon":139.495318},{"name":"＊?府中市立新町文化センター(複合施設）","province":"東京都","city":"府中市","address":"府中市新町1-66","lat":35.687183,"lon":139.489386},{"name":"＊?府中市立住吉文化センター(複合施設）","province":"東京都","city":"府中市","address":"府中市住吉町1-61","lat":35.660297,"lon":139.460272},{"name":"＊?府中市立四谷文化センター(複合施設）","province":"東京都","city":"府中市","address":"府中市四谷2-75","lat":35.665294,"lon":139.445637},{"name":"＊?府中市立片町文化センター(複合施設）","province":"東京都","city":"府中市","address":"府中市片町2-17","lat":35.670275,"lon":139.469377},{"name":"＊?府中市立押立文化センター(複合施設）","province":"東京都","city":"府中市","address":"府中市押立町5-4","lat":35.653691,"lon":139.517813},{"name":"＊?府中市立武蔵台文化センター(複合施設）","province":"東京都","city":"府中市","address":"府中市武蔵台2-2","lat":35.688581,"lon":139.461425},{"name":"府中武蔵台浄水所及び府中武蔵台ポンプ所","province":"東京都","city":"府中市","address":"東京都府中市武蔵台2-7及び武蔵台1-25","lat":35.688081,"lon":139.460998},{"name":"若松給水所","province":"東京都","city":"府中市","address":"東京都府中市若松町4-10","lat":35.6760322,"lon":139.499748},{"name":"幸町給水所","province":"東京都","city":"府中市","address":"東京都府中市幸町2-24","lat":35.679613,"lon":139.483705},{"name":"府中南町給水所","province":"東京都","city":"府中市","address":"東京都府中市南町1-50","lat":35.6585721,"lon":139.470907},{"name":"都立武蔵野公園","province":"東京都","city":"府中市","address":"東京都府中市多磨町3-2","lat":35.6879393,"lon":139.5176078},{"name":"＊?府中市立白糸台文化センター(複合施設）","province":"東京都","city":"府中市","address":"府中市白糸台1-60","lat":35.667081,"lon":139.506149},{"name":"＊?府中市立西府文化センター(複合施設）","province":"東京都","city":"府中市","address":"府中市西府町1-10","lat":35.670886,"lon":139.45627},{"name":"＊?府中市立紅葉丘文化センター(複合施設）","province":"東京都","city":"府中市","address":"府中市紅葉丘2-1","lat":35.676533,"lon":139.509245},{"name":"＊?府中市立是政文化センター(複合施設）","province":"東京都","city":"府中市","address":"府中市是政2-20","lat":35.660891,"lon":139.495318},{"name":"＊?府中市立新町文化センター(複合施設）","province":"東京都","city":"府中市","address":"府中市新町1-66","lat":35.687183,"lon":139.489386},{"name":"＊?府中市立住吉文化センター(複合施設）","province":"東京都","city":"府中市","address":"府中市住吉町1-61","lat":35.660297,"lon":139.460272},{"name":"＊?府中市立四谷文化センター(複合施設）","province":"東京都","city":"府中市","address":"府中市四谷2-75","lat":35.665294,"lon":139.445637},{"name":"＊?府中市立片町文化センター(複合施設）","province":"東京都","city":"府中市","address":"府中市片町2-17","lat":35.670275,"lon":139.469377},{"name":"＊?府中市立押立文化センター(複合施設）","province":"東京都","city":"府中市","address":"府中市押立町5-4","lat":35.653691,"lon":139.517813},{"name":"＊?府中市立武蔵台文化センター(複合施設）","province":"東京都","city":"府中市","address":"府中市武蔵台2-2","lat":35.688581,"lon":139.461425},{"name":"府中武蔵台浄水所及び府中武蔵台ポンプ所","province":"東京都","city":"府中市","address":"東京都府中市武蔵台2-7及び武蔵台1-25","lat":35.688081,"lon":139.460998},{"name":"若松給水所","province":"東京都","city":"府中市","address":"東京都府中市若松町4-10","lat":35.6760322,"lon":139.499748},{"name":"幸町給水所","province":"東京都","city":"府中市","address":"東京都府中市幸町2-24","lat":35.679613,"lon":139.483705},{"name":"府中南町給水所","province":"東京都","city":"府中市","address":"東京都府中市南町1-50","lat":35.6585721,"lon":139.470907},{"name":"都立武蔵野公園","province":"東京都","city":"府中市","address":"東京都府中市多磨町3-2","lat":35.6879393,"lon":139.5176078},{"name":"＊?府中市立白糸台文化センター(複合施設）","province":"東京都","city":"府中市","address":"府中市白糸台1-60","lat":35.667081,"lon":139.506149},{"name":"＊?府中市立西府文化センター(複合施設）","province":"東京都","city":"府中市","address":"府中市西府町1-10","lat":35.670886,"lon":139.45627},{"name":"＊?府中市立紅葉丘文化センター(複合施設）","province":"東京都","city":"府中市","address":"府中市紅葉丘2-1","lat":35.676533,"lon":139.509245},{"name":"＊?府中市立是政文化センター(複合施設）","province":"東京都","city":"府中市","address":"府中市是政2-20","lat":35.660891,"lon":139.495318},{"name":"＊?府中市立新町文化センター(複合施設）","province":"東京都","city":"府中市","address":"府中市新町1-66","lat":35.687183,"lon":139.489386},{"name":"＊?府中市立住吉文化センター(複合施設）","province":"東京都","city":"府中市","address":"府中市住吉町1-61","lat":35.660297,"lon":139.460272},{"name":"＊?府中市立四谷文化センター(複合施設）","province":"東京都","city":"府中市","address":"府中市四谷2-75","lat":35.665294,"lon":139.445637},{"name":"＊?府中市立片町文化センター(複合施設）","province":"東京都","city":"府中市","address":"府中市片町2-17","lat":35.670275,"lon":139.469377},{"name":"＊?府中市立押立文化センター(複合施設）","province":"東京都","city":"府中市","address":"府中市押立町5-4","lat":35.653691,"lon":139.517813},{"name":"＊?府中市立武蔵台文化センター(複合施設）","province":"東京都","city":"府中市","address":"府中市武蔵台2-2","lat":35.688581,"lon":139.461425},{"name":"府中武蔵台浄水所及び府中武蔵台ポンプ所","province":"東京都","city":"府中市","address":"東京都府中市武蔵台2-7及び武蔵台1-25","lat":35.688081,"lon":139.460998},{"name":"若松給水所","province":"東京都","city":"府中市","address":"東京都府中市若松町4-10","lat":35.6760322,"lon":139.499748},{"name":"幸町給水所","province":"東京都","city":"府中市","address":"東京都府中市幸町2-24","lat":35.679613,"lon":139.483705},{"name":"府中南町給水所","province":"東京都","city":"府中市","address":"東京都府中市南町1-50","lat":35.6585721,"lon":139.470907},{"name":"都立武蔵野公園","province":"東京都","city":"府中市","address":"東京都府中市多磨町3-2","lat":35.6879393,"lon":139.5176078},{"name":"＊?府中市立白糸台文化センター(複合施設）","province":"東京都","city":"府中市","address":"府中市白糸台1-60","lat":35.667081,"lon":139.506149},{"name":"＊?府中市立西府文化センター(複合施設）","province":"東京都","city":"府中市","address":"府中市西府町1-10","lat":35.670886,"lon":139.45627},{"name":"＊?府中市立紅葉丘文化センター(複合施設）","province":"東京都","city":"府中市","address":"府中市紅葉丘2-1","lat":35.676533,"lon":139.509245},{"name":"＊?府中市立是政文化センター(複合施設）","province":"東京都","city":"府中市","address":"府中市是政2-20","lat":35.660891,"lon":139.495318},{"name":"＊?府中市立新町文化センター(複合施設）","province":"東京都","city":"府中市","address":"府中市新町1-66","lat":35.687183,"lon":139.489386},{"name":"＊?府中市立住吉文化センター(複合施設）","province":"東京都","city":"府中市","address":"府中市住吉町1-61","lat":35.660297,"lon":139.460272},{"name":"＊?府中市立四谷文化センター(複合施設）","province":"東京都","city":"府中市","address":"府中市四谷2-75","lat":35.665294,"lon":139.445637},{"name":"＊?府中市立片町文化センター(複合施設）","province":"東京都","city":"府中市","address":"府中市片町2-17","lat":35.670275,"lon":139.469377},{"name":"＊?府中市立押立文化センター(複合施設）","province":"東京都","city":"府中市","address":"府中市押立町5-4","lat":35.653691,"lon":139.517813},{"name":"＊?府中市立武蔵台文化センター(複合施設）","province":"東京都","city":"府中市","address":"府中市武蔵台2-2","lat":35.688581,"lon":139.461425},{"name":"府中武蔵台浄水所及び府中武蔵台ポンプ所","province":"東京都","city":"府中市","address":"東京都府中市武蔵台2-7及び武蔵台1-25","lat":35.688081,"lon":139.460998},{"name":"若松給水所","province":"東京都","city":"府中市","address":"東京都府中市若松町4-10","lat":35.6760322,"lon":139.499748},{"name":"幸町給水所","province":"東京都","city":"府中市","address":"東京都府中市幸町2-24","lat":35.679613,"lon":139.483705},{"name":"府中南町給水所","province":"東京都","city":"府中市","address":"東京都府中市南町1-50","lat":35.6585721,"lon":139.470907},{"name":"都立武蔵野公園","province":"東京都","city":"府中市","address":"東京都府中市多磨町3-2","lat":35.6879393,"lon":139.5176078},{"name":"＊?府中市立白糸台文化センター(複合施設）","province":"東京都","city":"府中市","address":"府中市白糸台1-60","lat":35.667081,"lon":139.506149},{"name":"＊?府中市立西府文化センター(複合施設）","province":"東京都","city":"府中市","address":"府中市西府町1-10","lat":35.670886,"lon":139.45627},{"name":"＊?府中市立紅葉丘文化センター(複合施設）","province":"東京都","city":"府中市","address":"府中市紅葉丘2-1","lat":35.676533,"lon":139.509245},{"name":"＊?府中市立是政文化センター(複合施設）","province":"東京都","city":"府中市","address":"府中市是政2-20","lat":35.660891,"lon":139.495318},{"name":"＊?府中市立新町文化センター(複合施設）","province":"東京都","city":"府中市","address":"府中市新町1-66","lat":35.687183,"lon":139.489386},{"name":"＊?府中市立住吉文化センター(複合施設）","province":"東京都","city":"府中市","address":"府中市住吉町1-61","lat":35.660297,"lon":139.460272},{"name":"＊?府中市立四谷文化センター(複合施設）","province":"東京都","city":"府中市","address":"府中市四谷2-75","lat":35.665294,"lon":139.445637},{"name":"＊?府中市立片町文化センター(複合施設）","province":"東京都","city":"府中市","address":"府中市片町2-17","lat":35.670275,"lon":139.469377},{"name":"＊?府中市立押立文化センター(複合施設）","province":"東京都","city":"府中市","address":"府中市押立町5-4","lat":35.653691,"lon":139.517813},{"name":"＊?府中市立武蔵台文化センター(複合施設）","province":"東京都","city":"府中市","address":"府中市武蔵台2-2","lat":35.688581,"lon":139.461425}]}