{"keyword":"子ども","data":[{"name":"地方独立行政法人東京都立病院機構　東京都立多摩小児総合医療センター","province":"東京都","city":"府中市","address":"東京都府中市武蔵台2丁目8-29","lat":35.692133,"lon":139.461337},{"name":"地方独立行政法人東京都立病院機構　東京都立神経病院","province":"東京都","city":"府中市","address":"東京都府中市武蔵台2丁目6-1","lat":35.690546,"lon":139.461279},{"name":"東京都立がん検診センター","province":"東京都","city":"府中市","address":"東京都府中市武蔵台2丁目9-2","lat":35.692038,"lon":139.464221},{"name":"武蔵野公園","province":"東京都","city":"府中市","address":"東京都府中市多磨町3丁目3","lat":35.690283,"lon":139.518198},{"name":"武蔵野公園","province":"東京都","city":"府中市","address":"東京都府中市多磨町3丁目2","lat":35.688407,"lon":139.517854},{"name":"武蔵野公園","province":"東京都","city":"府中市","address":"東京都府中市多磨町2丁目24","lat":35.687734,"lon":139.520365},{"name":"府中の森公園","province":"東京都","city":"府中市","address":"東京都府中市浅間町1丁目3","lat":35.677984,"lon":139.493109},{"name":"府中の森公園","province":"東京都","city":"府中市","address":"東京都府中市浅間町1丁目3","lat":35.675849,"lon":139.491671},{"name":"府中の森公園","province":"東京都","city":"府中市","address":"東京都府中市浅間町1丁目3-1","lat":35.677034,"lon":139.492435},{"name":"府中の森公園","province":"東京都","city":"府中市","address":"東京都府中市浅間町1丁目3","lat":35.678036,"lon":139.491194},{"name":"武蔵野の森公園","province":"東京都","city":"府中市","address":"東京都府中市朝日町3丁目7","lat":35.67604,"lon":139.52185},{"name":"武蔵野の森公園","province":"東京都","city":"府中市","address":"東京都府中市朝日町3丁目6","lat":35.677657,"lon":139.524465},{"name":"武蔵野の森公園","province":"東京都","city":"府中市","address":"東京都府中市朝日町3丁目7","lat":35.676126,"lon":139.522463},{"name":"多磨霊園","province":"東京都","city":"府中市","address":"東京都府中市多磨町4丁目","lat":35.67815,"lon":139.51413},{"name":"多磨霊園","province":"東京都","city":"府中市","address":"東京都府中市多磨町4丁目","lat":35.67865,"lon":139.512944},{"name":"浅間山公園","province":"東京都","city":"府中市","address":"東京都府中市若松町5丁目1","lat":35.678131,"lon":139.499835},{"name":"府中サービスステーション","province":"東京都","city":"府中市","address":"東京都府中市寿町3丁目4-6","lat":35.673647,"lon":139.47443},{"name":"府中消防署","province":"東京都","city":"府中市","address":"東京都府中市寿町1丁目5","lat":35.673786,"lon":139.478162},{"name":"府中消防署分梅出張所","province":"東京都","city":"府中市","address":"東京都府中市分梅町5丁目9-7","lat":35.662327,"lon":139.46242},{"name":"府中消防署朝日出張所","province":"東京都","city":"府中市","address":"東京都府中市朝日町3丁目13","lat":35.67188,"lon":139.522788},{"name":"中央図書館","province":"東京都","city":"府中市","address":"東京都府中市府中町2丁目24","lat":35.67603,"lon":139.483787},{"name":"府中駅北第２庁舎","province":"東京都","city":"府中市","address":"東京都府中市寿町1丁目5","lat":35.673654,"lon":139.47879},{"name":"府中市役所おもや","province":"東京都","city":"府中市","address":"東京都府中市宮西町2丁目20","lat":35.669513,"lon":139.477825},{"name":"府中市役所おもや","province":"東京都","city":"府中市","address":"東京都府中市宮西町2丁目22","lat":35.669487,"lon":139.477127},{"name":"府中市立中央文化センター","province":"東京都","city":"府中市","address":"東京都府中市府中町2丁目25","lat":35.675825,"lon":139.482156},{"name":"府中市立白糸台文化センター","province":"東京都","city":"府中市","address":"東京都府中市白糸台1丁目60-14","lat":35.66707,"lon":139.506072},{"name":"府中市立西府文化センター","province":"東京都","city":"府中市","address":"東京都府中市西府町1丁目60","lat":35.670824,"lon":139.456291},{"name":"府中市立武蔵台文化センター","province":"東京都","city":"府中市","address":"東京都府中市武蔵台2丁目2","lat":35.688696,"lon":139.461429},{"name":"府中市立新町文化センター","province":"東京都","city":"府中市","address":"東京都府中市新町1丁目66","lat":35.687211,"lon":139.489371},{"name":"府中市立住吉文化センター","province":"東京都","city":"府中市","address":"東京都府中市住吉町1丁目61","lat":35.660306,"lon":139.460279},{"name":"府中市立是政文化センター","province":"東京都","city":"府中市","address":"東京都府中市是政2丁目20","lat":35.660883,"lon":139.495325},{"name":"府中市立紅葉丘文化センター","province":"東京都","city":"府中市","address":"東京都府中市紅葉丘2丁目1","lat":35.676569,"lon":139.509277},{"name":"府中市立押立文化センター","province":"東京都","city":"府中市","address":"東京都府中市押立町5丁目4","lat":35.653644,"lon":139.517766},{"name":"府中市立四谷文化センター","province":"東京都","city":"府中市","address":"東京都府中市四谷2丁目75","lat":35.665274,"lon":139.445635},{"name":"府中市立片町文化センター","province":"東京都","city":"府中市","address":"東京都府中市片町2丁目17","lat":35.670229,"lon":139.469483},{"name":"府中市男女共同参画センター「フチュール」","province":"東京都","city":"府中市","address":"東京都府中市住吉町1丁目84-1","lat":35.660132,"lon":139.458437},{"name":"府中市市民活動センター「プラッツ」","province":"東京都","city":"府中市","address":"東京都府中市宮町1丁目100","lat":35.671651,"lon":139.479622},{"name":"府中市保健センター","province":"東京都","city":"府中市","address":"東京都府中市府中町2丁目25","lat":35.675994,"lon":139.483016},{"name":"中央図書館","province":"東京都","city":"府中市","address":"東京都府中市府中町2丁目24","lat":35.675879,"lon":139.483826},{"name":"府中市立教育センター","province":"東京都","city":"府中市","address":"東京都府中市府中町1丁目32","lat":35.676624,"lon":139.479504},{"name":"府中市郷土の森博物館","province":"東京都","city":"府中市","address":"東京都府中市南町6丁目32","lat":35.656675,"lon":139.473143},{"name":"郷土の森観光物産館","province":"東京都","city":"府中市","address":"東京都府中市是政6丁目32","lat":35.65601,"lon":139.473951},{"name":"府中市郷土の森博物館","province":"東京都","city":"府中市","address":"東京都府中市南町6丁目49","lat":35.65584,"lon":139.47196},{"name":"府中市郷土の森博物館","province":"東京都","city":"府中市","address":"東京都府中市是政6丁目27","lat":35.654396,"lon":139.47464},{"name":"府中市郷土の森博物館","province":"東京都","city":"府中市","address":"東京都府中市南町6丁目41","lat":35.655387,"lon":139.473126},{"name":"府中市郷土の森博物館","province":"東京都","city":"府中市","address":"東京都府中市南町6丁目55","lat":35.655522,"lon":139.470794},{"name":"府中市立ふるさと府中歴史館","province":"東京都","city":"府中市","address":"東京都府中市宮町3丁目1","lat":35.66877,"lon":139.478636},{"name":"国史跡武蔵府中熊野神社古墳展示館","province":"東京都","city":"府中市","address":"東京都府中市西府町2丁目9","lat":35.674575,"lon":139.456783},{"name":"府中市生涯学習センター","province":"東京都","city":"府中市","address":"東京都府中市浅間町1丁目7","lat":35.679331,"lon":139.496382},{"name":"府中市生涯学習センター","province":"東京都","city":"府中市","address":"東京都府中市浅間町1丁目7","lat":35.67912,"lon":139.496583},{"name":"府中市生涯学習センター","province":"東京都","city":"府中市","address":"東京都府中市浅間町1丁目7","lat":35.679239,"lon":139.496456},{"name":"府中市生涯学習センター","province":"東京都","city":"府中市","address":"東京都府中市浅間町1丁目7","lat":35.678841,"lon":139.496648},{"name":"府中市民球場","province":"東京都","city":"府中市","address":"東京都府中市寿町2丁目19","lat":35.676751,"lon":139.47491},{"name":"府中市民陸上競技場","province":"東京都","city":"府中市","address":"東京都府中市寿町2丁目19","lat":35.676932,"lon":139.475068},{"name":"府中朝日フットボールパーク","province":"東京都","city":"府中市","address":"東京都府中市朝日町3丁目7","lat":35.675088,"lon":139.522584},{"name":"市民プール","province":"東京都","city":"府中市","address":"東京都府中市寿町2丁目13","lat":35.675153,"lon":139.476662},{"name":"美好水遊び広場","province":"東京都","city":"府中市","address":"東京都府中市美好町1丁目27","lat":35.672028,"lon":139.467744},{"name":"西府プール","province":"東京都","city":"府中市","address":"東京都府中市西府町1丁目60-2","lat":35.670462,"lon":139.456613},{"name":"府中市立総合体育館","province":"東京都","city":"府中市","address":"東京都府中市矢崎町5丁目5","lat":35.655836,"lon":139.477717},{"name":"府中市立総合体育館","province":"東京都","city":"府中市","address":"東京都府中市矢崎町5丁目5","lat":35.655856,"lon":139.477706},{"name":"府中市立栄町体育館","province":"東京都","city":"府中市","address":"東京都府中市栄町1丁目1-1","lat":35.688427,"lon":139.480679},{"name":"府中市立四谷体育館","province":"東京都","city":"府中市","address":"東京都府中市四谷5丁目6","lat":35.664475,"lon":139.441657},{"name":"府中市立白糸台体育館","province":"東京都","city":"府中市","address":"東京都府中市白糸台1丁目50","lat":35.671114,"lon":139.509037},{"name":"府中市立押立体育館","province":"東京都","city":"府中市","address":"東京都府中市押立町1丁目37","lat":35.659736,"lon":139.511551},{"name":"府中市立本宿体育館","province":"東京都","city":"府中市","address":"東京都府中市本宿町4丁目23-12","lat":35.679842,"lon":139.459847},{"name":"東京競馬場日吉体育館","province":"東京都","city":"府中市","address":"東京都府中市八幡町3丁目8-6","lat":35.667425,"lon":139.492047},{"name":"観光情報センター","province":"東京都","city":"府中市","address":"東京都府中市宮町3丁目1","lat":35.669789,"lon":139.47954},{"name":"府中市美術館","province":"東京都","city":"府中市","address":"東京都府中市浅間町1丁目3","lat":35.678962,"lon":139.492032},{"name":"府中市美術館","province":"東京都","city":"府中市","address":"東京都府中市浅間町1丁目3","lat":35.678869,"lon":139.49215},{"name":"子ども家庭支援センター「たっち」","province":"東京都","city":"府中市","address":"東京都府中市宮町1丁目50","lat":35.671476,"lon":139.480953},{"name":"国司館と家康御殿史跡広場管理事務所","province":"東京都","city":"府中市","address":"東京都府中市本町1丁目14","lat":35.666801,"lon":139.477785},{"name":"旧府中グリーンプラザ分館","province":"東京都","city":"府中市","address":"東京都府中市寿町1丁目1-1","lat":35.672497,"lon":139.478541},{"name":"府中の森芸術劇場","province":"東京都","city":"府中市","address":"東京都府中市浅間町1丁目2","lat":35.673116,"lon":139.492487},{"name":"府中の森芸術劇場","province":"東京都","city":"府中市","address":"東京都府中市浅間町1丁目2","lat":35.673344,"lon":139.492197},{"name":"府中の森芸術劇場","province":"東京都","city":"府中市","address":"東京都府中市浅間町1丁目2","lat":35.672804,"lon":139.492541},{"name":"府中の森芸術劇場","province":"東京都","city":"府中市","address":"東京都府中市浅間町1丁目2","lat":35.673159,"lon":139.492766},{"name":"府中の森芸術劇場","province":"東京都","city":"府中市","address":"東京都府中市浅間町1丁目2","lat":35.673191,"lon":139.49293},{"name":"府中の森芸術劇場","province":"東京都","city":"府中市","address":"東京都府中市浅間町1丁目2","lat":35.673138,"lon":139.492458},{"name":"府中市立府中の森芸術劇場分館","province":"東京都","city":"府中市","address":"東京都府中市宮町1丁目100","lat":35.67206,"lon":139.479529},{"name":"府中市市民会館","province":"東京都","city":"府中市","address":"東京都府中市府中町2丁目24","lat":35.675715,"lon":139.484011},{"name":"府中市市民会館","province":"東京都","city":"府中市","address":"東京都府中市府中町2丁目24","lat":35.676256,"lon":139.484117},{"name":"府中市市民会館","province":"東京都","city":"府中市","address":"東京都府中市府中町2丁目24","lat":35.676007,"lon":139.483805},{"name":"府中市市民会館","province":"東京都","city":"府中市","address":"東京都府中市府中町2丁目24","lat":35.675714,"lon":139.484049},{"name":"学園通り新宿山谷公園","province":"東京都","city":"府中市","address":"東京都府中市天神町3丁目12","lat":35.684523,"lon":139.489106},{"name":"金塚桜広場","province":"東京都","city":"府中市","address":"東京都府中市是政6丁目30","lat":35.65534,"lon":139.479556},{"name":"郷土の森公園","province":"東京都","city":"府中市","address":"東京都府中市是政6丁目31","lat":35.655434,"lon":139.476121},{"name":"清水ヶ丘東公園","province":"東京都","city":"府中市","address":"東京都府中市清水が丘3丁目25","lat":35.66602,"lon":139.503823},{"name":"下河原緑道","province":"東京都","city":"府中市","address":"東京都府中市矢崎町3丁目11","lat":35.660309,"lon":139.473268},{"name":"多摩川南町公園","province":"東京都","city":"府中市","address":"東京都府中市南町4丁目40","lat":35.654893,"lon":139.464083},{"name":"御嶽塚公園","province":"東京都","city":"府中市","address":"東京都府中市西府町1丁目60","lat":35.671307,"lon":139.456457},{"name":"新田公園","province":"東京都","city":"府中市","address":"東京都府中市日新町4丁目58","lat":35.671804,"lon":139.44437},{"name":"西原町４丁目公園","province":"東京都","city":"府中市","address":"東京都府中市西原町4丁目22","lat":35.684519,"lon":139.454461},{"name":"押立公園","province":"東京都","city":"府中市","address":"東京都府中市押立町1丁目18","lat":35.660484,"lon":139.510726},{"name":"四谷さくら公園","province":"東京都","city":"府中市","address":"東京都府中市四谷5丁目41","lat":35.663771,"lon":139.439916},{"name":"小柳公園","province":"東京都","city":"府中市","address":"東京都府中市小柳町6丁目24","lat":35.65414,"lon":139.505696},{"name":"府中公園","province":"東京都","city":"府中市","address":"東京都府中市府中町2丁目26","lat":35.676589,"lon":139.483302},{"name":"矢崎町防災公園","province":"東京都","city":"府中市","address":"東京都府中市矢崎町1丁目16","lat":35.663795,"lon":139.477331},{"name":"府中公園","province":"東京都","city":"府中市","address":"東京都府中市府中町2丁目26","lat":35.676594,"lon":139.483307},{"name":"北府中公園","province":"東京都","city":"府中市","address":"東京都府中市晴見町2丁目9","lat":35.680769,"lon":139.472299},{"name":"三本木公園","province":"東京都","city":"府中市","address":"東京都府中市緑町2丁目23","lat":35.674293,"lon":139.489358},{"name":"西府駅北公衆トイレ","province":"東京都","city":"府中市","address":"東京都府中市本宿町1丁目50","lat":35.67083,"lon":139.457353},{"name":"府中駅西公衆トイレ","province":"東京都","city":"府中市","address":"東京都府中市宮町1丁目1-10","lat":35.672254,"lon":139.479375},{"name":"府中市リサイクルプラザ","province":"東京都","city":"府中市","address":"東京都府中市四谷6丁目58","lat":35.671635,"lon":139.431152},{"name":"府中駅南口市営駐車場","province":"東京都","city":"府中市","address":"東京都府中市宮町1丁目41-2","lat":35.67082,"lon":139.48018},{"name":"府中市立ふれあい会館","province":"東京都","city":"府中市","address":"東京都府中市府中町1丁目30","lat":35.675911,"lon":139.479955},{"name":"府中市立心身障害者福祉センター","province":"東京都","city":"府中市","address":"東京都府中市南町5丁目38","lat":35.65617,"lon":139.466818},{"name":"府中市立心身障害者福祉センター","province":"東京都","city":"府中市","address":"東京都府中市南町5丁目38","lat":35.656144,"lon":139.466893},{"name":"府中市立心身障害者福祉センター","province":"東京都","city":"府中市","address":"東京都府中市南町5丁目38","lat":35.656235,"lon":139.466984},{"name":"府中市立心身障害者福祉センター","province":"東京都","city":"府中市","address":"東京都府中市南町5丁目38","lat":35.656263,"lon":139.466912},{"name":"府中市立心身障害者福祉センター","province":"東京都","city":"府中市","address":"東京都府中市南町5丁目38","lat":35.656123,"lon":139.466738},{"name":"府中市立心身障害者福祉センター","province":"東京都","city":"府中市","address":"東京都府中市南町5丁目38","lat":35.656133,"lon":139.466663},{"name":"府中市立心身障害者福祉センター","province":"東京都","city":"府中市","address":"東京都府中市南町5丁目38","lat":35.656309,"lon":139.466856},{"name":"府中市立心身障害者福祉センター","province":"東京都","city":"府中市","address":"東京都府中市南町5丁目38","lat":35.656297,"lon":139.466888},{"name":"府中市立心身障害者福祉センター","province":"東京都","city":"府中市","address":"東京都府中市南町5丁目38","lat":35.656211,"lon":139.467039},{"name":"地域生活支援センターあけぼの","province":"東京都","city":"府中市","address":"東京都府中市寿町3丁目9-11","lat":35.676352,"lon":139.473825},{"name":"府中市立介護予防推進センター","province":"東京都","city":"府中市","address":"東京都府中市分梅町1丁目31","lat":35.666815,"lon":139.467073},{"name":"府中市立介護予防推進センター","province":"東京都","city":"府中市","address":"東京都府中市分梅町1丁目31","lat":35.666802,"lon":139.467006},{"name":"府中市立介護予防推進センター","province":"東京都","city":"府中市","address":"東京都府中市分梅町1丁目31","lat":35.666768,"lon":139.467092},{"name":"子育て世代包括支援センター「みらい」","province":"東京都","city":"府中市","address":"東京都府中市宮町1丁目41-2","lat":35.670981,"lon":139.479639},{"name":"府中の森市民聖苑","province":"東京都","city":"府中市","address":"東京都府中市浅間町1丁目3","lat":35.67616,"lon":139.493256},{"name":"府中の森市民聖苑","province":"東京都","city":"府中市","address":"東京都府中市浅間町1丁目3","lat":35.676102,"lon":139.493006},{"name":"府中の森市民聖苑","province":"東京都","city":"府中市","address":"東京都府中市浅間町1丁目3","lat":35.67558,"lon":139.492806},{"name":"あおばこどもの居場所","province":"東京都","city":"府中市","address":"東京都府中市紅葉丘1丁目35","lat":35.67608155,"lon":139.51360755},{"name":"グレイスキッチン","province":"東京都","city":"府中市","address":"東京都府中市白糸台4丁目2-8","lat":35.66549933,"lon":139.50903882},{"name":"子ども食堂・なな","province":"東京都","city":"府中市","address":"東京都府中市武蔵台2丁目2","lat":35.68866772,"lon":139.46109766},{"name":"こどもの居場所作り＠府中","province":"東京都","city":"府中市","address":"東京都府中市片町2丁目2","lat":35.66908969,"lon":139.47353896},{"name":"新町こどもカレー食堂","province":"東京都","city":"府中市","address":"東京都府中市新町3丁目1","lat":35.69080143,"lon":139.48736756},{"name":"とうきょうどけん子ども食堂","province":"東京都","city":"府中市","address":"東京都府中市晴見町2丁目15-5","lat":35.68168825,"lon":139.4727608},{"name":"にっころ食堂","province":"東京都","city":"府中市","address":"東京都府中市日新町4丁目46-7","lat":35.67052203,"lon":139.4417361},{"name":"ひがしふちゅう駅前こども食堂","province":"東京都","city":"府中市","address":"東京都府中市清水が丘1丁目2","lat":35.66909296,"lon":139.49406224},{"name":"みんなの食堂","province":"東京都","city":"府中市","address":"東京都府中市宮町1丁目100","lat":35.67197841,"lon":139.47949673},{"name":"ラ・メンサ・デリ・アンジェリ 天使の食卓","province":"東京都","city":"府中市","address":"東京都府中市府中町1丁目40-11","lat":35.67745835,"lon":139.47977983},{"name":"都立武蔵野の森公園朝日サッカー場","province":"東京都","city":"府中市","address":"東京都府中市朝日町3丁目","lat":35.6664691,"lon":139.5212629},{"name":"東京競馬場・日吉体育館駐車場","province":"東京都","city":"府中市","address":"東京都府中市八幡町3丁目11","lat":35.66652097,"lon":139.49086538},{"name":"東京競馬場","province":"東京都","city":"府中市","address":"東京都府中市日吉町1","lat":35.66537655,"lon":139.48689909},{"name":"稲城大橋河川敷","province":"東京都","city":"府中市","address":"東京都府中市押立町5丁目","lat":35.65279891,"lon":139.51860288},{"name":"関戸橋河川敷","province":"東京都","city":"府中市","address":"東京都府中市住吉町2丁目","lat":35.65711565,"lon":139.45856007},{"name":"府中市陸上競技場","province":"東京都","city":"府中市","address":"東京都府中市寿町2丁目20","lat":35.67664722,"lon":139.47528856},{"name":"都立多摩・小児総合医療センターヘリポート","province":"東京都","city":"府中市","address":"東京都府中市武蔵台2丁目8-29","lat":35.69188402,"lon":139.46098088},{"name":"郷土の森公園（是政緑地）","province":"東京都","city":"府中市","address":"東京都府中市是政6丁目","lat":35.656008,"lon":139.48189143},{"name":"都立府中の森公園サッカー場","province":"東京都","city":"府中市","address":"東京都府中市浅間町1丁目","lat":35.6770059,"lon":139.49241491},{"name":"府中市役所北庁舎屋内駐車場","province":"東京都","city":"府中市","address":"東京都府中市宮西町2丁目24","lat":35.66907035,"lon":139.47727755},{"name":"府中市水防・防災ステーション","province":"東京都","city":"府中市","address":"東京都府中市小柳町6丁目1","lat":35.65723101,"lon":139.50668392},{"name":"北多摩南部建設事務所","province":"東京都","city":"府中市","address":"府中市緑町1-27-1","lat":35.6733,"lon":139.4846},{"name":"アルフレッサ（株）調布支店","province":"東京都","city":"府中市","address":"府中市西原町1-5-1","lat":35.68195,"lon":139.4604},{"name":"多磨葬祭場","province":"東京都","city":"府中市","address":"東京都府中市多磨町2丁目1-1","lat":35.681731,"lon":139.51697931},{"name":"地方独立行政法人東京都立病院機構　東京都立多摩小児総合医療センター","province":"東京都","city":"府中市","address":"東京都府中市武蔵台2丁目8-29","lat":35.692133,"lon":139.461337},{"name":"地方独立行政法人東京都立病院機構　東京都立神経病院","province":"東京都","city":"府中市","address":"東京都府中市武蔵台2丁目6-1","lat":35.690546,"lon":139.461279},{"name":"東京都立がん検診センター","province":"東京都","city":"府中市","address":"東京都府中市武蔵台2丁目9-2","lat":35.692038,"lon":139.464221},{"name":"武蔵野公園","province":"東京都","city":"府中市","address":"東京都府中市多磨町3丁目3","lat":35.690283,"lon":139.518198},{"name":"武蔵野公園","province":"東京都","city":"府中市","address":"東京都府中市多磨町3丁目2","lat":35.688407,"lon":139.517854},{"name":"武蔵野公園","province":"東京都","city":"府中市","address":"東京都府中市多磨町2丁目24","lat":35.687734,"lon":139.520365},{"name":"府中の森公園","province":"東京都","city":"府中市","address":"東京都府中市浅間町1丁目3","lat":35.677984,"lon":139.493109},{"name":"府中の森公園","province":"東京都","city":"府中市","address":"東京都府中市浅間町1丁目3","lat":35.675849,"lon":139.491671},{"name":"府中の森公園","province":"東京都","city":"府中市","address":"東京都府中市浅間町1丁目3-1","lat":35.677034,"lon":139.492435},{"name":"府中の森公園","province":"東京都","city":"府中市","address":"東京都府中市浅間町1丁目3","lat":35.678036,"lon":139.491194},{"name":"武蔵野の森公園","province":"東京都","city":"府中市","address":"東京都府中市朝日町3丁目7","lat":35.67604,"lon":139.52185},{"name":"武蔵野の森公園","province":"東京都","city":"府中市","address":"東京都府中市朝日町3丁目6","lat":35.677657,"lon":139.524465},{"name":"武蔵野の森公園","province":"東京都","city":"府中市","address":"東京都府中市朝日町3丁目7","lat":35.676126,"lon":139.522463},{"name":"多磨霊園","province":"東京都","city":"府中市","address":"東京都府中市多磨町4丁目","lat":35.67815,"lon":139.51413},{"name":"多磨霊園","province":"東京都","city":"府中市","address":"東京都府中市多磨町4丁目","lat":35.67865,"lon":139.512944},{"name":"浅間山公園","province":"東京都","city":"府中市","address":"東京都府中市若松町5丁目1","lat":35.678131,"lon":139.499835},{"name":"府中サービスステーション","province":"東京都","city":"府中市","address":"東京都府中市寿町3丁目4-6","lat":35.673647,"lon":139.47443},{"name":"府中消防署","province":"東京都","city":"府中市","address":"東京都府中市寿町1丁目5","lat":35.673786,"lon":139.478162},{"name":"府中消防署分梅出張所","province":"東京都","city":"府中市","address":"東京都府中市分梅町5丁目9-7","lat":35.662327,"lon":139.46242},{"name":"府中消防署朝日出張所","province":"東京都","city":"府中市","address":"東京都府中市朝日町3丁目13","lat":35.67188,"lon":139.522788},{"name":"中央図書館","province":"東京都","city":"府中市","address":"東京都府中市府中町2丁目24","lat":35.67603,"lon":139.483787},{"name":"府中駅北第２庁舎","province":"東京都","city":"府中市","address":"東京都府中市寿町1丁目5","lat":35.673654,"lon":139.47879},{"name":"府中市役所おもや","province":"東京都","city":"府中市","address":"東京都府中市宮西町2丁目20","lat":35.669513,"lon":139.477825},{"name":"府中市役所おもや","province":"東京都","city":"府中市","address":"東京都府中市宮西町2丁目22","lat":35.669487,"lon":139.477127},{"name":"府中市立中央文化センター","province":"東京都","city":"府中市","address":"東京都府中市府中町2丁目25","lat":35.675825,"lon":139.482156},{"name":"府中市立白糸台文化センター","province":"東京都","city":"府中市","address":"東京都府中市白糸台1丁目60-14","lat":35.66707,"lon":139.506072},{"name":"府中市立西府文化センター","province":"東京都","city":"府中市","address":"東京都府中市西府町1丁目60","lat":35.670824,"lon":139.456291},{"name":"府中市立武蔵台文化センター","province":"東京都","city":"府中市","address":"東京都府中市武蔵台2丁目2","lat":35.688696,"lon":139.461429},{"name":"府中市立新町文化センター","province":"東京都","city":"府中市","address":"東京都府中市新町1丁目66","lat":35.687211,"lon":139.489371},{"name":"府中市立住吉文化センター","province":"東京都","city":"府中市","address":"東京都府中市住吉町1丁目61","lat":35.660306,"lon":139.460279},{"name":"府中市立是政文化センター","province":"東京都","city":"府中市","address":"東京都府中市是政2丁目20","lat":35.660883,"lon":139.495325},{"name":"府中市立紅葉丘文化センター","province":"東京都","city":"府中市","address":"東京都府中市紅葉丘2丁目1","lat":35.676569,"lon":139.509277},{"name":"府中市立押立文化センター","province":"東京都","city":"府中市","address":"東京都府中市押立町5丁目4","lat":35.653644,"lon":139.517766},{"name":"府中市立四谷文化センター","province":"東京都","city":"府中市","address":"東京都府中市四谷2丁目75","lat":35.665274,"lon":139.445635},{"name":"府中市立片町文化センター","province":"東京都","city":"府中市","address":"東京都府中市片町2丁目17","lat":35.670229,"lon":139.469483},{"name":"府中市男女共同参画センター「フチュール」","province":"東京都","city":"府中市","address":"東京都府中市住吉町1丁目84-1","lat":35.660132,"lon":139.458437},{"name":"府中市市民活動センター「プラッツ」","province":"東京都","city":"府中市","address":"東京都府中市宮町1丁目100","lat":35.671651,"lon":139.479622},{"name":"府中市保健センター","province":"東京都","city":"府中市","address":"東京都府中市府中町2丁目25","lat":35.675994,"lon":139.483016},{"name":"中央図書館","province":"東京都","city":"府中市","address":"東京都府中市府中町2丁目24","lat":35.675879,"lon":139.483826},{"name":"府中市立教育センター","province":"東京都","city":"府中市","address":"東京都府中市府中町1丁目32","lat":35.676624,"lon":139.479504},{"name":"府中市郷土の森博物館","province":"東京都","city":"府中市","address":"東京都府中市南町6丁目32","lat":35.656675,"lon":139.473143},{"name":"郷土の森観光物産館","province":"東京都","city":"府中市","address":"東京都府中市是政6丁目32","lat":35.65601,"lon":139.473951},{"name":"府中市郷土の森博物館","province":"東京都","city":"府中市","address":"東京都府中市南町6丁目49","lat":35.65584,"lon":139.47196},{"name":"府中市郷土の森博物館","province":"東京都","city":"府中市","address":"東京都府中市是政6丁目27","lat":35.654396,"lon":139.47464},{"name":"府中市郷土の森博物館","province":"東京都","city":"府中市","address":"東京都府中市南町6丁目41","lat":35.655387,"lon":139.473126},{"name":"府中市郷土の森博物館","province":"東京都","city":"府中市","address":"東京都府中市南町6丁目55","lat":35.655522,"lon":139.470794},{"name":"府中市立ふるさと府中歴史館","province":"東京都","city":"府中市","address":"東京都府中市宮町3丁目1","lat":35.66877,"lon":139.478636},{"name":"国史跡武蔵府中熊野神社古墳展示館","province":"東京都","city":"府中市","address":"東京都府中市西府町2丁目9","lat":35.674575,"lon":139.456783},{"name":"府中市生涯学習センター","province":"東京都","city":"府中市","address":"東京都府中市浅間町1丁目7","lat":35.679331,"lon":139.496382},{"name":"府中市生涯学習センター","province":"東京都","city":"府中市","address":"東京都府中市浅間町1丁目7","lat":35.67912,"lon":139.496583},{"name":"府中市生涯学習センター","province":"東京都","city":"府中市","address":"東京都府中市浅間町1丁目7","lat":35.679239,"lon":139.496456},{"name":"府中市生涯学習センター","province":"東京都","city":"府中市","address":"東京都府中市浅間町1丁目7","lat":35.678841,"lon":139.496648},{"name":"府中市民球場","province":"東京都","city":"府中市","address":"東京都府中市寿町2丁目19","lat":35.676751,"lon":139.47491},{"name":"府中市民陸上競技場","province":"東京都","city":"府中市","address":"東京都府中市寿町2丁目19","lat":35.676932,"lon":139.475068},{"name":"府中朝日フットボールパーク","province":"東京都","city":"府中市","address":"東京都府中市朝日町3丁目7","lat":35.675088,"lon":139.522584},{"name":"市民プール","province":"東京都","city":"府中市","address":"東京都府中市寿町2丁目13","lat":35.675153,"lon":139.476662},{"name":"美好水遊び広場","province":"東京都","city":"府中市","address":"東京都府中市美好町1丁目27","lat":35.672028,"lon":139.467744},{"name":"西府プール","province":"東京都","city":"府中市","address":"東京都府中市西府町1丁目60-2","lat":35.670462,"lon":139.456613},{"name":"府中市立総合体育館","province":"東京都","city":"府中市","address":"東京都府中市矢崎町5丁目5","lat":35.655836,"lon":139.477717},{"name":"府中市立総合体育館","province":"東京都","city":"府中市","address":"東京都府中市矢崎町5丁目5","lat":35.655856,"lon":139.477706},{"name":"府中市立栄町体育館","province":"東京都","city":"府中市","address":"東京都府中市栄町1丁目1-1","lat":35.688427,"lon":139.480679},{"name":"府中市立四谷体育館","province":"東京都","city":"府中市","address":"東京都府中市四谷5丁目6","lat":35.664475,"lon":139.441657},{"name":"府中市立白糸台体育館","province":"東京都","city":"府中市","address":"東京都府中市白糸台1丁目50","lat":35.671114,"lon":139.509037},{"name":"府中市立押立体育館","province":"東京都","city":"府中市","address":"東京都府中市押立町1丁目37","lat":35.659736,"lon":139.511551},{"name":"府中市立本宿体育館","province":"東京都","city":"府中市","address":"東京都府中市本宿町4丁目23-12","lat":35.679842,"lon":139.459847},{"name":"東京競馬場日吉体育館","province":"東京都","city":"府中市","address":"東京都府中市八幡町3丁目8-6","lat":35.667425,"lon":139.492047},{"name":"観光情報センター","province":"東京都","city":"府中市","address":"東京都府中市宮町3丁目1","lat":35.669789,"lon":139.47954},{"name":"府中市美術館","province":"東京都","city":"府中市","address":"東京都府中市浅間町1丁目3","lat":35.678962,"lon":139.492032},{"name":"府中市美術館","province":"東京都","city":"府中市","address":"東京都府中市浅間町1丁目3","lat":35.678869,"lon":139.49215},{"name":"子ども家庭支援センター「たっち」","province":"東京都","city":"府中市","address":"東京都府中市宮町1丁目50","lat":35.671476,"lon":139.480953},{"name":"国司館と家康御殿史跡広場管理事務所","province":"東京都","city":"府中市","address":"東京都府中市本町1丁目14","lat":35.666801,"lon":139.477785},{"name":"旧府中グリーンプラザ分館","province":"東京都","city":"府中市","address":"東京都府中市寿町1丁目1-1","lat":35.672497,"lon":139.478541},{"name":"府中の森芸術劇場","province":"東京都","city":"府中市","address":"東京都府中市浅間町1丁目2","lat":35.673116,"lon":139.492487},{"name":"府中の森芸術劇場","province":"東京都","city":"府中市","address":"東京都府中市浅間町1丁目2","lat":35.673344,"lon":139.492197},{"name":"府中の森芸術劇場","province":"東京都","city":"府中市","address":"東京都府中市浅間町1丁目2","lat":35.672804,"lon":139.492541},{"name":"府中の森芸術劇場","province":"東京都","city":"府中市","address":"東京都府中市浅間町1丁目2","lat":35.673159,"lon":139.492766},{"name":"府中の森芸術劇場","province":"東京都","city":"府中市","address":"東京都府中市浅間町1丁目2","lat":35.673191,"lon":139.49293},{"name":"府中の森芸術劇場","province":"東京都","city":"府中市","address":"東京都府中市浅間町1丁目2","lat":35.673138,"lon":139.492458},{"name":"府中市立府中の森芸術劇場分館","province":"東京都","city":"府中市","address":"東京都府中市宮町1丁目100","lat":35.67206,"lon":139.479529},{"name":"府中市市民会館","province":"東京都","city":"府中市","address":"東京都府中市府中町2丁目24","lat":35.675715,"lon":139.484011},{"name":"府中市市民会館","province":"東京都","city":"府中市","address":"東京都府中市府中町2丁目24","lat":35.676256,"lon":139.484117},{"name":"府中市市民会館","province":"東京都","city":"府中市","address":"東京都府中市府中町2丁目24","lat":35.676007,"lon":139.483805},{"name":"府中市市民会館","province":"東京都","city":"府中市","address":"東京都府中市府中町2丁目24","lat":35.675714,"lon":139.484049},{"name":"学園通り新宿山谷公園","province":"東京都","city":"府中市","address":"東京都府中市天神町3丁目12","lat":35.684523,"lon":139.489106},{"name":"金塚桜広場","province":"東京都","city":"府中市","address":"東京都府中市是政6丁目30","lat":35.65534,"lon":139.479556},{"name":"郷土の森公園","province":"東京都","city":"府中市","address":"東京都府中市是政6丁目31","lat":35.655434,"lon":139.476121},{"name":"清水ヶ丘東公園","province":"東京都","city":"府中市","address":"東京都府中市清水が丘3丁目25","lat":35.66602,"lon":139.503823},{"name":"下河原緑道","province":"東京都","city":"府中市","address":"東京都府中市矢崎町3丁目11","lat":35.660309,"lon":139.473268},{"name":"多摩川南町公園","province":"東京都","city":"府中市","address":"東京都府中市南町4丁目40","lat":35.654893,"lon":139.464083},{"name":"御嶽塚公園","province":"東京都","city":"府中市","address":"東京都府中市西府町1丁目60","lat":35.671307,"lon":139.456457},{"name":"新田公園","province":"東京都","city":"府中市","address":"東京都府中市日新町4丁目58","lat":35.671804,"lon":139.44437},{"name":"西原町４丁目公園","province":"東京都","city":"府中市","address":"東京都府中市西原町4丁目22","lat":35.684519,"lon":139.454461},{"name":"押立公園","province":"東京都","city":"府中市","address":"東京都府中市押立町1丁目18","lat":35.660484,"lon":139.510726},{"name":"四谷さくら公園","province":"東京都","city":"府中市","address":"東京都府中市四谷5丁目41","lat":35.663771,"lon":139.439916},{"name":"小柳公園","province":"東京都","city":"府中市","address":"東京都府中市小柳町6丁目24","lat":35.65414,"lon":139.505696},{"name":"府中公園","province":"東京都","city":"府中市","address":"東京都府中市府中町2丁目26","lat":35.676589,"lon":139.483302},{"name":"矢崎町防災公園","province":"東京都","city":"府中市","address":"東京都府中市矢崎町1丁目16","lat":35.663795,"lon":139.477331},{"name":"府中公園","province":"東京都","city":"府中市","address":"東京都府中市府中町2丁目26","lat":35.676594,"lon":139.483307},{"name":"北府中公園","province":"東京都","city":"府中市","address":"東京都府中市晴見町2丁目9","lat":35.680769,"lon":139.472299},{"name":"三本木公園","province":"東京都","city":"府中市","address":"東京都府中市緑町2丁目23","lat":35.674293,"lon":139.489358},{"name":"西府駅北公衆トイレ","province":"東京都","city":"府中市","address":"東京都府中市本宿町1丁目50","lat":35.67083,"lon":139.457353},{"name":"府中駅西公衆トイレ","province":"東京都","city":"府中市","address":"東京都府中市宮町1丁目1-10","lat":35.672254,"lon":139.479375},{"name":"府中市リサイクルプラザ","province":"東京都","city":"府中市","address":"東京都府中市四谷6丁目58","lat":35.671635,"lon":139.431152},{"name":"府中駅南口市営駐車場","province":"東京都","city":"府中市","address":"東京都府中市宮町1丁目41-2","lat":35.67082,"lon":139.48018},{"name":"府中市立ふれあい会館","province":"東京都","city":"府中市","address":"東京都府中市府中町1丁目30","lat":35.675911,"lon":139.479955},{"name":"府中市立心身障害者福祉センター","province":"東京都","city":"府中市","address":"東京都府中市南町5丁目38","lat":35.65617,"lon":139.466818},{"name":"府中市立心身障害者福祉センター","province":"東京都","city":"府中市","address":"東京都府中市南町5丁目38","lat":35.656144,"lon":139.466893},{"name":"府中市立心身障害者福祉センター","province":"東京都","city":"府中市","address":"東京都府中市南町5丁目38","lat":35.656235,"lon":139.466984},{"name":"府中市立心身障害者福祉センター","province":"東京都","city":"府中市","address":"東京都府中市南町5丁目38","lat":35.656263,"lon":139.466912},{"name":"府中市立心身障害者福祉センター","province":"東京都","city":"府中市","address":"東京都府中市南町5丁目38","lat":35.656123,"lon":139.466738},{"name":"府中市立心身障害者福祉センター","province":"東京都","city":"府中市","address":"東京都府中市南町5丁目38","lat":35.656133,"lon":139.466663},{"name":"府中市立心身障害者福祉センター","province":"東京都","city":"府中市","address":"東京都府中市南町5丁目38","lat":35.656309,"lon":139.466856},{"name":"府中市立心身障害者福祉センター","province":"東京都","city":"府中市","address":"東京都府中市南町5丁目38","lat":35.656297,"lon":139.466888},{"name":"府中市立心身障害者福祉センター","province":"東京都","city":"府中市","address":"東京都府中市南町5丁目38","lat":35.656211,"lon":139.467039},{"name":"地域生活支援センターあけぼの","province":"東京都","city":"府中市","address":"東京都府中市寿町3丁目9-11","lat":35.676352,"lon":139.473825},{"name":"府中市立介護予防推進センター","province":"東京都","city":"府中市","address":"東京都府中市分梅町1丁目31","lat":35.666815,"lon":139.467073},{"name":"府中市立介護予防推進センター","province":"東京都","city":"府中市","address":"東京都府中市分梅町1丁目31","lat":35.666802,"lon":139.467006},{"name":"府中市立介護予防推進センター","province":"東京都","city":"府中市","address":"東京都府中市分梅町1丁目31","lat":35.666768,"lon":139.467092},{"name":"子育て世代包括支援センター「みらい」","province":"東京都","city":"府中市","address":"東京都府中市宮町1丁目41-2","lat":35.670981,"lon":139.479639},{"name":"府中の森市民聖苑","province":"東京都","city":"府中市","address":"東京都府中市浅間町1丁目3","lat":35.67616,"lon":139.493256},{"name":"府中の森市民聖苑","province":"東京都","city":"府中市","address":"東京都府中市浅間町1丁目3","lat":35.676102,"lon":139.493006},{"name":"府中の森市民聖苑","province":"東京都","city":"府中市","address":"東京都府中市浅間町1丁目3","lat":35.67558,"lon":139.492806},{"name":"あおばこどもの居場所","province":"東京都","city":"府中市","address":"東京都府中市紅葉丘1丁目35","lat":35.67608155,"lon":139.51360755},{"name":"グレイスキッチン","province":"東京都","city":"府中市","address":"東京都府中市白糸台4丁目2-8","lat":35.66549933,"lon":139.50903882},{"name":"子ども食堂・なな","province":"東京都","city":"府中市","address":"東京都府中市武蔵台2丁目2","lat":35.68866772,"lon":139.46109766},{"name":"こどもの居場所作り＠府中","province":"東京都","city":"府中市","address":"東京都府中市片町2丁目2","lat":35.66908969,"lon":139.47353896},{"name":"新町こどもカレー食堂","province":"東京都","city":"府中市","address":"東京都府中市新町3丁目1","lat":35.69080143,"lon":139.48736756},{"name":"とうきょうどけん子ども食堂","province":"東京都","city":"府中市","address":"東京都府中市晴見町2丁目15-5","lat":35.68168825,"lon":139.4727608},{"name":"にっころ食堂","province":"東京都","city":"府中市","address":"東京都府中市日新町4丁目46-7","lat":35.67052203,"lon":139.4417361},{"name":"ひがしふちゅう駅前こども食堂","province":"東京都","city":"府中市","address":"東京都府中市清水が丘1丁目2","lat":35.66909296,"lon":139.49406224},{"name":"みんなの食堂","province":"東京都","city":"府中市","address":"東京都府中市宮町1丁目100","lat":35.67197841,"lon":139.47949673},{"name":"ラ・メンサ・デリ・アンジェリ 天使の食卓","province":"東京都","city":"府中市","address":"東京都府中市府中町1丁目40-11","lat":35.67745835,"lon":139.47977983},{"name":"地方独立行政法人東京都立病院機構　東京都立多摩小児総合医療センター","province":"東京都","city":"府中市","address":"東京都府中市武蔵台2丁目8-29","lat":35.692133,"lon":139.461337},{"name":"地方独立行政法人東京都立病院機構　東京都立神経病院","province":"東京都","city":"府中市","address":"東京都府中市武蔵台2丁目6-1","lat":35.690546,"lon":139.461279},{"name":"東京都立がん検診センター","province":"東京都","city":"府中市","address":"東京都府中市武蔵台2丁目9-2","lat":35.692038,"lon":139.464221},{"name":"武蔵野公園","province":"東京都","city":"府中市","address":"東京都府中市多磨町3丁目3","lat":35.690283,"lon":139.518198},{"name":"武蔵野公園","province":"東京都","city":"府中市","address":"東京都府中市多磨町3丁目2","lat":35.688407,"lon":139.517854},{"name":"武蔵野公園","province":"東京都","city":"府中市","address":"東京都府中市多磨町2丁目24","lat":35.687734,"lon":139.520365},{"name":"府中の森公園","province":"東京都","city":"府中市","address":"東京都府中市浅間町1丁目3","lat":35.677984,"lon":139.493109},{"name":"府中の森公園","province":"東京都","city":"府中市","address":"東京都府中市浅間町1丁目3","lat":35.675849,"lon":139.491671},{"name":"府中の森公園","province":"東京都","city":"府中市","address":"東京都府中市浅間町1丁目3-1","lat":35.677034,"lon":139.492435},{"name":"府中の森公園","province":"東京都","city":"府中市","address":"東京都府中市浅間町1丁目3","lat":35.678036,"lon":139.491194},{"name":"武蔵野の森公園","province":"東京都","city":"府中市","address":"東京都府中市朝日町3丁目7","lat":35.67604,"lon":139.52185},{"name":"武蔵野の森公園","province":"東京都","city":"府中市","address":"東京都府中市朝日町3丁目6","lat":35.677657,"lon":139.524465},{"name":"武蔵野の森公園","province":"東京都","city":"府中市","address":"東京都府中市朝日町3丁目7","lat":35.676126,"lon":139.522463},{"name":"多磨霊園","province":"東京都","city":"府中市","address":"東京都府中市多磨町4丁目","lat":35.67815,"lon":139.51413},{"name":"多磨霊園","province":"東京都","city":"府中市","address":"東京都府中市多磨町4丁目","lat":35.67865,"lon":139.512944},{"name":"浅間山公園","province":"東京都","city":"府中市","address":"東京都府中市若松町5丁目1","lat":35.678131,"lon":139.499835},{"name":"府中サービスステーション","province":"東京都","city":"府中市","address":"東京都府中市寿町3丁目4-6","lat":35.673647,"lon":139.47443},{"name":"府中消防署","province":"東京都","city":"府中市","address":"東京都府中市寿町1丁目5","lat":35.673786,"lon":139.478162},{"name":"府中消防署分梅出張所","province":"東京都","city":"府中市","address":"東京都府中市分梅町5丁目9-7","lat":35.662327,"lon":139.46242},{"name":"府中消防署朝日出張所","province":"東京都","city":"府中市","address":"東京都府中市朝日町3丁目13","lat":35.67188,"lon":139.522788},{"name":"中央図書館","province":"東京都","city":"府中市","address":"東京都府中市府中町2丁目24","lat":35.67603,"lon":139.483787},{"name":"府中駅北第２庁舎","province":"東京都","city":"府中市","address":"東京都府中市寿町1丁目5","lat":35.673654,"lon":139.47879},{"name":"府中市役所おもや","province":"東京都","city":"府中市","address":"東京都府中市宮西町2丁目20","lat":35.669513,"lon":139.477825},{"name":"府中市役所おもや","province":"東京都","city":"府中市","address":"東京都府中市宮西町2丁目22","lat":35.669487,"lon":139.477127},{"name":"府中市立中央文化センター","province":"東京都","city":"府中市","address":"東京都府中市府中町2丁目25","lat":35.675825,"lon":139.482156},{"name":"府中市立白糸台文化センター","province":"東京都","city":"府中市","address":"東京都府中市白糸台1丁目60-14","lat":35.66707,"lon":139.506072},{"name":"府中市立西府文化センター","province":"東京都","city":"府中市","address":"東京都府中市西府町1丁目60","lat":35.670824,"lon":139.456291},{"name":"府中市立武蔵台文化センター","province":"東京都","city":"府中市","address":"東京都府中市武蔵台2丁目2","lat":35.688696,"lon":139.461429},{"name":"府中市立新町文化センター","province":"東京都","city":"府中市","address":"東京都府中市新町1丁目66","lat":35.687211,"lon":139.489371},{"name":"府中市立住吉文化センター","province":"東京都","city":"府中市","address":"東京都府中市住吉町1丁目61","lat":35.660306,"lon":139.460279},{"name":"府中市立是政文化センター","province":"東京都","city":"府中市","address":"東京都府中市是政2丁目20","lat":35.660883,"lon":139.495325},{"name":"府中市立紅葉丘文化センター","province":"東京都","city":"府中市","address":"東京都府中市紅葉丘2丁目1","lat":35.676569,"lon":139.509277},{"name":"府中市立押立文化センター","province":"東京都","city":"府中市","address":"東京都府中市押立町5丁目4","lat":35.653644,"lon":139.517766},{"name":"府中市立四谷文化センター","province":"東京都","city":"府中市","address":"東京都府中市四谷2丁目75","lat":35.665274,"lon":139.445635},{"name":"府中市立片町文化センター","province":"東京都","city":"府中市","address":"東京都府中市片町2丁目17","lat":35.670229,"lon":139.469483},{"name":"府中市男女共同参画センター「フチュール」","province":"東京都","city":"府中市","address":"東京都府中市住吉町1丁目84-1","lat":35.660132,"lon":139.458437},{"name":"府中市市民活動センター「プラッツ」","province":"東京都","city":"府中市","address":"東京都府中市宮町1丁目100","lat":35.671651,"lon":139.479622},{"name":"府中市保健センター","province":"東京都","city":"府中市","address":"東京都府中市府中町2丁目25","lat":35.675994,"lon":139.483016},{"name":"中央図書館","province":"東京都","city":"府中市","address":"東京都府中市府中町2丁目24","lat":35.675879,"lon":139.483826},{"name":"府中市立教育センター","province":"東京都","city":"府中市","address":"東京都府中市府中町1丁目32","lat":35.676624,"lon":139.479504},{"name":"府中市郷土の森博物館","province":"東京都","city":"府中市","address":"東京都府中市南町6丁目32","lat":35.656675,"lon":139.473143},{"name":"郷土の森観光物産館","province":"東京都","city":"府中市","address":"東京都府中市是政6丁目32","lat":35.65601,"lon":139.473951},{"name":"府中市郷土の森博物館","province":"東京都","city":"府中市","address":"東京都府中市南町6丁目49","lat":35.65584,"lon":139.47196},{"name":"府中市郷土の森博物館","province":"東京都","city":"府中市","address":"東京都府中市是政6丁目27","lat":35.654396,"lon":139.47464},{"name":"府中市郷土の森博物館","province":"東京都","city":"府中市","address":"東京都府中市南町6丁目41","lat":35.655387,"lon":139.473126},{"name":"府中市郷土の森博物館","province":"東京都","city":"府中市","address":"東京都府中市南町6丁目55","lat":35.655522,"lon":139.470794},{"name":"府中市立ふるさと府中歴史館","province":"東京都","city":"府中市","address":"東京都府中市宮町3丁目1","lat":35.66877,"lon":139.478636},{"name":"国史跡武蔵府中熊野神社古墳展示館","province":"東京都","city":"府中市","address":"東京都府中市西府町2丁目9","lat":35.674575,"lon":139.456783},{"name":"府中市生涯学習センター","province":"東京都","city":"府中市","address":"東京都府中市浅間町1丁目7","lat":35.679331,"lon":139.496382},{"name":"府中市生涯学習センター","province":"東京都","city":"府中市","address":"東京都府中市浅間町1丁目7","lat":35.67912,"lon":139.496583},{"name":"府中市生涯学習センター","province":"東京都","city":"府中市","address":"東京都府中市浅間町1丁目7","lat":35.679239,"lon":139.496456},{"name":"府中市生涯学習センター","province":"東京都","city":"府中市","address":"東京都府中市浅間町1丁目7","lat":35.678841,"lon":139.496648},{"name":"府中市民球場","province":"東京都","city":"府中市","address":"東京都府中市寿町2丁目19","lat":35.676751,"lon":139.47491},{"name":"府中市民陸上競技場","province":"東京都","city":"府中市","address":"東京都府中市寿町2丁目19","lat":35.676932,"lon":139.475068},{"name":"府中朝日フットボールパーク","province":"東京都","city":"府中市","address":"東京都府中市朝日町3丁目7","lat":35.675088,"lon":139.522584},{"name":"市民プール","province":"東京都","city":"府中市","address":"東京都府中市寿町2丁目13","lat":35.675153,"lon":139.476662},{"name":"美好水遊び広場","province":"東京都","city":"府中市","address":"東京都府中市美好町1丁目27","lat":35.672028,"lon":139.467744},{"name":"西府プール","province":"東京都","city":"府中市","address":"東京都府中市西府町1丁目60-2","lat":35.670462,"lon":139.456613},{"name":"府中市立総合体育館","province":"東京都","city":"府中市","address":"東京都府中市矢崎町5丁目5","lat":35.655836,"lon":139.477717},{"name":"府中市立総合体育館","province":"東京都","city":"府中市","address":"東京都府中市矢崎町5丁目5","lat":35.655856,"lon":139.477706},{"name":"府中市立栄町体育館","province":"東京都","city":"府中市","address":"東京都府中市栄町1丁目1-1","lat":35.688427,"lon":139.480679},{"name":"府中市立四谷体育館","province":"東京都","city":"府中市","address":"東京都府中市四谷5丁目6","lat":35.664475,"lon":139.441657},{"name":"府中市立白糸台体育館","province":"東京都","city":"府中市","address":"東京都府中市白糸台1丁目50","lat":35.671114,"lon":139.509037},{"name":"府中市立押立体育館","province":"東京都","city":"府中市","address":"東京都府中市押立町1丁目37","lat":35.659736,"lon":139.511551},{"name":"府中市立本宿体育館","province":"東京都","city":"府中市","address":"東京都府中市本宿町4丁目23-12","lat":35.679842,"lon":139.459847},{"name":"東京競馬場日吉体育館","province":"東京都","city":"府中市","address":"東京都府中市八幡町3丁目8-6","lat":35.667425,"lon":139.492047},{"name":"観光情報センター","province":"東京都","city":"府中市","address":"東京都府中市宮町3丁目1","lat":35.669789,"lon":139.47954},{"name":"府中市美術館","province":"東京都","city":"府中市","address":"東京都府中市浅間町1丁目3","lat":35.678962,"lon":139.492032},{"name":"府中市美術館","province":"東京都","city":"府中市","address":"東京都府中市浅間町1丁目3","lat":35.678869,"lon":139.49215},{"name":"子ども家庭支援センター「たっち」","province":"東京都","city":"府中市","address":"東京都府中市宮町1丁目50","lat":35.671476,"lon":139.480953},{"name":"国司館と家康御殿史跡広場管理事務所","province":"東京都","city":"府中市","address":"東京都府中市本町1丁目14","lat":35.666801,"lon":139.477785},{"name":"旧府中グリーンプラザ分館","province":"東京都","city":"府中市","address":"東京都府中市寿町1丁目1-1","lat":35.672497,"lon":139.478541},{"name":"府中の森芸術劇場","province":"東京都","city":"府中市","address":"東京都府中市浅間町1丁目2","lat":35.673116,"lon":139.492487},{"name":"府中の森芸術劇場","province":"東京都","city":"府中市","address":"東京都府中市浅間町1丁目2","lat":35.673344,"lon":139.492197},{"name":"府中の森芸術劇場","province":"東京都","city":"府中市","address":"東京都府中市浅間町1丁目2","lat":35.672804,"lon":139.492541},{"name":"府中の森芸術劇場","province":"東京都","city":"府中市","address":"東京都府中市浅間町1丁目2","lat":35.673159,"lon":139.492766},{"name":"府中の森芸術劇場","province":"東京都","city":"府中市","address":"東京都府中市浅間町1丁目2","lat":35.673191,"lon":139.49293},{"name":"府中の森芸術劇場","province":"東京都","city":"府中市","address":"東京都府中市浅間町1丁目2","lat":35.673138,"lon":139.492458},{"name":"府中市立府中の森芸術劇場分館","province":"東京都","city":"府中市","address":"東京都府中市宮町1丁目100","lat":35.67206,"lon":139.479529},{"name":"府中市市民会館","province":"東京都","city":"府中市","address":"東京都府中市府中町2丁目24","lat":35.675715,"lon":139.484011},{"name":"府中市市民会館","province":"東京都","city":"府中市","address":"東京都府中市府中町2丁目24","lat":35.676256,"lon":139.484117},{"name":"府中市市民会館","province":"東京都","city":"府中市","address":"東京都府中市府中町2丁目24","lat":35.676007,"lon":139.483805},{"name":"府中市市民会館","province":"東京都","city":"府中市","address":"東京都府中市府中町2丁目24","lat":35.675714,"lon":139.484049},{"name":"学園通り新宿山谷公園","province":"東京都","city":"府中市","address":"東京都府中市天神町3丁目12","lat":35.684523,"lon":139.489106},{"name":"金塚桜広場","province":"東京都","city":"府中市","address":"東京都府中市是政6丁目30","lat":35.65534,"lon":139.479556},{"name":"郷土の森公園","province":"東京都","city":"府中市","address":"東京都府中市是政6丁目31","lat":35.655434,"lon":139.476121},{"name":"清水ヶ丘東公園","province":"東京都","city":"府中市","address":"東京都府中市清水が丘3丁目25","lat":35.66602,"lon":139.503823},{"name":"下河原緑道","province":"東京都","city":"府中市","address":"東京都府中市矢崎町3丁目11","lat":35.660309,"lon":139.473268},{"name":"多摩川南町公園","province":"東京都","city":"府中市","address":"東京都府中市南町4丁目40","lat":35.654893,"lon":139.464083},{"name":"御嶽塚公園","province":"東京都","city":"府中市","address":"東京都府中市西府町1丁目60","lat":35.671307,"lon":139.456457},{"name":"新田公園","province":"東京都","city":"府中市","address":"東京都府中市日新町4丁目58","lat":35.671804,"lon":139.44437},{"name":"西原町４丁目公園","province":"東京都","city":"府中市","address":"東京都府中市西原町4丁目22","lat":35.684519,"lon":139.454461},{"name":"押立公園","province":"東京都","city":"府中市","address":"東京都府中市押立町1丁目18","lat":35.660484,"lon":139.510726},{"name":"四谷さくら公園","province":"東京都","city":"府中市","address":"東京都府中市四谷5丁目41","lat":35.663771,"lon":139.439916},{"name":"小柳公園","province":"東京都","city":"府中市","address":"東京都府中市小柳町6丁目24","lat":35.65414,"lon":139.505696},{"name":"府中公園","province":"東京都","city":"府中市","address":"東京都府中市府中町2丁目26","lat":35.676589,"lon":139.483302},{"name":"矢崎町防災公園","province":"東京都","city":"府中市","address":"東京都府中市矢崎町1丁目16","lat":35.663795,"lon":139.477331},{"name":"府中公園","province":"東京都","city":"府中市","address":"東京都府中市府中町2丁目26","lat":35.676594,"lon":139.483307},{"name":"北府中公園","province":"東京都","city":"府中市","address":"東京都府中市晴見町2丁目9","lat":35.680769,"lon":139.472299},{"name":"三本木公園","province":"東京都","city":"府中市","address":"東京都府中市緑町2丁目23","lat":35.674293,"lon":139.489358},{"name":"西府駅北公衆トイレ","province":"東京都","city":"府中市","address":"東京都府中市本宿町1丁目50","lat":35.67083,"lon":139.457353},{"name":"府中駅西公衆トイレ","province":"東京都","city":"府中市","address":"東京都府中市宮町1丁目1-10","lat":35.672254,"lon":139.479375},{"name":"府中市リサイクルプラザ","province":"東京都","city":"府中市","address":"東京都府中市四谷6丁目58","lat":35.671635,"lon":139.431152},{"name":"府中駅南口市営駐車場","province":"東京都","city":"府中市","address":"東京都府中市宮町1丁目41-2","lat":35.67082,"lon":139.48018},{"name":"府中市立ふれあい会館","province":"東京都","city":"府中市","address":"東京都府中市府中町1丁目30","lat":35.675911,"lon":139.479955},{"name":"府中市立心身障害者福祉センター","province":"東京都","city":"府中市","address":"東京都府中市南町5丁目38","lat":35.65617,"lon":139.466818},{"name":"府中市立心身障害者福祉センター","province":"東京都","city":"府中市","address":"東京都府中市南町5丁目38","lat":35.656144,"lon":139.466893},{"name":"府中市立心身障害者福祉センター","province":"東京都","city":"府中市","address":"東京都府中市南町5丁目38","lat":35.656235,"lon":139.466984},{"name":"府中市立心身障害者福祉センター","province":"東京都","city":"府中市","address":"東京都府中市南町5丁目38","lat":35.656263,"lon":139.466912},{"name":"府中市立心身障害者福祉センター","province":"東京都","city":"府中市","address":"東京都府中市南町5丁目38","lat":35.656123,"lon":139.466738},{"name":"府中市立心身障害者福祉センター","province":"東京都","city":"府中市","address":"東京都府中市南町5丁目38","lat":35.656133,"lon":139.466663},{"name":"府中市立心身障害者福祉センター","province":"東京都","city":"府中市","address":"東京都府中市南町5丁目38","lat":35.656309,"lon":139.466856},{"name":"府中市立心身障害者福祉センター","province":"東京都","city":"府中市","address":"東京都府中市南町5丁目38","lat":35.656297,"lon":139.466888},{"name":"府中市立心身障害者福祉センター","province":"東京都","city":"府中市","address":"東京都府中市南町5丁目38","lat":35.656211,"lon":139.467039},{"name":"地域生活支援センターあけぼの","province":"東京都","city":"府中市","address":"東京都府中市寿町3丁目9-11","lat":35.676352,"lon":139.473825},{"name":"府中市立介護予防推進センター","province":"東京都","city":"府中市","address":"東京都府中市分梅町1丁目31","lat":35.666815,"lon":139.467073},{"name":"府中市立介護予防推進センター","province":"東京都","city":"府中市","address":"東京都府中市分梅町1丁目31","lat":35.666802,"lon":139.467006},{"name":"府中市立介護予防推進センター","province":"東京都","city":"府中市","address":"東京都府中市分梅町1丁目31","lat":35.666768,"lon":139.467092},{"name":"子育て世代包括支援センター「みらい」","province":"東京都","city":"府中市","address":"東京都府中市宮町1丁目41-2","lat":35.670981,"lon":139.479639},{"name":"府中の森市民聖苑","province":"東京都","city":"府中市","address":"東京都府中市浅間町1丁目3","lat":35.67616,"lon":139.493256},{"name":"府中の森市民聖苑","province":"東京都","city":"府中市","address":"東京都府中市浅間町1丁目3","lat":35.676102,"lon":139.493006},{"name":"府中の森市民聖苑","province":"東京都","city":"府中市","address":"東京都府中市浅間町1丁目3","lat":35.67558,"lon":139.492806},{"name":"あおばこどもの居場所","province":"東京都","city":"府中市","address":"東京都府中市紅葉丘1丁目35","lat":35.67608155,"lon":139.51360755},{"name":"グレイスキッチン","province":"東京都","city":"府中市","address":"東京都府中市白糸台4丁目2-8","lat":35.66549933,"lon":139.50903882},{"name":"子ども食堂・なな","province":"東京都","city":"府中市","address":"東京都府中市武蔵台2丁目2","lat":35.68866772,"lon":139.46109766},{"name":"こどもの居場所作り＠府中","province":"東京都","city":"府中市","address":"東京都府中市片町2丁目2","lat":35.66908969,"lon":139.47353896},{"name":"新町こどもカレー食堂","province":"東京都","city":"府中市","address":"東京都府中市新町3丁目1","lat":35.69080143,"lon":139.48736756},{"name":"とうきょうどけん子ども食堂","province":"東京都","city":"府中市","address":"東京都府中市晴見町2丁目15-5","lat":35.68168825,"lon":139.4727608},{"name":"にっころ食堂","province":"東京都","city":"府中市","address":"東京都府中市日新町4丁目46-7","lat":35.67052203,"lon":139.4417361},{"name":"ひがしふちゅう駅前こども食堂","province":"東京都","city":"府中市","address":"東京都府中市清水が丘1丁目2","lat":35.66909296,"lon":139.49406224},{"name":"みんなの食堂","province":"東京都","city":"府中市","address":"東京都府中市宮町1丁目100","lat":35.67197841,"lon":139.47949673},{"name":"ラ・メンサ・デリ・アンジェリ 天使の食卓","province":"東京都","city":"府中市","address":"東京都府中市府中町1丁目40-11","lat":35.67745835,"lon":139.47977983},{"name":"地方独立行政法人東京都立病院機構　東京都立多摩小児総合医療センター","province":"東京都","city":"府中市","address":"東京都府中市武蔵台2丁目8-29","lat":35.692133,"lon":139.461337},{"name":"地方独立行政法人東京都立病院機構　東京都立神経病院","province":"東京都","city":"府中市","address":"東京都府中市武蔵台2丁目6-1","lat":35.690546,"lon":139.461279},{"name":"東京都立がん検診センター","province":"東京都","city":"府中市","address":"東京都府中市武蔵台2丁目9-2","lat":35.692038,"lon":139.464221},{"name":"武蔵野公園","province":"東京都","city":"府中市","address":"東京都府中市多磨町3丁目3","lat":35.690283,"lon":139.518198},{"name":"武蔵野公園","province":"東京都","city":"府中市","address":"東京都府中市多磨町3丁目2","lat":35.688407,"lon":139.517854},{"name":"武蔵野公園","province":"東京都","city":"府中市","address":"東京都府中市多磨町2丁目24","lat":35.687734,"lon":139.520365},{"name":"府中の森公園","province":"東京都","city":"府中市","address":"東京都府中市浅間町1丁目3","lat":35.677984,"lon":139.493109},{"name":"府中の森公園","province":"東京都","city":"府中市","address":"東京都府中市浅間町1丁目3","lat":35.675849,"lon":139.491671},{"name":"府中の森公園","province":"東京都","city":"府中市","address":"東京都府中市浅間町1丁目3-1","lat":35.677034,"lon":139.492435},{"name":"府中の森公園","province":"東京都","city":"府中市","address":"東京都府中市浅間町1丁目3","lat":35.678036,"lon":139.491194},{"name":"武蔵野の森公園","province":"東京都","city":"府中市","address":"東京都府中市朝日町3丁目7","lat":35.67604,"lon":139.52185},{"name":"武蔵野の森公園","province":"東京都","city":"府中市","address":"東京都府中市朝日町3丁目6","lat":35.677657,"lon":139.524465},{"name":"武蔵野の森公園","province":"東京都","city":"府中市","address":"東京都府中市朝日町3丁目7","lat":35.676126,"lon":139.522463},{"name":"多磨霊園","province":"東京都","city":"府中市","address":"東京都府中市多磨町4丁目","lat":35.67815,"lon":139.51413},{"name":"多磨霊園","province":"東京都","city":"府中市","address":"東京都府中市多磨町4丁目","lat":35.67865,"lon":139.512944},{"name":"浅間山公園","province":"東京都","city":"府中市","address":"東京都府中市若松町5丁目1","lat":35.678131,"lon":139.499835},{"name":"府中サービスステーション","province":"東京都","city":"府中市","address":"東京都府中市寿町3丁目4-6","lat":35.673647,"lon":139.47443},{"name":"府中消防署","province":"東京都","city":"府中市","address":"東京都府中市寿町1丁目5","lat":35.673786,"lon":139.478162},{"name":"府中消防署分梅出張所","province":"東京都","city":"府中市","address":"東京都府中市分梅町5丁目9-7","lat":35.662327,"lon":139.46242},{"name":"府中消防署朝日出張所","province":"東京都","city":"府中市","address":"東京都府中市朝日町3丁目13","lat":35.67188,"lon":139.522788},{"name":"中央図書館","province":"東京都","city":"府中市","address":"東京都府中市府中町2丁目24","lat":35.67603,"lon":139.483787},{"name":"府中駅北第２庁舎","province":"東京都","city":"府中市","address":"東京都府中市寿町1丁目5","lat":35.673654,"lon":139.47879},{"name":"府中市役所おもや","province":"東京都","city":"府中市","address":"東京都府中市宮西町2丁目20","lat":35.669513,"lon":139.477825},{"name":"府中市役所おもや","province":"東京都","city":"府中市","address":"東京都府中市宮西町2丁目22","lat":35.669487,"lon":139.477127},{"name":"府中市立中央文化センター","province":"東京都","city":"府中市","address":"東京都府中市府中町2丁目25","lat":35.675825,"lon":139.482156},{"name":"府中市立白糸台文化センター","province":"東京都","city":"府中市","address":"東京都府中市白糸台1丁目60-14","lat":35.66707,"lon":139.506072},{"name":"府中市立西府文化センター","province":"東京都","city":"府中市","address":"東京都府中市西府町1丁目60","lat":35.670824,"lon":139.456291},{"name":"府中市立武蔵台文化センター","province":"東京都","city":"府中市","address":"東京都府中市武蔵台2丁目2","lat":35.688696,"lon":139.461429},{"name":"府中市立新町文化センター","province":"東京都","city":"府中市","address":"東京都府中市新町1丁目66","lat":35.687211,"lon":139.489371},{"name":"府中市立住吉文化センター","province":"東京都","city":"府中市","address":"東京都府中市住吉町1丁目61","lat":35.660306,"lon":139.460279},{"name":"府中市立是政文化センター","province":"東京都","city":"府中市","address":"東京都府中市是政2丁目20","lat":35.660883,"lon":139.495325},{"name":"府中市立紅葉丘文化センター","province":"東京都","city":"府中市","address":"東京都府中市紅葉丘2丁目1","lat":35.676569,"lon":139.509277},{"name":"府中市立押立文化センター","province":"東京都","city":"府中市","address":"東京都府中市押立町5丁目4","lat":35.653644,"lon":139.517766},{"name":"府中市立四谷文化センター","province":"東京都","city":"府中市","address":"東京都府中市四谷2丁目75","lat":35.665274,"lon":139.445635},{"name":"府中市立片町文化センター","province":"東京都","city":"府中市","address":"東京都府中市片町2丁目17","lat":35.670229,"lon":139.469483},{"name":"府中市男女共同参画センター「フチュール」","province":"東京都","city":"府中市","address":"東京都府中市住吉町1丁目84-1","lat":35.660132,"lon":139.458437},{"name":"府中市市民活動センター「プラッツ」","province":"東京都","city":"府中市","address":"東京都府中市宮町1丁目100","lat":35.671651,"lon":139.479622},{"name":"府中市保健センター","province":"東京都","city":"府中市","address":"東京都府中市府中町2丁目25","lat":35.675994,"lon":139.483016},{"name":"中央図書館","province":"東京都","city":"府中市","address":"東京都府中市府中町2丁目24","lat":35.675879,"lon":139.483826},{"name":"府中市立教育センター","province":"東京都","city":"府中市","address":"東京都府中市府中町1丁目32","lat":35.676624,"lon":139.479504},{"name":"府中市郷土の森博物館","province":"東京都","city":"府中市","address":"東京都府中市南町6丁目32","lat":35.656675,"lon":139.473143},{"name":"郷土の森観光物産館","province":"東京都","city":"府中市","address":"東京都府中市是政6丁目32","lat":35.65601,"lon":139.473951},{"name":"府中市郷土の森博物館","province":"東京都","city":"府中市","address":"東京都府中市南町6丁目49","lat":35.65584,"lon":139.47196},{"name":"府中市郷土の森博物館","province":"東京都","city":"府中市","address":"東京都府中市是政6丁目27","lat":35.654396,"lon":139.47464},{"name":"府中市郷土の森博物館","province":"東京都","city":"府中市","address":"東京都府中市南町6丁目41","lat":35.655387,"lon":139.473126},{"name":"府中市郷土の森博物館","province":"東京都","city":"府中市","address":"東京都府中市南町6丁目55","lat":35.655522,"lon":139.470794},{"name":"府中市立ふるさと府中歴史館","province":"東京都","city":"府中市","address":"東京都府中市宮町3丁目1","lat":35.66877,"lon":139.478636},{"name":"国史跡武蔵府中熊野神社古墳展示館","province":"東京都","city":"府中市","address":"東京都府中市西府町2丁目9","lat":35.674575,"lon":139.456783},{"name":"府中市生涯学習センター","province":"東京都","city":"府中市","address":"東京都府中市浅間町1丁目7","lat":35.679331,"lon":139.496382},{"name":"府中市生涯学習センター","province":"東京都","city":"府中市","address":"東京都府中市浅間町1丁目7","lat":35.67912,"lon":139.496583},{"name":"府中市生涯学習センター","province":"東京都","city":"府中市","address":"東京都府中市浅間町1丁目7","lat":35.679239,"lon":139.496456},{"name":"府中市生涯学習センター","province":"東京都","city":"府中市","address":"東京都府中市浅間町1丁目7","lat":35.678841,"lon":139.496648},{"name":"府中市民球場","province":"東京都","city":"府中市","address":"東京都府中市寿町2丁目19","lat":35.676751,"lon":139.47491},{"name":"府中市民陸上競技場","province":"東京都","city":"府中市","address":"東京都府中市寿町2丁目19","lat":35.676932,"lon":139.475068},{"name":"府中朝日フットボールパーク","province":"東京都","city":"府中市","address":"東京都府中市朝日町3丁目7","lat":35.675088,"lon":139.522584},{"name":"市民プール","province":"東京都","city":"府中市","address":"東京都府中市寿町2丁目13","lat":35.675153,"lon":139.476662},{"name":"美好水遊び広場","province":"東京都","city":"府中市","address":"東京都府中市美好町1丁目27","lat":35.672028,"lon":139.467744},{"name":"西府プール","province":"東京都","city":"府中市","address":"東京都府中市西府町1丁目60-2","lat":35.670462,"lon":139.456613},{"name":"府中市立総合体育館","province":"東京都","city":"府中市","address":"東京都府中市矢崎町5丁目5","lat":35.655836,"lon":139.477717},{"name":"府中市立総合体育館","province":"東京都","city":"府中市","address":"東京都府中市矢崎町5丁目5","lat":35.655856,"lon":139.477706},{"name":"府中市立栄町体育館","province":"東京都","city":"府中市","address":"東京都府中市栄町1丁目1-1","lat":35.688427,"lon":139.480679},{"name":"府中市立四谷体育館","province":"東京都","city":"府中市","address":"東京都府中市四谷5丁目6","lat":35.664475,"lon":139.441657},{"name":"府中市立白糸台体育館","province":"東京都","city":"府中市","address":"東京都府中市白糸台1丁目50","lat":35.671114,"lon":139.509037},{"name":"府中市立押立体育館","province":"東京都","city":"府中市","address":"東京都府中市押立町1丁目37","lat":35.659736,"lon":139.511551},{"name":"府中市立本宿体育館","province":"東京都","city":"府中市","address":"東京都府中市本宿町4丁目23-12","lat":35.679842,"lon":139.459847},{"name":"東京競馬場日吉体育館","province":"東京都","city":"府中市","address":"東京都府中市八幡町3丁目8-6","lat":35.667425,"lon":139.492047},{"name":"観光情報センター","province":"東京都","city":"府中市","address":"東京都府中市宮町3丁目1","lat":35.669789,"lon":139.47954},{"name":"府中市美術館","province":"東京都","city":"府中市","address":"東京都府中市浅間町1丁目3","lat":35.678962,"lon":139.492032},{"name":"府中市美術館","province":"東京都","city":"府中市","address":"東京都府中市浅間町1丁目3","lat":35.678869,"lon":139.49215},{"name":"子ども家庭支援センター「たっち」","province":"東京都","city":"府中市","address":"東京都府中市宮町1丁目50","lat":35.671476,"lon":139.480953},{"name":"国司館と家康御殿史跡広場管理事務所","province":"東京都","city":"府中市","address":"東京都府中市本町1丁目14","lat":35.666801,"lon":139.477785},{"name":"旧府中グリーンプラザ分館","province":"東京都","city":"府中市","address":"東京都府中市寿町1丁目1-1","lat":35.672497,"lon":139.478541},{"name":"府中の森芸術劇場","province":"東京都","city":"府中市","address":"東京都府中市浅間町1丁目2","lat":35.673116,"lon":139.492487},{"name":"府中の森芸術劇場","province":"東京都","city":"府中市","address":"東京都府中市浅間町1丁目2","lat":35.673344,"lon":139.492197},{"name":"府中の森芸術劇場","province":"東京都","city":"府中市","address":"東京都府中市浅間町1丁目2","lat":35.672804,"lon":139.492541},{"name":"府中の森芸術劇場","province":"東京都","city":"府中市","address":"東京都府中市浅間町1丁目2","lat":35.673159,"lon":139.492766},{"name":"府中の森芸術劇場","province":"東京都","city":"府中市","address":"東京都府中市浅間町1丁目2","lat":35.673191,"lon":139.49293},{"name":"府中の森芸術劇場","province":"東京都","city":"府中市","address":"東京都府中市浅間町1丁目2","lat":35.673138,"lon":139.492458},{"name":"府中市立府中の森芸術劇場分館","province":"東京都","city":"府中市","address":"東京都府中市宮町1丁目100","lat":35.67206,"lon":139.479529},{"name":"府中市市民会館","province":"東京都","city":"府中市","address":"東京都府中市府中町2丁目24","lat":35.675715,"lon":139.484011},{"name":"府中市市民会館","province":"東京都","city":"府中市","address":"東京都府中市府中町2丁目24","lat":35.676256,"lon":139.484117},{"name":"府中市市民会館","province":"東京都","city":"府中市","address":"東京都府中市府中町2丁目24","lat":35.676007,"lon":139.483805},{"name":"府中市市民会館","province":"東京都","city":"府中市","address":"東京都府中市府中町2丁目24","lat":35.675714,"lon":139.484049},{"name":"学園通り新宿山谷公園","province":"東京都","city":"府中市","address":"東京都府中市天神町3丁目12","lat":35.684523,"lon":139.489106},{"name":"金塚桜広場","province":"東京都","city":"府中市","address":"東京都府中市是政6丁目30","lat":35.65534,"lon":139.479556},{"name":"郷土の森公園","province":"東京都","city":"府中市","address":"東京都府中市是政6丁目31","lat":35.655434,"lon":139.476121},{"name":"清水ヶ丘東公園","province":"東京都","city":"府中市","address":"東京都府中市清水が丘3丁目25","lat":35.66602,"lon":139.503823},{"name":"下河原緑道","province":"東京都","city":"府中市","address":"東京都府中市矢崎町3丁目11","lat":35.660309,"lon":139.473268},{"name":"多摩川南町公園","province":"東京都","city":"府中市","address":"東京都府中市南町4丁目40","lat":35.654893,"lon":139.464083},{"name":"御嶽塚公園","province":"東京都","city":"府中市","address":"東京都府中市西府町1丁目60","lat":35.671307,"lon":139.456457},{"name":"新田公園","province":"東京都","city":"府中市","address":"東京都府中市日新町4丁目58","lat":35.671804,"lon":139.44437},{"name":"西原町４丁目公園","province":"東京都","city":"府中市","address":"東京都府中市西原町4丁目22","lat":35.684519,"lon":139.454461},{"name":"押立公園","province":"東京都","city":"府中市","address":"東京都府中市押立町1丁目18","lat":35.660484,"lon":139.510726},{"name":"四谷さくら公園","province":"東京都","city":"府中市","address":"東京都府中市四谷5丁目41","lat":35.663771,"lon":139.439916},{"name":"小柳公園","province":"東京都","city":"府中市","address":"東京都府中市小柳町6丁目24","lat":35.65414,"lon":139.505696},{"name":"府中公園","province":"東京都","city":"府中市","address":"東京都府中市府中町2丁目26","lat":35.676589,"lon":139.483302},{"name":"矢崎町防災公園","province":"東京都","city":"府中市","address":"東京都府中市矢崎町1丁目16","lat":35.663795,"lon":139.477331},{"name":"府中公園","province":"東京都","city":"府中市","address":"東京都府中市府中町2丁目26","lat":35.676594,"lon":139.483307},{"name":"北府中公園","province":"東京都","city":"府中市","address":"東京都府中市晴見町2丁目9","lat":35.680769,"lon":139.472299},{"name":"三本木公園","province":"東京都","city":"府中市","address":"東京都府中市緑町2丁目23","lat":35.674293,"lon":139.489358},{"name":"西府駅北公衆トイレ","province":"東京都","city":"府中市","address":"東京都府中市本宿町1丁目50","lat":35.67083,"lon":139.457353},{"name":"府中駅西公衆トイレ","province":"東京都","city":"府中市","address":"東京都府中市宮町1丁目1-10","lat":35.672254,"lon":139.479375},{"name":"府中市リサイクルプラザ","province":"東京都","city":"府中市","address":"東京都府中市四谷6丁目58","lat":35.671635,"lon":139.431152},{"name":"府中駅南口市営駐車場","province":"東京都","city":"府中市","address":"東京都府中市宮町1丁目41-2","lat":35.67082,"lon":139.48018},{"name":"府中市立ふれあい会館","province":"東京都","city":"府中市","address":"東京都府中市府中町1丁目30","lat":35.675911,"lon":139.479955},{"name":"府中市立心身障害者福祉センター","province":"東京都","city":"府中市","address":"東京都府中市南町5丁目38","lat":35.65617,"lon":139.466818},{"name":"府中市立心身障害者福祉センター","province":"東京都","city":"府中市","address":"東京都府中市南町5丁目38","lat":35.656144,"lon":139.466893},{"name":"府中市立心身障害者福祉センター","province":"東京都","city":"府中市","address":"東京都府中市南町5丁目38","lat":35.656235,"lon":139.466984},{"name":"府中市立心身障害者福祉センター","province":"東京都","city":"府中市","address":"東京都府中市南町5丁目38","lat":35.656263,"lon":139.466912},{"name":"府中市立心身障害者福祉センター","province":"東京都","city":"府中市","address":"東京都府中市南町5丁目38","lat":35.656123,"lon":139.466738},{"name":"府中市立心身障害者福祉センター","province":"東京都","city":"府中市","address":"東京都府中市南町5丁目38","lat":35.656133,"lon":139.466663},{"name":"府中市立心身障害者福祉センター","province":"東京都","city":"府中市","address":"東京都府中市南町5丁目38","lat":35.656309,"lon":139.466856},{"name":"府中市立心身障害者福祉センター","province":"東京都","city":"府中市","address":"東京都府中市南町5丁目38","lat":35.656297,"lon":139.466888},{"name":"府中市立心身障害者福祉センター","province":"東京都","city":"府中市","address":"東京都府中市南町5丁目38","lat":35.656211,"lon":139.467039},{"name":"地域生活支援センターあけぼの","province":"東京都","city":"府中市","address":"東京都府中市寿町3丁目9-11","lat":35.676352,"lon":139.473825},{"name":"府中市立介護予防推進センター","province":"東京都","city":"府中市","address":"東京都府中市分梅町1丁目31","lat":35.666815,"lon":139.467073},{"name":"府中市立介護予防推進センター","province":"東京都","city":"府中市","address":"東京都府中市分梅町1丁目31","lat":35.666802,"lon":139.467006},{"name":"府中市立介護予防推進センター","province":"東京都","city":"府中市","address":"東京都府中市分梅町1丁目31","lat":35.666768,"lon":139.467092},{"name":"子育て世代包括支援センター「みらい」","province":"東京都","city":"府中市","address":"東京都府中市宮町1丁目41-2","lat":35.670981,"lon":139.479639},{"name":"府中の森市民聖苑","province":"東京都","city":"府中市","address":"東京都府中市浅間町1丁目3","lat":35.67616,"lon":139.493256},{"name":"府中の森市民聖苑","province":"東京都","city":"府中市","address":"東京都府中市浅間町1丁目3","lat":35.676102,"lon":139.493006},{"name":"府中の森市民聖苑","province":"東京都","city":"府中市","address":"東京都府中市浅間町1丁目3","lat":35.67558,"lon":139.492806},{"name":"あおばこどもの居場所","province":"東京都","city":"府中市","address":"東京都府中市紅葉丘1丁目35","lat":35.67608155,"lon":139.51360755},{"name":"グレイスキッチン","province":"東京都","city":"府中市","address":"東京都府中市白糸台4丁目2-8","lat":35.66549933,"lon":139.50903882},{"name":"子ども食堂・なな","province":"東京都","city":"府中市","address":"東京都府中市武蔵台2丁目2","lat":35.68866772,"lon":139.46109766},{"name":"こどもの居場所作り＠府中","province":"東京都","city":"府中市","address":"東京都府中市片町2丁目2","lat":35.66908969,"lon":139.47353896},{"name":"新町こどもカレー食堂","province":"東京都","city":"府中市","address":"東京都府中市新町3丁目1","lat":35.69080143,"lon":139.48736756},{"name":"とうきょうどけん子ども食堂","province":"東京都","city":"府中市","address":"東京都府中市晴見町2丁目15-5","lat":35.68168825,"lon":139.4727608},{"name":"にっころ食堂","province":"東京都","city":"府中市","address":"東京都府中市日新町4丁目46-7","lat":35.67052203,"lon":139.4417361},{"name":"ひがしふちゅう駅前こども食堂","province":"東京都","city":"府中市","address":"東京都府中市清水が丘1丁目2","lat":35.66909296,"lon":139.49406224},{"name":"みんなの食堂","province":"東京都","city":"府中市","address":"東京都府中市宮町1丁目100","lat":35.67197841,"lon":139.47949673},{"name":"ラ・メンサ・デリ・アンジェリ 天使の食卓","province":"東京都","city":"府中市","address":"東京都府中市府中町1丁目40-11","lat":35.67745835,"lon":139.47977983},{"name":"あおばこどもの居場所","province":"東京都","city":"府中市","address":"東京都府中市紅葉丘1丁目35","lat":35.67608155,"lon":139.51360755},{"name":"グレイスキッチン","province":"東京都","city":"府中市","address":"東京都府中市白糸台4丁目2-8","lat":35.66549933,"lon":139.50903882},{"name":"子ども食堂・なな","province":"東京都","city":"府中市","address":"東京都府中市武蔵台2丁目2","lat":35.68866772,"lon":139.46109766},{"name":"こどもの居場所作り＠府中","province":"東京都","city":"府中市","address":"東京都府中市片町2丁目2","lat":35.66908969,"lon":139.47353896},{"name":"新町こどもカレー食堂","province":"東京都","city":"府中市","address":"東京都府中市新町3丁目1","lat":35.69080143,"lon":139.48736756},{"name":"とうきょうどけん子ども食堂","province":"東京都","city":"府中市","address":"東京都府中市晴見町2丁目15-5","lat":35.68168825,"lon":139.4727608},{"name":"にっころ食堂","province":"東京都","city":"府中市","address":"東京都府中市日新町4丁目46-7","lat":35.67052203,"lon":139.4417361},{"name":"ひがしふちゅう駅前こども食堂","province":"東京都","city":"府中市","address":"東京都府中市清水が丘1丁目2","lat":35.66909296,"lon":139.49406224},{"name":"みんなの食堂","province":"東京都","city":"府中市","address":"東京都府中市宮町1丁目100","lat":35.67197841,"lon":139.47949673},{"name":"ラ・メンサ・デリ・アンジェリ 天使の食卓","province":"東京都","city":"府中市","address":"東京都府中市府中町1丁目40-11","lat":35.67745835,"lon":139.47977983},{"name":"あおばこどもの居場所","province":"東京都","city":"府中市","address":"東京都府中市紅葉丘1丁目35","lat":35.67608155,"lon":139.51360755},{"name":"グレイスキッチン","province":"東京都","city":"府中市","address":"東京都府中市白糸台4丁目2-8","lat":35.66549933,"lon":139.50903882},{"name":"子ども食堂・なな","province":"東京都","city":"府中市","address":"東京都府中市武蔵台2丁目2","lat":35.68866772,"lon":139.46109766},{"name":"こどもの居場所作り＠府中","province":"東京都","city":"府中市","address":"東京都府中市片町2丁目2","lat":35.66908969,"lon":139.47353896},{"name":"新町こどもカレー食堂","province":"東京都","city":"府中市","address":"東京都府中市新町3丁目1","lat":35.69080143,"lon":139.48736756},{"name":"とうきょうどけん子ども食堂","province":"東京都","city":"府中市","address":"東京都府中市晴見町2丁目15-5","lat":35.68168825,"lon":139.4727608},{"name":"にっころ食堂","province":"東京都","city":"府中市","address":"東京都府中市日新町4丁目46-7","lat":35.67052203,"lon":139.4417361},{"name":"ひがしふちゅう駅前こども食堂","province":"東京都","city":"府中市","address":"東京都府中市清水が丘1丁目2","lat":35.66909296,"lon":139.49406224},{"name":"みんなの食堂","province":"東京都","city":"府中市","address":"東京都府中市宮町1丁目100","lat":35.67197841,"lon":139.47949673},{"name":"ラ・メンサ・デリ・アンジェリ 天使の食卓","province":"東京都","city":"府中市","address":"東京都府中市府中町1丁目40-11","lat":35.67745835,"lon":139.47977983},{"name":"あおばこどもの居場所","province":"東京都","city":"府中市","address":"東京都府中市紅葉丘1丁目35","lat":35.67608155,"lon":139.51360755},{"name":"グレイスキッチン","province":"東京都","city":"府中市","address":"東京都府中市白糸台4丁目2-8","lat":35.66549933,"lon":139.50903882},{"name":"子ども食堂・なな","province":"東京都","city":"府中市","address":"東京都府中市武蔵台2丁目2","lat":35.68866772,"lon":139.46109766},{"name":"こどもの居場所作り＠府中","province":"東京都","city":"府中市","address":"東京都府中市片町2丁目2","lat":35.66908969,"lon":139.47353896},{"name":"新町こどもカレー食堂","province":"東京都","city":"府中市","address":"東京都府中市新町3丁目1","lat":35.69080143,"lon":139.48736756},{"name":"とうきょうどけん子ども食堂","province":"東京都","city":"府中市","address":"東京都府中市晴見町2丁目15-5","lat":35.68168825,"lon":139.4727608},{"name":"にっころ食堂","province":"東京都","city":"府中市","address":"東京都府中市日新町4丁目46-7","lat":35.67052203,"lon":139.4417361},{"name":"ひがしふちゅう駅前こども食堂","province":"東京都","city":"府中市","address":"東京都府中市清水が丘1丁目2","lat":35.66909296,"lon":139.49406224},{"name":"みんなの食堂","province":"東京都","city":"府中市","address":"東京都府中市宮町1丁目100","lat":35.67197841,"lon":139.47949673},{"name":"ラ・メンサ・デリ・アンジェリ 天使の食卓","province":"東京都","city":"府中市","address":"東京都府中市府中町1丁目40-11","lat":35.67745835,"lon":139.47977983},{"name":"あおばこどもの居場所","province":"東京都","city":"府中市","address":"東京都府中市紅葉丘1丁目35","lat":35.67608155,"lon":139.51360755},{"name":"グレイスキッチン","province":"東京都","city":"府中市","address":"東京都府中市白糸台4丁目2-8","lat":35.66549933,"lon":139.50903882},{"name":"子ども食堂・なな","province":"東京都","city":"府中市","address":"東京都府中市武蔵台2丁目2","lat":35.68866772,"lon":139.46109766},{"name":"こどもの居場所作り＠府中","province":"東京都","city":"府中市","address":"東京都府中市片町2丁目2","lat":35.66908969,"lon":139.47353896},{"name":"新町こどもカレー食堂","province":"東京都","city":"府中市","address":"東京都府中市新町3丁目1","lat":35.69080143,"lon":139.48736756},{"name":"とうきょうどけん子ども食堂","province":"東京都","city":"府中市","address":"東京都府中市晴見町2丁目15-5","lat":35.68168825,"lon":139.4727608},{"name":"にっころ食堂","province":"東京都","city":"府中市","address":"東京都府中市日新町4丁目46-7","lat":35.67052203,"lon":139.4417361},{"name":"ひがしふちゅう駅前こども食堂","province":"東京都","city":"府中市","address":"東京都府中市清水が丘1丁目2","lat":35.66909296,"lon":139.49406224},{"name":"みんなの食堂","province":"東京都","city":"府中市","address":"東京都府中市宮町1丁目100","lat":35.67197841,"lon":139.47949673},{"name":"ラ・メンサ・デリ・アンジェリ 天使の食卓","province":"東京都","city":"府中市","address":"東京都府中市府中町1丁目40-11","lat":35.67745835,"lon":139.47977983},{"name":"あおばこどもの居場所","province":"東京都","city":"府中市","address":"東京都府中市紅葉丘1丁目35","lat":35.67608155,"lon":139.51360755},{"name":"グレイスキッチン","province":"東京都","city":"府中市","address":"東京都府中市白糸台4丁目2-8","lat":35.66549933,"lon":139.50903882},{"name":"子ども食堂・なな","province":"東京都","city":"府中市","address":"東京都府中市武蔵台2丁目2","lat":35.68866772,"lon":139.46109766},{"name":"こどもの居場所作り＠府中","province":"東京都","city":"府中市","address":"東京都府中市片町2丁目2","lat":35.66908969,"lon":139.47353896},{"name":"新町こどもカレー食堂","province":"東京都","city":"府中市","address":"東京都府中市新町3丁目1","lat":35.69080143,"lon":139.48736756},{"name":"とうきょうどけん子ども食堂","province":"東京都","city":"府中市","address":"東京都府中市晴見町2丁目15-5","lat":35.68168825,"lon":139.4727608},{"name":"にっころ食堂","province":"東京都","city":"府中市","address":"東京都府中市日新町4丁目46-7","lat":35.67052203,"lon":139.4417361},{"name":"ひがしふちゅう駅前こども食堂","province":"東京都","city":"府中市","address":"東京都府中市清水が丘1丁目2","lat":35.66909296,"lon":139.49406224},{"name":"みんなの食堂","province":"東京都","city":"府中市","address":"東京都府中市宮町1丁目100","lat":35.67197841,"lon":139.47949673},{"name":"ラ・メンサ・デリ・アンジェリ 天使の食卓","province":"東京都","city":"府中市","address":"東京都府中市府中町1丁目40-11","lat":35.67745835,"lon":139.47977983}]}