{"keyword":"戸数","data":[{"name":"多摩総合医療センター","province":"東京都","city":"府中市","address":"東京都府中市武蔵台2丁目8-29","lat":35.69188402,"lon":139.46098088},{"name":"神経病院（外来診療は多摩総合医療センター及び小児総合医療センター）","province":"東京都","city":"府中市","address":"東京都府中市武蔵台2丁目6-1","lat":35.69054806,"lon":139.46112259},{"name":"小児総合医療センター","province":"東京都","city":"府中市","address":"東京都府中市武蔵台2丁目8-29","lat":35.69188402,"lon":139.46098088},{"name":"がん検診センター","province":"東京都","city":"府中市","address":"東京都府中市武蔵台2丁目9-2","lat":35.6920563,"lon":139.4641806},{"name":"府中市","province":"東京都","city":"府中市","address":"府中市宮西町2-24","lat":35.6690708,"lon":139.4772781},{"name":"株式会社愛礼儀典","province":"東京都","city":"府中市","address":"東京都府中市西府町5丁目6-6","lat":35.67776871,"lon":139.45120446},{"name":"聖和葬儀社","province":"東京都","city":"府中市","address":"東京都府中市住吉町3丁目21-4","lat":35.66368712,"lon":139.45676278},{"name":"株式会社青葉葬儀社","province":"東京都","city":"府中市","address":"東京都府中市晴見町1丁目15-20","lat":35.68048574,"lon":139.47838816},{"name":"ファミリー葬祭・府中","province":"東京都","city":"府中市","address":"東京都府中市栄町1丁目11-26","lat":35.68869046,"lon":139.48334298},{"name":"街の葬儀屋さん株式会社アーネスト","province":"東京都","city":"府中市","address":"東京都府中市住吉町1丁目44-1","lat":35.6606597,"lon":139.45828497},{"name":"JAマインズ メモリア","province":"東京都","city":"府中市","address":"東京都府中市白糸台1丁目14-14","lat":35.66874057,"lon":139.50796937},{"name":"（株）金子式典","province":"東京都","city":"府中市","address":"東京都府中市片町2丁目3-1","lat":35.67019511,"lon":139.47306396},{"name":"（株）愛礼儀典","province":"東京都","city":"府中市","address":"東京都府中市西府町5丁目6-6","lat":35.67776871,"lon":139.45120446},{"name":"（株）三晃","province":"東京都","city":"府中市","address":"東京都府中市緑町2丁目20-10","lat":35.67342014,"lon":139.48922919},{"name":"（株）あさひセレモニー","province":"東京都","city":"府中市","address":"東京都府中市四谷3丁目21-8","lat":35.66170093,"lon":139.4464471},{"name":"（有）欅式典","province":"東京都","city":"府中市","address":"東京都府中市紅葉丘1丁目34-3","lat":35.67611483,"lon":139.51206879},{"name":"愛礼儀典","province":"東京都","city":"府中市","address":"東京都府中市西府町5丁目6","lat":35.67751043,"lon":139.45182663},{"name":"青葉葬儀社","province":"東京都","city":"府中市","address":"東京都府中市晴見町1丁目15-15","lat":35.68064683,"lon":139.47834927},{"name":"あさひセレモニー","province":"東京都","city":"府中市","address":"東京都府中市四谷3丁目21","lat":35.66172871,"lon":139.4465082},{"name":"アーネスト","province":"東京都","city":"府中市","address":"東京都府中市住吉町1丁目44","lat":35.66050139,"lon":139.45887382},{"name":"いせや","province":"東京都","city":"府中市","address":"東京都府中市天神町4丁目3","lat":35.6816776,"lon":139.49317855},{"name":"ＮＰＯ家族葬の会","province":"東京都","city":"府中市","address":"東京都府中市押立町4丁目14","lat":35.65452901,"lon":139.51502798},{"name":"遠藤葬祭","province":"東京都","city":"府中市","address":"東京都府中市寿町3丁目8","lat":35.6757695,"lon":139.4735054},{"name":"沖田ダイイチ","province":"東京都","city":"府中市","address":"東京都府中市紅葉丘1丁目31","lat":35.67490944,"lon":139.512716},{"name":"金子式典","province":"東京都","city":"府中市","address":"東京都府中市片町2丁目3","lat":35.670159,"lon":139.47280843},{"name":"京王メモリアル","province":"東京都","city":"府中市","address":"東京都府中市寿町2丁目1-28","lat":35.67285879,"lon":139.47630528},{"name":"欅式典","province":"東京都","city":"府中市","address":"東京都府中市紅葉丘1丁目34","lat":35.6757871,"lon":139.5121188},{"name":"三晃","province":"東京都","city":"府中市","address":"東京都府中市緑町2丁目20","lat":35.67315906,"lon":139.48910421},{"name":"三和式典","province":"東京都","city":"府中市","address":"東京都府中市新町1丁目65","lat":35.68670749,"lon":139.48925367},{"name":"ＪＡマインズメモリア","province":"東京都","city":"府中市","address":"東京都府中市白糸台1丁目14-14","lat":35.66874057,"lon":139.50796937},{"name":"聖和","province":"東京都","city":"府中市","address":"東京都府中市住吉町3丁目21","lat":35.66385931,"lon":139.45662667},{"name":"多摩中央葬祭","province":"東京都","city":"府中市","address":"東京都府中市武蔵台2丁目18","lat":35.69427547,"lon":139.46361112},{"name":"西村葬祭","province":"東京都","city":"府中市","address":"東京都府中市是政5丁目7-1","lat":35.65668316,"lon":139.48851312},{"name":"日冠","province":"東京都","city":"府中市","address":"東京都府中市栄町2丁目28","lat":35.69045685,"lon":139.48000985},{"name":"ひふみプランニング","province":"東京都","city":"府中市","address":"東京都府中市北山町3丁目23","lat":35.68863701,"lon":139.45518983},{"name":"ひまわりコーポレーション","province":"東京都","city":"府中市","address":"東京都府中市分梅町4丁目1","lat":35.66467049,"lon":139.46304832},{"name":"富士の華","province":"東京都","city":"府中市","address":"東京都府中市幸町1丁目2","lat":35.67838047,"lon":139.48019087},{"name":"府中葬儀社","province":"東京都","city":"府中市","address":"東京都府中市宮町2丁目16","lat":35.66994537,"lon":139.48147998},{"name":"プラス","province":"東京都","city":"府中市","address":"東京都府中市四谷3丁目21","lat":35.66172871,"lon":139.4465082},{"name":"メモリード","province":"東京都","city":"府中市","address":"東京都府中市府中町2丁目6","lat":35.67222293,"lon":139.48316587},{"name":"ゆいまーる","province":"東京都","city":"府中市","address":"東京都府中市是政4丁目28","lat":35.65588079,"lon":139.49573763},{"name":"リーフ","province":"東京都","city":"府中市","address":"東京都府中市清水が丘2丁目1","lat":35.66761261,"lon":139.49496499},{"name":"府中市地域包括支援センター泉苑","province":"東京都","city":"府中市","address":"府中市武蔵台1-10","lat":35.687572,"lon":139.464539},{"name":"府中市地域包括支援センターよつや苑","province":"東京都","city":"府中市","address":"府中市四谷3-66","lat":35.659973,"lon":139.445938},{"name":"府中市地域包括支援センターあさひ苑","province":"東京都","city":"府中市","address":"府中市朝日町3-17-1","lat":35.667866,"lon":139.52301},{"name":"府中市地域包括支援センター安立園","province":"東京都","city":"府中市","address":"府中市晴見町1-11-2","lat":35.679768,"lon":139.479462},{"name":"府中市地域包括支援センターしみずがおか","province":"東京都","city":"府中市","address":"府中市清水が丘1-3","lat":35.668827,"lon":139.493835},{"name":"府中市地域包括支援センターかたまち","province":"東京都","city":"府中市","address":"府中市片町2-14-5","lat":35.669781,"lon":139.470657},{"name":"府中市地域包括支援センターしんまち","province":"東京都","city":"府中市","address":"府中市新町1-67-2-103","lat":35.687817,"lon":139.490509},{"name":"府中市地域包括支援センター緑苑","province":"東京都","city":"府中市","address":"府中市緑町1-39-3","lat":35.675194,"lon":139.488312},{"name":"府中市地域包括支援センターにしふ","province":"東京都","city":"府中市","address":"府中市西府町2-24-6","lat":35.674976,"lon":139.454041},{"name":"府中市地域包括支援センターこれまさ","province":"東京都","city":"府中市","address":"府中市是政2-38-1","lat":35.659153,"lon":139.499008},{"name":"府中市地域包括支援センターみなみ町","province":"東京都","city":"府中市","address":"府中市南町2-24-2","lat":35.658436,"lon":139.465698},{"name":"府中市福祉保健部高齢者支援課","province":"東京都","city":"府中市","address":"府中市宮西町2-24","lat":35.668858,"lon":139.477768},{"name":"府中市消費生活センター","province":"東京都","city":"府中市","address":"府中市宮町1-100ル・シーニュ6階市民活動支援センター「プラッツ」内","lat":35.67123,"lon":139.481461},{"name":"東京都立多摩・小児総合医療センター","province":"東京都","city":"府中市","address":"東京都府中市武蔵台2丁目8-29","lat":35.69188402,"lon":139.46098088},{"name":"日華多磨葬祭場","province":"東京都","city":"府中市","address":"東京都府中市多磨町2丁目1-1","lat":35.681731,"lon":139.51697931},{"name":"府中の森市民聖苑","province":"東京都","city":"府中市","address":"東京都府中市浅間町1丁目3","lat":35.67765858,"lon":139.49128998},{"name":"府中武蔵台浄水所","province":"東京都","city":"府中市","address":"東京都府中市武蔵台2丁目7","lat":35.68899266,"lon":139.46004218},{"name":"府中南町浄水所","province":"東京都","city":"府中市","address":"東京都府中市南町1丁目50","lat":35.65857132,"lon":139.47090616},{"name":"都立武蔵野公園","province":"東京都","city":"府中市","address":"東京都府中市多磨町3丁目2","lat":35.68861916,"lon":139.51875946},{"name":"都立武蔵野の森公園朝日サッカー場","province":"東京都","city":"府中市","address":"東京都府中市朝日町3丁目","lat":35.6664691,"lon":139.5212629},{"name":"東京競馬場・日吉体育館駐車場","province":"東京都","city":"府中市","address":"東京都府中市八幡町3丁目11","lat":35.66652097,"lon":139.49086538},{"name":"東京競馬場","province":"東京都","city":"府中市","address":"東京都府中市日吉町1","lat":35.66537655,"lon":139.48689909},{"name":"稲城大橋河川敷","province":"東京都","city":"府中市","address":"東京都府中市押立町5丁目","lat":35.65279891,"lon":139.51860288},{"name":"関戸橋河川敷","province":"東京都","city":"府中市","address":"東京都府中市住吉町2丁目","lat":35.65711565,"lon":139.45856007},{"name":"府中市陸上競技場","province":"東京都","city":"府中市","address":"東京都府中市寿町2丁目20","lat":35.67664722,"lon":139.47528856},{"name":"都立多摩・小児総合医療センターヘリポート","province":"東京都","city":"府中市","address":"東京都府中市武蔵台2丁目8-29","lat":35.69188402,"lon":139.46098088},{"name":"郷土の森公園（是政緑地）","province":"東京都","city":"府中市","address":"東京都府中市是政6丁目","lat":35.656008,"lon":139.48189143},{"name":"都立府中の森公園サッカー場","province":"東京都","city":"府中市","address":"東京都府中市浅間町1丁目","lat":35.6770059,"lon":139.49241491},{"name":"府中市選挙管理委員会","province":"東京都","city":"府中市","address":"府中市宮西町2-24","lat":35.668977,"lon":139.477612},{"name":"多摩職業能力開発センター府中校","province":"東京都","city":"府中市","address":"東京都府中市南町4丁目37-2","lat":35.65667142,"lon":139.46563446},{"name":"府中高等学校","province":"東京都","city":"府中市","address":"東京都府中市栄町3丁目3-1","lat":35.68738208,"lon":139.47445767},{"name":"府中西高等学校","province":"東京都","city":"府中市","address":"東京都府中市日新町4丁目6-7","lat":35.67198313,"lon":139.44669394},{"name":"府中東高等学校","province":"東京都","city":"府中市","address":"東京都府中市押立町4丁目21","lat":35.65608157,"lon":139.5158667},{"name":"農業高等学校","province":"東京都","city":"府中市","address":"東京都府中市寿町1丁目10-2","lat":35.6762279,"lon":139.47862997},{"name":"北多摩南部建設事務所","province":"東京都","city":"府中市","address":"府中市緑町1-27-1","lat":35.6733,"lon":139.4846},{"name":"アルフレッサ（株）調布支店","province":"東京都","city":"府中市","address":"府中市西原町1-5-1","lat":35.68195,"lon":139.4604},{"name":"ＫＤＤＩ府中","province":"東京都","city":"府中市","address":"府中市日鋼町1-1","lat":35.67448,"lon":139.4722},{"name":"ＫＤＤＩ府中第二","province":"東京都","city":"府中市","address":"府中市日鋼町1-43","lat":35.67637,"lon":139.47},{"name":"多摩総合医療センター","province":"東京都","city":"府中市","address":"東京都府中市武蔵台2丁目8-29","lat":35.69188402,"lon":139.46098088},{"name":"神経病院（外来診療は多摩総合医療センター及び小児総合医療センター）","province":"東京都","city":"府中市","address":"東京都府中市武蔵台2丁目6-1","lat":35.69054806,"lon":139.46112259},{"name":"小児総合医療センター","province":"東京都","city":"府中市","address":"東京都府中市武蔵台2丁目8-29","lat":35.69188402,"lon":139.46098088},{"name":"がん検診センター","province":"東京都","city":"府中市","address":"東京都府中市武蔵台2丁目9-2","lat":35.6920563,"lon":139.4641806},{"name":"府中市地域包括支援センター泉苑","province":"東京都","city":"府中市","address":"府中市武蔵台1-10","lat":35.687572,"lon":139.464539},{"name":"府中市地域包括支援センターよつや苑","province":"東京都","city":"府中市","address":"府中市四谷3-66","lat":35.659973,"lon":139.445938},{"name":"府中市地域包括支援センターあさひ苑","province":"東京都","city":"府中市","address":"府中市朝日町3-17-1","lat":35.667866,"lon":139.52301},{"name":"府中市地域包括支援センター安立園","province":"東京都","city":"府中市","address":"府中市晴見町1-11-2","lat":35.679768,"lon":139.479462},{"name":"府中市地域包括支援センターしみずがおか","province":"東京都","city":"府中市","address":"府中市清水が丘1-3","lat":35.668827,"lon":139.493835},{"name":"府中市地域包括支援センターかたまち","province":"東京都","city":"府中市","address":"府中市片町2-14-5","lat":35.669781,"lon":139.470657},{"name":"府中市地域包括支援センターしんまち","province":"東京都","city":"府中市","address":"府中市新町1-67-2-103","lat":35.687817,"lon":139.490509},{"name":"府中市地域包括支援センター緑苑","province":"東京都","city":"府中市","address":"府中市緑町1-39-3","lat":35.675194,"lon":139.488312},{"name":"府中市地域包括支援センターにしふ","province":"東京都","city":"府中市","address":"府中市西府町2-24-6","lat":35.674976,"lon":139.454041},{"name":"府中市地域包括支援センターこれまさ","province":"東京都","city":"府中市","address":"府中市是政2-38-1","lat":35.659153,"lon":139.499008},{"name":"府中市地域包括支援センターみなみ町","province":"東京都","city":"府中市","address":"府中市南町2-24-2","lat":35.658436,"lon":139.465698},{"name":"府中市福祉保健部高齢者支援課","province":"東京都","city":"府中市","address":"府中市宮西町2-24","lat":35.668858,"lon":139.477768},{"name":"府中市消費生活センター","province":"東京都","city":"府中市","address":"府中市宮町1-100ル・シーニュ6階市民活動支援センター「プラッツ」内","lat":35.67123,"lon":139.481461},{"name":"東京都立多摩・小児総合医療センター","province":"東京都","city":"府中市","address":"東京都府中市武蔵台2丁目8-29","lat":35.69188402,"lon":139.46098088},{"name":"日華多磨葬祭場","province":"東京都","city":"府中市","address":"東京都府中市多磨町2丁目1-1","lat":35.681731,"lon":139.51697931},{"name":"府中の森市民聖苑","province":"東京都","city":"府中市","address":"東京都府中市浅間町1丁目3","lat":35.67765858,"lon":139.49128998},{"name":"府中武蔵台浄水所","province":"東京都","city":"府中市","address":"東京都府中市武蔵台2丁目7","lat":35.68899266,"lon":139.46004218},{"name":"府中南町浄水所","province":"東京都","city":"府中市","address":"東京都府中市南町1丁目50","lat":35.65857132,"lon":139.47090616},{"name":"都立武蔵野公園","province":"東京都","city":"府中市","address":"東京都府中市多磨町3丁目2","lat":35.68861916,"lon":139.51875946},{"name":"都立武蔵野の森公園朝日サッカー場","province":"東京都","city":"府中市","address":"東京都府中市朝日町3丁目","lat":35.6664691,"lon":139.5212629},{"name":"東京競馬場・日吉体育館駐車場","province":"東京都","city":"府中市","address":"東京都府中市八幡町3丁目11","lat":35.66652097,"lon":139.49086538},{"name":"東京競馬場","province":"東京都","city":"府中市","address":"東京都府中市日吉町1","lat":35.66537655,"lon":139.48689909},{"name":"稲城大橋河川敷","province":"東京都","city":"府中市","address":"東京都府中市押立町5丁目","lat":35.65279891,"lon":139.51860288},{"name":"関戸橋河川敷","province":"東京都","city":"府中市","address":"東京都府中市住吉町2丁目","lat":35.65711565,"lon":139.45856007},{"name":"府中市陸上競技場","province":"東京都","city":"府中市","address":"東京都府中市寿町2丁目20","lat":35.67664722,"lon":139.47528856},{"name":"都立多摩・小児総合医療センターヘリポート","province":"東京都","city":"府中市","address":"東京都府中市武蔵台2丁目8-29","lat":35.69188402,"lon":139.46098088},{"name":"郷土の森公園（是政緑地）","province":"東京都","city":"府中市","address":"東京都府中市是政6丁目","lat":35.656008,"lon":139.48189143},{"name":"都立府中の森公園サッカー場","province":"東京都","city":"府中市","address":"東京都府中市浅間町1丁目","lat":35.6770059,"lon":139.49241491},{"name":"多摩職業能力開発センター府中校","province":"東京都","city":"府中市","address":"東京都府中市南町4丁目37-2","lat":35.65667142,"lon":139.46563446},{"name":"府中高等学校","province":"東京都","city":"府中市","address":"東京都府中市栄町3丁目3-1","lat":35.68738208,"lon":139.47445767},{"name":"府中西高等学校","province":"東京都","city":"府中市","address":"東京都府中市日新町4丁目6-7","lat":35.67198313,"lon":139.44669394},{"name":"府中東高等学校","province":"東京都","city":"府中市","address":"東京都府中市押立町4丁目21","lat":35.65608157,"lon":139.5158667},{"name":"農業高等学校","province":"東京都","city":"府中市","address":"東京都府中市寿町1丁目10-2","lat":35.6762279,"lon":139.47862997},{"name":"北多摩南部建設事務所","province":"東京都","city":"府中市","address":"府中市緑町1-27-1","lat":35.6733,"lon":139.4846},{"name":"アルフレッサ（株）調布支店","province":"東京都","city":"府中市","address":"府中市西原町1-5-1","lat":35.68195,"lon":139.4604},{"name":"ＫＤＤＩ府中","province":"東京都","city":"府中市","address":"府中市日鋼町1-1","lat":35.67448,"lon":139.4722},{"name":"ＫＤＤＩ府中第二","province":"東京都","city":"府中市","address":"府中市日鋼町1-43","lat":35.67637,"lon":139.47},{"name":"多摩総合医療センター","province":"東京都","city":"府中市","address":"東京都府中市武蔵台2丁目8-29","lat":35.69188402,"lon":139.46098088},{"name":"神経病院（外来診療は多摩総合医療センター及び小児総合医療センター）","province":"東京都","city":"府中市","address":"東京都府中市武蔵台2丁目6-1","lat":35.69054806,"lon":139.46112259},{"name":"小児総合医療センター","province":"東京都","city":"府中市","address":"東京都府中市武蔵台2丁目8-29","lat":35.69188402,"lon":139.46098088},{"name":"がん検診センター","province":"東京都","city":"府中市","address":"東京都府中市武蔵台2丁目9-2","lat":35.6920563,"lon":139.4641806},{"name":"府中市地域包括支援センター泉苑","province":"東京都","city":"府中市","address":"府中市武蔵台1-10","lat":35.687572,"lon":139.464539},{"name":"府中市地域包括支援センターよつや苑","province":"東京都","city":"府中市","address":"府中市四谷3-66","lat":35.659973,"lon":139.445938},{"name":"府中市地域包括支援センターあさひ苑","province":"東京都","city":"府中市","address":"府中市朝日町3-17-1","lat":35.667866,"lon":139.52301},{"name":"府中市地域包括支援センター安立園","province":"東京都","city":"府中市","address":"府中市晴見町1-11-2","lat":35.679768,"lon":139.479462},{"name":"府中市地域包括支援センターしみずがおか","province":"東京都","city":"府中市","address":"府中市清水が丘1-3","lat":35.668827,"lon":139.493835},{"name":"府中市地域包括支援センターかたまち","province":"東京都","city":"府中市","address":"府中市片町2-14-5","lat":35.669781,"lon":139.470657},{"name":"府中市地域包括支援センターしんまち","province":"東京都","city":"府中市","address":"府中市新町1-67-2-103","lat":35.687817,"lon":139.490509},{"name":"府中市地域包括支援センター緑苑","province":"東京都","city":"府中市","address":"府中市緑町1-39-3","lat":35.675194,"lon":139.488312},{"name":"府中市地域包括支援センターにしふ","province":"東京都","city":"府中市","address":"府中市西府町2-24-6","lat":35.674976,"lon":139.454041},{"name":"府中市地域包括支援センターこれまさ","province":"東京都","city":"府中市","address":"府中市是政2-38-1","lat":35.659153,"lon":139.499008},{"name":"府中市地域包括支援センターみなみ町","province":"東京都","city":"府中市","address":"府中市南町2-24-2","lat":35.658436,"lon":139.465698},{"name":"府中市福祉保健部高齢者支援課","province":"東京都","city":"府中市","address":"府中市宮西町2-24","lat":35.668858,"lon":139.477768},{"name":"府中市消費生活センター","province":"東京都","city":"府中市","address":"府中市宮町1-100ル・シーニュ6階市民活動支援センター「プラッツ」内","lat":35.67123,"lon":139.481461},{"name":"東京都立多摩・小児総合医療センター","province":"東京都","city":"府中市","address":"東京都府中市武蔵台2丁目8-29","lat":35.69188402,"lon":139.46098088},{"name":"多摩職業能力開発センター府中校","province":"東京都","city":"府中市","address":"東京都府中市南町4丁目37-2","lat":35.65667142,"lon":139.46563446},{"name":"府中高等学校","province":"東京都","city":"府中市","address":"東京都府中市栄町3丁目3-1","lat":35.68738208,"lon":139.47445767},{"name":"府中西高等学校","province":"東京都","city":"府中市","address":"東京都府中市日新町4丁目6-7","lat":35.67198313,"lon":139.44669394},{"name":"府中東高等学校","province":"東京都","city":"府中市","address":"東京都府中市押立町4丁目21","lat":35.65608157,"lon":139.5158667},{"name":"農業高等学校","province":"東京都","city":"府中市","address":"東京都府中市寿町1丁目10-2","lat":35.6762279,"lon":139.47862997},{"name":"多摩総合医療センター","province":"東京都","city":"府中市","address":"東京都府中市武蔵台2丁目8-29","lat":35.69188402,"lon":139.46098088},{"name":"神経病院（外来診療は多摩総合医療センター及び小児総合医療センター）","province":"東京都","city":"府中市","address":"東京都府中市武蔵台2丁目6-1","lat":35.69054806,"lon":139.46112259},{"name":"小児総合医療センター","province":"東京都","city":"府中市","address":"東京都府中市武蔵台2丁目8-29","lat":35.69188402,"lon":139.46098088},{"name":"がん検診センター","province":"東京都","city":"府中市","address":"東京都府中市武蔵台2丁目9-2","lat":35.6920563,"lon":139.4641806},{"name":"府中市地域包括支援センター泉苑","province":"東京都","city":"府中市","address":"府中市武蔵台1-10","lat":35.687572,"lon":139.464539},{"name":"府中市地域包括支援センターよつや苑","province":"東京都","city":"府中市","address":"府中市四谷3-66","lat":35.659973,"lon":139.445938},{"name":"府中市地域包括支援センターあさひ苑","province":"東京都","city":"府中市","address":"府中市朝日町3-17-1","lat":35.667866,"lon":139.52301},{"name":"府中市地域包括支援センター安立園","province":"東京都","city":"府中市","address":"府中市晴見町1-11-2","lat":35.679768,"lon":139.479462},{"name":"府中市地域包括支援センターしみずがおか","province":"東京都","city":"府中市","address":"府中市清水が丘1-3","lat":35.668827,"lon":139.493835},{"name":"府中市地域包括支援センターかたまち","province":"東京都","city":"府中市","address":"府中市片町2-14-5","lat":35.669781,"lon":139.470657},{"name":"府中市地域包括支援センターしんまち","province":"東京都","city":"府中市","address":"府中市新町1-67-2-103","lat":35.687817,"lon":139.490509},{"name":"府中市地域包括支援センター緑苑","province":"東京都","city":"府中市","address":"府中市緑町1-39-3","lat":35.675194,"lon":139.488312},{"name":"府中市地域包括支援センターにしふ","province":"東京都","city":"府中市","address":"府中市西府町2-24-6","lat":35.674976,"lon":139.454041},{"name":"府中市地域包括支援センターこれまさ","province":"東京都","city":"府中市","address":"府中市是政2-38-1","lat":35.659153,"lon":139.499008},{"name":"府中市地域包括支援センターみなみ町","province":"東京都","city":"府中市","address":"府中市南町2-24-2","lat":35.658436,"lon":139.465698},{"name":"府中市福祉保健部高齢者支援課","province":"東京都","city":"府中市","address":"府中市宮西町2-24","lat":35.668858,"lon":139.477768},{"name":"府中市消費生活センター","province":"東京都","city":"府中市","address":"府中市宮町1-100ル・シーニュ6階市民活動支援センター「プラッツ」内","lat":35.67123,"lon":139.481461},{"name":"東京都立多摩・小児総合医療センター","province":"東京都","city":"府中市","address":"東京都府中市武蔵台2丁目8-29","lat":35.69188402,"lon":139.46098088},{"name":"多摩職業能力開発センター府中校","province":"東京都","city":"府中市","address":"東京都府中市南町4丁目37-2","lat":35.65667142,"lon":139.46563446},{"name":"府中高等学校","province":"東京都","city":"府中市","address":"東京都府中市栄町3丁目3-1","lat":35.68738208,"lon":139.47445767},{"name":"府中西高等学校","province":"東京都","city":"府中市","address":"東京都府中市日新町4丁目6-7","lat":35.67198313,"lon":139.44669394},{"name":"府中東高等学校","province":"東京都","city":"府中市","address":"東京都府中市押立町4丁目21","lat":35.65608157,"lon":139.5158667},{"name":"農業高等学校","province":"東京都","city":"府中市","address":"東京都府中市寿町1丁目10-2","lat":35.6762279,"lon":139.47862997},{"name":"多摩総合医療センター","province":"東京都","city":"府中市","address":"東京都府中市武蔵台2丁目8-29","lat":35.69188402,"lon":139.46098088},{"name":"神経病院（外来診療は多摩総合医療センター及び小児総合医療センター）","province":"東京都","city":"府中市","address":"東京都府中市武蔵台2丁目6-1","lat":35.69054806,"lon":139.46112259},{"name":"小児総合医療センター","province":"東京都","city":"府中市","address":"東京都府中市武蔵台2丁目8-29","lat":35.69188402,"lon":139.46098088},{"name":"がん検診センター","province":"東京都","city":"府中市","address":"東京都府中市武蔵台2丁目9-2","lat":35.6920563,"lon":139.4641806},{"name":"府中市地域包括支援センター泉苑","province":"東京都","city":"府中市","address":"府中市武蔵台1-10","lat":35.687572,"lon":139.464539},{"name":"府中市地域包括支援センターよつや苑","province":"東京都","city":"府中市","address":"府中市四谷3-66","lat":35.659973,"lon":139.445938},{"name":"府中市地域包括支援センターあさひ苑","province":"東京都","city":"府中市","address":"府中市朝日町3-17-1","lat":35.667866,"lon":139.52301},{"name":"府中市地域包括支援センター安立園","province":"東京都","city":"府中市","address":"府中市晴見町1-11-2","lat":35.679768,"lon":139.479462},{"name":"府中市地域包括支援センターしみずがおか","province":"東京都","city":"府中市","address":"府中市清水が丘1-3","lat":35.668827,"lon":139.493835},{"name":"府中市地域包括支援センターかたまち","province":"東京都","city":"府中市","address":"府中市片町2-14-5","lat":35.669781,"lon":139.470657},{"name":"府中市地域包括支援センターしんまち","province":"東京都","city":"府中市","address":"府中市新町1-67-2-103","lat":35.687817,"lon":139.490509},{"name":"府中市地域包括支援センター緑苑","province":"東京都","city":"府中市","address":"府中市緑町1-39-3","lat":35.675194,"lon":139.488312},{"name":"府中市地域包括支援センターにしふ","province":"東京都","city":"府中市","address":"府中市西府町2-24-6","lat":35.674976,"lon":139.454041},{"name":"府中市地域包括支援センターこれまさ","province":"東京都","city":"府中市","address":"府中市是政2-38-1","lat":35.659153,"lon":139.499008},{"name":"府中市地域包括支援センターみなみ町","province":"東京都","city":"府中市","address":"府中市南町2-24-2","lat":35.658436,"lon":139.465698},{"name":"府中市福祉保健部高齢者支援課","province":"東京都","city":"府中市","address":"府中市宮西町2-24","lat":35.668858,"lon":139.477768},{"name":"府中市消費生活センター","province":"東京都","city":"府中市","address":"府中市宮町1-100ル・シーニュ6階市民活動支援センター「プラッツ」内","lat":35.67123,"lon":139.481461},{"name":"多摩総合医療センター","province":"東京都","city":"府中市","address":"東京都府中市武蔵台2丁目8-29","lat":35.69188402,"lon":139.46098088},{"name":"神経病院（外来診療は多摩総合医療センター及び小児総合医療センター）","province":"東京都","city":"府中市","address":"東京都府中市武蔵台2丁目6-1","lat":35.69054806,"lon":139.46112259},{"name":"小児総合医療センター","province":"東京都","city":"府中市","address":"東京都府中市武蔵台2丁目8-29","lat":35.69188402,"lon":139.46098088},{"name":"がん検診センター","province":"東京都","city":"府中市","address":"東京都府中市武蔵台2丁目9-2","lat":35.6920563,"lon":139.4641806},{"name":"府中市地域包括支援センター泉苑","province":"東京都","city":"府中市","address":"府中市武蔵台1-10","lat":35.687572,"lon":139.464539},{"name":"府中市地域包括支援センターよつや苑","province":"東京都","city":"府中市","address":"府中市四谷3-66","lat":35.659973,"lon":139.445938},{"name":"府中市地域包括支援センターあさひ苑","province":"東京都","city":"府中市","address":"府中市朝日町3-17-1","lat":35.667866,"lon":139.52301},{"name":"府中市地域包括支援センター安立園","province":"東京都","city":"府中市","address":"府中市晴見町1-11-2","lat":35.679768,"lon":139.479462},{"name":"府中市地域包括支援センターしみずがおか","province":"東京都","city":"府中市","address":"府中市清水が丘1-3","lat":35.668827,"lon":139.493835},{"name":"府中市地域包括支援センターかたまち","province":"東京都","city":"府中市","address":"府中市片町2-14-5","lat":35.669781,"lon":139.470657},{"name":"府中市地域包括支援センターしんまち","province":"東京都","city":"府中市","address":"府中市新町1-67-2-103","lat":35.687817,"lon":139.490509},{"name":"府中市地域包括支援センター緑苑","province":"東京都","city":"府中市","address":"府中市緑町1-39-3","lat":35.675194,"lon":139.488312},{"name":"府中市地域包括支援センターにしふ","province":"東京都","city":"府中市","address":"府中市西府町2-24-6","lat":35.674976,"lon":139.454041},{"name":"府中市地域包括支援センターこれまさ","province":"東京都","city":"府中市","address":"府中市是政2-38-1","lat":35.659153,"lon":139.499008},{"name":"府中市地域包括支援センターみなみ町","province":"東京都","city":"府中市","address":"府中市南町2-24-2","lat":35.658436,"lon":139.465698},{"name":"府中市福祉保健部高齢者支援課","province":"東京都","city":"府中市","address":"府中市宮西町2-24","lat":35.668858,"lon":139.477768},{"name":"府中市消費生活センター","province":"東京都","city":"府中市","address":"府中市宮町1-100ル・シーニュ6階市民活動支援センター「プラッツ」内","lat":35.67123,"lon":139.481461},{"name":"府中市地域包括支援センター泉苑","province":"東京都","city":"府中市","address":"府中市武蔵台1-10","lat":35.687572,"lon":139.464539},{"name":"府中市地域包括支援センターよつや苑","province":"東京都","city":"府中市","address":"府中市四谷3-66","lat":35.659973,"lon":139.445938},{"name":"府中市地域包括支援センターあさひ苑","province":"東京都","city":"府中市","address":"府中市朝日町3-17-1","lat":35.667866,"lon":139.52301},{"name":"府中市地域包括支援センター安立園","province":"東京都","city":"府中市","address":"府中市晴見町1-11-2","lat":35.679768,"lon":139.479462},{"name":"府中市地域包括支援センターしみずがおか","province":"東京都","city":"府中市","address":"府中市清水が丘1-3","lat":35.668827,"lon":139.493835},{"name":"府中市地域包括支援センターかたまち","province":"東京都","city":"府中市","address":"府中市片町2-14-5","lat":35.669781,"lon":139.470657},{"name":"府中市地域包括支援センターしんまち","province":"東京都","city":"府中市","address":"府中市新町1-67-2-103","lat":35.687817,"lon":139.490509},{"name":"府中市地域包括支援センター緑苑","province":"東京都","city":"府中市","address":"府中市緑町1-39-3","lat":35.675194,"lon":139.488312},{"name":"府中市地域包括支援センターにしふ","province":"東京都","city":"府中市","address":"府中市西府町2-24-6","lat":35.674976,"lon":139.454041},{"name":"府中市地域包括支援センターこれまさ","province":"東京都","city":"府中市","address":"府中市是政2-38-1","lat":35.659153,"lon":139.499008},{"name":"府中市地域包括支援センターみなみ町","province":"東京都","city":"府中市","address":"府中市南町2-24-2","lat":35.658436,"lon":139.465698},{"name":"府中市福祉保健部高齢者支援課","province":"東京都","city":"府中市","address":"府中市宮西町2-24","lat":35.668858,"lon":139.477768},{"name":"府中市消費生活センター","province":"東京都","city":"府中市","address":"府中市宮町1-100ル・シーニュ6階市民活動支援センター「プラッツ」内","lat":35.67123,"lon":139.481461},{"name":"府中市地域包括支援センター泉苑","province":"東京都","city":"府中市","address":"府中市武蔵台1-10","lat":35.687572,"lon":139.464539},{"name":"府中市地域包括支援センターよつや苑","province":"東京都","city":"府中市","address":"府中市四谷3-66","lat":35.659973,"lon":139.445938},{"name":"府中市地域包括支援センターあさひ苑","province":"東京都","city":"府中市","address":"府中市朝日町3-17-1","lat":35.667866,"lon":139.52301},{"name":"府中市地域包括支援センター安立園","province":"東京都","city":"府中市","address":"府中市晴見町1-11-2","lat":35.679768,"lon":139.479462},{"name":"府中市地域包括支援センターしみずがおか","province":"東京都","city":"府中市","address":"府中市清水が丘1-3","lat":35.668827,"lon":139.493835},{"name":"府中市地域包括支援センターかたまち","province":"東京都","city":"府中市","address":"府中市片町2-14-5","lat":35.669781,"lon":139.470657},{"name":"府中市地域包括支援センターしんまち","province":"東京都","city":"府中市","address":"府中市新町1-67-2-103","lat":35.687817,"lon":139.490509},{"name":"府中市地域包括支援センター緑苑","province":"東京都","city":"府中市","address":"府中市緑町1-39-3","lat":35.675194,"lon":139.488312},{"name":"府中市地域包括支援センターにしふ","province":"東京都","city":"府中市","address":"府中市西府町2-24-6","lat":35.674976,"lon":139.454041},{"name":"府中市地域包括支援センターこれまさ","province":"東京都","city":"府中市","address":"府中市是政2-38-1","lat":35.659153,"lon":139.499008},{"name":"府中市地域包括支援センターみなみ町","province":"東京都","city":"府中市","address":"府中市南町2-24-2","lat":35.658436,"lon":139.465698},{"name":"府中市福祉保健部高齢者支援課","province":"東京都","city":"府中市","address":"府中市宮西町2-24","lat":35.668858,"lon":139.477768},{"name":"府中市消費生活センター","province":"東京都","city":"府中市","address":"府中市宮町1-100ル・シーニュ6階市民活動支援センター「プラッツ」内","lat":35.67123,"lon":139.481461},{"name":"府中市地域包括支援センター泉苑","province":"東京都","city":"府中市","address":"府中市武蔵台1-10","lat":35.687572,"lon":139.464539},{"name":"府中市地域包括支援センターよつや苑","province":"東京都","city":"府中市","address":"府中市四谷3-66","lat":35.659973,"lon":139.445938},{"name":"府中市地域包括支援センターあさひ苑","province":"東京都","city":"府中市","address":"府中市朝日町3-17-1","lat":35.667866,"lon":139.52301},{"name":"府中市地域包括支援センター安立園","province":"東京都","city":"府中市","address":"府中市晴見町1-11-2","lat":35.679768,"lon":139.479462},{"name":"府中市地域包括支援センターしみずがおか","province":"東京都","city":"府中市","address":"府中市清水が丘1-3","lat":35.668827,"lon":139.493835},{"name":"府中市地域包括支援センターかたまち","province":"東京都","city":"府中市","address":"府中市片町2-14-5","lat":35.669781,"lon":139.470657},{"name":"府中市地域包括支援センターしんまち","province":"東京都","city":"府中市","address":"府中市新町1-67-2-103","lat":35.687817,"lon":139.490509},{"name":"府中市地域包括支援センター緑苑","province":"東京都","city":"府中市","address":"府中市緑町1-39-3","lat":35.675194,"lon":139.488312},{"name":"府中市地域包括支援センターにしふ","province":"東京都","city":"府中市","address":"府中市西府町2-24-6","lat":35.674976,"lon":139.454041},{"name":"府中市地域包括支援センターこれまさ","province":"東京都","city":"府中市","address":"府中市是政2-38-1","lat":35.659153,"lon":139.499008},{"name":"府中市地域包括支援センターみなみ町","province":"東京都","city":"府中市","address":"府中市南町2-24-2","lat":35.658436,"lon":139.465698},{"name":"府中市福祉保健部高齢者支援課","province":"東京都","city":"府中市","address":"府中市宮西町2-24","lat":35.668858,"lon":139.477768},{"name":"府中市消費生活センター","province":"東京都","city":"府中市","address":"府中市宮町1-100ル・シーニュ6階市民活動支援センター「プラッツ」内","lat":35.67123,"lon":139.481461},{"name":"府中市地域包括支援センター泉苑","province":"東京都","city":"府中市","address":"府中市武蔵台1-10","lat":35.687572,"lon":139.464539},{"name":"府中市地域包括支援センターよつや苑","province":"東京都","city":"府中市","address":"府中市四谷3-66","lat":35.659973,"lon":139.445938},{"name":"府中市地域包括支援センターあさひ苑","province":"東京都","city":"府中市","address":"府中市朝日町3-17-1","lat":35.667866,"lon":139.52301},{"name":"府中市地域包括支援センター安立園","province":"東京都","city":"府中市","address":"府中市晴見町1-11-2","lat":35.679768,"lon":139.479462},{"name":"府中市地域包括支援センターしみずがおか","province":"東京都","city":"府中市","address":"府中市清水が丘1-3","lat":35.668827,"lon":139.493835},{"name":"府中市地域包括支援センターかたまち","province":"東京都","city":"府中市","address":"府中市片町2-14-5","lat":35.669781,"lon":139.470657},{"name":"府中市地域包括支援センターしんまち","province":"東京都","city":"府中市","address":"府中市新町1-67-2-103","lat":35.687817,"lon":139.490509},{"name":"府中市地域包括支援センター緑苑","province":"東京都","city":"府中市","address":"府中市緑町1-39-3","lat":35.675194,"lon":139.488312},{"name":"府中市地域包括支援センターにしふ","province":"東京都","city":"府中市","address":"府中市西府町2-24-6","lat":35.674976,"lon":139.454041},{"name":"府中市地域包括支援センターこれまさ","province":"東京都","city":"府中市","address":"府中市是政2-38-1","lat":35.659153,"lon":139.499008},{"name":"府中市地域包括支援センターみなみ町","province":"東京都","city":"府中市","address":"府中市南町2-24-2","lat":35.658436,"lon":139.465698},{"name":"府中市福祉保健部高齢者支援課","province":"東京都","city":"府中市","address":"府中市宮西町2-24","lat":35.668858,"lon":139.477768},{"name":"府中市消費生活センター","province":"東京都","city":"府中市","address":"府中市宮町1-100ル・シーニュ6階市民活動支援センター「プラッツ」内","lat":35.67123,"lon":139.481461},{"name":"府中市地域包括支援センター泉苑","province":"東京都","city":"府中市","address":"府中市武蔵台1-10","lat":35.687572,"lon":139.464539},{"name":"府中市地域包括支援センターよつや苑","province":"東京都","city":"府中市","address":"府中市四谷3-66","lat":35.659973,"lon":139.445938},{"name":"府中市地域包括支援センターあさひ苑","province":"東京都","city":"府中市","address":"府中市朝日町3-17-1","lat":35.667866,"lon":139.52301},{"name":"府中市地域包括支援センター安立園","province":"東京都","city":"府中市","address":"府中市晴見町1-11-2","lat":35.679768,"lon":139.479462},{"name":"府中市地域包括支援センターしみずがおか","province":"東京都","city":"府中市","address":"府中市清水が丘1-3","lat":35.668827,"lon":139.493835},{"name":"府中市地域包括支援センターかたまち","province":"東京都","city":"府中市","address":"府中市片町2-14-5","lat":35.669781,"lon":139.470657},{"name":"府中市地域包括支援センターしんまち","province":"東京都","city":"府中市","address":"府中市新町1-67-2-103","lat":35.687817,"lon":139.490509},{"name":"府中市地域包括支援センター緑苑","province":"東京都","city":"府中市","address":"府中市緑町1-39-3","lat":35.675194,"lon":139.488312},{"name":"府中市地域包括支援センターにしふ","province":"東京都","city":"府中市","address":"府中市西府町2-24-6","lat":35.674976,"lon":139.454041},{"name":"府中市地域包括支援センターこれまさ","province":"東京都","city":"府中市","address":"府中市是政2-38-1","lat":35.659153,"lon":139.499008},{"name":"府中市地域包括支援センターみなみ町","province":"東京都","city":"府中市","address":"府中市南町2-24-2","lat":35.658436,"lon":139.465698},{"name":"府中市福祉保健部高齢者支援課","province":"東京都","city":"府中市","address":"府中市宮西町2-24","lat":35.668858,"lon":139.477768},{"name":"府中市消費生活センター","province":"東京都","city":"府中市","address":"府中市宮町1-100ル・シーニュ6階市民活動支援センター「プラッツ」内","lat":35.67123,"lon":139.481461},{"name":"府中市地域包括支援センター泉苑","province":"東京都","city":"府中市","address":"府中市武蔵台1-10","lat":35.687572,"lon":139.464539},{"name":"府中市地域包括支援センターよつや苑","province":"東京都","city":"府中市","address":"府中市四谷3-66","lat":35.659973,"lon":139.445938},{"name":"府中市地域包括支援センターあさひ苑","province":"東京都","city":"府中市","address":"府中市朝日町3-17-1","lat":35.667866,"lon":139.52301},{"name":"府中市地域包括支援センター安立園","province":"東京都","city":"府中市","address":"府中市晴見町1-11-2","lat":35.679768,"lon":139.479462},{"name":"府中市地域包括支援センターしみずがおか","province":"東京都","city":"府中市","address":"府中市清水が丘1-3","lat":35.668827,"lon":139.493835},{"name":"府中市地域包括支援センターかたまち","province":"東京都","city":"府中市","address":"府中市片町2-14-5","lat":35.669781,"lon":139.470657},{"name":"府中市地域包括支援センターしんまち","province":"東京都","city":"府中市","address":"府中市新町1-67-2-103","lat":35.687817,"lon":139.490509},{"name":"府中市地域包括支援センター緑苑","province":"東京都","city":"府中市","address":"府中市緑町1-39-3","lat":35.675194,"lon":139.488312},{"name":"府中市地域包括支援センターにしふ","province":"東京都","city":"府中市","address":"府中市西府町2-24-6","lat":35.674976,"lon":139.454041},{"name":"府中市地域包括支援センターこれまさ","province":"東京都","city":"府中市","address":"府中市是政2-38-1","lat":35.659153,"lon":139.499008},{"name":"府中市地域包括支援センターみなみ町","province":"東京都","city":"府中市","address":"府中市南町2-24-2","lat":35.658436,"lon":139.465698},{"name":"府中市福祉保健部高齢者支援課","province":"東京都","city":"府中市","address":"府中市宮西町2-24","lat":35.668858,"lon":139.477768},{"name":"府中市消費生活センター","province":"東京都","city":"府中市","address":"府中市宮町1-100ル・シーニュ6階市民活動支援センター「プラッツ」内","lat":35.67123,"lon":139.481461},{"name":"府中市地域包括支援センター泉苑","province":"東京都","city":"府中市","address":"府中市武蔵台1-10","lat":35.687572,"lon":139.464539},{"name":"府中市地域包括支援センターよつや苑","province":"東京都","city":"府中市","address":"府中市四谷3-66","lat":35.659973,"lon":139.445938},{"name":"府中市地域包括支援センターあさひ苑","province":"東京都","city":"府中市","address":"府中市朝日町3-17-1","lat":35.667866,"lon":139.52301},{"name":"府中市地域包括支援センター安立園","province":"東京都","city":"府中市","address":"府中市晴見町1-11-2","lat":35.679768,"lon":139.479462},{"name":"府中市地域包括支援センターしみずがおか","province":"東京都","city":"府中市","address":"府中市清水が丘1-3","lat":35.668827,"lon":139.493835},{"name":"府中市地域包括支援センターかたまち","province":"東京都","city":"府中市","address":"府中市片町2-14-5","lat":35.669781,"lon":139.470657},{"name":"府中市地域包括支援センターしんまち","province":"東京都","city":"府中市","address":"府中市新町1-67-2-103","lat":35.687817,"lon":139.490509},{"name":"府中市地域包括支援センター緑苑","province":"東京都","city":"府中市","address":"府中市緑町1-39-3","lat":35.675194,"lon":139.488312},{"name":"府中市地域包括支援センターにしふ","province":"東京都","city":"府中市","address":"府中市西府町2-24-6","lat":35.674976,"lon":139.454041},{"name":"府中市地域包括支援センターこれまさ","province":"東京都","city":"府中市","address":"府中市是政2-38-1","lat":35.659153,"lon":139.499008},{"name":"府中市地域包括支援センターみなみ町","province":"東京都","city":"府中市","address":"府中市南町2-24-2","lat":35.658436,"lon":139.465698},{"name":"府中市福祉保健部高齢者支援課","province":"東京都","city":"府中市","address":"府中市宮西町2-24","lat":35.668858,"lon":139.477768},{"name":"府中市消費生活センター","province":"東京都","city":"府中市","address":"府中市宮町1-100ル・シーニュ6階市民活動支援センター「プラッツ」内","lat":35.67123,"lon":139.481461},{"name":"府中市地域包括支援センター泉苑","province":"東京都","city":"府中市","address":"府中市武蔵台1-10","lat":35.687572,"lon":139.464539},{"name":"府中市地域包括支援センターよつや苑","province":"東京都","city":"府中市","address":"府中市四谷3-66","lat":35.659973,"lon":139.445938},{"name":"府中市地域包括支援センターあさひ苑","province":"東京都","city":"府中市","address":"府中市朝日町3-17-1","lat":35.667866,"lon":139.52301},{"name":"府中市地域包括支援センター安立園","province":"東京都","city":"府中市","address":"府中市晴見町1-11-2","lat":35.679768,"lon":139.479462},{"name":"府中市地域包括支援センターしみずがおか","province":"東京都","city":"府中市","address":"府中市清水が丘1-3","lat":35.668827,"lon":139.493835},{"name":"府中市地域包括支援センターかたまち","province":"東京都","city":"府中市","address":"府中市片町2-14-5","lat":35.669781,"lon":139.470657},{"name":"府中市地域包括支援センターしんまち","province":"東京都","city":"府中市","address":"府中市新町1-67-2-103","lat":35.687817,"lon":139.490509},{"name":"府中市地域包括支援センター緑苑","province":"東京都","city":"府中市","address":"府中市緑町1-39-3","lat":35.675194,"lon":139.488312},{"name":"府中市地域包括支援センターにしふ","province":"東京都","city":"府中市","address":"府中市西府町2-24-6","lat":35.674976,"lon":139.454041},{"name":"府中市地域包括支援センターこれまさ","province":"東京都","city":"府中市","address":"府中市是政2-38-1","lat":35.659153,"lon":139.499008},{"name":"府中市地域包括支援センターみなみ町","province":"東京都","city":"府中市","address":"府中市南町2-24-2","lat":35.658436,"lon":139.465698},{"name":"府中市福祉保健部高齢者支援課","province":"東京都","city":"府中市","address":"府中市宮西町2-24","lat":35.668858,"lon":139.477768},{"name":"府中市消費生活センター","province":"東京都","city":"府中市","address":"府中市宮町1-100ル・シーニュ6階市民活動支援センター「プラッツ」内","lat":35.67123,"lon":139.481461},{"name":"府中市地域包括支援センター泉苑","province":"東京都","city":"府中市","address":"府中市武蔵台1-10","lat":35.687572,"lon":139.464539},{"name":"府中市地域包括支援センターよつや苑","province":"東京都","city":"府中市","address":"府中市四谷3-66","lat":35.659973,"lon":139.445938},{"name":"府中市地域包括支援センターあさひ苑","province":"東京都","city":"府中市","address":"府中市朝日町3-17-1","lat":35.667866,"lon":139.52301},{"name":"府中市地域包括支援センター安立園","province":"東京都","city":"府中市","address":"府中市晴見町1-11-2","lat":35.679768,"lon":139.479462},{"name":"府中市地域包括支援センターしみずがおか","province":"東京都","city":"府中市","address":"府中市清水が丘1-3","lat":35.668827,"lon":139.493835},{"name":"府中市地域包括支援センターかたまち","province":"東京都","city":"府中市","address":"府中市片町2-14-5","lat":35.669781,"lon":139.470657},{"name":"府中市地域包括支援センターしんまち","province":"東京都","city":"府中市","address":"府中市新町1-67-2-103","lat":35.687817,"lon":139.490509},{"name":"府中市地域包括支援センター緑苑","province":"東京都","city":"府中市","address":"府中市緑町1-39-3","lat":35.675194,"lon":139.488312},{"name":"府中市地域包括支援センターにしふ","province":"東京都","city":"府中市","address":"府中市西府町2-24-6","lat":35.674976,"lon":139.454041},{"name":"府中市地域包括支援センターこれまさ","province":"東京都","city":"府中市","address":"府中市是政2-38-1","lat":35.659153,"lon":139.499008},{"name":"府中市地域包括支援センターみなみ町","province":"東京都","city":"府中市","address":"府中市南町2-24-2","lat":35.658436,"lon":139.465698},{"name":"府中市福祉保健部高齢者支援課","province":"東京都","city":"府中市","address":"府中市宮西町2-24","lat":35.668858,"lon":139.477768},{"name":"府中市消費生活センター","province":"東京都","city":"府中市","address":"府中市宮町1-100ル・シーニュ6階市民活動支援センター「プラッツ」内","lat":35.67123,"lon":139.481461},{"name":"府中市地域包括支援センター泉苑","province":"東京都","city":"府中市","address":"府中市武蔵台1-10","lat":35.687572,"lon":139.464539},{"name":"府中市地域包括支援センターよつや苑","province":"東京都","city":"府中市","address":"府中市四谷3-66","lat":35.659973,"lon":139.445938},{"name":"府中市地域包括支援センターあさひ苑","province":"東京都","city":"府中市","address":"府中市朝日町3-17-1","lat":35.667866,"lon":139.52301},{"name":"府中市地域包括支援センター安立園","province":"東京都","city":"府中市","address":"府中市晴見町1-11-2","lat":35.679768,"lon":139.479462},{"name":"府中市地域包括支援センターしみずがおか","province":"東京都","city":"府中市","address":"府中市清水が丘1-3","lat":35.668827,"lon":139.493835},{"name":"府中市地域包括支援センターかたまち","province":"東京都","city":"府中市","address":"府中市片町2-14-5","lat":35.669781,"lon":139.470657},{"name":"府中市地域包括支援センターしんまち","province":"東京都","city":"府中市","address":"府中市新町1-67-2-103","lat":35.687817,"lon":139.490509},{"name":"府中市地域包括支援センター緑苑","province":"東京都","city":"府中市","address":"府中市緑町1-39-3","lat":35.675194,"lon":139.488312},{"name":"府中市地域包括支援センターにしふ","province":"東京都","city":"府中市","address":"府中市西府町2-24-6","lat":35.674976,"lon":139.454041},{"name":"府中市地域包括支援センターこれまさ","province":"東京都","city":"府中市","address":"府中市是政2-38-1","lat":35.659153,"lon":139.499008},{"name":"府中市地域包括支援センターみなみ町","province":"東京都","city":"府中市","address":"府中市南町2-24-2","lat":35.658436,"lon":139.465698},{"name":"府中市福祉保健部高齢者支援課","province":"東京都","city":"府中市","address":"府中市宮西町2-24","lat":35.668858,"lon":139.477768},{"name":"府中市消費生活センター","province":"東京都","city":"府中市","address":"府中市宮町1-100ル・シーニュ6階市民活動支援センター「プラッツ」内","lat":35.67123,"lon":139.481461},{"name":"府中市地域包括支援センター泉苑","province":"東京都","city":"府中市","address":"府中市武蔵台1-10","lat":35.687572,"lon":139.464539},{"name":"府中市地域包括支援センターよつや苑","province":"東京都","city":"府中市","address":"府中市四谷3-66","lat":35.659973,"lon":139.445938},{"name":"府中市地域包括支援センターあさひ苑","province":"東京都","city":"府中市","address":"府中市朝日町3-17-1","lat":35.667866,"lon":139.52301},{"name":"府中市地域包括支援センター安立園","province":"東京都","city":"府中市","address":"府中市晴見町1-11-2","lat":35.679768,"lon":139.479462},{"name":"府中市地域包括支援センターしみずがおか","province":"東京都","city":"府中市","address":"府中市清水が丘1-3","lat":35.668827,"lon":139.493835},{"name":"府中市地域包括支援センターかたまち","province":"東京都","city":"府中市","address":"府中市片町2-14-5","lat":35.669781,"lon":139.470657},{"name":"府中市地域包括支援センターしんまち","province":"東京都","city":"府中市","address":"府中市新町1-67-2-103","lat":35.687817,"lon":139.490509},{"name":"府中市地域包括支援センター緑苑","province":"東京都","city":"府中市","address":"府中市緑町1-39-3","lat":35.675194,"lon":139.488312},{"name":"府中市地域包括支援センターにしふ","province":"東京都","city":"府中市","address":"府中市西府町2-24-6","lat":35.674976,"lon":139.454041},{"name":"府中市地域包括支援センターこれまさ","province":"東京都","city":"府中市","address":"府中市是政2-38-1","lat":35.659153,"lon":139.499008},{"name":"府中市地域包括支援センターみなみ町","province":"東京都","city":"府中市","address":"府中市南町2-24-2","lat":35.658436,"lon":139.465698},{"name":"府中市福祉保健部高齢者支援課","province":"東京都","city":"府中市","address":"府中市宮西町2-24","lat":35.668858,"lon":139.477768},{"name":"府中市消費生活センター","province":"東京都","city":"府中市","address":"府中市宮町1-100ル・シーニュ6階市民活動支援センター「プラッツ」内","lat":35.67123,"lon":139.481461},{"name":"府中市地域包括支援センター泉苑","province":"東京都","city":"府中市","address":"府中市武蔵台1-10","lat":35.687572,"lon":139.464539},{"name":"府中市地域包括支援センターよつや苑","province":"東京都","city":"府中市","address":"府中市四谷3-66","lat":35.659973,"lon":139.445938},{"name":"府中市地域包括支援センターあさひ苑","province":"東京都","city":"府中市","address":"府中市朝日町3-17-1","lat":35.667866,"lon":139.52301},{"name":"府中市地域包括支援センター安立園","province":"東京都","city":"府中市","address":"府中市晴見町1-11-2","lat":35.679768,"lon":139.479462},{"name":"府中市地域包括支援センターしみずがおか","province":"東京都","city":"府中市","address":"府中市清水が丘1-3","lat":35.668827,"lon":139.493835},{"name":"府中市地域包括支援センターかたまち","province":"東京都","city":"府中市","address":"府中市片町2-14-5","lat":35.669781,"lon":139.470657},{"name":"府中市地域包括支援センターしんまち","province":"東京都","city":"府中市","address":"府中市新町1-67-2-103","lat":35.687817,"lon":139.490509},{"name":"府中市地域包括支援センター緑苑","province":"東京都","city":"府中市","address":"府中市緑町1-39-3","lat":35.675194,"lon":139.488312},{"name":"府中市地域包括支援センターにしふ","province":"東京都","city":"府中市","address":"府中市西府町2-24-6","lat":35.674976,"lon":139.454041},{"name":"府中市地域包括支援センターこれまさ","province":"東京都","city":"府中市","address":"府中市是政2-38-1","lat":35.659153,"lon":139.499008},{"name":"府中市地域包括支援センターみなみ町","province":"東京都","city":"府中市","address":"府中市南町2-24-2","lat":35.658436,"lon":139.465698},{"name":"府中市福祉保健部高齢者支援課","province":"東京都","city":"府中市","address":"府中市宮西町2-24","lat":35.668858,"lon":139.477768},{"name":"府中市消費生活センター","province":"東京都","city":"府中市","address":"府中市宮町1-100ル・シーニュ6階市民活動支援センター「プラッツ」内","lat":35.67123,"lon":139.481461},{"name":"府中市地域包括支援センター泉苑","province":"東京都","city":"府中市","address":"府中市武蔵台1-10","lat":35.687572,"lon":139.464539},{"name":"府中市地域包括支援センターよつや苑","province":"東京都","city":"府中市","address":"府中市四谷3-66","lat":35.659973,"lon":139.445938},{"name":"府中市地域包括支援センターあさひ苑","province":"東京都","city":"府中市","address":"府中市朝日町3-17-1","lat":35.667866,"lon":139.52301},{"name":"府中市地域包括支援センター安立園","province":"東京都","city":"府中市","address":"府中市晴見町1-11-2","lat":35.679768,"lon":139.479462},{"name":"府中市地域包括支援センターしみずがおか","province":"東京都","city":"府中市","address":"府中市清水が丘1-3","lat":35.668827,"lon":139.493835},{"name":"府中市地域包括支援センターかたまち","province":"東京都","city":"府中市","address":"府中市片町2-14-5","lat":35.669781,"lon":139.470657},{"name":"府中市地域包括支援センターしんまち","province":"東京都","city":"府中市","address":"府中市新町1-67-2-103","lat":35.687817,"lon":139.490509},{"name":"府中市地域包括支援センター緑苑","province":"東京都","city":"府中市","address":"府中市緑町1-39-3","lat":35.675194,"lon":139.488312},{"name":"府中市地域包括支援センターにしふ","province":"東京都","city":"府中市","address":"府中市西府町2-24-6","lat":35.674976,"lon":139.454041},{"name":"府中市地域包括支援センターこれまさ","province":"東京都","city":"府中市","address":"府中市是政2-38-1","lat":35.659153,"lon":139.499008},{"name":"府中市地域包括支援センターみなみ町","province":"東京都","city":"府中市","address":"府中市南町2-24-2","lat":35.658436,"lon":139.465698},{"name":"府中市福祉保健部高齢者支援課","province":"東京都","city":"府中市","address":"府中市宮西町2-24","lat":35.668858,"lon":139.477768},{"name":"府中市消費生活センター","province":"東京都","city":"府中市","address":"府中市宮町1-100ル・シーニュ6階市民活動支援センター「プラッツ」内","lat":35.67123,"lon":139.481461},{"name":"府中市地域包括支援センター泉苑","province":"東京都","city":"府中市","address":"府中市武蔵台1-10","lat":35.687572,"lon":139.464539},{"name":"府中市地域包括支援センターよつや苑","province":"東京都","city":"府中市","address":"府中市四谷3-66","lat":35.659973,"lon":139.445938},{"name":"府中市地域包括支援センターあさひ苑","province":"東京都","city":"府中市","address":"府中市朝日町3-17-1","lat":35.667866,"lon":139.52301},{"name":"府中市地域包括支援センター安立園","province":"東京都","city":"府中市","address":"府中市晴見町1-11-2","lat":35.679768,"lon":139.479462},{"name":"府中市地域包括支援センターしみずがおか","province":"東京都","city":"府中市","address":"府中市清水が丘1-3","lat":35.668827,"lon":139.493835},{"name":"府中市地域包括支援センターかたまち","province":"東京都","city":"府中市","address":"府中市片町2-14-5","lat":35.669781,"lon":139.470657},{"name":"府中市地域包括支援センターしんまち","province":"東京都","city":"府中市","address":"府中市新町1-67-2-103","lat":35.687817,"lon":139.490509},{"name":"府中市地域包括支援センター緑苑","province":"東京都","city":"府中市","address":"府中市緑町1-39-3","lat":35.675194,"lon":139.488312},{"name":"府中市地域包括支援センターにしふ","province":"東京都","city":"府中市","address":"府中市西府町2-24-6","lat":35.674976,"lon":139.454041},{"name":"府中市地域包括支援センターこれまさ","province":"東京都","city":"府中市","address":"府中市是政2-38-1","lat":35.659153,"lon":139.499008},{"name":"府中市地域包括支援センターみなみ町","province":"東京都","city":"府中市","address":"府中市南町2-24-2","lat":35.658436,"lon":139.465698},{"name":"府中市福祉保健部高齢者支援課","province":"東京都","city":"府中市","address":"府中市宮西町2-24","lat":35.668858,"lon":139.477768},{"name":"府中市消費生活センター","province":"東京都","city":"府中市","address":"府中市宮町1-100ル・シーニュ6階市民活動支援センター「プラッツ」内","lat":35.67123,"lon":139.481461},{"name":"府中市地域包括支援センター泉苑","province":"東京都","city":"府中市","address":"府中市武蔵台1-10","lat":35.687572,"lon":139.464539},{"name":"府中市地域包括支援センターよつや苑","province":"東京都","city":"府中市","address":"府中市四谷3-66","lat":35.659973,"lon":139.445938},{"name":"府中市地域包括支援センターあさひ苑","province":"東京都","city":"府中市","address":"府中市朝日町3-17-1","lat":35.667866,"lon":139.52301},{"name":"府中市地域包括支援センター安立園","province":"東京都","city":"府中市","address":"府中市晴見町1-11-2","lat":35.679768,"lon":139.479462},{"name":"府中市地域包括支援センターしみずがおか","province":"東京都","city":"府中市","address":"府中市清水が丘1-3","lat":35.668827,"lon":139.493835},{"name":"府中市地域包括支援センターかたまち","province":"東京都","city":"府中市","address":"府中市片町2-14-5","lat":35.669781,"lon":139.470657},{"name":"府中市地域包括支援センターしんまち","province":"東京都","city":"府中市","address":"府中市新町1-67-2-103","lat":35.687817,"lon":139.490509},{"name":"府中市地域包括支援センター緑苑","province":"東京都","city":"府中市","address":"府中市緑町1-39-3","lat":35.675194,"lon":139.488312},{"name":"府中市地域包括支援センターにしふ","province":"東京都","city":"府中市","address":"府中市西府町2-24-6","lat":35.674976,"lon":139.454041},{"name":"府中市地域包括支援センターこれまさ","province":"東京都","city":"府中市","address":"府中市是政2-38-1","lat":35.659153,"lon":139.499008},{"name":"府中市地域包括支援センターみなみ町","province":"東京都","city":"府中市","address":"府中市南町2-24-2","lat":35.658436,"lon":139.465698},{"name":"府中市福祉保健部高齢者支援課","province":"東京都","city":"府中市","address":"府中市宮西町2-24","lat":35.668858,"lon":139.477768},{"name":"府中市消費生活センター","province":"東京都","city":"府中市","address":"府中市宮町1-100ル・シーニュ6階市民活動支援センター「プラッツ」内","lat":35.67123,"lon":139.481461}]}