{"keyword":"放課後","data":[{"name":"ドリームボックス浅間町","province":"東京都","city":"府中市","address":"府中市浅間町2-2-16メゾンモンフレール1階","lat":35.683977,"lon":139.495703},{"name":"児童デイサービス　めろでぃ","province":"東京都","city":"府中市","address":"府中市朝日町1-22-65","lat":35.672302,"lon":139.516438},{"name":"放課後等デイサービス　オンリーワン","province":"東京都","city":"府中市","address":"府中市若松町1-7-33K&Y東府中ビル2階","lat":35.670212,"lon":139.497859},{"name":"運動療育で生きる力を育む　シエル　府中教室","province":"東京都","city":"府中市","address":"府中市緑町3-5-7第二木城ビル5階","lat":35.669685,"lon":139.494376},{"name":"放課後デイサービス　ぽーと","province":"東京都","city":"府中市","address":"府中市緑町3-5-7第二木城ビル4階","lat":35.669685,"lon":139.494376},{"name":"放課後等デイサービスリアン府中緑町","province":"東京都","city":"府中市","address":"府中市緑町1-10-2PALAST緑町102","lat":35.671912,"lon":139.486518},{"name":"ちゃいくろ児童デイサービス府中","province":"東京都","city":"府中市","address":"府中市白糸台6-5-10","lat":35.663317,"lon":139.520252},{"name":"放課後等デイサービスリアン府中白糸台","province":"東京都","city":"府中市","address":"府中市白糸台2-3-6ブリリアントウイン白糸台1階A号","lat":35.666785,"lon":139.50983},{"name":"ハッピーテラス東府中","province":"東京都","city":"府中市","address":"府中市清水が丘1-1-3第一勇心ビル201","lat":35.669304,"lon":139.494404},{"name":"ポップシップ","province":"東京都","city":"府中市","address":"府中市本町1-15-3宮ノ森コーポ102","lat":35.666671,"lon":139.478636},{"name":"放課後デイサービス　プティ　フォンティーヌ","province":"東京都","city":"府中市","address":"府中市本町1-1-22ブラーヴハウス2階","lat":35.668676,"lon":139.477911},{"name":"児童デイサービス　サンフラワー府中","province":"東京都","city":"府中市","address":"府中市本宿町2-20-8","lat":35.672631,"lon":139.459357},{"name":"ドリームボックス武蔵台","province":"東京都","city":"府中市","address":"府中市武蔵台1-27-7","lat":35.688112,"lon":139.461831},{"name":"ナイスデイ・キッズ","province":"東京都","city":"府中市","address":"府中市美好町1-24-3ハイツコグチ1階","lat":35.672248,"lon":139.469653},{"name":"こもれび","province":"東京都","city":"府中市","address":"府中市美好町1-18-5萩原ビル3階","lat":35.67345,"lon":139.470128},{"name":"放課後等デイサービスリアン府中美好教室","province":"東京都","city":"府中市","address":"府中市美好町3丁目13-3第一グリーンテラス2号室","lat":35.671917,"lon":139.466048},{"name":"根っこくらぶ","province":"東京都","city":"府中市","address":"府中市美好町3-17-4マテリアル府中1階B号室","lat":35.671698,"lon":139.46467},{"name":"リボン","province":"東京都","city":"府中市","address":"府中市美好町3-57-161階","lat":35.668278,"lon":139.460426},{"name":"リボン　第２教室","province":"東京都","city":"府中市","address":"府中市美好町3-51-111階","lat":35.669039,"lon":139.46329},{"name":"きぼうクラブ","province":"東京都","city":"府中市","address":"府中市栄町3-12-1メディカルビル・グレイス4階","lat":35.687604,"lon":139.469405},{"name":"放課後等デイサービス　ふぁんふぁん天神町","province":"東京都","city":"府中市","address":"府中市天神町2-1-7ベルテ堀江101号室","lat":35.678736,"lon":139.489157}]}