{"keyword":"構築","data":[{"name":"府中市役所前","province":"東京都","city":"府中市","address":"東京都府中市宮西町2丁目13-4","lat":35.66980637,"lon":139.47699422},{"name":"大国魂神社前","province":"東京都","city":"府中市","address":"東京都府中市宮西町2丁目2-12","lat":35.67026748,"lon":139.47881351},{"name":"府中寿町三丁目","province":"東京都","city":"府中市","address":"東京都府中市寿町2丁目4-42","lat":35.67370589,"lon":139.47539976},{"name":"府中寿町一丁目","province":"東京都","city":"府中市","address":"東京都府中市寿町1丁目1-32","lat":35.67307272,"lon":139.47892173},{"name":"大国魂神社西","province":"東京都","city":"府中市","address":"東京都府中市本町1丁目10-1","lat":35.66819823,"lon":139.4773359},{"name":"浅間町","province":"東京都","city":"府中市","address":"東京都府中市新町2丁目59","lat":35.68528003,"lon":139.49586985},{"name":"府中警察署前","province":"東京都","city":"府中市","address":"東京都府中市府中町1丁目10-5","lat":35.67365049,"lon":139.48157705},{"name":"けやき並木北","province":"東京都","city":"府中市","address":"東京都府中市寿町1丁目10-1","lat":35.67568075,"lon":139.47889664},{"name":"多磨霊園正門入口","province":"東京都","city":"府中市","address":"東京都府中市紅葉丘2丁目7-4","lat":35.67707862,"lon":139.51239929},{"name":"中央文化センター前","province":"東京都","city":"府中市","address":"東京都府中市府中町2丁目25-18","lat":35.6761169,"lon":139.48240745},{"name":"市民球場前","province":"東京都","city":"府中市","address":"東京都府中市寿町2丁目18","lat":35.6758973,"lon":139.47501083},{"name":"合同庁舎入口","province":"東京都","city":"府中市","address":"東京都府中市宮西町2丁目11-9","lat":35.67072849,"lon":139.47691642},{"name":"紅葉丘二丁目","province":"東京都","city":"府中市","address":"東京都府中市紅葉丘1丁目39-13","lat":35.67713424,"lon":139.51478798},{"name":"ルミエール府中東","province":"東京都","city":"府中市","address":"東京都府中市府中町2丁目21-4","lat":35.67513651,"lon":139.48454064},{"name":"晴見二丁目","province":"東京都","city":"府中市","address":"東京都府中市晴見町2丁目24","lat":35.67883302,"lon":139.47264425},{"name":"多磨駐在所前","province":"東京都","city":"府中市","address":"東京都府中市紅葉丘2丁目29","lat":35.67767581,"lon":139.51399636},{"name":"府中農業高校北角","province":"東京都","city":"府中市","address":"東京都府中市幸町1丁目1-21","lat":35.67817492,"lon":139.47979091},{"name":"府中宮町二丁目","province":"東京都","city":"府中市","address":"東京都府中市宮町1丁目25","lat":35.6702259,"lon":139.48185772},{"name":"府中駅北口","province":"東京都","city":"府中市","address":"東京都府中市府中町1丁目12-7","lat":35.67342827,"lon":139.48046048},{"name":"多磨霊園駅北","province":"東京都","city":"府中市","address":"東京都府中市若松町1丁目23-11","lat":35.66746286,"lon":139.50426418},{"name":"府中住吉町五丁目","province":"東京都","city":"府中市","address":"東京都府中市住吉町2丁目28-16","lat":35.65719615,"lon":139.45681022},{"name":"南町交番北","province":"東京都","city":"府中市","address":"東京都府中市南町4丁目9-11","lat":35.65768238,"lon":139.46402623},{"name":"新町一丁目東","province":"東京都","city":"府中市","address":"東京都府中市新町1丁目67-9","lat":35.68771019,"lon":139.49038965},{"name":"福祉センター前","province":"東京都","city":"府中市","address":"東京都府中市南町5丁目38","lat":35.65488833,"lon":139.4677871},{"name":"警察学校前","province":"東京都","city":"府中市","address":"東京都府中市朝日町3丁目15-1","lat":35.66842156,"lon":139.51959904},{"name":"府中メディカルプラザ入口","province":"東京都","city":"府中市","address":"東京都府中市武蔵台2丁目17-1","lat":35.69399492,"lon":139.46255845},{"name":"府中美好町三丁目東","province":"東京都","city":"府中市","address":"東京都府中市美好町3丁目3-9","lat":35.67069217,"lon":139.46823935},{"name":"東郷寺通り","province":"東京都","city":"府中市","address":"東京都府中市清水が丘3丁目23-1","lat":35.66690459,"lon":139.50422809},{"name":"大国魂神社東","province":"東京都","city":"府中市","address":"東京都府中市宮町2丁目2-18","lat":35.66973425,"lon":139.4803884},{"name":"中央文化センター西","province":"東京都","city":"府中市","address":"東京都府中市府中町1丁目27-14","lat":35.67542527,"lon":139.48096592},{"name":"府中朝日フットボールパーク北","province":"東京都","city":"府中市","address":"東京都府中市朝日町3丁目7","lat":35.67338776,"lon":139.52490119},{"name":"多磨駅入口","province":"東京都","city":"府中市","address":"東京都府中市朝日町2丁目27-12","lat":35.67634277,"lon":139.51843772},{"name":"府中武蔵台浄水所","province":"東京都","city":"府中市","address":"東京都府中市武蔵台2丁目7","lat":35.68899266,"lon":139.46004218},{"name":"府中南町浄水所","province":"東京都","city":"府中市","address":"東京都府中市南町1丁目50","lat":35.65857132,"lon":139.47090616},{"name":"都立武蔵野公園","province":"東京都","city":"府中市","address":"東京都府中市多磨町3丁目2","lat":35.68861916,"lon":139.51875946},{"name":"多摩府中保健所","province":"東京都","city":"府中市","address":"東京都府中市美好町2丁目51-1","lat":35.6774275,"lon":139.46746696},{"name":"航空自衛隊府中基地","province":"東京都","city":"府中市","address":"府中市浅間町1-5-5","lat":35.67353,"lon":139.4953},{"name":"第七機動隊","province":"東京都","city":"府中市","address":"府中市朝日町3-16-8","lat":35.66546,"lon":139.5212},{"name":"府中消防署","province":"東京都","city":"府中市","address":"府中市寿町1-5","lat":35.67358,"lon":139.4784},{"name":"アルフレッサ（株）調布支店","province":"東京都","city":"府中市","address":"府中市西原町1-5-1","lat":35.68195,"lon":139.4604},{"name":"都立武蔵野の森公園","province":"東京都","city":"府中市","address":"府中市朝日町3","lat":35.66647,"lon":139.5213},{"name":"都立府中の森公園（サッカー場、野球場）","province":"東京都","city":"府中市","address":"府中市浅間町1丁目地内","lat":35.67353,"lon":139.4953},{"name":"都立多摩・小児総合医療センターヘリポート","province":"東京都","city":"府中市","address":"府中市武蔵台2-8-29","lat":35.691884,"lon":139.460981},{"name":"府中市役所前","province":"東京都","city":"府中市","address":"東京都府中市宮西町2丁目13-4","lat":35.66980637,"lon":139.47699422},{"name":"大国魂神社前","province":"東京都","city":"府中市","address":"東京都府中市宮西町2丁目2-12","lat":35.67026748,"lon":139.47881351},{"name":"府中寿町三丁目","province":"東京都","city":"府中市","address":"東京都府中市寿町2丁目4-42","lat":35.67370589,"lon":139.47539976},{"name":"府中寿町一丁目","province":"東京都","city":"府中市","address":"東京都府中市寿町1丁目1-32","lat":35.67307272,"lon":139.47892173},{"name":"大国魂神社西","province":"東京都","city":"府中市","address":"東京都府中市本町1丁目10-1","lat":35.66819823,"lon":139.4773359},{"name":"浅間町","province":"東京都","city":"府中市","address":"東京都府中市新町2丁目59","lat":35.68528003,"lon":139.49586985},{"name":"府中警察署前","province":"東京都","city":"府中市","address":"東京都府中市府中町1丁目10-5","lat":35.67365049,"lon":139.48157705},{"name":"けやき並木北","province":"東京都","city":"府中市","address":"東京都府中市寿町1丁目10-1","lat":35.67568075,"lon":139.47889664},{"name":"多磨霊園正門入口","province":"東京都","city":"府中市","address":"東京都府中市紅葉丘2丁目7-4","lat":35.67707862,"lon":139.51239929},{"name":"中央文化センター前","province":"東京都","city":"府中市","address":"東京都府中市府中町2丁目25-18","lat":35.6761169,"lon":139.48240745},{"name":"市民球場前","province":"東京都","city":"府中市","address":"東京都府中市寿町2丁目18","lat":35.6758973,"lon":139.47501083},{"name":"合同庁舎入口","province":"東京都","city":"府中市","address":"東京都府中市宮西町2丁目11-9","lat":35.67072849,"lon":139.47691642},{"name":"紅葉丘二丁目","province":"東京都","city":"府中市","address":"東京都府中市紅葉丘1丁目39-13","lat":35.67713424,"lon":139.51478798},{"name":"ルミエール府中東","province":"東京都","city":"府中市","address":"東京都府中市府中町2丁目21-4","lat":35.67513651,"lon":139.48454064},{"name":"晴見二丁目","province":"東京都","city":"府中市","address":"東京都府中市晴見町2丁目24","lat":35.67883302,"lon":139.47264425},{"name":"多磨駐在所前","province":"東京都","city":"府中市","address":"東京都府中市紅葉丘2丁目29","lat":35.67767581,"lon":139.51399636},{"name":"府中農業高校北角","province":"東京都","city":"府中市","address":"東京都府中市幸町1丁目1-21","lat":35.67817492,"lon":139.47979091},{"name":"府中宮町二丁目","province":"東京都","city":"府中市","address":"東京都府中市宮町1丁目25","lat":35.6702259,"lon":139.48185772},{"name":"府中駅北口","province":"東京都","city":"府中市","address":"東京都府中市府中町1丁目12-7","lat":35.67342827,"lon":139.48046048},{"name":"多磨霊園駅北","province":"東京都","city":"府中市","address":"東京都府中市若松町1丁目23-11","lat":35.66746286,"lon":139.50426418},{"name":"府中住吉町五丁目","province":"東京都","city":"府中市","address":"東京都府中市住吉町2丁目28-16","lat":35.65719615,"lon":139.45681022},{"name":"南町交番北","province":"東京都","city":"府中市","address":"東京都府中市南町4丁目9-11","lat":35.65768238,"lon":139.46402623},{"name":"新町一丁目東","province":"東京都","city":"府中市","address":"東京都府中市新町1丁目67-9","lat":35.68771019,"lon":139.49038965},{"name":"福祉センター前","province":"東京都","city":"府中市","address":"東京都府中市南町5丁目38","lat":35.65488833,"lon":139.4677871},{"name":"警察学校前","province":"東京都","city":"府中市","address":"東京都府中市朝日町3丁目15-1","lat":35.66842156,"lon":139.51959904},{"name":"府中メディカルプラザ入口","province":"東京都","city":"府中市","address":"東京都府中市武蔵台2丁目17-1","lat":35.69399492,"lon":139.46255845},{"name":"府中美好町三丁目東","province":"東京都","city":"府中市","address":"東京都府中市美好町3丁目3-9","lat":35.67069217,"lon":139.46823935},{"name":"東郷寺通り","province":"東京都","city":"府中市","address":"東京都府中市清水が丘3丁目23-1","lat":35.66690459,"lon":139.50422809},{"name":"大国魂神社東","province":"東京都","city":"府中市","address":"東京都府中市宮町2丁目2-18","lat":35.66973425,"lon":139.4803884},{"name":"中央文化センター西","province":"東京都","city":"府中市","address":"東京都府中市府中町1丁目27-14","lat":35.67542527,"lon":139.48096592},{"name":"府中朝日フットボールパーク北","province":"東京都","city":"府中市","address":"東京都府中市朝日町3丁目7","lat":35.67338776,"lon":139.52490119},{"name":"多磨駅入口","province":"東京都","city":"府中市","address":"東京都府中市朝日町2丁目27-12","lat":35.67634277,"lon":139.51843772},{"name":"府中武蔵台浄水所","province":"東京都","city":"府中市","address":"東京都府中市武蔵台2丁目7","lat":35.68899266,"lon":139.46004218},{"name":"府中南町浄水所","province":"東京都","city":"府中市","address":"東京都府中市南町1丁目50","lat":35.65857132,"lon":139.47090616},{"name":"都立武蔵野公園","province":"東京都","city":"府中市","address":"東京都府中市多磨町3丁目2","lat":35.68861916,"lon":139.51875946},{"name":"多摩府中保健所","province":"東京都","city":"府中市","address":"東京都府中市美好町2丁目51-1","lat":35.6774275,"lon":139.46746696},{"name":"航空自衛隊府中基地","province":"東京都","city":"府中市","address":"府中市浅間町1-5-5","lat":35.67353,"lon":139.4953},{"name":"第七機動隊","province":"東京都","city":"府中市","address":"府中市朝日町3-16-8","lat":35.66546,"lon":139.5212},{"name":"府中消防署","province":"東京都","city":"府中市","address":"府中市寿町1-5","lat":35.67358,"lon":139.4784},{"name":"アルフレッサ（株）調布支店","province":"東京都","city":"府中市","address":"府中市西原町1-5-1","lat":35.68195,"lon":139.4604},{"name":"府中市役所前","province":"東京都","city":"府中市","address":"東京都府中市宮西町2丁目13-4","lat":35.66980637,"lon":139.47699422},{"name":"大国魂神社前","province":"東京都","city":"府中市","address":"東京都府中市宮西町2丁目2-12","lat":35.67026748,"lon":139.47881351},{"name":"府中寿町三丁目","province":"東京都","city":"府中市","address":"東京都府中市寿町2丁目4-42","lat":35.67370589,"lon":139.47539976},{"name":"府中寿町一丁目","province":"東京都","city":"府中市","address":"東京都府中市寿町1丁目1-32","lat":35.67307272,"lon":139.47892173},{"name":"大国魂神社西","province":"東京都","city":"府中市","address":"東京都府中市本町1丁目10-1","lat":35.66819823,"lon":139.4773359},{"name":"浅間町","province":"東京都","city":"府中市","address":"東京都府中市新町2丁目59","lat":35.68528003,"lon":139.49586985},{"name":"府中警察署前","province":"東京都","city":"府中市","address":"東京都府中市府中町1丁目10-5","lat":35.67365049,"lon":139.48157705},{"name":"けやき並木北","province":"東京都","city":"府中市","address":"東京都府中市寿町1丁目10-1","lat":35.67568075,"lon":139.47889664},{"name":"多磨霊園正門入口","province":"東京都","city":"府中市","address":"東京都府中市紅葉丘2丁目7-4","lat":35.67707862,"lon":139.51239929},{"name":"中央文化センター前","province":"東京都","city":"府中市","address":"東京都府中市府中町2丁目25-18","lat":35.6761169,"lon":139.48240745},{"name":"市民球場前","province":"東京都","city":"府中市","address":"東京都府中市寿町2丁目18","lat":35.6758973,"lon":139.47501083},{"name":"合同庁舎入口","province":"東京都","city":"府中市","address":"東京都府中市宮西町2丁目11-9","lat":35.67072849,"lon":139.47691642},{"name":"紅葉丘二丁目","province":"東京都","city":"府中市","address":"東京都府中市紅葉丘1丁目39-13","lat":35.67713424,"lon":139.51478798},{"name":"ルミエール府中東","province":"東京都","city":"府中市","address":"東京都府中市府中町2丁目21-4","lat":35.67513651,"lon":139.48454064},{"name":"晴見二丁目","province":"東京都","city":"府中市","address":"東京都府中市晴見町2丁目24","lat":35.67883302,"lon":139.47264425},{"name":"多磨駐在所前","province":"東京都","city":"府中市","address":"東京都府中市紅葉丘2丁目29","lat":35.67767581,"lon":139.51399636},{"name":"府中農業高校北角","province":"東京都","city":"府中市","address":"東京都府中市幸町1丁目1-21","lat":35.67817492,"lon":139.47979091},{"name":"府中宮町二丁目","province":"東京都","city":"府中市","address":"東京都府中市宮町1丁目25","lat":35.6702259,"lon":139.48185772},{"name":"府中駅北口","province":"東京都","city":"府中市","address":"東京都府中市府中町1丁目12-7","lat":35.67342827,"lon":139.48046048},{"name":"多磨霊園駅北","province":"東京都","city":"府中市","address":"東京都府中市若松町1丁目23-11","lat":35.66746286,"lon":139.50426418},{"name":"府中住吉町五丁目","province":"東京都","city":"府中市","address":"東京都府中市住吉町2丁目28-16","lat":35.65719615,"lon":139.45681022},{"name":"南町交番北","province":"東京都","city":"府中市","address":"東京都府中市南町4丁目9-11","lat":35.65768238,"lon":139.46402623},{"name":"新町一丁目東","province":"東京都","city":"府中市","address":"東京都府中市新町1丁目67-9","lat":35.68771019,"lon":139.49038965},{"name":"福祉センター前","province":"東京都","city":"府中市","address":"東京都府中市南町5丁目38","lat":35.65488833,"lon":139.4677871},{"name":"警察学校前","province":"東京都","city":"府中市","address":"東京都府中市朝日町3丁目15-1","lat":35.66842156,"lon":139.51959904},{"name":"府中メディカルプラザ入口","province":"東京都","city":"府中市","address":"東京都府中市武蔵台2丁目17-1","lat":35.69399492,"lon":139.46255845},{"name":"府中美好町三丁目東","province":"東京都","city":"府中市","address":"東京都府中市美好町3丁目3-9","lat":35.67069217,"lon":139.46823935},{"name":"東郷寺通り","province":"東京都","city":"府中市","address":"東京都府中市清水が丘3丁目23-1","lat":35.66690459,"lon":139.50422809},{"name":"大国魂神社東","province":"東京都","city":"府中市","address":"東京都府中市宮町2丁目2-18","lat":35.66973425,"lon":139.4803884},{"name":"中央文化センター西","province":"東京都","city":"府中市","address":"東京都府中市府中町1丁目27-14","lat":35.67542527,"lon":139.48096592},{"name":"府中朝日フットボールパーク北","province":"東京都","city":"府中市","address":"東京都府中市朝日町3丁目7","lat":35.67338776,"lon":139.52490119},{"name":"多磨駅入口","province":"東京都","city":"府中市","address":"東京都府中市朝日町2丁目27-12","lat":35.67634277,"lon":139.51843772},{"name":"府中武蔵台浄水所","province":"東京都","city":"府中市","address":"東京都府中市武蔵台2丁目7","lat":35.68899266,"lon":139.46004218},{"name":"府中南町浄水所","province":"東京都","city":"府中市","address":"東京都府中市南町1丁目50","lat":35.65857132,"lon":139.47090616},{"name":"都立武蔵野公園","province":"東京都","city":"府中市","address":"東京都府中市多磨町3丁目2","lat":35.68861916,"lon":139.51875946},{"name":"多摩府中保健所","province":"東京都","city":"府中市","address":"東京都府中市美好町2丁目51-1","lat":35.6774275,"lon":139.46746696},{"name":"航空自衛隊府中基地","province":"東京都","city":"府中市","address":"府中市浅間町1-5-5","lat":35.67353,"lon":139.4953},{"name":"第七機動隊","province":"東京都","city":"府中市","address":"府中市朝日町3-16-8","lat":35.66546,"lon":139.5212},{"name":"府中消防署","province":"東京都","city":"府中市","address":"府中市寿町1-5","lat":35.67358,"lon":139.4784},{"name":"アルフレッサ（株）調布支店","province":"東京都","city":"府中市","address":"府中市西原町1-5-1","lat":35.68195,"lon":139.4604},{"name":"府中市役所前","province":"東京都","city":"府中市","address":"東京都府中市宮西町2丁目13-4","lat":35.66980637,"lon":139.47699422},{"name":"大国魂神社前","province":"東京都","city":"府中市","address":"東京都府中市宮西町2丁目2-12","lat":35.67026748,"lon":139.47881351},{"name":"府中寿町三丁目","province":"東京都","city":"府中市","address":"東京都府中市寿町2丁目4-42","lat":35.67370589,"lon":139.47539976},{"name":"府中寿町一丁目","province":"東京都","city":"府中市","address":"東京都府中市寿町1丁目1-32","lat":35.67307272,"lon":139.47892173},{"name":"大国魂神社西","province":"東京都","city":"府中市","address":"東京都府中市本町1丁目10-1","lat":35.66819823,"lon":139.4773359},{"name":"浅間町","province":"東京都","city":"府中市","address":"東京都府中市新町2丁目59","lat":35.68528003,"lon":139.49586985},{"name":"府中警察署前","province":"東京都","city":"府中市","address":"東京都府中市府中町1丁目10-5","lat":35.67365049,"lon":139.48157705},{"name":"けやき並木北","province":"東京都","city":"府中市","address":"東京都府中市寿町1丁目10-1","lat":35.67568075,"lon":139.47889664},{"name":"多磨霊園正門入口","province":"東京都","city":"府中市","address":"東京都府中市紅葉丘2丁目7-4","lat":35.67707862,"lon":139.51239929},{"name":"中央文化センター前","province":"東京都","city":"府中市","address":"東京都府中市府中町2丁目25-18","lat":35.6761169,"lon":139.48240745},{"name":"市民球場前","province":"東京都","city":"府中市","address":"東京都府中市寿町2丁目18","lat":35.6758973,"lon":139.47501083},{"name":"合同庁舎入口","province":"東京都","city":"府中市","address":"東京都府中市宮西町2丁目11-9","lat":35.67072849,"lon":139.47691642},{"name":"紅葉丘二丁目","province":"東京都","city":"府中市","address":"東京都府中市紅葉丘1丁目39-13","lat":35.67713424,"lon":139.51478798},{"name":"ルミエール府中東","province":"東京都","city":"府中市","address":"東京都府中市府中町2丁目21-4","lat":35.67513651,"lon":139.48454064},{"name":"晴見二丁目","province":"東京都","city":"府中市","address":"東京都府中市晴見町2丁目24","lat":35.67883302,"lon":139.47264425},{"name":"多磨駐在所前","province":"東京都","city":"府中市","address":"東京都府中市紅葉丘2丁目29","lat":35.67767581,"lon":139.51399636},{"name":"府中農業高校北角","province":"東京都","city":"府中市","address":"東京都府中市幸町1丁目1-21","lat":35.67817492,"lon":139.47979091},{"name":"府中宮町二丁目","province":"東京都","city":"府中市","address":"東京都府中市宮町1丁目25","lat":35.6702259,"lon":139.48185772},{"name":"府中駅北口","province":"東京都","city":"府中市","address":"東京都府中市府中町1丁目12-7","lat":35.67342827,"lon":139.48046048},{"name":"多磨霊園駅北","province":"東京都","city":"府中市","address":"東京都府中市若松町1丁目23-11","lat":35.66746286,"lon":139.50426418},{"name":"府中住吉町五丁目","province":"東京都","city":"府中市","address":"東京都府中市住吉町2丁目28-16","lat":35.65719615,"lon":139.45681022},{"name":"南町交番北","province":"東京都","city":"府中市","address":"東京都府中市南町4丁目9-11","lat":35.65768238,"lon":139.46402623},{"name":"新町一丁目東","province":"東京都","city":"府中市","address":"東京都府中市新町1丁目67-9","lat":35.68771019,"lon":139.49038965},{"name":"福祉センター前","province":"東京都","city":"府中市","address":"東京都府中市南町5丁目38","lat":35.65488833,"lon":139.4677871},{"name":"警察学校前","province":"東京都","city":"府中市","address":"東京都府中市朝日町3丁目15-1","lat":35.66842156,"lon":139.51959904},{"name":"府中メディカルプラザ入口","province":"東京都","city":"府中市","address":"東京都府中市武蔵台2丁目17-1","lat":35.69399492,"lon":139.46255845},{"name":"府中美好町三丁目東","province":"東京都","city":"府中市","address":"東京都府中市美好町3丁目3-9","lat":35.67069217,"lon":139.46823935},{"name":"東郷寺通り","province":"東京都","city":"府中市","address":"東京都府中市清水が丘3丁目23-1","lat":35.66690459,"lon":139.50422809},{"name":"大国魂神社東","province":"東京都","city":"府中市","address":"東京都府中市宮町2丁目2-18","lat":35.66973425,"lon":139.4803884},{"name":"中央文化センター西","province":"東京都","city":"府中市","address":"東京都府中市府中町1丁目27-14","lat":35.67542527,"lon":139.48096592},{"name":"府中朝日フットボールパーク北","province":"東京都","city":"府中市","address":"東京都府中市朝日町3丁目7","lat":35.67338776,"lon":139.52490119},{"name":"多磨駅入口","province":"東京都","city":"府中市","address":"東京都府中市朝日町2丁目27-12","lat":35.67634277,"lon":139.51843772},{"name":"府中武蔵台浄水所","province":"東京都","city":"府中市","address":"東京都府中市武蔵台2丁目7","lat":35.68899266,"lon":139.46004218},{"name":"府中南町浄水所","province":"東京都","city":"府中市","address":"東京都府中市南町1丁目50","lat":35.65857132,"lon":139.47090616},{"name":"都立武蔵野公園","province":"東京都","city":"府中市","address":"東京都府中市多磨町3丁目2","lat":35.68861916,"lon":139.51875946},{"name":"多摩府中保健所","province":"東京都","city":"府中市","address":"東京都府中市美好町2丁目51-1","lat":35.6774275,"lon":139.46746696},{"name":"航空自衛隊府中基地","province":"東京都","city":"府中市","address":"府中市浅間町1-5-5","lat":35.67353,"lon":139.4953},{"name":"第七機動隊","province":"東京都","city":"府中市","address":"府中市朝日町3-16-8","lat":35.66546,"lon":139.5212},{"name":"府中消防署","province":"東京都","city":"府中市","address":"府中市寿町1-5","lat":35.67358,"lon":139.4784},{"name":"アルフレッサ（株）調布支店","province":"東京都","city":"府中市","address":"府中市西原町1-5-1","lat":35.68195,"lon":139.4604},{"name":"府中市役所前","province":"東京都","city":"府中市","address":"東京都府中市宮西町2丁目13-4","lat":35.66980637,"lon":139.47699422},{"name":"大国魂神社前","province":"東京都","city":"府中市","address":"東京都府中市宮西町2丁目2-12","lat":35.67026748,"lon":139.47881351},{"name":"府中寿町三丁目","province":"東京都","city":"府中市","address":"東京都府中市寿町2丁目4-42","lat":35.67370589,"lon":139.47539976},{"name":"府中寿町一丁目","province":"東京都","city":"府中市","address":"東京都府中市寿町1丁目1-32","lat":35.67307272,"lon":139.47892173},{"name":"大国魂神社西","province":"東京都","city":"府中市","address":"東京都府中市本町1丁目10-1","lat":35.66819823,"lon":139.4773359},{"name":"浅間町","province":"東京都","city":"府中市","address":"東京都府中市新町2丁目59","lat":35.68528003,"lon":139.49586985},{"name":"府中警察署前","province":"東京都","city":"府中市","address":"東京都府中市府中町1丁目10-5","lat":35.67365049,"lon":139.48157705},{"name":"けやき並木北","province":"東京都","city":"府中市","address":"東京都府中市寿町1丁目10-1","lat":35.67568075,"lon":139.47889664},{"name":"多磨霊園正門入口","province":"東京都","city":"府中市","address":"東京都府中市紅葉丘2丁目7-4","lat":35.67707862,"lon":139.51239929},{"name":"中央文化センター前","province":"東京都","city":"府中市","address":"東京都府中市府中町2丁目25-18","lat":35.6761169,"lon":139.48240745},{"name":"市民球場前","province":"東京都","city":"府中市","address":"東京都府中市寿町2丁目18","lat":35.6758973,"lon":139.47501083},{"name":"合同庁舎入口","province":"東京都","city":"府中市","address":"東京都府中市宮西町2丁目11-9","lat":35.67072849,"lon":139.47691642},{"name":"紅葉丘二丁目","province":"東京都","city":"府中市","address":"東京都府中市紅葉丘1丁目39-13","lat":35.67713424,"lon":139.51478798},{"name":"ルミエール府中東","province":"東京都","city":"府中市","address":"東京都府中市府中町2丁目21-4","lat":35.67513651,"lon":139.48454064},{"name":"晴見二丁目","province":"東京都","city":"府中市","address":"東京都府中市晴見町2丁目24","lat":35.67883302,"lon":139.47264425},{"name":"多磨駐在所前","province":"東京都","city":"府中市","address":"東京都府中市紅葉丘2丁目29","lat":35.67767581,"lon":139.51399636},{"name":"府中農業高校北角","province":"東京都","city":"府中市","address":"東京都府中市幸町1丁目1-21","lat":35.67817492,"lon":139.47979091},{"name":"府中宮町二丁目","province":"東京都","city":"府中市","address":"東京都府中市宮町1丁目25","lat":35.6702259,"lon":139.48185772},{"name":"府中駅北口","province":"東京都","city":"府中市","address":"東京都府中市府中町1丁目12-7","lat":35.67342827,"lon":139.48046048},{"name":"多磨霊園駅北","province":"東京都","city":"府中市","address":"東京都府中市若松町1丁目23-11","lat":35.66746286,"lon":139.50426418},{"name":"府中住吉町五丁目","province":"東京都","city":"府中市","address":"東京都府中市住吉町2丁目28-16","lat":35.65719615,"lon":139.45681022},{"name":"南町交番北","province":"東京都","city":"府中市","address":"東京都府中市南町4丁目9-11","lat":35.65768238,"lon":139.46402623},{"name":"新町一丁目東","province":"東京都","city":"府中市","address":"東京都府中市新町1丁目67-9","lat":35.68771019,"lon":139.49038965},{"name":"福祉センター前","province":"東京都","city":"府中市","address":"東京都府中市南町5丁目38","lat":35.65488833,"lon":139.4677871},{"name":"警察学校前","province":"東京都","city":"府中市","address":"東京都府中市朝日町3丁目15-1","lat":35.66842156,"lon":139.51959904},{"name":"府中メディカルプラザ入口","province":"東京都","city":"府中市","address":"東京都府中市武蔵台2丁目17-1","lat":35.69399492,"lon":139.46255845},{"name":"府中美好町三丁目東","province":"東京都","city":"府中市","address":"東京都府中市美好町3丁目3-9","lat":35.67069217,"lon":139.46823935},{"name":"東郷寺通り","province":"東京都","city":"府中市","address":"東京都府中市清水が丘3丁目23-1","lat":35.66690459,"lon":139.50422809},{"name":"大国魂神社東","province":"東京都","city":"府中市","address":"東京都府中市宮町2丁目2-18","lat":35.66973425,"lon":139.4803884},{"name":"中央文化センター西","province":"東京都","city":"府中市","address":"東京都府中市府中町1丁目27-14","lat":35.67542527,"lon":139.48096592},{"name":"府中朝日フットボールパーク北","province":"東京都","city":"府中市","address":"東京都府中市朝日町3丁目7","lat":35.67338776,"lon":139.52490119},{"name":"多磨駅入口","province":"東京都","city":"府中市","address":"東京都府中市朝日町2丁目27-12","lat":35.67634277,"lon":139.51843772},{"name":"府中武蔵台浄水所","province":"東京都","city":"府中市","address":"東京都府中市武蔵台2丁目7","lat":35.68899266,"lon":139.46004218},{"name":"府中南町浄水所","province":"東京都","city":"府中市","address":"東京都府中市南町1丁目50","lat":35.65857132,"lon":139.47090616},{"name":"都立武蔵野公園","province":"東京都","city":"府中市","address":"東京都府中市多磨町3丁目2","lat":35.68861916,"lon":139.51875946},{"name":"多摩府中保健所","province":"東京都","city":"府中市","address":"東京都府中市美好町2丁目51-1","lat":35.6774275,"lon":139.46746696},{"name":"航空自衛隊府中基地","province":"東京都","city":"府中市","address":"府中市浅間町1-5-5","lat":35.67353,"lon":139.4953},{"name":"第七機動隊","province":"東京都","city":"府中市","address":"府中市朝日町3-16-8","lat":35.66546,"lon":139.5212},{"name":"府中消防署","province":"東京都","city":"府中市","address":"府中市寿町1-5","lat":35.67358,"lon":139.4784},{"name":"アルフレッサ（株）調布支店","province":"東京都","city":"府中市","address":"府中市西原町1-5-1","lat":35.68195,"lon":139.4604},{"name":"府中市役所前","province":"東京都","city":"府中市","address":"東京都府中市宮西町2丁目13-4","lat":35.66980637,"lon":139.47699422},{"name":"大国魂神社前","province":"東京都","city":"府中市","address":"東京都府中市宮西町2丁目2-12","lat":35.67026748,"lon":139.47881351},{"name":"府中寿町三丁目","province":"東京都","city":"府中市","address":"東京都府中市寿町2丁目4-42","lat":35.67370589,"lon":139.47539976},{"name":"府中寿町一丁目","province":"東京都","city":"府中市","address":"東京都府中市寿町1丁目1-32","lat":35.67307272,"lon":139.47892173},{"name":"大国魂神社西","province":"東京都","city":"府中市","address":"東京都府中市本町1丁目10-1","lat":35.66819823,"lon":139.4773359},{"name":"浅間町","province":"東京都","city":"府中市","address":"東京都府中市新町2丁目59","lat":35.68528003,"lon":139.49586985},{"name":"府中警察署前","province":"東京都","city":"府中市","address":"東京都府中市府中町1丁目10-5","lat":35.67365049,"lon":139.48157705},{"name":"けやき並木北","province":"東京都","city":"府中市","address":"東京都府中市寿町1丁目10-1","lat":35.67568075,"lon":139.47889664},{"name":"多磨霊園正門入口","province":"東京都","city":"府中市","address":"東京都府中市紅葉丘2丁目7-4","lat":35.67707862,"lon":139.51239929},{"name":"中央文化センター前","province":"東京都","city":"府中市","address":"東京都府中市府中町2丁目25-18","lat":35.6761169,"lon":139.48240745},{"name":"市民球場前","province":"東京都","city":"府中市","address":"東京都府中市寿町2丁目18","lat":35.6758973,"lon":139.47501083},{"name":"合同庁舎入口","province":"東京都","city":"府中市","address":"東京都府中市宮西町2丁目11-9","lat":35.67072849,"lon":139.47691642},{"name":"紅葉丘二丁目","province":"東京都","city":"府中市","address":"東京都府中市紅葉丘1丁目39-13","lat":35.67713424,"lon":139.51478798},{"name":"ルミエール府中東","province":"東京都","city":"府中市","address":"東京都府中市府中町2丁目21-4","lat":35.67513651,"lon":139.48454064},{"name":"晴見二丁目","province":"東京都","city":"府中市","address":"東京都府中市晴見町2丁目24","lat":35.67883302,"lon":139.47264425},{"name":"多磨駐在所前","province":"東京都","city":"府中市","address":"東京都府中市紅葉丘2丁目29","lat":35.67767581,"lon":139.51399636},{"name":"府中農業高校北角","province":"東京都","city":"府中市","address":"東京都府中市幸町1丁目1-21","lat":35.67817492,"lon":139.47979091},{"name":"府中宮町二丁目","province":"東京都","city":"府中市","address":"東京都府中市宮町1丁目25","lat":35.6702259,"lon":139.48185772},{"name":"府中駅北口","province":"東京都","city":"府中市","address":"東京都府中市府中町1丁目12-7","lat":35.67342827,"lon":139.48046048},{"name":"多磨霊園駅北","province":"東京都","city":"府中市","address":"東京都府中市若松町1丁目23-11","lat":35.66746286,"lon":139.50426418},{"name":"府中住吉町五丁目","province":"東京都","city":"府中市","address":"東京都府中市住吉町2丁目28-16","lat":35.65719615,"lon":139.45681022},{"name":"南町交番北","province":"東京都","city":"府中市","address":"東京都府中市南町4丁目9-11","lat":35.65768238,"lon":139.46402623},{"name":"新町一丁目東","province":"東京都","city":"府中市","address":"東京都府中市新町1丁目67-9","lat":35.68771019,"lon":139.49038965},{"name":"福祉センター前","province":"東京都","city":"府中市","address":"東京都府中市南町5丁目38","lat":35.65488833,"lon":139.4677871},{"name":"警察学校前","province":"東京都","city":"府中市","address":"東京都府中市朝日町3丁目15-1","lat":35.66842156,"lon":139.51959904},{"name":"府中メディカルプラザ入口","province":"東京都","city":"府中市","address":"東京都府中市武蔵台2丁目17-1","lat":35.69399492,"lon":139.46255845},{"name":"府中美好町三丁目東","province":"東京都","city":"府中市","address":"東京都府中市美好町3丁目3-9","lat":35.67069217,"lon":139.46823935},{"name":"東郷寺通り","province":"東京都","city":"府中市","address":"東京都府中市清水が丘3丁目23-1","lat":35.66690459,"lon":139.50422809},{"name":"大国魂神社東","province":"東京都","city":"府中市","address":"東京都府中市宮町2丁目2-18","lat":35.66973425,"lon":139.4803884},{"name":"中央文化センター西","province":"東京都","city":"府中市","address":"東京都府中市府中町1丁目27-14","lat":35.67542527,"lon":139.48096592},{"name":"府中朝日フットボールパーク北","province":"東京都","city":"府中市","address":"東京都府中市朝日町3丁目7","lat":35.67338776,"lon":139.52490119},{"name":"多磨駅入口","province":"東京都","city":"府中市","address":"東京都府中市朝日町2丁目27-12","lat":35.67634277,"lon":139.51843772},{"name":"府中武蔵台浄水所","province":"東京都","city":"府中市","address":"東京都府中市武蔵台2丁目7","lat":35.68899266,"lon":139.46004218},{"name":"府中南町浄水所","province":"東京都","city":"府中市","address":"東京都府中市南町1丁目50","lat":35.65857132,"lon":139.47090616},{"name":"都立武蔵野公園","province":"東京都","city":"府中市","address":"東京都府中市多磨町3丁目2","lat":35.68861916,"lon":139.51875946},{"name":"多摩府中保健所","province":"東京都","city":"府中市","address":"東京都府中市美好町2丁目51-1","lat":35.6774275,"lon":139.46746696},{"name":"航空自衛隊府中基地","province":"東京都","city":"府中市","address":"府中市浅間町1-5-5","lat":35.67353,"lon":139.4953},{"name":"第七機動隊","province":"東京都","city":"府中市","address":"府中市朝日町3-16-8","lat":35.66546,"lon":139.5212},{"name":"府中消防署","province":"東京都","city":"府中市","address":"府中市寿町1-5","lat":35.67358,"lon":139.4784},{"name":"アルフレッサ（株）調布支店","province":"東京都","city":"府中市","address":"府中市西原町1-5-1","lat":35.68195,"lon":139.4604},{"name":"府中市役所前","province":"東京都","city":"府中市","address":"東京都府中市宮西町2丁目13-4","lat":35.66980637,"lon":139.47699422},{"name":"大国魂神社前","province":"東京都","city":"府中市","address":"東京都府中市宮西町2丁目2-12","lat":35.67026748,"lon":139.47881351},{"name":"府中寿町三丁目","province":"東京都","city":"府中市","address":"東京都府中市寿町2丁目4-42","lat":35.67370589,"lon":139.47539976},{"name":"府中寿町一丁目","province":"東京都","city":"府中市","address":"東京都府中市寿町1丁目1-32","lat":35.67307272,"lon":139.47892173},{"name":"大国魂神社西","province":"東京都","city":"府中市","address":"東京都府中市本町1丁目10-1","lat":35.66819823,"lon":139.4773359},{"name":"浅間町","province":"東京都","city":"府中市","address":"東京都府中市新町2丁目59","lat":35.68528003,"lon":139.49586985},{"name":"府中警察署前","province":"東京都","city":"府中市","address":"東京都府中市府中町1丁目10-5","lat":35.67365049,"lon":139.48157705},{"name":"けやき並木北","province":"東京都","city":"府中市","address":"東京都府中市寿町1丁目10-1","lat":35.67568075,"lon":139.47889664},{"name":"多磨霊園正門入口","province":"東京都","city":"府中市","address":"東京都府中市紅葉丘2丁目7-4","lat":35.67707862,"lon":139.51239929},{"name":"中央文化センター前","province":"東京都","city":"府中市","address":"東京都府中市府中町2丁目25-18","lat":35.6761169,"lon":139.48240745},{"name":"市民球場前","province":"東京都","city":"府中市","address":"東京都府中市寿町2丁目18","lat":35.6758973,"lon":139.47501083},{"name":"合同庁舎入口","province":"東京都","city":"府中市","address":"東京都府中市宮西町2丁目11-9","lat":35.67072849,"lon":139.47691642},{"name":"紅葉丘二丁目","province":"東京都","city":"府中市","address":"東京都府中市紅葉丘1丁目39-13","lat":35.67713424,"lon":139.51478798},{"name":"ルミエール府中東","province":"東京都","city":"府中市","address":"東京都府中市府中町2丁目21-4","lat":35.67513651,"lon":139.48454064},{"name":"晴見二丁目","province":"東京都","city":"府中市","address":"東京都府中市晴見町2丁目24","lat":35.67883302,"lon":139.47264425},{"name":"多磨駐在所前","province":"東京都","city":"府中市","address":"東京都府中市紅葉丘2丁目29","lat":35.67767581,"lon":139.51399636},{"name":"府中農業高校北角","province":"東京都","city":"府中市","address":"東京都府中市幸町1丁目1-21","lat":35.67817492,"lon":139.47979091},{"name":"府中宮町二丁目","province":"東京都","city":"府中市","address":"東京都府中市宮町1丁目25","lat":35.6702259,"lon":139.48185772},{"name":"府中駅北口","province":"東京都","city":"府中市","address":"東京都府中市府中町1丁目12-7","lat":35.67342827,"lon":139.48046048},{"name":"多磨霊園駅北","province":"東京都","city":"府中市","address":"東京都府中市若松町1丁目23-11","lat":35.66746286,"lon":139.50426418},{"name":"府中住吉町五丁目","province":"東京都","city":"府中市","address":"東京都府中市住吉町2丁目28-16","lat":35.65719615,"lon":139.45681022},{"name":"南町交番北","province":"東京都","city":"府中市","address":"東京都府中市南町4丁目9-11","lat":35.65768238,"lon":139.46402623},{"name":"新町一丁目東","province":"東京都","city":"府中市","address":"東京都府中市新町1丁目67-9","lat":35.68771019,"lon":139.49038965},{"name":"福祉センター前","province":"東京都","city":"府中市","address":"東京都府中市南町5丁目38","lat":35.65488833,"lon":139.4677871},{"name":"警察学校前","province":"東京都","city":"府中市","address":"東京都府中市朝日町3丁目15-1","lat":35.66842156,"lon":139.51959904},{"name":"府中メディカルプラザ入口","province":"東京都","city":"府中市","address":"東京都府中市武蔵台2丁目17-1","lat":35.69399492,"lon":139.46255845},{"name":"府中美好町三丁目東","province":"東京都","city":"府中市","address":"東京都府中市美好町3丁目3-9","lat":35.67069217,"lon":139.46823935},{"name":"東郷寺通り","province":"東京都","city":"府中市","address":"東京都府中市清水が丘3丁目23-1","lat":35.66690459,"lon":139.50422809},{"name":"大国魂神社東","province":"東京都","city":"府中市","address":"東京都府中市宮町2丁目2-18","lat":35.66973425,"lon":139.4803884},{"name":"中央文化センター西","province":"東京都","city":"府中市","address":"東京都府中市府中町1丁目27-14","lat":35.67542527,"lon":139.48096592},{"name":"府中朝日フットボールパーク北","province":"東京都","city":"府中市","address":"東京都府中市朝日町3丁目7","lat":35.67338776,"lon":139.52490119},{"name":"多磨駅入口","province":"東京都","city":"府中市","address":"東京都府中市朝日町2丁目27-12","lat":35.67634277,"lon":139.51843772},{"name":"府中武蔵台浄水所","province":"東京都","city":"府中市","address":"東京都府中市武蔵台2丁目7","lat":35.68899266,"lon":139.46004218},{"name":"府中南町浄水所","province":"東京都","city":"府中市","address":"東京都府中市南町1丁目50","lat":35.65857132,"lon":139.47090616},{"name":"都立武蔵野公園","province":"東京都","city":"府中市","address":"東京都府中市多磨町3丁目2","lat":35.68861916,"lon":139.51875946},{"name":"多摩府中保健所","province":"東京都","city":"府中市","address":"東京都府中市美好町2丁目51-1","lat":35.6774275,"lon":139.46746696},{"name":"航空自衛隊府中基地","province":"東京都","city":"府中市","address":"府中市浅間町1-5-5","lat":35.67353,"lon":139.4953},{"name":"第七機動隊","province":"東京都","city":"府中市","address":"府中市朝日町3-16-8","lat":35.66546,"lon":139.5212},{"name":"府中消防署","province":"東京都","city":"府中市","address":"府中市寿町1-5","lat":35.67358,"lon":139.4784},{"name":"アルフレッサ（株）調布支店","province":"東京都","city":"府中市","address":"府中市西原町1-5-1","lat":35.68195,"lon":139.4604},{"name":"府中市役所前","province":"東京都","city":"府中市","address":"東京都府中市宮西町2丁目13-4","lat":35.66980637,"lon":139.47699422},{"name":"大国魂神社前","province":"東京都","city":"府中市","address":"東京都府中市宮西町2丁目2-12","lat":35.67026748,"lon":139.47881351},{"name":"府中寿町三丁目","province":"東京都","city":"府中市","address":"東京都府中市寿町2丁目4-42","lat":35.67370589,"lon":139.47539976},{"name":"府中寿町一丁目","province":"東京都","city":"府中市","address":"東京都府中市寿町1丁目1-32","lat":35.67307272,"lon":139.47892173},{"name":"大国魂神社西","province":"東京都","city":"府中市","address":"東京都府中市本町1丁目10-1","lat":35.66819823,"lon":139.4773359},{"name":"浅間町","province":"東京都","city":"府中市","address":"東京都府中市新町2丁目59","lat":35.68528003,"lon":139.49586985},{"name":"府中警察署前","province":"東京都","city":"府中市","address":"東京都府中市府中町1丁目10-5","lat":35.67365049,"lon":139.48157705},{"name":"けやき並木北","province":"東京都","city":"府中市","address":"東京都府中市寿町1丁目10-1","lat":35.67568075,"lon":139.47889664},{"name":"多磨霊園正門入口","province":"東京都","city":"府中市","address":"東京都府中市紅葉丘2丁目7-4","lat":35.67707862,"lon":139.51239929},{"name":"中央文化センター前","province":"東京都","city":"府中市","address":"東京都府中市府中町2丁目25-18","lat":35.6761169,"lon":139.48240745},{"name":"市民球場前","province":"東京都","city":"府中市","address":"東京都府中市寿町2丁目18","lat":35.6758973,"lon":139.47501083},{"name":"合同庁舎入口","province":"東京都","city":"府中市","address":"東京都府中市宮西町2丁目11-9","lat":35.67072849,"lon":139.47691642},{"name":"紅葉丘二丁目","province":"東京都","city":"府中市","address":"東京都府中市紅葉丘1丁目39-13","lat":35.67713424,"lon":139.51478798},{"name":"ルミエール府中東","province":"東京都","city":"府中市","address":"東京都府中市府中町2丁目21-4","lat":35.67513651,"lon":139.48454064},{"name":"晴見二丁目","province":"東京都","city":"府中市","address":"東京都府中市晴見町2丁目24","lat":35.67883302,"lon":139.47264425},{"name":"多磨駐在所前","province":"東京都","city":"府中市","address":"東京都府中市紅葉丘2丁目29","lat":35.67767581,"lon":139.51399636},{"name":"府中農業高校北角","province":"東京都","city":"府中市","address":"東京都府中市幸町1丁目1-21","lat":35.67817492,"lon":139.47979091},{"name":"府中宮町二丁目","province":"東京都","city":"府中市","address":"東京都府中市宮町1丁目25","lat":35.6702259,"lon":139.48185772},{"name":"府中駅北口","province":"東京都","city":"府中市","address":"東京都府中市府中町1丁目12-7","lat":35.67342827,"lon":139.48046048},{"name":"多磨霊園駅北","province":"東京都","city":"府中市","address":"東京都府中市若松町1丁目23-11","lat":35.66746286,"lon":139.50426418},{"name":"府中住吉町五丁目","province":"東京都","city":"府中市","address":"東京都府中市住吉町2丁目28-16","lat":35.65719615,"lon":139.45681022},{"name":"南町交番北","province":"東京都","city":"府中市","address":"東京都府中市南町4丁目9-11","lat":35.65768238,"lon":139.46402623},{"name":"新町一丁目東","province":"東京都","city":"府中市","address":"東京都府中市新町1丁目67-9","lat":35.68771019,"lon":139.49038965},{"name":"福祉センター前","province":"東京都","city":"府中市","address":"東京都府中市南町5丁目38","lat":35.65488833,"lon":139.4677871},{"name":"警察学校前","province":"東京都","city":"府中市","address":"東京都府中市朝日町3丁目15-1","lat":35.66842156,"lon":139.51959904},{"name":"府中メディカルプラザ入口","province":"東京都","city":"府中市","address":"東京都府中市武蔵台2丁目17-1","lat":35.69399492,"lon":139.46255845},{"name":"府中美好町三丁目東","province":"東京都","city":"府中市","address":"東京都府中市美好町3丁目3-9","lat":35.67069217,"lon":139.46823935},{"name":"東郷寺通り","province":"東京都","city":"府中市","address":"東京都府中市清水が丘3丁目23-1","lat":35.66690459,"lon":139.50422809},{"name":"大国魂神社東","province":"東京都","city":"府中市","address":"東京都府中市宮町2丁目2-18","lat":35.66973425,"lon":139.4803884},{"name":"中央文化センター西","province":"東京都","city":"府中市","address":"東京都府中市府中町1丁目27-14","lat":35.67542527,"lon":139.48096592},{"name":"府中朝日フットボールパーク北","province":"東京都","city":"府中市","address":"東京都府中市朝日町3丁目7","lat":35.67338776,"lon":139.52490119},{"name":"多磨駅入口","province":"東京都","city":"府中市","address":"東京都府中市朝日町2丁目27-12","lat":35.67634277,"lon":139.51843772},{"name":"府中武蔵台浄水所","province":"東京都","city":"府中市","address":"東京都府中市武蔵台2丁目7","lat":35.68899266,"lon":139.46004218},{"name":"府中南町浄水所","province":"東京都","city":"府中市","address":"東京都府中市南町1丁目50","lat":35.65857132,"lon":139.47090616},{"name":"都立武蔵野公園","province":"東京都","city":"府中市","address":"東京都府中市多磨町3丁目2","lat":35.68861916,"lon":139.51875946},{"name":"多摩府中保健所","province":"東京都","city":"府中市","address":"東京都府中市美好町2丁目51-1","lat":35.6774275,"lon":139.46746696},{"name":"航空自衛隊府中基地","province":"東京都","city":"府中市","address":"府中市浅間町1-5-5","lat":35.67353,"lon":139.4953},{"name":"第七機動隊","province":"東京都","city":"府中市","address":"府中市朝日町3-16-8","lat":35.66546,"lon":139.5212},{"name":"府中消防署","province":"東京都","city":"府中市","address":"府中市寿町1-5","lat":35.67358,"lon":139.4784},{"name":"アルフレッサ（株）調布支店","province":"東京都","city":"府中市","address":"府中市西原町1-5-1","lat":35.68195,"lon":139.4604},{"name":"府中市役所前","province":"東京都","city":"府中市","address":"東京都府中市宮西町2丁目13-4","lat":35.66980637,"lon":139.47699422},{"name":"大国魂神社前","province":"東京都","city":"府中市","address":"東京都府中市宮西町2丁目2-12","lat":35.67026748,"lon":139.47881351},{"name":"府中寿町三丁目","province":"東京都","city":"府中市","address":"東京都府中市寿町2丁目4-42","lat":35.67370589,"lon":139.47539976},{"name":"府中寿町一丁目","province":"東京都","city":"府中市","address":"東京都府中市寿町1丁目1-32","lat":35.67307272,"lon":139.47892173},{"name":"大国魂神社西","province":"東京都","city":"府中市","address":"東京都府中市本町1丁目10-1","lat":35.66819823,"lon":139.4773359},{"name":"浅間町","province":"東京都","city":"府中市","address":"東京都府中市新町2丁目59","lat":35.68528003,"lon":139.49586985},{"name":"府中警察署前","province":"東京都","city":"府中市","address":"東京都府中市府中町1丁目10-5","lat":35.67365049,"lon":139.48157705},{"name":"けやき並木北","province":"東京都","city":"府中市","address":"東京都府中市寿町1丁目10-1","lat":35.67568075,"lon":139.47889664},{"name":"多磨霊園正門入口","province":"東京都","city":"府中市","address":"東京都府中市紅葉丘2丁目7-4","lat":35.67707862,"lon":139.51239929},{"name":"中央文化センター前","province":"東京都","city":"府中市","address":"東京都府中市府中町2丁目25-18","lat":35.6761169,"lon":139.48240745},{"name":"市民球場前","province":"東京都","city":"府中市","address":"東京都府中市寿町2丁目18","lat":35.6758973,"lon":139.47501083},{"name":"合同庁舎入口","province":"東京都","city":"府中市","address":"東京都府中市宮西町2丁目11-9","lat":35.67072849,"lon":139.47691642},{"name":"紅葉丘二丁目","province":"東京都","city":"府中市","address":"東京都府中市紅葉丘1丁目39-13","lat":35.67713424,"lon":139.51478798},{"name":"ルミエール府中東","province":"東京都","city":"府中市","address":"東京都府中市府中町2丁目21-4","lat":35.67513651,"lon":139.48454064},{"name":"晴見二丁目","province":"東京都","city":"府中市","address":"東京都府中市晴見町2丁目24","lat":35.67883302,"lon":139.47264425},{"name":"多磨駐在所前","province":"東京都","city":"府中市","address":"東京都府中市紅葉丘2丁目29","lat":35.67767581,"lon":139.51399636},{"name":"府中農業高校北角","province":"東京都","city":"府中市","address":"東京都府中市幸町1丁目1-21","lat":35.67817492,"lon":139.47979091},{"name":"府中宮町二丁目","province":"東京都","city":"府中市","address":"東京都府中市宮町1丁目25","lat":35.6702259,"lon":139.48185772},{"name":"府中駅北口","province":"東京都","city":"府中市","address":"東京都府中市府中町1丁目12-7","lat":35.67342827,"lon":139.48046048},{"name":"多磨霊園駅北","province":"東京都","city":"府中市","address":"東京都府中市若松町1丁目23-11","lat":35.66746286,"lon":139.50426418},{"name":"府中住吉町五丁目","province":"東京都","city":"府中市","address":"東京都府中市住吉町2丁目28-16","lat":35.65719615,"lon":139.45681022},{"name":"南町交番北","province":"東京都","city":"府中市","address":"東京都府中市南町4丁目9-11","lat":35.65768238,"lon":139.46402623},{"name":"新町一丁目東","province":"東京都","city":"府中市","address":"東京都府中市新町1丁目67-9","lat":35.68771019,"lon":139.49038965},{"name":"福祉センター前","province":"東京都","city":"府中市","address":"東京都府中市南町5丁目38","lat":35.65488833,"lon":139.4677871},{"name":"警察学校前","province":"東京都","city":"府中市","address":"東京都府中市朝日町3丁目15-1","lat":35.66842156,"lon":139.51959904},{"name":"府中メディカルプラザ入口","province":"東京都","city":"府中市","address":"東京都府中市武蔵台2丁目17-1","lat":35.69399492,"lon":139.46255845},{"name":"府中美好町三丁目東","province":"東京都","city":"府中市","address":"東京都府中市美好町3丁目3-9","lat":35.67069217,"lon":139.46823935},{"name":"東郷寺通り","province":"東京都","city":"府中市","address":"東京都府中市清水が丘3丁目23-1","lat":35.66690459,"lon":139.50422809},{"name":"大国魂神社東","province":"東京都","city":"府中市","address":"東京都府中市宮町2丁目2-18","lat":35.66973425,"lon":139.4803884},{"name":"中央文化センター西","province":"東京都","city":"府中市","address":"東京都府中市府中町1丁目27-14","lat":35.67542527,"lon":139.48096592},{"name":"府中朝日フットボールパーク北","province":"東京都","city":"府中市","address":"東京都府中市朝日町3丁目7","lat":35.67338776,"lon":139.52490119},{"name":"多磨駅入口","province":"東京都","city":"府中市","address":"東京都府中市朝日町2丁目27-12","lat":35.67634277,"lon":139.51843772},{"name":"府中武蔵台浄水所","province":"東京都","city":"府中市","address":"東京都府中市武蔵台2丁目7","lat":35.68899266,"lon":139.46004218},{"name":"府中南町浄水所","province":"東京都","city":"府中市","address":"東京都府中市南町1丁目50","lat":35.65857132,"lon":139.47090616},{"name":"都立武蔵野公園","province":"東京都","city":"府中市","address":"東京都府中市多磨町3丁目2","lat":35.68861916,"lon":139.51875946},{"name":"多摩府中保健所","province":"東京都","city":"府中市","address":"東京都府中市美好町2丁目51-1","lat":35.6774275,"lon":139.46746696},{"name":"航空自衛隊府中基地","province":"東京都","city":"府中市","address":"府中市浅間町1-5-5","lat":35.67353,"lon":139.4953},{"name":"第七機動隊","province":"東京都","city":"府中市","address":"府中市朝日町3-16-8","lat":35.66546,"lon":139.5212},{"name":"府中消防署","province":"東京都","city":"府中市","address":"府中市寿町1-5","lat":35.67358,"lon":139.4784},{"name":"アルフレッサ（株）調布支店","province":"東京都","city":"府中市","address":"府中市西原町1-5-1","lat":35.68195,"lon":139.4604},{"name":"府中市役所前","province":"東京都","city":"府中市","address":"東京都府中市宮西町2丁目13-4","lat":35.66980637,"lon":139.47699422},{"name":"大国魂神社前","province":"東京都","city":"府中市","address":"東京都府中市宮西町2丁目2-12","lat":35.67026748,"lon":139.47881351},{"name":"府中寿町三丁目","province":"東京都","city":"府中市","address":"東京都府中市寿町2丁目4-42","lat":35.67370589,"lon":139.47539976},{"name":"府中寿町一丁目","province":"東京都","city":"府中市","address":"東京都府中市寿町1丁目1-32","lat":35.67307272,"lon":139.47892173},{"name":"大国魂神社西","province":"東京都","city":"府中市","address":"東京都府中市本町1丁目10-1","lat":35.66819823,"lon":139.4773359},{"name":"浅間町","province":"東京都","city":"府中市","address":"東京都府中市新町2丁目59","lat":35.68528003,"lon":139.49586985},{"name":"府中警察署前","province":"東京都","city":"府中市","address":"東京都府中市府中町1丁目10-5","lat":35.67365049,"lon":139.48157705},{"name":"けやき並木北","province":"東京都","city":"府中市","address":"東京都府中市寿町1丁目10-1","lat":35.67568075,"lon":139.47889664},{"name":"多磨霊園正門入口","province":"東京都","city":"府中市","address":"東京都府中市紅葉丘2丁目7-4","lat":35.67707862,"lon":139.51239929},{"name":"中央文化センター前","province":"東京都","city":"府中市","address":"東京都府中市府中町2丁目25-18","lat":35.6761169,"lon":139.48240745},{"name":"市民球場前","province":"東京都","city":"府中市","address":"東京都府中市寿町2丁目18","lat":35.6758973,"lon":139.47501083},{"name":"合同庁舎入口","province":"東京都","city":"府中市","address":"東京都府中市宮西町2丁目11-9","lat":35.67072849,"lon":139.47691642},{"name":"紅葉丘二丁目","province":"東京都","city":"府中市","address":"東京都府中市紅葉丘1丁目39-13","lat":35.67713424,"lon":139.51478798},{"name":"ルミエール府中東","province":"東京都","city":"府中市","address":"東京都府中市府中町2丁目21-4","lat":35.67513651,"lon":139.48454064},{"name":"晴見二丁目","province":"東京都","city":"府中市","address":"東京都府中市晴見町2丁目24","lat":35.67883302,"lon":139.47264425},{"name":"多磨駐在所前","province":"東京都","city":"府中市","address":"東京都府中市紅葉丘2丁目29","lat":35.67767581,"lon":139.51399636},{"name":"府中農業高校北角","province":"東京都","city":"府中市","address":"東京都府中市幸町1丁目1-21","lat":35.67817492,"lon":139.47979091},{"name":"府中宮町二丁目","province":"東京都","city":"府中市","address":"東京都府中市宮町1丁目25","lat":35.6702259,"lon":139.48185772},{"name":"府中駅北口","province":"東京都","city":"府中市","address":"東京都府中市府中町1丁目12-7","lat":35.67342827,"lon":139.48046048},{"name":"多磨霊園駅北","province":"東京都","city":"府中市","address":"東京都府中市若松町1丁目23-11","lat":35.66746286,"lon":139.50426418},{"name":"府中住吉町五丁目","province":"東京都","city":"府中市","address":"東京都府中市住吉町2丁目28-16","lat":35.65719615,"lon":139.45681022},{"name":"南町交番北","province":"東京都","city":"府中市","address":"東京都府中市南町4丁目9-11","lat":35.65768238,"lon":139.46402623},{"name":"新町一丁目東","province":"東京都","city":"府中市","address":"東京都府中市新町1丁目67-9","lat":35.68771019,"lon":139.49038965},{"name":"福祉センター前","province":"東京都","city":"府中市","address":"東京都府中市南町5丁目38","lat":35.65488833,"lon":139.4677871},{"name":"警察学校前","province":"東京都","city":"府中市","address":"東京都府中市朝日町3丁目15-1","lat":35.66842156,"lon":139.51959904},{"name":"府中メディカルプラザ入口","province":"東京都","city":"府中市","address":"東京都府中市武蔵台2丁目17-1","lat":35.69399492,"lon":139.46255845},{"name":"府中美好町三丁目東","province":"東京都","city":"府中市","address":"東京都府中市美好町3丁目3-9","lat":35.67069217,"lon":139.46823935},{"name":"東郷寺通り","province":"東京都","city":"府中市","address":"東京都府中市清水が丘3丁目23-1","lat":35.66690459,"lon":139.50422809},{"name":"大国魂神社東","province":"東京都","city":"府中市","address":"東京都府中市宮町2丁目2-18","lat":35.66973425,"lon":139.4803884},{"name":"中央文化センター西","province":"東京都","city":"府中市","address":"東京都府中市府中町1丁目27-14","lat":35.67542527,"lon":139.48096592},{"name":"府中朝日フットボールパーク北","province":"東京都","city":"府中市","address":"東京都府中市朝日町3丁目7","lat":35.67338776,"lon":139.52490119},{"name":"多磨駅入口","province":"東京都","city":"府中市","address":"東京都府中市朝日町2丁目27-12","lat":35.67634277,"lon":139.51843772},{"name":"府中武蔵台浄水所","province":"東京都","city":"府中市","address":"東京都府中市武蔵台2丁目7","lat":35.68899266,"lon":139.46004218},{"name":"府中南町浄水所","province":"東京都","city":"府中市","address":"東京都府中市南町1丁目50","lat":35.65857132,"lon":139.47090616},{"name":"都立武蔵野公園","province":"東京都","city":"府中市","address":"東京都府中市多磨町3丁目2","lat":35.68861916,"lon":139.51875946},{"name":"多摩府中保健所","province":"東京都","city":"府中市","address":"東京都府中市美好町2丁目51-1","lat":35.6774275,"lon":139.46746696},{"name":"航空自衛隊府中基地","province":"東京都","city":"府中市","address":"府中市浅間町1-5-5","lat":35.67353,"lon":139.4953},{"name":"第七機動隊","province":"東京都","city":"府中市","address":"府中市朝日町3-16-8","lat":35.66546,"lon":139.5212},{"name":"府中消防署","province":"東京都","city":"府中市","address":"府中市寿町1-5","lat":35.67358,"lon":139.4784},{"name":"アルフレッサ（株）調布支店","province":"東京都","city":"府中市","address":"府中市西原町1-5-1","lat":35.68195,"lon":139.4604},{"name":"府中市役所前","province":"東京都","city":"府中市","address":"東京都府中市宮西町2丁目13-4","lat":35.66980637,"lon":139.47699422},{"name":"大国魂神社前","province":"東京都","city":"府中市","address":"東京都府中市宮西町2丁目2-12","lat":35.67026748,"lon":139.47881351},{"name":"府中寿町三丁目","province":"東京都","city":"府中市","address":"東京都府中市寿町2丁目4-42","lat":35.67370589,"lon":139.47539976},{"name":"府中寿町一丁目","province":"東京都","city":"府中市","address":"東京都府中市寿町1丁目1-32","lat":35.67307272,"lon":139.47892173},{"name":"大国魂神社西","province":"東京都","city":"府中市","address":"東京都府中市本町1丁目10-1","lat":35.66819823,"lon":139.4773359},{"name":"浅間町","province":"東京都","city":"府中市","address":"東京都府中市新町2丁目59","lat":35.68528003,"lon":139.49586985},{"name":"府中警察署前","province":"東京都","city":"府中市","address":"東京都府中市府中町1丁目10-5","lat":35.67365049,"lon":139.48157705},{"name":"けやき並木北","province":"東京都","city":"府中市","address":"東京都府中市寿町1丁目10-1","lat":35.67568075,"lon":139.47889664},{"name":"多磨霊園正門入口","province":"東京都","city":"府中市","address":"東京都府中市紅葉丘2丁目7-4","lat":35.67707862,"lon":139.51239929},{"name":"中央文化センター前","province":"東京都","city":"府中市","address":"東京都府中市府中町2丁目25-18","lat":35.6761169,"lon":139.48240745},{"name":"市民球場前","province":"東京都","city":"府中市","address":"東京都府中市寿町2丁目18","lat":35.6758973,"lon":139.47501083},{"name":"合同庁舎入口","province":"東京都","city":"府中市","address":"東京都府中市宮西町2丁目11-9","lat":35.67072849,"lon":139.47691642},{"name":"紅葉丘二丁目","province":"東京都","city":"府中市","address":"東京都府中市紅葉丘1丁目39-13","lat":35.67713424,"lon":139.51478798},{"name":"ルミエール府中東","province":"東京都","city":"府中市","address":"東京都府中市府中町2丁目21-4","lat":35.67513651,"lon":139.48454064},{"name":"晴見二丁目","province":"東京都","city":"府中市","address":"東京都府中市晴見町2丁目24","lat":35.67883302,"lon":139.47264425},{"name":"多磨駐在所前","province":"東京都","city":"府中市","address":"東京都府中市紅葉丘2丁目29","lat":35.67767581,"lon":139.51399636},{"name":"府中農業高校北角","province":"東京都","city":"府中市","address":"東京都府中市幸町1丁目1-21","lat":35.67817492,"lon":139.47979091},{"name":"府中宮町二丁目","province":"東京都","city":"府中市","address":"東京都府中市宮町1丁目25","lat":35.6702259,"lon":139.48185772},{"name":"府中駅北口","province":"東京都","city":"府中市","address":"東京都府中市府中町1丁目12-7","lat":35.67342827,"lon":139.48046048},{"name":"多磨霊園駅北","province":"東京都","city":"府中市","address":"東京都府中市若松町1丁目23-11","lat":35.66746286,"lon":139.50426418},{"name":"府中住吉町五丁目","province":"東京都","city":"府中市","address":"東京都府中市住吉町2丁目28-16","lat":35.65719615,"lon":139.45681022},{"name":"南町交番北","province":"東京都","city":"府中市","address":"東京都府中市南町4丁目9-11","lat":35.65768238,"lon":139.46402623},{"name":"新町一丁目東","province":"東京都","city":"府中市","address":"東京都府中市新町1丁目67-9","lat":35.68771019,"lon":139.49038965},{"name":"福祉センター前","province":"東京都","city":"府中市","address":"東京都府中市南町5丁目38","lat":35.65488833,"lon":139.4677871},{"name":"警察学校前","province":"東京都","city":"府中市","address":"東京都府中市朝日町3丁目15-1","lat":35.66842156,"lon":139.51959904},{"name":"府中メディカルプラザ入口","province":"東京都","city":"府中市","address":"東京都府中市武蔵台2丁目17-1","lat":35.69399492,"lon":139.46255845},{"name":"府中美好町三丁目東","province":"東京都","city":"府中市","address":"東京都府中市美好町3丁目3-9","lat":35.67069217,"lon":139.46823935},{"name":"東郷寺通り","province":"東京都","city":"府中市","address":"東京都府中市清水が丘3丁目23-1","lat":35.66690459,"lon":139.50422809},{"name":"大国魂神社東","province":"東京都","city":"府中市","address":"東京都府中市宮町2丁目2-18","lat":35.66973425,"lon":139.4803884},{"name":"中央文化センター西","province":"東京都","city":"府中市","address":"東京都府中市府中町1丁目27-14","lat":35.67542527,"lon":139.48096592},{"name":"府中朝日フットボールパーク北","province":"東京都","city":"府中市","address":"東京都府中市朝日町3丁目7","lat":35.67338776,"lon":139.52490119},{"name":"多磨駅入口","province":"東京都","city":"府中市","address":"東京都府中市朝日町2丁目27-12","lat":35.67634277,"lon":139.51843772},{"name":"府中武蔵台浄水所","province":"東京都","city":"府中市","address":"東京都府中市武蔵台2丁目7","lat":35.68899266,"lon":139.46004218},{"name":"府中南町浄水所","province":"東京都","city":"府中市","address":"東京都府中市南町1丁目50","lat":35.65857132,"lon":139.47090616},{"name":"都立武蔵野公園","province":"東京都","city":"府中市","address":"東京都府中市多磨町3丁目2","lat":35.68861916,"lon":139.51875946},{"name":"多摩府中保健所","province":"東京都","city":"府中市","address":"東京都府中市美好町2丁目51-1","lat":35.6774275,"lon":139.46746696},{"name":"航空自衛隊府中基地","province":"東京都","city":"府中市","address":"府中市浅間町1-5-5","lat":35.67353,"lon":139.4953},{"name":"第七機動隊","province":"東京都","city":"府中市","address":"府中市朝日町3-16-8","lat":35.66546,"lon":139.5212},{"name":"府中消防署","province":"東京都","city":"府中市","address":"府中市寿町1-5","lat":35.67358,"lon":139.4784},{"name":"アルフレッサ（株）調布支店","province":"東京都","city":"府中市","address":"府中市西原町1-5-1","lat":35.68195,"lon":139.4604},{"name":"府中市役所前","province":"東京都","city":"府中市","address":"東京都府中市宮西町2丁目13-4","lat":35.66980637,"lon":139.47699422},{"name":"大国魂神社前","province":"東京都","city":"府中市","address":"東京都府中市宮西町2丁目2-12","lat":35.67026748,"lon":139.47881351},{"name":"府中寿町三丁目","province":"東京都","city":"府中市","address":"東京都府中市寿町2丁目4-42","lat":35.67370589,"lon":139.47539976},{"name":"府中寿町一丁目","province":"東京都","city":"府中市","address":"東京都府中市寿町1丁目1-32","lat":35.67307272,"lon":139.47892173},{"name":"大国魂神社西","province":"東京都","city":"府中市","address":"東京都府中市本町1丁目10-1","lat":35.66819823,"lon":139.4773359},{"name":"浅間町","province":"東京都","city":"府中市","address":"東京都府中市新町2丁目59","lat":35.68528003,"lon":139.49586985},{"name":"府中警察署前","province":"東京都","city":"府中市","address":"東京都府中市府中町1丁目10-5","lat":35.67365049,"lon":139.48157705},{"name":"けやき並木北","province":"東京都","city":"府中市","address":"東京都府中市寿町1丁目10-1","lat":35.67568075,"lon":139.47889664},{"name":"多磨霊園正門入口","province":"東京都","city":"府中市","address":"東京都府中市紅葉丘2丁目7-4","lat":35.67707862,"lon":139.51239929},{"name":"中央文化センター前","province":"東京都","city":"府中市","address":"東京都府中市府中町2丁目25-18","lat":35.6761169,"lon":139.48240745},{"name":"市民球場前","province":"東京都","city":"府中市","address":"東京都府中市寿町2丁目18","lat":35.6758973,"lon":139.47501083},{"name":"合同庁舎入口","province":"東京都","city":"府中市","address":"東京都府中市宮西町2丁目11-9","lat":35.67072849,"lon":139.47691642},{"name":"紅葉丘二丁目","province":"東京都","city":"府中市","address":"東京都府中市紅葉丘1丁目39-13","lat":35.67713424,"lon":139.51478798},{"name":"ルミエール府中東","province":"東京都","city":"府中市","address":"東京都府中市府中町2丁目21-4","lat":35.67513651,"lon":139.48454064},{"name":"晴見二丁目","province":"東京都","city":"府中市","address":"東京都府中市晴見町2丁目24","lat":35.67883302,"lon":139.47264425},{"name":"多磨駐在所前","province":"東京都","city":"府中市","address":"東京都府中市紅葉丘2丁目29","lat":35.67767581,"lon":139.51399636},{"name":"府中農業高校北角","province":"東京都","city":"府中市","address":"東京都府中市幸町1丁目1-21","lat":35.67817492,"lon":139.47979091},{"name":"府中宮町二丁目","province":"東京都","city":"府中市","address":"東京都府中市宮町1丁目25","lat":35.6702259,"lon":139.48185772},{"name":"府中駅北口","province":"東京都","city":"府中市","address":"東京都府中市府中町1丁目12-7","lat":35.67342827,"lon":139.48046048},{"name":"多磨霊園駅北","province":"東京都","city":"府中市","address":"東京都府中市若松町1丁目23-11","lat":35.66746286,"lon":139.50426418},{"name":"府中住吉町五丁目","province":"東京都","city":"府中市","address":"東京都府中市住吉町2丁目28-16","lat":35.65719615,"lon":139.45681022},{"name":"南町交番北","province":"東京都","city":"府中市","address":"東京都府中市南町4丁目9-11","lat":35.65768238,"lon":139.46402623},{"name":"新町一丁目東","province":"東京都","city":"府中市","address":"東京都府中市新町1丁目67-9","lat":35.68771019,"lon":139.49038965},{"name":"福祉センター前","province":"東京都","city":"府中市","address":"東京都府中市南町5丁目38","lat":35.65488833,"lon":139.4677871},{"name":"警察学校前","province":"東京都","city":"府中市","address":"東京都府中市朝日町3丁目15-1","lat":35.66842156,"lon":139.51959904},{"name":"府中メディカルプラザ入口","province":"東京都","city":"府中市","address":"東京都府中市武蔵台2丁目17-1","lat":35.69399492,"lon":139.46255845},{"name":"府中美好町三丁目東","province":"東京都","city":"府中市","address":"東京都府中市美好町3丁目3-9","lat":35.67069217,"lon":139.46823935},{"name":"東郷寺通り","province":"東京都","city":"府中市","address":"東京都府中市清水が丘3丁目23-1","lat":35.66690459,"lon":139.50422809},{"name":"大国魂神社東","province":"東京都","city":"府中市","address":"東京都府中市宮町2丁目2-18","lat":35.66973425,"lon":139.4803884},{"name":"中央文化センター西","province":"東京都","city":"府中市","address":"東京都府中市府中町1丁目27-14","lat":35.67542527,"lon":139.48096592},{"name":"府中朝日フットボールパーク北","province":"東京都","city":"府中市","address":"東京都府中市朝日町3丁目7","lat":35.67338776,"lon":139.52490119},{"name":"多磨駅入口","province":"東京都","city":"府中市","address":"東京都府中市朝日町2丁目27-12","lat":35.67634277,"lon":139.51843772},{"name":"府中武蔵台浄水所","province":"東京都","city":"府中市","address":"東京都府中市武蔵台2丁目7","lat":35.68899266,"lon":139.46004218},{"name":"府中南町浄水所","province":"東京都","city":"府中市","address":"東京都府中市南町1丁目50","lat":35.65857132,"lon":139.47090616},{"name":"都立武蔵野公園","province":"東京都","city":"府中市","address":"東京都府中市多磨町3丁目2","lat":35.68861916,"lon":139.51875946},{"name":"多摩府中保健所","province":"東京都","city":"府中市","address":"東京都府中市美好町2丁目51-1","lat":35.6774275,"lon":139.46746696},{"name":"航空自衛隊府中基地","province":"東京都","city":"府中市","address":"府中市浅間町1-5-5","lat":35.67353,"lon":139.4953},{"name":"第七機動隊","province":"東京都","city":"府中市","address":"府中市朝日町3-16-8","lat":35.66546,"lon":139.5212},{"name":"府中消防署","province":"東京都","city":"府中市","address":"府中市寿町1-5","lat":35.67358,"lon":139.4784},{"name":"アルフレッサ（株）調布支店","province":"東京都","city":"府中市","address":"府中市西原町1-5-1","lat":35.68195,"lon":139.4604},{"name":"府中市役所前","province":"東京都","city":"府中市","address":"東京都府中市宮西町2丁目13-4","lat":35.66980637,"lon":139.47699422},{"name":"大国魂神社前","province":"東京都","city":"府中市","address":"東京都府中市宮西町2丁目2-12","lat":35.67026748,"lon":139.47881351},{"name":"府中寿町三丁目","province":"東京都","city":"府中市","address":"東京都府中市寿町2丁目4-42","lat":35.67370589,"lon":139.47539976},{"name":"府中寿町一丁目","province":"東京都","city":"府中市","address":"東京都府中市寿町1丁目1-32","lat":35.67307272,"lon":139.47892173},{"name":"大国魂神社西","province":"東京都","city":"府中市","address":"東京都府中市本町1丁目10-1","lat":35.66819823,"lon":139.4773359},{"name":"浅間町","province":"東京都","city":"府中市","address":"東京都府中市新町2丁目59","lat":35.68528003,"lon":139.49586985},{"name":"府中警察署前","province":"東京都","city":"府中市","address":"東京都府中市府中町1丁目10-5","lat":35.67365049,"lon":139.48157705},{"name":"けやき並木北","province":"東京都","city":"府中市","address":"東京都府中市寿町1丁目10-1","lat":35.67568075,"lon":139.47889664},{"name":"多磨霊園正門入口","province":"東京都","city":"府中市","address":"東京都府中市紅葉丘2丁目7-4","lat":35.67707862,"lon":139.51239929},{"name":"中央文化センター前","province":"東京都","city":"府中市","address":"東京都府中市府中町2丁目25-18","lat":35.6761169,"lon":139.48240745},{"name":"市民球場前","province":"東京都","city":"府中市","address":"東京都府中市寿町2丁目18","lat":35.6758973,"lon":139.47501083},{"name":"合同庁舎入口","province":"東京都","city":"府中市","address":"東京都府中市宮西町2丁目11-9","lat":35.67072849,"lon":139.47691642},{"name":"紅葉丘二丁目","province":"東京都","city":"府中市","address":"東京都府中市紅葉丘1丁目39-13","lat":35.67713424,"lon":139.51478798},{"name":"ルミエール府中東","province":"東京都","city":"府中市","address":"東京都府中市府中町2丁目21-4","lat":35.67513651,"lon":139.48454064},{"name":"晴見二丁目","province":"東京都","city":"府中市","address":"東京都府中市晴見町2丁目24","lat":35.67883302,"lon":139.47264425},{"name":"多磨駐在所前","province":"東京都","city":"府中市","address":"東京都府中市紅葉丘2丁目29","lat":35.67767581,"lon":139.51399636},{"name":"府中農業高校北角","province":"東京都","city":"府中市","address":"東京都府中市幸町1丁目1-21","lat":35.67817492,"lon":139.47979091},{"name":"府中宮町二丁目","province":"東京都","city":"府中市","address":"東京都府中市宮町1丁目25","lat":35.6702259,"lon":139.48185772},{"name":"府中駅北口","province":"東京都","city":"府中市","address":"東京都府中市府中町1丁目12-7","lat":35.67342827,"lon":139.48046048},{"name":"多磨霊園駅北","province":"東京都","city":"府中市","address":"東京都府中市若松町1丁目23-11","lat":35.66746286,"lon":139.50426418},{"name":"府中住吉町五丁目","province":"東京都","city":"府中市","address":"東京都府中市住吉町2丁目28-16","lat":35.65719615,"lon":139.45681022},{"name":"南町交番北","province":"東京都","city":"府中市","address":"東京都府中市南町4丁目9-11","lat":35.65768238,"lon":139.46402623},{"name":"新町一丁目東","province":"東京都","city":"府中市","address":"東京都府中市新町1丁目67-9","lat":35.68771019,"lon":139.49038965},{"name":"福祉センター前","province":"東京都","city":"府中市","address":"東京都府中市南町5丁目38","lat":35.65488833,"lon":139.4677871},{"name":"警察学校前","province":"東京都","city":"府中市","address":"東京都府中市朝日町3丁目15-1","lat":35.66842156,"lon":139.51959904},{"name":"府中メディカルプラザ入口","province":"東京都","city":"府中市","address":"東京都府中市武蔵台2丁目17-1","lat":35.69399492,"lon":139.46255845},{"name":"府中美好町三丁目東","province":"東京都","city":"府中市","address":"東京都府中市美好町3丁目3-9","lat":35.67069217,"lon":139.46823935},{"name":"東郷寺通り","province":"東京都","city":"府中市","address":"東京都府中市清水が丘3丁目23-1","lat":35.66690459,"lon":139.50422809},{"name":"大国魂神社東","province":"東京都","city":"府中市","address":"東京都府中市宮町2丁目2-18","lat":35.66973425,"lon":139.4803884},{"name":"中央文化センター西","province":"東京都","city":"府中市","address":"東京都府中市府中町1丁目27-14","lat":35.67542527,"lon":139.48096592},{"name":"府中朝日フットボールパーク北","province":"東京都","city":"府中市","address":"東京都府中市朝日町3丁目7","lat":35.67338776,"lon":139.52490119},{"name":"多磨駅入口","province":"東京都","city":"府中市","address":"東京都府中市朝日町2丁目27-12","lat":35.67634277,"lon":139.51843772},{"name":"府中武蔵台浄水所","province":"東京都","city":"府中市","address":"東京都府中市武蔵台2丁目7","lat":35.68899266,"lon":139.46004218},{"name":"府中南町浄水所","province":"東京都","city":"府中市","address":"東京都府中市南町1丁目50","lat":35.65857132,"lon":139.47090616},{"name":"都立武蔵野公園","province":"東京都","city":"府中市","address":"東京都府中市多磨町3丁目2","lat":35.68861916,"lon":139.51875946},{"name":"多摩府中保健所","province":"東京都","city":"府中市","address":"東京都府中市美好町2丁目51-1","lat":35.6774275,"lon":139.46746696},{"name":"航空自衛隊府中基地","province":"東京都","city":"府中市","address":"府中市浅間町1-5-5","lat":35.67353,"lon":139.4953},{"name":"第七機動隊","province":"東京都","city":"府中市","address":"府中市朝日町3-16-8","lat":35.66546,"lon":139.5212},{"name":"府中消防署","province":"東京都","city":"府中市","address":"府中市寿町1-5","lat":35.67358,"lon":139.4784},{"name":"アルフレッサ（株）調布支店","province":"東京都","city":"府中市","address":"府中市西原町1-5-1","lat":35.68195,"lon":139.4604}]}