{"keyword":"移転","data":[{"name":"西友　府中四谷店","province":"東京都","city":"府中市","address":"東京都府中市四谷5丁目23-12","lat":35.6673919,"lon":139.4372146},{"name":"西友　府中四谷店","province":"東京都","city":"府中市","address":"東京都府中市四谷5丁目23-12","lat":35.6673919,"lon":139.4372146},{"name":"西友　府中四谷店","province":"東京都","city":"府中市","address":"東京都府中市四谷5丁目23-12","lat":35.6673919,"lon":139.4372146},{"name":"西友　府中四谷店","province":"東京都","city":"府中市","address":"東京都府中市四谷5丁目23-12","lat":35.6673919,"lon":139.4372146},{"name":"西友　府中四谷店","province":"東京都","city":"府中市","address":"東京都府中市四谷5丁目23-12","lat":35.6673919,"lon":139.4372146},{"name":"西友　府中四谷店","province":"東京都","city":"府中市","address":"東京都府中市四谷5丁目23-12","lat":35.6673919,"lon":139.4372146},{"name":"西友　府中四谷店","province":"東京都","city":"府中市","address":"東京都府中市四谷5丁目23-12","lat":35.6673919,"lon":139.4372146},{"name":"西友　府中四谷店","province":"東京都","city":"府中市","address":"東京都府中市四谷5丁目23-12","lat":35.6673919,"lon":139.4372146},{"name":"西友　府中四谷店","province":"東京都","city":"府中市","address":"東京都府中市四谷5丁目23-12","lat":35.6673919,"lon":139.4372146},{"name":"西友　府中四谷店","province":"東京都","city":"府中市","address":"東京都府中市四谷5丁目23-12","lat":35.6673919,"lon":139.4372146},{"name":"西友　府中四谷店","province":"東京都","city":"府中市","address":"東京都府中市四谷5丁目23-12","lat":35.6673919,"lon":139.4372146}]}