{"keyword":"脳","data":[{"name":"府中市立心身障害者福祉センター","province":"東京都","city":"府中市","address":"東京都府中市南町5丁目38","lat":35.65488833,"lon":139.4677871},{"name":"社会福祉法人足立邦栄会障害者支援施設みずき","province":"東京都","city":"府中市","address":"東京都府中市朝日町3丁目17-5","lat":35.66751066,"lon":139.52245442},{"name":"社会福祉法人ひばり福祉会集いの家","province":"東京都","city":"府中市","address":"東京都府中市南町1丁目45-1","lat":35.65753254,"lon":139.47045067},{"name":"社会福祉法人ひばり福祉会作業所スクラム","province":"東京都","city":"府中市","address":"東京都府中市分梅町5丁目25-1","lat":35.66116255,"lon":139.46369003},{"name":"社会福祉法人ひばり福祉会作業所スクラム分室","province":"東京都","city":"府中市","address":"東京都府中市分梅町3丁目34-17","lat":35.66734797,"lon":139.46209276},{"name":"社会福祉法人あけぼの福祉会府中共同作業所","province":"東京都","city":"府中市","address":"東京都府中市寿町3丁目3-6","lat":35.6747474,"lon":139.47359432},{"name":"特定非営利活動法人プロジェクツけやきのもり","province":"東京都","city":"府中市","address":"東京都府中市住吉町1丁目60-10","lat":35.66053198,"lon":139.46012926},{"name":"介護老人保健施設ファミリート府中","province":"東京都","city":"府中市","address":"東京都府中市若松町2丁目4-4","lat":35.67120392,"lon":139.49828125},{"name":"医療法人社団療心会綜合在宅支援センターいぶき","province":"東京都","city":"府中市","address":"東京都府中市日新町5丁目53-1","lat":35.6698665,"lon":139.44011959},{"name":"医療法人社団清新会介護老人保健施設ピースプラザ","province":"東京都","city":"府中市","address":"東京都府中市片町2丁目16-1","lat":35.66982286,"lon":139.46992534},{"name":"地域生活支援センターふらっと","province":"東京都","city":"府中市","address":"東京都府中市清水が丘3丁目23-17","lat":35.6663102,"lon":139.50347262},{"name":"LITALICOワークス府中","province":"東京都","city":"府中市","address":"東京都府中市宮町1丁目40","lat":35.67016475,"lon":139.48017451}]}