{"keyword":"自転車","data":[{"name":"東府中駅南自転車駐車場","province":"東京都","city":"府中市","address":"東京都府中市清水が丘1丁目3","lat":35.66869578,"lon":139.49371785},{"name":"西府駅北自転車駐車場","province":"東京都","city":"府中市","address":"東京都府中市本宿町1丁目46-6","lat":35.67077251,"lon":139.45808188},{"name":"武蔵野台駅北東臨時自転車駐車場","province":"東京都","city":"府中市","address":"東京都府中市白糸台5丁目3","lat":35.66414966,"lon":139.51322468},{"name":"多磨霊園駅北特別臨時自転車駐車場","province":"東京都","city":"府中市","address":"東京都府中市白糸台1丁目2-19","lat":35.66973205,"lon":139.5051668},{"name":"中河原駅特別臨時自転車駐車場","province":"東京都","city":"府中市","address":"東京都府中市住吉町4丁目48-19","lat":35.66171776,"lon":139.45264933},{"name":"北府中駅特別臨時自転車駐車場","province":"東京都","city":"府中市","address":"東京都府中市晴見町2丁目24","lat":35.67883302,"lon":139.47264425},{"name":"是政駅西臨時自転車駐車場","province":"東京都","city":"府中市","address":"東京都府中市是政5丁目18-19","lat":35.65568316,"lon":139.48573281},{"name":"武蔵野台駅北第２自転車駐車場","province":"東京都","city":"府中市","address":"東京都府中市白糸台3丁目50-14","lat":35.66501071,"lon":139.51454677},{"name":"府中駅南自転車駐車場","province":"東京都","city":"府中市","address":"東京都府中市宮町1丁目100","lat":35.67197841,"lon":139.47949673},{"name":"府中駅東自転車駐車場","province":"東京都","city":"府中市","address":"東京都府中市宮町1丁目17-5","lat":35.67180072,"lon":139.48204375},{"name":"府中駅南第２自転車駐車場","province":"東京都","city":"府中市","address":"東京都府中市宮町1丁目11-3","lat":35.67096746,"lon":139.48104941},{"name":"府中本町駅第１自転車駐車場","province":"東京都","city":"府中市","address":"東京都府中市本町2丁目","lat":35.6658012,"lon":139.4754639},{"name":"府中本町駅第２自転車駐車場","province":"東京都","city":"府中市","address":"東京都府中市本町2丁目","lat":35.6658012,"lon":139.4754639},{"name":"中河原駅東自転車駐車場","province":"東京都","city":"府中市","address":"東京都府中市住吉町1丁目81-34","lat":35.65907936,"lon":139.46019597},{"name":"中河原駅北口広場一時自転車駐車場","province":"東京都","city":"府中市","address":"東京都府中市住吉町1丁目84-1","lat":35.66029029,"lon":139.45842663},{"name":"分倍河原駅北第２自転車駐車場","province":"東京都","city":"府中市","address":"東京都府中市美好町3丁目2","lat":35.66977006,"lon":139.46851435},{"name":"西府駅北第２自転車駐車場","province":"東京都","city":"府中市","address":"東京都府中市西府町1丁目51-13","lat":35.67255002,"lon":139.45635141},{"name":"北府中駅自転車駐車場","province":"東京都","city":"府中市","address":"東京都府中市晴見町2丁目9-15","lat":35.68038284,"lon":139.47243587},{"name":"多磨駅東口自転車駐車場","province":"東京都","city":"府中市","address":"東京都府中市朝日町2丁目26","lat":35.67656494,"lon":139.51758222}]}