{"keyword":"葬儀","data":[{"name":"株式会社愛礼儀典","province":"東京都","city":"府中市","address":"東京都府中市西府町5丁目6-6","lat":35.67776871,"lon":139.45120446},{"name":"聖和葬儀社","province":"東京都","city":"府中市","address":"東京都府中市住吉町3丁目21-4","lat":35.66368712,"lon":139.45676278},{"name":"株式会社青葉葬儀社","province":"東京都","city":"府中市","address":"東京都府中市晴見町1丁目15-20","lat":35.68048574,"lon":139.47838816},{"name":"ファミリー葬祭・府中","province":"東京都","city":"府中市","address":"東京都府中市栄町1丁目11-26","lat":35.68869046,"lon":139.48334298},{"name":"街の葬儀屋さん株式会社アーネスト","province":"東京都","city":"府中市","address":"東京都府中市住吉町1丁目44-1","lat":35.6606597,"lon":139.45828497},{"name":"JAマインズ メモリア","province":"東京都","city":"府中市","address":"東京都府中市白糸台1丁目14-14","lat":35.66874057,"lon":139.50796937},{"name":"（株）金子式典","province":"東京都","city":"府中市","address":"東京都府中市片町2丁目3-1","lat":35.67019511,"lon":139.47306396},{"name":"（株）愛礼儀典","province":"東京都","city":"府中市","address":"東京都府中市西府町5丁目6-6","lat":35.67776871,"lon":139.45120446},{"name":"（株）三晃","province":"東京都","city":"府中市","address":"東京都府中市緑町2丁目20-10","lat":35.67342014,"lon":139.48922919},{"name":"（株）あさひセレモニー","province":"東京都","city":"府中市","address":"東京都府中市四谷3丁目21-8","lat":35.66170093,"lon":139.4464471},{"name":"（有）欅式典","province":"東京都","city":"府中市","address":"東京都府中市紅葉丘1丁目34-3","lat":35.67611483,"lon":139.51206879},{"name":"愛礼儀典","province":"東京都","city":"府中市","address":"東京都府中市西府町5丁目6","lat":35.67751043,"lon":139.45182663},{"name":"青葉葬儀社","province":"東京都","city":"府中市","address":"東京都府中市晴見町1丁目15-15","lat":35.68064683,"lon":139.47834927},{"name":"あさひセレモニー","province":"東京都","city":"府中市","address":"東京都府中市四谷3丁目21","lat":35.66172871,"lon":139.4465082},{"name":"アーネスト","province":"東京都","city":"府中市","address":"東京都府中市住吉町1丁目44","lat":35.66050139,"lon":139.45887382},{"name":"いせや","province":"東京都","city":"府中市","address":"東京都府中市天神町4丁目3","lat":35.6816776,"lon":139.49317855},{"name":"ＮＰＯ家族葬の会","province":"東京都","city":"府中市","address":"東京都府中市押立町4丁目14","lat":35.65452901,"lon":139.51502798},{"name":"遠藤葬祭","province":"東京都","city":"府中市","address":"東京都府中市寿町3丁目8","lat":35.6757695,"lon":139.4735054},{"name":"沖田ダイイチ","province":"東京都","city":"府中市","address":"東京都府中市紅葉丘1丁目31","lat":35.67490944,"lon":139.512716},{"name":"金子式典","province":"東京都","city":"府中市","address":"東京都府中市片町2丁目3","lat":35.670159,"lon":139.47280843},{"name":"京王メモリアル","province":"東京都","city":"府中市","address":"東京都府中市寿町2丁目1-28","lat":35.67285879,"lon":139.47630528},{"name":"欅式典","province":"東京都","city":"府中市","address":"東京都府中市紅葉丘1丁目34","lat":35.6757871,"lon":139.5121188},{"name":"三晃","province":"東京都","city":"府中市","address":"東京都府中市緑町2丁目20","lat":35.67315906,"lon":139.48910421},{"name":"三和式典","province":"東京都","city":"府中市","address":"東京都府中市新町1丁目65","lat":35.68670749,"lon":139.48925367},{"name":"ＪＡマインズメモリア","province":"東京都","city":"府中市","address":"東京都府中市白糸台1丁目14-14","lat":35.66874057,"lon":139.50796937},{"name":"聖和","province":"東京都","city":"府中市","address":"東京都府中市住吉町3丁目21","lat":35.66385931,"lon":139.45662667},{"name":"多摩中央葬祭","province":"東京都","city":"府中市","address":"東京都府中市武蔵台2丁目18","lat":35.69427547,"lon":139.46361112},{"name":"西村葬祭","province":"東京都","city":"府中市","address":"東京都府中市是政5丁目7-1","lat":35.65668316,"lon":139.48851312},{"name":"日冠","province":"東京都","city":"府中市","address":"東京都府中市栄町2丁目28","lat":35.69045685,"lon":139.48000985},{"name":"ひふみプランニング","province":"東京都","city":"府中市","address":"東京都府中市北山町3丁目23","lat":35.68863701,"lon":139.45518983},{"name":"ひまわりコーポレーション","province":"東京都","city":"府中市","address":"東京都府中市分梅町4丁目1","lat":35.66467049,"lon":139.46304832},{"name":"富士の華","province":"東京都","city":"府中市","address":"東京都府中市幸町1丁目2","lat":35.67838047,"lon":139.48019087},{"name":"府中葬儀社","province":"東京都","city":"府中市","address":"東京都府中市宮町2丁目16","lat":35.66994537,"lon":139.48147998},{"name":"プラス","province":"東京都","city":"府中市","address":"東京都府中市四谷3丁目21","lat":35.66172871,"lon":139.4465082},{"name":"メモリード","province":"東京都","city":"府中市","address":"東京都府中市府中町2丁目6","lat":35.67222293,"lon":139.48316587},{"name":"ゆいまーる","province":"東京都","city":"府中市","address":"東京都府中市是政4丁目28","lat":35.65588079,"lon":139.49573763},{"name":"リーフ","province":"東京都","city":"府中市","address":"東京都府中市清水が丘2丁目1","lat":35.66761261,"lon":139.49496499}]}