{"keyword":"認可","data":[{"name":"やまびこ保育園","province":"東京都","city":"府中市","address":"府中市多磨町2-56","lat":35.68602,"lon":139.52182},{"name":"わらしこ第２保育園","province":"東京都","city":"府中市","address":"府中市紅葉丘1-1-2","lat":35.67321,"lon":139.50639},{"name":"さくらんぼ保育園","province":"東京都","city":"府中市","address":"府中市紅葉丘1-28-1","lat":35.67333,"lon":139.51093},{"name":"まなびの森保育園東府中","province":"東京都","city":"府中市","address":"府中市若松町1-5-19","lat":35.6689,"lon":139.49759},{"name":"東保育所","province":"東京都","city":"府中市","address":"府中市若松町3-21-4","lat":35.67426,"lon":139.50333},{"name":"わらしこ保育園","province":"東京都","city":"府中市","address":"府中市若松町4-27-6","lat":35.67622,"lon":139.5079},{"name":"キッズエイド武蔵保育園","province":"東京都","city":"府中市","address":"府中市若松町4-9-12","lat":35.67612,"lon":139.49927},{"name":"府中緑町・学びの保育園","province":"東京都","city":"府中市","address":"府中市緑町1-6-3","lat":35.67147,"lon":139.48555},{"name":"よつば保育園","province":"東京都","city":"府中市","address":"府中市緑町2-31-8","lat":35.67577,"lon":139.48978},{"name":"そよかぜハーモニー保育園","province":"東京都","city":"府中市","address":"府中市緑町3-11-5","lat":35.6708,"lon":139.49181},{"name":"白糸さくらんぼ保育園","province":"東京都","city":"府中市","address":"府中市白糸台3-36-2","lat":35.66843,"lon":139.51828},{"name":"ふちしらコスモ保育園","province":"東京都","city":"府中市","address":"府中市白糸台3-44-23","lat":35.66416,"lon":139.51808},{"name":"山手こひつじ保育園","province":"東京都","city":"府中市","address":"府中市白糸台4-13-8","lat":35.66452,"lon":139.51178},{"name":"山手保育園","province":"東京都","city":"府中市","address":"府中市白糸台5-4-9","lat":35.6642,"lon":139.51408},{"name":"押立保育園","province":"東京都","city":"府中市","address":"府中市押立町1-27-1","lat":35.66016,"lon":139.51289},{"name":"押立第二保育園","province":"東京都","city":"府中市","address":"府中市押立町2-15-3","lat":35.65904,"lon":139.5132},{"name":"ソラスト府中保育園","province":"東京都","city":"府中市","address":"府中市小柳町2-11-2TENSBUILDING3階","lat":35.66229,"lon":139.50204},{"name":"小柳保育所","province":"東京都","city":"府中市","address":"府中市小柳町2-34-2","lat":35.66079,"lon":139.50105},{"name":"是政保育園","province":"東京都","city":"府中市","address":"府中市是政3-6","lat":35.65994,"lon":139.48849},{"name":"にじのいろ保育園","province":"東京都","city":"府中市","address":"府中市是政5-21-47","lat":35.6567,"lon":139.48393},{"name":"キッズルームこっこ保育園","province":"東京都","city":"府中市","address":"府中市清水が丘3-21-25","lat":35.66698,"lon":139.50388},{"name":"太陽の子清水が丘三丁目保育園","province":"東京都","city":"府中市","address":"府中市清水が丘3-23-13","lat":35.66653,"lon":139.50374},{"name":"八幡保育所","province":"東京都","city":"府中市","address":"府中市八幡町1-12-12","lat":35.66898,"lon":139.48497},{"name":"府中愛児園","province":"東京都","city":"府中市","address":"府中市八幡町3-18","lat":35.66765,"lon":139.49217},{"name":"高安寺保育園","province":"東京都","city":"府中市","address":"府中市片町2-4-1","lat":35.66948,"lon":139.47342},{"name":"アスク府中片町保育園","province":"東京都","city":"府中市","address":"府中市片町3-3-28","lat":35.66734,"lon":139.47318},{"name":"府中めぐみ保育園","province":"東京都","city":"府中市","address":"府中市宮町1-21-2","lat":35.67122,"lon":139.48212},{"name":"このめ保育園","province":"東京都","city":"府中市","address":"府中市宮町1-33-40","lat":35.67129,"lon":139.48349},{"name":"南分倍保育園","province":"東京都","city":"府中市","address":"府中市南町2-41-39","lat":35.65858,"lon":139.46877},{"name":"光明府中南保育園","province":"東京都","city":"府中市","address":"府中市本町2-29-11","lat":35.66374,"lon":139.47504},{"name":"アスク府中本町保育園","province":"東京都","city":"府中市","address":"府中市本町2-35-4","lat":35.66492,"lon":139.47693},{"name":"本町保育所","province":"東京都","city":"府中市","address":"府中市本町3-19-3","lat":35.66446,"lon":139.47131},{"name":"西府の森保育園","province":"東京都","city":"府中市","address":"府中市本宿町1-46-7","lat":35.67049,"lon":139.45921},{"name":"光明高倉保育園","province":"東京都","city":"府中市","address":"府中市分梅町1-31","lat":35.66677,"lon":139.46719},{"name":"府中保育園","province":"東京都","city":"府中市","address":"府中市分梅町3-19","lat":35.66643,"lon":139.46082},{"name":"キッズランド府中保育園","province":"東京都","city":"府中市","address":"府中市住吉町2-1-1","lat":35.65945,"lon":139.45822},{"name":"住吉保育所","province":"東京都","city":"府中市","address":"府中市住吉町2-30-47","lat":35.65567,"lon":139.45692},{"name":"府中中河原雲母保育園","province":"東京都","city":"府中市","address":"府中市住吉町2-9-2","lat":35.65856,"lon":139.45918},{"name":"ヴィラまなびの森保育園住吉町","province":"東京都","city":"府中市","address":"府中市住吉町3-65-47","lat":35.66283,"lon":139.45302},{"name":"まなびの森保育園中河原","province":"東京都","city":"府中市","address":"府中市住吉町4-45-3","lat":35.66124,"lon":139.45262},{"name":"明桜保育園","province":"東京都","city":"府中市","address":"府中市四谷2-31-1","lat":35.66582,"lon":139.44862},{"name":"第２府中保育園","province":"東京都","city":"府中市","address":"府中市日新町5-51-1","lat":35.66967,"lon":139.4409},{"name":"北山保育所","province":"東京都","city":"府中市","address":"府中市北山町3-27-9","lat":35.68992,"lon":139.45546},{"name":"千春保育園","province":"東京都","city":"府中市","address":"府中市武蔵台3―9―4","lat":35.6951,"lon":139.46246},{"name":"分倍保育園","province":"東京都","city":"府中市","address":"府中市美好町2-32-7","lat":35.67606,"lon":139.46704},{"name":"美好保育所","province":"東京都","city":"府中市","address":"府中市美好町2-4","lat":35.67264,"lon":139.46678},{"name":"トレジャ―キッズぶばい保育園","province":"東京都","city":"府中市","address":"府中市美好町3-11-19","lat":35.67139,"lon":139.46654},{"name":"ラフ・クルー分倍河原保育園","province":"東京都","city":"府中市","address":"府中市美好町3-22-2","lat":35.67128,"lon":139.4633},{"name":"西保育所","province":"東京都","city":"府中市","address":"府中市美好町3-23-2","lat":35.67062,"lon":139.46286},{"name":"北保育所","province":"東京都","city":"府中市","address":"府中市新町1-64-1","lat":35.6871,"lon":139.48895},{"name":"めぐみ第二保育園","province":"東京都","city":"府中市","address":"府中市新町1-64-3","lat":35.6871,"lon":139.48895},{"name":"第２キッズランド府中保育園","province":"東京都","city":"府中市","address":"府中市寿町2-4-42","lat":35.67373,"lon":139.47565},{"name":"晴見保育園","province":"東京都","city":"府中市","address":"府中市晴見町1-13-5","lat":35.6804,"lon":139.47935},{"name":"中央保育所","province":"東京都","city":"府中市","address":"府中市晴見町2-7-17","lat":35.67983,"lon":139.47365},{"name":"四谷保育所","province":"東京都","city":"府中市","address":"府中市四谷5-3-1","lat":35.66475,"lon":139.44295},{"name":"美好保育所","province":"東京都","city":"府中市","address":"府中市美好町2-4","lat":35.67918063,"lon":139.4661707},{"name":"西府保育所","province":"東京都","city":"府中市","address":"府中市西府町3-32-12","lat":35.67768,"lon":139.45592},{"name":"キッズエイド武蔵保育園","province":"東京都","city":"府中市","address":"府中市若松町4-9-12","lat":35.67613,"lon":139.49927},{"name":"ソラスト府中保育園","province":"東京都","city":"府中市","address":"府中市小柳町2-11-2TENSBUILDING3階","lat":35.66229,"lon":139.50205},{"name":"是政保育園","province":"東京都","city":"府中市","address":"府中市是政3-6","lat":35.65994,"lon":139.4885},{"name":"キッズルームこっこ保育園","province":"東京都","city":"府中市","address":"府中市清水が丘3-21-25","lat":35.66699,"lon":139.50388},{"name":"アスク府中本町保育園","province":"東京都","city":"府中市","address":"府中市本町2-35-4","lat":35.66493,"lon":139.47693},{"name":"明桜保育園","province":"東京都","city":"府中市","address":"府中市四谷2-31-1","lat":35.66583,"lon":139.44862},{"name":"晴見保育園","province":"東京都","city":"府中市","address":"府中市晴見町1-13-5","lat":35.68041,"lon":139.47936},{"name":"西府の森保育園","province":"東京都","city":"府中市","address":"府中市本宿町1-46-7","lat":35.67117,"lon":139.46002}]}