{"keyword":"連絡","data":[{"name":"府中市地域包括支援センター泉苑","province":"東京都","city":"府中市","address":"府中市武蔵台1-10","lat":35.687572,"lon":139.464539},{"name":"府中市地域包括支援センターよつや苑","province":"東京都","city":"府中市","address":"府中市四谷3-66","lat":35.659973,"lon":139.445938},{"name":"府中市地域包括支援センターあさひ苑","province":"東京都","city":"府中市","address":"府中市朝日町3-17-1","lat":35.667866,"lon":139.52301},{"name":"府中市地域包括支援センター安立園","province":"東京都","city":"府中市","address":"府中市晴見町1-11-2","lat":35.679768,"lon":139.479462},{"name":"府中市地域包括支援センターしみずがおか","province":"東京都","city":"府中市","address":"府中市清水が丘1-3","lat":35.668827,"lon":139.493835},{"name":"府中市地域包括支援センターかたまち","province":"東京都","city":"府中市","address":"府中市片町2-14-5","lat":35.669781,"lon":139.470657},{"name":"府中市地域包括支援センターしんまち","province":"東京都","city":"府中市","address":"府中市新町1-67-2-103","lat":35.687817,"lon":139.490509},{"name":"府中市地域包括支援センター緑苑","province":"東京都","city":"府中市","address":"府中市緑町1-39-3","lat":35.675194,"lon":139.488312},{"name":"府中市地域包括支援センターにしふ","province":"東京都","city":"府中市","address":"府中市西府町2-24-6","lat":35.674976,"lon":139.454041},{"name":"府中市地域包括支援センターこれまさ","province":"東京都","city":"府中市","address":"府中市是政2-38-1","lat":35.659153,"lon":139.499008},{"name":"府中市地域包括支援センターみなみ町","province":"東京都","city":"府中市","address":"府中市南町2-24-2","lat":35.658436,"lon":139.465698},{"name":"府中市福祉保健部高齢者支援課","province":"東京都","city":"府中市","address":"府中市宮西町2-24","lat":35.668858,"lon":139.477768},{"name":"府中市消費生活センター","province":"東京都","city":"府中市","address":"府中市宮町1-100ル・シーニュ6階市民活動支援センター「プラッツ」内","lat":35.67123,"lon":139.481461}]}