{"keyword":"食堂","data":[{"name":"あおばこどもの居場所","province":"東京都","city":"府中市","address":"東京都府中市紅葉丘1丁目35","lat":35.67608155,"lon":139.51360755},{"name":"グレイスキッチン","province":"東京都","city":"府中市","address":"東京都府中市白糸台4丁目2-8","lat":35.66549933,"lon":139.50903882},{"name":"子ども食堂・なな","province":"東京都","city":"府中市","address":"東京都府中市武蔵台2丁目2","lat":35.68866772,"lon":139.46109766},{"name":"こどもの居場所作り＠府中","province":"東京都","city":"府中市","address":"東京都府中市片町2丁目2","lat":35.66908969,"lon":139.47353896},{"name":"新町こどもカレー食堂","province":"東京都","city":"府中市","address":"東京都府中市新町3丁目1","lat":35.69080143,"lon":139.48736756},{"name":"とうきょうどけん子ども食堂","province":"東京都","city":"府中市","address":"東京都府中市晴見町2丁目15-5","lat":35.68168825,"lon":139.4727608},{"name":"にっころ食堂","province":"東京都","city":"府中市","address":"東京都府中市日新町4丁目46-7","lat":35.67052203,"lon":139.4417361},{"name":"ひがしふちゅう駅前こども食堂","province":"東京都","city":"府中市","address":"東京都府中市清水が丘1丁目2","lat":35.66909296,"lon":139.49406224},{"name":"みんなの食堂","province":"東京都","city":"府中市","address":"東京都府中市宮町1丁目100","lat":35.67197841,"lon":139.47949673},{"name":"ラ・メンサ・デリ・アンジェリ 天使の食卓","province":"東京都","city":"府中市","address":"東京都府中市府中町1丁目40-11","lat":35.67745835,"lon":139.47977983}]}