{"keyword":"館","data":[{"name":"紅葉丘児童館","province":"東京都","city":"府中市","address":"府中市紅葉丘2-1","lat":35.676717,"lon":139.509061},{"name":"白糸台児童館","province":"東京都","city":"府中市","address":"府中市白糸台1-60","lat":35.667005,"lon":139.506186},{"name":"押立児童館","province":"東京都","city":"府中市","address":"府中市押立町5-4","lat":35.653543,"lon":139.518136},{"name":"是政児童館","province":"東京都","city":"府中市","address":"府中市是政2-20","lat":35.660933,"lon":139.495576},{"name":"片町児童館","province":"東京都","city":"府中市","address":"府中市片町2-17","lat":35.670651,"lon":139.469381},{"name":"西府児童館","province":"東京都","city":"府中市","address":"府中市西府町1-60","lat":35.670967,"lon":139.456446},{"name":"住吉児童館","province":"東京都","city":"府中市","address":"府中市住吉町1-61","lat":35.660179,"lon":139.460415},{"name":"四谷児童館","province":"東京都","city":"府中市","address":"府中市四谷2-75","lat":35.665445,"lon":139.445158},{"name":"武蔵台児童館","province":"東京都","city":"府中市","address":"府中市武蔵台2-2","lat":35.688668,"lon":139.461098},{"name":"新町児童館","province":"東京都","city":"府中市","address":"府中市新町1-66","lat":35.686944,"lon":139.489773},{"name":"中央図書館","province":"東京都","city":"府中市","address":"東京都府中市府中町2丁目24","lat":35.67636691,"lon":139.48406007},{"name":"白糸台図書館","province":"東京都","city":"府中市","address":"東京都府中市白糸台1丁目60","lat":35.66700463,"lon":139.50618625},{"name":"西府図書館","province":"東京都","city":"府中市","address":"東京都府中市西府町1丁目60","lat":35.67096688,"lon":139.45644591},{"name":"武蔵台図書館","province":"東京都","city":"府中市","address":"東京都府中市武蔵台2丁目2","lat":35.68866772,"lon":139.46109766},{"name":"新町図書館","province":"東京都","city":"府中市","address":"東京都府中市新町1丁目66-38","lat":35.68699081,"lon":139.48998971},{"name":"住吉図書館","province":"東京都","city":"府中市","address":"東京都府中市住吉町1丁目61","lat":35.66017924,"lon":139.46041535},{"name":"是政図書館","province":"東京都","city":"府中市","address":"東京都府中市是政2丁目20","lat":35.66095232,"lon":139.49570406},{"name":"紅葉丘図書館","province":"東京都","city":"府中市","address":"東京都府中市紅葉丘2丁目1-5","lat":35.6772174,"lon":139.50927453},{"name":"四谷図書館","province":"東京都","city":"府中市","address":"東京都府中市四谷2丁目75","lat":35.66544493,"lon":139.44515819},{"name":"押立図書館","province":"東京都","city":"府中市","address":"東京都府中市押立町5丁目4","lat":35.6535432,"lon":139.51813618},{"name":"片町図書館","province":"東京都","city":"府中市","address":"東京都府中市片町2丁目17","lat":35.67065053,"lon":139.46938092},{"name":"宮町図書館","province":"東京都","city":"府中市","address":"東京都府中市宮町3丁目1","lat":35.66815661,"lon":139.47911076},{"name":"生涯学習センター図書館","province":"東京都","city":"府中市","address":"東京都府中市浅間町1丁目7","lat":35.67845582,"lon":139.49642285},{"name":"(図書取次)市政情報センター","province":"東京都","city":"府中市","address":"東京都府中市宮町1丁目100","lat":35.67197841,"lon":139.47949673},{"name":"紅葉丘児童館","province":"東京都","city":"府中市","address":"府中市紅葉丘2-1","lat":35.67656,"lon":139.50908},{"name":"白糸台児童館","province":"東京都","city":"府中市","address":"府中市白糸台1-60","lat":35.66702,"lon":139.50629},{"name":"押立児童館","province":"東京都","city":"府中市","address":"府中市押立町5-4","lat":35.65363,"lon":139.51843},{"name":"是政児童館","province":"東京都","city":"府中市","address":"府中市是政2-20","lat":35.66087,"lon":139.49541},{"name":"片町児童館","province":"東京都","city":"府中市","address":"府中市片町2-17","lat":35.67072,"lon":139.46954},{"name":"西府児童館","province":"東京都","city":"府中市","address":"府中市西府町1-60","lat":35.67249,"lon":139.45483},{"name":"住吉児童館","province":"東京都","city":"府中市","address":"府中市住吉町1-61","lat":35.66029,"lon":139.46051},{"name":"四谷児童館","province":"東京都","city":"府中市","address":"府中市四谷2-75","lat":35.66507,"lon":139.4458},{"name":"武蔵台児童館","province":"東京都","city":"府中市","address":"府中市武蔵台2-2","lat":35.68863,"lon":139.46095},{"name":"新町児童館","province":"東京都","city":"府中市","address":"府中市新町1-66","lat":35.68703,"lon":139.48955},{"name":"新町児童館","province":"東京都","city":"府中市","address":"府中市新町1-66","lat":35.68704,"lon":139.48955},{"name":"＊?府中市生涯学習センター図書館","province":"東京都","city":"府中市","address":"府中市浅間町1-7","lat":35.679002,"lon":139.49645},{"name":"＊?府中市立是政図書館","province":"東京都","city":"府中市","address":"府中市是政2-20","lat":35.660879,"lon":139.495314},{"name":"＊?府中市立白糸台図書館","province":"東京都","city":"府中市","address":"府中市白糸台1-60","lat":35.667077,"lon":139.506139},{"name":"＊?府中市立四谷図書館","province":"東京都","city":"府中市","address":"府中市四谷2-75","lat":35.665286,"lon":139.44564},{"name":"＊?府中市立住吉図書館","province":"東京都","city":"府中市","address":"府中市住吉町1-61","lat":35.660295,"lon":139.460277},{"name":"＊?府中市立新町図書館","province":"東京都","city":"府中市","address":"府中市新町1-66","lat":35.687183,"lon":139.489386},{"name":"＊?府中市立紅葉丘図書館","province":"東京都","city":"府中市","address":"府中市紅葉丘2-1","lat":35.676537,"lon":139.509247},{"name":"＊?府中市立西府図書館","province":"東京都","city":"府中市","address":"府中市西府町1-10","lat":35.670894,"lon":139.456258},{"name":"＊?府中市立片町図書館","province":"東京都","city":"府中市","address":"府中市片町2-17","lat":35.670274,"lon":139.469367},{"name":"＊?府中市立押立図書館","province":"東京都","city":"府中市","address":"府中市押立町5-4","lat":35.653692,"lon":139.517809},{"name":"＊?府中市立武蔵台図書館","province":"東京都","city":"府中市","address":"府中市武蔵台2-2","lat":35.688577,"lon":139.461418},{"name":"＊?府中市立宮町図書館","province":"東京都","city":"府中市","address":"府中市宮町3-1","lat":35.668845,"lon":139.478691}]}