{"keyword":"小平","data":[{"name":"小平市中央公民館","province":"東京都","city":"小平市","address":"小平市小川町2-1325","lat":35.728603,"lon":139.474609},{"name":"小平市立花小金井南公民館","province":"東京都","city":"小平市","address":"小平市花小金井南町2-12-6","lat":35.724243,"lon":139.51651},{"name":"小平市立花小金井北公民館","province":"東京都","city":"小平市","address":"小平市花小金井5-41-3","lat":35.734188,"lon":139.510284},{"name":"小平市立小川公民館","province":"東京都","city":"小平市","address":"小平市小川町1-1012","lat":35.725826,"lon":139.459244},{"name":"小平市立小川西町公民館","province":"東京都","city":"小平市","address":"小平市小川西町4-10-13","lat":35.735207,"lon":139.461807},{"name":"小平市立上宿公民館","province":"東京都","city":"小平市","address":"小平市小川町1-308","lat":35.731262,"lon":139.44281},{"name":"小平市立上水南公民館","province":"東京都","city":"小平市","address":"小平市上水南町1-27-1","lat":35.713055,"lon":139.483688},{"name":"小平市立大沼公民館","province":"東京都","city":"小平市","address":"小平市大沼町7-1-17","lat":35.733967,"lon":139.496414},{"name":"小平市立仲町公民館","province":"東京都","city":"小平市","address":"小平市仲町521","lat":35.730274,"lon":139.484863},{"name":"小平市立津田公民館","province":"東京都","city":"小平市","address":"小平市津田町3-11-1","lat":35.720867,"lon":139.470032},{"name":"小平市立鈴木公民館","province":"東京都","city":"小平市","address":"小平市鈴木町2-772","lat":35.722507,"lon":139.507401},{"name":"小平市大沼図書館","province":"東京都","city":"小平市","address":"小平市大沼町7-1-17","lat":35.733967,"lon":139.496414},{"name":"小平市中央図書館","province":"東京都","city":"小平市","address":"小平市小川町2-1325","lat":35.728603,"lon":139.474609},{"name":"小平市中央図書館花小金井北分室","province":"東京都","city":"小平市","address":"小平市花小金井5-41-3","lat":35.734188,"lon":139.510284},{"name":"小平市中央図書館小川分室","province":"東京都","city":"小平市","address":"小平市小川町1-1012","lat":35.725826,"lon":139.459244},{"name":"小平市中央図書館上水南分室","province":"東京都","city":"小平市","address":"小平市上水南町1-27-1","lat":35.713055,"lon":139.483688},{"name":"小平市立花小金井図書館","province":"東京都","city":"小平市","address":"小平市花小金井1-8-1","lat":35.727486,"lon":139.513535},{"name":"小平市立喜平図書館","province":"東京都","city":"小平市","address":"小平市喜平町3-3-18","lat":35.719769,"lon":139.490204},{"name":"小平市立小川西町図書館","province":"東京都","city":"小平市","address":"小平市小川西町4-10-13","lat":35.735207,"lon":139.461807},{"name":"小平市立上宿図書館","province":"東京都","city":"小平市","address":"小平市小川町1-345","lat":35.730995,"lon":139.438889},{"name":"小平市立仲町図書館","province":"東京都","city":"小平市","address":"小平市仲町145","lat":35.731598,"lon":139.483566},{"name":"小平市立津田図書館","province":"東京都","city":"小平市","address":"小平市津田町3-11-1","lat":35.720867,"lon":139.470032},{"name":"小平市鈴木遺跡資料館","province":"東京都","city":"小平市","address":"小平市鈴木町1-487-1","lat":35.718842,"lon":139.496735},{"name":"小平市平櫛田中彫刻美術館","province":"東京都","city":"小平市","address":"小平市学園西町1-7-5","lat":35.718006,"lon":139.475555}]}