{"keyword":"週","data":[{"name":"青ヶ島村社会福祉協議会","province":"東京都","city":"青ヶ島村","address":"青ヶ島村無番地役場内","lat":32.466773,"lon":139.76346},{"name":"青ヶ島村社会福祉協議会","province":"東京都","city":"青ヶ島村","address":"青ヶ島村無番地青ヶ島村役場内","lat":32.46654,"lon":139.76334},{"name":"青ヶ島村社会福祉協議会","province":"東京都","city":"青ヶ島村","address":"青ヶ島村無番地役場内","lat":32.46708,"lon":139.76553},{"name":"青ヶ島臨時ヘリポート","province":"東京都","city":"青ヶ島村","address":"東京都青ヶ島村","lat":32.4664592,"lon":139.76331416},{"name":"＊?青ヶ島村立図書館","province":"東京都","city":"青ヶ島村","address":"東京都青ヶ島村無番地","lat":32.466577,"lon":139.763753},{"name":"青ヶ島村社会福祉協議会","province":"東京都","city":"青ヶ島村","address":"青ヶ島村無番地役場内","lat":32.466773,"lon":139.76346},{"name":"青ヶ島村社会福祉協議会","province":"東京都","city":"青ヶ島村","address":"青ヶ島村無番地青ヶ島村役場内","lat":32.46654,"lon":139.76334},{"name":"青ヶ島村社会福祉協議会","province":"東京都","city":"青ヶ島村","address":"青ヶ島村無番地役場内","lat":32.46708,"lon":139.76553},{"name":"＊?青ヶ島村立図書館","province":"東京都","city":"青ヶ島村","address":"東京都青ヶ島村無番地","lat":32.466577,"lon":139.763753},{"name":"青ヶ島村社会福祉協議会","province":"東京都","city":"青ヶ島村","address":"青ヶ島村無番地役場内","lat":32.466773,"lon":139.76346},{"name":"青ヶ島村社会福祉協議会","province":"東京都","city":"青ヶ島村","address":"青ヶ島村無番地青ヶ島村役場内","lat":32.46654,"lon":139.76334},{"name":"青ヶ島村社会福祉協議会","province":"東京都","city":"青ヶ島村","address":"青ヶ島村無番地役場内","lat":32.46708,"lon":139.76553},{"name":"＊?青ヶ島村立図書館","province":"東京都","city":"青ヶ島村","address":"東京都青ヶ島村無番地","lat":32.466577,"lon":139.763753},{"name":"青ヶ島村社会福祉協議会","province":"東京都","city":"青ヶ島村","address":"青ヶ島村無番地役場内","lat":32.466773,"lon":139.76346},{"name":"青ヶ島村社会福祉協議会","province":"東京都","city":"青ヶ島村","address":"青ヶ島村無番地青ヶ島村役場内","lat":32.46654,"lon":139.76334},{"name":"青ヶ島村社会福祉協議会","province":"東京都","city":"青ヶ島村","address":"青ヶ島村無番地役場内","lat":32.46708,"lon":139.76553},{"name":"＊?青ヶ島村立図書館","province":"東京都","city":"青ヶ島村","address":"東京都青ヶ島村無番地","lat":32.466577,"lon":139.763753},{"name":"＊?青ヶ島村立図書館","province":"東京都","city":"青ヶ島村","address":"東京都青ヶ島村無番地","lat":32.466577,"lon":139.763753},{"name":"＊?青ヶ島村立図書館","province":"東京都","city":"青ヶ島村","address":"東京都青ヶ島村無番地","lat":32.466577,"lon":139.763753},{"name":"＊?青ヶ島村立図書館","province":"東京都","city":"青ヶ島村","address":"東京都青ヶ島村無番地","lat":32.466577,"lon":139.763753},{"name":"＊?青ヶ島村立図書館","province":"東京都","city":"青ヶ島村","address":"東京都青ヶ島村無番地","lat":32.466577,"lon":139.763753},{"name":"＊?青ヶ島村立図書館","province":"東京都","city":"青ヶ島村","address":"東京都青ヶ島村無番地","lat":32.466577,"lon":139.763753},{"name":"＊?青ヶ島村立図書館","province":"東京都","city":"青ヶ島村","address":"東京都青ヶ島村無番地","lat":32.466577,"lon":139.763753},{"name":"＊?青ヶ島村立図書館","province":"東京都","city":"青ヶ島村","address":"東京都青ヶ島村無番地","lat":32.466577,"lon":139.763753},{"name":"＊?青ヶ島村立図書館","province":"東京都","city":"青ヶ島村","address":"東京都青ヶ島村無番地","lat":32.466577,"lon":139.763753},{"name":"＊?青ヶ島村立図書館","province":"東京都","city":"青ヶ島村","address":"東京都青ヶ島村無番地","lat":32.466577,"lon":139.763753},{"name":"＊?青ヶ島村立図書館","province":"東京都","city":"青ヶ島村","address":"東京都青ヶ島村無番地","lat":32.466577,"lon":139.763753},{"name":"＊?青ヶ島村立図書館","province":"東京都","city":"青ヶ島村","address":"東京都青ヶ島村無番地","lat":32.466577,"lon":139.763753},{"name":"＊?青ヶ島村立図書館","province":"東京都","city":"青ヶ島村","address":"東京都青ヶ島村無番地","lat":32.466577,"lon":139.763753},{"name":"＊?青ヶ島村立図書館","province":"東京都","city":"青ヶ島村","address":"東京都青ヶ島村無番地","lat":32.466577,"lon":139.763753},{"name":"＊?青ヶ島村立図書館","province":"東京都","city":"青ヶ島村","address":"東京都青ヶ島村無番地","lat":32.466577,"lon":139.763753},{"name":"＊?青ヶ島村立図書館","province":"東京都","city":"青ヶ島村","address":"東京都青ヶ島村無番地","lat":32.466577,"lon":139.763753},{"name":"＊?青ヶ島村立図書館","province":"東京都","city":"青ヶ島村","address":"東京都青ヶ島村無番地","lat":32.466577,"lon":139.763753},{"name":"＊?青ヶ島村立図書館","province":"東京都","city":"青ヶ島村","address":"東京都青ヶ島村無番地","lat":32.466577,"lon":139.763753},{"name":"＊?青ヶ島村立図書館","province":"東京都","city":"青ヶ島村","address":"東京都青ヶ島村無番地","lat":32.466577,"lon":139.763753},{"name":"＊?青ヶ島村立図書館","province":"東京都","city":"青ヶ島村","address":"東京都青ヶ島村無番地","lat":32.466577,"lon":139.763753},{"name":"＊?青ヶ島村立図書館","province":"東京都","city":"青ヶ島村","address":"東京都青ヶ島村無番地","lat":32.466577,"lon":139.763753},{"name":"＊?青ヶ島村立図書館","province":"東京都","city":"青ヶ島村","address":"東京都青ヶ島村無番地","lat":32.466577,"lon":139.763753},{"name":"＊?青ヶ島村立図書館","province":"東京都","city":"青ヶ島村","address":"東京都青ヶ島村無番地","lat":32.466577,"lon":139.763753},{"name":"＊?青ヶ島村立図書館","province":"東京都","city":"青ヶ島村","address":"東京都青ヶ島村無番地","lat":32.466577,"lon":139.763753},{"name":"＊?青ヶ島村立図書館","province":"東京都","city":"青ヶ島村","address":"東京都青ヶ島村無番地","lat":32.466577,"lon":139.763753},{"name":"＊?青ヶ島村立図書館","province":"東京都","city":"青ヶ島村","address":"東京都青ヶ島村無番地","lat":32.466577,"lon":139.763753},{"name":"＊?青ヶ島村立図書館","province":"東京都","city":"青ヶ島村","address":"東京都青ヶ島村無番地","lat":32.466577,"lon":139.763753},{"name":"＊?青ヶ島村立図書館","province":"東京都","city":"青ヶ島村","address":"東京都青ヶ島村無番地","lat":32.466577,"lon":139.763753},{"name":"＊?青ヶ島村立図書館","province":"東京都","city":"青ヶ島村","address":"東京都青ヶ島村無番地","lat":32.466577,"lon":139.763753},{"name":"＊?青ヶ島村立図書館","province":"東京都","city":"青ヶ島村","address":"東京都青ヶ島村無番地","lat":32.466577,"lon":139.763753},{"name":"＊?青ヶ島村立図書館","province":"東京都","city":"青ヶ島村","address":"東京都青ヶ島村無番地","lat":32.466577,"lon":139.763753},{"name":"＊?青ヶ島村立図書館","province":"東京都","city":"青ヶ島村","address":"東京都青ヶ島村無番地","lat":32.466577,"lon":139.763753},{"name":"＊?青ヶ島村立図書館","province":"東京都","city":"青ヶ島村","address":"東京都青ヶ島村無番地","lat":32.466577,"lon":139.763753},{"name":"＊?青ヶ島村立図書館","province":"東京都","city":"青ヶ島村","address":"東京都青ヶ島村無番地","lat":32.466577,"lon":139.763753},{"name":"＊?青ヶ島村立図書館","province":"東京都","city":"青ヶ島村","address":"東京都青ヶ島村無番地","lat":32.466577,"lon":139.763753},{"name":"＊?青ヶ島村立図書館","province":"東京都","city":"青ヶ島村","address":"東京都青ヶ島村無番地","lat":32.466577,"lon":139.763753},{"name":"＊?青ヶ島村立図書館","province":"東京都","city":"青ヶ島村","address":"東京都青ヶ島村無番地","lat":32.466577,"lon":139.763753},{"name":"＊?青ヶ島村立図書館","province":"東京都","city":"青ヶ島村","address":"東京都青ヶ島村無番地","lat":32.466577,"lon":139.763753},{"name":"＊?青ヶ島村立図書館","province":"東京都","city":"青ヶ島村","address":"東京都青ヶ島村無番地","lat":32.466577,"lon":139.763753},{"name":"＊?青ヶ島村立図書館","province":"東京都","city":"青ヶ島村","address":"東京都青ヶ島村無番地","lat":32.466577,"lon":139.763753},{"name":"＊?青ヶ島村立図書館","province":"東京都","city":"青ヶ島村","address":"東京都青ヶ島村無番地","lat":32.466577,"lon":139.763753},{"name":"＊?青ヶ島村立図書館","province":"東京都","city":"青ヶ島村","address":"東京都青ヶ島村無番地","lat":32.466577,"lon":139.763753},{"name":"＊?青ヶ島村立図書館","province":"東京都","city":"青ヶ島村","address":"東京都青ヶ島村無番地","lat":32.466577,"lon":139.763753},{"name":"＊?青ヶ島村立図書館","province":"東京都","city":"青ヶ島村","address":"東京都青ヶ島村無番地","lat":32.466577,"lon":139.763753},{"name":"＊?青ヶ島村立図書館","province":"東京都","city":"青ヶ島村","address":"東京都青ヶ島村無番地","lat":32.466577,"lon":139.763753},{"name":"＊?青ヶ島村立図書館","province":"東京都","city":"青ヶ島村","address":"東京都青ヶ島村無番地","lat":32.466577,"lon":139.763753},{"name":"＊?青ヶ島村立図書館","province":"東京都","city":"青ヶ島村","address":"東京都青ヶ島村無番地","lat":32.466577,"lon":139.763753},{"name":"＊?青ヶ島村立図書館","province":"東京都","city":"青ヶ島村","address":"東京都青ヶ島村無番地","lat":32.466577,"lon":139.763753},{"name":"＊?青ヶ島村立図書館","province":"東京都","city":"青ヶ島村","address":"東京都青ヶ島村無番地","lat":32.466577,"lon":139.763753}]}