一連番号,測定地点の住所,緯度,経度,座標系,道路名,環境基準類型等,測定開始年月日,測定終了年月日,道路種別,車線数,車道端からの距離(m),地上からの高さ(m),昼間等価騒音レベル(Leq)(dB),夜間等価騒音レベル(Leq)(dB)
484,町田市木曽東2-1,35.554775,139.426926,JGD2011,市道町田437号線（町田駅前通り）,c,2010-02-03,2010-02-04,6,2,2.4 ,1.2,71,66
485,町田市小山町2507,35.597279,139.368607,JGD2011,都道八王子町田線（町田街道）,b,2010-02-23,2010-02-24,4,2,2.1 ,1.2,70,68
486,町田市中町1-20,35.548164,139.446594,JGD2011,都道八王子町田線（町田街道）,c,2010-02-25,2010-02-26,4,2,2.1 ,1.2,75,64
487,町田市鶴間1-21,35.513294,139.466385,JGD2011,一般国道16号,B,2009-11-24,2009-11-25,3,4,5.3 ,1.2,76,75
488,町田市小野路町2748,35.602838,139.445072,JGD2011,町田調布線,A,2009-11-24,2009-11-25,4,2,1.8 ,1.2,66,61
489,町田市中町2-20,35.552059,139.445084,JGD2011,八王子町田線,C,2009-11-24,2009-11-25,4,2,3.5 ,1.2,68,67
490,町田市中町4-8,35.554970,139.445297,JGD2011,相模原町田線,B,2009-11-24,2009-11-25,4,2,2.5 ,1.2,68,67
491,町田市図師町615,35.582260,139.419434,JGD2011,相模原大蔵町線,B,2009-11-24,2009-11-25,4,2,2.6 ,1.2,70,69
492,町田市相原町343,35.609680,139.343918,JGD2011,一般国道16号,B,2009-11-19,2009-11-20,3,2,2.5 ,1.2,75,73
