{"keyword":"別表","data":[{"name":"京浜トラックターミナル","province":"東京都","city":"大田区","address":"東京都大田区平和島2丁目1-1","lat":35.58746451,"lon":139.74376358},{"name":"板橋トラックターミナル","province":"東京都","city":"板橋区","address":"東京都板橋区高島平6丁目1-1","lat":35.79228232,"lon":139.64660566},{"name":"足立トラックターミナル","province":"東京都","city":"足立区","address":"東京都足立区入谷6丁目1-1","lat":35.79902128,"lon":139.7665504},{"name":"葛西トラックターミナル","province":"東京都","city":"江戸川区","address":"東京都江戸川区臨海町4丁目3-1","lat":35.64589396,"lon":139.86608413},{"name":"１中央清掃工場","province":"東京都","city":"中央区","address":"東京都中央区晴海5丁目2-1","lat":35.65238522,"lon":139.77588597},{"name":"２港清掃工場","province":"東京都","city":"港区","address":"東京都港区港南5丁目7-1","lat":35.63153995,"lon":139.75589129},{"name":"３墨田清掃工場","province":"東京都","city":"墨田区","address":"東京都墨田区東墨田1丁目10-23","lat":35.7174879,"lon":139.83172056},{"name":"４有明清掃工場","province":"東京都","city":"江東区","address":"東京都江東区有明2丁目3-10","lat":35.63267381,"lon":139.78484968},{"name":"５新江東清掃工場","province":"東京都","city":"江東区","address":"東京都江東区夢の島3丁目","lat":35.65190061,"lon":139.83152826},{"name":"６品川清掃工場","province":"東京都","city":"品川区","address":"東京都品川区八潮1丁目4-1","lat":35.60946205,"lon":139.75402291},{"name":"８大田清掃工場","province":"東京都","city":"大田区","address":"東京都大田区京浜島3丁目6-1","lat":35.57380641,"lon":139.7677767},{"name":"９多摩川清掃工場","province":"東京都","city":"大田区","address":"東京都大田区下丸子2丁目33-1","lat":35.56140089,"lon":139.68686226},{"name":"１０世田谷清掃工場","province":"東京都","city":"世田谷区","address":"東京都世田谷区大蔵1丁目1-1","lat":35.63325336,"lon":139.62285544},{"name":"１１千歳清掃工場","province":"東京都","city":"世田谷区","address":"東京都世田谷区八幡山2丁目7-1","lat":35.65980817,"lon":139.61626046},{"name":"１２渋谷清掃工場","province":"東京都","city":"渋谷区","address":"東京都渋谷区東1丁目35-1","lat":35.6532557,"lon":139.7065226},{"name":"１３杉並清掃工場","province":"東京都","city":"杉並区","address":"東京都杉並区高井戸東3丁目7-6","lat":35.68371655,"lon":139.61793177},{"name":"１４豊島清掃工場","province":"東京都","city":"豊島区","address":"東京都豊島区上池袋2丁目5-1","lat":35.7348134,"lon":139.71449089},{"name":"１５北清掃工場","province":"東京都","city":"北区","address":"東京都北区志茂1丁目2-36","lat":35.77584235,"lon":139.73198218},{"name":"１６板橋清掃工場","province":"東京都","city":"板橋区","address":"東京都板橋区高島平9丁目48-1","lat":35.79180785,"lon":139.66670672},{"name":"１７練馬清掃工場","province":"東京都","city":"練馬区","address":"東京都練馬区谷原6丁目10-11","lat":35.75649415,"lon":139.60860735},{"name":"１８光が丘清掃工場","province":"東京都","city":"練馬区","address":"東京都練馬区光が丘5丁目3-1","lat":35.76157472,"lon":139.628311},{"name":"１９足立清掃工場","province":"東京都","city":"足立区","address":"東京都足立区西保木間4丁目7-1","lat":35.8034328,"lon":139.79525893},{"name":"２０葛飾清掃工場","province":"東京都","city":"葛飾区","address":"東京都葛飾区水元1丁目20-1","lat":35.78077211,"lon":139.85650756},{"name":"２１江戸川清掃工場","province":"東京都","city":"江戸川区","address":"東京都江戸川区江戸川2丁目10","lat":35.68760021,"lon":139.89999349}]}