{"category":"toilet","data":[{"name":"多摩平第8公園","province":"東京都","city":"日野市","address":"東京都日野市多摩平3丁目10","lat":35.664113,"lon":139.376548,"females_count":0,"multipurposes_count":0},{"name":"大久保公園","province":"東京都","city":"日野市","address":"東京都日野市多摩平7丁目26","lat":35.670364,"lon":139.390043,"females_count":0,"multipurposes_count":0},{"name":"新坂下公園","province":"東京都","city":"日野市","address":"東京都日野市新町3丁目18-7","lat":35.682005,"lon":139.385563,"females_count":0,"multipurposes_count":0},{"name":"河内公園","province":"東京都","city":"日野市","address":"東京都日野市百草2015","lat":35.659377,"lon":139.432971,"females_count":0,"multipurposes_count":1},{"name":"東豊田公園","province":"東京都","city":"日野市","address":"東京都日野市東豊田1丁目33-26","lat":35.661762,"lon":139.390964,"females_count":0,"multipurposes_count":1},{"name":"出口公園","province":"東京都","city":"日野市","address":"東京都日野市平山5丁目39","lat":35.64865,"lon":139.3815,"females_count":0,"multipurposes_count":1},{"name":"豊田電車区公園","province":"東京都","city":"日野市","address":"東京都日野市東平山3丁目26-23","lat":35.651939,"lon":139.375211,"females_count":0,"multipurposes_count":1},{"name":"四ッ谷下東公園","province":"東京都","city":"日野市","address":"東京都日野市日野本町5丁目23-1","lat":35.683329,"lon":139.399817,"females_count":0,"multipurposes_count":0},{"name":"落川河原公園","province":"東京都","city":"日野市","address":"東京都日野市落川2203外","lat":35.65912,"lon":139.434622,"females_count":0,"multipurposes_count":1},{"name":"旭が丘中央公園","province":"東京都","city":"日野市","address":"東京都日野市旭が丘5丁目1-1","lat":35.657524,"lon":139.366526,"females_count":2,"multipurposes_count":1},{"name":"万願寺中央公園","province":"東京都","city":"日野市","address":"東京都日野市万願寺4丁目20-12","lat":35.671122,"lon":139.413625,"females_count":2,"multipurposes_count":1},{"name":"日野中央公園","province":"東京都","city":"日野市","address":"東京都日野市神明2丁目13-2","lat":35.670691,"lon":139.393399,"females_count":2,"multipurposes_count":1},{"name":"浅川スポーツ公園","province":"東京都","city":"日野市","address":"東京都日野市万願寺5丁目3-5","lat":35.668381,"lon":139.412298,"females_count":0,"multipurposes_count":1},{"name":"多摩平第1公園","province":"東京都","city":"日野市","address":"東京都日野市多摩平4丁目2","lat":35.665985,"lon":139.378524,"females_count":2,"multipurposes_count":1},{"name":"百草台自然公園","province":"東京都","city":"日野市","address":"東京都日野市百草914-85","lat":35.652734,"lon":139.421978,"females_count":2,"multipurposes_count":1},{"name":"駒形公園","province":"東京都","city":"日野市","address":"東京都日野市川辺堀之内地先","lat":35.665775,"lon":139.402253,"females_count":2,"multipurposes_count":1},{"name":"南平丘陵公園","province":"東京都","city":"日野市","address":"東京都日野市南平8丁目8-3","lat":35.653247,"lon":139.396286,"females_count":2,"multipurposes_count":1},{"name":"市民の森スポーツ公園","province":"東京都","city":"日野市","address":"東京都日野市日野本町7丁目12-1","lat":35.681038,"lon":139.401634,"females_count":2,"multipurposes_count":0},{"name":"七ッ塚公園","province":"東京都","city":"日野市","address":"東京都日野市新町5丁目20-1","lat":35.68155,"lon":139.378449,"females_count":0,"multipurposes_count":0},{"name":"北川原公園","province":"東京都","city":"日野市","address":"東京都日野市石田1丁目236","lat":35.669767,"lon":139.424158,"females_count":2,"multipurposes_count":1},{"name":"黒川清流公園","province":"東京都","city":"日野市","address":"東京都日野市東豊田3丁目16-1","lat":35.666566,"lon":139.387643,"females_count":0,"multipurposes_count":0},{"name":"倉沢第一緑地","province":"東京都","city":"日野市","address":"東京都日野市百草731-1","lat":35.646917,"lon":139.42686,"females_count":0,"multipurposes_count":0},{"name":"まつばやし地区広場","province":"東京都","city":"日野市","address":"東京都日野市日野7773-585","lat":35.679319,"lon":139.41353,"females_count":0,"multipurposes_count":0},{"name":"おちかわ地区広場","province":"東京都","city":"日野市","address":"東京都日野市落川1530先","lat":35.661662,"lon":139.433263,"females_count":0,"multipurposes_count":0},{"name":"あずまちょう地区広場","province":"東京都","city":"日野市","address":"東京都日野市日野1237-5","lat":35.681676,"lon":139.407052,"females_count":0,"multipurposes_count":0},{"name":"田中こども広場","province":"東京都","city":"日野市","address":"東京都日野市南平8丁目5","lat":35.651286,"lon":139.393316,"females_count":0,"multipurposes_count":0},{"name":"日野駅前公衆トイレ","province":"東京都","city":"日野市","address":"東京都日野市大坂上1丁目9-6","lat":35.679288,"lon":139.393541,"females_count":2,"multipurposes_count":1},{"name":"平山4丁目22番地先トイレ","province":"東京都","city":"日野市","address":"東京都日野市平山4丁目22先","lat":35.651416,"lon":139.383728,"females_count":2,"multipurposes_count":1},{"name":"防災情報センター","province":"東京都","city":"日野市","address":"東京都日野市神明1丁目11-16","lat":35.670087,"lon":139.396051,"females_count":2,"multipurposes_count":1},{"name":"防災情報センター","province":"東京都","city":"日野市","address":"東京都日野市神明1丁目11-16","lat":35.670087,"lon":139.396051,"females_count":2,"multipurposes_count":0},{"name":"日野市立とよだ市民ギャラリー","province":"東京都","city":"日野市","address":"東京都日野市多摩平2丁目3-4オリエント丹野マンションB-102","lat":35.660949,"lon":139.381076,"females_count":0,"multipurposes_count":0},{"name":"市民の森ふれあいホール","province":"東京都","city":"日野市","address":"東京都日野市日野本町6丁目1-3","lat":35.681139,"lon":139.40277,"females_count":9,"multipurposes_count":0},{"name":"市民の森ふれあいホール","province":"東京都","city":"日野市","address":"東京都日野市日野本町6丁目1-3","lat":35.681139,"lon":139.40277,"females_count":4,"multipurposes_count":0},{"name":"市民の森ふれあいホール","province":"東京都","city":"日野市","address":"東京都日野市日野本町6丁目1-3","lat":35.681139,"lon":139.40277,"females_count":2,"multipurposes_count":0},{"name":"市民会館","province":"東京都","city":"日野市","address":"東京都日野市神明1丁目12-1","lat":35.670549,"lon":139.39549,"females_count":26,"multipurposes_count":0},{"name":"市民会館","province":"東京都","city":"日野市","address":"東京都日野市神明1丁目12-1","lat":35.670549,"lon":139.39549,"females_count":22,"multipurposes_count":0},{"name":"市民会館","province":"東京都","city":"日野市","address":"東京都日野市神明1丁目12-1","lat":35.670549,"lon":139.39549,"females_count":2,"multipurposes_count":0},{"name":"七生公会堂","province":"東京都","city":"日野市","address":"東京都日野市三沢3丁目50-1","lat":35.658131,"lon":139.414008,"females_count":2,"multipurposes_count":0},{"name":"七生公会堂","province":"東京都","city":"日野市","address":"東京都日野市三沢3丁目50-1","lat":35.658131,"lon":139.414008,"females_count":5,"multipurposes_count":0},{"name":"発達・教育支援センター","province":"東京都","city":"日野市","address":"東京都日野市旭が丘2丁目42-8","lat":35.662993,"lon":139.368791,"females_count":3,"multipurposes_count":1},{"name":"発達・教育支援センター","province":"東京都","city":"日野市","address":"東京都日野市旭が丘2丁目42-8","lat":35.662993,"lon":139.368791,"females_count":3,"multipurposes_count":1},{"name":"中央公民館","province":"東京都","city":"日野市","address":"東京都日野市日野本町7丁目5-23","lat":35.679482,"lon":139.400109,"females_count":2,"multipurposes_count":1},{"name":"中央公民館","province":"東京都","city":"日野市","address":"東京都日野市日野本町7丁目5-23","lat":35.679482,"lon":139.400109,"females_count":2,"multipurposes_count":1},{"name":"生活・保健センター","province":"東京都","city":"日野市","address":"東京都日野市日野本町1丁目6-2","lat":35.675845,"lon":139.400125,"females_count":3,"multipurposes_count":1},{"name":"生活・保健センター","province":"東京都","city":"日野市","address":"東京都日野市日野本町1丁目6-2","lat":35.675845,"lon":139.400125,"females_count":9,"multipurposes_count":1},{"name":"落川交流センター","province":"東京都","city":"日野市","address":"東京都日野市落川1400","lat":35.662767,"lon":139.430199,"females_count":2,"multipurposes_count":2},{"name":"落川交流センター","province":"東京都","city":"日野市","address":"東京都日野市落川1400","lat":35.662767,"lon":139.430199,"females_count":0,"multipurposes_count":1},{"name":"新町交流センター","province":"東京都","city":"日野市","address":"東京都日野市新町1丁目13","lat":35.679838,"lon":139.391334,"females_count":8,"multipurposes_count":2},{"name":"東町交流センター","province":"東京都","city":"日野市","address":"東京都日野市日野1241-1","lat":35.680722,"lon":139.408271,"females_count":2,"multipurposes_count":1},{"name":"万願寺交流センター","province":"東京都","city":"日野市","address":"東京都日野市万願寺4丁目20-12","lat":35.670987,"lon":139.415429,"females_count":2,"multipurposes_count":1},{"name":"南平駅西交流センター","province":"東京都","city":"日野市","address":"東京都日野市平山4丁目18-1","lat":35.652029,"lon":139.38872,"females_count":3,"multipurposes_count":1},{"name":"東部会館","province":"東京都","city":"日野市","address":"東京都日野市石田1丁目11-1","lat":35.668099,"lon":139.420673,"females_count":3,"multipurposes_count":0},{"name":"東部会館","province":"東京都","city":"日野市","address":"東京都日野市石田1丁目11-1","lat":35.668099,"lon":139.420673,"females_count":1,"multipurposes_count":0},{"name":"東部会館","province":"東京都","city":"日野市","address":"東京都日野市石田1丁目11-1","lat":35.668099,"lon":139.420673,"females_count":3,"multipurposes_count":1},{"name":"東部会館","province":"東京都","city":"日野市","address":"東京都日野市石田1丁目11-1","lat":35.668099,"lon":139.420673,"females_count":3,"multipurposes_count":0},{"name":"豊田南交流ハウス","province":"東京都","city":"日野市","address":"東京都日野市豊田4丁目29-8","lat":35.658742,"lon":139.387684,"females_count":0,"multipurposes_count":0},{"name":"百草台コミュニティセンター","province":"東京都","city":"日野市","address":"東京都日野市百草999","lat":35.653789,"lon":139.419097,"females_count":4,"multipurposes_count":1},{"name":"百草台コミュニティセンター","province":"東京都","city":"日野市","address":"東京都日野市百草999","lat":35.653789,"lon":139.419097,"females_count":3,"multipurposes_count":0},{"name":"百草台コミュニティセンター","province":"東京都","city":"日野市","address":"東京都日野市百草999","lat":35.653789,"lon":139.419097,"females_count":4,"multipurposes_count":0},{"name":"ひの市民活動支援センター","province":"東京都","city":"日野市","address":"東京都日野市日野1369-27","lat":35.679026,"lon":139.406347,"females_count":0,"multipurposes_count":0},{"name":"平山台健康・市民支援センター","province":"東京都","city":"日野市","address":"東京都日野市平山2丁目1-1","lat":35.64071,"lon":139.386998,"females_count":2,"multipurposes_count":0},{"name":"平山台健康・市民支援センター","province":"東京都","city":"日野市","address":"東京都日野市平山2丁目1-1","lat":35.64071,"lon":139.386998,"females_count":3,"multipurposes_count":0},{"name":"平山台健康・市民支援センター","province":"東京都","city":"日野市","address":"東京都日野市平山2丁目1-1","lat":35.64071,"lon":139.386998,"females_count":2,"multipurposes_count":0},{"name":"多摩平の森ふれあい館","province":"東京都","city":"日野市","address":"東京都日野市多摩平2丁目9","lat":35.663322,"lon":139.381592,"females_count":4,"multipurposes_count":1},{"name":"多摩平の森ふれあい館","province":"東京都","city":"日野市","address":"東京都日野市多摩平2丁目9","lat":35.663322,"lon":139.381592,"females_count":4,"multipurposes_count":1},{"name":"多摩平の森ふれあい館","province":"東京都","city":"日野市","address":"東京都日野市多摩平2丁目9","lat":35.663322,"lon":139.381592,"females_count":4,"multipurposes_count":1},{"name":"平山季重ふれあい館","province":"東京都","city":"日野市","address":"東京都日野市平山5丁目18-2","lat":35.647156,"lon":139.380403,"females_count":2,"multipurposes_count":1},{"name":"平山季重ふれあい館","province":"東京都","city":"日野市","address":"東京都日野市平山5丁目18-2","lat":35.647156,"lon":139.380403,"females_count":3,"multipurposes_count":1},{"name":"平山季重ふれあい館","province":"東京都","city":"日野市","address":"東京都日野市平山5丁目18-2","lat":35.647156,"lon":139.380403,"females_count":3,"multipurposes_count":1},{"name":"中央図書館","province":"東京都","city":"日野市","address":"東京都日野市豊田2丁目49-2","lat":35.656179,"lon":139.382243,"females_count":2,"multipurposes_count":1},{"name":"日野市立日野図書館","province":"東京都","city":"日野市","address":"東京都日野市日野本町7丁目5-14","lat":35.678758,"lon":139.399523,"females_count":3,"multipurposes_count":2},{"name":"高幡図書館","province":"東京都","city":"日野市","address":"東京都日野市三沢4丁目1-12","lat":35.658811,"lon":139.413394,"females_count":1,"multipurposes_count":1},{"name":"高幡図書館","province":"東京都","city":"日野市","address":"東京都日野市三沢4丁目1-12","lat":35.658811,"lon":139.413394,"females_count":1,"multipurposes_count":0},{"name":"百草図書館","province":"東京都","city":"日野市","address":"東京都日野市百草204-1","lat":35.657706,"lon":139.430909,"females_count":2,"multipurposes_count":1},{"name":"新選組のふるさと歴史館","province":"東京都","city":"日野市","address":"東京都日野市神明4丁目16-1","lat":35.67346,"lon":139.396494,"females_count":2,"multipurposes_count":1},{"name":"日野宿交流館","province":"東京都","city":"日野市","address":"東京都日野市日野本町7丁目5-6","lat":35.678636,"lon":139.400009,"females_count":2,"multipurposes_count":1},{"name":"日野宿交流館","province":"東京都","city":"日野市","address":"東京都日野市日野本町7丁目5-6","lat":35.678636,"lon":139.400009,"females_count":2,"multipurposes_count":0},{"name":"日野宿本陣","province":"東京都","city":"日野市","address":"東京都日野市日野本町2丁目15-9","lat":35.678134,"lon":139.399657,"females_count":1,"multipurposes_count":0},{"name":"京王高幡SC","province":"東京都","city":"日野市","address":"東京都日野市高幡128-5","lat":35.661854,"lon":139.413728,"females_count":3,"multipurposes_count":2},{"name":"PlanT","province":"東京都","city":"日野市","address":"東京都日野市多摩平2丁目5-1","lat":35.663018,"lon":139.380219,"females_count":2,"multipurposes_count":1},{"name":"勤労・青年会館","province":"東京都","city":"日野市","address":"東京都日野市多摩平1丁目10-1","lat":35.659737,"lon":139.380497,"females_count":3,"multipurposes_count":1},{"name":"日野市役所本庁舎","province":"東京都","city":"日野市","address":"東京都日野市神明1丁目12-1","lat":35.67126,"lon":139.395194,"females_count":1,"multipurposes_count":0},{"name":"日野市役所本庁舎","province":"東京都","city":"日野市","address":"東京都日野市神明1丁目12-1","lat":35.67126,"lon":139.395194,"females_count":2,"multipurposes_count":1},{"name":"日野市役所本庁舎","province":"東京都","city":"日野市","address":"東京都日野市神明1丁目12-1","lat":35.67126,"lon":139.395194,"females_count":2,"multipurposes_count":1},{"name":"日野市役所本庁舎","province":"東京都","city":"日野市","address":"東京都日野市神明1丁目12-1","lat":35.67126,"lon":139.395194,"females_count":3,"multipurposes_count":0},{"name":"日野市役所本庁舎","province":"東京都","city":"日野市","address":"東京都日野市神明1丁目12-1","lat":35.67126,"lon":139.395194,"females_count":3,"multipurposes_count":0},{"name":"日野市役所本庁舎","province":"東京都","city":"日野市","address":"東京都日野市神明1丁目12-1","lat":35.67126,"lon":139.395194,"females_count":3,"multipurposes_count":0},{"name":"日野市役所本庁舎","province":"東京都","city":"日野市","address":"東京都日野市神明1丁目12-1","lat":35.67126,"lon":139.395194,"females_count":3,"multipurposes_count":0},{"name":"日野市役所本庁舎","province":"東京都","city":"日野市","address":"東京都日野市神明1丁目12-1","lat":35.67126,"lon":139.395194,"females_count":0,"multipurposes_count":0},{"name":"建築指導課","province":"東京都","city":"日野市","address":"東京都日野市神明2丁目12-3","lat":35.666667,"lon":139.394889,"females_count":2,"multipurposes_count":1},{"name":"教育センター","province":"東京都","city":"日野市","address":"東京都日野市程久保550","lat":35.652445,"lon":139.411594,"females_count":3,"multipurposes_count":1},{"name":"教育センター","province":"東京都","city":"日野市","address":"東京都日野市程久保550","lat":35.652445,"lon":139.411594,"females_count":4,"multipurposes_count":0},{"name":"教育センター","province":"東京都","city":"日野市","address":"東京都日野市程久保550","lat":35.652445,"lon":139.411594,"females_count":2,"multipurposes_count":0},{"name":"教育センター","province":"東京都","city":"日野市","address":"東京都日野市程久保550","lat":35.652445,"lon":139.411594,"females_count":4,"multipurposes_count":0},{"name":"カワセミハウス","province":"東京都","city":"日野市","address":"東京都日野市東豊田3丁目26-1","lat":35.663508,"lon":139.384808,"females_count":2,"multipurposes_count":1}]}