{"category":"wireless","data":[{"name":"日野市立病院","province":"東京都","city":"日野市","address":"東京都日野市多摩平4丁目3-1","lat":35.66706526,"lon":139.37837205},{"name":"日野市営火葬場","province":"東京都","city":"日野市","address":"東京都日野市多摩平3丁目28-8","lat":35.66523759,"lon":139.37320031},{"name":"大坂上浄水所","province":"東京都","city":"日野市","address":"東京都日野市大坂上1丁目17-11","lat":35.67723932,"lon":139.38981523},{"name":"多摩平浄水所","province":"東京都","city":"日野市","address":"東京都日野市多摩平2丁目7-2","lat":35.66503502,"lon":139.38261897},{"name":"程久保給水所","province":"東京都","city":"日野市","address":"東京都日野市程久保5丁目10-1","lat":35.64065199,"lon":139.3951993},{"name":"日野市生活保健センター","province":"東京都","city":"日野市","address":"東京都日野市日野本町1丁目6-2","lat":35.67588416,"lon":139.40011995},{"name":"首都大学東京日野キャンパス","province":"東京都","city":"日野市","address":"東京都日野市旭が丘6丁目6","lat":35.66122125,"lon":139.36573439},{"name":"日野台高等学校","province":"東京都","city":"日野市","address":"東京都日野市大坂上4丁目16-1","lat":35.67263422,"lon":139.38604902},{"name":"南平高等学校","province":"東京都","city":"日野市","address":"東京都日野市南平8丁目2-3","lat":35.65158408,"lon":139.39627937},{"name":"日野高等学校","province":"東京都","city":"日野市","address":"東京都日野市石田1丁目190-1","lat":35.66727187,"lon":139.42331557},{"name":"日野市本庁舎","province":"東京都","city":"日野市","address":"東京都日野市神明1丁目12-1","lat":35.67050411,"lon":139.39551218},{"name":"市民の森ふれあいホール","province":"東京都","city":"日野市","address":"東京都日野市日野本町6丁目1-3","lat":35.68078646,"lon":139.40379169}]}