{"keyword":"一覧","data":[{"name":"東京都立大学　日野キャンパス","province":"東京都","city":"日野市","address":"東京都日野市旭が丘6丁目6","lat":35.66122125,"lon":139.36573439},{"name":"水道局日野サービスステーション","province":"東京都","city":"日野市","address":"東京都日野市多摩平2丁目7-2","lat":35.66503502,"lon":139.38261897},{"name":"日野市役所","province":"東京都","city":"日野市","address":"東京都日野市神明1丁目12-1","lat":35.67050411,"lon":139.39551218},{"name":"生活・保健センター","province":"東京都","city":"日野市","address":"東京都日野市日野本町1丁目6-2","lat":35.67588416,"lon":139.40011995},{"name":"クリーンセンター","province":"東京都","city":"日野市","address":"東京都日野市石田1丁目210-2","lat":35.66643878,"lon":139.42849016},{"name":"カワセミハウス","province":"東京都","city":"日野市","address":"東京都日野市東豊田3丁目26-1","lat":35.66347136,"lon":139.38474662},{"name":"日野図書館","province":"東京都","city":"日野市","address":"東京都日野市日野本町7丁目5-14","lat":35.67876715,"lon":139.39951434},{"name":"中央公民館","province":"東京都","city":"日野市","address":"東京都日野市日野本町7丁目5-23","lat":35.67950318,"lon":139.4000976},{"name":"日野市発達教育・支援センター","province":"東京都","city":"日野市","address":"東京都日野市旭が丘2丁目42-8","lat":35.66301554,"lon":139.36873964},{"name":"ひの社会教育センター","province":"東京都","city":"日野市","address":"東京都日野市多摩平3丁目1-13","lat":35.66509601,"lon":139.37637505},{"name":"湯沢福祉センター","province":"東京都","city":"日野市","address":"東京都日野市程久保873","lat":35.65185126,"lon":139.41604727},{"name":"七生公会堂","province":"東京都","city":"日野市","address":"東京都日野市三沢3丁目50-1","lat":35.65813659,"lon":139.41400276}]}