{"keyword":"保育","data":[{"name":"しんさかした保育園","province":"東京都","city":"日野市","address":"日野市新町3丁目17番地の4","lat":35.680736,"lon":139.386696},{"name":"日野保育園","province":"東京都","city":"日野市","address":"日野市新町1丁目5番地の6","lat":35.680758,"lon":139.391218},{"name":"しせい太陽の子保育園","province":"東京都","city":"日野市","address":"日野市日野本町3丁目3番地の3","lat":35.677309,"lon":139.393118},{"name":"日野駅前かわせみ保育園","province":"東京都","city":"日野市","address":"日野市日野本町4丁目6番地の14","lat":35.679925,"lon":139.394676},{"name":"至誠ひの宿保育園","province":"東京都","city":"日野市","address":"日野市日野本町二丁目14番地の1","lat":35.677203,"lon":139.398767},{"name":"至誠第二保育園","province":"東京都","city":"日野市","address":"日野市大字日野1183番地の3","lat":35.680309,"lon":139.407628},{"name":"日野第二保育園","province":"東京都","city":"日野市","address":"日野市大字日野311番地の3","lat":35.67239,"lon":139.406411},{"name":"至誠あずま保育園","province":"東京都","city":"日野市","address":"日野市大字日野1321番地の1","lat":35.679084,"lon":139.407519},{"name":"上田せせらぎ保育園","province":"東京都","city":"日野市","address":"日野市大字上田488番地の2","lat":35.666946,"lon":139.401712},{"name":"あらい保育園","province":"東京都","city":"日野市","address":"日野市新井842番地の6","lat":35.665791,"lon":139.417644},{"name":"むこうじま保育園","province":"東京都","city":"日野市","address":"日野市新井865番地の3","lat":35.665097,"lon":139.416013},{"name":"万願寺保育園","province":"東京都","city":"日野市","address":"日野市万願寺2丁目31番地の8","lat":35.673427,"lon":139.418685},{"name":"至誠いしだ保育園","province":"東京都","city":"日野市","address":"日野市万願寺1丁目22番地の1","lat":35.67499,"lon":139.419624},{"name":"たかはた北保育園","province":"東京都","city":"日野市","address":"日野市高幡507番地の4","lat":35.664608,"lon":139.413067},{"name":"みさわ保育園","province":"東京都","city":"日野市","address":"日野市三沢200番地","lat":35.661331,"lon":139.424771},{"name":"もぐさ台保育園","province":"東京都","city":"日野市","address":"日野市百草1002番地の4","lat":35.649018,"lon":139.420344},{"name":"つくしんぼ保育園","province":"東京都","city":"日野市","address":"日野市南平5丁目8番地の2","lat":35.663283,"lon":139.401859},{"name":"たかはた台保育園","province":"東京都","city":"日野市","address":"日野市程久保650番地","lat":35.653084,"lon":139.412642},{"name":"日野わかば保育園","province":"東京都","city":"日野市","address":"日野市程久保3丁目21番地の2","lat":35.648976,"lon":139.405537},{"name":"みなみだいら保育園","province":"東京都","city":"日野市","address":"日野市平山4丁目20番地の1","lat":35.652245,"lon":139.387433},{"name":"栄光保育園","province":"東京都","city":"日野市","address":"日野市平山5丁目7番地の11","lat":35.648098,"lon":139.383017},{"name":"栄光平山台保育園","province":"東京都","city":"日野市","address":"日野市平山2丁目1番地の1","lat":35.640974,"lon":139.387136},{"name":"吹上保育園","province":"東京都","city":"日野市","address":"日野市東豊田3丁目12番地の7","lat":35.664119,"lon":139.386427},{"name":"芝原保育園","province":"東京都","city":"日野市","address":"日野市豊田1丁目18番地の5","lat":35.656861,"lon":139.386649},{"name":"豊田保育園","province":"東京都","city":"日野市","address":"日野市4丁目10番地の3","lat":35.6582,"lon":139.384433},{"name":"ひらやま保育園","province":"東京都","city":"日野市","address":"日野市東平山1丁目7番地の13","lat":35.650103,"lon":139.376242},{"name":"ひよこハウス豊田","province":"東京都","city":"日野市","address":"日野市東平山3丁目1番地の1","lat":35.655058,"lon":139.378264},{"name":"おおくぼ保育園","province":"東京都","city":"日野市","address":"日野市大坂上4丁目10番地の2","lat":35.670957,"lon":139.386538},{"name":"たまだいら保育園","province":"東京都","city":"日野市","address":"日野市多摩平4丁目4番地の2","lat":35.666679,"lon":139.380714},{"name":"ひよこハウス多摩平","province":"東京都","city":"日野市","address":"日野市多摩平1丁目8番地の2","lat":35.661241,"lon":139.378933},{"name":"吹上多摩平保育園","province":"東京都","city":"日野市","address":"日野市多摩平6丁目1番地の2","lat":35.668318,"lon":139.379916},{"name":"栄光豊田駅前保育園","province":"東京都","city":"日野市","address":"日野市多摩平1丁目2番地の1","lat":35.660394,"lon":139.380683},{"name":"栄光多摩平中央保育園","province":"東京都","city":"日野市","address":"日野市多摩平三丁目1番地の15","lat":35.664857,"lon":139.377775},{"name":"栄光多摩平の森保育園","province":"東京都","city":"日野市","address":"日野市多摩平二丁目8番地の5","lat":35.665718,"lon":139.384235},{"name":"あさひがおか保育園","province":"東京都","city":"日野市","address":"日野市旭が丘2丁目42番地の1","lat":35.662643,"lon":139.368359}]}