{"keyword":"収蔵","data":[{"name":"市立大坂西公園","province":"東京都","city":"日野市","address":"東京都日野市大坂上1-14-4","lat":35.6764482,"lon":139.3902429},{"name":"多摩平給水所","province":"東京都","city":"日野市","address":"東京都日野市多摩平2-7-2","lat":35.6650353,"lon":139.382619},{"name":"程久保給水所","province":"東京都","city":"日野市","address":"東京都日野市程久保5-10-1","lat":35.64064,"lon":139.395207},{"name":"三沢配水所","province":"東京都","city":"日野市","address":"東京都日野市三沢905-2","lat":35.652935,"lon":139.420362},{"name":"日野旭が丘給水所","province":"東京都","city":"日野市","address":"東京都日野市旭が丘2-42-2","lat":35.662666,"lon":139.368353},{"name":"日野市立病院","province":"東京都","city":"日野市","address":"東京都日野市多摩平4丁目3-1","lat":35.66706526,"lon":139.37837205},{"name":"大坂上浄水所","province":"東京都","city":"日野市","address":"東京都日野市大坂上1丁目17-11","lat":35.67723932,"lon":139.38981523},{"name":"多摩平浄水所","province":"東京都","city":"日野市","address":"東京都日野市多摩平2丁目7-2","lat":35.66503502,"lon":139.38261897},{"name":"程久保給水所","province":"東京都","city":"日野市","address":"東京都日野市程久保5丁目10-1","lat":35.64065199,"lon":139.3951993},{"name":"東光寺グラウンド","province":"東京都","city":"日野市","address":"東京都日野市栄町5丁目5","lat":35.68608814,"lon":139.38274327},{"name":"浅川スポーツ広場","province":"東京都","city":"日野市","address":"東京都日野市万願寺5丁目3","lat":35.66786596,"lon":139.41298862},{"name":"豊田児童グラウンド","province":"東京都","city":"日野市","address":"東京都日野市豊田1丁目3","lat":35.65792487,"lon":139.38949084},{"name":"多摩川総合グラウンド","province":"東京都","city":"日野市","address":"東京都日野市万願寺1丁目1-2","lat":35.67381832,"lon":139.42369866},{"name":"杉野女子大学日野キャンパス","province":"東京都","city":"日野市","address":"東京都日野市百草1006","lat":35.64705754,"lon":139.42177197},{"name":"市民の森スポーツ公園","province":"東京都","city":"日野市","address":"東京都日野市日野本町7丁目12","lat":35.67999207,"lon":139.4022724},{"name":"日野市立多摩平第一公園","province":"東京都","city":"日野市","address":"東京都日野市多摩平4丁目2","lat":35.66661255,"lon":139.37938586},{"name":"平山台健康・市民支援センター","province":"東京都","city":"日野市","address":"東京都日野市平山2丁目1-1","lat":35.64097677,"lon":139.38713883},{"name":"万願寺中央公園グラウンド","province":"東京都","city":"日野市","address":"東京都日野市万願寺4丁目20-11","lat":35.67042683,"lon":139.41514947},{"name":"＊?日野市中央公民館","province":"東京都","city":"日野市","address":"日野市日野本町7-5-23","lat":35.67924,"lon":139.399963},{"name":"市立大坂西公園","province":"東京都","city":"日野市","address":"東京都日野市大坂上1-14-4","lat":35.6764482,"lon":139.3902429},{"name":"多摩平給水所","province":"東京都","city":"日野市","address":"東京都日野市多摩平2-7-2","lat":35.6650353,"lon":139.382619},{"name":"程久保給水所","province":"東京都","city":"日野市","address":"東京都日野市程久保5-10-1","lat":35.64064,"lon":139.395207},{"name":"三沢配水所","province":"東京都","city":"日野市","address":"東京都日野市三沢905-2","lat":35.652935,"lon":139.420362},{"name":"日野旭が丘給水所","province":"東京都","city":"日野市","address":"東京都日野市旭が丘2-42-2","lat":35.662666,"lon":139.368353},{"name":"日野市立病院","province":"東京都","city":"日野市","address":"東京都日野市多摩平4丁目3-1","lat":35.66706526,"lon":139.37837205},{"name":"大坂上浄水所","province":"東京都","city":"日野市","address":"東京都日野市大坂上1丁目17-11","lat":35.67723932,"lon":139.38981523},{"name":"多摩平浄水所","province":"東京都","city":"日野市","address":"東京都日野市多摩平2丁目7-2","lat":35.66503502,"lon":139.38261897},{"name":"程久保給水所","province":"東京都","city":"日野市","address":"東京都日野市程久保5丁目10-1","lat":35.64065199,"lon":139.3951993},{"name":"東光寺グラウンド","province":"東京都","city":"日野市","address":"東京都日野市栄町5丁目5","lat":35.68608814,"lon":139.38274327},{"name":"浅川スポーツ広場","province":"東京都","city":"日野市","address":"東京都日野市万願寺5丁目3","lat":35.66786596,"lon":139.41298862},{"name":"豊田児童グラウンド","province":"東京都","city":"日野市","address":"東京都日野市豊田1丁目3","lat":35.65792487,"lon":139.38949084},{"name":"多摩川総合グラウンド","province":"東京都","city":"日野市","address":"東京都日野市万願寺1丁目1-2","lat":35.67381832,"lon":139.42369866},{"name":"杉野女子大学日野キャンパス","province":"東京都","city":"日野市","address":"東京都日野市百草1006","lat":35.64705754,"lon":139.42177197},{"name":"市民の森スポーツ公園","province":"東京都","city":"日野市","address":"東京都日野市日野本町7丁目12","lat":35.67999207,"lon":139.4022724},{"name":"日野市立多摩平第一公園","province":"東京都","city":"日野市","address":"東京都日野市多摩平4丁目2","lat":35.66661255,"lon":139.37938586},{"name":"平山台健康・市民支援センター","province":"東京都","city":"日野市","address":"東京都日野市平山2丁目1-1","lat":35.64097677,"lon":139.38713883},{"name":"万願寺中央公園グラウンド","province":"東京都","city":"日野市","address":"東京都日野市万願寺4丁目20-11","lat":35.67042683,"lon":139.41514947},{"name":"＊?日野市中央公民館","province":"東京都","city":"日野市","address":"日野市日野本町7-5-23","lat":35.67924,"lon":139.399963},{"name":"市立大坂西公園","province":"東京都","city":"日野市","address":"東京都日野市大坂上1-14-4","lat":35.6764482,"lon":139.3902429},{"name":"多摩平給水所","province":"東京都","city":"日野市","address":"東京都日野市多摩平2-7-2","lat":35.6650353,"lon":139.382619},{"name":"程久保給水所","province":"東京都","city":"日野市","address":"東京都日野市程久保5-10-1","lat":35.64064,"lon":139.395207},{"name":"三沢配水所","province":"東京都","city":"日野市","address":"東京都日野市三沢905-2","lat":35.652935,"lon":139.420362},{"name":"日野旭が丘給水所","province":"東京都","city":"日野市","address":"東京都日野市旭が丘2-42-2","lat":35.662666,"lon":139.368353},{"name":"日野市立病院","province":"東京都","city":"日野市","address":"東京都日野市多摩平4丁目3-1","lat":35.66706526,"lon":139.37837205},{"name":"大坂上浄水所","province":"東京都","city":"日野市","address":"東京都日野市大坂上1丁目17-11","lat":35.67723932,"lon":139.38981523},{"name":"多摩平浄水所","province":"東京都","city":"日野市","address":"東京都日野市多摩平2丁目7-2","lat":35.66503502,"lon":139.38261897},{"name":"程久保給水所","province":"東京都","city":"日野市","address":"東京都日野市程久保5丁目10-1","lat":35.64065199,"lon":139.3951993},{"name":"東光寺グラウンド","province":"東京都","city":"日野市","address":"東京都日野市栄町5丁目5","lat":35.68608814,"lon":139.38274327},{"name":"浅川スポーツ広場","province":"東京都","city":"日野市","address":"東京都日野市万願寺5丁目3","lat":35.66786596,"lon":139.41298862},{"name":"豊田児童グラウンド","province":"東京都","city":"日野市","address":"東京都日野市豊田1丁目3","lat":35.65792487,"lon":139.38949084},{"name":"多摩川総合グラウンド","province":"東京都","city":"日野市","address":"東京都日野市万願寺1丁目1-2","lat":35.67381832,"lon":139.42369866},{"name":"杉野女子大学日野キャンパス","province":"東京都","city":"日野市","address":"東京都日野市百草1006","lat":35.64705754,"lon":139.42177197},{"name":"市民の森スポーツ公園","province":"東京都","city":"日野市","address":"東京都日野市日野本町7丁目12","lat":35.67999207,"lon":139.4022724},{"name":"日野市立多摩平第一公園","province":"東京都","city":"日野市","address":"東京都日野市多摩平4丁目2","lat":35.66661255,"lon":139.37938586},{"name":"平山台健康・市民支援センター","province":"東京都","city":"日野市","address":"東京都日野市平山2丁目1-1","lat":35.64097677,"lon":139.38713883},{"name":"万願寺中央公園グラウンド","province":"東京都","city":"日野市","address":"東京都日野市万願寺4丁目20-11","lat":35.67042683,"lon":139.41514947},{"name":"＊?日野市中央公民館","province":"東京都","city":"日野市","address":"日野市日野本町7-5-23","lat":35.67924,"lon":139.399963},{"name":"市立大坂西公園","province":"東京都","city":"日野市","address":"東京都日野市大坂上1-14-4","lat":35.6764482,"lon":139.3902429},{"name":"多摩平給水所","province":"東京都","city":"日野市","address":"東京都日野市多摩平2-7-2","lat":35.6650353,"lon":139.382619},{"name":"程久保給水所","province":"東京都","city":"日野市","address":"東京都日野市程久保5-10-1","lat":35.64064,"lon":139.395207},{"name":"三沢配水所","province":"東京都","city":"日野市","address":"東京都日野市三沢905-2","lat":35.652935,"lon":139.420362},{"name":"日野旭が丘給水所","province":"東京都","city":"日野市","address":"東京都日野市旭が丘2-42-2","lat":35.662666,"lon":139.368353},{"name":"日野市立病院","province":"東京都","city":"日野市","address":"東京都日野市多摩平4丁目3-1","lat":35.66706526,"lon":139.37837205},{"name":"東光寺グラウンド","province":"東京都","city":"日野市","address":"東京都日野市栄町5丁目5","lat":35.68608814,"lon":139.38274327},{"name":"浅川スポーツ広場","province":"東京都","city":"日野市","address":"東京都日野市万願寺5丁目3","lat":35.66786596,"lon":139.41298862},{"name":"豊田児童グラウンド","province":"東京都","city":"日野市","address":"東京都日野市豊田1丁目3","lat":35.65792487,"lon":139.38949084},{"name":"多摩川総合グラウンド","province":"東京都","city":"日野市","address":"東京都日野市万願寺1丁目1-2","lat":35.67381832,"lon":139.42369866},{"name":"杉野女子大学日野キャンパス","province":"東京都","city":"日野市","address":"東京都日野市百草1006","lat":35.64705754,"lon":139.42177197},{"name":"市民の森スポーツ公園","province":"東京都","city":"日野市","address":"東京都日野市日野本町7丁目12","lat":35.67999207,"lon":139.4022724},{"name":"日野市立多摩平第一公園","province":"東京都","city":"日野市","address":"東京都日野市多摩平4丁目2","lat":35.66661255,"lon":139.37938586},{"name":"平山台健康・市民支援センター","province":"東京都","city":"日野市","address":"東京都日野市平山2丁目1-1","lat":35.64097677,"lon":139.38713883},{"name":"万願寺中央公園グラウンド","province":"東京都","city":"日野市","address":"東京都日野市万願寺4丁目20-11","lat":35.67042683,"lon":139.41514947},{"name":"＊?日野市中央公民館","province":"東京都","city":"日野市","address":"日野市日野本町7-5-23","lat":35.67924,"lon":139.399963},{"name":"市立大坂西公園","province":"東京都","city":"日野市","address":"東京都日野市大坂上1-14-4","lat":35.6764482,"lon":139.3902429},{"name":"多摩平給水所","province":"東京都","city":"日野市","address":"東京都日野市多摩平2-7-2","lat":35.6650353,"lon":139.382619},{"name":"程久保給水所","province":"東京都","city":"日野市","address":"東京都日野市程久保5-10-1","lat":35.64064,"lon":139.395207},{"name":"三沢配水所","province":"東京都","city":"日野市","address":"東京都日野市三沢905-2","lat":35.652935,"lon":139.420362},{"name":"日野旭が丘給水所","province":"東京都","city":"日野市","address":"東京都日野市旭が丘2-42-2","lat":35.662666,"lon":139.368353},{"name":"日野市立病院","province":"東京都","city":"日野市","address":"東京都日野市多摩平4丁目3-1","lat":35.66706526,"lon":139.37837205},{"name":"＊?日野市中央公民館","province":"東京都","city":"日野市","address":"日野市日野本町7-5-23","lat":35.67924,"lon":139.399963},{"name":"市立大坂西公園","province":"東京都","city":"日野市","address":"東京都日野市大坂上1-14-4","lat":35.6764482,"lon":139.3902429},{"name":"多摩平給水所","province":"東京都","city":"日野市","address":"東京都日野市多摩平2-7-2","lat":35.6650353,"lon":139.382619},{"name":"程久保給水所","province":"東京都","city":"日野市","address":"東京都日野市程久保5-10-1","lat":35.64064,"lon":139.395207},{"name":"三沢配水所","province":"東京都","city":"日野市","address":"東京都日野市三沢905-2","lat":35.652935,"lon":139.420362},{"name":"日野旭が丘給水所","province":"東京都","city":"日野市","address":"東京都日野市旭が丘2-42-2","lat":35.662666,"lon":139.368353},{"name":"日野市立病院","province":"東京都","city":"日野市","address":"東京都日野市多摩平4丁目3-1","lat":35.66706526,"lon":139.37837205},{"name":"＊?日野市中央公民館","province":"東京都","city":"日野市","address":"日野市日野本町7-5-23","lat":35.67924,"lon":139.399963},{"name":"市立大坂西公園","province":"東京都","city":"日野市","address":"東京都日野市大坂上1-14-4","lat":35.6764482,"lon":139.3902429},{"name":"多摩平給水所","province":"東京都","city":"日野市","address":"東京都日野市多摩平2-7-2","lat":35.6650353,"lon":139.382619},{"name":"程久保給水所","province":"東京都","city":"日野市","address":"東京都日野市程久保5-10-1","lat":35.64064,"lon":139.395207},{"name":"三沢配水所","province":"東京都","city":"日野市","address":"東京都日野市三沢905-2","lat":35.652935,"lon":139.420362},{"name":"日野旭が丘給水所","province":"東京都","city":"日野市","address":"東京都日野市旭が丘2-42-2","lat":35.662666,"lon":139.368353},{"name":"日野市立病院","province":"東京都","city":"日野市","address":"東京都日野市多摩平4丁目3-1","lat":35.66706526,"lon":139.37837205},{"name":"＊?日野市中央公民館","province":"東京都","city":"日野市","address":"日野市日野本町7-5-23","lat":35.67924,"lon":139.399963},{"name":"市立大坂西公園","province":"東京都","city":"日野市","address":"東京都日野市大坂上1-14-4","lat":35.6764482,"lon":139.3902429},{"name":"多摩平給水所","province":"東京都","city":"日野市","address":"東京都日野市多摩平2-7-2","lat":35.6650353,"lon":139.382619},{"name":"程久保給水所","province":"東京都","city":"日野市","address":"東京都日野市程久保5-10-1","lat":35.64064,"lon":139.395207},{"name":"三沢配水所","province":"東京都","city":"日野市","address":"東京都日野市三沢905-2","lat":35.652935,"lon":139.420362},{"name":"日野旭が丘給水所","province":"東京都","city":"日野市","address":"東京都日野市旭が丘2-42-2","lat":35.662666,"lon":139.368353},{"name":"日野市立病院","province":"東京都","city":"日野市","address":"東京都日野市多摩平4丁目3-1","lat":35.66706526,"lon":139.37837205},{"name":"＊?日野市中央公民館","province":"東京都","city":"日野市","address":"日野市日野本町7-5-23","lat":35.67924,"lon":139.399963},{"name":"市立大坂西公園","province":"東京都","city":"日野市","address":"東京都日野市大坂上1-14-4","lat":35.6764482,"lon":139.3902429},{"name":"多摩平給水所","province":"東京都","city":"日野市","address":"東京都日野市多摩平2-7-2","lat":35.6650353,"lon":139.382619},{"name":"程久保給水所","province":"東京都","city":"日野市","address":"東京都日野市程久保5-10-1","lat":35.64064,"lon":139.395207},{"name":"三沢配水所","province":"東京都","city":"日野市","address":"東京都日野市三沢905-2","lat":35.652935,"lon":139.420362},{"name":"日野旭が丘給水所","province":"東京都","city":"日野市","address":"東京都日野市旭が丘2-42-2","lat":35.662666,"lon":139.368353},{"name":"日野市立病院","province":"東京都","city":"日野市","address":"東京都日野市多摩平4丁目3-1","lat":35.66706526,"lon":139.37837205},{"name":"＊?日野市中央公民館","province":"東京都","city":"日野市","address":"日野市日野本町7-5-23","lat":35.67924,"lon":139.399963},{"name":"市立大坂西公園","province":"東京都","city":"日野市","address":"東京都日野市大坂上1-14-4","lat":35.6764482,"lon":139.3902429},{"name":"多摩平給水所","province":"東京都","city":"日野市","address":"東京都日野市多摩平2-7-2","lat":35.6650353,"lon":139.382619},{"name":"程久保給水所","province":"東京都","city":"日野市","address":"東京都日野市程久保5-10-1","lat":35.64064,"lon":139.395207},{"name":"三沢配水所","province":"東京都","city":"日野市","address":"東京都日野市三沢905-2","lat":35.652935,"lon":139.420362},{"name":"日野旭が丘給水所","province":"東京都","city":"日野市","address":"東京都日野市旭が丘2-42-2","lat":35.662666,"lon":139.368353},{"name":"日野市立病院","province":"東京都","city":"日野市","address":"東京都日野市多摩平4丁目3-1","lat":35.66706526,"lon":139.37837205},{"name":"＊?日野市中央公民館","province":"東京都","city":"日野市","address":"日野市日野本町7-5-23","lat":35.67924,"lon":139.399963},{"name":"市立大坂西公園","province":"東京都","city":"日野市","address":"東京都日野市大坂上1-14-4","lat":35.6764482,"lon":139.3902429},{"name":"多摩平給水所","province":"東京都","city":"日野市","address":"東京都日野市多摩平2-7-2","lat":35.6650353,"lon":139.382619},{"name":"程久保給水所","province":"東京都","city":"日野市","address":"東京都日野市程久保5-10-1","lat":35.64064,"lon":139.395207},{"name":"三沢配水所","province":"東京都","city":"日野市","address":"東京都日野市三沢905-2","lat":35.652935,"lon":139.420362},{"name":"日野旭が丘給水所","province":"東京都","city":"日野市","address":"東京都日野市旭が丘2-42-2","lat":35.662666,"lon":139.368353},{"name":"＊?日野市中央公民館","province":"東京都","city":"日野市","address":"日野市日野本町7-5-23","lat":35.67924,"lon":139.399963},{"name":"市立大坂西公園","province":"東京都","city":"日野市","address":"東京都日野市大坂上1-14-4","lat":35.6764482,"lon":139.3902429},{"name":"多摩平給水所","province":"東京都","city":"日野市","address":"東京都日野市多摩平2-7-2","lat":35.6650353,"lon":139.382619},{"name":"程久保給水所","province":"東京都","city":"日野市","address":"東京都日野市程久保5-10-1","lat":35.64064,"lon":139.395207},{"name":"三沢配水所","province":"東京都","city":"日野市","address":"東京都日野市三沢905-2","lat":35.652935,"lon":139.420362},{"name":"日野旭が丘給水所","province":"東京都","city":"日野市","address":"東京都日野市旭が丘2-42-2","lat":35.662666,"lon":139.368353},{"name":"＊?日野市中央公民館","province":"東京都","city":"日野市","address":"日野市日野本町7-5-23","lat":35.67924,"lon":139.399963},{"name":"市立大坂西公園","province":"東京都","city":"日野市","address":"東京都日野市大坂上1-14-4","lat":35.6764482,"lon":139.3902429},{"name":"多摩平給水所","province":"東京都","city":"日野市","address":"東京都日野市多摩平2-7-2","lat":35.6650353,"lon":139.382619},{"name":"程久保給水所","province":"東京都","city":"日野市","address":"東京都日野市程久保5-10-1","lat":35.64064,"lon":139.395207},{"name":"三沢配水所","province":"東京都","city":"日野市","address":"東京都日野市三沢905-2","lat":35.652935,"lon":139.420362},{"name":"日野旭が丘給水所","province":"東京都","city":"日野市","address":"東京都日野市旭が丘2-42-2","lat":35.662666,"lon":139.368353},{"name":"＊?日野市中央公民館","province":"東京都","city":"日野市","address":"日野市日野本町7-5-23","lat":35.67924,"lon":139.399963},{"name":"市立大坂西公園","province":"東京都","city":"日野市","address":"東京都日野市大坂上1-14-4","lat":35.6764482,"lon":139.3902429},{"name":"多摩平給水所","province":"東京都","city":"日野市","address":"東京都日野市多摩平2-7-2","lat":35.6650353,"lon":139.382619},{"name":"程久保給水所","province":"東京都","city":"日野市","address":"東京都日野市程久保5-10-1","lat":35.64064,"lon":139.395207},{"name":"三沢配水所","province":"東京都","city":"日野市","address":"東京都日野市三沢905-2","lat":35.652935,"lon":139.420362},{"name":"日野旭が丘給水所","province":"東京都","city":"日野市","address":"東京都日野市旭が丘2-42-2","lat":35.662666,"lon":139.368353},{"name":"＊?日野市中央公民館","province":"東京都","city":"日野市","address":"日野市日野本町7-5-23","lat":35.67924,"lon":139.399963},{"name":"市立大坂西公園","province":"東京都","city":"日野市","address":"東京都日野市大坂上1-14-4","lat":35.6764482,"lon":139.3902429},{"name":"多摩平給水所","province":"東京都","city":"日野市","address":"東京都日野市多摩平2-7-2","lat":35.6650353,"lon":139.382619},{"name":"程久保給水所","province":"東京都","city":"日野市","address":"東京都日野市程久保5-10-1","lat":35.64064,"lon":139.395207},{"name":"三沢配水所","province":"東京都","city":"日野市","address":"東京都日野市三沢905-2","lat":35.652935,"lon":139.420362},{"name":"日野旭が丘給水所","province":"東京都","city":"日野市","address":"東京都日野市旭が丘2-42-2","lat":35.662666,"lon":139.368353},{"name":"＊?日野市中央公民館","province":"東京都","city":"日野市","address":"日野市日野本町7-5-23","lat":35.67924,"lon":139.399963},{"name":"市立大坂西公園","province":"東京都","city":"日野市","address":"東京都日野市大坂上1-14-4","lat":35.6764482,"lon":139.3902429},{"name":"多摩平給水所","province":"東京都","city":"日野市","address":"東京都日野市多摩平2-7-2","lat":35.6650353,"lon":139.382619},{"name":"程久保給水所","province":"東京都","city":"日野市","address":"東京都日野市程久保5-10-1","lat":35.64064,"lon":139.395207},{"name":"三沢配水所","province":"東京都","city":"日野市","address":"東京都日野市三沢905-2","lat":35.652935,"lon":139.420362},{"name":"日野旭が丘給水所","province":"東京都","city":"日野市","address":"東京都日野市旭が丘2-42-2","lat":35.662666,"lon":139.368353},{"name":"＊?日野市中央公民館","province":"東京都","city":"日野市","address":"日野市日野本町7-5-23","lat":35.67924,"lon":139.399963},{"name":"市立大坂西公園","province":"東京都","city":"日野市","address":"東京都日野市大坂上1-14-4","lat":35.6764482,"lon":139.3902429},{"name":"多摩平給水所","province":"東京都","city":"日野市","address":"東京都日野市多摩平2-7-2","lat":35.6650353,"lon":139.382619},{"name":"程久保給水所","province":"東京都","city":"日野市","address":"東京都日野市程久保5-10-1","lat":35.64064,"lon":139.395207},{"name":"三沢配水所","province":"東京都","city":"日野市","address":"東京都日野市三沢905-2","lat":35.652935,"lon":139.420362},{"name":"日野旭が丘給水所","province":"東京都","city":"日野市","address":"東京都日野市旭が丘2-42-2","lat":35.662666,"lon":139.368353},{"name":"＊?日野市中央公民館","province":"東京都","city":"日野市","address":"日野市日野本町7-5-23","lat":35.67924,"lon":139.399963},{"name":"市立大坂西公園","province":"東京都","city":"日野市","address":"東京都日野市大坂上1-14-4","lat":35.6764482,"lon":139.3902429},{"name":"多摩平給水所","province":"東京都","city":"日野市","address":"東京都日野市多摩平2-7-2","lat":35.6650353,"lon":139.382619},{"name":"程久保給水所","province":"東京都","city":"日野市","address":"東京都日野市程久保5-10-1","lat":35.64064,"lon":139.395207},{"name":"三沢配水所","province":"東京都","city":"日野市","address":"東京都日野市三沢905-2","lat":35.652935,"lon":139.420362},{"name":"日野旭が丘給水所","province":"東京都","city":"日野市","address":"東京都日野市旭が丘2-42-2","lat":35.662666,"lon":139.368353},{"name":"＊?日野市中央公民館","province":"東京都","city":"日野市","address":"日野市日野本町7-5-23","lat":35.67924,"lon":139.399963},{"name":"市立大坂西公園","province":"東京都","city":"日野市","address":"東京都日野市大坂上1-14-4","lat":35.6764482,"lon":139.3902429},{"name":"多摩平給水所","province":"東京都","city":"日野市","address":"東京都日野市多摩平2-7-2","lat":35.6650353,"lon":139.382619},{"name":"程久保給水所","province":"東京都","city":"日野市","address":"東京都日野市程久保5-10-1","lat":35.64064,"lon":139.395207},{"name":"三沢配水所","province":"東京都","city":"日野市","address":"東京都日野市三沢905-2","lat":35.652935,"lon":139.420362},{"name":"日野旭が丘給水所","province":"東京都","city":"日野市","address":"東京都日野市旭が丘2-42-2","lat":35.662666,"lon":139.368353},{"name":"＊?日野市中央公民館","province":"東京都","city":"日野市","address":"日野市日野本町7-5-23","lat":35.67924,"lon":139.399963},{"name":"市立大坂西公園","province":"東京都","city":"日野市","address":"東京都日野市大坂上1-14-4","lat":35.6764482,"lon":139.3902429},{"name":"多摩平給水所","province":"東京都","city":"日野市","address":"東京都日野市多摩平2-7-2","lat":35.6650353,"lon":139.382619},{"name":"程久保給水所","province":"東京都","city":"日野市","address":"東京都日野市程久保5-10-1","lat":35.64064,"lon":139.395207},{"name":"三沢配水所","province":"東京都","city":"日野市","address":"東京都日野市三沢905-2","lat":35.652935,"lon":139.420362},{"name":"日野旭が丘給水所","province":"東京都","city":"日野市","address":"東京都日野市旭が丘2-42-2","lat":35.662666,"lon":139.368353},{"name":"＊?日野市中央公民館","province":"東京都","city":"日野市","address":"日野市日野本町7-5-23","lat":35.67924,"lon":139.399963},{"name":"市立大坂西公園","province":"東京都","city":"日野市","address":"東京都日野市大坂上1-14-4","lat":35.6764482,"lon":139.3902429},{"name":"多摩平給水所","province":"東京都","city":"日野市","address":"東京都日野市多摩平2-7-2","lat":35.6650353,"lon":139.382619},{"name":"程久保給水所","province":"東京都","city":"日野市","address":"東京都日野市程久保5-10-1","lat":35.64064,"lon":139.395207},{"name":"三沢配水所","province":"東京都","city":"日野市","address":"東京都日野市三沢905-2","lat":35.652935,"lon":139.420362},{"name":"日野旭が丘給水所","province":"東京都","city":"日野市","address":"東京都日野市旭が丘2-42-2","lat":35.662666,"lon":139.368353},{"name":"＊?日野市中央公民館","province":"東京都","city":"日野市","address":"日野市日野本町7-5-23","lat":35.67924,"lon":139.399963},{"name":"市立大坂西公園","province":"東京都","city":"日野市","address":"東京都日野市大坂上1-14-4","lat":35.6764482,"lon":139.3902429},{"name":"多摩平給水所","province":"東京都","city":"日野市","address":"東京都日野市多摩平2-7-2","lat":35.6650353,"lon":139.382619},{"name":"程久保給水所","province":"東京都","city":"日野市","address":"東京都日野市程久保5-10-1","lat":35.64064,"lon":139.395207},{"name":"三沢配水所","province":"東京都","city":"日野市","address":"東京都日野市三沢905-2","lat":35.652935,"lon":139.420362},{"name":"日野旭が丘給水所","province":"東京都","city":"日野市","address":"東京都日野市旭が丘2-42-2","lat":35.662666,"lon":139.368353},{"name":"＊?日野市中央公民館","province":"東京都","city":"日野市","address":"日野市日野本町7-5-23","lat":35.67924,"lon":139.399963},{"name":"市立大坂西公園","province":"東京都","city":"日野市","address":"東京都日野市大坂上1-14-4","lat":35.6764482,"lon":139.3902429},{"name":"多摩平給水所","province":"東京都","city":"日野市","address":"東京都日野市多摩平2-7-2","lat":35.6650353,"lon":139.382619},{"name":"程久保給水所","province":"東京都","city":"日野市","address":"東京都日野市程久保5-10-1","lat":35.64064,"lon":139.395207},{"name":"三沢配水所","province":"東京都","city":"日野市","address":"東京都日野市三沢905-2","lat":35.652935,"lon":139.420362},{"name":"日野旭が丘給水所","province":"東京都","city":"日野市","address":"東京都日野市旭が丘2-42-2","lat":35.662666,"lon":139.368353},{"name":"＊?日野市中央公民館","province":"東京都","city":"日野市","address":"日野市日野本町7-5-23","lat":35.67924,"lon":139.399963},{"name":"市立大坂西公園","province":"東京都","city":"日野市","address":"東京都日野市大坂上1-14-4","lat":35.6764482,"lon":139.3902429},{"name":"多摩平給水所","province":"東京都","city":"日野市","address":"東京都日野市多摩平2-7-2","lat":35.6650353,"lon":139.382619},{"name":"程久保給水所","province":"東京都","city":"日野市","address":"東京都日野市程久保5-10-1","lat":35.64064,"lon":139.395207},{"name":"三沢配水所","province":"東京都","city":"日野市","address":"東京都日野市三沢905-2","lat":35.652935,"lon":139.420362},{"name":"日野旭が丘給水所","province":"東京都","city":"日野市","address":"東京都日野市旭が丘2-42-2","lat":35.662666,"lon":139.368353},{"name":"＊?日野市中央公民館","province":"東京都","city":"日野市","address":"日野市日野本町7-5-23","lat":35.67924,"lon":139.399963},{"name":"市立大坂西公園","province":"東京都","city":"日野市","address":"東京都日野市大坂上1-14-4","lat":35.6764482,"lon":139.3902429},{"name":"多摩平給水所","province":"東京都","city":"日野市","address":"東京都日野市多摩平2-7-2","lat":35.6650353,"lon":139.382619},{"name":"程久保給水所","province":"東京都","city":"日野市","address":"東京都日野市程久保5-10-1","lat":35.64064,"lon":139.395207},{"name":"三沢配水所","province":"東京都","city":"日野市","address":"東京都日野市三沢905-2","lat":35.652935,"lon":139.420362},{"name":"日野旭が丘給水所","province":"東京都","city":"日野市","address":"東京都日野市旭が丘2-42-2","lat":35.662666,"lon":139.368353},{"name":"＊?日野市中央公民館","province":"東京都","city":"日野市","address":"日野市日野本町7-5-23","lat":35.67924,"lon":139.399963},{"name":"市立大坂西公園","province":"東京都","city":"日野市","address":"東京都日野市大坂上1-14-4","lat":35.6764482,"lon":139.3902429},{"name":"多摩平給水所","province":"東京都","city":"日野市","address":"東京都日野市多摩平2-7-2","lat":35.6650353,"lon":139.382619},{"name":"程久保給水所","province":"東京都","city":"日野市","address":"東京都日野市程久保5-10-1","lat":35.64064,"lon":139.395207},{"name":"三沢配水所","province":"東京都","city":"日野市","address":"東京都日野市三沢905-2","lat":35.652935,"lon":139.420362},{"name":"日野旭が丘給水所","province":"東京都","city":"日野市","address":"東京都日野市旭が丘2-42-2","lat":35.662666,"lon":139.368353},{"name":"＊?日野市中央公民館","province":"東京都","city":"日野市","address":"日野市日野本町7-5-23","lat":35.67924,"lon":139.399963},{"name":"市立大坂西公園","province":"東京都","city":"日野市","address":"東京都日野市大坂上1-14-4","lat":35.6764482,"lon":139.3902429},{"name":"多摩平給水所","province":"東京都","city":"日野市","address":"東京都日野市多摩平2-7-2","lat":35.6650353,"lon":139.382619},{"name":"程久保給水所","province":"東京都","city":"日野市","address":"東京都日野市程久保5-10-1","lat":35.64064,"lon":139.395207},{"name":"三沢配水所","province":"東京都","city":"日野市","address":"東京都日野市三沢905-2","lat":35.652935,"lon":139.420362},{"name":"日野旭が丘給水所","province":"東京都","city":"日野市","address":"東京都日野市旭が丘2-42-2","lat":35.662666,"lon":139.368353},{"name":"＊?日野市中央公民館","province":"東京都","city":"日野市","address":"日野市日野本町7-5-23","lat":35.67924,"lon":139.399963},{"name":"市立大坂西公園","province":"東京都","city":"日野市","address":"東京都日野市大坂上1-14-4","lat":35.6764482,"lon":139.3902429},{"name":"多摩平給水所","province":"東京都","city":"日野市","address":"東京都日野市多摩平2-7-2","lat":35.6650353,"lon":139.382619},{"name":"程久保給水所","province":"東京都","city":"日野市","address":"東京都日野市程久保5-10-1","lat":35.64064,"lon":139.395207},{"name":"三沢配水所","province":"東京都","city":"日野市","address":"東京都日野市三沢905-2","lat":35.652935,"lon":139.420362},{"name":"日野旭が丘給水所","province":"東京都","city":"日野市","address":"東京都日野市旭が丘2-42-2","lat":35.662666,"lon":139.368353},{"name":"＊?日野市中央公民館","province":"東京都","city":"日野市","address":"日野市日野本町7-5-23","lat":35.67924,"lon":139.399963},{"name":"市立大坂西公園","province":"東京都","city":"日野市","address":"東京都日野市大坂上1-14-4","lat":35.6764482,"lon":139.3902429},{"name":"多摩平給水所","province":"東京都","city":"日野市","address":"東京都日野市多摩平2-7-2","lat":35.6650353,"lon":139.382619},{"name":"程久保給水所","province":"東京都","city":"日野市","address":"東京都日野市程久保5-10-1","lat":35.64064,"lon":139.395207},{"name":"三沢配水所","province":"東京都","city":"日野市","address":"東京都日野市三沢905-2","lat":35.652935,"lon":139.420362},{"name":"日野旭が丘給水所","province":"東京都","city":"日野市","address":"東京都日野市旭が丘2-42-2","lat":35.662666,"lon":139.368353},{"name":"＊?日野市中央公民館","province":"東京都","city":"日野市","address":"日野市日野本町7-5-23","lat":35.67924,"lon":139.399963},{"name":"市立大坂西公園","province":"東京都","city":"日野市","address":"東京都日野市大坂上1-14-4","lat":35.6764482,"lon":139.3902429},{"name":"多摩平給水所","province":"東京都","city":"日野市","address":"東京都日野市多摩平2-7-2","lat":35.6650353,"lon":139.382619},{"name":"程久保給水所","province":"東京都","city":"日野市","address":"東京都日野市程久保5-10-1","lat":35.64064,"lon":139.395207},{"name":"三沢配水所","province":"東京都","city":"日野市","address":"東京都日野市三沢905-2","lat":35.652935,"lon":139.420362},{"name":"日野旭が丘給水所","province":"東京都","city":"日野市","address":"東京都日野市旭が丘2-42-2","lat":35.662666,"lon":139.368353},{"name":"＊?日野市中央公民館","province":"東京都","city":"日野市","address":"日野市日野本町7-5-23","lat":35.67924,"lon":139.399963},{"name":"市立大坂西公園","province":"東京都","city":"日野市","address":"東京都日野市大坂上1-14-4","lat":35.6764482,"lon":139.3902429},{"name":"多摩平給水所","province":"東京都","city":"日野市","address":"東京都日野市多摩平2-7-2","lat":35.6650353,"lon":139.382619},{"name":"程久保給水所","province":"東京都","city":"日野市","address":"東京都日野市程久保5-10-1","lat":35.64064,"lon":139.395207},{"name":"三沢配水所","province":"東京都","city":"日野市","address":"東京都日野市三沢905-2","lat":35.652935,"lon":139.420362},{"name":"日野旭が丘給水所","province":"東京都","city":"日野市","address":"東京都日野市旭が丘2-42-2","lat":35.662666,"lon":139.368353},{"name":"＊?日野市中央公民館","province":"東京都","city":"日野市","address":"日野市日野本町7-5-23","lat":35.67924,"lon":139.399963},{"name":"市立大坂西公園","province":"東京都","city":"日野市","address":"東京都日野市大坂上1-14-4","lat":35.6764482,"lon":139.3902429},{"name":"多摩平給水所","province":"東京都","city":"日野市","address":"東京都日野市多摩平2-7-2","lat":35.6650353,"lon":139.382619},{"name":"程久保給水所","province":"東京都","city":"日野市","address":"東京都日野市程久保5-10-1","lat":35.64064,"lon":139.395207},{"name":"三沢配水所","province":"東京都","city":"日野市","address":"東京都日野市三沢905-2","lat":35.652935,"lon":139.420362},{"name":"日野旭が丘給水所","province":"東京都","city":"日野市","address":"東京都日野市旭が丘2-42-2","lat":35.662666,"lon":139.368353},{"name":"＊?日野市中央公民館","province":"東京都","city":"日野市","address":"日野市日野本町7-5-23","lat":35.67924,"lon":139.399963},{"name":"市立大坂西公園","province":"東京都","city":"日野市","address":"東京都日野市大坂上1-14-4","lat":35.6764482,"lon":139.3902429},{"name":"多摩平給水所","province":"東京都","city":"日野市","address":"東京都日野市多摩平2-7-2","lat":35.6650353,"lon":139.382619},{"name":"程久保給水所","province":"東京都","city":"日野市","address":"東京都日野市程久保5-10-1","lat":35.64064,"lon":139.395207},{"name":"三沢配水所","province":"東京都","city":"日野市","address":"東京都日野市三沢905-2","lat":35.652935,"lon":139.420362},{"name":"日野旭が丘給水所","province":"東京都","city":"日野市","address":"東京都日野市旭が丘2-42-2","lat":35.662666,"lon":139.368353},{"name":"＊?日野市中央公民館","province":"東京都","city":"日野市","address":"日野市日野本町7-5-23","lat":35.67924,"lon":139.399963},{"name":"市立大坂西公園","province":"東京都","city":"日野市","address":"東京都日野市大坂上1-14-4","lat":35.6764482,"lon":139.3902429},{"name":"多摩平給水所","province":"東京都","city":"日野市","address":"東京都日野市多摩平2-7-2","lat":35.6650353,"lon":139.382619},{"name":"程久保給水所","province":"東京都","city":"日野市","address":"東京都日野市程久保5-10-1","lat":35.64064,"lon":139.395207},{"name":"三沢配水所","province":"東京都","city":"日野市","address":"東京都日野市三沢905-2","lat":35.652935,"lon":139.420362},{"name":"日野旭が丘給水所","province":"東京都","city":"日野市","address":"東京都日野市旭が丘2-42-2","lat":35.662666,"lon":139.368353},{"name":"＊?日野市中央公民館","province":"東京都","city":"日野市","address":"日野市日野本町7-5-23","lat":35.67924,"lon":139.399963},{"name":"市立大坂西公園","province":"東京都","city":"日野市","address":"東京都日野市大坂上1-14-4","lat":35.6764482,"lon":139.3902429},{"name":"多摩平給水所","province":"東京都","city":"日野市","address":"東京都日野市多摩平2-7-2","lat":35.6650353,"lon":139.382619},{"name":"程久保給水所","province":"東京都","city":"日野市","address":"東京都日野市程久保5-10-1","lat":35.64064,"lon":139.395207},{"name":"三沢配水所","province":"東京都","city":"日野市","address":"東京都日野市三沢905-2","lat":35.652935,"lon":139.420362},{"name":"日野旭が丘給水所","province":"東京都","city":"日野市","address":"東京都日野市旭が丘2-42-2","lat":35.662666,"lon":139.368353},{"name":"＊?日野市中央公民館","province":"東京都","city":"日野市","address":"日野市日野本町7-5-23","lat":35.67924,"lon":139.399963},{"name":"市立大坂西公園","province":"東京都","city":"日野市","address":"東京都日野市大坂上1-14-4","lat":35.6764482,"lon":139.3902429},{"name":"多摩平給水所","province":"東京都","city":"日野市","address":"東京都日野市多摩平2-7-2","lat":35.6650353,"lon":139.382619},{"name":"程久保給水所","province":"東京都","city":"日野市","address":"東京都日野市程久保5-10-1","lat":35.64064,"lon":139.395207},{"name":"三沢配水所","province":"東京都","city":"日野市","address":"東京都日野市三沢905-2","lat":35.652935,"lon":139.420362},{"name":"日野旭が丘給水所","province":"東京都","city":"日野市","address":"東京都日野市旭が丘2-42-2","lat":35.662666,"lon":139.368353},{"name":"＊?日野市中央公民館","province":"東京都","city":"日野市","address":"日野市日野本町7-5-23","lat":35.67924,"lon":139.399963},{"name":"市立大坂西公園","province":"東京都","city":"日野市","address":"東京都日野市大坂上1-14-4","lat":35.6764482,"lon":139.3902429},{"name":"多摩平給水所","province":"東京都","city":"日野市","address":"東京都日野市多摩平2-7-2","lat":35.6650353,"lon":139.382619},{"name":"程久保給水所","province":"東京都","city":"日野市","address":"東京都日野市程久保5-10-1","lat":35.64064,"lon":139.395207},{"name":"三沢配水所","province":"東京都","city":"日野市","address":"東京都日野市三沢905-2","lat":35.652935,"lon":139.420362},{"name":"日野旭が丘給水所","province":"東京都","city":"日野市","address":"東京都日野市旭が丘2-42-2","lat":35.662666,"lon":139.368353},{"name":"＊?日野市中央公民館","province":"東京都","city":"日野市","address":"日野市日野本町7-5-23","lat":35.67924,"lon":139.399963},{"name":"市立大坂西公園","province":"東京都","city":"日野市","address":"東京都日野市大坂上1-14-4","lat":35.6764482,"lon":139.3902429},{"name":"多摩平給水所","province":"東京都","city":"日野市","address":"東京都日野市多摩平2-7-2","lat":35.6650353,"lon":139.382619},{"name":"程久保給水所","province":"東京都","city":"日野市","address":"東京都日野市程久保5-10-1","lat":35.64064,"lon":139.395207},{"name":"三沢配水所","province":"東京都","city":"日野市","address":"東京都日野市三沢905-2","lat":35.652935,"lon":139.420362},{"name":"日野旭が丘給水所","province":"東京都","city":"日野市","address":"東京都日野市旭が丘2-42-2","lat":35.662666,"lon":139.368353},{"name":"＊?日野市中央公民館","province":"東京都","city":"日野市","address":"日野市日野本町7-5-23","lat":35.67924,"lon":139.399963},{"name":"市立大坂西公園","province":"東京都","city":"日野市","address":"東京都日野市大坂上1-14-4","lat":35.6764482,"lon":139.3902429},{"name":"多摩平給水所","province":"東京都","city":"日野市","address":"東京都日野市多摩平2-7-2","lat":35.6650353,"lon":139.382619},{"name":"程久保給水所","province":"東京都","city":"日野市","address":"東京都日野市程久保5-10-1","lat":35.64064,"lon":139.395207},{"name":"三沢配水所","province":"東京都","city":"日野市","address":"東京都日野市三沢905-2","lat":35.652935,"lon":139.420362},{"name":"日野旭が丘給水所","province":"東京都","city":"日野市","address":"東京都日野市旭が丘2-42-2","lat":35.662666,"lon":139.368353},{"name":"＊?日野市中央公民館","province":"東京都","city":"日野市","address":"日野市日野本町7-5-23","lat":35.67924,"lon":139.399963},{"name":"市立大坂西公園","province":"東京都","city":"日野市","address":"東京都日野市大坂上1-14-4","lat":35.6764482,"lon":139.3902429},{"name":"多摩平給水所","province":"東京都","city":"日野市","address":"東京都日野市多摩平2-7-2","lat":35.6650353,"lon":139.382619},{"name":"程久保給水所","province":"東京都","city":"日野市","address":"東京都日野市程久保5-10-1","lat":35.64064,"lon":139.395207},{"name":"三沢配水所","province":"東京都","city":"日野市","address":"東京都日野市三沢905-2","lat":35.652935,"lon":139.420362},{"name":"日野旭が丘給水所","province":"東京都","city":"日野市","address":"東京都日野市旭が丘2-42-2","lat":35.662666,"lon":139.368353},{"name":"＊?日野市中央公民館","province":"東京都","city":"日野市","address":"日野市日野本町7-5-23","lat":35.67924,"lon":139.399963},{"name":"市立大坂西公園","province":"東京都","city":"日野市","address":"東京都日野市大坂上1-14-4","lat":35.6764482,"lon":139.3902429},{"name":"多摩平給水所","province":"東京都","city":"日野市","address":"東京都日野市多摩平2-7-2","lat":35.6650353,"lon":139.382619},{"name":"程久保給水所","province":"東京都","city":"日野市","address":"東京都日野市程久保5-10-1","lat":35.64064,"lon":139.395207},{"name":"三沢配水所","province":"東京都","city":"日野市","address":"東京都日野市三沢905-2","lat":35.652935,"lon":139.420362},{"name":"日野旭が丘給水所","province":"東京都","city":"日野市","address":"東京都日野市旭が丘2-42-2","lat":35.662666,"lon":139.368353},{"name":"＊?日野市中央公民館","province":"東京都","city":"日野市","address":"日野市日野本町7-5-23","lat":35.67924,"lon":139.399963},{"name":"市立大坂西公園","province":"東京都","city":"日野市","address":"東京都日野市大坂上1-14-4","lat":35.6764482,"lon":139.3902429},{"name":"多摩平給水所","province":"東京都","city":"日野市","address":"東京都日野市多摩平2-7-2","lat":35.6650353,"lon":139.382619},{"name":"程久保給水所","province":"東京都","city":"日野市","address":"東京都日野市程久保5-10-1","lat":35.64064,"lon":139.395207},{"name":"三沢配水所","province":"東京都","city":"日野市","address":"東京都日野市三沢905-2","lat":35.652935,"lon":139.420362},{"name":"日野旭が丘給水所","province":"東京都","city":"日野市","address":"東京都日野市旭が丘2-42-2","lat":35.662666,"lon":139.368353},{"name":"＊?日野市中央公民館","province":"東京都","city":"日野市","address":"日野市日野本町7-5-23","lat":35.67924,"lon":139.399963},{"name":"市立大坂西公園","province":"東京都","city":"日野市","address":"東京都日野市大坂上1-14-4","lat":35.6764482,"lon":139.3902429},{"name":"多摩平給水所","province":"東京都","city":"日野市","address":"東京都日野市多摩平2-7-2","lat":35.6650353,"lon":139.382619},{"name":"程久保給水所","province":"東京都","city":"日野市","address":"東京都日野市程久保5-10-1","lat":35.64064,"lon":139.395207},{"name":"三沢配水所","province":"東京都","city":"日野市","address":"東京都日野市三沢905-2","lat":35.652935,"lon":139.420362},{"name":"日野旭が丘給水所","province":"東京都","city":"日野市","address":"東京都日野市旭が丘2-42-2","lat":35.662666,"lon":139.368353},{"name":"＊?日野市中央公民館","province":"東京都","city":"日野市","address":"日野市日野本町7-5-23","lat":35.67924,"lon":139.399963},{"name":"市立大坂西公園","province":"東京都","city":"日野市","address":"東京都日野市大坂上1-14-4","lat":35.6764482,"lon":139.3902429},{"name":"多摩平給水所","province":"東京都","city":"日野市","address":"東京都日野市多摩平2-7-2","lat":35.6650353,"lon":139.382619},{"name":"程久保給水所","province":"東京都","city":"日野市","address":"東京都日野市程久保5-10-1","lat":35.64064,"lon":139.395207},{"name":"三沢配水所","province":"東京都","city":"日野市","address":"東京都日野市三沢905-2","lat":35.652935,"lon":139.420362},{"name":"日野旭が丘給水所","province":"東京都","city":"日野市","address":"東京都日野市旭が丘2-42-2","lat":35.662666,"lon":139.368353},{"name":"＊?日野市中央公民館","province":"東京都","city":"日野市","address":"日野市日野本町7-5-23","lat":35.67924,"lon":139.399963},{"name":"市立大坂西公園","province":"東京都","city":"日野市","address":"東京都日野市大坂上1-14-4","lat":35.6764482,"lon":139.3902429},{"name":"多摩平給水所","province":"東京都","city":"日野市","address":"東京都日野市多摩平2-7-2","lat":35.6650353,"lon":139.382619},{"name":"程久保給水所","province":"東京都","city":"日野市","address":"東京都日野市程久保5-10-1","lat":35.64064,"lon":139.395207},{"name":"三沢配水所","province":"東京都","city":"日野市","address":"東京都日野市三沢905-2","lat":35.652935,"lon":139.420362},{"name":"日野旭が丘給水所","province":"東京都","city":"日野市","address":"東京都日野市旭が丘2-42-2","lat":35.662666,"lon":139.368353},{"name":"＊?日野市中央公民館","province":"東京都","city":"日野市","address":"日野市日野本町7-5-23","lat":35.67924,"lon":139.399963}]}