{"keyword":"戸数","data":[{"name":"日野市社会福祉協議会","province":"東京都","city":"日野市","address":"日野市日野本町7-5-23中央福祉センター内1階","lat":35.679503,"lon":139.400098},{"name":"日野市","province":"東京都","city":"日野市","address":"日野市神明1-12-1","lat":35.6705042,"lon":139.3955122},{"name":"東都式典","province":"東京都","city":"日野市","address":"東京都日野市多摩平5丁目8-1","lat":35.67018984,"lon":139.37533055},{"name":"マハヤナ協会","province":"東京都","city":"日野市","address":"東京都日野市日野本町2丁目13-11","lat":35.67784776,"lon":139.39786173},{"name":"都典礼","province":"東京都","city":"日野市","address":"東京都日野市日野（大字）377-11","lat":35.67198745,"lon":139.40288652},{"name":"セレモハイネス","province":"東京都","city":"日野市","address":"東京都日野市旭が丘2丁目12-7","lat":35.66024094,"lon":139.37303103},{"name":"セレモニー小峰","province":"東京都","city":"日野市","address":"東京都日野市程久保8丁目2-9","lat":35.65189547,"lon":139.40807845},{"name":"三和式典","province":"東京都","city":"日野市","address":"東京都日野市栄町5丁目6-2","lat":35.68492162,"lon":139.38323495},{"name":"JA東京みなみ（日野支店）","province":"東京都","city":"日野市","address":"東京都日野市三沢3丁目53-15","lat":35.65907259,"lon":139.41413049},{"name":"西東京葬研","province":"東京都","city":"日野市","address":"東京都日野市南平3丁目11-19","lat":35.65925002,"lon":139.4019509},{"name":"葬援（日野市 葬儀相談センター）","province":"東京都","city":"日野市","address":"東京都日野市東豊田4丁目17-3","lat":35.66308262,"lon":139.38957679},{"name":"いちょう葬縁","province":"東京都","city":"日野市","address":"東京都日野市程久保8丁目49-3","lat":35.65026501,"lon":139.40499263},{"name":"サン・ライフ ファミリーホール日野","province":"東京都","city":"日野市","address":"東京都日野市多摩平6丁目17-11","lat":35.66818186,"lon":139.38183561},{"name":"日野セレモニー","province":"東京都","city":"日野市","address":"東京都日野市大坂上2丁目5-7","lat":35.67537839,"lon":139.38834874},{"name":"東都式典（有）","province":"東京都","city":"日野市","address":"東京都日野市多摩平5丁目8-1","lat":35.67018984,"lon":139.37533055},{"name":"日野市社会福祉協議会","province":"東京都","city":"日野市","address":"日野市日野本町7-5-23中央福祉センター内","lat":35.67959,"lon":139.39977},{"name":"日野市高齢福祉課","province":"東京都","city":"日野市","address":"日野市神明1-12-1","lat":35.670986,"lon":139.395279},{"name":"日野市地域包括支援センターもぐさ","province":"東京都","city":"日野市","address":"日野市落川1070","lat":35.656994,"lon":139.430054},{"name":"日野市地域包括支援センターあさかわ","province":"東京都","city":"日野市","address":"日野市高幡864-4","lat":35.663918,"lon":139.409134},{"name":"日野市地域包括支援センターすてっぷ","province":"東京都","city":"日野市","address":"日野市豊田3-1-8","lat":35.657356,"lon":139.384079},{"name":"日野市地域包括支援センターあいりん","province":"東京都","city":"日野市","address":"日野市多摩平6-31-7","lat":35.670166,"lon":139.383896},{"name":"日野市地域包括支援センターせせらぎ","province":"東京都","city":"日野市","address":"日野市日野本町6-3-17","lat":35.683159,"lon":139.402542},{"name":"日野市地域包括支援センター多摩川苑","province":"東京都","city":"日野市","address":"日野市万願寺1-16-1","lat":35.675983,"lon":139.420212},{"name":"日野市地域包括支援センターいきいきタウン","province":"東京都","city":"日野市","address":"日野市東平山3-1-1","lat":35.654514,"lon":139.378799},{"name":"日野市地域包括支援センターすずらん","province":"東京都","city":"日野市","address":"日野市南平7-19-13","lat":35.654911,"lon":139.392914},{"name":"日野市地域包括支援センターかわきた","province":"東京都","city":"日野市","address":"日野市西平山1-12-1","lat":35.648754,"lon":139.374802},{"name":"日野市消費生活センター","province":"東京都","city":"日野市","address":"日野市日野本町1-6-2","lat":35.675922,"lon":139.400253},{"name":"日野市立病院","province":"東京都","city":"日野市","address":"東京都日野市多摩平4丁目3-1","lat":35.66706526,"lon":139.37837205},{"name":"日野市営火葬場","province":"東京都","city":"日野市","address":"東京都日野市多摩平3丁目28-8","lat":35.66523759,"lon":139.37320031},{"name":"大坂上浄水所","province":"東京都","city":"日野市","address":"東京都日野市大坂上1丁目17-11","lat":35.67723932,"lon":139.38981523},{"name":"多摩平浄水所","province":"東京都","city":"日野市","address":"東京都日野市多摩平2丁目7-2","lat":35.66503502,"lon":139.38261897},{"name":"程久保給水所","province":"東京都","city":"日野市","address":"東京都日野市程久保5丁目10-1","lat":35.64065199,"lon":139.3951993},{"name":"東光寺グラウンド","province":"東京都","city":"日野市","address":"東京都日野市栄町5丁目5","lat":35.68608814,"lon":139.38274327},{"name":"浅川スポーツ広場","province":"東京都","city":"日野市","address":"東京都日野市万願寺5丁目3","lat":35.66786596,"lon":139.41298862},{"name":"豊田児童グラウンド","province":"東京都","city":"日野市","address":"東京都日野市豊田1丁目3","lat":35.65792487,"lon":139.38949084},{"name":"多摩川総合グラウンド","province":"東京都","city":"日野市","address":"東京都日野市万願寺1丁目1-2","lat":35.67381832,"lon":139.42369866},{"name":"杉野女子大学日野キャンパス","province":"東京都","city":"日野市","address":"東京都日野市百草1006","lat":35.64705754,"lon":139.42177197},{"name":"市民の森スポーツ公園","province":"東京都","city":"日野市","address":"東京都日野市日野本町7丁目12","lat":35.67999207,"lon":139.4022724},{"name":"日野市立多摩平第一公園","province":"東京都","city":"日野市","address":"東京都日野市多摩平4丁目2","lat":35.66661255,"lon":139.37938586},{"name":"平山台健康・市民支援センター","province":"東京都","city":"日野市","address":"東京都日野市平山2丁目1-1","lat":35.64097677,"lon":139.38713883},{"name":"万願寺中央公園グラウンド","province":"東京都","city":"日野市","address":"東京都日野市万願寺4丁目20-11","lat":35.67042683,"lon":139.41514947},{"name":"日野市選挙管理委員会","province":"東京都","city":"日野市","address":"日野市神明1-12-1","lat":35.670496,"lon":139.395606},{"name":"首都大学東京日野キャンパス","province":"東京都","city":"日野市","address":"東京都日野市旭が丘6丁目6","lat":35.66122125,"lon":139.36573439},{"name":"日野台高等学校","province":"東京都","city":"日野市","address":"東京都日野市大坂上4丁目16-1","lat":35.67263422,"lon":139.38604902},{"name":"南平高等学校","province":"東京都","city":"日野市","address":"東京都日野市南平8丁目2-3","lat":35.65158408,"lon":139.39627937},{"name":"日野高等学校","province":"東京都","city":"日野市","address":"東京都日野市石田1丁目190-1","lat":35.66727187,"lon":139.42331557},{"name":"日野市社会福祉協議会","province":"東京都","city":"日野市","address":"日野市日野本町7-5-23中央福祉センター内1階","lat":35.679503,"lon":139.400098},{"name":"日野市社会福祉協議会","province":"東京都","city":"日野市","address":"日野市日野本町7-5-23中央福祉センター内","lat":35.67959,"lon":139.39977},{"name":"日野市高齢福祉課","province":"東京都","city":"日野市","address":"日野市神明1-12-1","lat":35.670986,"lon":139.395279},{"name":"日野市地域包括支援センターもぐさ","province":"東京都","city":"日野市","address":"日野市落川1070","lat":35.656994,"lon":139.430054},{"name":"日野市地域包括支援センターあさかわ","province":"東京都","city":"日野市","address":"日野市高幡864-4","lat":35.663918,"lon":139.409134},{"name":"日野市地域包括支援センターすてっぷ","province":"東京都","city":"日野市","address":"日野市豊田3-1-8","lat":35.657356,"lon":139.384079},{"name":"日野市地域包括支援センターあいりん","province":"東京都","city":"日野市","address":"日野市多摩平6-31-7","lat":35.670166,"lon":139.383896},{"name":"日野市地域包括支援センターせせらぎ","province":"東京都","city":"日野市","address":"日野市日野本町6-3-17","lat":35.683159,"lon":139.402542},{"name":"日野市地域包括支援センター多摩川苑","province":"東京都","city":"日野市","address":"日野市万願寺1-16-1","lat":35.675983,"lon":139.420212},{"name":"日野市地域包括支援センターいきいきタウン","province":"東京都","city":"日野市","address":"日野市東平山3-1-1","lat":35.654514,"lon":139.378799},{"name":"日野市地域包括支援センターすずらん","province":"東京都","city":"日野市","address":"日野市南平7-19-13","lat":35.654911,"lon":139.392914},{"name":"日野市地域包括支援センターかわきた","province":"東京都","city":"日野市","address":"日野市西平山1-12-1","lat":35.648754,"lon":139.374802},{"name":"日野市消費生活センター","province":"東京都","city":"日野市","address":"日野市日野本町1-6-2","lat":35.675922,"lon":139.400253},{"name":"日野市立病院","province":"東京都","city":"日野市","address":"東京都日野市多摩平4丁目3-1","lat":35.66706526,"lon":139.37837205},{"name":"日野市営火葬場","province":"東京都","city":"日野市","address":"東京都日野市多摩平3丁目28-8","lat":35.66523759,"lon":139.37320031},{"name":"大坂上浄水所","province":"東京都","city":"日野市","address":"東京都日野市大坂上1丁目17-11","lat":35.67723932,"lon":139.38981523},{"name":"多摩平浄水所","province":"東京都","city":"日野市","address":"東京都日野市多摩平2丁目7-2","lat":35.66503502,"lon":139.38261897},{"name":"程久保給水所","province":"東京都","city":"日野市","address":"東京都日野市程久保5丁目10-1","lat":35.64065199,"lon":139.3951993},{"name":"東光寺グラウンド","province":"東京都","city":"日野市","address":"東京都日野市栄町5丁目5","lat":35.68608814,"lon":139.38274327},{"name":"浅川スポーツ広場","province":"東京都","city":"日野市","address":"東京都日野市万願寺5丁目3","lat":35.66786596,"lon":139.41298862},{"name":"豊田児童グラウンド","province":"東京都","city":"日野市","address":"東京都日野市豊田1丁目3","lat":35.65792487,"lon":139.38949084},{"name":"多摩川総合グラウンド","province":"東京都","city":"日野市","address":"東京都日野市万願寺1丁目1-2","lat":35.67381832,"lon":139.42369866},{"name":"杉野女子大学日野キャンパス","province":"東京都","city":"日野市","address":"東京都日野市百草1006","lat":35.64705754,"lon":139.42177197},{"name":"市民の森スポーツ公園","province":"東京都","city":"日野市","address":"東京都日野市日野本町7丁目12","lat":35.67999207,"lon":139.4022724},{"name":"日野市立多摩平第一公園","province":"東京都","city":"日野市","address":"東京都日野市多摩平4丁目2","lat":35.66661255,"lon":139.37938586},{"name":"平山台健康・市民支援センター","province":"東京都","city":"日野市","address":"東京都日野市平山2丁目1-1","lat":35.64097677,"lon":139.38713883},{"name":"万願寺中央公園グラウンド","province":"東京都","city":"日野市","address":"東京都日野市万願寺4丁目20-11","lat":35.67042683,"lon":139.41514947},{"name":"首都大学東京日野キャンパス","province":"東京都","city":"日野市","address":"東京都日野市旭が丘6丁目6","lat":35.66122125,"lon":139.36573439},{"name":"日野台高等学校","province":"東京都","city":"日野市","address":"東京都日野市大坂上4丁目16-1","lat":35.67263422,"lon":139.38604902},{"name":"南平高等学校","province":"東京都","city":"日野市","address":"東京都日野市南平8丁目2-3","lat":35.65158408,"lon":139.39627937},{"name":"日野高等学校","province":"東京都","city":"日野市","address":"東京都日野市石田1丁目190-1","lat":35.66727187,"lon":139.42331557},{"name":"日野市高齢福祉課","province":"東京都","city":"日野市","address":"日野市神明1-12-1","lat":35.670986,"lon":139.395279},{"name":"日野市地域包括支援センターもぐさ","province":"東京都","city":"日野市","address":"日野市落川1070","lat":35.656994,"lon":139.430054},{"name":"日野市地域包括支援センターあさかわ","province":"東京都","city":"日野市","address":"日野市高幡864-4","lat":35.663918,"lon":139.409134},{"name":"日野市地域包括支援センターすてっぷ","province":"東京都","city":"日野市","address":"日野市豊田3-1-8","lat":35.657356,"lon":139.384079},{"name":"日野市地域包括支援センターあいりん","province":"東京都","city":"日野市","address":"日野市多摩平6-31-7","lat":35.670166,"lon":139.383896},{"name":"日野市地域包括支援センターせせらぎ","province":"東京都","city":"日野市","address":"日野市日野本町6-3-17","lat":35.683159,"lon":139.402542},{"name":"日野市地域包括支援センター多摩川苑","province":"東京都","city":"日野市","address":"日野市万願寺1-16-1","lat":35.675983,"lon":139.420212},{"name":"日野市地域包括支援センターいきいきタウン","province":"東京都","city":"日野市","address":"日野市東平山3-1-1","lat":35.654514,"lon":139.378799},{"name":"日野市地域包括支援センターすずらん","province":"東京都","city":"日野市","address":"日野市南平7-19-13","lat":35.654911,"lon":139.392914},{"name":"日野市地域包括支援センターかわきた","province":"東京都","city":"日野市","address":"日野市西平山1-12-1","lat":35.648754,"lon":139.374802},{"name":"日野市消費生活センター","province":"東京都","city":"日野市","address":"日野市日野本町1-6-2","lat":35.675922,"lon":139.400253},{"name":"日野市立病院","province":"東京都","city":"日野市","address":"東京都日野市多摩平4丁目3-1","lat":35.66706526,"lon":139.37837205},{"name":"首都大学東京日野キャンパス","province":"東京都","city":"日野市","address":"東京都日野市旭が丘6丁目6","lat":35.66122125,"lon":139.36573439},{"name":"日野台高等学校","province":"東京都","city":"日野市","address":"東京都日野市大坂上4丁目16-1","lat":35.67263422,"lon":139.38604902},{"name":"南平高等学校","province":"東京都","city":"日野市","address":"東京都日野市南平8丁目2-3","lat":35.65158408,"lon":139.39627937},{"name":"日野高等学校","province":"東京都","city":"日野市","address":"東京都日野市石田1丁目190-1","lat":35.66727187,"lon":139.42331557},{"name":"日野市高齢福祉課","province":"東京都","city":"日野市","address":"日野市神明1-12-1","lat":35.670986,"lon":139.395279},{"name":"日野市地域包括支援センターもぐさ","province":"東京都","city":"日野市","address":"日野市落川1070","lat":35.656994,"lon":139.430054},{"name":"日野市地域包括支援センターあさかわ","province":"東京都","city":"日野市","address":"日野市高幡864-4","lat":35.663918,"lon":139.409134},{"name":"日野市地域包括支援センターすてっぷ","province":"東京都","city":"日野市","address":"日野市豊田3-1-8","lat":35.657356,"lon":139.384079},{"name":"日野市地域包括支援センターあいりん","province":"東京都","city":"日野市","address":"日野市多摩平6-31-7","lat":35.670166,"lon":139.383896},{"name":"日野市地域包括支援センターせせらぎ","province":"東京都","city":"日野市","address":"日野市日野本町6-3-17","lat":35.683159,"lon":139.402542},{"name":"日野市地域包括支援センター多摩川苑","province":"東京都","city":"日野市","address":"日野市万願寺1-16-1","lat":35.675983,"lon":139.420212},{"name":"日野市地域包括支援センターいきいきタウン","province":"東京都","city":"日野市","address":"日野市東平山3-1-1","lat":35.654514,"lon":139.378799},{"name":"日野市地域包括支援センターすずらん","province":"東京都","city":"日野市","address":"日野市南平7-19-13","lat":35.654911,"lon":139.392914},{"name":"日野市地域包括支援センターかわきた","province":"東京都","city":"日野市","address":"日野市西平山1-12-1","lat":35.648754,"lon":139.374802},{"name":"日野市消費生活センター","province":"東京都","city":"日野市","address":"日野市日野本町1-6-2","lat":35.675922,"lon":139.400253},{"name":"日野市立病院","province":"東京都","city":"日野市","address":"東京都日野市多摩平4丁目3-1","lat":35.66706526,"lon":139.37837205},{"name":"首都大学東京日野キャンパス","province":"東京都","city":"日野市","address":"東京都日野市旭が丘6丁目6","lat":35.66122125,"lon":139.36573439},{"name":"日野台高等学校","province":"東京都","city":"日野市","address":"東京都日野市大坂上4丁目16-1","lat":35.67263422,"lon":139.38604902},{"name":"南平高等学校","province":"東京都","city":"日野市","address":"東京都日野市南平8丁目2-3","lat":35.65158408,"lon":139.39627937},{"name":"日野高等学校","province":"東京都","city":"日野市","address":"東京都日野市石田1丁目190-1","lat":35.66727187,"lon":139.42331557},{"name":"日野市高齢福祉課","province":"東京都","city":"日野市","address":"日野市神明1-12-1","lat":35.670986,"lon":139.395279},{"name":"日野市地域包括支援センターもぐさ","province":"東京都","city":"日野市","address":"日野市落川1070","lat":35.656994,"lon":139.430054},{"name":"日野市地域包括支援センターあさかわ","province":"東京都","city":"日野市","address":"日野市高幡864-4","lat":35.663918,"lon":139.409134},{"name":"日野市地域包括支援センターすてっぷ","province":"東京都","city":"日野市","address":"日野市豊田3-1-8","lat":35.657356,"lon":139.384079},{"name":"日野市地域包括支援センターあいりん","province":"東京都","city":"日野市","address":"日野市多摩平6-31-7","lat":35.670166,"lon":139.383896},{"name":"日野市地域包括支援センターせせらぎ","province":"東京都","city":"日野市","address":"日野市日野本町6-3-17","lat":35.683159,"lon":139.402542},{"name":"日野市地域包括支援センター多摩川苑","province":"東京都","city":"日野市","address":"日野市万願寺1-16-1","lat":35.675983,"lon":139.420212},{"name":"日野市地域包括支援センターいきいきタウン","province":"東京都","city":"日野市","address":"日野市東平山3-1-1","lat":35.654514,"lon":139.378799},{"name":"日野市地域包括支援センターすずらん","province":"東京都","city":"日野市","address":"日野市南平7-19-13","lat":35.654911,"lon":139.392914},{"name":"日野市地域包括支援センターかわきた","province":"東京都","city":"日野市","address":"日野市西平山1-12-1","lat":35.648754,"lon":139.374802},{"name":"日野市消費生活センター","province":"東京都","city":"日野市","address":"日野市日野本町1-6-2","lat":35.675922,"lon":139.400253},{"name":"日野市高齢福祉課","province":"東京都","city":"日野市","address":"日野市神明1-12-1","lat":35.670986,"lon":139.395279},{"name":"日野市地域包括支援センターもぐさ","province":"東京都","city":"日野市","address":"日野市落川1070","lat":35.656994,"lon":139.430054},{"name":"日野市地域包括支援センターあさかわ","province":"東京都","city":"日野市","address":"日野市高幡864-4","lat":35.663918,"lon":139.409134},{"name":"日野市地域包括支援センターすてっぷ","province":"東京都","city":"日野市","address":"日野市豊田3-1-8","lat":35.657356,"lon":139.384079},{"name":"日野市地域包括支援センターあいりん","province":"東京都","city":"日野市","address":"日野市多摩平6-31-7","lat":35.670166,"lon":139.383896},{"name":"日野市地域包括支援センターせせらぎ","province":"東京都","city":"日野市","address":"日野市日野本町6-3-17","lat":35.683159,"lon":139.402542},{"name":"日野市地域包括支援センター多摩川苑","province":"東京都","city":"日野市","address":"日野市万願寺1-16-1","lat":35.675983,"lon":139.420212},{"name":"日野市地域包括支援センターいきいきタウン","province":"東京都","city":"日野市","address":"日野市東平山3-1-1","lat":35.654514,"lon":139.378799},{"name":"日野市地域包括支援センターすずらん","province":"東京都","city":"日野市","address":"日野市南平7-19-13","lat":35.654911,"lon":139.392914},{"name":"日野市地域包括支援センターかわきた","province":"東京都","city":"日野市","address":"日野市西平山1-12-1","lat":35.648754,"lon":139.374802},{"name":"日野市消費生活センター","province":"東京都","city":"日野市","address":"日野市日野本町1-6-2","lat":35.675922,"lon":139.400253},{"name":"日野市高齢福祉課","province":"東京都","city":"日野市","address":"日野市神明1-12-1","lat":35.670986,"lon":139.395279},{"name":"日野市地域包括支援センターもぐさ","province":"東京都","city":"日野市","address":"日野市落川1070","lat":35.656994,"lon":139.430054},{"name":"日野市地域包括支援センターあさかわ","province":"東京都","city":"日野市","address":"日野市高幡864-4","lat":35.663918,"lon":139.409134},{"name":"日野市地域包括支援センターすてっぷ","province":"東京都","city":"日野市","address":"日野市豊田3-1-8","lat":35.657356,"lon":139.384079},{"name":"日野市地域包括支援センターあいりん","province":"東京都","city":"日野市","address":"日野市多摩平6-31-7","lat":35.670166,"lon":139.383896},{"name":"日野市地域包括支援センターせせらぎ","province":"東京都","city":"日野市","address":"日野市日野本町6-3-17","lat":35.683159,"lon":139.402542},{"name":"日野市地域包括支援センター多摩川苑","province":"東京都","city":"日野市","address":"日野市万願寺1-16-1","lat":35.675983,"lon":139.420212},{"name":"日野市地域包括支援センターいきいきタウン","province":"東京都","city":"日野市","address":"日野市東平山3-1-1","lat":35.654514,"lon":139.378799},{"name":"日野市地域包括支援センターすずらん","province":"東京都","city":"日野市","address":"日野市南平7-19-13","lat":35.654911,"lon":139.392914},{"name":"日野市地域包括支援センターかわきた","province":"東京都","city":"日野市","address":"日野市西平山1-12-1","lat":35.648754,"lon":139.374802},{"name":"日野市消費生活センター","province":"東京都","city":"日野市","address":"日野市日野本町1-6-2","lat":35.675922,"lon":139.400253},{"name":"日野市高齢福祉課","province":"東京都","city":"日野市","address":"日野市神明1-12-1","lat":35.670986,"lon":139.395279},{"name":"日野市地域包括支援センターもぐさ","province":"東京都","city":"日野市","address":"日野市落川1070","lat":35.656994,"lon":139.430054},{"name":"日野市地域包括支援センターあさかわ","province":"東京都","city":"日野市","address":"日野市高幡864-4","lat":35.663918,"lon":139.409134},{"name":"日野市地域包括支援センターすてっぷ","province":"東京都","city":"日野市","address":"日野市豊田3-1-8","lat":35.657356,"lon":139.384079},{"name":"日野市地域包括支援センターあいりん","province":"東京都","city":"日野市","address":"日野市多摩平6-31-7","lat":35.670166,"lon":139.383896},{"name":"日野市地域包括支援センターせせらぎ","province":"東京都","city":"日野市","address":"日野市日野本町6-3-17","lat":35.683159,"lon":139.402542},{"name":"日野市地域包括支援センター多摩川苑","province":"東京都","city":"日野市","address":"日野市万願寺1-16-1","lat":35.675983,"lon":139.420212},{"name":"日野市地域包括支援センターいきいきタウン","province":"東京都","city":"日野市","address":"日野市東平山3-1-1","lat":35.654514,"lon":139.378799},{"name":"日野市地域包括支援センターすずらん","province":"東京都","city":"日野市","address":"日野市南平7-19-13","lat":35.654911,"lon":139.392914},{"name":"日野市地域包括支援センターかわきた","province":"東京都","city":"日野市","address":"日野市西平山1-12-1","lat":35.648754,"lon":139.374802},{"name":"日野市消費生活センター","province":"東京都","city":"日野市","address":"日野市日野本町1-6-2","lat":35.675922,"lon":139.400253},{"name":"日野市高齢福祉課","province":"東京都","city":"日野市","address":"日野市神明1-12-1","lat":35.670986,"lon":139.395279},{"name":"日野市地域包括支援センターもぐさ","province":"東京都","city":"日野市","address":"日野市落川1070","lat":35.656994,"lon":139.430054},{"name":"日野市地域包括支援センターあさかわ","province":"東京都","city":"日野市","address":"日野市高幡864-4","lat":35.663918,"lon":139.409134},{"name":"日野市地域包括支援センターすてっぷ","province":"東京都","city":"日野市","address":"日野市豊田3-1-8","lat":35.657356,"lon":139.384079},{"name":"日野市地域包括支援センターあいりん","province":"東京都","city":"日野市","address":"日野市多摩平6-31-7","lat":35.670166,"lon":139.383896},{"name":"日野市地域包括支援センターせせらぎ","province":"東京都","city":"日野市","address":"日野市日野本町6-3-17","lat":35.683159,"lon":139.402542},{"name":"日野市地域包括支援センター多摩川苑","province":"東京都","city":"日野市","address":"日野市万願寺1-16-1","lat":35.675983,"lon":139.420212},{"name":"日野市地域包括支援センターいきいきタウン","province":"東京都","city":"日野市","address":"日野市東平山3-1-1","lat":35.654514,"lon":139.378799},{"name":"日野市地域包括支援センターすずらん","province":"東京都","city":"日野市","address":"日野市南平7-19-13","lat":35.654911,"lon":139.392914},{"name":"日野市地域包括支援センターかわきた","province":"東京都","city":"日野市","address":"日野市西平山1-12-1","lat":35.648754,"lon":139.374802},{"name":"日野市消費生活センター","province":"東京都","city":"日野市","address":"日野市日野本町1-6-2","lat":35.675922,"lon":139.400253},{"name":"日野市高齢福祉課","province":"東京都","city":"日野市","address":"日野市神明1-12-1","lat":35.670986,"lon":139.395279},{"name":"日野市地域包括支援センターもぐさ","province":"東京都","city":"日野市","address":"日野市落川1070","lat":35.656994,"lon":139.430054},{"name":"日野市地域包括支援センターあさかわ","province":"東京都","city":"日野市","address":"日野市高幡864-4","lat":35.663918,"lon":139.409134},{"name":"日野市地域包括支援センターすてっぷ","province":"東京都","city":"日野市","address":"日野市豊田3-1-8","lat":35.657356,"lon":139.384079},{"name":"日野市地域包括支援センターあいりん","province":"東京都","city":"日野市","address":"日野市多摩平6-31-7","lat":35.670166,"lon":139.383896},{"name":"日野市地域包括支援センターせせらぎ","province":"東京都","city":"日野市","address":"日野市日野本町6-3-17","lat":35.683159,"lon":139.402542},{"name":"日野市地域包括支援センター多摩川苑","province":"東京都","city":"日野市","address":"日野市万願寺1-16-1","lat":35.675983,"lon":139.420212},{"name":"日野市地域包括支援センターいきいきタウン","province":"東京都","city":"日野市","address":"日野市東平山3-1-1","lat":35.654514,"lon":139.378799},{"name":"日野市地域包括支援センターすずらん","province":"東京都","city":"日野市","address":"日野市南平7-19-13","lat":35.654911,"lon":139.392914},{"name":"日野市地域包括支援センターかわきた","province":"東京都","city":"日野市","address":"日野市西平山1-12-1","lat":35.648754,"lon":139.374802},{"name":"日野市消費生活センター","province":"東京都","city":"日野市","address":"日野市日野本町1-6-2","lat":35.675922,"lon":139.400253},{"name":"日野市高齢福祉課","province":"東京都","city":"日野市","address":"日野市神明1-12-1","lat":35.670986,"lon":139.395279},{"name":"日野市地域包括支援センターもぐさ","province":"東京都","city":"日野市","address":"日野市落川1070","lat":35.656994,"lon":139.430054},{"name":"日野市地域包括支援センターあさかわ","province":"東京都","city":"日野市","address":"日野市高幡864-4","lat":35.663918,"lon":139.409134},{"name":"日野市地域包括支援センターすてっぷ","province":"東京都","city":"日野市","address":"日野市豊田3-1-8","lat":35.657356,"lon":139.384079},{"name":"日野市地域包括支援センターあいりん","province":"東京都","city":"日野市","address":"日野市多摩平6-31-7","lat":35.670166,"lon":139.383896},{"name":"日野市地域包括支援センターせせらぎ","province":"東京都","city":"日野市","address":"日野市日野本町6-3-17","lat":35.683159,"lon":139.402542},{"name":"日野市地域包括支援センター多摩川苑","province":"東京都","city":"日野市","address":"日野市万願寺1-16-1","lat":35.675983,"lon":139.420212},{"name":"日野市地域包括支援センターいきいきタウン","province":"東京都","city":"日野市","address":"日野市東平山3-1-1","lat":35.654514,"lon":139.378799},{"name":"日野市地域包括支援センターすずらん","province":"東京都","city":"日野市","address":"日野市南平7-19-13","lat":35.654911,"lon":139.392914},{"name":"日野市地域包括支援センターかわきた","province":"東京都","city":"日野市","address":"日野市西平山1-12-1","lat":35.648754,"lon":139.374802},{"name":"日野市消費生活センター","province":"東京都","city":"日野市","address":"日野市日野本町1-6-2","lat":35.675922,"lon":139.400253},{"name":"日野市高齢福祉課","province":"東京都","city":"日野市","address":"日野市神明1-12-1","lat":35.670986,"lon":139.395279},{"name":"日野市地域包括支援センターもぐさ","province":"東京都","city":"日野市","address":"日野市落川1070","lat":35.656994,"lon":139.430054},{"name":"日野市地域包括支援センターあさかわ","province":"東京都","city":"日野市","address":"日野市高幡864-4","lat":35.663918,"lon":139.409134},{"name":"日野市地域包括支援センターすてっぷ","province":"東京都","city":"日野市","address":"日野市豊田3-1-8","lat":35.657356,"lon":139.384079},{"name":"日野市地域包括支援センターあいりん","province":"東京都","city":"日野市","address":"日野市多摩平6-31-7","lat":35.670166,"lon":139.383896},{"name":"日野市地域包括支援センターせせらぎ","province":"東京都","city":"日野市","address":"日野市日野本町6-3-17","lat":35.683159,"lon":139.402542},{"name":"日野市地域包括支援センター多摩川苑","province":"東京都","city":"日野市","address":"日野市万願寺1-16-1","lat":35.675983,"lon":139.420212},{"name":"日野市地域包括支援センターいきいきタウン","province":"東京都","city":"日野市","address":"日野市東平山3-1-1","lat":35.654514,"lon":139.378799},{"name":"日野市地域包括支援センターすずらん","province":"東京都","city":"日野市","address":"日野市南平7-19-13","lat":35.654911,"lon":139.392914},{"name":"日野市地域包括支援センターかわきた","province":"東京都","city":"日野市","address":"日野市西平山1-12-1","lat":35.648754,"lon":139.374802},{"name":"日野市消費生活センター","province":"東京都","city":"日野市","address":"日野市日野本町1-6-2","lat":35.675922,"lon":139.400253},{"name":"日野市高齢福祉課","province":"東京都","city":"日野市","address":"日野市神明1-12-1","lat":35.670986,"lon":139.395279},{"name":"日野市地域包括支援センターもぐさ","province":"東京都","city":"日野市","address":"日野市落川1070","lat":35.656994,"lon":139.430054},{"name":"日野市地域包括支援センターあさかわ","province":"東京都","city":"日野市","address":"日野市高幡864-4","lat":35.663918,"lon":139.409134},{"name":"日野市地域包括支援センターすてっぷ","province":"東京都","city":"日野市","address":"日野市豊田3-1-8","lat":35.657356,"lon":139.384079},{"name":"日野市地域包括支援センターあいりん","province":"東京都","city":"日野市","address":"日野市多摩平6-31-7","lat":35.670166,"lon":139.383896},{"name":"日野市地域包括支援センターせせらぎ","province":"東京都","city":"日野市","address":"日野市日野本町6-3-17","lat":35.683159,"lon":139.402542},{"name":"日野市地域包括支援センター多摩川苑","province":"東京都","city":"日野市","address":"日野市万願寺1-16-1","lat":35.675983,"lon":139.420212},{"name":"日野市地域包括支援センターいきいきタウン","province":"東京都","city":"日野市","address":"日野市東平山3-1-1","lat":35.654514,"lon":139.378799},{"name":"日野市地域包括支援センターすずらん","province":"東京都","city":"日野市","address":"日野市南平7-19-13","lat":35.654911,"lon":139.392914},{"name":"日野市地域包括支援センターかわきた","province":"東京都","city":"日野市","address":"日野市西平山1-12-1","lat":35.648754,"lon":139.374802},{"name":"日野市消費生活センター","province":"東京都","city":"日野市","address":"日野市日野本町1-6-2","lat":35.675922,"lon":139.400253},{"name":"日野市高齢福祉課","province":"東京都","city":"日野市","address":"日野市神明1-12-1","lat":35.670986,"lon":139.395279},{"name":"日野市地域包括支援センターもぐさ","province":"東京都","city":"日野市","address":"日野市落川1070","lat":35.656994,"lon":139.430054},{"name":"日野市地域包括支援センターあさかわ","province":"東京都","city":"日野市","address":"日野市高幡864-4","lat":35.663918,"lon":139.409134},{"name":"日野市地域包括支援センターすてっぷ","province":"東京都","city":"日野市","address":"日野市豊田3-1-8","lat":35.657356,"lon":139.384079},{"name":"日野市地域包括支援センターあいりん","province":"東京都","city":"日野市","address":"日野市多摩平6-31-7","lat":35.670166,"lon":139.383896},{"name":"日野市地域包括支援センターせせらぎ","province":"東京都","city":"日野市","address":"日野市日野本町6-3-17","lat":35.683159,"lon":139.402542},{"name":"日野市地域包括支援センター多摩川苑","province":"東京都","city":"日野市","address":"日野市万願寺1-16-1","lat":35.675983,"lon":139.420212},{"name":"日野市地域包括支援センターいきいきタウン","province":"東京都","city":"日野市","address":"日野市東平山3-1-1","lat":35.654514,"lon":139.378799},{"name":"日野市地域包括支援センターすずらん","province":"東京都","city":"日野市","address":"日野市南平7-19-13","lat":35.654911,"lon":139.392914},{"name":"日野市地域包括支援センターかわきた","province":"東京都","city":"日野市","address":"日野市西平山1-12-1","lat":35.648754,"lon":139.374802},{"name":"日野市消費生活センター","province":"東京都","city":"日野市","address":"日野市日野本町1-6-2","lat":35.675922,"lon":139.400253},{"name":"日野市高齢福祉課","province":"東京都","city":"日野市","address":"日野市神明1-12-1","lat":35.670986,"lon":139.395279},{"name":"日野市地域包括支援センターもぐさ","province":"東京都","city":"日野市","address":"日野市落川1070","lat":35.656994,"lon":139.430054},{"name":"日野市地域包括支援センターあさかわ","province":"東京都","city":"日野市","address":"日野市高幡864-4","lat":35.663918,"lon":139.409134},{"name":"日野市地域包括支援センターすてっぷ","province":"東京都","city":"日野市","address":"日野市豊田3-1-8","lat":35.657356,"lon":139.384079},{"name":"日野市地域包括支援センターあいりん","province":"東京都","city":"日野市","address":"日野市多摩平6-31-7","lat":35.670166,"lon":139.383896},{"name":"日野市地域包括支援センターせせらぎ","province":"東京都","city":"日野市","address":"日野市日野本町6-3-17","lat":35.683159,"lon":139.402542},{"name":"日野市地域包括支援センター多摩川苑","province":"東京都","city":"日野市","address":"日野市万願寺1-16-1","lat":35.675983,"lon":139.420212},{"name":"日野市地域包括支援センターいきいきタウン","province":"東京都","city":"日野市","address":"日野市東平山3-1-1","lat":35.654514,"lon":139.378799},{"name":"日野市地域包括支援センターすずらん","province":"東京都","city":"日野市","address":"日野市南平7-19-13","lat":35.654911,"lon":139.392914},{"name":"日野市地域包括支援センターかわきた","province":"東京都","city":"日野市","address":"日野市西平山1-12-1","lat":35.648754,"lon":139.374802},{"name":"日野市消費生活センター","province":"東京都","city":"日野市","address":"日野市日野本町1-6-2","lat":35.675922,"lon":139.400253},{"name":"日野市高齢福祉課","province":"東京都","city":"日野市","address":"日野市神明1-12-1","lat":35.670986,"lon":139.395279},{"name":"日野市地域包括支援センターもぐさ","province":"東京都","city":"日野市","address":"日野市落川1070","lat":35.656994,"lon":139.430054},{"name":"日野市地域包括支援センターあさかわ","province":"東京都","city":"日野市","address":"日野市高幡864-4","lat":35.663918,"lon":139.409134},{"name":"日野市地域包括支援センターすてっぷ","province":"東京都","city":"日野市","address":"日野市豊田3-1-8","lat":35.657356,"lon":139.384079},{"name":"日野市地域包括支援センターあいりん","province":"東京都","city":"日野市","address":"日野市多摩平6-31-7","lat":35.670166,"lon":139.383896},{"name":"日野市地域包括支援センターせせらぎ","province":"東京都","city":"日野市","address":"日野市日野本町6-3-17","lat":35.683159,"lon":139.402542},{"name":"日野市地域包括支援センター多摩川苑","province":"東京都","city":"日野市","address":"日野市万願寺1-16-1","lat":35.675983,"lon":139.420212},{"name":"日野市地域包括支援センターいきいきタウン","province":"東京都","city":"日野市","address":"日野市東平山3-1-1","lat":35.654514,"lon":139.378799},{"name":"日野市地域包括支援センターすずらん","province":"東京都","city":"日野市","address":"日野市南平7-19-13","lat":35.654911,"lon":139.392914},{"name":"日野市地域包括支援センターかわきた","province":"東京都","city":"日野市","address":"日野市西平山1-12-1","lat":35.648754,"lon":139.374802},{"name":"日野市消費生活センター","province":"東京都","city":"日野市","address":"日野市日野本町1-6-2","lat":35.675922,"lon":139.400253},{"name":"日野市高齢福祉課","province":"東京都","city":"日野市","address":"日野市神明1-12-1","lat":35.670986,"lon":139.395279},{"name":"日野市地域包括支援センターもぐさ","province":"東京都","city":"日野市","address":"日野市落川1070","lat":35.656994,"lon":139.430054},{"name":"日野市地域包括支援センターあさかわ","province":"東京都","city":"日野市","address":"日野市高幡864-4","lat":35.663918,"lon":139.409134},{"name":"日野市地域包括支援センターすてっぷ","province":"東京都","city":"日野市","address":"日野市豊田3-1-8","lat":35.657356,"lon":139.384079},{"name":"日野市地域包括支援センターあいりん","province":"東京都","city":"日野市","address":"日野市多摩平6-31-7","lat":35.670166,"lon":139.383896},{"name":"日野市地域包括支援センターせせらぎ","province":"東京都","city":"日野市","address":"日野市日野本町6-3-17","lat":35.683159,"lon":139.402542},{"name":"日野市地域包括支援センター多摩川苑","province":"東京都","city":"日野市","address":"日野市万願寺1-16-1","lat":35.675983,"lon":139.420212},{"name":"日野市地域包括支援センターいきいきタウン","province":"東京都","city":"日野市","address":"日野市東平山3-1-1","lat":35.654514,"lon":139.378799},{"name":"日野市地域包括支援センターすずらん","province":"東京都","city":"日野市","address":"日野市南平7-19-13","lat":35.654911,"lon":139.392914},{"name":"日野市地域包括支援センターかわきた","province":"東京都","city":"日野市","address":"日野市西平山1-12-1","lat":35.648754,"lon":139.374802},{"name":"日野市消費生活センター","province":"東京都","city":"日野市","address":"日野市日野本町1-6-2","lat":35.675922,"lon":139.400253},{"name":"日野市高齢福祉課","province":"東京都","city":"日野市","address":"日野市神明1-12-1","lat":35.670986,"lon":139.395279},{"name":"日野市地域包括支援センターもぐさ","province":"東京都","city":"日野市","address":"日野市落川1070","lat":35.656994,"lon":139.430054},{"name":"日野市地域包括支援センターあさかわ","province":"東京都","city":"日野市","address":"日野市高幡864-4","lat":35.663918,"lon":139.409134},{"name":"日野市地域包括支援センターすてっぷ","province":"東京都","city":"日野市","address":"日野市豊田3-1-8","lat":35.657356,"lon":139.384079},{"name":"日野市地域包括支援センターあいりん","province":"東京都","city":"日野市","address":"日野市多摩平6-31-7","lat":35.670166,"lon":139.383896},{"name":"日野市地域包括支援センターせせらぎ","province":"東京都","city":"日野市","address":"日野市日野本町6-3-17","lat":35.683159,"lon":139.402542},{"name":"日野市地域包括支援センター多摩川苑","province":"東京都","city":"日野市","address":"日野市万願寺1-16-1","lat":35.675983,"lon":139.420212},{"name":"日野市地域包括支援センターいきいきタウン","province":"東京都","city":"日野市","address":"日野市東平山3-1-1","lat":35.654514,"lon":139.378799},{"name":"日野市地域包括支援センターすずらん","province":"東京都","city":"日野市","address":"日野市南平7-19-13","lat":35.654911,"lon":139.392914},{"name":"日野市地域包括支援センターかわきた","province":"東京都","city":"日野市","address":"日野市西平山1-12-1","lat":35.648754,"lon":139.374802},{"name":"日野市消費生活センター","province":"東京都","city":"日野市","address":"日野市日野本町1-6-2","lat":35.675922,"lon":139.400253},{"name":"日野市高齢福祉課","province":"東京都","city":"日野市","address":"日野市神明1-12-1","lat":35.670986,"lon":139.395279},{"name":"日野市地域包括支援センターもぐさ","province":"東京都","city":"日野市","address":"日野市落川1070","lat":35.656994,"lon":139.430054},{"name":"日野市地域包括支援センターあさかわ","province":"東京都","city":"日野市","address":"日野市高幡864-4","lat":35.663918,"lon":139.409134},{"name":"日野市地域包括支援センターすてっぷ","province":"東京都","city":"日野市","address":"日野市豊田3-1-8","lat":35.657356,"lon":139.384079},{"name":"日野市地域包括支援センターあいりん","province":"東京都","city":"日野市","address":"日野市多摩平6-31-7","lat":35.670166,"lon":139.383896},{"name":"日野市地域包括支援センターせせらぎ","province":"東京都","city":"日野市","address":"日野市日野本町6-3-17","lat":35.683159,"lon":139.402542},{"name":"日野市地域包括支援センター多摩川苑","province":"東京都","city":"日野市","address":"日野市万願寺1-16-1","lat":35.675983,"lon":139.420212},{"name":"日野市地域包括支援センターいきいきタウン","province":"東京都","city":"日野市","address":"日野市東平山3-1-1","lat":35.654514,"lon":139.378799},{"name":"日野市地域包括支援センターすずらん","province":"東京都","city":"日野市","address":"日野市南平7-19-13","lat":35.654911,"lon":139.392914},{"name":"日野市地域包括支援センターかわきた","province":"東京都","city":"日野市","address":"日野市西平山1-12-1","lat":35.648754,"lon":139.374802},{"name":"日野市消費生活センター","province":"東京都","city":"日野市","address":"日野市日野本町1-6-2","lat":35.675922,"lon":139.400253},{"name":"日野市高齢福祉課","province":"東京都","city":"日野市","address":"日野市神明1-12-1","lat":35.670986,"lon":139.395279},{"name":"日野市地域包括支援センターもぐさ","province":"東京都","city":"日野市","address":"日野市落川1070","lat":35.656994,"lon":139.430054},{"name":"日野市地域包括支援センターあさかわ","province":"東京都","city":"日野市","address":"日野市高幡864-4","lat":35.663918,"lon":139.409134},{"name":"日野市地域包括支援センターすてっぷ","province":"東京都","city":"日野市","address":"日野市豊田3-1-8","lat":35.657356,"lon":139.384079},{"name":"日野市地域包括支援センターあいりん","province":"東京都","city":"日野市","address":"日野市多摩平6-31-7","lat":35.670166,"lon":139.383896},{"name":"日野市地域包括支援センターせせらぎ","province":"東京都","city":"日野市","address":"日野市日野本町6-3-17","lat":35.683159,"lon":139.402542},{"name":"日野市地域包括支援センター多摩川苑","province":"東京都","city":"日野市","address":"日野市万願寺1-16-1","lat":35.675983,"lon":139.420212},{"name":"日野市地域包括支援センターいきいきタウン","province":"東京都","city":"日野市","address":"日野市東平山3-1-1","lat":35.654514,"lon":139.378799},{"name":"日野市地域包括支援センターすずらん","province":"東京都","city":"日野市","address":"日野市南平7-19-13","lat":35.654911,"lon":139.392914},{"name":"日野市地域包括支援センターかわきた","province":"東京都","city":"日野市","address":"日野市西平山1-12-1","lat":35.648754,"lon":139.374802},{"name":"日野市消費生活センター","province":"東京都","city":"日野市","address":"日野市日野本町1-6-2","lat":35.675922,"lon":139.400253},{"name":"日野市高齢福祉課","province":"東京都","city":"日野市","address":"日野市神明1-12-1","lat":35.670986,"lon":139.395279},{"name":"日野市地域包括支援センターもぐさ","province":"東京都","city":"日野市","address":"日野市落川1070","lat":35.656994,"lon":139.430054},{"name":"日野市地域包括支援センターあさかわ","province":"東京都","city":"日野市","address":"日野市高幡864-4","lat":35.663918,"lon":139.409134},{"name":"日野市地域包括支援センターすてっぷ","province":"東京都","city":"日野市","address":"日野市豊田3-1-8","lat":35.657356,"lon":139.384079},{"name":"日野市地域包括支援センターあいりん","province":"東京都","city":"日野市","address":"日野市多摩平6-31-7","lat":35.670166,"lon":139.383896},{"name":"日野市地域包括支援センターせせらぎ","province":"東京都","city":"日野市","address":"日野市日野本町6-3-17","lat":35.683159,"lon":139.402542},{"name":"日野市地域包括支援センター多摩川苑","province":"東京都","city":"日野市","address":"日野市万願寺1-16-1","lat":35.675983,"lon":139.420212},{"name":"日野市地域包括支援センターいきいきタウン","province":"東京都","city":"日野市","address":"日野市東平山3-1-1","lat":35.654514,"lon":139.378799},{"name":"日野市地域包括支援センターすずらん","province":"東京都","city":"日野市","address":"日野市南平7-19-13","lat":35.654911,"lon":139.392914},{"name":"日野市地域包括支援センターかわきた","province":"東京都","city":"日野市","address":"日野市西平山1-12-1","lat":35.648754,"lon":139.374802},{"name":"日野市消費生活センター","province":"東京都","city":"日野市","address":"日野市日野本町1-6-2","lat":35.675922,"lon":139.400253}]}