{"keyword":"放課後","data":[{"name":"放課後等デイサービス　ＷＩＮＧ日野駅前","province":"東京都","city":"日野市","address":"日野市日野本町3-11-5IMビル202","lat":35.67907,"lon":139.394379},{"name":"児童デイサービス　サンフラワー　高幡","province":"東京都","city":"日野市","address":"日野市新井732ヌーヴ高幡102","lat":35.663997,"lon":139.41748},{"name":"カラコル・アイリー","province":"東京都","city":"日野市","address":"日野市万願寺4-14-14","lat":35.671555,"lon":139.417158},{"name":"つきのおあしす","province":"東京都","city":"日野市","address":"日野市百草1042の20石坂ビル2階","lat":35.646305,"lon":139.424588},{"name":"遊び・運動療育・学びの場　発達支援教室　アルファーラ百草教室","province":"東京都","city":"日野市","address":"日野市百草222-6ソレイユモグサ1階","lat":35.657187,"lon":139.431524},{"name":"運動療育・学びの場　こもれび聖蹟桜ヶ丘教室","province":"東京都","city":"日野市","address":"日野市落川1136-2アーバンシティ宝蔵橋2階","lat":35.649941,"lon":139.437682},{"name":"ぷらたなす","province":"東京都","city":"日野市","address":"日野市南平9-36-23スカイハイツ101","lat":35.650809,"lon":139.390052},{"name":"南平ギフト","province":"東京都","city":"日野市","address":"日野市南平6-14-27","lat":35.654803,"lon":139.391752},{"name":"障害児放課後クラブ","province":"東京都","city":"日野市","address":"日野市平山2-1-1","lat":35.640974,"lon":139.387136},{"name":"ベアーズハウス　東豊田","province":"東京都","city":"日野市","address":"日野市東豊田1-17-1あずまや1FA号室","lat":35.663335,"lon":139.394618},{"name":"ナーシングデイ山の上","province":"東京都","city":"日野市","address":"日野市豊田2-47-1ルネッサンスコート・とよだ1階","lat":35.655394,"lon":139.383033},{"name":"運動療育で生きる力を育む　シエル　日野教室","province":"東京都","city":"日野市","address":"日野市西平山2-11-21","lat":35.645887,"lon":139.368507},{"name":"脳を育てる運動療育センター　こどもプラス　豊田教室","province":"東京都","city":"日野市","address":"日野市多摩平3丁目2-12階","lat":35.666457,"lon":139.377594},{"name":"脳を育てる運動療育センター　こどもプラス　多摩平教室","province":"東京都","city":"日野市","address":"日野市多摩平4-1-14内田ビル2階","lat":35.66546,"lon":139.378811},{"name":"クリッパーズ","province":"東京都","city":"日野市","address":"日野市旭が丘一丁目15番地の92階","lat":35.657108,"lon":139.372276}]}