{"keyword":"総務","data":[{"name":"東光寺グラウンド","province":"東京都","city":"日野市","address":"東京都日野市栄町5丁目5","lat":35.68608814,"lon":139.38274327},{"name":"浅川スポーツ広場","province":"東京都","city":"日野市","address":"東京都日野市万願寺5丁目3","lat":35.66786596,"lon":139.41298862},{"name":"豊田児童グラウンド","province":"東京都","city":"日野市","address":"東京都日野市豊田1丁目3","lat":35.65792487,"lon":139.38949084},{"name":"多摩川総合グラウンド","province":"東京都","city":"日野市","address":"東京都日野市万願寺1丁目1-2","lat":35.67381832,"lon":139.42369866},{"name":"杉野女子大学日野キャンパス","province":"東京都","city":"日野市","address":"東京都日野市百草1006","lat":35.64705754,"lon":139.42177197},{"name":"市民の森スポーツ公園","province":"東京都","city":"日野市","address":"東京都日野市日野本町7丁目12","lat":35.67999207,"lon":139.4022724},{"name":"日野市立多摩平第一公園","province":"東京都","city":"日野市","address":"東京都日野市多摩平4丁目2","lat":35.66661255,"lon":139.37938586},{"name":"平山台健康・市民支援センター","province":"東京都","city":"日野市","address":"東京都日野市平山2丁目1-1","lat":35.64097677,"lon":139.38713883},{"name":"万願寺中央公園グラウンド","province":"東京都","city":"日野市","address":"東京都日野市万願寺4丁目20-11","lat":35.67042683,"lon":139.41514947},{"name":"首都大学東京日野キャンパス","province":"東京都","city":"日野市","address":"東京都日野市旭が丘6丁目6","lat":35.66122125,"lon":139.36573439},{"name":"日野台高等学校","province":"東京都","city":"日野市","address":"東京都日野市大坂上4丁目16-1","lat":35.67263422,"lon":139.38604902},{"name":"南平高等学校","province":"東京都","city":"日野市","address":"東京都日野市南平8丁目2-3","lat":35.65158408,"lon":139.39627937},{"name":"日野高等学校","province":"東京都","city":"日野市","address":"東京都日野市石田1丁目190-1","lat":35.66727187,"lon":139.42331557}]}