{"keyword":"自転車","data":[{"name":"日野駅西第３駐輪場","province":"東京都","city":"日野市","address":"東京都日野市大坂上1丁目29-2","lat":35.67857251,"lon":139.39030403},{"name":"日野駅北駐輪場","province":"東京都","city":"日野市","address":"東京都日野市栄町1丁目33-6","lat":35.68138615,"lon":139.39368974},{"name":"日野駅北バイク駐輪場","province":"東京都","city":"日野市","address":"東京都日野市栄町1丁目24","lat":35.68088901,"lon":139.39460357},{"name":"豊田駅北第１駐輪場","province":"東京都","city":"日野市","address":"東京都日野市旭が丘6丁目11-4","lat":35.65988801,"lon":139.36252638},{"name":"豊田駅北第３駐輪場","province":"東京都","city":"日野市","address":"東京都日野市多摩平7丁目21-29","lat":35.66939576,"lon":139.38874611},{"name":"豊田駅北第４駐輪場","province":"東京都","city":"日野市","address":"東京都日野市多摩平7丁目21-25","lat":35.66947908,"lon":139.3886989},{"name":"豊田駅北第５駐輪場","province":"東京都","city":"日野市","address":"東京都日野市多摩平1丁目14-97","lat":35.66104095,"lon":139.37818613},{"name":"豊田駅北第７駐輪場","province":"東京都","city":"日野市","address":"東京都日野市多摩平6丁目31-15","lat":35.66999558,"lon":139.38353264},{"name":"豊田駅北第８駐輪場","province":"東京都","city":"日野市","address":"東京都日野市多摩平2丁目15","lat":35.66082439,"lon":139.38255799},{"name":"豊田駅東臨時駐輪場","province":"東京都","city":"日野市","address":"東京都日野市多摩平2丁目14-47","lat":35.66187984,"lon":139.38309402},{"name":"豊田駅北９駐輪場","province":"東京都","city":"日野市","address":"東京都日野市多摩平3丁目1","lat":35.66504604,"lon":139.37758606},{"name":"豊田駅南第１駐輪場","province":"東京都","city":"日野市","address":"東京都日野市東平山3丁目5","lat":35.65645535,"lon":139.37723356},{"name":"豊田駅南第４駐輪場","province":"東京都","city":"日野市","address":"東京都日野市豊田3丁目40-11","lat":35.65857184,"lon":139.38075265},{"name":"高幡不動駅南第１駐輪場","province":"東京都","city":"日野市","address":"東京都日野市高幡76","lat":35.65984196,"lon":139.4148554},{"name":"高幡不動駅南第２駐輪場","province":"東京都","city":"日野市","address":"東京都日野市高幡1009-2","lat":35.66070574,"lon":139.41446097},{"name":"高幡不動駅南第３駐輪場","province":"東京都","city":"日野市","address":"東京都日野市高幡1039-1","lat":35.66136957,"lon":139.4152331},{"name":"高幡不動駅南臨時駐輪場","province":"東京都","city":"日野市","address":"東京都日野市高幡680","lat":35.66292753,"lon":139.40837249},{"name":"高幡不動駅西駐輪場","province":"東京都","city":"日野市","address":"東京都日野市高幡667","lat":35.66405237,"lon":139.40724198},{"name":"百草園駅南第１駐輪場","province":"東京都","city":"日野市","address":"東京都日野市落川1049","lat":35.6574482,"lon":139.42986259},{"name":"南平駅北第１駐輪場","province":"東京都","city":"日野市","address":"東京都日野市南平6丁目14","lat":35.65495583,"lon":139.39203238},{"name":"南平駅北第２駐輪場","province":"東京都","city":"日野市","address":"東京都日野市南平6丁目12","lat":35.65615293,"lon":139.39286562},{"name":"南平駅北第４駐輪場","province":"東京都","city":"日野市","address":"東京都日野市南平6丁目24-4","lat":35.65416978,"lon":139.39059363},{"name":"南平駅南第１駐輪場","province":"東京都","city":"日野市","address":"東京都日野市南平7丁目17-32","lat":35.65437533,"lon":139.39181853},{"name":"平山城址公園駅北第１駐輪場","province":"東京都","city":"日野市","address":"東京都日野市平山5丁目25","lat":35.64640097,"lon":139.37839489},{"name":"平山城址公園駅北第２駐輪場","province":"東京都","city":"日野市","address":"東京都日野市平山5丁目27","lat":35.64752587,"lon":139.37991418},{"name":"平山城址公園駅南第１駐輪場","province":"東京都","city":"日野市","address":"東京都日野市平山5丁目23","lat":35.6455344,"lon":139.37805051},{"name":"平山城址公園駅南第３駐輪場","province":"東京都","city":"日野市","address":"東京都日野市平山5丁目18","lat":35.64748144,"lon":139.38052246},{"name":"万願寺駅西駐輪場","province":"東京都","city":"日野市","address":"東京都日野市万願寺4丁目1","lat":35.67055749,"lon":139.41972688},{"name":"万願寺駅東駐輪場","province":"東京都","city":"日野市","address":"東京都日野市万願寺2丁目24","lat":35.67121024,"lon":139.42133228},{"name":"万願寺駅東第１臨時駐輪場","province":"東京都","city":"日野市","address":"東京都日野市万願寺2丁目24","lat":35.67121024,"lon":139.42133228},{"name":"程久保駅西駐輪場","province":"東京都","city":"日野市","address":"東京都日野市程久保8丁目1","lat":35.65464521,"lon":139.41004208},{"name":"程久保駅西第２駐輪場","province":"東京都","city":"日野市","address":"東京都日野市程久保8丁目1","lat":35.65464521,"lon":139.41004208},{"name":"程久保駅東駐輪場","province":"東京都","city":"日野市","address":"東京都日野市程久保8丁目4","lat":35.65608397,"lon":139.41148636},{"name":"水越自転車預かり所","province":"東京都","city":"日野市","address":"東京都日野市日野本町4丁目5-22","lat":35.67983083,"lon":139.39606459},{"name":"豊田北口自転車駐車場","province":"東京都","city":"日野市","address":"東京都日野市多摩平2丁目3-11","lat":35.66074105,"lon":139.38144142},{"name":"遠藤自転車駐輪場","province":"東京都","city":"日野市","address":"東京都日野市高幡3-13","lat":35.66219995,"lon":139.41253051},{"name":"中村自転車預かり所","province":"東京都","city":"日野市","address":"東京都日野市平山5丁目27-8","lat":35.64751198,"lon":139.37966142},{"name":"京王サイクルパーク平山城址公園","province":"東京都","city":"日野市","address":"東京都日野市平山5丁目18-10","lat":35.64750088,"lon":139.38029193},{"name":"三井のリパーク高幡不動第２","province":"東京都","city":"日野市","address":"東京都日野市高幡320","lat":35.6621028,"lon":139.41456091},{"name":"安西自転車駐輪場","province":"東京都","city":"日野市","address":"東京都日野市日野本町4丁目6-8","lat":35.67980858,"lon":139.39439251},{"name":"SEPHORA","province":"東京都","city":"日野市","address":"東京都日野市豊田3丁目39-28","lat":35.65812465,"lon":139.3797083},{"name":"サポートハウス","province":"東京都","city":"日野市","address":"東京都日野市豊田4丁目36-3","lat":35.66001894,"lon":139.38299686},{"name":"秋山自転車預かり所","province":"東京都","city":"日野市","address":"東京都日野市豊田4丁目36-9","lat":35.66001061,"lon":139.38287743},{"name":"イオンモール多摩平の森公共駐輪場","province":"東京都","city":"日野市","address":"東京都日野市多摩平2丁目4-1","lat":35.66189922,"lon":139.38002484},{"name":"高幡不動駅前駐輪場","province":"東京都","city":"日野市","address":"東京都日野市高幡1008-9","lat":35.66115845,"lon":139.41384711},{"name":"Cycle DAICHI　豊田駅南口駐輪場","province":"東京都","city":"日野市","address":"東京都日野市豊田3丁目40-11","lat":35.65857184,"lon":139.38075265},{"name":"多摩動物公園駅駐輪場","province":"東京都","city":"日野市","address":"東京都日野市程久保7丁目1","lat":35.6510121,"lon":139.4029261},{"name":"サイクル　スペース","province":"東京都","city":"日野市","address":"東京都日野市多摩平2丁目1-10","lat":35.66019668,"lon":139.38212749},{"name":"三井のリパーク","province":"東京都","city":"日野市","address":"東京都日野市豊田3丁目39","lat":35.6579219,"lon":139.37998052},{"name":"三井のリパーク南口第５","province":"東京都","city":"日野市","address":"東京都日野市豊田3丁目31","lat":35.65850799,"lon":139.38210532},{"name":"豊田駅前駐輪場","province":"東京都","city":"日野市","address":"東京都日野市豊田3丁目26","lat":35.6567165,"lon":139.38060827},{"name":"アップルパーク","province":"東京都","city":"日野市","address":"東京都日野市多摩平2丁目2","lat":35.66033555,"lon":139.38181362},{"name":"京王高幡駐輪場","province":"東京都","city":"日野市","address":"東京都日野市高幡139","lat":35.6623555,"lon":139.41288048},{"name":"甲州街道駅北第１駐輪場","province":"東京都","city":"日野市","address":"東京都日野市日野（大字）1030","lat":35.67829798,"lon":139.40925522},{"name":"甲州街道駅南第１駐輪場","province":"東京都","city":"日野市","address":"東京都日野市日野（大字）1027","lat":35.67708427,"lon":139.41034129},{"name":"三井のリパーク南口第２","province":"東京都","city":"日野市","address":"東京都日野市豊田3丁目31","lat":35.65850799,"lon":139.38210532}]}