{"keyword":"連絡","data":[{"name":"日野市高齢福祉課","province":"東京都","city":"日野市","address":"日野市神明1-12-1","lat":35.670986,"lon":139.395279},{"name":"日野市地域包括支援センターもぐさ","province":"東京都","city":"日野市","address":"日野市落川1070","lat":35.656994,"lon":139.430054},{"name":"日野市地域包括支援センターあさかわ","province":"東京都","city":"日野市","address":"日野市高幡864-4","lat":35.663918,"lon":139.409134},{"name":"日野市地域包括支援センターすてっぷ","province":"東京都","city":"日野市","address":"日野市豊田3-1-8","lat":35.657356,"lon":139.384079},{"name":"日野市地域包括支援センターあいりん","province":"東京都","city":"日野市","address":"日野市多摩平6-31-7","lat":35.670166,"lon":139.383896},{"name":"日野市地域包括支援センターせせらぎ","province":"東京都","city":"日野市","address":"日野市日野本町6-3-17","lat":35.683159,"lon":139.402542},{"name":"日野市地域包括支援センター多摩川苑","province":"東京都","city":"日野市","address":"日野市万願寺1-16-1","lat":35.675983,"lon":139.420212},{"name":"日野市地域包括支援センターいきいきタウン","province":"東京都","city":"日野市","address":"日野市東平山3-1-1","lat":35.654514,"lon":139.378799},{"name":"日野市地域包括支援センターすずらん","province":"東京都","city":"日野市","address":"日野市南平7-19-13","lat":35.654911,"lon":139.392914},{"name":"日野市地域包括支援センターかわきた","province":"東京都","city":"日野市","address":"日野市西平山1-12-1","lat":35.648754,"lon":139.374802},{"name":"日野市消費生活センター","province":"東京都","city":"日野市","address":"日野市日野本町1-6-2","lat":35.675922,"lon":139.400253}]}