{"keyword":"音響","data":[{"name":"豊田駅前","province":"東京都","city":"日野市","address":"東京都日野市多摩平1丁目3","lat":35.66102987,"lon":139.37989709},{"name":"多摩平五丁目","province":"東京都","city":"日野市","address":"東京都日野市多摩平5丁目1","lat":35.66823729,"lon":139.37591944},{"name":"高幡","province":"東京都","city":"日野市","address":"東京都日野市三沢3丁目53-15","lat":35.65907259,"lon":139.41413049},{"name":"高幡不動東","province":"東京都","city":"日野市","address":"東京都日野市高幡706-2","lat":35.66081122,"lon":139.41211948},{"name":"日野駅前東","province":"東京都","city":"日野市","address":"東京都日野市日野本町4丁目5-12","lat":35.67953085,"lon":139.39533133},{"name":"百草園駅前","province":"東京都","city":"日野市","address":"東京都日野市落川1062","lat":35.65702049,"lon":139.43055144},{"name":"高幡不動前","province":"東京都","city":"日野市","address":"東京都日野市高幡1-1","lat":35.66168054,"lon":139.41149728},{"name":"南平高校入口","province":"東京都","city":"日野市","address":"東京都日野市南平7丁目3","lat":35.65513364,"lon":139.39434608},{"name":"日野総合病院","province":"東京都","city":"日野市","address":"東京都日野市多摩平6丁目1","lat":35.66830959,"lon":139.37971635},{"name":"日野旭が丘二丁目","province":"東京都","city":"日野市","address":"東京都日野市旭が丘1丁目10","lat":35.65847725,"lon":139.37285332},{"name":"日野富士町","province":"東京都","city":"日野市","address":"東京都日野市旭が丘1丁目3-11","lat":35.65819681,"lon":139.37653357},{"name":"日野二中入口","province":"東京都","city":"日野市","address":"東京都日野市多摩平2丁目5-1","lat":35.66267968,"lon":139.3798165},{"name":"多摩平第一公園","province":"東京都","city":"日野市","address":"東京都日野市多摩平3丁目2-7","lat":35.66654585,"lon":139.37718605},{"name":"多摩平交番","province":"東京都","city":"日野市","address":"東京都日野市多摩平2丁目5-1","lat":35.66267968,"lon":139.3798165},{"name":"高幡第二","province":"東京都","city":"日野市","address":"東京都日野市高幡714","lat":35.65933921,"lon":139.41368608},{"name":"日野市役所入口","province":"東京都","city":"日野市","address":"東京都日野市日野本町3丁目14-4","lat":35.67898649,"lon":139.39665346},{"name":"日野駅入口","province":"東京都","city":"日野市","address":"東京都日野市日野本町3丁目14-1","lat":35.67864764,"lon":139.39646737},{"name":"日野第一小学校西","province":"東京都","city":"日野市","address":"東京都日野市日野本町2丁目10","lat":35.67756165,"lon":139.39642853},{"name":"日野市役所前","province":"東京都","city":"日野市","address":"東京都日野市神明3丁目1-1","lat":35.67171504,"lon":139.3935262},{"name":"平山五丁目","province":"東京都","city":"日野市","address":"東京都日野市平山6丁目1","lat":35.64654828,"lon":139.38349725},{"name":"百草団地","province":"東京都","city":"日野市","address":"東京都日野市百草999","lat":35.65092923,"lon":139.41892207},{"name":"日野旭が丘一丁目","province":"東京都","city":"日野市","address":"東京都日野市旭が丘1丁目9","lat":35.65841895,"lon":139.374106},{"name":"南平二丁目","province":"東京都","city":"日野市","address":"東京都日野市南平2丁目63-1","lat":35.65664741,"lon":139.39696527},{"name":"高幡不動駅前","province":"東京都","city":"日野市","address":"東京都日野市高幡1008-6","lat":35.66139453,"lon":139.41366101},{"name":"豊田駅前第二","province":"東京都","city":"日野市","address":"東京都日野市多摩平1丁目10-5","lat":35.66014942,"lon":139.37996656},{"name":"市民会館前","province":"東京都","city":"日野市","address":"東京都日野市神明1丁目11-12","lat":35.66991529,"lon":139.39573441},{"name":"平山六丁目","province":"東京都","city":"日野市","address":"東京都日野市平山6丁目1-9","lat":35.6462983,"lon":139.38306951},{"name":"日野旭が丘三丁目","province":"東京都","city":"日野市","address":"東京都日野市旭が丘3丁目1-8","lat":35.65683853,"lon":139.37160902},{"name":"神明三丁目","province":"東京都","city":"日野市","address":"東京都日野市神明3丁目17-1","lat":35.67431476,"lon":139.39454825},{"name":"生活・保健センター北","province":"東京都","city":"日野市","address":"東京都日野市日野本町1丁目6-2","lat":35.67588416,"lon":139.40011995},{"name":"日野第一小東","province":"東京都","city":"日野市","address":"東京都日野市日野本町1丁目12-25","lat":35.67707014,"lon":139.40053376},{"name":"日野旭が丘中央公園前","province":"東京都","city":"日野市","address":"東京都日野市旭が丘3丁目1-25","lat":35.65692456,"lon":139.36827042},{"name":"日野富士町東","province":"東京都","city":"日野市","address":"東京都日野市富士町1","lat":35.66058262,"lon":139.37545859},{"name":"多摩平幼稚園前","province":"東京都","city":"日野市","address":"東京都日野市多摩平2丁目9-3","lat":35.66290192,"lon":139.3822524},{"name":"仲田小学校西","province":"東京都","city":"日野市","address":"東京都日野市日野本町4丁目27-18","lat":35.68209725,"lon":139.39703108},{"name":"日野大昌寺西","province":"東京都","city":"日野市","address":"東京都日野市日野本町3丁目13-16","lat":35.67841711,"lon":139.39644794},{"name":"日野駅東","province":"東京都","city":"日野市","address":"東京都日野市日野本町3丁目5","lat":35.67812819,"lon":139.39366486},{"name":"日野駅南","province":"東京都","city":"日野市","address":"東京都日野市大坂上1丁目30-24","lat":35.678742,"lon":139.39307878},{"name":"平山三丁目","province":"東京都","city":"日野市","address":"東京都日野市平山2丁目41","lat":35.64611499,"lon":139.38386668},{"name":"神明四丁目","province":"東京都","city":"日野市","address":"東京都日野市神明4丁目18-16","lat":35.67247055,"lon":139.39537324},{"name":"日野本町二丁目","province":"東京都","city":"日野市","address":"東京都日野市日野本町2丁目17-19","lat":35.67837828,"lon":139.39857555},{"name":"豊田駅前第三","province":"東京都","city":"日野市","address":"東京都日野市多摩平1丁目9-1","lat":35.66030217,"lon":139.37961936},{"name":"仲田小学校入口","province":"東京都","city":"日野市","address":"東京都日野市日野本町6丁目1","lat":35.68271674,"lon":139.40163346},{"name":"日野旭が丘二丁目南","province":"東京都","city":"日野市","address":"東京都日野市旭が丘1丁目12-5","lat":35.65733848,"lon":139.3722784},{"name":"富士町南","province":"東京都","city":"日野市","address":"東京都日野市旭が丘1丁目3-10","lat":35.6579746,"lon":139.37665024},{"name":"多摩平児童公園前","province":"東京都","city":"日野市","address":"東京都日野市多摩平2丁目5-1","lat":35.66267968,"lon":139.3798165},{"name":"高幡不動駅入口","province":"東京都","city":"日野市","address":"東京都日野市高幡1005-6","lat":35.660103,"lon":139.4132833},{"name":"日野万願寺駅前","province":"東京都","city":"日野市","address":"東京都日野市石田1丁目17-5","lat":35.67038533,"lon":139.42101566},{"name":"日野八小入口","province":"東京都","city":"日野市","address":"東京都日野市高幡1012-8","lat":35.66337216,"lon":139.41686901},{"name":"日野駅北","province":"東京都","city":"日野市","address":"東京都日野市新町1丁目18-7","lat":35.679778,"lon":139.3932815},{"name":"日野新町一丁目","province":"東京都","city":"日野市","address":"東京都日野市栄町1丁目1-1","lat":35.68077511,"lon":139.39355366},{"name":"高幡不動駅前第二","province":"東京都","city":"日野市","address":"東京都日野市高幡1007-5","lat":35.66078349,"lon":139.41365825},{"name":"日野栄町一丁目","province":"東京都","city":"日野市","address":"東京都日野市栄町1丁目39","lat":35.68217773,"lon":139.39391746},{"name":"東光寺駐在所東","province":"東京都","city":"日野市","address":"東京都日野市栄町2丁目15","lat":35.68326091,"lon":139.39253143},{"name":"東光寺駐在所西","province":"東京都","city":"日野市","address":"東京都日野市栄町2丁目17","lat":35.68395525,"lon":139.3913204},{"name":"ふれあいホール前","province":"東京都","city":"日野市","address":"東京都日野市日野本町6丁目1-3","lat":35.68078646,"lon":139.40379169},{"name":"日野栄町一丁目南","province":"東京都","city":"日野市","address":"東京都日野市栄町1丁目31-5","lat":35.68158337,"lon":139.39431468}]}