{"keyword":"館","data":[{"name":"まんがんじ児童館","province":"東京都","city":"日野市","address":"日野市万願寺4-20-12","lat":35.670975,"lon":139.41539},{"name":"みなみだいら児童館　ぷらねっと","province":"東京都","city":"日野市","address":"日野市南平6-12-113","lat":35.65707,"lon":139.39397},{"name":"＊?日野市立中央図書館","province":"東京都","city":"日野市","address":"日野市豊田2-49","lat":35.65614,"lon":139.382312},{"name":"＊?日野市立多摩平図書館","province":"東京都","city":"日野市","address":"日野市多摩平2-9","lat":35.663342,"lon":139.38162},{"name":"＊?日野市立日野図書館","province":"東京都","city":"日野市","address":"日野市日野本町7-5-14","lat":35.678763,"lon":139.39953},{"name":"＊?日野市立市政図書室","province":"東京都","city":"日野市","address":"日野市神明1-12-1","lat":35.670496,"lon":139.395606},{"name":"＊?日野市立高幡図書館","province":"東京都","city":"日野市","address":"日野市三沢4-1-12","lat":35.658848,"lon":139.41343},{"name":"＊?日野市立平山図書館","province":"東京都","city":"日野市","address":"日野市平山5-18-2","lat":35.64716,"lon":139.380424},{"name":"＊?日野市立百草図書館","province":"東京都","city":"日野市","address":"日野市百草204-1","lat":35.657732,"lon":139.43094}]}