{"keyword":"援助","data":[{"name":"ありがとう","province":"東京都","city":"大田区","address":"東京都大田区","lat":35.56140006,"lon":139.7160474},{"name":"カリヨン夕やけ荘","province":"東京都","city":"大田区","address":"東京都大田区","lat":35.56140006,"lon":139.7160474},{"name":"三宿憩いの家","province":"東京都","city":"世田谷区","address":"東京都世田谷区","lat":35.64657462,"lon":139.65324952},{"name":"祖師谷憩いの家","province":"東京都","city":"世田谷区","address":"東京都世田谷区","lat":35.64657462,"lon":139.65324952},{"name":"経堂憩いの家","province":"東京都","city":"世田谷区","address":"東京都世田谷区","lat":35.64657462,"lon":139.65324952},{"name":"マナの家","province":"東京都","city":"杉並区","address":"東京都杉並区","lat":35.69957353,"lon":139.63638522},{"name":"自立援助ホーム陽気遊山","province":"東京都","city":"荒川区","address":"東京都荒川区","lat":35.73614432,"lon":139.78333641},{"name":"聖家族寮ミカエラホーム","province":"東京都","city":"練馬区","address":"東京都練馬区","lat":35.73562267,"lon":139.65166011},{"name":"長谷場新宿寮","province":"東京都","city":"足立区","address":"東京都足立区","lat":35.77563344,"lon":139.80450083},{"name":"清周寮","province":"東京都","city":"足立区","address":"東京都足立区","lat":35.77563344,"lon":139.80450083},{"name":"おうぎ寮","province":"東京都","city":"足立区","address":"東京都足立区","lat":35.77563344,"lon":139.80450083},{"name":"えどがわ","province":"東京都","city":"江戸川区","address":"東京都江戸川区","lat":35.70697836,"lon":139.8683262},{"name":"L'espoir","province":"東京都","city":"江戸川区","address":"東京都江戸川区","lat":35.70697836,"lon":139.8683262},{"name":"あいこう","province":"東京都","city":"町田市","address":"東京都町田市","lat":35.5466304,"lon":139.43861823},{"name":"ＷＡＲＡＫＵ","province":"東京都","city":"日野市","address":"東京都日野市","lat":35.67144843,"lon":139.39486221},{"name":"トリノス","province":"東京都","city":"日野市","address":"東京都日野市","lat":35.67144843,"lon":139.39486221},{"name":"マラナ・タ　ハウス","province":"東京都","city":"国分寺市","address":"東京都国分寺市","lat":35.71034027,"lon":139.46318833},{"name":"カリヨンとびらの家","province":"東京都","city":"国立市","address":"東京都国立市","lat":35.68388439,"lon":139.44138288},{"name":"自立援助ホーム元気さん","province":"東京都","city":"福生市","address":"東京都福生市","lat":35.73874734,"lon":139.32668791},{"name":"あすなろ荘","province":"東京都","city":"清瀬市","address":"東京都清瀬市","lat":35.78534142,"lon":139.52677749},{"name":"まつぼっくり","province":"東京都","city":"西東京市","address":"東京都西東京市","lat":35.72551542,"lon":139.53814504},{"name":"マラナ・タハウス","province":"東京都","city":"国分寺市","address":"東京都国分寺市","lat":35.71034027,"lon":139.46318833}]}