{"keyword":"バリア","data":[{"name":"東京体育館","province":"東京都","city":"渋谷区","address":"東京都渋谷区千駄ヶ谷1-17-1","lat":35.679396,"lon":139.711963},{"name":"駒沢オリンピック公園総合運動場","province":"東京都","city":"世田谷区","address":"東京都世田谷区駒沢公園1-1","lat":35.625574,"lon":139.663655},{"name":"東京武道館","province":"東京都","city":"足立区","address":"東京都足立区綾瀬3-20-1","lat":35.765779,"lon":139.825792},{"name":"東京辰巳国際水泳場","province":"東京都","city":"江東区","address":"東京都江東区辰巳2-8-10","lat":35.647651,"lon":139.818932},{"name":"東京都障害者総合スポーツセンター","province":"東京都","city":"北区","address":"東京都北区十条台1-2-2","lat":35.753929,"lon":139.724256},{"name":"東京都多摩障害者スポーツセンター","province":"東京都","city":"国立市","address":"東京都国立市富士見台2-1-1","lat":35.686681,"lon":139.446549},{"name":"有明テニスの森公園テニス施設","province":"東京都","city":"","address":"東京都東京都江東区有明2-2-22","lat":35.63467,"lon":139.788526},{"name":"若洲海浜公園ヨット訓練所","province":"東京都","city":"江東区","address":"東京都江東区若洲3-1-1","lat":35.630652,"lon":139.837654},{"name":"味の素スタジアム","province":"東京都","city":"調布市","address":"東京都調布市西町376番地3","lat":35.664235,"lon":139.527162}]}