{"keyword":"ポイント","data":[{"name":"昭島市役所","province":"東京都","city":"昭島市","address":"東京都昭島市田中町1-17-1","lat":35.705706,"lon":139.353775},{"name":"昭島市保健福祉センター（あいぽっく）","province":"東京都","city":"昭島市","address":"東京都昭島市昭和町4-7-1","lat":35.71089,"lon":139.364088},{"name":"FOSTERホール（昭島市民会館）・公民館","province":"東京都","city":"昭島市","address":"東京都昭島市つつじが丘3-7-7","lat":35.713437,"lon":139.366187},{"name":"昭島市総合スポーツセンター","province":"東京都","city":"昭島市","address":"東京都昭島市東町5-13-1","lat":35.703334,"lon":139.38432},{"name":"玉川会館（東部出張所）","province":"東京都","city":"昭島市","address":"東京都昭島市玉川町3-10-15","lat":35.703703,"lon":139.382054},{"name":"朝日会館","province":"東京都","city":"昭島市","address":"東京都昭島市朝日町5-6-20","lat":35.705061,"lon":139.372835},{"name":"大神会館","province":"東京都","city":"昭島市","address":"東京都昭島市大神町3-10-5","lat":35.700742,"lon":139.360806},{"name":"拝島会館","province":"東京都","city":"昭島市","address":"東京都昭島市拝島町2-4-13","lat":35.707257,"lon":139.341968},{"name":"福島会館","province":"東京都","city":"昭島市","address":"東京都昭島市福島町1-19-1","lat":35.696753,"lon":139.381077},{"name":"昭和会館","province":"東京都","city":"昭島市","address":"東京都昭島市松原町1-2-25","lat":35.712896,"lon":139.357669},{"name":"緑会館","province":"東京都","city":"昭島市","address":"東京都昭島市緑町4-13-26","lat":35.714276,"lon":139.344637},{"name":"堀向会館","province":"東京都","city":"昭島市","address":"東京都昭島市美堀町2-6-11","lat":35.723174,"lon":139.363703},{"name":"富士見会館","province":"東京都","city":"昭島市","address":"東京都昭島市中神町1282","lat":35.712249,"lon":139.382554},{"name":"やまのかみ会館","province":"東京都","city":"昭島市","address":"東京都昭島市拝島町3-10-3","lat":35.710898,"lon":139.335471},{"name":"武蔵野会館","province":"東京都","city":"昭島市","address":"東京都昭島市中神町1172-1","lat":35.711183,"lon":139.375667},{"name":"松原町コミュニティセンター","province":"東京都","city":"昭島市","address":"東京都昭島市松原町1-3-10","lat":35.71206,"lon":139.356957},{"name":"児童センター「ぱれっと」","province":"東京都","city":"昭島市","address":"東京都昭島市つつじが丘2-3-21","lat":35.714301,"lon":139.367027},{"name":"勤労商工市民センター","province":"東京都","city":"昭島市","address":"東京都昭島市昭和町3-10-2","lat":35.707038,"lon":139.367005},{"name":"朝日町高齢者福祉センター","province":"東京都","city":"昭島市","address":"東京都昭島市朝日町4-5-9","lat":35.706258,"lon":139.37046},{"name":"松原町高齢者福祉センター","province":"東京都","city":"昭島市","address":"東京都昭島市松原町1-13-3","lat":35.714701,"lon":139.354453},{"name":"拝島町高齢者福祉センター","province":"東京都","city":"昭島市","address":"東京都昭島市拝島町3-10-4","lat":35.710487,"lon":139.335016},{"name":"青少年交流センター","province":"東京都","city":"昭島市","address":"東京都昭島市昭和町1-6-11","lat":35.711044,"lon":139.365627},{"name":"環境コミュニケーションセンター","province":"東京都","city":"昭島市","address":"東京都昭島市美堀町3-8-1","lat":35.723219,"lon":139.354547},{"name":"水道部","province":"東京都","city":"昭島市","address":"東京都昭島市朝日町4-23-28","lat":35.70873,"lon":139.370352},{"name":"アキシマエンシス（国際交流教養文化棟）","province":"東京都","city":"昭島市","address":"東京都昭島市つつじが丘3-3-15","lat":35.711714,"lon":139.36935},{"name":"アキシマエンシス（校舎棟）","province":"東京都","city":"昭島市","address":"東京都昭島市つつじが丘3-3-15","lat":35.712009,"lon":139.369303},{"name":"アキシマエンシス（体育館棟）","province":"東京都","city":"昭島市","address":"東京都昭島市つつじが丘3-3-15","lat":35.711743,"lon":139.368486},{"name":"板橋区役所","province":"東京都","city":"板橋区","address":"東京都板橋区板橋2-66-1","lat":35.75113,"lon":139.70925},{"name":"情報処理センター","province":"東京都","city":"板橋区","address":"東京都板橋区板橋2-65-6","lat":35.74996,"lon":139.70894},{"name":"板橋区保健所","province":"東京都","city":"板橋区","address":"東京都板橋区大山東町32-15","lat":35.75053,"lon":139.70807},{"name":"赤塚支所","province":"東京都","city":"板橋区","address":"東京都板橋区赤塚6-38-1","lat":35.77889,"lon":139.6447},{"name":"いたばし総合ボランティアセンター","province":"東京都","city":"板橋区","address":"東京都板橋区本町24-1","lat":35.75944,"lon":139.70809},{"name":"板橋地域センター","province":"東京都","city":"板橋区","address":"東京都板橋区板橋3-14-15","lat":35.75119,"lon":139.71222},{"name":"熊野地域センター","province":"東京都","city":"板橋区","address":"東京都板橋区熊野町40-9","lat":35.74363,"lon":139.70443},{"name":"仲宿地域センター","province":"東京都","city":"板橋区","address":"東京都板橋区氷川町12-10","lat":35.75396,"lon":139.70714},{"name":"仲町地域センター","province":"東京都","city":"板橋区","address":"東京都板橋区仲町20-5","lat":35.75107,"lon":139.6965},{"name":"富士見地域センター","province":"東京都","city":"板橋区","address":"東京都板橋区富士見町3-1","lat":35.7607,"lon":139.7005},{"name":"大谷口地域センター","province":"東京都","city":"板橋区","address":"東京都板橋区大谷口2-12-5","lat":35.74579,"lon":139.68901},{"name":"常盤台地域センター","province":"東京都","city":"板橋区","address":"東京都板橋区常盤台4-14-1","lat":35.76351,"lon":139.67961},{"name":"清水地域センター","province":"東京都","city":"板橋区","address":"東京都板橋区泉町16-16","lat":35.76639,"lon":139.70222},{"name":"志村坂上地域センター","province":"東京都","city":"板橋区","address":"東京都板橋区小豆沢2-19-15","lat":35.77666,"lon":139.69602},{"name":"中台地域センター","province":"東京都","city":"板橋区","address":"東京都板橋区中台1-44-8","lat":35.76774,"lon":139.67666},{"name":"蓮根地域センター","province":"東京都","city":"板橋区","address":"東京都板橋区坂下2-18-1","lat":35.78261,"lon":139.6808},{"name":"舟渡地域センター","province":"東京都","city":"板橋区","address":"東京都板橋区舟渡3-19-8","lat":35.79437,"lon":139.6809},{"name":"前野地域センター","province":"東京都","city":"板橋区","address":"東京都板橋区前野町4-6-1","lat":35.76918901,"lon":139.6887954},{"name":"桜川地域センター","province":"東京都","city":"板橋区","address":"東京都板橋区東新町2-45-6","lat":35.7524,"lon":139.68176},{"name":"下赤塚地域センター","province":"東京都","city":"板橋区","address":"東京都板橋区赤塚6-38-1","lat":35.77872723,"lon":139.6446233},{"name":"成増地域センター","province":"東京都","city":"板橋区","address":"東京都板橋区成増3-11-3-405","lat":35.7782,"lon":139.63342},{"name":"徳丸地域センター","province":"東京都","city":"板橋区","address":"東京都板橋区徳丸3-35-15","lat":35.77372,"lon":139.65947},{"name":"高島平地域センター","province":"東京都","city":"板橋区","address":"東京都板橋区高島平3-12-28","lat":35.78715,"lon":139.65881},{"name":"常盤台区民事務所","province":"東京都","city":"板橋区","address":"東京都板橋区常盤台3-27-1","lat":35.76118,"lon":139.68257},{"name":"志村坂上区民事務所","province":"東京都","city":"板橋区","address":"東京都板橋区小豆沢2-19-15","lat":35.77650422,"lon":139.6961483},{"name":"高島平区民事務所","province":"東京都","city":"板橋区","address":"東京都板橋区高島平3-12-28","lat":35.78712684,"lon":139.6590316},{"name":"志村福祉事務所","province":"東京都","city":"板橋区","address":"東京都板橋区蓮根2-28-1","lat":35.78535,"lon":139.67517},{"name":"小豆沢体育館","province":"東京都","city":"板橋区","address":"東京都板橋区小豆沢3-1-1","lat":35.77863,"lon":139.69818},{"name":"板橋東清掃事務所","province":"東京都","city":"板橋区","address":"東京都板橋区東坂下2-20-9","lat":35.78778,"lon":139.68525},{"name":"板橋西清掃事務所","province":"東京都","city":"板橋区","address":"東京都板橋区徳丸1-16-1","lat":35.76924,"lon":139.66662},{"name":"まなぽーと大原（大原生涯学習センター）","province":"東京都","city":"板橋区","address":"東京都板橋区大原町5-18","lat":35.76968,"lon":139.7001},{"name":"まなぽーと成増（成増生涯学習センター）","province":"東京都","city":"板橋区","address":"東京都板橋区成増1-12-4","lat":35.77467,"lon":139.63276},{"name":"文化会館","province":"東京都","city":"板橋区","address":"東京都板橋区大山東町51-1","lat":35.74949,"lon":139.70461},{"name":"グリーンホール","province":"東京都","city":"板橋区","address":"東京都板橋区栄町36-1","lat":35.75088,"lon":139.70527},{"name":"エコポリスセンター","province":"東京都","city":"板橋区","address":"東京都板橋区前野町4-6-1","lat":35.76915,"lon":139.68879},{"name":"企業活性化センター","province":"東京都","city":"板橋区","address":"東京都板橋区舟渡1-13-10","lat":35.792209,"lon":139.691089},{"name":"美術館","province":"東京都","city":"板橋区","address":"東京都板橋区赤塚5-34-27","lat":35.78435214,"lon":139.6444433},{"name":"郷土資料館","province":"東京都","city":"板橋区","address":"東京都板橋区赤塚5-35-25","lat":35.785209,"lon":139.64337},{"name":"板橋健康福祉センター","province":"東京都","city":"板橋区","address":"東京都板橋区大山東町32-15","lat":35.750424,"lon":139.70809},{"name":"上板橋健康福祉センター","province":"東京都","city":"板橋区","address":"東京都板橋区桜川3-18-6","lat":35.760172,"lon":139.675717},{"name":"赤塚健康福祉センター","province":"東京都","city":"板橋区","address":"東京都板橋区赤塚1-10-13","lat":35.772065,"lon":139.646761},{"name":"志村健康福祉センター","province":"東京都","city":"板橋区","address":"東京都板橋区蓮根2-5-5","lat":35.780875,"lon":139.677048},{"name":"高島平健康福祉センター","province":"東京都","city":"板橋区","address":"東京都板橋区高島平3-13-28","lat":35.787982,"lon":139.65877},{"name":"郷土芸能伝承館","province":"東京都","city":"板橋区","address":"東京都板橋区徳丸6-29-13","lat":35.778365,"lon":139.660649},{"name":"教育科学館","province":"東京都","city":"板橋区","address":"東京都板橋区常盤台4-14-1","lat":35.763454,"lon":139.679618},{"name":"赤塚植物園","province":"東京都","city":"板橋区","address":"東京都板橋区赤塚5-17","lat":35.780612,"lon":139.644253},{"name":"リサイクルプラザ","province":"東京都","city":"板橋区","address":"東京都板橋区舟渡4-16-6","lat":35.795671,"lon":139.676303},{"name":"北部土木サービスセンター","province":"東京都","city":"板橋区","address":"東京都板橋区新河岸1-9-8","lat":35.794855,"lon":139.668296},{"name":"南部土木サービスセンター","province":"東京都","city":"板橋区","address":"東京都板橋区富士見町3-1","lat":35.760756,"lon":139.701033},{"name":"熱帯環境植物館","province":"東京都","city":"板橋区","address":"東京都板橋区高島平8-29-2","lat":35.791911,"lon":139.664337},{"name":"中央図書館","province":"東京都","city":"板橋区","address":"東京都板橋区常盤台4-3-1","lat":35.76352,"lon":139.681456},{"name":"ハイライフプラザいたばし","province":"東京都","city":"板橋区","address":"東京都板橋区板橋1-55-16","lat":35.747027,"lon":139.720667},{"name":"植村冒険館","province":"東京都","city":"板橋区","address":"東京都板橋区加賀1-10-5","lat":35.75425,"lon":139.715975},{"name":"板橋区子ども家庭総合支援センター","province":"東京都","city":"板橋区","address":"東京都板橋区本町24-17","lat":35.759416,"lon":139.708348},{"name":"大田区青少年交流センター（ゆいっつ）","province":"東京都","city":"大田区","address":"東京都大田区平和島4-2-15","lat":35.58352,"lon":139.743012},{"name":"大田図書館","province":"東京都","city":"大田区","address":"東京都大田区田園調布南25番1号","lat":35.581606,"lon":139.676125},{"name":"大森南図書館","province":"東京都","city":"大田区","address":"東京都大田区大森南一丁目17番7号","lat":35.563429,"lon":139.739788},{"name":"大森東図書館","province":"東京都","city":"大田区","address":"東京都大田区大森東一丁目31番3号-104","lat":35.57617,"lon":139.739109},{"name":"大森西図書館","province":"東京都","city":"大田区","address":"東京都大田区大森西五丁目2番13号","lat":35.571869,"lon":139.72604},{"name":"入新井図書館","province":"東京都","city":"大田区","address":"東京都大田区大森北一丁目10番14号(大森複合施設ビル(Luz大森)内)","lat":35.586349,"lon":139.72822},{"name":"馬込図書館","province":"東京都","city":"大田区","address":"東京都大田区中馬込二丁目26番10号","lat":35.595677,"lon":139.71042},{"name":"池上図書館","province":"東京都","city":"大田区","address":"東京都大田区池上六丁目3番10号エトモ池上4階","lat":35.574768,"lon":139.703243},{"name":"久が原図書館","province":"東京都","city":"大田区","address":"東京都大田区久が原二丁目28番4号","lat":35.579334,"lon":139.695276},{"name":"洗足池図書館","province":"東京都","city":"大田区","address":"東京都大田区南千束二丁目2番10号","lat":35.600792,"lon":139.69193},{"name":"浜竹図書館","province":"東京都","city":"大田区","address":"東京都大田区西糀谷三丁目32番7号","lat":35.553368,"lon":139.737368},{"name":"羽田図書館","province":"東京都","city":"大田区","address":"東京都大田区羽田一丁目11番1号","lat":35.55041,"lon":139.74348},{"name":"六郷図書館","province":"東京都","city":"大田区","address":"東京都大田区南六郷三丁目10番3号","lat":35.543921,"lon":139.71401},{"name":"下丸子図書館","province":"東京都","city":"大田区","address":"東京都大田区下丸子二丁目18番11号","lat":35.565849,"lon":139.688037},{"name":"多摩川図書館","province":"東京都","city":"大田区","address":"東京都大田区多摩川二丁目24番63号","lat":35.556123,"lon":139.702316},{"name":"蒲田図書館","province":"東京都","city":"大田区","address":"東京都大田区東蒲田一丁目19番22号","lat":35.563686,"lon":139.728443},{"name":"蒲田駅前図書館","province":"東京都","city":"大田区","address":"東京都大田区蒲田五丁目13番26-301号","lat":35.559837,"lon":139.715496},{"name":"田園調布せせらぎ館","province":"東京都","city":"大田区","address":"東京都大田区田園調布1-53-12","lat":35.5899036,"lon":139.669526},{"name":"大田区役所","province":"東京都","city":"大田区","address":"東京都大田区蒲田5-13-14","lat":35.561326,"lon":139.716082},{"name":"大森東特別出張所","province":"東京都","city":"大田区","address":"東京都大田区大森南四丁目9番1号","lat":35.566933,"lon":139.7459},{"name":"大森西特別出張所","province":"東京都","city":"大田区","address":"東京都大田区大森西二丁目16番2号区民活動支援施設大森(こらぼ大森)1階","lat":35.576557,"lon":139.730251},{"name":"入新井特別出張所","province":"東京都","city":"大田区","address":"東京都大田区大森北一丁目10番14号","lat":35.586449,"lon":139.728206},{"name":"馬込特別出張所","province":"東京都","city":"大田区","address":"東京都大田区中馬込三丁目25番5号","lat":35.593962,"lon":139.709813},{"name":"池上特別出張所","province":"東京都","city":"大田区","address":"東京都大田区池上一丁目29番6号","lat":35.575115,"lon":139.710296},{"name":"新井宿特別出張所","province":"東京都","city":"大田区","address":"東京都大田区中央一丁目21番6号","lat":35.579697,"lon":139.719709},{"name":"嶺町特別出張所","province":"東京都","city":"大田区","address":"東京都大田区田園調布本町7番1号","lat":35.587911,"lon":139.67735},{"name":"田園調布特別出張所","province":"東京都","city":"大田区","address":"東京都大田区田園調布一丁目30番1号","lat":35.588316,"lon":139.67094},{"name":"鵜の木特別出張所","province":"東京都","city":"大田区","address":"東京都大田区南久が原二丁目30番5号","lat":35.574934,"lon":139.685171},{"name":"久が原特別出張所","province":"東京都","city":"大田区","address":"東京都大田区久が原四丁目12番10号","lat":35.580307,"lon":139.693975},{"name":"雪谷特別出張所","province":"東京都","city":"大田区","address":"東京都大田区東雪谷三丁目6番2号","lat":35.594554,"lon":139.691156},{"name":"千束特別出張所","province":"東京都","city":"大田区","address":"東京都大田区南千束二丁目16番19号","lat":35.604988,"lon":139.689441},{"name":"六郷特別出張所","province":"東京都","city":"大田区","address":"東京都大田区仲六郷二丁目44番11号","lat":35.550903,"lon":139.716084},{"name":"矢口特別出張所","province":"東京都","city":"大田区","address":"東京都大田区矢口二丁目21番14号","lat":35.562124,"lon":139.690283},{"name":"蒲田西特別出張所","province":"東京都","city":"大田区","address":"東京都大田区西蒲田七丁目12番2号1階","lat":35.564472,"lon":139.710686},{"name":"蒲田東特別出張所","province":"東京都","city":"大田区","address":"東京都大田区蒲田本町二丁目1番1号","lat":35.558535,"lon":139.718592},{"name":"糀谷特別出張所","province":"東京都","city":"大田区","address":"東京都大田区西糀谷二丁目14番13号","lat":35.55873,"lon":139.73676},{"name":"羽田特別出張所","province":"東京都","city":"大田区","address":"東京都大田区羽田一丁目18番13号","lat":35.549143,"lon":139.741826},{"name":"おおた国際交流センター（Minto Ota）","province":"東京都","city":"大田区","address":"東京都大田区蒲田4-16-82階","lat":35.5613404,"lon":139.7223747},{"name":"消費者生活センター","province":"東京都","city":"大田区","address":"東京都大田区蒲田五丁目13番26-101号","lat":35.559839,"lon":139.715496},{"name":"池上会館","province":"東京都","city":"大田区","address":"東京都大田区池上一丁目32番8号","lat":35.576883,"lon":139.706363},{"name":"新蒲田一丁目複合施設（カムカム新蒲田）","province":"東京都","city":"大田区","address":"東京都大田区新蒲田一丁目18番16号","lat":35.5575665,"lon":139.7110827},{"name":"三鷹国際交流協会","province":"東京都","city":"三鷹市","address":"東京都三鷹市下連雀3-30-12","lat":35.698111,"lon":139.561273},{"name":"帝釈天参道","province":"東京都","city":"葛飾区","address":"東京都葛飾区柴又4-9","lat":35.757193,"lon":139.875873},{"name":"寅さん記念館","province":"東京都","city":"葛飾区","address":"東京都葛飾区柴又6-22-19","lat":35.757411,"lon":139.880486},{"name":"山田洋次ミュージアム","province":"東京都","city":"葛飾区","address":"東京都葛飾区柴又6-22-19","lat":35.75667,"lon":139.880508},{"name":"山本亭","province":"東京都","city":"葛飾区","address":"東京都葛飾区柴又7-19-32","lat":35.758044,"lon":139.880102},{"name":"両津勘吉像","province":"東京都","city":"葛飾区","address":"東京都葛飾区亀有5-33","lat":35.766919,"lon":139.847897},{"name":"薔薇と麗子像","province":"東京都","city":"葛飾区","address":"東京都葛飾区亀有5-34-1","lat":35.767045,"lon":139.848177},{"name":"両津勘吉祭り姿像","province":"東京都","city":"葛飾区","address":"東京都葛飾区亀有3-25-1","lat":35.766167,"lon":139.847466},{"name":"ようこそ亀有へ両さん像","province":"東京都","city":"葛飾区","address":"東京都葛飾区亀有3-26","lat":35.766036,"lon":139.847839},{"name":"ようこそこち亀の街へ！両津・中川・麗子がお出迎え像","province":"東京都","city":"葛飾区","address":"東京都葛飾区亀有3-26","lat":35.766512,"lon":139.848042},{"name":"中川像","province":"東京都","city":"葛飾区","address":"東京都葛飾区亀有3-29","lat":35.766014,"lon":139.848533},{"name":"少年よ、あの星を目指せ！両さん像","province":"東京都","city":"葛飾区","address":"東京都葛飾区亀有3-42-24","lat":35.765548,"lon":139.851006},{"name":"ワハハ両さん像","province":"東京都","city":"葛飾区","address":"東京都葛飾区亀有2-63-7","lat":35.762992,"lon":139.850629},{"name":"本田像","province":"東京都","city":"葛飾区","address":"東京都葛飾区亀有3-13-1","lat":35.762914,"lon":139.847796},{"name":"少年両さん像","province":"東京都","city":"葛飾区","address":"東京都葛飾区亀有3-15","lat":35.76411,"lon":139.848788},{"name":"サンバ両さん像","province":"東京都","city":"葛飾区","address":"東京都葛飾区亀有3-18-4","lat":35.764786,"lon":139.847842},{"name":"敬礼両さん像","province":"東京都","city":"葛飾区","address":"東京都葛飾区亀有5-14","lat":35.767554,"lon":139.845388},{"name":"ダブルピース両さん像","province":"東京都","city":"葛飾区","address":"東京都葛飾区亀有5-36-1","lat":35.767642,"lon":139.848496},{"name":"ひとやすみ両さん像","province":"東京都","city":"葛飾区","address":"東京都葛飾区亀有5-36-1","lat":35.767795,"lon":139.848677},{"name":"麗子像","province":"東京都","city":"葛飾区","address":"東京都葛飾区亀有3-26-1","lat":35.766683,"lon":139.84845},{"name":"まちの台所、絵本劇場、図書サービスカウンターほか","province":"東京都","city":"葛飾区","address":"東京都葛飾区亀有3-26-1","lat":35.766683,"lon":139.84845},{"name":"新小岩駅北口","province":"東京都","city":"葛飾区","address":"東京都葛飾区西新小岩1-2","lat":35.717394,"lon":139.85783},{"name":"新小岩駅南口","province":"東京都","city":"葛飾区","address":"東京都葛飾区新小岩1-47","lat":35.7165,"lon":139.858734},{"name":"新小岩駅東北広場","province":"東京都","city":"葛飾区","address":"東京都葛飾区東新小岩1-18","lat":35.718695,"lon":139.8593},{"name":"スカイデッキたつみ","province":"東京都","city":"葛飾区","address":"東京都葛飾区東新小岩1-18","lat":35.718223,"lon":139.859113},{"name":"石崎了像","province":"東京都","city":"葛飾区","address":"東京都葛飾区東四つ木4-15-10","lat":35.732455,"lon":139.835797},{"name":"日向小次郎像","province":"東京都","city":"葛飾区","address":"東京都葛飾区四つ木1-16-24","lat":35.733356,"lon":139.836118},{"name":"大空翼像","province":"東京都","city":"葛飾区","address":"東京都葛飾区四つ木1-22-3","lat":35.734056,"lon":139.834082},{"name":"ロベルト本郷と大空翼像","province":"東京都","city":"葛飾区","address":"東京都葛飾区四つ木2-3-3","lat":35.736242,"lon":139.83532},{"name":"中沢早苗像","province":"東京都","city":"葛飾区","address":"東京都葛飾区四つ木2-28-1","lat":35.735829,"lon":139.839385},{"name":"岬太郎像","province":"東京都","city":"葛飾区","address":"東京都葛飾区東立石3-3-1","lat":35.735412,"lon":139.842984},{"name":"若林源三像","province":"東京都","city":"葛飾区","address":"東京都葛飾区立石4-28-14","lat":35.739902,"lon":139.848728},{"name":"大空翼像（ヒールリフト）","province":"東京都","city":"葛飾区","address":"東京都葛飾区立石1-21-6","lat":35.737792,"lon":139.849803},{"name":"大空翼像（ツインシュート）","province":"東京都","city":"葛飾区","address":"東京都葛飾区立石6-4-1","lat":35.744681,"lon":139.84749},{"name":"堀切菖蒲園","province":"東京都","city":"葛飾区","address":"東京都葛飾区堀切2-19-1","lat":35.742426,"lon":139.826113},{"name":"北とぴあ","province":"東京都","city":"北区","address":"東京都北区王子1-11-1","lat":35.754891,"lon":139.736675},{"name":"赤羽観光PRコーナー","province":"東京都","city":"北区","address":"東京都北区赤羽1-67-62","lat":35.779175,"lon":139.720283},{"name":"JR町田駅北口","province":"東京都","city":"町田市","address":"東京都町田市原町田6-1","lat":35.542,"lon":139.445},{"name":"町田バスセンター（小田急線町田駅西口）","province":"東京都","city":"町田市","address":"東京都町田市森野1-15","lat":35.543,"lon":139.444},{"name":"町田市庁舎前","province":"東京都","city":"町田市","address":"東京都町田市森野2-2-22","lat":35.546,"lon":139.438},{"name":"町田ターミナルプラザ","province":"東京都","city":"町田市","address":"東京都町田市原町田3-1-4","lat":35.54,"lon":139.449},{"name":"まちの案内所町田ツーリストギャラリー","province":"東京都","city":"町田市","address":"東京都町田市原町田4-10-20ぽっぽ町田","lat":35.542,"lon":139.448},{"name":"町田市立国際版画美術館","province":"東京都","city":"町田市","address":"東京都町田市原町田4-28-1","lat":35.544,"lon":139.455},{"name":"町田リス園","province":"東京都","city":"町田市","address":"東京都町田市薬師台1-733-1","lat":35.578,"lon":139.449},{"name":"サウスフロントタワーCielo","province":"東京都","city":"町田市","address":"東京都町田市原町田4-9-8","lat":35.541,"lon":139.449},{"name":"まちだ名産品の店心和（ここわ）","province":"東京都","city":"町田市","address":"東京都町田市原町田6-12-20小田急ビル1階","lat":35.543,"lon":139.445},{"name":"忠生市民センター","province":"東京都","city":"町田市","address":"東京都町田市忠生3-14-2","lat":35.578,"lon":139.416},{"name":"鶴川市民センター","province":"東京都","city":"町田市","address":"東京都町田市大蔵町1981-4","lat":35.588,"lon":139.467},{"name":"南市民センター","province":"東京都","city":"町田市","address":"東京都町田市金森4-5-6","lat":35.523,"lon":139.466},{"name":"なるせ駅前市民センター","province":"東京都","city":"町田市","address":"東京都町田市南成瀬1-2-5","lat":35.536,"lon":139.472},{"name":"堺市民センター","province":"東京都","city":"町田市","address":"東京都町田市相原町795-1","lat":35.604,"lon":139.333},{"name":"小山市民センター","province":"東京都","city":"町田市","address":"東京都町田市小山町2507-1","lat":35.597,"lon":139.369},{"name":"町田市立自由民権資料館","province":"東京都","city":"町田市","address":"東京都町田市野津田町897","lat":35.588,"lon":139.453}]}