{"keyword":"商品","data":[{"name":"東京都片瀬学園","province":"神奈川県","city":"藤沢市","address":"神奈川県藤沢市片瀬4-9-38","lat":35.31684,"lon":139.4837},{"name":"東京都片瀬学園","province":"神奈川県","city":"藤沢市","address":"神奈川県藤沢市片瀬4-9-38","lat":35.315956,"lon":139.482739},{"name":"（株）大木神奈川物流センター","province":"神奈川県","city":"藤沢市","address":"神奈川県藤沢市円行1-3-1","lat":35.38897,"lon":139.458},{"name":"東京都片瀬学園","province":"神奈川県","city":"藤沢市","address":"神奈川県藤沢市片瀬4-9-38","lat":35.31684,"lon":139.4837},{"name":"東京都片瀬学園","province":"神奈川県","city":"藤沢市","address":"神奈川県藤沢市片瀬4-9-38","lat":35.315956,"lon":139.482739},{"name":"東京都片瀬学園","province":"神奈川県","city":"藤沢市","address":"神奈川県藤沢市片瀬4-9-38","lat":35.31684,"lon":139.4837},{"name":"東京都片瀬学園","province":"神奈川県","city":"藤沢市","address":"神奈川県藤沢市片瀬4-9-38","lat":35.315956,"lon":139.482739},{"name":"東京都片瀬学園","province":"神奈川県","city":"藤沢市","address":"神奈川県藤沢市片瀬4-9-38","lat":35.31684,"lon":139.4837},{"name":"東京都片瀬学園","province":"神奈川県","city":"藤沢市","address":"神奈川県藤沢市片瀬4-9-38","lat":35.315956,"lon":139.482739},{"name":"東京都片瀬学園","province":"神奈川県","city":"藤沢市","address":"神奈川県藤沢市片瀬4-9-38","lat":35.31684,"lon":139.4837},{"name":"東京都片瀬学園","province":"神奈川県","city":"藤沢市","address":"神奈川県藤沢市片瀬4-9-38","lat":35.315956,"lon":139.482739},{"name":"東京都片瀬学園","province":"神奈川県","city":"藤沢市","address":"神奈川県藤沢市片瀬4-9-38","lat":35.31684,"lon":139.4837},{"name":"東京都片瀬学園","province":"神奈川県","city":"藤沢市","address":"神奈川県藤沢市片瀬4-9-38","lat":35.315956,"lon":139.482739},{"name":"東京都片瀬学園","province":"神奈川県","city":"藤沢市","address":"神奈川県藤沢市片瀬4-9-38","lat":35.31684,"lon":139.4837},{"name":"東京都片瀬学園","province":"神奈川県","city":"藤沢市","address":"神奈川県藤沢市片瀬4-9-38","lat":35.315956,"lon":139.482739},{"name":"東京都片瀬学園","province":"神奈川県","city":"藤沢市","address":"神奈川県藤沢市片瀬4-9-38","lat":35.31684,"lon":139.4837},{"name":"東京都片瀬学園","province":"神奈川県","city":"藤沢市","address":"神奈川県藤沢市片瀬4-9-38","lat":35.315956,"lon":139.482739},{"name":"東京都片瀬学園","province":"神奈川県","city":"藤沢市","address":"神奈川県藤沢市片瀬4-9-38","lat":35.31684,"lon":139.4837},{"name":"東京都片瀬学園","province":"神奈川県","city":"藤沢市","address":"神奈川県藤沢市片瀬4-9-38","lat":35.315956,"lon":139.482739},{"name":"東京都片瀬学園","province":"神奈川県","city":"藤沢市","address":"神奈川県藤沢市片瀬4-9-38","lat":35.31684,"lon":139.4837},{"name":"東京都片瀬学園","province":"神奈川県","city":"藤沢市","address":"神奈川県藤沢市片瀬4-9-38","lat":35.315956,"lon":139.482739},{"name":"東京都片瀬学園","province":"神奈川県","city":"藤沢市","address":"神奈川県藤沢市片瀬4-9-38","lat":35.31684,"lon":139.4837},{"name":"東京都片瀬学園","province":"神奈川県","city":"藤沢市","address":"神奈川県藤沢市片瀬4-9-38","lat":35.315956,"lon":139.482739},{"name":"東京都片瀬学園","province":"神奈川県","city":"藤沢市","address":"神奈川県藤沢市片瀬4-9-38","lat":35.31684,"lon":139.4837},{"name":"東京都片瀬学園","province":"神奈川県","city":"藤沢市","address":"神奈川県藤沢市片瀬4-9-38","lat":35.315956,"lon":139.482739},{"name":"東京都片瀬学園","province":"神奈川県","city":"藤沢市","address":"神奈川県藤沢市片瀬4-9-38","lat":35.31684,"lon":139.4837},{"name":"東京都片瀬学園","province":"神奈川県","city":"藤沢市","address":"神奈川県藤沢市片瀬4-9-38","lat":35.315956,"lon":139.482739},{"name":"東京都片瀬学園","province":"神奈川県","city":"藤沢市","address":"神奈川県藤沢市片瀬4-9-38","lat":35.31684,"lon":139.4837},{"name":"東京都片瀬学園","province":"神奈川県","city":"藤沢市","address":"神奈川県藤沢市片瀬4-9-38","lat":35.315956,"lon":139.482739},{"name":"東京都片瀬学園","province":"神奈川県","city":"藤沢市","address":"神奈川県藤沢市片瀬4-9-38","lat":35.31684,"lon":139.4837},{"name":"東京都片瀬学園","province":"神奈川県","city":"藤沢市","address":"神奈川県藤沢市片瀬4-9-38","lat":35.315956,"lon":139.482739},{"name":"東京都片瀬学園","province":"神奈川県","city":"藤沢市","address":"神奈川県藤沢市片瀬4-9-38","lat":35.31684,"lon":139.4837},{"name":"東京都片瀬学園","province":"神奈川県","city":"藤沢市","address":"神奈川県藤沢市片瀬4-9-38","lat":35.315956,"lon":139.482739},{"name":"東京都片瀬学園","province":"神奈川県","city":"藤沢市","address":"神奈川県藤沢市片瀬4-9-38","lat":35.31684,"lon":139.4837},{"name":"東京都片瀬学園","province":"神奈川県","city":"藤沢市","address":"神奈川県藤沢市片瀬4-9-38","lat":35.315956,"lon":139.482739},{"name":"東京都片瀬学園","province":"神奈川県","city":"藤沢市","address":"神奈川県藤沢市片瀬4-9-38","lat":35.31684,"lon":139.4837},{"name":"東京都片瀬学園","province":"神奈川県","city":"藤沢市","address":"神奈川県藤沢市片瀬4-9-38","lat":35.315956,"lon":139.482739},{"name":"東京都片瀬学園","province":"神奈川県","city":"藤沢市","address":"神奈川県藤沢市片瀬4-9-38","lat":35.31684,"lon":139.4837},{"name":"東京都片瀬学園","province":"神奈川県","city":"藤沢市","address":"神奈川県藤沢市片瀬4-9-38","lat":35.315956,"lon":139.482739},{"name":"東京都片瀬学園","province":"神奈川県","city":"藤沢市","address":"神奈川県藤沢市片瀬4-9-38","lat":35.31684,"lon":139.4837},{"name":"東京都片瀬学園","province":"神奈川県","city":"藤沢市","address":"神奈川県藤沢市片瀬4-9-38","lat":35.315956,"lon":139.482739},{"name":"東京都片瀬学園","province":"神奈川県","city":"藤沢市","address":"神奈川県藤沢市片瀬4-9-38","lat":35.31684,"lon":139.4837},{"name":"東京都片瀬学園","province":"神奈川県","city":"藤沢市","address":"神奈川県藤沢市片瀬4-9-38","lat":35.315956,"lon":139.482739},{"name":"東京都片瀬学園","province":"神奈川県","city":"藤沢市","address":"神奈川県藤沢市片瀬4-9-38","lat":35.31684,"lon":139.4837},{"name":"東京都片瀬学園","province":"神奈川県","city":"藤沢市","address":"神奈川県藤沢市片瀬4-9-38","lat":35.315956,"lon":139.482739},{"name":"東京都片瀬学園","province":"神奈川県","city":"藤沢市","address":"神奈川県藤沢市片瀬4-9-38","lat":35.31684,"lon":139.4837},{"name":"東京都片瀬学園","province":"神奈川県","city":"藤沢市","address":"神奈川県藤沢市片瀬4-9-38","lat":35.315956,"lon":139.482739},{"name":"東京都片瀬学園","province":"神奈川県","city":"藤沢市","address":"神奈川県藤沢市片瀬4-9-38","lat":35.31684,"lon":139.4837},{"name":"東京都片瀬学園","province":"神奈川県","city":"藤沢市","address":"神奈川県藤沢市片瀬4-9-38","lat":35.315956,"lon":139.482739},{"name":"東京都片瀬学園","province":"神奈川県","city":"藤沢市","address":"神奈川県藤沢市片瀬4-9-38","lat":35.31684,"lon":139.4837},{"name":"東京都片瀬学園","province":"神奈川県","city":"藤沢市","address":"神奈川県藤沢市片瀬4-9-38","lat":35.315956,"lon":139.482739},{"name":"東京都片瀬学園","province":"神奈川県","city":"藤沢市","address":"神奈川県藤沢市片瀬4-9-38","lat":35.31684,"lon":139.4837},{"name":"東京都片瀬学園","province":"神奈川県","city":"藤沢市","address":"神奈川県藤沢市片瀬4-9-38","lat":35.315956,"lon":139.482739},{"name":"東京都片瀬学園","province":"神奈川県","city":"藤沢市","address":"神奈川県藤沢市片瀬4-9-38","lat":35.31684,"lon":139.4837},{"name":"東京都片瀬学園","province":"神奈川県","city":"藤沢市","address":"神奈川県藤沢市片瀬4-9-38","lat":35.315956,"lon":139.482739},{"name":"東京都片瀬学園","province":"神奈川県","city":"藤沢市","address":"神奈川県藤沢市片瀬4-9-38","lat":35.31684,"lon":139.4837},{"name":"東京都片瀬学園","province":"神奈川県","city":"藤沢市","address":"神奈川県藤沢市片瀬4-9-38","lat":35.315956,"lon":139.482739},{"name":"東京都片瀬学園","province":"神奈川県","city":"藤沢市","address":"神奈川県藤沢市片瀬4-9-38","lat":35.31684,"lon":139.4837},{"name":"東京都片瀬学園","province":"神奈川県","city":"藤沢市","address":"神奈川県藤沢市片瀬4-9-38","lat":35.315956,"lon":139.482739},{"name":"東京都片瀬学園","province":"神奈川県","city":"藤沢市","address":"神奈川県藤沢市片瀬4-9-38","lat":35.31684,"lon":139.4837},{"name":"東京都片瀬学園","province":"神奈川県","city":"藤沢市","address":"神奈川県藤沢市片瀬4-9-38","lat":35.315956,"lon":139.482739},{"name":"東京都片瀬学園","province":"神奈川県","city":"藤沢市","address":"神奈川県藤沢市片瀬4-9-38","lat":35.31684,"lon":139.4837},{"name":"東京都片瀬学園","province":"神奈川県","city":"藤沢市","address":"神奈川県藤沢市片瀬4-9-38","lat":35.315956,"lon":139.482739},{"name":"東京都片瀬学園","province":"神奈川県","city":"藤沢市","address":"神奈川県藤沢市片瀬4-9-38","lat":35.31684,"lon":139.4837},{"name":"東京都片瀬学園","province":"神奈川県","city":"藤沢市","address":"神奈川県藤沢市片瀬4-9-38","lat":35.315956,"lon":139.482739},{"name":"東京都片瀬学園","province":"神奈川県","city":"藤沢市","address":"神奈川県藤沢市片瀬4-9-38","lat":35.31684,"lon":139.4837},{"name":"東京都片瀬学園","province":"神奈川県","city":"藤沢市","address":"神奈川県藤沢市片瀬4-9-38","lat":35.315956,"lon":139.482739},{"name":"東京都片瀬学園","province":"神奈川県","city":"藤沢市","address":"神奈川県藤沢市片瀬4-9-38","lat":35.31684,"lon":139.4837},{"name":"東京都片瀬学園","province":"神奈川県","city":"藤沢市","address":"神奈川県藤沢市片瀬4-9-38","lat":35.315956,"lon":139.482739},{"name":"東京都片瀬学園","province":"神奈川県","city":"藤沢市","address":"神奈川県藤沢市片瀬4-9-38","lat":35.31684,"lon":139.4837},{"name":"東京都片瀬学園","province":"神奈川県","city":"藤沢市","address":"神奈川県藤沢市片瀬4-9-38","lat":35.315956,"lon":139.482739},{"name":"東京都片瀬学園","province":"神奈川県","city":"藤沢市","address":"神奈川県藤沢市片瀬4-9-38","lat":35.31684,"lon":139.4837},{"name":"東京都片瀬学園","province":"神奈川県","city":"藤沢市","address":"神奈川県藤沢市片瀬4-9-38","lat":35.315956,"lon":139.482739},{"name":"東京都片瀬学園","province":"神奈川県","city":"藤沢市","address":"神奈川県藤沢市片瀬4-9-38","lat":35.31684,"lon":139.4837},{"name":"東京都片瀬学園","province":"神奈川県","city":"藤沢市","address":"神奈川県藤沢市片瀬4-9-38","lat":35.315956,"lon":139.482739},{"name":"東京都片瀬学園","province":"神奈川県","city":"藤沢市","address":"神奈川県藤沢市片瀬4-9-38","lat":35.31684,"lon":139.4837},{"name":"東京都片瀬学園","province":"神奈川県","city":"藤沢市","address":"神奈川県藤沢市片瀬4-9-38","lat":35.315956,"lon":139.482739},{"name":"東京都片瀬学園","province":"神奈川県","city":"藤沢市","address":"神奈川県藤沢市片瀬4-9-38","lat":35.31684,"lon":139.4837},{"name":"東京都片瀬学園","province":"神奈川県","city":"藤沢市","address":"神奈川県藤沢市片瀬4-9-38","lat":35.315956,"lon":139.482739},{"name":"東京都片瀬学園","province":"神奈川県","city":"藤沢市","address":"神奈川県藤沢市片瀬4-9-38","lat":35.31684,"lon":139.4837},{"name":"東京都片瀬学園","province":"神奈川県","city":"藤沢市","address":"神奈川県藤沢市片瀬4-9-38","lat":35.315956,"lon":139.482739},{"name":"東京都片瀬学園","province":"神奈川県","city":"藤沢市","address":"神奈川県藤沢市片瀬4-9-38","lat":35.31684,"lon":139.4837},{"name":"東京都片瀬学園","province":"神奈川県","city":"藤沢市","address":"神奈川県藤沢市片瀬4-9-38","lat":35.315956,"lon":139.482739},{"name":"東京都片瀬学園","province":"神奈川県","city":"藤沢市","address":"神奈川県藤沢市片瀬4-9-38","lat":35.31684,"lon":139.4837},{"name":"東京都片瀬学園","province":"神奈川県","city":"藤沢市","address":"神奈川県藤沢市片瀬4-9-38","lat":35.315956,"lon":139.482739},{"name":"東京都片瀬学園","province":"神奈川県","city":"藤沢市","address":"神奈川県藤沢市片瀬4-9-38","lat":35.31684,"lon":139.4837},{"name":"東京都片瀬学園","province":"神奈川県","city":"藤沢市","address":"神奈川県藤沢市片瀬4-9-38","lat":35.315956,"lon":139.482739},{"name":"東京都片瀬学園","province":"神奈川県","city":"藤沢市","address":"神奈川県藤沢市片瀬4-9-38","lat":35.31684,"lon":139.4837},{"name":"東京都片瀬学園","province":"神奈川県","city":"藤沢市","address":"神奈川県藤沢市片瀬4-9-38","lat":35.315956,"lon":139.482739},{"name":"東京都片瀬学園","province":"神奈川県","city":"藤沢市","address":"神奈川県藤沢市片瀬4-9-38","lat":35.31684,"lon":139.4837},{"name":"東京都片瀬学園","province":"神奈川県","city":"藤沢市","address":"神奈川県藤沢市片瀬4-9-38","lat":35.315956,"lon":139.482739},{"name":"東京都片瀬学園","province":"神奈川県","city":"藤沢市","address":"神奈川県藤沢市片瀬4-9-38","lat":35.31684,"lon":139.4837},{"name":"東京都片瀬学園","province":"神奈川県","city":"藤沢市","address":"神奈川県藤沢市片瀬4-9-38","lat":35.315956,"lon":139.482739},{"name":"東京都片瀬学園","province":"神奈川県","city":"藤沢市","address":"神奈川県藤沢市片瀬4-9-38","lat":35.31684,"lon":139.4837},{"name":"東京都片瀬学園","province":"神奈川県","city":"藤沢市","address":"神奈川県藤沢市片瀬4-9-38","lat":35.315956,"lon":139.482739},{"name":"東京都片瀬学園","province":"神奈川県","city":"藤沢市","address":"神奈川県藤沢市片瀬4-9-38","lat":35.31684,"lon":139.4837},{"name":"東京都片瀬学園","province":"神奈川県","city":"藤沢市","address":"神奈川県藤沢市片瀬4-9-38","lat":35.315956,"lon":139.482739},{"name":"東京都片瀬学園","province":"神奈川県","city":"藤沢市","address":"神奈川県藤沢市片瀬4-9-38","lat":35.31684,"lon":139.4837},{"name":"東京都片瀬学園","province":"神奈川県","city":"藤沢市","address":"神奈川県藤沢市片瀬4-9-38","lat":35.315956,"lon":139.482739},{"name":"東京都片瀬学園","province":"神奈川県","city":"藤沢市","address":"神奈川県藤沢市片瀬4-9-38","lat":35.31684,"lon":139.4837},{"name":"東京都片瀬学園","province":"神奈川県","city":"藤沢市","address":"神奈川県藤沢市片瀬4-9-38","lat":35.315956,"lon":139.482739},{"name":"東京都片瀬学園","province":"神奈川県","city":"藤沢市","address":"神奈川県藤沢市片瀬4-9-38","lat":35.31684,"lon":139.4837},{"name":"東京都片瀬学園","province":"神奈川県","city":"藤沢市","address":"神奈川県藤沢市片瀬4-9-38","lat":35.315956,"lon":139.482739},{"name":"東京都片瀬学園","province":"神奈川県","city":"藤沢市","address":"神奈川県藤沢市片瀬4-9-38","lat":35.31684,"lon":139.4837},{"name":"東京都片瀬学園","province":"神奈川県","city":"藤沢市","address":"神奈川県藤沢市片瀬4-9-38","lat":35.315956,"lon":139.482739},{"name":"東京都片瀬学園","province":"神奈川県","city":"藤沢市","address":"神奈川県藤沢市片瀬4-9-38","lat":35.31684,"lon":139.4837},{"name":"東京都片瀬学園","province":"神奈川県","city":"藤沢市","address":"神奈川県藤沢市片瀬4-9-38","lat":35.315956,"lon":139.482739},{"name":"東京都片瀬学園","province":"神奈川県","city":"藤沢市","address":"神奈川県藤沢市片瀬4-9-38","lat":35.31684,"lon":139.4837},{"name":"東京都片瀬学園","province":"神奈川県","city":"藤沢市","address":"神奈川県藤沢市片瀬4-9-38","lat":35.315956,"lon":139.482739},{"name":"東京都片瀬学園","province":"神奈川県","city":"藤沢市","address":"神奈川県藤沢市片瀬4-9-38","lat":35.31684,"lon":139.4837},{"name":"東京都片瀬学園","province":"神奈川県","city":"藤沢市","address":"神奈川県藤沢市片瀬4-9-38","lat":35.315956,"lon":139.482739}]}