{"keyword":"南米","data":[{"name":"千代田区選挙管理委員会","province":"東京都","city":"千代田区","address":"千代田区九段南1-2-1","lat":35.694001,"lon":139.753608},{"name":"中央区選挙管理委員会","province":"東京都","city":"中央区","address":"中央区築地1-1-1","lat":35.67063,"lon":139.772},{"name":"港区選挙管理委員会","province":"東京都","city":"港区","address":"港区芝公園1-5-25","lat":35.658044,"lon":139.751535},{"name":"新宿区選挙管理委員会","province":"東京都","city":"新宿区","address":"新宿区歌舞伎町1-5-1第1分庁舎3階","lat":35.693396,"lon":139.703409},{"name":"文京区選挙管理委員会","province":"東京都","city":"文京区","address":"文京区春日1-16-21","lat":35.707914,"lon":139.752653},{"name":"台東区選挙管理委員会","province":"東京都","city":"台東区","address":"台東区東上野4-5-6","lat":35.712601,"lon":139.779959},{"name":"墨田区選挙管理委員会","province":"東京都","city":"墨田区","address":"墨田区吾妻橋1-23-20","lat":35.710505,"lon":139.801508},{"name":"江東区選挙管理委員会","province":"東京都","city":"江東区","address":"江東区東陽4-11-28","lat":35.672802,"lon":139.81734},{"name":"品川区選挙管理委員会","province":"東京都","city":"品川区","address":"品川区広町2-1-36品川区防災センター・第2庁舎","lat":35.609177,"lon":139.730167},{"name":"目黒区選挙管理委員会","province":"東京都","city":"目黒区","address":"目黒区上目黒2-19-15","lat":35.64139,"lon":139.698105},{"name":"大田区選挙管理委員会","province":"東京都","city":"大田区","address":"大田区蒲田5-13-14","lat":35.561451,"lon":139.7161},{"name":"世田谷区選挙管理委員会","province":"東京都","city":"世田谷区","address":"世田谷区世田谷4-21-27","lat":35.645949,"lon":139.653078},{"name":"渋谷区選挙管理委員会","province":"東京都","city":"渋谷区","address":"渋谷区宇田川町1-1渋谷区役所12階","lat":35.663684,"lon":139.697741},{"name":"中野区選挙管理委員会","province":"東京都","city":"中野区","address":"中野区中野4-8-1","lat":35.707369,"lon":139.663762},{"name":"杉並区選挙管理委員会","province":"東京都","city":"杉並区","address":"杉並区阿佐谷南1-15-1","lat":35.699661,"lon":139.636188},{"name":"豊島区選挙管理委員会","province":"東京都","city":"豊島区","address":"豊島区南池袋2-45-1本庁舎8階","lat":35.726104,"lon":139.716654},{"name":"北区選挙管理委員会","province":"東京都","city":"北区","address":"北区滝野川2-52-10","lat":35.751473,"lon":139.733254},{"name":"荒川区選挙管理委員会","province":"東京都","city":"荒川区","address":"荒川区荒川2-2-3","lat":35.736056,"lon":139.783364},{"name":"板橋区選挙管理委員会","province":"東京都","city":"板橋区","address":"板橋区板橋2-66-1","lat":35.75088,"lon":139.709189},{"name":"練馬区選挙管理委員会","province":"東京都","city":"練馬区","address":"練馬区豊玉北6-12-1","lat":35.735671,"lon":139.651705},{"name":"足立区選挙管理委員会","province":"東京都","city":"足立区","address":"足立区中央本町1-17-1","lat":35.774783,"lon":139.804576},{"name":"葛飾区選挙管理委員会","province":"東京都","city":"葛飾区","address":"葛飾区立石5-13-1","lat":35.743181,"lon":139.847312},{"name":"江戸川区選挙管理委員会","province":"東京都","city":"江戸川区","address":"江戸川区中央1-4-1","lat":35.707031,"lon":139.868218},{"name":"八王子市選挙管理委員会","province":"東京都","city":"八王子市","address":"八王子市元本郷町3-24-1","lat":35.666428,"lon":139.315993},{"name":"立川市選挙管理委員会","province":"東京都","city":"立川市","address":"立川市泉町1156-9","lat":35.714042,"lon":139.407759},{"name":"武蔵野市選挙管理委員会","province":"東京都","city":"武蔵野市","address":"武蔵野市緑町2-2-28","lat":35.717717,"lon":139.566045},{"name":"三鷹市選挙管理委員会","province":"東京都","city":"三鷹市","address":"三鷹市野崎1-1-1第3庁舎","lat":35.683516,"lon":139.559481},{"name":"青梅市選挙管理委員会","province":"東京都","city":"青梅市","address":"青梅市東青梅1-11-1","lat":35.787856,"lon":139.275831},{"name":"府中市選挙管理委員会","province":"東京都","city":"府中市","address":"府中市宮西町2-24","lat":35.668977,"lon":139.477612},{"name":"昭島市選挙管理委員会","province":"東京都","city":"昭島市","address":"昭島市田中町1-17-1","lat":35.705811,"lon":139.353574},{"name":"調布市選挙管理委員会","province":"東京都","city":"調布市","address":"調布市小島町2-35-1","lat":35.65063,"lon":139.540805},{"name":"町田市選挙管理委員会","province":"東京都","city":"町田市","address":"町田市森野2-2-22","lat":35.546643,"lon":139.438645},{"name":"小金井市選挙管理委員会","province":"東京都","city":"小金井市","address":"小金井市前原町3-41-15第2庁舎","lat":35.698566,"lon":139.504908},{"name":"小平市選挙管理委員会","province":"東京都","city":"小平市","address":"小平市学園東町1-19-12健康センター","lat":35.726968,"lon":139.477577},{"name":"日野市選挙管理委員会","province":"東京都","city":"日野市","address":"日野市神明1-12-1","lat":35.670496,"lon":139.395606},{"name":"東村山市選挙管理委員会","province":"東京都","city":"東村山市","address":"東村山市本町1-2-3","lat":35.754574,"lon":139.468413},{"name":"国分寺市選挙管理委員会","province":"東京都","city":"国分寺市","address":"国分寺市戸倉1-6-1","lat":35.71036,"lon":139.463207},{"name":"国立市選挙管理委員会","province":"東京都","city":"国立市","address":"国立市富士見台2-47-1","lat":35.683909,"lon":139.44141},{"name":"福生市選挙管理委員会","province":"東京都","city":"福生市","address":"福生市本町5","lat":35.738654,"lon":139.326776},{"name":"狛江市選挙管理委員会","province":"東京都","city":"狛江市","address":"狛江市和泉本町1-1-5","lat":35.634901,"lon":139.578772},{"name":"東大和市選挙管理委員会","province":"東京都","city":"東大和市","address":"東大和市中央3-930","lat":35.745371,"lon":139.42635},{"name":"清瀬市選挙管理委員会","province":"東京都","city":"清瀬市","address":"清瀬市中里5-842","lat":35.786055,"lon":139.526067},{"name":"東久留米市選挙管理委員会","province":"東京都","city":"東久留米市","address":"東久留米市本町3-3-1","lat":35.757965,"lon":139.529734},{"name":"武蔵村山市選挙管理委員会","province":"東京都","city":"武蔵村山市","address":"武蔵村山市本町1-1-1","lat":35.754859,"lon":139.38743},{"name":"多摩市選挙管理委員会","province":"東京都","city":"多摩市","address":"多摩市関戸6-12-1","lat":35.637126,"lon":139.446269},{"name":"稲城市選挙管理委員会","province":"東京都","city":"稲城市","address":"稲城市東長沼2111","lat":35.638082,"lon":139.503756},{"name":"羽村市選挙管理委員会","province":"東京都","city":"羽村市","address":"羽村市緑ヶ丘5-1-30羽村市役所分庁舎","lat":35.767163,"lon":139.311017},{"name":"あきる野市選挙管理委員会","province":"東京都","city":"あきる野市","address":"あきる野市二宮350番地あきる野市役所内","lat":35.728894,"lon":139.294115},{"name":"西東京市選挙管理委員会","province":"東京都","city":"西東京市","address":"西東京市南町5-6-13西東京市役所田無庁舎","lat":35.725681,"lon":139.53837},{"name":"瑞穂町選挙管理委員会","province":"東京都","city":"西多摩郡瑞穂町","address":"西多摩郡瑞穂町箱根ヶ崎2335","lat":35.772033,"lon":139.353973},{"name":"日の出町選挙管理委員会","province":"東京都","city":"西多摩郡日の出町","address":"西多摩郡日の出町平井2780","lat":35.742095,"lon":139.257423},{"name":"檜原村選挙管理委員会","province":"東京都","city":"西多摩郡檜原村","address":"西多摩郡檜原村467-1","lat":35.726822,"lon":139.14886},{"name":"奥多摩町選挙管理委員会","province":"東京都","city":"西多摩郡奥多摩町","address":"西多摩郡奥多摩町氷川215-6","lat":35.809523,"lon":139.096235},{"name":"大島町役場","province":"東京都","city":"大島町","address":"東京都大島町元町1-1-14","lat":34.7502,"lon":139.35515},{"name":"利島村役場","province":"東京都","city":"","address":"東京都利島村248","lat":34.529142,"lon":139.2819},{"name":"新島村役場","province":"東京都","city":"新島村","address":"東京都新島村本村1-1-1","lat":34.377126,"lon":139.257123},{"name":"神津島村役場","province":"東京都","city":"神津島村","address":"東京都神津島村904","lat":34.205524,"lon":139.134499},{"name":"三宅村役場","province":"東京都","city":"","address":"東京都三宅島三宅村阿古497番地","lat":34.075968,"lon":139.479169},{"name":"御蔵島村役場","province":"東京都","city":"御蔵島村","address":"東京都御蔵島村字入かねが沢","lat":33.897402,"lon":139.595862},{"name":"八丈町役場","province":"東京都","city":"八丈町","address":"東京都八丈町大賀郷2551-2","lat":33.112735,"lon":139.789068},{"name":"青ヶ島村役場","province":"東京都","city":"青ヶ島村","address":"東京都青ケ島村無番地","lat":32.466714,"lon":139.763529},{"name":"小笠原村役場","province":"東京都","city":"小笠原村","address":"東京都小笠原村父島字西町","lat":27.094271,"lon":142.191871},{"name":"千代田区選挙管理委員会","province":"東京都","city":"千代田区","address":"千代田区九段南1-2-1","lat":35.694001,"lon":139.753608},{"name":"中央区選挙管理委員会","province":"東京都","city":"中央区","address":"中央区築地1-1-1","lat":35.67063,"lon":139.772},{"name":"港区選挙管理委員会","province":"東京都","city":"港区","address":"港区芝公園1-5-25","lat":35.658044,"lon":139.751535},{"name":"新宿区選挙管理委員会","province":"東京都","city":"新宿区","address":"新宿区歌舞伎町1-5-1第1分庁舎3階","lat":35.693396,"lon":139.703409},{"name":"文京区選挙管理委員会","province":"東京都","city":"文京区","address":"文京区春日1-16-21","lat":35.707914,"lon":139.752653},{"name":"台東区選挙管理委員会","province":"東京都","city":"台東区","address":"台東区東上野4-5-6","lat":35.712601,"lon":139.779959},{"name":"墨田区選挙管理委員会","province":"東京都","city":"墨田区","address":"墨田区吾妻橋1-23-20","lat":35.710505,"lon":139.801508},{"name":"江東区選挙管理委員会","province":"東京都","city":"江東区","address":"江東区東陽4-11-28","lat":35.672802,"lon":139.81734},{"name":"品川区選挙管理委員会","province":"東京都","city":"品川区","address":"品川区広町2-1-36品川区防災センター・第2庁舎","lat":35.609177,"lon":139.730167},{"name":"目黒区選挙管理委員会","province":"東京都","city":"目黒区","address":"目黒区上目黒2-19-15","lat":35.64139,"lon":139.698105},{"name":"大田区選挙管理委員会","province":"東京都","city":"大田区","address":"大田区蒲田5-13-14","lat":35.561451,"lon":139.7161},{"name":"世田谷区選挙管理委員会","province":"東京都","city":"世田谷区","address":"世田谷区世田谷4-21-27","lat":35.645949,"lon":139.653078},{"name":"渋谷区選挙管理委員会","province":"東京都","city":"渋谷区","address":"渋谷区宇田川町1-1渋谷区役所12階","lat":35.663684,"lon":139.697741},{"name":"中野区選挙管理委員会","province":"東京都","city":"中野区","address":"中野区中野4-8-1","lat":35.707369,"lon":139.663762},{"name":"杉並区選挙管理委員会","province":"東京都","city":"杉並区","address":"杉並区阿佐谷南1-15-1","lat":35.699661,"lon":139.636188},{"name":"豊島区選挙管理委員会","province":"東京都","city":"豊島区","address":"豊島区南池袋2-45-1本庁舎8階","lat":35.726104,"lon":139.716654},{"name":"北区選挙管理委員会","province":"東京都","city":"北区","address":"北区滝野川2-52-10","lat":35.751473,"lon":139.733254},{"name":"荒川区選挙管理委員会","province":"東京都","city":"荒川区","address":"荒川区荒川2-2-3","lat":35.736056,"lon":139.783364},{"name":"板橋区選挙管理委員会","province":"東京都","city":"板橋区","address":"板橋区板橋2-66-1","lat":35.75088,"lon":139.709189},{"name":"練馬区選挙管理委員会","province":"東京都","city":"練馬区","address":"練馬区豊玉北6-12-1","lat":35.735671,"lon":139.651705},{"name":"足立区選挙管理委員会","province":"東京都","city":"足立区","address":"足立区中央本町1-17-1","lat":35.774783,"lon":139.804576},{"name":"葛飾区選挙管理委員会","province":"東京都","city":"葛飾区","address":"葛飾区立石5-13-1","lat":35.743181,"lon":139.847312},{"name":"江戸川区選挙管理委員会","province":"東京都","city":"江戸川区","address":"江戸川区中央1-4-1","lat":35.707031,"lon":139.868218},{"name":"八王子市選挙管理委員会","province":"東京都","city":"八王子市","address":"八王子市元本郷町3-24-1","lat":35.666428,"lon":139.315993},{"name":"立川市選挙管理委員会","province":"東京都","city":"立川市","address":"立川市泉町1156-9","lat":35.714042,"lon":139.407759},{"name":"武蔵野市選挙管理委員会","province":"東京都","city":"武蔵野市","address":"武蔵野市緑町2-2-28","lat":35.717717,"lon":139.566045},{"name":"三鷹市選挙管理委員会","province":"東京都","city":"三鷹市","address":"三鷹市野崎1-1-1第3庁舎","lat":35.683516,"lon":139.559481},{"name":"青梅市選挙管理委員会","province":"東京都","city":"青梅市","address":"青梅市東青梅1-11-1","lat":35.787856,"lon":139.275831},{"name":"府中市選挙管理委員会","province":"東京都","city":"府中市","address":"府中市宮西町2-24","lat":35.668977,"lon":139.477612},{"name":"昭島市選挙管理委員会","province":"東京都","city":"昭島市","address":"昭島市田中町1-17-1","lat":35.705811,"lon":139.353574},{"name":"調布市選挙管理委員会","province":"東京都","city":"調布市","address":"調布市小島町2-35-1","lat":35.65063,"lon":139.540805},{"name":"町田市選挙管理委員会","province":"東京都","city":"町田市","address":"町田市森野2-2-22","lat":35.546643,"lon":139.438645},{"name":"小金井市選挙管理委員会","province":"東京都","city":"小金井市","address":"小金井市前原町3-41-15第2庁舎","lat":35.698566,"lon":139.504908},{"name":"小平市選挙管理委員会","province":"東京都","city":"小平市","address":"小平市学園東町1-19-12健康センター","lat":35.726968,"lon":139.477577},{"name":"日野市選挙管理委員会","province":"東京都","city":"日野市","address":"日野市神明1-12-1","lat":35.670496,"lon":139.395606},{"name":"東村山市選挙管理委員会","province":"東京都","city":"東村山市","address":"東村山市本町1-2-3","lat":35.754574,"lon":139.468413},{"name":"国分寺市選挙管理委員会","province":"東京都","city":"国分寺市","address":"国分寺市戸倉1-6-1","lat":35.71036,"lon":139.463207},{"name":"国立市選挙管理委員会","province":"東京都","city":"国立市","address":"国立市富士見台2-47-1","lat":35.683909,"lon":139.44141},{"name":"福生市選挙管理委員会","province":"東京都","city":"福生市","address":"福生市本町5","lat":35.738654,"lon":139.326776},{"name":"狛江市選挙管理委員会","province":"東京都","city":"狛江市","address":"狛江市和泉本町1-1-5","lat":35.634901,"lon":139.578772},{"name":"東大和市選挙管理委員会","province":"東京都","city":"東大和市","address":"東大和市中央3-930","lat":35.745371,"lon":139.42635},{"name":"清瀬市選挙管理委員会","province":"東京都","city":"清瀬市","address":"清瀬市中里5-842","lat":35.786055,"lon":139.526067},{"name":"東久留米市選挙管理委員会","province":"東京都","city":"東久留米市","address":"東久留米市本町3-3-1","lat":35.757965,"lon":139.529734},{"name":"武蔵村山市選挙管理委員会","province":"東京都","city":"武蔵村山市","address":"武蔵村山市本町1-1-1","lat":35.754859,"lon":139.38743},{"name":"多摩市選挙管理委員会","province":"東京都","city":"多摩市","address":"多摩市関戸6-12-1","lat":35.637126,"lon":139.446269},{"name":"稲城市選挙管理委員会","province":"東京都","city":"稲城市","address":"稲城市東長沼2111","lat":35.638082,"lon":139.503756},{"name":"羽村市選挙管理委員会","province":"東京都","city":"羽村市","address":"羽村市緑ヶ丘5-1-30羽村市役所分庁舎","lat":35.767163,"lon":139.311017},{"name":"あきる野市選挙管理委員会","province":"東京都","city":"あきる野市","address":"あきる野市二宮350番地あきる野市役所内","lat":35.728894,"lon":139.294115},{"name":"西東京市選挙管理委員会","province":"東京都","city":"西東京市","address":"西東京市南町5-6-13西東京市役所田無庁舎","lat":35.725681,"lon":139.53837},{"name":"瑞穂町選挙管理委員会","province":"東京都","city":"西多摩郡瑞穂町","address":"西多摩郡瑞穂町箱根ヶ崎2335","lat":35.772033,"lon":139.353973},{"name":"日の出町選挙管理委員会","province":"東京都","city":"西多摩郡日の出町","address":"西多摩郡日の出町平井2780","lat":35.742095,"lon":139.257423},{"name":"檜原村選挙管理委員会","province":"東京都","city":"西多摩郡檜原村","address":"西多摩郡檜原村467-1","lat":35.726822,"lon":139.14886},{"name":"奥多摩町選挙管理委員会","province":"東京都","city":"西多摩郡奥多摩町","address":"西多摩郡奥多摩町氷川215-6","lat":35.809523,"lon":139.096235},{"name":"大島町役場","province":"東京都","city":"大島町","address":"東京都大島町元町1-1-14","lat":34.7502,"lon":139.35515},{"name":"利島村役場","province":"東京都","city":"","address":"東京都利島村248","lat":34.529142,"lon":139.2819},{"name":"新島村役場","province":"東京都","city":"新島村","address":"東京都新島村本村1-1-1","lat":34.377126,"lon":139.257123},{"name":"神津島村役場","province":"東京都","city":"神津島村","address":"東京都神津島村904","lat":34.205524,"lon":139.134499},{"name":"三宅村役場","province":"東京都","city":"","address":"東京都三宅島三宅村阿古497番地","lat":34.075968,"lon":139.479169},{"name":"御蔵島村役場","province":"東京都","city":"御蔵島村","address":"東京都御蔵島村字入かねが沢","lat":33.897402,"lon":139.595862},{"name":"八丈町役場","province":"東京都","city":"八丈町","address":"東京都八丈町大賀郷2551-2","lat":33.112735,"lon":139.789068},{"name":"青ヶ島村役場","province":"東京都","city":"青ヶ島村","address":"東京都青ケ島村無番地","lat":32.466714,"lon":139.763529},{"name":"小笠原村役場","province":"東京都","city":"小笠原村","address":"東京都小笠原村父島字西町","lat":27.094271,"lon":142.191871},{"name":"千代田区選挙管理委員会","province":"東京都","city":"千代田区","address":"千代田区九段南1-2-1","lat":35.694001,"lon":139.753608},{"name":"中央区選挙管理委員会","province":"東京都","city":"中央区","address":"中央区築地1-1-1","lat":35.67063,"lon":139.772},{"name":"港区選挙管理委員会","province":"東京都","city":"港区","address":"港区芝公園1-5-25","lat":35.658044,"lon":139.751535},{"name":"新宿区選挙管理委員会","province":"東京都","city":"新宿区","address":"新宿区歌舞伎町1-5-1第1分庁舎3階","lat":35.693396,"lon":139.703409},{"name":"文京区選挙管理委員会","province":"東京都","city":"文京区","address":"文京区春日1-16-21","lat":35.707914,"lon":139.752653},{"name":"台東区選挙管理委員会","province":"東京都","city":"台東区","address":"台東区東上野4-5-6","lat":35.712601,"lon":139.779959},{"name":"墨田区選挙管理委員会","province":"東京都","city":"墨田区","address":"墨田区吾妻橋1-23-20","lat":35.710505,"lon":139.801508},{"name":"江東区選挙管理委員会","province":"東京都","city":"江東区","address":"江東区東陽4-11-28","lat":35.672802,"lon":139.81734},{"name":"品川区選挙管理委員会","province":"東京都","city":"品川区","address":"品川区広町2-1-36品川区防災センター・第2庁舎","lat":35.609177,"lon":139.730167},{"name":"目黒区選挙管理委員会","province":"東京都","city":"目黒区","address":"目黒区上目黒2-19-15","lat":35.64139,"lon":139.698105},{"name":"大田区選挙管理委員会","province":"東京都","city":"大田区","address":"大田区蒲田5-13-14","lat":35.561451,"lon":139.7161},{"name":"世田谷区選挙管理委員会","province":"東京都","city":"世田谷区","address":"世田谷区世田谷4-21-27","lat":35.645949,"lon":139.653078},{"name":"渋谷区選挙管理委員会","province":"東京都","city":"渋谷区","address":"渋谷区宇田川町1-1渋谷区役所12階","lat":35.663684,"lon":139.697741},{"name":"中野区選挙管理委員会","province":"東京都","city":"中野区","address":"中野区中野4-8-1","lat":35.707369,"lon":139.663762},{"name":"杉並区選挙管理委員会","province":"東京都","city":"杉並区","address":"杉並区阿佐谷南1-15-1","lat":35.699661,"lon":139.636188},{"name":"豊島区選挙管理委員会","province":"東京都","city":"豊島区","address":"豊島区南池袋2-45-1本庁舎8階","lat":35.726104,"lon":139.716654},{"name":"北区選挙管理委員会","province":"東京都","city":"北区","address":"北区滝野川2-52-10","lat":35.751473,"lon":139.733254},{"name":"荒川区選挙管理委員会","province":"東京都","city":"荒川区","address":"荒川区荒川2-2-3","lat":35.736056,"lon":139.783364},{"name":"板橋区選挙管理委員会","province":"東京都","city":"板橋区","address":"板橋区板橋2-66-1","lat":35.75088,"lon":139.709189},{"name":"練馬区選挙管理委員会","province":"東京都","city":"練馬区","address":"練馬区豊玉北6-12-1","lat":35.735671,"lon":139.651705},{"name":"足立区選挙管理委員会","province":"東京都","city":"足立区","address":"足立区中央本町1-17-1","lat":35.774783,"lon":139.804576},{"name":"葛飾区選挙管理委員会","province":"東京都","city":"葛飾区","address":"葛飾区立石5-13-1","lat":35.743181,"lon":139.847312},{"name":"江戸川区選挙管理委員会","province":"東京都","city":"江戸川区","address":"江戸川区中央1-4-1","lat":35.707031,"lon":139.868218},{"name":"八王子市選挙管理委員会","province":"東京都","city":"八王子市","address":"八王子市元本郷町3-24-1","lat":35.666428,"lon":139.315993},{"name":"立川市選挙管理委員会","province":"東京都","city":"立川市","address":"立川市泉町1156-9","lat":35.714042,"lon":139.407759},{"name":"武蔵野市選挙管理委員会","province":"東京都","city":"武蔵野市","address":"武蔵野市緑町2-2-28","lat":35.717717,"lon":139.566045},{"name":"三鷹市選挙管理委員会","province":"東京都","city":"三鷹市","address":"三鷹市野崎1-1-1第3庁舎","lat":35.683516,"lon":139.559481},{"name":"青梅市選挙管理委員会","province":"東京都","city":"青梅市","address":"青梅市東青梅1-11-1","lat":35.787856,"lon":139.275831},{"name":"府中市選挙管理委員会","province":"東京都","city":"府中市","address":"府中市宮西町2-24","lat":35.668977,"lon":139.477612},{"name":"昭島市選挙管理委員会","province":"東京都","city":"昭島市","address":"昭島市田中町1-17-1","lat":35.705811,"lon":139.353574},{"name":"調布市選挙管理委員会","province":"東京都","city":"調布市","address":"調布市小島町2-35-1","lat":35.65063,"lon":139.540805},{"name":"町田市選挙管理委員会","province":"東京都","city":"町田市","address":"町田市森野2-2-22","lat":35.546643,"lon":139.438645},{"name":"小金井市選挙管理委員会","province":"東京都","city":"小金井市","address":"小金井市前原町3-41-15第2庁舎","lat":35.698566,"lon":139.504908},{"name":"小平市選挙管理委員会","province":"東京都","city":"小平市","address":"小平市学園東町1-19-12健康センター","lat":35.726968,"lon":139.477577},{"name":"日野市選挙管理委員会","province":"東京都","city":"日野市","address":"日野市神明1-12-1","lat":35.670496,"lon":139.395606},{"name":"東村山市選挙管理委員会","province":"東京都","city":"東村山市","address":"東村山市本町1-2-3","lat":35.754574,"lon":139.468413},{"name":"国分寺市選挙管理委員会","province":"東京都","city":"国分寺市","address":"国分寺市戸倉1-6-1","lat":35.71036,"lon":139.463207},{"name":"国立市選挙管理委員会","province":"東京都","city":"国立市","address":"国立市富士見台2-47-1","lat":35.683909,"lon":139.44141},{"name":"福生市選挙管理委員会","province":"東京都","city":"福生市","address":"福生市本町5","lat":35.738654,"lon":139.326776},{"name":"狛江市選挙管理委員会","province":"東京都","city":"狛江市","address":"狛江市和泉本町1-1-5","lat":35.634901,"lon":139.578772},{"name":"東大和市選挙管理委員会","province":"東京都","city":"東大和市","address":"東大和市中央3-930","lat":35.745371,"lon":139.42635},{"name":"清瀬市選挙管理委員会","province":"東京都","city":"清瀬市","address":"清瀬市中里5-842","lat":35.786055,"lon":139.526067},{"name":"東久留米市選挙管理委員会","province":"東京都","city":"東久留米市","address":"東久留米市本町3-3-1","lat":35.757965,"lon":139.529734},{"name":"武蔵村山市選挙管理委員会","province":"東京都","city":"武蔵村山市","address":"武蔵村山市本町1-1-1","lat":35.754859,"lon":139.38743},{"name":"多摩市選挙管理委員会","province":"東京都","city":"多摩市","address":"多摩市関戸6-12-1","lat":35.637126,"lon":139.446269},{"name":"稲城市選挙管理委員会","province":"東京都","city":"稲城市","address":"稲城市東長沼2111","lat":35.638082,"lon":139.503756},{"name":"羽村市選挙管理委員会","province":"東京都","city":"羽村市","address":"羽村市緑ヶ丘5-1-30羽村市役所分庁舎","lat":35.767163,"lon":139.311017},{"name":"あきる野市選挙管理委員会","province":"東京都","city":"あきる野市","address":"あきる野市二宮350番地あきる野市役所内","lat":35.728894,"lon":139.294115},{"name":"西東京市選挙管理委員会","province":"東京都","city":"西東京市","address":"西東京市南町5-6-13西東京市役所田無庁舎","lat":35.725681,"lon":139.53837},{"name":"瑞穂町選挙管理委員会","province":"東京都","city":"西多摩郡瑞穂町","address":"西多摩郡瑞穂町箱根ヶ崎2335","lat":35.772033,"lon":139.353973},{"name":"日の出町選挙管理委員会","province":"東京都","city":"西多摩郡日の出町","address":"西多摩郡日の出町平井2780","lat":35.742095,"lon":139.257423},{"name":"檜原村選挙管理委員会","province":"東京都","city":"西多摩郡檜原村","address":"西多摩郡檜原村467-1","lat":35.726822,"lon":139.14886},{"name":"奥多摩町選挙管理委員会","province":"東京都","city":"西多摩郡奥多摩町","address":"西多摩郡奥多摩町氷川215-6","lat":35.809523,"lon":139.096235},{"name":"大島町役場","province":"東京都","city":"大島町","address":"東京都大島町元町1-1-14","lat":34.7502,"lon":139.35515},{"name":"利島村役場","province":"東京都","city":"","address":"東京都利島村248","lat":34.529142,"lon":139.2819},{"name":"新島村役場","province":"東京都","city":"新島村","address":"東京都新島村本村1-1-1","lat":34.377126,"lon":139.257123},{"name":"神津島村役場","province":"東京都","city":"神津島村","address":"東京都神津島村904","lat":34.205524,"lon":139.134499},{"name":"三宅村役場","province":"東京都","city":"","address":"東京都三宅島三宅村阿古497番地","lat":34.075968,"lon":139.479169},{"name":"御蔵島村役場","province":"東京都","city":"御蔵島村","address":"東京都御蔵島村字入かねが沢","lat":33.897402,"lon":139.595862},{"name":"八丈町役場","province":"東京都","city":"八丈町","address":"東京都八丈町大賀郷2551-2","lat":33.112735,"lon":139.789068},{"name":"青ヶ島村役場","province":"東京都","city":"青ヶ島村","address":"東京都青ケ島村無番地","lat":32.466714,"lon":139.763529},{"name":"小笠原村役場","province":"東京都","city":"小笠原村","address":"東京都小笠原村父島字西町","lat":27.094271,"lon":142.191871},{"name":"千代田区選挙管理委員会","province":"東京都","city":"千代田区","address":"千代田区九段南1-2-1","lat":35.694001,"lon":139.753608},{"name":"中央区選挙管理委員会","province":"東京都","city":"中央区","address":"中央区築地1-1-1","lat":35.67063,"lon":139.772},{"name":"港区選挙管理委員会","province":"東京都","city":"港区","address":"港区芝公園1-5-25","lat":35.658044,"lon":139.751535},{"name":"新宿区選挙管理委員会","province":"東京都","city":"新宿区","address":"新宿区歌舞伎町1-5-1第1分庁舎3階","lat":35.693396,"lon":139.703409},{"name":"文京区選挙管理委員会","province":"東京都","city":"文京区","address":"文京区春日1-16-21","lat":35.707914,"lon":139.752653},{"name":"台東区選挙管理委員会","province":"東京都","city":"台東区","address":"台東区東上野4-5-6","lat":35.712601,"lon":139.779959},{"name":"墨田区選挙管理委員会","province":"東京都","city":"墨田区","address":"墨田区吾妻橋1-23-20","lat":35.710505,"lon":139.801508},{"name":"江東区選挙管理委員会","province":"東京都","city":"江東区","address":"江東区東陽4-11-28","lat":35.672802,"lon":139.81734},{"name":"品川区選挙管理委員会","province":"東京都","city":"品川区","address":"品川区広町2-1-36品川区防災センター・第2庁舎","lat":35.609177,"lon":139.730167},{"name":"目黒区選挙管理委員会","province":"東京都","city":"目黒区","address":"目黒区上目黒2-19-15","lat":35.64139,"lon":139.698105},{"name":"大田区選挙管理委員会","province":"東京都","city":"大田区","address":"大田区蒲田5-13-14","lat":35.561451,"lon":139.7161},{"name":"世田谷区選挙管理委員会","province":"東京都","city":"世田谷区","address":"世田谷区世田谷4-21-27","lat":35.645949,"lon":139.653078},{"name":"渋谷区選挙管理委員会","province":"東京都","city":"渋谷区","address":"渋谷区宇田川町1-1渋谷区役所12階","lat":35.663684,"lon":139.697741},{"name":"中野区選挙管理委員会","province":"東京都","city":"中野区","address":"中野区中野4-8-1","lat":35.707369,"lon":139.663762},{"name":"杉並区選挙管理委員会","province":"東京都","city":"杉並区","address":"杉並区阿佐谷南1-15-1","lat":35.699661,"lon":139.636188},{"name":"豊島区選挙管理委員会","province":"東京都","city":"豊島区","address":"豊島区南池袋2-45-1本庁舎8階","lat":35.726104,"lon":139.716654},{"name":"北区選挙管理委員会","province":"東京都","city":"北区","address":"北区滝野川2-52-10","lat":35.751473,"lon":139.733254},{"name":"荒川区選挙管理委員会","province":"東京都","city":"荒川区","address":"荒川区荒川2-2-3","lat":35.736056,"lon":139.783364},{"name":"板橋区選挙管理委員会","province":"東京都","city":"板橋区","address":"板橋区板橋2-66-1","lat":35.75088,"lon":139.709189},{"name":"練馬区選挙管理委員会","province":"東京都","city":"練馬区","address":"練馬区豊玉北6-12-1","lat":35.735671,"lon":139.651705},{"name":"足立区選挙管理委員会","province":"東京都","city":"足立区","address":"足立区中央本町1-17-1","lat":35.774783,"lon":139.804576},{"name":"葛飾区選挙管理委員会","province":"東京都","city":"葛飾区","address":"葛飾区立石5-13-1","lat":35.743181,"lon":139.847312},{"name":"江戸川区選挙管理委員会","province":"東京都","city":"江戸川区","address":"江戸川区中央1-4-1","lat":35.707031,"lon":139.868218},{"name":"八王子市選挙管理委員会","province":"東京都","city":"八王子市","address":"八王子市元本郷町3-24-1","lat":35.666428,"lon":139.315993},{"name":"立川市選挙管理委員会","province":"東京都","city":"立川市","address":"立川市泉町1156-9","lat":35.714042,"lon":139.407759},{"name":"武蔵野市選挙管理委員会","province":"東京都","city":"武蔵野市","address":"武蔵野市緑町2-2-28","lat":35.717717,"lon":139.566045},{"name":"三鷹市選挙管理委員会","province":"東京都","city":"三鷹市","address":"三鷹市野崎1-1-1第3庁舎","lat":35.683516,"lon":139.559481},{"name":"青梅市選挙管理委員会","province":"東京都","city":"青梅市","address":"青梅市東青梅1-11-1","lat":35.787856,"lon":139.275831},{"name":"府中市選挙管理委員会","province":"東京都","city":"府中市","address":"府中市宮西町2-24","lat":35.668977,"lon":139.477612},{"name":"昭島市選挙管理委員会","province":"東京都","city":"昭島市","address":"昭島市田中町1-17-1","lat":35.705811,"lon":139.353574},{"name":"調布市選挙管理委員会","province":"東京都","city":"調布市","address":"調布市小島町2-35-1","lat":35.65063,"lon":139.540805},{"name":"町田市選挙管理委員会","province":"東京都","city":"町田市","address":"町田市森野2-2-22","lat":35.546643,"lon":139.438645},{"name":"小金井市選挙管理委員会","province":"東京都","city":"小金井市","address":"小金井市前原町3-41-15第2庁舎","lat":35.698566,"lon":139.504908},{"name":"小平市選挙管理委員会","province":"東京都","city":"小平市","address":"小平市学園東町1-19-12健康センター","lat":35.726968,"lon":139.477577},{"name":"日野市選挙管理委員会","province":"東京都","city":"日野市","address":"日野市神明1-12-1","lat":35.670496,"lon":139.395606},{"name":"東村山市選挙管理委員会","province":"東京都","city":"東村山市","address":"東村山市本町1-2-3","lat":35.754574,"lon":139.468413},{"name":"国分寺市選挙管理委員会","province":"東京都","city":"国分寺市","address":"国分寺市戸倉1-6-1","lat":35.71036,"lon":139.463207},{"name":"国立市選挙管理委員会","province":"東京都","city":"国立市","address":"国立市富士見台2-47-1","lat":35.683909,"lon":139.44141},{"name":"福生市選挙管理委員会","province":"東京都","city":"福生市","address":"福生市本町5","lat":35.738654,"lon":139.326776},{"name":"狛江市選挙管理委員会","province":"東京都","city":"狛江市","address":"狛江市和泉本町1-1-5","lat":35.634901,"lon":139.578772},{"name":"東大和市選挙管理委員会","province":"東京都","city":"東大和市","address":"東大和市中央3-930","lat":35.745371,"lon":139.42635},{"name":"清瀬市選挙管理委員会","province":"東京都","city":"清瀬市","address":"清瀬市中里5-842","lat":35.786055,"lon":139.526067},{"name":"東久留米市選挙管理委員会","province":"東京都","city":"東久留米市","address":"東久留米市本町3-3-1","lat":35.757965,"lon":139.529734},{"name":"武蔵村山市選挙管理委員会","province":"東京都","city":"武蔵村山市","address":"武蔵村山市本町1-1-1","lat":35.754859,"lon":139.38743},{"name":"多摩市選挙管理委員会","province":"東京都","city":"多摩市","address":"多摩市関戸6-12-1","lat":35.637126,"lon":139.446269},{"name":"稲城市選挙管理委員会","province":"東京都","city":"稲城市","address":"稲城市東長沼2111","lat":35.638082,"lon":139.503756},{"name":"羽村市選挙管理委員会","province":"東京都","city":"羽村市","address":"羽村市緑ヶ丘5-1-30羽村市役所分庁舎","lat":35.767163,"lon":139.311017},{"name":"あきる野市選挙管理委員会","province":"東京都","city":"あきる野市","address":"あきる野市二宮350番地あきる野市役所内","lat":35.728894,"lon":139.294115},{"name":"西東京市選挙管理委員会","province":"東京都","city":"西東京市","address":"西東京市南町5-6-13西東京市役所田無庁舎","lat":35.725681,"lon":139.53837},{"name":"瑞穂町選挙管理委員会","province":"東京都","city":"西多摩郡瑞穂町","address":"西多摩郡瑞穂町箱根ヶ崎2335","lat":35.772033,"lon":139.353973},{"name":"日の出町選挙管理委員会","province":"東京都","city":"西多摩郡日の出町","address":"西多摩郡日の出町平井2780","lat":35.742095,"lon":139.257423},{"name":"檜原村選挙管理委員会","province":"東京都","city":"西多摩郡檜原村","address":"西多摩郡檜原村467-1","lat":35.726822,"lon":139.14886},{"name":"奥多摩町選挙管理委員会","province":"東京都","city":"西多摩郡奥多摩町","address":"西多摩郡奥多摩町氷川215-6","lat":35.809523,"lon":139.096235},{"name":"大島町役場","province":"東京都","city":"大島町","address":"東京都大島町元町1-1-14","lat":34.7502,"lon":139.35515},{"name":"利島村役場","province":"東京都","city":"","address":"東京都利島村248","lat":34.529142,"lon":139.2819},{"name":"新島村役場","province":"東京都","city":"新島村","address":"東京都新島村本村1-1-1","lat":34.377126,"lon":139.257123},{"name":"神津島村役場","province":"東京都","city":"神津島村","address":"東京都神津島村904","lat":34.205524,"lon":139.134499},{"name":"三宅村役場","province":"東京都","city":"","address":"東京都三宅島三宅村阿古497番地","lat":34.075968,"lon":139.479169},{"name":"御蔵島村役場","province":"東京都","city":"御蔵島村","address":"東京都御蔵島村字入かねが沢","lat":33.897402,"lon":139.595862},{"name":"八丈町役場","province":"東京都","city":"八丈町","address":"東京都八丈町大賀郷2551-2","lat":33.112735,"lon":139.789068},{"name":"青ヶ島村役場","province":"東京都","city":"青ヶ島村","address":"東京都青ケ島村無番地","lat":32.466714,"lon":139.763529},{"name":"小笠原村役場","province":"東京都","city":"小笠原村","address":"東京都小笠原村父島字西町","lat":27.094271,"lon":142.191871}]}