{"keyword":"グループ","data":[{"name":"アポロ","province":"東京都","city":"台東区","address":"台東区浅草5-67-9サンパレス1階","lat":35.72166,"lon":139.79811},{"name":"グループホームきぬた","province":"東京都","city":"世田谷区","address":"世田谷区砧4-25-2","lat":35.64178,"lon":139.6154},{"name":"やじろべえ","province":"東京都","city":"北区","address":"北区赤羽北1-7-23","lat":35.78582,"lon":139.71375},{"name":"おぐのあかり","province":"東京都","city":"荒川区","address":"荒川区西尾久5-15-15","lat":35.74823,"lon":139.75977},{"name":"グループホームよこかわ","province":"東京都","city":"八王子市","address":"八王子市横川町940","lat":35.66496,"lon":139.29745},{"name":"グループホームよこかわ","province":"東京都","city":"八王子市","address":"八王子市横川町940","lat":35.66496,"lon":139.29746},{"name":"ひまわりホーム","province":"東京都","city":"新宿区","address":"新宿区西新宿4-21-19","lat":35.687951,"lon":139.683757},{"name":"あじさいホーム","province":"東京都","city":"新宿区","address":"新宿区西早稲田1-11-10","lat":35.711119,"lon":139.722613},{"name":"アポロ","province":"東京都","city":"台東区","address":"台東区浅草5-67-9サンパレス1階","lat":35.721592,"lon":139.798146},{"name":"グループホームきぬた","province":"東京都","city":"世田谷区","address":"世田谷区砧4-25-2","lat":35.64171,"lon":139.615475},{"name":"やじろべえ","province":"東京都","city":"北区","address":"北区赤羽北1-7-23","lat":35.785835,"lon":139.714308},{"name":"おぐのあかり","province":"東京都","city":"荒川区","address":"荒川区西尾久5-15-15","lat":35.748185,"lon":139.759173},{"name":"グループホームよこかわ","province":"東京都","city":"八王子市","address":"八王子市横川町940","lat":35.665139,"lon":139.297635},{"name":"グループホームＲＥＮＧＡ","province":"東京都","city":"武蔵野市","address":"武蔵野市八幡町3-3-26","lat":35.717033,"lon":139.552991},{"name":"しらゆり荘","province":"東京都","city":"練馬区","address":"練馬区練馬3-20-7","lat":35.73903747,"lon":139.6500054},{"name":"ふるさとホーム（NPO法人　自立支援センター　ふるさとの会）","province":"東京都","city":"墨田区","address":"東京都墨田区東向島1丁目25-6","lat":35.71953003,"lon":139.81340377},{"name":"ふるさとホーム（NPO法人　自立支援センター　ふるさとの会）","province":"東京都","city":"墨田区","address":"東京都墨田区東向島1丁目20-13","lat":35.72058833,"lon":139.81349274}]}