{"category":"park","data":[{"name":"小金井公園","province":"東京都","city":"小金井市","address":"東京都小金井市桜町三丁目、関野町一・二丁目、小平市花小金井南町三丁目、西東京市向台六丁目、武蔵野市桜堤三丁目","lat":35.71706,"lon":139.517882},{"name":"武蔵野公園","province":"東京都","city":"小金井市","address":"東京都小金井市前原町二丁目、東町五丁目、中町一丁目、府中市多磨町二・三丁目","lat":35.687906,"lon":139.520496},{"name":"上水公園","province":"東京都","city":"小金井市","address":"東京都小金井市桜町2丁目2","lat":35.70893,"lon":139.50516},{"name":"上の原公園","province":"東京都","city":"小金井市","address":"東京都小金井市本町5丁目6","lat":35.70252,"lon":139.50149},{"name":"桜町公園","province":"東京都","city":"小金井市","address":"東京都小金井市桜町1丁目4","lat":35.70941,"lon":139.50938},{"name":"三楽公園","province":"東京都","city":"小金井市","address":"東京都小金井市貫井南町3丁目6","lat":35.69924,"lon":139.49557},{"name":"浴恩館公園","province":"東京都","city":"小金井市","address":"東京都小金井市緑町3丁目2-37","lat":35.71024,"lon":139.51714},{"name":"栗山公園","province":"東京都","city":"小金井市","address":"東京都小金井市中町2丁目21","lat":35.6985,"lon":139.52147},{"name":"前原町三丁目公園","province":"東京都","city":"小金井市","address":"東京都小金井市前原町3丁目34","lat":35.6967,"lon":139.50294},{"name":"ぐみの木公園","province":"東京都","city":"小金井市","address":"東京都小金井市前原町4丁目4","lat":35.6868,"lon":139.50392},{"name":"小長久保公園","province":"東京都","city":"小金井市","address":"東京都小金井市本町3丁目13","lat":35.70787,"lon":139.51035},{"name":"梶野公園","province":"東京都","city":"小金井市","address":"東京都小金井市梶野町5丁目10","lat":35.703,"lon":139.5264},{"name":"貫井けやき公園","province":"東京都","city":"小金井市","address":"東京都小金井市貫井南町4丁目14","lat":35.69561,"lon":139.49444},{"name":"シャラノキ公園","province":"東京都","city":"小金井市","address":"東京都小金井市東町1丁目22","lat":35.69104,"lon":139.53034},{"name":"やまばと公園","province":"東京都","city":"小金井市","address":"東京都小金井市東町2丁目5","lat":35.69518,"lon":139.53201},{"name":"東町二丁目第２児童遊園","province":"東京都","city":"小金井市","address":"東京都小金井市東町2丁目25","lat":35.70006,"lon":139.53308},{"name":"東町三丁目児童遊園","province":"東京都","city":"小金井市","address":"東京都小金井市東町3丁目9","lat":35.69844,"lon":139.53005},{"name":"東町三丁目第２児童遊園","province":"東京都","city":"小金井市","address":"東京都小金井市東町3丁目17","lat":35.70103,"lon":139.53176},{"name":"パンダ公園","province":"東京都","city":"小金井市","address":"東京都小金井市東町3丁目15","lat":35.70042,"lon":139.53322},{"name":"東町シナノキ公園","province":"東京都","city":"小金井市","address":"東京都小金井市東町4丁目23","lat":35.69741,"lon":139.52699},{"name":"東町トチノキ公園","province":"東京都","city":"小金井市","address":"東京都小金井市東町4丁目31","lat":35.69983,"lon":139.52456},{"name":"東町四丁目児童遊園","province":"東京都","city":"小金井市","address":"東京都小金井市東町4丁目45","lat":35.70011,"lon":139.52646},{"name":"マルメロ公園","province":"東京都","city":"小金井市","address":"東京都小金井市東町5丁目19","lat":35.69259,"lon":139.52091},{"name":"アオギリ公園","province":"東京都","city":"小金井市","address":"東京都小金井市東町5丁目26","lat":35.69252,"lon":139.52237},{"name":"梶野町くぬぎ公園","province":"東京都","city":"小金井市","address":"東京都小金井市梶野町1丁目7","lat":35.70368,"lon":139.52947},{"name":"もくれん公園","province":"東京都","city":"小金井市","address":"東京都小金井市梶野町2丁目1","lat":35.70575,"lon":139.53123},{"name":"梶野町ハナノキ公園","province":"東京都","city":"小金井市","address":"東京都小金井市梶野町3丁目8","lat":35.71046,"lon":139.52465},{"name":"禄水郷公園","province":"東京都","city":"小金井市","address":"東京都小金井市梶野町4丁目2","lat":35.70578,"lon":139.52444},{"name":"梶野町四丁目児童遊園","province":"東京都","city":"小金井市","address":"東京都小金井市梶野町4丁目5","lat":35.70584,"lon":139.52207},{"name":"さるすべり公園","province":"東京都","city":"小金井市","address":"東京都小金井市梶野町4丁目16","lat":35.70689,"lon":139.52234},{"name":"梶野町クルミ公園","province":"東京都","city":"小金井市","address":"東京都小金井市梶野町4丁目19","lat":35.70855,"lon":139.52483},{"name":"関野町エノキ公園","province":"東京都","city":"小金井市","address":"東京都小金井市関野町1丁目6","lat":35.71335,"lon":139.51984},{"name":"緑町二丁目児童遊園","province":"東京都","city":"小金井市","address":"東京都小金井市緑町2丁目1","lat":35.70467,"lon":139.52003},{"name":"四本けやき公園","province":"東京都","city":"小金井市","address":"東京都小金井市緑町2丁目2","lat":35.70542,"lon":139.52133},{"name":"梅の木公園","province":"東京都","city":"小金井市","address":"東京都小金井市緑町2丁目5","lat":35.7067,"lon":139.51859},{"name":"ナナカマド公園","province":"東京都","city":"小金井市","address":"東京都小金井市緑町2丁目11","lat":35.70787,"lon":139.5202},{"name":"緑町コニファー公園","province":"東京都","city":"小金井市","address":"東京都小金井市緑町2丁目11","lat":35.7081,"lon":139.51894},{"name":"緑町三丁目児童遊園","province":"東京都","city":"小金井市","address":"東京都小金井市緑町3丁目11-37","lat":35.71066,"lon":139.51648},{"name":"みどり公園","province":"東京都","city":"小金井市","address":"東京都小金井市緑町3丁目12","lat":35.71148,"lon":139.51562},{"name":"緑町キンモクセイ公園","province":"東京都","city":"小金井市","address":"東京都小金井市緑町3丁目12","lat":35.71225,"lon":139.51643},{"name":"緑町さくら公園","province":"東京都","city":"小金井市","address":"東京都小金井市緑町4丁目15","lat":35.70828,"lon":139.5167},{"name":"やまざくら公園","province":"東京都","city":"小金井市","address":"東京都小金井市緑町5丁目2","lat":35.70192,"lon":139.51576},{"name":"やまもも公園","province":"東京都","city":"小金井市","address":"東京都小金井市緑町5丁目3","lat":35.70172,"lon":139.5144},{"name":"ひさかき公園","province":"東京都","city":"小金井市","address":"東京都小金井市緑町5丁目14","lat":35.70232,"lon":139.51622},{"name":"はぐくみ公園","province":"東京都","city":"小金井市","address":"東京都小金井市緑町5丁目18","lat":35.70422,"lon":139.51462},{"name":"中町シダレザクラ公園","province":"東京都","city":"小金井市","address":"東京都小金井市中町1丁目8","lat":35.69483,"lon":139.50974},{"name":"ヤマボウシ公園","province":"東京都","city":"小金井市","address":"東京都小金井市中町1丁目14","lat":35.69447,"lon":139.51761},{"name":"ムジナ坂上公園","province":"東京都","city":"小金井市","address":"東京都小金井市中町1丁目14","lat":35.69427,"lon":139.51631},{"name":"中町二丁目児童遊園","province":"東京都","city":"小金井市","address":"東京都小金井市中町2丁目19","lat":35.69753,"lon":139.52052},{"name":"中町二丁目第２児童遊園","province":"東京都","city":"小金井市","address":"東京都小金井市中町2丁目14","lat":35.69732,"lon":139.51534},{"name":"中町二丁目第３児童遊園","province":"東京都","city":"小金井市","address":"東京都小金井市中町2丁目1","lat":35.69453,"lon":139.52134},{"name":"前原やなぎ公園","province":"東京都","city":"小金井市","address":"東京都小金井市前原町1丁目12","lat":35.69034,"lon":139.50836},{"name":"野川緑地公園","province":"東京都","city":"小金井市","address":"東京都小金井市前原町3丁目3","lat":35.69399,"lon":139.50307},{"name":"モッコク公園","province":"東京都","city":"小金井市","address":"東京都小金井市前原町4丁目1","lat":35.68509,"lon":139.50193},{"name":"前原町四丁目公園","province":"東京都","city":"小金井市","address":"東京都小金井市前原町4丁目1","lat":35.68517,"lon":139.50188},{"name":"前原町四丁目児童遊園","province":"東京都","city":"小金井市","address":"東京都小金井市前原町4丁目2","lat":35.68398,"lon":139.50194},{"name":"イチョウ公園","province":"東京都","city":"小金井市","address":"東京都小金井市前原町4丁目5","lat":35.68753,"lon":139.50179},{"name":"もみの木公園","province":"東京都","city":"小金井市","address":"東京都小金井市前原町4丁目6","lat":35.68763,"lon":139.50342},{"name":"前原町クスノキ公園","province":"東京都","city":"小金井市","address":"東京都小金井市前原町4丁目11","lat":35.68887,"lon":139.5044},{"name":"メグスリノキ公園","province":"東京都","city":"小金井市","address":"東京都小金井市前原町4丁目12","lat":35.68878,"lon":139.50653},{"name":"丸山台公園","province":"東京都","city":"小金井市","address":"東京都小金井市前原町4丁目18","lat":35.69064,"lon":139.50304},{"name":"前原町ハナミズキ公園","province":"東京都","city":"小金井市","address":"東京都小金井市前原町4丁目20","lat":35.69104,"lon":139.5064},{"name":"ふじのき公園","province":"東京都","city":"小金井市","address":"東京都小金井市前原町5丁目2","lat":35.68697,"lon":139.49668},{"name":"ハナミズキ公園","province":"東京都","city":"小金井市","address":"東京都小金井市前原町5丁目11","lat":35.68968,"lon":139.50015},{"name":"本町ハナミズキ公園","province":"東京都","city":"小金井市","address":"東京都小金井市本町1丁目14","lat":35.69963,"lon":139.51138},{"name":"本町公園","province":"東京都","city":"小金井市","address":"東京都小金井市本町2丁目15","lat":35.70545,"lon":139.51029},{"name":"タブノキ公園","province":"東京都","city":"小金井市","address":"東京都小金井市本町4丁目1","lat":35.70609,"lon":139.50717},{"name":"本町さくら公園","province":"東京都","city":"小金井市","address":"東京都小金井市本町4丁目16","lat":35.70781,"lon":139.50682},{"name":"むさこぷらっと公園","province":"東京都","city":"小金井市","address":"東京都小金井市本町5丁目1","lat":35.70122,"lon":139.50433},{"name":"本町カツラ公園","province":"東京都","city":"小金井市","address":"東京都小金井市本町6丁目9","lat":35.70018,"lon":139.50349},{"name":"こもれび公園","province":"東京都","city":"小金井市","address":"東京都小金井市桜町1丁目5","lat":35.70979,"lon":139.50836},{"name":"さくら公園","province":"東京都","city":"小金井市","address":"東京都小金井市桜町1丁目10","lat":35.7123,"lon":139.5131},{"name":"桜町なかよし公園","province":"東京都","city":"小金井市","address":"東京都小金井市桜町2丁目1","lat":35.71001,"lon":139.50616},{"name":"きりの木公園","province":"東京都","city":"小金井市","address":"東京都小金井市桜町2丁目12","lat":35.71181,"lon":139.50487},{"name":"ゆずりは公園","province":"東京都","city":"小金井市","address":"東京都小金井市桜町2丁目8","lat":35.71081,"lon":139.50599},{"name":"桜町こぶし公園","province":"東京都","city":"小金井市","address":"東京都小金井市桜町3丁目5","lat":35.71327,"lon":139.50954},{"name":"かわせみ公園","province":"東京都","city":"小金井市","address":"東京都小金井市貫井北町1丁目10","lat":35.70204,"lon":139.49912},{"name":"貫井北町二丁目児童遊園","province":"東京都","city":"小金井市","address":"東京都小金井市貫井北町2丁目8","lat":35.70587,"lon":139.49895},{"name":"コウヤマキ公園","province":"東京都","city":"小金井市","address":"東京都小金井市貫井北町3丁目8","lat":35.70833,"lon":139.49365},{"name":"木の実公園","province":"東京都","city":"小金井市","address":"東京都小金井市貫井北町3丁目34","lat":35.71175,"lon":139.49759},{"name":"貫井橋公園","province":"東京都","city":"小金井市","address":"東京都小金井市貫井北町3丁目35","lat":35.71171,"lon":139.50017},{"name":"貫井北町五丁目児童遊園","province":"東京都","city":"小金井市","address":"東京都小金井市貫井北町5丁目21","lat":35.703,"lon":139.49091},{"name":"ネムノキ公園","province":"東京都","city":"小金井市","address":"東京都小金井市貫井南町1丁目16","lat":35.68991,"lon":139.49395},{"name":"貫井南遊歩道公園","province":"東京都","city":"小金井市","address":"東京都小金井市貫井南町1丁目22","lat":35.69136,"lon":139.49629},{"name":"かきの木公園","province":"東京都","city":"小金井市","address":"東京都小金井市貫井南町2丁目3","lat":35.69288,"lon":139.49652},{"name":"貫井南町緑の森公園","province":"東京都","city":"小金井市","address":"東京都小金井市貫井南町3丁目17","lat":35.70009,"lon":139.49559},{"name":"貫井南花木公園","province":"東京都","city":"小金井市","address":"東京都小金井市貫井南町3丁目22","lat":35.69974,"lon":139.4988},{"name":"ムクロジ公園","province":"東京都","city":"小金井市","address":"東京都小金井市貫井南町4丁目10","lat":35.69574,"lon":139.49188},{"name":"アオダモ公園","province":"東京都","city":"小金井市","address":"東京都小金井市貫井南町4丁目11","lat":35.69675,"lon":139.49099},{"name":"貫井南町四丁目第４児童遊園","province":"東京都","city":"小金井市","address":"東京都小金井市貫井南町4丁目12","lat":35.69528,"lon":139.49244},{"name":"貫井南町大けやき公園","province":"東京都","city":"小金井市","address":"東京都小金井市貫井南町4丁目20","lat":35.6969,"lon":139.4936},{"name":"貫井かしのき公園","province":"東京都","city":"小金井市","address":"東京都小金井市貫井南町4丁目21","lat":35.69686,"lon":139.49296},{"name":"貫井もちのき公園","province":"東京都","city":"小金井市","address":"東京都小金井市貫井南町4丁目29","lat":35.69778,"lon":139.49606},{"name":"貫井南つつじ公園","province":"東京都","city":"小金井市","address":"東京都小金井市貫井南町5丁目6","lat":35.69016,"lon":139.49058},{"name":"サンシュユ公園","province":"東京都","city":"小金井市","address":"東京都小金井市貫井南町5丁目6","lat":35.69144,"lon":139.49068},{"name":"なつみかん公園","province":"東京都","city":"小金井市","address":"東京都小金井市貫井南町5丁目15","lat":35.69367,"lon":139.49013},{"name":"リーフィア貫井南公園","province":"東京都","city":"小金井市","address":"東京都小金井市貫井南町5丁目17","lat":35.69243,"lon":139.49099},{"name":"もみじの里公園","province":"東京都","city":"小金井市","address":"東京都小金井市東町2丁目15","lat":35.69669,"lon":139.52915},{"name":"ナツグミ広場","province":"東京都","city":"小金井市","address":"東京都小金井市東町1丁目16","lat":35.69189,"lon":139.52704},{"name":"東町いちょう広場","province":"東京都","city":"小金井市","address":"東京都小金井市東町2丁目19","lat":35.69637,"lon":139.53125},{"name":"東町三丁目第２子供広場","province":"東京都","city":"小金井市","address":"東京都小金井市東町3丁目3","lat":35.69819,"lon":139.52816},{"name":"東町ポケット広場","province":"東京都","city":"小金井市","address":"東京都小金井市東町4丁目4","lat":35.69618,"lon":139.52744},{"name":"梶野町まつのき広場","province":"東京都","city":"小金井市","address":"東京都小金井市梶野町1丁目8","lat":35.70405,"lon":139.53066},{"name":"雑木林広場","province":"東京都","city":"小金井市","address":"東京都小金井市梶野町3丁目17","lat":35.71222,"lon":139.52237},{"name":"梶野町四丁目子供広場","province":"東京都","city":"小金井市","address":"東京都小金井市梶野町4丁目16","lat":35.70658,"lon":139.52197},{"name":"梶野広場","province":"東京都","city":"小金井市","address":"東京都小金井市梶野町5丁目10","lat":35.70426,"lon":139.52614},{"name":"リンゴ広場","province":"東京都","city":"小金井市","address":"東京都小金井市緑町1丁目6","lat":35.70372,"lon":139.52102},{"name":"クワノキ広場","province":"東京都","city":"小金井市","address":"東京都小金井市緑町5丁目1","lat":35.70191,"lon":139.51722},{"name":"シデザクラ広場","province":"東京都","city":"小金井市","address":"東京都小金井市緑町5丁目14","lat":35.70269,"lon":139.51635},{"name":"もみじ広場","province":"東京都","city":"小金井市","address":"東京都小金井市緑町5丁目19","lat":35.70474,"lon":139.51451},{"name":"緑町五丁目第２子供広場","province":"東京都","city":"小金井市","address":"東京都小金井市緑町5丁目18","lat":35.70501,"lon":139.51472},{"name":"中町一丁目第２子供広場","province":"東京都","city":"小金井市","address":"東京都小金井市中町1丁目2","lat":35.69407,"lon":139.51279},{"name":"中町三丁目暫定広場","province":"東京都","city":"小金井市","address":"東京都小金井市中町3丁目19","lat":35.70072,"lon":139.51338},{"name":"中町三丁目子供広場","province":"東京都","city":"小金井市","address":"東京都小金井市中町3丁目22","lat":35.70044,"lon":139.51465},{"name":"中町三丁目第２子供広場","province":"東京都","city":"小金井市","address":"東京都小金井市中町3丁目22","lat":35.70089,"lon":139.5149},{"name":"ハケの上広場","province":"東京都","city":"小金井市","address":"東京都小金井市中町4丁目16","lat":35.6974,"lon":139.50823},{"name":"前原町一丁目第２子供広場","province":"東京都","city":"小金井市","address":"東京都小金井市前原町1丁目9","lat":35.69005,"lon":139.50919},{"name":"前原町一丁目第４子供広場","province":"東京都","city":"小金井市","address":"東京都小金井市前原町1丁目10","lat":35.69086,"lon":139.51016},{"name":"七軒家広場","province":"東京都","city":"小金井市","address":"東京都小金井市前原町1丁目10","lat":35.69089,"lon":139.50962},{"name":"前原町二丁目第２子供広場","province":"東京都","city":"小金井市","address":"東京都小金井市前原町2丁目17","lat":35.69334,"lon":139.51307},{"name":"前原町二丁目第３子供広場","province":"東京都","city":"小金井市","address":"東京都小金井市前原町2丁目17","lat":35.69343,"lon":139.51263},{"name":"ナツメ広場","province":"東京都","city":"小金井市","address":"東京都小金井市前原町3丁目25","lat":35.69649,"lon":139.50029},{"name":"前原坂ポケット広場","province":"東京都","city":"小金井市","address":"東京都小金井市前原町3丁目40","lat":35.69797,"lon":139.5061},{"name":"はなもも広場","province":"東京都","city":"小金井市","address":"東京都小金井市前原町5丁目3","lat":35.68824,"lon":139.49797},{"name":"前原町五丁目子供広場","province":"東京都","city":"小金井市","address":"東京都小金井市前原町5丁目8","lat":35.68858,"lon":139.5006},{"name":"前原町さくら広場","province":"東京都","city":"小金井市","address":"東京都小金井市前原町5丁目8","lat":35.688,"lon":139.50162},{"name":"ピラカンサ広場","province":"東京都","city":"小金井市","address":"東京都小金井市本町5丁目34","lat":35.70537,"lon":139.50163},{"name":"ゆりのき広場","province":"東京都","city":"小金井市","address":"東京都小金井市本町6丁目9","lat":35.70071,"lon":139.50194},{"name":"大尽の坂広場","province":"東京都","city":"小金井市","address":"東京都小金井市桜町1丁目3","lat":35.70975,"lon":139.5109},{"name":"桜町一丁目第４子供広場","province":"東京都","city":"小金井市","address":"東京都小金井市桜町1丁目8","lat":35.71097,"lon":139.51097},{"name":"楓の木広場","province":"東京都","city":"小金井市","address":"東京都小金井市貫井北町1丁目4","lat":35.7015,"lon":139.49276},{"name":"クスノキ広場","province":"東京都","city":"小金井市","address":"東京都小金井市貫井北町2丁目6","lat":35.706,"lon":139.49772},{"name":"ザイフリボク広場","province":"東京都","city":"小金井市","address":"東京都小金井市貫井北町3丁目5","lat":35.70834,"lon":139.49699},{"name":"貫井南町一丁目第２子供広場","province":"東京都","city":"小金井市","address":"東京都小金井市貫井南町1丁目16","lat":35.69051,"lon":139.49288},{"name":"貫井南町一丁目第３子供広場","province":"東京都","city":"小金井市","address":"東京都小金井市貫井南町1丁目14","lat":35.68969,"lon":139.49421},{"name":"貫井南町カリン広場","province":"東京都","city":"小金井市","address":"東京都小金井市貫井南町1丁目17","lat":35.69111,"lon":139.49487},{"name":"下弁天子供広場","province":"東京都","city":"小金井市","address":"東京都小金井市貫井南町2丁目1","lat":35.69292,"lon":139.49958},{"name":"ロウバイ広場","province":"東京都","city":"小金井市","address":"東京都小金井市貫井南町2丁目1","lat":35.69278,"lon":139.49853},{"name":"貫井けやき広場","province":"東京都","city":"小金井市","address":"東京都小金井市貫井南町4丁目14","lat":35.6958,"lon":139.49449},{"name":"貫井南町四丁目第２子供広場","province":"東京都","city":"小金井市","address":"東京都小金井市貫井南町4丁目30","lat":35.69722,"lon":139.49732},{"name":"貫井南町四丁目第３子供広場","province":"東京都","city":"小金井市","address":"東京都小金井市貫井南町4丁目10","lat":35.69503,"lon":139.49137},{"name":"貫井南町五丁目子供広場","province":"東京都","city":"小金井市","address":"東京都小金井市貫井南町5丁目8","lat":35.69227,"lon":139.48997},{"name":"貫井南町五丁目第３子供広場","province":"東京都","city":"小金井市","address":"東京都小金井市貫井南町5丁目12","lat":35.69278,"lon":139.48958},{"name":"ヤマボウシ広場","province":"東京都","city":"小金井市","address":"東京都小金井市貫井南町5丁目21","lat":35.69275,"lon":139.49211},{"name":"東町二丁目緑地","province":"東京都","city":"小金井市","address":"東京都小金井市東町2丁目29","lat":35.69877,"lon":139.53108},{"name":"東町しだれざくら緑地","province":"東京都","city":"小金井市","address":"東京都小金井市東町2丁目31","lat":35.69821,"lon":139.53019},{"name":"ぶどう緑地","province":"東京都","city":"小金井市","address":"東京都小金井市東町3丁目1","lat":35.69759,"lon":139.52837},{"name":"エンジュ緑地","province":"東京都","city":"小金井市","address":"東京都小金井市東町3丁目18","lat":35.70061,"lon":139.52921},{"name":"東町五丁目緑地","province":"東京都","city":"小金井市","address":"東京都小金井市東町5丁目2","lat":35.69036,"lon":139.52092},{"name":"二枚橋上緑地","province":"東京都","city":"小金井市","address":"東京都小金井市東町5丁目29","lat":35.69295,"lon":139.52409},{"name":"堀端緑地","province":"東京都","city":"小金井市","address":"東京都小金井市梶野町3丁目4","lat":35.70935,"lon":139.52536},{"name":"梶野町雑木緑地","province":"東京都","city":"小金井市","address":"東京都小金井市梶野町3丁目12","lat":35.71151,"lon":139.52483},{"name":"サルスベリ緑地","province":"東京都","city":"小金井市","address":"東京都小金井市梶野町3丁目11","lat":35.71149,"lon":139.52664},{"name":"緑町一丁目緑地","province":"東京都","city":"小金井市","address":"東京都小金井市緑町1丁目2","lat":35.70214,"lon":139.52059},{"name":"緑町雑木林緑地","province":"東京都","city":"小金井市","address":"東京都小金井市緑町1丁目2","lat":35.70249,"lon":139.51959},{"name":"うめの木緑地","province":"東京都","city":"小金井市","address":"東京都小金井市緑町1丁目6","lat":35.70288,"lon":139.52177},{"name":"ヤマモモ緑地","province":"東京都","city":"小金井市","address":"東京都小金井市緑町2丁目2","lat":35.70544,"lon":139.52102},{"name":"亀久保緑地","province":"東京都","city":"小金井市","address":"東京都小金井市緑町2丁目5","lat":35.70761,"lon":139.51991},{"name":"木の実緑地","province":"東京都","city":"小金井市","address":"東京都小金井市緑町2丁目14","lat":35.71115,"lon":139.51992},{"name":"砂川用水ポケット緑地","province":"東京都","city":"小金井市","address":"東京都小金井市緑町2丁目17","lat":35.71242,"lon":139.52106},{"name":"仙川緑地","province":"東京都","city":"小金井市","address":"東京都小金井市緑町3丁目3","lat":35.70901,"lon":139.5156},{"name":"孟宗竹緑地","province":"東京都","city":"小金井市","address":"東京都小金井市緑町3丁目4","lat":35.70949,"lon":139.51462},{"name":"イチジク緑地","province":"東京都","city":"小金井市","address":"東京都小金井市緑町4丁目5","lat":35.70623,"lon":139.51406},{"name":"緑町ポケット緑地","province":"東京都","city":"小金井市","address":"東京都小金井市緑町4丁目6","lat":35.70564,"lon":139.51303},{"name":"緑町ポケット緑地２","province":"東京都","city":"小金井市","address":"東京都小金井市緑町4丁目6","lat":35.70601,"lon":139.51315},{"name":"下山谷の森","province":"東京都","city":"小金井市","address":"東京都小金井市緑町4丁目16","lat":35.70702,"lon":139.51712},{"name":"緑町シダレザクラ緑地","province":"東京都","city":"小金井市","address":"東京都小金井市緑町4丁目18","lat":35.70962,"lon":139.51825},{"name":"キンカン緑地","province":"東京都","city":"小金井市","address":"東京都小金井市緑町5丁目2","lat":35.70194,"lon":139.51684},{"name":"四割堰緑地","province":"東京都","city":"小金井市","address":"東京都小金井市中町1丁目7","lat":35.69336,"lon":139.50971},{"name":"中町さくら緑地","province":"東京都","city":"小金井市","address":"東京都小金井市中町1丁目10","lat":35.69654,"lon":139.51177},{"name":"美術の森緑地","province":"東京都","city":"小金井市","address":"東京都小金井市中町1丁目11","lat":35.69539,"lon":139.51299},{"name":"中町マンサク緑地","province":"東京都","city":"小金井市","address":"東京都小金井市中町1丁目13","lat":35.69519,"lon":139.51491},{"name":"こぶし緑地","province":"東京都","city":"小金井市","address":"東京都小金井市中町2丁目1","lat":35.69525,"lon":139.52155},{"name":"かしの木緑地","province":"東京都","city":"小金井市","address":"東京都小金井市中町2丁目15","lat":35.69653,"lon":139.51618},{"name":"中町雑木緑地","province":"東京都","city":"小金井市","address":"東京都小金井市中町2丁目18","lat":35.69673,"lon":139.51849},{"name":"ヤマボウシ緑地","province":"東京都","city":"小金井市","address":"東京都小金井市中町2丁目18","lat":35.6971,"lon":139.51901},{"name":"天神橋緑地","province":"東京都","city":"小金井市","address":"東京都小金井市中町4丁目3","lat":35.69394,"lon":139.50799},{"name":"はけの森緑地","province":"東京都","city":"小金井市","address":"東京都小金井市中町4丁目12","lat":35.69631,"lon":139.50655},{"name":"中町四丁目緑地","province":"東京都","city":"小金井市","address":"東京都小金井市中町4丁目11","lat":35.6965,"lon":139.50798},{"name":"はけの森緑地２","province":"東京都","city":"小金井市","address":"東京都小金井市中町4丁目16","lat":35.69677,"lon":139.50869},{"name":"はけのうえ竹の子緑地","province":"東京都","city":"小金井市","address":"東京都小金井市中町4丁目18","lat":35.69667,"lon":139.50996},{"name":"前原町シラカシ緑地","province":"東京都","city":"小金井市","address":"東京都小金井市前原町1丁目10","lat":35.69065,"lon":139.50998},{"name":"はなみずきの庭","province":"東京都","city":"小金井市","address":"東京都小金井市前原町1丁目11","lat":35.69091,"lon":139.50925},{"name":"野川サクラ緑地","province":"東京都","city":"小金井市","address":"東京都小金井市前原町3丁目3","lat":35.6933,"lon":139.50362},{"name":"ユズ緑地","province":"東京都","city":"小金井市","address":"東京都小金井市前原町3丁目33","lat":35.6969,"lon":139.50218},{"name":"西の台緑地","province":"東京都","city":"小金井市","address":"東京都小金井市前原町3丁目23","lat":35.69614,"lon":139.50191},{"name":"雑木林緑地","province":"東京都","city":"小金井市","address":"東京都小金井市前原町3丁目26","lat":35.69636,"lon":139.49979},{"name":"サクランボ緑地","province":"東京都","city":"小金井市","address":"東京都小金井市前原町4丁目18","lat":35.69092,"lon":139.50411},{"name":"アンズ緑地","province":"東京都","city":"小金井市","address":"東京都小金井市前原町5丁目13","lat":35.69192,"lon":139.50115},{"name":"スモモ緑地","province":"東京都","city":"小金井市","address":"東京都小金井市前原町5丁目14","lat":35.69204,"lon":139.50265},{"name":"ワダスメモリー緑地","province":"東京都","city":"小金井市","address":"東京都小金井市本町1丁目4","lat":35.69882,"lon":139.50915},{"name":"本町二丁目緑地","province":"東京都","city":"小金井市","address":"東京都小金井市本町2丁目6","lat":35.70345,"lon":139.50774},{"name":"本町木の実緑地","province":"東京都","city":"小金井市","address":"東京都小金井市本町2丁目20","lat":35.70489,"lon":139.50852},{"name":"上山谷緑地公園","province":"東京都","city":"小金井市","address":"東京都小金井市本町3丁目4","lat":35.70588,"lon":139.51026},{"name":"ネムノキ緑地","province":"東京都","city":"小金井市","address":"東京都小金井市本町3丁目12","lat":35.70866,"lon":139.50918},{"name":"白樫緑地","province":"東京都","city":"小金井市","address":"東京都小金井市本町4丁目3","lat":35.70651,"lon":139.50434},{"name":"築樋緑地","province":"東京都","city":"小金井市","address":"東京都小金井市本町4丁目4","lat":35.70708,"lon":139.50323},{"name":"エゴノキ緑地","province":"東京都","city":"小金井市","address":"東京都小金井市本町5丁目15","lat":35.70348,"lon":139.50717},{"name":"アラカシ緑地","province":"東京都","city":"小金井市","address":"東京都小金井市本町5丁目17","lat":35.70292,"lon":139.50683},{"name":"桜町二丁目緑地","province":"東京都","city":"小金井市","address":"東京都小金井市桜町2丁目1","lat":35.71028,"lon":139.50781},{"name":"ナツメ緑地","province":"東京都","city":"小金井市","address":"東京都小金井市桜町2丁目12","lat":35.71191,"lon":139.50581},{"name":"貫井北町カリン緑地","province":"東京都","city":"小金井市","address":"東京都小金井市貫井北町2丁目4","lat":35.70387,"lon":139.49759},{"name":"玉川上水ポケット緑地","province":"東京都","city":"小金井市","address":"東京都小金井市貫井北町3丁目39","lat":35.71241,"lon":139.50082},{"name":"貫井北町五丁目緑地","province":"東京都","city":"小金井市","address":"東京都小金井市貫井北町5丁目22","lat":35.70303,"lon":139.49295},{"name":"貫井南町シャラノキ緑地","province":"東京都","city":"小金井市","address":"東京都小金井市貫井南町1丁目10","lat":35.69009,"lon":139.49653},{"name":"モクレン緑地","province":"東京都","city":"小金井市","address":"東京都小金井市貫井南町2丁目3","lat":35.6935,"lon":139.49667},{"name":"三楽緑地","province":"東京都","city":"小金井市","address":"東京都小金井市貫井南町3丁目7","lat":35.69811,"lon":139.49574},{"name":"貫井南町三丁目緑地","province":"東京都","city":"小金井市","address":"東京都小金井市貫井南町3丁目11","lat":35.70011,"lon":139.49281},{"name":"マユミ緑地","province":"東京都","city":"小金井市","address":"東京都小金井市貫井南町4丁目12","lat":35.69544,"lon":139.4929},{"name":"貫井南町サクラ緑地","province":"東京都","city":"小金井市","address":"東京都小金井市貫井南町5丁目8","lat":35.69163,"lon":139.4906},{"name":"サンシュユ緑地","province":"東京都","city":"小金井市","address":"東京都小金井市貫井南町5丁目21","lat":35.69276,"lon":139.49194},{"name":"ハナダイコン緑地","province":"東京都","city":"小金井市","address":"東京都小金井市貫井南町2丁目9","lat":35.69493,"lon":139.49727}]}