{"keyword":"スモッグ","data":[{"name":"小金井公園","province":"東京都","city":"小金井市","address":"東京都小金井市桜町三丁目、関野町一・二丁目、小平市花小金井南町三丁目、西東京市向台六丁目、武蔵野市桜堤三丁目","lat":35.71706,"lon":139.517882},{"name":"武蔵野公園","province":"東京都","city":"小金井市","address":"東京都小金井市前原町二丁目、東町五丁目、中町一丁目、府中市多磨町二・三丁目","lat":35.687906,"lon":139.520496},{"name":"梶野浄水所","province":"東京都","city":"小金井市","address":"東京都小金井市梶野町5丁目10-33","lat":35.70463703,"lon":139.52653041},{"name":"都立小金井公園","province":"東京都","city":"小金井市","address":"東京都小金井市関野町1丁目","lat":35.71343867,"lon":139.51977227},{"name":"(株)伊藤国商店","province":"東京都","city":"小金井市","address":"小金井市中町1-14-41","lat":35.693977,"lon":139.517075},{"name":"小金井公園","province":"東京都","city":"小金井市","address":"東京都小金井市桜町三丁目、関野町一・二丁目、小平市花小金井南町三丁目、西東京市向台六丁目、武蔵野市桜堤三丁目","lat":35.71706,"lon":139.517882},{"name":"武蔵野公園","province":"東京都","city":"小金井市","address":"東京都小金井市前原町二丁目、東町五丁目、中町一丁目、府中市多磨町二・三丁目","lat":35.687906,"lon":139.520496},{"name":"(株)伊藤国商店","province":"東京都","city":"小金井市","address":"小金井市中町1-14-41","lat":35.693977,"lon":139.517075},{"name":"小金井公園","province":"東京都","city":"小金井市","address":"東京都小金井市桜町三丁目、関野町一・二丁目、小平市花小金井南町三丁目、西東京市向台六丁目、武蔵野市桜堤三丁目","lat":35.71706,"lon":139.517882},{"name":"武蔵野公園","province":"東京都","city":"小金井市","address":"東京都小金井市前原町二丁目、東町五丁目、中町一丁目、府中市多磨町二・三丁目","lat":35.687906,"lon":139.520496},{"name":"(株)伊藤国商店","province":"東京都","city":"小金井市","address":"小金井市中町1-14-41","lat":35.693977,"lon":139.517075},{"name":"小金井公園","province":"東京都","city":"小金井市","address":"東京都小金井市桜町三丁目、関野町一・二丁目、小平市花小金井南町三丁目、西東京市向台六丁目、武蔵野市桜堤三丁目","lat":35.71706,"lon":139.517882},{"name":"武蔵野公園","province":"東京都","city":"小金井市","address":"東京都小金井市前原町二丁目、東町五丁目、中町一丁目、府中市多磨町二・三丁目","lat":35.687906,"lon":139.520496},{"name":"(株)伊藤国商店","province":"東京都","city":"小金井市","address":"小金井市中町1-14-41","lat":35.693977,"lon":139.517075},{"name":"小金井公園","province":"東京都","city":"小金井市","address":"東京都小金井市桜町三丁目、関野町一・二丁目、小平市花小金井南町三丁目、西東京市向台六丁目、武蔵野市桜堤三丁目","lat":35.71706,"lon":139.517882},{"name":"武蔵野公園","province":"東京都","city":"小金井市","address":"東京都小金井市前原町二丁目、東町五丁目、中町一丁目、府中市多磨町二・三丁目","lat":35.687906,"lon":139.520496},{"name":"(株)伊藤国商店","province":"東京都","city":"小金井市","address":"小金井市中町1-14-41","lat":35.693977,"lon":139.517075},{"name":"小金井公園","province":"東京都","city":"小金井市","address":"東京都小金井市桜町三丁目、関野町一・二丁目、小平市花小金井南町三丁目、西東京市向台六丁目、武蔵野市桜堤三丁目","lat":35.71706,"lon":139.517882},{"name":"武蔵野公園","province":"東京都","city":"小金井市","address":"東京都小金井市前原町二丁目、東町五丁目、中町一丁目、府中市多磨町二・三丁目","lat":35.687906,"lon":139.520496},{"name":"(株)伊藤国商店","province":"東京都","city":"小金井市","address":"小金井市中町1-14-41","lat":35.693977,"lon":139.517075},{"name":"小金井公園","province":"東京都","city":"小金井市","address":"東京都小金井市桜町三丁目、関野町一・二丁目、小平市花小金井南町三丁目、西東京市向台六丁目、武蔵野市桜堤三丁目","lat":35.71706,"lon":139.517882},{"name":"武蔵野公園","province":"東京都","city":"小金井市","address":"東京都小金井市前原町二丁目、東町五丁目、中町一丁目、府中市多磨町二・三丁目","lat":35.687906,"lon":139.520496},{"name":"(株)伊藤国商店","province":"東京都","city":"小金井市","address":"小金井市中町1-14-41","lat":35.693977,"lon":139.517075},{"name":"小金井公園","province":"東京都","city":"小金井市","address":"東京都小金井市桜町三丁目、関野町一・二丁目、小平市花小金井南町三丁目、西東京市向台六丁目、武蔵野市桜堤三丁目","lat":35.71706,"lon":139.517882},{"name":"武蔵野公園","province":"東京都","city":"小金井市","address":"東京都小金井市前原町二丁目、東町五丁目、中町一丁目、府中市多磨町二・三丁目","lat":35.687906,"lon":139.520496},{"name":"(株)伊藤国商店","province":"東京都","city":"小金井市","address":"小金井市中町1-14-41","lat":35.693977,"lon":139.517075},{"name":"小金井公園","province":"東京都","city":"小金井市","address":"東京都小金井市桜町三丁目、関野町一・二丁目、小平市花小金井南町三丁目、西東京市向台六丁目、武蔵野市桜堤三丁目","lat":35.71706,"lon":139.517882},{"name":"武蔵野公園","province":"東京都","city":"小金井市","address":"東京都小金井市前原町二丁目、東町五丁目、中町一丁目、府中市多磨町二・三丁目","lat":35.687906,"lon":139.520496},{"name":"(株)伊藤国商店","province":"東京都","city":"小金井市","address":"小金井市中町1-14-41","lat":35.693977,"lon":139.517075},{"name":"小金井公園","province":"東京都","city":"小金井市","address":"東京都小金井市桜町三丁目、関野町一・二丁目、小平市花小金井南町三丁目、西東京市向台六丁目、武蔵野市桜堤三丁目","lat":35.71706,"lon":139.517882},{"name":"武蔵野公園","province":"東京都","city":"小金井市","address":"東京都小金井市前原町二丁目、東町五丁目、中町一丁目、府中市多磨町二・三丁目","lat":35.687906,"lon":139.520496},{"name":"(株)伊藤国商店","province":"東京都","city":"小金井市","address":"小金井市中町1-14-41","lat":35.693977,"lon":139.517075},{"name":"小金井公園","province":"東京都","city":"小金井市","address":"東京都小金井市桜町三丁目、関野町一・二丁目、小平市花小金井南町三丁目、西東京市向台六丁目、武蔵野市桜堤三丁目","lat":35.71706,"lon":139.517882},{"name":"武蔵野公園","province":"東京都","city":"小金井市","address":"東京都小金井市前原町二丁目、東町五丁目、中町一丁目、府中市多磨町二・三丁目","lat":35.687906,"lon":139.520496},{"name":"(株)伊藤国商店","province":"東京都","city":"小金井市","address":"小金井市中町1-14-41","lat":35.693977,"lon":139.517075},{"name":"小金井公園","province":"東京都","city":"小金井市","address":"東京都小金井市桜町三丁目、関野町一・二丁目、小平市花小金井南町三丁目、西東京市向台六丁目、武蔵野市桜堤三丁目","lat":35.71706,"lon":139.517882},{"name":"武蔵野公園","province":"東京都","city":"小金井市","address":"東京都小金井市前原町二丁目、東町五丁目、中町一丁目、府中市多磨町二・三丁目","lat":35.687906,"lon":139.520496},{"name":"(株)伊藤国商店","province":"東京都","city":"小金井市","address":"小金井市中町1-14-41","lat":35.693977,"lon":139.517075},{"name":"小金井公園","province":"東京都","city":"小金井市","address":"東京都小金井市桜町三丁目、関野町一・二丁目、小平市花小金井南町三丁目、西東京市向台六丁目、武蔵野市桜堤三丁目","lat":35.71706,"lon":139.517882},{"name":"武蔵野公園","province":"東京都","city":"小金井市","address":"東京都小金井市前原町二丁目、東町五丁目、中町一丁目、府中市多磨町二・三丁目","lat":35.687906,"lon":139.520496},{"name":"(株)伊藤国商店","province":"東京都","city":"小金井市","address":"小金井市中町1-14-41","lat":35.693977,"lon":139.517075},{"name":"小金井公園","province":"東京都","city":"小金井市","address":"東京都小金井市桜町三丁目、関野町一・二丁目、小平市花小金井南町三丁目、西東京市向台六丁目、武蔵野市桜堤三丁目","lat":35.71706,"lon":139.517882},{"name":"武蔵野公園","province":"東京都","city":"小金井市","address":"東京都小金井市前原町二丁目、東町五丁目、中町一丁目、府中市多磨町二・三丁目","lat":35.687906,"lon":139.520496},{"name":"(株)伊藤国商店","province":"東京都","city":"小金井市","address":"小金井市中町1-14-41","lat":35.693977,"lon":139.517075},{"name":"小金井公園","province":"東京都","city":"小金井市","address":"東京都小金井市桜町三丁目、関野町一・二丁目、小平市花小金井南町三丁目、西東京市向台六丁目、武蔵野市桜堤三丁目","lat":35.71706,"lon":139.517882},{"name":"武蔵野公園","province":"東京都","city":"小金井市","address":"東京都小金井市前原町二丁目、東町五丁目、中町一丁目、府中市多磨町二・三丁目","lat":35.687906,"lon":139.520496},{"name":"(株)伊藤国商店","province":"東京都","city":"小金井市","address":"小金井市中町1-14-41","lat":35.693977,"lon":139.517075},{"name":"小金井公園","province":"東京都","city":"小金井市","address":"東京都小金井市桜町三丁目、関野町一・二丁目、小平市花小金井南町三丁目、西東京市向台六丁目、武蔵野市桜堤三丁目","lat":35.71706,"lon":139.517882},{"name":"武蔵野公園","province":"東京都","city":"小金井市","address":"東京都小金井市前原町二丁目、東町五丁目、中町一丁目、府中市多磨町二・三丁目","lat":35.687906,"lon":139.520496},{"name":"(株)伊藤国商店","province":"東京都","city":"小金井市","address":"小金井市中町1-14-41","lat":35.693977,"lon":139.517075},{"name":"小金井公園","province":"東京都","city":"小金井市","address":"東京都小金井市桜町三丁目、関野町一・二丁目、小平市花小金井南町三丁目、西東京市向台六丁目、武蔵野市桜堤三丁目","lat":35.71706,"lon":139.517882},{"name":"武蔵野公園","province":"東京都","city":"小金井市","address":"東京都小金井市前原町二丁目、東町五丁目、中町一丁目、府中市多磨町二・三丁目","lat":35.687906,"lon":139.520496},{"name":"(株)伊藤国商店","province":"東京都","city":"小金井市","address":"小金井市中町1-14-41","lat":35.693977,"lon":139.517075},{"name":"小金井公園","province":"東京都","city":"小金井市","address":"東京都小金井市桜町三丁目、関野町一・二丁目、小平市花小金井南町三丁目、西東京市向台六丁目、武蔵野市桜堤三丁目","lat":35.71706,"lon":139.517882},{"name":"武蔵野公園","province":"東京都","city":"小金井市","address":"東京都小金井市前原町二丁目、東町五丁目、中町一丁目、府中市多磨町二・三丁目","lat":35.687906,"lon":139.520496},{"name":"(株)伊藤国商店","province":"東京都","city":"小金井市","address":"小金井市中町1-14-41","lat":35.693977,"lon":139.517075},{"name":"小金井公園","province":"東京都","city":"小金井市","address":"東京都小金井市桜町三丁目、関野町一・二丁目、小平市花小金井南町三丁目、西東京市向台六丁目、武蔵野市桜堤三丁目","lat":35.71706,"lon":139.517882},{"name":"武蔵野公園","province":"東京都","city":"小金井市","address":"東京都小金井市前原町二丁目、東町五丁目、中町一丁目、府中市多磨町二・三丁目","lat":35.687906,"lon":139.520496},{"name":"(株)伊藤国商店","province":"東京都","city":"小金井市","address":"小金井市中町1-14-41","lat":35.693977,"lon":139.517075},{"name":"小金井公園","province":"東京都","city":"小金井市","address":"東京都小金井市桜町三丁目、関野町一・二丁目、小平市花小金井南町三丁目、西東京市向台六丁目、武蔵野市桜堤三丁目","lat":35.71706,"lon":139.517882},{"name":"武蔵野公園","province":"東京都","city":"小金井市","address":"東京都小金井市前原町二丁目、東町五丁目、中町一丁目、府中市多磨町二・三丁目","lat":35.687906,"lon":139.520496},{"name":"(株)伊藤国商店","province":"東京都","city":"小金井市","address":"小金井市中町1-14-41","lat":35.693977,"lon":139.517075},{"name":"小金井公園","province":"東京都","city":"小金井市","address":"東京都小金井市桜町三丁目、関野町一・二丁目、小平市花小金井南町三丁目、西東京市向台六丁目、武蔵野市桜堤三丁目","lat":35.71706,"lon":139.517882},{"name":"武蔵野公園","province":"東京都","city":"小金井市","address":"東京都小金井市前原町二丁目、東町五丁目、中町一丁目、府中市多磨町二・三丁目","lat":35.687906,"lon":139.520496},{"name":"(株)伊藤国商店","province":"東京都","city":"小金井市","address":"小金井市中町1-14-41","lat":35.693977,"lon":139.517075},{"name":"小金井公園","province":"東京都","city":"小金井市","address":"東京都小金井市桜町三丁目、関野町一・二丁目、小平市花小金井南町三丁目、西東京市向台六丁目、武蔵野市桜堤三丁目","lat":35.71706,"lon":139.517882},{"name":"武蔵野公園","province":"東京都","city":"小金井市","address":"東京都小金井市前原町二丁目、東町五丁目、中町一丁目、府中市多磨町二・三丁目","lat":35.687906,"lon":139.520496},{"name":"(株)伊藤国商店","province":"東京都","city":"小金井市","address":"小金井市中町1-14-41","lat":35.693977,"lon":139.517075},{"name":"小金井公園","province":"東京都","city":"小金井市","address":"東京都小金井市桜町三丁目、関野町一・二丁目、小平市花小金井南町三丁目、西東京市向台六丁目、武蔵野市桜堤三丁目","lat":35.71706,"lon":139.517882},{"name":"武蔵野公園","province":"東京都","city":"小金井市","address":"東京都小金井市前原町二丁目、東町五丁目、中町一丁目、府中市多磨町二・三丁目","lat":35.687906,"lon":139.520496},{"name":"(株)伊藤国商店","province":"東京都","city":"小金井市","address":"小金井市中町1-14-41","lat":35.693977,"lon":139.517075},{"name":"小金井公園","province":"東京都","city":"小金井市","address":"東京都小金井市桜町三丁目、関野町一・二丁目、小平市花小金井南町三丁目、西東京市向台六丁目、武蔵野市桜堤三丁目","lat":35.71706,"lon":139.517882},{"name":"武蔵野公園","province":"東京都","city":"小金井市","address":"東京都小金井市前原町二丁目、東町五丁目、中町一丁目、府中市多磨町二・三丁目","lat":35.687906,"lon":139.520496},{"name":"(株)伊藤国商店","province":"東京都","city":"小金井市","address":"小金井市中町1-14-41","lat":35.693977,"lon":139.517075},{"name":"小金井公園","province":"東京都","city":"小金井市","address":"東京都小金井市桜町三丁目、関野町一・二丁目、小平市花小金井南町三丁目、西東京市向台六丁目、武蔵野市桜堤三丁目","lat":35.71706,"lon":139.517882},{"name":"武蔵野公園","province":"東京都","city":"小金井市","address":"東京都小金井市前原町二丁目、東町五丁目、中町一丁目、府中市多磨町二・三丁目","lat":35.687906,"lon":139.520496},{"name":"(株)伊藤国商店","province":"東京都","city":"小金井市","address":"小金井市中町1-14-41","lat":35.693977,"lon":139.517075},{"name":"小金井公園","province":"東京都","city":"小金井市","address":"東京都小金井市桜町三丁目、関野町一・二丁目、小平市花小金井南町三丁目、西東京市向台六丁目、武蔵野市桜堤三丁目","lat":35.71706,"lon":139.517882},{"name":"武蔵野公園","province":"東京都","city":"小金井市","address":"東京都小金井市前原町二丁目、東町五丁目、中町一丁目、府中市多磨町二・三丁目","lat":35.687906,"lon":139.520496},{"name":"(株)伊藤国商店","province":"東京都","city":"小金井市","address":"小金井市中町1-14-41","lat":35.693977,"lon":139.517075},{"name":"小金井公園","province":"東京都","city":"小金井市","address":"東京都小金井市桜町三丁目、関野町一・二丁目、小平市花小金井南町三丁目、西東京市向台六丁目、武蔵野市桜堤三丁目","lat":35.71706,"lon":139.517882},{"name":"武蔵野公園","province":"東京都","city":"小金井市","address":"東京都小金井市前原町二丁目、東町五丁目、中町一丁目、府中市多磨町二・三丁目","lat":35.687906,"lon":139.520496},{"name":"(株)伊藤国商店","province":"東京都","city":"小金井市","address":"小金井市中町1-14-41","lat":35.693977,"lon":139.517075},{"name":"小金井公園","province":"東京都","city":"小金井市","address":"東京都小金井市桜町三丁目、関野町一・二丁目、小平市花小金井南町三丁目、西東京市向台六丁目、武蔵野市桜堤三丁目","lat":35.71706,"lon":139.517882},{"name":"武蔵野公園","province":"東京都","city":"小金井市","address":"東京都小金井市前原町二丁目、東町五丁目、中町一丁目、府中市多磨町二・三丁目","lat":35.687906,"lon":139.520496},{"name":"(株)伊藤国商店","province":"東京都","city":"小金井市","address":"小金井市中町1-14-41","lat":35.693977,"lon":139.517075},{"name":"小金井公園","province":"東京都","city":"小金井市","address":"東京都小金井市桜町三丁目、関野町一・二丁目、小平市花小金井南町三丁目、西東京市向台六丁目、武蔵野市桜堤三丁目","lat":35.71706,"lon":139.517882},{"name":"武蔵野公園","province":"東京都","city":"小金井市","address":"東京都小金井市前原町二丁目、東町五丁目、中町一丁目、府中市多磨町二・三丁目","lat":35.687906,"lon":139.520496},{"name":"(株)伊藤国商店","province":"東京都","city":"小金井市","address":"小金井市中町1-14-41","lat":35.693977,"lon":139.517075},{"name":"小金井公園","province":"東京都","city":"小金井市","address":"東京都小金井市桜町三丁目、関野町一・二丁目、小平市花小金井南町三丁目、西東京市向台六丁目、武蔵野市桜堤三丁目","lat":35.71706,"lon":139.517882},{"name":"武蔵野公園","province":"東京都","city":"小金井市","address":"東京都小金井市前原町二丁目、東町五丁目、中町一丁目、府中市多磨町二・三丁目","lat":35.687906,"lon":139.520496},{"name":"(株)伊藤国商店","province":"東京都","city":"小金井市","address":"小金井市中町1-14-41","lat":35.693977,"lon":139.517075},{"name":"小金井公園","province":"東京都","city":"小金井市","address":"東京都小金井市桜町三丁目、関野町一・二丁目、小平市花小金井南町三丁目、西東京市向台六丁目、武蔵野市桜堤三丁目","lat":35.71706,"lon":139.517882},{"name":"武蔵野公園","province":"東京都","city":"小金井市","address":"東京都小金井市前原町二丁目、東町五丁目、中町一丁目、府中市多磨町二・三丁目","lat":35.687906,"lon":139.520496},{"name":"(株)伊藤国商店","province":"東京都","city":"小金井市","address":"小金井市中町1-14-41","lat":35.693977,"lon":139.517075},{"name":"小金井公園","province":"東京都","city":"小金井市","address":"東京都小金井市桜町三丁目、関野町一・二丁目、小平市花小金井南町三丁目、西東京市向台六丁目、武蔵野市桜堤三丁目","lat":35.71706,"lon":139.517882},{"name":"武蔵野公園","province":"東京都","city":"小金井市","address":"東京都小金井市前原町二丁目、東町五丁目、中町一丁目、府中市多磨町二・三丁目","lat":35.687906,"lon":139.520496},{"name":"(株)伊藤国商店","province":"東京都","city":"小金井市","address":"小金井市中町1-14-41","lat":35.693977,"lon":139.517075},{"name":"小金井公園","province":"東京都","city":"小金井市","address":"東京都小金井市桜町三丁目、関野町一・二丁目、小平市花小金井南町三丁目、西東京市向台六丁目、武蔵野市桜堤三丁目","lat":35.71706,"lon":139.517882},{"name":"武蔵野公園","province":"東京都","city":"小金井市","address":"東京都小金井市前原町二丁目、東町五丁目、中町一丁目、府中市多磨町二・三丁目","lat":35.687906,"lon":139.520496},{"name":"(株)伊藤国商店","province":"東京都","city":"小金井市","address":"小金井市中町1-14-41","lat":35.693977,"lon":139.517075},{"name":"小金井公園","province":"東京都","city":"小金井市","address":"東京都小金井市桜町三丁目、関野町一・二丁目、小平市花小金井南町三丁目、西東京市向台六丁目、武蔵野市桜堤三丁目","lat":35.71706,"lon":139.517882},{"name":"武蔵野公園","province":"東京都","city":"小金井市","address":"東京都小金井市前原町二丁目、東町五丁目、中町一丁目、府中市多磨町二・三丁目","lat":35.687906,"lon":139.520496},{"name":"(株)伊藤国商店","province":"東京都","city":"小金井市","address":"小金井市中町1-14-41","lat":35.693977,"lon":139.517075},{"name":"小金井公園","province":"東京都","city":"小金井市","address":"東京都小金井市桜町三丁目、関野町一・二丁目、小平市花小金井南町三丁目、西東京市向台六丁目、武蔵野市桜堤三丁目","lat":35.71706,"lon":139.517882},{"name":"武蔵野公園","province":"東京都","city":"小金井市","address":"東京都小金井市前原町二丁目、東町五丁目、中町一丁目、府中市多磨町二・三丁目","lat":35.687906,"lon":139.520496},{"name":"(株)伊藤国商店","province":"東京都","city":"小金井市","address":"小金井市中町1-14-41","lat":35.693977,"lon":139.517075},{"name":"小金井公園","province":"東京都","city":"小金井市","address":"東京都小金井市桜町三丁目、関野町一・二丁目、小平市花小金井南町三丁目、西東京市向台六丁目、武蔵野市桜堤三丁目","lat":35.71706,"lon":139.517882},{"name":"武蔵野公園","province":"東京都","city":"小金井市","address":"東京都小金井市前原町二丁目、東町五丁目、中町一丁目、府中市多磨町二・三丁目","lat":35.687906,"lon":139.520496},{"name":"(株)伊藤国商店","province":"東京都","city":"小金井市","address":"小金井市中町1-14-41","lat":35.693977,"lon":139.517075},{"name":"小金井公園","province":"東京都","city":"小金井市","address":"東京都小金井市桜町三丁目、関野町一・二丁目、小平市花小金井南町三丁目、西東京市向台六丁目、武蔵野市桜堤三丁目","lat":35.71706,"lon":139.517882},{"name":"武蔵野公園","province":"東京都","city":"小金井市","address":"東京都小金井市前原町二丁目、東町五丁目、中町一丁目、府中市多磨町二・三丁目","lat":35.687906,"lon":139.520496},{"name":"(株)伊藤国商店","province":"東京都","city":"小金井市","address":"小金井市中町1-14-41","lat":35.693977,"lon":139.517075},{"name":"小金井公園","province":"東京都","city":"小金井市","address":"東京都小金井市桜町三丁目、関野町一・二丁目、小平市花小金井南町三丁目、西東京市向台六丁目、武蔵野市桜堤三丁目","lat":35.71706,"lon":139.517882},{"name":"武蔵野公園","province":"東京都","city":"小金井市","address":"東京都小金井市前原町二丁目、東町五丁目、中町一丁目、府中市多磨町二・三丁目","lat":35.687906,"lon":139.520496},{"name":"(株)伊藤国商店","province":"東京都","city":"小金井市","address":"小金井市中町1-14-41","lat":35.693977,"lon":139.517075},{"name":"小金井公園","province":"東京都","city":"小金井市","address":"東京都小金井市桜町三丁目、関野町一・二丁目、小平市花小金井南町三丁目、西東京市向台六丁目、武蔵野市桜堤三丁目","lat":35.71706,"lon":139.517882},{"name":"武蔵野公園","province":"東京都","city":"小金井市","address":"東京都小金井市前原町二丁目、東町五丁目、中町一丁目、府中市多磨町二・三丁目","lat":35.687906,"lon":139.520496},{"name":"(株)伊藤国商店","province":"東京都","city":"小金井市","address":"小金井市中町1-14-41","lat":35.693977,"lon":139.517075},{"name":"小金井公園","province":"東京都","city":"小金井市","address":"東京都小金井市桜町三丁目、関野町一・二丁目、小平市花小金井南町三丁目、西東京市向台六丁目、武蔵野市桜堤三丁目","lat":35.71706,"lon":139.517882},{"name":"武蔵野公園","province":"東京都","city":"小金井市","address":"東京都小金井市前原町二丁目、東町五丁目、中町一丁目、府中市多磨町二・三丁目","lat":35.687906,"lon":139.520496},{"name":"(株)伊藤国商店","province":"東京都","city":"小金井市","address":"小金井市中町1-14-41","lat":35.693977,"lon":139.517075},{"name":"小金井公園","province":"東京都","city":"小金井市","address":"東京都小金井市桜町三丁目、関野町一・二丁目、小平市花小金井南町三丁目、西東京市向台六丁目、武蔵野市桜堤三丁目","lat":35.71706,"lon":139.517882},{"name":"武蔵野公園","province":"東京都","city":"小金井市","address":"東京都小金井市前原町二丁目、東町五丁目、中町一丁目、府中市多磨町二・三丁目","lat":35.687906,"lon":139.520496},{"name":"(株)伊藤国商店","province":"東京都","city":"小金井市","address":"小金井市中町1-14-41","lat":35.693977,"lon":139.517075},{"name":"小金井公園","province":"東京都","city":"小金井市","address":"東京都小金井市桜町三丁目、関野町一・二丁目、小平市花小金井南町三丁目、西東京市向台六丁目、武蔵野市桜堤三丁目","lat":35.71706,"lon":139.517882},{"name":"武蔵野公園","province":"東京都","city":"小金井市","address":"東京都小金井市前原町二丁目、東町五丁目、中町一丁目、府中市多磨町二・三丁目","lat":35.687906,"lon":139.520496},{"name":"(株)伊藤国商店","province":"東京都","city":"小金井市","address":"小金井市中町1-14-41","lat":35.693977,"lon":139.517075},{"name":"小金井公園","province":"東京都","city":"小金井市","address":"東京都小金井市桜町三丁目、関野町一・二丁目、小平市花小金井南町三丁目、西東京市向台六丁目、武蔵野市桜堤三丁目","lat":35.71706,"lon":139.517882},{"name":"武蔵野公園","province":"東京都","city":"小金井市","address":"東京都小金井市前原町二丁目、東町五丁目、中町一丁目、府中市多磨町二・三丁目","lat":35.687906,"lon":139.520496},{"name":"(株)伊藤国商店","province":"東京都","city":"小金井市","address":"小金井市中町1-14-41","lat":35.693977,"lon":139.517075},{"name":"小金井公園","province":"東京都","city":"小金井市","address":"東京都小金井市桜町三丁目、関野町一・二丁目、小平市花小金井南町三丁目、西東京市向台六丁目、武蔵野市桜堤三丁目","lat":35.71706,"lon":139.517882},{"name":"武蔵野公園","province":"東京都","city":"小金井市","address":"東京都小金井市前原町二丁目、東町五丁目、中町一丁目、府中市多磨町二・三丁目","lat":35.687906,"lon":139.520496},{"name":"(株)伊藤国商店","province":"東京都","city":"小金井市","address":"小金井市中町1-14-41","lat":35.693977,"lon":139.517075},{"name":"小金井公園","province":"東京都","city":"小金井市","address":"東京都小金井市桜町三丁目、関野町一・二丁目、小平市花小金井南町三丁目、西東京市向台六丁目、武蔵野市桜堤三丁目","lat":35.71706,"lon":139.517882},{"name":"武蔵野公園","province":"東京都","city":"小金井市","address":"東京都小金井市前原町二丁目、東町五丁目、中町一丁目、府中市多磨町二・三丁目","lat":35.687906,"lon":139.520496},{"name":"(株)伊藤国商店","province":"東京都","city":"小金井市","address":"小金井市中町1-14-41","lat":35.693977,"lon":139.517075},{"name":"小金井公園","province":"東京都","city":"小金井市","address":"東京都小金井市桜町三丁目、関野町一・二丁目、小平市花小金井南町三丁目、西東京市向台六丁目、武蔵野市桜堤三丁目","lat":35.71706,"lon":139.517882},{"name":"武蔵野公園","province":"東京都","city":"小金井市","address":"東京都小金井市前原町二丁目、東町五丁目、中町一丁目、府中市多磨町二・三丁目","lat":35.687906,"lon":139.520496},{"name":"(株)伊藤国商店","province":"東京都","city":"小金井市","address":"小金井市中町1-14-41","lat":35.693977,"lon":139.517075}]}