{"keyword":"保育","data":[{"name":"けやき保育園","province":"東京都","city":"小金井市","address":"小金井市梶野町1-2-3","lat":35.701987,"lon":139.528755},{"name":"ひなぎく保育園","province":"東京都","city":"小金井市","address":"小金井市梶野町2-7-5","lat":35.705684,"lon":139.52795},{"name":"第二コスモ保育園","province":"東京都","city":"小金井市","address":"小金井市梶野町5-8-20-B","lat":35.704718,"lon":139.525111},{"name":"キッズガーデン東小金井駅前","province":"東京都","city":"小金井市","address":"小金井市梶野町5-11-5","lat":35.702048,"lon":139.527208},{"name":"第六コスモ保育園","province":"東京都","city":"小金井市","address":"小金井市梶野町5-3-25-211","lat":35.702796,"lon":139.524672},{"name":"小金井北プチ・クレイシュ","province":"東京都","city":"小金井市","address":"小金井市緑町4-5-7","lat":35.705706,"lon":139.513406},{"name":"小金井保育園","province":"東京都","city":"小金井市","address":"小金井市本町5-6-19","lat":35.702525,"lon":139.502016},{"name":"しんあい保育園","province":"東京都","city":"小金井市","address":"小金井市本町3-5-9","lat":35.706228,"lon":139.509551},{"name":"アスクむさし小金井保育園","province":"東京都","city":"小金井市","address":"小金井市本町5-19-2","lat":35.702317,"lon":139.505693},{"name":"グローバルキッズ武蔵小金井園","province":"東京都","city":"小金井市","address":"小金井市本町1-19-8","lat":35.70092,"lon":139.50794},{"name":"まなびの森保育園武蔵小金井","province":"東京都","city":"小金井市","address":"小金井市本町3-12-13","lat":35.708417,"lon":139.509568},{"name":"キッズガーデン武蔵小金井","province":"東京都","city":"小金井市","address":"小金井市本町1-19-3","lat":35.700981,"lon":139.507627},{"name":"くりのみ保育園","province":"東京都","city":"小金井市","address":"小金井市東町3-1-16","lat":35.696843,"lon":139.52742},{"name":"こむぎ保育園","province":"東京都","city":"小金井市","address":"小金井市東町4-21-8","lat":35.695771,"lon":139.525484},{"name":"駅前コスモ保育園","province":"東京都","city":"小金井市","address":"小金井市東町4-42-1-206","lat":35.700876,"lon":139.52482},{"name":"ドリームキッズ小金井保育園","province":"東京都","city":"小金井市","address":"小金井市東町3-7-17","lat":35.699463,"lon":139.5291},{"name":"ひまわり保育園","province":"東京都","city":"小金井市","address":"小金井市中町1-5-21","lat":35.694668,"lon":139.511388},{"name":"武蔵小金井雲母保育園","province":"東京都","city":"小金井市","address":"小金井市中町3-26-7","lat":35.701107,"lon":139.515323},{"name":"わかたけ保育園","province":"東京都","city":"小金井市","address":"小金井市前原町3-11-12","lat":35.695851,"lon":139.499683},{"name":"光明第二保育園","province":"東京都","city":"小金井市","address":"小金井市貫井南町1-13-17","lat":35.690241,"lon":139.494798},{"name":"貫井保育園","province":"東京都","city":"小金井市","address":"小金井市貫井南町4-29-21","lat":35.698015,"lon":139.494419},{"name":"さくら保育園","province":"東京都","city":"小金井市","address":"小金井市貫井北町3-30-6","lat":35.711463,"lon":139.497485},{"name":"愛の園保育園","province":"東京都","city":"小金井市","address":"小金井市貫井北町5-8-1","lat":35.701667,"lon":139.488511},{"name":"うぃず武蔵小金井保育園","province":"東京都","city":"小金井市","address":"小金井市貫井北町3-21-5","lat":35.708925,"lon":139.497783}]}