{"keyword":"医薬","data":[{"name":"小金井市","province":"東京都","city":"小金井市","address":"小金井市本町6-6-3","lat":35.6994789,"lon":139.5029889},{"name":"江戸東京たてもの園","province":"東京都","city":"小金井市","address":"東京都小金井市桜町3丁目7","lat":35.71584,"lon":139.5122},{"name":"江戸東京たてもの園","province":"東京都","city":"小金井市","address":"東京都小金井市桜町3丁目7","lat":35.71645,"lon":139.5112},{"name":"江戸東京たてもの園","province":"東京都","city":"小金井市","address":"東京都小金井市桜町3丁目7","lat":35.71571,"lon":139.5126},{"name":"江戸東京たてもの園","province":"東京都","city":"小金井市","address":"東京都小金井市桜町3丁目7","lat":35.71598,"lon":139.5109},{"name":"江戸東京たてもの園","province":"東京都","city":"小金井市","address":"東京都小金井市関野町2丁目9","lat":35.71625,"lon":139.5152},{"name":"江戸東京たてもの園","province":"東京都","city":"小金井市","address":"東京都小金井市関野町2丁目9","lat":35.71594,"lon":139.5143},{"name":"武蔵野公園","province":"東京都","city":"小金井市","address":"東京都小金井市中町1丁目14-35","lat":35.694001,"lon":139.516957},{"name":"武蔵野公園","province":"東京都","city":"小金井市","address":"東京都小金井市東町5丁目1","lat":35.688519,"lon":139.521411},{"name":"武蔵野公園","province":"東京都","city":"小金井市","address":"東京都小金井市前原町2丁目1","lat":35.690951,"lon":139.514195},{"name":"野川公園","province":"東京都","city":"小金井市","address":"東京都小金井市東町1丁目6","lat":35.688605,"lon":139.523257},{"name":"小金井公園","province":"東京都","city":"小金井市","address":"東京都小金井市関野町2丁目9","lat":35.717129,"lon":139.516807},{"name":"小金井公園","province":"東京都","city":"小金井市","address":"東京都小金井市桜町3丁目7","lat":35.714969,"lon":139.510253},{"name":"小金井公園","province":"東京都","city":"小金井市","address":"東京都小金井市関野町2丁目9","lat":35.71487,"lon":139.515347},{"name":"小金井公園","province":"東京都","city":"小金井市","address":"東京都小金井市桜町3丁目7","lat":35.715494,"lon":139.511692},{"name":"小金井公園","province":"東京都","city":"小金井市","address":"東京都小金井市関野町1丁目13","lat":35.718358,"lon":139.521955},{"name":"小金井公園","province":"東京都","city":"小金井市","address":"東京都小金井市関野町1丁目13","lat":35.71538,"lon":139.524818},{"name":"小金井公園","province":"東京都","city":"小金井市","address":"東京都小金井市関野町1丁目13","lat":35.716721,"lon":139.523653},{"name":"小金井公園","province":"東京都","city":"小金井市","address":"東京都小金井市関野町1丁目10","lat":35.713988,"lon":139.521454},{"name":"小金井公園","province":"東京都","city":"小金井市","address":"東京都小金井市関野町2丁目9","lat":35.714603,"lon":139.517819},{"name":"小金井公園","province":"東京都","city":"小金井市","address":"東京都小金井市関野町1丁目13","lat":35.71521,"lon":139.518577},{"name":"小金井公園","province":"東京都","city":"小金井市","address":"東京都小金井市関野町2丁目9","lat":35.714994,"lon":139.513656},{"name":"多磨霊園","province":"東京都","city":"小金井市","address":"東京都小金井市前原町1丁目1","lat":35.687557,"lon":139.508714},{"name":"多磨霊園","province":"東京都","city":"小金井市","address":"東京都小金井市前原町1丁目1","lat":35.685991,"lon":139.514179},{"name":"小金井消防署緑町出張所","province":"東京都","city":"小金井市","address":"東京都小金井市緑町2丁目2-42","lat":35.705748,"lon":139.521514},{"name":"小金井市上水公園運動施設","province":"東京都","city":"小金井市","address":"東京都小金井市桜町2丁目2","lat":35.70936,"lon":139.505242},{"name":"小金井市役所本庁舎","province":"東京都","city":"小金井市","address":"東京都小金井市本町6丁目6-3","lat":35.699515,"lon":139.502947},{"name":"小金井市役所第二庁舎","province":"東京都","city":"小金井市","address":"東京都小金井市前原町3丁目41-15","lat":35.698665,"lon":139.504844},{"name":"小金井市役所第二庁舎","province":"東京都","city":"小金井市","address":"東京都小金井市前原町3丁目41-15","lat":35.698649,"lon":139.504958},{"name":"小金井市市民会館（萌え木ホール）","province":"東京都","city":"小金井市","address":"東京都小金井市前原町3丁目33-25","lat":35.698912,"lon":139.502421},{"name":"小金井市東小金井駅記念会館（マロンホール）","province":"東京都","city":"小金井市","address":"東京都小金井市東町3丁目7-21","lat":35.700299,"lon":139.529063},{"name":"小金井市前原暫定集会施設","province":"東京都","city":"小金井市","address":"東京都小金井市前原町3丁目33-27","lat":35.698872,"lon":139.502729},{"name":"小金井市婦人会館","province":"東京都","city":"小金井市","address":"東京都小金井市梶野町5丁目10","lat":35.70495,"lon":139.526602},{"name":"小金井市上之原会館","province":"東京都","city":"小金井市","address":"東京都小金井市本町5丁目6-19","lat":35.702512,"lon":139.501918},{"name":"小金井市前原町西之台会館","province":"東京都","city":"小金井市","address":"東京都小金井市前原町3丁目8-1","lat":35.693947,"lon":139.499528},{"name":"小金井市桜町上水会館","province":"東京都","city":"小金井市","address":"東京都小金井市桜町2丁目8-13","lat":35.710884,"lon":139.504951},{"name":"小金井市貫井南町三楽集会所","province":"東京都","city":"小金井市","address":"東京都小金井市貫井南町3丁目6-18","lat":35.69926,"lon":139.495101},{"name":"小金井市東町友愛会館","province":"東京都","city":"小金井市","address":"東京都小金井市東町4丁目10-2","lat":35.694606,"lon":139.52369},{"name":"小金井市中町桜並集会所","province":"東京都","city":"小金井市","address":"東京都小金井市中町3丁目19-12","lat":35.699903,"lon":139.51327},{"name":"小金井市貫井北五集会所","province":"東京都","city":"小金井市","address":"東京都小金井市貫井北町5丁目16","lat":35.702991,"lon":139.488612},{"name":"小金井市中町天神前集会所","province":"東京都","city":"小金井市","address":"東京都小金井市中町1丁目7-7","lat":35.693511,"lon":139.509979},{"name":"小金井市公民館本館","province":"東京都","city":"小金井市","address":"東京都小金井市本町2丁目15-11","lat":35.70548,"lon":139.510496},{"name":"小金井市公民館貫井南分館","province":"東京都","city":"小金井市","address":"東京都小金井市貫井南町4丁目3-23","lat":35.69371,"lon":139.493641},{"name":"小金井市公民館緑分館","province":"東京都","city":"小金井市","address":"東京都小金井市緑町3丁目3-23","lat":35.70956,"lon":139.516334},{"name":"小金井市公民館東分館","province":"東京都","city":"小金井市","address":"東京都小金井市東町1丁目39-1","lat":35.693968,"lon":139.526726},{"name":"小金井市公民館東分館","province":"東京都","city":"小金井市","address":"東京都小金井市東町1丁目39-1","lat":35.693994,"lon":139.526709},{"name":"小金井市貫井北センター","province":"東京都","city":"小金井市","address":"東京都小金井市貫井北町1丁目11-12","lat":35.702436,"lon":139.497696},{"name":"小金井市貫井北センター","province":"東京都","city":"小金井市","address":"東京都小金井市貫井北町1丁目11","lat":35.702255,"lon":139.498017},{"name":"小金井市保健センター","province":"東京都","city":"小金井市","address":"東京都小金井市貫井北町5丁目18-18","lat":35.701751,"lon":139.490179},{"name":"小金井市立図書館","province":"東京都","city":"小金井市","address":"東京都小金井市本町1丁目1-32","lat":35.697725,"lon":139.510762},{"name":"小金井市立図書館","province":"東京都","city":"小金井市","address":"東京都小金井市本町1丁目1","lat":35.697445,"lon":139.510638},{"name":"小金井市立はけの森美術館","province":"東京都","city":"小金井市","address":"東京都小金井市中町1丁目11-3","lat":35.695104,"lon":139.512679},{"name":"小金井市立はけの森美術館","province":"東京都","city":"小金井市","address":"東京都小金井市中町1丁目11-3","lat":35.695071,"lon":139.512823},{"name":"小金井市立はけの森美術館","province":"東京都","city":"小金井市","address":"東京都小金井市中町1丁目11-3","lat":35.69509,"lon":139.512826},{"name":"小金井市文化財センター","province":"東京都","city":"小金井市","address":"東京都小金井市緑町3丁目2-37","lat":35.710116,"lon":139.516909},{"name":"小金井 宮地楽器ホール","province":"東京都","city":"小金井市","address":"東京都小金井市本町6丁目14-45","lat":35.700247,"lon":139.506312},{"name":"小金井 宮地楽器ホール","province":"東京都","city":"小金井市","address":"東京都小金井市本町6丁目14-45","lat":35.700255,"lon":139.506396},{"name":"小金井 宮地楽器ホール","province":"東京都","city":"小金井市","address":"東京都小金井市本町6丁目14-45","lat":35.700108,"lon":139.50605},{"name":"小金井 宮地楽器ホール","province":"東京都","city":"小金井市","address":"東京都小金井市本町6丁目14-45","lat":35.70033,"lon":139.506173},{"name":"小金井 宮地楽器ホール","province":"東京都","city":"小金井市","address":"東京都小金井市本町6丁目14-45","lat":35.700319,"lon":139.506049},{"name":"小金井市栗山公園健康運動センター","province":"東京都","city":"小金井市","address":"東京都小金井市中町2丁目21-1","lat":35.697849,"lon":139.521296},{"name":"小金井市総合体育館","province":"東京都","city":"小金井市","address":"東京都小金井市関野町1丁目13-1","lat":35.714285,"lon":139.519954},{"name":"小金井市野川クリーンセンター","province":"東京都","city":"小金井市","address":"東京都小金井市東町1丁目7-19","lat":35.68737,"lon":139.522544},{"name":"梶野公園","province":"東京都","city":"小金井市","address":"東京都小金井市梶野町5丁目10","lat":35.702683,"lon":139.5268},{"name":"貫井けやき公園","province":"東京都","city":"小金井市","address":"東京都小金井市貫井南町4丁目14","lat":35.695622,"lon":139.4943},{"name":"浴恩館公園","province":"東京都","city":"小金井市","address":"東京都小金井市緑町3丁目2","lat":35.71047,"lon":139.51768},{"name":"滄浪泉園","province":"東京都","city":"小金井市","address":"東京都小金井市貫井南町3丁目2","lat":35.699103,"lon":139.499041},{"name":"環境配慮住宅型研修施設(楽習館)","province":"東京都","city":"小金井市","address":"東京都小金井市貫井南町3丁目2-16","lat":35.699055,"lon":139.498065},{"name":"武蔵小金井駅南口公衆トイレ","province":"東京都","city":"小金井市","address":"東京都小金井市本町6丁目14","lat":35.700353,"lon":139.506988},{"name":"小金井市本町児童館","province":"東京都","city":"小金井市","address":"東京都小金井市本町5丁目4-25","lat":35.702728,"lon":139.500942},{"name":"小金井市東児童館","province":"東京都","city":"小金井市","address":"東京都小金井市東町4丁目25-7","lat":35.697681,"lon":139.526351},{"name":"小金井市緑児童館","province":"東京都","city":"小金井市","address":"東京都小金井市緑町4丁目18-25","lat":35.709388,"lon":139.518143},{"name":"小金井市障害者福祉センター","province":"東京都","city":"小金井市","address":"東京都小金井市緑町4丁目17-10","lat":35.708714,"lon":139.517419},{"name":"小金井市障害者福祉センター","province":"東京都","city":"小金井市","address":"東京都小金井市緑町4丁目17-10","lat":35.708757,"lon":139.517429},{"name":"小金井市障害者福祉センター","province":"東京都","city":"小金井市","address":"東京都小金井市緑町4丁目17-10","lat":35.708699,"lon":139.5174},{"name":"梶野配水所","province":"東京都","city":"小金井市","address":"東京都小金井市梶野町5-10-33","lat":35.7046375,"lon":139.526531},{"name":"武蔵小金井南第３自転車駐車場","province":"東京都","city":"小金井市","address":"東京都小金井市本町6丁目5-3","lat":35.69924258,"lon":139.50395749},{"name":"武蔵小金井南第７自転車駐車場","province":"東京都","city":"小金井市","address":"東京都小金井市本町6丁目14-45","lat":35.7001731,"lon":139.50662947},{"name":"武蔵小金井北第５自転車駐車場","province":"東京都","city":"小金井市","address":"東京都小金井市本町2丁目1","lat":35.70122579,"lon":139.50750712},{"name":"東小金井駅西側高架下自転車駐車場（Ａ）","province":"東京都","city":"小金井市","address":"東京都小金井市緑町1丁目1","lat":35.70212886,"lon":139.52142262},{"name":"東小金井駅西側高架下自転車駐車場（Ｂ）","province":"東京都","city":"小金井市","address":"東京都小金井市緑町1丁目2","lat":35.70237879,"lon":139.5200505},{"name":"新小金井西第１自転車駐車場","province":"東京都","city":"小金井市","address":"東京都小金井市東町4丁目24","lat":35.69555191,"lon":139.52606416},{"name":"東小金井北第１自転車駐車場","province":"東京都","city":"小金井市","address":"東京都小金井市梶野町5丁目2","lat":35.70192613,"lon":139.52254753},{"name":"東小金井駅前第一駐輪場","province":"東京都","city":"小金井市","address":"東京都小金井市梶野町5丁目1-1","lat":35.70159565,"lon":139.52426962},{"name":"東小金井駅前第二駐輪場","province":"東京都","city":"小金井市","address":"東京都小金井市緑町1丁目2","lat":35.70237879,"lon":139.5200505},{"name":"前原坂上","province":"東京都","city":"小金井市","address":"東京都小金井市前原町3丁目41-24","lat":35.6986316,"lon":139.50591292},{"name":"小金井本町二丁目","province":"東京都","city":"小金井市","address":"東京都小金井市本町4丁目1-38","lat":35.70565307,"lon":139.50749306},{"name":"小金井第一小学校前第一","province":"東京都","city":"小金井市","address":"東京都小金井市中町1丁目9-19","lat":35.6972291,"lon":139.51038483},{"name":"貫井北町学芸大角","province":"東京都","city":"小金井市","address":"東京都小金井市貫井北町2丁目18-6","lat":35.70764141,"lon":139.4961078},{"name":"武蔵小金井駅北口","province":"東京都","city":"小金井市","address":"東京都小金井市本町5丁目1","lat":35.70118684,"lon":139.5051351},{"name":"小金井中町三丁目","province":"東京都","city":"小金井市","address":"東京都小金井市本町1丁目13-3","lat":35.69889837,"lon":139.51099305},{"name":"小金井市保健センター前","province":"東京都","city":"小金井市","address":"東京都小金井市貫井北町5丁目18-18","lat":35.70169192,"lon":139.49017242},{"name":"学芸大東門前","province":"東京都","city":"小金井市","address":"東京都小金井市貫井北町2丁目4-16","lat":35.70494728,"lon":139.49679119},{"name":"小金井郵便局前","province":"東京都","city":"小金井市","address":"東京都小金井市本町5丁目37-30","lat":35.70514197,"lon":139.50575434},{"name":"小金井消防署前","province":"東京都","city":"小金井市","address":"東京都小金井市本町6丁目6-1","lat":35.69930923,"lon":139.50345476},{"name":"貫井南町五丁目","province":"東京都","city":"小金井市","address":"東京都小金井市貫井南町4丁目1","lat":35.69376794,"lon":139.49453073},{"name":"小金井第一小学校前第二","province":"東京都","city":"小金井市","address":"東京都小金井市中町1丁目9-21","lat":35.69712911,"lon":139.51062092},{"name":"栗山公園前","province":"東京都","city":"小金井市","address":"東京都小金井市中町2丁目21","lat":35.69846815,"lon":139.52146721},{"name":"公園駐車場入口","province":"東京都","city":"小金井市","address":"東京都小金井市関野町1丁目7","lat":35.71356918,"lon":139.51856958},{"name":"小金井商工会館前","province":"東京都","city":"小金井市","address":"東京都小金井市本町5丁目9","lat":35.70193395,"lon":139.50385184},{"name":"市立南中学校前","province":"東京都","city":"小金井市","address":"東京都小金井市貫井南町1丁目24-1","lat":35.69076836,"lon":139.49776947},{"name":"小金井福祉会館前","province":"東京都","city":"小金井市","address":"東京都小金井市中町4丁目15-14","lat":35.69811781,"lon":139.50769057},{"name":"小金井本町二丁目南","province":"東京都","city":"小金井市","address":"東京都小金井市本町2丁目6-12","lat":35.70363109,"lon":139.50777923},{"name":"小金井本町五丁目","province":"東京都","city":"小金井市","address":"東京都小金井市本町5丁目13-1","lat":35.70211735,"lon":139.5070238},{"name":"農工大通り入口","province":"東京都","city":"小金井市","address":"東京都小金井市本町6丁目14-45","lat":35.7001731,"lon":139.50662947},{"name":"小金井公園西門","province":"東京都","city":"小金井市","address":"東京都小金井市桜町3丁目7","lat":35.71347722,"lon":139.50841486},{"name":"小金井東小学校前","province":"東京都","city":"小金井市","address":"東京都小金井市東町4丁目25-7","lat":35.69766002,"lon":139.5262946},{"name":"武蔵小金井駅北第二","province":"東京都","city":"小金井市","address":"東京都小金井市本町5丁目1","lat":35.70118684,"lon":139.5051351},{"name":"小金井市役所","province":"東京都","city":"小金井市","address":"東京都小金井市本町6丁目2","lat":35.69969535,"lon":139.5055018},{"name":"学芸大北門前","province":"東京都","city":"小金井市","address":"東京都小金井市貫井北町3丁目9-6","lat":35.70835512,"lon":139.49218866},{"name":"栗山公園北","province":"東京都","city":"小金井市","address":"東京都小金井市中町2丁目22-32","lat":35.69972913,"lon":139.52174491},{"name":"武蔵小金井駅南口","province":"東京都","city":"小金井市","address":"東京都小金井市本町1丁目18-10","lat":35.70068419,"lon":139.50759048},{"name":"武蔵小金井駅北口東","province":"東京都","city":"小金井市","address":"東京都小金井市本町5丁目12","lat":35.70177847,"lon":139.5061711},{"name":"前原交番東","province":"東京都","city":"小金井市","address":"東京都小金井市前原町4丁目10-11","lat":35.68921588,"lon":139.50260523},{"name":"梶野浄水所","province":"東京都","city":"小金井市","address":"東京都小金井市梶野町5丁目10-33","lat":35.70463703,"lon":139.52653041},{"name":"小金井市役所第２駐車場","province":"東京都","city":"小金井市","address":"東京都小金井市前原町3丁目41-15","lat":35.69855935,"lon":139.50482412},{"name":"小金井市本庁舎","province":"東京都","city":"小金井市","address":"小金井市本町6-6-3","lat":35.699479,"lon":139.502989},{"name":"小金井警察署","province":"東京都","city":"小金井市","address":"小金井市貫井南町3-21-3","lat":35.69993,"lon":139.4982},{"name":"小金井消防署","province":"東京都","city":"小金井市","address":"小金井市本町6-6-1","lat":35.69931,"lon":139.5035},{"name":"都立小金井公園","province":"東京都","city":"小金井市","address":"小金井市関野町1-2","lat":35.71295,"lon":139.5233},{"name":"都立小金井公園","province":"東京都","city":"小金井市","address":"小金井市関野町1","lat":35.71348,"lon":139.5196},{"name":"小金井市","province":"東京都","city":"小金井市","address":"小金井市本町6-6-3","lat":35.6994789,"lon":139.5029889},{"name":"江戸東京たてもの園","province":"東京都","city":"小金井市","address":"東京都小金井市桜町3丁目7","lat":35.71584,"lon":139.5122},{"name":"江戸東京たてもの園","province":"東京都","city":"小金井市","address":"東京都小金井市桜町3丁目7","lat":35.71645,"lon":139.5112},{"name":"江戸東京たてもの園","province":"東京都","city":"小金井市","address":"東京都小金井市桜町3丁目7","lat":35.71571,"lon":139.5126},{"name":"江戸東京たてもの園","province":"東京都","city":"小金井市","address":"東京都小金井市桜町3丁目7","lat":35.71598,"lon":139.5109},{"name":"江戸東京たてもの園","province":"東京都","city":"小金井市","address":"東京都小金井市関野町2丁目9","lat":35.71625,"lon":139.5152},{"name":"江戸東京たてもの園","province":"東京都","city":"小金井市","address":"東京都小金井市関野町2丁目9","lat":35.71594,"lon":139.5143},{"name":"武蔵野公園","province":"東京都","city":"小金井市","address":"東京都小金井市中町1丁目14-35","lat":35.694001,"lon":139.516957},{"name":"武蔵野公園","province":"東京都","city":"小金井市","address":"東京都小金井市東町5丁目1","lat":35.688519,"lon":139.521411},{"name":"武蔵野公園","province":"東京都","city":"小金井市","address":"東京都小金井市前原町2丁目1","lat":35.690951,"lon":139.514195},{"name":"野川公園","province":"東京都","city":"小金井市","address":"東京都小金井市東町1丁目6","lat":35.688605,"lon":139.523257},{"name":"小金井公園","province":"東京都","city":"小金井市","address":"東京都小金井市関野町2丁目9","lat":35.717129,"lon":139.516807},{"name":"小金井公園","province":"東京都","city":"小金井市","address":"東京都小金井市桜町3丁目7","lat":35.714969,"lon":139.510253},{"name":"小金井公園","province":"東京都","city":"小金井市","address":"東京都小金井市関野町2丁目9","lat":35.71487,"lon":139.515347},{"name":"小金井公園","province":"東京都","city":"小金井市","address":"東京都小金井市桜町3丁目7","lat":35.715494,"lon":139.511692},{"name":"小金井公園","province":"東京都","city":"小金井市","address":"東京都小金井市関野町1丁目13","lat":35.718358,"lon":139.521955},{"name":"小金井公園","province":"東京都","city":"小金井市","address":"東京都小金井市関野町1丁目13","lat":35.71538,"lon":139.524818},{"name":"小金井公園","province":"東京都","city":"小金井市","address":"東京都小金井市関野町1丁目13","lat":35.716721,"lon":139.523653},{"name":"小金井公園","province":"東京都","city":"小金井市","address":"東京都小金井市関野町1丁目10","lat":35.713988,"lon":139.521454},{"name":"小金井公園","province":"東京都","city":"小金井市","address":"東京都小金井市関野町2丁目9","lat":35.714603,"lon":139.517819},{"name":"小金井公園","province":"東京都","city":"小金井市","address":"東京都小金井市関野町1丁目13","lat":35.71521,"lon":139.518577},{"name":"小金井公園","province":"東京都","city":"小金井市","address":"東京都小金井市関野町2丁目9","lat":35.714994,"lon":139.513656},{"name":"多磨霊園","province":"東京都","city":"小金井市","address":"東京都小金井市前原町1丁目1","lat":35.687557,"lon":139.508714},{"name":"多磨霊園","province":"東京都","city":"小金井市","address":"東京都小金井市前原町1丁目1","lat":35.685991,"lon":139.514179},{"name":"小金井消防署緑町出張所","province":"東京都","city":"小金井市","address":"東京都小金井市緑町2丁目2-42","lat":35.705748,"lon":139.521514},{"name":"小金井市上水公園運動施設","province":"東京都","city":"小金井市","address":"東京都小金井市桜町2丁目2","lat":35.70936,"lon":139.505242},{"name":"小金井市役所本庁舎","province":"東京都","city":"小金井市","address":"東京都小金井市本町6丁目6-3","lat":35.699515,"lon":139.502947},{"name":"小金井市役所第二庁舎","province":"東京都","city":"小金井市","address":"東京都小金井市前原町3丁目41-15","lat":35.698665,"lon":139.504844},{"name":"小金井市役所第二庁舎","province":"東京都","city":"小金井市","address":"東京都小金井市前原町3丁目41-15","lat":35.698649,"lon":139.504958},{"name":"小金井市市民会館（萌え木ホール）","province":"東京都","city":"小金井市","address":"東京都小金井市前原町3丁目33-25","lat":35.698912,"lon":139.502421},{"name":"小金井市東小金井駅記念会館（マロンホール）","province":"東京都","city":"小金井市","address":"東京都小金井市東町3丁目7-21","lat":35.700299,"lon":139.529063},{"name":"小金井市前原暫定集会施設","province":"東京都","city":"小金井市","address":"東京都小金井市前原町3丁目33-27","lat":35.698872,"lon":139.502729},{"name":"小金井市婦人会館","province":"東京都","city":"小金井市","address":"東京都小金井市梶野町5丁目10","lat":35.70495,"lon":139.526602},{"name":"小金井市上之原会館","province":"東京都","city":"小金井市","address":"東京都小金井市本町5丁目6-19","lat":35.702512,"lon":139.501918},{"name":"小金井市前原町西之台会館","province":"東京都","city":"小金井市","address":"東京都小金井市前原町3丁目8-1","lat":35.693947,"lon":139.499528},{"name":"小金井市桜町上水会館","province":"東京都","city":"小金井市","address":"東京都小金井市桜町2丁目8-13","lat":35.710884,"lon":139.504951},{"name":"小金井市貫井南町三楽集会所","province":"東京都","city":"小金井市","address":"東京都小金井市貫井南町3丁目6-18","lat":35.69926,"lon":139.495101},{"name":"小金井市東町友愛会館","province":"東京都","city":"小金井市","address":"東京都小金井市東町4丁目10-2","lat":35.694606,"lon":139.52369},{"name":"小金井市中町桜並集会所","province":"東京都","city":"小金井市","address":"東京都小金井市中町3丁目19-12","lat":35.699903,"lon":139.51327},{"name":"小金井市貫井北五集会所","province":"東京都","city":"小金井市","address":"東京都小金井市貫井北町5丁目16","lat":35.702991,"lon":139.488612},{"name":"小金井市中町天神前集会所","province":"東京都","city":"小金井市","address":"東京都小金井市中町1丁目7-7","lat":35.693511,"lon":139.509979},{"name":"小金井市公民館本館","province":"東京都","city":"小金井市","address":"東京都小金井市本町2丁目15-11","lat":35.70548,"lon":139.510496},{"name":"小金井市公民館貫井南分館","province":"東京都","city":"小金井市","address":"東京都小金井市貫井南町4丁目3-23","lat":35.69371,"lon":139.493641},{"name":"小金井市公民館緑分館","province":"東京都","city":"小金井市","address":"東京都小金井市緑町3丁目3-23","lat":35.70956,"lon":139.516334},{"name":"小金井市公民館東分館","province":"東京都","city":"小金井市","address":"東京都小金井市東町1丁目39-1","lat":35.693968,"lon":139.526726},{"name":"小金井市公民館東分館","province":"東京都","city":"小金井市","address":"東京都小金井市東町1丁目39-1","lat":35.693994,"lon":139.526709},{"name":"小金井市貫井北センター","province":"東京都","city":"小金井市","address":"東京都小金井市貫井北町1丁目11-12","lat":35.702436,"lon":139.497696},{"name":"小金井市貫井北センター","province":"東京都","city":"小金井市","address":"東京都小金井市貫井北町1丁目11","lat":35.702255,"lon":139.498017},{"name":"小金井市保健センター","province":"東京都","city":"小金井市","address":"東京都小金井市貫井北町5丁目18-18","lat":35.701751,"lon":139.490179},{"name":"小金井市立図書館","province":"東京都","city":"小金井市","address":"東京都小金井市本町1丁目1-32","lat":35.697725,"lon":139.510762},{"name":"小金井市立図書館","province":"東京都","city":"小金井市","address":"東京都小金井市本町1丁目1","lat":35.697445,"lon":139.510638},{"name":"小金井市立はけの森美術館","province":"東京都","city":"小金井市","address":"東京都小金井市中町1丁目11-3","lat":35.695104,"lon":139.512679},{"name":"小金井市立はけの森美術館","province":"東京都","city":"小金井市","address":"東京都小金井市中町1丁目11-3","lat":35.695071,"lon":139.512823},{"name":"小金井市立はけの森美術館","province":"東京都","city":"小金井市","address":"東京都小金井市中町1丁目11-3","lat":35.69509,"lon":139.512826},{"name":"小金井市文化財センター","province":"東京都","city":"小金井市","address":"東京都小金井市緑町3丁目2-37","lat":35.710116,"lon":139.516909},{"name":"小金井 宮地楽器ホール","province":"東京都","city":"小金井市","address":"東京都小金井市本町6丁目14-45","lat":35.700247,"lon":139.506312},{"name":"小金井 宮地楽器ホール","province":"東京都","city":"小金井市","address":"東京都小金井市本町6丁目14-45","lat":35.700255,"lon":139.506396},{"name":"小金井 宮地楽器ホール","province":"東京都","city":"小金井市","address":"東京都小金井市本町6丁目14-45","lat":35.700108,"lon":139.50605},{"name":"小金井 宮地楽器ホール","province":"東京都","city":"小金井市","address":"東京都小金井市本町6丁目14-45","lat":35.70033,"lon":139.506173},{"name":"小金井 宮地楽器ホール","province":"東京都","city":"小金井市","address":"東京都小金井市本町6丁目14-45","lat":35.700319,"lon":139.506049},{"name":"小金井市栗山公園健康運動センター","province":"東京都","city":"小金井市","address":"東京都小金井市中町2丁目21-1","lat":35.697849,"lon":139.521296},{"name":"小金井市総合体育館","province":"東京都","city":"小金井市","address":"東京都小金井市関野町1丁目13-1","lat":35.714285,"lon":139.519954},{"name":"小金井市野川クリーンセンター","province":"東京都","city":"小金井市","address":"東京都小金井市東町1丁目7-19","lat":35.68737,"lon":139.522544},{"name":"梶野公園","province":"東京都","city":"小金井市","address":"東京都小金井市梶野町5丁目10","lat":35.702683,"lon":139.5268},{"name":"貫井けやき公園","province":"東京都","city":"小金井市","address":"東京都小金井市貫井南町4丁目14","lat":35.695622,"lon":139.4943},{"name":"浴恩館公園","province":"東京都","city":"小金井市","address":"東京都小金井市緑町3丁目2","lat":35.71047,"lon":139.51768},{"name":"滄浪泉園","province":"東京都","city":"小金井市","address":"東京都小金井市貫井南町3丁目2","lat":35.699103,"lon":139.499041},{"name":"環境配慮住宅型研修施設(楽習館)","province":"東京都","city":"小金井市","address":"東京都小金井市貫井南町3丁目2-16","lat":35.699055,"lon":139.498065},{"name":"武蔵小金井駅南口公衆トイレ","province":"東京都","city":"小金井市","address":"東京都小金井市本町6丁目14","lat":35.700353,"lon":139.506988},{"name":"小金井市本町児童館","province":"東京都","city":"小金井市","address":"東京都小金井市本町5丁目4-25","lat":35.702728,"lon":139.500942},{"name":"小金井市東児童館","province":"東京都","city":"小金井市","address":"東京都小金井市東町4丁目25-7","lat":35.697681,"lon":139.526351},{"name":"小金井市緑児童館","province":"東京都","city":"小金井市","address":"東京都小金井市緑町4丁目18-25","lat":35.709388,"lon":139.518143},{"name":"小金井市障害者福祉センター","province":"東京都","city":"小金井市","address":"東京都小金井市緑町4丁目17-10","lat":35.708714,"lon":139.517419},{"name":"小金井市障害者福祉センター","province":"東京都","city":"小金井市","address":"東京都小金井市緑町4丁目17-10","lat":35.708757,"lon":139.517429},{"name":"小金井市障害者福祉センター","province":"東京都","city":"小金井市","address":"東京都小金井市緑町4丁目17-10","lat":35.708699,"lon":139.5174},{"name":"梶野配水所","province":"東京都","city":"小金井市","address":"東京都小金井市梶野町5-10-33","lat":35.7046375,"lon":139.526531},{"name":"武蔵小金井南第３自転車駐車場","province":"東京都","city":"小金井市","address":"東京都小金井市本町6丁目5-3","lat":35.69924258,"lon":139.50395749},{"name":"武蔵小金井南第７自転車駐車場","province":"東京都","city":"小金井市","address":"東京都小金井市本町6丁目14-45","lat":35.7001731,"lon":139.50662947},{"name":"武蔵小金井北第５自転車駐車場","province":"東京都","city":"小金井市","address":"東京都小金井市本町2丁目1","lat":35.70122579,"lon":139.50750712},{"name":"東小金井駅西側高架下自転車駐車場（Ａ）","province":"東京都","city":"小金井市","address":"東京都小金井市緑町1丁目1","lat":35.70212886,"lon":139.52142262},{"name":"東小金井駅西側高架下自転車駐車場（Ｂ）","province":"東京都","city":"小金井市","address":"東京都小金井市緑町1丁目2","lat":35.70237879,"lon":139.5200505},{"name":"新小金井西第１自転車駐車場","province":"東京都","city":"小金井市","address":"東京都小金井市東町4丁目24","lat":35.69555191,"lon":139.52606416},{"name":"東小金井北第１自転車駐車場","province":"東京都","city":"小金井市","address":"東京都小金井市梶野町5丁目2","lat":35.70192613,"lon":139.52254753},{"name":"東小金井駅前第一駐輪場","province":"東京都","city":"小金井市","address":"東京都小金井市梶野町5丁目1-1","lat":35.70159565,"lon":139.52426962},{"name":"東小金井駅前第二駐輪場","province":"東京都","city":"小金井市","address":"東京都小金井市緑町1丁目2","lat":35.70237879,"lon":139.5200505},{"name":"前原坂上","province":"東京都","city":"小金井市","address":"東京都小金井市前原町3丁目41-24","lat":35.6986316,"lon":139.50591292},{"name":"小金井本町二丁目","province":"東京都","city":"小金井市","address":"東京都小金井市本町4丁目1-38","lat":35.70565307,"lon":139.50749306},{"name":"小金井第一小学校前第一","province":"東京都","city":"小金井市","address":"東京都小金井市中町1丁目9-19","lat":35.6972291,"lon":139.51038483},{"name":"貫井北町学芸大角","province":"東京都","city":"小金井市","address":"東京都小金井市貫井北町2丁目18-6","lat":35.70764141,"lon":139.4961078},{"name":"武蔵小金井駅北口","province":"東京都","city":"小金井市","address":"東京都小金井市本町5丁目1","lat":35.70118684,"lon":139.5051351},{"name":"小金井中町三丁目","province":"東京都","city":"小金井市","address":"東京都小金井市本町1丁目13-3","lat":35.69889837,"lon":139.51099305},{"name":"小金井市保健センター前","province":"東京都","city":"小金井市","address":"東京都小金井市貫井北町5丁目18-18","lat":35.70169192,"lon":139.49017242},{"name":"学芸大東門前","province":"東京都","city":"小金井市","address":"東京都小金井市貫井北町2丁目4-16","lat":35.70494728,"lon":139.49679119},{"name":"小金井郵便局前","province":"東京都","city":"小金井市","address":"東京都小金井市本町5丁目37-30","lat":35.70514197,"lon":139.50575434},{"name":"小金井消防署前","province":"東京都","city":"小金井市","address":"東京都小金井市本町6丁目6-1","lat":35.69930923,"lon":139.50345476},{"name":"貫井南町五丁目","province":"東京都","city":"小金井市","address":"東京都小金井市貫井南町4丁目1","lat":35.69376794,"lon":139.49453073},{"name":"小金井第一小学校前第二","province":"東京都","city":"小金井市","address":"東京都小金井市中町1丁目9-21","lat":35.69712911,"lon":139.51062092},{"name":"栗山公園前","province":"東京都","city":"小金井市","address":"東京都小金井市中町2丁目21","lat":35.69846815,"lon":139.52146721},{"name":"公園駐車場入口","province":"東京都","city":"小金井市","address":"東京都小金井市関野町1丁目7","lat":35.71356918,"lon":139.51856958},{"name":"小金井商工会館前","province":"東京都","city":"小金井市","address":"東京都小金井市本町5丁目9","lat":35.70193395,"lon":139.50385184},{"name":"市立南中学校前","province":"東京都","city":"小金井市","address":"東京都小金井市貫井南町1丁目24-1","lat":35.69076836,"lon":139.49776947},{"name":"小金井福祉会館前","province":"東京都","city":"小金井市","address":"東京都小金井市中町4丁目15-14","lat":35.69811781,"lon":139.50769057},{"name":"小金井本町二丁目南","province":"東京都","city":"小金井市","address":"東京都小金井市本町2丁目6-12","lat":35.70363109,"lon":139.50777923},{"name":"小金井本町五丁目","province":"東京都","city":"小金井市","address":"東京都小金井市本町5丁目13-1","lat":35.70211735,"lon":139.5070238},{"name":"農工大通り入口","province":"東京都","city":"小金井市","address":"東京都小金井市本町6丁目14-45","lat":35.7001731,"lon":139.50662947},{"name":"小金井公園西門","province":"東京都","city":"小金井市","address":"東京都小金井市桜町3丁目7","lat":35.71347722,"lon":139.50841486},{"name":"小金井東小学校前","province":"東京都","city":"小金井市","address":"東京都小金井市東町4丁目25-7","lat":35.69766002,"lon":139.5262946},{"name":"武蔵小金井駅北第二","province":"東京都","city":"小金井市","address":"東京都小金井市本町5丁目1","lat":35.70118684,"lon":139.5051351},{"name":"小金井市役所","province":"東京都","city":"小金井市","address":"東京都小金井市本町6丁目2","lat":35.69969535,"lon":139.5055018},{"name":"学芸大北門前","province":"東京都","city":"小金井市","address":"東京都小金井市貫井北町3丁目9-6","lat":35.70835512,"lon":139.49218866},{"name":"栗山公園北","province":"東京都","city":"小金井市","address":"東京都小金井市中町2丁目22-32","lat":35.69972913,"lon":139.52174491},{"name":"武蔵小金井駅南口","province":"東京都","city":"小金井市","address":"東京都小金井市本町1丁目18-10","lat":35.70068419,"lon":139.50759048},{"name":"武蔵小金井駅北口東","province":"東京都","city":"小金井市","address":"東京都小金井市本町5丁目12","lat":35.70177847,"lon":139.5061711},{"name":"前原交番東","province":"東京都","city":"小金井市","address":"東京都小金井市前原町4丁目10-11","lat":35.68921588,"lon":139.50260523},{"name":"小金井市役所第２駐車場","province":"東京都","city":"小金井市","address":"東京都小金井市前原町3丁目41-15","lat":35.69855935,"lon":139.50482412},{"name":"小金井市本庁舎","province":"東京都","city":"小金井市","address":"小金井市本町6-6-3","lat":35.699479,"lon":139.502989},{"name":"小金井警察署","province":"東京都","city":"小金井市","address":"小金井市貫井南町3-21-3","lat":35.69993,"lon":139.4982},{"name":"小金井消防署","province":"東京都","city":"小金井市","address":"小金井市本町6-6-1","lat":35.69931,"lon":139.5035},{"name":"都立小金井公園","province":"東京都","city":"小金井市","address":"小金井市関野町1-2","lat":35.71295,"lon":139.5233},{"name":"都立小金井公園","province":"東京都","city":"小金井市","address":"小金井市関野町1","lat":35.71348,"lon":139.5196},{"name":"小金井市","province":"東京都","city":"小金井市","address":"小金井市本町6-6-3","lat":35.6994789,"lon":139.5029889},{"name":"江戸東京たてもの園","province":"東京都","city":"小金井市","address":"東京都小金井市桜町3丁目7","lat":35.71584,"lon":139.5122},{"name":"江戸東京たてもの園","province":"東京都","city":"小金井市","address":"東京都小金井市桜町3丁目7","lat":35.71645,"lon":139.5112},{"name":"江戸東京たてもの園","province":"東京都","city":"小金井市","address":"東京都小金井市桜町3丁目7","lat":35.71571,"lon":139.5126},{"name":"江戸東京たてもの園","province":"東京都","city":"小金井市","address":"東京都小金井市桜町3丁目7","lat":35.71598,"lon":139.5109},{"name":"江戸東京たてもの園","province":"東京都","city":"小金井市","address":"東京都小金井市関野町2丁目9","lat":35.71625,"lon":139.5152},{"name":"江戸東京たてもの園","province":"東京都","city":"小金井市","address":"東京都小金井市関野町2丁目9","lat":35.71594,"lon":139.5143},{"name":"武蔵野公園","province":"東京都","city":"小金井市","address":"東京都小金井市中町1丁目14-35","lat":35.694001,"lon":139.516957},{"name":"武蔵野公園","province":"東京都","city":"小金井市","address":"東京都小金井市東町5丁目1","lat":35.688519,"lon":139.521411},{"name":"武蔵野公園","province":"東京都","city":"小金井市","address":"東京都小金井市前原町2丁目1","lat":35.690951,"lon":139.514195},{"name":"野川公園","province":"東京都","city":"小金井市","address":"東京都小金井市東町1丁目6","lat":35.688605,"lon":139.523257},{"name":"小金井公園","province":"東京都","city":"小金井市","address":"東京都小金井市関野町2丁目9","lat":35.717129,"lon":139.516807},{"name":"小金井公園","province":"東京都","city":"小金井市","address":"東京都小金井市桜町3丁目7","lat":35.714969,"lon":139.510253},{"name":"小金井公園","province":"東京都","city":"小金井市","address":"東京都小金井市関野町2丁目9","lat":35.71487,"lon":139.515347},{"name":"小金井公園","province":"東京都","city":"小金井市","address":"東京都小金井市桜町3丁目7","lat":35.715494,"lon":139.511692},{"name":"小金井公園","province":"東京都","city":"小金井市","address":"東京都小金井市関野町1丁目13","lat":35.718358,"lon":139.521955},{"name":"小金井公園","province":"東京都","city":"小金井市","address":"東京都小金井市関野町1丁目13","lat":35.71538,"lon":139.524818},{"name":"小金井公園","province":"東京都","city":"小金井市","address":"東京都小金井市関野町1丁目13","lat":35.716721,"lon":139.523653},{"name":"小金井公園","province":"東京都","city":"小金井市","address":"東京都小金井市関野町1丁目10","lat":35.713988,"lon":139.521454},{"name":"小金井公園","province":"東京都","city":"小金井市","address":"東京都小金井市関野町2丁目9","lat":35.714603,"lon":139.517819},{"name":"小金井公園","province":"東京都","city":"小金井市","address":"東京都小金井市関野町1丁目13","lat":35.71521,"lon":139.518577},{"name":"小金井公園","province":"東京都","city":"小金井市","address":"東京都小金井市関野町2丁目9","lat":35.714994,"lon":139.513656},{"name":"多磨霊園","province":"東京都","city":"小金井市","address":"東京都小金井市前原町1丁目1","lat":35.687557,"lon":139.508714},{"name":"多磨霊園","province":"東京都","city":"小金井市","address":"東京都小金井市前原町1丁目1","lat":35.685991,"lon":139.514179},{"name":"小金井消防署緑町出張所","province":"東京都","city":"小金井市","address":"東京都小金井市緑町2丁目2-42","lat":35.705748,"lon":139.521514},{"name":"小金井市上水公園運動施設","province":"東京都","city":"小金井市","address":"東京都小金井市桜町2丁目2","lat":35.70936,"lon":139.505242},{"name":"小金井市役所本庁舎","province":"東京都","city":"小金井市","address":"東京都小金井市本町6丁目6-3","lat":35.699515,"lon":139.502947},{"name":"小金井市役所第二庁舎","province":"東京都","city":"小金井市","address":"東京都小金井市前原町3丁目41-15","lat":35.698665,"lon":139.504844},{"name":"小金井市役所第二庁舎","province":"東京都","city":"小金井市","address":"東京都小金井市前原町3丁目41-15","lat":35.698649,"lon":139.504958},{"name":"小金井市市民会館（萌え木ホール）","province":"東京都","city":"小金井市","address":"東京都小金井市前原町3丁目33-25","lat":35.698912,"lon":139.502421},{"name":"小金井市東小金井駅記念会館（マロンホール）","province":"東京都","city":"小金井市","address":"東京都小金井市東町3丁目7-21","lat":35.700299,"lon":139.529063},{"name":"小金井市前原暫定集会施設","province":"東京都","city":"小金井市","address":"東京都小金井市前原町3丁目33-27","lat":35.698872,"lon":139.502729},{"name":"小金井市婦人会館","province":"東京都","city":"小金井市","address":"東京都小金井市梶野町5丁目10","lat":35.70495,"lon":139.526602},{"name":"小金井市上之原会館","province":"東京都","city":"小金井市","address":"東京都小金井市本町5丁目6-19","lat":35.702512,"lon":139.501918},{"name":"小金井市前原町西之台会館","province":"東京都","city":"小金井市","address":"東京都小金井市前原町3丁目8-1","lat":35.693947,"lon":139.499528},{"name":"小金井市桜町上水会館","province":"東京都","city":"小金井市","address":"東京都小金井市桜町2丁目8-13","lat":35.710884,"lon":139.504951},{"name":"小金井市貫井南町三楽集会所","province":"東京都","city":"小金井市","address":"東京都小金井市貫井南町3丁目6-18","lat":35.69926,"lon":139.495101},{"name":"小金井市東町友愛会館","province":"東京都","city":"小金井市","address":"東京都小金井市東町4丁目10-2","lat":35.694606,"lon":139.52369},{"name":"小金井市中町桜並集会所","province":"東京都","city":"小金井市","address":"東京都小金井市中町3丁目19-12","lat":35.699903,"lon":139.51327},{"name":"小金井市貫井北五集会所","province":"東京都","city":"小金井市","address":"東京都小金井市貫井北町5丁目16","lat":35.702991,"lon":139.488612},{"name":"小金井市中町天神前集会所","province":"東京都","city":"小金井市","address":"東京都小金井市中町1丁目7-7","lat":35.693511,"lon":139.509979},{"name":"小金井市公民館本館","province":"東京都","city":"小金井市","address":"東京都小金井市本町2丁目15-11","lat":35.70548,"lon":139.510496},{"name":"小金井市公民館貫井南分館","province":"東京都","city":"小金井市","address":"東京都小金井市貫井南町4丁目3-23","lat":35.69371,"lon":139.493641},{"name":"小金井市公民館緑分館","province":"東京都","city":"小金井市","address":"東京都小金井市緑町3丁目3-23","lat":35.70956,"lon":139.516334},{"name":"小金井市公民館東分館","province":"東京都","city":"小金井市","address":"東京都小金井市東町1丁目39-1","lat":35.693968,"lon":139.526726},{"name":"小金井市公民館東分館","province":"東京都","city":"小金井市","address":"東京都小金井市東町1丁目39-1","lat":35.693994,"lon":139.526709},{"name":"小金井市貫井北センター","province":"東京都","city":"小金井市","address":"東京都小金井市貫井北町1丁目11-12","lat":35.702436,"lon":139.497696},{"name":"小金井市貫井北センター","province":"東京都","city":"小金井市","address":"東京都小金井市貫井北町1丁目11","lat":35.702255,"lon":139.498017},{"name":"小金井市保健センター","province":"東京都","city":"小金井市","address":"東京都小金井市貫井北町5丁目18-18","lat":35.701751,"lon":139.490179},{"name":"小金井市立図書館","province":"東京都","city":"小金井市","address":"東京都小金井市本町1丁目1-32","lat":35.697725,"lon":139.510762},{"name":"小金井市立図書館","province":"東京都","city":"小金井市","address":"東京都小金井市本町1丁目1","lat":35.697445,"lon":139.510638},{"name":"小金井市立はけの森美術館","province":"東京都","city":"小金井市","address":"東京都小金井市中町1丁目11-3","lat":35.695104,"lon":139.512679},{"name":"小金井市立はけの森美術館","province":"東京都","city":"小金井市","address":"東京都小金井市中町1丁目11-3","lat":35.695071,"lon":139.512823},{"name":"小金井市立はけの森美術館","province":"東京都","city":"小金井市","address":"東京都小金井市中町1丁目11-3","lat":35.69509,"lon":139.512826},{"name":"小金井市文化財センター","province":"東京都","city":"小金井市","address":"東京都小金井市緑町3丁目2-37","lat":35.710116,"lon":139.516909},{"name":"小金井 宮地楽器ホール","province":"東京都","city":"小金井市","address":"東京都小金井市本町6丁目14-45","lat":35.700247,"lon":139.506312},{"name":"小金井 宮地楽器ホール","province":"東京都","city":"小金井市","address":"東京都小金井市本町6丁目14-45","lat":35.700255,"lon":139.506396},{"name":"小金井 宮地楽器ホール","province":"東京都","city":"小金井市","address":"東京都小金井市本町6丁目14-45","lat":35.700108,"lon":139.50605},{"name":"小金井 宮地楽器ホール","province":"東京都","city":"小金井市","address":"東京都小金井市本町6丁目14-45","lat":35.70033,"lon":139.506173},{"name":"小金井 宮地楽器ホール","province":"東京都","city":"小金井市","address":"東京都小金井市本町6丁目14-45","lat":35.700319,"lon":139.506049},{"name":"小金井市栗山公園健康運動センター","province":"東京都","city":"小金井市","address":"東京都小金井市中町2丁目21-1","lat":35.697849,"lon":139.521296},{"name":"小金井市総合体育館","province":"東京都","city":"小金井市","address":"東京都小金井市関野町1丁目13-1","lat":35.714285,"lon":139.519954},{"name":"小金井市野川クリーンセンター","province":"東京都","city":"小金井市","address":"東京都小金井市東町1丁目7-19","lat":35.68737,"lon":139.522544},{"name":"梶野公園","province":"東京都","city":"小金井市","address":"東京都小金井市梶野町5丁目10","lat":35.702683,"lon":139.5268},{"name":"貫井けやき公園","province":"東京都","city":"小金井市","address":"東京都小金井市貫井南町4丁目14","lat":35.695622,"lon":139.4943},{"name":"浴恩館公園","province":"東京都","city":"小金井市","address":"東京都小金井市緑町3丁目2","lat":35.71047,"lon":139.51768},{"name":"滄浪泉園","province":"東京都","city":"小金井市","address":"東京都小金井市貫井南町3丁目2","lat":35.699103,"lon":139.499041},{"name":"環境配慮住宅型研修施設(楽習館)","province":"東京都","city":"小金井市","address":"東京都小金井市貫井南町3丁目2-16","lat":35.699055,"lon":139.498065},{"name":"武蔵小金井駅南口公衆トイレ","province":"東京都","city":"小金井市","address":"東京都小金井市本町6丁目14","lat":35.700353,"lon":139.506988},{"name":"小金井市本町児童館","province":"東京都","city":"小金井市","address":"東京都小金井市本町5丁目4-25","lat":35.702728,"lon":139.500942},{"name":"小金井市東児童館","province":"東京都","city":"小金井市","address":"東京都小金井市東町4丁目25-7","lat":35.697681,"lon":139.526351},{"name":"小金井市緑児童館","province":"東京都","city":"小金井市","address":"東京都小金井市緑町4丁目18-25","lat":35.709388,"lon":139.518143},{"name":"小金井市障害者福祉センター","province":"東京都","city":"小金井市","address":"東京都小金井市緑町4丁目17-10","lat":35.708714,"lon":139.517419},{"name":"小金井市障害者福祉センター","province":"東京都","city":"小金井市","address":"東京都小金井市緑町4丁目17-10","lat":35.708757,"lon":139.517429},{"name":"小金井市障害者福祉センター","province":"東京都","city":"小金井市","address":"東京都小金井市緑町4丁目17-10","lat":35.708699,"lon":139.5174},{"name":"武蔵小金井南第３自転車駐車場","province":"東京都","city":"小金井市","address":"東京都小金井市本町6丁目5-3","lat":35.69924258,"lon":139.50395749},{"name":"武蔵小金井南第７自転車駐車場","province":"東京都","city":"小金井市","address":"東京都小金井市本町6丁目14-45","lat":35.7001731,"lon":139.50662947},{"name":"武蔵小金井北第５自転車駐車場","province":"東京都","city":"小金井市","address":"東京都小金井市本町2丁目1","lat":35.70122579,"lon":139.50750712},{"name":"東小金井駅西側高架下自転車駐車場（Ａ）","province":"東京都","city":"小金井市","address":"東京都小金井市緑町1丁目1","lat":35.70212886,"lon":139.52142262},{"name":"東小金井駅西側高架下自転車駐車場（Ｂ）","province":"東京都","city":"小金井市","address":"東京都小金井市緑町1丁目2","lat":35.70237879,"lon":139.5200505},{"name":"新小金井西第１自転車駐車場","province":"東京都","city":"小金井市","address":"東京都小金井市東町4丁目24","lat":35.69555191,"lon":139.52606416},{"name":"東小金井北第１自転車駐車場","province":"東京都","city":"小金井市","address":"東京都小金井市梶野町5丁目2","lat":35.70192613,"lon":139.52254753},{"name":"東小金井駅前第一駐輪場","province":"東京都","city":"小金井市","address":"東京都小金井市梶野町5丁目1-1","lat":35.70159565,"lon":139.52426962},{"name":"東小金井駅前第二駐輪場","province":"東京都","city":"小金井市","address":"東京都小金井市緑町1丁目2","lat":35.70237879,"lon":139.5200505},{"name":"前原坂上","province":"東京都","city":"小金井市","address":"東京都小金井市前原町3丁目41-24","lat":35.6986316,"lon":139.50591292},{"name":"小金井本町二丁目","province":"東京都","city":"小金井市","address":"東京都小金井市本町4丁目1-38","lat":35.70565307,"lon":139.50749306},{"name":"小金井第一小学校前第一","province":"東京都","city":"小金井市","address":"東京都小金井市中町1丁目9-19","lat":35.6972291,"lon":139.51038483},{"name":"貫井北町学芸大角","province":"東京都","city":"小金井市","address":"東京都小金井市貫井北町2丁目18-6","lat":35.70764141,"lon":139.4961078},{"name":"武蔵小金井駅北口","province":"東京都","city":"小金井市","address":"東京都小金井市本町5丁目1","lat":35.70118684,"lon":139.5051351},{"name":"小金井中町三丁目","province":"東京都","city":"小金井市","address":"東京都小金井市本町1丁目13-3","lat":35.69889837,"lon":139.51099305},{"name":"小金井市保健センター前","province":"東京都","city":"小金井市","address":"東京都小金井市貫井北町5丁目18-18","lat":35.70169192,"lon":139.49017242},{"name":"学芸大東門前","province":"東京都","city":"小金井市","address":"東京都小金井市貫井北町2丁目4-16","lat":35.70494728,"lon":139.49679119},{"name":"小金井郵便局前","province":"東京都","city":"小金井市","address":"東京都小金井市本町5丁目37-30","lat":35.70514197,"lon":139.50575434},{"name":"小金井消防署前","province":"東京都","city":"小金井市","address":"東京都小金井市本町6丁目6-1","lat":35.69930923,"lon":139.50345476},{"name":"貫井南町五丁目","province":"東京都","city":"小金井市","address":"東京都小金井市貫井南町4丁目1","lat":35.69376794,"lon":139.49453073},{"name":"小金井第一小学校前第二","province":"東京都","city":"小金井市","address":"東京都小金井市中町1丁目9-21","lat":35.69712911,"lon":139.51062092},{"name":"栗山公園前","province":"東京都","city":"小金井市","address":"東京都小金井市中町2丁目21","lat":35.69846815,"lon":139.52146721},{"name":"公園駐車場入口","province":"東京都","city":"小金井市","address":"東京都小金井市関野町1丁目7","lat":35.71356918,"lon":139.51856958},{"name":"小金井商工会館前","province":"東京都","city":"小金井市","address":"東京都小金井市本町5丁目9","lat":35.70193395,"lon":139.50385184},{"name":"市立南中学校前","province":"東京都","city":"小金井市","address":"東京都小金井市貫井南町1丁目24-1","lat":35.69076836,"lon":139.49776947},{"name":"小金井福祉会館前","province":"東京都","city":"小金井市","address":"東京都小金井市中町4丁目15-14","lat":35.69811781,"lon":139.50769057},{"name":"小金井本町二丁目南","province":"東京都","city":"小金井市","address":"東京都小金井市本町2丁目6-12","lat":35.70363109,"lon":139.50777923},{"name":"小金井本町五丁目","province":"東京都","city":"小金井市","address":"東京都小金井市本町5丁目13-1","lat":35.70211735,"lon":139.5070238},{"name":"農工大通り入口","province":"東京都","city":"小金井市","address":"東京都小金井市本町6丁目14-45","lat":35.7001731,"lon":139.50662947},{"name":"小金井公園西門","province":"東京都","city":"小金井市","address":"東京都小金井市桜町3丁目7","lat":35.71347722,"lon":139.50841486},{"name":"小金井東小学校前","province":"東京都","city":"小金井市","address":"東京都小金井市東町4丁目25-7","lat":35.69766002,"lon":139.5262946},{"name":"武蔵小金井駅北第二","province":"東京都","city":"小金井市","address":"東京都小金井市本町5丁目1","lat":35.70118684,"lon":139.5051351},{"name":"小金井市役所","province":"東京都","city":"小金井市","address":"東京都小金井市本町6丁目2","lat":35.69969535,"lon":139.5055018},{"name":"学芸大北門前","province":"東京都","city":"小金井市","address":"東京都小金井市貫井北町3丁目9-6","lat":35.70835512,"lon":139.49218866},{"name":"栗山公園北","province":"東京都","city":"小金井市","address":"東京都小金井市中町2丁目22-32","lat":35.69972913,"lon":139.52174491},{"name":"武蔵小金井駅南口","province":"東京都","city":"小金井市","address":"東京都小金井市本町1丁目18-10","lat":35.70068419,"lon":139.50759048},{"name":"武蔵小金井駅北口東","province":"東京都","city":"小金井市","address":"東京都小金井市本町5丁目12","lat":35.70177847,"lon":139.5061711},{"name":"前原交番東","province":"東京都","city":"小金井市","address":"東京都小金井市前原町4丁目10-11","lat":35.68921588,"lon":139.50260523},{"name":"小金井市役所第２駐車場","province":"東京都","city":"小金井市","address":"東京都小金井市前原町3丁目41-15","lat":35.69855935,"lon":139.50482412},{"name":"小金井市本庁舎","province":"東京都","city":"小金井市","address":"小金井市本町6-6-3","lat":35.699479,"lon":139.502989},{"name":"小金井警察署","province":"東京都","city":"小金井市","address":"小金井市貫井南町3-21-3","lat":35.69993,"lon":139.4982},{"name":"小金井消防署","province":"東京都","city":"小金井市","address":"小金井市本町6-6-1","lat":35.69931,"lon":139.5035},{"name":"都立小金井公園","province":"東京都","city":"小金井市","address":"小金井市関野町1-2","lat":35.71295,"lon":139.5233},{"name":"都立小金井公園","province":"東京都","city":"小金井市","address":"小金井市関野町1","lat":35.71348,"lon":139.5196},{"name":"小金井市","province":"東京都","city":"小金井市","address":"小金井市本町6-6-3","lat":35.6994789,"lon":139.5029889},{"name":"江戸東京たてもの園","province":"東京都","city":"小金井市","address":"東京都小金井市桜町3丁目7","lat":35.71584,"lon":139.5122},{"name":"江戸東京たてもの園","province":"東京都","city":"小金井市","address":"東京都小金井市桜町3丁目7","lat":35.71645,"lon":139.5112},{"name":"江戸東京たてもの園","province":"東京都","city":"小金井市","address":"東京都小金井市桜町3丁目7","lat":35.71571,"lon":139.5126},{"name":"江戸東京たてもの園","province":"東京都","city":"小金井市","address":"東京都小金井市桜町3丁目7","lat":35.71598,"lon":139.5109},{"name":"江戸東京たてもの園","province":"東京都","city":"小金井市","address":"東京都小金井市関野町2丁目9","lat":35.71625,"lon":139.5152},{"name":"江戸東京たてもの園","province":"東京都","city":"小金井市","address":"東京都小金井市関野町2丁目9","lat":35.71594,"lon":139.5143},{"name":"武蔵野公園","province":"東京都","city":"小金井市","address":"東京都小金井市中町1丁目14-35","lat":35.694001,"lon":139.516957},{"name":"武蔵野公園","province":"東京都","city":"小金井市","address":"東京都小金井市東町5丁目1","lat":35.688519,"lon":139.521411},{"name":"武蔵野公園","province":"東京都","city":"小金井市","address":"東京都小金井市前原町2丁目1","lat":35.690951,"lon":139.514195},{"name":"野川公園","province":"東京都","city":"小金井市","address":"東京都小金井市東町1丁目6","lat":35.688605,"lon":139.523257},{"name":"小金井公園","province":"東京都","city":"小金井市","address":"東京都小金井市関野町2丁目9","lat":35.717129,"lon":139.516807},{"name":"小金井公園","province":"東京都","city":"小金井市","address":"東京都小金井市桜町3丁目7","lat":35.714969,"lon":139.510253},{"name":"小金井公園","province":"東京都","city":"小金井市","address":"東京都小金井市関野町2丁目9","lat":35.71487,"lon":139.515347},{"name":"小金井公園","province":"東京都","city":"小金井市","address":"東京都小金井市桜町3丁目7","lat":35.715494,"lon":139.511692},{"name":"小金井公園","province":"東京都","city":"小金井市","address":"東京都小金井市関野町1丁目13","lat":35.718358,"lon":139.521955},{"name":"小金井公園","province":"東京都","city":"小金井市","address":"東京都小金井市関野町1丁目13","lat":35.71538,"lon":139.524818},{"name":"小金井公園","province":"東京都","city":"小金井市","address":"東京都小金井市関野町1丁目13","lat":35.716721,"lon":139.523653},{"name":"小金井公園","province":"東京都","city":"小金井市","address":"東京都小金井市関野町1丁目10","lat":35.713988,"lon":139.521454},{"name":"小金井公園","province":"東京都","city":"小金井市","address":"東京都小金井市関野町2丁目9","lat":35.714603,"lon":139.517819},{"name":"小金井公園","province":"東京都","city":"小金井市","address":"東京都小金井市関野町1丁目13","lat":35.71521,"lon":139.518577},{"name":"小金井公園","province":"東京都","city":"小金井市","address":"東京都小金井市関野町2丁目9","lat":35.714994,"lon":139.513656},{"name":"多磨霊園","province":"東京都","city":"小金井市","address":"東京都小金井市前原町1丁目1","lat":35.687557,"lon":139.508714},{"name":"多磨霊園","province":"東京都","city":"小金井市","address":"東京都小金井市前原町1丁目1","lat":35.685991,"lon":139.514179},{"name":"小金井消防署緑町出張所","province":"東京都","city":"小金井市","address":"東京都小金井市緑町2丁目2-42","lat":35.705748,"lon":139.521514},{"name":"小金井市上水公園運動施設","province":"東京都","city":"小金井市","address":"東京都小金井市桜町2丁目2","lat":35.70936,"lon":139.505242},{"name":"小金井市役所本庁舎","province":"東京都","city":"小金井市","address":"東京都小金井市本町6丁目6-3","lat":35.699515,"lon":139.502947},{"name":"小金井市役所第二庁舎","province":"東京都","city":"小金井市","address":"東京都小金井市前原町3丁目41-15","lat":35.698665,"lon":139.504844},{"name":"小金井市役所第二庁舎","province":"東京都","city":"小金井市","address":"東京都小金井市前原町3丁目41-15","lat":35.698649,"lon":139.504958},{"name":"小金井市市民会館（萌え木ホール）","province":"東京都","city":"小金井市","address":"東京都小金井市前原町3丁目33-25","lat":35.698912,"lon":139.502421},{"name":"小金井市東小金井駅記念会館（マロンホール）","province":"東京都","city":"小金井市","address":"東京都小金井市東町3丁目7-21","lat":35.700299,"lon":139.529063},{"name":"小金井市前原暫定集会施設","province":"東京都","city":"小金井市","address":"東京都小金井市前原町3丁目33-27","lat":35.698872,"lon":139.502729},{"name":"小金井市婦人会館","province":"東京都","city":"小金井市","address":"東京都小金井市梶野町5丁目10","lat":35.70495,"lon":139.526602},{"name":"小金井市上之原会館","province":"東京都","city":"小金井市","address":"東京都小金井市本町5丁目6-19","lat":35.702512,"lon":139.501918},{"name":"小金井市前原町西之台会館","province":"東京都","city":"小金井市","address":"東京都小金井市前原町3丁目8-1","lat":35.693947,"lon":139.499528},{"name":"小金井市桜町上水会館","province":"東京都","city":"小金井市","address":"東京都小金井市桜町2丁目8-13","lat":35.710884,"lon":139.504951},{"name":"小金井市貫井南町三楽集会所","province":"東京都","city":"小金井市","address":"東京都小金井市貫井南町3丁目6-18","lat":35.69926,"lon":139.495101},{"name":"小金井市東町友愛会館","province":"東京都","city":"小金井市","address":"東京都小金井市東町4丁目10-2","lat":35.694606,"lon":139.52369},{"name":"小金井市中町桜並集会所","province":"東京都","city":"小金井市","address":"東京都小金井市中町3丁目19-12","lat":35.699903,"lon":139.51327},{"name":"小金井市貫井北五集会所","province":"東京都","city":"小金井市","address":"東京都小金井市貫井北町5丁目16","lat":35.702991,"lon":139.488612},{"name":"小金井市中町天神前集会所","province":"東京都","city":"小金井市","address":"東京都小金井市中町1丁目7-7","lat":35.693511,"lon":139.509979},{"name":"小金井市公民館本館","province":"東京都","city":"小金井市","address":"東京都小金井市本町2丁目15-11","lat":35.70548,"lon":139.510496},{"name":"小金井市公民館貫井南分館","province":"東京都","city":"小金井市","address":"東京都小金井市貫井南町4丁目3-23","lat":35.69371,"lon":139.493641},{"name":"小金井市公民館緑分館","province":"東京都","city":"小金井市","address":"東京都小金井市緑町3丁目3-23","lat":35.70956,"lon":139.516334},{"name":"小金井市公民館東分館","province":"東京都","city":"小金井市","address":"東京都小金井市東町1丁目39-1","lat":35.693968,"lon":139.526726},{"name":"小金井市公民館東分館","province":"東京都","city":"小金井市","address":"東京都小金井市東町1丁目39-1","lat":35.693994,"lon":139.526709},{"name":"小金井市貫井北センター","province":"東京都","city":"小金井市","address":"東京都小金井市貫井北町1丁目11-12","lat":35.702436,"lon":139.497696},{"name":"小金井市貫井北センター","province":"東京都","city":"小金井市","address":"東京都小金井市貫井北町1丁目11","lat":35.702255,"lon":139.498017},{"name":"小金井市保健センター","province":"東京都","city":"小金井市","address":"東京都小金井市貫井北町5丁目18-18","lat":35.701751,"lon":139.490179},{"name":"小金井市立図書館","province":"東京都","city":"小金井市","address":"東京都小金井市本町1丁目1-32","lat":35.697725,"lon":139.510762},{"name":"小金井市立図書館","province":"東京都","city":"小金井市","address":"東京都小金井市本町1丁目1","lat":35.697445,"lon":139.510638},{"name":"小金井市立はけの森美術館","province":"東京都","city":"小金井市","address":"東京都小金井市中町1丁目11-3","lat":35.695104,"lon":139.512679},{"name":"小金井市立はけの森美術館","province":"東京都","city":"小金井市","address":"東京都小金井市中町1丁目11-3","lat":35.695071,"lon":139.512823},{"name":"小金井市立はけの森美術館","province":"東京都","city":"小金井市","address":"東京都小金井市中町1丁目11-3","lat":35.69509,"lon":139.512826},{"name":"小金井市文化財センター","province":"東京都","city":"小金井市","address":"東京都小金井市緑町3丁目2-37","lat":35.710116,"lon":139.516909},{"name":"小金井 宮地楽器ホール","province":"東京都","city":"小金井市","address":"東京都小金井市本町6丁目14-45","lat":35.700247,"lon":139.506312},{"name":"小金井 宮地楽器ホール","province":"東京都","city":"小金井市","address":"東京都小金井市本町6丁目14-45","lat":35.700255,"lon":139.506396},{"name":"小金井 宮地楽器ホール","province":"東京都","city":"小金井市","address":"東京都小金井市本町6丁目14-45","lat":35.700108,"lon":139.50605},{"name":"小金井 宮地楽器ホール","province":"東京都","city":"小金井市","address":"東京都小金井市本町6丁目14-45","lat":35.70033,"lon":139.506173},{"name":"小金井 宮地楽器ホール","province":"東京都","city":"小金井市","address":"東京都小金井市本町6丁目14-45","lat":35.700319,"lon":139.506049},{"name":"小金井市栗山公園健康運動センター","province":"東京都","city":"小金井市","address":"東京都小金井市中町2丁目21-1","lat":35.697849,"lon":139.521296},{"name":"小金井市総合体育館","province":"東京都","city":"小金井市","address":"東京都小金井市関野町1丁目13-1","lat":35.714285,"lon":139.519954},{"name":"小金井市野川クリーンセンター","province":"東京都","city":"小金井市","address":"東京都小金井市東町1丁目7-19","lat":35.68737,"lon":139.522544},{"name":"梶野公園","province":"東京都","city":"小金井市","address":"東京都小金井市梶野町5丁目10","lat":35.702683,"lon":139.5268},{"name":"貫井けやき公園","province":"東京都","city":"小金井市","address":"東京都小金井市貫井南町4丁目14","lat":35.695622,"lon":139.4943},{"name":"浴恩館公園","province":"東京都","city":"小金井市","address":"東京都小金井市緑町3丁目2","lat":35.71047,"lon":139.51768},{"name":"滄浪泉園","province":"東京都","city":"小金井市","address":"東京都小金井市貫井南町3丁目2","lat":35.699103,"lon":139.499041},{"name":"環境配慮住宅型研修施設(楽習館)","province":"東京都","city":"小金井市","address":"東京都小金井市貫井南町3丁目2-16","lat":35.699055,"lon":139.498065},{"name":"武蔵小金井駅南口公衆トイレ","province":"東京都","city":"小金井市","address":"東京都小金井市本町6丁目14","lat":35.700353,"lon":139.506988},{"name":"小金井市本町児童館","province":"東京都","city":"小金井市","address":"東京都小金井市本町5丁目4-25","lat":35.702728,"lon":139.500942},{"name":"小金井市東児童館","province":"東京都","city":"小金井市","address":"東京都小金井市東町4丁目25-7","lat":35.697681,"lon":139.526351},{"name":"小金井市緑児童館","province":"東京都","city":"小金井市","address":"東京都小金井市緑町4丁目18-25","lat":35.709388,"lon":139.518143},{"name":"小金井市障害者福祉センター","province":"東京都","city":"小金井市","address":"東京都小金井市緑町4丁目17-10","lat":35.708714,"lon":139.517419},{"name":"小金井市障害者福祉センター","province":"東京都","city":"小金井市","address":"東京都小金井市緑町4丁目17-10","lat":35.708757,"lon":139.517429},{"name":"小金井市障害者福祉センター","province":"東京都","city":"小金井市","address":"東京都小金井市緑町4丁目17-10","lat":35.708699,"lon":139.5174},{"name":"武蔵小金井南第３自転車駐車場","province":"東京都","city":"小金井市","address":"東京都小金井市本町6丁目5-3","lat":35.69924258,"lon":139.50395749},{"name":"武蔵小金井南第７自転車駐車場","province":"東京都","city":"小金井市","address":"東京都小金井市本町6丁目14-45","lat":35.7001731,"lon":139.50662947},{"name":"武蔵小金井北第５自転車駐車場","province":"東京都","city":"小金井市","address":"東京都小金井市本町2丁目1","lat":35.70122579,"lon":139.50750712},{"name":"東小金井駅西側高架下自転車駐車場（Ａ）","province":"東京都","city":"小金井市","address":"東京都小金井市緑町1丁目1","lat":35.70212886,"lon":139.52142262},{"name":"東小金井駅西側高架下自転車駐車場（Ｂ）","province":"東京都","city":"小金井市","address":"東京都小金井市緑町1丁目2","lat":35.70237879,"lon":139.5200505},{"name":"新小金井西第１自転車駐車場","province":"東京都","city":"小金井市","address":"東京都小金井市東町4丁目24","lat":35.69555191,"lon":139.52606416},{"name":"東小金井北第１自転車駐車場","province":"東京都","city":"小金井市","address":"東京都小金井市梶野町5丁目2","lat":35.70192613,"lon":139.52254753},{"name":"東小金井駅前第一駐輪場","province":"東京都","city":"小金井市","address":"東京都小金井市梶野町5丁目1-1","lat":35.70159565,"lon":139.52426962},{"name":"東小金井駅前第二駐輪場","province":"東京都","city":"小金井市","address":"東京都小金井市緑町1丁目2","lat":35.70237879,"lon":139.5200505},{"name":"前原坂上","province":"東京都","city":"小金井市","address":"東京都小金井市前原町3丁目41-24","lat":35.6986316,"lon":139.50591292},{"name":"小金井本町二丁目","province":"東京都","city":"小金井市","address":"東京都小金井市本町4丁目1-38","lat":35.70565307,"lon":139.50749306},{"name":"小金井第一小学校前第一","province":"東京都","city":"小金井市","address":"東京都小金井市中町1丁目9-19","lat":35.6972291,"lon":139.51038483},{"name":"貫井北町学芸大角","province":"東京都","city":"小金井市","address":"東京都小金井市貫井北町2丁目18-6","lat":35.70764141,"lon":139.4961078},{"name":"武蔵小金井駅北口","province":"東京都","city":"小金井市","address":"東京都小金井市本町5丁目1","lat":35.70118684,"lon":139.5051351},{"name":"小金井中町三丁目","province":"東京都","city":"小金井市","address":"東京都小金井市本町1丁目13-3","lat":35.69889837,"lon":139.51099305},{"name":"小金井市保健センター前","province":"東京都","city":"小金井市","address":"東京都小金井市貫井北町5丁目18-18","lat":35.70169192,"lon":139.49017242},{"name":"学芸大東門前","province":"東京都","city":"小金井市","address":"東京都小金井市貫井北町2丁目4-16","lat":35.70494728,"lon":139.49679119},{"name":"小金井郵便局前","province":"東京都","city":"小金井市","address":"東京都小金井市本町5丁目37-30","lat":35.70514197,"lon":139.50575434},{"name":"小金井消防署前","province":"東京都","city":"小金井市","address":"東京都小金井市本町6丁目6-1","lat":35.69930923,"lon":139.50345476},{"name":"貫井南町五丁目","province":"東京都","city":"小金井市","address":"東京都小金井市貫井南町4丁目1","lat":35.69376794,"lon":139.49453073},{"name":"小金井第一小学校前第二","province":"東京都","city":"小金井市","address":"東京都小金井市中町1丁目9-21","lat":35.69712911,"lon":139.51062092},{"name":"栗山公園前","province":"東京都","city":"小金井市","address":"東京都小金井市中町2丁目21","lat":35.69846815,"lon":139.52146721},{"name":"公園駐車場入口","province":"東京都","city":"小金井市","address":"東京都小金井市関野町1丁目7","lat":35.71356918,"lon":139.51856958},{"name":"小金井商工会館前","province":"東京都","city":"小金井市","address":"東京都小金井市本町5丁目9","lat":35.70193395,"lon":139.50385184},{"name":"市立南中学校前","province":"東京都","city":"小金井市","address":"東京都小金井市貫井南町1丁目24-1","lat":35.69076836,"lon":139.49776947},{"name":"小金井福祉会館前","province":"東京都","city":"小金井市","address":"東京都小金井市中町4丁目15-14","lat":35.69811781,"lon":139.50769057},{"name":"小金井本町二丁目南","province":"東京都","city":"小金井市","address":"東京都小金井市本町2丁目6-12","lat":35.70363109,"lon":139.50777923},{"name":"小金井本町五丁目","province":"東京都","city":"小金井市","address":"東京都小金井市本町5丁目13-1","lat":35.70211735,"lon":139.5070238},{"name":"農工大通り入口","province":"東京都","city":"小金井市","address":"東京都小金井市本町6丁目14-45","lat":35.7001731,"lon":139.50662947},{"name":"小金井公園西門","province":"東京都","city":"小金井市","address":"東京都小金井市桜町3丁目7","lat":35.71347722,"lon":139.50841486},{"name":"小金井東小学校前","province":"東京都","city":"小金井市","address":"東京都小金井市東町4丁目25-7","lat":35.69766002,"lon":139.5262946},{"name":"武蔵小金井駅北第二","province":"東京都","city":"小金井市","address":"東京都小金井市本町5丁目1","lat":35.70118684,"lon":139.5051351},{"name":"小金井市役所","province":"東京都","city":"小金井市","address":"東京都小金井市本町6丁目2","lat":35.69969535,"lon":139.5055018},{"name":"学芸大北門前","province":"東京都","city":"小金井市","address":"東京都小金井市貫井北町3丁目9-6","lat":35.70835512,"lon":139.49218866},{"name":"栗山公園北","province":"東京都","city":"小金井市","address":"東京都小金井市中町2丁目22-32","lat":35.69972913,"lon":139.52174491},{"name":"武蔵小金井駅南口","province":"東京都","city":"小金井市","address":"東京都小金井市本町1丁目18-10","lat":35.70068419,"lon":139.50759048},{"name":"武蔵小金井駅北口東","province":"東京都","city":"小金井市","address":"東京都小金井市本町5丁目12","lat":35.70177847,"lon":139.5061711},{"name":"前原交番東","province":"東京都","city":"小金井市","address":"東京都小金井市前原町4丁目10-11","lat":35.68921588,"lon":139.50260523},{"name":"小金井市役所第２駐車場","province":"東京都","city":"小金井市","address":"東京都小金井市前原町3丁目41-15","lat":35.69855935,"lon":139.50482412},{"name":"小金井警察署","province":"東京都","city":"小金井市","address":"小金井市貫井南町3-21-3","lat":35.69993,"lon":139.4982},{"name":"小金井消防署","province":"東京都","city":"小金井市","address":"小金井市本町6-6-1","lat":35.69931,"lon":139.5035},{"name":"都立小金井公園","province":"東京都","city":"小金井市","address":"小金井市関野町1-2","lat":35.71295,"lon":139.5233},{"name":"都立小金井公園","province":"東京都","city":"小金井市","address":"小金井市関野町1","lat":35.71348,"lon":139.5196},{"name":"小金井市","province":"東京都","city":"小金井市","address":"小金井市本町6-6-3","lat":35.6994789,"lon":139.5029889},{"name":"武蔵小金井南第３自転車駐車場","province":"東京都","city":"小金井市","address":"東京都小金井市本町6丁目5-3","lat":35.69924258,"lon":139.50395749},{"name":"武蔵小金井南第７自転車駐車場","province":"東京都","city":"小金井市","address":"東京都小金井市本町6丁目14-45","lat":35.7001731,"lon":139.50662947},{"name":"武蔵小金井北第５自転車駐車場","province":"東京都","city":"小金井市","address":"東京都小金井市本町2丁目1","lat":35.70122579,"lon":139.50750712},{"name":"東小金井駅西側高架下自転車駐車場（Ａ）","province":"東京都","city":"小金井市","address":"東京都小金井市緑町1丁目1","lat":35.70212886,"lon":139.52142262},{"name":"東小金井駅西側高架下自転車駐車場（Ｂ）","province":"東京都","city":"小金井市","address":"東京都小金井市緑町1丁目2","lat":35.70237879,"lon":139.5200505},{"name":"新小金井西第１自転車駐車場","province":"東京都","city":"小金井市","address":"東京都小金井市東町4丁目24","lat":35.69555191,"lon":139.52606416},{"name":"東小金井北第１自転車駐車場","province":"東京都","city":"小金井市","address":"東京都小金井市梶野町5丁目2","lat":35.70192613,"lon":139.52254753},{"name":"東小金井駅前第一駐輪場","province":"東京都","city":"小金井市","address":"東京都小金井市梶野町5丁目1-1","lat":35.70159565,"lon":139.52426962},{"name":"東小金井駅前第二駐輪場","province":"東京都","city":"小金井市","address":"東京都小金井市緑町1丁目2","lat":35.70237879,"lon":139.5200505},{"name":"前原坂上","province":"東京都","city":"小金井市","address":"東京都小金井市前原町3丁目41-24","lat":35.6986316,"lon":139.50591292},{"name":"小金井本町二丁目","province":"東京都","city":"小金井市","address":"東京都小金井市本町4丁目1-38","lat":35.70565307,"lon":139.50749306},{"name":"小金井第一小学校前第一","province":"東京都","city":"小金井市","address":"東京都小金井市中町1丁目9-19","lat":35.6972291,"lon":139.51038483},{"name":"貫井北町学芸大角","province":"東京都","city":"小金井市","address":"東京都小金井市貫井北町2丁目18-6","lat":35.70764141,"lon":139.4961078},{"name":"武蔵小金井駅北口","province":"東京都","city":"小金井市","address":"東京都小金井市本町5丁目1","lat":35.70118684,"lon":139.5051351},{"name":"小金井中町三丁目","province":"東京都","city":"小金井市","address":"東京都小金井市本町1丁目13-3","lat":35.69889837,"lon":139.51099305},{"name":"小金井市保健センター前","province":"東京都","city":"小金井市","address":"東京都小金井市貫井北町5丁目18-18","lat":35.70169192,"lon":139.49017242},{"name":"学芸大東門前","province":"東京都","city":"小金井市","address":"東京都小金井市貫井北町2丁目4-16","lat":35.70494728,"lon":139.49679119},{"name":"小金井郵便局前","province":"東京都","city":"小金井市","address":"東京都小金井市本町5丁目37-30","lat":35.70514197,"lon":139.50575434},{"name":"小金井消防署前","province":"東京都","city":"小金井市","address":"東京都小金井市本町6丁目6-1","lat":35.69930923,"lon":139.50345476},{"name":"貫井南町五丁目","province":"東京都","city":"小金井市","address":"東京都小金井市貫井南町4丁目1","lat":35.69376794,"lon":139.49453073},{"name":"小金井第一小学校前第二","province":"東京都","city":"小金井市","address":"東京都小金井市中町1丁目9-21","lat":35.69712911,"lon":139.51062092},{"name":"栗山公園前","province":"東京都","city":"小金井市","address":"東京都小金井市中町2丁目21","lat":35.69846815,"lon":139.52146721},{"name":"公園駐車場入口","province":"東京都","city":"小金井市","address":"東京都小金井市関野町1丁目7","lat":35.71356918,"lon":139.51856958},{"name":"小金井商工会館前","province":"東京都","city":"小金井市","address":"東京都小金井市本町5丁目9","lat":35.70193395,"lon":139.50385184},{"name":"市立南中学校前","province":"東京都","city":"小金井市","address":"東京都小金井市貫井南町1丁目24-1","lat":35.69076836,"lon":139.49776947},{"name":"小金井福祉会館前","province":"東京都","city":"小金井市","address":"東京都小金井市中町4丁目15-14","lat":35.69811781,"lon":139.50769057},{"name":"小金井本町二丁目南","province":"東京都","city":"小金井市","address":"東京都小金井市本町2丁目6-12","lat":35.70363109,"lon":139.50777923},{"name":"小金井本町五丁目","province":"東京都","city":"小金井市","address":"東京都小金井市本町5丁目13-1","lat":35.70211735,"lon":139.5070238},{"name":"農工大通り入口","province":"東京都","city":"小金井市","address":"東京都小金井市本町6丁目14-45","lat":35.7001731,"lon":139.50662947},{"name":"小金井公園西門","province":"東京都","city":"小金井市","address":"東京都小金井市桜町3丁目7","lat":35.71347722,"lon":139.50841486},{"name":"小金井東小学校前","province":"東京都","city":"小金井市","address":"東京都小金井市東町4丁目25-7","lat":35.69766002,"lon":139.5262946},{"name":"武蔵小金井駅北第二","province":"東京都","city":"小金井市","address":"東京都小金井市本町5丁目1","lat":35.70118684,"lon":139.5051351},{"name":"小金井市役所","province":"東京都","city":"小金井市","address":"東京都小金井市本町6丁目2","lat":35.69969535,"lon":139.5055018},{"name":"学芸大北門前","province":"東京都","city":"小金井市","address":"東京都小金井市貫井北町3丁目9-6","lat":35.70835512,"lon":139.49218866},{"name":"栗山公園北","province":"東京都","city":"小金井市","address":"東京都小金井市中町2丁目22-32","lat":35.69972913,"lon":139.52174491},{"name":"武蔵小金井駅南口","province":"東京都","city":"小金井市","address":"東京都小金井市本町1丁目18-10","lat":35.70068419,"lon":139.50759048},{"name":"武蔵小金井駅北口東","province":"東京都","city":"小金井市","address":"東京都小金井市本町5丁目12","lat":35.70177847,"lon":139.5061711},{"name":"前原交番東","province":"東京都","city":"小金井市","address":"東京都小金井市前原町4丁目10-11","lat":35.68921588,"lon":139.50260523},{"name":"小金井市役所第２駐車場","province":"東京都","city":"小金井市","address":"東京都小金井市前原町3丁目41-15","lat":35.69855935,"lon":139.50482412},{"name":"小金井警察署","province":"東京都","city":"小金井市","address":"小金井市貫井南町3-21-3","lat":35.69993,"lon":139.4982},{"name":"小金井消防署","province":"東京都","city":"小金井市","address":"小金井市本町6-6-1","lat":35.69931,"lon":139.5035},{"name":"都立小金井公園","province":"東京都","city":"小金井市","address":"小金井市関野町1-2","lat":35.71295,"lon":139.5233},{"name":"都立小金井公園","province":"東京都","city":"小金井市","address":"小金井市関野町1","lat":35.71348,"lon":139.5196},{"name":"小金井市","province":"東京都","city":"小金井市","address":"小金井市本町6-6-3","lat":35.6994789,"lon":139.5029889},{"name":"武蔵小金井南第３自転車駐車場","province":"東京都","city":"小金井市","address":"東京都小金井市本町6丁目5-3","lat":35.69924258,"lon":139.50395749},{"name":"武蔵小金井南第７自転車駐車場","province":"東京都","city":"小金井市","address":"東京都小金井市本町6丁目14-45","lat":35.7001731,"lon":139.50662947},{"name":"武蔵小金井北第５自転車駐車場","province":"東京都","city":"小金井市","address":"東京都小金井市本町2丁目1","lat":35.70122579,"lon":139.50750712},{"name":"東小金井駅西側高架下自転車駐車場（Ａ）","province":"東京都","city":"小金井市","address":"東京都小金井市緑町1丁目1","lat":35.70212886,"lon":139.52142262},{"name":"東小金井駅西側高架下自転車駐車場（Ｂ）","province":"東京都","city":"小金井市","address":"東京都小金井市緑町1丁目2","lat":35.70237879,"lon":139.5200505},{"name":"新小金井西第１自転車駐車場","province":"東京都","city":"小金井市","address":"東京都小金井市東町4丁目24","lat":35.69555191,"lon":139.52606416},{"name":"東小金井北第１自転車駐車場","province":"東京都","city":"小金井市","address":"東京都小金井市梶野町5丁目2","lat":35.70192613,"lon":139.52254753},{"name":"東小金井駅前第一駐輪場","province":"東京都","city":"小金井市","address":"東京都小金井市梶野町5丁目1-1","lat":35.70159565,"lon":139.52426962},{"name":"東小金井駅前第二駐輪場","province":"東京都","city":"小金井市","address":"東京都小金井市緑町1丁目2","lat":35.70237879,"lon":139.5200505},{"name":"小金井市役所第２駐車場","province":"東京都","city":"小金井市","address":"東京都小金井市前原町3丁目41-15","lat":35.69855935,"lon":139.50482412},{"name":"小金井警察署","province":"東京都","city":"小金井市","address":"小金井市貫井南町3-21-3","lat":35.69993,"lon":139.4982},{"name":"小金井消防署","province":"東京都","city":"小金井市","address":"小金井市本町6-6-1","lat":35.69931,"lon":139.5035},{"name":"都立小金井公園","province":"東京都","city":"小金井市","address":"小金井市関野町1-2","lat":35.71295,"lon":139.5233},{"name":"都立小金井公園","province":"東京都","city":"小金井市","address":"小金井市関野町1","lat":35.71348,"lon":139.5196},{"name":"武蔵小金井南第３自転車駐車場","province":"東京都","city":"小金井市","address":"東京都小金井市本町6丁目5-3","lat":35.69924258,"lon":139.50395749},{"name":"武蔵小金井南第７自転車駐車場","province":"東京都","city":"小金井市","address":"東京都小金井市本町6丁目14-45","lat":35.7001731,"lon":139.50662947},{"name":"武蔵小金井北第５自転車駐車場","province":"東京都","city":"小金井市","address":"東京都小金井市本町2丁目1","lat":35.70122579,"lon":139.50750712},{"name":"東小金井駅西側高架下自転車駐車場（Ａ）","province":"東京都","city":"小金井市","address":"東京都小金井市緑町1丁目1","lat":35.70212886,"lon":139.52142262},{"name":"東小金井駅西側高架下自転車駐車場（Ｂ）","province":"東京都","city":"小金井市","address":"東京都小金井市緑町1丁目2","lat":35.70237879,"lon":139.5200505},{"name":"新小金井西第１自転車駐車場","province":"東京都","city":"小金井市","address":"東京都小金井市東町4丁目24","lat":35.69555191,"lon":139.52606416},{"name":"東小金井北第１自転車駐車場","province":"東京都","city":"小金井市","address":"東京都小金井市梶野町5丁目2","lat":35.70192613,"lon":139.52254753},{"name":"東小金井駅前第一駐輪場","province":"東京都","city":"小金井市","address":"東京都小金井市梶野町5丁目1-1","lat":35.70159565,"lon":139.52426962},{"name":"東小金井駅前第二駐輪場","province":"東京都","city":"小金井市","address":"東京都小金井市緑町1丁目2","lat":35.70237879,"lon":139.5200505},{"name":"小金井市役所第２駐車場","province":"東京都","city":"小金井市","address":"東京都小金井市前原町3丁目41-15","lat":35.69855935,"lon":139.50482412},{"name":"小金井警察署","province":"東京都","city":"小金井市","address":"小金井市貫井南町3-21-3","lat":35.69993,"lon":139.4982},{"name":"小金井消防署","province":"東京都","city":"小金井市","address":"小金井市本町6-6-1","lat":35.69931,"lon":139.5035},{"name":"都立小金井公園","province":"東京都","city":"小金井市","address":"小金井市関野町1-2","lat":35.71295,"lon":139.5233},{"name":"都立小金井公園","province":"東京都","city":"小金井市","address":"小金井市関野町1","lat":35.71348,"lon":139.5196},{"name":"武蔵小金井南第３自転車駐車場","province":"東京都","city":"小金井市","address":"東京都小金井市本町6丁目5-3","lat":35.69924258,"lon":139.50395749},{"name":"武蔵小金井南第７自転車駐車場","province":"東京都","city":"小金井市","address":"東京都小金井市本町6丁目14-45","lat":35.7001731,"lon":139.50662947},{"name":"武蔵小金井北第５自転車駐車場","province":"東京都","city":"小金井市","address":"東京都小金井市本町2丁目1","lat":35.70122579,"lon":139.50750712},{"name":"東小金井駅西側高架下自転車駐車場（Ａ）","province":"東京都","city":"小金井市","address":"東京都小金井市緑町1丁目1","lat":35.70212886,"lon":139.52142262},{"name":"東小金井駅西側高架下自転車駐車場（Ｂ）","province":"東京都","city":"小金井市","address":"東京都小金井市緑町1丁目2","lat":35.70237879,"lon":139.5200505},{"name":"新小金井西第１自転車駐車場","province":"東京都","city":"小金井市","address":"東京都小金井市東町4丁目24","lat":35.69555191,"lon":139.52606416},{"name":"東小金井北第１自転車駐車場","province":"東京都","city":"小金井市","address":"東京都小金井市梶野町5丁目2","lat":35.70192613,"lon":139.52254753},{"name":"東小金井駅前第一駐輪場","province":"東京都","city":"小金井市","address":"東京都小金井市梶野町5丁目1-1","lat":35.70159565,"lon":139.52426962},{"name":"東小金井駅前第二駐輪場","province":"東京都","city":"小金井市","address":"東京都小金井市緑町1丁目2","lat":35.70237879,"lon":139.5200505},{"name":"小金井市役所第２駐車場","province":"東京都","city":"小金井市","address":"東京都小金井市前原町3丁目41-15","lat":35.69855935,"lon":139.50482412},{"name":"小金井警察署","province":"東京都","city":"小金井市","address":"小金井市貫井南町3-21-3","lat":35.69993,"lon":139.4982},{"name":"小金井消防署","province":"東京都","city":"小金井市","address":"小金井市本町6-6-1","lat":35.69931,"lon":139.5035},{"name":"都立小金井公園","province":"東京都","city":"小金井市","address":"小金井市関野町1-2","lat":35.71295,"lon":139.5233},{"name":"都立小金井公園","province":"東京都","city":"小金井市","address":"小金井市関野町1","lat":35.71348,"lon":139.5196},{"name":"武蔵小金井南第３自転車駐車場","province":"東京都","city":"小金井市","address":"東京都小金井市本町6丁目5-3","lat":35.69924258,"lon":139.50395749},{"name":"武蔵小金井南第７自転車駐車場","province":"東京都","city":"小金井市","address":"東京都小金井市本町6丁目14-45","lat":35.7001731,"lon":139.50662947},{"name":"武蔵小金井北第５自転車駐車場","province":"東京都","city":"小金井市","address":"東京都小金井市本町2丁目1","lat":35.70122579,"lon":139.50750712},{"name":"東小金井駅西側高架下自転車駐車場（Ａ）","province":"東京都","city":"小金井市","address":"東京都小金井市緑町1丁目1","lat":35.70212886,"lon":139.52142262},{"name":"東小金井駅西側高架下自転車駐車場（Ｂ）","province":"東京都","city":"小金井市","address":"東京都小金井市緑町1丁目2","lat":35.70237879,"lon":139.5200505},{"name":"新小金井西第１自転車駐車場","province":"東京都","city":"小金井市","address":"東京都小金井市東町4丁目24","lat":35.69555191,"lon":139.52606416},{"name":"東小金井北第１自転車駐車場","province":"東京都","city":"小金井市","address":"東京都小金井市梶野町5丁目2","lat":35.70192613,"lon":139.52254753},{"name":"東小金井駅前第一駐輪場","province":"東京都","city":"小金井市","address":"東京都小金井市梶野町5丁目1-1","lat":35.70159565,"lon":139.52426962},{"name":"東小金井駅前第二駐輪場","province":"東京都","city":"小金井市","address":"東京都小金井市緑町1丁目2","lat":35.70237879,"lon":139.5200505},{"name":"小金井市役所第２駐車場","province":"東京都","city":"小金井市","address":"東京都小金井市前原町3丁目41-15","lat":35.69855935,"lon":139.50482412},{"name":"小金井警察署","province":"東京都","city":"小金井市","address":"小金井市貫井南町3-21-3","lat":35.69993,"lon":139.4982},{"name":"小金井消防署","province":"東京都","city":"小金井市","address":"小金井市本町6-6-1","lat":35.69931,"lon":139.5035},{"name":"都立小金井公園","province":"東京都","city":"小金井市","address":"小金井市関野町1-2","lat":35.71295,"lon":139.5233},{"name":"都立小金井公園","province":"東京都","city":"小金井市","address":"小金井市関野町1","lat":35.71348,"lon":139.5196},{"name":"武蔵小金井南第３自転車駐車場","province":"東京都","city":"小金井市","address":"東京都小金井市本町6丁目5-3","lat":35.69924258,"lon":139.50395749},{"name":"武蔵小金井南第７自転車駐車場","province":"東京都","city":"小金井市","address":"東京都小金井市本町6丁目14-45","lat":35.7001731,"lon":139.50662947},{"name":"武蔵小金井北第５自転車駐車場","province":"東京都","city":"小金井市","address":"東京都小金井市本町2丁目1","lat":35.70122579,"lon":139.50750712},{"name":"東小金井駅西側高架下自転車駐車場（Ａ）","province":"東京都","city":"小金井市","address":"東京都小金井市緑町1丁目1","lat":35.70212886,"lon":139.52142262},{"name":"東小金井駅西側高架下自転車駐車場（Ｂ）","province":"東京都","city":"小金井市","address":"東京都小金井市緑町1丁目2","lat":35.70237879,"lon":139.5200505},{"name":"新小金井西第１自転車駐車場","province":"東京都","city":"小金井市","address":"東京都小金井市東町4丁目24","lat":35.69555191,"lon":139.52606416},{"name":"東小金井北第１自転車駐車場","province":"東京都","city":"小金井市","address":"東京都小金井市梶野町5丁目2","lat":35.70192613,"lon":139.52254753},{"name":"東小金井駅前第一駐輪場","province":"東京都","city":"小金井市","address":"東京都小金井市梶野町5丁目1-1","lat":35.70159565,"lon":139.52426962},{"name":"東小金井駅前第二駐輪場","province":"東京都","city":"小金井市","address":"東京都小金井市緑町1丁目2","lat":35.70237879,"lon":139.5200505},{"name":"小金井市役所第２駐車場","province":"東京都","city":"小金井市","address":"東京都小金井市前原町3丁目41-15","lat":35.69855935,"lon":139.50482412},{"name":"小金井警察署","province":"東京都","city":"小金井市","address":"小金井市貫井南町3-21-3","lat":35.69993,"lon":139.4982},{"name":"小金井消防署","province":"東京都","city":"小金井市","address":"小金井市本町6-6-1","lat":35.69931,"lon":139.5035},{"name":"都立小金井公園","province":"東京都","city":"小金井市","address":"小金井市関野町1-2","lat":35.71295,"lon":139.5233},{"name":"都立小金井公園","province":"東京都","city":"小金井市","address":"小金井市関野町1","lat":35.71348,"lon":139.5196},{"name":"武蔵小金井南第３自転車駐車場","province":"東京都","city":"小金井市","address":"東京都小金井市本町6丁目5-3","lat":35.69924258,"lon":139.50395749},{"name":"武蔵小金井南第７自転車駐車場","province":"東京都","city":"小金井市","address":"東京都小金井市本町6丁目14-45","lat":35.7001731,"lon":139.50662947},{"name":"武蔵小金井北第５自転車駐車場","province":"東京都","city":"小金井市","address":"東京都小金井市本町2丁目1","lat":35.70122579,"lon":139.50750712},{"name":"東小金井駅西側高架下自転車駐車場（Ａ）","province":"東京都","city":"小金井市","address":"東京都小金井市緑町1丁目1","lat":35.70212886,"lon":139.52142262},{"name":"東小金井駅西側高架下自転車駐車場（Ｂ）","province":"東京都","city":"小金井市","address":"東京都小金井市緑町1丁目2","lat":35.70237879,"lon":139.5200505},{"name":"新小金井西第１自転車駐車場","province":"東京都","city":"小金井市","address":"東京都小金井市東町4丁目24","lat":35.69555191,"lon":139.52606416},{"name":"東小金井北第１自転車駐車場","province":"東京都","city":"小金井市","address":"東京都小金井市梶野町5丁目2","lat":35.70192613,"lon":139.52254753},{"name":"東小金井駅前第一駐輪場","province":"東京都","city":"小金井市","address":"東京都小金井市梶野町5丁目1-1","lat":35.70159565,"lon":139.52426962},{"name":"東小金井駅前第二駐輪場","province":"東京都","city":"小金井市","address":"東京都小金井市緑町1丁目2","lat":35.70237879,"lon":139.5200505},{"name":"小金井市役所第２駐車場","province":"東京都","city":"小金井市","address":"東京都小金井市前原町3丁目41-15","lat":35.69855935,"lon":139.50482412},{"name":"小金井警察署","province":"東京都","city":"小金井市","address":"小金井市貫井南町3-21-3","lat":35.69993,"lon":139.4982},{"name":"小金井消防署","province":"東京都","city":"小金井市","address":"小金井市本町6-6-1","lat":35.69931,"lon":139.5035},{"name":"都立小金井公園","province":"東京都","city":"小金井市","address":"小金井市関野町1-2","lat":35.71295,"lon":139.5233},{"name":"都立小金井公園","province":"東京都","city":"小金井市","address":"小金井市関野町1","lat":35.71348,"lon":139.5196},{"name":"武蔵小金井南第３自転車駐車場","province":"東京都","city":"小金井市","address":"東京都小金井市本町6丁目5-3","lat":35.69924258,"lon":139.50395749},{"name":"武蔵小金井南第７自転車駐車場","province":"東京都","city":"小金井市","address":"東京都小金井市本町6丁目14-45","lat":35.7001731,"lon":139.50662947},{"name":"武蔵小金井北第５自転車駐車場","province":"東京都","city":"小金井市","address":"東京都小金井市本町2丁目1","lat":35.70122579,"lon":139.50750712},{"name":"東小金井駅西側高架下自転車駐車場（Ａ）","province":"東京都","city":"小金井市","address":"東京都小金井市緑町1丁目1","lat":35.70212886,"lon":139.52142262},{"name":"東小金井駅西側高架下自転車駐車場（Ｂ）","province":"東京都","city":"小金井市","address":"東京都小金井市緑町1丁目2","lat":35.70237879,"lon":139.5200505},{"name":"新小金井西第１自転車駐車場","province":"東京都","city":"小金井市","address":"東京都小金井市東町4丁目24","lat":35.69555191,"lon":139.52606416},{"name":"東小金井北第１自転車駐車場","province":"東京都","city":"小金井市","address":"東京都小金井市梶野町5丁目2","lat":35.70192613,"lon":139.52254753},{"name":"東小金井駅前第一駐輪場","province":"東京都","city":"小金井市","address":"東京都小金井市梶野町5丁目1-1","lat":35.70159565,"lon":139.52426962},{"name":"東小金井駅前第二駐輪場","province":"東京都","city":"小金井市","address":"東京都小金井市緑町1丁目2","lat":35.70237879,"lon":139.5200505},{"name":"小金井市役所第２駐車場","province":"東京都","city":"小金井市","address":"東京都小金井市前原町3丁目41-15","lat":35.69855935,"lon":139.50482412},{"name":"小金井警察署","province":"東京都","city":"小金井市","address":"小金井市貫井南町3-21-3","lat":35.69993,"lon":139.4982},{"name":"小金井消防署","province":"東京都","city":"小金井市","address":"小金井市本町6-6-1","lat":35.69931,"lon":139.5035},{"name":"都立小金井公園","province":"東京都","city":"小金井市","address":"小金井市関野町1-2","lat":35.71295,"lon":139.5233},{"name":"都立小金井公園","province":"東京都","city":"小金井市","address":"小金井市関野町1","lat":35.71348,"lon":139.5196},{"name":"武蔵小金井南第３自転車駐車場","province":"東京都","city":"小金井市","address":"東京都小金井市本町6丁目5-3","lat":35.69924258,"lon":139.50395749},{"name":"武蔵小金井南第７自転車駐車場","province":"東京都","city":"小金井市","address":"東京都小金井市本町6丁目14-45","lat":35.7001731,"lon":139.50662947},{"name":"武蔵小金井北第５自転車駐車場","province":"東京都","city":"小金井市","address":"東京都小金井市本町2丁目1","lat":35.70122579,"lon":139.50750712},{"name":"東小金井駅西側高架下自転車駐車場（Ａ）","province":"東京都","city":"小金井市","address":"東京都小金井市緑町1丁目1","lat":35.70212886,"lon":139.52142262},{"name":"東小金井駅西側高架下自転車駐車場（Ｂ）","province":"東京都","city":"小金井市","address":"東京都小金井市緑町1丁目2","lat":35.70237879,"lon":139.5200505},{"name":"新小金井西第１自転車駐車場","province":"東京都","city":"小金井市","address":"東京都小金井市東町4丁目24","lat":35.69555191,"lon":139.52606416},{"name":"東小金井北第１自転車駐車場","province":"東京都","city":"小金井市","address":"東京都小金井市梶野町5丁目2","lat":35.70192613,"lon":139.52254753},{"name":"東小金井駅前第一駐輪場","province":"東京都","city":"小金井市","address":"東京都小金井市梶野町5丁目1-1","lat":35.70159565,"lon":139.52426962},{"name":"東小金井駅前第二駐輪場","province":"東京都","city":"小金井市","address":"東京都小金井市緑町1丁目2","lat":35.70237879,"lon":139.5200505},{"name":"小金井市役所第２駐車場","province":"東京都","city":"小金井市","address":"東京都小金井市前原町3丁目41-15","lat":35.69855935,"lon":139.50482412},{"name":"小金井警察署","province":"東京都","city":"小金井市","address":"小金井市貫井南町3-21-3","lat":35.69993,"lon":139.4982},{"name":"小金井消防署","province":"東京都","city":"小金井市","address":"小金井市本町6-6-1","lat":35.69931,"lon":139.5035},{"name":"都立小金井公園","province":"東京都","city":"小金井市","address":"小金井市関野町1-2","lat":35.71295,"lon":139.5233},{"name":"都立小金井公園","province":"東京都","city":"小金井市","address":"小金井市関野町1","lat":35.71348,"lon":139.5196},{"name":"武蔵小金井南第３自転車駐車場","province":"東京都","city":"小金井市","address":"東京都小金井市本町6丁目5-3","lat":35.69924258,"lon":139.50395749},{"name":"武蔵小金井南第７自転車駐車場","province":"東京都","city":"小金井市","address":"東京都小金井市本町6丁目14-45","lat":35.7001731,"lon":139.50662947},{"name":"武蔵小金井北第５自転車駐車場","province":"東京都","city":"小金井市","address":"東京都小金井市本町2丁目1","lat":35.70122579,"lon":139.50750712},{"name":"東小金井駅西側高架下自転車駐車場（Ａ）","province":"東京都","city":"小金井市","address":"東京都小金井市緑町1丁目1","lat":35.70212886,"lon":139.52142262},{"name":"東小金井駅西側高架下自転車駐車場（Ｂ）","province":"東京都","city":"小金井市","address":"東京都小金井市緑町1丁目2","lat":35.70237879,"lon":139.5200505},{"name":"新小金井西第１自転車駐車場","province":"東京都","city":"小金井市","address":"東京都小金井市東町4丁目24","lat":35.69555191,"lon":139.52606416},{"name":"東小金井北第１自転車駐車場","province":"東京都","city":"小金井市","address":"東京都小金井市梶野町5丁目2","lat":35.70192613,"lon":139.52254753},{"name":"東小金井駅前第一駐輪場","province":"東京都","city":"小金井市","address":"東京都小金井市梶野町5丁目1-1","lat":35.70159565,"lon":139.52426962},{"name":"東小金井駅前第二駐輪場","province":"東京都","city":"小金井市","address":"東京都小金井市緑町1丁目2","lat":35.70237879,"lon":139.5200505},{"name":"小金井市役所第２駐車場","province":"東京都","city":"小金井市","address":"東京都小金井市前原町3丁目41-15","lat":35.69855935,"lon":139.50482412},{"name":"小金井警察署","province":"東京都","city":"小金井市","address":"小金井市貫井南町3-21-3","lat":35.69993,"lon":139.4982},{"name":"小金井消防署","province":"東京都","city":"小金井市","address":"小金井市本町6-6-1","lat":35.69931,"lon":139.5035},{"name":"都立小金井公園","province":"東京都","city":"小金井市","address":"小金井市関野町1-2","lat":35.71295,"lon":139.5233},{"name":"都立小金井公園","province":"東京都","city":"小金井市","address":"小金井市関野町1","lat":35.71348,"lon":139.5196},{"name":"武蔵小金井南第３自転車駐車場","province":"東京都","city":"小金井市","address":"東京都小金井市本町6丁目5-3","lat":35.69924258,"lon":139.50395749},{"name":"武蔵小金井南第７自転車駐車場","province":"東京都","city":"小金井市","address":"東京都小金井市本町6丁目14-45","lat":35.7001731,"lon":139.50662947},{"name":"武蔵小金井北第５自転車駐車場","province":"東京都","city":"小金井市","address":"東京都小金井市本町2丁目1","lat":35.70122579,"lon":139.50750712},{"name":"東小金井駅西側高架下自転車駐車場（Ａ）","province":"東京都","city":"小金井市","address":"東京都小金井市緑町1丁目1","lat":35.70212886,"lon":139.52142262},{"name":"東小金井駅西側高架下自転車駐車場（Ｂ）","province":"東京都","city":"小金井市","address":"東京都小金井市緑町1丁目2","lat":35.70237879,"lon":139.5200505},{"name":"新小金井西第１自転車駐車場","province":"東京都","city":"小金井市","address":"東京都小金井市東町4丁目24","lat":35.69555191,"lon":139.52606416},{"name":"東小金井北第１自転車駐車場","province":"東京都","city":"小金井市","address":"東京都小金井市梶野町5丁目2","lat":35.70192613,"lon":139.52254753},{"name":"東小金井駅前第一駐輪場","province":"東京都","city":"小金井市","address":"東京都小金井市梶野町5丁目1-1","lat":35.70159565,"lon":139.52426962},{"name":"東小金井駅前第二駐輪場","province":"東京都","city":"小金井市","address":"東京都小金井市緑町1丁目2","lat":35.70237879,"lon":139.5200505},{"name":"小金井市役所第２駐車場","province":"東京都","city":"小金井市","address":"東京都小金井市前原町3丁目41-15","lat":35.69855935,"lon":139.50482412},{"name":"小金井警察署","province":"東京都","city":"小金井市","address":"小金井市貫井南町3-21-3","lat":35.69993,"lon":139.4982},{"name":"小金井消防署","province":"東京都","city":"小金井市","address":"小金井市本町6-6-1","lat":35.69931,"lon":139.5035},{"name":"都立小金井公園","province":"東京都","city":"小金井市","address":"小金井市関野町1-2","lat":35.71295,"lon":139.5233},{"name":"都立小金井公園","province":"東京都","city":"小金井市","address":"小金井市関野町1","lat":35.71348,"lon":139.5196},{"name":"武蔵小金井南第３自転車駐車場","province":"東京都","city":"小金井市","address":"東京都小金井市本町6丁目5-3","lat":35.69924258,"lon":139.50395749},{"name":"武蔵小金井南第７自転車駐車場","province":"東京都","city":"小金井市","address":"東京都小金井市本町6丁目14-45","lat":35.7001731,"lon":139.50662947},{"name":"武蔵小金井北第５自転車駐車場","province":"東京都","city":"小金井市","address":"東京都小金井市本町2丁目1","lat":35.70122579,"lon":139.50750712},{"name":"東小金井駅西側高架下自転車駐車場（Ａ）","province":"東京都","city":"小金井市","address":"東京都小金井市緑町1丁目1","lat":35.70212886,"lon":139.52142262},{"name":"東小金井駅西側高架下自転車駐車場（Ｂ）","province":"東京都","city":"小金井市","address":"東京都小金井市緑町1丁目2","lat":35.70237879,"lon":139.5200505},{"name":"新小金井西第１自転車駐車場","province":"東京都","city":"小金井市","address":"東京都小金井市東町4丁目24","lat":35.69555191,"lon":139.52606416},{"name":"東小金井北第１自転車駐車場","province":"東京都","city":"小金井市","address":"東京都小金井市梶野町5丁目2","lat":35.70192613,"lon":139.52254753},{"name":"東小金井駅前第一駐輪場","province":"東京都","city":"小金井市","address":"東京都小金井市梶野町5丁目1-1","lat":35.70159565,"lon":139.52426962},{"name":"東小金井駅前第二駐輪場","province":"東京都","city":"小金井市","address":"東京都小金井市緑町1丁目2","lat":35.70237879,"lon":139.5200505},{"name":"小金井市役所第２駐車場","province":"東京都","city":"小金井市","address":"東京都小金井市前原町3丁目41-15","lat":35.69855935,"lon":139.50482412},{"name":"小金井警察署","province":"東京都","city":"小金井市","address":"小金井市貫井南町3-21-3","lat":35.69993,"lon":139.4982},{"name":"小金井消防署","province":"東京都","city":"小金井市","address":"小金井市本町6-6-1","lat":35.69931,"lon":139.5035},{"name":"都立小金井公園","province":"東京都","city":"小金井市","address":"小金井市関野町1-2","lat":35.71295,"lon":139.5233},{"name":"都立小金井公園","province":"東京都","city":"小金井市","address":"小金井市関野町1","lat":35.71348,"lon":139.5196},{"name":"武蔵小金井南第３自転車駐車場","province":"東京都","city":"小金井市","address":"東京都小金井市本町6丁目5-3","lat":35.69924258,"lon":139.50395749},{"name":"武蔵小金井南第７自転車駐車場","province":"東京都","city":"小金井市","address":"東京都小金井市本町6丁目14-45","lat":35.7001731,"lon":139.50662947},{"name":"武蔵小金井北第５自転車駐車場","province":"東京都","city":"小金井市","address":"東京都小金井市本町2丁目1","lat":35.70122579,"lon":139.50750712},{"name":"東小金井駅西側高架下自転車駐車場（Ａ）","province":"東京都","city":"小金井市","address":"東京都小金井市緑町1丁目1","lat":35.70212886,"lon":139.52142262},{"name":"東小金井駅西側高架下自転車駐車場（Ｂ）","province":"東京都","city":"小金井市","address":"東京都小金井市緑町1丁目2","lat":35.70237879,"lon":139.5200505},{"name":"新小金井西第１自転車駐車場","province":"東京都","city":"小金井市","address":"東京都小金井市東町4丁目24","lat":35.69555191,"lon":139.52606416},{"name":"東小金井北第１自転車駐車場","province":"東京都","city":"小金井市","address":"東京都小金井市梶野町5丁目2","lat":35.70192613,"lon":139.52254753},{"name":"東小金井駅前第一駐輪場","province":"東京都","city":"小金井市","address":"東京都小金井市梶野町5丁目1-1","lat":35.70159565,"lon":139.52426962},{"name":"東小金井駅前第二駐輪場","province":"東京都","city":"小金井市","address":"東京都小金井市緑町1丁目2","lat":35.70237879,"lon":139.5200505},{"name":"小金井市役所第２駐車場","province":"東京都","city":"小金井市","address":"東京都小金井市前原町3丁目41-15","lat":35.69855935,"lon":139.50482412},{"name":"小金井警察署","province":"東京都","city":"小金井市","address":"小金井市貫井南町3-21-3","lat":35.69993,"lon":139.4982},{"name":"小金井消防署","province":"東京都","city":"小金井市","address":"小金井市本町6-6-1","lat":35.69931,"lon":139.5035},{"name":"都立小金井公園","province":"東京都","city":"小金井市","address":"小金井市関野町1-2","lat":35.71295,"lon":139.5233},{"name":"都立小金井公園","province":"東京都","city":"小金井市","address":"小金井市関野町1","lat":35.71348,"lon":139.5196},{"name":"武蔵小金井南第３自転車駐車場","province":"東京都","city":"小金井市","address":"東京都小金井市本町6丁目5-3","lat":35.69924258,"lon":139.50395749},{"name":"武蔵小金井南第７自転車駐車場","province":"東京都","city":"小金井市","address":"東京都小金井市本町6丁目14-45","lat":35.7001731,"lon":139.50662947},{"name":"武蔵小金井北第５自転車駐車場","province":"東京都","city":"小金井市","address":"東京都小金井市本町2丁目1","lat":35.70122579,"lon":139.50750712},{"name":"東小金井駅西側高架下自転車駐車場（Ａ）","province":"東京都","city":"小金井市","address":"東京都小金井市緑町1丁目1","lat":35.70212886,"lon":139.52142262},{"name":"東小金井駅西側高架下自転車駐車場（Ｂ）","province":"東京都","city":"小金井市","address":"東京都小金井市緑町1丁目2","lat":35.70237879,"lon":139.5200505},{"name":"新小金井西第１自転車駐車場","province":"東京都","city":"小金井市","address":"東京都小金井市東町4丁目24","lat":35.69555191,"lon":139.52606416},{"name":"東小金井北第１自転車駐車場","province":"東京都","city":"小金井市","address":"東京都小金井市梶野町5丁目2","lat":35.70192613,"lon":139.52254753},{"name":"東小金井駅前第一駐輪場","province":"東京都","city":"小金井市","address":"東京都小金井市梶野町5丁目1-1","lat":35.70159565,"lon":139.52426962},{"name":"東小金井駅前第二駐輪場","province":"東京都","city":"小金井市","address":"東京都小金井市緑町1丁目2","lat":35.70237879,"lon":139.5200505},{"name":"小金井市役所第２駐車場","province":"東京都","city":"小金井市","address":"東京都小金井市前原町3丁目41-15","lat":35.69855935,"lon":139.50482412},{"name":"小金井警察署","province":"東京都","city":"小金井市","address":"小金井市貫井南町3-21-3","lat":35.69993,"lon":139.4982},{"name":"小金井消防署","province":"東京都","city":"小金井市","address":"小金井市本町6-6-1","lat":35.69931,"lon":139.5035},{"name":"都立小金井公園","province":"東京都","city":"小金井市","address":"小金井市関野町1-2","lat":35.71295,"lon":139.5233},{"name":"都立小金井公園","province":"東京都","city":"小金井市","address":"小金井市関野町1","lat":35.71348,"lon":139.5196},{"name":"武蔵小金井南第３自転車駐車場","province":"東京都","city":"小金井市","address":"東京都小金井市本町6丁目5-3","lat":35.69924258,"lon":139.50395749},{"name":"武蔵小金井南第７自転車駐車場","province":"東京都","city":"小金井市","address":"東京都小金井市本町6丁目14-45","lat":35.7001731,"lon":139.50662947},{"name":"武蔵小金井北第５自転車駐車場","province":"東京都","city":"小金井市","address":"東京都小金井市本町2丁目1","lat":35.70122579,"lon":139.50750712},{"name":"東小金井駅西側高架下自転車駐車場（Ａ）","province":"東京都","city":"小金井市","address":"東京都小金井市緑町1丁目1","lat":35.70212886,"lon":139.52142262},{"name":"東小金井駅西側高架下自転車駐車場（Ｂ）","province":"東京都","city":"小金井市","address":"東京都小金井市緑町1丁目2","lat":35.70237879,"lon":139.5200505},{"name":"新小金井西第１自転車駐車場","province":"東京都","city":"小金井市","address":"東京都小金井市東町4丁目24","lat":35.69555191,"lon":139.52606416},{"name":"東小金井北第１自転車駐車場","province":"東京都","city":"小金井市","address":"東京都小金井市梶野町5丁目2","lat":35.70192613,"lon":139.52254753},{"name":"東小金井駅前第一駐輪場","province":"東京都","city":"小金井市","address":"東京都小金井市梶野町5丁目1-1","lat":35.70159565,"lon":139.52426962},{"name":"東小金井駅前第二駐輪場","province":"東京都","city":"小金井市","address":"東京都小金井市緑町1丁目2","lat":35.70237879,"lon":139.5200505},{"name":"小金井市役所第２駐車場","province":"東京都","city":"小金井市","address":"東京都小金井市前原町3丁目41-15","lat":35.69855935,"lon":139.50482412},{"name":"小金井警察署","province":"東京都","city":"小金井市","address":"小金井市貫井南町3-21-3","lat":35.69993,"lon":139.4982},{"name":"小金井消防署","province":"東京都","city":"小金井市","address":"小金井市本町6-6-1","lat":35.69931,"lon":139.5035},{"name":"都立小金井公園","province":"東京都","city":"小金井市","address":"小金井市関野町1-2","lat":35.71295,"lon":139.5233},{"name":"都立小金井公園","province":"東京都","city":"小金井市","address":"小金井市関野町1","lat":35.71348,"lon":139.5196},{"name":"武蔵小金井南第３自転車駐車場","province":"東京都","city":"小金井市","address":"東京都小金井市本町6丁目5-3","lat":35.69924258,"lon":139.50395749},{"name":"武蔵小金井南第７自転車駐車場","province":"東京都","city":"小金井市","address":"東京都小金井市本町6丁目14-45","lat":35.7001731,"lon":139.50662947},{"name":"武蔵小金井北第５自転車駐車場","province":"東京都","city":"小金井市","address":"東京都小金井市本町2丁目1","lat":35.70122579,"lon":139.50750712},{"name":"東小金井駅西側高架下自転車駐車場（Ａ）","province":"東京都","city":"小金井市","address":"東京都小金井市緑町1丁目1","lat":35.70212886,"lon":139.52142262},{"name":"東小金井駅西側高架下自転車駐車場（Ｂ）","province":"東京都","city":"小金井市","address":"東京都小金井市緑町1丁目2","lat":35.70237879,"lon":139.5200505},{"name":"新小金井西第１自転車駐車場","province":"東京都","city":"小金井市","address":"東京都小金井市東町4丁目24","lat":35.69555191,"lon":139.52606416},{"name":"東小金井北第１自転車駐車場","province":"東京都","city":"小金井市","address":"東京都小金井市梶野町5丁目2","lat":35.70192613,"lon":139.52254753},{"name":"東小金井駅前第一駐輪場","province":"東京都","city":"小金井市","address":"東京都小金井市梶野町5丁目1-1","lat":35.70159565,"lon":139.52426962},{"name":"東小金井駅前第二駐輪場","province":"東京都","city":"小金井市","address":"東京都小金井市緑町1丁目2","lat":35.70237879,"lon":139.5200505},{"name":"小金井市役所第２駐車場","province":"東京都","city":"小金井市","address":"東京都小金井市前原町3丁目41-15","lat":35.69855935,"lon":139.50482412},{"name":"小金井警察署","province":"東京都","city":"小金井市","address":"小金井市貫井南町3-21-3","lat":35.69993,"lon":139.4982},{"name":"小金井消防署","province":"東京都","city":"小金井市","address":"小金井市本町6-6-1","lat":35.69931,"lon":139.5035},{"name":"都立小金井公園","province":"東京都","city":"小金井市","address":"小金井市関野町1-2","lat":35.71295,"lon":139.5233},{"name":"都立小金井公園","province":"東京都","city":"小金井市","address":"小金井市関野町1","lat":35.71348,"lon":139.5196},{"name":"武蔵小金井南第３自転車駐車場","province":"東京都","city":"小金井市","address":"東京都小金井市本町6丁目5-3","lat":35.69924258,"lon":139.50395749},{"name":"武蔵小金井南第７自転車駐車場","province":"東京都","city":"小金井市","address":"東京都小金井市本町6丁目14-45","lat":35.7001731,"lon":139.50662947},{"name":"武蔵小金井北第５自転車駐車場","province":"東京都","city":"小金井市","address":"東京都小金井市本町2丁目1","lat":35.70122579,"lon":139.50750712},{"name":"東小金井駅西側高架下自転車駐車場（Ａ）","province":"東京都","city":"小金井市","address":"東京都小金井市緑町1丁目1","lat":35.70212886,"lon":139.52142262},{"name":"東小金井駅西側高架下自転車駐車場（Ｂ）","province":"東京都","city":"小金井市","address":"東京都小金井市緑町1丁目2","lat":35.70237879,"lon":139.5200505},{"name":"新小金井西第１自転車駐車場","province":"東京都","city":"小金井市","address":"東京都小金井市東町4丁目24","lat":35.69555191,"lon":139.52606416},{"name":"東小金井北第１自転車駐車場","province":"東京都","city":"小金井市","address":"東京都小金井市梶野町5丁目2","lat":35.70192613,"lon":139.52254753},{"name":"東小金井駅前第一駐輪場","province":"東京都","city":"小金井市","address":"東京都小金井市梶野町5丁目1-1","lat":35.70159565,"lon":139.52426962},{"name":"東小金井駅前第二駐輪場","province":"東京都","city":"小金井市","address":"東京都小金井市緑町1丁目2","lat":35.70237879,"lon":139.5200505},{"name":"小金井市役所第２駐車場","province":"東京都","city":"小金井市","address":"東京都小金井市前原町3丁目41-15","lat":35.69855935,"lon":139.50482412},{"name":"小金井警察署","province":"東京都","city":"小金井市","address":"小金井市貫井南町3-21-3","lat":35.69993,"lon":139.4982},{"name":"小金井消防署","province":"東京都","city":"小金井市","address":"小金井市本町6-6-1","lat":35.69931,"lon":139.5035},{"name":"都立小金井公園","province":"東京都","city":"小金井市","address":"小金井市関野町1-2","lat":35.71295,"lon":139.5233},{"name":"都立小金井公園","province":"東京都","city":"小金井市","address":"小金井市関野町1","lat":35.71348,"lon":139.5196},{"name":"武蔵小金井南第３自転車駐車場","province":"東京都","city":"小金井市","address":"東京都小金井市本町6丁目5-3","lat":35.69924258,"lon":139.50395749},{"name":"武蔵小金井南第７自転車駐車場","province":"東京都","city":"小金井市","address":"東京都小金井市本町6丁目14-45","lat":35.7001731,"lon":139.50662947},{"name":"武蔵小金井北第５自転車駐車場","province":"東京都","city":"小金井市","address":"東京都小金井市本町2丁目1","lat":35.70122579,"lon":139.50750712},{"name":"東小金井駅西側高架下自転車駐車場（Ａ）","province":"東京都","city":"小金井市","address":"東京都小金井市緑町1丁目1","lat":35.70212886,"lon":139.52142262},{"name":"東小金井駅西側高架下自転車駐車場（Ｂ）","province":"東京都","city":"小金井市","address":"東京都小金井市緑町1丁目2","lat":35.70237879,"lon":139.5200505},{"name":"新小金井西第１自転車駐車場","province":"東京都","city":"小金井市","address":"東京都小金井市東町4丁目24","lat":35.69555191,"lon":139.52606416},{"name":"東小金井北第１自転車駐車場","province":"東京都","city":"小金井市","address":"東京都小金井市梶野町5丁目2","lat":35.70192613,"lon":139.52254753},{"name":"東小金井駅前第一駐輪場","province":"東京都","city":"小金井市","address":"東京都小金井市梶野町5丁目1-1","lat":35.70159565,"lon":139.52426962},{"name":"東小金井駅前第二駐輪場","province":"東京都","city":"小金井市","address":"東京都小金井市緑町1丁目2","lat":35.70237879,"lon":139.5200505},{"name":"小金井市役所第２駐車場","province":"東京都","city":"小金井市","address":"東京都小金井市前原町3丁目41-15","lat":35.69855935,"lon":139.50482412},{"name":"小金井警察署","province":"東京都","city":"小金井市","address":"小金井市貫井南町3-21-3","lat":35.69993,"lon":139.4982},{"name":"小金井消防署","province":"東京都","city":"小金井市","address":"小金井市本町6-6-1","lat":35.69931,"lon":139.5035},{"name":"都立小金井公園","province":"東京都","city":"小金井市","address":"小金井市関野町1-2","lat":35.71295,"lon":139.5233},{"name":"都立小金井公園","province":"東京都","city":"小金井市","address":"小金井市関野町1","lat":35.71348,"lon":139.5196},{"name":"武蔵小金井南第３自転車駐車場","province":"東京都","city":"小金井市","address":"東京都小金井市本町6丁目5-3","lat":35.69924258,"lon":139.50395749},{"name":"武蔵小金井南第７自転車駐車場","province":"東京都","city":"小金井市","address":"東京都小金井市本町6丁目14-45","lat":35.7001731,"lon":139.50662947},{"name":"武蔵小金井北第５自転車駐車場","province":"東京都","city":"小金井市","address":"東京都小金井市本町2丁目1","lat":35.70122579,"lon":139.50750712},{"name":"東小金井駅西側高架下自転車駐車場（Ａ）","province":"東京都","city":"小金井市","address":"東京都小金井市緑町1丁目1","lat":35.70212886,"lon":139.52142262},{"name":"東小金井駅西側高架下自転車駐車場（Ｂ）","province":"東京都","city":"小金井市","address":"東京都小金井市緑町1丁目2","lat":35.70237879,"lon":139.5200505},{"name":"新小金井西第１自転車駐車場","province":"東京都","city":"小金井市","address":"東京都小金井市東町4丁目24","lat":35.69555191,"lon":139.52606416},{"name":"東小金井北第１自転車駐車場","province":"東京都","city":"小金井市","address":"東京都小金井市梶野町5丁目2","lat":35.70192613,"lon":139.52254753},{"name":"東小金井駅前第一駐輪場","province":"東京都","city":"小金井市","address":"東京都小金井市梶野町5丁目1-1","lat":35.70159565,"lon":139.52426962},{"name":"東小金井駅前第二駐輪場","province":"東京都","city":"小金井市","address":"東京都小金井市緑町1丁目2","lat":35.70237879,"lon":139.5200505},{"name":"小金井市役所第２駐車場","province":"東京都","city":"小金井市","address":"東京都小金井市前原町3丁目41-15","lat":35.69855935,"lon":139.50482412},{"name":"小金井警察署","province":"東京都","city":"小金井市","address":"小金井市貫井南町3-21-3","lat":35.69993,"lon":139.4982},{"name":"小金井消防署","province":"東京都","city":"小金井市","address":"小金井市本町6-6-1","lat":35.69931,"lon":139.5035},{"name":"都立小金井公園","province":"東京都","city":"小金井市","address":"小金井市関野町1-2","lat":35.71295,"lon":139.5233},{"name":"都立小金井公園","province":"東京都","city":"小金井市","address":"小金井市関野町1","lat":35.71348,"lon":139.5196},{"name":"武蔵小金井南第３自転車駐車場","province":"東京都","city":"小金井市","address":"東京都小金井市本町6丁目5-3","lat":35.69924258,"lon":139.50395749},{"name":"武蔵小金井南第７自転車駐車場","province":"東京都","city":"小金井市","address":"東京都小金井市本町6丁目14-45","lat":35.7001731,"lon":139.50662947},{"name":"武蔵小金井北第５自転車駐車場","province":"東京都","city":"小金井市","address":"東京都小金井市本町2丁目1","lat":35.70122579,"lon":139.50750712},{"name":"東小金井駅西側高架下自転車駐車場（Ａ）","province":"東京都","city":"小金井市","address":"東京都小金井市緑町1丁目1","lat":35.70212886,"lon":139.52142262},{"name":"東小金井駅西側高架下自転車駐車場（Ｂ）","province":"東京都","city":"小金井市","address":"東京都小金井市緑町1丁目2","lat":35.70237879,"lon":139.5200505},{"name":"新小金井西第１自転車駐車場","province":"東京都","city":"小金井市","address":"東京都小金井市東町4丁目24","lat":35.69555191,"lon":139.52606416},{"name":"東小金井北第１自転車駐車場","province":"東京都","city":"小金井市","address":"東京都小金井市梶野町5丁目2","lat":35.70192613,"lon":139.52254753},{"name":"東小金井駅前第一駐輪場","province":"東京都","city":"小金井市","address":"東京都小金井市梶野町5丁目1-1","lat":35.70159565,"lon":139.52426962},{"name":"東小金井駅前第二駐輪場","province":"東京都","city":"小金井市","address":"東京都小金井市緑町1丁目2","lat":35.70237879,"lon":139.5200505},{"name":"小金井市役所第２駐車場","province":"東京都","city":"小金井市","address":"東京都小金井市前原町3丁目41-15","lat":35.69855935,"lon":139.50482412},{"name":"小金井警察署","province":"東京都","city":"小金井市","address":"小金井市貫井南町3-21-3","lat":35.69993,"lon":139.4982},{"name":"小金井消防署","province":"東京都","city":"小金井市","address":"小金井市本町6-6-1","lat":35.69931,"lon":139.5035},{"name":"都立小金井公園","province":"東京都","city":"小金井市","address":"小金井市関野町1-2","lat":35.71295,"lon":139.5233},{"name":"都立小金井公園","province":"東京都","city":"小金井市","address":"小金井市関野町1","lat":35.71348,"lon":139.5196},{"name":"武蔵小金井南第３自転車駐車場","province":"東京都","city":"小金井市","address":"東京都小金井市本町6丁目5-3","lat":35.69924258,"lon":139.50395749},{"name":"武蔵小金井南第７自転車駐車場","province":"東京都","city":"小金井市","address":"東京都小金井市本町6丁目14-45","lat":35.7001731,"lon":139.50662947},{"name":"武蔵小金井北第５自転車駐車場","province":"東京都","city":"小金井市","address":"東京都小金井市本町2丁目1","lat":35.70122579,"lon":139.50750712},{"name":"東小金井駅西側高架下自転車駐車場（Ａ）","province":"東京都","city":"小金井市","address":"東京都小金井市緑町1丁目1","lat":35.70212886,"lon":139.52142262},{"name":"東小金井駅西側高架下自転車駐車場（Ｂ）","province":"東京都","city":"小金井市","address":"東京都小金井市緑町1丁目2","lat":35.70237879,"lon":139.5200505},{"name":"新小金井西第１自転車駐車場","province":"東京都","city":"小金井市","address":"東京都小金井市東町4丁目24","lat":35.69555191,"lon":139.52606416},{"name":"東小金井北第１自転車駐車場","province":"東京都","city":"小金井市","address":"東京都小金井市梶野町5丁目2","lat":35.70192613,"lon":139.52254753},{"name":"東小金井駅前第一駐輪場","province":"東京都","city":"小金井市","address":"東京都小金井市梶野町5丁目1-1","lat":35.70159565,"lon":139.52426962},{"name":"東小金井駅前第二駐輪場","province":"東京都","city":"小金井市","address":"東京都小金井市緑町1丁目2","lat":35.70237879,"lon":139.5200505},{"name":"小金井市役所第２駐車場","province":"東京都","city":"小金井市","address":"東京都小金井市前原町3丁目41-15","lat":35.69855935,"lon":139.50482412},{"name":"小金井警察署","province":"東京都","city":"小金井市","address":"小金井市貫井南町3-21-3","lat":35.69993,"lon":139.4982},{"name":"小金井消防署","province":"東京都","city":"小金井市","address":"小金井市本町6-6-1","lat":35.69931,"lon":139.5035},{"name":"都立小金井公園","province":"東京都","city":"小金井市","address":"小金井市関野町1-2","lat":35.71295,"lon":139.5233},{"name":"都立小金井公園","province":"東京都","city":"小金井市","address":"小金井市関野町1","lat":35.71348,"lon":139.5196},{"name":"武蔵小金井南第３自転車駐車場","province":"東京都","city":"小金井市","address":"東京都小金井市本町6丁目5-3","lat":35.69924258,"lon":139.50395749},{"name":"武蔵小金井南第７自転車駐車場","province":"東京都","city":"小金井市","address":"東京都小金井市本町6丁目14-45","lat":35.7001731,"lon":139.50662947},{"name":"武蔵小金井北第５自転車駐車場","province":"東京都","city":"小金井市","address":"東京都小金井市本町2丁目1","lat":35.70122579,"lon":139.50750712},{"name":"東小金井駅西側高架下自転車駐車場（Ａ）","province":"東京都","city":"小金井市","address":"東京都小金井市緑町1丁目1","lat":35.70212886,"lon":139.52142262},{"name":"東小金井駅西側高架下自転車駐車場（Ｂ）","province":"東京都","city":"小金井市","address":"東京都小金井市緑町1丁目2","lat":35.70237879,"lon":139.5200505},{"name":"新小金井西第１自転車駐車場","province":"東京都","city":"小金井市","address":"東京都小金井市東町4丁目24","lat":35.69555191,"lon":139.52606416},{"name":"東小金井北第１自転車駐車場","province":"東京都","city":"小金井市","address":"東京都小金井市梶野町5丁目2","lat":35.70192613,"lon":139.52254753},{"name":"東小金井駅前第一駐輪場","province":"東京都","city":"小金井市","address":"東京都小金井市梶野町5丁目1-1","lat":35.70159565,"lon":139.52426962},{"name":"東小金井駅前第二駐輪場","province":"東京都","city":"小金井市","address":"東京都小金井市緑町1丁目2","lat":35.70237879,"lon":139.5200505},{"name":"小金井市役所第２駐車場","province":"東京都","city":"小金井市","address":"東京都小金井市前原町3丁目41-15","lat":35.69855935,"lon":139.50482412},{"name":"小金井警察署","province":"東京都","city":"小金井市","address":"小金井市貫井南町3-21-3","lat":35.69993,"lon":139.4982},{"name":"小金井消防署","province":"東京都","city":"小金井市","address":"小金井市本町6-6-1","lat":35.69931,"lon":139.5035},{"name":"都立小金井公園","province":"東京都","city":"小金井市","address":"小金井市関野町1-2","lat":35.71295,"lon":139.5233},{"name":"都立小金井公園","province":"東京都","city":"小金井市","address":"小金井市関野町1","lat":35.71348,"lon":139.5196},{"name":"武蔵小金井南第３自転車駐車場","province":"東京都","city":"小金井市","address":"東京都小金井市本町6丁目5-3","lat":35.69924258,"lon":139.50395749},{"name":"武蔵小金井南第７自転車駐車場","province":"東京都","city":"小金井市","address":"東京都小金井市本町6丁目14-45","lat":35.7001731,"lon":139.50662947},{"name":"武蔵小金井北第５自転車駐車場","province":"東京都","city":"小金井市","address":"東京都小金井市本町2丁目1","lat":35.70122579,"lon":139.50750712},{"name":"東小金井駅西側高架下自転車駐車場（Ａ）","province":"東京都","city":"小金井市","address":"東京都小金井市緑町1丁目1","lat":35.70212886,"lon":139.52142262},{"name":"東小金井駅西側高架下自転車駐車場（Ｂ）","province":"東京都","city":"小金井市","address":"東京都小金井市緑町1丁目2","lat":35.70237879,"lon":139.5200505},{"name":"新小金井西第１自転車駐車場","province":"東京都","city":"小金井市","address":"東京都小金井市東町4丁目24","lat":35.69555191,"lon":139.52606416},{"name":"東小金井北第１自転車駐車場","province":"東京都","city":"小金井市","address":"東京都小金井市梶野町5丁目2","lat":35.70192613,"lon":139.52254753},{"name":"東小金井駅前第一駐輪場","province":"東京都","city":"小金井市","address":"東京都小金井市梶野町5丁目1-1","lat":35.70159565,"lon":139.52426962},{"name":"東小金井駅前第二駐輪場","province":"東京都","city":"小金井市","address":"東京都小金井市緑町1丁目2","lat":35.70237879,"lon":139.5200505},{"name":"小金井市役所第２駐車場","province":"東京都","city":"小金井市","address":"東京都小金井市前原町3丁目41-15","lat":35.69855935,"lon":139.50482412},{"name":"小金井警察署","province":"東京都","city":"小金井市","address":"小金井市貫井南町3-21-3","lat":35.69993,"lon":139.4982},{"name":"小金井消防署","province":"東京都","city":"小金井市","address":"小金井市本町6-6-1","lat":35.69931,"lon":139.5035},{"name":"都立小金井公園","province":"東京都","city":"小金井市","address":"小金井市関野町1-2","lat":35.71295,"lon":139.5233},{"name":"都立小金井公園","province":"東京都","city":"小金井市","address":"小金井市関野町1","lat":35.71348,"lon":139.5196},{"name":"武蔵小金井南第３自転車駐車場","province":"東京都","city":"小金井市","address":"東京都小金井市本町6丁目5-3","lat":35.69924258,"lon":139.50395749},{"name":"武蔵小金井南第７自転車駐車場","province":"東京都","city":"小金井市","address":"東京都小金井市本町6丁目14-45","lat":35.7001731,"lon":139.50662947},{"name":"武蔵小金井北第５自転車駐車場","province":"東京都","city":"小金井市","address":"東京都小金井市本町2丁目1","lat":35.70122579,"lon":139.50750712},{"name":"東小金井駅西側高架下自転車駐車場（Ａ）","province":"東京都","city":"小金井市","address":"東京都小金井市緑町1丁目1","lat":35.70212886,"lon":139.52142262},{"name":"東小金井駅西側高架下自転車駐車場（Ｂ）","province":"東京都","city":"小金井市","address":"東京都小金井市緑町1丁目2","lat":35.70237879,"lon":139.5200505},{"name":"新小金井西第１自転車駐車場","province":"東京都","city":"小金井市","address":"東京都小金井市東町4丁目24","lat":35.69555191,"lon":139.52606416},{"name":"東小金井北第１自転車駐車場","province":"東京都","city":"小金井市","address":"東京都小金井市梶野町5丁目2","lat":35.70192613,"lon":139.52254753},{"name":"東小金井駅前第一駐輪場","province":"東京都","city":"小金井市","address":"東京都小金井市梶野町5丁目1-1","lat":35.70159565,"lon":139.52426962},{"name":"東小金井駅前第二駐輪場","province":"東京都","city":"小金井市","address":"東京都小金井市緑町1丁目2","lat":35.70237879,"lon":139.5200505},{"name":"小金井市役所第２駐車場","province":"東京都","city":"小金井市","address":"東京都小金井市前原町3丁目41-15","lat":35.69855935,"lon":139.50482412},{"name":"小金井警察署","province":"東京都","city":"小金井市","address":"小金井市貫井南町3-21-3","lat":35.69993,"lon":139.4982},{"name":"小金井消防署","province":"東京都","city":"小金井市","address":"小金井市本町6-6-1","lat":35.69931,"lon":139.5035},{"name":"都立小金井公園","province":"東京都","city":"小金井市","address":"小金井市関野町1-2","lat":35.71295,"lon":139.5233},{"name":"都立小金井公園","province":"東京都","city":"小金井市","address":"小金井市関野町1","lat":35.71348,"lon":139.5196},{"name":"武蔵小金井南第３自転車駐車場","province":"東京都","city":"小金井市","address":"東京都小金井市本町6丁目5-3","lat":35.69924258,"lon":139.50395749},{"name":"武蔵小金井南第７自転車駐車場","province":"東京都","city":"小金井市","address":"東京都小金井市本町6丁目14-45","lat":35.7001731,"lon":139.50662947},{"name":"武蔵小金井北第５自転車駐車場","province":"東京都","city":"小金井市","address":"東京都小金井市本町2丁目1","lat":35.70122579,"lon":139.50750712},{"name":"東小金井駅西側高架下自転車駐車場（Ａ）","province":"東京都","city":"小金井市","address":"東京都小金井市緑町1丁目1","lat":35.70212886,"lon":139.52142262},{"name":"東小金井駅西側高架下自転車駐車場（Ｂ）","province":"東京都","city":"小金井市","address":"東京都小金井市緑町1丁目2","lat":35.70237879,"lon":139.5200505},{"name":"新小金井西第１自転車駐車場","province":"東京都","city":"小金井市","address":"東京都小金井市東町4丁目24","lat":35.69555191,"lon":139.52606416},{"name":"東小金井北第１自転車駐車場","province":"東京都","city":"小金井市","address":"東京都小金井市梶野町5丁目2","lat":35.70192613,"lon":139.52254753},{"name":"東小金井駅前第一駐輪場","province":"東京都","city":"小金井市","address":"東京都小金井市梶野町5丁目1-1","lat":35.70159565,"lon":139.52426962},{"name":"東小金井駅前第二駐輪場","province":"東京都","city":"小金井市","address":"東京都小金井市緑町1丁目2","lat":35.70237879,"lon":139.5200505},{"name":"小金井市役所第２駐車場","province":"東京都","city":"小金井市","address":"東京都小金井市前原町3丁目41-15","lat":35.69855935,"lon":139.50482412},{"name":"小金井警察署","province":"東京都","city":"小金井市","address":"小金井市貫井南町3-21-3","lat":35.69993,"lon":139.4982},{"name":"小金井消防署","province":"東京都","city":"小金井市","address":"小金井市本町6-6-1","lat":35.69931,"lon":139.5035},{"name":"都立小金井公園","province":"東京都","city":"小金井市","address":"小金井市関野町1-2","lat":35.71295,"lon":139.5233},{"name":"都立小金井公園","province":"東京都","city":"小金井市","address":"小金井市関野町1","lat":35.71348,"lon":139.5196},{"name":"武蔵小金井南第３自転車駐車場","province":"東京都","city":"小金井市","address":"東京都小金井市本町6丁目5-3","lat":35.69924258,"lon":139.50395749},{"name":"武蔵小金井南第７自転車駐車場","province":"東京都","city":"小金井市","address":"東京都小金井市本町6丁目14-45","lat":35.7001731,"lon":139.50662947},{"name":"武蔵小金井北第５自転車駐車場","province":"東京都","city":"小金井市","address":"東京都小金井市本町2丁目1","lat":35.70122579,"lon":139.50750712},{"name":"東小金井駅西側高架下自転車駐車場（Ａ）","province":"東京都","city":"小金井市","address":"東京都小金井市緑町1丁目1","lat":35.70212886,"lon":139.52142262},{"name":"東小金井駅西側高架下自転車駐車場（Ｂ）","province":"東京都","city":"小金井市","address":"東京都小金井市緑町1丁目2","lat":35.70237879,"lon":139.5200505},{"name":"新小金井西第１自転車駐車場","province":"東京都","city":"小金井市","address":"東京都小金井市東町4丁目24","lat":35.69555191,"lon":139.52606416},{"name":"東小金井北第１自転車駐車場","province":"東京都","city":"小金井市","address":"東京都小金井市梶野町5丁目2","lat":35.70192613,"lon":139.52254753},{"name":"東小金井駅前第一駐輪場","province":"東京都","city":"小金井市","address":"東京都小金井市梶野町5丁目1-1","lat":35.70159565,"lon":139.52426962},{"name":"東小金井駅前第二駐輪場","province":"東京都","city":"小金井市","address":"東京都小金井市緑町1丁目2","lat":35.70237879,"lon":139.5200505},{"name":"小金井市役所第２駐車場","province":"東京都","city":"小金井市","address":"東京都小金井市前原町3丁目41-15","lat":35.69855935,"lon":139.50482412},{"name":"小金井警察署","province":"東京都","city":"小金井市","address":"小金井市貫井南町3-21-3","lat":35.69993,"lon":139.4982},{"name":"小金井消防署","province":"東京都","city":"小金井市","address":"小金井市本町6-6-1","lat":35.69931,"lon":139.5035},{"name":"都立小金井公園","province":"東京都","city":"小金井市","address":"小金井市関野町1-2","lat":35.71295,"lon":139.5233},{"name":"都立小金井公園","province":"東京都","city":"小金井市","address":"小金井市関野町1","lat":35.71348,"lon":139.5196},{"name":"武蔵小金井南第３自転車駐車場","province":"東京都","city":"小金井市","address":"東京都小金井市本町6丁目5-3","lat":35.69924258,"lon":139.50395749},{"name":"武蔵小金井南第７自転車駐車場","province":"東京都","city":"小金井市","address":"東京都小金井市本町6丁目14-45","lat":35.7001731,"lon":139.50662947},{"name":"武蔵小金井北第５自転車駐車場","province":"東京都","city":"小金井市","address":"東京都小金井市本町2丁目1","lat":35.70122579,"lon":139.50750712},{"name":"東小金井駅西側高架下自転車駐車場（Ａ）","province":"東京都","city":"小金井市","address":"東京都小金井市緑町1丁目1","lat":35.70212886,"lon":139.52142262},{"name":"東小金井駅西側高架下自転車駐車場（Ｂ）","province":"東京都","city":"小金井市","address":"東京都小金井市緑町1丁目2","lat":35.70237879,"lon":139.5200505},{"name":"新小金井西第１自転車駐車場","province":"東京都","city":"小金井市","address":"東京都小金井市東町4丁目24","lat":35.69555191,"lon":139.52606416},{"name":"東小金井北第１自転車駐車場","province":"東京都","city":"小金井市","address":"東京都小金井市梶野町5丁目2","lat":35.70192613,"lon":139.52254753},{"name":"東小金井駅前第一駐輪場","province":"東京都","city":"小金井市","address":"東京都小金井市梶野町5丁目1-1","lat":35.70159565,"lon":139.52426962},{"name":"東小金井駅前第二駐輪場","province":"東京都","city":"小金井市","address":"東京都小金井市緑町1丁目2","lat":35.70237879,"lon":139.5200505},{"name":"小金井市役所第２駐車場","province":"東京都","city":"小金井市","address":"東京都小金井市前原町3丁目41-15","lat":35.69855935,"lon":139.50482412},{"name":"小金井警察署","province":"東京都","city":"小金井市","address":"小金井市貫井南町3-21-3","lat":35.69993,"lon":139.4982},{"name":"小金井消防署","province":"東京都","city":"小金井市","address":"小金井市本町6-6-1","lat":35.69931,"lon":139.5035},{"name":"都立小金井公園","province":"東京都","city":"小金井市","address":"小金井市関野町1-2","lat":35.71295,"lon":139.5233},{"name":"都立小金井公園","province":"東京都","city":"小金井市","address":"小金井市関野町1","lat":35.71348,"lon":139.5196},{"name":"武蔵小金井南第３自転車駐車場","province":"東京都","city":"小金井市","address":"東京都小金井市本町6丁目5-3","lat":35.69924258,"lon":139.50395749},{"name":"武蔵小金井南第７自転車駐車場","province":"東京都","city":"小金井市","address":"東京都小金井市本町6丁目14-45","lat":35.7001731,"lon":139.50662947},{"name":"武蔵小金井北第５自転車駐車場","province":"東京都","city":"小金井市","address":"東京都小金井市本町2丁目1","lat":35.70122579,"lon":139.50750712},{"name":"東小金井駅西側高架下自転車駐車場（Ａ）","province":"東京都","city":"小金井市","address":"東京都小金井市緑町1丁目1","lat":35.70212886,"lon":139.52142262},{"name":"東小金井駅西側高架下自転車駐車場（Ｂ）","province":"東京都","city":"小金井市","address":"東京都小金井市緑町1丁目2","lat":35.70237879,"lon":139.5200505},{"name":"新小金井西第１自転車駐車場","province":"東京都","city":"小金井市","address":"東京都小金井市東町4丁目24","lat":35.69555191,"lon":139.52606416},{"name":"東小金井北第１自転車駐車場","province":"東京都","city":"小金井市","address":"東京都小金井市梶野町5丁目2","lat":35.70192613,"lon":139.52254753},{"name":"東小金井駅前第一駐輪場","province":"東京都","city":"小金井市","address":"東京都小金井市梶野町5丁目1-1","lat":35.70159565,"lon":139.52426962},{"name":"東小金井駅前第二駐輪場","province":"東京都","city":"小金井市","address":"東京都小金井市緑町1丁目2","lat":35.70237879,"lon":139.5200505},{"name":"小金井市役所第２駐車場","province":"東京都","city":"小金井市","address":"東京都小金井市前原町3丁目41-15","lat":35.69855935,"lon":139.50482412},{"name":"小金井警察署","province":"東京都","city":"小金井市","address":"小金井市貫井南町3-21-3","lat":35.69993,"lon":139.4982},{"name":"小金井消防署","province":"東京都","city":"小金井市","address":"小金井市本町6-6-1","lat":35.69931,"lon":139.5035},{"name":"都立小金井公園","province":"東京都","city":"小金井市","address":"小金井市関野町1-2","lat":35.71295,"lon":139.5233},{"name":"都立小金井公園","province":"東京都","city":"小金井市","address":"小金井市関野町1","lat":35.71348,"lon":139.5196},{"name":"武蔵小金井南第３自転車駐車場","province":"東京都","city":"小金井市","address":"東京都小金井市本町6丁目5-3","lat":35.69924258,"lon":139.50395749},{"name":"武蔵小金井南第７自転車駐車場","province":"東京都","city":"小金井市","address":"東京都小金井市本町6丁目14-45","lat":35.7001731,"lon":139.50662947},{"name":"武蔵小金井北第５自転車駐車場","province":"東京都","city":"小金井市","address":"東京都小金井市本町2丁目1","lat":35.70122579,"lon":139.50750712},{"name":"東小金井駅西側高架下自転車駐車場（Ａ）","province":"東京都","city":"小金井市","address":"東京都小金井市緑町1丁目1","lat":35.70212886,"lon":139.52142262},{"name":"東小金井駅西側高架下自転車駐車場（Ｂ）","province":"東京都","city":"小金井市","address":"東京都小金井市緑町1丁目2","lat":35.70237879,"lon":139.5200505},{"name":"新小金井西第１自転車駐車場","province":"東京都","city":"小金井市","address":"東京都小金井市東町4丁目24","lat":35.69555191,"lon":139.52606416},{"name":"東小金井北第１自転車駐車場","province":"東京都","city":"小金井市","address":"東京都小金井市梶野町5丁目2","lat":35.70192613,"lon":139.52254753},{"name":"東小金井駅前第一駐輪場","province":"東京都","city":"小金井市","address":"東京都小金井市梶野町5丁目1-1","lat":35.70159565,"lon":139.52426962},{"name":"東小金井駅前第二駐輪場","province":"東京都","city":"小金井市","address":"東京都小金井市緑町1丁目2","lat":35.70237879,"lon":139.5200505},{"name":"小金井市役所第２駐車場","province":"東京都","city":"小金井市","address":"東京都小金井市前原町3丁目41-15","lat":35.69855935,"lon":139.50482412},{"name":"小金井警察署","province":"東京都","city":"小金井市","address":"小金井市貫井南町3-21-3","lat":35.69993,"lon":139.4982},{"name":"小金井消防署","province":"東京都","city":"小金井市","address":"小金井市本町6-6-1","lat":35.69931,"lon":139.5035},{"name":"都立小金井公園","province":"東京都","city":"小金井市","address":"小金井市関野町1-2","lat":35.71295,"lon":139.5233},{"name":"都立小金井公園","province":"東京都","city":"小金井市","address":"小金井市関野町1","lat":35.71348,"lon":139.5196},{"name":"武蔵小金井南第３自転車駐車場","province":"東京都","city":"小金井市","address":"東京都小金井市本町6丁目5-3","lat":35.69924258,"lon":139.50395749},{"name":"武蔵小金井南第７自転車駐車場","province":"東京都","city":"小金井市","address":"東京都小金井市本町6丁目14-45","lat":35.7001731,"lon":139.50662947},{"name":"武蔵小金井北第５自転車駐車場","province":"東京都","city":"小金井市","address":"東京都小金井市本町2丁目1","lat":35.70122579,"lon":139.50750712},{"name":"東小金井駅西側高架下自転車駐車場（Ａ）","province":"東京都","city":"小金井市","address":"東京都小金井市緑町1丁目1","lat":35.70212886,"lon":139.52142262},{"name":"東小金井駅西側高架下自転車駐車場（Ｂ）","province":"東京都","city":"小金井市","address":"東京都小金井市緑町1丁目2","lat":35.70237879,"lon":139.5200505},{"name":"新小金井西第１自転車駐車場","province":"東京都","city":"小金井市","address":"東京都小金井市東町4丁目24","lat":35.69555191,"lon":139.52606416},{"name":"東小金井北第１自転車駐車場","province":"東京都","city":"小金井市","address":"東京都小金井市梶野町5丁目2","lat":35.70192613,"lon":139.52254753},{"name":"東小金井駅前第一駐輪場","province":"東京都","city":"小金井市","address":"東京都小金井市梶野町5丁目1-1","lat":35.70159565,"lon":139.52426962},{"name":"東小金井駅前第二駐輪場","province":"東京都","city":"小金井市","address":"東京都小金井市緑町1丁目2","lat":35.70237879,"lon":139.5200505},{"name":"小金井市役所第２駐車場","province":"東京都","city":"小金井市","address":"東京都小金井市前原町3丁目41-15","lat":35.69855935,"lon":139.50482412},{"name":"小金井警察署","province":"東京都","city":"小金井市","address":"小金井市貫井南町3-21-3","lat":35.69993,"lon":139.4982},{"name":"小金井消防署","province":"東京都","city":"小金井市","address":"小金井市本町6-6-1","lat":35.69931,"lon":139.5035},{"name":"都立小金井公園","province":"東京都","city":"小金井市","address":"小金井市関野町1-2","lat":35.71295,"lon":139.5233},{"name":"都立小金井公園","province":"東京都","city":"小金井市","address":"小金井市関野町1","lat":35.71348,"lon":139.5196},{"name":"武蔵小金井南第３自転車駐車場","province":"東京都","city":"小金井市","address":"東京都小金井市本町6丁目5-3","lat":35.69924258,"lon":139.50395749},{"name":"武蔵小金井南第７自転車駐車場","province":"東京都","city":"小金井市","address":"東京都小金井市本町6丁目14-45","lat":35.7001731,"lon":139.50662947},{"name":"武蔵小金井北第５自転車駐車場","province":"東京都","city":"小金井市","address":"東京都小金井市本町2丁目1","lat":35.70122579,"lon":139.50750712},{"name":"東小金井駅西側高架下自転車駐車場（Ａ）","province":"東京都","city":"小金井市","address":"東京都小金井市緑町1丁目1","lat":35.70212886,"lon":139.52142262},{"name":"東小金井駅西側高架下自転車駐車場（Ｂ）","province":"東京都","city":"小金井市","address":"東京都小金井市緑町1丁目2","lat":35.70237879,"lon":139.5200505},{"name":"新小金井西第１自転車駐車場","province":"東京都","city":"小金井市","address":"東京都小金井市東町4丁目24","lat":35.69555191,"lon":139.52606416},{"name":"東小金井北第１自転車駐車場","province":"東京都","city":"小金井市","address":"東京都小金井市梶野町5丁目2","lat":35.70192613,"lon":139.52254753},{"name":"東小金井駅前第一駐輪場","province":"東京都","city":"小金井市","address":"東京都小金井市梶野町5丁目1-1","lat":35.70159565,"lon":139.52426962},{"name":"東小金井駅前第二駐輪場","province":"東京都","city":"小金井市","address":"東京都小金井市緑町1丁目2","lat":35.70237879,"lon":139.5200505},{"name":"小金井市役所第２駐車場","province":"東京都","city":"小金井市","address":"東京都小金井市前原町3丁目41-15","lat":35.69855935,"lon":139.50482412},{"name":"武蔵小金井南第３自転車駐車場","province":"東京都","city":"小金井市","address":"東京都小金井市本町6丁目5-3","lat":35.69924258,"lon":139.50395749},{"name":"武蔵小金井南第７自転車駐車場","province":"東京都","city":"小金井市","address":"東京都小金井市本町6丁目14-45","lat":35.7001731,"lon":139.50662947},{"name":"武蔵小金井北第５自転車駐車場","province":"東京都","city":"小金井市","address":"東京都小金井市本町2丁目1","lat":35.70122579,"lon":139.50750712},{"name":"東小金井駅西側高架下自転車駐車場（Ａ）","province":"東京都","city":"小金井市","address":"東京都小金井市緑町1丁目1","lat":35.70212886,"lon":139.52142262},{"name":"東小金井駅西側高架下自転車駐車場（Ｂ）","province":"東京都","city":"小金井市","address":"東京都小金井市緑町1丁目2","lat":35.70237879,"lon":139.5200505},{"name":"新小金井西第１自転車駐車場","province":"東京都","city":"小金井市","address":"東京都小金井市東町4丁目24","lat":35.69555191,"lon":139.52606416},{"name":"東小金井北第１自転車駐車場","province":"東京都","city":"小金井市","address":"東京都小金井市梶野町5丁目2","lat":35.70192613,"lon":139.52254753},{"name":"東小金井駅前第一駐輪場","province":"東京都","city":"小金井市","address":"東京都小金井市梶野町5丁目1-1","lat":35.70159565,"lon":139.52426962},{"name":"東小金井駅前第二駐輪場","province":"東京都","city":"小金井市","address":"東京都小金井市緑町1丁目2","lat":35.70237879,"lon":139.5200505},{"name":"小金井市役所第２駐車場","province":"東京都","city":"小金井市","address":"東京都小金井市前原町3丁目41-15","lat":35.69855935,"lon":139.50482412},{"name":"武蔵小金井南第３自転車駐車場","province":"東京都","city":"小金井市","address":"東京都小金井市本町6丁目5-3","lat":35.69924258,"lon":139.50395749},{"name":"武蔵小金井南第７自転車駐車場","province":"東京都","city":"小金井市","address":"東京都小金井市本町6丁目14-45","lat":35.7001731,"lon":139.50662947},{"name":"武蔵小金井北第５自転車駐車場","province":"東京都","city":"小金井市","address":"東京都小金井市本町2丁目1","lat":35.70122579,"lon":139.50750712},{"name":"東小金井駅西側高架下自転車駐車場（Ａ）","province":"東京都","city":"小金井市","address":"東京都小金井市緑町1丁目1","lat":35.70212886,"lon":139.52142262},{"name":"東小金井駅西側高架下自転車駐車場（Ｂ）","province":"東京都","city":"小金井市","address":"東京都小金井市緑町1丁目2","lat":35.70237879,"lon":139.5200505},{"name":"新小金井西第１自転車駐車場","province":"東京都","city":"小金井市","address":"東京都小金井市東町4丁目24","lat":35.69555191,"lon":139.52606416},{"name":"東小金井北第１自転車駐車場","province":"東京都","city":"小金井市","address":"東京都小金井市梶野町5丁目2","lat":35.70192613,"lon":139.52254753},{"name":"東小金井駅前第一駐輪場","province":"東京都","city":"小金井市","address":"東京都小金井市梶野町5丁目1-1","lat":35.70159565,"lon":139.52426962},{"name":"東小金井駅前第二駐輪場","province":"東京都","city":"小金井市","address":"東京都小金井市緑町1丁目2","lat":35.70237879,"lon":139.5200505},{"name":"小金井市役所第２駐車場","province":"東京都","city":"小金井市","address":"東京都小金井市前原町3丁目41-15","lat":35.69855935,"lon":139.50482412},{"name":"武蔵小金井南第３自転車駐車場","province":"東京都","city":"小金井市","address":"東京都小金井市本町6丁目5-3","lat":35.69924258,"lon":139.50395749},{"name":"武蔵小金井南第７自転車駐車場","province":"東京都","city":"小金井市","address":"東京都小金井市本町6丁目14-45","lat":35.7001731,"lon":139.50662947},{"name":"武蔵小金井北第５自転車駐車場","province":"東京都","city":"小金井市","address":"東京都小金井市本町2丁目1","lat":35.70122579,"lon":139.50750712},{"name":"東小金井駅西側高架下自転車駐車場（Ａ）","province":"東京都","city":"小金井市","address":"東京都小金井市緑町1丁目1","lat":35.70212886,"lon":139.52142262},{"name":"東小金井駅西側高架下自転車駐車場（Ｂ）","province":"東京都","city":"小金井市","address":"東京都小金井市緑町1丁目2","lat":35.70237879,"lon":139.5200505},{"name":"新小金井西第１自転車駐車場","province":"東京都","city":"小金井市","address":"東京都小金井市東町4丁目24","lat":35.69555191,"lon":139.52606416},{"name":"東小金井北第１自転車駐車場","province":"東京都","city":"小金井市","address":"東京都小金井市梶野町5丁目2","lat":35.70192613,"lon":139.52254753},{"name":"東小金井駅前第一駐輪場","province":"東京都","city":"小金井市","address":"東京都小金井市梶野町5丁目1-1","lat":35.70159565,"lon":139.52426962},{"name":"東小金井駅前第二駐輪場","province":"東京都","city":"小金井市","address":"東京都小金井市緑町1丁目2","lat":35.70237879,"lon":139.5200505},{"name":"小金井市役所第２駐車場","province":"東京都","city":"小金井市","address":"東京都小金井市前原町3丁目41-15","lat":35.69855935,"lon":139.50482412},{"name":"武蔵小金井南第３自転車駐車場","province":"東京都","city":"小金井市","address":"東京都小金井市本町6丁目5-3","lat":35.69924258,"lon":139.50395749},{"name":"武蔵小金井南第７自転車駐車場","province":"東京都","city":"小金井市","address":"東京都小金井市本町6丁目14-45","lat":35.7001731,"lon":139.50662947},{"name":"武蔵小金井北第５自転車駐車場","province":"東京都","city":"小金井市","address":"東京都小金井市本町2丁目1","lat":35.70122579,"lon":139.50750712},{"name":"東小金井駅西側高架下自転車駐車場（Ａ）","province":"東京都","city":"小金井市","address":"東京都小金井市緑町1丁目1","lat":35.70212886,"lon":139.52142262},{"name":"東小金井駅西側高架下自転車駐車場（Ｂ）","province":"東京都","city":"小金井市","address":"東京都小金井市緑町1丁目2","lat":35.70237879,"lon":139.5200505},{"name":"新小金井西第１自転車駐車場","province":"東京都","city":"小金井市","address":"東京都小金井市東町4丁目24","lat":35.69555191,"lon":139.52606416},{"name":"東小金井北第１自転車駐車場","province":"東京都","city":"小金井市","address":"東京都小金井市梶野町5丁目2","lat":35.70192613,"lon":139.52254753},{"name":"東小金井駅前第一駐輪場","province":"東京都","city":"小金井市","address":"東京都小金井市梶野町5丁目1-1","lat":35.70159565,"lon":139.52426962},{"name":"東小金井駅前第二駐輪場","province":"東京都","city":"小金井市","address":"東京都小金井市緑町1丁目2","lat":35.70237879,"lon":139.5200505},{"name":"小金井市役所第２駐車場","province":"東京都","city":"小金井市","address":"東京都小金井市前原町3丁目41-15","lat":35.69855935,"lon":139.50482412},{"name":"武蔵小金井南第３自転車駐車場","province":"東京都","city":"小金井市","address":"東京都小金井市本町6丁目5-3","lat":35.69924258,"lon":139.50395749},{"name":"武蔵小金井南第７自転車駐車場","province":"東京都","city":"小金井市","address":"東京都小金井市本町6丁目14-45","lat":35.7001731,"lon":139.50662947},{"name":"武蔵小金井北第５自転車駐車場","province":"東京都","city":"小金井市","address":"東京都小金井市本町2丁目1","lat":35.70122579,"lon":139.50750712},{"name":"東小金井駅西側高架下自転車駐車場（Ａ）","province":"東京都","city":"小金井市","address":"東京都小金井市緑町1丁目1","lat":35.70212886,"lon":139.52142262},{"name":"東小金井駅西側高架下自転車駐車場（Ｂ）","province":"東京都","city":"小金井市","address":"東京都小金井市緑町1丁目2","lat":35.70237879,"lon":139.5200505},{"name":"新小金井西第１自転車駐車場","province":"東京都","city":"小金井市","address":"東京都小金井市東町4丁目24","lat":35.69555191,"lon":139.52606416},{"name":"東小金井北第１自転車駐車場","province":"東京都","city":"小金井市","address":"東京都小金井市梶野町5丁目2","lat":35.70192613,"lon":139.52254753},{"name":"東小金井駅前第一駐輪場","province":"東京都","city":"小金井市","address":"東京都小金井市梶野町5丁目1-1","lat":35.70159565,"lon":139.52426962},{"name":"東小金井駅前第二駐輪場","province":"東京都","city":"小金井市","address":"東京都小金井市緑町1丁目2","lat":35.70237879,"lon":139.5200505},{"name":"小金井市役所第２駐車場","province":"東京都","city":"小金井市","address":"東京都小金井市前原町3丁目41-15","lat":35.69855935,"lon":139.50482412},{"name":"武蔵小金井南第３自転車駐車場","province":"東京都","city":"小金井市","address":"東京都小金井市本町6丁目5-3","lat":35.69924258,"lon":139.50395749},{"name":"武蔵小金井南第７自転車駐車場","province":"東京都","city":"小金井市","address":"東京都小金井市本町6丁目14-45","lat":35.7001731,"lon":139.50662947},{"name":"武蔵小金井北第５自転車駐車場","province":"東京都","city":"小金井市","address":"東京都小金井市本町2丁目1","lat":35.70122579,"lon":139.50750712},{"name":"東小金井駅西側高架下自転車駐車場（Ａ）","province":"東京都","city":"小金井市","address":"東京都小金井市緑町1丁目1","lat":35.70212886,"lon":139.52142262},{"name":"東小金井駅西側高架下自転車駐車場（Ｂ）","province":"東京都","city":"小金井市","address":"東京都小金井市緑町1丁目2","lat":35.70237879,"lon":139.5200505},{"name":"新小金井西第１自転車駐車場","province":"東京都","city":"小金井市","address":"東京都小金井市東町4丁目24","lat":35.69555191,"lon":139.52606416},{"name":"東小金井北第１自転車駐車場","province":"東京都","city":"小金井市","address":"東京都小金井市梶野町5丁目2","lat":35.70192613,"lon":139.52254753},{"name":"東小金井駅前第一駐輪場","province":"東京都","city":"小金井市","address":"東京都小金井市梶野町5丁目1-1","lat":35.70159565,"lon":139.52426962},{"name":"東小金井駅前第二駐輪場","province":"東京都","city":"小金井市","address":"東京都小金井市緑町1丁目2","lat":35.70237879,"lon":139.5200505},{"name":"小金井市役所第２駐車場","province":"東京都","city":"小金井市","address":"東京都小金井市前原町3丁目41-15","lat":35.69855935,"lon":139.50482412},{"name":"武蔵小金井南第３自転車駐車場","province":"東京都","city":"小金井市","address":"東京都小金井市本町6丁目5-3","lat":35.69924258,"lon":139.50395749},{"name":"武蔵小金井南第７自転車駐車場","province":"東京都","city":"小金井市","address":"東京都小金井市本町6丁目14-45","lat":35.7001731,"lon":139.50662947},{"name":"武蔵小金井北第５自転車駐車場","province":"東京都","city":"小金井市","address":"東京都小金井市本町2丁目1","lat":35.70122579,"lon":139.50750712},{"name":"東小金井駅西側高架下自転車駐車場（Ａ）","province":"東京都","city":"小金井市","address":"東京都小金井市緑町1丁目1","lat":35.70212886,"lon":139.52142262},{"name":"東小金井駅西側高架下自転車駐車場（Ｂ）","province":"東京都","city":"小金井市","address":"東京都小金井市緑町1丁目2","lat":35.70237879,"lon":139.5200505},{"name":"新小金井西第１自転車駐車場","province":"東京都","city":"小金井市","address":"東京都小金井市東町4丁目24","lat":35.69555191,"lon":139.52606416},{"name":"東小金井北第１自転車駐車場","province":"東京都","city":"小金井市","address":"東京都小金井市梶野町5丁目2","lat":35.70192613,"lon":139.52254753},{"name":"東小金井駅前第一駐輪場","province":"東京都","city":"小金井市","address":"東京都小金井市梶野町5丁目1-1","lat":35.70159565,"lon":139.52426962},{"name":"東小金井駅前第二駐輪場","province":"東京都","city":"小金井市","address":"東京都小金井市緑町1丁目2","lat":35.70237879,"lon":139.5200505},{"name":"小金井市役所第２駐車場","province":"東京都","city":"小金井市","address":"東京都小金井市前原町3丁目41-15","lat":35.69855935,"lon":139.50482412},{"name":"武蔵小金井南第３自転車駐車場","province":"東京都","city":"小金井市","address":"東京都小金井市本町6丁目5-3","lat":35.69924258,"lon":139.50395749},{"name":"武蔵小金井南第７自転車駐車場","province":"東京都","city":"小金井市","address":"東京都小金井市本町6丁目14-45","lat":35.7001731,"lon":139.50662947},{"name":"武蔵小金井北第５自転車駐車場","province":"東京都","city":"小金井市","address":"東京都小金井市本町2丁目1","lat":35.70122579,"lon":139.50750712},{"name":"東小金井駅西側高架下自転車駐車場（Ａ）","province":"東京都","city":"小金井市","address":"東京都小金井市緑町1丁目1","lat":35.70212886,"lon":139.52142262},{"name":"東小金井駅西側高架下自転車駐車場（Ｂ）","province":"東京都","city":"小金井市","address":"東京都小金井市緑町1丁目2","lat":35.70237879,"lon":139.5200505},{"name":"新小金井西第１自転車駐車場","province":"東京都","city":"小金井市","address":"東京都小金井市東町4丁目24","lat":35.69555191,"lon":139.52606416},{"name":"東小金井北第１自転車駐車場","province":"東京都","city":"小金井市","address":"東京都小金井市梶野町5丁目2","lat":35.70192613,"lon":139.52254753},{"name":"東小金井駅前第一駐輪場","province":"東京都","city":"小金井市","address":"東京都小金井市梶野町5丁目1-1","lat":35.70159565,"lon":139.52426962},{"name":"東小金井駅前第二駐輪場","province":"東京都","city":"小金井市","address":"東京都小金井市緑町1丁目2","lat":35.70237879,"lon":139.5200505},{"name":"小金井市役所第２駐車場","province":"東京都","city":"小金井市","address":"東京都小金井市前原町3丁目41-15","lat":35.69855935,"lon":139.50482412},{"name":"武蔵小金井南第３自転車駐車場","province":"東京都","city":"小金井市","address":"東京都小金井市本町6丁目5-3","lat":35.69924258,"lon":139.50395749},{"name":"武蔵小金井南第７自転車駐車場","province":"東京都","city":"小金井市","address":"東京都小金井市本町6丁目14-45","lat":35.7001731,"lon":139.50662947},{"name":"武蔵小金井北第５自転車駐車場","province":"東京都","city":"小金井市","address":"東京都小金井市本町2丁目1","lat":35.70122579,"lon":139.50750712},{"name":"東小金井駅西側高架下自転車駐車場（Ａ）","province":"東京都","city":"小金井市","address":"東京都小金井市緑町1丁目1","lat":35.70212886,"lon":139.52142262},{"name":"東小金井駅西側高架下自転車駐車場（Ｂ）","province":"東京都","city":"小金井市","address":"東京都小金井市緑町1丁目2","lat":35.70237879,"lon":139.5200505},{"name":"新小金井西第１自転車駐車場","province":"東京都","city":"小金井市","address":"東京都小金井市東町4丁目24","lat":35.69555191,"lon":139.52606416},{"name":"東小金井北第１自転車駐車場","province":"東京都","city":"小金井市","address":"東京都小金井市梶野町5丁目2","lat":35.70192613,"lon":139.52254753},{"name":"東小金井駅前第一駐輪場","province":"東京都","city":"小金井市","address":"東京都小金井市梶野町5丁目1-1","lat":35.70159565,"lon":139.52426962},{"name":"東小金井駅前第二駐輪場","province":"東京都","city":"小金井市","address":"東京都小金井市緑町1丁目2","lat":35.70237879,"lon":139.5200505},{"name":"小金井市役所第２駐車場","province":"東京都","city":"小金井市","address":"東京都小金井市前原町3丁目41-15","lat":35.69855935,"lon":139.50482412},{"name":"武蔵小金井南第３自転車駐車場","province":"東京都","city":"小金井市","address":"東京都小金井市本町6丁目5-3","lat":35.69924258,"lon":139.50395749},{"name":"武蔵小金井南第７自転車駐車場","province":"東京都","city":"小金井市","address":"東京都小金井市本町6丁目14-45","lat":35.7001731,"lon":139.50662947},{"name":"武蔵小金井北第５自転車駐車場","province":"東京都","city":"小金井市","address":"東京都小金井市本町2丁目1","lat":35.70122579,"lon":139.50750712},{"name":"東小金井駅西側高架下自転車駐車場（Ａ）","province":"東京都","city":"小金井市","address":"東京都小金井市緑町1丁目1","lat":35.70212886,"lon":139.52142262},{"name":"東小金井駅西側高架下自転車駐車場（Ｂ）","province":"東京都","city":"小金井市","address":"東京都小金井市緑町1丁目2","lat":35.70237879,"lon":139.5200505},{"name":"新小金井西第１自転車駐車場","province":"東京都","city":"小金井市","address":"東京都小金井市東町4丁目24","lat":35.69555191,"lon":139.52606416},{"name":"東小金井北第１自転車駐車場","province":"東京都","city":"小金井市","address":"東京都小金井市梶野町5丁目2","lat":35.70192613,"lon":139.52254753},{"name":"東小金井駅前第一駐輪場","province":"東京都","city":"小金井市","address":"東京都小金井市梶野町5丁目1-1","lat":35.70159565,"lon":139.52426962},{"name":"東小金井駅前第二駐輪場","province":"東京都","city":"小金井市","address":"東京都小金井市緑町1丁目2","lat":35.70237879,"lon":139.5200505},{"name":"小金井市役所第２駐車場","province":"東京都","city":"小金井市","address":"東京都小金井市前原町3丁目41-15","lat":35.69855935,"lon":139.50482412},{"name":"武蔵小金井南第３自転車駐車場","province":"東京都","city":"小金井市","address":"東京都小金井市本町6丁目5-3","lat":35.69924258,"lon":139.50395749},{"name":"武蔵小金井南第７自転車駐車場","province":"東京都","city":"小金井市","address":"東京都小金井市本町6丁目14-45","lat":35.7001731,"lon":139.50662947},{"name":"武蔵小金井北第５自転車駐車場","province":"東京都","city":"小金井市","address":"東京都小金井市本町2丁目1","lat":35.70122579,"lon":139.50750712},{"name":"東小金井駅西側高架下自転車駐車場（Ａ）","province":"東京都","city":"小金井市","address":"東京都小金井市緑町1丁目1","lat":35.70212886,"lon":139.52142262},{"name":"東小金井駅西側高架下自転車駐車場（Ｂ）","province":"東京都","city":"小金井市","address":"東京都小金井市緑町1丁目2","lat":35.70237879,"lon":139.5200505},{"name":"新小金井西第１自転車駐車場","province":"東京都","city":"小金井市","address":"東京都小金井市東町4丁目24","lat":35.69555191,"lon":139.52606416},{"name":"東小金井北第１自転車駐車場","province":"東京都","city":"小金井市","address":"東京都小金井市梶野町5丁目2","lat":35.70192613,"lon":139.52254753},{"name":"東小金井駅前第一駐輪場","province":"東京都","city":"小金井市","address":"東京都小金井市梶野町5丁目1-1","lat":35.70159565,"lon":139.52426962},{"name":"東小金井駅前第二駐輪場","province":"東京都","city":"小金井市","address":"東京都小金井市緑町1丁目2","lat":35.70237879,"lon":139.5200505},{"name":"小金井市役所第２駐車場","province":"東京都","city":"小金井市","address":"東京都小金井市前原町3丁目41-15","lat":35.69855935,"lon":139.50482412},{"name":"武蔵小金井南第３自転車駐車場","province":"東京都","city":"小金井市","address":"東京都小金井市本町6丁目5-3","lat":35.69924258,"lon":139.50395749},{"name":"武蔵小金井南第７自転車駐車場","province":"東京都","city":"小金井市","address":"東京都小金井市本町6丁目14-45","lat":35.7001731,"lon":139.50662947},{"name":"武蔵小金井北第５自転車駐車場","province":"東京都","city":"小金井市","address":"東京都小金井市本町2丁目1","lat":35.70122579,"lon":139.50750712},{"name":"東小金井駅西側高架下自転車駐車場（Ａ）","province":"東京都","city":"小金井市","address":"東京都小金井市緑町1丁目1","lat":35.70212886,"lon":139.52142262},{"name":"東小金井駅西側高架下自転車駐車場（Ｂ）","province":"東京都","city":"小金井市","address":"東京都小金井市緑町1丁目2","lat":35.70237879,"lon":139.5200505},{"name":"新小金井西第１自転車駐車場","province":"東京都","city":"小金井市","address":"東京都小金井市東町4丁目24","lat":35.69555191,"lon":139.52606416},{"name":"東小金井北第１自転車駐車場","province":"東京都","city":"小金井市","address":"東京都小金井市梶野町5丁目2","lat":35.70192613,"lon":139.52254753},{"name":"東小金井駅前第一駐輪場","province":"東京都","city":"小金井市","address":"東京都小金井市梶野町5丁目1-1","lat":35.70159565,"lon":139.52426962},{"name":"東小金井駅前第二駐輪場","province":"東京都","city":"小金井市","address":"東京都小金井市緑町1丁目2","lat":35.70237879,"lon":139.5200505},{"name":"小金井市役所第２駐車場","province":"東京都","city":"小金井市","address":"東京都小金井市前原町3丁目41-15","lat":35.69855935,"lon":139.50482412}]}