{"keyword":"収蔵","data":[{"name":"梶野配水所","province":"東京都","city":"小金井市","address":"東京都小金井市梶野町5-10-33","lat":35.7046375,"lon":139.526531},{"name":"梶野浄水所","province":"東京都","city":"小金井市","address":"東京都小金井市梶野町5丁目10-33","lat":35.70463703,"lon":139.52653041},{"name":"都立小金井公園","province":"東京都","city":"小金井市","address":"東京都小金井市関野町1丁目","lat":35.71343867,"lon":139.51977227},{"name":"＊?小金井市公民館貫井南分館","province":"東京都","city":"小金井市","address":"小金井市貫井南町4-3-23","lat":35.693655,"lon":139.493719},{"name":"＊?小金井市公民館","province":"東京都","city":"小金井市","address":"小金井市本町2-15-11","lat":35.705443,"lon":139.510607},{"name":"＊?小金井市公民館東分館","province":"東京都","city":"小金井市","address":"小金井市東町1-39-1","lat":35.69399,"lon":139.526627},{"name":"＊?小金井市公民館緑分館","province":"東京都","city":"小金井市","address":"小金井市緑町3-3-23","lat":35.709554,"lon":139.516375},{"name":"＊?小金井市公民館貫井北分館","province":"東京都","city":"小金井市","address":"小金井市貫井北町1-11-12","lat":35.702323,"lon":139.49769},{"name":"梶野配水所","province":"東京都","city":"小金井市","address":"東京都小金井市梶野町5-10-33","lat":35.7046375,"lon":139.526531},{"name":"梶野浄水所","province":"東京都","city":"小金井市","address":"東京都小金井市梶野町5丁目10-33","lat":35.70463703,"lon":139.52653041},{"name":"都立小金井公園","province":"東京都","city":"小金井市","address":"東京都小金井市関野町1丁目","lat":35.71343867,"lon":139.51977227},{"name":"＊?小金井市公民館貫井南分館","province":"東京都","city":"小金井市","address":"小金井市貫井南町4-3-23","lat":35.693655,"lon":139.493719},{"name":"＊?小金井市公民館","province":"東京都","city":"小金井市","address":"小金井市本町2-15-11","lat":35.705443,"lon":139.510607},{"name":"＊?小金井市公民館東分館","province":"東京都","city":"小金井市","address":"小金井市東町1-39-1","lat":35.69399,"lon":139.526627},{"name":"＊?小金井市公民館緑分館","province":"東京都","city":"小金井市","address":"小金井市緑町3-3-23","lat":35.709554,"lon":139.516375},{"name":"＊?小金井市公民館貫井北分館","province":"東京都","city":"小金井市","address":"小金井市貫井北町1-11-12","lat":35.702323,"lon":139.49769},{"name":"梶野配水所","province":"東京都","city":"小金井市","address":"東京都小金井市梶野町5-10-33","lat":35.7046375,"lon":139.526531},{"name":"梶野浄水所","province":"東京都","city":"小金井市","address":"東京都小金井市梶野町5丁目10-33","lat":35.70463703,"lon":139.52653041},{"name":"都立小金井公園","province":"東京都","city":"小金井市","address":"東京都小金井市関野町1丁目","lat":35.71343867,"lon":139.51977227},{"name":"＊?小金井市公民館貫井南分館","province":"東京都","city":"小金井市","address":"小金井市貫井南町4-3-23","lat":35.693655,"lon":139.493719},{"name":"＊?小金井市公民館","province":"東京都","city":"小金井市","address":"小金井市本町2-15-11","lat":35.705443,"lon":139.510607},{"name":"＊?小金井市公民館東分館","province":"東京都","city":"小金井市","address":"小金井市東町1-39-1","lat":35.69399,"lon":139.526627},{"name":"＊?小金井市公民館緑分館","province":"東京都","city":"小金井市","address":"小金井市緑町3-3-23","lat":35.709554,"lon":139.516375},{"name":"＊?小金井市公民館貫井北分館","province":"東京都","city":"小金井市","address":"小金井市貫井北町1-11-12","lat":35.702323,"lon":139.49769},{"name":"梶野配水所","province":"東京都","city":"小金井市","address":"東京都小金井市梶野町5-10-33","lat":35.7046375,"lon":139.526531},{"name":"都立小金井公園","province":"東京都","city":"小金井市","address":"東京都小金井市関野町1丁目","lat":35.71343867,"lon":139.51977227},{"name":"＊?小金井市公民館貫井南分館","province":"東京都","city":"小金井市","address":"小金井市貫井南町4-3-23","lat":35.693655,"lon":139.493719},{"name":"＊?小金井市公民館","province":"東京都","city":"小金井市","address":"小金井市本町2-15-11","lat":35.705443,"lon":139.510607},{"name":"＊?小金井市公民館東分館","province":"東京都","city":"小金井市","address":"小金井市東町1-39-1","lat":35.69399,"lon":139.526627},{"name":"＊?小金井市公民館緑分館","province":"東京都","city":"小金井市","address":"小金井市緑町3-3-23","lat":35.709554,"lon":139.516375},{"name":"＊?小金井市公民館貫井北分館","province":"東京都","city":"小金井市","address":"小金井市貫井北町1-11-12","lat":35.702323,"lon":139.49769},{"name":"梶野配水所","province":"東京都","city":"小金井市","address":"東京都小金井市梶野町5-10-33","lat":35.7046375,"lon":139.526531},{"name":"＊?小金井市公民館貫井南分館","province":"東京都","city":"小金井市","address":"小金井市貫井南町4-3-23","lat":35.693655,"lon":139.493719},{"name":"＊?小金井市公民館","province":"東京都","city":"小金井市","address":"小金井市本町2-15-11","lat":35.705443,"lon":139.510607},{"name":"＊?小金井市公民館東分館","province":"東京都","city":"小金井市","address":"小金井市東町1-39-1","lat":35.69399,"lon":139.526627},{"name":"＊?小金井市公民館緑分館","province":"東京都","city":"小金井市","address":"小金井市緑町3-3-23","lat":35.709554,"lon":139.516375},{"name":"＊?小金井市公民館貫井北分館","province":"東京都","city":"小金井市","address":"小金井市貫井北町1-11-12","lat":35.702323,"lon":139.49769},{"name":"梶野配水所","province":"東京都","city":"小金井市","address":"東京都小金井市梶野町5-10-33","lat":35.7046375,"lon":139.526531},{"name":"＊?小金井市公民館貫井南分館","province":"東京都","city":"小金井市","address":"小金井市貫井南町4-3-23","lat":35.693655,"lon":139.493719},{"name":"＊?小金井市公民館","province":"東京都","city":"小金井市","address":"小金井市本町2-15-11","lat":35.705443,"lon":139.510607},{"name":"＊?小金井市公民館東分館","province":"東京都","city":"小金井市","address":"小金井市東町1-39-1","lat":35.69399,"lon":139.526627},{"name":"＊?小金井市公民館緑分館","province":"東京都","city":"小金井市","address":"小金井市緑町3-3-23","lat":35.709554,"lon":139.516375},{"name":"＊?小金井市公民館貫井北分館","province":"東京都","city":"小金井市","address":"小金井市貫井北町1-11-12","lat":35.702323,"lon":139.49769},{"name":"梶野配水所","province":"東京都","city":"小金井市","address":"東京都小金井市梶野町5-10-33","lat":35.7046375,"lon":139.526531},{"name":"＊?小金井市公民館貫井南分館","province":"東京都","city":"小金井市","address":"小金井市貫井南町4-3-23","lat":35.693655,"lon":139.493719},{"name":"＊?小金井市公民館","province":"東京都","city":"小金井市","address":"小金井市本町2-15-11","lat":35.705443,"lon":139.510607},{"name":"＊?小金井市公民館東分館","province":"東京都","city":"小金井市","address":"小金井市東町1-39-1","lat":35.69399,"lon":139.526627},{"name":"＊?小金井市公民館緑分館","province":"東京都","city":"小金井市","address":"小金井市緑町3-3-23","lat":35.709554,"lon":139.516375},{"name":"＊?小金井市公民館貫井北分館","province":"東京都","city":"小金井市","address":"小金井市貫井北町1-11-12","lat":35.702323,"lon":139.49769},{"name":"梶野配水所","province":"東京都","city":"小金井市","address":"東京都小金井市梶野町5-10-33","lat":35.7046375,"lon":139.526531},{"name":"＊?小金井市公民館貫井南分館","province":"東京都","city":"小金井市","address":"小金井市貫井南町4-3-23","lat":35.693655,"lon":139.493719},{"name":"＊?小金井市公民館","province":"東京都","city":"小金井市","address":"小金井市本町2-15-11","lat":35.705443,"lon":139.510607},{"name":"＊?小金井市公民館東分館","province":"東京都","city":"小金井市","address":"小金井市東町1-39-1","lat":35.69399,"lon":139.526627},{"name":"＊?小金井市公民館緑分館","province":"東京都","city":"小金井市","address":"小金井市緑町3-3-23","lat":35.709554,"lon":139.516375},{"name":"＊?小金井市公民館貫井北分館","province":"東京都","city":"小金井市","address":"小金井市貫井北町1-11-12","lat":35.702323,"lon":139.49769},{"name":"梶野配水所","province":"東京都","city":"小金井市","address":"東京都小金井市梶野町5-10-33","lat":35.7046375,"lon":139.526531},{"name":"＊?小金井市公民館貫井南分館","province":"東京都","city":"小金井市","address":"小金井市貫井南町4-3-23","lat":35.693655,"lon":139.493719},{"name":"＊?小金井市公民館","province":"東京都","city":"小金井市","address":"小金井市本町2-15-11","lat":35.705443,"lon":139.510607},{"name":"＊?小金井市公民館東分館","province":"東京都","city":"小金井市","address":"小金井市東町1-39-1","lat":35.69399,"lon":139.526627},{"name":"＊?小金井市公民館緑分館","province":"東京都","city":"小金井市","address":"小金井市緑町3-3-23","lat":35.709554,"lon":139.516375},{"name":"＊?小金井市公民館貫井北分館","province":"東京都","city":"小金井市","address":"小金井市貫井北町1-11-12","lat":35.702323,"lon":139.49769},{"name":"梶野配水所","province":"東京都","city":"小金井市","address":"東京都小金井市梶野町5-10-33","lat":35.7046375,"lon":139.526531},{"name":"＊?小金井市公民館貫井南分館","province":"東京都","city":"小金井市","address":"小金井市貫井南町4-3-23","lat":35.693655,"lon":139.493719},{"name":"＊?小金井市公民館","province":"東京都","city":"小金井市","address":"小金井市本町2-15-11","lat":35.705443,"lon":139.510607},{"name":"＊?小金井市公民館東分館","province":"東京都","city":"小金井市","address":"小金井市東町1-39-1","lat":35.69399,"lon":139.526627},{"name":"＊?小金井市公民館緑分館","province":"東京都","city":"小金井市","address":"小金井市緑町3-3-23","lat":35.709554,"lon":139.516375},{"name":"＊?小金井市公民館貫井北分館","province":"東京都","city":"小金井市","address":"小金井市貫井北町1-11-12","lat":35.702323,"lon":139.49769},{"name":"梶野配水所","province":"東京都","city":"小金井市","address":"東京都小金井市梶野町5-10-33","lat":35.7046375,"lon":139.526531},{"name":"＊?小金井市公民館貫井南分館","province":"東京都","city":"小金井市","address":"小金井市貫井南町4-3-23","lat":35.693655,"lon":139.493719},{"name":"＊?小金井市公民館","province":"東京都","city":"小金井市","address":"小金井市本町2-15-11","lat":35.705443,"lon":139.510607},{"name":"＊?小金井市公民館東分館","province":"東京都","city":"小金井市","address":"小金井市東町1-39-1","lat":35.69399,"lon":139.526627},{"name":"＊?小金井市公民館緑分館","province":"東京都","city":"小金井市","address":"小金井市緑町3-3-23","lat":35.709554,"lon":139.516375},{"name":"＊?小金井市公民館貫井北分館","province":"東京都","city":"小金井市","address":"小金井市貫井北町1-11-12","lat":35.702323,"lon":139.49769},{"name":"梶野配水所","province":"東京都","city":"小金井市","address":"東京都小金井市梶野町5-10-33","lat":35.7046375,"lon":139.526531},{"name":"＊?小金井市公民館貫井南分館","province":"東京都","city":"小金井市","address":"小金井市貫井南町4-3-23","lat":35.693655,"lon":139.493719},{"name":"＊?小金井市公民館","province":"東京都","city":"小金井市","address":"小金井市本町2-15-11","lat":35.705443,"lon":139.510607},{"name":"＊?小金井市公民館東分館","province":"東京都","city":"小金井市","address":"小金井市東町1-39-1","lat":35.69399,"lon":139.526627},{"name":"＊?小金井市公民館緑分館","province":"東京都","city":"小金井市","address":"小金井市緑町3-3-23","lat":35.709554,"lon":139.516375},{"name":"＊?小金井市公民館貫井北分館","province":"東京都","city":"小金井市","address":"小金井市貫井北町1-11-12","lat":35.702323,"lon":139.49769},{"name":"梶野配水所","province":"東京都","city":"小金井市","address":"東京都小金井市梶野町5-10-33","lat":35.7046375,"lon":139.526531},{"name":"＊?小金井市公民館貫井南分館","province":"東京都","city":"小金井市","address":"小金井市貫井南町4-3-23","lat":35.693655,"lon":139.493719},{"name":"＊?小金井市公民館","province":"東京都","city":"小金井市","address":"小金井市本町2-15-11","lat":35.705443,"lon":139.510607},{"name":"＊?小金井市公民館東分館","province":"東京都","city":"小金井市","address":"小金井市東町1-39-1","lat":35.69399,"lon":139.526627},{"name":"＊?小金井市公民館緑分館","province":"東京都","city":"小金井市","address":"小金井市緑町3-3-23","lat":35.709554,"lon":139.516375},{"name":"＊?小金井市公民館貫井北分館","province":"東京都","city":"小金井市","address":"小金井市貫井北町1-11-12","lat":35.702323,"lon":139.49769},{"name":"梶野配水所","province":"東京都","city":"小金井市","address":"東京都小金井市梶野町5-10-33","lat":35.7046375,"lon":139.526531},{"name":"＊?小金井市公民館貫井南分館","province":"東京都","city":"小金井市","address":"小金井市貫井南町4-3-23","lat":35.693655,"lon":139.493719},{"name":"＊?小金井市公民館","province":"東京都","city":"小金井市","address":"小金井市本町2-15-11","lat":35.705443,"lon":139.510607},{"name":"＊?小金井市公民館東分館","province":"東京都","city":"小金井市","address":"小金井市東町1-39-1","lat":35.69399,"lon":139.526627},{"name":"＊?小金井市公民館緑分館","province":"東京都","city":"小金井市","address":"小金井市緑町3-3-23","lat":35.709554,"lon":139.516375},{"name":"＊?小金井市公民館貫井北分館","province":"東京都","city":"小金井市","address":"小金井市貫井北町1-11-12","lat":35.702323,"lon":139.49769},{"name":"梶野配水所","province":"東京都","city":"小金井市","address":"東京都小金井市梶野町5-10-33","lat":35.7046375,"lon":139.526531},{"name":"＊?小金井市公民館貫井南分館","province":"東京都","city":"小金井市","address":"小金井市貫井南町4-3-23","lat":35.693655,"lon":139.493719},{"name":"＊?小金井市公民館","province":"東京都","city":"小金井市","address":"小金井市本町2-15-11","lat":35.705443,"lon":139.510607},{"name":"＊?小金井市公民館東分館","province":"東京都","city":"小金井市","address":"小金井市東町1-39-1","lat":35.69399,"lon":139.526627},{"name":"＊?小金井市公民館緑分館","province":"東京都","city":"小金井市","address":"小金井市緑町3-3-23","lat":35.709554,"lon":139.516375},{"name":"＊?小金井市公民館貫井北分館","province":"東京都","city":"小金井市","address":"小金井市貫井北町1-11-12","lat":35.702323,"lon":139.49769},{"name":"梶野配水所","province":"東京都","city":"小金井市","address":"東京都小金井市梶野町5-10-33","lat":35.7046375,"lon":139.526531},{"name":"＊?小金井市公民館貫井南分館","province":"東京都","city":"小金井市","address":"小金井市貫井南町4-3-23","lat":35.693655,"lon":139.493719},{"name":"＊?小金井市公民館","province":"東京都","city":"小金井市","address":"小金井市本町2-15-11","lat":35.705443,"lon":139.510607},{"name":"＊?小金井市公民館東分館","province":"東京都","city":"小金井市","address":"小金井市東町1-39-1","lat":35.69399,"lon":139.526627},{"name":"＊?小金井市公民館緑分館","province":"東京都","city":"小金井市","address":"小金井市緑町3-3-23","lat":35.709554,"lon":139.516375},{"name":"＊?小金井市公民館貫井北分館","province":"東京都","city":"小金井市","address":"小金井市貫井北町1-11-12","lat":35.702323,"lon":139.49769},{"name":"梶野配水所","province":"東京都","city":"小金井市","address":"東京都小金井市梶野町5-10-33","lat":35.7046375,"lon":139.526531},{"name":"＊?小金井市公民館貫井南分館","province":"東京都","city":"小金井市","address":"小金井市貫井南町4-3-23","lat":35.693655,"lon":139.493719},{"name":"＊?小金井市公民館","province":"東京都","city":"小金井市","address":"小金井市本町2-15-11","lat":35.705443,"lon":139.510607},{"name":"＊?小金井市公民館東分館","province":"東京都","city":"小金井市","address":"小金井市東町1-39-1","lat":35.69399,"lon":139.526627},{"name":"＊?小金井市公民館緑分館","province":"東京都","city":"小金井市","address":"小金井市緑町3-3-23","lat":35.709554,"lon":139.516375},{"name":"＊?小金井市公民館貫井北分館","province":"東京都","city":"小金井市","address":"小金井市貫井北町1-11-12","lat":35.702323,"lon":139.49769},{"name":"梶野配水所","province":"東京都","city":"小金井市","address":"東京都小金井市梶野町5-10-33","lat":35.7046375,"lon":139.526531},{"name":"＊?小金井市公民館貫井南分館","province":"東京都","city":"小金井市","address":"小金井市貫井南町4-3-23","lat":35.693655,"lon":139.493719},{"name":"＊?小金井市公民館","province":"東京都","city":"小金井市","address":"小金井市本町2-15-11","lat":35.705443,"lon":139.510607},{"name":"＊?小金井市公民館東分館","province":"東京都","city":"小金井市","address":"小金井市東町1-39-1","lat":35.69399,"lon":139.526627},{"name":"＊?小金井市公民館緑分館","province":"東京都","city":"小金井市","address":"小金井市緑町3-3-23","lat":35.709554,"lon":139.516375},{"name":"＊?小金井市公民館貫井北分館","province":"東京都","city":"小金井市","address":"小金井市貫井北町1-11-12","lat":35.702323,"lon":139.49769},{"name":"梶野配水所","province":"東京都","city":"小金井市","address":"東京都小金井市梶野町5-10-33","lat":35.7046375,"lon":139.526531},{"name":"＊?小金井市公民館貫井南分館","province":"東京都","city":"小金井市","address":"小金井市貫井南町4-3-23","lat":35.693655,"lon":139.493719},{"name":"＊?小金井市公民館","province":"東京都","city":"小金井市","address":"小金井市本町2-15-11","lat":35.705443,"lon":139.510607},{"name":"＊?小金井市公民館東分館","province":"東京都","city":"小金井市","address":"小金井市東町1-39-1","lat":35.69399,"lon":139.526627},{"name":"＊?小金井市公民館緑分館","province":"東京都","city":"小金井市","address":"小金井市緑町3-3-23","lat":35.709554,"lon":139.516375},{"name":"＊?小金井市公民館貫井北分館","province":"東京都","city":"小金井市","address":"小金井市貫井北町1-11-12","lat":35.702323,"lon":139.49769},{"name":"梶野配水所","province":"東京都","city":"小金井市","address":"東京都小金井市梶野町5-10-33","lat":35.7046375,"lon":139.526531},{"name":"＊?小金井市公民館貫井南分館","province":"東京都","city":"小金井市","address":"小金井市貫井南町4-3-23","lat":35.693655,"lon":139.493719},{"name":"＊?小金井市公民館","province":"東京都","city":"小金井市","address":"小金井市本町2-15-11","lat":35.705443,"lon":139.510607},{"name":"＊?小金井市公民館東分館","province":"東京都","city":"小金井市","address":"小金井市東町1-39-1","lat":35.69399,"lon":139.526627},{"name":"＊?小金井市公民館緑分館","province":"東京都","city":"小金井市","address":"小金井市緑町3-3-23","lat":35.709554,"lon":139.516375},{"name":"＊?小金井市公民館貫井北分館","province":"東京都","city":"小金井市","address":"小金井市貫井北町1-11-12","lat":35.702323,"lon":139.49769},{"name":"梶野配水所","province":"東京都","city":"小金井市","address":"東京都小金井市梶野町5-10-33","lat":35.7046375,"lon":139.526531},{"name":"＊?小金井市公民館貫井南分館","province":"東京都","city":"小金井市","address":"小金井市貫井南町4-3-23","lat":35.693655,"lon":139.493719},{"name":"＊?小金井市公民館","province":"東京都","city":"小金井市","address":"小金井市本町2-15-11","lat":35.705443,"lon":139.510607},{"name":"＊?小金井市公民館東分館","province":"東京都","city":"小金井市","address":"小金井市東町1-39-1","lat":35.69399,"lon":139.526627},{"name":"＊?小金井市公民館緑分館","province":"東京都","city":"小金井市","address":"小金井市緑町3-3-23","lat":35.709554,"lon":139.516375},{"name":"＊?小金井市公民館貫井北分館","province":"東京都","city":"小金井市","address":"小金井市貫井北町1-11-12","lat":35.702323,"lon":139.49769},{"name":"梶野配水所","province":"東京都","city":"小金井市","address":"東京都小金井市梶野町5-10-33","lat":35.7046375,"lon":139.526531},{"name":"＊?小金井市公民館貫井南分館","province":"東京都","city":"小金井市","address":"小金井市貫井南町4-3-23","lat":35.693655,"lon":139.493719},{"name":"＊?小金井市公民館","province":"東京都","city":"小金井市","address":"小金井市本町2-15-11","lat":35.705443,"lon":139.510607},{"name":"＊?小金井市公民館東分館","province":"東京都","city":"小金井市","address":"小金井市東町1-39-1","lat":35.69399,"lon":139.526627},{"name":"＊?小金井市公民館緑分館","province":"東京都","city":"小金井市","address":"小金井市緑町3-3-23","lat":35.709554,"lon":139.516375},{"name":"＊?小金井市公民館貫井北分館","province":"東京都","city":"小金井市","address":"小金井市貫井北町1-11-12","lat":35.702323,"lon":139.49769},{"name":"梶野配水所","province":"東京都","city":"小金井市","address":"東京都小金井市梶野町5-10-33","lat":35.7046375,"lon":139.526531},{"name":"＊?小金井市公民館貫井南分館","province":"東京都","city":"小金井市","address":"小金井市貫井南町4-3-23","lat":35.693655,"lon":139.493719},{"name":"＊?小金井市公民館","province":"東京都","city":"小金井市","address":"小金井市本町2-15-11","lat":35.705443,"lon":139.510607},{"name":"＊?小金井市公民館東分館","province":"東京都","city":"小金井市","address":"小金井市東町1-39-1","lat":35.69399,"lon":139.526627},{"name":"＊?小金井市公民館緑分館","province":"東京都","city":"小金井市","address":"小金井市緑町3-3-23","lat":35.709554,"lon":139.516375},{"name":"＊?小金井市公民館貫井北分館","province":"東京都","city":"小金井市","address":"小金井市貫井北町1-11-12","lat":35.702323,"lon":139.49769},{"name":"梶野配水所","province":"東京都","city":"小金井市","address":"東京都小金井市梶野町5-10-33","lat":35.7046375,"lon":139.526531},{"name":"＊?小金井市公民館貫井南分館","province":"東京都","city":"小金井市","address":"小金井市貫井南町4-3-23","lat":35.693655,"lon":139.493719},{"name":"＊?小金井市公民館","province":"東京都","city":"小金井市","address":"小金井市本町2-15-11","lat":35.705443,"lon":139.510607},{"name":"＊?小金井市公民館東分館","province":"東京都","city":"小金井市","address":"小金井市東町1-39-1","lat":35.69399,"lon":139.526627},{"name":"＊?小金井市公民館緑分館","province":"東京都","city":"小金井市","address":"小金井市緑町3-3-23","lat":35.709554,"lon":139.516375},{"name":"＊?小金井市公民館貫井北分館","province":"東京都","city":"小金井市","address":"小金井市貫井北町1-11-12","lat":35.702323,"lon":139.49769},{"name":"梶野配水所","province":"東京都","city":"小金井市","address":"東京都小金井市梶野町5-10-33","lat":35.7046375,"lon":139.526531},{"name":"＊?小金井市公民館貫井南分館","province":"東京都","city":"小金井市","address":"小金井市貫井南町4-3-23","lat":35.693655,"lon":139.493719},{"name":"＊?小金井市公民館","province":"東京都","city":"小金井市","address":"小金井市本町2-15-11","lat":35.705443,"lon":139.510607},{"name":"＊?小金井市公民館東分館","province":"東京都","city":"小金井市","address":"小金井市東町1-39-1","lat":35.69399,"lon":139.526627},{"name":"＊?小金井市公民館緑分館","province":"東京都","city":"小金井市","address":"小金井市緑町3-3-23","lat":35.709554,"lon":139.516375},{"name":"＊?小金井市公民館貫井北分館","province":"東京都","city":"小金井市","address":"小金井市貫井北町1-11-12","lat":35.702323,"lon":139.49769},{"name":"梶野配水所","province":"東京都","city":"小金井市","address":"東京都小金井市梶野町5-10-33","lat":35.7046375,"lon":139.526531},{"name":"＊?小金井市公民館貫井南分館","province":"東京都","city":"小金井市","address":"小金井市貫井南町4-3-23","lat":35.693655,"lon":139.493719},{"name":"＊?小金井市公民館","province":"東京都","city":"小金井市","address":"小金井市本町2-15-11","lat":35.705443,"lon":139.510607},{"name":"＊?小金井市公民館東分館","province":"東京都","city":"小金井市","address":"小金井市東町1-39-1","lat":35.69399,"lon":139.526627},{"name":"＊?小金井市公民館緑分館","province":"東京都","city":"小金井市","address":"小金井市緑町3-3-23","lat":35.709554,"lon":139.516375},{"name":"＊?小金井市公民館貫井北分館","province":"東京都","city":"小金井市","address":"小金井市貫井北町1-11-12","lat":35.702323,"lon":139.49769},{"name":"梶野配水所","province":"東京都","city":"小金井市","address":"東京都小金井市梶野町5-10-33","lat":35.7046375,"lon":139.526531},{"name":"＊?小金井市公民館貫井南分館","province":"東京都","city":"小金井市","address":"小金井市貫井南町4-3-23","lat":35.693655,"lon":139.493719},{"name":"＊?小金井市公民館","province":"東京都","city":"小金井市","address":"小金井市本町2-15-11","lat":35.705443,"lon":139.510607},{"name":"＊?小金井市公民館東分館","province":"東京都","city":"小金井市","address":"小金井市東町1-39-1","lat":35.69399,"lon":139.526627},{"name":"＊?小金井市公民館緑分館","province":"東京都","city":"小金井市","address":"小金井市緑町3-3-23","lat":35.709554,"lon":139.516375},{"name":"＊?小金井市公民館貫井北分館","province":"東京都","city":"小金井市","address":"小金井市貫井北町1-11-12","lat":35.702323,"lon":139.49769},{"name":"梶野配水所","province":"東京都","city":"小金井市","address":"東京都小金井市梶野町5-10-33","lat":35.7046375,"lon":139.526531},{"name":"＊?小金井市公民館貫井南分館","province":"東京都","city":"小金井市","address":"小金井市貫井南町4-3-23","lat":35.693655,"lon":139.493719},{"name":"＊?小金井市公民館","province":"東京都","city":"小金井市","address":"小金井市本町2-15-11","lat":35.705443,"lon":139.510607},{"name":"＊?小金井市公民館東分館","province":"東京都","city":"小金井市","address":"小金井市東町1-39-1","lat":35.69399,"lon":139.526627},{"name":"＊?小金井市公民館緑分館","province":"東京都","city":"小金井市","address":"小金井市緑町3-3-23","lat":35.709554,"lon":139.516375},{"name":"＊?小金井市公民館貫井北分館","province":"東京都","city":"小金井市","address":"小金井市貫井北町1-11-12","lat":35.702323,"lon":139.49769},{"name":"梶野配水所","province":"東京都","city":"小金井市","address":"東京都小金井市梶野町5-10-33","lat":35.7046375,"lon":139.526531},{"name":"＊?小金井市公民館貫井南分館","province":"東京都","city":"小金井市","address":"小金井市貫井南町4-3-23","lat":35.693655,"lon":139.493719},{"name":"＊?小金井市公民館","province":"東京都","city":"小金井市","address":"小金井市本町2-15-11","lat":35.705443,"lon":139.510607},{"name":"＊?小金井市公民館東分館","province":"東京都","city":"小金井市","address":"小金井市東町1-39-1","lat":35.69399,"lon":139.526627},{"name":"＊?小金井市公民館緑分館","province":"東京都","city":"小金井市","address":"小金井市緑町3-3-23","lat":35.709554,"lon":139.516375},{"name":"＊?小金井市公民館貫井北分館","province":"東京都","city":"小金井市","address":"小金井市貫井北町1-11-12","lat":35.702323,"lon":139.49769},{"name":"梶野配水所","province":"東京都","city":"小金井市","address":"東京都小金井市梶野町5-10-33","lat":35.7046375,"lon":139.526531},{"name":"＊?小金井市公民館貫井南分館","province":"東京都","city":"小金井市","address":"小金井市貫井南町4-3-23","lat":35.693655,"lon":139.493719},{"name":"＊?小金井市公民館","province":"東京都","city":"小金井市","address":"小金井市本町2-15-11","lat":35.705443,"lon":139.510607},{"name":"＊?小金井市公民館東分館","province":"東京都","city":"小金井市","address":"小金井市東町1-39-1","lat":35.69399,"lon":139.526627},{"name":"＊?小金井市公民館緑分館","province":"東京都","city":"小金井市","address":"小金井市緑町3-3-23","lat":35.709554,"lon":139.516375},{"name":"＊?小金井市公民館貫井北分館","province":"東京都","city":"小金井市","address":"小金井市貫井北町1-11-12","lat":35.702323,"lon":139.49769},{"name":"梶野配水所","province":"東京都","city":"小金井市","address":"東京都小金井市梶野町5-10-33","lat":35.7046375,"lon":139.526531},{"name":"＊?小金井市公民館貫井南分館","province":"東京都","city":"小金井市","address":"小金井市貫井南町4-3-23","lat":35.693655,"lon":139.493719},{"name":"＊?小金井市公民館","province":"東京都","city":"小金井市","address":"小金井市本町2-15-11","lat":35.705443,"lon":139.510607},{"name":"＊?小金井市公民館東分館","province":"東京都","city":"小金井市","address":"小金井市東町1-39-1","lat":35.69399,"lon":139.526627},{"name":"＊?小金井市公民館緑分館","province":"東京都","city":"小金井市","address":"小金井市緑町3-3-23","lat":35.709554,"lon":139.516375},{"name":"＊?小金井市公民館貫井北分館","province":"東京都","city":"小金井市","address":"小金井市貫井北町1-11-12","lat":35.702323,"lon":139.49769},{"name":"梶野配水所","province":"東京都","city":"小金井市","address":"東京都小金井市梶野町5-10-33","lat":35.7046375,"lon":139.526531},{"name":"＊?小金井市公民館貫井南分館","province":"東京都","city":"小金井市","address":"小金井市貫井南町4-3-23","lat":35.693655,"lon":139.493719},{"name":"＊?小金井市公民館","province":"東京都","city":"小金井市","address":"小金井市本町2-15-11","lat":35.705443,"lon":139.510607},{"name":"＊?小金井市公民館東分館","province":"東京都","city":"小金井市","address":"小金井市東町1-39-1","lat":35.69399,"lon":139.526627},{"name":"＊?小金井市公民館緑分館","province":"東京都","city":"小金井市","address":"小金井市緑町3-3-23","lat":35.709554,"lon":139.516375},{"name":"＊?小金井市公民館貫井北分館","province":"東京都","city":"小金井市","address":"小金井市貫井北町1-11-12","lat":35.702323,"lon":139.49769},{"name":"梶野配水所","province":"東京都","city":"小金井市","address":"東京都小金井市梶野町5-10-33","lat":35.7046375,"lon":139.526531},{"name":"＊?小金井市公民館貫井南分館","province":"東京都","city":"小金井市","address":"小金井市貫井南町4-3-23","lat":35.693655,"lon":139.493719},{"name":"＊?小金井市公民館","province":"東京都","city":"小金井市","address":"小金井市本町2-15-11","lat":35.705443,"lon":139.510607},{"name":"＊?小金井市公民館東分館","province":"東京都","city":"小金井市","address":"小金井市東町1-39-1","lat":35.69399,"lon":139.526627},{"name":"＊?小金井市公民館緑分館","province":"東京都","city":"小金井市","address":"小金井市緑町3-3-23","lat":35.709554,"lon":139.516375},{"name":"＊?小金井市公民館貫井北分館","province":"東京都","city":"小金井市","address":"小金井市貫井北町1-11-12","lat":35.702323,"lon":139.49769},{"name":"梶野配水所","province":"東京都","city":"小金井市","address":"東京都小金井市梶野町5-10-33","lat":35.7046375,"lon":139.526531},{"name":"＊?小金井市公民館貫井南分館","province":"東京都","city":"小金井市","address":"小金井市貫井南町4-3-23","lat":35.693655,"lon":139.493719},{"name":"＊?小金井市公民館","province":"東京都","city":"小金井市","address":"小金井市本町2-15-11","lat":35.705443,"lon":139.510607},{"name":"＊?小金井市公民館東分館","province":"東京都","city":"小金井市","address":"小金井市東町1-39-1","lat":35.69399,"lon":139.526627},{"name":"＊?小金井市公民館緑分館","province":"東京都","city":"小金井市","address":"小金井市緑町3-3-23","lat":35.709554,"lon":139.516375},{"name":"＊?小金井市公民館貫井北分館","province":"東京都","city":"小金井市","address":"小金井市貫井北町1-11-12","lat":35.702323,"lon":139.49769},{"name":"梶野配水所","province":"東京都","city":"小金井市","address":"東京都小金井市梶野町5-10-33","lat":35.7046375,"lon":139.526531},{"name":"＊?小金井市公民館貫井南分館","province":"東京都","city":"小金井市","address":"小金井市貫井南町4-3-23","lat":35.693655,"lon":139.493719},{"name":"＊?小金井市公民館","province":"東京都","city":"小金井市","address":"小金井市本町2-15-11","lat":35.705443,"lon":139.510607},{"name":"＊?小金井市公民館東分館","province":"東京都","city":"小金井市","address":"小金井市東町1-39-1","lat":35.69399,"lon":139.526627},{"name":"＊?小金井市公民館緑分館","province":"東京都","city":"小金井市","address":"小金井市緑町3-3-23","lat":35.709554,"lon":139.516375},{"name":"＊?小金井市公民館貫井北分館","province":"東京都","city":"小金井市","address":"小金井市貫井北町1-11-12","lat":35.702323,"lon":139.49769},{"name":"梶野配水所","province":"東京都","city":"小金井市","address":"東京都小金井市梶野町5-10-33","lat":35.7046375,"lon":139.526531},{"name":"＊?小金井市公民館貫井南分館","province":"東京都","city":"小金井市","address":"小金井市貫井南町4-3-23","lat":35.693655,"lon":139.493719},{"name":"＊?小金井市公民館","province":"東京都","city":"小金井市","address":"小金井市本町2-15-11","lat":35.705443,"lon":139.510607},{"name":"＊?小金井市公民館東分館","province":"東京都","city":"小金井市","address":"小金井市東町1-39-1","lat":35.69399,"lon":139.526627},{"name":"＊?小金井市公民館緑分館","province":"東京都","city":"小金井市","address":"小金井市緑町3-3-23","lat":35.709554,"lon":139.516375},{"name":"＊?小金井市公民館貫井北分館","province":"東京都","city":"小金井市","address":"小金井市貫井北町1-11-12","lat":35.702323,"lon":139.49769},{"name":"梶野配水所","province":"東京都","city":"小金井市","address":"東京都小金井市梶野町5-10-33","lat":35.7046375,"lon":139.526531},{"name":"＊?小金井市公民館貫井南分館","province":"東京都","city":"小金井市","address":"小金井市貫井南町4-3-23","lat":35.693655,"lon":139.493719},{"name":"＊?小金井市公民館","province":"東京都","city":"小金井市","address":"小金井市本町2-15-11","lat":35.705443,"lon":139.510607},{"name":"＊?小金井市公民館東分館","province":"東京都","city":"小金井市","address":"小金井市東町1-39-1","lat":35.69399,"lon":139.526627},{"name":"＊?小金井市公民館緑分館","province":"東京都","city":"小金井市","address":"小金井市緑町3-3-23","lat":35.709554,"lon":139.516375},{"name":"＊?小金井市公民館貫井北分館","province":"東京都","city":"小金井市","address":"小金井市貫井北町1-11-12","lat":35.702323,"lon":139.49769},{"name":"梶野配水所","province":"東京都","city":"小金井市","address":"東京都小金井市梶野町5-10-33","lat":35.7046375,"lon":139.526531},{"name":"＊?小金井市公民館貫井南分館","province":"東京都","city":"小金井市","address":"小金井市貫井南町4-3-23","lat":35.693655,"lon":139.493719},{"name":"＊?小金井市公民館","province":"東京都","city":"小金井市","address":"小金井市本町2-15-11","lat":35.705443,"lon":139.510607},{"name":"＊?小金井市公民館東分館","province":"東京都","city":"小金井市","address":"小金井市東町1-39-1","lat":35.69399,"lon":139.526627},{"name":"＊?小金井市公民館緑分館","province":"東京都","city":"小金井市","address":"小金井市緑町3-3-23","lat":35.709554,"lon":139.516375},{"name":"＊?小金井市公民館貫井北分館","province":"東京都","city":"小金井市","address":"小金井市貫井北町1-11-12","lat":35.702323,"lon":139.49769},{"name":"梶野配水所","province":"東京都","city":"小金井市","address":"東京都小金井市梶野町5-10-33","lat":35.7046375,"lon":139.526531},{"name":"＊?小金井市公民館貫井南分館","province":"東京都","city":"小金井市","address":"小金井市貫井南町4-3-23","lat":35.693655,"lon":139.493719},{"name":"＊?小金井市公民館","province":"東京都","city":"小金井市","address":"小金井市本町2-15-11","lat":35.705443,"lon":139.510607},{"name":"＊?小金井市公民館東分館","province":"東京都","city":"小金井市","address":"小金井市東町1-39-1","lat":35.69399,"lon":139.526627},{"name":"＊?小金井市公民館緑分館","province":"東京都","city":"小金井市","address":"小金井市緑町3-3-23","lat":35.709554,"lon":139.516375},{"name":"＊?小金井市公民館貫井北分館","province":"東京都","city":"小金井市","address":"小金井市貫井北町1-11-12","lat":35.702323,"lon":139.49769},{"name":"梶野配水所","province":"東京都","city":"小金井市","address":"東京都小金井市梶野町5-10-33","lat":35.7046375,"lon":139.526531},{"name":"＊?小金井市公民館貫井南分館","province":"東京都","city":"小金井市","address":"小金井市貫井南町4-3-23","lat":35.693655,"lon":139.493719},{"name":"＊?小金井市公民館","province":"東京都","city":"小金井市","address":"小金井市本町2-15-11","lat":35.705443,"lon":139.510607},{"name":"＊?小金井市公民館東分館","province":"東京都","city":"小金井市","address":"小金井市東町1-39-1","lat":35.69399,"lon":139.526627},{"name":"＊?小金井市公民館緑分館","province":"東京都","city":"小金井市","address":"小金井市緑町3-3-23","lat":35.709554,"lon":139.516375},{"name":"＊?小金井市公民館貫井北分館","province":"東京都","city":"小金井市","address":"小金井市貫井北町1-11-12","lat":35.702323,"lon":139.49769},{"name":"梶野配水所","province":"東京都","city":"小金井市","address":"東京都小金井市梶野町5-10-33","lat":35.7046375,"lon":139.526531},{"name":"＊?小金井市公民館貫井南分館","province":"東京都","city":"小金井市","address":"小金井市貫井南町4-3-23","lat":35.693655,"lon":139.493719},{"name":"＊?小金井市公民館","province":"東京都","city":"小金井市","address":"小金井市本町2-15-11","lat":35.705443,"lon":139.510607},{"name":"＊?小金井市公民館東分館","province":"東京都","city":"小金井市","address":"小金井市東町1-39-1","lat":35.69399,"lon":139.526627},{"name":"＊?小金井市公民館緑分館","province":"東京都","city":"小金井市","address":"小金井市緑町3-3-23","lat":35.709554,"lon":139.516375},{"name":"＊?小金井市公民館貫井北分館","province":"東京都","city":"小金井市","address":"小金井市貫井北町1-11-12","lat":35.702323,"lon":139.49769},{"name":"梶野配水所","province":"東京都","city":"小金井市","address":"東京都小金井市梶野町5-10-33","lat":35.7046375,"lon":139.526531},{"name":"＊?小金井市公民館貫井南分館","province":"東京都","city":"小金井市","address":"小金井市貫井南町4-3-23","lat":35.693655,"lon":139.493719},{"name":"＊?小金井市公民館","province":"東京都","city":"小金井市","address":"小金井市本町2-15-11","lat":35.705443,"lon":139.510607},{"name":"＊?小金井市公民館東分館","province":"東京都","city":"小金井市","address":"小金井市東町1-39-1","lat":35.69399,"lon":139.526627},{"name":"＊?小金井市公民館緑分館","province":"東京都","city":"小金井市","address":"小金井市緑町3-3-23","lat":35.709554,"lon":139.516375},{"name":"＊?小金井市公民館貫井北分館","province":"東京都","city":"小金井市","address":"小金井市貫井北町1-11-12","lat":35.702323,"lon":139.49769},{"name":"梶野配水所","province":"東京都","city":"小金井市","address":"東京都小金井市梶野町5-10-33","lat":35.7046375,"lon":139.526531},{"name":"＊?小金井市公民館貫井南分館","province":"東京都","city":"小金井市","address":"小金井市貫井南町4-3-23","lat":35.693655,"lon":139.493719},{"name":"＊?小金井市公民館","province":"東京都","city":"小金井市","address":"小金井市本町2-15-11","lat":35.705443,"lon":139.510607},{"name":"＊?小金井市公民館東分館","province":"東京都","city":"小金井市","address":"小金井市東町1-39-1","lat":35.69399,"lon":139.526627},{"name":"＊?小金井市公民館緑分館","province":"東京都","city":"小金井市","address":"小金井市緑町3-3-23","lat":35.709554,"lon":139.516375},{"name":"＊?小金井市公民館貫井北分館","province":"東京都","city":"小金井市","address":"小金井市貫井北町1-11-12","lat":35.702323,"lon":139.49769},{"name":"梶野配水所","province":"東京都","city":"小金井市","address":"東京都小金井市梶野町5-10-33","lat":35.7046375,"lon":139.526531},{"name":"＊?小金井市公民館貫井南分館","province":"東京都","city":"小金井市","address":"小金井市貫井南町4-3-23","lat":35.693655,"lon":139.493719},{"name":"＊?小金井市公民館","province":"東京都","city":"小金井市","address":"小金井市本町2-15-11","lat":35.705443,"lon":139.510607},{"name":"＊?小金井市公民館東分館","province":"東京都","city":"小金井市","address":"小金井市東町1-39-1","lat":35.69399,"lon":139.526627},{"name":"＊?小金井市公民館緑分館","province":"東京都","city":"小金井市","address":"小金井市緑町3-3-23","lat":35.709554,"lon":139.516375},{"name":"＊?小金井市公民館貫井北分館","province":"東京都","city":"小金井市","address":"小金井市貫井北町1-11-12","lat":35.702323,"lon":139.49769},{"name":"梶野配水所","province":"東京都","city":"小金井市","address":"東京都小金井市梶野町5-10-33","lat":35.7046375,"lon":139.526531},{"name":"＊?小金井市公民館貫井南分館","province":"東京都","city":"小金井市","address":"小金井市貫井南町4-3-23","lat":35.693655,"lon":139.493719},{"name":"＊?小金井市公民館","province":"東京都","city":"小金井市","address":"小金井市本町2-15-11","lat":35.705443,"lon":139.510607},{"name":"＊?小金井市公民館東分館","province":"東京都","city":"小金井市","address":"小金井市東町1-39-1","lat":35.69399,"lon":139.526627},{"name":"＊?小金井市公民館緑分館","province":"東京都","city":"小金井市","address":"小金井市緑町3-3-23","lat":35.709554,"lon":139.516375},{"name":"＊?小金井市公民館貫井北分館","province":"東京都","city":"小金井市","address":"小金井市貫井北町1-11-12","lat":35.702323,"lon":139.49769}]}