{"keyword":"宿泊","data":[{"name":"梶野町第二荘","province":"東京都","city":"小金井市","address":"小金井市梶野町2-16-6","lat":35.709284,"lon":139.529938},{"name":"梶野町荘","province":"東京都","city":"小金井市","address":"小金井市梶野町2-16-7","lat":35.709309,"lon":139.529727},{"name":"小金井荘","province":"東京都","city":"小金井市","address":"小金井市梶野町4-10-23","lat":35.707681,"lon":139.526964},{"name":"東小金井荘","province":"東京都","city":"小金井市","address":"小金井市梶野町4-10-24","lat":35.707853,"lon":139.526775},{"name":"さくら東小金井ハウス","province":"東京都","city":"小金井市","address":"小金井市東町4-20-22","lat":35.695605,"lon":139.525273},{"name":"サンハイツ貫井南","province":"東京都","city":"小金井市","address":"小金井市貫井南町4-14-8","lat":35.695223,"lon":139.494797},{"name":"梶野町第二荘","province":"東京都","city":"小金井市","address":"小金井市梶野町2-16-6","lat":35.70932,"lon":139.52924},{"name":"梶野町荘","province":"東京都","city":"小金井市","address":"小金井市梶野町2-16-7","lat":35.70932,"lon":139.52924},{"name":"小金井荘","province":"東京都","city":"小金井市","address":"小金井市梶野町4-10-23","lat":35.70747,"lon":139.52699},{"name":"東小金井荘","province":"東京都","city":"小金井市","address":"小金井市梶野町4-10-24","lat":35.70747,"lon":139.52699},{"name":"さくら東小金井ハウス","province":"東京都","city":"小金井市","address":"小金井市東町4-20-22","lat":35.6959,"lon":139.52505},{"name":"サンハイツ貫井南","province":"東京都","city":"小金井市","address":"小金井市貫井南町4-14-8","lat":35.69549,"lon":139.49466}]}