{"keyword":"小金井","data":[{"name":"小金井市公民館","province":"東京都","city":"小金井市","address":"小金井市本町2-15-11","lat":35.705242,"lon":139.510468},{"name":"小金井市公民館貫井南分館","province":"東京都","city":"小金井市","address":"小金井市貫井南町4-3-23","lat":35.693893,"lon":139.493561},{"name":"小金井市公民館東分館","province":"東京都","city":"小金井市","address":"小金井市東町1-39-1","lat":35.69315,"lon":139.52597},{"name":"小金井市公民館緑分館","province":"東京都","city":"小金井市","address":"小金井市緑町3-3-23","lat":35.709599,"lon":139.515976},{"name":"小金井市公民館貫井北分館","province":"東京都","city":"小金井市","address":"小金井市貫井北町1-11-12","lat":35.702301,"lon":139.497742},{"name":"小金井市立図書館","province":"東京都","city":"小金井市","address":"小金井市本町1-1-32","lat":35.697937,"lon":139.5103},{"name":"小金井市立図書館貫井北分室","province":"東京都","city":"小金井市","address":"小金井市貫井北町1-11-12","lat":35.702301,"lon":139.497742},{"name":"小金井市立図書館東分室","province":"東京都","city":"小金井市","address":"小金井市東町1-39-1","lat":35.69315,"lon":139.52597},{"name":"小金井市立図書館緑分室","province":"東京都","city":"小金井市","address":"小金井市緑町3-3-23","lat":35.709599,"lon":139.515976},{"name":"西之台会館図書室","province":"東京都","city":"小金井市","address":"小金井市前原町3-8-1","lat":35.693199,"lon":139.49971},{"name":"小金井市文化財センター","province":"東京都","city":"小金井市","address":"小金井市緑町3-2-37","lat":35.711216,"lon":139.517288}]}