{"keyword":"店","data":[{"name":"桜町病院","province":"東京都","city":"小金井市","address":"小金井市桜町1-2-20","lat":35.709547,"lon":139.511426},{"name":"賀川学園","province":"東京都","city":"小金井市","address":"小金井市貫井北町5-8-1","lat":35.701667,"lon":139.488511},{"name":"梶野町第二荘","province":"東京都","city":"小金井市","address":"小金井市梶野町2-16-6","lat":35.709284,"lon":139.529938},{"name":"梶野町荘","province":"東京都","city":"小金井市","address":"小金井市梶野町2-16-7","lat":35.709309,"lon":139.529727},{"name":"小金井荘","province":"東京都","city":"小金井市","address":"小金井市梶野町4-10-23","lat":35.707681,"lon":139.526964},{"name":"東小金井荘","province":"東京都","city":"小金井市","address":"小金井市梶野町4-10-24","lat":35.707853,"lon":139.526775},{"name":"さくら東小金井ハウス","province":"東京都","city":"小金井市","address":"小金井市東町4-20-22","lat":35.695605,"lon":139.525273},{"name":"サンハイツ貫井南","province":"東京都","city":"小金井市","address":"小金井市貫井南町4-14-8","lat":35.695223,"lon":139.494797},{"name":"小金井市社会福祉協議会","province":"東京都","city":"小金井市","address":"小金井市本町5-36-17","lat":35.705414,"lon":139.503918},{"name":"梶野町第二荘","province":"東京都","city":"小金井市","address":"小金井市梶野町2-16-6","lat":35.70932,"lon":139.52924},{"name":"梶野町荘","province":"東京都","city":"小金井市","address":"小金井市梶野町2-16-7","lat":35.70932,"lon":139.52924},{"name":"小金井荘","province":"東京都","city":"小金井市","address":"小金井市梶野町4-10-23","lat":35.70747,"lon":139.52699},{"name":"東小金井荘","province":"東京都","city":"小金井市","address":"小金井市梶野町4-10-24","lat":35.70747,"lon":139.52699},{"name":"さくら東小金井ハウス","province":"東京都","city":"小金井市","address":"小金井市東町4-20-22","lat":35.6959,"lon":139.52505},{"name":"サンハイツ貫井南","province":"東京都","city":"小金井市","address":"小金井市貫井南町4-14-8","lat":35.69549,"lon":139.49466},{"name":"株式会社セレモの森","province":"東京都","city":"小金井市","address":"東京都小金井市本町2丁目19-21","lat":35.70550591,"lon":139.50886795},{"name":"アートビジュアル","province":"東京都","city":"小金井市","address":"東京都小金井市貫井南町4丁目12-37","lat":35.6951233,"lon":139.4930669},{"name":"株式会社まごころ","province":"東京都","city":"小金井市","address":"東京都小金井市前原町4丁目17-6","lat":35.68980753,"lon":139.50422729},{"name":"有限会社　東京フラワーセレモニー","province":"東京都","city":"小金井市","address":"東京都小金井市東町4丁目3-3","lat":35.69449372,"lon":139.52695578},{"name":"東京むさし農業協同組合","province":"東京都","city":"小金井市","address":"東京都小金井市貫井北町1丁目10-1","lat":35.70175882,"lon":139.49866339},{"name":"小金井祭典株式会社","province":"東京都","city":"小金井市","address":"東京都小金井市本町5丁目32-19","lat":35.7047641,"lon":139.50109085},{"name":"株式会社セレモの森","province":"東京都","city":"小金井市","address":"東京都小金井市本町2丁目19-21","lat":35.70550591,"lon":139.50886795},{"name":"有限会社東京フラワーセレモニー","province":"東京都","city":"小金井市","address":"東京都小金井市東町4丁目3-3","lat":35.69449372,"lon":139.52695578},{"name":"花会","province":"東京都","city":"小金井市","address":"東京都小金井市貫井南町1丁目16-17","lat":35.69047939,"lon":139.49344761},{"name":"株式会社三和式典","province":"東京都","city":"小金井市","address":"東京都小金井市本町5丁目8-3","lat":35.70139509,"lon":139.50278528},{"name":"株式会社セレモニーわかば","province":"東京都","city":"小金井市","address":"東京都小金井市貫井北町1丁目23-33","lat":35.70361688,"lon":139.49678291},{"name":"株式会社セレモ","province":"東京都","city":"小金井市","address":"東京都小金井市緑町2丁目4-1","lat":35.70500902,"lon":139.5183422},{"name":"多摩式典株式会社","province":"東京都","city":"小金井市","address":"東京都小金井市中町4丁目4-8","lat":35.69551249,"lon":139.50580472},{"name":"桜町病院","province":"東京都","city":"小金井市","address":"小金井市桜町1-2-20","lat":35.70885,"lon":139.51196},{"name":"梶野町第２荘","province":"東京都","city":"小金井市","address":"小金井市梶野町2-16-6","lat":35.70932,"lon":139.52924},{"name":"梶野町第３荘","province":"東京都","city":"小金井市","address":"小金井市梶野町2-16-9","lat":35.70932,"lon":139.52924},{"name":"サンハイツ貫井南２","province":"東京都","city":"小金井市","address":"小金井市貫井南町4-14-8","lat":35.69549,"lon":139.49466},{"name":"小金井市社会福祉協議会","province":"東京都","city":"小金井市","address":"小金井市本町5-36-17","lat":35.70489,"lon":139.5036},{"name":"小金井市障害者福祉センター小金井市障害者地域自立生活支援センター","province":"東京都","city":"小金井市","address":"東京都小金井市緑町4丁目17-10","lat":35.70867803,"lon":139.51739213},{"name":"合同会社セルフクリエイトデイステーション涼風","province":"東京都","city":"小金井市","address":"東京都小金井市中町1丁目7-34","lat":35.69364894,"lon":139.51066828},{"name":"ワークセンター「あい」","province":"東京都","city":"小金井市","address":"東京都小金井市東町4丁目17-1","lat":35.69549633,"lon":139.52457261},{"name":"手作り工房「みらい」","province":"東京都","city":"小金井市","address":"東京都小金井市東町4丁目20-3","lat":35.69546024,"lon":139.52496703},{"name":"一般社団法人にこにこにこにこファクトリー","province":"東京都","city":"小金井市","address":"東京都小金井市本町1丁目14-15","lat":35.70017043,"lon":139.50992086},{"name":"さくら東小金井ハウス","province":"東京都","city":"小金井市","address":"小金井市東町4-20-22","lat":35.6959,"lon":139.52506},{"name":"サンハイツ貫井南2","province":"東京都","city":"小金井市","address":"小金井市貫井南町4-14-8","lat":35.69549,"lon":139.49466},{"name":"桜町病院","province":"東京都","city":"小金井市","address":"小金井市桜町1-2-20","lat":35.709547,"lon":139.511426},{"name":"賀川学園","province":"東京都","city":"小金井市","address":"小金井市貫井北町5-8-1","lat":35.701667,"lon":139.488511},{"name":"梶野町第二荘","province":"東京都","city":"小金井市","address":"小金井市梶野町2-16-6","lat":35.709284,"lon":139.529938},{"name":"梶野町荘","province":"東京都","city":"小金井市","address":"小金井市梶野町2-16-7","lat":35.709309,"lon":139.529727},{"name":"小金井荘","province":"東京都","city":"小金井市","address":"小金井市梶野町4-10-23","lat":35.707681,"lon":139.526964},{"name":"東小金井荘","province":"東京都","city":"小金井市","address":"小金井市梶野町4-10-24","lat":35.707853,"lon":139.526775},{"name":"さくら東小金井ハウス","province":"東京都","city":"小金井市","address":"小金井市東町4-20-22","lat":35.695605,"lon":139.525273},{"name":"サンハイツ貫井南","province":"東京都","city":"小金井市","address":"小金井市貫井南町4-14-8","lat":35.695223,"lon":139.494797},{"name":"小金井市社会福祉協議会","province":"東京都","city":"小金井市","address":"小金井市本町5-36-17","lat":35.705414,"lon":139.503918},{"name":"梶野町第二荘","province":"東京都","city":"小金井市","address":"小金井市梶野町2-16-6","lat":35.70932,"lon":139.52924},{"name":"梶野町荘","province":"東京都","city":"小金井市","address":"小金井市梶野町2-16-7","lat":35.70932,"lon":139.52924},{"name":"小金井荘","province":"東京都","city":"小金井市","address":"小金井市梶野町4-10-23","lat":35.70747,"lon":139.52699},{"name":"東小金井荘","province":"東京都","city":"小金井市","address":"小金井市梶野町4-10-24","lat":35.70747,"lon":139.52699},{"name":"さくら東小金井ハウス","province":"東京都","city":"小金井市","address":"小金井市東町4-20-22","lat":35.6959,"lon":139.52505},{"name":"サンハイツ貫井南","province":"東京都","city":"小金井市","address":"小金井市貫井南町4-14-8","lat":35.69549,"lon":139.49466},{"name":"株式会社セレモの森","province":"東京都","city":"小金井市","address":"東京都小金井市本町2丁目19-21","lat":35.70550591,"lon":139.50886795},{"name":"アートビジュアル","province":"東京都","city":"小金井市","address":"東京都小金井市貫井南町4丁目12-37","lat":35.6951233,"lon":139.4930669},{"name":"株式会社まごころ","province":"東京都","city":"小金井市","address":"東京都小金井市前原町4丁目17-6","lat":35.68980753,"lon":139.50422729},{"name":"有限会社　東京フラワーセレモニー","province":"東京都","city":"小金井市","address":"東京都小金井市東町4丁目3-3","lat":35.69449372,"lon":139.52695578},{"name":"東京むさし農業協同組合","province":"東京都","city":"小金井市","address":"東京都小金井市貫井北町1丁目10-1","lat":35.70175882,"lon":139.49866339},{"name":"小金井祭典株式会社","province":"東京都","city":"小金井市","address":"東京都小金井市本町5丁目32-19","lat":35.7047641,"lon":139.50109085},{"name":"株式会社セレモの森","province":"東京都","city":"小金井市","address":"東京都小金井市本町2丁目19-21","lat":35.70550591,"lon":139.50886795},{"name":"有限会社東京フラワーセレモニー","province":"東京都","city":"小金井市","address":"東京都小金井市東町4丁目3-3","lat":35.69449372,"lon":139.52695578},{"name":"花会","province":"東京都","city":"小金井市","address":"東京都小金井市貫井南町1丁目16-17","lat":35.69047939,"lon":139.49344761},{"name":"株式会社三和式典","province":"東京都","city":"小金井市","address":"東京都小金井市本町5丁目8-3","lat":35.70139509,"lon":139.50278528},{"name":"株式会社セレモニーわかば","province":"東京都","city":"小金井市","address":"東京都小金井市貫井北町1丁目23-33","lat":35.70361688,"lon":139.49678291},{"name":"株式会社セレモ","province":"東京都","city":"小金井市","address":"東京都小金井市緑町2丁目4-1","lat":35.70500902,"lon":139.5183422},{"name":"多摩式典株式会社","province":"東京都","city":"小金井市","address":"東京都小金井市中町4丁目4-8","lat":35.69551249,"lon":139.50580472},{"name":"桜町病院","province":"東京都","city":"小金井市","address":"小金井市桜町1-2-20","lat":35.70885,"lon":139.51196},{"name":"梶野町第２荘","province":"東京都","city":"小金井市","address":"小金井市梶野町2-16-6","lat":35.70932,"lon":139.52924},{"name":"梶野町第３荘","province":"東京都","city":"小金井市","address":"小金井市梶野町2-16-9","lat":35.70932,"lon":139.52924},{"name":"サンハイツ貫井南２","province":"東京都","city":"小金井市","address":"小金井市貫井南町4-14-8","lat":35.69549,"lon":139.49466},{"name":"小金井市社会福祉協議会","province":"東京都","city":"小金井市","address":"小金井市本町5-36-17","lat":35.70489,"lon":139.5036},{"name":"小金井市障害者福祉センター小金井市障害者地域自立生活支援センター","province":"東京都","city":"小金井市","address":"東京都小金井市緑町4丁目17-10","lat":35.70867803,"lon":139.51739213},{"name":"合同会社セルフクリエイトデイステーション涼風","province":"東京都","city":"小金井市","address":"東京都小金井市中町1丁目7-34","lat":35.69364894,"lon":139.51066828},{"name":"ワークセンター「あい」","province":"東京都","city":"小金井市","address":"東京都小金井市東町4丁目17-1","lat":35.69549633,"lon":139.52457261},{"name":"手作り工房「みらい」","province":"東京都","city":"小金井市","address":"東京都小金井市東町4丁目20-3","lat":35.69546024,"lon":139.52496703},{"name":"一般社団法人にこにこにこにこファクトリー","province":"東京都","city":"小金井市","address":"東京都小金井市本町1丁目14-15","lat":35.70017043,"lon":139.50992086},{"name":"さくら東小金井ハウス","province":"東京都","city":"小金井市","address":"小金井市東町4-20-22","lat":35.6959,"lon":139.52506},{"name":"サンハイツ貫井南2","province":"東京都","city":"小金井市","address":"小金井市貫井南町4-14-8","lat":35.69549,"lon":139.49466},{"name":"桜町病院","province":"東京都","city":"小金井市","address":"小金井市桜町1-2-20","lat":35.709547,"lon":139.511426},{"name":"賀川学園","province":"東京都","city":"小金井市","address":"小金井市貫井北町5-8-1","lat":35.701667,"lon":139.488511},{"name":"梶野町第二荘","province":"東京都","city":"小金井市","address":"小金井市梶野町2-16-6","lat":35.709284,"lon":139.529938},{"name":"梶野町荘","province":"東京都","city":"小金井市","address":"小金井市梶野町2-16-7","lat":35.709309,"lon":139.529727},{"name":"小金井荘","province":"東京都","city":"小金井市","address":"小金井市梶野町4-10-23","lat":35.707681,"lon":139.526964},{"name":"東小金井荘","province":"東京都","city":"小金井市","address":"小金井市梶野町4-10-24","lat":35.707853,"lon":139.526775},{"name":"さくら東小金井ハウス","province":"東京都","city":"小金井市","address":"小金井市東町4-20-22","lat":35.695605,"lon":139.525273},{"name":"サンハイツ貫井南","province":"東京都","city":"小金井市","address":"小金井市貫井南町4-14-8","lat":35.695223,"lon":139.494797},{"name":"小金井市社会福祉協議会","province":"東京都","city":"小金井市","address":"小金井市本町5-36-17","lat":35.705414,"lon":139.503918},{"name":"梶野町第二荘","province":"東京都","city":"小金井市","address":"小金井市梶野町2-16-6","lat":35.70932,"lon":139.52924},{"name":"梶野町荘","province":"東京都","city":"小金井市","address":"小金井市梶野町2-16-7","lat":35.70932,"lon":139.52924},{"name":"小金井荘","province":"東京都","city":"小金井市","address":"小金井市梶野町4-10-23","lat":35.70747,"lon":139.52699},{"name":"東小金井荘","province":"東京都","city":"小金井市","address":"小金井市梶野町4-10-24","lat":35.70747,"lon":139.52699},{"name":"さくら東小金井ハウス","province":"東京都","city":"小金井市","address":"小金井市東町4-20-22","lat":35.6959,"lon":139.52505},{"name":"サンハイツ貫井南","province":"東京都","city":"小金井市","address":"小金井市貫井南町4-14-8","lat":35.69549,"lon":139.49466},{"name":"株式会社セレモの森","province":"東京都","city":"小金井市","address":"東京都小金井市本町2丁目19-21","lat":35.70550591,"lon":139.50886795},{"name":"アートビジュアル","province":"東京都","city":"小金井市","address":"東京都小金井市貫井南町4丁目12-37","lat":35.6951233,"lon":139.4930669},{"name":"株式会社まごころ","province":"東京都","city":"小金井市","address":"東京都小金井市前原町4丁目17-6","lat":35.68980753,"lon":139.50422729},{"name":"有限会社　東京フラワーセレモニー","province":"東京都","city":"小金井市","address":"東京都小金井市東町4丁目3-3","lat":35.69449372,"lon":139.52695578},{"name":"東京むさし農業協同組合","province":"東京都","city":"小金井市","address":"東京都小金井市貫井北町1丁目10-1","lat":35.70175882,"lon":139.49866339},{"name":"小金井祭典株式会社","province":"東京都","city":"小金井市","address":"東京都小金井市本町5丁目32-19","lat":35.7047641,"lon":139.50109085},{"name":"株式会社セレモの森","province":"東京都","city":"小金井市","address":"東京都小金井市本町2丁目19-21","lat":35.70550591,"lon":139.50886795},{"name":"有限会社東京フラワーセレモニー","province":"東京都","city":"小金井市","address":"東京都小金井市東町4丁目3-3","lat":35.69449372,"lon":139.52695578},{"name":"花会","province":"東京都","city":"小金井市","address":"東京都小金井市貫井南町1丁目16-17","lat":35.69047939,"lon":139.49344761},{"name":"株式会社三和式典","province":"東京都","city":"小金井市","address":"東京都小金井市本町5丁目8-3","lat":35.70139509,"lon":139.50278528},{"name":"株式会社セレモニーわかば","province":"東京都","city":"小金井市","address":"東京都小金井市貫井北町1丁目23-33","lat":35.70361688,"lon":139.49678291},{"name":"株式会社セレモ","province":"東京都","city":"小金井市","address":"東京都小金井市緑町2丁目4-1","lat":35.70500902,"lon":139.5183422},{"name":"多摩式典株式会社","province":"東京都","city":"小金井市","address":"東京都小金井市中町4丁目4-8","lat":35.69551249,"lon":139.50580472},{"name":"桜町病院","province":"東京都","city":"小金井市","address":"小金井市桜町1-2-20","lat":35.70885,"lon":139.51196},{"name":"梶野町第２荘","province":"東京都","city":"小金井市","address":"小金井市梶野町2-16-6","lat":35.70932,"lon":139.52924},{"name":"梶野町第３荘","province":"東京都","city":"小金井市","address":"小金井市梶野町2-16-9","lat":35.70932,"lon":139.52924},{"name":"サンハイツ貫井南２","province":"東京都","city":"小金井市","address":"小金井市貫井南町4-14-8","lat":35.69549,"lon":139.49466},{"name":"小金井市社会福祉協議会","province":"東京都","city":"小金井市","address":"小金井市本町5-36-17","lat":35.70489,"lon":139.5036},{"name":"小金井市障害者福祉センター小金井市障害者地域自立生活支援センター","province":"東京都","city":"小金井市","address":"東京都小金井市緑町4丁目17-10","lat":35.70867803,"lon":139.51739213},{"name":"合同会社セルフクリエイトデイステーション涼風","province":"東京都","city":"小金井市","address":"東京都小金井市中町1丁目7-34","lat":35.69364894,"lon":139.51066828},{"name":"ワークセンター「あい」","province":"東京都","city":"小金井市","address":"東京都小金井市東町4丁目17-1","lat":35.69549633,"lon":139.52457261},{"name":"手作り工房「みらい」","province":"東京都","city":"小金井市","address":"東京都小金井市東町4丁目20-3","lat":35.69546024,"lon":139.52496703},{"name":"一般社団法人にこにこにこにこファクトリー","province":"東京都","city":"小金井市","address":"東京都小金井市本町1丁目14-15","lat":35.70017043,"lon":139.50992086},{"name":"さくら東小金井ハウス","province":"東京都","city":"小金井市","address":"小金井市東町4-20-22","lat":35.6959,"lon":139.52506},{"name":"サンハイツ貫井南2","province":"東京都","city":"小金井市","address":"小金井市貫井南町4-14-8","lat":35.69549,"lon":139.49466},{"name":"桜町病院","province":"東京都","city":"小金井市","address":"小金井市桜町1-2-20","lat":35.709547,"lon":139.511426},{"name":"賀川学園","province":"東京都","city":"小金井市","address":"小金井市貫井北町5-8-1","lat":35.701667,"lon":139.488511},{"name":"梶野町第二荘","province":"東京都","city":"小金井市","address":"小金井市梶野町2-16-6","lat":35.709284,"lon":139.529938},{"name":"梶野町荘","province":"東京都","city":"小金井市","address":"小金井市梶野町2-16-7","lat":35.709309,"lon":139.529727},{"name":"小金井荘","province":"東京都","city":"小金井市","address":"小金井市梶野町4-10-23","lat":35.707681,"lon":139.526964},{"name":"東小金井荘","province":"東京都","city":"小金井市","address":"小金井市梶野町4-10-24","lat":35.707853,"lon":139.526775},{"name":"さくら東小金井ハウス","province":"東京都","city":"小金井市","address":"小金井市東町4-20-22","lat":35.695605,"lon":139.525273},{"name":"サンハイツ貫井南","province":"東京都","city":"小金井市","address":"小金井市貫井南町4-14-8","lat":35.695223,"lon":139.494797},{"name":"小金井市社会福祉協議会","province":"東京都","city":"小金井市","address":"小金井市本町5-36-17","lat":35.705414,"lon":139.503918},{"name":"梶野町第二荘","province":"東京都","city":"小金井市","address":"小金井市梶野町2-16-6","lat":35.70932,"lon":139.52924},{"name":"梶野町荘","province":"東京都","city":"小金井市","address":"小金井市梶野町2-16-7","lat":35.70932,"lon":139.52924},{"name":"小金井荘","province":"東京都","city":"小金井市","address":"小金井市梶野町4-10-23","lat":35.70747,"lon":139.52699},{"name":"東小金井荘","province":"東京都","city":"小金井市","address":"小金井市梶野町4-10-24","lat":35.70747,"lon":139.52699},{"name":"さくら東小金井ハウス","province":"東京都","city":"小金井市","address":"小金井市東町4-20-22","lat":35.6959,"lon":139.52505},{"name":"サンハイツ貫井南","province":"東京都","city":"小金井市","address":"小金井市貫井南町4-14-8","lat":35.69549,"lon":139.49466},{"name":"株式会社セレモの森","province":"東京都","city":"小金井市","address":"東京都小金井市本町2丁目19-21","lat":35.70550591,"lon":139.50886795},{"name":"アートビジュアル","province":"東京都","city":"小金井市","address":"東京都小金井市貫井南町4丁目12-37","lat":35.6951233,"lon":139.4930669},{"name":"株式会社まごころ","province":"東京都","city":"小金井市","address":"東京都小金井市前原町4丁目17-6","lat":35.68980753,"lon":139.50422729},{"name":"有限会社　東京フラワーセレモニー","province":"東京都","city":"小金井市","address":"東京都小金井市東町4丁目3-3","lat":35.69449372,"lon":139.52695578},{"name":"東京むさし農業協同組合","province":"東京都","city":"小金井市","address":"東京都小金井市貫井北町1丁目10-1","lat":35.70175882,"lon":139.49866339},{"name":"小金井祭典株式会社","province":"東京都","city":"小金井市","address":"東京都小金井市本町5丁目32-19","lat":35.7047641,"lon":139.50109085},{"name":"株式会社セレモの森","province":"東京都","city":"小金井市","address":"東京都小金井市本町2丁目19-21","lat":35.70550591,"lon":139.50886795},{"name":"有限会社東京フラワーセレモニー","province":"東京都","city":"小金井市","address":"東京都小金井市東町4丁目3-3","lat":35.69449372,"lon":139.52695578},{"name":"花会","province":"東京都","city":"小金井市","address":"東京都小金井市貫井南町1丁目16-17","lat":35.69047939,"lon":139.49344761},{"name":"株式会社三和式典","province":"東京都","city":"小金井市","address":"東京都小金井市本町5丁目8-3","lat":35.70139509,"lon":139.50278528},{"name":"株式会社セレモニーわかば","province":"東京都","city":"小金井市","address":"東京都小金井市貫井北町1丁目23-33","lat":35.70361688,"lon":139.49678291},{"name":"株式会社セレモ","province":"東京都","city":"小金井市","address":"東京都小金井市緑町2丁目4-1","lat":35.70500902,"lon":139.5183422},{"name":"多摩式典株式会社","province":"東京都","city":"小金井市","address":"東京都小金井市中町4丁目4-8","lat":35.69551249,"lon":139.50580472},{"name":"桜町病院","province":"東京都","city":"小金井市","address":"小金井市桜町1-2-20","lat":35.70885,"lon":139.51196},{"name":"梶野町第２荘","province":"東京都","city":"小金井市","address":"小金井市梶野町2-16-6","lat":35.70932,"lon":139.52924},{"name":"梶野町第３荘","province":"東京都","city":"小金井市","address":"小金井市梶野町2-16-9","lat":35.70932,"lon":139.52924},{"name":"サンハイツ貫井南２","province":"東京都","city":"小金井市","address":"小金井市貫井南町4-14-8","lat":35.69549,"lon":139.49466},{"name":"小金井市社会福祉協議会","province":"東京都","city":"小金井市","address":"小金井市本町5-36-17","lat":35.70489,"lon":139.5036},{"name":"小金井市障害者福祉センター小金井市障害者地域自立生活支援センター","province":"東京都","city":"小金井市","address":"東京都小金井市緑町4丁目17-10","lat":35.70867803,"lon":139.51739213},{"name":"合同会社セルフクリエイトデイステーション涼風","province":"東京都","city":"小金井市","address":"東京都小金井市中町1丁目7-34","lat":35.69364894,"lon":139.51066828},{"name":"ワークセンター「あい」","province":"東京都","city":"小金井市","address":"東京都小金井市東町4丁目17-1","lat":35.69549633,"lon":139.52457261},{"name":"手作り工房「みらい」","province":"東京都","city":"小金井市","address":"東京都小金井市東町4丁目20-3","lat":35.69546024,"lon":139.52496703},{"name":"一般社団法人にこにこにこにこファクトリー","province":"東京都","city":"小金井市","address":"東京都小金井市本町1丁目14-15","lat":35.70017043,"lon":139.50992086},{"name":"さくら東小金井ハウス","province":"東京都","city":"小金井市","address":"小金井市東町4-20-22","lat":35.6959,"lon":139.52506},{"name":"サンハイツ貫井南2","province":"東京都","city":"小金井市","address":"小金井市貫井南町4-14-8","lat":35.69549,"lon":139.49466},{"name":"桜町病院","province":"東京都","city":"小金井市","address":"小金井市桜町1-2-20","lat":35.709547,"lon":139.511426},{"name":"賀川学園","province":"東京都","city":"小金井市","address":"小金井市貫井北町5-8-1","lat":35.701667,"lon":139.488511},{"name":"梶野町第二荘","province":"東京都","city":"小金井市","address":"小金井市梶野町2-16-6","lat":35.709284,"lon":139.529938},{"name":"梶野町荘","province":"東京都","city":"小金井市","address":"小金井市梶野町2-16-7","lat":35.709309,"lon":139.529727},{"name":"小金井荘","province":"東京都","city":"小金井市","address":"小金井市梶野町4-10-23","lat":35.707681,"lon":139.526964},{"name":"東小金井荘","province":"東京都","city":"小金井市","address":"小金井市梶野町4-10-24","lat":35.707853,"lon":139.526775},{"name":"さくら東小金井ハウス","province":"東京都","city":"小金井市","address":"小金井市東町4-20-22","lat":35.695605,"lon":139.525273},{"name":"サンハイツ貫井南","province":"東京都","city":"小金井市","address":"小金井市貫井南町4-14-8","lat":35.695223,"lon":139.494797},{"name":"小金井市社会福祉協議会","province":"東京都","city":"小金井市","address":"小金井市本町5-36-17","lat":35.705414,"lon":139.503918},{"name":"梶野町第二荘","province":"東京都","city":"小金井市","address":"小金井市梶野町2-16-6","lat":35.70932,"lon":139.52924},{"name":"梶野町荘","province":"東京都","city":"小金井市","address":"小金井市梶野町2-16-7","lat":35.70932,"lon":139.52924},{"name":"小金井荘","province":"東京都","city":"小金井市","address":"小金井市梶野町4-10-23","lat":35.70747,"lon":139.52699},{"name":"東小金井荘","province":"東京都","city":"小金井市","address":"小金井市梶野町4-10-24","lat":35.70747,"lon":139.52699},{"name":"さくら東小金井ハウス","province":"東京都","city":"小金井市","address":"小金井市東町4-20-22","lat":35.6959,"lon":139.52505},{"name":"サンハイツ貫井南","province":"東京都","city":"小金井市","address":"小金井市貫井南町4-14-8","lat":35.69549,"lon":139.49466},{"name":"株式会社セレモの森","province":"東京都","city":"小金井市","address":"東京都小金井市本町2丁目19-21","lat":35.70550591,"lon":139.50886795},{"name":"アートビジュアル","province":"東京都","city":"小金井市","address":"東京都小金井市貫井南町4丁目12-37","lat":35.6951233,"lon":139.4930669},{"name":"株式会社まごころ","province":"東京都","city":"小金井市","address":"東京都小金井市前原町4丁目17-6","lat":35.68980753,"lon":139.50422729},{"name":"有限会社　東京フラワーセレモニー","province":"東京都","city":"小金井市","address":"東京都小金井市東町4丁目3-3","lat":35.69449372,"lon":139.52695578},{"name":"東京むさし農業協同組合","province":"東京都","city":"小金井市","address":"東京都小金井市貫井北町1丁目10-1","lat":35.70175882,"lon":139.49866339},{"name":"小金井祭典株式会社","province":"東京都","city":"小金井市","address":"東京都小金井市本町5丁目32-19","lat":35.7047641,"lon":139.50109085},{"name":"株式会社セレモの森","province":"東京都","city":"小金井市","address":"東京都小金井市本町2丁目19-21","lat":35.70550591,"lon":139.50886795},{"name":"有限会社東京フラワーセレモニー","province":"東京都","city":"小金井市","address":"東京都小金井市東町4丁目3-3","lat":35.69449372,"lon":139.52695578},{"name":"花会","province":"東京都","city":"小金井市","address":"東京都小金井市貫井南町1丁目16-17","lat":35.69047939,"lon":139.49344761},{"name":"株式会社三和式典","province":"東京都","city":"小金井市","address":"東京都小金井市本町5丁目8-3","lat":35.70139509,"lon":139.50278528},{"name":"株式会社セレモニーわかば","province":"東京都","city":"小金井市","address":"東京都小金井市貫井北町1丁目23-33","lat":35.70361688,"lon":139.49678291},{"name":"株式会社セレモ","province":"東京都","city":"小金井市","address":"東京都小金井市緑町2丁目4-1","lat":35.70500902,"lon":139.5183422},{"name":"多摩式典株式会社","province":"東京都","city":"小金井市","address":"東京都小金井市中町4丁目4-8","lat":35.69551249,"lon":139.50580472},{"name":"桜町病院","province":"東京都","city":"小金井市","address":"小金井市桜町1-2-20","lat":35.70885,"lon":139.51196},{"name":"梶野町第２荘","province":"東京都","city":"小金井市","address":"小金井市梶野町2-16-6","lat":35.70932,"lon":139.52924},{"name":"梶野町第３荘","province":"東京都","city":"小金井市","address":"小金井市梶野町2-16-9","lat":35.70932,"lon":139.52924},{"name":"サンハイツ貫井南２","province":"東京都","city":"小金井市","address":"小金井市貫井南町4-14-8","lat":35.69549,"lon":139.49466},{"name":"小金井市社会福祉協議会","province":"東京都","city":"小金井市","address":"小金井市本町5-36-17","lat":35.70489,"lon":139.5036},{"name":"小金井市障害者福祉センター小金井市障害者地域自立生活支援センター","province":"東京都","city":"小金井市","address":"東京都小金井市緑町4丁目17-10","lat":35.70867803,"lon":139.51739213},{"name":"合同会社セルフクリエイトデイステーション涼風","province":"東京都","city":"小金井市","address":"東京都小金井市中町1丁目7-34","lat":35.69364894,"lon":139.51066828},{"name":"ワークセンター「あい」","province":"東京都","city":"小金井市","address":"東京都小金井市東町4丁目17-1","lat":35.69549633,"lon":139.52457261},{"name":"手作り工房「みらい」","province":"東京都","city":"小金井市","address":"東京都小金井市東町4丁目20-3","lat":35.69546024,"lon":139.52496703},{"name":"一般社団法人にこにこにこにこファクトリー","province":"東京都","city":"小金井市","address":"東京都小金井市本町1丁目14-15","lat":35.70017043,"lon":139.50992086},{"name":"さくら東小金井ハウス","province":"東京都","city":"小金井市","address":"小金井市東町4-20-22","lat":35.6959,"lon":139.52506},{"name":"サンハイツ貫井南2","province":"東京都","city":"小金井市","address":"小金井市貫井南町4-14-8","lat":35.69549,"lon":139.49466},{"name":"桜町病院","province":"東京都","city":"小金井市","address":"小金井市桜町1-2-20","lat":35.709547,"lon":139.511426},{"name":"賀川学園","province":"東京都","city":"小金井市","address":"小金井市貫井北町5-8-1","lat":35.701667,"lon":139.488511},{"name":"梶野町第二荘","province":"東京都","city":"小金井市","address":"小金井市梶野町2-16-6","lat":35.709284,"lon":139.529938},{"name":"梶野町荘","province":"東京都","city":"小金井市","address":"小金井市梶野町2-16-7","lat":35.709309,"lon":139.529727},{"name":"小金井荘","province":"東京都","city":"小金井市","address":"小金井市梶野町4-10-23","lat":35.707681,"lon":139.526964},{"name":"東小金井荘","province":"東京都","city":"小金井市","address":"小金井市梶野町4-10-24","lat":35.707853,"lon":139.526775},{"name":"さくら東小金井ハウス","province":"東京都","city":"小金井市","address":"小金井市東町4-20-22","lat":35.695605,"lon":139.525273},{"name":"サンハイツ貫井南","province":"東京都","city":"小金井市","address":"小金井市貫井南町4-14-8","lat":35.695223,"lon":139.494797},{"name":"小金井市社会福祉協議会","province":"東京都","city":"小金井市","address":"小金井市本町5-36-17","lat":35.705414,"lon":139.503918},{"name":"梶野町第二荘","province":"東京都","city":"小金井市","address":"小金井市梶野町2-16-6","lat":35.70932,"lon":139.52924},{"name":"梶野町荘","province":"東京都","city":"小金井市","address":"小金井市梶野町2-16-7","lat":35.70932,"lon":139.52924},{"name":"小金井荘","province":"東京都","city":"小金井市","address":"小金井市梶野町4-10-23","lat":35.70747,"lon":139.52699},{"name":"東小金井荘","province":"東京都","city":"小金井市","address":"小金井市梶野町4-10-24","lat":35.70747,"lon":139.52699},{"name":"さくら東小金井ハウス","province":"東京都","city":"小金井市","address":"小金井市東町4-20-22","lat":35.6959,"lon":139.52505},{"name":"サンハイツ貫井南","province":"東京都","city":"小金井市","address":"小金井市貫井南町4-14-8","lat":35.69549,"lon":139.49466},{"name":"桜町病院","province":"東京都","city":"小金井市","address":"小金井市桜町1-2-20","lat":35.70885,"lon":139.51196},{"name":"梶野町第２荘","province":"東京都","city":"小金井市","address":"小金井市梶野町2-16-6","lat":35.70932,"lon":139.52924},{"name":"梶野町第３荘","province":"東京都","city":"小金井市","address":"小金井市梶野町2-16-9","lat":35.70932,"lon":139.52924},{"name":"サンハイツ貫井南２","province":"東京都","city":"小金井市","address":"小金井市貫井南町4-14-8","lat":35.69549,"lon":139.49466},{"name":"小金井市社会福祉協議会","province":"東京都","city":"小金井市","address":"小金井市本町5-36-17","lat":35.70489,"lon":139.5036},{"name":"小金井市障害者福祉センター小金井市障害者地域自立生活支援センター","province":"東京都","city":"小金井市","address":"東京都小金井市緑町4丁目17-10","lat":35.70867803,"lon":139.51739213},{"name":"合同会社セルフクリエイトデイステーション涼風","province":"東京都","city":"小金井市","address":"東京都小金井市中町1丁目7-34","lat":35.69364894,"lon":139.51066828},{"name":"ワークセンター「あい」","province":"東京都","city":"小金井市","address":"東京都小金井市東町4丁目17-1","lat":35.69549633,"lon":139.52457261},{"name":"手作り工房「みらい」","province":"東京都","city":"小金井市","address":"東京都小金井市東町4丁目20-3","lat":35.69546024,"lon":139.52496703},{"name":"一般社団法人にこにこにこにこファクトリー","province":"東京都","city":"小金井市","address":"東京都小金井市本町1丁目14-15","lat":35.70017043,"lon":139.50992086},{"name":"さくら東小金井ハウス","province":"東京都","city":"小金井市","address":"小金井市東町4-20-22","lat":35.6959,"lon":139.52506},{"name":"サンハイツ貫井南2","province":"東京都","city":"小金井市","address":"小金井市貫井南町4-14-8","lat":35.69549,"lon":139.49466},{"name":"桜町病院","province":"東京都","city":"小金井市","address":"小金井市桜町1-2-20","lat":35.709547,"lon":139.511426},{"name":"賀川学園","province":"東京都","city":"小金井市","address":"小金井市貫井北町5-8-1","lat":35.701667,"lon":139.488511},{"name":"梶野町第二荘","province":"東京都","city":"小金井市","address":"小金井市梶野町2-16-6","lat":35.709284,"lon":139.529938},{"name":"梶野町荘","province":"東京都","city":"小金井市","address":"小金井市梶野町2-16-7","lat":35.709309,"lon":139.529727},{"name":"小金井荘","province":"東京都","city":"小金井市","address":"小金井市梶野町4-10-23","lat":35.707681,"lon":139.526964},{"name":"東小金井荘","province":"東京都","city":"小金井市","address":"小金井市梶野町4-10-24","lat":35.707853,"lon":139.526775},{"name":"さくら東小金井ハウス","province":"東京都","city":"小金井市","address":"小金井市東町4-20-22","lat":35.695605,"lon":139.525273},{"name":"サンハイツ貫井南","province":"東京都","city":"小金井市","address":"小金井市貫井南町4-14-8","lat":35.695223,"lon":139.494797},{"name":"小金井市社会福祉協議会","province":"東京都","city":"小金井市","address":"小金井市本町5-36-17","lat":35.705414,"lon":139.503918},{"name":"梶野町第二荘","province":"東京都","city":"小金井市","address":"小金井市梶野町2-16-6","lat":35.70932,"lon":139.52924},{"name":"梶野町荘","province":"東京都","city":"小金井市","address":"小金井市梶野町2-16-7","lat":35.70932,"lon":139.52924},{"name":"小金井荘","province":"東京都","city":"小金井市","address":"小金井市梶野町4-10-23","lat":35.70747,"lon":139.52699},{"name":"東小金井荘","province":"東京都","city":"小金井市","address":"小金井市梶野町4-10-24","lat":35.70747,"lon":139.52699},{"name":"さくら東小金井ハウス","province":"東京都","city":"小金井市","address":"小金井市東町4-20-22","lat":35.6959,"lon":139.52505},{"name":"サンハイツ貫井南","province":"東京都","city":"小金井市","address":"小金井市貫井南町4-14-8","lat":35.69549,"lon":139.49466},{"name":"桜町病院","province":"東京都","city":"小金井市","address":"小金井市桜町1-2-20","lat":35.70885,"lon":139.51196},{"name":"梶野町第２荘","province":"東京都","city":"小金井市","address":"小金井市梶野町2-16-6","lat":35.70932,"lon":139.52924},{"name":"梶野町第３荘","province":"東京都","city":"小金井市","address":"小金井市梶野町2-16-9","lat":35.70932,"lon":139.52924},{"name":"サンハイツ貫井南２","province":"東京都","city":"小金井市","address":"小金井市貫井南町4-14-8","lat":35.69549,"lon":139.49466},{"name":"小金井市社会福祉協議会","province":"東京都","city":"小金井市","address":"小金井市本町5-36-17","lat":35.70489,"lon":139.5036},{"name":"小金井市障害者福祉センター小金井市障害者地域自立生活支援センター","province":"東京都","city":"小金井市","address":"東京都小金井市緑町4丁目17-10","lat":35.70867803,"lon":139.51739213},{"name":"合同会社セルフクリエイトデイステーション涼風","province":"東京都","city":"小金井市","address":"東京都小金井市中町1丁目7-34","lat":35.69364894,"lon":139.51066828},{"name":"ワークセンター「あい」","province":"東京都","city":"小金井市","address":"東京都小金井市東町4丁目17-1","lat":35.69549633,"lon":139.52457261},{"name":"手作り工房「みらい」","province":"東京都","city":"小金井市","address":"東京都小金井市東町4丁目20-3","lat":35.69546024,"lon":139.52496703},{"name":"一般社団法人にこにこにこにこファクトリー","province":"東京都","city":"小金井市","address":"東京都小金井市本町1丁目14-15","lat":35.70017043,"lon":139.50992086},{"name":"さくら東小金井ハウス","province":"東京都","city":"小金井市","address":"小金井市東町4-20-22","lat":35.6959,"lon":139.52506},{"name":"サンハイツ貫井南2","province":"東京都","city":"小金井市","address":"小金井市貫井南町4-14-8","lat":35.69549,"lon":139.49466},{"name":"桜町病院","province":"東京都","city":"小金井市","address":"小金井市桜町1-2-20","lat":35.709547,"lon":139.511426},{"name":"賀川学園","province":"東京都","city":"小金井市","address":"小金井市貫井北町5-8-1","lat":35.701667,"lon":139.488511},{"name":"梶野町第二荘","province":"東京都","city":"小金井市","address":"小金井市梶野町2-16-6","lat":35.709284,"lon":139.529938},{"name":"梶野町荘","province":"東京都","city":"小金井市","address":"小金井市梶野町2-16-7","lat":35.709309,"lon":139.529727},{"name":"小金井荘","province":"東京都","city":"小金井市","address":"小金井市梶野町4-10-23","lat":35.707681,"lon":139.526964},{"name":"東小金井荘","province":"東京都","city":"小金井市","address":"小金井市梶野町4-10-24","lat":35.707853,"lon":139.526775},{"name":"さくら東小金井ハウス","province":"東京都","city":"小金井市","address":"小金井市東町4-20-22","lat":35.695605,"lon":139.525273},{"name":"サンハイツ貫井南","province":"東京都","city":"小金井市","address":"小金井市貫井南町4-14-8","lat":35.695223,"lon":139.494797},{"name":"小金井市社会福祉協議会","province":"東京都","city":"小金井市","address":"小金井市本町5-36-17","lat":35.705414,"lon":139.503918},{"name":"梶野町第二荘","province":"東京都","city":"小金井市","address":"小金井市梶野町2-16-6","lat":35.70932,"lon":139.52924},{"name":"梶野町荘","province":"東京都","city":"小金井市","address":"小金井市梶野町2-16-7","lat":35.70932,"lon":139.52924},{"name":"小金井荘","province":"東京都","city":"小金井市","address":"小金井市梶野町4-10-23","lat":35.70747,"lon":139.52699},{"name":"東小金井荘","province":"東京都","city":"小金井市","address":"小金井市梶野町4-10-24","lat":35.70747,"lon":139.52699},{"name":"さくら東小金井ハウス","province":"東京都","city":"小金井市","address":"小金井市東町4-20-22","lat":35.6959,"lon":139.52505},{"name":"サンハイツ貫井南","province":"東京都","city":"小金井市","address":"小金井市貫井南町4-14-8","lat":35.69549,"lon":139.49466},{"name":"桜町病院","province":"東京都","city":"小金井市","address":"小金井市桜町1-2-20","lat":35.70885,"lon":139.51196},{"name":"梶野町第２荘","province":"東京都","city":"小金井市","address":"小金井市梶野町2-16-6","lat":35.70932,"lon":139.52924},{"name":"梶野町第３荘","province":"東京都","city":"小金井市","address":"小金井市梶野町2-16-9","lat":35.70932,"lon":139.52924},{"name":"サンハイツ貫井南２","province":"東京都","city":"小金井市","address":"小金井市貫井南町4-14-8","lat":35.69549,"lon":139.49466},{"name":"小金井市社会福祉協議会","province":"東京都","city":"小金井市","address":"小金井市本町5-36-17","lat":35.70489,"lon":139.5036},{"name":"小金井市障害者福祉センター小金井市障害者地域自立生活支援センター","province":"東京都","city":"小金井市","address":"東京都小金井市緑町4丁目17-10","lat":35.70867803,"lon":139.51739213},{"name":"合同会社セルフクリエイトデイステーション涼風","province":"東京都","city":"小金井市","address":"東京都小金井市中町1丁目7-34","lat":35.69364894,"lon":139.51066828},{"name":"ワークセンター「あい」","province":"東京都","city":"小金井市","address":"東京都小金井市東町4丁目17-1","lat":35.69549633,"lon":139.52457261},{"name":"手作り工房「みらい」","province":"東京都","city":"小金井市","address":"東京都小金井市東町4丁目20-3","lat":35.69546024,"lon":139.52496703},{"name":"一般社団法人にこにこにこにこファクトリー","province":"東京都","city":"小金井市","address":"東京都小金井市本町1丁目14-15","lat":35.70017043,"lon":139.50992086},{"name":"さくら東小金井ハウス","province":"東京都","city":"小金井市","address":"小金井市東町4-20-22","lat":35.6959,"lon":139.52506},{"name":"サンハイツ貫井南2","province":"東京都","city":"小金井市","address":"小金井市貫井南町4-14-8","lat":35.69549,"lon":139.49466},{"name":"桜町病院","province":"東京都","city":"小金井市","address":"小金井市桜町1-2-20","lat":35.709547,"lon":139.511426},{"name":"賀川学園","province":"東京都","city":"小金井市","address":"小金井市貫井北町5-8-1","lat":35.701667,"lon":139.488511},{"name":"梶野町第二荘","province":"東京都","city":"小金井市","address":"小金井市梶野町2-16-6","lat":35.709284,"lon":139.529938},{"name":"梶野町荘","province":"東京都","city":"小金井市","address":"小金井市梶野町2-16-7","lat":35.709309,"lon":139.529727},{"name":"小金井荘","province":"東京都","city":"小金井市","address":"小金井市梶野町4-10-23","lat":35.707681,"lon":139.526964},{"name":"東小金井荘","province":"東京都","city":"小金井市","address":"小金井市梶野町4-10-24","lat":35.707853,"lon":139.526775},{"name":"さくら東小金井ハウス","province":"東京都","city":"小金井市","address":"小金井市東町4-20-22","lat":35.695605,"lon":139.525273},{"name":"サンハイツ貫井南","province":"東京都","city":"小金井市","address":"小金井市貫井南町4-14-8","lat":35.695223,"lon":139.494797},{"name":"小金井市社会福祉協議会","province":"東京都","city":"小金井市","address":"小金井市本町5-36-17","lat":35.705414,"lon":139.503918},{"name":"梶野町第二荘","province":"東京都","city":"小金井市","address":"小金井市梶野町2-16-6","lat":35.70932,"lon":139.52924},{"name":"梶野町荘","province":"東京都","city":"小金井市","address":"小金井市梶野町2-16-7","lat":35.70932,"lon":139.52924},{"name":"小金井荘","province":"東京都","city":"小金井市","address":"小金井市梶野町4-10-23","lat":35.70747,"lon":139.52699},{"name":"東小金井荘","province":"東京都","city":"小金井市","address":"小金井市梶野町4-10-24","lat":35.70747,"lon":139.52699},{"name":"さくら東小金井ハウス","province":"東京都","city":"小金井市","address":"小金井市東町4-20-22","lat":35.6959,"lon":139.52505},{"name":"サンハイツ貫井南","province":"東京都","city":"小金井市","address":"小金井市貫井南町4-14-8","lat":35.69549,"lon":139.49466},{"name":"桜町病院","province":"東京都","city":"小金井市","address":"小金井市桜町1-2-20","lat":35.70885,"lon":139.51196},{"name":"梶野町第２荘","province":"東京都","city":"小金井市","address":"小金井市梶野町2-16-6","lat":35.70932,"lon":139.52924},{"name":"梶野町第３荘","province":"東京都","city":"小金井市","address":"小金井市梶野町2-16-9","lat":35.70932,"lon":139.52924},{"name":"サンハイツ貫井南２","province":"東京都","city":"小金井市","address":"小金井市貫井南町4-14-8","lat":35.69549,"lon":139.49466},{"name":"小金井市社会福祉協議会","province":"東京都","city":"小金井市","address":"小金井市本町5-36-17","lat":35.70489,"lon":139.5036},{"name":"小金井市障害者福祉センター小金井市障害者地域自立生活支援センター","province":"東京都","city":"小金井市","address":"東京都小金井市緑町4丁目17-10","lat":35.70867803,"lon":139.51739213},{"name":"合同会社セルフクリエイトデイステーション涼風","province":"東京都","city":"小金井市","address":"東京都小金井市中町1丁目7-34","lat":35.69364894,"lon":139.51066828},{"name":"ワークセンター「あい」","province":"東京都","city":"小金井市","address":"東京都小金井市東町4丁目17-1","lat":35.69549633,"lon":139.52457261},{"name":"手作り工房「みらい」","province":"東京都","city":"小金井市","address":"東京都小金井市東町4丁目20-3","lat":35.69546024,"lon":139.52496703},{"name":"一般社団法人にこにこにこにこファクトリー","province":"東京都","city":"小金井市","address":"東京都小金井市本町1丁目14-15","lat":35.70017043,"lon":139.50992086},{"name":"さくら東小金井ハウス","province":"東京都","city":"小金井市","address":"小金井市東町4-20-22","lat":35.6959,"lon":139.52506},{"name":"サンハイツ貫井南2","province":"東京都","city":"小金井市","address":"小金井市貫井南町4-14-8","lat":35.69549,"lon":139.49466},{"name":"桜町病院","province":"東京都","city":"小金井市","address":"小金井市桜町1-2-20","lat":35.709547,"lon":139.511426},{"name":"賀川学園","province":"東京都","city":"小金井市","address":"小金井市貫井北町5-8-1","lat":35.701667,"lon":139.488511},{"name":"梶野町第二荘","province":"東京都","city":"小金井市","address":"小金井市梶野町2-16-6","lat":35.709284,"lon":139.529938},{"name":"梶野町荘","province":"東京都","city":"小金井市","address":"小金井市梶野町2-16-7","lat":35.709309,"lon":139.529727},{"name":"小金井荘","province":"東京都","city":"小金井市","address":"小金井市梶野町4-10-23","lat":35.707681,"lon":139.526964},{"name":"東小金井荘","province":"東京都","city":"小金井市","address":"小金井市梶野町4-10-24","lat":35.707853,"lon":139.526775},{"name":"さくら東小金井ハウス","province":"東京都","city":"小金井市","address":"小金井市東町4-20-22","lat":35.695605,"lon":139.525273},{"name":"サンハイツ貫井南","province":"東京都","city":"小金井市","address":"小金井市貫井南町4-14-8","lat":35.695223,"lon":139.494797},{"name":"小金井市社会福祉協議会","province":"東京都","city":"小金井市","address":"小金井市本町5-36-17","lat":35.705414,"lon":139.503918},{"name":"梶野町第二荘","province":"東京都","city":"小金井市","address":"小金井市梶野町2-16-6","lat":35.70932,"lon":139.52924},{"name":"梶野町荘","province":"東京都","city":"小金井市","address":"小金井市梶野町2-16-7","lat":35.70932,"lon":139.52924},{"name":"小金井荘","province":"東京都","city":"小金井市","address":"小金井市梶野町4-10-23","lat":35.70747,"lon":139.52699},{"name":"東小金井荘","province":"東京都","city":"小金井市","address":"小金井市梶野町4-10-24","lat":35.70747,"lon":139.52699},{"name":"さくら東小金井ハウス","province":"東京都","city":"小金井市","address":"小金井市東町4-20-22","lat":35.6959,"lon":139.52505},{"name":"サンハイツ貫井南","province":"東京都","city":"小金井市","address":"小金井市貫井南町4-14-8","lat":35.69549,"lon":139.49466},{"name":"桜町病院","province":"東京都","city":"小金井市","address":"小金井市桜町1-2-20","lat":35.70885,"lon":139.51196},{"name":"梶野町第２荘","province":"東京都","city":"小金井市","address":"小金井市梶野町2-16-6","lat":35.70932,"lon":139.52924},{"name":"梶野町第３荘","province":"東京都","city":"小金井市","address":"小金井市梶野町2-16-9","lat":35.70932,"lon":139.52924},{"name":"サンハイツ貫井南２","province":"東京都","city":"小金井市","address":"小金井市貫井南町4-14-8","lat":35.69549,"lon":139.49466},{"name":"小金井市社会福祉協議会","province":"東京都","city":"小金井市","address":"小金井市本町5-36-17","lat":35.70489,"lon":139.5036},{"name":"小金井市障害者福祉センター小金井市障害者地域自立生活支援センター","province":"東京都","city":"小金井市","address":"東京都小金井市緑町4丁目17-10","lat":35.70867803,"lon":139.51739213},{"name":"合同会社セルフクリエイトデイステーション涼風","province":"東京都","city":"小金井市","address":"東京都小金井市中町1丁目7-34","lat":35.69364894,"lon":139.51066828},{"name":"ワークセンター「あい」","province":"東京都","city":"小金井市","address":"東京都小金井市東町4丁目17-1","lat":35.69549633,"lon":139.52457261},{"name":"手作り工房「みらい」","province":"東京都","city":"小金井市","address":"東京都小金井市東町4丁目20-3","lat":35.69546024,"lon":139.52496703},{"name":"一般社団法人にこにこにこにこファクトリー","province":"東京都","city":"小金井市","address":"東京都小金井市本町1丁目14-15","lat":35.70017043,"lon":139.50992086},{"name":"さくら東小金井ハウス","province":"東京都","city":"小金井市","address":"小金井市東町4-20-22","lat":35.6959,"lon":139.52506},{"name":"サンハイツ貫井南2","province":"東京都","city":"小金井市","address":"小金井市貫井南町4-14-8","lat":35.69549,"lon":139.49466},{"name":"桜町病院","province":"東京都","city":"小金井市","address":"小金井市桜町1-2-20","lat":35.709547,"lon":139.511426},{"name":"賀川学園","province":"東京都","city":"小金井市","address":"小金井市貫井北町5-8-1","lat":35.701667,"lon":139.488511},{"name":"梶野町第二荘","province":"東京都","city":"小金井市","address":"小金井市梶野町2-16-6","lat":35.709284,"lon":139.529938},{"name":"梶野町荘","province":"東京都","city":"小金井市","address":"小金井市梶野町2-16-7","lat":35.709309,"lon":139.529727},{"name":"小金井荘","province":"東京都","city":"小金井市","address":"小金井市梶野町4-10-23","lat":35.707681,"lon":139.526964},{"name":"東小金井荘","province":"東京都","city":"小金井市","address":"小金井市梶野町4-10-24","lat":35.707853,"lon":139.526775},{"name":"さくら東小金井ハウス","province":"東京都","city":"小金井市","address":"小金井市東町4-20-22","lat":35.695605,"lon":139.525273},{"name":"サンハイツ貫井南","province":"東京都","city":"小金井市","address":"小金井市貫井南町4-14-8","lat":35.695223,"lon":139.494797},{"name":"小金井市社会福祉協議会","province":"東京都","city":"小金井市","address":"小金井市本町5-36-17","lat":35.705414,"lon":139.503918},{"name":"梶野町第二荘","province":"東京都","city":"小金井市","address":"小金井市梶野町2-16-6","lat":35.70932,"lon":139.52924},{"name":"梶野町荘","province":"東京都","city":"小金井市","address":"小金井市梶野町2-16-7","lat":35.70932,"lon":139.52924},{"name":"小金井荘","province":"東京都","city":"小金井市","address":"小金井市梶野町4-10-23","lat":35.70747,"lon":139.52699},{"name":"東小金井荘","province":"東京都","city":"小金井市","address":"小金井市梶野町4-10-24","lat":35.70747,"lon":139.52699},{"name":"さくら東小金井ハウス","province":"東京都","city":"小金井市","address":"小金井市東町4-20-22","lat":35.6959,"lon":139.52505},{"name":"サンハイツ貫井南","province":"東京都","city":"小金井市","address":"小金井市貫井南町4-14-8","lat":35.69549,"lon":139.49466},{"name":"桜町病院","province":"東京都","city":"小金井市","address":"小金井市桜町1-2-20","lat":35.70885,"lon":139.51196},{"name":"梶野町第２荘","province":"東京都","city":"小金井市","address":"小金井市梶野町2-16-6","lat":35.70932,"lon":139.52924},{"name":"梶野町第３荘","province":"東京都","city":"小金井市","address":"小金井市梶野町2-16-9","lat":35.70932,"lon":139.52924},{"name":"サンハイツ貫井南２","province":"東京都","city":"小金井市","address":"小金井市貫井南町4-14-8","lat":35.69549,"lon":139.49466},{"name":"小金井市社会福祉協議会","province":"東京都","city":"小金井市","address":"小金井市本町5-36-17","lat":35.70489,"lon":139.5036},{"name":"小金井市障害者福祉センター小金井市障害者地域自立生活支援センター","province":"東京都","city":"小金井市","address":"東京都小金井市緑町4丁目17-10","lat":35.70867803,"lon":139.51739213},{"name":"合同会社セルフクリエイトデイステーション涼風","province":"東京都","city":"小金井市","address":"東京都小金井市中町1丁目7-34","lat":35.69364894,"lon":139.51066828},{"name":"ワークセンター「あい」","province":"東京都","city":"小金井市","address":"東京都小金井市東町4丁目17-1","lat":35.69549633,"lon":139.52457261},{"name":"手作り工房「みらい」","province":"東京都","city":"小金井市","address":"東京都小金井市東町4丁目20-3","lat":35.69546024,"lon":139.52496703},{"name":"一般社団法人にこにこにこにこファクトリー","province":"東京都","city":"小金井市","address":"東京都小金井市本町1丁目14-15","lat":35.70017043,"lon":139.50992086},{"name":"さくら東小金井ハウス","province":"東京都","city":"小金井市","address":"小金井市東町4-20-22","lat":35.6959,"lon":139.52506},{"name":"サンハイツ貫井南2","province":"東京都","city":"小金井市","address":"小金井市貫井南町4-14-8","lat":35.69549,"lon":139.49466},{"name":"桜町病院","province":"東京都","city":"小金井市","address":"小金井市桜町1-2-20","lat":35.709547,"lon":139.511426},{"name":"賀川学園","province":"東京都","city":"小金井市","address":"小金井市貫井北町5-8-1","lat":35.701667,"lon":139.488511},{"name":"梶野町第二荘","province":"東京都","city":"小金井市","address":"小金井市梶野町2-16-6","lat":35.709284,"lon":139.529938},{"name":"梶野町荘","province":"東京都","city":"小金井市","address":"小金井市梶野町2-16-7","lat":35.709309,"lon":139.529727},{"name":"小金井荘","province":"東京都","city":"小金井市","address":"小金井市梶野町4-10-23","lat":35.707681,"lon":139.526964},{"name":"東小金井荘","province":"東京都","city":"小金井市","address":"小金井市梶野町4-10-24","lat":35.707853,"lon":139.526775},{"name":"さくら東小金井ハウス","province":"東京都","city":"小金井市","address":"小金井市東町4-20-22","lat":35.695605,"lon":139.525273},{"name":"サンハイツ貫井南","province":"東京都","city":"小金井市","address":"小金井市貫井南町4-14-8","lat":35.695223,"lon":139.494797},{"name":"小金井市社会福祉協議会","province":"東京都","city":"小金井市","address":"小金井市本町5-36-17","lat":35.705414,"lon":139.503918},{"name":"梶野町第二荘","province":"東京都","city":"小金井市","address":"小金井市梶野町2-16-6","lat":35.70932,"lon":139.52924},{"name":"梶野町荘","province":"東京都","city":"小金井市","address":"小金井市梶野町2-16-7","lat":35.70932,"lon":139.52924},{"name":"小金井荘","province":"東京都","city":"小金井市","address":"小金井市梶野町4-10-23","lat":35.70747,"lon":139.52699},{"name":"東小金井荘","province":"東京都","city":"小金井市","address":"小金井市梶野町4-10-24","lat":35.70747,"lon":139.52699},{"name":"さくら東小金井ハウス","province":"東京都","city":"小金井市","address":"小金井市東町4-20-22","lat":35.6959,"lon":139.52505},{"name":"サンハイツ貫井南","province":"東京都","city":"小金井市","address":"小金井市貫井南町4-14-8","lat":35.69549,"lon":139.49466},{"name":"桜町病院","province":"東京都","city":"小金井市","address":"小金井市桜町1-2-20","lat":35.70885,"lon":139.51196},{"name":"梶野町第２荘","province":"東京都","city":"小金井市","address":"小金井市梶野町2-16-6","lat":35.70932,"lon":139.52924},{"name":"梶野町第３荘","province":"東京都","city":"小金井市","address":"小金井市梶野町2-16-9","lat":35.70932,"lon":139.52924},{"name":"サンハイツ貫井南２","province":"東京都","city":"小金井市","address":"小金井市貫井南町4-14-8","lat":35.69549,"lon":139.49466},{"name":"小金井市社会福祉協議会","province":"東京都","city":"小金井市","address":"小金井市本町5-36-17","lat":35.70489,"lon":139.5036},{"name":"小金井市障害者福祉センター小金井市障害者地域自立生活支援センター","province":"東京都","city":"小金井市","address":"東京都小金井市緑町4丁目17-10","lat":35.70867803,"lon":139.51739213},{"name":"合同会社セルフクリエイトデイステーション涼風","province":"東京都","city":"小金井市","address":"東京都小金井市中町1丁目7-34","lat":35.69364894,"lon":139.51066828},{"name":"ワークセンター「あい」","province":"東京都","city":"小金井市","address":"東京都小金井市東町4丁目17-1","lat":35.69549633,"lon":139.52457261},{"name":"手作り工房「みらい」","province":"東京都","city":"小金井市","address":"東京都小金井市東町4丁目20-3","lat":35.69546024,"lon":139.52496703},{"name":"一般社団法人にこにこにこにこファクトリー","province":"東京都","city":"小金井市","address":"東京都小金井市本町1丁目14-15","lat":35.70017043,"lon":139.50992086},{"name":"さくら東小金井ハウス","province":"東京都","city":"小金井市","address":"小金井市東町4-20-22","lat":35.6959,"lon":139.52506},{"name":"サンハイツ貫井南2","province":"東京都","city":"小金井市","address":"小金井市貫井南町4-14-8","lat":35.69549,"lon":139.49466},{"name":"桜町病院","province":"東京都","city":"小金井市","address":"小金井市桜町1-2-20","lat":35.709547,"lon":139.511426},{"name":"賀川学園","province":"東京都","city":"小金井市","address":"小金井市貫井北町5-8-1","lat":35.701667,"lon":139.488511},{"name":"梶野町第二荘","province":"東京都","city":"小金井市","address":"小金井市梶野町2-16-6","lat":35.709284,"lon":139.529938},{"name":"梶野町荘","province":"東京都","city":"小金井市","address":"小金井市梶野町2-16-7","lat":35.709309,"lon":139.529727},{"name":"小金井荘","province":"東京都","city":"小金井市","address":"小金井市梶野町4-10-23","lat":35.707681,"lon":139.526964},{"name":"東小金井荘","province":"東京都","city":"小金井市","address":"小金井市梶野町4-10-24","lat":35.707853,"lon":139.526775},{"name":"さくら東小金井ハウス","province":"東京都","city":"小金井市","address":"小金井市東町4-20-22","lat":35.695605,"lon":139.525273},{"name":"サンハイツ貫井南","province":"東京都","city":"小金井市","address":"小金井市貫井南町4-14-8","lat":35.695223,"lon":139.494797},{"name":"小金井市社会福祉協議会","province":"東京都","city":"小金井市","address":"小金井市本町5-36-17","lat":35.705414,"lon":139.503918},{"name":"梶野町第二荘","province":"東京都","city":"小金井市","address":"小金井市梶野町2-16-6","lat":35.70932,"lon":139.52924},{"name":"梶野町荘","province":"東京都","city":"小金井市","address":"小金井市梶野町2-16-7","lat":35.70932,"lon":139.52924},{"name":"小金井荘","province":"東京都","city":"小金井市","address":"小金井市梶野町4-10-23","lat":35.70747,"lon":139.52699},{"name":"東小金井荘","province":"東京都","city":"小金井市","address":"小金井市梶野町4-10-24","lat":35.70747,"lon":139.52699},{"name":"さくら東小金井ハウス","province":"東京都","city":"小金井市","address":"小金井市東町4-20-22","lat":35.6959,"lon":139.52505},{"name":"サンハイツ貫井南","province":"東京都","city":"小金井市","address":"小金井市貫井南町4-14-8","lat":35.69549,"lon":139.49466},{"name":"桜町病院","province":"東京都","city":"小金井市","address":"小金井市桜町1-2-20","lat":35.70885,"lon":139.51196},{"name":"梶野町第２荘","province":"東京都","city":"小金井市","address":"小金井市梶野町2-16-6","lat":35.70932,"lon":139.52924},{"name":"梶野町第３荘","province":"東京都","city":"小金井市","address":"小金井市梶野町2-16-9","lat":35.70932,"lon":139.52924},{"name":"サンハイツ貫井南２","province":"東京都","city":"小金井市","address":"小金井市貫井南町4-14-8","lat":35.69549,"lon":139.49466},{"name":"小金井市社会福祉協議会","province":"東京都","city":"小金井市","address":"小金井市本町5-36-17","lat":35.70489,"lon":139.5036},{"name":"小金井市障害者福祉センター小金井市障害者地域自立生活支援センター","province":"東京都","city":"小金井市","address":"東京都小金井市緑町4丁目17-10","lat":35.70867803,"lon":139.51739213},{"name":"合同会社セルフクリエイトデイステーション涼風","province":"東京都","city":"小金井市","address":"東京都小金井市中町1丁目7-34","lat":35.69364894,"lon":139.51066828},{"name":"ワークセンター「あい」","province":"東京都","city":"小金井市","address":"東京都小金井市東町4丁目17-1","lat":35.69549633,"lon":139.52457261},{"name":"手作り工房「みらい」","province":"東京都","city":"小金井市","address":"東京都小金井市東町4丁目20-3","lat":35.69546024,"lon":139.52496703},{"name":"一般社団法人にこにこにこにこファクトリー","province":"東京都","city":"小金井市","address":"東京都小金井市本町1丁目14-15","lat":35.70017043,"lon":139.50992086},{"name":"さくら東小金井ハウス","province":"東京都","city":"小金井市","address":"小金井市東町4-20-22","lat":35.6959,"lon":139.52506},{"name":"サンハイツ貫井南2","province":"東京都","city":"小金井市","address":"小金井市貫井南町4-14-8","lat":35.69549,"lon":139.49466},{"name":"桜町病院","province":"東京都","city":"小金井市","address":"小金井市桜町1-2-20","lat":35.709547,"lon":139.511426},{"name":"賀川学園","province":"東京都","city":"小金井市","address":"小金井市貫井北町5-8-1","lat":35.701667,"lon":139.488511},{"name":"梶野町第二荘","province":"東京都","city":"小金井市","address":"小金井市梶野町2-16-6","lat":35.709284,"lon":139.529938},{"name":"梶野町荘","province":"東京都","city":"小金井市","address":"小金井市梶野町2-16-7","lat":35.709309,"lon":139.529727},{"name":"小金井荘","province":"東京都","city":"小金井市","address":"小金井市梶野町4-10-23","lat":35.707681,"lon":139.526964},{"name":"東小金井荘","province":"東京都","city":"小金井市","address":"小金井市梶野町4-10-24","lat":35.707853,"lon":139.526775},{"name":"さくら東小金井ハウス","province":"東京都","city":"小金井市","address":"小金井市東町4-20-22","lat":35.695605,"lon":139.525273},{"name":"サンハイツ貫井南","province":"東京都","city":"小金井市","address":"小金井市貫井南町4-14-8","lat":35.695223,"lon":139.494797},{"name":"小金井市社会福祉協議会","province":"東京都","city":"小金井市","address":"小金井市本町5-36-17","lat":35.705414,"lon":139.503918},{"name":"梶野町第二荘","province":"東京都","city":"小金井市","address":"小金井市梶野町2-16-6","lat":35.70932,"lon":139.52924},{"name":"梶野町荘","province":"東京都","city":"小金井市","address":"小金井市梶野町2-16-7","lat":35.70932,"lon":139.52924},{"name":"小金井荘","province":"東京都","city":"小金井市","address":"小金井市梶野町4-10-23","lat":35.70747,"lon":139.52699},{"name":"東小金井荘","province":"東京都","city":"小金井市","address":"小金井市梶野町4-10-24","lat":35.70747,"lon":139.52699},{"name":"さくら東小金井ハウス","province":"東京都","city":"小金井市","address":"小金井市東町4-20-22","lat":35.6959,"lon":139.52505},{"name":"サンハイツ貫井南","province":"東京都","city":"小金井市","address":"小金井市貫井南町4-14-8","lat":35.69549,"lon":139.49466},{"name":"桜町病院","province":"東京都","city":"小金井市","address":"小金井市桜町1-2-20","lat":35.70885,"lon":139.51196},{"name":"梶野町第２荘","province":"東京都","city":"小金井市","address":"小金井市梶野町2-16-6","lat":35.70932,"lon":139.52924},{"name":"梶野町第３荘","province":"東京都","city":"小金井市","address":"小金井市梶野町2-16-9","lat":35.70932,"lon":139.52924},{"name":"サンハイツ貫井南２","province":"東京都","city":"小金井市","address":"小金井市貫井南町4-14-8","lat":35.69549,"lon":139.49466},{"name":"小金井市社会福祉協議会","province":"東京都","city":"小金井市","address":"小金井市本町5-36-17","lat":35.70489,"lon":139.5036},{"name":"小金井市障害者福祉センター小金井市障害者地域自立生活支援センター","province":"東京都","city":"小金井市","address":"東京都小金井市緑町4丁目17-10","lat":35.70867803,"lon":139.51739213},{"name":"合同会社セルフクリエイトデイステーション涼風","province":"東京都","city":"小金井市","address":"東京都小金井市中町1丁目7-34","lat":35.69364894,"lon":139.51066828},{"name":"ワークセンター「あい」","province":"東京都","city":"小金井市","address":"東京都小金井市東町4丁目17-1","lat":35.69549633,"lon":139.52457261},{"name":"手作り工房「みらい」","province":"東京都","city":"小金井市","address":"東京都小金井市東町4丁目20-3","lat":35.69546024,"lon":139.52496703},{"name":"一般社団法人にこにこにこにこファクトリー","province":"東京都","city":"小金井市","address":"東京都小金井市本町1丁目14-15","lat":35.70017043,"lon":139.50992086},{"name":"さくら東小金井ハウス","province":"東京都","city":"小金井市","address":"小金井市東町4-20-22","lat":35.6959,"lon":139.52506},{"name":"サンハイツ貫井南2","province":"東京都","city":"小金井市","address":"小金井市貫井南町4-14-8","lat":35.69549,"lon":139.49466},{"name":"桜町病院","province":"東京都","city":"小金井市","address":"小金井市桜町1-2-20","lat":35.709547,"lon":139.511426},{"name":"賀川学園","province":"東京都","city":"小金井市","address":"小金井市貫井北町5-8-1","lat":35.701667,"lon":139.488511},{"name":"梶野町第二荘","province":"東京都","city":"小金井市","address":"小金井市梶野町2-16-6","lat":35.709284,"lon":139.529938},{"name":"梶野町荘","province":"東京都","city":"小金井市","address":"小金井市梶野町2-16-7","lat":35.709309,"lon":139.529727},{"name":"小金井荘","province":"東京都","city":"小金井市","address":"小金井市梶野町4-10-23","lat":35.707681,"lon":139.526964},{"name":"東小金井荘","province":"東京都","city":"小金井市","address":"小金井市梶野町4-10-24","lat":35.707853,"lon":139.526775},{"name":"さくら東小金井ハウス","province":"東京都","city":"小金井市","address":"小金井市東町4-20-22","lat":35.695605,"lon":139.525273},{"name":"サンハイツ貫井南","province":"東京都","city":"小金井市","address":"小金井市貫井南町4-14-8","lat":35.695223,"lon":139.494797},{"name":"小金井市社会福祉協議会","province":"東京都","city":"小金井市","address":"小金井市本町5-36-17","lat":35.705414,"lon":139.503918},{"name":"梶野町第二荘","province":"東京都","city":"小金井市","address":"小金井市梶野町2-16-6","lat":35.70932,"lon":139.52924},{"name":"梶野町荘","province":"東京都","city":"小金井市","address":"小金井市梶野町2-16-7","lat":35.70932,"lon":139.52924},{"name":"小金井荘","province":"東京都","city":"小金井市","address":"小金井市梶野町4-10-23","lat":35.70747,"lon":139.52699},{"name":"東小金井荘","province":"東京都","city":"小金井市","address":"小金井市梶野町4-10-24","lat":35.70747,"lon":139.52699},{"name":"さくら東小金井ハウス","province":"東京都","city":"小金井市","address":"小金井市東町4-20-22","lat":35.6959,"lon":139.52505},{"name":"サンハイツ貫井南","province":"東京都","city":"小金井市","address":"小金井市貫井南町4-14-8","lat":35.69549,"lon":139.49466},{"name":"桜町病院","province":"東京都","city":"小金井市","address":"小金井市桜町1-2-20","lat":35.70885,"lon":139.51196},{"name":"梶野町第２荘","province":"東京都","city":"小金井市","address":"小金井市梶野町2-16-6","lat":35.70932,"lon":139.52924},{"name":"梶野町第３荘","province":"東京都","city":"小金井市","address":"小金井市梶野町2-16-9","lat":35.70932,"lon":139.52924},{"name":"サンハイツ貫井南２","province":"東京都","city":"小金井市","address":"小金井市貫井南町4-14-8","lat":35.69549,"lon":139.49466},{"name":"小金井市社会福祉協議会","province":"東京都","city":"小金井市","address":"小金井市本町5-36-17","lat":35.70489,"lon":139.5036},{"name":"小金井市障害者福祉センター小金井市障害者地域自立生活支援センター","province":"東京都","city":"小金井市","address":"東京都小金井市緑町4丁目17-10","lat":35.70867803,"lon":139.51739213},{"name":"合同会社セルフクリエイトデイステーション涼風","province":"東京都","city":"小金井市","address":"東京都小金井市中町1丁目7-34","lat":35.69364894,"lon":139.51066828},{"name":"ワークセンター「あい」","province":"東京都","city":"小金井市","address":"東京都小金井市東町4丁目17-1","lat":35.69549633,"lon":139.52457261},{"name":"手作り工房「みらい」","province":"東京都","city":"小金井市","address":"東京都小金井市東町4丁目20-3","lat":35.69546024,"lon":139.52496703},{"name":"一般社団法人にこにこにこにこファクトリー","province":"東京都","city":"小金井市","address":"東京都小金井市本町1丁目14-15","lat":35.70017043,"lon":139.50992086},{"name":"さくら東小金井ハウス","province":"東京都","city":"小金井市","address":"小金井市東町4-20-22","lat":35.6959,"lon":139.52506},{"name":"サンハイツ貫井南2","province":"東京都","city":"小金井市","address":"小金井市貫井南町4-14-8","lat":35.69549,"lon":139.49466},{"name":"桜町病院","province":"東京都","city":"小金井市","address":"小金井市桜町1-2-20","lat":35.709547,"lon":139.511426},{"name":"賀川学園","province":"東京都","city":"小金井市","address":"小金井市貫井北町5-8-1","lat":35.701667,"lon":139.488511},{"name":"梶野町第二荘","province":"東京都","city":"小金井市","address":"小金井市梶野町2-16-6","lat":35.709284,"lon":139.529938},{"name":"梶野町荘","province":"東京都","city":"小金井市","address":"小金井市梶野町2-16-7","lat":35.709309,"lon":139.529727},{"name":"小金井荘","province":"東京都","city":"小金井市","address":"小金井市梶野町4-10-23","lat":35.707681,"lon":139.526964},{"name":"東小金井荘","province":"東京都","city":"小金井市","address":"小金井市梶野町4-10-24","lat":35.707853,"lon":139.526775},{"name":"さくら東小金井ハウス","province":"東京都","city":"小金井市","address":"小金井市東町4-20-22","lat":35.695605,"lon":139.525273},{"name":"サンハイツ貫井南","province":"東京都","city":"小金井市","address":"小金井市貫井南町4-14-8","lat":35.695223,"lon":139.494797},{"name":"小金井市社会福祉協議会","province":"東京都","city":"小金井市","address":"小金井市本町5-36-17","lat":35.705414,"lon":139.503918},{"name":"梶野町第二荘","province":"東京都","city":"小金井市","address":"小金井市梶野町2-16-6","lat":35.70932,"lon":139.52924},{"name":"梶野町荘","province":"東京都","city":"小金井市","address":"小金井市梶野町2-16-7","lat":35.70932,"lon":139.52924},{"name":"小金井荘","province":"東京都","city":"小金井市","address":"小金井市梶野町4-10-23","lat":35.70747,"lon":139.52699},{"name":"東小金井荘","province":"東京都","city":"小金井市","address":"小金井市梶野町4-10-24","lat":35.70747,"lon":139.52699},{"name":"さくら東小金井ハウス","province":"東京都","city":"小金井市","address":"小金井市東町4-20-22","lat":35.6959,"lon":139.52505},{"name":"サンハイツ貫井南","province":"東京都","city":"小金井市","address":"小金井市貫井南町4-14-8","lat":35.69549,"lon":139.49466},{"name":"桜町病院","province":"東京都","city":"小金井市","address":"小金井市桜町1-2-20","lat":35.70885,"lon":139.51196},{"name":"梶野町第２荘","province":"東京都","city":"小金井市","address":"小金井市梶野町2-16-6","lat":35.70932,"lon":139.52924},{"name":"梶野町第３荘","province":"東京都","city":"小金井市","address":"小金井市梶野町2-16-9","lat":35.70932,"lon":139.52924},{"name":"サンハイツ貫井南２","province":"東京都","city":"小金井市","address":"小金井市貫井南町4-14-8","lat":35.69549,"lon":139.49466},{"name":"小金井市社会福祉協議会","province":"東京都","city":"小金井市","address":"小金井市本町5-36-17","lat":35.70489,"lon":139.5036},{"name":"小金井市障害者福祉センター小金井市障害者地域自立生活支援センター","province":"東京都","city":"小金井市","address":"東京都小金井市緑町4丁目17-10","lat":35.70867803,"lon":139.51739213},{"name":"合同会社セルフクリエイトデイステーション涼風","province":"東京都","city":"小金井市","address":"東京都小金井市中町1丁目7-34","lat":35.69364894,"lon":139.51066828},{"name":"ワークセンター「あい」","province":"東京都","city":"小金井市","address":"東京都小金井市東町4丁目17-1","lat":35.69549633,"lon":139.52457261},{"name":"手作り工房「みらい」","province":"東京都","city":"小金井市","address":"東京都小金井市東町4丁目20-3","lat":35.69546024,"lon":139.52496703},{"name":"一般社団法人にこにこにこにこファクトリー","province":"東京都","city":"小金井市","address":"東京都小金井市本町1丁目14-15","lat":35.70017043,"lon":139.50992086},{"name":"さくら東小金井ハウス","province":"東京都","city":"小金井市","address":"小金井市東町4-20-22","lat":35.6959,"lon":139.52506},{"name":"サンハイツ貫井南2","province":"東京都","city":"小金井市","address":"小金井市貫井南町4-14-8","lat":35.69549,"lon":139.49466},{"name":"桜町病院","province":"東京都","city":"小金井市","address":"小金井市桜町1-2-20","lat":35.709547,"lon":139.511426},{"name":"賀川学園","province":"東京都","city":"小金井市","address":"小金井市貫井北町5-8-1","lat":35.701667,"lon":139.488511},{"name":"梶野町第二荘","province":"東京都","city":"小金井市","address":"小金井市梶野町2-16-6","lat":35.709284,"lon":139.529938},{"name":"梶野町荘","province":"東京都","city":"小金井市","address":"小金井市梶野町2-16-7","lat":35.709309,"lon":139.529727},{"name":"小金井荘","province":"東京都","city":"小金井市","address":"小金井市梶野町4-10-23","lat":35.707681,"lon":139.526964},{"name":"東小金井荘","province":"東京都","city":"小金井市","address":"小金井市梶野町4-10-24","lat":35.707853,"lon":139.526775},{"name":"さくら東小金井ハウス","province":"東京都","city":"小金井市","address":"小金井市東町4-20-22","lat":35.695605,"lon":139.525273},{"name":"サンハイツ貫井南","province":"東京都","city":"小金井市","address":"小金井市貫井南町4-14-8","lat":35.695223,"lon":139.494797},{"name":"小金井市社会福祉協議会","province":"東京都","city":"小金井市","address":"小金井市本町5-36-17","lat":35.705414,"lon":139.503918},{"name":"梶野町第二荘","province":"東京都","city":"小金井市","address":"小金井市梶野町2-16-6","lat":35.70932,"lon":139.52924},{"name":"梶野町荘","province":"東京都","city":"小金井市","address":"小金井市梶野町2-16-7","lat":35.70932,"lon":139.52924},{"name":"小金井荘","province":"東京都","city":"小金井市","address":"小金井市梶野町4-10-23","lat":35.70747,"lon":139.52699},{"name":"東小金井荘","province":"東京都","city":"小金井市","address":"小金井市梶野町4-10-24","lat":35.70747,"lon":139.52699},{"name":"さくら東小金井ハウス","province":"東京都","city":"小金井市","address":"小金井市東町4-20-22","lat":35.6959,"lon":139.52505},{"name":"サンハイツ貫井南","province":"東京都","city":"小金井市","address":"小金井市貫井南町4-14-8","lat":35.69549,"lon":139.49466},{"name":"桜町病院","province":"東京都","city":"小金井市","address":"小金井市桜町1-2-20","lat":35.70885,"lon":139.51196},{"name":"梶野町第２荘","province":"東京都","city":"小金井市","address":"小金井市梶野町2-16-6","lat":35.70932,"lon":139.52924},{"name":"梶野町第３荘","province":"東京都","city":"小金井市","address":"小金井市梶野町2-16-9","lat":35.70932,"lon":139.52924},{"name":"サンハイツ貫井南２","province":"東京都","city":"小金井市","address":"小金井市貫井南町4-14-8","lat":35.69549,"lon":139.49466},{"name":"小金井市社会福祉協議会","province":"東京都","city":"小金井市","address":"小金井市本町5-36-17","lat":35.70489,"lon":139.5036},{"name":"小金井市障害者福祉センター小金井市障害者地域自立生活支援センター","province":"東京都","city":"小金井市","address":"東京都小金井市緑町4丁目17-10","lat":35.70867803,"lon":139.51739213},{"name":"合同会社セルフクリエイトデイステーション涼風","province":"東京都","city":"小金井市","address":"東京都小金井市中町1丁目7-34","lat":35.69364894,"lon":139.51066828},{"name":"ワークセンター「あい」","province":"東京都","city":"小金井市","address":"東京都小金井市東町4丁目17-1","lat":35.69549633,"lon":139.52457261},{"name":"手作り工房「みらい」","province":"東京都","city":"小金井市","address":"東京都小金井市東町4丁目20-3","lat":35.69546024,"lon":139.52496703},{"name":"一般社団法人にこにこにこにこファクトリー","province":"東京都","city":"小金井市","address":"東京都小金井市本町1丁目14-15","lat":35.70017043,"lon":139.50992086},{"name":"さくら東小金井ハウス","province":"東京都","city":"小金井市","address":"小金井市東町4-20-22","lat":35.6959,"lon":139.52506},{"name":"サンハイツ貫井南2","province":"東京都","city":"小金井市","address":"小金井市貫井南町4-14-8","lat":35.69549,"lon":139.49466},{"name":"桜町病院","province":"東京都","city":"小金井市","address":"小金井市桜町1-2-20","lat":35.709547,"lon":139.511426},{"name":"賀川学園","province":"東京都","city":"小金井市","address":"小金井市貫井北町5-8-1","lat":35.701667,"lon":139.488511},{"name":"梶野町第二荘","province":"東京都","city":"小金井市","address":"小金井市梶野町2-16-6","lat":35.709284,"lon":139.529938},{"name":"梶野町荘","province":"東京都","city":"小金井市","address":"小金井市梶野町2-16-7","lat":35.709309,"lon":139.529727},{"name":"小金井荘","province":"東京都","city":"小金井市","address":"小金井市梶野町4-10-23","lat":35.707681,"lon":139.526964},{"name":"東小金井荘","province":"東京都","city":"小金井市","address":"小金井市梶野町4-10-24","lat":35.707853,"lon":139.526775},{"name":"さくら東小金井ハウス","province":"東京都","city":"小金井市","address":"小金井市東町4-20-22","lat":35.695605,"lon":139.525273},{"name":"サンハイツ貫井南","province":"東京都","city":"小金井市","address":"小金井市貫井南町4-14-8","lat":35.695223,"lon":139.494797},{"name":"小金井市社会福祉協議会","province":"東京都","city":"小金井市","address":"小金井市本町5-36-17","lat":35.705414,"lon":139.503918},{"name":"梶野町第二荘","province":"東京都","city":"小金井市","address":"小金井市梶野町2-16-6","lat":35.70932,"lon":139.52924},{"name":"梶野町荘","province":"東京都","city":"小金井市","address":"小金井市梶野町2-16-7","lat":35.70932,"lon":139.52924},{"name":"小金井荘","province":"東京都","city":"小金井市","address":"小金井市梶野町4-10-23","lat":35.70747,"lon":139.52699},{"name":"東小金井荘","province":"東京都","city":"小金井市","address":"小金井市梶野町4-10-24","lat":35.70747,"lon":139.52699},{"name":"さくら東小金井ハウス","province":"東京都","city":"小金井市","address":"小金井市東町4-20-22","lat":35.6959,"lon":139.52505},{"name":"サンハイツ貫井南","province":"東京都","city":"小金井市","address":"小金井市貫井南町4-14-8","lat":35.69549,"lon":139.49466},{"name":"桜町病院","province":"東京都","city":"小金井市","address":"小金井市桜町1-2-20","lat":35.70885,"lon":139.51196},{"name":"梶野町第２荘","province":"東京都","city":"小金井市","address":"小金井市梶野町2-16-6","lat":35.70932,"lon":139.52924},{"name":"梶野町第３荘","province":"東京都","city":"小金井市","address":"小金井市梶野町2-16-9","lat":35.70932,"lon":139.52924},{"name":"サンハイツ貫井南２","province":"東京都","city":"小金井市","address":"小金井市貫井南町4-14-8","lat":35.69549,"lon":139.49466},{"name":"小金井市社会福祉協議会","province":"東京都","city":"小金井市","address":"小金井市本町5-36-17","lat":35.70489,"lon":139.5036},{"name":"小金井市障害者福祉センター小金井市障害者地域自立生活支援センター","province":"東京都","city":"小金井市","address":"東京都小金井市緑町4丁目17-10","lat":35.70867803,"lon":139.51739213},{"name":"合同会社セルフクリエイトデイステーション涼風","province":"東京都","city":"小金井市","address":"東京都小金井市中町1丁目7-34","lat":35.69364894,"lon":139.51066828},{"name":"ワークセンター「あい」","province":"東京都","city":"小金井市","address":"東京都小金井市東町4丁目17-1","lat":35.69549633,"lon":139.52457261},{"name":"手作り工房「みらい」","province":"東京都","city":"小金井市","address":"東京都小金井市東町4丁目20-3","lat":35.69546024,"lon":139.52496703},{"name":"一般社団法人にこにこにこにこファクトリー","province":"東京都","city":"小金井市","address":"東京都小金井市本町1丁目14-15","lat":35.70017043,"lon":139.50992086},{"name":"さくら東小金井ハウス","province":"東京都","city":"小金井市","address":"小金井市東町4-20-22","lat":35.6959,"lon":139.52506},{"name":"サンハイツ貫井南2","province":"東京都","city":"小金井市","address":"小金井市貫井南町4-14-8","lat":35.69549,"lon":139.49466},{"name":"桜町病院","province":"東京都","city":"小金井市","address":"小金井市桜町1-2-20","lat":35.709547,"lon":139.511426},{"name":"賀川学園","province":"東京都","city":"小金井市","address":"小金井市貫井北町5-8-1","lat":35.701667,"lon":139.488511},{"name":"梶野町第二荘","province":"東京都","city":"小金井市","address":"小金井市梶野町2-16-6","lat":35.709284,"lon":139.529938},{"name":"梶野町荘","province":"東京都","city":"小金井市","address":"小金井市梶野町2-16-7","lat":35.709309,"lon":139.529727},{"name":"小金井荘","province":"東京都","city":"小金井市","address":"小金井市梶野町4-10-23","lat":35.707681,"lon":139.526964},{"name":"東小金井荘","province":"東京都","city":"小金井市","address":"小金井市梶野町4-10-24","lat":35.707853,"lon":139.526775},{"name":"さくら東小金井ハウス","province":"東京都","city":"小金井市","address":"小金井市東町4-20-22","lat":35.695605,"lon":139.525273},{"name":"サンハイツ貫井南","province":"東京都","city":"小金井市","address":"小金井市貫井南町4-14-8","lat":35.695223,"lon":139.494797},{"name":"小金井市社会福祉協議会","province":"東京都","city":"小金井市","address":"小金井市本町5-36-17","lat":35.705414,"lon":139.503918},{"name":"梶野町第二荘","province":"東京都","city":"小金井市","address":"小金井市梶野町2-16-6","lat":35.70932,"lon":139.52924},{"name":"梶野町荘","province":"東京都","city":"小金井市","address":"小金井市梶野町2-16-7","lat":35.70932,"lon":139.52924},{"name":"小金井荘","province":"東京都","city":"小金井市","address":"小金井市梶野町4-10-23","lat":35.70747,"lon":139.52699},{"name":"東小金井荘","province":"東京都","city":"小金井市","address":"小金井市梶野町4-10-24","lat":35.70747,"lon":139.52699},{"name":"さくら東小金井ハウス","province":"東京都","city":"小金井市","address":"小金井市東町4-20-22","lat":35.6959,"lon":139.52505},{"name":"サンハイツ貫井南","province":"東京都","city":"小金井市","address":"小金井市貫井南町4-14-8","lat":35.69549,"lon":139.49466},{"name":"桜町病院","province":"東京都","city":"小金井市","address":"小金井市桜町1-2-20","lat":35.70885,"lon":139.51196},{"name":"梶野町第２荘","province":"東京都","city":"小金井市","address":"小金井市梶野町2-16-6","lat":35.70932,"lon":139.52924},{"name":"梶野町第３荘","province":"東京都","city":"小金井市","address":"小金井市梶野町2-16-9","lat":35.70932,"lon":139.52924},{"name":"サンハイツ貫井南２","province":"東京都","city":"小金井市","address":"小金井市貫井南町4-14-8","lat":35.69549,"lon":139.49466},{"name":"小金井市社会福祉協議会","province":"東京都","city":"小金井市","address":"小金井市本町5-36-17","lat":35.70489,"lon":139.5036},{"name":"小金井市障害者福祉センター小金井市障害者地域自立生活支援センター","province":"東京都","city":"小金井市","address":"東京都小金井市緑町4丁目17-10","lat":35.70867803,"lon":139.51739213},{"name":"合同会社セルフクリエイトデイステーション涼風","province":"東京都","city":"小金井市","address":"東京都小金井市中町1丁目7-34","lat":35.69364894,"lon":139.51066828},{"name":"ワークセンター「あい」","province":"東京都","city":"小金井市","address":"東京都小金井市東町4丁目17-1","lat":35.69549633,"lon":139.52457261},{"name":"手作り工房「みらい」","province":"東京都","city":"小金井市","address":"東京都小金井市東町4丁目20-3","lat":35.69546024,"lon":139.52496703},{"name":"一般社団法人にこにこにこにこファクトリー","province":"東京都","city":"小金井市","address":"東京都小金井市本町1丁目14-15","lat":35.70017043,"lon":139.50992086},{"name":"さくら東小金井ハウス","province":"東京都","city":"小金井市","address":"小金井市東町4-20-22","lat":35.6959,"lon":139.52506},{"name":"サンハイツ貫井南2","province":"東京都","city":"小金井市","address":"小金井市貫井南町4-14-8","lat":35.69549,"lon":139.49466},{"name":"桜町病院","province":"東京都","city":"小金井市","address":"小金井市桜町1-2-20","lat":35.709547,"lon":139.511426},{"name":"賀川学園","province":"東京都","city":"小金井市","address":"小金井市貫井北町5-8-1","lat":35.701667,"lon":139.488511},{"name":"梶野町第二荘","province":"東京都","city":"小金井市","address":"小金井市梶野町2-16-6","lat":35.709284,"lon":139.529938},{"name":"梶野町荘","province":"東京都","city":"小金井市","address":"小金井市梶野町2-16-7","lat":35.709309,"lon":139.529727},{"name":"小金井荘","province":"東京都","city":"小金井市","address":"小金井市梶野町4-10-23","lat":35.707681,"lon":139.526964},{"name":"東小金井荘","province":"東京都","city":"小金井市","address":"小金井市梶野町4-10-24","lat":35.707853,"lon":139.526775},{"name":"さくら東小金井ハウス","province":"東京都","city":"小金井市","address":"小金井市東町4-20-22","lat":35.695605,"lon":139.525273},{"name":"サンハイツ貫井南","province":"東京都","city":"小金井市","address":"小金井市貫井南町4-14-8","lat":35.695223,"lon":139.494797},{"name":"小金井市社会福祉協議会","province":"東京都","city":"小金井市","address":"小金井市本町5-36-17","lat":35.705414,"lon":139.503918},{"name":"梶野町第二荘","province":"東京都","city":"小金井市","address":"小金井市梶野町2-16-6","lat":35.70932,"lon":139.52924},{"name":"梶野町荘","province":"東京都","city":"小金井市","address":"小金井市梶野町2-16-7","lat":35.70932,"lon":139.52924},{"name":"小金井荘","province":"東京都","city":"小金井市","address":"小金井市梶野町4-10-23","lat":35.70747,"lon":139.52699},{"name":"東小金井荘","province":"東京都","city":"小金井市","address":"小金井市梶野町4-10-24","lat":35.70747,"lon":139.52699},{"name":"さくら東小金井ハウス","province":"東京都","city":"小金井市","address":"小金井市東町4-20-22","lat":35.6959,"lon":139.52505},{"name":"サンハイツ貫井南","province":"東京都","city":"小金井市","address":"小金井市貫井南町4-14-8","lat":35.69549,"lon":139.49466},{"name":"桜町病院","province":"東京都","city":"小金井市","address":"小金井市桜町1-2-20","lat":35.70885,"lon":139.51196},{"name":"梶野町第２荘","province":"東京都","city":"小金井市","address":"小金井市梶野町2-16-6","lat":35.70932,"lon":139.52924},{"name":"梶野町第３荘","province":"東京都","city":"小金井市","address":"小金井市梶野町2-16-9","lat":35.70932,"lon":139.52924},{"name":"サンハイツ貫井南２","province":"東京都","city":"小金井市","address":"小金井市貫井南町4-14-8","lat":35.69549,"lon":139.49466},{"name":"小金井市社会福祉協議会","province":"東京都","city":"小金井市","address":"小金井市本町5-36-17","lat":35.70489,"lon":139.5036},{"name":"小金井市障害者福祉センター小金井市障害者地域自立生活支援センター","province":"東京都","city":"小金井市","address":"東京都小金井市緑町4丁目17-10","lat":35.70867803,"lon":139.51739213},{"name":"合同会社セルフクリエイトデイステーション涼風","province":"東京都","city":"小金井市","address":"東京都小金井市中町1丁目7-34","lat":35.69364894,"lon":139.51066828},{"name":"ワークセンター「あい」","province":"東京都","city":"小金井市","address":"東京都小金井市東町4丁目17-1","lat":35.69549633,"lon":139.52457261},{"name":"手作り工房「みらい」","province":"東京都","city":"小金井市","address":"東京都小金井市東町4丁目20-3","lat":35.69546024,"lon":139.52496703},{"name":"一般社団法人にこにこにこにこファクトリー","province":"東京都","city":"小金井市","address":"東京都小金井市本町1丁目14-15","lat":35.70017043,"lon":139.50992086},{"name":"さくら東小金井ハウス","province":"東京都","city":"小金井市","address":"小金井市東町4-20-22","lat":35.6959,"lon":139.52506},{"name":"サンハイツ貫井南2","province":"東京都","city":"小金井市","address":"小金井市貫井南町4-14-8","lat":35.69549,"lon":139.49466},{"name":"桜町病院","province":"東京都","city":"小金井市","address":"小金井市桜町1-2-20","lat":35.709547,"lon":139.511426},{"name":"賀川学園","province":"東京都","city":"小金井市","address":"小金井市貫井北町5-8-1","lat":35.701667,"lon":139.488511},{"name":"梶野町第二荘","province":"東京都","city":"小金井市","address":"小金井市梶野町2-16-6","lat":35.709284,"lon":139.529938},{"name":"梶野町荘","province":"東京都","city":"小金井市","address":"小金井市梶野町2-16-7","lat":35.709309,"lon":139.529727},{"name":"小金井荘","province":"東京都","city":"小金井市","address":"小金井市梶野町4-10-23","lat":35.707681,"lon":139.526964},{"name":"東小金井荘","province":"東京都","city":"小金井市","address":"小金井市梶野町4-10-24","lat":35.707853,"lon":139.526775},{"name":"さくら東小金井ハウス","province":"東京都","city":"小金井市","address":"小金井市東町4-20-22","lat":35.695605,"lon":139.525273},{"name":"サンハイツ貫井南","province":"東京都","city":"小金井市","address":"小金井市貫井南町4-14-8","lat":35.695223,"lon":139.494797},{"name":"小金井市社会福祉協議会","province":"東京都","city":"小金井市","address":"小金井市本町5-36-17","lat":35.705414,"lon":139.503918},{"name":"梶野町第二荘","province":"東京都","city":"小金井市","address":"小金井市梶野町2-16-6","lat":35.70932,"lon":139.52924},{"name":"梶野町荘","province":"東京都","city":"小金井市","address":"小金井市梶野町2-16-7","lat":35.70932,"lon":139.52924},{"name":"小金井荘","province":"東京都","city":"小金井市","address":"小金井市梶野町4-10-23","lat":35.70747,"lon":139.52699},{"name":"東小金井荘","province":"東京都","city":"小金井市","address":"小金井市梶野町4-10-24","lat":35.70747,"lon":139.52699},{"name":"さくら東小金井ハウス","province":"東京都","city":"小金井市","address":"小金井市東町4-20-22","lat":35.6959,"lon":139.52505},{"name":"サンハイツ貫井南","province":"東京都","city":"小金井市","address":"小金井市貫井南町4-14-8","lat":35.69549,"lon":139.49466},{"name":"桜町病院","province":"東京都","city":"小金井市","address":"小金井市桜町1-2-20","lat":35.70885,"lon":139.51196},{"name":"梶野町第２荘","province":"東京都","city":"小金井市","address":"小金井市梶野町2-16-6","lat":35.70932,"lon":139.52924},{"name":"梶野町第３荘","province":"東京都","city":"小金井市","address":"小金井市梶野町2-16-9","lat":35.70932,"lon":139.52924},{"name":"サンハイツ貫井南２","province":"東京都","city":"小金井市","address":"小金井市貫井南町4-14-8","lat":35.69549,"lon":139.49466},{"name":"小金井市社会福祉協議会","province":"東京都","city":"小金井市","address":"小金井市本町5-36-17","lat":35.70489,"lon":139.5036},{"name":"小金井市障害者福祉センター小金井市障害者地域自立生活支援センター","province":"東京都","city":"小金井市","address":"東京都小金井市緑町4丁目17-10","lat":35.70867803,"lon":139.51739213},{"name":"合同会社セルフクリエイトデイステーション涼風","province":"東京都","city":"小金井市","address":"東京都小金井市中町1丁目7-34","lat":35.69364894,"lon":139.51066828},{"name":"ワークセンター「あい」","province":"東京都","city":"小金井市","address":"東京都小金井市東町4丁目17-1","lat":35.69549633,"lon":139.52457261},{"name":"手作り工房「みらい」","province":"東京都","city":"小金井市","address":"東京都小金井市東町4丁目20-3","lat":35.69546024,"lon":139.52496703},{"name":"一般社団法人にこにこにこにこファクトリー","province":"東京都","city":"小金井市","address":"東京都小金井市本町1丁目14-15","lat":35.70017043,"lon":139.50992086},{"name":"さくら東小金井ハウス","province":"東京都","city":"小金井市","address":"小金井市東町4-20-22","lat":35.6959,"lon":139.52506},{"name":"サンハイツ貫井南2","province":"東京都","city":"小金井市","address":"小金井市貫井南町4-14-8","lat":35.69549,"lon":139.49466},{"name":"桜町病院","province":"東京都","city":"小金井市","address":"小金井市桜町1-2-20","lat":35.709547,"lon":139.511426},{"name":"賀川学園","province":"東京都","city":"小金井市","address":"小金井市貫井北町5-8-1","lat":35.701667,"lon":139.488511},{"name":"梶野町第二荘","province":"東京都","city":"小金井市","address":"小金井市梶野町2-16-6","lat":35.709284,"lon":139.529938},{"name":"梶野町荘","province":"東京都","city":"小金井市","address":"小金井市梶野町2-16-7","lat":35.709309,"lon":139.529727},{"name":"小金井荘","province":"東京都","city":"小金井市","address":"小金井市梶野町4-10-23","lat":35.707681,"lon":139.526964},{"name":"東小金井荘","province":"東京都","city":"小金井市","address":"小金井市梶野町4-10-24","lat":35.707853,"lon":139.526775},{"name":"さくら東小金井ハウス","province":"東京都","city":"小金井市","address":"小金井市東町4-20-22","lat":35.695605,"lon":139.525273},{"name":"サンハイツ貫井南","province":"東京都","city":"小金井市","address":"小金井市貫井南町4-14-8","lat":35.695223,"lon":139.494797},{"name":"小金井市社会福祉協議会","province":"東京都","city":"小金井市","address":"小金井市本町5-36-17","lat":35.705414,"lon":139.503918},{"name":"梶野町第二荘","province":"東京都","city":"小金井市","address":"小金井市梶野町2-16-6","lat":35.70932,"lon":139.52924},{"name":"梶野町荘","province":"東京都","city":"小金井市","address":"小金井市梶野町2-16-7","lat":35.70932,"lon":139.52924},{"name":"小金井荘","province":"東京都","city":"小金井市","address":"小金井市梶野町4-10-23","lat":35.70747,"lon":139.52699},{"name":"東小金井荘","province":"東京都","city":"小金井市","address":"小金井市梶野町4-10-24","lat":35.70747,"lon":139.52699},{"name":"さくら東小金井ハウス","province":"東京都","city":"小金井市","address":"小金井市東町4-20-22","lat":35.6959,"lon":139.52505},{"name":"サンハイツ貫井南","province":"東京都","city":"小金井市","address":"小金井市貫井南町4-14-8","lat":35.69549,"lon":139.49466},{"name":"桜町病院","province":"東京都","city":"小金井市","address":"小金井市桜町1-2-20","lat":35.70885,"lon":139.51196},{"name":"梶野町第２荘","province":"東京都","city":"小金井市","address":"小金井市梶野町2-16-6","lat":35.70932,"lon":139.52924},{"name":"梶野町第３荘","province":"東京都","city":"小金井市","address":"小金井市梶野町2-16-9","lat":35.70932,"lon":139.52924},{"name":"サンハイツ貫井南２","province":"東京都","city":"小金井市","address":"小金井市貫井南町4-14-8","lat":35.69549,"lon":139.49466},{"name":"小金井市社会福祉協議会","province":"東京都","city":"小金井市","address":"小金井市本町5-36-17","lat":35.70489,"lon":139.5036},{"name":"小金井市障害者福祉センター小金井市障害者地域自立生活支援センター","province":"東京都","city":"小金井市","address":"東京都小金井市緑町4丁目17-10","lat":35.70867803,"lon":139.51739213},{"name":"合同会社セルフクリエイトデイステーション涼風","province":"東京都","city":"小金井市","address":"東京都小金井市中町1丁目7-34","lat":35.69364894,"lon":139.51066828},{"name":"ワークセンター「あい」","province":"東京都","city":"小金井市","address":"東京都小金井市東町4丁目17-1","lat":35.69549633,"lon":139.52457261},{"name":"手作り工房「みらい」","province":"東京都","city":"小金井市","address":"東京都小金井市東町4丁目20-3","lat":35.69546024,"lon":139.52496703},{"name":"一般社団法人にこにこにこにこファクトリー","province":"東京都","city":"小金井市","address":"東京都小金井市本町1丁目14-15","lat":35.70017043,"lon":139.50992086},{"name":"さくら東小金井ハウス","province":"東京都","city":"小金井市","address":"小金井市東町4-20-22","lat":35.6959,"lon":139.52506},{"name":"サンハイツ貫井南2","province":"東京都","city":"小金井市","address":"小金井市貫井南町4-14-8","lat":35.69549,"lon":139.49466},{"name":"桜町病院","province":"東京都","city":"小金井市","address":"小金井市桜町1-2-20","lat":35.709547,"lon":139.511426},{"name":"賀川学園","province":"東京都","city":"小金井市","address":"小金井市貫井北町5-8-1","lat":35.701667,"lon":139.488511},{"name":"梶野町第二荘","province":"東京都","city":"小金井市","address":"小金井市梶野町2-16-6","lat":35.709284,"lon":139.529938},{"name":"梶野町荘","province":"東京都","city":"小金井市","address":"小金井市梶野町2-16-7","lat":35.709309,"lon":139.529727},{"name":"小金井荘","province":"東京都","city":"小金井市","address":"小金井市梶野町4-10-23","lat":35.707681,"lon":139.526964},{"name":"東小金井荘","province":"東京都","city":"小金井市","address":"小金井市梶野町4-10-24","lat":35.707853,"lon":139.526775},{"name":"さくら東小金井ハウス","province":"東京都","city":"小金井市","address":"小金井市東町4-20-22","lat":35.695605,"lon":139.525273},{"name":"サンハイツ貫井南","province":"東京都","city":"小金井市","address":"小金井市貫井南町4-14-8","lat":35.695223,"lon":139.494797},{"name":"小金井市社会福祉協議会","province":"東京都","city":"小金井市","address":"小金井市本町5-36-17","lat":35.705414,"lon":139.503918},{"name":"梶野町第二荘","province":"東京都","city":"小金井市","address":"小金井市梶野町2-16-6","lat":35.70932,"lon":139.52924},{"name":"梶野町荘","province":"東京都","city":"小金井市","address":"小金井市梶野町2-16-7","lat":35.70932,"lon":139.52924},{"name":"小金井荘","province":"東京都","city":"小金井市","address":"小金井市梶野町4-10-23","lat":35.70747,"lon":139.52699},{"name":"東小金井荘","province":"東京都","city":"小金井市","address":"小金井市梶野町4-10-24","lat":35.70747,"lon":139.52699},{"name":"さくら東小金井ハウス","province":"東京都","city":"小金井市","address":"小金井市東町4-20-22","lat":35.6959,"lon":139.52505},{"name":"サンハイツ貫井南","province":"東京都","city":"小金井市","address":"小金井市貫井南町4-14-8","lat":35.69549,"lon":139.49466},{"name":"桜町病院","province":"東京都","city":"小金井市","address":"小金井市桜町1-2-20","lat":35.70885,"lon":139.51196},{"name":"梶野町第２荘","province":"東京都","city":"小金井市","address":"小金井市梶野町2-16-6","lat":35.70932,"lon":139.52924},{"name":"梶野町第３荘","province":"東京都","city":"小金井市","address":"小金井市梶野町2-16-9","lat":35.70932,"lon":139.52924},{"name":"サンハイツ貫井南２","province":"東京都","city":"小金井市","address":"小金井市貫井南町4-14-8","lat":35.69549,"lon":139.49466},{"name":"小金井市社会福祉協議会","province":"東京都","city":"小金井市","address":"小金井市本町5-36-17","lat":35.70489,"lon":139.5036},{"name":"小金井市障害者福祉センター小金井市障害者地域自立生活支援センター","province":"東京都","city":"小金井市","address":"東京都小金井市緑町4丁目17-10","lat":35.70867803,"lon":139.51739213},{"name":"合同会社セルフクリエイトデイステーション涼風","province":"東京都","city":"小金井市","address":"東京都小金井市中町1丁目7-34","lat":35.69364894,"lon":139.51066828},{"name":"ワークセンター「あい」","province":"東京都","city":"小金井市","address":"東京都小金井市東町4丁目17-1","lat":35.69549633,"lon":139.52457261},{"name":"手作り工房「みらい」","province":"東京都","city":"小金井市","address":"東京都小金井市東町4丁目20-3","lat":35.69546024,"lon":139.52496703},{"name":"一般社団法人にこにこにこにこファクトリー","province":"東京都","city":"小金井市","address":"東京都小金井市本町1丁目14-15","lat":35.70017043,"lon":139.50992086},{"name":"さくら東小金井ハウス","province":"東京都","city":"小金井市","address":"小金井市東町4-20-22","lat":35.6959,"lon":139.52506},{"name":"サンハイツ貫井南2","province":"東京都","city":"小金井市","address":"小金井市貫井南町4-14-8","lat":35.69549,"lon":139.49466},{"name":"桜町病院","province":"東京都","city":"小金井市","address":"小金井市桜町1-2-20","lat":35.709547,"lon":139.511426},{"name":"賀川学園","province":"東京都","city":"小金井市","address":"小金井市貫井北町5-8-1","lat":35.701667,"lon":139.488511},{"name":"梶野町第二荘","province":"東京都","city":"小金井市","address":"小金井市梶野町2-16-6","lat":35.709284,"lon":139.529938},{"name":"梶野町荘","province":"東京都","city":"小金井市","address":"小金井市梶野町2-16-7","lat":35.709309,"lon":139.529727},{"name":"小金井荘","province":"東京都","city":"小金井市","address":"小金井市梶野町4-10-23","lat":35.707681,"lon":139.526964},{"name":"東小金井荘","province":"東京都","city":"小金井市","address":"小金井市梶野町4-10-24","lat":35.707853,"lon":139.526775},{"name":"さくら東小金井ハウス","province":"東京都","city":"小金井市","address":"小金井市東町4-20-22","lat":35.695605,"lon":139.525273},{"name":"サンハイツ貫井南","province":"東京都","city":"小金井市","address":"小金井市貫井南町4-14-8","lat":35.695223,"lon":139.494797},{"name":"小金井市社会福祉協議会","province":"東京都","city":"小金井市","address":"小金井市本町5-36-17","lat":35.705414,"lon":139.503918},{"name":"梶野町第二荘","province":"東京都","city":"小金井市","address":"小金井市梶野町2-16-6","lat":35.70932,"lon":139.52924},{"name":"梶野町荘","province":"東京都","city":"小金井市","address":"小金井市梶野町2-16-7","lat":35.70932,"lon":139.52924},{"name":"小金井荘","province":"東京都","city":"小金井市","address":"小金井市梶野町4-10-23","lat":35.70747,"lon":139.52699},{"name":"東小金井荘","province":"東京都","city":"小金井市","address":"小金井市梶野町4-10-24","lat":35.70747,"lon":139.52699},{"name":"さくら東小金井ハウス","province":"東京都","city":"小金井市","address":"小金井市東町4-20-22","lat":35.6959,"lon":139.52505},{"name":"サンハイツ貫井南","province":"東京都","city":"小金井市","address":"小金井市貫井南町4-14-8","lat":35.69549,"lon":139.49466},{"name":"桜町病院","province":"東京都","city":"小金井市","address":"小金井市桜町1-2-20","lat":35.70885,"lon":139.51196},{"name":"梶野町第２荘","province":"東京都","city":"小金井市","address":"小金井市梶野町2-16-6","lat":35.70932,"lon":139.52924},{"name":"梶野町第３荘","province":"東京都","city":"小金井市","address":"小金井市梶野町2-16-9","lat":35.70932,"lon":139.52924},{"name":"サンハイツ貫井南２","province":"東京都","city":"小金井市","address":"小金井市貫井南町4-14-8","lat":35.69549,"lon":139.49466},{"name":"小金井市社会福祉協議会","province":"東京都","city":"小金井市","address":"小金井市本町5-36-17","lat":35.70489,"lon":139.5036},{"name":"小金井市障害者福祉センター小金井市障害者地域自立生活支援センター","province":"東京都","city":"小金井市","address":"東京都小金井市緑町4丁目17-10","lat":35.70867803,"lon":139.51739213},{"name":"合同会社セルフクリエイトデイステーション涼風","province":"東京都","city":"小金井市","address":"東京都小金井市中町1丁目7-34","lat":35.69364894,"lon":139.51066828},{"name":"ワークセンター「あい」","province":"東京都","city":"小金井市","address":"東京都小金井市東町4丁目17-1","lat":35.69549633,"lon":139.52457261},{"name":"手作り工房「みらい」","province":"東京都","city":"小金井市","address":"東京都小金井市東町4丁目20-3","lat":35.69546024,"lon":139.52496703},{"name":"一般社団法人にこにこにこにこファクトリー","province":"東京都","city":"小金井市","address":"東京都小金井市本町1丁目14-15","lat":35.70017043,"lon":139.50992086},{"name":"さくら東小金井ハウス","province":"東京都","city":"小金井市","address":"小金井市東町4-20-22","lat":35.6959,"lon":139.52506},{"name":"サンハイツ貫井南2","province":"東京都","city":"小金井市","address":"小金井市貫井南町4-14-8","lat":35.69549,"lon":139.49466},{"name":"桜町病院","province":"東京都","city":"小金井市","address":"小金井市桜町1-2-20","lat":35.709547,"lon":139.511426},{"name":"賀川学園","province":"東京都","city":"小金井市","address":"小金井市貫井北町5-8-1","lat":35.701667,"lon":139.488511},{"name":"梶野町第二荘","province":"東京都","city":"小金井市","address":"小金井市梶野町2-16-6","lat":35.709284,"lon":139.529938},{"name":"梶野町荘","province":"東京都","city":"小金井市","address":"小金井市梶野町2-16-7","lat":35.709309,"lon":139.529727},{"name":"小金井荘","province":"東京都","city":"小金井市","address":"小金井市梶野町4-10-23","lat":35.707681,"lon":139.526964},{"name":"東小金井荘","province":"東京都","city":"小金井市","address":"小金井市梶野町4-10-24","lat":35.707853,"lon":139.526775},{"name":"さくら東小金井ハウス","province":"東京都","city":"小金井市","address":"小金井市東町4-20-22","lat":35.695605,"lon":139.525273},{"name":"サンハイツ貫井南","province":"東京都","city":"小金井市","address":"小金井市貫井南町4-14-8","lat":35.695223,"lon":139.494797},{"name":"小金井市社会福祉協議会","province":"東京都","city":"小金井市","address":"小金井市本町5-36-17","lat":35.705414,"lon":139.503918},{"name":"梶野町第二荘","province":"東京都","city":"小金井市","address":"小金井市梶野町2-16-6","lat":35.70932,"lon":139.52924},{"name":"梶野町荘","province":"東京都","city":"小金井市","address":"小金井市梶野町2-16-7","lat":35.70932,"lon":139.52924},{"name":"小金井荘","province":"東京都","city":"小金井市","address":"小金井市梶野町4-10-23","lat":35.70747,"lon":139.52699},{"name":"東小金井荘","province":"東京都","city":"小金井市","address":"小金井市梶野町4-10-24","lat":35.70747,"lon":139.52699},{"name":"さくら東小金井ハウス","province":"東京都","city":"小金井市","address":"小金井市東町4-20-22","lat":35.6959,"lon":139.52505},{"name":"サンハイツ貫井南","province":"東京都","city":"小金井市","address":"小金井市貫井南町4-14-8","lat":35.69549,"lon":139.49466},{"name":"桜町病院","province":"東京都","city":"小金井市","address":"小金井市桜町1-2-20","lat":35.70885,"lon":139.51196},{"name":"梶野町第２荘","province":"東京都","city":"小金井市","address":"小金井市梶野町2-16-6","lat":35.70932,"lon":139.52924},{"name":"梶野町第３荘","province":"東京都","city":"小金井市","address":"小金井市梶野町2-16-9","lat":35.70932,"lon":139.52924},{"name":"サンハイツ貫井南２","province":"東京都","city":"小金井市","address":"小金井市貫井南町4-14-8","lat":35.69549,"lon":139.49466},{"name":"小金井市社会福祉協議会","province":"東京都","city":"小金井市","address":"小金井市本町5-36-17","lat":35.70489,"lon":139.5036},{"name":"小金井市障害者福祉センター小金井市障害者地域自立生活支援センター","province":"東京都","city":"小金井市","address":"東京都小金井市緑町4丁目17-10","lat":35.70867803,"lon":139.51739213},{"name":"合同会社セルフクリエイトデイステーション涼風","province":"東京都","city":"小金井市","address":"東京都小金井市中町1丁目7-34","lat":35.69364894,"lon":139.51066828},{"name":"ワークセンター「あい」","province":"東京都","city":"小金井市","address":"東京都小金井市東町4丁目17-1","lat":35.69549633,"lon":139.52457261},{"name":"手作り工房「みらい」","province":"東京都","city":"小金井市","address":"東京都小金井市東町4丁目20-3","lat":35.69546024,"lon":139.52496703},{"name":"一般社団法人にこにこにこにこファクトリー","province":"東京都","city":"小金井市","address":"東京都小金井市本町1丁目14-15","lat":35.70017043,"lon":139.50992086},{"name":"さくら東小金井ハウス","province":"東京都","city":"小金井市","address":"小金井市東町4-20-22","lat":35.6959,"lon":139.52506},{"name":"サンハイツ貫井南2","province":"東京都","city":"小金井市","address":"小金井市貫井南町4-14-8","lat":35.69549,"lon":139.49466},{"name":"桜町病院","province":"東京都","city":"小金井市","address":"小金井市桜町1-2-20","lat":35.709547,"lon":139.511426},{"name":"賀川学園","province":"東京都","city":"小金井市","address":"小金井市貫井北町5-8-1","lat":35.701667,"lon":139.488511},{"name":"梶野町第二荘","province":"東京都","city":"小金井市","address":"小金井市梶野町2-16-6","lat":35.709284,"lon":139.529938},{"name":"梶野町荘","province":"東京都","city":"小金井市","address":"小金井市梶野町2-16-7","lat":35.709309,"lon":139.529727},{"name":"小金井荘","province":"東京都","city":"小金井市","address":"小金井市梶野町4-10-23","lat":35.707681,"lon":139.526964},{"name":"東小金井荘","province":"東京都","city":"小金井市","address":"小金井市梶野町4-10-24","lat":35.707853,"lon":139.526775},{"name":"さくら東小金井ハウス","province":"東京都","city":"小金井市","address":"小金井市東町4-20-22","lat":35.695605,"lon":139.525273},{"name":"サンハイツ貫井南","province":"東京都","city":"小金井市","address":"小金井市貫井南町4-14-8","lat":35.695223,"lon":139.494797},{"name":"小金井市社会福祉協議会","province":"東京都","city":"小金井市","address":"小金井市本町5-36-17","lat":35.705414,"lon":139.503918},{"name":"梶野町第二荘","province":"東京都","city":"小金井市","address":"小金井市梶野町2-16-6","lat":35.70932,"lon":139.52924},{"name":"梶野町荘","province":"東京都","city":"小金井市","address":"小金井市梶野町2-16-7","lat":35.70932,"lon":139.52924},{"name":"小金井荘","province":"東京都","city":"小金井市","address":"小金井市梶野町4-10-23","lat":35.70747,"lon":139.52699},{"name":"東小金井荘","province":"東京都","city":"小金井市","address":"小金井市梶野町4-10-24","lat":35.70747,"lon":139.52699},{"name":"さくら東小金井ハウス","province":"東京都","city":"小金井市","address":"小金井市東町4-20-22","lat":35.6959,"lon":139.52505},{"name":"サンハイツ貫井南","province":"東京都","city":"小金井市","address":"小金井市貫井南町4-14-8","lat":35.69549,"lon":139.49466},{"name":"桜町病院","province":"東京都","city":"小金井市","address":"小金井市桜町1-2-20","lat":35.70885,"lon":139.51196},{"name":"梶野町第２荘","province":"東京都","city":"小金井市","address":"小金井市梶野町2-16-6","lat":35.70932,"lon":139.52924},{"name":"梶野町第３荘","province":"東京都","city":"小金井市","address":"小金井市梶野町2-16-9","lat":35.70932,"lon":139.52924},{"name":"サンハイツ貫井南２","province":"東京都","city":"小金井市","address":"小金井市貫井南町4-14-8","lat":35.69549,"lon":139.49466},{"name":"小金井市社会福祉協議会","province":"東京都","city":"小金井市","address":"小金井市本町5-36-17","lat":35.70489,"lon":139.5036},{"name":"小金井市障害者福祉センター小金井市障害者地域自立生活支援センター","province":"東京都","city":"小金井市","address":"東京都小金井市緑町4丁目17-10","lat":35.70867803,"lon":139.51739213},{"name":"合同会社セルフクリエイトデイステーション涼風","province":"東京都","city":"小金井市","address":"東京都小金井市中町1丁目7-34","lat":35.69364894,"lon":139.51066828},{"name":"ワークセンター「あい」","province":"東京都","city":"小金井市","address":"東京都小金井市東町4丁目17-1","lat":35.69549633,"lon":139.52457261},{"name":"手作り工房「みらい」","province":"東京都","city":"小金井市","address":"東京都小金井市東町4丁目20-3","lat":35.69546024,"lon":139.52496703},{"name":"一般社団法人にこにこにこにこファクトリー","province":"東京都","city":"小金井市","address":"東京都小金井市本町1丁目14-15","lat":35.70017043,"lon":139.50992086},{"name":"さくら東小金井ハウス","province":"東京都","city":"小金井市","address":"小金井市東町4-20-22","lat":35.6959,"lon":139.52506},{"name":"サンハイツ貫井南2","province":"東京都","city":"小金井市","address":"小金井市貫井南町4-14-8","lat":35.69549,"lon":139.49466},{"name":"桜町病院","province":"東京都","city":"小金井市","address":"小金井市桜町1-2-20","lat":35.709547,"lon":139.511426},{"name":"賀川学園","province":"東京都","city":"小金井市","address":"小金井市貫井北町5-8-1","lat":35.701667,"lon":139.488511},{"name":"梶野町第二荘","province":"東京都","city":"小金井市","address":"小金井市梶野町2-16-6","lat":35.709284,"lon":139.529938},{"name":"梶野町荘","province":"東京都","city":"小金井市","address":"小金井市梶野町2-16-7","lat":35.709309,"lon":139.529727},{"name":"小金井荘","province":"東京都","city":"小金井市","address":"小金井市梶野町4-10-23","lat":35.707681,"lon":139.526964},{"name":"東小金井荘","province":"東京都","city":"小金井市","address":"小金井市梶野町4-10-24","lat":35.707853,"lon":139.526775},{"name":"さくら東小金井ハウス","province":"東京都","city":"小金井市","address":"小金井市東町4-20-22","lat":35.695605,"lon":139.525273},{"name":"サンハイツ貫井南","province":"東京都","city":"小金井市","address":"小金井市貫井南町4-14-8","lat":35.695223,"lon":139.494797},{"name":"小金井市社会福祉協議会","province":"東京都","city":"小金井市","address":"小金井市本町5-36-17","lat":35.705414,"lon":139.503918},{"name":"梶野町第二荘","province":"東京都","city":"小金井市","address":"小金井市梶野町2-16-6","lat":35.70932,"lon":139.52924},{"name":"梶野町荘","province":"東京都","city":"小金井市","address":"小金井市梶野町2-16-7","lat":35.70932,"lon":139.52924},{"name":"小金井荘","province":"東京都","city":"小金井市","address":"小金井市梶野町4-10-23","lat":35.70747,"lon":139.52699},{"name":"東小金井荘","province":"東京都","city":"小金井市","address":"小金井市梶野町4-10-24","lat":35.70747,"lon":139.52699},{"name":"さくら東小金井ハウス","province":"東京都","city":"小金井市","address":"小金井市東町4-20-22","lat":35.6959,"lon":139.52505},{"name":"サンハイツ貫井南","province":"東京都","city":"小金井市","address":"小金井市貫井南町4-14-8","lat":35.69549,"lon":139.49466},{"name":"桜町病院","province":"東京都","city":"小金井市","address":"小金井市桜町1-2-20","lat":35.70885,"lon":139.51196},{"name":"梶野町第２荘","province":"東京都","city":"小金井市","address":"小金井市梶野町2-16-6","lat":35.70932,"lon":139.52924},{"name":"梶野町第３荘","province":"東京都","city":"小金井市","address":"小金井市梶野町2-16-9","lat":35.70932,"lon":139.52924},{"name":"サンハイツ貫井南２","province":"東京都","city":"小金井市","address":"小金井市貫井南町4-14-8","lat":35.69549,"lon":139.49466},{"name":"小金井市社会福祉協議会","province":"東京都","city":"小金井市","address":"小金井市本町5-36-17","lat":35.70489,"lon":139.5036},{"name":"小金井市障害者福祉センター小金井市障害者地域自立生活支援センター","province":"東京都","city":"小金井市","address":"東京都小金井市緑町4丁目17-10","lat":35.70867803,"lon":139.51739213},{"name":"合同会社セルフクリエイトデイステーション涼風","province":"東京都","city":"小金井市","address":"東京都小金井市中町1丁目7-34","lat":35.69364894,"lon":139.51066828},{"name":"ワークセンター「あい」","province":"東京都","city":"小金井市","address":"東京都小金井市東町4丁目17-1","lat":35.69549633,"lon":139.52457261},{"name":"手作り工房「みらい」","province":"東京都","city":"小金井市","address":"東京都小金井市東町4丁目20-3","lat":35.69546024,"lon":139.52496703},{"name":"一般社団法人にこにこにこにこファクトリー","province":"東京都","city":"小金井市","address":"東京都小金井市本町1丁目14-15","lat":35.70017043,"lon":139.50992086},{"name":"さくら東小金井ハウス","province":"東京都","city":"小金井市","address":"小金井市東町4-20-22","lat":35.6959,"lon":139.52506},{"name":"サンハイツ貫井南2","province":"東京都","city":"小金井市","address":"小金井市貫井南町4-14-8","lat":35.69549,"lon":139.49466},{"name":"桜町病院","province":"東京都","city":"小金井市","address":"小金井市桜町1-2-20","lat":35.709547,"lon":139.511426},{"name":"賀川学園","province":"東京都","city":"小金井市","address":"小金井市貫井北町5-8-1","lat":35.701667,"lon":139.488511},{"name":"梶野町第二荘","province":"東京都","city":"小金井市","address":"小金井市梶野町2-16-6","lat":35.709284,"lon":139.529938},{"name":"梶野町荘","province":"東京都","city":"小金井市","address":"小金井市梶野町2-16-7","lat":35.709309,"lon":139.529727},{"name":"小金井荘","province":"東京都","city":"小金井市","address":"小金井市梶野町4-10-23","lat":35.707681,"lon":139.526964},{"name":"東小金井荘","province":"東京都","city":"小金井市","address":"小金井市梶野町4-10-24","lat":35.707853,"lon":139.526775},{"name":"さくら東小金井ハウス","province":"東京都","city":"小金井市","address":"小金井市東町4-20-22","lat":35.695605,"lon":139.525273},{"name":"サンハイツ貫井南","province":"東京都","city":"小金井市","address":"小金井市貫井南町4-14-8","lat":35.695223,"lon":139.494797},{"name":"小金井市社会福祉協議会","province":"東京都","city":"小金井市","address":"小金井市本町5-36-17","lat":35.705414,"lon":139.503918},{"name":"梶野町第二荘","province":"東京都","city":"小金井市","address":"小金井市梶野町2-16-6","lat":35.70932,"lon":139.52924},{"name":"梶野町荘","province":"東京都","city":"小金井市","address":"小金井市梶野町2-16-7","lat":35.70932,"lon":139.52924},{"name":"小金井荘","province":"東京都","city":"小金井市","address":"小金井市梶野町4-10-23","lat":35.70747,"lon":139.52699},{"name":"東小金井荘","province":"東京都","city":"小金井市","address":"小金井市梶野町4-10-24","lat":35.70747,"lon":139.52699},{"name":"さくら東小金井ハウス","province":"東京都","city":"小金井市","address":"小金井市東町4-20-22","lat":35.6959,"lon":139.52505},{"name":"サンハイツ貫井南","province":"東京都","city":"小金井市","address":"小金井市貫井南町4-14-8","lat":35.69549,"lon":139.49466},{"name":"桜町病院","province":"東京都","city":"小金井市","address":"小金井市桜町1-2-20","lat":35.70885,"lon":139.51196},{"name":"梶野町第２荘","province":"東京都","city":"小金井市","address":"小金井市梶野町2-16-6","lat":35.70932,"lon":139.52924},{"name":"梶野町第３荘","province":"東京都","city":"小金井市","address":"小金井市梶野町2-16-9","lat":35.70932,"lon":139.52924},{"name":"サンハイツ貫井南２","province":"東京都","city":"小金井市","address":"小金井市貫井南町4-14-8","lat":35.69549,"lon":139.49466},{"name":"小金井市社会福祉協議会","province":"東京都","city":"小金井市","address":"小金井市本町5-36-17","lat":35.70489,"lon":139.5036},{"name":"小金井市障害者福祉センター小金井市障害者地域自立生活支援センター","province":"東京都","city":"小金井市","address":"東京都小金井市緑町4丁目17-10","lat":35.70867803,"lon":139.51739213},{"name":"合同会社セルフクリエイトデイステーション涼風","province":"東京都","city":"小金井市","address":"東京都小金井市中町1丁目7-34","lat":35.69364894,"lon":139.51066828},{"name":"ワークセンター「あい」","province":"東京都","city":"小金井市","address":"東京都小金井市東町4丁目17-1","lat":35.69549633,"lon":139.52457261},{"name":"手作り工房「みらい」","province":"東京都","city":"小金井市","address":"東京都小金井市東町4丁目20-3","lat":35.69546024,"lon":139.52496703},{"name":"一般社団法人にこにこにこにこファクトリー","province":"東京都","city":"小金井市","address":"東京都小金井市本町1丁目14-15","lat":35.70017043,"lon":139.50992086},{"name":"さくら東小金井ハウス","province":"東京都","city":"小金井市","address":"小金井市東町4-20-22","lat":35.6959,"lon":139.52506},{"name":"サンハイツ貫井南2","province":"東京都","city":"小金井市","address":"小金井市貫井南町4-14-8","lat":35.69549,"lon":139.49466},{"name":"桜町病院","province":"東京都","city":"小金井市","address":"小金井市桜町1-2-20","lat":35.709547,"lon":139.511426},{"name":"賀川学園","province":"東京都","city":"小金井市","address":"小金井市貫井北町5-8-1","lat":35.701667,"lon":139.488511},{"name":"梶野町第二荘","province":"東京都","city":"小金井市","address":"小金井市梶野町2-16-6","lat":35.709284,"lon":139.529938},{"name":"梶野町荘","province":"東京都","city":"小金井市","address":"小金井市梶野町2-16-7","lat":35.709309,"lon":139.529727},{"name":"小金井荘","province":"東京都","city":"小金井市","address":"小金井市梶野町4-10-23","lat":35.707681,"lon":139.526964},{"name":"東小金井荘","province":"東京都","city":"小金井市","address":"小金井市梶野町4-10-24","lat":35.707853,"lon":139.526775},{"name":"さくら東小金井ハウス","province":"東京都","city":"小金井市","address":"小金井市東町4-20-22","lat":35.695605,"lon":139.525273},{"name":"サンハイツ貫井南","province":"東京都","city":"小金井市","address":"小金井市貫井南町4-14-8","lat":35.695223,"lon":139.494797},{"name":"小金井市社会福祉協議会","province":"東京都","city":"小金井市","address":"小金井市本町5-36-17","lat":35.705414,"lon":139.503918},{"name":"梶野町第二荘","province":"東京都","city":"小金井市","address":"小金井市梶野町2-16-6","lat":35.70932,"lon":139.52924},{"name":"梶野町荘","province":"東京都","city":"小金井市","address":"小金井市梶野町2-16-7","lat":35.70932,"lon":139.52924},{"name":"小金井荘","province":"東京都","city":"小金井市","address":"小金井市梶野町4-10-23","lat":35.70747,"lon":139.52699},{"name":"東小金井荘","province":"東京都","city":"小金井市","address":"小金井市梶野町4-10-24","lat":35.70747,"lon":139.52699},{"name":"さくら東小金井ハウス","province":"東京都","city":"小金井市","address":"小金井市東町4-20-22","lat":35.6959,"lon":139.52505},{"name":"サンハイツ貫井南","province":"東京都","city":"小金井市","address":"小金井市貫井南町4-14-8","lat":35.69549,"lon":139.49466},{"name":"桜町病院","province":"東京都","city":"小金井市","address":"小金井市桜町1-2-20","lat":35.70885,"lon":139.51196},{"name":"梶野町第２荘","province":"東京都","city":"小金井市","address":"小金井市梶野町2-16-6","lat":35.70932,"lon":139.52924},{"name":"梶野町第３荘","province":"東京都","city":"小金井市","address":"小金井市梶野町2-16-9","lat":35.70932,"lon":139.52924},{"name":"サンハイツ貫井南２","province":"東京都","city":"小金井市","address":"小金井市貫井南町4-14-8","lat":35.69549,"lon":139.49466},{"name":"小金井市社会福祉協議会","province":"東京都","city":"小金井市","address":"小金井市本町5-36-17","lat":35.70489,"lon":139.5036},{"name":"さくら東小金井ハウス","province":"東京都","city":"小金井市","address":"小金井市東町4-20-22","lat":35.6959,"lon":139.52506},{"name":"サンハイツ貫井南2","province":"東京都","city":"小金井市","address":"小金井市貫井南町4-14-8","lat":35.69549,"lon":139.49466},{"name":"桜町病院","province":"東京都","city":"小金井市","address":"小金井市桜町1-2-20","lat":35.709547,"lon":139.511426},{"name":"賀川学園","province":"東京都","city":"小金井市","address":"小金井市貫井北町5-8-1","lat":35.701667,"lon":139.488511},{"name":"梶野町第二荘","province":"東京都","city":"小金井市","address":"小金井市梶野町2-16-6","lat":35.709284,"lon":139.529938},{"name":"梶野町荘","province":"東京都","city":"小金井市","address":"小金井市梶野町2-16-7","lat":35.709309,"lon":139.529727},{"name":"小金井荘","province":"東京都","city":"小金井市","address":"小金井市梶野町4-10-23","lat":35.707681,"lon":139.526964},{"name":"東小金井荘","province":"東京都","city":"小金井市","address":"小金井市梶野町4-10-24","lat":35.707853,"lon":139.526775},{"name":"さくら東小金井ハウス","province":"東京都","city":"小金井市","address":"小金井市東町4-20-22","lat":35.695605,"lon":139.525273},{"name":"サンハイツ貫井南","province":"東京都","city":"小金井市","address":"小金井市貫井南町4-14-8","lat":35.695223,"lon":139.494797},{"name":"小金井市社会福祉協議会","province":"東京都","city":"小金井市","address":"小金井市本町5-36-17","lat":35.705414,"lon":139.503918},{"name":"梶野町第二荘","province":"東京都","city":"小金井市","address":"小金井市梶野町2-16-6","lat":35.70932,"lon":139.52924},{"name":"梶野町荘","province":"東京都","city":"小金井市","address":"小金井市梶野町2-16-7","lat":35.70932,"lon":139.52924},{"name":"小金井荘","province":"東京都","city":"小金井市","address":"小金井市梶野町4-10-23","lat":35.70747,"lon":139.52699},{"name":"東小金井荘","province":"東京都","city":"小金井市","address":"小金井市梶野町4-10-24","lat":35.70747,"lon":139.52699},{"name":"さくら東小金井ハウス","province":"東京都","city":"小金井市","address":"小金井市東町4-20-22","lat":35.6959,"lon":139.52505},{"name":"サンハイツ貫井南","province":"東京都","city":"小金井市","address":"小金井市貫井南町4-14-8","lat":35.69549,"lon":139.49466},{"name":"桜町病院","province":"東京都","city":"小金井市","address":"小金井市桜町1-2-20","lat":35.70885,"lon":139.51196},{"name":"梶野町第２荘","province":"東京都","city":"小金井市","address":"小金井市梶野町2-16-6","lat":35.70932,"lon":139.52924},{"name":"梶野町第３荘","province":"東京都","city":"小金井市","address":"小金井市梶野町2-16-9","lat":35.70932,"lon":139.52924},{"name":"サンハイツ貫井南２","province":"東京都","city":"小金井市","address":"小金井市貫井南町4-14-8","lat":35.69549,"lon":139.49466},{"name":"小金井市社会福祉協議会","province":"東京都","city":"小金井市","address":"小金井市本町5-36-17","lat":35.70489,"lon":139.5036},{"name":"さくら東小金井ハウス","province":"東京都","city":"小金井市","address":"小金井市東町4-20-22","lat":35.6959,"lon":139.52506},{"name":"サンハイツ貫井南2","province":"東京都","city":"小金井市","address":"小金井市貫井南町4-14-8","lat":35.69549,"lon":139.49466},{"name":"桜町病院","province":"東京都","city":"小金井市","address":"小金井市桜町1-2-20","lat":35.709547,"lon":139.511426},{"name":"賀川学園","province":"東京都","city":"小金井市","address":"小金井市貫井北町5-8-1","lat":35.701667,"lon":139.488511},{"name":"梶野町第二荘","province":"東京都","city":"小金井市","address":"小金井市梶野町2-16-6","lat":35.709284,"lon":139.529938},{"name":"梶野町荘","province":"東京都","city":"小金井市","address":"小金井市梶野町2-16-7","lat":35.709309,"lon":139.529727},{"name":"小金井荘","province":"東京都","city":"小金井市","address":"小金井市梶野町4-10-23","lat":35.707681,"lon":139.526964},{"name":"東小金井荘","province":"東京都","city":"小金井市","address":"小金井市梶野町4-10-24","lat":35.707853,"lon":139.526775},{"name":"さくら東小金井ハウス","province":"東京都","city":"小金井市","address":"小金井市東町4-20-22","lat":35.695605,"lon":139.525273},{"name":"サンハイツ貫井南","province":"東京都","city":"小金井市","address":"小金井市貫井南町4-14-8","lat":35.695223,"lon":139.494797},{"name":"小金井市社会福祉協議会","province":"東京都","city":"小金井市","address":"小金井市本町5-36-17","lat":35.705414,"lon":139.503918},{"name":"梶野町第二荘","province":"東京都","city":"小金井市","address":"小金井市梶野町2-16-6","lat":35.70932,"lon":139.52924},{"name":"梶野町荘","province":"東京都","city":"小金井市","address":"小金井市梶野町2-16-7","lat":35.70932,"lon":139.52924},{"name":"小金井荘","province":"東京都","city":"小金井市","address":"小金井市梶野町4-10-23","lat":35.70747,"lon":139.52699},{"name":"東小金井荘","province":"東京都","city":"小金井市","address":"小金井市梶野町4-10-24","lat":35.70747,"lon":139.52699},{"name":"さくら東小金井ハウス","province":"東京都","city":"小金井市","address":"小金井市東町4-20-22","lat":35.6959,"lon":139.52505},{"name":"サンハイツ貫井南","province":"東京都","city":"小金井市","address":"小金井市貫井南町4-14-8","lat":35.69549,"lon":139.49466},{"name":"桜町病院","province":"東京都","city":"小金井市","address":"小金井市桜町1-2-20","lat":35.70885,"lon":139.51196},{"name":"梶野町第２荘","province":"東京都","city":"小金井市","address":"小金井市梶野町2-16-6","lat":35.70932,"lon":139.52924},{"name":"梶野町第３荘","province":"東京都","city":"小金井市","address":"小金井市梶野町2-16-9","lat":35.70932,"lon":139.52924},{"name":"サンハイツ貫井南２","province":"東京都","city":"小金井市","address":"小金井市貫井南町4-14-8","lat":35.69549,"lon":139.49466},{"name":"小金井市社会福祉協議会","province":"東京都","city":"小金井市","address":"小金井市本町5-36-17","lat":35.70489,"lon":139.5036},{"name":"さくら東小金井ハウス","province":"東京都","city":"小金井市","address":"小金井市東町4-20-22","lat":35.6959,"lon":139.52506},{"name":"サンハイツ貫井南2","province":"東京都","city":"小金井市","address":"小金井市貫井南町4-14-8","lat":35.69549,"lon":139.49466},{"name":"桜町病院","province":"東京都","city":"小金井市","address":"小金井市桜町1-2-20","lat":35.709547,"lon":139.511426},{"name":"賀川学園","province":"東京都","city":"小金井市","address":"小金井市貫井北町5-8-1","lat":35.701667,"lon":139.488511},{"name":"梶野町第二荘","province":"東京都","city":"小金井市","address":"小金井市梶野町2-16-6","lat":35.709284,"lon":139.529938},{"name":"梶野町荘","province":"東京都","city":"小金井市","address":"小金井市梶野町2-16-7","lat":35.709309,"lon":139.529727},{"name":"小金井荘","province":"東京都","city":"小金井市","address":"小金井市梶野町4-10-23","lat":35.707681,"lon":139.526964},{"name":"東小金井荘","province":"東京都","city":"小金井市","address":"小金井市梶野町4-10-24","lat":35.707853,"lon":139.526775},{"name":"さくら東小金井ハウス","province":"東京都","city":"小金井市","address":"小金井市東町4-20-22","lat":35.695605,"lon":139.525273},{"name":"サンハイツ貫井南","province":"東京都","city":"小金井市","address":"小金井市貫井南町4-14-8","lat":35.695223,"lon":139.494797},{"name":"小金井市社会福祉協議会","province":"東京都","city":"小金井市","address":"小金井市本町5-36-17","lat":35.705414,"lon":139.503918},{"name":"梶野町第二荘","province":"東京都","city":"小金井市","address":"小金井市梶野町2-16-6","lat":35.70932,"lon":139.52924},{"name":"梶野町荘","province":"東京都","city":"小金井市","address":"小金井市梶野町2-16-7","lat":35.70932,"lon":139.52924},{"name":"小金井荘","province":"東京都","city":"小金井市","address":"小金井市梶野町4-10-23","lat":35.70747,"lon":139.52699},{"name":"東小金井荘","province":"東京都","city":"小金井市","address":"小金井市梶野町4-10-24","lat":35.70747,"lon":139.52699},{"name":"さくら東小金井ハウス","province":"東京都","city":"小金井市","address":"小金井市東町4-20-22","lat":35.6959,"lon":139.52505},{"name":"サンハイツ貫井南","province":"東京都","city":"小金井市","address":"小金井市貫井南町4-14-8","lat":35.69549,"lon":139.49466},{"name":"桜町病院","province":"東京都","city":"小金井市","address":"小金井市桜町1-2-20","lat":35.70885,"lon":139.51196},{"name":"梶野町第２荘","province":"東京都","city":"小金井市","address":"小金井市梶野町2-16-6","lat":35.70932,"lon":139.52924},{"name":"梶野町第３荘","province":"東京都","city":"小金井市","address":"小金井市梶野町2-16-9","lat":35.70932,"lon":139.52924},{"name":"サンハイツ貫井南２","province":"東京都","city":"小金井市","address":"小金井市貫井南町4-14-8","lat":35.69549,"lon":139.49466},{"name":"小金井市社会福祉協議会","province":"東京都","city":"小金井市","address":"小金井市本町5-36-17","lat":35.70489,"lon":139.5036},{"name":"さくら東小金井ハウス","province":"東京都","city":"小金井市","address":"小金井市東町4-20-22","lat":35.6959,"lon":139.52506},{"name":"サンハイツ貫井南2","province":"東京都","city":"小金井市","address":"小金井市貫井南町4-14-8","lat":35.69549,"lon":139.49466},{"name":"桜町病院","province":"東京都","city":"小金井市","address":"小金井市桜町1-2-20","lat":35.709547,"lon":139.511426},{"name":"賀川学園","province":"東京都","city":"小金井市","address":"小金井市貫井北町5-8-1","lat":35.701667,"lon":139.488511},{"name":"梶野町第二荘","province":"東京都","city":"小金井市","address":"小金井市梶野町2-16-6","lat":35.709284,"lon":139.529938},{"name":"梶野町荘","province":"東京都","city":"小金井市","address":"小金井市梶野町2-16-7","lat":35.709309,"lon":139.529727},{"name":"小金井荘","province":"東京都","city":"小金井市","address":"小金井市梶野町4-10-23","lat":35.707681,"lon":139.526964},{"name":"東小金井荘","province":"東京都","city":"小金井市","address":"小金井市梶野町4-10-24","lat":35.707853,"lon":139.526775},{"name":"さくら東小金井ハウス","province":"東京都","city":"小金井市","address":"小金井市東町4-20-22","lat":35.695605,"lon":139.525273},{"name":"サンハイツ貫井南","province":"東京都","city":"小金井市","address":"小金井市貫井南町4-14-8","lat":35.695223,"lon":139.494797},{"name":"小金井市社会福祉協議会","province":"東京都","city":"小金井市","address":"小金井市本町5-36-17","lat":35.705414,"lon":139.503918},{"name":"梶野町第二荘","province":"東京都","city":"小金井市","address":"小金井市梶野町2-16-6","lat":35.70932,"lon":139.52924},{"name":"梶野町荘","province":"東京都","city":"小金井市","address":"小金井市梶野町2-16-7","lat":35.70932,"lon":139.52924},{"name":"小金井荘","province":"東京都","city":"小金井市","address":"小金井市梶野町4-10-23","lat":35.70747,"lon":139.52699},{"name":"東小金井荘","province":"東京都","city":"小金井市","address":"小金井市梶野町4-10-24","lat":35.70747,"lon":139.52699},{"name":"さくら東小金井ハウス","province":"東京都","city":"小金井市","address":"小金井市東町4-20-22","lat":35.6959,"lon":139.52505},{"name":"サンハイツ貫井南","province":"東京都","city":"小金井市","address":"小金井市貫井南町4-14-8","lat":35.69549,"lon":139.49466},{"name":"桜町病院","province":"東京都","city":"小金井市","address":"小金井市桜町1-2-20","lat":35.70885,"lon":139.51196},{"name":"梶野町第２荘","province":"東京都","city":"小金井市","address":"小金井市梶野町2-16-6","lat":35.70932,"lon":139.52924},{"name":"梶野町第３荘","province":"東京都","city":"小金井市","address":"小金井市梶野町2-16-9","lat":35.70932,"lon":139.52924},{"name":"サンハイツ貫井南２","province":"東京都","city":"小金井市","address":"小金井市貫井南町4-14-8","lat":35.69549,"lon":139.49466},{"name":"小金井市社会福祉協議会","province":"東京都","city":"小金井市","address":"小金井市本町5-36-17","lat":35.70489,"lon":139.5036},{"name":"さくら東小金井ハウス","province":"東京都","city":"小金井市","address":"小金井市東町4-20-22","lat":35.6959,"lon":139.52506},{"name":"サンハイツ貫井南2","province":"東京都","city":"小金井市","address":"小金井市貫井南町4-14-8","lat":35.69549,"lon":139.49466},{"name":"桜町病院","province":"東京都","city":"小金井市","address":"小金井市桜町1-2-20","lat":35.709547,"lon":139.511426},{"name":"賀川学園","province":"東京都","city":"小金井市","address":"小金井市貫井北町5-8-1","lat":35.701667,"lon":139.488511},{"name":"梶野町第二荘","province":"東京都","city":"小金井市","address":"小金井市梶野町2-16-6","lat":35.709284,"lon":139.529938},{"name":"梶野町荘","province":"東京都","city":"小金井市","address":"小金井市梶野町2-16-7","lat":35.709309,"lon":139.529727},{"name":"小金井荘","province":"東京都","city":"小金井市","address":"小金井市梶野町4-10-23","lat":35.707681,"lon":139.526964},{"name":"東小金井荘","province":"東京都","city":"小金井市","address":"小金井市梶野町4-10-24","lat":35.707853,"lon":139.526775},{"name":"さくら東小金井ハウス","province":"東京都","city":"小金井市","address":"小金井市東町4-20-22","lat":35.695605,"lon":139.525273},{"name":"サンハイツ貫井南","province":"東京都","city":"小金井市","address":"小金井市貫井南町4-14-8","lat":35.695223,"lon":139.494797},{"name":"小金井市社会福祉協議会","province":"東京都","city":"小金井市","address":"小金井市本町5-36-17","lat":35.705414,"lon":139.503918},{"name":"梶野町第二荘","province":"東京都","city":"小金井市","address":"小金井市梶野町2-16-6","lat":35.70932,"lon":139.52924},{"name":"梶野町荘","province":"東京都","city":"小金井市","address":"小金井市梶野町2-16-7","lat":35.70932,"lon":139.52924},{"name":"小金井荘","province":"東京都","city":"小金井市","address":"小金井市梶野町4-10-23","lat":35.70747,"lon":139.52699},{"name":"東小金井荘","province":"東京都","city":"小金井市","address":"小金井市梶野町4-10-24","lat":35.70747,"lon":139.52699},{"name":"さくら東小金井ハウス","province":"東京都","city":"小金井市","address":"小金井市東町4-20-22","lat":35.6959,"lon":139.52505},{"name":"サンハイツ貫井南","province":"東京都","city":"小金井市","address":"小金井市貫井南町4-14-8","lat":35.69549,"lon":139.49466},{"name":"桜町病院","province":"東京都","city":"小金井市","address":"小金井市桜町1-2-20","lat":35.70885,"lon":139.51196},{"name":"梶野町第２荘","province":"東京都","city":"小金井市","address":"小金井市梶野町2-16-6","lat":35.70932,"lon":139.52924},{"name":"梶野町第３荘","province":"東京都","city":"小金井市","address":"小金井市梶野町2-16-9","lat":35.70932,"lon":139.52924},{"name":"サンハイツ貫井南２","province":"東京都","city":"小金井市","address":"小金井市貫井南町4-14-8","lat":35.69549,"lon":139.49466},{"name":"小金井市社会福祉協議会","province":"東京都","city":"小金井市","address":"小金井市本町5-36-17","lat":35.70489,"lon":139.5036},{"name":"さくら東小金井ハウス","province":"東京都","city":"小金井市","address":"小金井市東町4-20-22","lat":35.6959,"lon":139.52506},{"name":"サンハイツ貫井南2","province":"東京都","city":"小金井市","address":"小金井市貫井南町4-14-8","lat":35.69549,"lon":139.49466},{"name":"桜町病院","province":"東京都","city":"小金井市","address":"小金井市桜町1-2-20","lat":35.709547,"lon":139.511426},{"name":"賀川学園","province":"東京都","city":"小金井市","address":"小金井市貫井北町5-8-1","lat":35.701667,"lon":139.488511},{"name":"梶野町第二荘","province":"東京都","city":"小金井市","address":"小金井市梶野町2-16-6","lat":35.709284,"lon":139.529938},{"name":"梶野町荘","province":"東京都","city":"小金井市","address":"小金井市梶野町2-16-7","lat":35.709309,"lon":139.529727},{"name":"小金井荘","province":"東京都","city":"小金井市","address":"小金井市梶野町4-10-23","lat":35.707681,"lon":139.526964},{"name":"東小金井荘","province":"東京都","city":"小金井市","address":"小金井市梶野町4-10-24","lat":35.707853,"lon":139.526775},{"name":"さくら東小金井ハウス","province":"東京都","city":"小金井市","address":"小金井市東町4-20-22","lat":35.695605,"lon":139.525273},{"name":"サンハイツ貫井南","province":"東京都","city":"小金井市","address":"小金井市貫井南町4-14-8","lat":35.695223,"lon":139.494797},{"name":"小金井市社会福祉協議会","province":"東京都","city":"小金井市","address":"小金井市本町5-36-17","lat":35.705414,"lon":139.503918},{"name":"梶野町第二荘","province":"東京都","city":"小金井市","address":"小金井市梶野町2-16-6","lat":35.70932,"lon":139.52924},{"name":"梶野町荘","province":"東京都","city":"小金井市","address":"小金井市梶野町2-16-7","lat":35.70932,"lon":139.52924},{"name":"小金井荘","province":"東京都","city":"小金井市","address":"小金井市梶野町4-10-23","lat":35.70747,"lon":139.52699},{"name":"東小金井荘","province":"東京都","city":"小金井市","address":"小金井市梶野町4-10-24","lat":35.70747,"lon":139.52699},{"name":"さくら東小金井ハウス","province":"東京都","city":"小金井市","address":"小金井市東町4-20-22","lat":35.6959,"lon":139.52505},{"name":"サンハイツ貫井南","province":"東京都","city":"小金井市","address":"小金井市貫井南町4-14-8","lat":35.69549,"lon":139.49466},{"name":"桜町病院","province":"東京都","city":"小金井市","address":"小金井市桜町1-2-20","lat":35.70885,"lon":139.51196},{"name":"梶野町第２荘","province":"東京都","city":"小金井市","address":"小金井市梶野町2-16-6","lat":35.70932,"lon":139.52924},{"name":"梶野町第３荘","province":"東京都","city":"小金井市","address":"小金井市梶野町2-16-9","lat":35.70932,"lon":139.52924},{"name":"サンハイツ貫井南２","province":"東京都","city":"小金井市","address":"小金井市貫井南町4-14-8","lat":35.69549,"lon":139.49466},{"name":"小金井市社会福祉協議会","province":"東京都","city":"小金井市","address":"小金井市本町5-36-17","lat":35.70489,"lon":139.5036},{"name":"さくら東小金井ハウス","province":"東京都","city":"小金井市","address":"小金井市東町4-20-22","lat":35.6959,"lon":139.52506},{"name":"サンハイツ貫井南2","province":"東京都","city":"小金井市","address":"小金井市貫井南町4-14-8","lat":35.69549,"lon":139.49466},{"name":"桜町病院","province":"東京都","city":"小金井市","address":"小金井市桜町1-2-20","lat":35.709547,"lon":139.511426},{"name":"賀川学園","province":"東京都","city":"小金井市","address":"小金井市貫井北町5-8-1","lat":35.701667,"lon":139.488511},{"name":"梶野町第二荘","province":"東京都","city":"小金井市","address":"小金井市梶野町2-16-6","lat":35.709284,"lon":139.529938},{"name":"梶野町荘","province":"東京都","city":"小金井市","address":"小金井市梶野町2-16-7","lat":35.709309,"lon":139.529727},{"name":"小金井荘","province":"東京都","city":"小金井市","address":"小金井市梶野町4-10-23","lat":35.707681,"lon":139.526964},{"name":"東小金井荘","province":"東京都","city":"小金井市","address":"小金井市梶野町4-10-24","lat":35.707853,"lon":139.526775},{"name":"さくら東小金井ハウス","province":"東京都","city":"小金井市","address":"小金井市東町4-20-22","lat":35.695605,"lon":139.525273},{"name":"サンハイツ貫井南","province":"東京都","city":"小金井市","address":"小金井市貫井南町4-14-8","lat":35.695223,"lon":139.494797},{"name":"小金井市社会福祉協議会","province":"東京都","city":"小金井市","address":"小金井市本町5-36-17","lat":35.705414,"lon":139.503918},{"name":"梶野町第二荘","province":"東京都","city":"小金井市","address":"小金井市梶野町2-16-6","lat":35.70932,"lon":139.52924},{"name":"梶野町荘","province":"東京都","city":"小金井市","address":"小金井市梶野町2-16-7","lat":35.70932,"lon":139.52924},{"name":"小金井荘","province":"東京都","city":"小金井市","address":"小金井市梶野町4-10-23","lat":35.70747,"lon":139.52699},{"name":"東小金井荘","province":"東京都","city":"小金井市","address":"小金井市梶野町4-10-24","lat":35.70747,"lon":139.52699},{"name":"さくら東小金井ハウス","province":"東京都","city":"小金井市","address":"小金井市東町4-20-22","lat":35.6959,"lon":139.52505},{"name":"サンハイツ貫井南","province":"東京都","city":"小金井市","address":"小金井市貫井南町4-14-8","lat":35.69549,"lon":139.49466},{"name":"桜町病院","province":"東京都","city":"小金井市","address":"小金井市桜町1-2-20","lat":35.70885,"lon":139.51196},{"name":"梶野町第２荘","province":"東京都","city":"小金井市","address":"小金井市梶野町2-16-6","lat":35.70932,"lon":139.52924},{"name":"梶野町第３荘","province":"東京都","city":"小金井市","address":"小金井市梶野町2-16-9","lat":35.70932,"lon":139.52924},{"name":"サンハイツ貫井南２","province":"東京都","city":"小金井市","address":"小金井市貫井南町4-14-8","lat":35.69549,"lon":139.49466},{"name":"小金井市社会福祉協議会","province":"東京都","city":"小金井市","address":"小金井市本町5-36-17","lat":35.70489,"lon":139.5036},{"name":"さくら東小金井ハウス","province":"東京都","city":"小金井市","address":"小金井市東町4-20-22","lat":35.6959,"lon":139.52506},{"name":"サンハイツ貫井南2","province":"東京都","city":"小金井市","address":"小金井市貫井南町4-14-8","lat":35.69549,"lon":139.49466},{"name":"桜町病院","province":"東京都","city":"小金井市","address":"小金井市桜町1-2-20","lat":35.709547,"lon":139.511426},{"name":"賀川学園","province":"東京都","city":"小金井市","address":"小金井市貫井北町5-8-1","lat":35.701667,"lon":139.488511},{"name":"梶野町第二荘","province":"東京都","city":"小金井市","address":"小金井市梶野町2-16-6","lat":35.709284,"lon":139.529938},{"name":"梶野町荘","province":"東京都","city":"小金井市","address":"小金井市梶野町2-16-7","lat":35.709309,"lon":139.529727},{"name":"小金井荘","province":"東京都","city":"小金井市","address":"小金井市梶野町4-10-23","lat":35.707681,"lon":139.526964},{"name":"東小金井荘","province":"東京都","city":"小金井市","address":"小金井市梶野町4-10-24","lat":35.707853,"lon":139.526775},{"name":"さくら東小金井ハウス","province":"東京都","city":"小金井市","address":"小金井市東町4-20-22","lat":35.695605,"lon":139.525273},{"name":"サンハイツ貫井南","province":"東京都","city":"小金井市","address":"小金井市貫井南町4-14-8","lat":35.695223,"lon":139.494797},{"name":"小金井市社会福祉協議会","province":"東京都","city":"小金井市","address":"小金井市本町5-36-17","lat":35.705414,"lon":139.503918},{"name":"梶野町第二荘","province":"東京都","city":"小金井市","address":"小金井市梶野町2-16-6","lat":35.70932,"lon":139.52924},{"name":"梶野町荘","province":"東京都","city":"小金井市","address":"小金井市梶野町2-16-7","lat":35.70932,"lon":139.52924},{"name":"小金井荘","province":"東京都","city":"小金井市","address":"小金井市梶野町4-10-23","lat":35.70747,"lon":139.52699},{"name":"東小金井荘","province":"東京都","city":"小金井市","address":"小金井市梶野町4-10-24","lat":35.70747,"lon":139.52699},{"name":"さくら東小金井ハウス","province":"東京都","city":"小金井市","address":"小金井市東町4-20-22","lat":35.6959,"lon":139.52505},{"name":"サンハイツ貫井南","province":"東京都","city":"小金井市","address":"小金井市貫井南町4-14-8","lat":35.69549,"lon":139.49466},{"name":"桜町病院","province":"東京都","city":"小金井市","address":"小金井市桜町1-2-20","lat":35.70885,"lon":139.51196},{"name":"梶野町第２荘","province":"東京都","city":"小金井市","address":"小金井市梶野町2-16-6","lat":35.70932,"lon":139.52924},{"name":"梶野町第３荘","province":"東京都","city":"小金井市","address":"小金井市梶野町2-16-9","lat":35.70932,"lon":139.52924},{"name":"サンハイツ貫井南２","province":"東京都","city":"小金井市","address":"小金井市貫井南町4-14-8","lat":35.69549,"lon":139.49466},{"name":"小金井市社会福祉協議会","province":"東京都","city":"小金井市","address":"小金井市本町5-36-17","lat":35.70489,"lon":139.5036},{"name":"さくら東小金井ハウス","province":"東京都","city":"小金井市","address":"小金井市東町4-20-22","lat":35.6959,"lon":139.52506},{"name":"サンハイツ貫井南2","province":"東京都","city":"小金井市","address":"小金井市貫井南町4-14-8","lat":35.69549,"lon":139.49466},{"name":"桜町病院","province":"東京都","city":"小金井市","address":"小金井市桜町1-2-20","lat":35.709547,"lon":139.511426},{"name":"賀川学園","province":"東京都","city":"小金井市","address":"小金井市貫井北町5-8-1","lat":35.701667,"lon":139.488511},{"name":"梶野町第二荘","province":"東京都","city":"小金井市","address":"小金井市梶野町2-16-6","lat":35.709284,"lon":139.529938},{"name":"梶野町荘","province":"東京都","city":"小金井市","address":"小金井市梶野町2-16-7","lat":35.709309,"lon":139.529727},{"name":"小金井荘","province":"東京都","city":"小金井市","address":"小金井市梶野町4-10-23","lat":35.707681,"lon":139.526964},{"name":"東小金井荘","province":"東京都","city":"小金井市","address":"小金井市梶野町4-10-24","lat":35.707853,"lon":139.526775},{"name":"さくら東小金井ハウス","province":"東京都","city":"小金井市","address":"小金井市東町4-20-22","lat":35.695605,"lon":139.525273},{"name":"サンハイツ貫井南","province":"東京都","city":"小金井市","address":"小金井市貫井南町4-14-8","lat":35.695223,"lon":139.494797},{"name":"小金井市社会福祉協議会","province":"東京都","city":"小金井市","address":"小金井市本町5-36-17","lat":35.705414,"lon":139.503918},{"name":"梶野町第二荘","province":"東京都","city":"小金井市","address":"小金井市梶野町2-16-6","lat":35.70932,"lon":139.52924},{"name":"梶野町荘","province":"東京都","city":"小金井市","address":"小金井市梶野町2-16-7","lat":35.70932,"lon":139.52924},{"name":"小金井荘","province":"東京都","city":"小金井市","address":"小金井市梶野町4-10-23","lat":35.70747,"lon":139.52699},{"name":"東小金井荘","province":"東京都","city":"小金井市","address":"小金井市梶野町4-10-24","lat":35.70747,"lon":139.52699},{"name":"さくら東小金井ハウス","province":"東京都","city":"小金井市","address":"小金井市東町4-20-22","lat":35.6959,"lon":139.52505},{"name":"サンハイツ貫井南","province":"東京都","city":"小金井市","address":"小金井市貫井南町4-14-8","lat":35.69549,"lon":139.49466},{"name":"桜町病院","province":"東京都","city":"小金井市","address":"小金井市桜町1-2-20","lat":35.70885,"lon":139.51196},{"name":"梶野町第２荘","province":"東京都","city":"小金井市","address":"小金井市梶野町2-16-6","lat":35.70932,"lon":139.52924},{"name":"梶野町第３荘","province":"東京都","city":"小金井市","address":"小金井市梶野町2-16-9","lat":35.70932,"lon":139.52924},{"name":"サンハイツ貫井南２","province":"東京都","city":"小金井市","address":"小金井市貫井南町4-14-8","lat":35.69549,"lon":139.49466},{"name":"小金井市社会福祉協議会","province":"東京都","city":"小金井市","address":"小金井市本町5-36-17","lat":35.70489,"lon":139.5036},{"name":"さくら東小金井ハウス","province":"東京都","city":"小金井市","address":"小金井市東町4-20-22","lat":35.6959,"lon":139.52506},{"name":"サンハイツ貫井南2","province":"東京都","city":"小金井市","address":"小金井市貫井南町4-14-8","lat":35.69549,"lon":139.49466},{"name":"桜町病院","province":"東京都","city":"小金井市","address":"小金井市桜町1-2-20","lat":35.709547,"lon":139.511426},{"name":"賀川学園","province":"東京都","city":"小金井市","address":"小金井市貫井北町5-8-1","lat":35.701667,"lon":139.488511},{"name":"梶野町第二荘","province":"東京都","city":"小金井市","address":"小金井市梶野町2-16-6","lat":35.709284,"lon":139.529938},{"name":"梶野町荘","province":"東京都","city":"小金井市","address":"小金井市梶野町2-16-7","lat":35.709309,"lon":139.529727},{"name":"小金井荘","province":"東京都","city":"小金井市","address":"小金井市梶野町4-10-23","lat":35.707681,"lon":139.526964},{"name":"東小金井荘","province":"東京都","city":"小金井市","address":"小金井市梶野町4-10-24","lat":35.707853,"lon":139.526775},{"name":"さくら東小金井ハウス","province":"東京都","city":"小金井市","address":"小金井市東町4-20-22","lat":35.695605,"lon":139.525273},{"name":"サンハイツ貫井南","province":"東京都","city":"小金井市","address":"小金井市貫井南町4-14-8","lat":35.695223,"lon":139.494797},{"name":"小金井市社会福祉協議会","province":"東京都","city":"小金井市","address":"小金井市本町5-36-17","lat":35.705414,"lon":139.503918},{"name":"梶野町第二荘","province":"東京都","city":"小金井市","address":"小金井市梶野町2-16-6","lat":35.70932,"lon":139.52924},{"name":"梶野町荘","province":"東京都","city":"小金井市","address":"小金井市梶野町2-16-7","lat":35.70932,"lon":139.52924},{"name":"小金井荘","province":"東京都","city":"小金井市","address":"小金井市梶野町4-10-23","lat":35.70747,"lon":139.52699},{"name":"東小金井荘","province":"東京都","city":"小金井市","address":"小金井市梶野町4-10-24","lat":35.70747,"lon":139.52699},{"name":"さくら東小金井ハウス","province":"東京都","city":"小金井市","address":"小金井市東町4-20-22","lat":35.6959,"lon":139.52505},{"name":"サンハイツ貫井南","province":"東京都","city":"小金井市","address":"小金井市貫井南町4-14-8","lat":35.69549,"lon":139.49466},{"name":"桜町病院","province":"東京都","city":"小金井市","address":"小金井市桜町1-2-20","lat":35.70885,"lon":139.51196},{"name":"梶野町第２荘","province":"東京都","city":"小金井市","address":"小金井市梶野町2-16-6","lat":35.70932,"lon":139.52924},{"name":"梶野町第３荘","province":"東京都","city":"小金井市","address":"小金井市梶野町2-16-9","lat":35.70932,"lon":139.52924},{"name":"サンハイツ貫井南２","province":"東京都","city":"小金井市","address":"小金井市貫井南町4-14-8","lat":35.69549,"lon":139.49466},{"name":"小金井市社会福祉協議会","province":"東京都","city":"小金井市","address":"小金井市本町5-36-17","lat":35.70489,"lon":139.5036},{"name":"さくら東小金井ハウス","province":"東京都","city":"小金井市","address":"小金井市東町4-20-22","lat":35.6959,"lon":139.52506},{"name":"サンハイツ貫井南2","province":"東京都","city":"小金井市","address":"小金井市貫井南町4-14-8","lat":35.69549,"lon":139.49466},{"name":"桜町病院","province":"東京都","city":"小金井市","address":"小金井市桜町1-2-20","lat":35.709547,"lon":139.511426},{"name":"賀川学園","province":"東京都","city":"小金井市","address":"小金井市貫井北町5-8-1","lat":35.701667,"lon":139.488511},{"name":"梶野町第二荘","province":"東京都","city":"小金井市","address":"小金井市梶野町2-16-6","lat":35.709284,"lon":139.529938},{"name":"梶野町荘","province":"東京都","city":"小金井市","address":"小金井市梶野町2-16-7","lat":35.709309,"lon":139.529727},{"name":"小金井荘","province":"東京都","city":"小金井市","address":"小金井市梶野町4-10-23","lat":35.707681,"lon":139.526964},{"name":"東小金井荘","province":"東京都","city":"小金井市","address":"小金井市梶野町4-10-24","lat":35.707853,"lon":139.526775},{"name":"さくら東小金井ハウス","province":"東京都","city":"小金井市","address":"小金井市東町4-20-22","lat":35.695605,"lon":139.525273},{"name":"サンハイツ貫井南","province":"東京都","city":"小金井市","address":"小金井市貫井南町4-14-8","lat":35.695223,"lon":139.494797},{"name":"小金井市社会福祉協議会","province":"東京都","city":"小金井市","address":"小金井市本町5-36-17","lat":35.705414,"lon":139.503918},{"name":"梶野町第二荘","province":"東京都","city":"小金井市","address":"小金井市梶野町2-16-6","lat":35.70932,"lon":139.52924},{"name":"梶野町荘","province":"東京都","city":"小金井市","address":"小金井市梶野町2-16-7","lat":35.70932,"lon":139.52924},{"name":"小金井荘","province":"東京都","city":"小金井市","address":"小金井市梶野町4-10-23","lat":35.70747,"lon":139.52699},{"name":"東小金井荘","province":"東京都","city":"小金井市","address":"小金井市梶野町4-10-24","lat":35.70747,"lon":139.52699},{"name":"さくら東小金井ハウス","province":"東京都","city":"小金井市","address":"小金井市東町4-20-22","lat":35.6959,"lon":139.52505},{"name":"サンハイツ貫井南","province":"東京都","city":"小金井市","address":"小金井市貫井南町4-14-8","lat":35.69549,"lon":139.49466},{"name":"桜町病院","province":"東京都","city":"小金井市","address":"小金井市桜町1-2-20","lat":35.70885,"lon":139.51196},{"name":"梶野町第２荘","province":"東京都","city":"小金井市","address":"小金井市梶野町2-16-6","lat":35.70932,"lon":139.52924},{"name":"梶野町第３荘","province":"東京都","city":"小金井市","address":"小金井市梶野町2-16-9","lat":35.70932,"lon":139.52924},{"name":"サンハイツ貫井南２","province":"東京都","city":"小金井市","address":"小金井市貫井南町4-14-8","lat":35.69549,"lon":139.49466},{"name":"小金井市社会福祉協議会","province":"東京都","city":"小金井市","address":"小金井市本町5-36-17","lat":35.70489,"lon":139.5036},{"name":"さくら東小金井ハウス","province":"東京都","city":"小金井市","address":"小金井市東町4-20-22","lat":35.6959,"lon":139.52506},{"name":"サンハイツ貫井南2","province":"東京都","city":"小金井市","address":"小金井市貫井南町4-14-8","lat":35.69549,"lon":139.49466},{"name":"桜町病院","province":"東京都","city":"小金井市","address":"小金井市桜町1-2-20","lat":35.709547,"lon":139.511426},{"name":"賀川学園","province":"東京都","city":"小金井市","address":"小金井市貫井北町5-8-1","lat":35.701667,"lon":139.488511},{"name":"梶野町第二荘","province":"東京都","city":"小金井市","address":"小金井市梶野町2-16-6","lat":35.709284,"lon":139.529938},{"name":"梶野町荘","province":"東京都","city":"小金井市","address":"小金井市梶野町2-16-7","lat":35.709309,"lon":139.529727},{"name":"小金井荘","province":"東京都","city":"小金井市","address":"小金井市梶野町4-10-23","lat":35.707681,"lon":139.526964},{"name":"東小金井荘","province":"東京都","city":"小金井市","address":"小金井市梶野町4-10-24","lat":35.707853,"lon":139.526775},{"name":"さくら東小金井ハウス","province":"東京都","city":"小金井市","address":"小金井市東町4-20-22","lat":35.695605,"lon":139.525273},{"name":"サンハイツ貫井南","province":"東京都","city":"小金井市","address":"小金井市貫井南町4-14-8","lat":35.695223,"lon":139.494797},{"name":"小金井市社会福祉協議会","province":"東京都","city":"小金井市","address":"小金井市本町5-36-17","lat":35.705414,"lon":139.503918},{"name":"梶野町第二荘","province":"東京都","city":"小金井市","address":"小金井市梶野町2-16-6","lat":35.70932,"lon":139.52924},{"name":"梶野町荘","province":"東京都","city":"小金井市","address":"小金井市梶野町2-16-7","lat":35.70932,"lon":139.52924},{"name":"小金井荘","province":"東京都","city":"小金井市","address":"小金井市梶野町4-10-23","lat":35.70747,"lon":139.52699},{"name":"東小金井荘","province":"東京都","city":"小金井市","address":"小金井市梶野町4-10-24","lat":35.70747,"lon":139.52699},{"name":"さくら東小金井ハウス","province":"東京都","city":"小金井市","address":"小金井市東町4-20-22","lat":35.6959,"lon":139.52505},{"name":"サンハイツ貫井南","province":"東京都","city":"小金井市","address":"小金井市貫井南町4-14-8","lat":35.69549,"lon":139.49466},{"name":"桜町病院","province":"東京都","city":"小金井市","address":"小金井市桜町1-2-20","lat":35.70885,"lon":139.51196},{"name":"梶野町第２荘","province":"東京都","city":"小金井市","address":"小金井市梶野町2-16-6","lat":35.70932,"lon":139.52924},{"name":"梶野町第３荘","province":"東京都","city":"小金井市","address":"小金井市梶野町2-16-9","lat":35.70932,"lon":139.52924},{"name":"サンハイツ貫井南２","province":"東京都","city":"小金井市","address":"小金井市貫井南町4-14-8","lat":35.69549,"lon":139.49466},{"name":"小金井市社会福祉協議会","province":"東京都","city":"小金井市","address":"小金井市本町5-36-17","lat":35.70489,"lon":139.5036},{"name":"さくら東小金井ハウス","province":"東京都","city":"小金井市","address":"小金井市東町4-20-22","lat":35.6959,"lon":139.52506},{"name":"サンハイツ貫井南2","province":"東京都","city":"小金井市","address":"小金井市貫井南町4-14-8","lat":35.69549,"lon":139.49466},{"name":"桜町病院","province":"東京都","city":"小金井市","address":"小金井市桜町1-2-20","lat":35.709547,"lon":139.511426},{"name":"賀川学園","province":"東京都","city":"小金井市","address":"小金井市貫井北町5-8-1","lat":35.701667,"lon":139.488511},{"name":"梶野町第二荘","province":"東京都","city":"小金井市","address":"小金井市梶野町2-16-6","lat":35.709284,"lon":139.529938},{"name":"梶野町荘","province":"東京都","city":"小金井市","address":"小金井市梶野町2-16-7","lat":35.709309,"lon":139.529727},{"name":"小金井荘","province":"東京都","city":"小金井市","address":"小金井市梶野町4-10-23","lat":35.707681,"lon":139.526964},{"name":"東小金井荘","province":"東京都","city":"小金井市","address":"小金井市梶野町4-10-24","lat":35.707853,"lon":139.526775},{"name":"さくら東小金井ハウス","province":"東京都","city":"小金井市","address":"小金井市東町4-20-22","lat":35.695605,"lon":139.525273},{"name":"サンハイツ貫井南","province":"東京都","city":"小金井市","address":"小金井市貫井南町4-14-8","lat":35.695223,"lon":139.494797},{"name":"小金井市社会福祉協議会","province":"東京都","city":"小金井市","address":"小金井市本町5-36-17","lat":35.705414,"lon":139.503918},{"name":"梶野町第二荘","province":"東京都","city":"小金井市","address":"小金井市梶野町2-16-6","lat":35.70932,"lon":139.52924},{"name":"梶野町荘","province":"東京都","city":"小金井市","address":"小金井市梶野町2-16-7","lat":35.70932,"lon":139.52924},{"name":"小金井荘","province":"東京都","city":"小金井市","address":"小金井市梶野町4-10-23","lat":35.70747,"lon":139.52699},{"name":"東小金井荘","province":"東京都","city":"小金井市","address":"小金井市梶野町4-10-24","lat":35.70747,"lon":139.52699},{"name":"さくら東小金井ハウス","province":"東京都","city":"小金井市","address":"小金井市東町4-20-22","lat":35.6959,"lon":139.52505},{"name":"サンハイツ貫井南","province":"東京都","city":"小金井市","address":"小金井市貫井南町4-14-8","lat":35.69549,"lon":139.49466},{"name":"桜町病院","province":"東京都","city":"小金井市","address":"小金井市桜町1-2-20","lat":35.70885,"lon":139.51196},{"name":"梶野町第２荘","province":"東京都","city":"小金井市","address":"小金井市梶野町2-16-6","lat":35.70932,"lon":139.52924},{"name":"梶野町第３荘","province":"東京都","city":"小金井市","address":"小金井市梶野町2-16-9","lat":35.70932,"lon":139.52924},{"name":"サンハイツ貫井南２","province":"東京都","city":"小金井市","address":"小金井市貫井南町4-14-8","lat":35.69549,"lon":139.49466},{"name":"小金井市社会福祉協議会","province":"東京都","city":"小金井市","address":"小金井市本町5-36-17","lat":35.70489,"lon":139.5036},{"name":"さくら東小金井ハウス","province":"東京都","city":"小金井市","address":"小金井市東町4-20-22","lat":35.6959,"lon":139.52506},{"name":"サンハイツ貫井南2","province":"東京都","city":"小金井市","address":"小金井市貫井南町4-14-8","lat":35.69549,"lon":139.49466},{"name":"桜町病院","province":"東京都","city":"小金井市","address":"小金井市桜町1-2-20","lat":35.709547,"lon":139.511426},{"name":"賀川学園","province":"東京都","city":"小金井市","address":"小金井市貫井北町5-8-1","lat":35.701667,"lon":139.488511},{"name":"梶野町第二荘","province":"東京都","city":"小金井市","address":"小金井市梶野町2-16-6","lat":35.709284,"lon":139.529938},{"name":"梶野町荘","province":"東京都","city":"小金井市","address":"小金井市梶野町2-16-7","lat":35.709309,"lon":139.529727},{"name":"小金井荘","province":"東京都","city":"小金井市","address":"小金井市梶野町4-10-23","lat":35.707681,"lon":139.526964},{"name":"東小金井荘","province":"東京都","city":"小金井市","address":"小金井市梶野町4-10-24","lat":35.707853,"lon":139.526775},{"name":"さくら東小金井ハウス","province":"東京都","city":"小金井市","address":"小金井市東町4-20-22","lat":35.695605,"lon":139.525273},{"name":"サンハイツ貫井南","province":"東京都","city":"小金井市","address":"小金井市貫井南町4-14-8","lat":35.695223,"lon":139.494797},{"name":"小金井市社会福祉協議会","province":"東京都","city":"小金井市","address":"小金井市本町5-36-17","lat":35.705414,"lon":139.503918},{"name":"梶野町第二荘","province":"東京都","city":"小金井市","address":"小金井市梶野町2-16-6","lat":35.70932,"lon":139.52924},{"name":"梶野町荘","province":"東京都","city":"小金井市","address":"小金井市梶野町2-16-7","lat":35.70932,"lon":139.52924},{"name":"小金井荘","province":"東京都","city":"小金井市","address":"小金井市梶野町4-10-23","lat":35.70747,"lon":139.52699},{"name":"東小金井荘","province":"東京都","city":"小金井市","address":"小金井市梶野町4-10-24","lat":35.70747,"lon":139.52699},{"name":"さくら東小金井ハウス","province":"東京都","city":"小金井市","address":"小金井市東町4-20-22","lat":35.6959,"lon":139.52505},{"name":"サンハイツ貫井南","province":"東京都","city":"小金井市","address":"小金井市貫井南町4-14-8","lat":35.69549,"lon":139.49466},{"name":"桜町病院","province":"東京都","city":"小金井市","address":"小金井市桜町1-2-20","lat":35.70885,"lon":139.51196},{"name":"梶野町第２荘","province":"東京都","city":"小金井市","address":"小金井市梶野町2-16-6","lat":35.70932,"lon":139.52924},{"name":"梶野町第３荘","province":"東京都","city":"小金井市","address":"小金井市梶野町2-16-9","lat":35.70932,"lon":139.52924},{"name":"サンハイツ貫井南２","province":"東京都","city":"小金井市","address":"小金井市貫井南町4-14-8","lat":35.69549,"lon":139.49466},{"name":"小金井市社会福祉協議会","province":"東京都","city":"小金井市","address":"小金井市本町5-36-17","lat":35.70489,"lon":139.5036},{"name":"さくら東小金井ハウス","province":"東京都","city":"小金井市","address":"小金井市東町4-20-22","lat":35.6959,"lon":139.52506},{"name":"サンハイツ貫井南2","province":"東京都","city":"小金井市","address":"小金井市貫井南町4-14-8","lat":35.69549,"lon":139.49466},{"name":"桜町病院","province":"東京都","city":"小金井市","address":"小金井市桜町1-2-20","lat":35.709547,"lon":139.511426},{"name":"賀川学園","province":"東京都","city":"小金井市","address":"小金井市貫井北町5-8-1","lat":35.701667,"lon":139.488511},{"name":"梶野町第二荘","province":"東京都","city":"小金井市","address":"小金井市梶野町2-16-6","lat":35.709284,"lon":139.529938},{"name":"梶野町荘","province":"東京都","city":"小金井市","address":"小金井市梶野町2-16-7","lat":35.709309,"lon":139.529727},{"name":"小金井荘","province":"東京都","city":"小金井市","address":"小金井市梶野町4-10-23","lat":35.707681,"lon":139.526964},{"name":"東小金井荘","province":"東京都","city":"小金井市","address":"小金井市梶野町4-10-24","lat":35.707853,"lon":139.526775},{"name":"さくら東小金井ハウス","province":"東京都","city":"小金井市","address":"小金井市東町4-20-22","lat":35.695605,"lon":139.525273},{"name":"サンハイツ貫井南","province":"東京都","city":"小金井市","address":"小金井市貫井南町4-14-8","lat":35.695223,"lon":139.494797},{"name":"小金井市社会福祉協議会","province":"東京都","city":"小金井市","address":"小金井市本町5-36-17","lat":35.705414,"lon":139.503918},{"name":"梶野町第二荘","province":"東京都","city":"小金井市","address":"小金井市梶野町2-16-6","lat":35.70932,"lon":139.52924},{"name":"梶野町荘","province":"東京都","city":"小金井市","address":"小金井市梶野町2-16-7","lat":35.70932,"lon":139.52924},{"name":"小金井荘","province":"東京都","city":"小金井市","address":"小金井市梶野町4-10-23","lat":35.70747,"lon":139.52699},{"name":"東小金井荘","province":"東京都","city":"小金井市","address":"小金井市梶野町4-10-24","lat":35.70747,"lon":139.52699},{"name":"さくら東小金井ハウス","province":"東京都","city":"小金井市","address":"小金井市東町4-20-22","lat":35.6959,"lon":139.52505},{"name":"サンハイツ貫井南","province":"東京都","city":"小金井市","address":"小金井市貫井南町4-14-8","lat":35.69549,"lon":139.49466},{"name":"桜町病院","province":"東京都","city":"小金井市","address":"小金井市桜町1-2-20","lat":35.70885,"lon":139.51196},{"name":"梶野町第２荘","province":"東京都","city":"小金井市","address":"小金井市梶野町2-16-6","lat":35.70932,"lon":139.52924},{"name":"梶野町第３荘","province":"東京都","city":"小金井市","address":"小金井市梶野町2-16-9","lat":35.70932,"lon":139.52924},{"name":"サンハイツ貫井南２","province":"東京都","city":"小金井市","address":"小金井市貫井南町4-14-8","lat":35.69549,"lon":139.49466},{"name":"小金井市社会福祉協議会","province":"東京都","city":"小金井市","address":"小金井市本町5-36-17","lat":35.70489,"lon":139.5036},{"name":"さくら東小金井ハウス","province":"東京都","city":"小金井市","address":"小金井市東町4-20-22","lat":35.6959,"lon":139.52506},{"name":"サンハイツ貫井南2","province":"東京都","city":"小金井市","address":"小金井市貫井南町4-14-8","lat":35.69549,"lon":139.49466},{"name":"桜町病院","province":"東京都","city":"小金井市","address":"小金井市桜町1-2-20","lat":35.709547,"lon":139.511426},{"name":"賀川学園","province":"東京都","city":"小金井市","address":"小金井市貫井北町5-8-1","lat":35.701667,"lon":139.488511},{"name":"梶野町第二荘","province":"東京都","city":"小金井市","address":"小金井市梶野町2-16-6","lat":35.709284,"lon":139.529938},{"name":"梶野町荘","province":"東京都","city":"小金井市","address":"小金井市梶野町2-16-7","lat":35.709309,"lon":139.529727},{"name":"小金井荘","province":"東京都","city":"小金井市","address":"小金井市梶野町4-10-23","lat":35.707681,"lon":139.526964},{"name":"東小金井荘","province":"東京都","city":"小金井市","address":"小金井市梶野町4-10-24","lat":35.707853,"lon":139.526775},{"name":"さくら東小金井ハウス","province":"東京都","city":"小金井市","address":"小金井市東町4-20-22","lat":35.695605,"lon":139.525273},{"name":"サンハイツ貫井南","province":"東京都","city":"小金井市","address":"小金井市貫井南町4-14-8","lat":35.695223,"lon":139.494797},{"name":"小金井市社会福祉協議会","province":"東京都","city":"小金井市","address":"小金井市本町5-36-17","lat":35.705414,"lon":139.503918},{"name":"梶野町第二荘","province":"東京都","city":"小金井市","address":"小金井市梶野町2-16-6","lat":35.70932,"lon":139.52924},{"name":"梶野町荘","province":"東京都","city":"小金井市","address":"小金井市梶野町2-16-7","lat":35.70932,"lon":139.52924},{"name":"小金井荘","province":"東京都","city":"小金井市","address":"小金井市梶野町4-10-23","lat":35.70747,"lon":139.52699},{"name":"東小金井荘","province":"東京都","city":"小金井市","address":"小金井市梶野町4-10-24","lat":35.70747,"lon":139.52699},{"name":"さくら東小金井ハウス","province":"東京都","city":"小金井市","address":"小金井市東町4-20-22","lat":35.6959,"lon":139.52505},{"name":"サンハイツ貫井南","province":"東京都","city":"小金井市","address":"小金井市貫井南町4-14-8","lat":35.69549,"lon":139.49466},{"name":"桜町病院","province":"東京都","city":"小金井市","address":"小金井市桜町1-2-20","lat":35.70885,"lon":139.51196},{"name":"梶野町第２荘","province":"東京都","city":"小金井市","address":"小金井市梶野町2-16-6","lat":35.70932,"lon":139.52924},{"name":"梶野町第３荘","province":"東京都","city":"小金井市","address":"小金井市梶野町2-16-9","lat":35.70932,"lon":139.52924},{"name":"サンハイツ貫井南２","province":"東京都","city":"小金井市","address":"小金井市貫井南町4-14-8","lat":35.69549,"lon":139.49466},{"name":"小金井市社会福祉協議会","province":"東京都","city":"小金井市","address":"小金井市本町5-36-17","lat":35.70489,"lon":139.5036},{"name":"さくら東小金井ハウス","province":"東京都","city":"小金井市","address":"小金井市東町4-20-22","lat":35.6959,"lon":139.52506},{"name":"サンハイツ貫井南2","province":"東京都","city":"小金井市","address":"小金井市貫井南町4-14-8","lat":35.69549,"lon":139.49466},{"name":"桜町病院","province":"東京都","city":"小金井市","address":"小金井市桜町1-2-20","lat":35.709547,"lon":139.511426},{"name":"賀川学園","province":"東京都","city":"小金井市","address":"小金井市貫井北町5-8-1","lat":35.701667,"lon":139.488511},{"name":"梶野町第二荘","province":"東京都","city":"小金井市","address":"小金井市梶野町2-16-6","lat":35.709284,"lon":139.529938},{"name":"梶野町荘","province":"東京都","city":"小金井市","address":"小金井市梶野町2-16-7","lat":35.709309,"lon":139.529727},{"name":"小金井荘","province":"東京都","city":"小金井市","address":"小金井市梶野町4-10-23","lat":35.707681,"lon":139.526964},{"name":"東小金井荘","province":"東京都","city":"小金井市","address":"小金井市梶野町4-10-24","lat":35.707853,"lon":139.526775},{"name":"さくら東小金井ハウス","province":"東京都","city":"小金井市","address":"小金井市東町4-20-22","lat":35.695605,"lon":139.525273},{"name":"サンハイツ貫井南","province":"東京都","city":"小金井市","address":"小金井市貫井南町4-14-8","lat":35.695223,"lon":139.494797},{"name":"小金井市社会福祉協議会","province":"東京都","city":"小金井市","address":"小金井市本町5-36-17","lat":35.705414,"lon":139.503918},{"name":"梶野町第二荘","province":"東京都","city":"小金井市","address":"小金井市梶野町2-16-6","lat":35.70932,"lon":139.52924},{"name":"梶野町荘","province":"東京都","city":"小金井市","address":"小金井市梶野町2-16-7","lat":35.70932,"lon":139.52924},{"name":"小金井荘","province":"東京都","city":"小金井市","address":"小金井市梶野町4-10-23","lat":35.70747,"lon":139.52699},{"name":"東小金井荘","province":"東京都","city":"小金井市","address":"小金井市梶野町4-10-24","lat":35.70747,"lon":139.52699},{"name":"さくら東小金井ハウス","province":"東京都","city":"小金井市","address":"小金井市東町4-20-22","lat":35.6959,"lon":139.52505},{"name":"サンハイツ貫井南","province":"東京都","city":"小金井市","address":"小金井市貫井南町4-14-8","lat":35.69549,"lon":139.49466},{"name":"桜町病院","province":"東京都","city":"小金井市","address":"小金井市桜町1-2-20","lat":35.70885,"lon":139.51196},{"name":"梶野町第２荘","province":"東京都","city":"小金井市","address":"小金井市梶野町2-16-6","lat":35.70932,"lon":139.52924},{"name":"梶野町第３荘","province":"東京都","city":"小金井市","address":"小金井市梶野町2-16-9","lat":35.70932,"lon":139.52924},{"name":"サンハイツ貫井南２","province":"東京都","city":"小金井市","address":"小金井市貫井南町4-14-8","lat":35.69549,"lon":139.49466},{"name":"小金井市社会福祉協議会","province":"東京都","city":"小金井市","address":"小金井市本町5-36-17","lat":35.70489,"lon":139.5036},{"name":"さくら東小金井ハウス","province":"東京都","city":"小金井市","address":"小金井市東町4-20-22","lat":35.6959,"lon":139.52506},{"name":"サンハイツ貫井南2","province":"東京都","city":"小金井市","address":"小金井市貫井南町4-14-8","lat":35.69549,"lon":139.49466},{"name":"桜町病院","province":"東京都","city":"小金井市","address":"小金井市桜町1-2-20","lat":35.709547,"lon":139.511426},{"name":"賀川学園","province":"東京都","city":"小金井市","address":"小金井市貫井北町5-8-1","lat":35.701667,"lon":139.488511},{"name":"梶野町第二荘","province":"東京都","city":"小金井市","address":"小金井市梶野町2-16-6","lat":35.709284,"lon":139.529938},{"name":"梶野町荘","province":"東京都","city":"小金井市","address":"小金井市梶野町2-16-7","lat":35.709309,"lon":139.529727},{"name":"小金井荘","province":"東京都","city":"小金井市","address":"小金井市梶野町4-10-23","lat":35.707681,"lon":139.526964},{"name":"東小金井荘","province":"東京都","city":"小金井市","address":"小金井市梶野町4-10-24","lat":35.707853,"lon":139.526775},{"name":"さくら東小金井ハウス","province":"東京都","city":"小金井市","address":"小金井市東町4-20-22","lat":35.695605,"lon":139.525273},{"name":"サンハイツ貫井南","province":"東京都","city":"小金井市","address":"小金井市貫井南町4-14-8","lat":35.695223,"lon":139.494797},{"name":"小金井市社会福祉協議会","province":"東京都","city":"小金井市","address":"小金井市本町5-36-17","lat":35.705414,"lon":139.503918},{"name":"梶野町第二荘","province":"東京都","city":"小金井市","address":"小金井市梶野町2-16-6","lat":35.70932,"lon":139.52924},{"name":"梶野町荘","province":"東京都","city":"小金井市","address":"小金井市梶野町2-16-7","lat":35.70932,"lon":139.52924},{"name":"小金井荘","province":"東京都","city":"小金井市","address":"小金井市梶野町4-10-23","lat":35.70747,"lon":139.52699},{"name":"東小金井荘","province":"東京都","city":"小金井市","address":"小金井市梶野町4-10-24","lat":35.70747,"lon":139.52699},{"name":"さくら東小金井ハウス","province":"東京都","city":"小金井市","address":"小金井市東町4-20-22","lat":35.6959,"lon":139.52505},{"name":"サンハイツ貫井南","province":"東京都","city":"小金井市","address":"小金井市貫井南町4-14-8","lat":35.69549,"lon":139.49466},{"name":"桜町病院","province":"東京都","city":"小金井市","address":"小金井市桜町1-2-20","lat":35.70885,"lon":139.51196},{"name":"梶野町第２荘","province":"東京都","city":"小金井市","address":"小金井市梶野町2-16-6","lat":35.70932,"lon":139.52924},{"name":"梶野町第３荘","province":"東京都","city":"小金井市","address":"小金井市梶野町2-16-9","lat":35.70932,"lon":139.52924},{"name":"サンハイツ貫井南２","province":"東京都","city":"小金井市","address":"小金井市貫井南町4-14-8","lat":35.69549,"lon":139.49466},{"name":"小金井市社会福祉協議会","province":"東京都","city":"小金井市","address":"小金井市本町5-36-17","lat":35.70489,"lon":139.5036},{"name":"さくら東小金井ハウス","province":"東京都","city":"小金井市","address":"小金井市東町4-20-22","lat":35.6959,"lon":139.52506},{"name":"サンハイツ貫井南2","province":"東京都","city":"小金井市","address":"小金井市貫井南町4-14-8","lat":35.69549,"lon":139.49466},{"name":"桜町病院","province":"東京都","city":"小金井市","address":"小金井市桜町1-2-20","lat":35.709547,"lon":139.511426},{"name":"賀川学園","province":"東京都","city":"小金井市","address":"小金井市貫井北町5-8-1","lat":35.701667,"lon":139.488511},{"name":"梶野町第二荘","province":"東京都","city":"小金井市","address":"小金井市梶野町2-16-6","lat":35.709284,"lon":139.529938},{"name":"梶野町荘","province":"東京都","city":"小金井市","address":"小金井市梶野町2-16-7","lat":35.709309,"lon":139.529727},{"name":"小金井荘","province":"東京都","city":"小金井市","address":"小金井市梶野町4-10-23","lat":35.707681,"lon":139.526964},{"name":"東小金井荘","province":"東京都","city":"小金井市","address":"小金井市梶野町4-10-24","lat":35.707853,"lon":139.526775},{"name":"さくら東小金井ハウス","province":"東京都","city":"小金井市","address":"小金井市東町4-20-22","lat":35.695605,"lon":139.525273},{"name":"サンハイツ貫井南","province":"東京都","city":"小金井市","address":"小金井市貫井南町4-14-8","lat":35.695223,"lon":139.494797},{"name":"小金井市社会福祉協議会","province":"東京都","city":"小金井市","address":"小金井市本町5-36-17","lat":35.705414,"lon":139.503918},{"name":"梶野町第二荘","province":"東京都","city":"小金井市","address":"小金井市梶野町2-16-6","lat":35.70932,"lon":139.52924},{"name":"梶野町荘","province":"東京都","city":"小金井市","address":"小金井市梶野町2-16-7","lat":35.70932,"lon":139.52924},{"name":"小金井荘","province":"東京都","city":"小金井市","address":"小金井市梶野町4-10-23","lat":35.70747,"lon":139.52699},{"name":"東小金井荘","province":"東京都","city":"小金井市","address":"小金井市梶野町4-10-24","lat":35.70747,"lon":139.52699},{"name":"さくら東小金井ハウス","province":"東京都","city":"小金井市","address":"小金井市東町4-20-22","lat":35.6959,"lon":139.52505},{"name":"サンハイツ貫井南","province":"東京都","city":"小金井市","address":"小金井市貫井南町4-14-8","lat":35.69549,"lon":139.49466},{"name":"桜町病院","province":"東京都","city":"小金井市","address":"小金井市桜町1-2-20","lat":35.70885,"lon":139.51196},{"name":"梶野町第２荘","province":"東京都","city":"小金井市","address":"小金井市梶野町2-16-6","lat":35.70932,"lon":139.52924},{"name":"梶野町第３荘","province":"東京都","city":"小金井市","address":"小金井市梶野町2-16-9","lat":35.70932,"lon":139.52924},{"name":"サンハイツ貫井南２","province":"東京都","city":"小金井市","address":"小金井市貫井南町4-14-8","lat":35.69549,"lon":139.49466},{"name":"小金井市社会福祉協議会","province":"東京都","city":"小金井市","address":"小金井市本町5-36-17","lat":35.70489,"lon":139.5036},{"name":"さくら東小金井ハウス","province":"東京都","city":"小金井市","address":"小金井市東町4-20-22","lat":35.6959,"lon":139.52506},{"name":"サンハイツ貫井南2","province":"東京都","city":"小金井市","address":"小金井市貫井南町4-14-8","lat":35.69549,"lon":139.49466}]}