{"keyword":"戸数","data":[{"name":"小金井市社会福祉協議会","province":"東京都","city":"小金井市","address":"小金井市本町5-36-17","lat":35.705414,"lon":139.503918},{"name":"小金井市","province":"東京都","city":"小金井市","address":"小金井市本町6-6-3","lat":35.6994789,"lon":139.5029889},{"name":"株式会社セレモの森","province":"東京都","city":"小金井市","address":"東京都小金井市本町2丁目19-21","lat":35.70550591,"lon":139.50886795},{"name":"アートビジュアル","province":"東京都","city":"小金井市","address":"東京都小金井市貫井南町4丁目12-37","lat":35.6951233,"lon":139.4930669},{"name":"株式会社まごころ","province":"東京都","city":"小金井市","address":"東京都小金井市前原町4丁目17-6","lat":35.68980753,"lon":139.50422729},{"name":"有限会社　東京フラワーセレモニー","province":"東京都","city":"小金井市","address":"東京都小金井市東町4丁目3-3","lat":35.69449372,"lon":139.52695578},{"name":"東京むさし農業協同組合","province":"東京都","city":"小金井市","address":"東京都小金井市貫井北町1丁目10-1","lat":35.70175882,"lon":139.49866339},{"name":"小金井祭典株式会社","province":"東京都","city":"小金井市","address":"東京都小金井市本町5丁目32-19","lat":35.7047641,"lon":139.50109085},{"name":"株式会社セレモの森","province":"東京都","city":"小金井市","address":"東京都小金井市本町2丁目19-21","lat":35.70550591,"lon":139.50886795},{"name":"有限会社東京フラワーセレモニー","province":"東京都","city":"小金井市","address":"東京都小金井市東町4丁目3-3","lat":35.69449372,"lon":139.52695578},{"name":"花会","province":"東京都","city":"小金井市","address":"東京都小金井市貫井南町1丁目16-17","lat":35.69047939,"lon":139.49344761},{"name":"株式会社三和式典","province":"東京都","city":"小金井市","address":"東京都小金井市本町5丁目8-3","lat":35.70139509,"lon":139.50278528},{"name":"株式会社セレモニーわかば","province":"東京都","city":"小金井市","address":"東京都小金井市貫井北町1丁目23-33","lat":35.70361688,"lon":139.49678291},{"name":"株式会社セレモ","province":"東京都","city":"小金井市","address":"東京都小金井市緑町2丁目4-1","lat":35.70500902,"lon":139.5183422},{"name":"多摩式典株式会社","province":"東京都","city":"小金井市","address":"東京都小金井市中町4丁目4-8","lat":35.69551249,"lon":139.50580472},{"name":"小金井市社会福祉協議会","province":"東京都","city":"小金井市","address":"小金井市本町5-36-17","lat":35.70489,"lon":139.5036},{"name":"小金井きた地域包括支援センター","province":"東京都","city":"小金井市","address":"小金井市桜町1-9-5","lat":35.710579,"lon":139.511826},{"name":"小金井みなみ地域包括支援センター","province":"東京都","city":"小金井市","address":"小金井市前原町5-3-24","lat":35.687584,"lon":139.498169},{"name":"小金井ひがし地域包括支援センター","province":"東京都","city":"小金井市","address":"小金井市中町2-15-25","lat":35.697681,"lon":139.517044},{"name":"小金井にし地域包括支援センター","province":"東京都","city":"小金井市","address":"小金井市貫井北町2-5-5","lat":35.705441,"lon":139.496567},{"name":"小金井市消費生活相談室","province":"東京都","city":"小金井市","address":"小金井市本町6-6-3","lat":35.699074,"lon":139.503128},{"name":"小金井市介護福祉課包括支援係","province":"東京都","city":"小金井市","address":"小金井市本町6-6-3","lat":35.699074,"lon":139.503128},{"name":"梶野浄水所","province":"東京都","city":"小金井市","address":"東京都小金井市梶野町5丁目10-33","lat":35.70463703,"lon":139.52653041},{"name":"都立小金井公園","province":"東京都","city":"小金井市","address":"東京都小金井市関野町1丁目","lat":35.71343867,"lon":139.51977227},{"name":"小金井市選挙管理委員会","province":"東京都","city":"小金井市","address":"小金井市前原町3-41-15第2庁舎","lat":35.698566,"lon":139.504908},{"name":"江戸東京たてもの園","province":"東京都","city":"小金井市","address":"東京都小金井市桜町3丁目7-1","lat":35.71581318,"lon":139.51259218},{"name":"小金井北高等学校","province":"東京都","city":"小金井市","address":"東京都小金井市緑町4丁目1-1","lat":35.70524506,"lon":139.51681454},{"name":"多摩科学技術高等学校","province":"東京都","city":"小金井市","address":"東京都小金井市本町6丁目8-9","lat":35.70040901,"lon":139.50024664},{"name":"小金井市社会福祉協議会","province":"東京都","city":"小金井市","address":"小金井市本町5-36-17","lat":35.705414,"lon":139.503918},{"name":"小金井市社会福祉協議会","province":"東京都","city":"小金井市","address":"小金井市本町5-36-17","lat":35.70489,"lon":139.5036},{"name":"小金井きた地域包括支援センター","province":"東京都","city":"小金井市","address":"小金井市桜町1-9-5","lat":35.710579,"lon":139.511826},{"name":"小金井みなみ地域包括支援センター","province":"東京都","city":"小金井市","address":"小金井市前原町5-3-24","lat":35.687584,"lon":139.498169},{"name":"小金井ひがし地域包括支援センター","province":"東京都","city":"小金井市","address":"小金井市中町2-15-25","lat":35.697681,"lon":139.517044},{"name":"小金井にし地域包括支援センター","province":"東京都","city":"小金井市","address":"小金井市貫井北町2-5-5","lat":35.705441,"lon":139.496567},{"name":"小金井市消費生活相談室","province":"東京都","city":"小金井市","address":"小金井市本町6-6-3","lat":35.699074,"lon":139.503128},{"name":"小金井市介護福祉課包括支援係","province":"東京都","city":"小金井市","address":"小金井市本町6-6-3","lat":35.699074,"lon":139.503128},{"name":"梶野浄水所","province":"東京都","city":"小金井市","address":"東京都小金井市梶野町5丁目10-33","lat":35.70463703,"lon":139.52653041},{"name":"都立小金井公園","province":"東京都","city":"小金井市","address":"東京都小金井市関野町1丁目","lat":35.71343867,"lon":139.51977227},{"name":"江戸東京たてもの園","province":"東京都","city":"小金井市","address":"東京都小金井市桜町3丁目7-1","lat":35.71581318,"lon":139.51259218},{"name":"小金井北高等学校","province":"東京都","city":"小金井市","address":"東京都小金井市緑町4丁目1-1","lat":35.70524506,"lon":139.51681454},{"name":"多摩科学技術高等学校","province":"東京都","city":"小金井市","address":"東京都小金井市本町6丁目8-9","lat":35.70040901,"lon":139.50024664},{"name":"小金井きた地域包括支援センター","province":"東京都","city":"小金井市","address":"小金井市桜町1-9-5","lat":35.710579,"lon":139.511826},{"name":"小金井みなみ地域包括支援センター","province":"東京都","city":"小金井市","address":"小金井市前原町5-3-24","lat":35.687584,"lon":139.498169},{"name":"小金井ひがし地域包括支援センター","province":"東京都","city":"小金井市","address":"小金井市中町2-15-25","lat":35.697681,"lon":139.517044},{"name":"小金井にし地域包括支援センター","province":"東京都","city":"小金井市","address":"小金井市貫井北町2-5-5","lat":35.705441,"lon":139.496567},{"name":"小金井市消費生活相談室","province":"東京都","city":"小金井市","address":"小金井市本町6-6-3","lat":35.699074,"lon":139.503128},{"name":"小金井市介護福祉課包括支援係","province":"東京都","city":"小金井市","address":"小金井市本町6-6-3","lat":35.699074,"lon":139.503128},{"name":"江戸東京たてもの園","province":"東京都","city":"小金井市","address":"東京都小金井市桜町3丁目7-1","lat":35.71581318,"lon":139.51259218},{"name":"小金井北高等学校","province":"東京都","city":"小金井市","address":"東京都小金井市緑町4丁目1-1","lat":35.70524506,"lon":139.51681454},{"name":"多摩科学技術高等学校","province":"東京都","city":"小金井市","address":"東京都小金井市本町6丁目8-9","lat":35.70040901,"lon":139.50024664},{"name":"小金井きた地域包括支援センター","province":"東京都","city":"小金井市","address":"小金井市桜町1-9-5","lat":35.710579,"lon":139.511826},{"name":"小金井みなみ地域包括支援センター","province":"東京都","city":"小金井市","address":"小金井市前原町5-3-24","lat":35.687584,"lon":139.498169},{"name":"小金井ひがし地域包括支援センター","province":"東京都","city":"小金井市","address":"小金井市中町2-15-25","lat":35.697681,"lon":139.517044},{"name":"小金井にし地域包括支援センター","province":"東京都","city":"小金井市","address":"小金井市貫井北町2-5-5","lat":35.705441,"lon":139.496567},{"name":"小金井市消費生活相談室","province":"東京都","city":"小金井市","address":"小金井市本町6-6-3","lat":35.699074,"lon":139.503128},{"name":"小金井市介護福祉課包括支援係","province":"東京都","city":"小金井市","address":"小金井市本町6-6-3","lat":35.699074,"lon":139.503128},{"name":"江戸東京たてもの園","province":"東京都","city":"小金井市","address":"東京都小金井市桜町3丁目7-1","lat":35.71581318,"lon":139.51259218},{"name":"小金井北高等学校","province":"東京都","city":"小金井市","address":"東京都小金井市緑町4丁目1-1","lat":35.70524506,"lon":139.51681454},{"name":"多摩科学技術高等学校","province":"東京都","city":"小金井市","address":"東京都小金井市本町6丁目8-9","lat":35.70040901,"lon":139.50024664},{"name":"小金井きた地域包括支援センター","province":"東京都","city":"小金井市","address":"小金井市桜町1-9-5","lat":35.710579,"lon":139.511826},{"name":"小金井みなみ地域包括支援センター","province":"東京都","city":"小金井市","address":"小金井市前原町5-3-24","lat":35.687584,"lon":139.498169},{"name":"小金井ひがし地域包括支援センター","province":"東京都","city":"小金井市","address":"小金井市中町2-15-25","lat":35.697681,"lon":139.517044},{"name":"小金井にし地域包括支援センター","province":"東京都","city":"小金井市","address":"小金井市貫井北町2-5-5","lat":35.705441,"lon":139.496567},{"name":"小金井市消費生活相談室","province":"東京都","city":"小金井市","address":"小金井市本町6-6-3","lat":35.699074,"lon":139.503128},{"name":"小金井市介護福祉課包括支援係","province":"東京都","city":"小金井市","address":"小金井市本町6-6-3","lat":35.699074,"lon":139.503128},{"name":"小金井きた地域包括支援センター","province":"東京都","city":"小金井市","address":"小金井市桜町1-9-5","lat":35.710579,"lon":139.511826},{"name":"小金井みなみ地域包括支援センター","province":"東京都","city":"小金井市","address":"小金井市前原町5-3-24","lat":35.687584,"lon":139.498169},{"name":"小金井ひがし地域包括支援センター","province":"東京都","city":"小金井市","address":"小金井市中町2-15-25","lat":35.697681,"lon":139.517044},{"name":"小金井にし地域包括支援センター","province":"東京都","city":"小金井市","address":"小金井市貫井北町2-5-5","lat":35.705441,"lon":139.496567},{"name":"小金井市消費生活相談室","province":"東京都","city":"小金井市","address":"小金井市本町6-6-3","lat":35.699074,"lon":139.503128},{"name":"小金井市介護福祉課包括支援係","province":"東京都","city":"小金井市","address":"小金井市本町6-6-3","lat":35.699074,"lon":139.503128},{"name":"小金井きた地域包括支援センター","province":"東京都","city":"小金井市","address":"小金井市桜町1-9-5","lat":35.710579,"lon":139.511826},{"name":"小金井みなみ地域包括支援センター","province":"東京都","city":"小金井市","address":"小金井市前原町5-3-24","lat":35.687584,"lon":139.498169},{"name":"小金井ひがし地域包括支援センター","province":"東京都","city":"小金井市","address":"小金井市中町2-15-25","lat":35.697681,"lon":139.517044},{"name":"小金井にし地域包括支援センター","province":"東京都","city":"小金井市","address":"小金井市貫井北町2-5-5","lat":35.705441,"lon":139.496567},{"name":"小金井市消費生活相談室","province":"東京都","city":"小金井市","address":"小金井市本町6-6-3","lat":35.699074,"lon":139.503128},{"name":"小金井市介護福祉課包括支援係","province":"東京都","city":"小金井市","address":"小金井市本町6-6-3","lat":35.699074,"lon":139.503128},{"name":"小金井きた地域包括支援センター","province":"東京都","city":"小金井市","address":"小金井市桜町1-9-5","lat":35.710579,"lon":139.511826},{"name":"小金井みなみ地域包括支援センター","province":"東京都","city":"小金井市","address":"小金井市前原町5-3-24","lat":35.687584,"lon":139.498169},{"name":"小金井ひがし地域包括支援センター","province":"東京都","city":"小金井市","address":"小金井市中町2-15-25","lat":35.697681,"lon":139.517044},{"name":"小金井にし地域包括支援センター","province":"東京都","city":"小金井市","address":"小金井市貫井北町2-5-5","lat":35.705441,"lon":139.496567},{"name":"小金井市消費生活相談室","province":"東京都","city":"小金井市","address":"小金井市本町6-6-3","lat":35.699074,"lon":139.503128},{"name":"小金井市介護福祉課包括支援係","province":"東京都","city":"小金井市","address":"小金井市本町6-6-3","lat":35.699074,"lon":139.503128},{"name":"小金井きた地域包括支援センター","province":"東京都","city":"小金井市","address":"小金井市桜町1-9-5","lat":35.710579,"lon":139.511826},{"name":"小金井みなみ地域包括支援センター","province":"東京都","city":"小金井市","address":"小金井市前原町5-3-24","lat":35.687584,"lon":139.498169},{"name":"小金井ひがし地域包括支援センター","province":"東京都","city":"小金井市","address":"小金井市中町2-15-25","lat":35.697681,"lon":139.517044},{"name":"小金井にし地域包括支援センター","province":"東京都","city":"小金井市","address":"小金井市貫井北町2-5-5","lat":35.705441,"lon":139.496567},{"name":"小金井市消費生活相談室","province":"東京都","city":"小金井市","address":"小金井市本町6-6-3","lat":35.699074,"lon":139.503128},{"name":"小金井市介護福祉課包括支援係","province":"東京都","city":"小金井市","address":"小金井市本町6-6-3","lat":35.699074,"lon":139.503128},{"name":"小金井きた地域包括支援センター","province":"東京都","city":"小金井市","address":"小金井市桜町1-9-5","lat":35.710579,"lon":139.511826},{"name":"小金井みなみ地域包括支援センター","province":"東京都","city":"小金井市","address":"小金井市前原町5-3-24","lat":35.687584,"lon":139.498169},{"name":"小金井ひがし地域包括支援センター","province":"東京都","city":"小金井市","address":"小金井市中町2-15-25","lat":35.697681,"lon":139.517044},{"name":"小金井にし地域包括支援センター","province":"東京都","city":"小金井市","address":"小金井市貫井北町2-5-5","lat":35.705441,"lon":139.496567},{"name":"小金井市消費生活相談室","province":"東京都","city":"小金井市","address":"小金井市本町6-6-3","lat":35.699074,"lon":139.503128},{"name":"小金井市介護福祉課包括支援係","province":"東京都","city":"小金井市","address":"小金井市本町6-6-3","lat":35.699074,"lon":139.503128},{"name":"小金井きた地域包括支援センター","province":"東京都","city":"小金井市","address":"小金井市桜町1-9-5","lat":35.710579,"lon":139.511826},{"name":"小金井みなみ地域包括支援センター","province":"東京都","city":"小金井市","address":"小金井市前原町5-3-24","lat":35.687584,"lon":139.498169},{"name":"小金井ひがし地域包括支援センター","province":"東京都","city":"小金井市","address":"小金井市中町2-15-25","lat":35.697681,"lon":139.517044},{"name":"小金井にし地域包括支援センター","province":"東京都","city":"小金井市","address":"小金井市貫井北町2-5-5","lat":35.705441,"lon":139.496567},{"name":"小金井市消費生活相談室","province":"東京都","city":"小金井市","address":"小金井市本町6-6-3","lat":35.699074,"lon":139.503128},{"name":"小金井市介護福祉課包括支援係","province":"東京都","city":"小金井市","address":"小金井市本町6-6-3","lat":35.699074,"lon":139.503128},{"name":"小金井きた地域包括支援センター","province":"東京都","city":"小金井市","address":"小金井市桜町1-9-5","lat":35.710579,"lon":139.511826},{"name":"小金井みなみ地域包括支援センター","province":"東京都","city":"小金井市","address":"小金井市前原町5-3-24","lat":35.687584,"lon":139.498169},{"name":"小金井ひがし地域包括支援センター","province":"東京都","city":"小金井市","address":"小金井市中町2-15-25","lat":35.697681,"lon":139.517044},{"name":"小金井にし地域包括支援センター","province":"東京都","city":"小金井市","address":"小金井市貫井北町2-5-5","lat":35.705441,"lon":139.496567},{"name":"小金井市消費生活相談室","province":"東京都","city":"小金井市","address":"小金井市本町6-6-3","lat":35.699074,"lon":139.503128},{"name":"小金井市介護福祉課包括支援係","province":"東京都","city":"小金井市","address":"小金井市本町6-6-3","lat":35.699074,"lon":139.503128},{"name":"小金井きた地域包括支援センター","province":"東京都","city":"小金井市","address":"小金井市桜町1-9-5","lat":35.710579,"lon":139.511826},{"name":"小金井みなみ地域包括支援センター","province":"東京都","city":"小金井市","address":"小金井市前原町5-3-24","lat":35.687584,"lon":139.498169},{"name":"小金井ひがし地域包括支援センター","province":"東京都","city":"小金井市","address":"小金井市中町2-15-25","lat":35.697681,"lon":139.517044},{"name":"小金井にし地域包括支援センター","province":"東京都","city":"小金井市","address":"小金井市貫井北町2-5-5","lat":35.705441,"lon":139.496567},{"name":"小金井市消費生活相談室","province":"東京都","city":"小金井市","address":"小金井市本町6-6-3","lat":35.699074,"lon":139.503128},{"name":"小金井市介護福祉課包括支援係","province":"東京都","city":"小金井市","address":"小金井市本町6-6-3","lat":35.699074,"lon":139.503128},{"name":"小金井きた地域包括支援センター","province":"東京都","city":"小金井市","address":"小金井市桜町1-9-5","lat":35.710579,"lon":139.511826},{"name":"小金井みなみ地域包括支援センター","province":"東京都","city":"小金井市","address":"小金井市前原町5-3-24","lat":35.687584,"lon":139.498169},{"name":"小金井ひがし地域包括支援センター","province":"東京都","city":"小金井市","address":"小金井市中町2-15-25","lat":35.697681,"lon":139.517044},{"name":"小金井にし地域包括支援センター","province":"東京都","city":"小金井市","address":"小金井市貫井北町2-5-5","lat":35.705441,"lon":139.496567},{"name":"小金井市消費生活相談室","province":"東京都","city":"小金井市","address":"小金井市本町6-6-3","lat":35.699074,"lon":139.503128},{"name":"小金井市介護福祉課包括支援係","province":"東京都","city":"小金井市","address":"小金井市本町6-6-3","lat":35.699074,"lon":139.503128},{"name":"小金井きた地域包括支援センター","province":"東京都","city":"小金井市","address":"小金井市桜町1-9-5","lat":35.710579,"lon":139.511826},{"name":"小金井みなみ地域包括支援センター","province":"東京都","city":"小金井市","address":"小金井市前原町5-3-24","lat":35.687584,"lon":139.498169},{"name":"小金井ひがし地域包括支援センター","province":"東京都","city":"小金井市","address":"小金井市中町2-15-25","lat":35.697681,"lon":139.517044},{"name":"小金井にし地域包括支援センター","province":"東京都","city":"小金井市","address":"小金井市貫井北町2-5-5","lat":35.705441,"lon":139.496567},{"name":"小金井市消費生活相談室","province":"東京都","city":"小金井市","address":"小金井市本町6-6-3","lat":35.699074,"lon":139.503128},{"name":"小金井市介護福祉課包括支援係","province":"東京都","city":"小金井市","address":"小金井市本町6-6-3","lat":35.699074,"lon":139.503128},{"name":"小金井きた地域包括支援センター","province":"東京都","city":"小金井市","address":"小金井市桜町1-9-5","lat":35.710579,"lon":139.511826},{"name":"小金井みなみ地域包括支援センター","province":"東京都","city":"小金井市","address":"小金井市前原町5-3-24","lat":35.687584,"lon":139.498169},{"name":"小金井ひがし地域包括支援センター","province":"東京都","city":"小金井市","address":"小金井市中町2-15-25","lat":35.697681,"lon":139.517044},{"name":"小金井にし地域包括支援センター","province":"東京都","city":"小金井市","address":"小金井市貫井北町2-5-5","lat":35.705441,"lon":139.496567},{"name":"小金井市消費生活相談室","province":"東京都","city":"小金井市","address":"小金井市本町6-6-3","lat":35.699074,"lon":139.503128},{"name":"小金井市介護福祉課包括支援係","province":"東京都","city":"小金井市","address":"小金井市本町6-6-3","lat":35.699074,"lon":139.503128},{"name":"小金井きた地域包括支援センター","province":"東京都","city":"小金井市","address":"小金井市桜町1-9-5","lat":35.710579,"lon":139.511826},{"name":"小金井みなみ地域包括支援センター","province":"東京都","city":"小金井市","address":"小金井市前原町5-3-24","lat":35.687584,"lon":139.498169},{"name":"小金井ひがし地域包括支援センター","province":"東京都","city":"小金井市","address":"小金井市中町2-15-25","lat":35.697681,"lon":139.517044},{"name":"小金井にし地域包括支援センター","province":"東京都","city":"小金井市","address":"小金井市貫井北町2-5-5","lat":35.705441,"lon":139.496567},{"name":"小金井市消費生活相談室","province":"東京都","city":"小金井市","address":"小金井市本町6-6-3","lat":35.699074,"lon":139.503128},{"name":"小金井市介護福祉課包括支援係","province":"東京都","city":"小金井市","address":"小金井市本町6-6-3","lat":35.699074,"lon":139.503128},{"name":"小金井きた地域包括支援センター","province":"東京都","city":"小金井市","address":"小金井市桜町1-9-5","lat":35.710579,"lon":139.511826},{"name":"小金井みなみ地域包括支援センター","province":"東京都","city":"小金井市","address":"小金井市前原町5-3-24","lat":35.687584,"lon":139.498169},{"name":"小金井ひがし地域包括支援センター","province":"東京都","city":"小金井市","address":"小金井市中町2-15-25","lat":35.697681,"lon":139.517044},{"name":"小金井にし地域包括支援センター","province":"東京都","city":"小金井市","address":"小金井市貫井北町2-5-5","lat":35.705441,"lon":139.496567},{"name":"小金井市消費生活相談室","province":"東京都","city":"小金井市","address":"小金井市本町6-6-3","lat":35.699074,"lon":139.503128},{"name":"小金井市介護福祉課包括支援係","province":"東京都","city":"小金井市","address":"小金井市本町6-6-3","lat":35.699074,"lon":139.503128},{"name":"小金井きた地域包括支援センター","province":"東京都","city":"小金井市","address":"小金井市桜町1-9-5","lat":35.710579,"lon":139.511826},{"name":"小金井みなみ地域包括支援センター","province":"東京都","city":"小金井市","address":"小金井市前原町5-3-24","lat":35.687584,"lon":139.498169},{"name":"小金井ひがし地域包括支援センター","province":"東京都","city":"小金井市","address":"小金井市中町2-15-25","lat":35.697681,"lon":139.517044},{"name":"小金井にし地域包括支援センター","province":"東京都","city":"小金井市","address":"小金井市貫井北町2-5-5","lat":35.705441,"lon":139.496567},{"name":"小金井市消費生活相談室","province":"東京都","city":"小金井市","address":"小金井市本町6-6-3","lat":35.699074,"lon":139.503128},{"name":"小金井市介護福祉課包括支援係","province":"東京都","city":"小金井市","address":"小金井市本町6-6-3","lat":35.699074,"lon":139.503128},{"name":"小金井きた地域包括支援センター","province":"東京都","city":"小金井市","address":"小金井市桜町1-9-5","lat":35.710579,"lon":139.511826},{"name":"小金井みなみ地域包括支援センター","province":"東京都","city":"小金井市","address":"小金井市前原町5-3-24","lat":35.687584,"lon":139.498169},{"name":"小金井ひがし地域包括支援センター","province":"東京都","city":"小金井市","address":"小金井市中町2-15-25","lat":35.697681,"lon":139.517044},{"name":"小金井にし地域包括支援センター","province":"東京都","city":"小金井市","address":"小金井市貫井北町2-5-5","lat":35.705441,"lon":139.496567},{"name":"小金井市消費生活相談室","province":"東京都","city":"小金井市","address":"小金井市本町6-6-3","lat":35.699074,"lon":139.503128},{"name":"小金井市介護福祉課包括支援係","province":"東京都","city":"小金井市","address":"小金井市本町6-6-3","lat":35.699074,"lon":139.503128},{"name":"小金井きた地域包括支援センター","province":"東京都","city":"小金井市","address":"小金井市桜町1-9-5","lat":35.710579,"lon":139.511826},{"name":"小金井みなみ地域包括支援センター","province":"東京都","city":"小金井市","address":"小金井市前原町5-3-24","lat":35.687584,"lon":139.498169},{"name":"小金井ひがし地域包括支援センター","province":"東京都","city":"小金井市","address":"小金井市中町2-15-25","lat":35.697681,"lon":139.517044},{"name":"小金井にし地域包括支援センター","province":"東京都","city":"小金井市","address":"小金井市貫井北町2-5-5","lat":35.705441,"lon":139.496567},{"name":"小金井市消費生活相談室","province":"東京都","city":"小金井市","address":"小金井市本町6-6-3","lat":35.699074,"lon":139.503128},{"name":"小金井市介護福祉課包括支援係","province":"東京都","city":"小金井市","address":"小金井市本町6-6-3","lat":35.699074,"lon":139.503128}]}