{"keyword":"男女","data":[{"name":"けやき保育園","province":"東京都","city":"小金井市","address":"小金井市梶野町1-2-3","lat":35.701987,"lon":139.528755},{"name":"ひなぎく保育園","province":"東京都","city":"小金井市","address":"小金井市梶野町2-7-5","lat":35.705684,"lon":139.52795},{"name":"第二コスモ保育園","province":"東京都","city":"小金井市","address":"小金井市梶野町5-8-20-B","lat":35.704718,"lon":139.525111},{"name":"キッズガーデン東小金井駅前","province":"東京都","city":"小金井市","address":"小金井市梶野町5-11-5","lat":35.702048,"lon":139.527208},{"name":"第六コスモ保育園","province":"東京都","city":"小金井市","address":"小金井市梶野町5-3-25-211","lat":35.702796,"lon":139.524672},{"name":"小金井北プチ・クレイシュ","province":"東京都","city":"小金井市","address":"小金井市緑町4-5-7","lat":35.705706,"lon":139.513406},{"name":"小金井保育園","province":"東京都","city":"小金井市","address":"小金井市本町5-6-19","lat":35.702525,"lon":139.502016},{"name":"しんあい保育園","province":"東京都","city":"小金井市","address":"小金井市本町3-5-9","lat":35.706228,"lon":139.509551},{"name":"アスクむさし小金井保育園","province":"東京都","city":"小金井市","address":"小金井市本町5-19-2","lat":35.702317,"lon":139.505693},{"name":"グローバルキッズ武蔵小金井園","province":"東京都","city":"小金井市","address":"小金井市本町1-19-8","lat":35.70092,"lon":139.50794},{"name":"まなびの森保育園武蔵小金井","province":"東京都","city":"小金井市","address":"小金井市本町3-12-13","lat":35.708417,"lon":139.509568},{"name":"キッズガーデン武蔵小金井","province":"東京都","city":"小金井市","address":"小金井市本町1-19-3","lat":35.700981,"lon":139.507627},{"name":"くりのみ保育園","province":"東京都","city":"小金井市","address":"小金井市東町3-1-16","lat":35.696843,"lon":139.52742},{"name":"こむぎ保育園","province":"東京都","city":"小金井市","address":"小金井市東町4-21-8","lat":35.695771,"lon":139.525484},{"name":"駅前コスモ保育園","province":"東京都","city":"小金井市","address":"小金井市東町4-42-1-206","lat":35.700876,"lon":139.52482},{"name":"ドリームキッズ小金井保育園","province":"東京都","city":"小金井市","address":"小金井市東町3-7-17","lat":35.699463,"lon":139.5291},{"name":"ひまわり保育園","province":"東京都","city":"小金井市","address":"小金井市中町1-5-21","lat":35.694668,"lon":139.511388},{"name":"武蔵小金井雲母保育園","province":"東京都","city":"小金井市","address":"小金井市中町3-26-7","lat":35.701107,"lon":139.515323},{"name":"わかたけ保育園","province":"東京都","city":"小金井市","address":"小金井市前原町3-11-12","lat":35.695851,"lon":139.499683},{"name":"光明第二保育園","province":"東京都","city":"小金井市","address":"小金井市貫井南町1-13-17","lat":35.690241,"lon":139.494798},{"name":"貫井保育園","province":"東京都","city":"小金井市","address":"小金井市貫井南町4-29-21","lat":35.698015,"lon":139.494419},{"name":"さくら保育園","province":"東京都","city":"小金井市","address":"小金井市貫井北町3-30-6","lat":35.711463,"lon":139.497485},{"name":"愛の園保育園","province":"東京都","city":"小金井市","address":"小金井市貫井北町5-8-1","lat":35.701667,"lon":139.488511},{"name":"うぃず武蔵小金井保育園","province":"東京都","city":"小金井市","address":"小金井市貫井北町3-21-5","lat":35.708925,"lon":139.497783},{"name":"桜町病院","province":"東京都","city":"小金井市","address":"小金井市桜町1-2-20","lat":35.709547,"lon":139.511426},{"name":"小金井市児童発達支援センター　きらり","province":"東京都","city":"小金井市","address":"小金井市梶野町1-2-3","lat":35.701987,"lon":139.528755},{"name":"おもちゃ箱上水桜","province":"東京都","city":"小金井市","address":"小金井市桜町2-12-31","lat":35.712219,"lon":139.504571},{"name":"おもちゃ箱なかまち","province":"東京都","city":"小金井市","address":"小金井市中町4-17-13","lat":35.697726,"lon":139.50894},{"name":"木馬の会（小金井おもちゃライブラリー学童クラブ）","province":"東京都","city":"小金井市","address":"小金井市前原町2-14-4","lat":35.692316,"lon":139.511824},{"name":"児童発達センター　びぃぼ","province":"東京都","city":"小金井市","address":"小金井市貫井北町1-6-22","lat":35.701981,"lon":139.494733},{"name":"おもちゃ箱こがねい","province":"東京都","city":"小金井市","address":"小金井市貫井北町一丁目24番9号","lat":35.703103,"lon":139.49745},{"name":"賀川学園","province":"東京都","city":"小金井市","address":"小金井市貫井北町5-8-1","lat":35.701667,"lon":139.488511},{"name":"梶野町第二荘","province":"東京都","city":"小金井市","address":"小金井市梶野町2-16-6","lat":35.709284,"lon":139.529938},{"name":"梶野町荘","province":"東京都","city":"小金井市","address":"小金井市梶野町2-16-7","lat":35.709309,"lon":139.529727},{"name":"小金井荘","province":"東京都","city":"小金井市","address":"小金井市梶野町4-10-23","lat":35.707681,"lon":139.526964},{"name":"東小金井荘","province":"東京都","city":"小金井市","address":"小金井市梶野町4-10-24","lat":35.707853,"lon":139.526775},{"name":"さくら東小金井ハウス","province":"東京都","city":"小金井市","address":"小金井市東町4-20-22","lat":35.695605,"lon":139.525273},{"name":"サンハイツ貫井南","province":"東京都","city":"小金井市","address":"小金井市貫井南町4-14-8","lat":35.695223,"lon":139.494797},{"name":"小金井市保健センター","province":"東京都","city":"小金井市","address":"小金井市貫井北町5-18-18","lat":35.701717,"lon":139.490125},{"name":"梶野町第二荘","province":"東京都","city":"小金井市","address":"小金井市梶野町2-16-6","lat":35.70932,"lon":139.52924},{"name":"梶野町荘","province":"東京都","city":"小金井市","address":"小金井市梶野町2-16-7","lat":35.70932,"lon":139.52924},{"name":"小金井荘","province":"東京都","city":"小金井市","address":"小金井市梶野町4-10-23","lat":35.70747,"lon":139.52699},{"name":"東小金井荘","province":"東京都","city":"小金井市","address":"小金井市梶野町4-10-24","lat":35.70747,"lon":139.52699},{"name":"さくら東小金井ハウス","province":"東京都","city":"小金井市","address":"小金井市東町4-20-22","lat":35.6959,"lon":139.52505},{"name":"サンハイツ貫井南","province":"東京都","city":"小金井市","address":"小金井市貫井南町4-14-8","lat":35.69549,"lon":139.49466},{"name":"江戸東京たてもの園","province":"東京都","city":"小金井市","address":"東京都小金井市桜町3丁目7","lat":35.71584,"lon":139.5122},{"name":"江戸東京たてもの園","province":"東京都","city":"小金井市","address":"東京都小金井市桜町3丁目7","lat":35.71645,"lon":139.5112},{"name":"江戸東京たてもの園","province":"東京都","city":"小金井市","address":"東京都小金井市桜町3丁目7","lat":35.71571,"lon":139.5126},{"name":"江戸東京たてもの園","province":"東京都","city":"小金井市","address":"東京都小金井市桜町3丁目7","lat":35.71598,"lon":139.5109},{"name":"江戸東京たてもの園","province":"東京都","city":"小金井市","address":"東京都小金井市関野町2丁目9","lat":35.71625,"lon":139.5152},{"name":"江戸東京たてもの園","province":"東京都","city":"小金井市","address":"東京都小金井市関野町2丁目9","lat":35.71594,"lon":139.5143},{"name":"武蔵野公園","province":"東京都","city":"小金井市","address":"東京都小金井市中町1丁目14-35","lat":35.694001,"lon":139.516957},{"name":"武蔵野公園","province":"東京都","city":"小金井市","address":"東京都小金井市東町5丁目1","lat":35.688519,"lon":139.521411},{"name":"武蔵野公園","province":"東京都","city":"小金井市","address":"東京都小金井市前原町2丁目1","lat":35.690951,"lon":139.514195},{"name":"野川公園","province":"東京都","city":"小金井市","address":"東京都小金井市東町1丁目6","lat":35.688605,"lon":139.523257},{"name":"小金井公園","province":"東京都","city":"小金井市","address":"東京都小金井市関野町2丁目9","lat":35.717129,"lon":139.516807},{"name":"小金井公園","province":"東京都","city":"小金井市","address":"東京都小金井市桜町3丁目7","lat":35.714969,"lon":139.510253},{"name":"小金井公園","province":"東京都","city":"小金井市","address":"東京都小金井市関野町2丁目9","lat":35.71487,"lon":139.515347},{"name":"小金井公園","province":"東京都","city":"小金井市","address":"東京都小金井市桜町3丁目7","lat":35.715494,"lon":139.511692},{"name":"小金井公園","province":"東京都","city":"小金井市","address":"東京都小金井市関野町1丁目13","lat":35.718358,"lon":139.521955},{"name":"小金井公園","province":"東京都","city":"小金井市","address":"東京都小金井市関野町1丁目13","lat":35.71538,"lon":139.524818},{"name":"小金井公園","province":"東京都","city":"小金井市","address":"東京都小金井市関野町1丁目13","lat":35.716721,"lon":139.523653},{"name":"小金井公園","province":"東京都","city":"小金井市","address":"東京都小金井市関野町1丁目10","lat":35.713988,"lon":139.521454},{"name":"小金井公園","province":"東京都","city":"小金井市","address":"東京都小金井市関野町2丁目9","lat":35.714603,"lon":139.517819},{"name":"小金井公園","province":"東京都","city":"小金井市","address":"東京都小金井市関野町1丁目13","lat":35.71521,"lon":139.518577},{"name":"小金井公園","province":"東京都","city":"小金井市","address":"東京都小金井市関野町2丁目9","lat":35.714994,"lon":139.513656},{"name":"多磨霊園","province":"東京都","city":"小金井市","address":"東京都小金井市前原町1丁目1","lat":35.687557,"lon":139.508714},{"name":"多磨霊園","province":"東京都","city":"小金井市","address":"東京都小金井市前原町1丁目1","lat":35.685991,"lon":139.514179},{"name":"小金井消防署緑町出張所","province":"東京都","city":"小金井市","address":"東京都小金井市緑町2丁目2-42","lat":35.705748,"lon":139.521514},{"name":"小金井市上水公園運動施設","province":"東京都","city":"小金井市","address":"東京都小金井市桜町2丁目2","lat":35.70936,"lon":139.505242},{"name":"小金井市役所本庁舎","province":"東京都","city":"小金井市","address":"東京都小金井市本町6丁目6-3","lat":35.699515,"lon":139.502947},{"name":"小金井市役所第二庁舎","province":"東京都","city":"小金井市","address":"東京都小金井市前原町3丁目41-15","lat":35.698665,"lon":139.504844},{"name":"小金井市役所第二庁舎","province":"東京都","city":"小金井市","address":"東京都小金井市前原町3丁目41-15","lat":35.698649,"lon":139.504958},{"name":"小金井市市民会館（萌え木ホール）","province":"東京都","city":"小金井市","address":"東京都小金井市前原町3丁目33-25","lat":35.698912,"lon":139.502421},{"name":"小金井市東小金井駅記念会館（マロンホール）","province":"東京都","city":"小金井市","address":"東京都小金井市東町3丁目7-21","lat":35.700299,"lon":139.529063},{"name":"小金井市前原暫定集会施設","province":"東京都","city":"小金井市","address":"東京都小金井市前原町3丁目33-27","lat":35.698872,"lon":139.502729},{"name":"小金井市婦人会館","province":"東京都","city":"小金井市","address":"東京都小金井市梶野町5丁目10","lat":35.70495,"lon":139.526602},{"name":"小金井市上之原会館","province":"東京都","city":"小金井市","address":"東京都小金井市本町5丁目6-19","lat":35.702512,"lon":139.501918},{"name":"小金井市前原町西之台会館","province":"東京都","city":"小金井市","address":"東京都小金井市前原町3丁目8-1","lat":35.693947,"lon":139.499528},{"name":"小金井市桜町上水会館","province":"東京都","city":"小金井市","address":"東京都小金井市桜町2丁目8-13","lat":35.710884,"lon":139.504951},{"name":"小金井市貫井南町三楽集会所","province":"東京都","city":"小金井市","address":"東京都小金井市貫井南町3丁目6-18","lat":35.69926,"lon":139.495101},{"name":"小金井市東町友愛会館","province":"東京都","city":"小金井市","address":"東京都小金井市東町4丁目10-2","lat":35.694606,"lon":139.52369},{"name":"小金井市中町桜並集会所","province":"東京都","city":"小金井市","address":"東京都小金井市中町3丁目19-12","lat":35.699903,"lon":139.51327},{"name":"小金井市貫井北五集会所","province":"東京都","city":"小金井市","address":"東京都小金井市貫井北町5丁目16","lat":35.702991,"lon":139.488612},{"name":"小金井市中町天神前集会所","province":"東京都","city":"小金井市","address":"東京都小金井市中町1丁目7-7","lat":35.693511,"lon":139.509979},{"name":"小金井市公民館本館","province":"東京都","city":"小金井市","address":"東京都小金井市本町2丁目15-11","lat":35.70548,"lon":139.510496},{"name":"小金井市公民館貫井南分館","province":"東京都","city":"小金井市","address":"東京都小金井市貫井南町4丁目3-23","lat":35.69371,"lon":139.493641},{"name":"小金井市公民館緑分館","province":"東京都","city":"小金井市","address":"東京都小金井市緑町3丁目3-23","lat":35.70956,"lon":139.516334},{"name":"小金井市公民館東分館","province":"東京都","city":"小金井市","address":"東京都小金井市東町1丁目39-1","lat":35.693968,"lon":139.526726},{"name":"小金井市公民館東分館","province":"東京都","city":"小金井市","address":"東京都小金井市東町1丁目39-1","lat":35.693994,"lon":139.526709},{"name":"小金井市貫井北センター","province":"東京都","city":"小金井市","address":"東京都小金井市貫井北町1丁目11-12","lat":35.702436,"lon":139.497696},{"name":"小金井市貫井北センター","province":"東京都","city":"小金井市","address":"東京都小金井市貫井北町1丁目11","lat":35.702255,"lon":139.498017},{"name":"小金井市保健センター","province":"東京都","city":"小金井市","address":"東京都小金井市貫井北町5丁目18-18","lat":35.701751,"lon":139.490179},{"name":"小金井市立図書館","province":"東京都","city":"小金井市","address":"東京都小金井市本町1丁目1-32","lat":35.697725,"lon":139.510762},{"name":"小金井市立図書館","province":"東京都","city":"小金井市","address":"東京都小金井市本町1丁目1","lat":35.697445,"lon":139.510638},{"name":"小金井市立はけの森美術館","province":"東京都","city":"小金井市","address":"東京都小金井市中町1丁目11-3","lat":35.695104,"lon":139.512679},{"name":"小金井市立はけの森美術館","province":"東京都","city":"小金井市","address":"東京都小金井市中町1丁目11-3","lat":35.695071,"lon":139.512823},{"name":"小金井市立はけの森美術館","province":"東京都","city":"小金井市","address":"東京都小金井市中町1丁目11-3","lat":35.69509,"lon":139.512826},{"name":"小金井市文化財センター","province":"東京都","city":"小金井市","address":"東京都小金井市緑町3丁目2-37","lat":35.710116,"lon":139.516909},{"name":"小金井 宮地楽器ホール","province":"東京都","city":"小金井市","address":"東京都小金井市本町6丁目14-45","lat":35.700247,"lon":139.506312},{"name":"小金井 宮地楽器ホール","province":"東京都","city":"小金井市","address":"東京都小金井市本町6丁目14-45","lat":35.700255,"lon":139.506396},{"name":"小金井 宮地楽器ホール","province":"東京都","city":"小金井市","address":"東京都小金井市本町6丁目14-45","lat":35.700108,"lon":139.50605},{"name":"小金井 宮地楽器ホール","province":"東京都","city":"小金井市","address":"東京都小金井市本町6丁目14-45","lat":35.70033,"lon":139.506173},{"name":"小金井 宮地楽器ホール","province":"東京都","city":"小金井市","address":"東京都小金井市本町6丁目14-45","lat":35.700319,"lon":139.506049},{"name":"小金井市栗山公園健康運動センター","province":"東京都","city":"小金井市","address":"東京都小金井市中町2丁目21-1","lat":35.697849,"lon":139.521296},{"name":"小金井市総合体育館","province":"東京都","city":"小金井市","address":"東京都小金井市関野町1丁目13-1","lat":35.714285,"lon":139.519954},{"name":"小金井市野川クリーンセンター","province":"東京都","city":"小金井市","address":"東京都小金井市東町1丁目7-19","lat":35.68737,"lon":139.522544},{"name":"梶野公園","province":"東京都","city":"小金井市","address":"東京都小金井市梶野町5丁目10","lat":35.702683,"lon":139.5268},{"name":"貫井けやき公園","province":"東京都","city":"小金井市","address":"東京都小金井市貫井南町4丁目14","lat":35.695622,"lon":139.4943},{"name":"浴恩館公園","province":"東京都","city":"小金井市","address":"東京都小金井市緑町3丁目2","lat":35.71047,"lon":139.51768},{"name":"滄浪泉園","province":"東京都","city":"小金井市","address":"東京都小金井市貫井南町3丁目2","lat":35.699103,"lon":139.499041},{"name":"環境配慮住宅型研修施設(楽習館)","province":"東京都","city":"小金井市","address":"東京都小金井市貫井南町3丁目2-16","lat":35.699055,"lon":139.498065},{"name":"武蔵小金井駅南口公衆トイレ","province":"東京都","city":"小金井市","address":"東京都小金井市本町6丁目14","lat":35.700353,"lon":139.506988},{"name":"小金井市本町児童館","province":"東京都","city":"小金井市","address":"東京都小金井市本町5丁目4-25","lat":35.702728,"lon":139.500942},{"name":"小金井市東児童館","province":"東京都","city":"小金井市","address":"東京都小金井市東町4丁目25-7","lat":35.697681,"lon":139.526351},{"name":"小金井市緑児童館","province":"東京都","city":"小金井市","address":"東京都小金井市緑町4丁目18-25","lat":35.709388,"lon":139.518143},{"name":"小金井市障害者福祉センター","province":"東京都","city":"小金井市","address":"東京都小金井市緑町4丁目17-10","lat":35.708714,"lon":139.517419},{"name":"小金井市障害者福祉センター","province":"東京都","city":"小金井市","address":"東京都小金井市緑町4丁目17-10","lat":35.708757,"lon":139.517429},{"name":"小金井市障害者福祉センター","province":"東京都","city":"小金井市","address":"東京都小金井市緑町4丁目17-10","lat":35.708699,"lon":139.5174},{"name":"小金井市立図書館","province":"東京都","city":"小金井市","address":"東京都小金井市本町1丁目1-32","lat":35.697701,"lon":139.510621},{"name":"小金井市立図書館東分室","province":"東京都","city":"小金井市","address":"東京都小金井市東町1丁目39-1","lat":35.694005,"lon":139.526608},{"name":"小金井市立図書館緑分室","province":"東京都","city":"小金井市","address":"東京都小金井市緑","lat":35.709544,"lon":139.516322},{"name":"小金井市立図書館貫井北分室","province":"東京都","city":"小金井市","address":"東京都小金井市貫井北町1丁目-11-12","lat":35.702291,"lon":139.49774},{"name":"小金井市立図書館西之台会館図書室","province":"東京都","city":"小金井市","address":"東京都小金井市前原町3丁目-8-1","lat":35.693879,"lon":139.499573},{"name":"食・学・活きるみんなの居場所また明日","province":"東京都","city":"小金井市","address":"東京都小金井市貫井南町4丁目14-14","lat":35.69595658,"lon":139.49450286},{"name":"子ども食堂ポム","province":"東京都","city":"小金井市","address":"東京都小金井市中町4丁目7-7","lat":35.69475988,"lon":139.50855452},{"name":"小金井公園","province":"東京都","city":"小金井市","address":"東京都小金井市桜町三丁目、関野町一・二丁目、小平市花小金井南町三丁目、西東京市向台六丁目、武蔵野市桜堤三丁目","lat":35.71706,"lon":139.517882},{"name":"武蔵野公園","province":"東京都","city":"小金井市","address":"東京都小金井市前原町二丁目、東町五丁目、中町一丁目、府中市多磨町二・三丁目","lat":35.687906,"lon":139.520496},{"name":"梶野配水所","province":"東京都","city":"小金井市","address":"東京都小金井市梶野町5-10-33","lat":35.7046375,"lon":139.526531},{"name":"小金井公園ハイジ保育園","province":"東京都","city":"小金井市","address":"小金井市関野町2-6-7","lat":35.7142,"lon":139.515},{"name":"けやき保育園","province":"東京都","city":"小金井市","address":"小金井市梶野町1-2-3","lat":35.70198,"lon":139.52858},{"name":"ひなぎく保育園","province":"東京都","city":"小金井市","address":"小金井市梶野町2-7-5","lat":35.70605,"lon":139.52826},{"name":"十八コスモ保育園","province":"東京都","city":"小金井市","address":"小金井市梶野町5-10-29イーストヒルズ小金井1階","lat":35.70354,"lon":139.52632},{"name":"キッズガーデン東小金井駅前","province":"東京都","city":"小金井市","address":"小金井市梶野町5-11-5","lat":35.70428,"lon":139.52461},{"name":"第六コスモ保育園","province":"東京都","city":"小金井市","address":"小金井市梶野町5-3-25-211","lat":35.70242,"lon":139.52475},{"name":"第二コスモ保育園","province":"東京都","city":"小金井市","address":"小金井市梶野町5-8-20-B","lat":35.70428,"lon":139.52461},{"name":"Gakkenほいくえん　東小金井","province":"東京都","city":"小金井市","address":"小金井市緑町1-2-39","lat":35.70198,"lon":139.5199},{"name":"げんきな森保育園","province":"東京都","city":"小金井市","address":"小金井市緑町3-9-21","lat":35.70986,"lon":139.51285},{"name":"小金井北プチ・クレイシュ","province":"東京都","city":"小金井市","address":"小金井市緑町4-5-7","lat":35.7061,"lon":139.51375},{"name":"アンジェリカ東小金井保育園","province":"東京都","city":"小金井市","address":"小金井市緑町五丁目16番7","lat":35.70398,"lon":139.51642},{"name":"キッズガーデン武蔵小金井","province":"東京都","city":"小金井市","address":"小金井市本町1-19-3","lat":35.70094,"lon":139.50838},{"name":"グローバルキッズ武蔵小金井園","province":"東京都","city":"小金井市","address":"小金井市本町1-19-8","lat":35.70094,"lon":139.50838},{"name":"にじいろ保育園武蔵小金井","province":"東京都","city":"小金井市","address":"小金井市本町2-1-15","lat":35.70124,"lon":139.50832},{"name":"グローバルキッズ小金井第二保育園","province":"東京都","city":"小金井市","address":"小金井市本町2-8-17","lat":35.70314,"lon":139.50885},{"name":"まなびの森保育園武蔵小金井","province":"東京都","city":"小金井市","address":"小金井市本町3-12-13","lat":35.70827,"lon":139.50945},{"name":"しんあいのぞみ保育園","province":"東京都","city":"小金井市","address":"小金井市本町3-5-3","lat":35.70649,"lon":139.50981},{"name":"しんあい保育園","province":"東京都","city":"小金井市","address":"小金井市本町3-5-9","lat":35.70649,"lon":139.50981},{"name":"武蔵小金井えほん保育園","province":"東京都","city":"小金井市","address":"小金井市本町4-19-23","lat":35.70798,"lon":139.50504},{"name":"ヴィラまなびの森保育園武蔵小金井","province":"東京都","city":"小金井市","address":"小金井市本町4-20-21","lat":35.70886,"lon":139.50313},{"name":"アスクむさし小金井保育園","province":"東京都","city":"小金井市","address":"小金井市本町5-19-2","lat":35.70308,"lon":139.50581},{"name":"小金井保育園","province":"東京都","city":"小金井市","address":"小金井市本町5-6-19","lat":35.70232,"lon":139.50172},{"name":"アスク武蔵小金井南口保育園","province":"東京都","city":"小金井市","address":"小金井市本町六丁目9番41号","lat":35.6999,"lon":139.50195},{"name":"キッズガーデン小金井桜町","province":"東京都","city":"小金井市","address":"小金井市桜町2-1-6","lat":35.71019,"lon":139.50656},{"name":"上水ハイジ保育園","province":"東京都","city":"小金井市","address":"小金井市桜町3-4-8","lat":35.71285,"lon":139.51062},{"name":"くりのみ保育園","province":"東京都","city":"小金井市","address":"小金井市東町3-1-16","lat":35.69736,"lon":139.52779},{"name":"ドリームキッズ小金井保育園","province":"東京都","city":"小金井市","address":"小金井市東町3-7-17","lat":35.69954,"lon":139.52911},{"name":"第十コスモ保育園","province":"東京都","city":"小金井市","address":"小金井市東町4-10-9","lat":35.69493,"lon":139.52373},{"name":"こむぎ保育園","province":"東京都","city":"小金井市","address":"小金井市東町4-21-8","lat":35.69548,"lon":139.52559},{"name":"駅前コスモ保育園","province":"東京都","city":"小金井市","address":"小金井市東町4-42-1-206","lat":35.70107,"lon":139.52402},{"name":"ひまわり保育園","province":"東京都","city":"小金井市","address":"小金井市中町1-5-21","lat":35.69454,"lon":139.51208},{"name":"キッズガーデン新小金井","province":"東京都","city":"小金井市","address":"小金井市中町2-9-10メゾンブランシュ1階","lat":35.69513,"lon":139.51697},{"name":"武蔵小金井雲母保育園","province":"東京都","city":"小金井市","address":"小金井市中町3-26-7","lat":35.701,"lon":139.51546},{"name":"キッズガーデン小金井中町","province":"東京都","city":"小金井市","address":"小金井市中町三丁目5番16号","lat":35.69721,"lon":139.51219},{"name":"わかたけ保育園","province":"東京都","city":"小金井市","address":"小金井市前原町3-11-12","lat":35.69547,"lon":139.4998},{"name":"東京工学院きしゃぽっぽ保育園","province":"東京都","city":"小金井市","address":"小金井市前原町5-1-29(東京工学院専門学校内)","lat":35.68575,"lon":139.49826},{"name":"二十コスモ保育園","province":"東京都","city":"小金井市","address":"小金井市前原町三丁目41番24号ビュークレスト小金井2F","lat":35.69864,"lon":139.505},{"name":"光明第二保育園","province":"東京都","city":"小金井市","address":"小金井市貫井南町1-13-17","lat":35.68982,"lon":139.49467},{"name":"貫井保育園","province":"東京都","city":"小金井市","address":"小金井市貫井南町4-29-21","lat":35.69776,"lon":139.49522},{"name":"貫井あおいそら保育園","province":"東京都","city":"小金井市","address":"小金井市貫井南町4-29-22","lat":35.69776,"lon":139.49522},{"name":"小金井なないろ保育園","province":"東京都","city":"小金井市","address":"小金井市貫井北町2-2-22","lat":35.70428,"lon":139.49905},{"name":"うぃず武蔵小金井保育園","province":"東京都","city":"小金井市","address":"小金井市貫井北町3-21-5","lat":35.70903,"lon":139.49805},{"name":"さくら保育園","province":"東京都","city":"小金井市","address":"小金井市貫井北町3-30-6","lat":35.71146,"lon":139.49672},{"name":"愛の園保育園","province":"東京都","city":"小金井市","address":"小金井市貫井北町5-8-1","lat":35.70157,"lon":139.48836},{"name":"桜町病院","province":"東京都","city":"小金井市","address":"小金井市桜町1-2-20","lat":35.70885,"lon":139.51196},{"name":"梶野町第２荘","province":"東京都","city":"小金井市","address":"小金井市梶野町2-16-6","lat":35.70932,"lon":139.52924},{"name":"梶野町第３荘","province":"東京都","city":"小金井市","address":"小金井市梶野町2-16-9","lat":35.70932,"lon":139.52924},{"name":"サンハイツ貫井南２","province":"東京都","city":"小金井市","address":"小金井市貫井南町4-14-8","lat":35.69549,"lon":139.49466},{"name":"小金井市","province":"東京都","city":"小金井市","address":"小金井市本町6-6-3","lat":35.69934,"lon":139.50313},{"name":"武蔵小金井南第３自転車駐車場","province":"東京都","city":"小金井市","address":"東京都小金井市本町6丁目5-3","lat":35.69924258,"lon":139.50395749},{"name":"武蔵小金井南第７自転車駐車場","province":"東京都","city":"小金井市","address":"東京都小金井市本町6丁目14-45","lat":35.7001731,"lon":139.50662947},{"name":"武蔵小金井北第５自転車駐車場","province":"東京都","city":"小金井市","address":"東京都小金井市本町2丁目1","lat":35.70122579,"lon":139.50750712},{"name":"東小金井駅西側高架下自転車駐車場（Ａ）","province":"東京都","city":"小金井市","address":"東京都小金井市緑町1丁目1","lat":35.70212886,"lon":139.52142262},{"name":"東小金井駅西側高架下自転車駐車場（Ｂ）","province":"東京都","city":"小金井市","address":"東京都小金井市緑町1丁目2","lat":35.70237879,"lon":139.5200505},{"name":"新小金井西第１自転車駐車場","province":"東京都","city":"小金井市","address":"東京都小金井市東町4丁目24","lat":35.69555191,"lon":139.52606416},{"name":"東小金井北第１自転車駐車場","province":"東京都","city":"小金井市","address":"東京都小金井市梶野町5丁目2","lat":35.70192613,"lon":139.52254753},{"name":"東小金井駅前第一駐輪場","province":"東京都","city":"小金井市","address":"東京都小金井市梶野町5丁目1-1","lat":35.70159565,"lon":139.52426962},{"name":"東小金井駅前第二駐輪場","province":"東京都","city":"小金井市","address":"東京都小金井市緑町1丁目2","lat":35.70237879,"lon":139.5200505},{"name":"キッズガーデン東小金井駅前","province":"東京都","city":"小金井市","address":"小金井市梶野町5-11-5","lat":35.70314,"lon":139.5271},{"name":"アスク武蔵小金井北口保育園","province":"東京都","city":"小金井市","address":"小金井市本町5-19-2","lat":35.70308,"lon":139.50581},{"name":"小金井きた地域包括支援センター","province":"東京都","city":"小金井市","address":"小金井市桜町1-9-5","lat":35.710579,"lon":139.511826},{"name":"小金井みなみ地域包括支援センター","province":"東京都","city":"小金井市","address":"小金井市前原町5-3-24","lat":35.687584,"lon":139.498169},{"name":"小金井ひがし地域包括支援センター","province":"東京都","city":"小金井市","address":"小金井市中町2-15-25","lat":35.697681,"lon":139.517044},{"name":"小金井にし地域包括支援センター","province":"東京都","city":"小金井市","address":"小金井市貫井北町2-5-5","lat":35.705441,"lon":139.496567},{"name":"小金井市消費生活相談室","province":"東京都","city":"小金井市","address":"小金井市本町6-6-3","lat":35.699074,"lon":139.503128},{"name":"小金井市介護福祉課包括支援係","province":"東京都","city":"小金井市","address":"小金井市本町6-6-3","lat":35.699074,"lon":139.503128},{"name":"小金井市障害者福祉センター小金井市障害者地域自立生活支援センター","province":"東京都","city":"小金井市","address":"東京都小金井市緑町4丁目17-10","lat":35.70867803,"lon":139.51739213},{"name":"合同会社セルフクリエイトデイステーション涼風","province":"東京都","city":"小金井市","address":"東京都小金井市中町1丁目7-34","lat":35.69364894,"lon":139.51066828},{"name":"ワークセンター「あい」","province":"東京都","city":"小金井市","address":"東京都小金井市東町4丁目17-1","lat":35.69549633,"lon":139.52457261},{"name":"手作り工房「みらい」","province":"東京都","city":"小金井市","address":"東京都小金井市東町4丁目20-3","lat":35.69546024,"lon":139.52496703},{"name":"一般社団法人にこにこにこにこファクトリー","province":"東京都","city":"小金井市","address":"東京都小金井市本町1丁目14-15","lat":35.70017043,"lon":139.50992086},{"name":"ココファン・ナーサリー東小金井","province":"東京都","city":"小金井市","address":"小金井市緑町1-2-39","lat":35.70198,"lon":139.5199},{"name":"ひなぎく保育園","province":"東京都","city":"小金井市","address":"小金井市梶野町2-7-5","lat":35.70606,"lon":139.52826},{"name":"十八コスモ保育園","province":"東京都","city":"小金井市","address":"小金井市梶野町5-10-29イーストヒルズ小金井1階","lat":35.70355,"lon":139.52632},{"name":"まなびの森保育園武蔵小金井","province":"東京都","city":"小金井市","address":"小金井市本町3-12-13","lat":35.70828,"lon":139.50945},{"name":"くりのみ保育園","province":"東京都","city":"小金井市","address":"小金井市東町3-1-16","lat":35.69737,"lon":139.52779},{"name":"ひまわり保育園","province":"東京都","city":"小金井市","address":"小金井市中町1-5-21","lat":35.69454,"lon":139.51209},{"name":"光明第二保育園","province":"東京都","city":"小金井市","address":"小金井市貫井南町1-13-17","lat":35.68982,"lon":139.49468},{"name":"小金井なないろ保育園","province":"東京都","city":"小金井市","address":"小金井市貫井北町2-2-22","lat":35.70429,"lon":139.49905},{"name":"さくら東小金井ハウス","province":"東京都","city":"小金井市","address":"小金井市東町4-20-22","lat":35.6959,"lon":139.52506},{"name":"サンハイツ貫井南2","province":"東京都","city":"小金井市","address":"小金井市貫井南町4-14-8","lat":35.69549,"lon":139.49466},{"name":"第六コスモ保育園","province":"東京都","city":"小金井市","address":"小金井市梶野町5-3-25-211","lat":35.7112,"lon":139.52663},{"name":"小金井保育園","province":"東京都","city":"小金井市","address":"小金井市本町5-6-19","lat":35.69989,"lon":139.50316},{"name":"前原坂上","province":"東京都","city":"小金井市","address":"東京都小金井市前原町3丁目41-24","lat":35.6986316,"lon":139.50591292},{"name":"小金井本町二丁目","province":"東京都","city":"小金井市","address":"東京都小金井市本町4丁目1-38","lat":35.70565307,"lon":139.50749306},{"name":"小金井第一小学校前第一","province":"東京都","city":"小金井市","address":"東京都小金井市中町1丁目9-19","lat":35.6972291,"lon":139.51038483},{"name":"貫井北町学芸大角","province":"東京都","city":"小金井市","address":"東京都小金井市貫井北町2丁目18-6","lat":35.70764141,"lon":139.4961078},{"name":"武蔵小金井駅北口","province":"東京都","city":"小金井市","address":"東京都小金井市本町5丁目1","lat":35.70118684,"lon":139.5051351},{"name":"小金井中町三丁目","province":"東京都","city":"小金井市","address":"東京都小金井市本町1丁目13-3","lat":35.69889837,"lon":139.51099305},{"name":"小金井市保健センター前","province":"東京都","city":"小金井市","address":"東京都小金井市貫井北町5丁目18-18","lat":35.70169192,"lon":139.49017242},{"name":"学芸大東門前","province":"東京都","city":"小金井市","address":"東京都小金井市貫井北町2丁目4-16","lat":35.70494728,"lon":139.49679119},{"name":"小金井郵便局前","province":"東京都","city":"小金井市","address":"東京都小金井市本町5丁目37-30","lat":35.70514197,"lon":139.50575434},{"name":"小金井消防署前","province":"東京都","city":"小金井市","address":"東京都小金井市本町6丁目6-1","lat":35.69930923,"lon":139.50345476},{"name":"貫井南町五丁目","province":"東京都","city":"小金井市","address":"東京都小金井市貫井南町4丁目1","lat":35.69376794,"lon":139.49453073},{"name":"小金井第一小学校前第二","province":"東京都","city":"小金井市","address":"東京都小金井市中町1丁目9-21","lat":35.69712911,"lon":139.51062092},{"name":"栗山公園前","province":"東京都","city":"小金井市","address":"東京都小金井市中町2丁目21","lat":35.69846815,"lon":139.52146721},{"name":"公園駐車場入口","province":"東京都","city":"小金井市","address":"東京都小金井市関野町1丁目7","lat":35.71356918,"lon":139.51856958},{"name":"小金井商工会館前","province":"東京都","city":"小金井市","address":"東京都小金井市本町5丁目9","lat":35.70193395,"lon":139.50385184},{"name":"市立南中学校前","province":"東京都","city":"小金井市","address":"東京都小金井市貫井南町1丁目24-1","lat":35.69076836,"lon":139.49776947},{"name":"小金井福祉会館前","province":"東京都","city":"小金井市","address":"東京都小金井市中町4丁目15-14","lat":35.69811781,"lon":139.50769057},{"name":"小金井本町二丁目南","province":"東京都","city":"小金井市","address":"東京都小金井市本町2丁目6-12","lat":35.70363109,"lon":139.50777923},{"name":"小金井本町五丁目","province":"東京都","city":"小金井市","address":"東京都小金井市本町5丁目13-1","lat":35.70211735,"lon":139.5070238},{"name":"農工大通り入口","province":"東京都","city":"小金井市","address":"東京都小金井市本町6丁目14-45","lat":35.7001731,"lon":139.50662947},{"name":"小金井公園西門","province":"東京都","city":"小金井市","address":"東京都小金井市桜町3丁目7","lat":35.71347722,"lon":139.50841486},{"name":"小金井東小学校前","province":"東京都","city":"小金井市","address":"東京都小金井市東町4丁目25-7","lat":35.69766002,"lon":139.5262946},{"name":"武蔵小金井駅北第二","province":"東京都","city":"小金井市","address":"東京都小金井市本町5丁目1","lat":35.70118684,"lon":139.5051351},{"name":"小金井市役所","province":"東京都","city":"小金井市","address":"東京都小金井市本町6丁目2","lat":35.69969535,"lon":139.5055018},{"name":"学芸大北門前","province":"東京都","city":"小金井市","address":"東京都小金井市貫井北町3丁目9-6","lat":35.70835512,"lon":139.49218866},{"name":"栗山公園北","province":"東京都","city":"小金井市","address":"東京都小金井市中町2丁目22-32","lat":35.69972913,"lon":139.52174491},{"name":"武蔵小金井駅南口","province":"東京都","city":"小金井市","address":"東京都小金井市本町1丁目18-10","lat":35.70068419,"lon":139.50759048},{"name":"武蔵小金井駅北口東","province":"東京都","city":"小金井市","address":"東京都小金井市本町5丁目12","lat":35.70177847,"lon":139.5061711},{"name":"前原交番東","province":"東京都","city":"小金井市","address":"東京都小金井市前原町4丁目10-11","lat":35.68921588,"lon":139.50260523},{"name":"梶野浄水所","province":"東京都","city":"小金井市","address":"東京都小金井市梶野町5丁目10-33","lat":35.70463703,"lon":139.52653041},{"name":"都立小金井公園","province":"東京都","city":"小金井市","address":"東京都小金井市関野町1丁目","lat":35.71343867,"lon":139.51977227},{"name":"たまむし学童保育所","province":"東京都","city":"小金井市","address":"東京都小金井市東町4丁目25-7","lat":35.69766002,"lon":139.5262946},{"name":"あかね学童保育所","province":"東京都","city":"小金井市","address":"東京都小金井市梶野町5丁目7-33","lat":35.70469252,"lon":139.52384453},{"name":"ほんちょう学童保育所","province":"東京都","city":"小金井市","address":"東京都小金井市本町5丁目4-25","lat":35.70266989,"lon":139.50094372},{"name":"さくらなみ学童保育所","province":"東京都","city":"小金井市","address":"東京都小金井市本町1丁目2-13","lat":35.6987817,"lon":139.51032644},{"name":"さわらび学童保育所","province":"東京都","city":"小金井市","address":"東京都小金井市貫井南町3丁目6-27","lat":35.6997534,"lon":139.49581649},{"name":"たけとんぼ学童保育所","province":"東京都","city":"小金井市","address":"東京都小金井市桜町2丁目3-60","lat":35.70955537,"lon":139.50584303},{"name":"まえはら学童保育所","province":"東京都","city":"小金井市","address":"東京都小金井市前原町3丁目3-16","lat":35.69405146,"lon":139.50281614},{"name":"みどり学童保育所","province":"東京都","city":"小金井市","address":"東京都小金井市緑町4丁目18-25","lat":35.70939186,"lon":139.51806427},{"name":"みなみ学童保育所","province":"東京都","city":"小金井市","address":"東京都小金井市前原町2丁目2-21","lat":35.69216031,"lon":139.51400417},{"name":"本町児童館","province":"東京都","city":"小金井市","address":"東京都小金井市本町5丁目4-25","lat":35.70266989,"lon":139.50094372},{"name":"東児童館","province":"東京都","city":"小金井市","address":"東京都小金井市東町4丁目25-7","lat":35.69766002,"lon":139.5262946},{"name":"貫井南児童館","province":"東京都","city":"小金井市","address":"東京都小金井市貫井南町4丁目3-23","lat":35.69362626,"lon":139.49361692},{"name":"緑児童館","province":"東京都","city":"小金井市","address":"東京都小金井市緑町4丁目18-25","lat":35.70939186,"lon":139.51806427},{"name":"小金井プチ・クレイシュ","province":"東京都","city":"小金井市","address":"東京都小金井市本町1丁目8-14","lat":35.69950376,"lon":139.50749608},{"name":"にじいろ保育園武蔵小金井","province":"東京都","city":"小金井市","address":"東京都小金井市本町6丁目14-45","lat":35.7001731,"lon":139.50662947},{"name":"回帰船保育所","province":"東京都","city":"小金井市","address":"東京都小金井市中町2丁目24-16","lat":35.69981236,"lon":139.51858961},{"name":"東京学芸大　学芸の森保育園","province":"東京都","city":"小金井市","address":"東京都小金井市貫井北町4丁目1-1","lat":35.7051444,"lon":139.49334425},{"name":"ココファン・ナーサリー東小金井","province":"東京都","city":"小金井市","address":"東京都小金井市緑町1丁目2-39","lat":35.70142609,"lon":139.51924227},{"name":"こどもの家保育園","province":"東京都","city":"小金井市","address":"東京都小金井市貫井南町4丁目20-31","lat":35.69679813,"lon":139.4938501},{"name":"どろんこ保育所","province":"東京都","city":"小金井市","address":"東京都小金井市本町3丁目12-30","lat":35.70830006,"lon":139.50971498},{"name":"瀧川　依子","province":"東京都","city":"小金井市","address":"東京都小金井市東町2丁目22-25","lat":35.69676306,"lon":139.53358291},{"name":"加藤　文乃","province":"東京都","city":"小金井市","address":"東京都小金井市貫井南町3丁目6-24","lat":35.69991726,"lon":139.49524153},{"name":"小針　紀子","province":"東京都","city":"小金井市","address":"東京都小金井市緑町5丁目15-20","lat":35.7028009,"lon":139.51775067},{"name":"平島　るみ子","province":"東京都","city":"小金井市","address":"東京都小金井市本町2丁目13-3","lat":35.70360894,"lon":139.51021514},{"name":"くるみ保育室","province":"東京都","city":"小金井市","address":"東京都小金井市梶野町4丁目20-3","lat":35.70821719,"lon":139.52651915},{"name":"ぬくいのもりほいくえん","province":"東京都","city":"小金井市","address":"東京都小金井市貫井北町3丁目4-8","lat":35.70743038,"lon":139.49780767},{"name":"プリンセスプリンス保育園小金井","province":"東京都","city":"小金井市","address":"東京都小金井市前原町3丁目18-20","lat":35.69532084,"lon":139.50532421},{"name":"市民会館 （萌え木ホール）","province":"東京都","city":"小金井市","address":"東京都小金井市前原町3丁目33-25","lat":35.69893146,"lon":139.5024743},{"name":"東小金井駅開設記念会館（マロンホール）","province":"東京都","city":"小金井市","address":"東京都小金井市東町3丁目7-21","lat":35.70026535,"lon":139.52904704},{"name":"前原暫定集会施設","province":"東京都","city":"小金井市","address":"東京都小金井市前原町3丁目33-27","lat":35.69891202,"lon":139.50262151},{"name":"婦人会館","province":"東京都","city":"小金井市","address":"東京都小金井市梶野町5丁目10-32","lat":35.70495366,"lon":139.5264804},{"name":"上之原会館","province":"東京都","city":"小金井市","address":"東京都小金井市本町5丁目6-19","lat":35.70252549,"lon":139.50201586},{"name":"前原町西之台会館","province":"東京都","city":"小金井市","address":"東京都小金井市前原町3丁目8-1","lat":35.69391528,"lon":139.49958585},{"name":"桜町上水会館","province":"東京都","city":"小金井市","address":"東京都小金井市桜町2丁目8-13","lat":35.71088575,"lon":139.50495693},{"name":"貫井北町集会場","province":"東京都","city":"小金井市","address":"東京都小金井市貫井北町3丁目31-17","lat":35.71155208,"lon":139.49595488},{"name":"貫井北町中之久保集会所","province":"東京都","city":"小金井市","address":"東京都小金井市貫井北町1丁目18-21","lat":35.70261971,"lon":139.49436649},{"name":"前原町丸山台集会所","province":"東京都","city":"小金井市","address":"東京都小金井市前原町4丁目18-14","lat":35.6905852,"lon":139.50343011},{"name":"貫井南町三楽集会所","province":"東京都","city":"小金井市","address":"東京都小金井市貫井南町3丁目6-18","lat":35.69950063,"lon":139.49511933},{"name":"東町友愛会館","province":"東京都","city":"小金井市","address":"東京都小金井市東町4丁目10-2","lat":35.69457696,"lon":139.52368384},{"name":"中町桜並集会所","province":"東京都","city":"小金井市","address":"東京都小金井市中町3丁目19-12","lat":35.70013995,"lon":139.51267897},{"name":"貫井北五集会所","province":"東京都","city":"小金井市","address":"東京都小金井市貫井北町5丁目16-13","lat":35.70290563,"lon":139.48851974},{"name":"中町天神前集会所","province":"東京都","city":"小金井市","address":"東京都小金井市中町1丁目7-7","lat":35.69348506,"lon":139.50991835},{"name":"東町集会所(東ｾﾝﾀｰ内)","province":"東京都","city":"小金井市","address":"東京都小金井市東町1丁目39-1","lat":35.69401043,"lon":139.52652529},{"name":"＊?小金井市文化財センター","province":"東京都","city":"小金井市","address":"小金井市緑町3-2-37","lat":35.710144,"lon":139.517044},{"name":"(株)伊藤国商店","province":"東京都","city":"小金井市","address":"小金井市中町1-14-41","lat":35.693977,"lon":139.517075},{"name":"小金井市","province":"東京都","city":"小金井市","address":"小金井市本町6-6-3","lat":35.699479,"lon":139.502988},{"name":"小金井市総合体育館","province":"東京都","city":"小金井市","address":"東京都小金井市関野町1丁目13-1","lat":35.7142719,"lon":139.51990554},{"name":"栗山公園健康運動センター","province":"東京都","city":"小金井市","address":"東京都小金井市中町2丁目21-1","lat":35.69786265,"lon":139.52130058},{"name":"公民館貫井北分館","province":"東京都","city":"小金井市","address":"東京都小金井市貫井北町1丁目11-12","lat":35.7023476,"lon":139.49763845},{"name":"小金井 宮地楽器ホール","province":"東京都","city":"小金井市","address":"東京都小金井市本町6丁目14-45","lat":35.7001731,"lon":139.50662947},{"name":"前原町西之台会館","province":"東京都","city":"小金井市","address":"東京都小金井市前原町3丁目8-1","lat":35.69391528,"lon":139.49958585},{"name":"江戸東京たてもの園","province":"東京都","city":"小金井市","address":"東京都小金井市桜町3丁目7-1","lat":35.71581318,"lon":139.51259218},{"name":"小金井北高等学校","province":"東京都","city":"小金井市","address":"東京都小金井市緑町4丁目1-1","lat":35.70524506,"lon":139.51681454},{"name":"多摩科学技術高等学校","province":"東京都","city":"小金井市","address":"東京都小金井市本町6丁目8-9","lat":35.70040901,"lon":139.50024664},{"name":"小金井市役所第２駐車場","province":"東京都","city":"小金井市","address":"東京都小金井市前原町3丁目41-15","lat":35.69855935,"lon":139.50482412},{"name":"小金井市本庁舎","province":"東京都","city":"小金井市","address":"小金井市本町6-6-3","lat":35.699479,"lon":139.502989},{"name":"小金井警察署","province":"東京都","city":"小金井市","address":"小金井市貫井南町3-21-3","lat":35.69993,"lon":139.4982},{"name":"小金井消防署","province":"東京都","city":"小金井市","address":"小金井市本町6-6-1","lat":35.69931,"lon":139.5035},{"name":"都立小金井公園","province":"東京都","city":"小金井市","address":"小金井市関野町1-2","lat":35.71295,"lon":139.5233},{"name":"都立小金井公園","province":"東京都","city":"小金井市","address":"小金井市関野町1","lat":35.71348,"lon":139.5196},{"name":"桜町病院","province":"東京都","city":"小金井市","address":"小金井市桜町1-2-20","lat":35.709547,"lon":139.511426},{"name":"小金井市児童発達支援センター　きらり","province":"東京都","city":"小金井市","address":"小金井市梶野町1-2-3","lat":35.701987,"lon":139.528755},{"name":"おもちゃ箱上水桜","province":"東京都","city":"小金井市","address":"小金井市桜町2-12-31","lat":35.712219,"lon":139.504571},{"name":"おもちゃ箱なかまち","province":"東京都","city":"小金井市","address":"小金井市中町4-17-13","lat":35.697726,"lon":139.50894},{"name":"木馬の会（小金井おもちゃライブラリー学童クラブ）","province":"東京都","city":"小金井市","address":"小金井市前原町2-14-4","lat":35.692316,"lon":139.511824},{"name":"児童発達センター　びぃぼ","province":"東京都","city":"小金井市","address":"小金井市貫井北町1-6-22","lat":35.701981,"lon":139.494733},{"name":"おもちゃ箱こがねい","province":"東京都","city":"小金井市","address":"小金井市貫井北町一丁目24番9号","lat":35.703103,"lon":139.49745},{"name":"梶野町第二荘","province":"東京都","city":"小金井市","address":"小金井市梶野町2-16-6","lat":35.709284,"lon":139.529938},{"name":"梶野町荘","province":"東京都","city":"小金井市","address":"小金井市梶野町2-16-7","lat":35.709309,"lon":139.529727},{"name":"小金井荘","province":"東京都","city":"小金井市","address":"小金井市梶野町4-10-23","lat":35.707681,"lon":139.526964},{"name":"東小金井荘","province":"東京都","city":"小金井市","address":"小金井市梶野町4-10-24","lat":35.707853,"lon":139.526775},{"name":"さくら東小金井ハウス","province":"東京都","city":"小金井市","address":"小金井市東町4-20-22","lat":35.695605,"lon":139.525273},{"name":"サンハイツ貫井南","province":"東京都","city":"小金井市","address":"小金井市貫井南町4-14-8","lat":35.695223,"lon":139.494797},{"name":"梶野町第二荘","province":"東京都","city":"小金井市","address":"小金井市梶野町2-16-6","lat":35.70932,"lon":139.52924},{"name":"梶野町荘","province":"東京都","city":"小金井市","address":"小金井市梶野町2-16-7","lat":35.70932,"lon":139.52924},{"name":"小金井荘","province":"東京都","city":"小金井市","address":"小金井市梶野町4-10-23","lat":35.70747,"lon":139.52699},{"name":"東小金井荘","province":"東京都","city":"小金井市","address":"小金井市梶野町4-10-24","lat":35.70747,"lon":139.52699},{"name":"さくら東小金井ハウス","province":"東京都","city":"小金井市","address":"小金井市東町4-20-22","lat":35.6959,"lon":139.52505},{"name":"サンハイツ貫井南","province":"東京都","city":"小金井市","address":"小金井市貫井南町4-14-8","lat":35.69549,"lon":139.49466},{"name":"小金井市立図書館","province":"東京都","city":"小金井市","address":"東京都小金井市本町1丁目1-32","lat":35.697701,"lon":139.510621},{"name":"小金井市立図書館東分室","province":"東京都","city":"小金井市","address":"東京都小金井市東町1丁目39-1","lat":35.694005,"lon":139.526608},{"name":"小金井市立図書館緑分室","province":"東京都","city":"小金井市","address":"東京都小金井市緑","lat":35.709544,"lon":139.516322},{"name":"小金井市立図書館貫井北分室","province":"東京都","city":"小金井市","address":"東京都小金井市貫井北町1丁目-11-12","lat":35.702291,"lon":139.49774},{"name":"小金井市立図書館西之台会館図書室","province":"東京都","city":"小金井市","address":"東京都小金井市前原町3丁目-8-1","lat":35.693879,"lon":139.499573},{"name":"食・学・活きるみんなの居場所また明日","province":"東京都","city":"小金井市","address":"東京都小金井市貫井南町4丁目14-14","lat":35.69595658,"lon":139.49450286},{"name":"子ども食堂ポム","province":"東京都","city":"小金井市","address":"東京都小金井市中町4丁目7-7","lat":35.69475988,"lon":139.50855452},{"name":"小金井公園","province":"東京都","city":"小金井市","address":"東京都小金井市桜町三丁目、関野町一・二丁目、小平市花小金井南町三丁目、西東京市向台六丁目、武蔵野市桜堤三丁目","lat":35.71706,"lon":139.517882},{"name":"武蔵野公園","province":"東京都","city":"小金井市","address":"東京都小金井市前原町二丁目、東町五丁目、中町一丁目、府中市多磨町二・三丁目","lat":35.687906,"lon":139.520496},{"name":"梶野配水所","province":"東京都","city":"小金井市","address":"東京都小金井市梶野町5-10-33","lat":35.7046375,"lon":139.526531},{"name":"桜町病院","province":"東京都","city":"小金井市","address":"小金井市桜町1-2-20","lat":35.70885,"lon":139.51196},{"name":"梶野町第２荘","province":"東京都","city":"小金井市","address":"小金井市梶野町2-16-6","lat":35.70932,"lon":139.52924},{"name":"梶野町第３荘","province":"東京都","city":"小金井市","address":"小金井市梶野町2-16-9","lat":35.70932,"lon":139.52924},{"name":"サンハイツ貫井南２","province":"東京都","city":"小金井市","address":"小金井市貫井南町4-14-8","lat":35.69549,"lon":139.49466},{"name":"小金井市","province":"東京都","city":"小金井市","address":"小金井市本町6-6-3","lat":35.69934,"lon":139.50313},{"name":"武蔵小金井南第３自転車駐車場","province":"東京都","city":"小金井市","address":"東京都小金井市本町6丁目5-3","lat":35.69924258,"lon":139.50395749},{"name":"武蔵小金井南第７自転車駐車場","province":"東京都","city":"小金井市","address":"東京都小金井市本町6丁目14-45","lat":35.7001731,"lon":139.50662947},{"name":"武蔵小金井北第５自転車駐車場","province":"東京都","city":"小金井市","address":"東京都小金井市本町2丁目1","lat":35.70122579,"lon":139.50750712},{"name":"東小金井駅西側高架下自転車駐車場（Ａ）","province":"東京都","city":"小金井市","address":"東京都小金井市緑町1丁目1","lat":35.70212886,"lon":139.52142262},{"name":"東小金井駅西側高架下自転車駐車場（Ｂ）","province":"東京都","city":"小金井市","address":"東京都小金井市緑町1丁目2","lat":35.70237879,"lon":139.5200505},{"name":"新小金井西第１自転車駐車場","province":"東京都","city":"小金井市","address":"東京都小金井市東町4丁目24","lat":35.69555191,"lon":139.52606416},{"name":"東小金井北第１自転車駐車場","province":"東京都","city":"小金井市","address":"東京都小金井市梶野町5丁目2","lat":35.70192613,"lon":139.52254753},{"name":"東小金井駅前第一駐輪場","province":"東京都","city":"小金井市","address":"東京都小金井市梶野町5丁目1-1","lat":35.70159565,"lon":139.52426962},{"name":"東小金井駅前第二駐輪場","province":"東京都","city":"小金井市","address":"東京都小金井市緑町1丁目2","lat":35.70237879,"lon":139.5200505},{"name":"小金井きた地域包括支援センター","province":"東京都","city":"小金井市","address":"小金井市桜町1-9-5","lat":35.710579,"lon":139.511826},{"name":"小金井みなみ地域包括支援センター","province":"東京都","city":"小金井市","address":"小金井市前原町5-3-24","lat":35.687584,"lon":139.498169},{"name":"小金井ひがし地域包括支援センター","province":"東京都","city":"小金井市","address":"小金井市中町2-15-25","lat":35.697681,"lon":139.517044},{"name":"小金井にし地域包括支援センター","province":"東京都","city":"小金井市","address":"小金井市貫井北町2-5-5","lat":35.705441,"lon":139.496567},{"name":"小金井市消費生活相談室","province":"東京都","city":"小金井市","address":"小金井市本町6-6-3","lat":35.699074,"lon":139.503128},{"name":"小金井市介護福祉課包括支援係","province":"東京都","city":"小金井市","address":"小金井市本町6-6-3","lat":35.699074,"lon":139.503128},{"name":"さくら東小金井ハウス","province":"東京都","city":"小金井市","address":"小金井市東町4-20-22","lat":35.6959,"lon":139.52506},{"name":"サンハイツ貫井南2","province":"東京都","city":"小金井市","address":"小金井市貫井南町4-14-8","lat":35.69549,"lon":139.49466},{"name":"前原坂上","province":"東京都","city":"小金井市","address":"東京都小金井市前原町3丁目41-24","lat":35.6986316,"lon":139.50591292},{"name":"小金井本町二丁目","province":"東京都","city":"小金井市","address":"東京都小金井市本町4丁目1-38","lat":35.70565307,"lon":139.50749306},{"name":"小金井第一小学校前第一","province":"東京都","city":"小金井市","address":"東京都小金井市中町1丁目9-19","lat":35.6972291,"lon":139.51038483},{"name":"貫井北町学芸大角","province":"東京都","city":"小金井市","address":"東京都小金井市貫井北町2丁目18-6","lat":35.70764141,"lon":139.4961078},{"name":"武蔵小金井駅北口","province":"東京都","city":"小金井市","address":"東京都小金井市本町5丁目1","lat":35.70118684,"lon":139.5051351},{"name":"小金井中町三丁目","province":"東京都","city":"小金井市","address":"東京都小金井市本町1丁目13-3","lat":35.69889837,"lon":139.51099305},{"name":"小金井市保健センター前","province":"東京都","city":"小金井市","address":"東京都小金井市貫井北町5丁目18-18","lat":35.70169192,"lon":139.49017242},{"name":"学芸大東門前","province":"東京都","city":"小金井市","address":"東京都小金井市貫井北町2丁目4-16","lat":35.70494728,"lon":139.49679119},{"name":"小金井郵便局前","province":"東京都","city":"小金井市","address":"東京都小金井市本町5丁目37-30","lat":35.70514197,"lon":139.50575434},{"name":"小金井消防署前","province":"東京都","city":"小金井市","address":"東京都小金井市本町6丁目6-1","lat":35.69930923,"lon":139.50345476},{"name":"貫井南町五丁目","province":"東京都","city":"小金井市","address":"東京都小金井市貫井南町4丁目1","lat":35.69376794,"lon":139.49453073},{"name":"小金井第一小学校前第二","province":"東京都","city":"小金井市","address":"東京都小金井市中町1丁目9-21","lat":35.69712911,"lon":139.51062092},{"name":"栗山公園前","province":"東京都","city":"小金井市","address":"東京都小金井市中町2丁目21","lat":35.69846815,"lon":139.52146721},{"name":"公園駐車場入口","province":"東京都","city":"小金井市","address":"東京都小金井市関野町1丁目7","lat":35.71356918,"lon":139.51856958},{"name":"小金井商工会館前","province":"東京都","city":"小金井市","address":"東京都小金井市本町5丁目9","lat":35.70193395,"lon":139.50385184},{"name":"市立南中学校前","province":"東京都","city":"小金井市","address":"東京都小金井市貫井南町1丁目24-1","lat":35.69076836,"lon":139.49776947},{"name":"小金井福祉会館前","province":"東京都","city":"小金井市","address":"東京都小金井市中町4丁目15-14","lat":35.69811781,"lon":139.50769057},{"name":"小金井本町二丁目南","province":"東京都","city":"小金井市","address":"東京都小金井市本町2丁目6-12","lat":35.70363109,"lon":139.50777923},{"name":"小金井本町五丁目","province":"東京都","city":"小金井市","address":"東京都小金井市本町5丁目13-1","lat":35.70211735,"lon":139.5070238},{"name":"農工大通り入口","province":"東京都","city":"小金井市","address":"東京都小金井市本町6丁目14-45","lat":35.7001731,"lon":139.50662947},{"name":"小金井公園西門","province":"東京都","city":"小金井市","address":"東京都小金井市桜町3丁目7","lat":35.71347722,"lon":139.50841486},{"name":"小金井東小学校前","province":"東京都","city":"小金井市","address":"東京都小金井市東町4丁目25-7","lat":35.69766002,"lon":139.5262946},{"name":"武蔵小金井駅北第二","province":"東京都","city":"小金井市","address":"東京都小金井市本町5丁目1","lat":35.70118684,"lon":139.5051351},{"name":"小金井市役所","province":"東京都","city":"小金井市","address":"東京都小金井市本町6丁目2","lat":35.69969535,"lon":139.5055018},{"name":"学芸大北門前","province":"東京都","city":"小金井市","address":"東京都小金井市貫井北町3丁目9-6","lat":35.70835512,"lon":139.49218866},{"name":"栗山公園北","province":"東京都","city":"小金井市","address":"東京都小金井市中町2丁目22-32","lat":35.69972913,"lon":139.52174491},{"name":"武蔵小金井駅南口","province":"東京都","city":"小金井市","address":"東京都小金井市本町1丁目18-10","lat":35.70068419,"lon":139.50759048},{"name":"武蔵小金井駅北口東","province":"東京都","city":"小金井市","address":"東京都小金井市本町5丁目12","lat":35.70177847,"lon":139.5061711},{"name":"前原交番東","province":"東京都","city":"小金井市","address":"東京都小金井市前原町4丁目10-11","lat":35.68921588,"lon":139.50260523},{"name":"市民会館 （萌え木ホール）","province":"東京都","city":"小金井市","address":"東京都小金井市前原町3丁目33-25","lat":35.69893146,"lon":139.5024743},{"name":"東小金井駅開設記念会館（マロンホール）","province":"東京都","city":"小金井市","address":"東京都小金井市東町3丁目7-21","lat":35.70026535,"lon":139.52904704},{"name":"前原暫定集会施設","province":"東京都","city":"小金井市","address":"東京都小金井市前原町3丁目33-27","lat":35.69891202,"lon":139.50262151},{"name":"婦人会館","province":"東京都","city":"小金井市","address":"東京都小金井市梶野町5丁目10-32","lat":35.70495366,"lon":139.5264804},{"name":"上之原会館","province":"東京都","city":"小金井市","address":"東京都小金井市本町5丁目6-19","lat":35.70252549,"lon":139.50201586},{"name":"前原町西之台会館","province":"東京都","city":"小金井市","address":"東京都小金井市前原町3丁目8-1","lat":35.69391528,"lon":139.49958585},{"name":"桜町上水会館","province":"東京都","city":"小金井市","address":"東京都小金井市桜町2丁目8-13","lat":35.71088575,"lon":139.50495693},{"name":"貫井北町集会場","province":"東京都","city":"小金井市","address":"東京都小金井市貫井北町3丁目31-17","lat":35.71155208,"lon":139.49595488},{"name":"貫井北町中之久保集会所","province":"東京都","city":"小金井市","address":"東京都小金井市貫井北町1丁目18-21","lat":35.70261971,"lon":139.49436649},{"name":"前原町丸山台集会所","province":"東京都","city":"小金井市","address":"東京都小金井市前原町4丁目18-14","lat":35.6905852,"lon":139.50343011},{"name":"貫井南町三楽集会所","province":"東京都","city":"小金井市","address":"東京都小金井市貫井南町3丁目6-18","lat":35.69950063,"lon":139.49511933},{"name":"東町友愛会館","province":"東京都","city":"小金井市","address":"東京都小金井市東町4丁目10-2","lat":35.69457696,"lon":139.52368384},{"name":"中町桜並集会所","province":"東京都","city":"小金井市","address":"東京都小金井市中町3丁目19-12","lat":35.70013995,"lon":139.51267897},{"name":"貫井北五集会所","province":"東京都","city":"小金井市","address":"東京都小金井市貫井北町5丁目16-13","lat":35.70290563,"lon":139.48851974},{"name":"中町天神前集会所","province":"東京都","city":"小金井市","address":"東京都小金井市中町1丁目7-7","lat":35.69348506,"lon":139.50991835},{"name":"東町集会所(東ｾﾝﾀｰ内)","province":"東京都","city":"小金井市","address":"東京都小金井市東町1丁目39-1","lat":35.69401043,"lon":139.52652529},{"name":"＊?小金井市文化財センター","province":"東京都","city":"小金井市","address":"小金井市緑町3-2-37","lat":35.710144,"lon":139.517044},{"name":"(株)伊藤国商店","province":"東京都","city":"小金井市","address":"小金井市中町1-14-41","lat":35.693977,"lon":139.517075},{"name":"小金井市","province":"東京都","city":"小金井市","address":"小金井市本町6-6-3","lat":35.699479,"lon":139.502988},{"name":"小金井市総合体育館","province":"東京都","city":"小金井市","address":"東京都小金井市関野町1丁目13-1","lat":35.7142719,"lon":139.51990554},{"name":"栗山公園健康運動センター","province":"東京都","city":"小金井市","address":"東京都小金井市中町2丁目21-1","lat":35.69786265,"lon":139.52130058},{"name":"公民館貫井北分館","province":"東京都","city":"小金井市","address":"東京都小金井市貫井北町1丁目11-12","lat":35.7023476,"lon":139.49763845},{"name":"小金井 宮地楽器ホール","province":"東京都","city":"小金井市","address":"東京都小金井市本町6丁目14-45","lat":35.7001731,"lon":139.50662947},{"name":"前原町西之台会館","province":"東京都","city":"小金井市","address":"東京都小金井市前原町3丁目8-1","lat":35.69391528,"lon":139.49958585},{"name":"小金井警察署","province":"東京都","city":"小金井市","address":"小金井市貫井南町3-21-3","lat":35.69993,"lon":139.4982},{"name":"小金井消防署","province":"東京都","city":"小金井市","address":"小金井市本町6-6-1","lat":35.69931,"lon":139.5035},{"name":"都立小金井公園","province":"東京都","city":"小金井市","address":"小金井市関野町1-2","lat":35.71295,"lon":139.5233},{"name":"都立小金井公園","province":"東京都","city":"小金井市","address":"小金井市関野町1","lat":35.71348,"lon":139.5196},{"name":"桜町病院","province":"東京都","city":"小金井市","address":"小金井市桜町1-2-20","lat":35.709547,"lon":139.511426},{"name":"小金井市児童発達支援センター　きらり","province":"東京都","city":"小金井市","address":"小金井市梶野町1-2-3","lat":35.701987,"lon":139.528755},{"name":"おもちゃ箱上水桜","province":"東京都","city":"小金井市","address":"小金井市桜町2-12-31","lat":35.712219,"lon":139.504571},{"name":"おもちゃ箱なかまち","province":"東京都","city":"小金井市","address":"小金井市中町4-17-13","lat":35.697726,"lon":139.50894},{"name":"木馬の会（小金井おもちゃライブラリー学童クラブ）","province":"東京都","city":"小金井市","address":"小金井市前原町2-14-4","lat":35.692316,"lon":139.511824},{"name":"児童発達センター　びぃぼ","province":"東京都","city":"小金井市","address":"小金井市貫井北町1-6-22","lat":35.701981,"lon":139.494733},{"name":"おもちゃ箱こがねい","province":"東京都","city":"小金井市","address":"小金井市貫井北町一丁目24番9号","lat":35.703103,"lon":139.49745},{"name":"梶野町第二荘","province":"東京都","city":"小金井市","address":"小金井市梶野町2-16-6","lat":35.709284,"lon":139.529938},{"name":"梶野町荘","province":"東京都","city":"小金井市","address":"小金井市梶野町2-16-7","lat":35.709309,"lon":139.529727},{"name":"小金井荘","province":"東京都","city":"小金井市","address":"小金井市梶野町4-10-23","lat":35.707681,"lon":139.526964},{"name":"東小金井荘","province":"東京都","city":"小金井市","address":"小金井市梶野町4-10-24","lat":35.707853,"lon":139.526775},{"name":"さくら東小金井ハウス","province":"東京都","city":"小金井市","address":"小金井市東町4-20-22","lat":35.695605,"lon":139.525273},{"name":"サンハイツ貫井南","province":"東京都","city":"小金井市","address":"小金井市貫井南町4-14-8","lat":35.695223,"lon":139.494797},{"name":"梶野町第二荘","province":"東京都","city":"小金井市","address":"小金井市梶野町2-16-6","lat":35.70932,"lon":139.52924},{"name":"梶野町荘","province":"東京都","city":"小金井市","address":"小金井市梶野町2-16-7","lat":35.70932,"lon":139.52924},{"name":"小金井荘","province":"東京都","city":"小金井市","address":"小金井市梶野町4-10-23","lat":35.70747,"lon":139.52699},{"name":"東小金井荘","province":"東京都","city":"小金井市","address":"小金井市梶野町4-10-24","lat":35.70747,"lon":139.52699},{"name":"さくら東小金井ハウス","province":"東京都","city":"小金井市","address":"小金井市東町4-20-22","lat":35.6959,"lon":139.52505},{"name":"サンハイツ貫井南","province":"東京都","city":"小金井市","address":"小金井市貫井南町4-14-8","lat":35.69549,"lon":139.49466},{"name":"小金井市立図書館","province":"東京都","city":"小金井市","address":"東京都小金井市本町1丁目1-32","lat":35.697701,"lon":139.510621},{"name":"小金井市立図書館東分室","province":"東京都","city":"小金井市","address":"東京都小金井市東町1丁目39-1","lat":35.694005,"lon":139.526608},{"name":"小金井市立図書館緑分室","province":"東京都","city":"小金井市","address":"東京都小金井市緑","lat":35.709544,"lon":139.516322},{"name":"小金井市立図書館貫井北分室","province":"東京都","city":"小金井市","address":"東京都小金井市貫井北町1丁目-11-12","lat":35.702291,"lon":139.49774},{"name":"小金井市立図書館西之台会館図書室","province":"東京都","city":"小金井市","address":"東京都小金井市前原町3丁目-8-1","lat":35.693879,"lon":139.499573},{"name":"食・学・活きるみんなの居場所また明日","province":"東京都","city":"小金井市","address":"東京都小金井市貫井南町4丁目14-14","lat":35.69595658,"lon":139.49450286},{"name":"子ども食堂ポム","province":"東京都","city":"小金井市","address":"東京都小金井市中町4丁目7-7","lat":35.69475988,"lon":139.50855452},{"name":"小金井公園","province":"東京都","city":"小金井市","address":"東京都小金井市桜町三丁目、関野町一・二丁目、小平市花小金井南町三丁目、西東京市向台六丁目、武蔵野市桜堤三丁目","lat":35.71706,"lon":139.517882},{"name":"武蔵野公園","province":"東京都","city":"小金井市","address":"東京都小金井市前原町二丁目、東町五丁目、中町一丁目、府中市多磨町二・三丁目","lat":35.687906,"lon":139.520496},{"name":"梶野配水所","province":"東京都","city":"小金井市","address":"東京都小金井市梶野町5-10-33","lat":35.7046375,"lon":139.526531},{"name":"桜町病院","province":"東京都","city":"小金井市","address":"小金井市桜町1-2-20","lat":35.70885,"lon":139.51196},{"name":"梶野町第２荘","province":"東京都","city":"小金井市","address":"小金井市梶野町2-16-6","lat":35.70932,"lon":139.52924},{"name":"梶野町第３荘","province":"東京都","city":"小金井市","address":"小金井市梶野町2-16-9","lat":35.70932,"lon":139.52924},{"name":"サンハイツ貫井南２","province":"東京都","city":"小金井市","address":"小金井市貫井南町4-14-8","lat":35.69549,"lon":139.49466},{"name":"武蔵小金井南第３自転車駐車場","province":"東京都","city":"小金井市","address":"東京都小金井市本町6丁目5-3","lat":35.69924258,"lon":139.50395749},{"name":"武蔵小金井南第７自転車駐車場","province":"東京都","city":"小金井市","address":"東京都小金井市本町6丁目14-45","lat":35.7001731,"lon":139.50662947},{"name":"武蔵小金井北第５自転車駐車場","province":"東京都","city":"小金井市","address":"東京都小金井市本町2丁目1","lat":35.70122579,"lon":139.50750712},{"name":"東小金井駅西側高架下自転車駐車場（Ａ）","province":"東京都","city":"小金井市","address":"東京都小金井市緑町1丁目1","lat":35.70212886,"lon":139.52142262},{"name":"東小金井駅西側高架下自転車駐車場（Ｂ）","province":"東京都","city":"小金井市","address":"東京都小金井市緑町1丁目2","lat":35.70237879,"lon":139.5200505},{"name":"新小金井西第１自転車駐車場","province":"東京都","city":"小金井市","address":"東京都小金井市東町4丁目24","lat":35.69555191,"lon":139.52606416},{"name":"東小金井北第１自転車駐車場","province":"東京都","city":"小金井市","address":"東京都小金井市梶野町5丁目2","lat":35.70192613,"lon":139.52254753},{"name":"東小金井駅前第一駐輪場","province":"東京都","city":"小金井市","address":"東京都小金井市梶野町5丁目1-1","lat":35.70159565,"lon":139.52426962},{"name":"東小金井駅前第二駐輪場","province":"東京都","city":"小金井市","address":"東京都小金井市緑町1丁目2","lat":35.70237879,"lon":139.5200505},{"name":"小金井きた地域包括支援センター","province":"東京都","city":"小金井市","address":"小金井市桜町1-9-5","lat":35.710579,"lon":139.511826},{"name":"小金井みなみ地域包括支援センター","province":"東京都","city":"小金井市","address":"小金井市前原町5-3-24","lat":35.687584,"lon":139.498169},{"name":"小金井ひがし地域包括支援センター","province":"東京都","city":"小金井市","address":"小金井市中町2-15-25","lat":35.697681,"lon":139.517044},{"name":"小金井にし地域包括支援センター","province":"東京都","city":"小金井市","address":"小金井市貫井北町2-5-5","lat":35.705441,"lon":139.496567},{"name":"小金井市消費生活相談室","province":"東京都","city":"小金井市","address":"小金井市本町6-6-3","lat":35.699074,"lon":139.503128},{"name":"小金井市介護福祉課包括支援係","province":"東京都","city":"小金井市","address":"小金井市本町6-6-3","lat":35.699074,"lon":139.503128},{"name":"さくら東小金井ハウス","province":"東京都","city":"小金井市","address":"小金井市東町4-20-22","lat":35.6959,"lon":139.52506},{"name":"サンハイツ貫井南2","province":"東京都","city":"小金井市","address":"小金井市貫井南町4-14-8","lat":35.69549,"lon":139.49466},{"name":"前原坂上","province":"東京都","city":"小金井市","address":"東京都小金井市前原町3丁目41-24","lat":35.6986316,"lon":139.50591292},{"name":"小金井本町二丁目","province":"東京都","city":"小金井市","address":"東京都小金井市本町4丁目1-38","lat":35.70565307,"lon":139.50749306},{"name":"小金井第一小学校前第一","province":"東京都","city":"小金井市","address":"東京都小金井市中町1丁目9-19","lat":35.6972291,"lon":139.51038483},{"name":"貫井北町学芸大角","province":"東京都","city":"小金井市","address":"東京都小金井市貫井北町2丁目18-6","lat":35.70764141,"lon":139.4961078},{"name":"武蔵小金井駅北口","province":"東京都","city":"小金井市","address":"東京都小金井市本町5丁目1","lat":35.70118684,"lon":139.5051351},{"name":"小金井中町三丁目","province":"東京都","city":"小金井市","address":"東京都小金井市本町1丁目13-3","lat":35.69889837,"lon":139.51099305},{"name":"小金井市保健センター前","province":"東京都","city":"小金井市","address":"東京都小金井市貫井北町5丁目18-18","lat":35.70169192,"lon":139.49017242},{"name":"学芸大東門前","province":"東京都","city":"小金井市","address":"東京都小金井市貫井北町2丁目4-16","lat":35.70494728,"lon":139.49679119},{"name":"小金井郵便局前","province":"東京都","city":"小金井市","address":"東京都小金井市本町5丁目37-30","lat":35.70514197,"lon":139.50575434},{"name":"小金井消防署前","province":"東京都","city":"小金井市","address":"東京都小金井市本町6丁目6-1","lat":35.69930923,"lon":139.50345476},{"name":"貫井南町五丁目","province":"東京都","city":"小金井市","address":"東京都小金井市貫井南町4丁目1","lat":35.69376794,"lon":139.49453073},{"name":"小金井第一小学校前第二","province":"東京都","city":"小金井市","address":"東京都小金井市中町1丁目9-21","lat":35.69712911,"lon":139.51062092},{"name":"栗山公園前","province":"東京都","city":"小金井市","address":"東京都小金井市中町2丁目21","lat":35.69846815,"lon":139.52146721},{"name":"公園駐車場入口","province":"東京都","city":"小金井市","address":"東京都小金井市関野町1丁目7","lat":35.71356918,"lon":139.51856958},{"name":"小金井商工会館前","province":"東京都","city":"小金井市","address":"東京都小金井市本町5丁目9","lat":35.70193395,"lon":139.50385184},{"name":"市立南中学校前","province":"東京都","city":"小金井市","address":"東京都小金井市貫井南町1丁目24-1","lat":35.69076836,"lon":139.49776947},{"name":"小金井福祉会館前","province":"東京都","city":"小金井市","address":"東京都小金井市中町4丁目15-14","lat":35.69811781,"lon":139.50769057},{"name":"小金井本町二丁目南","province":"東京都","city":"小金井市","address":"東京都小金井市本町2丁目6-12","lat":35.70363109,"lon":139.50777923},{"name":"小金井本町五丁目","province":"東京都","city":"小金井市","address":"東京都小金井市本町5丁目13-1","lat":35.70211735,"lon":139.5070238},{"name":"農工大通り入口","province":"東京都","city":"小金井市","address":"東京都小金井市本町6丁目14-45","lat":35.7001731,"lon":139.50662947},{"name":"小金井公園西門","province":"東京都","city":"小金井市","address":"東京都小金井市桜町3丁目7","lat":35.71347722,"lon":139.50841486},{"name":"小金井東小学校前","province":"東京都","city":"小金井市","address":"東京都小金井市東町4丁目25-7","lat":35.69766002,"lon":139.5262946},{"name":"武蔵小金井駅北第二","province":"東京都","city":"小金井市","address":"東京都小金井市本町5丁目1","lat":35.70118684,"lon":139.5051351},{"name":"小金井市役所","province":"東京都","city":"小金井市","address":"東京都小金井市本町6丁目2","lat":35.69969535,"lon":139.5055018},{"name":"学芸大北門前","province":"東京都","city":"小金井市","address":"東京都小金井市貫井北町3丁目9-6","lat":35.70835512,"lon":139.49218866},{"name":"栗山公園北","province":"東京都","city":"小金井市","address":"東京都小金井市中町2丁目22-32","lat":35.69972913,"lon":139.52174491},{"name":"武蔵小金井駅南口","province":"東京都","city":"小金井市","address":"東京都小金井市本町1丁目18-10","lat":35.70068419,"lon":139.50759048},{"name":"武蔵小金井駅北口東","province":"東京都","city":"小金井市","address":"東京都小金井市本町5丁目12","lat":35.70177847,"lon":139.5061711},{"name":"前原交番東","province":"東京都","city":"小金井市","address":"東京都小金井市前原町4丁目10-11","lat":35.68921588,"lon":139.50260523},{"name":"市民会館 （萌え木ホール）","province":"東京都","city":"小金井市","address":"東京都小金井市前原町3丁目33-25","lat":35.69893146,"lon":139.5024743},{"name":"東小金井駅開設記念会館（マロンホール）","province":"東京都","city":"小金井市","address":"東京都小金井市東町3丁目7-21","lat":35.70026535,"lon":139.52904704},{"name":"前原暫定集会施設","province":"東京都","city":"小金井市","address":"東京都小金井市前原町3丁目33-27","lat":35.69891202,"lon":139.50262151},{"name":"婦人会館","province":"東京都","city":"小金井市","address":"東京都小金井市梶野町5丁目10-32","lat":35.70495366,"lon":139.5264804},{"name":"上之原会館","province":"東京都","city":"小金井市","address":"東京都小金井市本町5丁目6-19","lat":35.70252549,"lon":139.50201586},{"name":"前原町西之台会館","province":"東京都","city":"小金井市","address":"東京都小金井市前原町3丁目8-1","lat":35.69391528,"lon":139.49958585},{"name":"桜町上水会館","province":"東京都","city":"小金井市","address":"東京都小金井市桜町2丁目8-13","lat":35.71088575,"lon":139.50495693},{"name":"貫井北町集会場","province":"東京都","city":"小金井市","address":"東京都小金井市貫井北町3丁目31-17","lat":35.71155208,"lon":139.49595488},{"name":"貫井北町中之久保集会所","province":"東京都","city":"小金井市","address":"東京都小金井市貫井北町1丁目18-21","lat":35.70261971,"lon":139.49436649},{"name":"前原町丸山台集会所","province":"東京都","city":"小金井市","address":"東京都小金井市前原町4丁目18-14","lat":35.6905852,"lon":139.50343011},{"name":"貫井南町三楽集会所","province":"東京都","city":"小金井市","address":"東京都小金井市貫井南町3丁目6-18","lat":35.69950063,"lon":139.49511933},{"name":"東町友愛会館","province":"東京都","city":"小金井市","address":"東京都小金井市東町4丁目10-2","lat":35.69457696,"lon":139.52368384},{"name":"中町桜並集会所","province":"東京都","city":"小金井市","address":"東京都小金井市中町3丁目19-12","lat":35.70013995,"lon":139.51267897},{"name":"貫井北五集会所","province":"東京都","city":"小金井市","address":"東京都小金井市貫井北町5丁目16-13","lat":35.70290563,"lon":139.48851974},{"name":"中町天神前集会所","province":"東京都","city":"小金井市","address":"東京都小金井市中町1丁目7-7","lat":35.69348506,"lon":139.50991835},{"name":"東町集会所(東ｾﾝﾀｰ内)","province":"東京都","city":"小金井市","address":"東京都小金井市東町1丁目39-1","lat":35.69401043,"lon":139.52652529},{"name":"＊?小金井市文化財センター","province":"東京都","city":"小金井市","address":"小金井市緑町3-2-37","lat":35.710144,"lon":139.517044},{"name":"(株)伊藤国商店","province":"東京都","city":"小金井市","address":"小金井市中町1-14-41","lat":35.693977,"lon":139.517075},{"name":"小金井市総合体育館","province":"東京都","city":"小金井市","address":"東京都小金井市関野町1丁目13-1","lat":35.7142719,"lon":139.51990554},{"name":"栗山公園健康運動センター","province":"東京都","city":"小金井市","address":"東京都小金井市中町2丁目21-1","lat":35.69786265,"lon":139.52130058},{"name":"公民館貫井北分館","province":"東京都","city":"小金井市","address":"東京都小金井市貫井北町1丁目11-12","lat":35.7023476,"lon":139.49763845},{"name":"小金井 宮地楽器ホール","province":"東京都","city":"小金井市","address":"東京都小金井市本町6丁目14-45","lat":35.7001731,"lon":139.50662947},{"name":"前原町西之台会館","province":"東京都","city":"小金井市","address":"東京都小金井市前原町3丁目8-1","lat":35.69391528,"lon":139.49958585},{"name":"桜町病院","province":"東京都","city":"小金井市","address":"小金井市桜町1-2-20","lat":35.709547,"lon":139.511426},{"name":"小金井市児童発達支援センター　きらり","province":"東京都","city":"小金井市","address":"小金井市梶野町1-2-3","lat":35.701987,"lon":139.528755},{"name":"おもちゃ箱上水桜","province":"東京都","city":"小金井市","address":"小金井市桜町2-12-31","lat":35.712219,"lon":139.504571},{"name":"おもちゃ箱なかまち","province":"東京都","city":"小金井市","address":"小金井市中町4-17-13","lat":35.697726,"lon":139.50894},{"name":"木馬の会（小金井おもちゃライブラリー学童クラブ）","province":"東京都","city":"小金井市","address":"小金井市前原町2-14-4","lat":35.692316,"lon":139.511824},{"name":"児童発達センター　びぃぼ","province":"東京都","city":"小金井市","address":"小金井市貫井北町1-6-22","lat":35.701981,"lon":139.494733},{"name":"おもちゃ箱こがねい","province":"東京都","city":"小金井市","address":"小金井市貫井北町一丁目24番9号","lat":35.703103,"lon":139.49745},{"name":"梶野町第二荘","province":"東京都","city":"小金井市","address":"小金井市梶野町2-16-6","lat":35.709284,"lon":139.529938},{"name":"梶野町荘","province":"東京都","city":"小金井市","address":"小金井市梶野町2-16-7","lat":35.709309,"lon":139.529727},{"name":"小金井荘","province":"東京都","city":"小金井市","address":"小金井市梶野町4-10-23","lat":35.707681,"lon":139.526964},{"name":"東小金井荘","province":"東京都","city":"小金井市","address":"小金井市梶野町4-10-24","lat":35.707853,"lon":139.526775},{"name":"さくら東小金井ハウス","province":"東京都","city":"小金井市","address":"小金井市東町4-20-22","lat":35.695605,"lon":139.525273},{"name":"サンハイツ貫井南","province":"東京都","city":"小金井市","address":"小金井市貫井南町4-14-8","lat":35.695223,"lon":139.494797},{"name":"梶野町第二荘","province":"東京都","city":"小金井市","address":"小金井市梶野町2-16-6","lat":35.70932,"lon":139.52924},{"name":"梶野町荘","province":"東京都","city":"小金井市","address":"小金井市梶野町2-16-7","lat":35.70932,"lon":139.52924},{"name":"小金井荘","province":"東京都","city":"小金井市","address":"小金井市梶野町4-10-23","lat":35.70747,"lon":139.52699},{"name":"東小金井荘","province":"東京都","city":"小金井市","address":"小金井市梶野町4-10-24","lat":35.70747,"lon":139.52699},{"name":"さくら東小金井ハウス","province":"東京都","city":"小金井市","address":"小金井市東町4-20-22","lat":35.6959,"lon":139.52505},{"name":"サンハイツ貫井南","province":"東京都","city":"小金井市","address":"小金井市貫井南町4-14-8","lat":35.69549,"lon":139.49466},{"name":"小金井市立図書館","province":"東京都","city":"小金井市","address":"東京都小金井市本町1丁目1-32","lat":35.697701,"lon":139.510621},{"name":"小金井市立図書館東分室","province":"東京都","city":"小金井市","address":"東京都小金井市東町1丁目39-1","lat":35.694005,"lon":139.526608},{"name":"小金井市立図書館緑分室","province":"東京都","city":"小金井市","address":"東京都小金井市緑","lat":35.709544,"lon":139.516322},{"name":"小金井市立図書館貫井北分室","province":"東京都","city":"小金井市","address":"東京都小金井市貫井北町1丁目-11-12","lat":35.702291,"lon":139.49774},{"name":"小金井市立図書館西之台会館図書室","province":"東京都","city":"小金井市","address":"東京都小金井市前原町3丁目-8-1","lat":35.693879,"lon":139.499573},{"name":"食・学・活きるみんなの居場所また明日","province":"東京都","city":"小金井市","address":"東京都小金井市貫井南町4丁目14-14","lat":35.69595658,"lon":139.49450286},{"name":"子ども食堂ポム","province":"東京都","city":"小金井市","address":"東京都小金井市中町4丁目7-7","lat":35.69475988,"lon":139.50855452},{"name":"小金井公園","province":"東京都","city":"小金井市","address":"東京都小金井市桜町三丁目、関野町一・二丁目、小平市花小金井南町三丁目、西東京市向台六丁目、武蔵野市桜堤三丁目","lat":35.71706,"lon":139.517882},{"name":"武蔵野公園","province":"東京都","city":"小金井市","address":"東京都小金井市前原町二丁目、東町五丁目、中町一丁目、府中市多磨町二・三丁目","lat":35.687906,"lon":139.520496},{"name":"梶野配水所","province":"東京都","city":"小金井市","address":"東京都小金井市梶野町5-10-33","lat":35.7046375,"lon":139.526531},{"name":"桜町病院","province":"東京都","city":"小金井市","address":"小金井市桜町1-2-20","lat":35.70885,"lon":139.51196},{"name":"梶野町第２荘","province":"東京都","city":"小金井市","address":"小金井市梶野町2-16-6","lat":35.70932,"lon":139.52924},{"name":"梶野町第３荘","province":"東京都","city":"小金井市","address":"小金井市梶野町2-16-9","lat":35.70932,"lon":139.52924},{"name":"サンハイツ貫井南２","province":"東京都","city":"小金井市","address":"小金井市貫井南町4-14-8","lat":35.69549,"lon":139.49466},{"name":"武蔵小金井南第３自転車駐車場","province":"東京都","city":"小金井市","address":"東京都小金井市本町6丁目5-3","lat":35.69924258,"lon":139.50395749},{"name":"武蔵小金井南第７自転車駐車場","province":"東京都","city":"小金井市","address":"東京都小金井市本町6丁目14-45","lat":35.7001731,"lon":139.50662947},{"name":"武蔵小金井北第５自転車駐車場","province":"東京都","city":"小金井市","address":"東京都小金井市本町2丁目1","lat":35.70122579,"lon":139.50750712},{"name":"東小金井駅西側高架下自転車駐車場（Ａ）","province":"東京都","city":"小金井市","address":"東京都小金井市緑町1丁目1","lat":35.70212886,"lon":139.52142262},{"name":"東小金井駅西側高架下自転車駐車場（Ｂ）","province":"東京都","city":"小金井市","address":"東京都小金井市緑町1丁目2","lat":35.70237879,"lon":139.5200505},{"name":"新小金井西第１自転車駐車場","province":"東京都","city":"小金井市","address":"東京都小金井市東町4丁目24","lat":35.69555191,"lon":139.52606416},{"name":"東小金井北第１自転車駐車場","province":"東京都","city":"小金井市","address":"東京都小金井市梶野町5丁目2","lat":35.70192613,"lon":139.52254753},{"name":"東小金井駅前第一駐輪場","province":"東京都","city":"小金井市","address":"東京都小金井市梶野町5丁目1-1","lat":35.70159565,"lon":139.52426962},{"name":"東小金井駅前第二駐輪場","province":"東京都","city":"小金井市","address":"東京都小金井市緑町1丁目2","lat":35.70237879,"lon":139.5200505},{"name":"さくら東小金井ハウス","province":"東京都","city":"小金井市","address":"小金井市東町4-20-22","lat":35.6959,"lon":139.52506},{"name":"サンハイツ貫井南2","province":"東京都","city":"小金井市","address":"小金井市貫井南町4-14-8","lat":35.69549,"lon":139.49466},{"name":"前原坂上","province":"東京都","city":"小金井市","address":"東京都小金井市前原町3丁目41-24","lat":35.6986316,"lon":139.50591292},{"name":"小金井本町二丁目","province":"東京都","city":"小金井市","address":"東京都小金井市本町4丁目1-38","lat":35.70565307,"lon":139.50749306},{"name":"小金井第一小学校前第一","province":"東京都","city":"小金井市","address":"東京都小金井市中町1丁目9-19","lat":35.6972291,"lon":139.51038483},{"name":"貫井北町学芸大角","province":"東京都","city":"小金井市","address":"東京都小金井市貫井北町2丁目18-6","lat":35.70764141,"lon":139.4961078},{"name":"武蔵小金井駅北口","province":"東京都","city":"小金井市","address":"東京都小金井市本町5丁目1","lat":35.70118684,"lon":139.5051351},{"name":"小金井中町三丁目","province":"東京都","city":"小金井市","address":"東京都小金井市本町1丁目13-3","lat":35.69889837,"lon":139.51099305},{"name":"小金井市保健センター前","province":"東京都","city":"小金井市","address":"東京都小金井市貫井北町5丁目18-18","lat":35.70169192,"lon":139.49017242},{"name":"学芸大東門前","province":"東京都","city":"小金井市","address":"東京都小金井市貫井北町2丁目4-16","lat":35.70494728,"lon":139.49679119},{"name":"小金井郵便局前","province":"東京都","city":"小金井市","address":"東京都小金井市本町5丁目37-30","lat":35.70514197,"lon":139.50575434},{"name":"小金井消防署前","province":"東京都","city":"小金井市","address":"東京都小金井市本町6丁目6-1","lat":35.69930923,"lon":139.50345476},{"name":"貫井南町五丁目","province":"東京都","city":"小金井市","address":"東京都小金井市貫井南町4丁目1","lat":35.69376794,"lon":139.49453073},{"name":"小金井第一小学校前第二","province":"東京都","city":"小金井市","address":"東京都小金井市中町1丁目9-21","lat":35.69712911,"lon":139.51062092},{"name":"栗山公園前","province":"東京都","city":"小金井市","address":"東京都小金井市中町2丁目21","lat":35.69846815,"lon":139.52146721},{"name":"公園駐車場入口","province":"東京都","city":"小金井市","address":"東京都小金井市関野町1丁目7","lat":35.71356918,"lon":139.51856958},{"name":"小金井商工会館前","province":"東京都","city":"小金井市","address":"東京都小金井市本町5丁目9","lat":35.70193395,"lon":139.50385184},{"name":"市立南中学校前","province":"東京都","city":"小金井市","address":"東京都小金井市貫井南町1丁目24-1","lat":35.69076836,"lon":139.49776947},{"name":"小金井福祉会館前","province":"東京都","city":"小金井市","address":"東京都小金井市中町4丁目15-14","lat":35.69811781,"lon":139.50769057},{"name":"小金井本町二丁目南","province":"東京都","city":"小金井市","address":"東京都小金井市本町2丁目6-12","lat":35.70363109,"lon":139.50777923},{"name":"小金井本町五丁目","province":"東京都","city":"小金井市","address":"東京都小金井市本町5丁目13-1","lat":35.70211735,"lon":139.5070238},{"name":"農工大通り入口","province":"東京都","city":"小金井市","address":"東京都小金井市本町6丁目14-45","lat":35.7001731,"lon":139.50662947},{"name":"小金井公園西門","province":"東京都","city":"小金井市","address":"東京都小金井市桜町3丁目7","lat":35.71347722,"lon":139.50841486},{"name":"小金井東小学校前","province":"東京都","city":"小金井市","address":"東京都小金井市東町4丁目25-7","lat":35.69766002,"lon":139.5262946},{"name":"武蔵小金井駅北第二","province":"東京都","city":"小金井市","address":"東京都小金井市本町5丁目1","lat":35.70118684,"lon":139.5051351},{"name":"小金井市役所","province":"東京都","city":"小金井市","address":"東京都小金井市本町6丁目2","lat":35.69969535,"lon":139.5055018},{"name":"学芸大北門前","province":"東京都","city":"小金井市","address":"東京都小金井市貫井北町3丁目9-6","lat":35.70835512,"lon":139.49218866},{"name":"栗山公園北","province":"東京都","city":"小金井市","address":"東京都小金井市中町2丁目22-32","lat":35.69972913,"lon":139.52174491},{"name":"武蔵小金井駅南口","province":"東京都","city":"小金井市","address":"東京都小金井市本町1丁目18-10","lat":35.70068419,"lon":139.50759048},{"name":"武蔵小金井駅北口東","province":"東京都","city":"小金井市","address":"東京都小金井市本町5丁目12","lat":35.70177847,"lon":139.5061711},{"name":"前原交番東","province":"東京都","city":"小金井市","address":"東京都小金井市前原町4丁目10-11","lat":35.68921588,"lon":139.50260523},{"name":"市民会館 （萌え木ホール）","province":"東京都","city":"小金井市","address":"東京都小金井市前原町3丁目33-25","lat":35.69893146,"lon":139.5024743},{"name":"東小金井駅開設記念会館（マロンホール）","province":"東京都","city":"小金井市","address":"東京都小金井市東町3丁目7-21","lat":35.70026535,"lon":139.52904704},{"name":"前原暫定集会施設","province":"東京都","city":"小金井市","address":"東京都小金井市前原町3丁目33-27","lat":35.69891202,"lon":139.50262151},{"name":"婦人会館","province":"東京都","city":"小金井市","address":"東京都小金井市梶野町5丁目10-32","lat":35.70495366,"lon":139.5264804},{"name":"上之原会館","province":"東京都","city":"小金井市","address":"東京都小金井市本町5丁目6-19","lat":35.70252549,"lon":139.50201586},{"name":"前原町西之台会館","province":"東京都","city":"小金井市","address":"東京都小金井市前原町3丁目8-1","lat":35.69391528,"lon":139.49958585},{"name":"桜町上水会館","province":"東京都","city":"小金井市","address":"東京都小金井市桜町2丁目8-13","lat":35.71088575,"lon":139.50495693},{"name":"貫井北町集会場","province":"東京都","city":"小金井市","address":"東京都小金井市貫井北町3丁目31-17","lat":35.71155208,"lon":139.49595488},{"name":"貫井北町中之久保集会所","province":"東京都","city":"小金井市","address":"東京都小金井市貫井北町1丁目18-21","lat":35.70261971,"lon":139.49436649},{"name":"前原町丸山台集会所","province":"東京都","city":"小金井市","address":"東京都小金井市前原町4丁目18-14","lat":35.6905852,"lon":139.50343011},{"name":"貫井南町三楽集会所","province":"東京都","city":"小金井市","address":"東京都小金井市貫井南町3丁目6-18","lat":35.69950063,"lon":139.49511933},{"name":"東町友愛会館","province":"東京都","city":"小金井市","address":"東京都小金井市東町4丁目10-2","lat":35.69457696,"lon":139.52368384},{"name":"中町桜並集会所","province":"東京都","city":"小金井市","address":"東京都小金井市中町3丁目19-12","lat":35.70013995,"lon":139.51267897},{"name":"貫井北五集会所","province":"東京都","city":"小金井市","address":"東京都小金井市貫井北町5丁目16-13","lat":35.70290563,"lon":139.48851974},{"name":"中町天神前集会所","province":"東京都","city":"小金井市","address":"東京都小金井市中町1丁目7-7","lat":35.69348506,"lon":139.50991835},{"name":"東町集会所(東ｾﾝﾀｰ内)","province":"東京都","city":"小金井市","address":"東京都小金井市東町1丁目39-1","lat":35.69401043,"lon":139.52652529},{"name":"＊?小金井市文化財センター","province":"東京都","city":"小金井市","address":"小金井市緑町3-2-37","lat":35.710144,"lon":139.517044},{"name":"(株)伊藤国商店","province":"東京都","city":"小金井市","address":"小金井市中町1-14-41","lat":35.693977,"lon":139.517075},{"name":"小金井市総合体育館","province":"東京都","city":"小金井市","address":"東京都小金井市関野町1丁目13-1","lat":35.7142719,"lon":139.51990554},{"name":"栗山公園健康運動センター","province":"東京都","city":"小金井市","address":"東京都小金井市中町2丁目21-1","lat":35.69786265,"lon":139.52130058},{"name":"公民館貫井北分館","province":"東京都","city":"小金井市","address":"東京都小金井市貫井北町1丁目11-12","lat":35.7023476,"lon":139.49763845},{"name":"小金井 宮地楽器ホール","province":"東京都","city":"小金井市","address":"東京都小金井市本町6丁目14-45","lat":35.7001731,"lon":139.50662947},{"name":"前原町西之台会館","province":"東京都","city":"小金井市","address":"東京都小金井市前原町3丁目8-1","lat":35.69391528,"lon":139.49958585},{"name":"桜町病院","province":"東京都","city":"小金井市","address":"小金井市桜町1-2-20","lat":35.709547,"lon":139.511426},{"name":"小金井市児童発達支援センター　きらり","province":"東京都","city":"小金井市","address":"小金井市梶野町1-2-3","lat":35.701987,"lon":139.528755},{"name":"おもちゃ箱上水桜","province":"東京都","city":"小金井市","address":"小金井市桜町2-12-31","lat":35.712219,"lon":139.504571},{"name":"おもちゃ箱なかまち","province":"東京都","city":"小金井市","address":"小金井市中町4-17-13","lat":35.697726,"lon":139.50894},{"name":"木馬の会（小金井おもちゃライブラリー学童クラブ）","province":"東京都","city":"小金井市","address":"小金井市前原町2-14-4","lat":35.692316,"lon":139.511824},{"name":"児童発達センター　びぃぼ","province":"東京都","city":"小金井市","address":"小金井市貫井北町1-6-22","lat":35.701981,"lon":139.494733},{"name":"おもちゃ箱こがねい","province":"東京都","city":"小金井市","address":"小金井市貫井北町一丁目24番9号","lat":35.703103,"lon":139.49745},{"name":"梶野町第二荘","province":"東京都","city":"小金井市","address":"小金井市梶野町2-16-6","lat":35.709284,"lon":139.529938},{"name":"梶野町荘","province":"東京都","city":"小金井市","address":"小金井市梶野町2-16-7","lat":35.709309,"lon":139.529727},{"name":"小金井荘","province":"東京都","city":"小金井市","address":"小金井市梶野町4-10-23","lat":35.707681,"lon":139.526964},{"name":"東小金井荘","province":"東京都","city":"小金井市","address":"小金井市梶野町4-10-24","lat":35.707853,"lon":139.526775},{"name":"さくら東小金井ハウス","province":"東京都","city":"小金井市","address":"小金井市東町4-20-22","lat":35.695605,"lon":139.525273},{"name":"サンハイツ貫井南","province":"東京都","city":"小金井市","address":"小金井市貫井南町4-14-8","lat":35.695223,"lon":139.494797},{"name":"梶野町第二荘","province":"東京都","city":"小金井市","address":"小金井市梶野町2-16-6","lat":35.70932,"lon":139.52924},{"name":"梶野町荘","province":"東京都","city":"小金井市","address":"小金井市梶野町2-16-7","lat":35.70932,"lon":139.52924},{"name":"小金井荘","province":"東京都","city":"小金井市","address":"小金井市梶野町4-10-23","lat":35.70747,"lon":139.52699},{"name":"東小金井荘","province":"東京都","city":"小金井市","address":"小金井市梶野町4-10-24","lat":35.70747,"lon":139.52699},{"name":"さくら東小金井ハウス","province":"東京都","city":"小金井市","address":"小金井市東町4-20-22","lat":35.6959,"lon":139.52505},{"name":"サンハイツ貫井南","province":"東京都","city":"小金井市","address":"小金井市貫井南町4-14-8","lat":35.69549,"lon":139.49466},{"name":"小金井市立図書館","province":"東京都","city":"小金井市","address":"東京都小金井市本町1丁目1-32","lat":35.697701,"lon":139.510621},{"name":"小金井市立図書館東分室","province":"東京都","city":"小金井市","address":"東京都小金井市東町1丁目39-1","lat":35.694005,"lon":139.526608},{"name":"小金井市立図書館緑分室","province":"東京都","city":"小金井市","address":"東京都小金井市緑","lat":35.709544,"lon":139.516322},{"name":"小金井市立図書館貫井北分室","province":"東京都","city":"小金井市","address":"東京都小金井市貫井北町1丁目-11-12","lat":35.702291,"lon":139.49774},{"name":"小金井市立図書館西之台会館図書室","province":"東京都","city":"小金井市","address":"東京都小金井市前原町3丁目-8-1","lat":35.693879,"lon":139.499573},{"name":"食・学・活きるみんなの居場所また明日","province":"東京都","city":"小金井市","address":"東京都小金井市貫井南町4丁目14-14","lat":35.69595658,"lon":139.49450286},{"name":"子ども食堂ポム","province":"東京都","city":"小金井市","address":"東京都小金井市中町4丁目7-7","lat":35.69475988,"lon":139.50855452},{"name":"小金井公園","province":"東京都","city":"小金井市","address":"東京都小金井市桜町三丁目、関野町一・二丁目、小平市花小金井南町三丁目、西東京市向台六丁目、武蔵野市桜堤三丁目","lat":35.71706,"lon":139.517882},{"name":"武蔵野公園","province":"東京都","city":"小金井市","address":"東京都小金井市前原町二丁目、東町五丁目、中町一丁目、府中市多磨町二・三丁目","lat":35.687906,"lon":139.520496},{"name":"梶野配水所","province":"東京都","city":"小金井市","address":"東京都小金井市梶野町5-10-33","lat":35.7046375,"lon":139.526531},{"name":"桜町病院","province":"東京都","city":"小金井市","address":"小金井市桜町1-2-20","lat":35.70885,"lon":139.51196},{"name":"梶野町第２荘","province":"東京都","city":"小金井市","address":"小金井市梶野町2-16-6","lat":35.70932,"lon":139.52924},{"name":"梶野町第３荘","province":"東京都","city":"小金井市","address":"小金井市梶野町2-16-9","lat":35.70932,"lon":139.52924},{"name":"サンハイツ貫井南２","province":"東京都","city":"小金井市","address":"小金井市貫井南町4-14-8","lat":35.69549,"lon":139.49466},{"name":"武蔵小金井南第３自転車駐車場","province":"東京都","city":"小金井市","address":"東京都小金井市本町6丁目5-3","lat":35.69924258,"lon":139.50395749},{"name":"武蔵小金井南第７自転車駐車場","province":"東京都","city":"小金井市","address":"東京都小金井市本町6丁目14-45","lat":35.7001731,"lon":139.50662947},{"name":"武蔵小金井北第５自転車駐車場","province":"東京都","city":"小金井市","address":"東京都小金井市本町2丁目1","lat":35.70122579,"lon":139.50750712},{"name":"東小金井駅西側高架下自転車駐車場（Ａ）","province":"東京都","city":"小金井市","address":"東京都小金井市緑町1丁目1","lat":35.70212886,"lon":139.52142262},{"name":"東小金井駅西側高架下自転車駐車場（Ｂ）","province":"東京都","city":"小金井市","address":"東京都小金井市緑町1丁目2","lat":35.70237879,"lon":139.5200505},{"name":"新小金井西第１自転車駐車場","province":"東京都","city":"小金井市","address":"東京都小金井市東町4丁目24","lat":35.69555191,"lon":139.52606416},{"name":"東小金井北第１自転車駐車場","province":"東京都","city":"小金井市","address":"東京都小金井市梶野町5丁目2","lat":35.70192613,"lon":139.52254753},{"name":"東小金井駅前第一駐輪場","province":"東京都","city":"小金井市","address":"東京都小金井市梶野町5丁目1-1","lat":35.70159565,"lon":139.52426962},{"name":"東小金井駅前第二駐輪場","province":"東京都","city":"小金井市","address":"東京都小金井市緑町1丁目2","lat":35.70237879,"lon":139.5200505},{"name":"さくら東小金井ハウス","province":"東京都","city":"小金井市","address":"小金井市東町4-20-22","lat":35.6959,"lon":139.52506},{"name":"サンハイツ貫井南2","province":"東京都","city":"小金井市","address":"小金井市貫井南町4-14-8","lat":35.69549,"lon":139.49466},{"name":"前原坂上","province":"東京都","city":"小金井市","address":"東京都小金井市前原町3丁目41-24","lat":35.6986316,"lon":139.50591292},{"name":"小金井本町二丁目","province":"東京都","city":"小金井市","address":"東京都小金井市本町4丁目1-38","lat":35.70565307,"lon":139.50749306},{"name":"小金井第一小学校前第一","province":"東京都","city":"小金井市","address":"東京都小金井市中町1丁目9-19","lat":35.6972291,"lon":139.51038483},{"name":"貫井北町学芸大角","province":"東京都","city":"小金井市","address":"東京都小金井市貫井北町2丁目18-6","lat":35.70764141,"lon":139.4961078},{"name":"武蔵小金井駅北口","province":"東京都","city":"小金井市","address":"東京都小金井市本町5丁目1","lat":35.70118684,"lon":139.5051351},{"name":"小金井中町三丁目","province":"東京都","city":"小金井市","address":"東京都小金井市本町1丁目13-3","lat":35.69889837,"lon":139.51099305},{"name":"小金井市保健センター前","province":"東京都","city":"小金井市","address":"東京都小金井市貫井北町5丁目18-18","lat":35.70169192,"lon":139.49017242},{"name":"学芸大東門前","province":"東京都","city":"小金井市","address":"東京都小金井市貫井北町2丁目4-16","lat":35.70494728,"lon":139.49679119},{"name":"小金井郵便局前","province":"東京都","city":"小金井市","address":"東京都小金井市本町5丁目37-30","lat":35.70514197,"lon":139.50575434},{"name":"小金井消防署前","province":"東京都","city":"小金井市","address":"東京都小金井市本町6丁目6-1","lat":35.69930923,"lon":139.50345476},{"name":"貫井南町五丁目","province":"東京都","city":"小金井市","address":"東京都小金井市貫井南町4丁目1","lat":35.69376794,"lon":139.49453073},{"name":"小金井第一小学校前第二","province":"東京都","city":"小金井市","address":"東京都小金井市中町1丁目9-21","lat":35.69712911,"lon":139.51062092},{"name":"栗山公園前","province":"東京都","city":"小金井市","address":"東京都小金井市中町2丁目21","lat":35.69846815,"lon":139.52146721},{"name":"公園駐車場入口","province":"東京都","city":"小金井市","address":"東京都小金井市関野町1丁目7","lat":35.71356918,"lon":139.51856958},{"name":"小金井商工会館前","province":"東京都","city":"小金井市","address":"東京都小金井市本町5丁目9","lat":35.70193395,"lon":139.50385184},{"name":"市立南中学校前","province":"東京都","city":"小金井市","address":"東京都小金井市貫井南町1丁目24-1","lat":35.69076836,"lon":139.49776947},{"name":"小金井福祉会館前","province":"東京都","city":"小金井市","address":"東京都小金井市中町4丁目15-14","lat":35.69811781,"lon":139.50769057},{"name":"小金井本町二丁目南","province":"東京都","city":"小金井市","address":"東京都小金井市本町2丁目6-12","lat":35.70363109,"lon":139.50777923},{"name":"小金井本町五丁目","province":"東京都","city":"小金井市","address":"東京都小金井市本町5丁目13-1","lat":35.70211735,"lon":139.5070238},{"name":"農工大通り入口","province":"東京都","city":"小金井市","address":"東京都小金井市本町6丁目14-45","lat":35.7001731,"lon":139.50662947},{"name":"小金井公園西門","province":"東京都","city":"小金井市","address":"東京都小金井市桜町3丁目7","lat":35.71347722,"lon":139.50841486},{"name":"小金井東小学校前","province":"東京都","city":"小金井市","address":"東京都小金井市東町4丁目25-7","lat":35.69766002,"lon":139.5262946},{"name":"武蔵小金井駅北第二","province":"東京都","city":"小金井市","address":"東京都小金井市本町5丁目1","lat":35.70118684,"lon":139.5051351},{"name":"小金井市役所","province":"東京都","city":"小金井市","address":"東京都小金井市本町6丁目2","lat":35.69969535,"lon":139.5055018},{"name":"学芸大北門前","province":"東京都","city":"小金井市","address":"東京都小金井市貫井北町3丁目9-6","lat":35.70835512,"lon":139.49218866},{"name":"栗山公園北","province":"東京都","city":"小金井市","address":"東京都小金井市中町2丁目22-32","lat":35.69972913,"lon":139.52174491},{"name":"武蔵小金井駅南口","province":"東京都","city":"小金井市","address":"東京都小金井市本町1丁目18-10","lat":35.70068419,"lon":139.50759048},{"name":"武蔵小金井駅北口東","province":"東京都","city":"小金井市","address":"東京都小金井市本町5丁目12","lat":35.70177847,"lon":139.5061711},{"name":"前原交番東","province":"東京都","city":"小金井市","address":"東京都小金井市前原町4丁目10-11","lat":35.68921588,"lon":139.50260523},{"name":"市民会館 （萌え木ホール）","province":"東京都","city":"小金井市","address":"東京都小金井市前原町3丁目33-25","lat":35.69893146,"lon":139.5024743},{"name":"東小金井駅開設記念会館（マロンホール）","province":"東京都","city":"小金井市","address":"東京都小金井市東町3丁目7-21","lat":35.70026535,"lon":139.52904704},{"name":"前原暫定集会施設","province":"東京都","city":"小金井市","address":"東京都小金井市前原町3丁目33-27","lat":35.69891202,"lon":139.50262151},{"name":"婦人会館","province":"東京都","city":"小金井市","address":"東京都小金井市梶野町5丁目10-32","lat":35.70495366,"lon":139.5264804},{"name":"上之原会館","province":"東京都","city":"小金井市","address":"東京都小金井市本町5丁目6-19","lat":35.70252549,"lon":139.50201586},{"name":"前原町西之台会館","province":"東京都","city":"小金井市","address":"東京都小金井市前原町3丁目8-1","lat":35.69391528,"lon":139.49958585},{"name":"桜町上水会館","province":"東京都","city":"小金井市","address":"東京都小金井市桜町2丁目8-13","lat":35.71088575,"lon":139.50495693},{"name":"貫井北町集会場","province":"東京都","city":"小金井市","address":"東京都小金井市貫井北町3丁目31-17","lat":35.71155208,"lon":139.49595488},{"name":"貫井北町中之久保集会所","province":"東京都","city":"小金井市","address":"東京都小金井市貫井北町1丁目18-21","lat":35.70261971,"lon":139.49436649},{"name":"前原町丸山台集会所","province":"東京都","city":"小金井市","address":"東京都小金井市前原町4丁目18-14","lat":35.6905852,"lon":139.50343011},{"name":"貫井南町三楽集会所","province":"東京都","city":"小金井市","address":"東京都小金井市貫井南町3丁目6-18","lat":35.69950063,"lon":139.49511933},{"name":"東町友愛会館","province":"東京都","city":"小金井市","address":"東京都小金井市東町4丁目10-2","lat":35.69457696,"lon":139.52368384},{"name":"中町桜並集会所","province":"東京都","city":"小金井市","address":"東京都小金井市中町3丁目19-12","lat":35.70013995,"lon":139.51267897},{"name":"貫井北五集会所","province":"東京都","city":"小金井市","address":"東京都小金井市貫井北町5丁目16-13","lat":35.70290563,"lon":139.48851974},{"name":"中町天神前集会所","province":"東京都","city":"小金井市","address":"東京都小金井市中町1丁目7-7","lat":35.69348506,"lon":139.50991835},{"name":"東町集会所(東ｾﾝﾀｰ内)","province":"東京都","city":"小金井市","address":"東京都小金井市東町1丁目39-1","lat":35.69401043,"lon":139.52652529},{"name":"＊?小金井市文化財センター","province":"東京都","city":"小金井市","address":"小金井市緑町3-2-37","lat":35.710144,"lon":139.517044},{"name":"小金井市総合体育館","province":"東京都","city":"小金井市","address":"東京都小金井市関野町1丁目13-1","lat":35.7142719,"lon":139.51990554},{"name":"栗山公園健康運動センター","province":"東京都","city":"小金井市","address":"東京都小金井市中町2丁目21-1","lat":35.69786265,"lon":139.52130058},{"name":"公民館貫井北分館","province":"東京都","city":"小金井市","address":"東京都小金井市貫井北町1丁目11-12","lat":35.7023476,"lon":139.49763845},{"name":"小金井 宮地楽器ホール","province":"東京都","city":"小金井市","address":"東京都小金井市本町6丁目14-45","lat":35.7001731,"lon":139.50662947},{"name":"前原町西之台会館","province":"東京都","city":"小金井市","address":"東京都小金井市前原町3丁目8-1","lat":35.69391528,"lon":139.49958585},{"name":"桜町病院","province":"東京都","city":"小金井市","address":"小金井市桜町1-2-20","lat":35.709547,"lon":139.511426},{"name":"小金井市児童発達支援センター　きらり","province":"東京都","city":"小金井市","address":"小金井市梶野町1-2-3","lat":35.701987,"lon":139.528755},{"name":"おもちゃ箱上水桜","province":"東京都","city":"小金井市","address":"小金井市桜町2-12-31","lat":35.712219,"lon":139.504571},{"name":"おもちゃ箱なかまち","province":"東京都","city":"小金井市","address":"小金井市中町4-17-13","lat":35.697726,"lon":139.50894},{"name":"木馬の会（小金井おもちゃライブラリー学童クラブ）","province":"東京都","city":"小金井市","address":"小金井市前原町2-14-4","lat":35.692316,"lon":139.511824},{"name":"児童発達センター　びぃぼ","province":"東京都","city":"小金井市","address":"小金井市貫井北町1-6-22","lat":35.701981,"lon":139.494733},{"name":"おもちゃ箱こがねい","province":"東京都","city":"小金井市","address":"小金井市貫井北町一丁目24番9号","lat":35.703103,"lon":139.49745},{"name":"梶野町第二荘","province":"東京都","city":"小金井市","address":"小金井市梶野町2-16-6","lat":35.709284,"lon":139.529938},{"name":"梶野町荘","province":"東京都","city":"小金井市","address":"小金井市梶野町2-16-7","lat":35.709309,"lon":139.529727},{"name":"小金井荘","province":"東京都","city":"小金井市","address":"小金井市梶野町4-10-23","lat":35.707681,"lon":139.526964},{"name":"東小金井荘","province":"東京都","city":"小金井市","address":"小金井市梶野町4-10-24","lat":35.707853,"lon":139.526775},{"name":"さくら東小金井ハウス","province":"東京都","city":"小金井市","address":"小金井市東町4-20-22","lat":35.695605,"lon":139.525273},{"name":"サンハイツ貫井南","province":"東京都","city":"小金井市","address":"小金井市貫井南町4-14-8","lat":35.695223,"lon":139.494797},{"name":"梶野町第二荘","province":"東京都","city":"小金井市","address":"小金井市梶野町2-16-6","lat":35.70932,"lon":139.52924},{"name":"梶野町荘","province":"東京都","city":"小金井市","address":"小金井市梶野町2-16-7","lat":35.70932,"lon":139.52924},{"name":"小金井荘","province":"東京都","city":"小金井市","address":"小金井市梶野町4-10-23","lat":35.70747,"lon":139.52699},{"name":"東小金井荘","province":"東京都","city":"小金井市","address":"小金井市梶野町4-10-24","lat":35.70747,"lon":139.52699},{"name":"さくら東小金井ハウス","province":"東京都","city":"小金井市","address":"小金井市東町4-20-22","lat":35.6959,"lon":139.52505},{"name":"サンハイツ貫井南","province":"東京都","city":"小金井市","address":"小金井市貫井南町4-14-8","lat":35.69549,"lon":139.49466},{"name":"食・学・活きるみんなの居場所また明日","province":"東京都","city":"小金井市","address":"東京都小金井市貫井南町4丁目14-14","lat":35.69595658,"lon":139.49450286},{"name":"子ども食堂ポム","province":"東京都","city":"小金井市","address":"東京都小金井市中町4丁目7-7","lat":35.69475988,"lon":139.50855452},{"name":"小金井公園","province":"東京都","city":"小金井市","address":"東京都小金井市桜町三丁目、関野町一・二丁目、小平市花小金井南町三丁目、西東京市向台六丁目、武蔵野市桜堤三丁目","lat":35.71706,"lon":139.517882},{"name":"武蔵野公園","province":"東京都","city":"小金井市","address":"東京都小金井市前原町二丁目、東町五丁目、中町一丁目、府中市多磨町二・三丁目","lat":35.687906,"lon":139.520496},{"name":"梶野配水所","province":"東京都","city":"小金井市","address":"東京都小金井市梶野町5-10-33","lat":35.7046375,"lon":139.526531},{"name":"桜町病院","province":"東京都","city":"小金井市","address":"小金井市桜町1-2-20","lat":35.70885,"lon":139.51196},{"name":"梶野町第２荘","province":"東京都","city":"小金井市","address":"小金井市梶野町2-16-6","lat":35.70932,"lon":139.52924},{"name":"梶野町第３荘","province":"東京都","city":"小金井市","address":"小金井市梶野町2-16-9","lat":35.70932,"lon":139.52924},{"name":"サンハイツ貫井南２","province":"東京都","city":"小金井市","address":"小金井市貫井南町4-14-8","lat":35.69549,"lon":139.49466},{"name":"武蔵小金井南第３自転車駐車場","province":"東京都","city":"小金井市","address":"東京都小金井市本町6丁目5-3","lat":35.69924258,"lon":139.50395749},{"name":"武蔵小金井南第７自転車駐車場","province":"東京都","city":"小金井市","address":"東京都小金井市本町6丁目14-45","lat":35.7001731,"lon":139.50662947},{"name":"武蔵小金井北第５自転車駐車場","province":"東京都","city":"小金井市","address":"東京都小金井市本町2丁目1","lat":35.70122579,"lon":139.50750712},{"name":"東小金井駅西側高架下自転車駐車場（Ａ）","province":"東京都","city":"小金井市","address":"東京都小金井市緑町1丁目1","lat":35.70212886,"lon":139.52142262},{"name":"東小金井駅西側高架下自転車駐車場（Ｂ）","province":"東京都","city":"小金井市","address":"東京都小金井市緑町1丁目2","lat":35.70237879,"lon":139.5200505},{"name":"新小金井西第１自転車駐車場","province":"東京都","city":"小金井市","address":"東京都小金井市東町4丁目24","lat":35.69555191,"lon":139.52606416},{"name":"東小金井北第１自転車駐車場","province":"東京都","city":"小金井市","address":"東京都小金井市梶野町5丁目2","lat":35.70192613,"lon":139.52254753},{"name":"東小金井駅前第一駐輪場","province":"東京都","city":"小金井市","address":"東京都小金井市梶野町5丁目1-1","lat":35.70159565,"lon":139.52426962},{"name":"東小金井駅前第二駐輪場","province":"東京都","city":"小金井市","address":"東京都小金井市緑町1丁目2","lat":35.70237879,"lon":139.5200505},{"name":"さくら東小金井ハウス","province":"東京都","city":"小金井市","address":"小金井市東町4-20-22","lat":35.6959,"lon":139.52506},{"name":"サンハイツ貫井南2","province":"東京都","city":"小金井市","address":"小金井市貫井南町4-14-8","lat":35.69549,"lon":139.49466},{"name":"前原坂上","province":"東京都","city":"小金井市","address":"東京都小金井市前原町3丁目41-24","lat":35.6986316,"lon":139.50591292},{"name":"小金井本町二丁目","province":"東京都","city":"小金井市","address":"東京都小金井市本町4丁目1-38","lat":35.70565307,"lon":139.50749306},{"name":"小金井第一小学校前第一","province":"東京都","city":"小金井市","address":"東京都小金井市中町1丁目9-19","lat":35.6972291,"lon":139.51038483},{"name":"貫井北町学芸大角","province":"東京都","city":"小金井市","address":"東京都小金井市貫井北町2丁目18-6","lat":35.70764141,"lon":139.4961078},{"name":"武蔵小金井駅北口","province":"東京都","city":"小金井市","address":"東京都小金井市本町5丁目1","lat":35.70118684,"lon":139.5051351},{"name":"小金井中町三丁目","province":"東京都","city":"小金井市","address":"東京都小金井市本町1丁目13-3","lat":35.69889837,"lon":139.51099305},{"name":"小金井市保健センター前","province":"東京都","city":"小金井市","address":"東京都小金井市貫井北町5丁目18-18","lat":35.70169192,"lon":139.49017242},{"name":"学芸大東門前","province":"東京都","city":"小金井市","address":"東京都小金井市貫井北町2丁目4-16","lat":35.70494728,"lon":139.49679119},{"name":"小金井郵便局前","province":"東京都","city":"小金井市","address":"東京都小金井市本町5丁目37-30","lat":35.70514197,"lon":139.50575434},{"name":"小金井消防署前","province":"東京都","city":"小金井市","address":"東京都小金井市本町6丁目6-1","lat":35.69930923,"lon":139.50345476},{"name":"貫井南町五丁目","province":"東京都","city":"小金井市","address":"東京都小金井市貫井南町4丁目1","lat":35.69376794,"lon":139.49453073},{"name":"小金井第一小学校前第二","province":"東京都","city":"小金井市","address":"東京都小金井市中町1丁目9-21","lat":35.69712911,"lon":139.51062092},{"name":"栗山公園前","province":"東京都","city":"小金井市","address":"東京都小金井市中町2丁目21","lat":35.69846815,"lon":139.52146721},{"name":"公園駐車場入口","province":"東京都","city":"小金井市","address":"東京都小金井市関野町1丁目7","lat":35.71356918,"lon":139.51856958},{"name":"小金井商工会館前","province":"東京都","city":"小金井市","address":"東京都小金井市本町5丁目9","lat":35.70193395,"lon":139.50385184},{"name":"市立南中学校前","province":"東京都","city":"小金井市","address":"東京都小金井市貫井南町1丁目24-1","lat":35.69076836,"lon":139.49776947},{"name":"小金井福祉会館前","province":"東京都","city":"小金井市","address":"東京都小金井市中町4丁目15-14","lat":35.69811781,"lon":139.50769057},{"name":"小金井本町二丁目南","province":"東京都","city":"小金井市","address":"東京都小金井市本町2丁目6-12","lat":35.70363109,"lon":139.50777923},{"name":"小金井本町五丁目","province":"東京都","city":"小金井市","address":"東京都小金井市本町5丁目13-1","lat":35.70211735,"lon":139.5070238},{"name":"農工大通り入口","province":"東京都","city":"小金井市","address":"東京都小金井市本町6丁目14-45","lat":35.7001731,"lon":139.50662947},{"name":"小金井公園西門","province":"東京都","city":"小金井市","address":"東京都小金井市桜町3丁目7","lat":35.71347722,"lon":139.50841486},{"name":"小金井東小学校前","province":"東京都","city":"小金井市","address":"東京都小金井市東町4丁目25-7","lat":35.69766002,"lon":139.5262946},{"name":"武蔵小金井駅北第二","province":"東京都","city":"小金井市","address":"東京都小金井市本町5丁目1","lat":35.70118684,"lon":139.5051351},{"name":"小金井市役所","province":"東京都","city":"小金井市","address":"東京都小金井市本町6丁目2","lat":35.69969535,"lon":139.5055018},{"name":"学芸大北門前","province":"東京都","city":"小金井市","address":"東京都小金井市貫井北町3丁目9-6","lat":35.70835512,"lon":139.49218866},{"name":"栗山公園北","province":"東京都","city":"小金井市","address":"東京都小金井市中町2丁目22-32","lat":35.69972913,"lon":139.52174491},{"name":"武蔵小金井駅南口","province":"東京都","city":"小金井市","address":"東京都小金井市本町1丁目18-10","lat":35.70068419,"lon":139.50759048},{"name":"武蔵小金井駅北口東","province":"東京都","city":"小金井市","address":"東京都小金井市本町5丁目12","lat":35.70177847,"lon":139.5061711},{"name":"前原交番東","province":"東京都","city":"小金井市","address":"東京都小金井市前原町4丁目10-11","lat":35.68921588,"lon":139.50260523},{"name":"市民会館 （萌え木ホール）","province":"東京都","city":"小金井市","address":"東京都小金井市前原町3丁目33-25","lat":35.69893146,"lon":139.5024743},{"name":"東小金井駅開設記念会館（マロンホール）","province":"東京都","city":"小金井市","address":"東京都小金井市東町3丁目7-21","lat":35.70026535,"lon":139.52904704},{"name":"前原暫定集会施設","province":"東京都","city":"小金井市","address":"東京都小金井市前原町3丁目33-27","lat":35.69891202,"lon":139.50262151},{"name":"婦人会館","province":"東京都","city":"小金井市","address":"東京都小金井市梶野町5丁目10-32","lat":35.70495366,"lon":139.5264804},{"name":"上之原会館","province":"東京都","city":"小金井市","address":"東京都小金井市本町5丁目6-19","lat":35.70252549,"lon":139.50201586},{"name":"前原町西之台会館","province":"東京都","city":"小金井市","address":"東京都小金井市前原町3丁目8-1","lat":35.69391528,"lon":139.49958585},{"name":"桜町上水会館","province":"東京都","city":"小金井市","address":"東京都小金井市桜町2丁目8-13","lat":35.71088575,"lon":139.50495693},{"name":"貫井北町集会場","province":"東京都","city":"小金井市","address":"東京都小金井市貫井北町3丁目31-17","lat":35.71155208,"lon":139.49595488},{"name":"貫井北町中之久保集会所","province":"東京都","city":"小金井市","address":"東京都小金井市貫井北町1丁目18-21","lat":35.70261971,"lon":139.49436649},{"name":"前原町丸山台集会所","province":"東京都","city":"小金井市","address":"東京都小金井市前原町4丁目18-14","lat":35.6905852,"lon":139.50343011},{"name":"貫井南町三楽集会所","province":"東京都","city":"小金井市","address":"東京都小金井市貫井南町3丁目6-18","lat":35.69950063,"lon":139.49511933},{"name":"東町友愛会館","province":"東京都","city":"小金井市","address":"東京都小金井市東町4丁目10-2","lat":35.69457696,"lon":139.52368384},{"name":"中町桜並集会所","province":"東京都","city":"小金井市","address":"東京都小金井市中町3丁目19-12","lat":35.70013995,"lon":139.51267897},{"name":"貫井北五集会所","province":"東京都","city":"小金井市","address":"東京都小金井市貫井北町5丁目16-13","lat":35.70290563,"lon":139.48851974},{"name":"中町天神前集会所","province":"東京都","city":"小金井市","address":"東京都小金井市中町1丁目7-7","lat":35.69348506,"lon":139.50991835},{"name":"東町集会所(東ｾﾝﾀｰ内)","province":"東京都","city":"小金井市","address":"東京都小金井市東町1丁目39-1","lat":35.69401043,"lon":139.52652529},{"name":"小金井市総合体育館","province":"東京都","city":"小金井市","address":"東京都小金井市関野町1丁目13-1","lat":35.7142719,"lon":139.51990554},{"name":"栗山公園健康運動センター","province":"東京都","city":"小金井市","address":"東京都小金井市中町2丁目21-1","lat":35.69786265,"lon":139.52130058},{"name":"公民館貫井北分館","province":"東京都","city":"小金井市","address":"東京都小金井市貫井北町1丁目11-12","lat":35.7023476,"lon":139.49763845},{"name":"小金井 宮地楽器ホール","province":"東京都","city":"小金井市","address":"東京都小金井市本町6丁目14-45","lat":35.7001731,"lon":139.50662947},{"name":"前原町西之台会館","province":"東京都","city":"小金井市","address":"東京都小金井市前原町3丁目8-1","lat":35.69391528,"lon":139.49958585},{"name":"桜町病院","province":"東京都","city":"小金井市","address":"小金井市桜町1-2-20","lat":35.709547,"lon":139.511426},{"name":"小金井市児童発達支援センター　きらり","province":"東京都","city":"小金井市","address":"小金井市梶野町1-2-3","lat":35.701987,"lon":139.528755},{"name":"おもちゃ箱上水桜","province":"東京都","city":"小金井市","address":"小金井市桜町2-12-31","lat":35.712219,"lon":139.504571},{"name":"おもちゃ箱なかまち","province":"東京都","city":"小金井市","address":"小金井市中町4-17-13","lat":35.697726,"lon":139.50894},{"name":"木馬の会（小金井おもちゃライブラリー学童クラブ）","province":"東京都","city":"小金井市","address":"小金井市前原町2-14-4","lat":35.692316,"lon":139.511824},{"name":"児童発達センター　びぃぼ","province":"東京都","city":"小金井市","address":"小金井市貫井北町1-6-22","lat":35.701981,"lon":139.494733},{"name":"おもちゃ箱こがねい","province":"東京都","city":"小金井市","address":"小金井市貫井北町一丁目24番9号","lat":35.703103,"lon":139.49745},{"name":"梶野町第二荘","province":"東京都","city":"小金井市","address":"小金井市梶野町2-16-6","lat":35.709284,"lon":139.529938},{"name":"梶野町荘","province":"東京都","city":"小金井市","address":"小金井市梶野町2-16-7","lat":35.709309,"lon":139.529727},{"name":"小金井荘","province":"東京都","city":"小金井市","address":"小金井市梶野町4-10-23","lat":35.707681,"lon":139.526964},{"name":"東小金井荘","province":"東京都","city":"小金井市","address":"小金井市梶野町4-10-24","lat":35.707853,"lon":139.526775},{"name":"さくら東小金井ハウス","province":"東京都","city":"小金井市","address":"小金井市東町4-20-22","lat":35.695605,"lon":139.525273},{"name":"サンハイツ貫井南","province":"東京都","city":"小金井市","address":"小金井市貫井南町4-14-8","lat":35.695223,"lon":139.494797},{"name":"梶野町第二荘","province":"東京都","city":"小金井市","address":"小金井市梶野町2-16-6","lat":35.70932,"lon":139.52924},{"name":"梶野町荘","province":"東京都","city":"小金井市","address":"小金井市梶野町2-16-7","lat":35.70932,"lon":139.52924},{"name":"小金井荘","province":"東京都","city":"小金井市","address":"小金井市梶野町4-10-23","lat":35.70747,"lon":139.52699},{"name":"東小金井荘","province":"東京都","city":"小金井市","address":"小金井市梶野町4-10-24","lat":35.70747,"lon":139.52699},{"name":"さくら東小金井ハウス","province":"東京都","city":"小金井市","address":"小金井市東町4-20-22","lat":35.6959,"lon":139.52505},{"name":"サンハイツ貫井南","province":"東京都","city":"小金井市","address":"小金井市貫井南町4-14-8","lat":35.69549,"lon":139.49466},{"name":"小金井公園","province":"東京都","city":"小金井市","address":"東京都小金井市桜町三丁目、関野町一・二丁目、小平市花小金井南町三丁目、西東京市向台六丁目、武蔵野市桜堤三丁目","lat":35.71706,"lon":139.517882},{"name":"武蔵野公園","province":"東京都","city":"小金井市","address":"東京都小金井市前原町二丁目、東町五丁目、中町一丁目、府中市多磨町二・三丁目","lat":35.687906,"lon":139.520496},{"name":"梶野配水所","province":"東京都","city":"小金井市","address":"東京都小金井市梶野町5-10-33","lat":35.7046375,"lon":139.526531},{"name":"桜町病院","province":"東京都","city":"小金井市","address":"小金井市桜町1-2-20","lat":35.70885,"lon":139.51196},{"name":"梶野町第２荘","province":"東京都","city":"小金井市","address":"小金井市梶野町2-16-6","lat":35.70932,"lon":139.52924},{"name":"梶野町第３荘","province":"東京都","city":"小金井市","address":"小金井市梶野町2-16-9","lat":35.70932,"lon":139.52924},{"name":"サンハイツ貫井南２","province":"東京都","city":"小金井市","address":"小金井市貫井南町4-14-8","lat":35.69549,"lon":139.49466},{"name":"武蔵小金井南第３自転車駐車場","province":"東京都","city":"小金井市","address":"東京都小金井市本町6丁目5-3","lat":35.69924258,"lon":139.50395749},{"name":"武蔵小金井南第７自転車駐車場","province":"東京都","city":"小金井市","address":"東京都小金井市本町6丁目14-45","lat":35.7001731,"lon":139.50662947},{"name":"武蔵小金井北第５自転車駐車場","province":"東京都","city":"小金井市","address":"東京都小金井市本町2丁目1","lat":35.70122579,"lon":139.50750712},{"name":"東小金井駅西側高架下自転車駐車場（Ａ）","province":"東京都","city":"小金井市","address":"東京都小金井市緑町1丁目1","lat":35.70212886,"lon":139.52142262},{"name":"東小金井駅西側高架下自転車駐車場（Ｂ）","province":"東京都","city":"小金井市","address":"東京都小金井市緑町1丁目2","lat":35.70237879,"lon":139.5200505},{"name":"新小金井西第１自転車駐車場","province":"東京都","city":"小金井市","address":"東京都小金井市東町4丁目24","lat":35.69555191,"lon":139.52606416},{"name":"東小金井北第１自転車駐車場","province":"東京都","city":"小金井市","address":"東京都小金井市梶野町5丁目2","lat":35.70192613,"lon":139.52254753},{"name":"東小金井駅前第一駐輪場","province":"東京都","city":"小金井市","address":"東京都小金井市梶野町5丁目1-1","lat":35.70159565,"lon":139.52426962},{"name":"東小金井駅前第二駐輪場","province":"東京都","city":"小金井市","address":"東京都小金井市緑町1丁目2","lat":35.70237879,"lon":139.5200505},{"name":"さくら東小金井ハウス","province":"東京都","city":"小金井市","address":"小金井市東町4-20-22","lat":35.6959,"lon":139.52506},{"name":"サンハイツ貫井南2","province":"東京都","city":"小金井市","address":"小金井市貫井南町4-14-8","lat":35.69549,"lon":139.49466},{"name":"前原坂上","province":"東京都","city":"小金井市","address":"東京都小金井市前原町3丁目41-24","lat":35.6986316,"lon":139.50591292},{"name":"小金井本町二丁目","province":"東京都","city":"小金井市","address":"東京都小金井市本町4丁目1-38","lat":35.70565307,"lon":139.50749306},{"name":"小金井第一小学校前第一","province":"東京都","city":"小金井市","address":"東京都小金井市中町1丁目9-19","lat":35.6972291,"lon":139.51038483},{"name":"貫井北町学芸大角","province":"東京都","city":"小金井市","address":"東京都小金井市貫井北町2丁目18-6","lat":35.70764141,"lon":139.4961078},{"name":"武蔵小金井駅北口","province":"東京都","city":"小金井市","address":"東京都小金井市本町5丁目1","lat":35.70118684,"lon":139.5051351},{"name":"小金井中町三丁目","province":"東京都","city":"小金井市","address":"東京都小金井市本町1丁目13-3","lat":35.69889837,"lon":139.51099305},{"name":"小金井市保健センター前","province":"東京都","city":"小金井市","address":"東京都小金井市貫井北町5丁目18-18","lat":35.70169192,"lon":139.49017242},{"name":"学芸大東門前","province":"東京都","city":"小金井市","address":"東京都小金井市貫井北町2丁目4-16","lat":35.70494728,"lon":139.49679119},{"name":"小金井郵便局前","province":"東京都","city":"小金井市","address":"東京都小金井市本町5丁目37-30","lat":35.70514197,"lon":139.50575434},{"name":"小金井消防署前","province":"東京都","city":"小金井市","address":"東京都小金井市本町6丁目6-1","lat":35.69930923,"lon":139.50345476},{"name":"貫井南町五丁目","province":"東京都","city":"小金井市","address":"東京都小金井市貫井南町4丁目1","lat":35.69376794,"lon":139.49453073},{"name":"小金井第一小学校前第二","province":"東京都","city":"小金井市","address":"東京都小金井市中町1丁目9-21","lat":35.69712911,"lon":139.51062092},{"name":"栗山公園前","province":"東京都","city":"小金井市","address":"東京都小金井市中町2丁目21","lat":35.69846815,"lon":139.52146721},{"name":"公園駐車場入口","province":"東京都","city":"小金井市","address":"東京都小金井市関野町1丁目7","lat":35.71356918,"lon":139.51856958},{"name":"小金井商工会館前","province":"東京都","city":"小金井市","address":"東京都小金井市本町5丁目9","lat":35.70193395,"lon":139.50385184},{"name":"市立南中学校前","province":"東京都","city":"小金井市","address":"東京都小金井市貫井南町1丁目24-1","lat":35.69076836,"lon":139.49776947},{"name":"小金井福祉会館前","province":"東京都","city":"小金井市","address":"東京都小金井市中町4丁目15-14","lat":35.69811781,"lon":139.50769057},{"name":"小金井本町二丁目南","province":"東京都","city":"小金井市","address":"東京都小金井市本町2丁目6-12","lat":35.70363109,"lon":139.50777923},{"name":"小金井本町五丁目","province":"東京都","city":"小金井市","address":"東京都小金井市本町5丁目13-1","lat":35.70211735,"lon":139.5070238},{"name":"農工大通り入口","province":"東京都","city":"小金井市","address":"東京都小金井市本町6丁目14-45","lat":35.7001731,"lon":139.50662947},{"name":"小金井公園西門","province":"東京都","city":"小金井市","address":"東京都小金井市桜町3丁目7","lat":35.71347722,"lon":139.50841486},{"name":"小金井東小学校前","province":"東京都","city":"小金井市","address":"東京都小金井市東町4丁目25-7","lat":35.69766002,"lon":139.5262946},{"name":"武蔵小金井駅北第二","province":"東京都","city":"小金井市","address":"東京都小金井市本町5丁目1","lat":35.70118684,"lon":139.5051351},{"name":"小金井市役所","province":"東京都","city":"小金井市","address":"東京都小金井市本町6丁目2","lat":35.69969535,"lon":139.5055018},{"name":"学芸大北門前","province":"東京都","city":"小金井市","address":"東京都小金井市貫井北町3丁目9-6","lat":35.70835512,"lon":139.49218866},{"name":"栗山公園北","province":"東京都","city":"小金井市","address":"東京都小金井市中町2丁目22-32","lat":35.69972913,"lon":139.52174491},{"name":"武蔵小金井駅南口","province":"東京都","city":"小金井市","address":"東京都小金井市本町1丁目18-10","lat":35.70068419,"lon":139.50759048},{"name":"武蔵小金井駅北口東","province":"東京都","city":"小金井市","address":"東京都小金井市本町5丁目12","lat":35.70177847,"lon":139.5061711},{"name":"前原交番東","province":"東京都","city":"小金井市","address":"東京都小金井市前原町4丁目10-11","lat":35.68921588,"lon":139.50260523},{"name":"市民会館 （萌え木ホール）","province":"東京都","city":"小金井市","address":"東京都小金井市前原町3丁目33-25","lat":35.69893146,"lon":139.5024743},{"name":"東小金井駅開設記念会館（マロンホール）","province":"東京都","city":"小金井市","address":"東京都小金井市東町3丁目7-21","lat":35.70026535,"lon":139.52904704},{"name":"前原暫定集会施設","province":"東京都","city":"小金井市","address":"東京都小金井市前原町3丁目33-27","lat":35.69891202,"lon":139.50262151},{"name":"婦人会館","province":"東京都","city":"小金井市","address":"東京都小金井市梶野町5丁目10-32","lat":35.70495366,"lon":139.5264804},{"name":"上之原会館","province":"東京都","city":"小金井市","address":"東京都小金井市本町5丁目6-19","lat":35.70252549,"lon":139.50201586},{"name":"前原町西之台会館","province":"東京都","city":"小金井市","address":"東京都小金井市前原町3丁目8-1","lat":35.69391528,"lon":139.49958585},{"name":"桜町上水会館","province":"東京都","city":"小金井市","address":"東京都小金井市桜町2丁目8-13","lat":35.71088575,"lon":139.50495693},{"name":"貫井北町集会場","province":"東京都","city":"小金井市","address":"東京都小金井市貫井北町3丁目31-17","lat":35.71155208,"lon":139.49595488},{"name":"貫井北町中之久保集会所","province":"東京都","city":"小金井市","address":"東京都小金井市貫井北町1丁目18-21","lat":35.70261971,"lon":139.49436649},{"name":"前原町丸山台集会所","province":"東京都","city":"小金井市","address":"東京都小金井市前原町4丁目18-14","lat":35.6905852,"lon":139.50343011},{"name":"貫井南町三楽集会所","province":"東京都","city":"小金井市","address":"東京都小金井市貫井南町3丁目6-18","lat":35.69950063,"lon":139.49511933},{"name":"東町友愛会館","province":"東京都","city":"小金井市","address":"東京都小金井市東町4丁目10-2","lat":35.69457696,"lon":139.52368384},{"name":"中町桜並集会所","province":"東京都","city":"小金井市","address":"東京都小金井市中町3丁目19-12","lat":35.70013995,"lon":139.51267897},{"name":"貫井北五集会所","province":"東京都","city":"小金井市","address":"東京都小金井市貫井北町5丁目16-13","lat":35.70290563,"lon":139.48851974},{"name":"中町天神前集会所","province":"東京都","city":"小金井市","address":"東京都小金井市中町1丁目7-7","lat":35.69348506,"lon":139.50991835},{"name":"東町集会所(東ｾﾝﾀｰ内)","province":"東京都","city":"小金井市","address":"東京都小金井市東町1丁目39-1","lat":35.69401043,"lon":139.52652529},{"name":"小金井市総合体育館","province":"東京都","city":"小金井市","address":"東京都小金井市関野町1丁目13-1","lat":35.7142719,"lon":139.51990554},{"name":"栗山公園健康運動センター","province":"東京都","city":"小金井市","address":"東京都小金井市中町2丁目21-1","lat":35.69786265,"lon":139.52130058},{"name":"公民館貫井北分館","province":"東京都","city":"小金井市","address":"東京都小金井市貫井北町1丁目11-12","lat":35.7023476,"lon":139.49763845},{"name":"小金井 宮地楽器ホール","province":"東京都","city":"小金井市","address":"東京都小金井市本町6丁目14-45","lat":35.7001731,"lon":139.50662947},{"name":"前原町西之台会館","province":"東京都","city":"小金井市","address":"東京都小金井市前原町3丁目8-1","lat":35.69391528,"lon":139.49958585},{"name":"桜町病院","province":"東京都","city":"小金井市","address":"小金井市桜町1-2-20","lat":35.709547,"lon":139.511426},{"name":"梶野町第二荘","province":"東京都","city":"小金井市","address":"小金井市梶野町2-16-6","lat":35.709284,"lon":139.529938},{"name":"梶野町荘","province":"東京都","city":"小金井市","address":"小金井市梶野町2-16-7","lat":35.709309,"lon":139.529727},{"name":"小金井荘","province":"東京都","city":"小金井市","address":"小金井市梶野町4-10-23","lat":35.707681,"lon":139.526964},{"name":"東小金井荘","province":"東京都","city":"小金井市","address":"小金井市梶野町4-10-24","lat":35.707853,"lon":139.526775},{"name":"さくら東小金井ハウス","province":"東京都","city":"小金井市","address":"小金井市東町4-20-22","lat":35.695605,"lon":139.525273},{"name":"サンハイツ貫井南","province":"東京都","city":"小金井市","address":"小金井市貫井南町4-14-8","lat":35.695223,"lon":139.494797},{"name":"梶野町第二荘","province":"東京都","city":"小金井市","address":"小金井市梶野町2-16-6","lat":35.70932,"lon":139.52924},{"name":"梶野町荘","province":"東京都","city":"小金井市","address":"小金井市梶野町2-16-7","lat":35.70932,"lon":139.52924},{"name":"小金井荘","province":"東京都","city":"小金井市","address":"小金井市梶野町4-10-23","lat":35.70747,"lon":139.52699},{"name":"東小金井荘","province":"東京都","city":"小金井市","address":"小金井市梶野町4-10-24","lat":35.70747,"lon":139.52699},{"name":"さくら東小金井ハウス","province":"東京都","city":"小金井市","address":"小金井市東町4-20-22","lat":35.6959,"lon":139.52505},{"name":"サンハイツ貫井南","province":"東京都","city":"小金井市","address":"小金井市貫井南町4-14-8","lat":35.69549,"lon":139.49466},{"name":"小金井公園","province":"東京都","city":"小金井市","address":"東京都小金井市桜町三丁目、関野町一・二丁目、小平市花小金井南町三丁目、西東京市向台六丁目、武蔵野市桜堤三丁目","lat":35.71706,"lon":139.517882},{"name":"武蔵野公園","province":"東京都","city":"小金井市","address":"東京都小金井市前原町二丁目、東町五丁目、中町一丁目、府中市多磨町二・三丁目","lat":35.687906,"lon":139.520496},{"name":"梶野配水所","province":"東京都","city":"小金井市","address":"東京都小金井市梶野町5-10-33","lat":35.7046375,"lon":139.526531},{"name":"桜町病院","province":"東京都","city":"小金井市","address":"小金井市桜町1-2-20","lat":35.70885,"lon":139.51196},{"name":"梶野町第２荘","province":"東京都","city":"小金井市","address":"小金井市梶野町2-16-6","lat":35.70932,"lon":139.52924},{"name":"梶野町第３荘","province":"東京都","city":"小金井市","address":"小金井市梶野町2-16-9","lat":35.70932,"lon":139.52924},{"name":"サンハイツ貫井南２","province":"東京都","city":"小金井市","address":"小金井市貫井南町4-14-8","lat":35.69549,"lon":139.49466},{"name":"武蔵小金井南第３自転車駐車場","province":"東京都","city":"小金井市","address":"東京都小金井市本町6丁目5-3","lat":35.69924258,"lon":139.50395749},{"name":"武蔵小金井南第７自転車駐車場","province":"東京都","city":"小金井市","address":"東京都小金井市本町6丁目14-45","lat":35.7001731,"lon":139.50662947},{"name":"武蔵小金井北第５自転車駐車場","province":"東京都","city":"小金井市","address":"東京都小金井市本町2丁目1","lat":35.70122579,"lon":139.50750712},{"name":"東小金井駅西側高架下自転車駐車場（Ａ）","province":"東京都","city":"小金井市","address":"東京都小金井市緑町1丁目1","lat":35.70212886,"lon":139.52142262},{"name":"東小金井駅西側高架下自転車駐車場（Ｂ）","province":"東京都","city":"小金井市","address":"東京都小金井市緑町1丁目2","lat":35.70237879,"lon":139.5200505},{"name":"新小金井西第１自転車駐車場","province":"東京都","city":"小金井市","address":"東京都小金井市東町4丁目24","lat":35.69555191,"lon":139.52606416},{"name":"東小金井北第１自転車駐車場","province":"東京都","city":"小金井市","address":"東京都小金井市梶野町5丁目2","lat":35.70192613,"lon":139.52254753},{"name":"東小金井駅前第一駐輪場","province":"東京都","city":"小金井市","address":"東京都小金井市梶野町5丁目1-1","lat":35.70159565,"lon":139.52426962},{"name":"東小金井駅前第二駐輪場","province":"東京都","city":"小金井市","address":"東京都小金井市緑町1丁目2","lat":35.70237879,"lon":139.5200505},{"name":"さくら東小金井ハウス","province":"東京都","city":"小金井市","address":"小金井市東町4-20-22","lat":35.6959,"lon":139.52506},{"name":"サンハイツ貫井南2","province":"東京都","city":"小金井市","address":"小金井市貫井南町4-14-8","lat":35.69549,"lon":139.49466},{"name":"市民会館 （萌え木ホール）","province":"東京都","city":"小金井市","address":"東京都小金井市前原町3丁目33-25","lat":35.69893146,"lon":139.5024743},{"name":"東小金井駅開設記念会館（マロンホール）","province":"東京都","city":"小金井市","address":"東京都小金井市東町3丁目7-21","lat":35.70026535,"lon":139.52904704},{"name":"前原暫定集会施設","province":"東京都","city":"小金井市","address":"東京都小金井市前原町3丁目33-27","lat":35.69891202,"lon":139.50262151},{"name":"婦人会館","province":"東京都","city":"小金井市","address":"東京都小金井市梶野町5丁目10-32","lat":35.70495366,"lon":139.5264804},{"name":"上之原会館","province":"東京都","city":"小金井市","address":"東京都小金井市本町5丁目6-19","lat":35.70252549,"lon":139.50201586},{"name":"前原町西之台会館","province":"東京都","city":"小金井市","address":"東京都小金井市前原町3丁目8-1","lat":35.69391528,"lon":139.49958585},{"name":"桜町上水会館","province":"東京都","city":"小金井市","address":"東京都小金井市桜町2丁目8-13","lat":35.71088575,"lon":139.50495693},{"name":"貫井北町集会場","province":"東京都","city":"小金井市","address":"東京都小金井市貫井北町3丁目31-17","lat":35.71155208,"lon":139.49595488},{"name":"貫井北町中之久保集会所","province":"東京都","city":"小金井市","address":"東京都小金井市貫井北町1丁目18-21","lat":35.70261971,"lon":139.49436649},{"name":"前原町丸山台集会所","province":"東京都","city":"小金井市","address":"東京都小金井市前原町4丁目18-14","lat":35.6905852,"lon":139.50343011},{"name":"貫井南町三楽集会所","province":"東京都","city":"小金井市","address":"東京都小金井市貫井南町3丁目6-18","lat":35.69950063,"lon":139.49511933},{"name":"東町友愛会館","province":"東京都","city":"小金井市","address":"東京都小金井市東町4丁目10-2","lat":35.69457696,"lon":139.52368384},{"name":"中町桜並集会所","province":"東京都","city":"小金井市","address":"東京都小金井市中町3丁目19-12","lat":35.70013995,"lon":139.51267897},{"name":"貫井北五集会所","province":"東京都","city":"小金井市","address":"東京都小金井市貫井北町5丁目16-13","lat":35.70290563,"lon":139.48851974},{"name":"中町天神前集会所","province":"東京都","city":"小金井市","address":"東京都小金井市中町1丁目7-7","lat":35.69348506,"lon":139.50991835},{"name":"東町集会所(東ｾﾝﾀｰ内)","province":"東京都","city":"小金井市","address":"東京都小金井市東町1丁目39-1","lat":35.69401043,"lon":139.52652529},{"name":"小金井市総合体育館","province":"東京都","city":"小金井市","address":"東京都小金井市関野町1丁目13-1","lat":35.7142719,"lon":139.51990554},{"name":"栗山公園健康運動センター","province":"東京都","city":"小金井市","address":"東京都小金井市中町2丁目21-1","lat":35.69786265,"lon":139.52130058},{"name":"公民館貫井北分館","province":"東京都","city":"小金井市","address":"東京都小金井市貫井北町1丁目11-12","lat":35.7023476,"lon":139.49763845},{"name":"小金井 宮地楽器ホール","province":"東京都","city":"小金井市","address":"東京都小金井市本町6丁目14-45","lat":35.7001731,"lon":139.50662947},{"name":"前原町西之台会館","province":"東京都","city":"小金井市","address":"東京都小金井市前原町3丁目8-1","lat":35.69391528,"lon":139.49958585},{"name":"桜町病院","province":"東京都","city":"小金井市","address":"小金井市桜町1-2-20","lat":35.709547,"lon":139.511426},{"name":"梶野町第二荘","province":"東京都","city":"小金井市","address":"小金井市梶野町2-16-6","lat":35.709284,"lon":139.529938},{"name":"梶野町荘","province":"東京都","city":"小金井市","address":"小金井市梶野町2-16-7","lat":35.709309,"lon":139.529727},{"name":"小金井荘","province":"東京都","city":"小金井市","address":"小金井市梶野町4-10-23","lat":35.707681,"lon":139.526964},{"name":"東小金井荘","province":"東京都","city":"小金井市","address":"小金井市梶野町4-10-24","lat":35.707853,"lon":139.526775},{"name":"さくら東小金井ハウス","province":"東京都","city":"小金井市","address":"小金井市東町4-20-22","lat":35.695605,"lon":139.525273},{"name":"サンハイツ貫井南","province":"東京都","city":"小金井市","address":"小金井市貫井南町4-14-8","lat":35.695223,"lon":139.494797},{"name":"梶野町第二荘","province":"東京都","city":"小金井市","address":"小金井市梶野町2-16-6","lat":35.70932,"lon":139.52924},{"name":"梶野町荘","province":"東京都","city":"小金井市","address":"小金井市梶野町2-16-7","lat":35.70932,"lon":139.52924},{"name":"小金井荘","province":"東京都","city":"小金井市","address":"小金井市梶野町4-10-23","lat":35.70747,"lon":139.52699},{"name":"東小金井荘","province":"東京都","city":"小金井市","address":"小金井市梶野町4-10-24","lat":35.70747,"lon":139.52699},{"name":"さくら東小金井ハウス","province":"東京都","city":"小金井市","address":"小金井市東町4-20-22","lat":35.6959,"lon":139.52505},{"name":"サンハイツ貫井南","province":"東京都","city":"小金井市","address":"小金井市貫井南町4-14-8","lat":35.69549,"lon":139.49466},{"name":"小金井公園","province":"東京都","city":"小金井市","address":"東京都小金井市桜町三丁目、関野町一・二丁目、小平市花小金井南町三丁目、西東京市向台六丁目、武蔵野市桜堤三丁目","lat":35.71706,"lon":139.517882},{"name":"武蔵野公園","province":"東京都","city":"小金井市","address":"東京都小金井市前原町二丁目、東町五丁目、中町一丁目、府中市多磨町二・三丁目","lat":35.687906,"lon":139.520496},{"name":"梶野配水所","province":"東京都","city":"小金井市","address":"東京都小金井市梶野町5-10-33","lat":35.7046375,"lon":139.526531},{"name":"桜町病院","province":"東京都","city":"小金井市","address":"小金井市桜町1-2-20","lat":35.70885,"lon":139.51196},{"name":"梶野町第２荘","province":"東京都","city":"小金井市","address":"小金井市梶野町2-16-6","lat":35.70932,"lon":139.52924},{"name":"梶野町第３荘","province":"東京都","city":"小金井市","address":"小金井市梶野町2-16-9","lat":35.70932,"lon":139.52924},{"name":"サンハイツ貫井南２","province":"東京都","city":"小金井市","address":"小金井市貫井南町4-14-8","lat":35.69549,"lon":139.49466},{"name":"武蔵小金井南第３自転車駐車場","province":"東京都","city":"小金井市","address":"東京都小金井市本町6丁目5-3","lat":35.69924258,"lon":139.50395749},{"name":"武蔵小金井南第７自転車駐車場","province":"東京都","city":"小金井市","address":"東京都小金井市本町6丁目14-45","lat":35.7001731,"lon":139.50662947},{"name":"武蔵小金井北第５自転車駐車場","province":"東京都","city":"小金井市","address":"東京都小金井市本町2丁目1","lat":35.70122579,"lon":139.50750712},{"name":"東小金井駅西側高架下自転車駐車場（Ａ）","province":"東京都","city":"小金井市","address":"東京都小金井市緑町1丁目1","lat":35.70212886,"lon":139.52142262},{"name":"東小金井駅西側高架下自転車駐車場（Ｂ）","province":"東京都","city":"小金井市","address":"東京都小金井市緑町1丁目2","lat":35.70237879,"lon":139.5200505},{"name":"新小金井西第１自転車駐車場","province":"東京都","city":"小金井市","address":"東京都小金井市東町4丁目24","lat":35.69555191,"lon":139.52606416},{"name":"東小金井北第１自転車駐車場","province":"東京都","city":"小金井市","address":"東京都小金井市梶野町5丁目2","lat":35.70192613,"lon":139.52254753},{"name":"東小金井駅前第一駐輪場","province":"東京都","city":"小金井市","address":"東京都小金井市梶野町5丁目1-1","lat":35.70159565,"lon":139.52426962},{"name":"東小金井駅前第二駐輪場","province":"東京都","city":"小金井市","address":"東京都小金井市緑町1丁目2","lat":35.70237879,"lon":139.5200505},{"name":"さくら東小金井ハウス","province":"東京都","city":"小金井市","address":"小金井市東町4-20-22","lat":35.6959,"lon":139.52506},{"name":"サンハイツ貫井南2","province":"東京都","city":"小金井市","address":"小金井市貫井南町4-14-8","lat":35.69549,"lon":139.49466},{"name":"市民会館 （萌え木ホール）","province":"東京都","city":"小金井市","address":"東京都小金井市前原町3丁目33-25","lat":35.69893146,"lon":139.5024743},{"name":"東小金井駅開設記念会館（マロンホール）","province":"東京都","city":"小金井市","address":"東京都小金井市東町3丁目7-21","lat":35.70026535,"lon":139.52904704},{"name":"前原暫定集会施設","province":"東京都","city":"小金井市","address":"東京都小金井市前原町3丁目33-27","lat":35.69891202,"lon":139.50262151},{"name":"婦人会館","province":"東京都","city":"小金井市","address":"東京都小金井市梶野町5丁目10-32","lat":35.70495366,"lon":139.5264804},{"name":"上之原会館","province":"東京都","city":"小金井市","address":"東京都小金井市本町5丁目6-19","lat":35.70252549,"lon":139.50201586},{"name":"前原町西之台会館","province":"東京都","city":"小金井市","address":"東京都小金井市前原町3丁目8-1","lat":35.69391528,"lon":139.49958585},{"name":"桜町上水会館","province":"東京都","city":"小金井市","address":"東京都小金井市桜町2丁目8-13","lat":35.71088575,"lon":139.50495693},{"name":"貫井北町集会場","province":"東京都","city":"小金井市","address":"東京都小金井市貫井北町3丁目31-17","lat":35.71155208,"lon":139.49595488},{"name":"貫井北町中之久保集会所","province":"東京都","city":"小金井市","address":"東京都小金井市貫井北町1丁目18-21","lat":35.70261971,"lon":139.49436649},{"name":"前原町丸山台集会所","province":"東京都","city":"小金井市","address":"東京都小金井市前原町4丁目18-14","lat":35.6905852,"lon":139.50343011},{"name":"貫井南町三楽集会所","province":"東京都","city":"小金井市","address":"東京都小金井市貫井南町3丁目6-18","lat":35.69950063,"lon":139.49511933},{"name":"東町友愛会館","province":"東京都","city":"小金井市","address":"東京都小金井市東町4丁目10-2","lat":35.69457696,"lon":139.52368384},{"name":"中町桜並集会所","province":"東京都","city":"小金井市","address":"東京都小金井市中町3丁目19-12","lat":35.70013995,"lon":139.51267897},{"name":"貫井北五集会所","province":"東京都","city":"小金井市","address":"東京都小金井市貫井北町5丁目16-13","lat":35.70290563,"lon":139.48851974},{"name":"中町天神前集会所","province":"東京都","city":"小金井市","address":"東京都小金井市中町1丁目7-7","lat":35.69348506,"lon":139.50991835},{"name":"東町集会所(東ｾﾝﾀｰ内)","province":"東京都","city":"小金井市","address":"東京都小金井市東町1丁目39-1","lat":35.69401043,"lon":139.52652529},{"name":"小金井市総合体育館","province":"東京都","city":"小金井市","address":"東京都小金井市関野町1丁目13-1","lat":35.7142719,"lon":139.51990554},{"name":"栗山公園健康運動センター","province":"東京都","city":"小金井市","address":"東京都小金井市中町2丁目21-1","lat":35.69786265,"lon":139.52130058},{"name":"公民館貫井北分館","province":"東京都","city":"小金井市","address":"東京都小金井市貫井北町1丁目11-12","lat":35.7023476,"lon":139.49763845},{"name":"小金井 宮地楽器ホール","province":"東京都","city":"小金井市","address":"東京都小金井市本町6丁目14-45","lat":35.7001731,"lon":139.50662947},{"name":"前原町西之台会館","province":"東京都","city":"小金井市","address":"東京都小金井市前原町3丁目8-1","lat":35.69391528,"lon":139.49958585},{"name":"小金井公園","province":"東京都","city":"小金井市","address":"東京都小金井市桜町三丁目、関野町一・二丁目、小平市花小金井南町三丁目、西東京市向台六丁目、武蔵野市桜堤三丁目","lat":35.71706,"lon":139.517882},{"name":"武蔵野公園","province":"東京都","city":"小金井市","address":"東京都小金井市前原町二丁目、東町五丁目、中町一丁目、府中市多磨町二・三丁目","lat":35.687906,"lon":139.520496},{"name":"梶野配水所","province":"東京都","city":"小金井市","address":"東京都小金井市梶野町5-10-33","lat":35.7046375,"lon":139.526531},{"name":"武蔵小金井南第３自転車駐車場","province":"東京都","city":"小金井市","address":"東京都小金井市本町6丁目5-3","lat":35.69924258,"lon":139.50395749},{"name":"武蔵小金井南第７自転車駐車場","province":"東京都","city":"小金井市","address":"東京都小金井市本町6丁目14-45","lat":35.7001731,"lon":139.50662947},{"name":"武蔵小金井北第５自転車駐車場","province":"東京都","city":"小金井市","address":"東京都小金井市本町2丁目1","lat":35.70122579,"lon":139.50750712},{"name":"東小金井駅西側高架下自転車駐車場（Ａ）","province":"東京都","city":"小金井市","address":"東京都小金井市緑町1丁目1","lat":35.70212886,"lon":139.52142262},{"name":"東小金井駅西側高架下自転車駐車場（Ｂ）","province":"東京都","city":"小金井市","address":"東京都小金井市緑町1丁目2","lat":35.70237879,"lon":139.5200505},{"name":"新小金井西第１自転車駐車場","province":"東京都","city":"小金井市","address":"東京都小金井市東町4丁目24","lat":35.69555191,"lon":139.52606416},{"name":"東小金井北第１自転車駐車場","province":"東京都","city":"小金井市","address":"東京都小金井市梶野町5丁目2","lat":35.70192613,"lon":139.52254753},{"name":"東小金井駅前第一駐輪場","province":"東京都","city":"小金井市","address":"東京都小金井市梶野町5丁目1-1","lat":35.70159565,"lon":139.52426962},{"name":"東小金井駅前第二駐輪場","province":"東京都","city":"小金井市","address":"東京都小金井市緑町1丁目2","lat":35.70237879,"lon":139.5200505},{"name":"市民会館 （萌え木ホール）","province":"東京都","city":"小金井市","address":"東京都小金井市前原町3丁目33-25","lat":35.69893146,"lon":139.5024743},{"name":"東小金井駅開設記念会館（マロンホール）","province":"東京都","city":"小金井市","address":"東京都小金井市東町3丁目7-21","lat":35.70026535,"lon":139.52904704},{"name":"前原暫定集会施設","province":"東京都","city":"小金井市","address":"東京都小金井市前原町3丁目33-27","lat":35.69891202,"lon":139.50262151},{"name":"婦人会館","province":"東京都","city":"小金井市","address":"東京都小金井市梶野町5丁目10-32","lat":35.70495366,"lon":139.5264804},{"name":"上之原会館","province":"東京都","city":"小金井市","address":"東京都小金井市本町5丁目6-19","lat":35.70252549,"lon":139.50201586},{"name":"前原町西之台会館","province":"東京都","city":"小金井市","address":"東京都小金井市前原町3丁目8-1","lat":35.69391528,"lon":139.49958585},{"name":"桜町上水会館","province":"東京都","city":"小金井市","address":"東京都小金井市桜町2丁目8-13","lat":35.71088575,"lon":139.50495693},{"name":"貫井北町集会場","province":"東京都","city":"小金井市","address":"東京都小金井市貫井北町3丁目31-17","lat":35.71155208,"lon":139.49595488},{"name":"貫井北町中之久保集会所","province":"東京都","city":"小金井市","address":"東京都小金井市貫井北町1丁目18-21","lat":35.70261971,"lon":139.49436649},{"name":"前原町丸山台集会所","province":"東京都","city":"小金井市","address":"東京都小金井市前原町4丁目18-14","lat":35.6905852,"lon":139.50343011},{"name":"貫井南町三楽集会所","province":"東京都","city":"小金井市","address":"東京都小金井市貫井南町3丁目6-18","lat":35.69950063,"lon":139.49511933},{"name":"東町友愛会館","province":"東京都","city":"小金井市","address":"東京都小金井市東町4丁目10-2","lat":35.69457696,"lon":139.52368384},{"name":"中町桜並集会所","province":"東京都","city":"小金井市","address":"東京都小金井市中町3丁目19-12","lat":35.70013995,"lon":139.51267897},{"name":"貫井北五集会所","province":"東京都","city":"小金井市","address":"東京都小金井市貫井北町5丁目16-13","lat":35.70290563,"lon":139.48851974},{"name":"中町天神前集会所","province":"東京都","city":"小金井市","address":"東京都小金井市中町1丁目7-7","lat":35.69348506,"lon":139.50991835},{"name":"東町集会所(東ｾﾝﾀｰ内)","province":"東京都","city":"小金井市","address":"東京都小金井市東町1丁目39-1","lat":35.69401043,"lon":139.52652529},{"name":"小金井市総合体育館","province":"東京都","city":"小金井市","address":"東京都小金井市関野町1丁目13-1","lat":35.7142719,"lon":139.51990554},{"name":"栗山公園健康運動センター","province":"東京都","city":"小金井市","address":"東京都小金井市中町2丁目21-1","lat":35.69786265,"lon":139.52130058},{"name":"公民館貫井北分館","province":"東京都","city":"小金井市","address":"東京都小金井市貫井北町1丁目11-12","lat":35.7023476,"lon":139.49763845},{"name":"小金井 宮地楽器ホール","province":"東京都","city":"小金井市","address":"東京都小金井市本町6丁目14-45","lat":35.7001731,"lon":139.50662947},{"name":"前原町西之台会館","province":"東京都","city":"小金井市","address":"東京都小金井市前原町3丁目8-1","lat":35.69391528,"lon":139.49958585},{"name":"小金井公園","province":"東京都","city":"小金井市","address":"東京都小金井市桜町三丁目、関野町一・二丁目、小平市花小金井南町三丁目、西東京市向台六丁目、武蔵野市桜堤三丁目","lat":35.71706,"lon":139.517882},{"name":"武蔵野公園","province":"東京都","city":"小金井市","address":"東京都小金井市前原町二丁目、東町五丁目、中町一丁目、府中市多磨町二・三丁目","lat":35.687906,"lon":139.520496},{"name":"市民会館 （萌え木ホール）","province":"東京都","city":"小金井市","address":"東京都小金井市前原町3丁目33-25","lat":35.69893146,"lon":139.5024743},{"name":"東小金井駅開設記念会館（マロンホール）","province":"東京都","city":"小金井市","address":"東京都小金井市東町3丁目7-21","lat":35.70026535,"lon":139.52904704},{"name":"前原暫定集会施設","province":"東京都","city":"小金井市","address":"東京都小金井市前原町3丁目33-27","lat":35.69891202,"lon":139.50262151},{"name":"婦人会館","province":"東京都","city":"小金井市","address":"東京都小金井市梶野町5丁目10-32","lat":35.70495366,"lon":139.5264804},{"name":"上之原会館","province":"東京都","city":"小金井市","address":"東京都小金井市本町5丁目6-19","lat":35.70252549,"lon":139.50201586},{"name":"前原町西之台会館","province":"東京都","city":"小金井市","address":"東京都小金井市前原町3丁目8-1","lat":35.69391528,"lon":139.49958585},{"name":"桜町上水会館","province":"東京都","city":"小金井市","address":"東京都小金井市桜町2丁目8-13","lat":35.71088575,"lon":139.50495693},{"name":"貫井北町集会場","province":"東京都","city":"小金井市","address":"東京都小金井市貫井北町3丁目31-17","lat":35.71155208,"lon":139.49595488},{"name":"貫井北町中之久保集会所","province":"東京都","city":"小金井市","address":"東京都小金井市貫井北町1丁目18-21","lat":35.70261971,"lon":139.49436649},{"name":"前原町丸山台集会所","province":"東京都","city":"小金井市","address":"東京都小金井市前原町4丁目18-14","lat":35.6905852,"lon":139.50343011},{"name":"貫井南町三楽集会所","province":"東京都","city":"小金井市","address":"東京都小金井市貫井南町3丁目6-18","lat":35.69950063,"lon":139.49511933},{"name":"東町友愛会館","province":"東京都","city":"小金井市","address":"東京都小金井市東町4丁目10-2","lat":35.69457696,"lon":139.52368384},{"name":"中町桜並集会所","province":"東京都","city":"小金井市","address":"東京都小金井市中町3丁目19-12","lat":35.70013995,"lon":139.51267897},{"name":"貫井北五集会所","province":"東京都","city":"小金井市","address":"東京都小金井市貫井北町5丁目16-13","lat":35.70290563,"lon":139.48851974},{"name":"中町天神前集会所","province":"東京都","city":"小金井市","address":"東京都小金井市中町1丁目7-7","lat":35.69348506,"lon":139.50991835},{"name":"東町集会所(東ｾﾝﾀｰ内)","province":"東京都","city":"小金井市","address":"東京都小金井市東町1丁目39-1","lat":35.69401043,"lon":139.52652529},{"name":"小金井市総合体育館","province":"東京都","city":"小金井市","address":"東京都小金井市関野町1丁目13-1","lat":35.7142719,"lon":139.51990554},{"name":"栗山公園健康運動センター","province":"東京都","city":"小金井市","address":"東京都小金井市中町2丁目21-1","lat":35.69786265,"lon":139.52130058},{"name":"公民館貫井北分館","province":"東京都","city":"小金井市","address":"東京都小金井市貫井北町1丁目11-12","lat":35.7023476,"lon":139.49763845},{"name":"小金井 宮地楽器ホール","province":"東京都","city":"小金井市","address":"東京都小金井市本町6丁目14-45","lat":35.7001731,"lon":139.50662947},{"name":"前原町西之台会館","province":"東京都","city":"小金井市","address":"東京都小金井市前原町3丁目8-1","lat":35.69391528,"lon":139.49958585},{"name":"市民会館 （萌え木ホール）","province":"東京都","city":"小金井市","address":"東京都小金井市前原町3丁目33-25","lat":35.69893146,"lon":139.5024743},{"name":"東小金井駅開設記念会館（マロンホール）","province":"東京都","city":"小金井市","address":"東京都小金井市東町3丁目7-21","lat":35.70026535,"lon":139.52904704},{"name":"前原暫定集会施設","province":"東京都","city":"小金井市","address":"東京都小金井市前原町3丁目33-27","lat":35.69891202,"lon":139.50262151},{"name":"婦人会館","province":"東京都","city":"小金井市","address":"東京都小金井市梶野町5丁目10-32","lat":35.70495366,"lon":139.5264804},{"name":"上之原会館","province":"東京都","city":"小金井市","address":"東京都小金井市本町5丁目6-19","lat":35.70252549,"lon":139.50201586},{"name":"前原町西之台会館","province":"東京都","city":"小金井市","address":"東京都小金井市前原町3丁目8-1","lat":35.69391528,"lon":139.49958585},{"name":"桜町上水会館","province":"東京都","city":"小金井市","address":"東京都小金井市桜町2丁目8-13","lat":35.71088575,"lon":139.50495693},{"name":"貫井北町集会場","province":"東京都","city":"小金井市","address":"東京都小金井市貫井北町3丁目31-17","lat":35.71155208,"lon":139.49595488},{"name":"貫井北町中之久保集会所","province":"東京都","city":"小金井市","address":"東京都小金井市貫井北町1丁目18-21","lat":35.70261971,"lon":139.49436649},{"name":"前原町丸山台集会所","province":"東京都","city":"小金井市","address":"東京都小金井市前原町4丁目18-14","lat":35.6905852,"lon":139.50343011},{"name":"貫井南町三楽集会所","province":"東京都","city":"小金井市","address":"東京都小金井市貫井南町3丁目6-18","lat":35.69950063,"lon":139.49511933},{"name":"東町友愛会館","province":"東京都","city":"小金井市","address":"東京都小金井市東町4丁目10-2","lat":35.69457696,"lon":139.52368384},{"name":"中町桜並集会所","province":"東京都","city":"小金井市","address":"東京都小金井市中町3丁目19-12","lat":35.70013995,"lon":139.51267897},{"name":"貫井北五集会所","province":"東京都","city":"小金井市","address":"東京都小金井市貫井北町5丁目16-13","lat":35.70290563,"lon":139.48851974},{"name":"中町天神前集会所","province":"東京都","city":"小金井市","address":"東京都小金井市中町1丁目7-7","lat":35.69348506,"lon":139.50991835},{"name":"東町集会所(東ｾﾝﾀｰ内)","province":"東京都","city":"小金井市","address":"東京都小金井市東町1丁目39-1","lat":35.69401043,"lon":139.52652529},{"name":"小金井市総合体育館","province":"東京都","city":"小金井市","address":"東京都小金井市関野町1丁目13-1","lat":35.7142719,"lon":139.51990554},{"name":"栗山公園健康運動センター","province":"東京都","city":"小金井市","address":"東京都小金井市中町2丁目21-1","lat":35.69786265,"lon":139.52130058},{"name":"公民館貫井北分館","province":"東京都","city":"小金井市","address":"東京都小金井市貫井北町1丁目11-12","lat":35.7023476,"lon":139.49763845},{"name":"小金井 宮地楽器ホール","province":"東京都","city":"小金井市","address":"東京都小金井市本町6丁目14-45","lat":35.7001731,"lon":139.50662947},{"name":"前原町西之台会館","province":"東京都","city":"小金井市","address":"東京都小金井市前原町3丁目8-1","lat":35.69391528,"lon":139.49958585},{"name":"市民会館 （萌え木ホール）","province":"東京都","city":"小金井市","address":"東京都小金井市前原町3丁目33-25","lat":35.69893146,"lon":139.5024743},{"name":"東小金井駅開設記念会館（マロンホール）","province":"東京都","city":"小金井市","address":"東京都小金井市東町3丁目7-21","lat":35.70026535,"lon":139.52904704},{"name":"前原暫定集会施設","province":"東京都","city":"小金井市","address":"東京都小金井市前原町3丁目33-27","lat":35.69891202,"lon":139.50262151},{"name":"婦人会館","province":"東京都","city":"小金井市","address":"東京都小金井市梶野町5丁目10-32","lat":35.70495366,"lon":139.5264804},{"name":"上之原会館","province":"東京都","city":"小金井市","address":"東京都小金井市本町5丁目6-19","lat":35.70252549,"lon":139.50201586},{"name":"前原町西之台会館","province":"東京都","city":"小金井市","address":"東京都小金井市前原町3丁目8-1","lat":35.69391528,"lon":139.49958585},{"name":"桜町上水会館","province":"東京都","city":"小金井市","address":"東京都小金井市桜町2丁目8-13","lat":35.71088575,"lon":139.50495693},{"name":"貫井北町集会場","province":"東京都","city":"小金井市","address":"東京都小金井市貫井北町3丁目31-17","lat":35.71155208,"lon":139.49595488},{"name":"貫井北町中之久保集会所","province":"東京都","city":"小金井市","address":"東京都小金井市貫井北町1丁目18-21","lat":35.70261971,"lon":139.49436649},{"name":"前原町丸山台集会所","province":"東京都","city":"小金井市","address":"東京都小金井市前原町4丁目18-14","lat":35.6905852,"lon":139.50343011},{"name":"貫井南町三楽集会所","province":"東京都","city":"小金井市","address":"東京都小金井市貫井南町3丁目6-18","lat":35.69950063,"lon":139.49511933},{"name":"東町友愛会館","province":"東京都","city":"小金井市","address":"東京都小金井市東町4丁目10-2","lat":35.69457696,"lon":139.52368384},{"name":"中町桜並集会所","province":"東京都","city":"小金井市","address":"東京都小金井市中町3丁目19-12","lat":35.70013995,"lon":139.51267897},{"name":"貫井北五集会所","province":"東京都","city":"小金井市","address":"東京都小金井市貫井北町5丁目16-13","lat":35.70290563,"lon":139.48851974},{"name":"中町天神前集会所","province":"東京都","city":"小金井市","address":"東京都小金井市中町1丁目7-7","lat":35.69348506,"lon":139.50991835},{"name":"東町集会所(東ｾﾝﾀｰ内)","province":"東京都","city":"小金井市","address":"東京都小金井市東町1丁目39-1","lat":35.69401043,"lon":139.52652529},{"name":"小金井市総合体育館","province":"東京都","city":"小金井市","address":"東京都小金井市関野町1丁目13-1","lat":35.7142719,"lon":139.51990554},{"name":"栗山公園健康運動センター","province":"東京都","city":"小金井市","address":"東京都小金井市中町2丁目21-1","lat":35.69786265,"lon":139.52130058},{"name":"公民館貫井北分館","province":"東京都","city":"小金井市","address":"東京都小金井市貫井北町1丁目11-12","lat":35.7023476,"lon":139.49763845},{"name":"小金井 宮地楽器ホール","province":"東京都","city":"小金井市","address":"東京都小金井市本町6丁目14-45","lat":35.7001731,"lon":139.50662947},{"name":"前原町西之台会館","province":"東京都","city":"小金井市","address":"東京都小金井市前原町3丁目8-1","lat":35.69391528,"lon":139.49958585},{"name":"市民会館 （萌え木ホール）","province":"東京都","city":"小金井市","address":"東京都小金井市前原町3丁目33-25","lat":35.69893146,"lon":139.5024743},{"name":"東小金井駅開設記念会館（マロンホール）","province":"東京都","city":"小金井市","address":"東京都小金井市東町3丁目7-21","lat":35.70026535,"lon":139.52904704},{"name":"前原暫定集会施設","province":"東京都","city":"小金井市","address":"東京都小金井市前原町3丁目33-27","lat":35.69891202,"lon":139.50262151},{"name":"婦人会館","province":"東京都","city":"小金井市","address":"東京都小金井市梶野町5丁目10-32","lat":35.70495366,"lon":139.5264804},{"name":"上之原会館","province":"東京都","city":"小金井市","address":"東京都小金井市本町5丁目6-19","lat":35.70252549,"lon":139.50201586},{"name":"前原町西之台会館","province":"東京都","city":"小金井市","address":"東京都小金井市前原町3丁目8-1","lat":35.69391528,"lon":139.49958585},{"name":"桜町上水会館","province":"東京都","city":"小金井市","address":"東京都小金井市桜町2丁目8-13","lat":35.71088575,"lon":139.50495693},{"name":"貫井北町集会場","province":"東京都","city":"小金井市","address":"東京都小金井市貫井北町3丁目31-17","lat":35.71155208,"lon":139.49595488},{"name":"貫井北町中之久保集会所","province":"東京都","city":"小金井市","address":"東京都小金井市貫井北町1丁目18-21","lat":35.70261971,"lon":139.49436649},{"name":"前原町丸山台集会所","province":"東京都","city":"小金井市","address":"東京都小金井市前原町4丁目18-14","lat":35.6905852,"lon":139.50343011},{"name":"貫井南町三楽集会所","province":"東京都","city":"小金井市","address":"東京都小金井市貫井南町3丁目6-18","lat":35.69950063,"lon":139.49511933},{"name":"東町友愛会館","province":"東京都","city":"小金井市","address":"東京都小金井市東町4丁目10-2","lat":35.69457696,"lon":139.52368384},{"name":"中町桜並集会所","province":"東京都","city":"小金井市","address":"東京都小金井市中町3丁目19-12","lat":35.70013995,"lon":139.51267897},{"name":"貫井北五集会所","province":"東京都","city":"小金井市","address":"東京都小金井市貫井北町5丁目16-13","lat":35.70290563,"lon":139.48851974},{"name":"中町天神前集会所","province":"東京都","city":"小金井市","address":"東京都小金井市中町1丁目7-7","lat":35.69348506,"lon":139.50991835},{"name":"東町集会所(東ｾﾝﾀｰ内)","province":"東京都","city":"小金井市","address":"東京都小金井市東町1丁目39-1","lat":35.69401043,"lon":139.52652529},{"name":"小金井市総合体育館","province":"東京都","city":"小金井市","address":"東京都小金井市関野町1丁目13-1","lat":35.7142719,"lon":139.51990554},{"name":"栗山公園健康運動センター","province":"東京都","city":"小金井市","address":"東京都小金井市中町2丁目21-1","lat":35.69786265,"lon":139.52130058},{"name":"公民館貫井北分館","province":"東京都","city":"小金井市","address":"東京都小金井市貫井北町1丁目11-12","lat":35.7023476,"lon":139.49763845},{"name":"小金井 宮地楽器ホール","province":"東京都","city":"小金井市","address":"東京都小金井市本町6丁目14-45","lat":35.7001731,"lon":139.50662947},{"name":"前原町西之台会館","province":"東京都","city":"小金井市","address":"東京都小金井市前原町3丁目8-1","lat":35.69391528,"lon":139.49958585},{"name":"小金井市総合体育館","province":"東京都","city":"小金井市","address":"東京都小金井市関野町1丁目13-1","lat":35.7142719,"lon":139.51990554},{"name":"栗山公園健康運動センター","province":"東京都","city":"小金井市","address":"東京都小金井市中町2丁目21-1","lat":35.69786265,"lon":139.52130058},{"name":"公民館貫井北分館","province":"東京都","city":"小金井市","address":"東京都小金井市貫井北町1丁目11-12","lat":35.7023476,"lon":139.49763845},{"name":"小金井 宮地楽器ホール","province":"東京都","city":"小金井市","address":"東京都小金井市本町6丁目14-45","lat":35.7001731,"lon":139.50662947},{"name":"前原町西之台会館","province":"東京都","city":"小金井市","address":"東京都小金井市前原町3丁目8-1","lat":35.69391528,"lon":139.49958585},{"name":"小金井市総合体育館","province":"東京都","city":"小金井市","address":"東京都小金井市関野町1丁目13-1","lat":35.7142719,"lon":139.51990554},{"name":"栗山公園健康運動センター","province":"東京都","city":"小金井市","address":"東京都小金井市中町2丁目21-1","lat":35.69786265,"lon":139.52130058},{"name":"公民館貫井北分館","province":"東京都","city":"小金井市","address":"東京都小金井市貫井北町1丁目11-12","lat":35.7023476,"lon":139.49763845},{"name":"小金井 宮地楽器ホール","province":"東京都","city":"小金井市","address":"東京都小金井市本町6丁目14-45","lat":35.7001731,"lon":139.50662947},{"name":"前原町西之台会館","province":"東京都","city":"小金井市","address":"東京都小金井市前原町3丁目8-1","lat":35.69391528,"lon":139.49958585},{"name":"小金井市総合体育館","province":"東京都","city":"小金井市","address":"東京都小金井市関野町1丁目13-1","lat":35.7142719,"lon":139.51990554},{"name":"栗山公園健康運動センター","province":"東京都","city":"小金井市","address":"東京都小金井市中町2丁目21-1","lat":35.69786265,"lon":139.52130058},{"name":"公民館貫井北分館","province":"東京都","city":"小金井市","address":"東京都小金井市貫井北町1丁目11-12","lat":35.7023476,"lon":139.49763845},{"name":"小金井 宮地楽器ホール","province":"東京都","city":"小金井市","address":"東京都小金井市本町6丁目14-45","lat":35.7001731,"lon":139.50662947},{"name":"前原町西之台会館","province":"東京都","city":"小金井市","address":"東京都小金井市前原町3丁目8-1","lat":35.69391528,"lon":139.49958585},{"name":"小金井市総合体育館","province":"東京都","city":"小金井市","address":"東京都小金井市関野町1丁目13-1","lat":35.7142719,"lon":139.51990554},{"name":"栗山公園健康運動センター","province":"東京都","city":"小金井市","address":"東京都小金井市中町2丁目21-1","lat":35.69786265,"lon":139.52130058},{"name":"公民館貫井北分館","province":"東京都","city":"小金井市","address":"東京都小金井市貫井北町1丁目11-12","lat":35.7023476,"lon":139.49763845},{"name":"小金井 宮地楽器ホール","province":"東京都","city":"小金井市","address":"東京都小金井市本町6丁目14-45","lat":35.7001731,"lon":139.50662947},{"name":"前原町西之台会館","province":"東京都","city":"小金井市","address":"東京都小金井市前原町3丁目8-1","lat":35.69391528,"lon":139.49958585},{"name":"小金井市総合体育館","province":"東京都","city":"小金井市","address":"東京都小金井市関野町1丁目13-1","lat":35.7142719,"lon":139.51990554},{"name":"栗山公園健康運動センター","province":"東京都","city":"小金井市","address":"東京都小金井市中町2丁目21-1","lat":35.69786265,"lon":139.52130058},{"name":"公民館貫井北分館","province":"東京都","city":"小金井市","address":"東京都小金井市貫井北町1丁目11-12","lat":35.7023476,"lon":139.49763845},{"name":"小金井 宮地楽器ホール","province":"東京都","city":"小金井市","address":"東京都小金井市本町6丁目14-45","lat":35.7001731,"lon":139.50662947},{"name":"前原町西之台会館","province":"東京都","city":"小金井市","address":"東京都小金井市前原町3丁目8-1","lat":35.69391528,"lon":139.49958585},{"name":"小金井市総合体育館","province":"東京都","city":"小金井市","address":"東京都小金井市関野町1丁目13-1","lat":35.7142719,"lon":139.51990554},{"name":"栗山公園健康運動センター","province":"東京都","city":"小金井市","address":"東京都小金井市中町2丁目21-1","lat":35.69786265,"lon":139.52130058},{"name":"公民館貫井北分館","province":"東京都","city":"小金井市","address":"東京都小金井市貫井北町1丁目11-12","lat":35.7023476,"lon":139.49763845},{"name":"小金井 宮地楽器ホール","province":"東京都","city":"小金井市","address":"東京都小金井市本町6丁目14-45","lat":35.7001731,"lon":139.50662947},{"name":"前原町西之台会館","province":"東京都","city":"小金井市","address":"東京都小金井市前原町3丁目8-1","lat":35.69391528,"lon":139.49958585},{"name":"小金井市総合体育館","province":"東京都","city":"小金井市","address":"東京都小金井市関野町1丁目13-1","lat":35.7142719,"lon":139.51990554},{"name":"栗山公園健康運動センター","province":"東京都","city":"小金井市","address":"東京都小金井市中町2丁目21-1","lat":35.69786265,"lon":139.52130058},{"name":"公民館貫井北分館","province":"東京都","city":"小金井市","address":"東京都小金井市貫井北町1丁目11-12","lat":35.7023476,"lon":139.49763845},{"name":"小金井 宮地楽器ホール","province":"東京都","city":"小金井市","address":"東京都小金井市本町6丁目14-45","lat":35.7001731,"lon":139.50662947},{"name":"前原町西之台会館","province":"東京都","city":"小金井市","address":"東京都小金井市前原町3丁目8-1","lat":35.69391528,"lon":139.49958585},{"name":"小金井市総合体育館","province":"東京都","city":"小金井市","address":"東京都小金井市関野町1丁目13-1","lat":35.7142719,"lon":139.51990554},{"name":"栗山公園健康運動センター","province":"東京都","city":"小金井市","address":"東京都小金井市中町2丁目21-1","lat":35.69786265,"lon":139.52130058},{"name":"公民館貫井北分館","province":"東京都","city":"小金井市","address":"東京都小金井市貫井北町1丁目11-12","lat":35.7023476,"lon":139.49763845},{"name":"小金井 宮地楽器ホール","province":"東京都","city":"小金井市","address":"東京都小金井市本町6丁目14-45","lat":35.7001731,"lon":139.50662947},{"name":"前原町西之台会館","province":"東京都","city":"小金井市","address":"東京都小金井市前原町3丁目8-1","lat":35.69391528,"lon":139.49958585},{"name":"小金井市総合体育館","province":"東京都","city":"小金井市","address":"東京都小金井市関野町1丁目13-1","lat":35.7142719,"lon":139.51990554},{"name":"栗山公園健康運動センター","province":"東京都","city":"小金井市","address":"東京都小金井市中町2丁目21-1","lat":35.69786265,"lon":139.52130058},{"name":"公民館貫井北分館","province":"東京都","city":"小金井市","address":"東京都小金井市貫井北町1丁目11-12","lat":35.7023476,"lon":139.49763845},{"name":"小金井 宮地楽器ホール","province":"東京都","city":"小金井市","address":"東京都小金井市本町6丁目14-45","lat":35.7001731,"lon":139.50662947},{"name":"前原町西之台会館","province":"東京都","city":"小金井市","address":"東京都小金井市前原町3丁目8-1","lat":35.69391528,"lon":139.49958585},{"name":"小金井市総合体育館","province":"東京都","city":"小金井市","address":"東京都小金井市関野町1丁目13-1","lat":35.7142719,"lon":139.51990554},{"name":"栗山公園健康運動センター","province":"東京都","city":"小金井市","address":"東京都小金井市中町2丁目21-1","lat":35.69786265,"lon":139.52130058},{"name":"公民館貫井北分館","province":"東京都","city":"小金井市","address":"東京都小金井市貫井北町1丁目11-12","lat":35.7023476,"lon":139.49763845},{"name":"小金井 宮地楽器ホール","province":"東京都","city":"小金井市","address":"東京都小金井市本町6丁目14-45","lat":35.7001731,"lon":139.50662947},{"name":"前原町西之台会館","province":"東京都","city":"小金井市","address":"東京都小金井市前原町3丁目8-1","lat":35.69391528,"lon":139.49958585},{"name":"小金井市総合体育館","province":"東京都","city":"小金井市","address":"東京都小金井市関野町1丁目13-1","lat":35.7142719,"lon":139.51990554},{"name":"栗山公園健康運動センター","province":"東京都","city":"小金井市","address":"東京都小金井市中町2丁目21-1","lat":35.69786265,"lon":139.52130058},{"name":"公民館貫井北分館","province":"東京都","city":"小金井市","address":"東京都小金井市貫井北町1丁目11-12","lat":35.7023476,"lon":139.49763845},{"name":"小金井 宮地楽器ホール","province":"東京都","city":"小金井市","address":"東京都小金井市本町6丁目14-45","lat":35.7001731,"lon":139.50662947},{"name":"前原町西之台会館","province":"東京都","city":"小金井市","address":"東京都小金井市前原町3丁目8-1","lat":35.69391528,"lon":139.49958585},{"name":"小金井市総合体育館","province":"東京都","city":"小金井市","address":"東京都小金井市関野町1丁目13-1","lat":35.7142719,"lon":139.51990554},{"name":"栗山公園健康運動センター","province":"東京都","city":"小金井市","address":"東京都小金井市中町2丁目21-1","lat":35.69786265,"lon":139.52130058},{"name":"公民館貫井北分館","province":"東京都","city":"小金井市","address":"東京都小金井市貫井北町1丁目11-12","lat":35.7023476,"lon":139.49763845},{"name":"小金井 宮地楽器ホール","province":"東京都","city":"小金井市","address":"東京都小金井市本町6丁目14-45","lat":35.7001731,"lon":139.50662947},{"name":"前原町西之台会館","province":"東京都","city":"小金井市","address":"東京都小金井市前原町3丁目8-1","lat":35.69391528,"lon":139.49958585},{"name":"小金井市総合体育館","province":"東京都","city":"小金井市","address":"東京都小金井市関野町1丁目13-1","lat":35.7142719,"lon":139.51990554},{"name":"栗山公園健康運動センター","province":"東京都","city":"小金井市","address":"東京都小金井市中町2丁目21-1","lat":35.69786265,"lon":139.52130058},{"name":"公民館貫井北分館","province":"東京都","city":"小金井市","address":"東京都小金井市貫井北町1丁目11-12","lat":35.7023476,"lon":139.49763845},{"name":"小金井 宮地楽器ホール","province":"東京都","city":"小金井市","address":"東京都小金井市本町6丁目14-45","lat":35.7001731,"lon":139.50662947},{"name":"前原町西之台会館","province":"東京都","city":"小金井市","address":"東京都小金井市前原町3丁目8-1","lat":35.69391528,"lon":139.49958585},{"name":"小金井市総合体育館","province":"東京都","city":"小金井市","address":"東京都小金井市関野町1丁目13-1","lat":35.7142719,"lon":139.51990554},{"name":"栗山公園健康運動センター","province":"東京都","city":"小金井市","address":"東京都小金井市中町2丁目21-1","lat":35.69786265,"lon":139.52130058},{"name":"公民館貫井北分館","province":"東京都","city":"小金井市","address":"東京都小金井市貫井北町1丁目11-12","lat":35.7023476,"lon":139.49763845},{"name":"小金井 宮地楽器ホール","province":"東京都","city":"小金井市","address":"東京都小金井市本町6丁目14-45","lat":35.7001731,"lon":139.50662947},{"name":"前原町西之台会館","province":"東京都","city":"小金井市","address":"東京都小金井市前原町3丁目8-1","lat":35.69391528,"lon":139.49958585},{"name":"小金井市総合体育館","province":"東京都","city":"小金井市","address":"東京都小金井市関野町1丁目13-1","lat":35.7142719,"lon":139.51990554},{"name":"栗山公園健康運動センター","province":"東京都","city":"小金井市","address":"東京都小金井市中町2丁目21-1","lat":35.69786265,"lon":139.52130058},{"name":"公民館貫井北分館","province":"東京都","city":"小金井市","address":"東京都小金井市貫井北町1丁目11-12","lat":35.7023476,"lon":139.49763845},{"name":"小金井 宮地楽器ホール","province":"東京都","city":"小金井市","address":"東京都小金井市本町6丁目14-45","lat":35.7001731,"lon":139.50662947},{"name":"前原町西之台会館","province":"東京都","city":"小金井市","address":"東京都小金井市前原町3丁目8-1","lat":35.69391528,"lon":139.49958585},{"name":"小金井市総合体育館","province":"東京都","city":"小金井市","address":"東京都小金井市関野町1丁目13-1","lat":35.7142719,"lon":139.51990554},{"name":"栗山公園健康運動センター","province":"東京都","city":"小金井市","address":"東京都小金井市中町2丁目21-1","lat":35.69786265,"lon":139.52130058},{"name":"公民館貫井北分館","province":"東京都","city":"小金井市","address":"東京都小金井市貫井北町1丁目11-12","lat":35.7023476,"lon":139.49763845},{"name":"小金井 宮地楽器ホール","province":"東京都","city":"小金井市","address":"東京都小金井市本町6丁目14-45","lat":35.7001731,"lon":139.50662947},{"name":"前原町西之台会館","province":"東京都","city":"小金井市","address":"東京都小金井市前原町3丁目8-1","lat":35.69391528,"lon":139.49958585},{"name":"小金井市総合体育館","province":"東京都","city":"小金井市","address":"東京都小金井市関野町1丁目13-1","lat":35.7142719,"lon":139.51990554},{"name":"栗山公園健康運動センター","province":"東京都","city":"小金井市","address":"東京都小金井市中町2丁目21-1","lat":35.69786265,"lon":139.52130058},{"name":"公民館貫井北分館","province":"東京都","city":"小金井市","address":"東京都小金井市貫井北町1丁目11-12","lat":35.7023476,"lon":139.49763845},{"name":"小金井 宮地楽器ホール","province":"東京都","city":"小金井市","address":"東京都小金井市本町6丁目14-45","lat":35.7001731,"lon":139.50662947},{"name":"前原町西之台会館","province":"東京都","city":"小金井市","address":"東京都小金井市前原町3丁目8-1","lat":35.69391528,"lon":139.49958585},{"name":"小金井市総合体育館","province":"東京都","city":"小金井市","address":"東京都小金井市関野町1丁目13-1","lat":35.7142719,"lon":139.51990554},{"name":"栗山公園健康運動センター","province":"東京都","city":"小金井市","address":"東京都小金井市中町2丁目21-1","lat":35.69786265,"lon":139.52130058},{"name":"公民館貫井北分館","province":"東京都","city":"小金井市","address":"東京都小金井市貫井北町1丁目11-12","lat":35.7023476,"lon":139.49763845},{"name":"小金井 宮地楽器ホール","province":"東京都","city":"小金井市","address":"東京都小金井市本町6丁目14-45","lat":35.7001731,"lon":139.50662947},{"name":"前原町西之台会館","province":"東京都","city":"小金井市","address":"東京都小金井市前原町3丁目8-1","lat":35.69391528,"lon":139.49958585},{"name":"小金井市総合体育館","province":"東京都","city":"小金井市","address":"東京都小金井市関野町1丁目13-1","lat":35.7142719,"lon":139.51990554},{"name":"栗山公園健康運動センター","province":"東京都","city":"小金井市","address":"東京都小金井市中町2丁目21-1","lat":35.69786265,"lon":139.52130058},{"name":"公民館貫井北分館","province":"東京都","city":"小金井市","address":"東京都小金井市貫井北町1丁目11-12","lat":35.7023476,"lon":139.49763845},{"name":"小金井 宮地楽器ホール","province":"東京都","city":"小金井市","address":"東京都小金井市本町6丁目14-45","lat":35.7001731,"lon":139.50662947},{"name":"前原町西之台会館","province":"東京都","city":"小金井市","address":"東京都小金井市前原町3丁目8-1","lat":35.69391528,"lon":139.49958585},{"name":"小金井市総合体育館","province":"東京都","city":"小金井市","address":"東京都小金井市関野町1丁目13-1","lat":35.7142719,"lon":139.51990554},{"name":"栗山公園健康運動センター","province":"東京都","city":"小金井市","address":"東京都小金井市中町2丁目21-1","lat":35.69786265,"lon":139.52130058},{"name":"公民館貫井北分館","province":"東京都","city":"小金井市","address":"東京都小金井市貫井北町1丁目11-12","lat":35.7023476,"lon":139.49763845},{"name":"小金井 宮地楽器ホール","province":"東京都","city":"小金井市","address":"東京都小金井市本町6丁目14-45","lat":35.7001731,"lon":139.50662947},{"name":"前原町西之台会館","province":"東京都","city":"小金井市","address":"東京都小金井市前原町3丁目8-1","lat":35.69391528,"lon":139.49958585},{"name":"小金井市総合体育館","province":"東京都","city":"小金井市","address":"東京都小金井市関野町1丁目13-1","lat":35.7142719,"lon":139.51990554},{"name":"栗山公園健康運動センター","province":"東京都","city":"小金井市","address":"東京都小金井市中町2丁目21-1","lat":35.69786265,"lon":139.52130058},{"name":"公民館貫井北分館","province":"東京都","city":"小金井市","address":"東京都小金井市貫井北町1丁目11-12","lat":35.7023476,"lon":139.49763845},{"name":"小金井 宮地楽器ホール","province":"東京都","city":"小金井市","address":"東京都小金井市本町6丁目14-45","lat":35.7001731,"lon":139.50662947},{"name":"前原町西之台会館","province":"東京都","city":"小金井市","address":"東京都小金井市前原町3丁目8-1","lat":35.69391528,"lon":139.49958585},{"name":"小金井市総合体育館","province":"東京都","city":"小金井市","address":"東京都小金井市関野町1丁目13-1","lat":35.7142719,"lon":139.51990554},{"name":"栗山公園健康運動センター","province":"東京都","city":"小金井市","address":"東京都小金井市中町2丁目21-1","lat":35.69786265,"lon":139.52130058},{"name":"公民館貫井北分館","province":"東京都","city":"小金井市","address":"東京都小金井市貫井北町1丁目11-12","lat":35.7023476,"lon":139.49763845},{"name":"小金井 宮地楽器ホール","province":"東京都","city":"小金井市","address":"東京都小金井市本町6丁目14-45","lat":35.7001731,"lon":139.50662947},{"name":"前原町西之台会館","province":"東京都","city":"小金井市","address":"東京都小金井市前原町3丁目8-1","lat":35.69391528,"lon":139.49958585},{"name":"小金井市総合体育館","province":"東京都","city":"小金井市","address":"東京都小金井市関野町1丁目13-1","lat":35.7142719,"lon":139.51990554},{"name":"栗山公園健康運動センター","province":"東京都","city":"小金井市","address":"東京都小金井市中町2丁目21-1","lat":35.69786265,"lon":139.52130058},{"name":"公民館貫井北分館","province":"東京都","city":"小金井市","address":"東京都小金井市貫井北町1丁目11-12","lat":35.7023476,"lon":139.49763845},{"name":"小金井 宮地楽器ホール","province":"東京都","city":"小金井市","address":"東京都小金井市本町6丁目14-45","lat":35.7001731,"lon":139.50662947},{"name":"前原町西之台会館","province":"東京都","city":"小金井市","address":"東京都小金井市前原町3丁目8-1","lat":35.69391528,"lon":139.49958585},{"name":"小金井市総合体育館","province":"東京都","city":"小金井市","address":"東京都小金井市関野町1丁目13-1","lat":35.7142719,"lon":139.51990554},{"name":"栗山公園健康運動センター","province":"東京都","city":"小金井市","address":"東京都小金井市中町2丁目21-1","lat":35.69786265,"lon":139.52130058},{"name":"公民館貫井北分館","province":"東京都","city":"小金井市","address":"東京都小金井市貫井北町1丁目11-12","lat":35.7023476,"lon":139.49763845},{"name":"小金井 宮地楽器ホール","province":"東京都","city":"小金井市","address":"東京都小金井市本町6丁目14-45","lat":35.7001731,"lon":139.50662947},{"name":"前原町西之台会館","province":"東京都","city":"小金井市","address":"東京都小金井市前原町3丁目8-1","lat":35.69391528,"lon":139.49958585},{"name":"小金井市総合体育館","province":"東京都","city":"小金井市","address":"東京都小金井市関野町1丁目13-1","lat":35.7142719,"lon":139.51990554},{"name":"栗山公園健康運動センター","province":"東京都","city":"小金井市","address":"東京都小金井市中町2丁目21-1","lat":35.69786265,"lon":139.52130058},{"name":"公民館貫井北分館","province":"東京都","city":"小金井市","address":"東京都小金井市貫井北町1丁目11-12","lat":35.7023476,"lon":139.49763845},{"name":"小金井 宮地楽器ホール","province":"東京都","city":"小金井市","address":"東京都小金井市本町6丁目14-45","lat":35.7001731,"lon":139.50662947},{"name":"前原町西之台会館","province":"東京都","city":"小金井市","address":"東京都小金井市前原町3丁目8-1","lat":35.69391528,"lon":139.49958585},{"name":"小金井市総合体育館","province":"東京都","city":"小金井市","address":"東京都小金井市関野町1丁目13-1","lat":35.7142719,"lon":139.51990554},{"name":"栗山公園健康運動センター","province":"東京都","city":"小金井市","address":"東京都小金井市中町2丁目21-1","lat":35.69786265,"lon":139.52130058},{"name":"公民館貫井北分館","province":"東京都","city":"小金井市","address":"東京都小金井市貫井北町1丁目11-12","lat":35.7023476,"lon":139.49763845},{"name":"小金井 宮地楽器ホール","province":"東京都","city":"小金井市","address":"東京都小金井市本町6丁目14-45","lat":35.7001731,"lon":139.50662947},{"name":"前原町西之台会館","province":"東京都","city":"小金井市","address":"東京都小金井市前原町3丁目8-1","lat":35.69391528,"lon":139.49958585},{"name":"小金井市総合体育館","province":"東京都","city":"小金井市","address":"東京都小金井市関野町1丁目13-1","lat":35.7142719,"lon":139.51990554},{"name":"栗山公園健康運動センター","province":"東京都","city":"小金井市","address":"東京都小金井市中町2丁目21-1","lat":35.69786265,"lon":139.52130058},{"name":"公民館貫井北分館","province":"東京都","city":"小金井市","address":"東京都小金井市貫井北町1丁目11-12","lat":35.7023476,"lon":139.49763845},{"name":"小金井 宮地楽器ホール","province":"東京都","city":"小金井市","address":"東京都小金井市本町6丁目14-45","lat":35.7001731,"lon":139.50662947},{"name":"前原町西之台会館","province":"東京都","city":"小金井市","address":"東京都小金井市前原町3丁目8-1","lat":35.69391528,"lon":139.49958585},{"name":"小金井市総合体育館","province":"東京都","city":"小金井市","address":"東京都小金井市関野町1丁目13-1","lat":35.7142719,"lon":139.51990554},{"name":"栗山公園健康運動センター","province":"東京都","city":"小金井市","address":"東京都小金井市中町2丁目21-1","lat":35.69786265,"lon":139.52130058},{"name":"公民館貫井北分館","province":"東京都","city":"小金井市","address":"東京都小金井市貫井北町1丁目11-12","lat":35.7023476,"lon":139.49763845},{"name":"小金井 宮地楽器ホール","province":"東京都","city":"小金井市","address":"東京都小金井市本町6丁目14-45","lat":35.7001731,"lon":139.50662947},{"name":"前原町西之台会館","province":"東京都","city":"小金井市","address":"東京都小金井市前原町3丁目8-1","lat":35.69391528,"lon":139.49958585},{"name":"小金井市総合体育館","province":"東京都","city":"小金井市","address":"東京都小金井市関野町1丁目13-1","lat":35.7142719,"lon":139.51990554},{"name":"栗山公園健康運動センター","province":"東京都","city":"小金井市","address":"東京都小金井市中町2丁目21-1","lat":35.69786265,"lon":139.52130058},{"name":"公民館貫井北分館","province":"東京都","city":"小金井市","address":"東京都小金井市貫井北町1丁目11-12","lat":35.7023476,"lon":139.49763845},{"name":"小金井 宮地楽器ホール","province":"東京都","city":"小金井市","address":"東京都小金井市本町6丁目14-45","lat":35.7001731,"lon":139.50662947},{"name":"前原町西之台会館","province":"東京都","city":"小金井市","address":"東京都小金井市前原町3丁目8-1","lat":35.69391528,"lon":139.49958585},{"name":"小金井市総合体育館","province":"東京都","city":"小金井市","address":"東京都小金井市関野町1丁目13-1","lat":35.7142719,"lon":139.51990554},{"name":"栗山公園健康運動センター","province":"東京都","city":"小金井市","address":"東京都小金井市中町2丁目21-1","lat":35.69786265,"lon":139.52130058},{"name":"公民館貫井北分館","province":"東京都","city":"小金井市","address":"東京都小金井市貫井北町1丁目11-12","lat":35.7023476,"lon":139.49763845},{"name":"小金井 宮地楽器ホール","province":"東京都","city":"小金井市","address":"東京都小金井市本町6丁目14-45","lat":35.7001731,"lon":139.50662947},{"name":"前原町西之台会館","province":"東京都","city":"小金井市","address":"東京都小金井市前原町3丁目8-1","lat":35.69391528,"lon":139.49958585},{"name":"小金井市総合体育館","province":"東京都","city":"小金井市","address":"東京都小金井市関野町1丁目13-1","lat":35.7142719,"lon":139.51990554},{"name":"栗山公園健康運動センター","province":"東京都","city":"小金井市","address":"東京都小金井市中町2丁目21-1","lat":35.69786265,"lon":139.52130058},{"name":"公民館貫井北分館","province":"東京都","city":"小金井市","address":"東京都小金井市貫井北町1丁目11-12","lat":35.7023476,"lon":139.49763845},{"name":"小金井 宮地楽器ホール","province":"東京都","city":"小金井市","address":"東京都小金井市本町6丁目14-45","lat":35.7001731,"lon":139.50662947},{"name":"前原町西之台会館","province":"東京都","city":"小金井市","address":"東京都小金井市前原町3丁目8-1","lat":35.69391528,"lon":139.49958585},{"name":"小金井市総合体育館","province":"東京都","city":"小金井市","address":"東京都小金井市関野町1丁目13-1","lat":35.7142719,"lon":139.51990554},{"name":"栗山公園健康運動センター","province":"東京都","city":"小金井市","address":"東京都小金井市中町2丁目21-1","lat":35.69786265,"lon":139.52130058},{"name":"公民館貫井北分館","province":"東京都","city":"小金井市","address":"東京都小金井市貫井北町1丁目11-12","lat":35.7023476,"lon":139.49763845},{"name":"小金井 宮地楽器ホール","province":"東京都","city":"小金井市","address":"東京都小金井市本町6丁目14-45","lat":35.7001731,"lon":139.50662947},{"name":"前原町西之台会館","province":"東京都","city":"小金井市","address":"東京都小金井市前原町3丁目8-1","lat":35.69391528,"lon":139.49958585},{"name":"小金井市総合体育館","province":"東京都","city":"小金井市","address":"東京都小金井市関野町1丁目13-1","lat":35.7142719,"lon":139.51990554},{"name":"栗山公園健康運動センター","province":"東京都","city":"小金井市","address":"東京都小金井市中町2丁目21-1","lat":35.69786265,"lon":139.52130058},{"name":"公民館貫井北分館","province":"東京都","city":"小金井市","address":"東京都小金井市貫井北町1丁目11-12","lat":35.7023476,"lon":139.49763845},{"name":"小金井 宮地楽器ホール","province":"東京都","city":"小金井市","address":"東京都小金井市本町6丁目14-45","lat":35.7001731,"lon":139.50662947},{"name":"前原町西之台会館","province":"東京都","city":"小金井市","address":"東京都小金井市前原町3丁目8-1","lat":35.69391528,"lon":139.49958585},{"name":"小金井市総合体育館","province":"東京都","city":"小金井市","address":"東京都小金井市関野町1丁目13-1","lat":35.7142719,"lon":139.51990554},{"name":"栗山公園健康運動センター","province":"東京都","city":"小金井市","address":"東京都小金井市中町2丁目21-1","lat":35.69786265,"lon":139.52130058},{"name":"公民館貫井北分館","province":"東京都","city":"小金井市","address":"東京都小金井市貫井北町1丁目11-12","lat":35.7023476,"lon":139.49763845},{"name":"小金井 宮地楽器ホール","province":"東京都","city":"小金井市","address":"東京都小金井市本町6丁目14-45","lat":35.7001731,"lon":139.50662947},{"name":"前原町西之台会館","province":"東京都","city":"小金井市","address":"東京都小金井市前原町3丁目8-1","lat":35.69391528,"lon":139.49958585},{"name":"小金井市総合体育館","province":"東京都","city":"小金井市","address":"東京都小金井市関野町1丁目13-1","lat":35.7142719,"lon":139.51990554},{"name":"栗山公園健康運動センター","province":"東京都","city":"小金井市","address":"東京都小金井市中町2丁目21-1","lat":35.69786265,"lon":139.52130058},{"name":"公民館貫井北分館","province":"東京都","city":"小金井市","address":"東京都小金井市貫井北町1丁目11-12","lat":35.7023476,"lon":139.49763845},{"name":"小金井 宮地楽器ホール","province":"東京都","city":"小金井市","address":"東京都小金井市本町6丁目14-45","lat":35.7001731,"lon":139.50662947},{"name":"前原町西之台会館","province":"東京都","city":"小金井市","address":"東京都小金井市前原町3丁目8-1","lat":35.69391528,"lon":139.49958585},{"name":"小金井市総合体育館","province":"東京都","city":"小金井市","address":"東京都小金井市関野町1丁目13-1","lat":35.7142719,"lon":139.51990554},{"name":"栗山公園健康運動センター","province":"東京都","city":"小金井市","address":"東京都小金井市中町2丁目21-1","lat":35.69786265,"lon":139.52130058},{"name":"公民館貫井北分館","province":"東京都","city":"小金井市","address":"東京都小金井市貫井北町1丁目11-12","lat":35.7023476,"lon":139.49763845},{"name":"小金井 宮地楽器ホール","province":"東京都","city":"小金井市","address":"東京都小金井市本町6丁目14-45","lat":35.7001731,"lon":139.50662947},{"name":"前原町西之台会館","province":"東京都","city":"小金井市","address":"東京都小金井市前原町3丁目8-1","lat":35.69391528,"lon":139.49958585},{"name":"小金井市総合体育館","province":"東京都","city":"小金井市","address":"東京都小金井市関野町1丁目13-1","lat":35.7142719,"lon":139.51990554},{"name":"栗山公園健康運動センター","province":"東京都","city":"小金井市","address":"東京都小金井市中町2丁目21-1","lat":35.69786265,"lon":139.52130058},{"name":"公民館貫井北分館","province":"東京都","city":"小金井市","address":"東京都小金井市貫井北町1丁目11-12","lat":35.7023476,"lon":139.49763845},{"name":"小金井 宮地楽器ホール","province":"東京都","city":"小金井市","address":"東京都小金井市本町6丁目14-45","lat":35.7001731,"lon":139.50662947},{"name":"前原町西之台会館","province":"東京都","city":"小金井市","address":"東京都小金井市前原町3丁目8-1","lat":35.69391528,"lon":139.49958585},{"name":"小金井市総合体育館","province":"東京都","city":"小金井市","address":"東京都小金井市関野町1丁目13-1","lat":35.7142719,"lon":139.51990554},{"name":"栗山公園健康運動センター","province":"東京都","city":"小金井市","address":"東京都小金井市中町2丁目21-1","lat":35.69786265,"lon":139.52130058},{"name":"公民館貫井北分館","province":"東京都","city":"小金井市","address":"東京都小金井市貫井北町1丁目11-12","lat":35.7023476,"lon":139.49763845},{"name":"小金井 宮地楽器ホール","province":"東京都","city":"小金井市","address":"東京都小金井市本町6丁目14-45","lat":35.7001731,"lon":139.50662947},{"name":"前原町西之台会館","province":"東京都","city":"小金井市","address":"東京都小金井市前原町3丁目8-1","lat":35.69391528,"lon":139.49958585},{"name":"小金井市総合体育館","province":"東京都","city":"小金井市","address":"東京都小金井市関野町1丁目13-1","lat":35.7142719,"lon":139.51990554},{"name":"栗山公園健康運動センター","province":"東京都","city":"小金井市","address":"東京都小金井市中町2丁目21-1","lat":35.69786265,"lon":139.52130058},{"name":"公民館貫井北分館","province":"東京都","city":"小金井市","address":"東京都小金井市貫井北町1丁目11-12","lat":35.7023476,"lon":139.49763845},{"name":"小金井 宮地楽器ホール","province":"東京都","city":"小金井市","address":"東京都小金井市本町6丁目14-45","lat":35.7001731,"lon":139.50662947},{"name":"前原町西之台会館","province":"東京都","city":"小金井市","address":"東京都小金井市前原町3丁目8-1","lat":35.69391528,"lon":139.49958585},{"name":"小金井市総合体育館","province":"東京都","city":"小金井市","address":"東京都小金井市関野町1丁目13-1","lat":35.7142719,"lon":139.51990554},{"name":"栗山公園健康運動センター","province":"東京都","city":"小金井市","address":"東京都小金井市中町2丁目21-1","lat":35.69786265,"lon":139.52130058},{"name":"公民館貫井北分館","province":"東京都","city":"小金井市","address":"東京都小金井市貫井北町1丁目11-12","lat":35.7023476,"lon":139.49763845},{"name":"小金井 宮地楽器ホール","province":"東京都","city":"小金井市","address":"東京都小金井市本町6丁目14-45","lat":35.7001731,"lon":139.50662947},{"name":"前原町西之台会館","province":"東京都","city":"小金井市","address":"東京都小金井市前原町3丁目8-1","lat":35.69391528,"lon":139.49958585},{"name":"小金井市総合体育館","province":"東京都","city":"小金井市","address":"東京都小金井市関野町1丁目13-1","lat":35.7142719,"lon":139.51990554},{"name":"栗山公園健康運動センター","province":"東京都","city":"小金井市","address":"東京都小金井市中町2丁目21-1","lat":35.69786265,"lon":139.52130058},{"name":"公民館貫井北分館","province":"東京都","city":"小金井市","address":"東京都小金井市貫井北町1丁目11-12","lat":35.7023476,"lon":139.49763845},{"name":"小金井 宮地楽器ホール","province":"東京都","city":"小金井市","address":"東京都小金井市本町6丁目14-45","lat":35.7001731,"lon":139.50662947},{"name":"前原町西之台会館","province":"東京都","city":"小金井市","address":"東京都小金井市前原町3丁目8-1","lat":35.69391528,"lon":139.49958585},{"name":"小金井市総合体育館","province":"東京都","city":"小金井市","address":"東京都小金井市関野町1丁目13-1","lat":35.7142719,"lon":139.51990554},{"name":"栗山公園健康運動センター","province":"東京都","city":"小金井市","address":"東京都小金井市中町2丁目21-1","lat":35.69786265,"lon":139.52130058},{"name":"公民館貫井北分館","province":"東京都","city":"小金井市","address":"東京都小金井市貫井北町1丁目11-12","lat":35.7023476,"lon":139.49763845},{"name":"小金井 宮地楽器ホール","province":"東京都","city":"小金井市","address":"東京都小金井市本町6丁目14-45","lat":35.7001731,"lon":139.50662947},{"name":"前原町西之台会館","province":"東京都","city":"小金井市","address":"東京都小金井市前原町3丁目8-1","lat":35.69391528,"lon":139.49958585},{"name":"小金井市総合体育館","province":"東京都","city":"小金井市","address":"東京都小金井市関野町1丁目13-1","lat":35.7142719,"lon":139.51990554},{"name":"栗山公園健康運動センター","province":"東京都","city":"小金井市","address":"東京都小金井市中町2丁目21-1","lat":35.69786265,"lon":139.52130058},{"name":"公民館貫井北分館","province":"東京都","city":"小金井市","address":"東京都小金井市貫井北町1丁目11-12","lat":35.7023476,"lon":139.49763845},{"name":"小金井 宮地楽器ホール","province":"東京都","city":"小金井市","address":"東京都小金井市本町6丁目14-45","lat":35.7001731,"lon":139.50662947},{"name":"前原町西之台会館","province":"東京都","city":"小金井市","address":"東京都小金井市前原町3丁目8-1","lat":35.69391528,"lon":139.49958585}]}