{"keyword":"自転車","data":[{"name":"武蔵小金井南第３自転車駐車場","province":"東京都","city":"小金井市","address":"東京都小金井市本町6丁目5-3","lat":35.69924258,"lon":139.50395749},{"name":"武蔵小金井南第７自転車駐車場","province":"東京都","city":"小金井市","address":"東京都小金井市本町6丁目14-45","lat":35.7001731,"lon":139.50662947},{"name":"武蔵小金井北第５自転車駐車場","province":"東京都","city":"小金井市","address":"東京都小金井市本町2丁目1","lat":35.70122579,"lon":139.50750712},{"name":"東小金井駅西側高架下自転車駐車場（Ａ）","province":"東京都","city":"小金井市","address":"東京都小金井市緑町1丁目1","lat":35.70212886,"lon":139.52142262},{"name":"東小金井駅西側高架下自転車駐車場（Ｂ）","province":"東京都","city":"小金井市","address":"東京都小金井市緑町1丁目2","lat":35.70237879,"lon":139.5200505},{"name":"新小金井西第１自転車駐車場","province":"東京都","city":"小金井市","address":"東京都小金井市東町4丁目24","lat":35.69555191,"lon":139.52606416},{"name":"東小金井北第１自転車駐車場","province":"東京都","city":"小金井市","address":"東京都小金井市梶野町5丁目2","lat":35.70192613,"lon":139.52254753},{"name":"東小金井駅前第一駐輪場","province":"東京都","city":"小金井市","address":"東京都小金井市梶野町5丁目1-1","lat":35.70159565,"lon":139.52426962},{"name":"東小金井駅前第二駐輪場","province":"東京都","city":"小金井市","address":"東京都小金井市緑町1丁目2","lat":35.70237879,"lon":139.5200505}]}