{"keyword":"葬儀","data":[{"name":"株式会社セレモの森","province":"東京都","city":"小金井市","address":"東京都小金井市本町2丁目19-21","lat":35.70550591,"lon":139.50886795},{"name":"アートビジュアル","province":"東京都","city":"小金井市","address":"東京都小金井市貫井南町4丁目12-37","lat":35.6951233,"lon":139.4930669},{"name":"株式会社まごころ","province":"東京都","city":"小金井市","address":"東京都小金井市前原町4丁目17-6","lat":35.68980753,"lon":139.50422729},{"name":"有限会社　東京フラワーセレモニー","province":"東京都","city":"小金井市","address":"東京都小金井市東町4丁目3-3","lat":35.69449372,"lon":139.52695578},{"name":"東京むさし農業協同組合","province":"東京都","city":"小金井市","address":"東京都小金井市貫井北町1丁目10-1","lat":35.70175882,"lon":139.49866339},{"name":"小金井祭典株式会社","province":"東京都","city":"小金井市","address":"東京都小金井市本町5丁目32-19","lat":35.7047641,"lon":139.50109085},{"name":"株式会社セレモの森","province":"東京都","city":"小金井市","address":"東京都小金井市本町2丁目19-21","lat":35.70550591,"lon":139.50886795},{"name":"有限会社東京フラワーセレモニー","province":"東京都","city":"小金井市","address":"東京都小金井市東町4丁目3-3","lat":35.69449372,"lon":139.52695578},{"name":"花会","province":"東京都","city":"小金井市","address":"東京都小金井市貫井南町1丁目16-17","lat":35.69047939,"lon":139.49344761},{"name":"株式会社三和式典","province":"東京都","city":"小金井市","address":"東京都小金井市本町5丁目8-3","lat":35.70139509,"lon":139.50278528},{"name":"株式会社セレモニーわかば","province":"東京都","city":"小金井市","address":"東京都小金井市貫井北町1丁目23-33","lat":35.70361688,"lon":139.49678291},{"name":"株式会社セレモ","province":"東京都","city":"小金井市","address":"東京都小金井市緑町2丁目4-1","lat":35.70500902,"lon":139.5183422},{"name":"多摩式典株式会社","province":"東京都","city":"小金井市","address":"東京都小金井市中町4丁目4-8","lat":35.69551249,"lon":139.50580472}]}