{"keyword":"認可","data":[{"name":"ココファン・ナーサリー東小金井","province":"東京都","city":"小金井市","address":"小金井市緑町1-2-39","lat":35.70198,"lon":139.5199},{"name":"ひなぎく保育園","province":"東京都","city":"小金井市","address":"小金井市梶野町2-7-5","lat":35.70606,"lon":139.52826},{"name":"十八コスモ保育園","province":"東京都","city":"小金井市","address":"小金井市梶野町5-10-29イーストヒルズ小金井1階","lat":35.70355,"lon":139.52632},{"name":"まなびの森保育園武蔵小金井","province":"東京都","city":"小金井市","address":"小金井市本町3-12-13","lat":35.70828,"lon":139.50945},{"name":"くりのみ保育園","province":"東京都","city":"小金井市","address":"小金井市東町3-1-16","lat":35.69737,"lon":139.52779},{"name":"ひまわり保育園","province":"東京都","city":"小金井市","address":"小金井市中町1-5-21","lat":35.69454,"lon":139.51209},{"name":"光明第二保育園","province":"東京都","city":"小金井市","address":"小金井市貫井南町1-13-17","lat":35.68982,"lon":139.49468},{"name":"小金井なないろ保育園","province":"東京都","city":"小金井市","address":"小金井市貫井北町2-2-22","lat":35.70429,"lon":139.49905},{"name":"第六コスモ保育園","province":"東京都","city":"小金井市","address":"小金井市梶野町5-3-25-211","lat":35.7112,"lon":139.52663},{"name":"小金井保育園","province":"東京都","city":"小金井市","address":"小金井市本町5-6-19","lat":35.69989,"lon":139.50316},{"name":"小金井プチ・クレイシュ","province":"東京都","city":"小金井市","address":"東京都小金井市本町1丁目8-14","lat":35.69950376,"lon":139.50749608},{"name":"にじいろ保育園武蔵小金井","province":"東京都","city":"小金井市","address":"東京都小金井市本町6丁目14-45","lat":35.7001731,"lon":139.50662947},{"name":"回帰船保育所","province":"東京都","city":"小金井市","address":"東京都小金井市中町2丁目24-16","lat":35.69981236,"lon":139.51858961},{"name":"東京学芸大　学芸の森保育園","province":"東京都","city":"小金井市","address":"東京都小金井市貫井北町4丁目1-1","lat":35.7051444,"lon":139.49334425},{"name":"ココファン・ナーサリー東小金井","province":"東京都","city":"小金井市","address":"東京都小金井市緑町1丁目2-39","lat":35.70142609,"lon":139.51924227},{"name":"こどもの家保育園","province":"東京都","city":"小金井市","address":"東京都小金井市貫井南町4丁目20-31","lat":35.69679813,"lon":139.4938501},{"name":"どろんこ保育所","province":"東京都","city":"小金井市","address":"東京都小金井市本町3丁目12-30","lat":35.70830006,"lon":139.50971498},{"name":"瀧川　依子","province":"東京都","city":"小金井市","address":"東京都小金井市東町2丁目22-25","lat":35.69676306,"lon":139.53358291},{"name":"加藤　文乃","province":"東京都","city":"小金井市","address":"東京都小金井市貫井南町3丁目6-24","lat":35.69991726,"lon":139.49524153},{"name":"小針　紀子","province":"東京都","city":"小金井市","address":"東京都小金井市緑町5丁目15-20","lat":35.7028009,"lon":139.51775067},{"name":"平島　るみ子","province":"東京都","city":"小金井市","address":"東京都小金井市本町2丁目13-3","lat":35.70360894,"lon":139.51021514},{"name":"くるみ保育室","province":"東京都","city":"小金井市","address":"東京都小金井市梶野町4丁目20-3","lat":35.70821719,"lon":139.52651915},{"name":"ぬくいのもりほいくえん","province":"東京都","city":"小金井市","address":"東京都小金井市貫井北町3丁目4-8","lat":35.70743038,"lon":139.49780767},{"name":"プリンセスプリンス保育園小金井","province":"東京都","city":"小金井市","address":"東京都小金井市前原町3丁目18-20","lat":35.69532084,"lon":139.50532421}]}