{"keyword":"谷沢","data":[{"name":"小金井市障害者福祉センター小金井市障害者地域自立生活支援センター","province":"東京都","city":"小金井市","address":"東京都小金井市緑町4丁目17-10","lat":35.70867803,"lon":139.51739213},{"name":"合同会社セルフクリエイトデイステーション涼風","province":"東京都","city":"小金井市","address":"東京都小金井市中町1丁目7-34","lat":35.69364894,"lon":139.51066828},{"name":"ワークセンター「あい」","province":"東京都","city":"小金井市","address":"東京都小金井市東町4丁目17-1","lat":35.69549633,"lon":139.52457261},{"name":"手作り工房「みらい」","province":"東京都","city":"小金井市","address":"東京都小金井市東町4丁目20-3","lat":35.69546024,"lon":139.52496703},{"name":"一般社団法人にこにこにこにこファクトリー","province":"東京都","city":"小金井市","address":"東京都小金井市本町1丁目14-15","lat":35.70017043,"lon":139.50992086},{"name":"小金井市障害者福祉センター小金井市障害者地域自立生活支援センター","province":"東京都","city":"小金井市","address":"東京都小金井市緑町4丁目17-10","lat":35.70867803,"lon":139.51739213},{"name":"合同会社セルフクリエイトデイステーション涼風","province":"東京都","city":"小金井市","address":"東京都小金井市中町1丁目7-34","lat":35.69364894,"lon":139.51066828},{"name":"ワークセンター「あい」","province":"東京都","city":"小金井市","address":"東京都小金井市東町4丁目17-1","lat":35.69549633,"lon":139.52457261},{"name":"手作り工房「みらい」","province":"東京都","city":"小金井市","address":"東京都小金井市東町4丁目20-3","lat":35.69546024,"lon":139.52496703},{"name":"一般社団法人にこにこにこにこファクトリー","province":"東京都","city":"小金井市","address":"東京都小金井市本町1丁目14-15","lat":35.70017043,"lon":139.50992086},{"name":"小金井市障害者福祉センター小金井市障害者地域自立生活支援センター","province":"東京都","city":"小金井市","address":"東京都小金井市緑町4丁目17-10","lat":35.70867803,"lon":139.51739213},{"name":"合同会社セルフクリエイトデイステーション涼風","province":"東京都","city":"小金井市","address":"東京都小金井市中町1丁目7-34","lat":35.69364894,"lon":139.51066828},{"name":"ワークセンター「あい」","province":"東京都","city":"小金井市","address":"東京都小金井市東町4丁目17-1","lat":35.69549633,"lon":139.52457261},{"name":"手作り工房「みらい」","province":"東京都","city":"小金井市","address":"東京都小金井市東町4丁目20-3","lat":35.69546024,"lon":139.52496703},{"name":"一般社団法人にこにこにこにこファクトリー","province":"東京都","city":"小金井市","address":"東京都小金井市本町1丁目14-15","lat":35.70017043,"lon":139.50992086},{"name":"小金井市障害者福祉センター小金井市障害者地域自立生活支援センター","province":"東京都","city":"小金井市","address":"東京都小金井市緑町4丁目17-10","lat":35.70867803,"lon":139.51739213},{"name":"合同会社セルフクリエイトデイステーション涼風","province":"東京都","city":"小金井市","address":"東京都小金井市中町1丁目7-34","lat":35.69364894,"lon":139.51066828},{"name":"ワークセンター「あい」","province":"東京都","city":"小金井市","address":"東京都小金井市東町4丁目17-1","lat":35.69549633,"lon":139.52457261},{"name":"手作り工房「みらい」","province":"東京都","city":"小金井市","address":"東京都小金井市東町4丁目20-3","lat":35.69546024,"lon":139.52496703},{"name":"一般社団法人にこにこにこにこファクトリー","province":"東京都","city":"小金井市","address":"東京都小金井市本町1丁目14-15","lat":35.70017043,"lon":139.50992086},{"name":"小金井市障害者福祉センター小金井市障害者地域自立生活支援センター","province":"東京都","city":"小金井市","address":"東京都小金井市緑町4丁目17-10","lat":35.70867803,"lon":139.51739213},{"name":"合同会社セルフクリエイトデイステーション涼風","province":"東京都","city":"小金井市","address":"東京都小金井市中町1丁目7-34","lat":35.69364894,"lon":139.51066828},{"name":"ワークセンター「あい」","province":"東京都","city":"小金井市","address":"東京都小金井市東町4丁目17-1","lat":35.69549633,"lon":139.52457261},{"name":"手作り工房「みらい」","province":"東京都","city":"小金井市","address":"東京都小金井市東町4丁目20-3","lat":35.69546024,"lon":139.52496703},{"name":"一般社団法人にこにこにこにこファクトリー","province":"東京都","city":"小金井市","address":"東京都小金井市本町1丁目14-15","lat":35.70017043,"lon":139.50992086},{"name":"小金井市障害者福祉センター小金井市障害者地域自立生活支援センター","province":"東京都","city":"小金井市","address":"東京都小金井市緑町4丁目17-10","lat":35.70867803,"lon":139.51739213},{"name":"合同会社セルフクリエイトデイステーション涼風","province":"東京都","city":"小金井市","address":"東京都小金井市中町1丁目7-34","lat":35.69364894,"lon":139.51066828},{"name":"ワークセンター「あい」","province":"東京都","city":"小金井市","address":"東京都小金井市東町4丁目17-1","lat":35.69549633,"lon":139.52457261},{"name":"手作り工房「みらい」","province":"東京都","city":"小金井市","address":"東京都小金井市東町4丁目20-3","lat":35.69546024,"lon":139.52496703},{"name":"一般社団法人にこにこにこにこファクトリー","province":"東京都","city":"小金井市","address":"東京都小金井市本町1丁目14-15","lat":35.70017043,"lon":139.50992086},{"name":"小金井市障害者福祉センター小金井市障害者地域自立生活支援センター","province":"東京都","city":"小金井市","address":"東京都小金井市緑町4丁目17-10","lat":35.70867803,"lon":139.51739213},{"name":"合同会社セルフクリエイトデイステーション涼風","province":"東京都","city":"小金井市","address":"東京都小金井市中町1丁目7-34","lat":35.69364894,"lon":139.51066828},{"name":"ワークセンター「あい」","province":"東京都","city":"小金井市","address":"東京都小金井市東町4丁目17-1","lat":35.69549633,"lon":139.52457261},{"name":"手作り工房「みらい」","province":"東京都","city":"小金井市","address":"東京都小金井市東町4丁目20-3","lat":35.69546024,"lon":139.52496703},{"name":"一般社団法人にこにこにこにこファクトリー","province":"東京都","city":"小金井市","address":"東京都小金井市本町1丁目14-15","lat":35.70017043,"lon":139.50992086},{"name":"小金井市障害者福祉センター小金井市障害者地域自立生活支援センター","province":"東京都","city":"小金井市","address":"東京都小金井市緑町4丁目17-10","lat":35.70867803,"lon":139.51739213},{"name":"合同会社セルフクリエイトデイステーション涼風","province":"東京都","city":"小金井市","address":"東京都小金井市中町1丁目7-34","lat":35.69364894,"lon":139.51066828},{"name":"ワークセンター「あい」","province":"東京都","city":"小金井市","address":"東京都小金井市東町4丁目17-1","lat":35.69549633,"lon":139.52457261},{"name":"手作り工房「みらい」","province":"東京都","city":"小金井市","address":"東京都小金井市東町4丁目20-3","lat":35.69546024,"lon":139.52496703},{"name":"一般社団法人にこにこにこにこファクトリー","province":"東京都","city":"小金井市","address":"東京都小金井市本町1丁目14-15","lat":35.70017043,"lon":139.50992086},{"name":"小金井市障害者福祉センター小金井市障害者地域自立生活支援センター","province":"東京都","city":"小金井市","address":"東京都小金井市緑町4丁目17-10","lat":35.70867803,"lon":139.51739213},{"name":"合同会社セルフクリエイトデイステーション涼風","province":"東京都","city":"小金井市","address":"東京都小金井市中町1丁目7-34","lat":35.69364894,"lon":139.51066828},{"name":"ワークセンター「あい」","province":"東京都","city":"小金井市","address":"東京都小金井市東町4丁目17-1","lat":35.69549633,"lon":139.52457261},{"name":"手作り工房「みらい」","province":"東京都","city":"小金井市","address":"東京都小金井市東町4丁目20-3","lat":35.69546024,"lon":139.52496703},{"name":"一般社団法人にこにこにこにこファクトリー","province":"東京都","city":"小金井市","address":"東京都小金井市本町1丁目14-15","lat":35.70017043,"lon":139.50992086},{"name":"小金井市障害者福祉センター小金井市障害者地域自立生活支援センター","province":"東京都","city":"小金井市","address":"東京都小金井市緑町4丁目17-10","lat":35.70867803,"lon":139.51739213},{"name":"合同会社セルフクリエイトデイステーション涼風","province":"東京都","city":"小金井市","address":"東京都小金井市中町1丁目7-34","lat":35.69364894,"lon":139.51066828},{"name":"ワークセンター「あい」","province":"東京都","city":"小金井市","address":"東京都小金井市東町4丁目17-1","lat":35.69549633,"lon":139.52457261},{"name":"手作り工房「みらい」","province":"東京都","city":"小金井市","address":"東京都小金井市東町4丁目20-3","lat":35.69546024,"lon":139.52496703},{"name":"一般社団法人にこにこにこにこファクトリー","province":"東京都","city":"小金井市","address":"東京都小金井市本町1丁目14-15","lat":35.70017043,"lon":139.50992086},{"name":"小金井市障害者福祉センター小金井市障害者地域自立生活支援センター","province":"東京都","city":"小金井市","address":"東京都小金井市緑町4丁目17-10","lat":35.70867803,"lon":139.51739213},{"name":"合同会社セルフクリエイトデイステーション涼風","province":"東京都","city":"小金井市","address":"東京都小金井市中町1丁目7-34","lat":35.69364894,"lon":139.51066828},{"name":"ワークセンター「あい」","province":"東京都","city":"小金井市","address":"東京都小金井市東町4丁目17-1","lat":35.69549633,"lon":139.52457261},{"name":"手作り工房「みらい」","province":"東京都","city":"小金井市","address":"東京都小金井市東町4丁目20-3","lat":35.69546024,"lon":139.52496703},{"name":"一般社団法人にこにこにこにこファクトリー","province":"東京都","city":"小金井市","address":"東京都小金井市本町1丁目14-15","lat":35.70017043,"lon":139.50992086},{"name":"小金井市障害者福祉センター小金井市障害者地域自立生活支援センター","province":"東京都","city":"小金井市","address":"東京都小金井市緑町4丁目17-10","lat":35.70867803,"lon":139.51739213},{"name":"合同会社セルフクリエイトデイステーション涼風","province":"東京都","city":"小金井市","address":"東京都小金井市中町1丁目7-34","lat":35.69364894,"lon":139.51066828},{"name":"ワークセンター「あい」","province":"東京都","city":"小金井市","address":"東京都小金井市東町4丁目17-1","lat":35.69549633,"lon":139.52457261},{"name":"手作り工房「みらい」","province":"東京都","city":"小金井市","address":"東京都小金井市東町4丁目20-3","lat":35.69546024,"lon":139.52496703},{"name":"一般社団法人にこにこにこにこファクトリー","province":"東京都","city":"小金井市","address":"東京都小金井市本町1丁目14-15","lat":35.70017043,"lon":139.50992086},{"name":"小金井市障害者福祉センター小金井市障害者地域自立生活支援センター","province":"東京都","city":"小金井市","address":"東京都小金井市緑町4丁目17-10","lat":35.70867803,"lon":139.51739213},{"name":"合同会社セルフクリエイトデイステーション涼風","province":"東京都","city":"小金井市","address":"東京都小金井市中町1丁目7-34","lat":35.69364894,"lon":139.51066828},{"name":"ワークセンター「あい」","province":"東京都","city":"小金井市","address":"東京都小金井市東町4丁目17-1","lat":35.69549633,"lon":139.52457261},{"name":"手作り工房「みらい」","province":"東京都","city":"小金井市","address":"東京都小金井市東町4丁目20-3","lat":35.69546024,"lon":139.52496703},{"name":"一般社団法人にこにこにこにこファクトリー","province":"東京都","city":"小金井市","address":"東京都小金井市本町1丁目14-15","lat":35.70017043,"lon":139.50992086},{"name":"小金井市障害者福祉センター小金井市障害者地域自立生活支援センター","province":"東京都","city":"小金井市","address":"東京都小金井市緑町4丁目17-10","lat":35.70867803,"lon":139.51739213},{"name":"合同会社セルフクリエイトデイステーション涼風","province":"東京都","city":"小金井市","address":"東京都小金井市中町1丁目7-34","lat":35.69364894,"lon":139.51066828},{"name":"ワークセンター「あい」","province":"東京都","city":"小金井市","address":"東京都小金井市東町4丁目17-1","lat":35.69549633,"lon":139.52457261},{"name":"手作り工房「みらい」","province":"東京都","city":"小金井市","address":"東京都小金井市東町4丁目20-3","lat":35.69546024,"lon":139.52496703},{"name":"一般社団法人にこにこにこにこファクトリー","province":"東京都","city":"小金井市","address":"東京都小金井市本町1丁目14-15","lat":35.70017043,"lon":139.50992086},{"name":"小金井市障害者福祉センター小金井市障害者地域自立生活支援センター","province":"東京都","city":"小金井市","address":"東京都小金井市緑町4丁目17-10","lat":35.70867803,"lon":139.51739213},{"name":"合同会社セルフクリエイトデイステーション涼風","province":"東京都","city":"小金井市","address":"東京都小金井市中町1丁目7-34","lat":35.69364894,"lon":139.51066828},{"name":"ワークセンター「あい」","province":"東京都","city":"小金井市","address":"東京都小金井市東町4丁目17-1","lat":35.69549633,"lon":139.52457261},{"name":"手作り工房「みらい」","province":"東京都","city":"小金井市","address":"東京都小金井市東町4丁目20-3","lat":35.69546024,"lon":139.52496703},{"name":"一般社団法人にこにこにこにこファクトリー","province":"東京都","city":"小金井市","address":"東京都小金井市本町1丁目14-15","lat":35.70017043,"lon":139.50992086},{"name":"小金井市障害者福祉センター小金井市障害者地域自立生活支援センター","province":"東京都","city":"小金井市","address":"東京都小金井市緑町4丁目17-10","lat":35.70867803,"lon":139.51739213},{"name":"合同会社セルフクリエイトデイステーション涼風","province":"東京都","city":"小金井市","address":"東京都小金井市中町1丁目7-34","lat":35.69364894,"lon":139.51066828},{"name":"ワークセンター「あい」","province":"東京都","city":"小金井市","address":"東京都小金井市東町4丁目17-1","lat":35.69549633,"lon":139.52457261},{"name":"手作り工房「みらい」","province":"東京都","city":"小金井市","address":"東京都小金井市東町4丁目20-3","lat":35.69546024,"lon":139.52496703},{"name":"一般社団法人にこにこにこにこファクトリー","province":"東京都","city":"小金井市","address":"東京都小金井市本町1丁目14-15","lat":35.70017043,"lon":139.50992086},{"name":"小金井市障害者福祉センター小金井市障害者地域自立生活支援センター","province":"東京都","city":"小金井市","address":"東京都小金井市緑町4丁目17-10","lat":35.70867803,"lon":139.51739213},{"name":"合同会社セルフクリエイトデイステーション涼風","province":"東京都","city":"小金井市","address":"東京都小金井市中町1丁目7-34","lat":35.69364894,"lon":139.51066828},{"name":"ワークセンター「あい」","province":"東京都","city":"小金井市","address":"東京都小金井市東町4丁目17-1","lat":35.69549633,"lon":139.52457261},{"name":"手作り工房「みらい」","province":"東京都","city":"小金井市","address":"東京都小金井市東町4丁目20-3","lat":35.69546024,"lon":139.52496703},{"name":"一般社団法人にこにこにこにこファクトリー","province":"東京都","city":"小金井市","address":"東京都小金井市本町1丁目14-15","lat":35.70017043,"lon":139.50992086},{"name":"小金井市障害者福祉センター小金井市障害者地域自立生活支援センター","province":"東京都","city":"小金井市","address":"東京都小金井市緑町4丁目17-10","lat":35.70867803,"lon":139.51739213},{"name":"合同会社セルフクリエイトデイステーション涼風","province":"東京都","city":"小金井市","address":"東京都小金井市中町1丁目7-34","lat":35.69364894,"lon":139.51066828},{"name":"ワークセンター「あい」","province":"東京都","city":"小金井市","address":"東京都小金井市東町4丁目17-1","lat":35.69549633,"lon":139.52457261},{"name":"手作り工房「みらい」","province":"東京都","city":"小金井市","address":"東京都小金井市東町4丁目20-3","lat":35.69546024,"lon":139.52496703},{"name":"一般社団法人にこにこにこにこファクトリー","province":"東京都","city":"小金井市","address":"東京都小金井市本町1丁目14-15","lat":35.70017043,"lon":139.50992086},{"name":"小金井市障害者福祉センター小金井市障害者地域自立生活支援センター","province":"東京都","city":"小金井市","address":"東京都小金井市緑町4丁目17-10","lat":35.70867803,"lon":139.51739213},{"name":"合同会社セルフクリエイトデイステーション涼風","province":"東京都","city":"小金井市","address":"東京都小金井市中町1丁目7-34","lat":35.69364894,"lon":139.51066828},{"name":"ワークセンター「あい」","province":"東京都","city":"小金井市","address":"東京都小金井市東町4丁目17-1","lat":35.69549633,"lon":139.52457261},{"name":"手作り工房「みらい」","province":"東京都","city":"小金井市","address":"東京都小金井市東町4丁目20-3","lat":35.69546024,"lon":139.52496703},{"name":"一般社団法人にこにこにこにこファクトリー","province":"東京都","city":"小金井市","address":"東京都小金井市本町1丁目14-15","lat":35.70017043,"lon":139.50992086},{"name":"小金井市障害者福祉センター小金井市障害者地域自立生活支援センター","province":"東京都","city":"小金井市","address":"東京都小金井市緑町4丁目17-10","lat":35.70867803,"lon":139.51739213},{"name":"合同会社セルフクリエイトデイステーション涼風","province":"東京都","city":"小金井市","address":"東京都小金井市中町1丁目7-34","lat":35.69364894,"lon":139.51066828},{"name":"ワークセンター「あい」","province":"東京都","city":"小金井市","address":"東京都小金井市東町4丁目17-1","lat":35.69549633,"lon":139.52457261},{"name":"手作り工房「みらい」","province":"東京都","city":"小金井市","address":"東京都小金井市東町4丁目20-3","lat":35.69546024,"lon":139.52496703},{"name":"一般社団法人にこにこにこにこファクトリー","province":"東京都","city":"小金井市","address":"東京都小金井市本町1丁目14-15","lat":35.70017043,"lon":139.50992086}]}