{"keyword":"週","data":[{"name":"緑児童館","province":"東京都","city":"小金井市","address":"小金井市緑町4-18-25","lat":35.709392,"lon":139.518064},{"name":"本町児童館","province":"東京都","city":"小金井市","address":"小金井市本町5-4-25","lat":35.70267,"lon":139.500944},{"name":"東児童館","province":"東京都","city":"小金井市","address":"小金井市東町4-25-7","lat":35.69766,"lon":139.526295},{"name":"貫井南児童館","province":"東京都","city":"小金井市","address":"小金井市貫井南町4-3-23","lat":35.693626,"lon":139.493617},{"name":"小金井市社会福祉協議会","province":"東京都","city":"小金井市","address":"小金井市本町5-36-17","lat":35.705414,"lon":139.503918},{"name":"小金井市立図書館","province":"東京都","city":"小金井市","address":"東京都小金井市本町1丁目1-32","lat":35.697701,"lon":139.510621},{"name":"小金井市立図書館東分室","province":"東京都","city":"小金井市","address":"東京都小金井市東町1丁目39-1","lat":35.694005,"lon":139.526608},{"name":"小金井市立図書館緑分室","province":"東京都","city":"小金井市","address":"東京都小金井市緑","lat":35.709544,"lon":139.516322},{"name":"小金井市立図書館貫井北分室","province":"東京都","city":"小金井市","address":"東京都小金井市貫井北町1丁目-11-12","lat":35.702291,"lon":139.49774},{"name":"小金井市立図書館西之台会館図書室","province":"東京都","city":"小金井市","address":"東京都小金井市前原町3丁目-8-1","lat":35.693879,"lon":139.499573},{"name":"緑児童館","province":"東京都","city":"小金井市","address":"小金井市緑町4-18-25","lat":35.70964,"lon":139.51796},{"name":"本町児童館","province":"東京都","city":"小金井市","address":"小金井市本町5-4-25","lat":35.70201,"lon":139.50049},{"name":"東児童館","province":"東京都","city":"小金井市","address":"小金井市東町4-25-7","lat":35.69822,"lon":139.52672},{"name":"貫井南児童館","province":"東京都","city":"小金井市","address":"小金井市貫井南町4-3-23","lat":35.69389,"lon":139.49356},{"name":"小金井市社会福祉協議会","province":"東京都","city":"小金井市","address":"小金井市本町5-36-17","lat":35.70489,"lon":139.5036},{"name":"梶野浄水所","province":"東京都","city":"小金井市","address":"東京都小金井市梶野町5丁目10-33","lat":35.70463703,"lon":139.52653041},{"name":"都立小金井公園","province":"東京都","city":"小金井市","address":"東京都小金井市関野町1丁目","lat":35.71343867,"lon":139.51977227},{"name":"たまむし学童保育所","province":"東京都","city":"小金井市","address":"東京都小金井市東町4丁目25-7","lat":35.69766002,"lon":139.5262946},{"name":"あかね学童保育所","province":"東京都","city":"小金井市","address":"東京都小金井市梶野町5丁目7-33","lat":35.70469252,"lon":139.52384453},{"name":"ほんちょう学童保育所","province":"東京都","city":"小金井市","address":"東京都小金井市本町5丁目4-25","lat":35.70266989,"lon":139.50094372},{"name":"さくらなみ学童保育所","province":"東京都","city":"小金井市","address":"東京都小金井市本町1丁目2-13","lat":35.6987817,"lon":139.51032644},{"name":"さわらび学童保育所","province":"東京都","city":"小金井市","address":"東京都小金井市貫井南町3丁目6-27","lat":35.6997534,"lon":139.49581649},{"name":"たけとんぼ学童保育所","province":"東京都","city":"小金井市","address":"東京都小金井市桜町2丁目3-60","lat":35.70955537,"lon":139.50584303},{"name":"まえはら学童保育所","province":"東京都","city":"小金井市","address":"東京都小金井市前原町3丁目3-16","lat":35.69405146,"lon":139.50281614},{"name":"みどり学童保育所","province":"東京都","city":"小金井市","address":"東京都小金井市緑町4丁目18-25","lat":35.70939186,"lon":139.51806427},{"name":"みなみ学童保育所","province":"東京都","city":"小金井市","address":"東京都小金井市前原町2丁目2-21","lat":35.69216031,"lon":139.51400417},{"name":"本町児童館","province":"東京都","city":"小金井市","address":"東京都小金井市本町5丁目4-25","lat":35.70266989,"lon":139.50094372},{"name":"東児童館","province":"東京都","city":"小金井市","address":"東京都小金井市東町4丁目25-7","lat":35.69766002,"lon":139.5262946},{"name":"貫井南児童館","province":"東京都","city":"小金井市","address":"東京都小金井市貫井南町4丁目3-23","lat":35.69362626,"lon":139.49361692},{"name":"緑児童館","province":"東京都","city":"小金井市","address":"東京都小金井市緑町4丁目18-25","lat":35.70939186,"lon":139.51806427},{"name":"小金井プチ・クレイシュ","province":"東京都","city":"小金井市","address":"東京都小金井市本町1丁目8-14","lat":35.69950376,"lon":139.50749608},{"name":"にじいろ保育園武蔵小金井","province":"東京都","city":"小金井市","address":"東京都小金井市本町6丁目14-45","lat":35.7001731,"lon":139.50662947},{"name":"回帰船保育所","province":"東京都","city":"小金井市","address":"東京都小金井市中町2丁目24-16","lat":35.69981236,"lon":139.51858961},{"name":"東京学芸大　学芸の森保育園","province":"東京都","city":"小金井市","address":"東京都小金井市貫井北町4丁目1-1","lat":35.7051444,"lon":139.49334425},{"name":"ココファン・ナーサリー東小金井","province":"東京都","city":"小金井市","address":"東京都小金井市緑町1丁目2-39","lat":35.70142609,"lon":139.51924227},{"name":"こどもの家保育園","province":"東京都","city":"小金井市","address":"東京都小金井市貫井南町4丁目20-31","lat":35.69679813,"lon":139.4938501},{"name":"どろんこ保育所","province":"東京都","city":"小金井市","address":"東京都小金井市本町3丁目12-30","lat":35.70830006,"lon":139.50971498},{"name":"瀧川　依子","province":"東京都","city":"小金井市","address":"東京都小金井市東町2丁目22-25","lat":35.69676306,"lon":139.53358291},{"name":"加藤　文乃","province":"東京都","city":"小金井市","address":"東京都小金井市貫井南町3丁目6-24","lat":35.69991726,"lon":139.49524153},{"name":"小針　紀子","province":"東京都","city":"小金井市","address":"東京都小金井市緑町5丁目15-20","lat":35.7028009,"lon":139.51775067},{"name":"平島　るみ子","province":"東京都","city":"小金井市","address":"東京都小金井市本町2丁目13-3","lat":35.70360894,"lon":139.51021514},{"name":"くるみ保育室","province":"東京都","city":"小金井市","address":"東京都小金井市梶野町4丁目20-3","lat":35.70821719,"lon":139.52651915},{"name":"ぬくいのもりほいくえん","province":"東京都","city":"小金井市","address":"東京都小金井市貫井北町3丁目4-8","lat":35.70743038,"lon":139.49780767},{"name":"プリンセスプリンス保育園小金井","province":"東京都","city":"小金井市","address":"東京都小金井市前原町3丁目18-20","lat":35.69532084,"lon":139.50532421},{"name":"＊?小金井市公民館貫井南分館","province":"東京都","city":"小金井市","address":"小金井市貫井南町4-3-23","lat":35.693655,"lon":139.493719},{"name":"＊?小金井市公民館","province":"東京都","city":"小金井市","address":"小金井市本町2-15-11","lat":35.705443,"lon":139.510607},{"name":"＊?小金井市公民館東分館","province":"東京都","city":"小金井市","address":"小金井市東町1-39-1","lat":35.69399,"lon":139.526627},{"name":"＊?小金井市公民館緑分館","province":"東京都","city":"小金井市","address":"小金井市緑町3-3-23","lat":35.709554,"lon":139.516375},{"name":"＊?小金井市公民館貫井北分館","province":"東京都","city":"小金井市","address":"小金井市貫井北町1-11-12","lat":35.702323,"lon":139.49769},{"name":"＊?小金井市文化財センター","province":"東京都","city":"小金井市","address":"小金井市緑町3-2-37","lat":35.710144,"lon":139.517044},{"name":"＊?小金井市立図書館","province":"東京都","city":"小金井市","address":"小金井市本町1-1-32","lat":35.6977,"lon":139.510624},{"name":"＊?小金井市立図書館貫井北分室","province":"東京都","city":"小金井市","address":"小金井市貫井北町1-11-12","lat":35.702321,"lon":139.497695},{"name":"＊?小金井市立図書館東分室","province":"東京都","city":"小金井市","address":"小金井市東町1-39-1","lat":35.69399,"lon":139.526627},{"name":"＊?西之台会館図書室","province":"東京都","city":"小金井市","address":"小金井市前原町3-8-1","lat":35.693872,"lon":139.499611},{"name":"＊?小金井市立図書館緑分室","province":"東京都","city":"小金井市","address":"小金井市緑町3-3-23","lat":35.709552,"lon":139.516375},{"name":"小金井市本庁舎","province":"東京都","city":"小金井市","address":"小金井市本町6-6-3","lat":35.699479,"lon":139.502989},{"name":"小金井警察署","province":"東京都","city":"小金井市","address":"小金井市貫井南町3-21-3","lat":35.69993,"lon":139.4982},{"name":"小金井消防署","province":"東京都","city":"小金井市","address":"小金井市本町6-6-1","lat":35.69931,"lon":139.5035},{"name":"都立小金井公園","province":"東京都","city":"小金井市","address":"小金井市関野町1-2","lat":35.71295,"lon":139.5233},{"name":"都立小金井公園","province":"東京都","city":"小金井市","address":"小金井市関野町1","lat":35.71348,"lon":139.5196},{"name":"緑児童館","province":"東京都","city":"小金井市","address":"小金井市緑町4-18-25","lat":35.709392,"lon":139.518064},{"name":"本町児童館","province":"東京都","city":"小金井市","address":"小金井市本町5-4-25","lat":35.70267,"lon":139.500944},{"name":"東児童館","province":"東京都","city":"小金井市","address":"小金井市東町4-25-7","lat":35.69766,"lon":139.526295},{"name":"貫井南児童館","province":"東京都","city":"小金井市","address":"小金井市貫井南町4-3-23","lat":35.693626,"lon":139.493617},{"name":"小金井市社会福祉協議会","province":"東京都","city":"小金井市","address":"小金井市本町5-36-17","lat":35.705414,"lon":139.503918},{"name":"小金井市立図書館","province":"東京都","city":"小金井市","address":"東京都小金井市本町1丁目1-32","lat":35.697701,"lon":139.510621},{"name":"小金井市立図書館東分室","province":"東京都","city":"小金井市","address":"東京都小金井市東町1丁目39-1","lat":35.694005,"lon":139.526608},{"name":"小金井市立図書館緑分室","province":"東京都","city":"小金井市","address":"東京都小金井市緑","lat":35.709544,"lon":139.516322},{"name":"小金井市立図書館貫井北分室","province":"東京都","city":"小金井市","address":"東京都小金井市貫井北町1丁目-11-12","lat":35.702291,"lon":139.49774},{"name":"小金井市立図書館西之台会館図書室","province":"東京都","city":"小金井市","address":"東京都小金井市前原町3丁目-8-1","lat":35.693879,"lon":139.499573},{"name":"緑児童館","province":"東京都","city":"小金井市","address":"小金井市緑町4-18-25","lat":35.70964,"lon":139.51796},{"name":"本町児童館","province":"東京都","city":"小金井市","address":"小金井市本町5-4-25","lat":35.70201,"lon":139.50049},{"name":"東児童館","province":"東京都","city":"小金井市","address":"小金井市東町4-25-7","lat":35.69822,"lon":139.52672},{"name":"貫井南児童館","province":"東京都","city":"小金井市","address":"小金井市貫井南町4-3-23","lat":35.69389,"lon":139.49356},{"name":"小金井市社会福祉協議会","province":"東京都","city":"小金井市","address":"小金井市本町5-36-17","lat":35.70489,"lon":139.5036},{"name":"梶野浄水所","province":"東京都","city":"小金井市","address":"東京都小金井市梶野町5丁目10-33","lat":35.70463703,"lon":139.52653041},{"name":"たまむし学童保育所","province":"東京都","city":"小金井市","address":"東京都小金井市東町4丁目25-7","lat":35.69766002,"lon":139.5262946},{"name":"あかね学童保育所","province":"東京都","city":"小金井市","address":"東京都小金井市梶野町5丁目7-33","lat":35.70469252,"lon":139.52384453},{"name":"ほんちょう学童保育所","province":"東京都","city":"小金井市","address":"東京都小金井市本町5丁目4-25","lat":35.70266989,"lon":139.50094372},{"name":"さくらなみ学童保育所","province":"東京都","city":"小金井市","address":"東京都小金井市本町1丁目2-13","lat":35.6987817,"lon":139.51032644},{"name":"さわらび学童保育所","province":"東京都","city":"小金井市","address":"東京都小金井市貫井南町3丁目6-27","lat":35.6997534,"lon":139.49581649},{"name":"たけとんぼ学童保育所","province":"東京都","city":"小金井市","address":"東京都小金井市桜町2丁目3-60","lat":35.70955537,"lon":139.50584303},{"name":"まえはら学童保育所","province":"東京都","city":"小金井市","address":"東京都小金井市前原町3丁目3-16","lat":35.69405146,"lon":139.50281614},{"name":"みどり学童保育所","province":"東京都","city":"小金井市","address":"東京都小金井市緑町4丁目18-25","lat":35.70939186,"lon":139.51806427},{"name":"みなみ学童保育所","province":"東京都","city":"小金井市","address":"東京都小金井市前原町2丁目2-21","lat":35.69216031,"lon":139.51400417},{"name":"本町児童館","province":"東京都","city":"小金井市","address":"東京都小金井市本町5丁目4-25","lat":35.70266989,"lon":139.50094372},{"name":"東児童館","province":"東京都","city":"小金井市","address":"東京都小金井市東町4丁目25-7","lat":35.69766002,"lon":139.5262946},{"name":"貫井南児童館","province":"東京都","city":"小金井市","address":"東京都小金井市貫井南町4丁目3-23","lat":35.69362626,"lon":139.49361692},{"name":"緑児童館","province":"東京都","city":"小金井市","address":"東京都小金井市緑町4丁目18-25","lat":35.70939186,"lon":139.51806427},{"name":"小金井プチ・クレイシュ","province":"東京都","city":"小金井市","address":"東京都小金井市本町1丁目8-14","lat":35.69950376,"lon":139.50749608},{"name":"にじいろ保育園武蔵小金井","province":"東京都","city":"小金井市","address":"東京都小金井市本町6丁目14-45","lat":35.7001731,"lon":139.50662947},{"name":"回帰船保育所","province":"東京都","city":"小金井市","address":"東京都小金井市中町2丁目24-16","lat":35.69981236,"lon":139.51858961},{"name":"東京学芸大　学芸の森保育園","province":"東京都","city":"小金井市","address":"東京都小金井市貫井北町4丁目1-1","lat":35.7051444,"lon":139.49334425},{"name":"ココファン・ナーサリー東小金井","province":"東京都","city":"小金井市","address":"東京都小金井市緑町1丁目2-39","lat":35.70142609,"lon":139.51924227},{"name":"こどもの家保育園","province":"東京都","city":"小金井市","address":"東京都小金井市貫井南町4丁目20-31","lat":35.69679813,"lon":139.4938501},{"name":"どろんこ保育所","province":"東京都","city":"小金井市","address":"東京都小金井市本町3丁目12-30","lat":35.70830006,"lon":139.50971498},{"name":"瀧川　依子","province":"東京都","city":"小金井市","address":"東京都小金井市東町2丁目22-25","lat":35.69676306,"lon":139.53358291},{"name":"加藤　文乃","province":"東京都","city":"小金井市","address":"東京都小金井市貫井南町3丁目6-24","lat":35.69991726,"lon":139.49524153},{"name":"小針　紀子","province":"東京都","city":"小金井市","address":"東京都小金井市緑町5丁目15-20","lat":35.7028009,"lon":139.51775067},{"name":"平島　るみ子","province":"東京都","city":"小金井市","address":"東京都小金井市本町2丁目13-3","lat":35.70360894,"lon":139.51021514},{"name":"くるみ保育室","province":"東京都","city":"小金井市","address":"東京都小金井市梶野町4丁目20-3","lat":35.70821719,"lon":139.52651915},{"name":"ぬくいのもりほいくえん","province":"東京都","city":"小金井市","address":"東京都小金井市貫井北町3丁目4-8","lat":35.70743038,"lon":139.49780767},{"name":"プリンセスプリンス保育園小金井","province":"東京都","city":"小金井市","address":"東京都小金井市前原町3丁目18-20","lat":35.69532084,"lon":139.50532421},{"name":"＊?小金井市公民館貫井南分館","province":"東京都","city":"小金井市","address":"小金井市貫井南町4-3-23","lat":35.693655,"lon":139.493719},{"name":"＊?小金井市公民館","province":"東京都","city":"小金井市","address":"小金井市本町2-15-11","lat":35.705443,"lon":139.510607},{"name":"＊?小金井市公民館東分館","province":"東京都","city":"小金井市","address":"小金井市東町1-39-1","lat":35.69399,"lon":139.526627},{"name":"＊?小金井市公民館緑分館","province":"東京都","city":"小金井市","address":"小金井市緑町3-3-23","lat":35.709554,"lon":139.516375},{"name":"＊?小金井市公民館貫井北分館","province":"東京都","city":"小金井市","address":"小金井市貫井北町1-11-12","lat":35.702323,"lon":139.49769},{"name":"＊?小金井市文化財センター","province":"東京都","city":"小金井市","address":"小金井市緑町3-2-37","lat":35.710144,"lon":139.517044},{"name":"＊?小金井市立図書館","province":"東京都","city":"小金井市","address":"小金井市本町1-1-32","lat":35.6977,"lon":139.510624},{"name":"＊?小金井市立図書館貫井北分室","province":"東京都","city":"小金井市","address":"小金井市貫井北町1-11-12","lat":35.702321,"lon":139.497695},{"name":"＊?小金井市立図書館東分室","province":"東京都","city":"小金井市","address":"小金井市東町1-39-1","lat":35.69399,"lon":139.526627},{"name":"＊?西之台会館図書室","province":"東京都","city":"小金井市","address":"小金井市前原町3-8-1","lat":35.693872,"lon":139.499611},{"name":"＊?小金井市立図書館緑分室","province":"東京都","city":"小金井市","address":"小金井市緑町3-3-23","lat":35.709552,"lon":139.516375},{"name":"小金井市本庁舎","province":"東京都","city":"小金井市","address":"小金井市本町6-6-3","lat":35.699479,"lon":139.502989},{"name":"小金井警察署","province":"東京都","city":"小金井市","address":"小金井市貫井南町3-21-3","lat":35.69993,"lon":139.4982},{"name":"小金井消防署","province":"東京都","city":"小金井市","address":"小金井市本町6-6-1","lat":35.69931,"lon":139.5035},{"name":"都立小金井公園","province":"東京都","city":"小金井市","address":"小金井市関野町1-2","lat":35.71295,"lon":139.5233},{"name":"都立小金井公園","province":"東京都","city":"小金井市","address":"小金井市関野町1","lat":35.71348,"lon":139.5196},{"name":"緑児童館","province":"東京都","city":"小金井市","address":"小金井市緑町4-18-25","lat":35.709392,"lon":139.518064},{"name":"本町児童館","province":"東京都","city":"小金井市","address":"小金井市本町5-4-25","lat":35.70267,"lon":139.500944},{"name":"東児童館","province":"東京都","city":"小金井市","address":"小金井市東町4-25-7","lat":35.69766,"lon":139.526295},{"name":"貫井南児童館","province":"東京都","city":"小金井市","address":"小金井市貫井南町4-3-23","lat":35.693626,"lon":139.493617},{"name":"小金井市社会福祉協議会","province":"東京都","city":"小金井市","address":"小金井市本町5-36-17","lat":35.705414,"lon":139.503918},{"name":"小金井市立図書館","province":"東京都","city":"小金井市","address":"東京都小金井市本町1丁目1-32","lat":35.697701,"lon":139.510621},{"name":"小金井市立図書館東分室","province":"東京都","city":"小金井市","address":"東京都小金井市東町1丁目39-1","lat":35.694005,"lon":139.526608},{"name":"小金井市立図書館緑分室","province":"東京都","city":"小金井市","address":"東京都小金井市緑","lat":35.709544,"lon":139.516322},{"name":"小金井市立図書館貫井北分室","province":"東京都","city":"小金井市","address":"東京都小金井市貫井北町1丁目-11-12","lat":35.702291,"lon":139.49774},{"name":"小金井市立図書館西之台会館図書室","province":"東京都","city":"小金井市","address":"東京都小金井市前原町3丁目-8-1","lat":35.693879,"lon":139.499573},{"name":"緑児童館","province":"東京都","city":"小金井市","address":"小金井市緑町4-18-25","lat":35.70964,"lon":139.51796},{"name":"本町児童館","province":"東京都","city":"小金井市","address":"小金井市本町5-4-25","lat":35.70201,"lon":139.50049},{"name":"東児童館","province":"東京都","city":"小金井市","address":"小金井市東町4-25-7","lat":35.69822,"lon":139.52672},{"name":"貫井南児童館","province":"東京都","city":"小金井市","address":"小金井市貫井南町4-3-23","lat":35.69389,"lon":139.49356},{"name":"小金井市社会福祉協議会","province":"東京都","city":"小金井市","address":"小金井市本町5-36-17","lat":35.70489,"lon":139.5036},{"name":"たまむし学童保育所","province":"東京都","city":"小金井市","address":"東京都小金井市東町4丁目25-7","lat":35.69766002,"lon":139.5262946},{"name":"あかね学童保育所","province":"東京都","city":"小金井市","address":"東京都小金井市梶野町5丁目7-33","lat":35.70469252,"lon":139.52384453},{"name":"ほんちょう学童保育所","province":"東京都","city":"小金井市","address":"東京都小金井市本町5丁目4-25","lat":35.70266989,"lon":139.50094372},{"name":"さくらなみ学童保育所","province":"東京都","city":"小金井市","address":"東京都小金井市本町1丁目2-13","lat":35.6987817,"lon":139.51032644},{"name":"さわらび学童保育所","province":"東京都","city":"小金井市","address":"東京都小金井市貫井南町3丁目6-27","lat":35.6997534,"lon":139.49581649},{"name":"たけとんぼ学童保育所","province":"東京都","city":"小金井市","address":"東京都小金井市桜町2丁目3-60","lat":35.70955537,"lon":139.50584303},{"name":"まえはら学童保育所","province":"東京都","city":"小金井市","address":"東京都小金井市前原町3丁目3-16","lat":35.69405146,"lon":139.50281614},{"name":"みどり学童保育所","province":"東京都","city":"小金井市","address":"東京都小金井市緑町4丁目18-25","lat":35.70939186,"lon":139.51806427},{"name":"みなみ学童保育所","province":"東京都","city":"小金井市","address":"東京都小金井市前原町2丁目2-21","lat":35.69216031,"lon":139.51400417},{"name":"本町児童館","province":"東京都","city":"小金井市","address":"東京都小金井市本町5丁目4-25","lat":35.70266989,"lon":139.50094372},{"name":"東児童館","province":"東京都","city":"小金井市","address":"東京都小金井市東町4丁目25-7","lat":35.69766002,"lon":139.5262946},{"name":"貫井南児童館","province":"東京都","city":"小金井市","address":"東京都小金井市貫井南町4丁目3-23","lat":35.69362626,"lon":139.49361692},{"name":"緑児童館","province":"東京都","city":"小金井市","address":"東京都小金井市緑町4丁目18-25","lat":35.70939186,"lon":139.51806427},{"name":"小金井プチ・クレイシュ","province":"東京都","city":"小金井市","address":"東京都小金井市本町1丁目8-14","lat":35.69950376,"lon":139.50749608},{"name":"にじいろ保育園武蔵小金井","province":"東京都","city":"小金井市","address":"東京都小金井市本町6丁目14-45","lat":35.7001731,"lon":139.50662947},{"name":"回帰船保育所","province":"東京都","city":"小金井市","address":"東京都小金井市中町2丁目24-16","lat":35.69981236,"lon":139.51858961},{"name":"東京学芸大　学芸の森保育園","province":"東京都","city":"小金井市","address":"東京都小金井市貫井北町4丁目1-1","lat":35.7051444,"lon":139.49334425},{"name":"ココファン・ナーサリー東小金井","province":"東京都","city":"小金井市","address":"東京都小金井市緑町1丁目2-39","lat":35.70142609,"lon":139.51924227},{"name":"こどもの家保育園","province":"東京都","city":"小金井市","address":"東京都小金井市貫井南町4丁目20-31","lat":35.69679813,"lon":139.4938501},{"name":"どろんこ保育所","province":"東京都","city":"小金井市","address":"東京都小金井市本町3丁目12-30","lat":35.70830006,"lon":139.50971498},{"name":"瀧川　依子","province":"東京都","city":"小金井市","address":"東京都小金井市東町2丁目22-25","lat":35.69676306,"lon":139.53358291},{"name":"加藤　文乃","province":"東京都","city":"小金井市","address":"東京都小金井市貫井南町3丁目6-24","lat":35.69991726,"lon":139.49524153},{"name":"小針　紀子","province":"東京都","city":"小金井市","address":"東京都小金井市緑町5丁目15-20","lat":35.7028009,"lon":139.51775067},{"name":"平島　るみ子","province":"東京都","city":"小金井市","address":"東京都小金井市本町2丁目13-3","lat":35.70360894,"lon":139.51021514},{"name":"くるみ保育室","province":"東京都","city":"小金井市","address":"東京都小金井市梶野町4丁目20-3","lat":35.70821719,"lon":139.52651915},{"name":"ぬくいのもりほいくえん","province":"東京都","city":"小金井市","address":"東京都小金井市貫井北町3丁目4-8","lat":35.70743038,"lon":139.49780767},{"name":"プリンセスプリンス保育園小金井","province":"東京都","city":"小金井市","address":"東京都小金井市前原町3丁目18-20","lat":35.69532084,"lon":139.50532421},{"name":"＊?小金井市公民館貫井南分館","province":"東京都","city":"小金井市","address":"小金井市貫井南町4-3-23","lat":35.693655,"lon":139.493719},{"name":"＊?小金井市公民館","province":"東京都","city":"小金井市","address":"小金井市本町2-15-11","lat":35.705443,"lon":139.510607},{"name":"＊?小金井市公民館東分館","province":"東京都","city":"小金井市","address":"小金井市東町1-39-1","lat":35.69399,"lon":139.526627},{"name":"＊?小金井市公民館緑分館","province":"東京都","city":"小金井市","address":"小金井市緑町3-3-23","lat":35.709554,"lon":139.516375},{"name":"＊?小金井市公民館貫井北分館","province":"東京都","city":"小金井市","address":"小金井市貫井北町1-11-12","lat":35.702323,"lon":139.49769},{"name":"＊?小金井市文化財センター","province":"東京都","city":"小金井市","address":"小金井市緑町3-2-37","lat":35.710144,"lon":139.517044},{"name":"＊?小金井市立図書館","province":"東京都","city":"小金井市","address":"小金井市本町1-1-32","lat":35.6977,"lon":139.510624},{"name":"＊?小金井市立図書館貫井北分室","province":"東京都","city":"小金井市","address":"小金井市貫井北町1-11-12","lat":35.702321,"lon":139.497695},{"name":"＊?小金井市立図書館東分室","province":"東京都","city":"小金井市","address":"小金井市東町1-39-1","lat":35.69399,"lon":139.526627},{"name":"＊?西之台会館図書室","province":"東京都","city":"小金井市","address":"小金井市前原町3-8-1","lat":35.693872,"lon":139.499611},{"name":"＊?小金井市立図書館緑分室","province":"東京都","city":"小金井市","address":"小金井市緑町3-3-23","lat":35.709552,"lon":139.516375},{"name":"緑児童館","province":"東京都","city":"小金井市","address":"小金井市緑町4-18-25","lat":35.709392,"lon":139.518064},{"name":"本町児童館","province":"東京都","city":"小金井市","address":"小金井市本町5-4-25","lat":35.70267,"lon":139.500944},{"name":"東児童館","province":"東京都","city":"小金井市","address":"小金井市東町4-25-7","lat":35.69766,"lon":139.526295},{"name":"貫井南児童館","province":"東京都","city":"小金井市","address":"小金井市貫井南町4-3-23","lat":35.693626,"lon":139.493617},{"name":"小金井市社会福祉協議会","province":"東京都","city":"小金井市","address":"小金井市本町5-36-17","lat":35.705414,"lon":139.503918},{"name":"小金井市立図書館","province":"東京都","city":"小金井市","address":"東京都小金井市本町1丁目1-32","lat":35.697701,"lon":139.510621},{"name":"小金井市立図書館東分室","province":"東京都","city":"小金井市","address":"東京都小金井市東町1丁目39-1","lat":35.694005,"lon":139.526608},{"name":"小金井市立図書館緑分室","province":"東京都","city":"小金井市","address":"東京都小金井市緑","lat":35.709544,"lon":139.516322},{"name":"小金井市立図書館貫井北分室","province":"東京都","city":"小金井市","address":"東京都小金井市貫井北町1丁目-11-12","lat":35.702291,"lon":139.49774},{"name":"小金井市立図書館西之台会館図書室","province":"東京都","city":"小金井市","address":"東京都小金井市前原町3丁目-8-1","lat":35.693879,"lon":139.499573},{"name":"緑児童館","province":"東京都","city":"小金井市","address":"小金井市緑町4-18-25","lat":35.70964,"lon":139.51796},{"name":"本町児童館","province":"東京都","city":"小金井市","address":"小金井市本町5-4-25","lat":35.70201,"lon":139.50049},{"name":"東児童館","province":"東京都","city":"小金井市","address":"小金井市東町4-25-7","lat":35.69822,"lon":139.52672},{"name":"貫井南児童館","province":"東京都","city":"小金井市","address":"小金井市貫井南町4-3-23","lat":35.69389,"lon":139.49356},{"name":"小金井市社会福祉協議会","province":"東京都","city":"小金井市","address":"小金井市本町5-36-17","lat":35.70489,"lon":139.5036},{"name":"＊?小金井市公民館貫井南分館","province":"東京都","city":"小金井市","address":"小金井市貫井南町4-3-23","lat":35.693655,"lon":139.493719},{"name":"＊?小金井市公民館","province":"東京都","city":"小金井市","address":"小金井市本町2-15-11","lat":35.705443,"lon":139.510607},{"name":"＊?小金井市公民館東分館","province":"東京都","city":"小金井市","address":"小金井市東町1-39-1","lat":35.69399,"lon":139.526627},{"name":"＊?小金井市公民館緑分館","province":"東京都","city":"小金井市","address":"小金井市緑町3-3-23","lat":35.709554,"lon":139.516375},{"name":"＊?小金井市公民館貫井北分館","province":"東京都","city":"小金井市","address":"小金井市貫井北町1-11-12","lat":35.702323,"lon":139.49769},{"name":"＊?小金井市文化財センター","province":"東京都","city":"小金井市","address":"小金井市緑町3-2-37","lat":35.710144,"lon":139.517044},{"name":"＊?小金井市立図書館","province":"東京都","city":"小金井市","address":"小金井市本町1-1-32","lat":35.6977,"lon":139.510624},{"name":"＊?小金井市立図書館貫井北分室","province":"東京都","city":"小金井市","address":"小金井市貫井北町1-11-12","lat":35.702321,"lon":139.497695},{"name":"＊?小金井市立図書館東分室","province":"東京都","city":"小金井市","address":"小金井市東町1-39-1","lat":35.69399,"lon":139.526627},{"name":"＊?西之台会館図書室","province":"東京都","city":"小金井市","address":"小金井市前原町3-8-1","lat":35.693872,"lon":139.499611},{"name":"＊?小金井市立図書館緑分室","province":"東京都","city":"小金井市","address":"小金井市緑町3-3-23","lat":35.709552,"lon":139.516375},{"name":"緑児童館","province":"東京都","city":"小金井市","address":"小金井市緑町4-18-25","lat":35.709392,"lon":139.518064},{"name":"本町児童館","province":"東京都","city":"小金井市","address":"小金井市本町5-4-25","lat":35.70267,"lon":139.500944},{"name":"東児童館","province":"東京都","city":"小金井市","address":"小金井市東町4-25-7","lat":35.69766,"lon":139.526295},{"name":"貫井南児童館","province":"東京都","city":"小金井市","address":"小金井市貫井南町4-3-23","lat":35.693626,"lon":139.493617},{"name":"小金井市立図書館","province":"東京都","city":"小金井市","address":"東京都小金井市本町1丁目1-32","lat":35.697701,"lon":139.510621},{"name":"小金井市立図書館東分室","province":"東京都","city":"小金井市","address":"東京都小金井市東町1丁目39-1","lat":35.694005,"lon":139.526608},{"name":"小金井市立図書館緑分室","province":"東京都","city":"小金井市","address":"東京都小金井市緑","lat":35.709544,"lon":139.516322},{"name":"小金井市立図書館貫井北分室","province":"東京都","city":"小金井市","address":"東京都小金井市貫井北町1丁目-11-12","lat":35.702291,"lon":139.49774},{"name":"小金井市立図書館西之台会館図書室","province":"東京都","city":"小金井市","address":"東京都小金井市前原町3丁目-8-1","lat":35.693879,"lon":139.499573},{"name":"緑児童館","province":"東京都","city":"小金井市","address":"小金井市緑町4-18-25","lat":35.70964,"lon":139.51796},{"name":"本町児童館","province":"東京都","city":"小金井市","address":"小金井市本町5-4-25","lat":35.70201,"lon":139.50049},{"name":"東児童館","province":"東京都","city":"小金井市","address":"小金井市東町4-25-7","lat":35.69822,"lon":139.52672},{"name":"貫井南児童館","province":"東京都","city":"小金井市","address":"小金井市貫井南町4-3-23","lat":35.69389,"lon":139.49356},{"name":"＊?小金井市公民館貫井南分館","province":"東京都","city":"小金井市","address":"小金井市貫井南町4-3-23","lat":35.693655,"lon":139.493719},{"name":"＊?小金井市公民館","province":"東京都","city":"小金井市","address":"小金井市本町2-15-11","lat":35.705443,"lon":139.510607},{"name":"＊?小金井市公民館東分館","province":"東京都","city":"小金井市","address":"小金井市東町1-39-1","lat":35.69399,"lon":139.526627},{"name":"＊?小金井市公民館緑分館","province":"東京都","city":"小金井市","address":"小金井市緑町3-3-23","lat":35.709554,"lon":139.516375},{"name":"＊?小金井市公民館貫井北分館","province":"東京都","city":"小金井市","address":"小金井市貫井北町1-11-12","lat":35.702323,"lon":139.49769},{"name":"＊?小金井市文化財センター","province":"東京都","city":"小金井市","address":"小金井市緑町3-2-37","lat":35.710144,"lon":139.517044},{"name":"＊?小金井市立図書館","province":"東京都","city":"小金井市","address":"小金井市本町1-1-32","lat":35.6977,"lon":139.510624},{"name":"＊?小金井市立図書館貫井北分室","province":"東京都","city":"小金井市","address":"小金井市貫井北町1-11-12","lat":35.702321,"lon":139.497695},{"name":"＊?小金井市立図書館東分室","province":"東京都","city":"小金井市","address":"小金井市東町1-39-1","lat":35.69399,"lon":139.526627},{"name":"＊?西之台会館図書室","province":"東京都","city":"小金井市","address":"小金井市前原町3-8-1","lat":35.693872,"lon":139.499611},{"name":"＊?小金井市立図書館緑分室","province":"東京都","city":"小金井市","address":"小金井市緑町3-3-23","lat":35.709552,"lon":139.516375},{"name":"緑児童館","province":"東京都","city":"小金井市","address":"小金井市緑町4-18-25","lat":35.709392,"lon":139.518064},{"name":"本町児童館","province":"東京都","city":"小金井市","address":"小金井市本町5-4-25","lat":35.70267,"lon":139.500944},{"name":"東児童館","province":"東京都","city":"小金井市","address":"小金井市東町4-25-7","lat":35.69766,"lon":139.526295},{"name":"貫井南児童館","province":"東京都","city":"小金井市","address":"小金井市貫井南町4-3-23","lat":35.693626,"lon":139.493617},{"name":"小金井市立図書館","province":"東京都","city":"小金井市","address":"東京都小金井市本町1丁目1-32","lat":35.697701,"lon":139.510621},{"name":"小金井市立図書館東分室","province":"東京都","city":"小金井市","address":"東京都小金井市東町1丁目39-1","lat":35.694005,"lon":139.526608},{"name":"小金井市立図書館緑分室","province":"東京都","city":"小金井市","address":"東京都小金井市緑","lat":35.709544,"lon":139.516322},{"name":"小金井市立図書館貫井北分室","province":"東京都","city":"小金井市","address":"東京都小金井市貫井北町1丁目-11-12","lat":35.702291,"lon":139.49774},{"name":"小金井市立図書館西之台会館図書室","province":"東京都","city":"小金井市","address":"東京都小金井市前原町3丁目-8-1","lat":35.693879,"lon":139.499573},{"name":"緑児童館","province":"東京都","city":"小金井市","address":"小金井市緑町4-18-25","lat":35.70964,"lon":139.51796},{"name":"本町児童館","province":"東京都","city":"小金井市","address":"小金井市本町5-4-25","lat":35.70201,"lon":139.50049},{"name":"東児童館","province":"東京都","city":"小金井市","address":"小金井市東町4-25-7","lat":35.69822,"lon":139.52672},{"name":"貫井南児童館","province":"東京都","city":"小金井市","address":"小金井市貫井南町4-3-23","lat":35.69389,"lon":139.49356},{"name":"＊?小金井市公民館貫井南分館","province":"東京都","city":"小金井市","address":"小金井市貫井南町4-3-23","lat":35.693655,"lon":139.493719},{"name":"＊?小金井市公民館","province":"東京都","city":"小金井市","address":"小金井市本町2-15-11","lat":35.705443,"lon":139.510607},{"name":"＊?小金井市公民館東分館","province":"東京都","city":"小金井市","address":"小金井市東町1-39-1","lat":35.69399,"lon":139.526627},{"name":"＊?小金井市公民館緑分館","province":"東京都","city":"小金井市","address":"小金井市緑町3-3-23","lat":35.709554,"lon":139.516375},{"name":"＊?小金井市公民館貫井北分館","province":"東京都","city":"小金井市","address":"小金井市貫井北町1-11-12","lat":35.702323,"lon":139.49769},{"name":"＊?小金井市文化財センター","province":"東京都","city":"小金井市","address":"小金井市緑町3-2-37","lat":35.710144,"lon":139.517044},{"name":"＊?小金井市立図書館","province":"東京都","city":"小金井市","address":"小金井市本町1-1-32","lat":35.6977,"lon":139.510624},{"name":"＊?小金井市立図書館貫井北分室","province":"東京都","city":"小金井市","address":"小金井市貫井北町1-11-12","lat":35.702321,"lon":139.497695},{"name":"＊?小金井市立図書館東分室","province":"東京都","city":"小金井市","address":"小金井市東町1-39-1","lat":35.69399,"lon":139.526627},{"name":"＊?西之台会館図書室","province":"東京都","city":"小金井市","address":"小金井市前原町3-8-1","lat":35.693872,"lon":139.499611},{"name":"＊?小金井市立図書館緑分室","province":"東京都","city":"小金井市","address":"小金井市緑町3-3-23","lat":35.709552,"lon":139.516375},{"name":"緑児童館","province":"東京都","city":"小金井市","address":"小金井市緑町4-18-25","lat":35.709392,"lon":139.518064},{"name":"本町児童館","province":"東京都","city":"小金井市","address":"小金井市本町5-4-25","lat":35.70267,"lon":139.500944},{"name":"東児童館","province":"東京都","city":"小金井市","address":"小金井市東町4-25-7","lat":35.69766,"lon":139.526295},{"name":"貫井南児童館","province":"東京都","city":"小金井市","address":"小金井市貫井南町4-3-23","lat":35.693626,"lon":139.493617},{"name":"小金井市立図書館","province":"東京都","city":"小金井市","address":"東京都小金井市本町1丁目1-32","lat":35.697701,"lon":139.510621},{"name":"小金井市立図書館東分室","province":"東京都","city":"小金井市","address":"東京都小金井市東町1丁目39-1","lat":35.694005,"lon":139.526608},{"name":"小金井市立図書館緑分室","province":"東京都","city":"小金井市","address":"東京都小金井市緑","lat":35.709544,"lon":139.516322},{"name":"小金井市立図書館貫井北分室","province":"東京都","city":"小金井市","address":"東京都小金井市貫井北町1丁目-11-12","lat":35.702291,"lon":139.49774},{"name":"小金井市立図書館西之台会館図書室","province":"東京都","city":"小金井市","address":"東京都小金井市前原町3丁目-8-1","lat":35.693879,"lon":139.499573},{"name":"緑児童館","province":"東京都","city":"小金井市","address":"小金井市緑町4-18-25","lat":35.70964,"lon":139.51796},{"name":"本町児童館","province":"東京都","city":"小金井市","address":"小金井市本町5-4-25","lat":35.70201,"lon":139.50049},{"name":"東児童館","province":"東京都","city":"小金井市","address":"小金井市東町4-25-7","lat":35.69822,"lon":139.52672},{"name":"貫井南児童館","province":"東京都","city":"小金井市","address":"小金井市貫井南町4-3-23","lat":35.69389,"lon":139.49356},{"name":"＊?小金井市公民館貫井南分館","province":"東京都","city":"小金井市","address":"小金井市貫井南町4-3-23","lat":35.693655,"lon":139.493719},{"name":"＊?小金井市公民館","province":"東京都","city":"小金井市","address":"小金井市本町2-15-11","lat":35.705443,"lon":139.510607},{"name":"＊?小金井市公民館東分館","province":"東京都","city":"小金井市","address":"小金井市東町1-39-1","lat":35.69399,"lon":139.526627},{"name":"＊?小金井市公民館緑分館","province":"東京都","city":"小金井市","address":"小金井市緑町3-3-23","lat":35.709554,"lon":139.516375},{"name":"＊?小金井市公民館貫井北分館","province":"東京都","city":"小金井市","address":"小金井市貫井北町1-11-12","lat":35.702323,"lon":139.49769},{"name":"＊?小金井市文化財センター","province":"東京都","city":"小金井市","address":"小金井市緑町3-2-37","lat":35.710144,"lon":139.517044},{"name":"＊?小金井市立図書館","province":"東京都","city":"小金井市","address":"小金井市本町1-1-32","lat":35.6977,"lon":139.510624},{"name":"＊?小金井市立図書館貫井北分室","province":"東京都","city":"小金井市","address":"小金井市貫井北町1-11-12","lat":35.702321,"lon":139.497695},{"name":"＊?小金井市立図書館東分室","province":"東京都","city":"小金井市","address":"小金井市東町1-39-1","lat":35.69399,"lon":139.526627},{"name":"＊?西之台会館図書室","province":"東京都","city":"小金井市","address":"小金井市前原町3-8-1","lat":35.693872,"lon":139.499611},{"name":"＊?小金井市立図書館緑分室","province":"東京都","city":"小金井市","address":"小金井市緑町3-3-23","lat":35.709552,"lon":139.516375},{"name":"緑児童館","province":"東京都","city":"小金井市","address":"小金井市緑町4-18-25","lat":35.709392,"lon":139.518064},{"name":"本町児童館","province":"東京都","city":"小金井市","address":"小金井市本町5-4-25","lat":35.70267,"lon":139.500944},{"name":"東児童館","province":"東京都","city":"小金井市","address":"小金井市東町4-25-7","lat":35.69766,"lon":139.526295},{"name":"貫井南児童館","province":"東京都","city":"小金井市","address":"小金井市貫井南町4-3-23","lat":35.693626,"lon":139.493617},{"name":"小金井市立図書館","province":"東京都","city":"小金井市","address":"東京都小金井市本町1丁目1-32","lat":35.697701,"lon":139.510621},{"name":"小金井市立図書館東分室","province":"東京都","city":"小金井市","address":"東京都小金井市東町1丁目39-1","lat":35.694005,"lon":139.526608},{"name":"小金井市立図書館緑分室","province":"東京都","city":"小金井市","address":"東京都小金井市緑","lat":35.709544,"lon":139.516322},{"name":"小金井市立図書館貫井北分室","province":"東京都","city":"小金井市","address":"東京都小金井市貫井北町1丁目-11-12","lat":35.702291,"lon":139.49774},{"name":"小金井市立図書館西之台会館図書室","province":"東京都","city":"小金井市","address":"東京都小金井市前原町3丁目-8-1","lat":35.693879,"lon":139.499573},{"name":"緑児童館","province":"東京都","city":"小金井市","address":"小金井市緑町4-18-25","lat":35.70964,"lon":139.51796},{"name":"本町児童館","province":"東京都","city":"小金井市","address":"小金井市本町5-4-25","lat":35.70201,"lon":139.50049},{"name":"東児童館","province":"東京都","city":"小金井市","address":"小金井市東町4-25-7","lat":35.69822,"lon":139.52672},{"name":"貫井南児童館","province":"東京都","city":"小金井市","address":"小金井市貫井南町4-3-23","lat":35.69389,"lon":139.49356},{"name":"＊?小金井市文化財センター","province":"東京都","city":"小金井市","address":"小金井市緑町3-2-37","lat":35.710144,"lon":139.517044},{"name":"＊?小金井市立図書館","province":"東京都","city":"小金井市","address":"小金井市本町1-1-32","lat":35.6977,"lon":139.510624},{"name":"＊?小金井市立図書館貫井北分室","province":"東京都","city":"小金井市","address":"小金井市貫井北町1-11-12","lat":35.702321,"lon":139.497695},{"name":"＊?小金井市立図書館東分室","province":"東京都","city":"小金井市","address":"小金井市東町1-39-1","lat":35.69399,"lon":139.526627},{"name":"＊?西之台会館図書室","province":"東京都","city":"小金井市","address":"小金井市前原町3-8-1","lat":35.693872,"lon":139.499611},{"name":"＊?小金井市立図書館緑分室","province":"東京都","city":"小金井市","address":"小金井市緑町3-3-23","lat":35.709552,"lon":139.516375},{"name":"緑児童館","province":"東京都","city":"小金井市","address":"小金井市緑町4-18-25","lat":35.709392,"lon":139.518064},{"name":"本町児童館","province":"東京都","city":"小金井市","address":"小金井市本町5-4-25","lat":35.70267,"lon":139.500944},{"name":"東児童館","province":"東京都","city":"小金井市","address":"小金井市東町4-25-7","lat":35.69766,"lon":139.526295},{"name":"貫井南児童館","province":"東京都","city":"小金井市","address":"小金井市貫井南町4-3-23","lat":35.693626,"lon":139.493617},{"name":"小金井市立図書館","province":"東京都","city":"小金井市","address":"東京都小金井市本町1丁目1-32","lat":35.697701,"lon":139.510621},{"name":"小金井市立図書館東分室","province":"東京都","city":"小金井市","address":"東京都小金井市東町1丁目39-1","lat":35.694005,"lon":139.526608},{"name":"小金井市立図書館緑分室","province":"東京都","city":"小金井市","address":"東京都小金井市緑","lat":35.709544,"lon":139.516322},{"name":"小金井市立図書館貫井北分室","province":"東京都","city":"小金井市","address":"東京都小金井市貫井北町1丁目-11-12","lat":35.702291,"lon":139.49774},{"name":"小金井市立図書館西之台会館図書室","province":"東京都","city":"小金井市","address":"東京都小金井市前原町3丁目-8-1","lat":35.693879,"lon":139.499573},{"name":"緑児童館","province":"東京都","city":"小金井市","address":"小金井市緑町4-18-25","lat":35.70964,"lon":139.51796},{"name":"本町児童館","province":"東京都","city":"小金井市","address":"小金井市本町5-4-25","lat":35.70201,"lon":139.50049},{"name":"東児童館","province":"東京都","city":"小金井市","address":"小金井市東町4-25-7","lat":35.69822,"lon":139.52672},{"name":"貫井南児童館","province":"東京都","city":"小金井市","address":"小金井市貫井南町4-3-23","lat":35.69389,"lon":139.49356},{"name":"＊?小金井市文化財センター","province":"東京都","city":"小金井市","address":"小金井市緑町3-2-37","lat":35.710144,"lon":139.517044},{"name":"＊?小金井市立図書館","province":"東京都","city":"小金井市","address":"小金井市本町1-1-32","lat":35.6977,"lon":139.510624},{"name":"＊?小金井市立図書館貫井北分室","province":"東京都","city":"小金井市","address":"小金井市貫井北町1-11-12","lat":35.702321,"lon":139.497695},{"name":"＊?小金井市立図書館東分室","province":"東京都","city":"小金井市","address":"小金井市東町1-39-1","lat":35.69399,"lon":139.526627},{"name":"＊?西之台会館図書室","province":"東京都","city":"小金井市","address":"小金井市前原町3-8-1","lat":35.693872,"lon":139.499611},{"name":"＊?小金井市立図書館緑分室","province":"東京都","city":"小金井市","address":"小金井市緑町3-3-23","lat":35.709552,"lon":139.516375},{"name":"緑児童館","province":"東京都","city":"小金井市","address":"小金井市緑町4-18-25","lat":35.709392,"lon":139.518064},{"name":"本町児童館","province":"東京都","city":"小金井市","address":"小金井市本町5-4-25","lat":35.70267,"lon":139.500944},{"name":"東児童館","province":"東京都","city":"小金井市","address":"小金井市東町4-25-7","lat":35.69766,"lon":139.526295},{"name":"貫井南児童館","province":"東京都","city":"小金井市","address":"小金井市貫井南町4-3-23","lat":35.693626,"lon":139.493617},{"name":"小金井市立図書館","province":"東京都","city":"小金井市","address":"東京都小金井市本町1丁目1-32","lat":35.697701,"lon":139.510621},{"name":"小金井市立図書館東分室","province":"東京都","city":"小金井市","address":"東京都小金井市東町1丁目39-1","lat":35.694005,"lon":139.526608},{"name":"小金井市立図書館緑分室","province":"東京都","city":"小金井市","address":"東京都小金井市緑","lat":35.709544,"lon":139.516322},{"name":"小金井市立図書館貫井北分室","province":"東京都","city":"小金井市","address":"東京都小金井市貫井北町1丁目-11-12","lat":35.702291,"lon":139.49774},{"name":"小金井市立図書館西之台会館図書室","province":"東京都","city":"小金井市","address":"東京都小金井市前原町3丁目-8-1","lat":35.693879,"lon":139.499573},{"name":"緑児童館","province":"東京都","city":"小金井市","address":"小金井市緑町4-18-25","lat":35.70964,"lon":139.51796},{"name":"本町児童館","province":"東京都","city":"小金井市","address":"小金井市本町5-4-25","lat":35.70201,"lon":139.50049},{"name":"東児童館","province":"東京都","city":"小金井市","address":"小金井市東町4-25-7","lat":35.69822,"lon":139.52672},{"name":"貫井南児童館","province":"東京都","city":"小金井市","address":"小金井市貫井南町4-3-23","lat":35.69389,"lon":139.49356},{"name":"＊?小金井市立図書館","province":"東京都","city":"小金井市","address":"小金井市本町1-1-32","lat":35.6977,"lon":139.510624},{"name":"＊?小金井市立図書館貫井北分室","province":"東京都","city":"小金井市","address":"小金井市貫井北町1-11-12","lat":35.702321,"lon":139.497695},{"name":"＊?小金井市立図書館東分室","province":"東京都","city":"小金井市","address":"小金井市東町1-39-1","lat":35.69399,"lon":139.526627},{"name":"＊?西之台会館図書室","province":"東京都","city":"小金井市","address":"小金井市前原町3-8-1","lat":35.693872,"lon":139.499611},{"name":"＊?小金井市立図書館緑分室","province":"東京都","city":"小金井市","address":"小金井市緑町3-3-23","lat":35.709552,"lon":139.516375},{"name":"緑児童館","province":"東京都","city":"小金井市","address":"小金井市緑町4-18-25","lat":35.709392,"lon":139.518064},{"name":"本町児童館","province":"東京都","city":"小金井市","address":"小金井市本町5-4-25","lat":35.70267,"lon":139.500944},{"name":"東児童館","province":"東京都","city":"小金井市","address":"小金井市東町4-25-7","lat":35.69766,"lon":139.526295},{"name":"貫井南児童館","province":"東京都","city":"小金井市","address":"小金井市貫井南町4-3-23","lat":35.693626,"lon":139.493617},{"name":"小金井市立図書館","province":"東京都","city":"小金井市","address":"東京都小金井市本町1丁目1-32","lat":35.697701,"lon":139.510621},{"name":"小金井市立図書館東分室","province":"東京都","city":"小金井市","address":"東京都小金井市東町1丁目39-1","lat":35.694005,"lon":139.526608},{"name":"小金井市立図書館緑分室","province":"東京都","city":"小金井市","address":"東京都小金井市緑","lat":35.709544,"lon":139.516322},{"name":"小金井市立図書館貫井北分室","province":"東京都","city":"小金井市","address":"東京都小金井市貫井北町1丁目-11-12","lat":35.702291,"lon":139.49774},{"name":"小金井市立図書館西之台会館図書室","province":"東京都","city":"小金井市","address":"東京都小金井市前原町3丁目-8-1","lat":35.693879,"lon":139.499573},{"name":"緑児童館","province":"東京都","city":"小金井市","address":"小金井市緑町4-18-25","lat":35.70964,"lon":139.51796},{"name":"本町児童館","province":"東京都","city":"小金井市","address":"小金井市本町5-4-25","lat":35.70201,"lon":139.50049},{"name":"東児童館","province":"東京都","city":"小金井市","address":"小金井市東町4-25-7","lat":35.69822,"lon":139.52672},{"name":"貫井南児童館","province":"東京都","city":"小金井市","address":"小金井市貫井南町4-3-23","lat":35.69389,"lon":139.49356},{"name":"＊?小金井市立図書館","province":"東京都","city":"小金井市","address":"小金井市本町1-1-32","lat":35.6977,"lon":139.510624},{"name":"＊?小金井市立図書館貫井北分室","province":"東京都","city":"小金井市","address":"小金井市貫井北町1-11-12","lat":35.702321,"lon":139.497695},{"name":"＊?小金井市立図書館東分室","province":"東京都","city":"小金井市","address":"小金井市東町1-39-1","lat":35.69399,"lon":139.526627},{"name":"＊?西之台会館図書室","province":"東京都","city":"小金井市","address":"小金井市前原町3-8-1","lat":35.693872,"lon":139.499611},{"name":"＊?小金井市立図書館緑分室","province":"東京都","city":"小金井市","address":"小金井市緑町3-3-23","lat":35.709552,"lon":139.516375},{"name":"緑児童館","province":"東京都","city":"小金井市","address":"小金井市緑町4-18-25","lat":35.709392,"lon":139.518064},{"name":"本町児童館","province":"東京都","city":"小金井市","address":"小金井市本町5-4-25","lat":35.70267,"lon":139.500944},{"name":"東児童館","province":"東京都","city":"小金井市","address":"小金井市東町4-25-7","lat":35.69766,"lon":139.526295},{"name":"貫井南児童館","province":"東京都","city":"小金井市","address":"小金井市貫井南町4-3-23","lat":35.693626,"lon":139.493617},{"name":"小金井市立図書館","province":"東京都","city":"小金井市","address":"東京都小金井市本町1丁目1-32","lat":35.697701,"lon":139.510621},{"name":"小金井市立図書館東分室","province":"東京都","city":"小金井市","address":"東京都小金井市東町1丁目39-1","lat":35.694005,"lon":139.526608},{"name":"小金井市立図書館緑分室","province":"東京都","city":"小金井市","address":"東京都小金井市緑","lat":35.709544,"lon":139.516322},{"name":"小金井市立図書館貫井北分室","province":"東京都","city":"小金井市","address":"東京都小金井市貫井北町1丁目-11-12","lat":35.702291,"lon":139.49774},{"name":"小金井市立図書館西之台会館図書室","province":"東京都","city":"小金井市","address":"東京都小金井市前原町3丁目-8-1","lat":35.693879,"lon":139.499573},{"name":"緑児童館","province":"東京都","city":"小金井市","address":"小金井市緑町4-18-25","lat":35.70964,"lon":139.51796},{"name":"本町児童館","province":"東京都","city":"小金井市","address":"小金井市本町5-4-25","lat":35.70201,"lon":139.50049},{"name":"東児童館","province":"東京都","city":"小金井市","address":"小金井市東町4-25-7","lat":35.69822,"lon":139.52672},{"name":"貫井南児童館","province":"東京都","city":"小金井市","address":"小金井市貫井南町4-3-23","lat":35.69389,"lon":139.49356},{"name":"＊?小金井市立図書館","province":"東京都","city":"小金井市","address":"小金井市本町1-1-32","lat":35.6977,"lon":139.510624},{"name":"＊?小金井市立図書館貫井北分室","province":"東京都","city":"小金井市","address":"小金井市貫井北町1-11-12","lat":35.702321,"lon":139.497695},{"name":"＊?小金井市立図書館東分室","province":"東京都","city":"小金井市","address":"小金井市東町1-39-1","lat":35.69399,"lon":139.526627},{"name":"＊?西之台会館図書室","province":"東京都","city":"小金井市","address":"小金井市前原町3-8-1","lat":35.693872,"lon":139.499611},{"name":"＊?小金井市立図書館緑分室","province":"東京都","city":"小金井市","address":"小金井市緑町3-3-23","lat":35.709552,"lon":139.516375},{"name":"緑児童館","province":"東京都","city":"小金井市","address":"小金井市緑町4-18-25","lat":35.709392,"lon":139.518064},{"name":"本町児童館","province":"東京都","city":"小金井市","address":"小金井市本町5-4-25","lat":35.70267,"lon":139.500944},{"name":"東児童館","province":"東京都","city":"小金井市","address":"小金井市東町4-25-7","lat":35.69766,"lon":139.526295},{"name":"貫井南児童館","province":"東京都","city":"小金井市","address":"小金井市貫井南町4-3-23","lat":35.693626,"lon":139.493617},{"name":"小金井市立図書館","province":"東京都","city":"小金井市","address":"東京都小金井市本町1丁目1-32","lat":35.697701,"lon":139.510621},{"name":"小金井市立図書館東分室","province":"東京都","city":"小金井市","address":"東京都小金井市東町1丁目39-1","lat":35.694005,"lon":139.526608},{"name":"小金井市立図書館緑分室","province":"東京都","city":"小金井市","address":"東京都小金井市緑","lat":35.709544,"lon":139.516322},{"name":"小金井市立図書館貫井北分室","province":"東京都","city":"小金井市","address":"東京都小金井市貫井北町1丁目-11-12","lat":35.702291,"lon":139.49774},{"name":"小金井市立図書館西之台会館図書室","province":"東京都","city":"小金井市","address":"東京都小金井市前原町3丁目-8-1","lat":35.693879,"lon":139.499573},{"name":"緑児童館","province":"東京都","city":"小金井市","address":"小金井市緑町4-18-25","lat":35.70964,"lon":139.51796},{"name":"本町児童館","province":"東京都","city":"小金井市","address":"小金井市本町5-4-25","lat":35.70201,"lon":139.50049},{"name":"東児童館","province":"東京都","city":"小金井市","address":"小金井市東町4-25-7","lat":35.69822,"lon":139.52672},{"name":"貫井南児童館","province":"東京都","city":"小金井市","address":"小金井市貫井南町4-3-23","lat":35.69389,"lon":139.49356},{"name":"＊?小金井市立図書館","province":"東京都","city":"小金井市","address":"小金井市本町1-1-32","lat":35.6977,"lon":139.510624},{"name":"＊?小金井市立図書館貫井北分室","province":"東京都","city":"小金井市","address":"小金井市貫井北町1-11-12","lat":35.702321,"lon":139.497695},{"name":"＊?小金井市立図書館東分室","province":"東京都","city":"小金井市","address":"小金井市東町1-39-1","lat":35.69399,"lon":139.526627},{"name":"＊?西之台会館図書室","province":"東京都","city":"小金井市","address":"小金井市前原町3-8-1","lat":35.693872,"lon":139.499611},{"name":"＊?小金井市立図書館緑分室","province":"東京都","city":"小金井市","address":"小金井市緑町3-3-23","lat":35.709552,"lon":139.516375},{"name":"緑児童館","province":"東京都","city":"小金井市","address":"小金井市緑町4-18-25","lat":35.709392,"lon":139.518064},{"name":"本町児童館","province":"東京都","city":"小金井市","address":"小金井市本町5-4-25","lat":35.70267,"lon":139.500944},{"name":"東児童館","province":"東京都","city":"小金井市","address":"小金井市東町4-25-7","lat":35.69766,"lon":139.526295},{"name":"貫井南児童館","province":"東京都","city":"小金井市","address":"小金井市貫井南町4-3-23","lat":35.693626,"lon":139.493617},{"name":"小金井市立図書館","province":"東京都","city":"小金井市","address":"東京都小金井市本町1丁目1-32","lat":35.697701,"lon":139.510621},{"name":"小金井市立図書館東分室","province":"東京都","city":"小金井市","address":"東京都小金井市東町1丁目39-1","lat":35.694005,"lon":139.526608},{"name":"小金井市立図書館緑分室","province":"東京都","city":"小金井市","address":"東京都小金井市緑","lat":35.709544,"lon":139.516322},{"name":"小金井市立図書館貫井北分室","province":"東京都","city":"小金井市","address":"東京都小金井市貫井北町1丁目-11-12","lat":35.702291,"lon":139.49774},{"name":"小金井市立図書館西之台会館図書室","province":"東京都","city":"小金井市","address":"東京都小金井市前原町3丁目-8-1","lat":35.693879,"lon":139.499573},{"name":"緑児童館","province":"東京都","city":"小金井市","address":"小金井市緑町4-18-25","lat":35.70964,"lon":139.51796},{"name":"本町児童館","province":"東京都","city":"小金井市","address":"小金井市本町5-4-25","lat":35.70201,"lon":139.50049},{"name":"東児童館","province":"東京都","city":"小金井市","address":"小金井市東町4-25-7","lat":35.69822,"lon":139.52672},{"name":"貫井南児童館","province":"東京都","city":"小金井市","address":"小金井市貫井南町4-3-23","lat":35.69389,"lon":139.49356},{"name":"＊?小金井市立図書館","province":"東京都","city":"小金井市","address":"小金井市本町1-1-32","lat":35.6977,"lon":139.510624},{"name":"＊?小金井市立図書館貫井北分室","province":"東京都","city":"小金井市","address":"小金井市貫井北町1-11-12","lat":35.702321,"lon":139.497695},{"name":"＊?小金井市立図書館東分室","province":"東京都","city":"小金井市","address":"小金井市東町1-39-1","lat":35.69399,"lon":139.526627},{"name":"＊?西之台会館図書室","province":"東京都","city":"小金井市","address":"小金井市前原町3-8-1","lat":35.693872,"lon":139.499611},{"name":"＊?小金井市立図書館緑分室","province":"東京都","city":"小金井市","address":"小金井市緑町3-3-23","lat":35.709552,"lon":139.516375},{"name":"緑児童館","province":"東京都","city":"小金井市","address":"小金井市緑町4-18-25","lat":35.709392,"lon":139.518064},{"name":"本町児童館","province":"東京都","city":"小金井市","address":"小金井市本町5-4-25","lat":35.70267,"lon":139.500944},{"name":"東児童館","province":"東京都","city":"小金井市","address":"小金井市東町4-25-7","lat":35.69766,"lon":139.526295},{"name":"貫井南児童館","province":"東京都","city":"小金井市","address":"小金井市貫井南町4-3-23","lat":35.693626,"lon":139.493617},{"name":"小金井市立図書館","province":"東京都","city":"小金井市","address":"東京都小金井市本町1丁目1-32","lat":35.697701,"lon":139.510621},{"name":"小金井市立図書館東分室","province":"東京都","city":"小金井市","address":"東京都小金井市東町1丁目39-1","lat":35.694005,"lon":139.526608},{"name":"小金井市立図書館緑分室","province":"東京都","city":"小金井市","address":"東京都小金井市緑","lat":35.709544,"lon":139.516322},{"name":"小金井市立図書館貫井北分室","province":"東京都","city":"小金井市","address":"東京都小金井市貫井北町1丁目-11-12","lat":35.702291,"lon":139.49774},{"name":"小金井市立図書館西之台会館図書室","province":"東京都","city":"小金井市","address":"東京都小金井市前原町3丁目-8-1","lat":35.693879,"lon":139.499573},{"name":"緑児童館","province":"東京都","city":"小金井市","address":"小金井市緑町4-18-25","lat":35.70964,"lon":139.51796},{"name":"本町児童館","province":"東京都","city":"小金井市","address":"小金井市本町5-4-25","lat":35.70201,"lon":139.50049},{"name":"東児童館","province":"東京都","city":"小金井市","address":"小金井市東町4-25-7","lat":35.69822,"lon":139.52672},{"name":"貫井南児童館","province":"東京都","city":"小金井市","address":"小金井市貫井南町4-3-23","lat":35.69389,"lon":139.49356},{"name":"＊?小金井市立図書館","province":"東京都","city":"小金井市","address":"小金井市本町1-1-32","lat":35.6977,"lon":139.510624},{"name":"＊?小金井市立図書館貫井北分室","province":"東京都","city":"小金井市","address":"小金井市貫井北町1-11-12","lat":35.702321,"lon":139.497695},{"name":"＊?小金井市立図書館東分室","province":"東京都","city":"小金井市","address":"小金井市東町1-39-1","lat":35.69399,"lon":139.526627},{"name":"＊?西之台会館図書室","province":"東京都","city":"小金井市","address":"小金井市前原町3-8-1","lat":35.693872,"lon":139.499611},{"name":"＊?小金井市立図書館緑分室","province":"東京都","city":"小金井市","address":"小金井市緑町3-3-23","lat":35.709552,"lon":139.516375},{"name":"緑児童館","province":"東京都","city":"小金井市","address":"小金井市緑町4-18-25","lat":35.709392,"lon":139.518064},{"name":"本町児童館","province":"東京都","city":"小金井市","address":"小金井市本町5-4-25","lat":35.70267,"lon":139.500944},{"name":"東児童館","province":"東京都","city":"小金井市","address":"小金井市東町4-25-7","lat":35.69766,"lon":139.526295},{"name":"貫井南児童館","province":"東京都","city":"小金井市","address":"小金井市貫井南町4-3-23","lat":35.693626,"lon":139.493617},{"name":"小金井市立図書館","province":"東京都","city":"小金井市","address":"東京都小金井市本町1丁目1-32","lat":35.697701,"lon":139.510621},{"name":"小金井市立図書館東分室","province":"東京都","city":"小金井市","address":"東京都小金井市東町1丁目39-1","lat":35.694005,"lon":139.526608},{"name":"小金井市立図書館緑分室","province":"東京都","city":"小金井市","address":"東京都小金井市緑","lat":35.709544,"lon":139.516322},{"name":"小金井市立図書館貫井北分室","province":"東京都","city":"小金井市","address":"東京都小金井市貫井北町1丁目-11-12","lat":35.702291,"lon":139.49774},{"name":"小金井市立図書館西之台会館図書室","province":"東京都","city":"小金井市","address":"東京都小金井市前原町3丁目-8-1","lat":35.693879,"lon":139.499573},{"name":"緑児童館","province":"東京都","city":"小金井市","address":"小金井市緑町4-18-25","lat":35.70964,"lon":139.51796},{"name":"本町児童館","province":"東京都","city":"小金井市","address":"小金井市本町5-4-25","lat":35.70201,"lon":139.50049},{"name":"東児童館","province":"東京都","city":"小金井市","address":"小金井市東町4-25-7","lat":35.69822,"lon":139.52672},{"name":"貫井南児童館","province":"東京都","city":"小金井市","address":"小金井市貫井南町4-3-23","lat":35.69389,"lon":139.49356},{"name":"＊?小金井市立図書館","province":"東京都","city":"小金井市","address":"小金井市本町1-1-32","lat":35.6977,"lon":139.510624},{"name":"＊?小金井市立図書館貫井北分室","province":"東京都","city":"小金井市","address":"小金井市貫井北町1-11-12","lat":35.702321,"lon":139.497695},{"name":"＊?小金井市立図書館東分室","province":"東京都","city":"小金井市","address":"小金井市東町1-39-1","lat":35.69399,"lon":139.526627},{"name":"＊?西之台会館図書室","province":"東京都","city":"小金井市","address":"小金井市前原町3-8-1","lat":35.693872,"lon":139.499611},{"name":"＊?小金井市立図書館緑分室","province":"東京都","city":"小金井市","address":"小金井市緑町3-3-23","lat":35.709552,"lon":139.516375},{"name":"緑児童館","province":"東京都","city":"小金井市","address":"小金井市緑町4-18-25","lat":35.709392,"lon":139.518064},{"name":"本町児童館","province":"東京都","city":"小金井市","address":"小金井市本町5-4-25","lat":35.70267,"lon":139.500944},{"name":"東児童館","province":"東京都","city":"小金井市","address":"小金井市東町4-25-7","lat":35.69766,"lon":139.526295},{"name":"貫井南児童館","province":"東京都","city":"小金井市","address":"小金井市貫井南町4-3-23","lat":35.693626,"lon":139.493617},{"name":"小金井市立図書館","province":"東京都","city":"小金井市","address":"東京都小金井市本町1丁目1-32","lat":35.697701,"lon":139.510621},{"name":"小金井市立図書館東分室","province":"東京都","city":"小金井市","address":"東京都小金井市東町1丁目39-1","lat":35.694005,"lon":139.526608},{"name":"小金井市立図書館緑分室","province":"東京都","city":"小金井市","address":"東京都小金井市緑","lat":35.709544,"lon":139.516322},{"name":"小金井市立図書館貫井北分室","province":"東京都","city":"小金井市","address":"東京都小金井市貫井北町1丁目-11-12","lat":35.702291,"lon":139.49774},{"name":"小金井市立図書館西之台会館図書室","province":"東京都","city":"小金井市","address":"東京都小金井市前原町3丁目-8-1","lat":35.693879,"lon":139.499573},{"name":"緑児童館","province":"東京都","city":"小金井市","address":"小金井市緑町4-18-25","lat":35.70964,"lon":139.51796},{"name":"本町児童館","province":"東京都","city":"小金井市","address":"小金井市本町5-4-25","lat":35.70201,"lon":139.50049},{"name":"東児童館","province":"東京都","city":"小金井市","address":"小金井市東町4-25-7","lat":35.69822,"lon":139.52672},{"name":"貫井南児童館","province":"東京都","city":"小金井市","address":"小金井市貫井南町4-3-23","lat":35.69389,"lon":139.49356},{"name":"＊?小金井市立図書館","province":"東京都","city":"小金井市","address":"小金井市本町1-1-32","lat":35.6977,"lon":139.510624},{"name":"＊?小金井市立図書館貫井北分室","province":"東京都","city":"小金井市","address":"小金井市貫井北町1-11-12","lat":35.702321,"lon":139.497695},{"name":"＊?小金井市立図書館東分室","province":"東京都","city":"小金井市","address":"小金井市東町1-39-1","lat":35.69399,"lon":139.526627},{"name":"＊?西之台会館図書室","province":"東京都","city":"小金井市","address":"小金井市前原町3-8-1","lat":35.693872,"lon":139.499611},{"name":"＊?小金井市立図書館緑分室","province":"東京都","city":"小金井市","address":"小金井市緑町3-3-23","lat":35.709552,"lon":139.516375},{"name":"緑児童館","province":"東京都","city":"小金井市","address":"小金井市緑町4-18-25","lat":35.709392,"lon":139.518064},{"name":"本町児童館","province":"東京都","city":"小金井市","address":"小金井市本町5-4-25","lat":35.70267,"lon":139.500944},{"name":"東児童館","province":"東京都","city":"小金井市","address":"小金井市東町4-25-7","lat":35.69766,"lon":139.526295},{"name":"貫井南児童館","province":"東京都","city":"小金井市","address":"小金井市貫井南町4-3-23","lat":35.693626,"lon":139.493617},{"name":"小金井市立図書館","province":"東京都","city":"小金井市","address":"東京都小金井市本町1丁目1-32","lat":35.697701,"lon":139.510621},{"name":"小金井市立図書館東分室","province":"東京都","city":"小金井市","address":"東京都小金井市東町1丁目39-1","lat":35.694005,"lon":139.526608},{"name":"小金井市立図書館緑分室","province":"東京都","city":"小金井市","address":"東京都小金井市緑","lat":35.709544,"lon":139.516322},{"name":"小金井市立図書館貫井北分室","province":"東京都","city":"小金井市","address":"東京都小金井市貫井北町1丁目-11-12","lat":35.702291,"lon":139.49774},{"name":"小金井市立図書館西之台会館図書室","province":"東京都","city":"小金井市","address":"東京都小金井市前原町3丁目-8-1","lat":35.693879,"lon":139.499573},{"name":"緑児童館","province":"東京都","city":"小金井市","address":"小金井市緑町4-18-25","lat":35.70964,"lon":139.51796},{"name":"本町児童館","province":"東京都","city":"小金井市","address":"小金井市本町5-4-25","lat":35.70201,"lon":139.50049},{"name":"東児童館","province":"東京都","city":"小金井市","address":"小金井市東町4-25-7","lat":35.69822,"lon":139.52672},{"name":"貫井南児童館","province":"東京都","city":"小金井市","address":"小金井市貫井南町4-3-23","lat":35.69389,"lon":139.49356},{"name":"＊?小金井市立図書館","province":"東京都","city":"小金井市","address":"小金井市本町1-1-32","lat":35.6977,"lon":139.510624},{"name":"＊?小金井市立図書館貫井北分室","province":"東京都","city":"小金井市","address":"小金井市貫井北町1-11-12","lat":35.702321,"lon":139.497695},{"name":"＊?小金井市立図書館東分室","province":"東京都","city":"小金井市","address":"小金井市東町1-39-1","lat":35.69399,"lon":139.526627},{"name":"＊?西之台会館図書室","province":"東京都","city":"小金井市","address":"小金井市前原町3-8-1","lat":35.693872,"lon":139.499611},{"name":"＊?小金井市立図書館緑分室","province":"東京都","city":"小金井市","address":"小金井市緑町3-3-23","lat":35.709552,"lon":139.516375},{"name":"緑児童館","province":"東京都","city":"小金井市","address":"小金井市緑町4-18-25","lat":35.709392,"lon":139.518064},{"name":"本町児童館","province":"東京都","city":"小金井市","address":"小金井市本町5-4-25","lat":35.70267,"lon":139.500944},{"name":"東児童館","province":"東京都","city":"小金井市","address":"小金井市東町4-25-7","lat":35.69766,"lon":139.526295},{"name":"貫井南児童館","province":"東京都","city":"小金井市","address":"小金井市貫井南町4-3-23","lat":35.693626,"lon":139.493617},{"name":"小金井市立図書館","province":"東京都","city":"小金井市","address":"東京都小金井市本町1丁目1-32","lat":35.697701,"lon":139.510621},{"name":"小金井市立図書館東分室","province":"東京都","city":"小金井市","address":"東京都小金井市東町1丁目39-1","lat":35.694005,"lon":139.526608},{"name":"小金井市立図書館緑分室","province":"東京都","city":"小金井市","address":"東京都小金井市緑","lat":35.709544,"lon":139.516322},{"name":"小金井市立図書館貫井北分室","province":"東京都","city":"小金井市","address":"東京都小金井市貫井北町1丁目-11-12","lat":35.702291,"lon":139.49774},{"name":"小金井市立図書館西之台会館図書室","province":"東京都","city":"小金井市","address":"東京都小金井市前原町3丁目-8-1","lat":35.693879,"lon":139.499573},{"name":"緑児童館","province":"東京都","city":"小金井市","address":"小金井市緑町4-18-25","lat":35.70964,"lon":139.51796},{"name":"本町児童館","province":"東京都","city":"小金井市","address":"小金井市本町5-4-25","lat":35.70201,"lon":139.50049},{"name":"東児童館","province":"東京都","city":"小金井市","address":"小金井市東町4-25-7","lat":35.69822,"lon":139.52672},{"name":"貫井南児童館","province":"東京都","city":"小金井市","address":"小金井市貫井南町4-3-23","lat":35.69389,"lon":139.49356},{"name":"＊?小金井市立図書館","province":"東京都","city":"小金井市","address":"小金井市本町1-1-32","lat":35.6977,"lon":139.510624},{"name":"＊?小金井市立図書館貫井北分室","province":"東京都","city":"小金井市","address":"小金井市貫井北町1-11-12","lat":35.702321,"lon":139.497695},{"name":"＊?小金井市立図書館東分室","province":"東京都","city":"小金井市","address":"小金井市東町1-39-1","lat":35.69399,"lon":139.526627},{"name":"＊?西之台会館図書室","province":"東京都","city":"小金井市","address":"小金井市前原町3-8-1","lat":35.693872,"lon":139.499611},{"name":"＊?小金井市立図書館緑分室","province":"東京都","city":"小金井市","address":"小金井市緑町3-3-23","lat":35.709552,"lon":139.516375},{"name":"緑児童館","province":"東京都","city":"小金井市","address":"小金井市緑町4-18-25","lat":35.709392,"lon":139.518064},{"name":"本町児童館","province":"東京都","city":"小金井市","address":"小金井市本町5-4-25","lat":35.70267,"lon":139.500944},{"name":"東児童館","province":"東京都","city":"小金井市","address":"小金井市東町4-25-7","lat":35.69766,"lon":139.526295},{"name":"貫井南児童館","province":"東京都","city":"小金井市","address":"小金井市貫井南町4-3-23","lat":35.693626,"lon":139.493617},{"name":"小金井市立図書館","province":"東京都","city":"小金井市","address":"東京都小金井市本町1丁目1-32","lat":35.697701,"lon":139.510621},{"name":"小金井市立図書館東分室","province":"東京都","city":"小金井市","address":"東京都小金井市東町1丁目39-1","lat":35.694005,"lon":139.526608},{"name":"小金井市立図書館緑分室","province":"東京都","city":"小金井市","address":"東京都小金井市緑","lat":35.709544,"lon":139.516322},{"name":"小金井市立図書館貫井北分室","province":"東京都","city":"小金井市","address":"東京都小金井市貫井北町1丁目-11-12","lat":35.702291,"lon":139.49774},{"name":"小金井市立図書館西之台会館図書室","province":"東京都","city":"小金井市","address":"東京都小金井市前原町3丁目-8-1","lat":35.693879,"lon":139.499573},{"name":"緑児童館","province":"東京都","city":"小金井市","address":"小金井市緑町4-18-25","lat":35.70964,"lon":139.51796},{"name":"本町児童館","province":"東京都","city":"小金井市","address":"小金井市本町5-4-25","lat":35.70201,"lon":139.50049},{"name":"東児童館","province":"東京都","city":"小金井市","address":"小金井市東町4-25-7","lat":35.69822,"lon":139.52672},{"name":"貫井南児童館","province":"東京都","city":"小金井市","address":"小金井市貫井南町4-3-23","lat":35.69389,"lon":139.49356},{"name":"＊?小金井市立図書館","province":"東京都","city":"小金井市","address":"小金井市本町1-1-32","lat":35.6977,"lon":139.510624},{"name":"＊?小金井市立図書館貫井北分室","province":"東京都","city":"小金井市","address":"小金井市貫井北町1-11-12","lat":35.702321,"lon":139.497695},{"name":"＊?小金井市立図書館東分室","province":"東京都","city":"小金井市","address":"小金井市東町1-39-1","lat":35.69399,"lon":139.526627},{"name":"＊?西之台会館図書室","province":"東京都","city":"小金井市","address":"小金井市前原町3-8-1","lat":35.693872,"lon":139.499611},{"name":"＊?小金井市立図書館緑分室","province":"東京都","city":"小金井市","address":"小金井市緑町3-3-23","lat":35.709552,"lon":139.516375},{"name":"緑児童館","province":"東京都","city":"小金井市","address":"小金井市緑町4-18-25","lat":35.709392,"lon":139.518064},{"name":"本町児童館","province":"東京都","city":"小金井市","address":"小金井市本町5-4-25","lat":35.70267,"lon":139.500944},{"name":"東児童館","province":"東京都","city":"小金井市","address":"小金井市東町4-25-7","lat":35.69766,"lon":139.526295},{"name":"貫井南児童館","province":"東京都","city":"小金井市","address":"小金井市貫井南町4-3-23","lat":35.693626,"lon":139.493617},{"name":"小金井市立図書館","province":"東京都","city":"小金井市","address":"東京都小金井市本町1丁目1-32","lat":35.697701,"lon":139.510621},{"name":"小金井市立図書館東分室","province":"東京都","city":"小金井市","address":"東京都小金井市東町1丁目39-1","lat":35.694005,"lon":139.526608},{"name":"小金井市立図書館緑分室","province":"東京都","city":"小金井市","address":"東京都小金井市緑","lat":35.709544,"lon":139.516322},{"name":"小金井市立図書館貫井北分室","province":"東京都","city":"小金井市","address":"東京都小金井市貫井北町1丁目-11-12","lat":35.702291,"lon":139.49774},{"name":"小金井市立図書館西之台会館図書室","province":"東京都","city":"小金井市","address":"東京都小金井市前原町3丁目-8-1","lat":35.693879,"lon":139.499573},{"name":"緑児童館","province":"東京都","city":"小金井市","address":"小金井市緑町4-18-25","lat":35.70964,"lon":139.51796},{"name":"本町児童館","province":"東京都","city":"小金井市","address":"小金井市本町5-4-25","lat":35.70201,"lon":139.50049},{"name":"東児童館","province":"東京都","city":"小金井市","address":"小金井市東町4-25-7","lat":35.69822,"lon":139.52672},{"name":"貫井南児童館","province":"東京都","city":"小金井市","address":"小金井市貫井南町4-3-23","lat":35.69389,"lon":139.49356},{"name":"＊?小金井市立図書館","province":"東京都","city":"小金井市","address":"小金井市本町1-1-32","lat":35.6977,"lon":139.510624},{"name":"＊?小金井市立図書館貫井北分室","province":"東京都","city":"小金井市","address":"小金井市貫井北町1-11-12","lat":35.702321,"lon":139.497695},{"name":"＊?小金井市立図書館東分室","province":"東京都","city":"小金井市","address":"小金井市東町1-39-1","lat":35.69399,"lon":139.526627},{"name":"＊?西之台会館図書室","province":"東京都","city":"小金井市","address":"小金井市前原町3-8-1","lat":35.693872,"lon":139.499611},{"name":"＊?小金井市立図書館緑分室","province":"東京都","city":"小金井市","address":"小金井市緑町3-3-23","lat":35.709552,"lon":139.516375},{"name":"緑児童館","province":"東京都","city":"小金井市","address":"小金井市緑町4-18-25","lat":35.709392,"lon":139.518064},{"name":"本町児童館","province":"東京都","city":"小金井市","address":"小金井市本町5-4-25","lat":35.70267,"lon":139.500944},{"name":"東児童館","province":"東京都","city":"小金井市","address":"小金井市東町4-25-7","lat":35.69766,"lon":139.526295},{"name":"貫井南児童館","province":"東京都","city":"小金井市","address":"小金井市貫井南町4-3-23","lat":35.693626,"lon":139.493617},{"name":"小金井市立図書館","province":"東京都","city":"小金井市","address":"東京都小金井市本町1丁目1-32","lat":35.697701,"lon":139.510621},{"name":"小金井市立図書館東分室","province":"東京都","city":"小金井市","address":"東京都小金井市東町1丁目39-1","lat":35.694005,"lon":139.526608},{"name":"小金井市立図書館緑分室","province":"東京都","city":"小金井市","address":"東京都小金井市緑","lat":35.709544,"lon":139.516322},{"name":"小金井市立図書館貫井北分室","province":"東京都","city":"小金井市","address":"東京都小金井市貫井北町1丁目-11-12","lat":35.702291,"lon":139.49774},{"name":"小金井市立図書館西之台会館図書室","province":"東京都","city":"小金井市","address":"東京都小金井市前原町3丁目-8-1","lat":35.693879,"lon":139.499573},{"name":"緑児童館","province":"東京都","city":"小金井市","address":"小金井市緑町4-18-25","lat":35.70964,"lon":139.51796},{"name":"本町児童館","province":"東京都","city":"小金井市","address":"小金井市本町5-4-25","lat":35.70201,"lon":139.50049},{"name":"東児童館","province":"東京都","city":"小金井市","address":"小金井市東町4-25-7","lat":35.69822,"lon":139.52672},{"name":"貫井南児童館","province":"東京都","city":"小金井市","address":"小金井市貫井南町4-3-23","lat":35.69389,"lon":139.49356},{"name":"＊?小金井市立図書館","province":"東京都","city":"小金井市","address":"小金井市本町1-1-32","lat":35.6977,"lon":139.510624},{"name":"＊?小金井市立図書館貫井北分室","province":"東京都","city":"小金井市","address":"小金井市貫井北町1-11-12","lat":35.702321,"lon":139.497695},{"name":"＊?小金井市立図書館東分室","province":"東京都","city":"小金井市","address":"小金井市東町1-39-1","lat":35.69399,"lon":139.526627},{"name":"＊?西之台会館図書室","province":"東京都","city":"小金井市","address":"小金井市前原町3-8-1","lat":35.693872,"lon":139.499611},{"name":"＊?小金井市立図書館緑分室","province":"東京都","city":"小金井市","address":"小金井市緑町3-3-23","lat":35.709552,"lon":139.516375},{"name":"緑児童館","province":"東京都","city":"小金井市","address":"小金井市緑町4-18-25","lat":35.709392,"lon":139.518064},{"name":"本町児童館","province":"東京都","city":"小金井市","address":"小金井市本町5-4-25","lat":35.70267,"lon":139.500944},{"name":"東児童館","province":"東京都","city":"小金井市","address":"小金井市東町4-25-7","lat":35.69766,"lon":139.526295},{"name":"貫井南児童館","province":"東京都","city":"小金井市","address":"小金井市貫井南町4-3-23","lat":35.693626,"lon":139.493617},{"name":"小金井市立図書館","province":"東京都","city":"小金井市","address":"東京都小金井市本町1丁目1-32","lat":35.697701,"lon":139.510621},{"name":"小金井市立図書館東分室","province":"東京都","city":"小金井市","address":"東京都小金井市東町1丁目39-1","lat":35.694005,"lon":139.526608},{"name":"小金井市立図書館緑分室","province":"東京都","city":"小金井市","address":"東京都小金井市緑","lat":35.709544,"lon":139.516322},{"name":"小金井市立図書館貫井北分室","province":"東京都","city":"小金井市","address":"東京都小金井市貫井北町1丁目-11-12","lat":35.702291,"lon":139.49774},{"name":"小金井市立図書館西之台会館図書室","province":"東京都","city":"小金井市","address":"東京都小金井市前原町3丁目-8-1","lat":35.693879,"lon":139.499573},{"name":"緑児童館","province":"東京都","city":"小金井市","address":"小金井市緑町4-18-25","lat":35.70964,"lon":139.51796},{"name":"本町児童館","province":"東京都","city":"小金井市","address":"小金井市本町5-4-25","lat":35.70201,"lon":139.50049},{"name":"東児童館","province":"東京都","city":"小金井市","address":"小金井市東町4-25-7","lat":35.69822,"lon":139.52672},{"name":"貫井南児童館","province":"東京都","city":"小金井市","address":"小金井市貫井南町4-3-23","lat":35.69389,"lon":139.49356},{"name":"＊?小金井市立図書館","province":"東京都","city":"小金井市","address":"小金井市本町1-1-32","lat":35.6977,"lon":139.510624},{"name":"＊?小金井市立図書館貫井北分室","province":"東京都","city":"小金井市","address":"小金井市貫井北町1-11-12","lat":35.702321,"lon":139.497695},{"name":"＊?小金井市立図書館東分室","province":"東京都","city":"小金井市","address":"小金井市東町1-39-1","lat":35.69399,"lon":139.526627},{"name":"＊?西之台会館図書室","province":"東京都","city":"小金井市","address":"小金井市前原町3-8-1","lat":35.693872,"lon":139.499611},{"name":"＊?小金井市立図書館緑分室","province":"東京都","city":"小金井市","address":"小金井市緑町3-3-23","lat":35.709552,"lon":139.516375},{"name":"緑児童館","province":"東京都","city":"小金井市","address":"小金井市緑町4-18-25","lat":35.709392,"lon":139.518064},{"name":"本町児童館","province":"東京都","city":"小金井市","address":"小金井市本町5-4-25","lat":35.70267,"lon":139.500944},{"name":"東児童館","province":"東京都","city":"小金井市","address":"小金井市東町4-25-7","lat":35.69766,"lon":139.526295},{"name":"貫井南児童館","province":"東京都","city":"小金井市","address":"小金井市貫井南町4-3-23","lat":35.693626,"lon":139.493617},{"name":"小金井市立図書館","province":"東京都","city":"小金井市","address":"東京都小金井市本町1丁目1-32","lat":35.697701,"lon":139.510621},{"name":"小金井市立図書館東分室","province":"東京都","city":"小金井市","address":"東京都小金井市東町1丁目39-1","lat":35.694005,"lon":139.526608},{"name":"小金井市立図書館緑分室","province":"東京都","city":"小金井市","address":"東京都小金井市緑","lat":35.709544,"lon":139.516322},{"name":"小金井市立図書館貫井北分室","province":"東京都","city":"小金井市","address":"東京都小金井市貫井北町1丁目-11-12","lat":35.702291,"lon":139.49774},{"name":"小金井市立図書館西之台会館図書室","province":"東京都","city":"小金井市","address":"東京都小金井市前原町3丁目-8-1","lat":35.693879,"lon":139.499573},{"name":"緑児童館","province":"東京都","city":"小金井市","address":"小金井市緑町4-18-25","lat":35.70964,"lon":139.51796},{"name":"本町児童館","province":"東京都","city":"小金井市","address":"小金井市本町5-4-25","lat":35.70201,"lon":139.50049},{"name":"東児童館","province":"東京都","city":"小金井市","address":"小金井市東町4-25-7","lat":35.69822,"lon":139.52672},{"name":"貫井南児童館","province":"東京都","city":"小金井市","address":"小金井市貫井南町4-3-23","lat":35.69389,"lon":139.49356},{"name":"＊?小金井市立図書館","province":"東京都","city":"小金井市","address":"小金井市本町1-1-32","lat":35.6977,"lon":139.510624},{"name":"＊?小金井市立図書館貫井北分室","province":"東京都","city":"小金井市","address":"小金井市貫井北町1-11-12","lat":35.702321,"lon":139.497695},{"name":"＊?小金井市立図書館東分室","province":"東京都","city":"小金井市","address":"小金井市東町1-39-1","lat":35.69399,"lon":139.526627},{"name":"＊?西之台会館図書室","province":"東京都","city":"小金井市","address":"小金井市前原町3-8-1","lat":35.693872,"lon":139.499611},{"name":"＊?小金井市立図書館緑分室","province":"東京都","city":"小金井市","address":"小金井市緑町3-3-23","lat":35.709552,"lon":139.516375},{"name":"緑児童館","province":"東京都","city":"小金井市","address":"小金井市緑町4-18-25","lat":35.709392,"lon":139.518064},{"name":"本町児童館","province":"東京都","city":"小金井市","address":"小金井市本町5-4-25","lat":35.70267,"lon":139.500944},{"name":"東児童館","province":"東京都","city":"小金井市","address":"小金井市東町4-25-7","lat":35.69766,"lon":139.526295},{"name":"貫井南児童館","province":"東京都","city":"小金井市","address":"小金井市貫井南町4-3-23","lat":35.693626,"lon":139.493617},{"name":"小金井市立図書館","province":"東京都","city":"小金井市","address":"東京都小金井市本町1丁目1-32","lat":35.697701,"lon":139.510621},{"name":"小金井市立図書館東分室","province":"東京都","city":"小金井市","address":"東京都小金井市東町1丁目39-1","lat":35.694005,"lon":139.526608},{"name":"小金井市立図書館緑分室","province":"東京都","city":"小金井市","address":"東京都小金井市緑","lat":35.709544,"lon":139.516322},{"name":"小金井市立図書館貫井北分室","province":"東京都","city":"小金井市","address":"東京都小金井市貫井北町1丁目-11-12","lat":35.702291,"lon":139.49774},{"name":"小金井市立図書館西之台会館図書室","province":"東京都","city":"小金井市","address":"東京都小金井市前原町3丁目-8-1","lat":35.693879,"lon":139.499573},{"name":"緑児童館","province":"東京都","city":"小金井市","address":"小金井市緑町4-18-25","lat":35.70964,"lon":139.51796},{"name":"本町児童館","province":"東京都","city":"小金井市","address":"小金井市本町5-4-25","lat":35.70201,"lon":139.50049},{"name":"東児童館","province":"東京都","city":"小金井市","address":"小金井市東町4-25-7","lat":35.69822,"lon":139.52672},{"name":"貫井南児童館","province":"東京都","city":"小金井市","address":"小金井市貫井南町4-3-23","lat":35.69389,"lon":139.49356},{"name":"＊?小金井市立図書館","province":"東京都","city":"小金井市","address":"小金井市本町1-1-32","lat":35.6977,"lon":139.510624},{"name":"＊?小金井市立図書館貫井北分室","province":"東京都","city":"小金井市","address":"小金井市貫井北町1-11-12","lat":35.702321,"lon":139.497695},{"name":"＊?小金井市立図書館東分室","province":"東京都","city":"小金井市","address":"小金井市東町1-39-1","lat":35.69399,"lon":139.526627},{"name":"＊?西之台会館図書室","province":"東京都","city":"小金井市","address":"小金井市前原町3-8-1","lat":35.693872,"lon":139.499611},{"name":"＊?小金井市立図書館緑分室","province":"東京都","city":"小金井市","address":"小金井市緑町3-3-23","lat":35.709552,"lon":139.516375},{"name":"緑児童館","province":"東京都","city":"小金井市","address":"小金井市緑町4-18-25","lat":35.709392,"lon":139.518064},{"name":"本町児童館","province":"東京都","city":"小金井市","address":"小金井市本町5-4-25","lat":35.70267,"lon":139.500944},{"name":"東児童館","province":"東京都","city":"小金井市","address":"小金井市東町4-25-7","lat":35.69766,"lon":139.526295},{"name":"貫井南児童館","province":"東京都","city":"小金井市","address":"小金井市貫井南町4-3-23","lat":35.693626,"lon":139.493617},{"name":"小金井市立図書館","province":"東京都","city":"小金井市","address":"東京都小金井市本町1丁目1-32","lat":35.697701,"lon":139.510621},{"name":"小金井市立図書館東分室","province":"東京都","city":"小金井市","address":"東京都小金井市東町1丁目39-1","lat":35.694005,"lon":139.526608},{"name":"小金井市立図書館緑分室","province":"東京都","city":"小金井市","address":"東京都小金井市緑","lat":35.709544,"lon":139.516322},{"name":"小金井市立図書館貫井北分室","province":"東京都","city":"小金井市","address":"東京都小金井市貫井北町1丁目-11-12","lat":35.702291,"lon":139.49774},{"name":"小金井市立図書館西之台会館図書室","province":"東京都","city":"小金井市","address":"東京都小金井市前原町3丁目-8-1","lat":35.693879,"lon":139.499573},{"name":"緑児童館","province":"東京都","city":"小金井市","address":"小金井市緑町4-18-25","lat":35.70964,"lon":139.51796},{"name":"本町児童館","province":"東京都","city":"小金井市","address":"小金井市本町5-4-25","lat":35.70201,"lon":139.50049},{"name":"東児童館","province":"東京都","city":"小金井市","address":"小金井市東町4-25-7","lat":35.69822,"lon":139.52672},{"name":"貫井南児童館","province":"東京都","city":"小金井市","address":"小金井市貫井南町4-3-23","lat":35.69389,"lon":139.49356},{"name":"＊?小金井市立図書館","province":"東京都","city":"小金井市","address":"小金井市本町1-1-32","lat":35.6977,"lon":139.510624},{"name":"＊?小金井市立図書館貫井北分室","province":"東京都","city":"小金井市","address":"小金井市貫井北町1-11-12","lat":35.702321,"lon":139.497695},{"name":"＊?小金井市立図書館東分室","province":"東京都","city":"小金井市","address":"小金井市東町1-39-1","lat":35.69399,"lon":139.526627},{"name":"＊?西之台会館図書室","province":"東京都","city":"小金井市","address":"小金井市前原町3-8-1","lat":35.693872,"lon":139.499611},{"name":"＊?小金井市立図書館緑分室","province":"東京都","city":"小金井市","address":"小金井市緑町3-3-23","lat":35.709552,"lon":139.516375},{"name":"緑児童館","province":"東京都","city":"小金井市","address":"小金井市緑町4-18-25","lat":35.709392,"lon":139.518064},{"name":"本町児童館","province":"東京都","city":"小金井市","address":"小金井市本町5-4-25","lat":35.70267,"lon":139.500944},{"name":"東児童館","province":"東京都","city":"小金井市","address":"小金井市東町4-25-7","lat":35.69766,"lon":139.526295},{"name":"貫井南児童館","province":"東京都","city":"小金井市","address":"小金井市貫井南町4-3-23","lat":35.693626,"lon":139.493617},{"name":"小金井市立図書館","province":"東京都","city":"小金井市","address":"東京都小金井市本町1丁目1-32","lat":35.697701,"lon":139.510621},{"name":"小金井市立図書館東分室","province":"東京都","city":"小金井市","address":"東京都小金井市東町1丁目39-1","lat":35.694005,"lon":139.526608},{"name":"小金井市立図書館緑分室","province":"東京都","city":"小金井市","address":"東京都小金井市緑","lat":35.709544,"lon":139.516322},{"name":"小金井市立図書館貫井北分室","province":"東京都","city":"小金井市","address":"東京都小金井市貫井北町1丁目-11-12","lat":35.702291,"lon":139.49774},{"name":"小金井市立図書館西之台会館図書室","province":"東京都","city":"小金井市","address":"東京都小金井市前原町3丁目-8-1","lat":35.693879,"lon":139.499573},{"name":"緑児童館","province":"東京都","city":"小金井市","address":"小金井市緑町4-18-25","lat":35.70964,"lon":139.51796},{"name":"本町児童館","province":"東京都","city":"小金井市","address":"小金井市本町5-4-25","lat":35.70201,"lon":139.50049},{"name":"東児童館","province":"東京都","city":"小金井市","address":"小金井市東町4-25-7","lat":35.69822,"lon":139.52672},{"name":"貫井南児童館","province":"東京都","city":"小金井市","address":"小金井市貫井南町4-3-23","lat":35.69389,"lon":139.49356},{"name":"＊?小金井市立図書館","province":"東京都","city":"小金井市","address":"小金井市本町1-1-32","lat":35.6977,"lon":139.510624},{"name":"＊?小金井市立図書館貫井北分室","province":"東京都","city":"小金井市","address":"小金井市貫井北町1-11-12","lat":35.702321,"lon":139.497695},{"name":"＊?小金井市立図書館東分室","province":"東京都","city":"小金井市","address":"小金井市東町1-39-1","lat":35.69399,"lon":139.526627},{"name":"＊?西之台会館図書室","province":"東京都","city":"小金井市","address":"小金井市前原町3-8-1","lat":35.693872,"lon":139.499611},{"name":"＊?小金井市立図書館緑分室","province":"東京都","city":"小金井市","address":"小金井市緑町3-3-23","lat":35.709552,"lon":139.516375},{"name":"緑児童館","province":"東京都","city":"小金井市","address":"小金井市緑町4-18-25","lat":35.709392,"lon":139.518064},{"name":"本町児童館","province":"東京都","city":"小金井市","address":"小金井市本町5-4-25","lat":35.70267,"lon":139.500944},{"name":"東児童館","province":"東京都","city":"小金井市","address":"小金井市東町4-25-7","lat":35.69766,"lon":139.526295},{"name":"貫井南児童館","province":"東京都","city":"小金井市","address":"小金井市貫井南町4-3-23","lat":35.693626,"lon":139.493617},{"name":"小金井市立図書館","province":"東京都","city":"小金井市","address":"東京都小金井市本町1丁目1-32","lat":35.697701,"lon":139.510621},{"name":"小金井市立図書館東分室","province":"東京都","city":"小金井市","address":"東京都小金井市東町1丁目39-1","lat":35.694005,"lon":139.526608},{"name":"小金井市立図書館緑分室","province":"東京都","city":"小金井市","address":"東京都小金井市緑","lat":35.709544,"lon":139.516322},{"name":"小金井市立図書館貫井北分室","province":"東京都","city":"小金井市","address":"東京都小金井市貫井北町1丁目-11-12","lat":35.702291,"lon":139.49774},{"name":"小金井市立図書館西之台会館図書室","province":"東京都","city":"小金井市","address":"東京都小金井市前原町3丁目-8-1","lat":35.693879,"lon":139.499573},{"name":"緑児童館","province":"東京都","city":"小金井市","address":"小金井市緑町4-18-25","lat":35.70964,"lon":139.51796},{"name":"本町児童館","province":"東京都","city":"小金井市","address":"小金井市本町5-4-25","lat":35.70201,"lon":139.50049},{"name":"東児童館","province":"東京都","city":"小金井市","address":"小金井市東町4-25-7","lat":35.69822,"lon":139.52672},{"name":"貫井南児童館","province":"東京都","city":"小金井市","address":"小金井市貫井南町4-3-23","lat":35.69389,"lon":139.49356},{"name":"＊?小金井市立図書館","province":"東京都","city":"小金井市","address":"小金井市本町1-1-32","lat":35.6977,"lon":139.510624},{"name":"＊?小金井市立図書館貫井北分室","province":"東京都","city":"小金井市","address":"小金井市貫井北町1-11-12","lat":35.702321,"lon":139.497695},{"name":"＊?小金井市立図書館東分室","province":"東京都","city":"小金井市","address":"小金井市東町1-39-1","lat":35.69399,"lon":139.526627},{"name":"＊?西之台会館図書室","province":"東京都","city":"小金井市","address":"小金井市前原町3-8-1","lat":35.693872,"lon":139.499611},{"name":"＊?小金井市立図書館緑分室","province":"東京都","city":"小金井市","address":"小金井市緑町3-3-23","lat":35.709552,"lon":139.516375},{"name":"緑児童館","province":"東京都","city":"小金井市","address":"小金井市緑町4-18-25","lat":35.709392,"lon":139.518064},{"name":"本町児童館","province":"東京都","city":"小金井市","address":"小金井市本町5-4-25","lat":35.70267,"lon":139.500944},{"name":"東児童館","province":"東京都","city":"小金井市","address":"小金井市東町4-25-7","lat":35.69766,"lon":139.526295},{"name":"貫井南児童館","province":"東京都","city":"小金井市","address":"小金井市貫井南町4-3-23","lat":35.693626,"lon":139.493617},{"name":"小金井市立図書館","province":"東京都","city":"小金井市","address":"東京都小金井市本町1丁目1-32","lat":35.697701,"lon":139.510621},{"name":"小金井市立図書館東分室","province":"東京都","city":"小金井市","address":"東京都小金井市東町1丁目39-1","lat":35.694005,"lon":139.526608},{"name":"小金井市立図書館緑分室","province":"東京都","city":"小金井市","address":"東京都小金井市緑","lat":35.709544,"lon":139.516322},{"name":"小金井市立図書館貫井北分室","province":"東京都","city":"小金井市","address":"東京都小金井市貫井北町1丁目-11-12","lat":35.702291,"lon":139.49774},{"name":"小金井市立図書館西之台会館図書室","province":"東京都","city":"小金井市","address":"東京都小金井市前原町3丁目-8-1","lat":35.693879,"lon":139.499573},{"name":"緑児童館","province":"東京都","city":"小金井市","address":"小金井市緑町4-18-25","lat":35.70964,"lon":139.51796},{"name":"本町児童館","province":"東京都","city":"小金井市","address":"小金井市本町5-4-25","lat":35.70201,"lon":139.50049},{"name":"東児童館","province":"東京都","city":"小金井市","address":"小金井市東町4-25-7","lat":35.69822,"lon":139.52672},{"name":"貫井南児童館","province":"東京都","city":"小金井市","address":"小金井市貫井南町4-3-23","lat":35.69389,"lon":139.49356},{"name":"＊?小金井市立図書館","province":"東京都","city":"小金井市","address":"小金井市本町1-1-32","lat":35.6977,"lon":139.510624},{"name":"＊?小金井市立図書館貫井北分室","province":"東京都","city":"小金井市","address":"小金井市貫井北町1-11-12","lat":35.702321,"lon":139.497695},{"name":"＊?小金井市立図書館東分室","province":"東京都","city":"小金井市","address":"小金井市東町1-39-1","lat":35.69399,"lon":139.526627},{"name":"＊?西之台会館図書室","province":"東京都","city":"小金井市","address":"小金井市前原町3-8-1","lat":35.693872,"lon":139.499611},{"name":"＊?小金井市立図書館緑分室","province":"東京都","city":"小金井市","address":"小金井市緑町3-3-23","lat":35.709552,"lon":139.516375},{"name":"緑児童館","province":"東京都","city":"小金井市","address":"小金井市緑町4-18-25","lat":35.709392,"lon":139.518064},{"name":"本町児童館","province":"東京都","city":"小金井市","address":"小金井市本町5-4-25","lat":35.70267,"lon":139.500944},{"name":"東児童館","province":"東京都","city":"小金井市","address":"小金井市東町4-25-7","lat":35.69766,"lon":139.526295},{"name":"貫井南児童館","province":"東京都","city":"小金井市","address":"小金井市貫井南町4-3-23","lat":35.693626,"lon":139.493617},{"name":"小金井市立図書館","province":"東京都","city":"小金井市","address":"東京都小金井市本町1丁目1-32","lat":35.697701,"lon":139.510621},{"name":"小金井市立図書館東分室","province":"東京都","city":"小金井市","address":"東京都小金井市東町1丁目39-1","lat":35.694005,"lon":139.526608},{"name":"小金井市立図書館緑分室","province":"東京都","city":"小金井市","address":"東京都小金井市緑","lat":35.709544,"lon":139.516322},{"name":"小金井市立図書館貫井北分室","province":"東京都","city":"小金井市","address":"東京都小金井市貫井北町1丁目-11-12","lat":35.702291,"lon":139.49774},{"name":"小金井市立図書館西之台会館図書室","province":"東京都","city":"小金井市","address":"東京都小金井市前原町3丁目-8-1","lat":35.693879,"lon":139.499573},{"name":"緑児童館","province":"東京都","city":"小金井市","address":"小金井市緑町4-18-25","lat":35.70964,"lon":139.51796},{"name":"本町児童館","province":"東京都","city":"小金井市","address":"小金井市本町5-4-25","lat":35.70201,"lon":139.50049},{"name":"東児童館","province":"東京都","city":"小金井市","address":"小金井市東町4-25-7","lat":35.69822,"lon":139.52672},{"name":"貫井南児童館","province":"東京都","city":"小金井市","address":"小金井市貫井南町4-3-23","lat":35.69389,"lon":139.49356},{"name":"＊?小金井市立図書館","province":"東京都","city":"小金井市","address":"小金井市本町1-1-32","lat":35.6977,"lon":139.510624},{"name":"＊?小金井市立図書館貫井北分室","province":"東京都","city":"小金井市","address":"小金井市貫井北町1-11-12","lat":35.702321,"lon":139.497695},{"name":"＊?小金井市立図書館東分室","province":"東京都","city":"小金井市","address":"小金井市東町1-39-1","lat":35.69399,"lon":139.526627},{"name":"＊?西之台会館図書室","province":"東京都","city":"小金井市","address":"小金井市前原町3-8-1","lat":35.693872,"lon":139.499611},{"name":"＊?小金井市立図書館緑分室","province":"東京都","city":"小金井市","address":"小金井市緑町3-3-23","lat":35.709552,"lon":139.516375},{"name":"緑児童館","province":"東京都","city":"小金井市","address":"小金井市緑町4-18-25","lat":35.709392,"lon":139.518064},{"name":"本町児童館","province":"東京都","city":"小金井市","address":"小金井市本町5-4-25","lat":35.70267,"lon":139.500944},{"name":"東児童館","province":"東京都","city":"小金井市","address":"小金井市東町4-25-7","lat":35.69766,"lon":139.526295},{"name":"貫井南児童館","province":"東京都","city":"小金井市","address":"小金井市貫井南町4-3-23","lat":35.693626,"lon":139.493617},{"name":"小金井市立図書館","province":"東京都","city":"小金井市","address":"東京都小金井市本町1丁目1-32","lat":35.697701,"lon":139.510621},{"name":"小金井市立図書館東分室","province":"東京都","city":"小金井市","address":"東京都小金井市東町1丁目39-1","lat":35.694005,"lon":139.526608},{"name":"小金井市立図書館緑分室","province":"東京都","city":"小金井市","address":"東京都小金井市緑","lat":35.709544,"lon":139.516322},{"name":"小金井市立図書館貫井北分室","province":"東京都","city":"小金井市","address":"東京都小金井市貫井北町1丁目-11-12","lat":35.702291,"lon":139.49774},{"name":"小金井市立図書館西之台会館図書室","province":"東京都","city":"小金井市","address":"東京都小金井市前原町3丁目-8-1","lat":35.693879,"lon":139.499573},{"name":"緑児童館","province":"東京都","city":"小金井市","address":"小金井市緑町4-18-25","lat":35.70964,"lon":139.51796},{"name":"本町児童館","province":"東京都","city":"小金井市","address":"小金井市本町5-4-25","lat":35.70201,"lon":139.50049},{"name":"東児童館","province":"東京都","city":"小金井市","address":"小金井市東町4-25-7","lat":35.69822,"lon":139.52672},{"name":"貫井南児童館","province":"東京都","city":"小金井市","address":"小金井市貫井南町4-3-23","lat":35.69389,"lon":139.49356},{"name":"＊?小金井市立図書館","province":"東京都","city":"小金井市","address":"小金井市本町1-1-32","lat":35.6977,"lon":139.510624},{"name":"＊?小金井市立図書館貫井北分室","province":"東京都","city":"小金井市","address":"小金井市貫井北町1-11-12","lat":35.702321,"lon":139.497695},{"name":"＊?小金井市立図書館東分室","province":"東京都","city":"小金井市","address":"小金井市東町1-39-1","lat":35.69399,"lon":139.526627},{"name":"＊?西之台会館図書室","province":"東京都","city":"小金井市","address":"小金井市前原町3-8-1","lat":35.693872,"lon":139.499611},{"name":"＊?小金井市立図書館緑分室","province":"東京都","city":"小金井市","address":"小金井市緑町3-3-23","lat":35.709552,"lon":139.516375},{"name":"緑児童館","province":"東京都","city":"小金井市","address":"小金井市緑町4-18-25","lat":35.709392,"lon":139.518064},{"name":"本町児童館","province":"東京都","city":"小金井市","address":"小金井市本町5-4-25","lat":35.70267,"lon":139.500944},{"name":"東児童館","province":"東京都","city":"小金井市","address":"小金井市東町4-25-7","lat":35.69766,"lon":139.526295},{"name":"貫井南児童館","province":"東京都","city":"小金井市","address":"小金井市貫井南町4-3-23","lat":35.693626,"lon":139.493617},{"name":"小金井市立図書館","province":"東京都","city":"小金井市","address":"東京都小金井市本町1丁目1-32","lat":35.697701,"lon":139.510621},{"name":"小金井市立図書館東分室","province":"東京都","city":"小金井市","address":"東京都小金井市東町1丁目39-1","lat":35.694005,"lon":139.526608},{"name":"小金井市立図書館緑分室","province":"東京都","city":"小金井市","address":"東京都小金井市緑","lat":35.709544,"lon":139.516322},{"name":"小金井市立図書館貫井北分室","province":"東京都","city":"小金井市","address":"東京都小金井市貫井北町1丁目-11-12","lat":35.702291,"lon":139.49774},{"name":"小金井市立図書館西之台会館図書室","province":"東京都","city":"小金井市","address":"東京都小金井市前原町3丁目-8-1","lat":35.693879,"lon":139.499573},{"name":"緑児童館","province":"東京都","city":"小金井市","address":"小金井市緑町4-18-25","lat":35.70964,"lon":139.51796},{"name":"本町児童館","province":"東京都","city":"小金井市","address":"小金井市本町5-4-25","lat":35.70201,"lon":139.50049},{"name":"東児童館","province":"東京都","city":"小金井市","address":"小金井市東町4-25-7","lat":35.69822,"lon":139.52672},{"name":"貫井南児童館","province":"東京都","city":"小金井市","address":"小金井市貫井南町4-3-23","lat":35.69389,"lon":139.49356},{"name":"＊?小金井市立図書館","province":"東京都","city":"小金井市","address":"小金井市本町1-1-32","lat":35.6977,"lon":139.510624},{"name":"＊?小金井市立図書館貫井北分室","province":"東京都","city":"小金井市","address":"小金井市貫井北町1-11-12","lat":35.702321,"lon":139.497695},{"name":"＊?小金井市立図書館東分室","province":"東京都","city":"小金井市","address":"小金井市東町1-39-1","lat":35.69399,"lon":139.526627},{"name":"＊?西之台会館図書室","province":"東京都","city":"小金井市","address":"小金井市前原町3-8-1","lat":35.693872,"lon":139.499611},{"name":"＊?小金井市立図書館緑分室","province":"東京都","city":"小金井市","address":"小金井市緑町3-3-23","lat":35.709552,"lon":139.516375},{"name":"緑児童館","province":"東京都","city":"小金井市","address":"小金井市緑町4-18-25","lat":35.709392,"lon":139.518064},{"name":"本町児童館","province":"東京都","city":"小金井市","address":"小金井市本町5-4-25","lat":35.70267,"lon":139.500944},{"name":"東児童館","province":"東京都","city":"小金井市","address":"小金井市東町4-25-7","lat":35.69766,"lon":139.526295},{"name":"貫井南児童館","province":"東京都","city":"小金井市","address":"小金井市貫井南町4-3-23","lat":35.693626,"lon":139.493617},{"name":"小金井市立図書館","province":"東京都","city":"小金井市","address":"東京都小金井市本町1丁目1-32","lat":35.697701,"lon":139.510621},{"name":"小金井市立図書館東分室","province":"東京都","city":"小金井市","address":"東京都小金井市東町1丁目39-1","lat":35.694005,"lon":139.526608},{"name":"小金井市立図書館緑分室","province":"東京都","city":"小金井市","address":"東京都小金井市緑","lat":35.709544,"lon":139.516322},{"name":"小金井市立図書館貫井北分室","province":"東京都","city":"小金井市","address":"東京都小金井市貫井北町1丁目-11-12","lat":35.702291,"lon":139.49774},{"name":"小金井市立図書館西之台会館図書室","province":"東京都","city":"小金井市","address":"東京都小金井市前原町3丁目-8-1","lat":35.693879,"lon":139.499573},{"name":"緑児童館","province":"東京都","city":"小金井市","address":"小金井市緑町4-18-25","lat":35.70964,"lon":139.51796},{"name":"本町児童館","province":"東京都","city":"小金井市","address":"小金井市本町5-4-25","lat":35.70201,"lon":139.50049},{"name":"東児童館","province":"東京都","city":"小金井市","address":"小金井市東町4-25-7","lat":35.69822,"lon":139.52672},{"name":"貫井南児童館","province":"東京都","city":"小金井市","address":"小金井市貫井南町4-3-23","lat":35.69389,"lon":139.49356},{"name":"＊?小金井市立図書館","province":"東京都","city":"小金井市","address":"小金井市本町1-1-32","lat":35.6977,"lon":139.510624},{"name":"＊?小金井市立図書館貫井北分室","province":"東京都","city":"小金井市","address":"小金井市貫井北町1-11-12","lat":35.702321,"lon":139.497695},{"name":"＊?小金井市立図書館東分室","province":"東京都","city":"小金井市","address":"小金井市東町1-39-1","lat":35.69399,"lon":139.526627},{"name":"＊?西之台会館図書室","province":"東京都","city":"小金井市","address":"小金井市前原町3-8-1","lat":35.693872,"lon":139.499611},{"name":"＊?小金井市立図書館緑分室","province":"東京都","city":"小金井市","address":"小金井市緑町3-3-23","lat":35.709552,"lon":139.516375},{"name":"緑児童館","province":"東京都","city":"小金井市","address":"小金井市緑町4-18-25","lat":35.709392,"lon":139.518064},{"name":"本町児童館","province":"東京都","city":"小金井市","address":"小金井市本町5-4-25","lat":35.70267,"lon":139.500944},{"name":"東児童館","province":"東京都","city":"小金井市","address":"小金井市東町4-25-7","lat":35.69766,"lon":139.526295},{"name":"貫井南児童館","province":"東京都","city":"小金井市","address":"小金井市貫井南町4-3-23","lat":35.693626,"lon":139.493617},{"name":"小金井市立図書館","province":"東京都","city":"小金井市","address":"東京都小金井市本町1丁目1-32","lat":35.697701,"lon":139.510621},{"name":"小金井市立図書館東分室","province":"東京都","city":"小金井市","address":"東京都小金井市東町1丁目39-1","lat":35.694005,"lon":139.526608},{"name":"小金井市立図書館緑分室","province":"東京都","city":"小金井市","address":"東京都小金井市緑","lat":35.709544,"lon":139.516322},{"name":"小金井市立図書館貫井北分室","province":"東京都","city":"小金井市","address":"東京都小金井市貫井北町1丁目-11-12","lat":35.702291,"lon":139.49774},{"name":"小金井市立図書館西之台会館図書室","province":"東京都","city":"小金井市","address":"東京都小金井市前原町3丁目-8-1","lat":35.693879,"lon":139.499573},{"name":"緑児童館","province":"東京都","city":"小金井市","address":"小金井市緑町4-18-25","lat":35.70964,"lon":139.51796},{"name":"本町児童館","province":"東京都","city":"小金井市","address":"小金井市本町5-4-25","lat":35.70201,"lon":139.50049},{"name":"東児童館","province":"東京都","city":"小金井市","address":"小金井市東町4-25-7","lat":35.69822,"lon":139.52672},{"name":"貫井南児童館","province":"東京都","city":"小金井市","address":"小金井市貫井南町4-3-23","lat":35.69389,"lon":139.49356},{"name":"＊?小金井市立図書館","province":"東京都","city":"小金井市","address":"小金井市本町1-1-32","lat":35.6977,"lon":139.510624},{"name":"＊?小金井市立図書館貫井北分室","province":"東京都","city":"小金井市","address":"小金井市貫井北町1-11-12","lat":35.702321,"lon":139.497695},{"name":"＊?小金井市立図書館東分室","province":"東京都","city":"小金井市","address":"小金井市東町1-39-1","lat":35.69399,"lon":139.526627},{"name":"＊?西之台会館図書室","province":"東京都","city":"小金井市","address":"小金井市前原町3-8-1","lat":35.693872,"lon":139.499611},{"name":"＊?小金井市立図書館緑分室","province":"東京都","city":"小金井市","address":"小金井市緑町3-3-23","lat":35.709552,"lon":139.516375},{"name":"緑児童館","province":"東京都","city":"小金井市","address":"小金井市緑町4-18-25","lat":35.709392,"lon":139.518064},{"name":"本町児童館","province":"東京都","city":"小金井市","address":"小金井市本町5-4-25","lat":35.70267,"lon":139.500944},{"name":"東児童館","province":"東京都","city":"小金井市","address":"小金井市東町4-25-7","lat":35.69766,"lon":139.526295},{"name":"貫井南児童館","province":"東京都","city":"小金井市","address":"小金井市貫井南町4-3-23","lat":35.693626,"lon":139.493617},{"name":"小金井市立図書館","province":"東京都","city":"小金井市","address":"東京都小金井市本町1丁目1-32","lat":35.697701,"lon":139.510621},{"name":"小金井市立図書館東分室","province":"東京都","city":"小金井市","address":"東京都小金井市東町1丁目39-1","lat":35.694005,"lon":139.526608},{"name":"小金井市立図書館緑分室","province":"東京都","city":"小金井市","address":"東京都小金井市緑","lat":35.709544,"lon":139.516322},{"name":"小金井市立図書館貫井北分室","province":"東京都","city":"小金井市","address":"東京都小金井市貫井北町1丁目-11-12","lat":35.702291,"lon":139.49774},{"name":"小金井市立図書館西之台会館図書室","province":"東京都","city":"小金井市","address":"東京都小金井市前原町3丁目-8-1","lat":35.693879,"lon":139.499573},{"name":"緑児童館","province":"東京都","city":"小金井市","address":"小金井市緑町4-18-25","lat":35.70964,"lon":139.51796},{"name":"本町児童館","province":"東京都","city":"小金井市","address":"小金井市本町5-4-25","lat":35.70201,"lon":139.50049},{"name":"東児童館","province":"東京都","city":"小金井市","address":"小金井市東町4-25-7","lat":35.69822,"lon":139.52672},{"name":"貫井南児童館","province":"東京都","city":"小金井市","address":"小金井市貫井南町4-3-23","lat":35.69389,"lon":139.49356},{"name":"＊?小金井市立図書館","province":"東京都","city":"小金井市","address":"小金井市本町1-1-32","lat":35.6977,"lon":139.510624},{"name":"＊?小金井市立図書館貫井北分室","province":"東京都","city":"小金井市","address":"小金井市貫井北町1-11-12","lat":35.702321,"lon":139.497695},{"name":"＊?小金井市立図書館東分室","province":"東京都","city":"小金井市","address":"小金井市東町1-39-1","lat":35.69399,"lon":139.526627},{"name":"＊?西之台会館図書室","province":"東京都","city":"小金井市","address":"小金井市前原町3-8-1","lat":35.693872,"lon":139.499611},{"name":"＊?小金井市立図書館緑分室","province":"東京都","city":"小金井市","address":"小金井市緑町3-3-23","lat":35.709552,"lon":139.516375},{"name":"緑児童館","province":"東京都","city":"小金井市","address":"小金井市緑町4-18-25","lat":35.709392,"lon":139.518064},{"name":"本町児童館","province":"東京都","city":"小金井市","address":"小金井市本町5-4-25","lat":35.70267,"lon":139.500944},{"name":"東児童館","province":"東京都","city":"小金井市","address":"小金井市東町4-25-7","lat":35.69766,"lon":139.526295},{"name":"貫井南児童館","province":"東京都","city":"小金井市","address":"小金井市貫井南町4-3-23","lat":35.693626,"lon":139.493617},{"name":"小金井市立図書館","province":"東京都","city":"小金井市","address":"東京都小金井市本町1丁目1-32","lat":35.697701,"lon":139.510621},{"name":"小金井市立図書館東分室","province":"東京都","city":"小金井市","address":"東京都小金井市東町1丁目39-1","lat":35.694005,"lon":139.526608},{"name":"小金井市立図書館緑分室","province":"東京都","city":"小金井市","address":"東京都小金井市緑","lat":35.709544,"lon":139.516322},{"name":"小金井市立図書館貫井北分室","province":"東京都","city":"小金井市","address":"東京都小金井市貫井北町1丁目-11-12","lat":35.702291,"lon":139.49774},{"name":"小金井市立図書館西之台会館図書室","province":"東京都","city":"小金井市","address":"東京都小金井市前原町3丁目-8-1","lat":35.693879,"lon":139.499573},{"name":"緑児童館","province":"東京都","city":"小金井市","address":"小金井市緑町4-18-25","lat":35.70964,"lon":139.51796},{"name":"本町児童館","province":"東京都","city":"小金井市","address":"小金井市本町5-4-25","lat":35.70201,"lon":139.50049},{"name":"東児童館","province":"東京都","city":"小金井市","address":"小金井市東町4-25-7","lat":35.69822,"lon":139.52672},{"name":"貫井南児童館","province":"東京都","city":"小金井市","address":"小金井市貫井南町4-3-23","lat":35.69389,"lon":139.49356},{"name":"＊?小金井市立図書館","province":"東京都","city":"小金井市","address":"小金井市本町1-1-32","lat":35.6977,"lon":139.510624},{"name":"＊?小金井市立図書館貫井北分室","province":"東京都","city":"小金井市","address":"小金井市貫井北町1-11-12","lat":35.702321,"lon":139.497695},{"name":"＊?小金井市立図書館東分室","province":"東京都","city":"小金井市","address":"小金井市東町1-39-1","lat":35.69399,"lon":139.526627},{"name":"＊?西之台会館図書室","province":"東京都","city":"小金井市","address":"小金井市前原町3-8-1","lat":35.693872,"lon":139.499611},{"name":"＊?小金井市立図書館緑分室","province":"東京都","city":"小金井市","address":"小金井市緑町3-3-23","lat":35.709552,"lon":139.516375},{"name":"緑児童館","province":"東京都","city":"小金井市","address":"小金井市緑町4-18-25","lat":35.709392,"lon":139.518064},{"name":"本町児童館","province":"東京都","city":"小金井市","address":"小金井市本町5-4-25","lat":35.70267,"lon":139.500944},{"name":"東児童館","province":"東京都","city":"小金井市","address":"小金井市東町4-25-7","lat":35.69766,"lon":139.526295},{"name":"貫井南児童館","province":"東京都","city":"小金井市","address":"小金井市貫井南町4-3-23","lat":35.693626,"lon":139.493617},{"name":"小金井市立図書館","province":"東京都","city":"小金井市","address":"東京都小金井市本町1丁目1-32","lat":35.697701,"lon":139.510621},{"name":"小金井市立図書館東分室","province":"東京都","city":"小金井市","address":"東京都小金井市東町1丁目39-1","lat":35.694005,"lon":139.526608},{"name":"小金井市立図書館緑分室","province":"東京都","city":"小金井市","address":"東京都小金井市緑","lat":35.709544,"lon":139.516322},{"name":"小金井市立図書館貫井北分室","province":"東京都","city":"小金井市","address":"東京都小金井市貫井北町1丁目-11-12","lat":35.702291,"lon":139.49774},{"name":"小金井市立図書館西之台会館図書室","province":"東京都","city":"小金井市","address":"東京都小金井市前原町3丁目-8-1","lat":35.693879,"lon":139.499573},{"name":"緑児童館","province":"東京都","city":"小金井市","address":"小金井市緑町4-18-25","lat":35.70964,"lon":139.51796},{"name":"本町児童館","province":"東京都","city":"小金井市","address":"小金井市本町5-4-25","lat":35.70201,"lon":139.50049},{"name":"東児童館","province":"東京都","city":"小金井市","address":"小金井市東町4-25-7","lat":35.69822,"lon":139.52672},{"name":"貫井南児童館","province":"東京都","city":"小金井市","address":"小金井市貫井南町4-3-23","lat":35.69389,"lon":139.49356},{"name":"＊?小金井市立図書館","province":"東京都","city":"小金井市","address":"小金井市本町1-1-32","lat":35.6977,"lon":139.510624},{"name":"＊?小金井市立図書館貫井北分室","province":"東京都","city":"小金井市","address":"小金井市貫井北町1-11-12","lat":35.702321,"lon":139.497695},{"name":"＊?小金井市立図書館東分室","province":"東京都","city":"小金井市","address":"小金井市東町1-39-1","lat":35.69399,"lon":139.526627},{"name":"＊?西之台会館図書室","province":"東京都","city":"小金井市","address":"小金井市前原町3-8-1","lat":35.693872,"lon":139.499611},{"name":"＊?小金井市立図書館緑分室","province":"東京都","city":"小金井市","address":"小金井市緑町3-3-23","lat":35.709552,"lon":139.516375},{"name":"緑児童館","province":"東京都","city":"小金井市","address":"小金井市緑町4-18-25","lat":35.709392,"lon":139.518064},{"name":"本町児童館","province":"東京都","city":"小金井市","address":"小金井市本町5-4-25","lat":35.70267,"lon":139.500944},{"name":"東児童館","province":"東京都","city":"小金井市","address":"小金井市東町4-25-7","lat":35.69766,"lon":139.526295},{"name":"貫井南児童館","province":"東京都","city":"小金井市","address":"小金井市貫井南町4-3-23","lat":35.693626,"lon":139.493617},{"name":"小金井市立図書館","province":"東京都","city":"小金井市","address":"東京都小金井市本町1丁目1-32","lat":35.697701,"lon":139.510621},{"name":"小金井市立図書館東分室","province":"東京都","city":"小金井市","address":"東京都小金井市東町1丁目39-1","lat":35.694005,"lon":139.526608},{"name":"小金井市立図書館緑分室","province":"東京都","city":"小金井市","address":"東京都小金井市緑","lat":35.709544,"lon":139.516322},{"name":"小金井市立図書館貫井北分室","province":"東京都","city":"小金井市","address":"東京都小金井市貫井北町1丁目-11-12","lat":35.702291,"lon":139.49774},{"name":"小金井市立図書館西之台会館図書室","province":"東京都","city":"小金井市","address":"東京都小金井市前原町3丁目-8-1","lat":35.693879,"lon":139.499573},{"name":"緑児童館","province":"東京都","city":"小金井市","address":"小金井市緑町4-18-25","lat":35.70964,"lon":139.51796},{"name":"本町児童館","province":"東京都","city":"小金井市","address":"小金井市本町5-4-25","lat":35.70201,"lon":139.50049},{"name":"東児童館","province":"東京都","city":"小金井市","address":"小金井市東町4-25-7","lat":35.69822,"lon":139.52672},{"name":"貫井南児童館","province":"東京都","city":"小金井市","address":"小金井市貫井南町4-3-23","lat":35.69389,"lon":139.49356},{"name":"＊?小金井市立図書館","province":"東京都","city":"小金井市","address":"小金井市本町1-1-32","lat":35.6977,"lon":139.510624},{"name":"＊?小金井市立図書館貫井北分室","province":"東京都","city":"小金井市","address":"小金井市貫井北町1-11-12","lat":35.702321,"lon":139.497695},{"name":"＊?小金井市立図書館東分室","province":"東京都","city":"小金井市","address":"小金井市東町1-39-1","lat":35.69399,"lon":139.526627},{"name":"＊?西之台会館図書室","province":"東京都","city":"小金井市","address":"小金井市前原町3-8-1","lat":35.693872,"lon":139.499611},{"name":"＊?小金井市立図書館緑分室","province":"東京都","city":"小金井市","address":"小金井市緑町3-3-23","lat":35.709552,"lon":139.516375},{"name":"緑児童館","province":"東京都","city":"小金井市","address":"小金井市緑町4-18-25","lat":35.709392,"lon":139.518064},{"name":"本町児童館","province":"東京都","city":"小金井市","address":"小金井市本町5-4-25","lat":35.70267,"lon":139.500944},{"name":"東児童館","province":"東京都","city":"小金井市","address":"小金井市東町4-25-7","lat":35.69766,"lon":139.526295},{"name":"貫井南児童館","province":"東京都","city":"小金井市","address":"小金井市貫井南町4-3-23","lat":35.693626,"lon":139.493617},{"name":"小金井市立図書館","province":"東京都","city":"小金井市","address":"東京都小金井市本町1丁目1-32","lat":35.697701,"lon":139.510621},{"name":"小金井市立図書館東分室","province":"東京都","city":"小金井市","address":"東京都小金井市東町1丁目39-1","lat":35.694005,"lon":139.526608},{"name":"小金井市立図書館緑分室","province":"東京都","city":"小金井市","address":"東京都小金井市緑","lat":35.709544,"lon":139.516322},{"name":"小金井市立図書館貫井北分室","province":"東京都","city":"小金井市","address":"東京都小金井市貫井北町1丁目-11-12","lat":35.702291,"lon":139.49774},{"name":"小金井市立図書館西之台会館図書室","province":"東京都","city":"小金井市","address":"東京都小金井市前原町3丁目-8-1","lat":35.693879,"lon":139.499573},{"name":"緑児童館","province":"東京都","city":"小金井市","address":"小金井市緑町4-18-25","lat":35.70964,"lon":139.51796},{"name":"本町児童館","province":"東京都","city":"小金井市","address":"小金井市本町5-4-25","lat":35.70201,"lon":139.50049},{"name":"東児童館","province":"東京都","city":"小金井市","address":"小金井市東町4-25-7","lat":35.69822,"lon":139.52672},{"name":"貫井南児童館","province":"東京都","city":"小金井市","address":"小金井市貫井南町4-3-23","lat":35.69389,"lon":139.49356},{"name":"＊?小金井市立図書館","province":"東京都","city":"小金井市","address":"小金井市本町1-1-32","lat":35.6977,"lon":139.510624},{"name":"＊?小金井市立図書館貫井北分室","province":"東京都","city":"小金井市","address":"小金井市貫井北町1-11-12","lat":35.702321,"lon":139.497695},{"name":"＊?小金井市立図書館東分室","province":"東京都","city":"小金井市","address":"小金井市東町1-39-1","lat":35.69399,"lon":139.526627},{"name":"＊?西之台会館図書室","province":"東京都","city":"小金井市","address":"小金井市前原町3-8-1","lat":35.693872,"lon":139.499611},{"name":"＊?小金井市立図書館緑分室","province":"東京都","city":"小金井市","address":"小金井市緑町3-3-23","lat":35.709552,"lon":139.516375},{"name":"緑児童館","province":"東京都","city":"小金井市","address":"小金井市緑町4-18-25","lat":35.709392,"lon":139.518064},{"name":"本町児童館","province":"東京都","city":"小金井市","address":"小金井市本町5-4-25","lat":35.70267,"lon":139.500944},{"name":"東児童館","province":"東京都","city":"小金井市","address":"小金井市東町4-25-7","lat":35.69766,"lon":139.526295},{"name":"貫井南児童館","province":"東京都","city":"小金井市","address":"小金井市貫井南町4-3-23","lat":35.693626,"lon":139.493617},{"name":"小金井市立図書館","province":"東京都","city":"小金井市","address":"東京都小金井市本町1丁目1-32","lat":35.697701,"lon":139.510621},{"name":"小金井市立図書館東分室","province":"東京都","city":"小金井市","address":"東京都小金井市東町1丁目39-1","lat":35.694005,"lon":139.526608},{"name":"小金井市立図書館緑分室","province":"東京都","city":"小金井市","address":"東京都小金井市緑","lat":35.709544,"lon":139.516322},{"name":"小金井市立図書館貫井北分室","province":"東京都","city":"小金井市","address":"東京都小金井市貫井北町1丁目-11-12","lat":35.702291,"lon":139.49774},{"name":"小金井市立図書館西之台会館図書室","province":"東京都","city":"小金井市","address":"東京都小金井市前原町3丁目-8-1","lat":35.693879,"lon":139.499573},{"name":"緑児童館","province":"東京都","city":"小金井市","address":"小金井市緑町4-18-25","lat":35.70964,"lon":139.51796},{"name":"本町児童館","province":"東京都","city":"小金井市","address":"小金井市本町5-4-25","lat":35.70201,"lon":139.50049},{"name":"東児童館","province":"東京都","city":"小金井市","address":"小金井市東町4-25-7","lat":35.69822,"lon":139.52672},{"name":"貫井南児童館","province":"東京都","city":"小金井市","address":"小金井市貫井南町4-3-23","lat":35.69389,"lon":139.49356},{"name":"＊?小金井市立図書館","province":"東京都","city":"小金井市","address":"小金井市本町1-1-32","lat":35.6977,"lon":139.510624},{"name":"＊?小金井市立図書館貫井北分室","province":"東京都","city":"小金井市","address":"小金井市貫井北町1-11-12","lat":35.702321,"lon":139.497695},{"name":"＊?小金井市立図書館東分室","province":"東京都","city":"小金井市","address":"小金井市東町1-39-1","lat":35.69399,"lon":139.526627},{"name":"＊?西之台会館図書室","province":"東京都","city":"小金井市","address":"小金井市前原町3-8-1","lat":35.693872,"lon":139.499611},{"name":"＊?小金井市立図書館緑分室","province":"東京都","city":"小金井市","address":"小金井市緑町3-3-23","lat":35.709552,"lon":139.516375},{"name":"緑児童館","province":"東京都","city":"小金井市","address":"小金井市緑町4-18-25","lat":35.709392,"lon":139.518064},{"name":"本町児童館","province":"東京都","city":"小金井市","address":"小金井市本町5-4-25","lat":35.70267,"lon":139.500944},{"name":"東児童館","province":"東京都","city":"小金井市","address":"小金井市東町4-25-7","lat":35.69766,"lon":139.526295},{"name":"貫井南児童館","province":"東京都","city":"小金井市","address":"小金井市貫井南町4-3-23","lat":35.693626,"lon":139.493617},{"name":"小金井市立図書館","province":"東京都","city":"小金井市","address":"東京都小金井市本町1丁目1-32","lat":35.697701,"lon":139.510621},{"name":"小金井市立図書館東分室","province":"東京都","city":"小金井市","address":"東京都小金井市東町1丁目39-1","lat":35.694005,"lon":139.526608},{"name":"小金井市立図書館緑分室","province":"東京都","city":"小金井市","address":"東京都小金井市緑","lat":35.709544,"lon":139.516322},{"name":"小金井市立図書館貫井北分室","province":"東京都","city":"小金井市","address":"東京都小金井市貫井北町1丁目-11-12","lat":35.702291,"lon":139.49774},{"name":"小金井市立図書館西之台会館図書室","province":"東京都","city":"小金井市","address":"東京都小金井市前原町3丁目-8-1","lat":35.693879,"lon":139.499573},{"name":"緑児童館","province":"東京都","city":"小金井市","address":"小金井市緑町4-18-25","lat":35.70964,"lon":139.51796},{"name":"本町児童館","province":"東京都","city":"小金井市","address":"小金井市本町5-4-25","lat":35.70201,"lon":139.50049},{"name":"東児童館","province":"東京都","city":"小金井市","address":"小金井市東町4-25-7","lat":35.69822,"lon":139.52672},{"name":"貫井南児童館","province":"東京都","city":"小金井市","address":"小金井市貫井南町4-3-23","lat":35.69389,"lon":139.49356},{"name":"＊?小金井市立図書館","province":"東京都","city":"小金井市","address":"小金井市本町1-1-32","lat":35.6977,"lon":139.510624},{"name":"＊?小金井市立図書館貫井北分室","province":"東京都","city":"小金井市","address":"小金井市貫井北町1-11-12","lat":35.702321,"lon":139.497695},{"name":"＊?小金井市立図書館東分室","province":"東京都","city":"小金井市","address":"小金井市東町1-39-1","lat":35.69399,"lon":139.526627},{"name":"＊?西之台会館図書室","province":"東京都","city":"小金井市","address":"小金井市前原町3-8-1","lat":35.693872,"lon":139.499611},{"name":"＊?小金井市立図書館緑分室","province":"東京都","city":"小金井市","address":"小金井市緑町3-3-23","lat":35.709552,"lon":139.516375},{"name":"緑児童館","province":"東京都","city":"小金井市","address":"小金井市緑町4-18-25","lat":35.709392,"lon":139.518064},{"name":"本町児童館","province":"東京都","city":"小金井市","address":"小金井市本町5-4-25","lat":35.70267,"lon":139.500944},{"name":"東児童館","province":"東京都","city":"小金井市","address":"小金井市東町4-25-7","lat":35.69766,"lon":139.526295},{"name":"貫井南児童館","province":"東京都","city":"小金井市","address":"小金井市貫井南町4-3-23","lat":35.693626,"lon":139.493617},{"name":"小金井市立図書館","province":"東京都","city":"小金井市","address":"東京都小金井市本町1丁目1-32","lat":35.697701,"lon":139.510621},{"name":"小金井市立図書館東分室","province":"東京都","city":"小金井市","address":"東京都小金井市東町1丁目39-1","lat":35.694005,"lon":139.526608},{"name":"小金井市立図書館緑分室","province":"東京都","city":"小金井市","address":"東京都小金井市緑","lat":35.709544,"lon":139.516322},{"name":"小金井市立図書館貫井北分室","province":"東京都","city":"小金井市","address":"東京都小金井市貫井北町1丁目-11-12","lat":35.702291,"lon":139.49774},{"name":"小金井市立図書館西之台会館図書室","province":"東京都","city":"小金井市","address":"東京都小金井市前原町3丁目-8-1","lat":35.693879,"lon":139.499573},{"name":"緑児童館","province":"東京都","city":"小金井市","address":"小金井市緑町4-18-25","lat":35.70964,"lon":139.51796},{"name":"本町児童館","province":"東京都","city":"小金井市","address":"小金井市本町5-4-25","lat":35.70201,"lon":139.50049},{"name":"東児童館","province":"東京都","city":"小金井市","address":"小金井市東町4-25-7","lat":35.69822,"lon":139.52672},{"name":"貫井南児童館","province":"東京都","city":"小金井市","address":"小金井市貫井南町4-3-23","lat":35.69389,"lon":139.49356},{"name":"＊?小金井市立図書館","province":"東京都","city":"小金井市","address":"小金井市本町1-1-32","lat":35.6977,"lon":139.510624},{"name":"＊?小金井市立図書館貫井北分室","province":"東京都","city":"小金井市","address":"小金井市貫井北町1-11-12","lat":35.702321,"lon":139.497695},{"name":"＊?小金井市立図書館東分室","province":"東京都","city":"小金井市","address":"小金井市東町1-39-1","lat":35.69399,"lon":139.526627},{"name":"＊?西之台会館図書室","province":"東京都","city":"小金井市","address":"小金井市前原町3-8-1","lat":35.693872,"lon":139.499611},{"name":"＊?小金井市立図書館緑分室","province":"東京都","city":"小金井市","address":"小金井市緑町3-3-23","lat":35.709552,"lon":139.516375},{"name":"緑児童館","province":"東京都","city":"小金井市","address":"小金井市緑町4-18-25","lat":35.709392,"lon":139.518064},{"name":"本町児童館","province":"東京都","city":"小金井市","address":"小金井市本町5-4-25","lat":35.70267,"lon":139.500944},{"name":"東児童館","province":"東京都","city":"小金井市","address":"小金井市東町4-25-7","lat":35.69766,"lon":139.526295},{"name":"貫井南児童館","province":"東京都","city":"小金井市","address":"小金井市貫井南町4-3-23","lat":35.693626,"lon":139.493617},{"name":"小金井市立図書館","province":"東京都","city":"小金井市","address":"東京都小金井市本町1丁目1-32","lat":35.697701,"lon":139.510621},{"name":"小金井市立図書館東分室","province":"東京都","city":"小金井市","address":"東京都小金井市東町1丁目39-1","lat":35.694005,"lon":139.526608},{"name":"小金井市立図書館緑分室","province":"東京都","city":"小金井市","address":"東京都小金井市緑","lat":35.709544,"lon":139.516322},{"name":"小金井市立図書館貫井北分室","province":"東京都","city":"小金井市","address":"東京都小金井市貫井北町1丁目-11-12","lat":35.702291,"lon":139.49774},{"name":"小金井市立図書館西之台会館図書室","province":"東京都","city":"小金井市","address":"東京都小金井市前原町3丁目-8-1","lat":35.693879,"lon":139.499573},{"name":"緑児童館","province":"東京都","city":"小金井市","address":"小金井市緑町4-18-25","lat":35.70964,"lon":139.51796},{"name":"本町児童館","province":"東京都","city":"小金井市","address":"小金井市本町5-4-25","lat":35.70201,"lon":139.50049},{"name":"東児童館","province":"東京都","city":"小金井市","address":"小金井市東町4-25-7","lat":35.69822,"lon":139.52672},{"name":"貫井南児童館","province":"東京都","city":"小金井市","address":"小金井市貫井南町4-3-23","lat":35.69389,"lon":139.49356},{"name":"＊?小金井市立図書館","province":"東京都","city":"小金井市","address":"小金井市本町1-1-32","lat":35.6977,"lon":139.510624},{"name":"＊?小金井市立図書館貫井北分室","province":"東京都","city":"小金井市","address":"小金井市貫井北町1-11-12","lat":35.702321,"lon":139.497695},{"name":"＊?小金井市立図書館東分室","province":"東京都","city":"小金井市","address":"小金井市東町1-39-1","lat":35.69399,"lon":139.526627},{"name":"＊?西之台会館図書室","province":"東京都","city":"小金井市","address":"小金井市前原町3-8-1","lat":35.693872,"lon":139.499611},{"name":"＊?小金井市立図書館緑分室","province":"東京都","city":"小金井市","address":"小金井市緑町3-3-23","lat":35.709552,"lon":139.516375},{"name":"緑児童館","province":"東京都","city":"小金井市","address":"小金井市緑町4-18-25","lat":35.709392,"lon":139.518064},{"name":"本町児童館","province":"東京都","city":"小金井市","address":"小金井市本町5-4-25","lat":35.70267,"lon":139.500944},{"name":"東児童館","province":"東京都","city":"小金井市","address":"小金井市東町4-25-7","lat":35.69766,"lon":139.526295},{"name":"貫井南児童館","province":"東京都","city":"小金井市","address":"小金井市貫井南町4-3-23","lat":35.693626,"lon":139.493617},{"name":"小金井市立図書館","province":"東京都","city":"小金井市","address":"東京都小金井市本町1丁目1-32","lat":35.697701,"lon":139.510621},{"name":"小金井市立図書館東分室","province":"東京都","city":"小金井市","address":"東京都小金井市東町1丁目39-1","lat":35.694005,"lon":139.526608},{"name":"小金井市立図書館緑分室","province":"東京都","city":"小金井市","address":"東京都小金井市緑","lat":35.709544,"lon":139.516322},{"name":"小金井市立図書館貫井北分室","province":"東京都","city":"小金井市","address":"東京都小金井市貫井北町1丁目-11-12","lat":35.702291,"lon":139.49774},{"name":"小金井市立図書館西之台会館図書室","province":"東京都","city":"小金井市","address":"東京都小金井市前原町3丁目-8-1","lat":35.693879,"lon":139.499573},{"name":"緑児童館","province":"東京都","city":"小金井市","address":"小金井市緑町4-18-25","lat":35.70964,"lon":139.51796},{"name":"本町児童館","province":"東京都","city":"小金井市","address":"小金井市本町5-4-25","lat":35.70201,"lon":139.50049},{"name":"東児童館","province":"東京都","city":"小金井市","address":"小金井市東町4-25-7","lat":35.69822,"lon":139.52672},{"name":"貫井南児童館","province":"東京都","city":"小金井市","address":"小金井市貫井南町4-3-23","lat":35.69389,"lon":139.49356},{"name":"＊?小金井市立図書館","province":"東京都","city":"小金井市","address":"小金井市本町1-1-32","lat":35.6977,"lon":139.510624},{"name":"＊?小金井市立図書館貫井北分室","province":"東京都","city":"小金井市","address":"小金井市貫井北町1-11-12","lat":35.702321,"lon":139.497695},{"name":"＊?小金井市立図書館東分室","province":"東京都","city":"小金井市","address":"小金井市東町1-39-1","lat":35.69399,"lon":139.526627},{"name":"＊?西之台会館図書室","province":"東京都","city":"小金井市","address":"小金井市前原町3-8-1","lat":35.693872,"lon":139.499611},{"name":"＊?小金井市立図書館緑分室","province":"東京都","city":"小金井市","address":"小金井市緑町3-3-23","lat":35.709552,"lon":139.516375},{"name":"緑児童館","province":"東京都","city":"小金井市","address":"小金井市緑町4-18-25","lat":35.709392,"lon":139.518064},{"name":"本町児童館","province":"東京都","city":"小金井市","address":"小金井市本町5-4-25","lat":35.70267,"lon":139.500944},{"name":"東児童館","province":"東京都","city":"小金井市","address":"小金井市東町4-25-7","lat":35.69766,"lon":139.526295},{"name":"貫井南児童館","province":"東京都","city":"小金井市","address":"小金井市貫井南町4-3-23","lat":35.693626,"lon":139.493617},{"name":"小金井市立図書館","province":"東京都","city":"小金井市","address":"東京都小金井市本町1丁目1-32","lat":35.697701,"lon":139.510621},{"name":"小金井市立図書館東分室","province":"東京都","city":"小金井市","address":"東京都小金井市東町1丁目39-1","lat":35.694005,"lon":139.526608},{"name":"小金井市立図書館緑分室","province":"東京都","city":"小金井市","address":"東京都小金井市緑","lat":35.709544,"lon":139.516322},{"name":"小金井市立図書館貫井北分室","province":"東京都","city":"小金井市","address":"東京都小金井市貫井北町1丁目-11-12","lat":35.702291,"lon":139.49774},{"name":"小金井市立図書館西之台会館図書室","province":"東京都","city":"小金井市","address":"東京都小金井市前原町3丁目-8-1","lat":35.693879,"lon":139.499573},{"name":"緑児童館","province":"東京都","city":"小金井市","address":"小金井市緑町4-18-25","lat":35.70964,"lon":139.51796},{"name":"本町児童館","province":"東京都","city":"小金井市","address":"小金井市本町5-4-25","lat":35.70201,"lon":139.50049},{"name":"東児童館","province":"東京都","city":"小金井市","address":"小金井市東町4-25-7","lat":35.69822,"lon":139.52672},{"name":"貫井南児童館","province":"東京都","city":"小金井市","address":"小金井市貫井南町4-3-23","lat":35.69389,"lon":139.49356},{"name":"＊?小金井市立図書館","province":"東京都","city":"小金井市","address":"小金井市本町1-1-32","lat":35.6977,"lon":139.510624},{"name":"＊?小金井市立図書館貫井北分室","province":"東京都","city":"小金井市","address":"小金井市貫井北町1-11-12","lat":35.702321,"lon":139.497695},{"name":"＊?小金井市立図書館東分室","province":"東京都","city":"小金井市","address":"小金井市東町1-39-1","lat":35.69399,"lon":139.526627},{"name":"＊?西之台会館図書室","province":"東京都","city":"小金井市","address":"小金井市前原町3-8-1","lat":35.693872,"lon":139.499611},{"name":"＊?小金井市立図書館緑分室","province":"東京都","city":"小金井市","address":"小金井市緑町3-3-23","lat":35.709552,"lon":139.516375},{"name":"緑児童館","province":"東京都","city":"小金井市","address":"小金井市緑町4-18-25","lat":35.709392,"lon":139.518064},{"name":"本町児童館","province":"東京都","city":"小金井市","address":"小金井市本町5-4-25","lat":35.70267,"lon":139.500944},{"name":"東児童館","province":"東京都","city":"小金井市","address":"小金井市東町4-25-7","lat":35.69766,"lon":139.526295},{"name":"貫井南児童館","province":"東京都","city":"小金井市","address":"小金井市貫井南町4-3-23","lat":35.693626,"lon":139.493617},{"name":"小金井市立図書館","province":"東京都","city":"小金井市","address":"東京都小金井市本町1丁目1-32","lat":35.697701,"lon":139.510621},{"name":"小金井市立図書館東分室","province":"東京都","city":"小金井市","address":"東京都小金井市東町1丁目39-1","lat":35.694005,"lon":139.526608},{"name":"小金井市立図書館緑分室","province":"東京都","city":"小金井市","address":"東京都小金井市緑","lat":35.709544,"lon":139.516322},{"name":"小金井市立図書館貫井北分室","province":"東京都","city":"小金井市","address":"東京都小金井市貫井北町1丁目-11-12","lat":35.702291,"lon":139.49774},{"name":"小金井市立図書館西之台会館図書室","province":"東京都","city":"小金井市","address":"東京都小金井市前原町3丁目-8-1","lat":35.693879,"lon":139.499573},{"name":"緑児童館","province":"東京都","city":"小金井市","address":"小金井市緑町4-18-25","lat":35.70964,"lon":139.51796},{"name":"本町児童館","province":"東京都","city":"小金井市","address":"小金井市本町5-4-25","lat":35.70201,"lon":139.50049},{"name":"東児童館","province":"東京都","city":"小金井市","address":"小金井市東町4-25-7","lat":35.69822,"lon":139.52672},{"name":"貫井南児童館","province":"東京都","city":"小金井市","address":"小金井市貫井南町4-3-23","lat":35.69389,"lon":139.49356},{"name":"＊?小金井市立図書館","province":"東京都","city":"小金井市","address":"小金井市本町1-1-32","lat":35.6977,"lon":139.510624},{"name":"＊?小金井市立図書館貫井北分室","province":"東京都","city":"小金井市","address":"小金井市貫井北町1-11-12","lat":35.702321,"lon":139.497695},{"name":"＊?小金井市立図書館東分室","province":"東京都","city":"小金井市","address":"小金井市東町1-39-1","lat":35.69399,"lon":139.526627},{"name":"＊?西之台会館図書室","province":"東京都","city":"小金井市","address":"小金井市前原町3-8-1","lat":35.693872,"lon":139.499611},{"name":"＊?小金井市立図書館緑分室","province":"東京都","city":"小金井市","address":"小金井市緑町3-3-23","lat":35.709552,"lon":139.516375},{"name":"緑児童館","province":"東京都","city":"小金井市","address":"小金井市緑町4-18-25","lat":35.709392,"lon":139.518064},{"name":"本町児童館","province":"東京都","city":"小金井市","address":"小金井市本町5-4-25","lat":35.70267,"lon":139.500944},{"name":"東児童館","province":"東京都","city":"小金井市","address":"小金井市東町4-25-7","lat":35.69766,"lon":139.526295},{"name":"貫井南児童館","province":"東京都","city":"小金井市","address":"小金井市貫井南町4-3-23","lat":35.693626,"lon":139.493617},{"name":"小金井市立図書館","province":"東京都","city":"小金井市","address":"東京都小金井市本町1丁目1-32","lat":35.697701,"lon":139.510621},{"name":"小金井市立図書館東分室","province":"東京都","city":"小金井市","address":"東京都小金井市東町1丁目39-1","lat":35.694005,"lon":139.526608},{"name":"小金井市立図書館緑分室","province":"東京都","city":"小金井市","address":"東京都小金井市緑","lat":35.709544,"lon":139.516322},{"name":"小金井市立図書館貫井北分室","province":"東京都","city":"小金井市","address":"東京都小金井市貫井北町1丁目-11-12","lat":35.702291,"lon":139.49774},{"name":"小金井市立図書館西之台会館図書室","province":"東京都","city":"小金井市","address":"東京都小金井市前原町3丁目-8-1","lat":35.693879,"lon":139.499573},{"name":"緑児童館","province":"東京都","city":"小金井市","address":"小金井市緑町4-18-25","lat":35.70964,"lon":139.51796},{"name":"本町児童館","province":"東京都","city":"小金井市","address":"小金井市本町5-4-25","lat":35.70201,"lon":139.50049},{"name":"東児童館","province":"東京都","city":"小金井市","address":"小金井市東町4-25-7","lat":35.69822,"lon":139.52672},{"name":"貫井南児童館","province":"東京都","city":"小金井市","address":"小金井市貫井南町4-3-23","lat":35.69389,"lon":139.49356},{"name":"＊?小金井市立図書館","province":"東京都","city":"小金井市","address":"小金井市本町1-1-32","lat":35.6977,"lon":139.510624},{"name":"＊?小金井市立図書館貫井北分室","province":"東京都","city":"小金井市","address":"小金井市貫井北町1-11-12","lat":35.702321,"lon":139.497695},{"name":"＊?小金井市立図書館東分室","province":"東京都","city":"小金井市","address":"小金井市東町1-39-1","lat":35.69399,"lon":139.526627},{"name":"＊?西之台会館図書室","province":"東京都","city":"小金井市","address":"小金井市前原町3-8-1","lat":35.693872,"lon":139.499611},{"name":"＊?小金井市立図書館緑分室","province":"東京都","city":"小金井市","address":"小金井市緑町3-3-23","lat":35.709552,"lon":139.516375},{"name":"緑児童館","province":"東京都","city":"小金井市","address":"小金井市緑町4-18-25","lat":35.709392,"lon":139.518064},{"name":"本町児童館","province":"東京都","city":"小金井市","address":"小金井市本町5-4-25","lat":35.70267,"lon":139.500944},{"name":"東児童館","province":"東京都","city":"小金井市","address":"小金井市東町4-25-7","lat":35.69766,"lon":139.526295},{"name":"貫井南児童館","province":"東京都","city":"小金井市","address":"小金井市貫井南町4-3-23","lat":35.693626,"lon":139.493617},{"name":"小金井市立図書館","province":"東京都","city":"小金井市","address":"東京都小金井市本町1丁目1-32","lat":35.697701,"lon":139.510621},{"name":"小金井市立図書館東分室","province":"東京都","city":"小金井市","address":"東京都小金井市東町1丁目39-1","lat":35.694005,"lon":139.526608},{"name":"小金井市立図書館緑分室","province":"東京都","city":"小金井市","address":"東京都小金井市緑","lat":35.709544,"lon":139.516322},{"name":"小金井市立図書館貫井北分室","province":"東京都","city":"小金井市","address":"東京都小金井市貫井北町1丁目-11-12","lat":35.702291,"lon":139.49774},{"name":"小金井市立図書館西之台会館図書室","province":"東京都","city":"小金井市","address":"東京都小金井市前原町3丁目-8-1","lat":35.693879,"lon":139.499573},{"name":"緑児童館","province":"東京都","city":"小金井市","address":"小金井市緑町4-18-25","lat":35.70964,"lon":139.51796},{"name":"本町児童館","province":"東京都","city":"小金井市","address":"小金井市本町5-4-25","lat":35.70201,"lon":139.50049},{"name":"東児童館","province":"東京都","city":"小金井市","address":"小金井市東町4-25-7","lat":35.69822,"lon":139.52672},{"name":"貫井南児童館","province":"東京都","city":"小金井市","address":"小金井市貫井南町4-3-23","lat":35.69389,"lon":139.49356},{"name":"＊?小金井市立図書館","province":"東京都","city":"小金井市","address":"小金井市本町1-1-32","lat":35.6977,"lon":139.510624},{"name":"＊?小金井市立図書館貫井北分室","province":"東京都","city":"小金井市","address":"小金井市貫井北町1-11-12","lat":35.702321,"lon":139.497695},{"name":"＊?小金井市立図書館東分室","province":"東京都","city":"小金井市","address":"小金井市東町1-39-1","lat":35.69399,"lon":139.526627},{"name":"＊?西之台会館図書室","province":"東京都","city":"小金井市","address":"小金井市前原町3-8-1","lat":35.693872,"lon":139.499611},{"name":"＊?小金井市立図書館緑分室","province":"東京都","city":"小金井市","address":"小金井市緑町3-3-23","lat":35.709552,"lon":139.516375},{"name":"緑児童館","province":"東京都","city":"小金井市","address":"小金井市緑町4-18-25","lat":35.709392,"lon":139.518064},{"name":"本町児童館","province":"東京都","city":"小金井市","address":"小金井市本町5-4-25","lat":35.70267,"lon":139.500944},{"name":"東児童館","province":"東京都","city":"小金井市","address":"小金井市東町4-25-7","lat":35.69766,"lon":139.526295},{"name":"貫井南児童館","province":"東京都","city":"小金井市","address":"小金井市貫井南町4-3-23","lat":35.693626,"lon":139.493617},{"name":"小金井市立図書館","province":"東京都","city":"小金井市","address":"東京都小金井市本町1丁目1-32","lat":35.697701,"lon":139.510621},{"name":"小金井市立図書館東分室","province":"東京都","city":"小金井市","address":"東京都小金井市東町1丁目39-1","lat":35.694005,"lon":139.526608},{"name":"小金井市立図書館緑分室","province":"東京都","city":"小金井市","address":"東京都小金井市緑","lat":35.709544,"lon":139.516322},{"name":"小金井市立図書館貫井北分室","province":"東京都","city":"小金井市","address":"東京都小金井市貫井北町1丁目-11-12","lat":35.702291,"lon":139.49774},{"name":"小金井市立図書館西之台会館図書室","province":"東京都","city":"小金井市","address":"東京都小金井市前原町3丁目-8-1","lat":35.693879,"lon":139.499573},{"name":"緑児童館","province":"東京都","city":"小金井市","address":"小金井市緑町4-18-25","lat":35.70964,"lon":139.51796},{"name":"本町児童館","province":"東京都","city":"小金井市","address":"小金井市本町5-4-25","lat":35.70201,"lon":139.50049},{"name":"東児童館","province":"東京都","city":"小金井市","address":"小金井市東町4-25-7","lat":35.69822,"lon":139.52672},{"name":"貫井南児童館","province":"東京都","city":"小金井市","address":"小金井市貫井南町4-3-23","lat":35.69389,"lon":139.49356},{"name":"＊?小金井市立図書館","province":"東京都","city":"小金井市","address":"小金井市本町1-1-32","lat":35.6977,"lon":139.510624},{"name":"＊?小金井市立図書館貫井北分室","province":"東京都","city":"小金井市","address":"小金井市貫井北町1-11-12","lat":35.702321,"lon":139.497695},{"name":"＊?小金井市立図書館東分室","province":"東京都","city":"小金井市","address":"小金井市東町1-39-1","lat":35.69399,"lon":139.526627},{"name":"＊?西之台会館図書室","province":"東京都","city":"小金井市","address":"小金井市前原町3-8-1","lat":35.693872,"lon":139.499611},{"name":"＊?小金井市立図書館緑分室","province":"東京都","city":"小金井市","address":"小金井市緑町3-3-23","lat":35.709552,"lon":139.516375},{"name":"緑児童館","province":"東京都","city":"小金井市","address":"小金井市緑町4-18-25","lat":35.709392,"lon":139.518064},{"name":"本町児童館","province":"東京都","city":"小金井市","address":"小金井市本町5-4-25","lat":35.70267,"lon":139.500944},{"name":"東児童館","province":"東京都","city":"小金井市","address":"小金井市東町4-25-7","lat":35.69766,"lon":139.526295},{"name":"貫井南児童館","province":"東京都","city":"小金井市","address":"小金井市貫井南町4-3-23","lat":35.693626,"lon":139.493617},{"name":"小金井市立図書館","province":"東京都","city":"小金井市","address":"東京都小金井市本町1丁目1-32","lat":35.697701,"lon":139.510621},{"name":"小金井市立図書館東分室","province":"東京都","city":"小金井市","address":"東京都小金井市東町1丁目39-1","lat":35.694005,"lon":139.526608},{"name":"小金井市立図書館緑分室","province":"東京都","city":"小金井市","address":"東京都小金井市緑","lat":35.709544,"lon":139.516322},{"name":"小金井市立図書館貫井北分室","province":"東京都","city":"小金井市","address":"東京都小金井市貫井北町1丁目-11-12","lat":35.702291,"lon":139.49774},{"name":"小金井市立図書館西之台会館図書室","province":"東京都","city":"小金井市","address":"東京都小金井市前原町3丁目-8-1","lat":35.693879,"lon":139.499573},{"name":"緑児童館","province":"東京都","city":"小金井市","address":"小金井市緑町4-18-25","lat":35.70964,"lon":139.51796},{"name":"本町児童館","province":"東京都","city":"小金井市","address":"小金井市本町5-4-25","lat":35.70201,"lon":139.50049},{"name":"東児童館","province":"東京都","city":"小金井市","address":"小金井市東町4-25-7","lat":35.69822,"lon":139.52672},{"name":"貫井南児童館","province":"東京都","city":"小金井市","address":"小金井市貫井南町4-3-23","lat":35.69389,"lon":139.49356},{"name":"＊?小金井市立図書館","province":"東京都","city":"小金井市","address":"小金井市本町1-1-32","lat":35.6977,"lon":139.510624},{"name":"＊?小金井市立図書館貫井北分室","province":"東京都","city":"小金井市","address":"小金井市貫井北町1-11-12","lat":35.702321,"lon":139.497695},{"name":"＊?小金井市立図書館東分室","province":"東京都","city":"小金井市","address":"小金井市東町1-39-1","lat":35.69399,"lon":139.526627},{"name":"＊?西之台会館図書室","province":"東京都","city":"小金井市","address":"小金井市前原町3-8-1","lat":35.693872,"lon":139.499611},{"name":"＊?小金井市立図書館緑分室","province":"東京都","city":"小金井市","address":"小金井市緑町3-3-23","lat":35.709552,"lon":139.516375},{"name":"緑児童館","province":"東京都","city":"小金井市","address":"小金井市緑町4-18-25","lat":35.709392,"lon":139.518064},{"name":"本町児童館","province":"東京都","city":"小金井市","address":"小金井市本町5-4-25","lat":35.70267,"lon":139.500944},{"name":"東児童館","province":"東京都","city":"小金井市","address":"小金井市東町4-25-7","lat":35.69766,"lon":139.526295},{"name":"貫井南児童館","province":"東京都","city":"小金井市","address":"小金井市貫井南町4-3-23","lat":35.693626,"lon":139.493617},{"name":"小金井市立図書館","province":"東京都","city":"小金井市","address":"東京都小金井市本町1丁目1-32","lat":35.697701,"lon":139.510621},{"name":"小金井市立図書館東分室","province":"東京都","city":"小金井市","address":"東京都小金井市東町1丁目39-1","lat":35.694005,"lon":139.526608},{"name":"小金井市立図書館緑分室","province":"東京都","city":"小金井市","address":"東京都小金井市緑","lat":35.709544,"lon":139.516322},{"name":"小金井市立図書館貫井北分室","province":"東京都","city":"小金井市","address":"東京都小金井市貫井北町1丁目-11-12","lat":35.702291,"lon":139.49774},{"name":"小金井市立図書館西之台会館図書室","province":"東京都","city":"小金井市","address":"東京都小金井市前原町3丁目-8-1","lat":35.693879,"lon":139.499573},{"name":"緑児童館","province":"東京都","city":"小金井市","address":"小金井市緑町4-18-25","lat":35.70964,"lon":139.51796},{"name":"本町児童館","province":"東京都","city":"小金井市","address":"小金井市本町5-4-25","lat":35.70201,"lon":139.50049},{"name":"東児童館","province":"東京都","city":"小金井市","address":"小金井市東町4-25-7","lat":35.69822,"lon":139.52672},{"name":"貫井南児童館","province":"東京都","city":"小金井市","address":"小金井市貫井南町4-3-23","lat":35.69389,"lon":139.49356},{"name":"＊?小金井市立図書館","province":"東京都","city":"小金井市","address":"小金井市本町1-1-32","lat":35.6977,"lon":139.510624},{"name":"＊?小金井市立図書館貫井北分室","province":"東京都","city":"小金井市","address":"小金井市貫井北町1-11-12","lat":35.702321,"lon":139.497695},{"name":"＊?小金井市立図書館東分室","province":"東京都","city":"小金井市","address":"小金井市東町1-39-1","lat":35.69399,"lon":139.526627},{"name":"＊?西之台会館図書室","province":"東京都","city":"小金井市","address":"小金井市前原町3-8-1","lat":35.693872,"lon":139.499611},{"name":"＊?小金井市立図書館緑分室","province":"東京都","city":"小金井市","address":"小金井市緑町3-3-23","lat":35.709552,"lon":139.516375},{"name":"緑児童館","province":"東京都","city":"小金井市","address":"小金井市緑町4-18-25","lat":35.709392,"lon":139.518064},{"name":"本町児童館","province":"東京都","city":"小金井市","address":"小金井市本町5-4-25","lat":35.70267,"lon":139.500944},{"name":"東児童館","province":"東京都","city":"小金井市","address":"小金井市東町4-25-7","lat":35.69766,"lon":139.526295},{"name":"貫井南児童館","province":"東京都","city":"小金井市","address":"小金井市貫井南町4-3-23","lat":35.693626,"lon":139.493617},{"name":"小金井市立図書館","province":"東京都","city":"小金井市","address":"東京都小金井市本町1丁目1-32","lat":35.697701,"lon":139.510621},{"name":"小金井市立図書館東分室","province":"東京都","city":"小金井市","address":"東京都小金井市東町1丁目39-1","lat":35.694005,"lon":139.526608},{"name":"小金井市立図書館緑分室","province":"東京都","city":"小金井市","address":"東京都小金井市緑","lat":35.709544,"lon":139.516322},{"name":"小金井市立図書館貫井北分室","province":"東京都","city":"小金井市","address":"東京都小金井市貫井北町1丁目-11-12","lat":35.702291,"lon":139.49774},{"name":"小金井市立図書館西之台会館図書室","province":"東京都","city":"小金井市","address":"東京都小金井市前原町3丁目-8-1","lat":35.693879,"lon":139.499573},{"name":"緑児童館","province":"東京都","city":"小金井市","address":"小金井市緑町4-18-25","lat":35.70964,"lon":139.51796},{"name":"本町児童館","province":"東京都","city":"小金井市","address":"小金井市本町5-4-25","lat":35.70201,"lon":139.50049},{"name":"東児童館","province":"東京都","city":"小金井市","address":"小金井市東町4-25-7","lat":35.69822,"lon":139.52672},{"name":"貫井南児童館","province":"東京都","city":"小金井市","address":"小金井市貫井南町4-3-23","lat":35.69389,"lon":139.49356},{"name":"＊?小金井市立図書館","province":"東京都","city":"小金井市","address":"小金井市本町1-1-32","lat":35.6977,"lon":139.510624},{"name":"＊?小金井市立図書館貫井北分室","province":"東京都","city":"小金井市","address":"小金井市貫井北町1-11-12","lat":35.702321,"lon":139.497695},{"name":"＊?小金井市立図書館東分室","province":"東京都","city":"小金井市","address":"小金井市東町1-39-1","lat":35.69399,"lon":139.526627},{"name":"＊?西之台会館図書室","province":"東京都","city":"小金井市","address":"小金井市前原町3-8-1","lat":35.693872,"lon":139.499611},{"name":"＊?小金井市立図書館緑分室","province":"東京都","city":"小金井市","address":"小金井市緑町3-3-23","lat":35.709552,"lon":139.516375}]}