{"keyword":"集会","data":[{"name":"市民会館 （萌え木ホール）","province":"東京都","city":"小金井市","address":"東京都小金井市前原町3丁目33-25","lat":35.69893146,"lon":139.5024743},{"name":"東小金井駅開設記念会館（マロンホール）","province":"東京都","city":"小金井市","address":"東京都小金井市東町3丁目7-21","lat":35.70026535,"lon":139.52904704},{"name":"前原暫定集会施設","province":"東京都","city":"小金井市","address":"東京都小金井市前原町3丁目33-27","lat":35.69891202,"lon":139.50262151},{"name":"婦人会館","province":"東京都","city":"小金井市","address":"東京都小金井市梶野町5丁目10-32","lat":35.70495366,"lon":139.5264804},{"name":"上之原会館","province":"東京都","city":"小金井市","address":"東京都小金井市本町5丁目6-19","lat":35.70252549,"lon":139.50201586},{"name":"前原町西之台会館","province":"東京都","city":"小金井市","address":"東京都小金井市前原町3丁目8-1","lat":35.69391528,"lon":139.49958585},{"name":"桜町上水会館","province":"東京都","city":"小金井市","address":"東京都小金井市桜町2丁目8-13","lat":35.71088575,"lon":139.50495693},{"name":"貫井北町集会場","province":"東京都","city":"小金井市","address":"東京都小金井市貫井北町3丁目31-17","lat":35.71155208,"lon":139.49595488},{"name":"貫井北町中之久保集会所","province":"東京都","city":"小金井市","address":"東京都小金井市貫井北町1丁目18-21","lat":35.70261971,"lon":139.49436649},{"name":"前原町丸山台集会所","province":"東京都","city":"小金井市","address":"東京都小金井市前原町4丁目18-14","lat":35.6905852,"lon":139.50343011},{"name":"貫井南町三楽集会所","province":"東京都","city":"小金井市","address":"東京都小金井市貫井南町3丁目6-18","lat":35.69950063,"lon":139.49511933},{"name":"東町友愛会館","province":"東京都","city":"小金井市","address":"東京都小金井市東町4丁目10-2","lat":35.69457696,"lon":139.52368384},{"name":"中町桜並集会所","province":"東京都","city":"小金井市","address":"東京都小金井市中町3丁目19-12","lat":35.70013995,"lon":139.51267897},{"name":"貫井北五集会所","province":"東京都","city":"小金井市","address":"東京都小金井市貫井北町5丁目16-13","lat":35.70290563,"lon":139.48851974},{"name":"中町天神前集会所","province":"東京都","city":"小金井市","address":"東京都小金井市中町1丁目7-7","lat":35.69348506,"lon":139.50991835},{"name":"東町集会所(東ｾﾝﾀｰ内)","province":"東京都","city":"小金井市","address":"東京都小金井市東町1丁目39-1","lat":35.69401043,"lon":139.52652529}]}