{"keyword":"音響","data":[{"name":"前原坂上","province":"東京都","city":"小金井市","address":"東京都小金井市前原町3丁目41-24","lat":35.6986316,"lon":139.50591292},{"name":"小金井本町二丁目","province":"東京都","city":"小金井市","address":"東京都小金井市本町4丁目1-38","lat":35.70565307,"lon":139.50749306},{"name":"小金井第一小学校前第一","province":"東京都","city":"小金井市","address":"東京都小金井市中町1丁目9-19","lat":35.6972291,"lon":139.51038483},{"name":"貫井北町学芸大角","province":"東京都","city":"小金井市","address":"東京都小金井市貫井北町2丁目18-6","lat":35.70764141,"lon":139.4961078},{"name":"武蔵小金井駅北口","province":"東京都","city":"小金井市","address":"東京都小金井市本町5丁目1","lat":35.70118684,"lon":139.5051351},{"name":"小金井中町三丁目","province":"東京都","city":"小金井市","address":"東京都小金井市本町1丁目13-3","lat":35.69889837,"lon":139.51099305},{"name":"小金井市保健センター前","province":"東京都","city":"小金井市","address":"東京都小金井市貫井北町5丁目18-18","lat":35.70169192,"lon":139.49017242},{"name":"学芸大東門前","province":"東京都","city":"小金井市","address":"東京都小金井市貫井北町2丁目4-16","lat":35.70494728,"lon":139.49679119},{"name":"小金井郵便局前","province":"東京都","city":"小金井市","address":"東京都小金井市本町5丁目37-30","lat":35.70514197,"lon":139.50575434},{"name":"小金井消防署前","province":"東京都","city":"小金井市","address":"東京都小金井市本町6丁目6-1","lat":35.69930923,"lon":139.50345476},{"name":"貫井南町五丁目","province":"東京都","city":"小金井市","address":"東京都小金井市貫井南町4丁目1","lat":35.69376794,"lon":139.49453073},{"name":"小金井第一小学校前第二","province":"東京都","city":"小金井市","address":"東京都小金井市中町1丁目9-21","lat":35.69712911,"lon":139.51062092},{"name":"栗山公園前","province":"東京都","city":"小金井市","address":"東京都小金井市中町2丁目21","lat":35.69846815,"lon":139.52146721},{"name":"公園駐車場入口","province":"東京都","city":"小金井市","address":"東京都小金井市関野町1丁目7","lat":35.71356918,"lon":139.51856958},{"name":"小金井商工会館前","province":"東京都","city":"小金井市","address":"東京都小金井市本町5丁目9","lat":35.70193395,"lon":139.50385184},{"name":"市立南中学校前","province":"東京都","city":"小金井市","address":"東京都小金井市貫井南町1丁目24-1","lat":35.69076836,"lon":139.49776947},{"name":"小金井福祉会館前","province":"東京都","city":"小金井市","address":"東京都小金井市中町4丁目15-14","lat":35.69811781,"lon":139.50769057},{"name":"小金井本町二丁目南","province":"東京都","city":"小金井市","address":"東京都小金井市本町2丁目6-12","lat":35.70363109,"lon":139.50777923},{"name":"小金井本町五丁目","province":"東京都","city":"小金井市","address":"東京都小金井市本町5丁目13-1","lat":35.70211735,"lon":139.5070238},{"name":"農工大通り入口","province":"東京都","city":"小金井市","address":"東京都小金井市本町6丁目14-45","lat":35.7001731,"lon":139.50662947},{"name":"小金井公園西門","province":"東京都","city":"小金井市","address":"東京都小金井市桜町3丁目7","lat":35.71347722,"lon":139.50841486},{"name":"小金井東小学校前","province":"東京都","city":"小金井市","address":"東京都小金井市東町4丁目25-7","lat":35.69766002,"lon":139.5262946},{"name":"武蔵小金井駅北第二","province":"東京都","city":"小金井市","address":"東京都小金井市本町5丁目1","lat":35.70118684,"lon":139.5051351},{"name":"小金井市役所","province":"東京都","city":"小金井市","address":"東京都小金井市本町6丁目2","lat":35.69969535,"lon":139.5055018},{"name":"学芸大北門前","province":"東京都","city":"小金井市","address":"東京都小金井市貫井北町3丁目9-6","lat":35.70835512,"lon":139.49218866},{"name":"栗山公園北","province":"東京都","city":"小金井市","address":"東京都小金井市中町2丁目22-32","lat":35.69972913,"lon":139.52174491},{"name":"武蔵小金井駅南口","province":"東京都","city":"小金井市","address":"東京都小金井市本町1丁目18-10","lat":35.70068419,"lon":139.50759048},{"name":"武蔵小金井駅北口東","province":"東京都","city":"小金井市","address":"東京都小金井市本町5丁目12","lat":35.70177847,"lon":139.5061711},{"name":"前原交番東","province":"東京都","city":"小金井市","address":"東京都小金井市前原町4丁目10-11","lat":35.68921588,"lon":139.50260523}]}