{"keyword":"館","data":[{"name":"緑児童館","province":"東京都","city":"小金井市","address":"小金井市緑町4-18-25","lat":35.709392,"lon":139.518064},{"name":"本町児童館","province":"東京都","city":"小金井市","address":"小金井市本町5-4-25","lat":35.70267,"lon":139.500944},{"name":"東児童館","province":"東京都","city":"小金井市","address":"小金井市東町4-25-7","lat":35.69766,"lon":139.526295},{"name":"貫井南児童館","province":"東京都","city":"小金井市","address":"小金井市貫井南町4-3-23","lat":35.693626,"lon":139.493617},{"name":"小金井市立図書館","province":"東京都","city":"小金井市","address":"東京都小金井市本町1丁目1-32","lat":35.697701,"lon":139.510621},{"name":"小金井市立図書館東分室","province":"東京都","city":"小金井市","address":"東京都小金井市東町1丁目39-1","lat":35.694005,"lon":139.526608},{"name":"小金井市立図書館緑分室","province":"東京都","city":"小金井市","address":"東京都小金井市緑","lat":35.709544,"lon":139.516322},{"name":"小金井市立図書館貫井北分室","province":"東京都","city":"小金井市","address":"東京都小金井市貫井北町1丁目-11-12","lat":35.702291,"lon":139.49774},{"name":"小金井市立図書館西之台会館図書室","province":"東京都","city":"小金井市","address":"東京都小金井市前原町3丁目-8-1","lat":35.693879,"lon":139.499573},{"name":"緑児童館","province":"東京都","city":"小金井市","address":"小金井市緑町4-18-25","lat":35.70964,"lon":139.51796},{"name":"本町児童館","province":"東京都","city":"小金井市","address":"小金井市本町5-4-25","lat":35.70201,"lon":139.50049},{"name":"東児童館","province":"東京都","city":"小金井市","address":"小金井市東町4-25-7","lat":35.69822,"lon":139.52672},{"name":"貫井南児童館","province":"東京都","city":"小金井市","address":"小金井市貫井南町4-3-23","lat":35.69389,"lon":139.49356},{"name":"＊?小金井市立図書館","province":"東京都","city":"小金井市","address":"小金井市本町1-1-32","lat":35.6977,"lon":139.510624},{"name":"＊?小金井市立図書館貫井北分室","province":"東京都","city":"小金井市","address":"小金井市貫井北町1-11-12","lat":35.702321,"lon":139.497695},{"name":"＊?小金井市立図書館東分室","province":"東京都","city":"小金井市","address":"小金井市東町1-39-1","lat":35.69399,"lon":139.526627},{"name":"＊?西之台会館図書室","province":"東京都","city":"小金井市","address":"小金井市前原町3-8-1","lat":35.693872,"lon":139.499611},{"name":"＊?小金井市立図書館緑分室","province":"東京都","city":"小金井市","address":"小金井市緑町3-3-23","lat":35.709552,"lon":139.516375}]}