{"keyword":"館","data":[{"name":"西神田児童センター","province":"東京都","city":"千代田区","address":"千代田区西神田2-6-2","lat":35.69904,"lon":139.75476},{"name":"港区立麻布子ども中高生プラザ","province":"東京都","city":"港区","address":"港区南麻布4-6-7","lat":35.65039,"lon":139.72707},{"name":"台東区立谷中児童館","province":"東京都","city":"台東区","address":"台東区谷中5-6-5谷中防災コミュニティセンター内","lat":35.72578,"lon":139.76668},{"name":"本所賀川記念館児童クラブ・学童クラブ","province":"東京都","city":"墨田区","address":"墨田区東駒形4-6-2","lat":35.70623,"lon":139.80548},{"name":"亀戸第二児童館","province":"東京都","city":"江東区","address":"江東区亀戸1-24-6","lat":35.69462,"lon":139.8242},{"name":"東大井児童センター","province":"東京都","city":"品川区","address":"品川区東大井3-4-4","lat":35.60338,"lon":139.73846},{"name":"杉並区立子ども・子育てプラザ高円寺","province":"東京都","city":"杉並区","address":"杉並区高円寺南2丁目52番2号","lat":35.70226,"lon":139.65114},{"name":"杉並区立子ども・子育てプラザ成田西","province":"東京都","city":"杉並区","address":"杉並区成田西3-10-38","lat":35.69208,"lon":139.63077},{"name":"杉並区立子ども・子育てプラザ下井草","province":"東京都","city":"杉並区","address":"杉並区下井草3-13-9","lat":35.71944,"lon":139.62474},{"name":"杉並区立子ども・子育てプラザ天沼","province":"東京都","city":"杉並区","address":"杉並区天沼3-19-16","lat":35.71005,"lon":139.62056},{"name":"杉並区立子ども・子育てプラザ善福寺","province":"東京都","city":"杉並区","address":"杉並区善福寺1-18-9","lat":35.71328,"lon":139.59775},{"name":"浮間子どもティーンズセンター","province":"東京都","city":"北区","address":"北区浮間4ー29ー32","lat":35.7901,"lon":139.69252},{"name":"渋江児童館","province":"東京都","city":"葛飾区","address":"葛飾区東四つ木2-15-11","lat":35.7308,"lon":139.84355},{"name":"葛飾区児童会館","province":"東京都","city":"葛飾区","address":"葛飾区西新小岩4-33-10新小岩学び交流館内","lat":35.71869,"lon":139.85342},{"name":"葛飾区金町子どもセンター","province":"東京都","city":"葛飾区","address":"葛飾区東金町3-8-1","lat":35.77158,"lon":139.87549},{"name":"まんがんじ児童館","province":"東京都","city":"日野市","address":"日野市万願寺4-20-12","lat":35.670975,"lon":139.41539},{"name":"狛江市立北部児童館","province":"東京都","city":"狛江市","address":"狛江市和泉本町3-31-19","lat":35.64188,"lon":139.57559},{"name":"連光寺児童館","province":"東京都","city":"多摩市","address":"多摩市連光寺3-3-21","lat":35.6443,"lon":139.459},{"name":"第四児童館","province":"東京都","city":"稲城市","address":"稲城市東長沼271","lat":35.64565,"lon":139.50616},{"name":"城山児童館","province":"東京都","city":"稲城市","address":"稲城市向陽台6-7","lat":35.64127,"lon":139.49081},{"name":"第二児童館","province":"東京都","city":"稲城市","address":"稲城市矢野口1780","lat":35.63509,"lon":139.51866},{"name":"第三児童館","province":"東京都","city":"稲城市","address":"稲城市平尾1-20-5","lat":35.61317,"lon":139.4921},{"name":"善福寺児童館","province":"東京都","city":"杉並区","address":"杉並区善福寺1-18-9","lat":35.71328,"lon":139.59775},{"name":"玉姫児童館","province":"東京都","city":"台東区","address":"台東区清川2-22-13","lat":35.727475,"lon":139.803782},{"name":"こどもの森児童館","province":"東京都","city":"目黒区","address":"目黒区本町1-16-17","lat":35.626945,"lon":139.694039},{"name":"目黒区立平町児童館","province":"東京都","city":"目黒区","address":"目黒区平町1-5-3","lat":35.617264,"lon":139.682297},{"name":"児童青少年センター　フレンズ本町","province":"東京都","city":"渋谷区","address":"渋谷区本町6-6-2","lat":35.682102,"lon":139.679535},{"name":"杉並区立子ども・子育てプラザ成田西","province":"東京都","city":"杉並区","address":"杉並区成田西3-10-38","lat":35.691183,"lon":139.630706},{"name":"杉並区立子ども・子育てプラザ下井草","province":"東京都","city":"杉並区","address":"杉並区下井草3-13-9","lat":35.719396,"lon":139.624571},{"name":"葛飾区児童会館","province":"東京都","city":"葛飾区","address":"葛飾区西新小岩4-33-10","lat":35.718574,"lon":139.853199},{"name":"木曽子どもクラブ","province":"東京都","city":"町田市","address":"町田市木曽東1-6-40","lat":35.557823,"lon":139.430771},{"name":"小山子どもクラブ","province":"東京都","city":"町田市","address":"町田市小山町1165-3","lat":35.595264,"lon":139.371873},{"name":"狛江市立北部児童館","province":"東京都","city":"狛江市","address":"狛江市和泉本町3-31-19","lat":35.642016,"lon":139.575277},{"name":"けやき児童館","province":"東京都","city":"東久留米市","address":"東久留米市大門町2-10-5","lat":35.765045,"lon":139.54039},{"name":"第二児童館","province":"東京都","city":"稲城市","address":"稲城市矢野口1780","lat":35.635108,"lon":139.518921},{"name":"ひばりが丘児童センター","province":"東京都","city":"西東京市","address":"西東京市ひばりが丘3-1-25","lat":35.746422,"lon":139.53688},{"name":"こどもの森児童館","province":"東京都","city":"目黒区","address":"目黒区目黒本町1-16-17","lat":35.62682,"lon":139.69431},{"name":"目黒区立平町児童館","province":"東京都","city":"目黒区","address":"目黒区平町1-5-3","lat":35.61709,"lon":139.68182},{"name":"大森東四丁目センター","province":"東京都","city":"大田区","address":"大田区大森東4-24-6","lat":35.56722,"lon":139.74054},{"name":"代田南児童館","province":"東京都","city":"世田谷区","address":"世田谷区代田1-21-11","lat":35.65244,"lon":139.66179},{"name":"弥生児童館","province":"東京都","city":"中野区","address":"中野区弥生町1-14-6","lat":35.69039,"lon":139.68069},{"name":"阿佐谷児童館","province":"東京都","city":"杉並区","address":"杉並区阿佐谷北1-6-14","lat":35.70658,"lon":139.6376},{"name":"西荻北児童館","province":"東京都","city":"杉並区","address":"杉並区西荻北1-9-5","lat":35.70479,"lon":139.60913},{"name":"興本児童館","province":"東京都","city":"足立区","address":"足立区本木東町17-10","lat":35.76722,"lon":139.78117},{"name":"みなみだいら児童館　ぷらねっと","province":"東京都","city":"日野市","address":"日野市南平6-12-113","lat":35.65707,"lon":139.39397},{"name":"落合児童館","province":"東京都","city":"多摩市","address":"多摩市落合5ー6","lat":35.61343,"lon":139.42415},{"name":"赤坂子ども中高生プラザ","province":"東京都","city":"港区","address":"港区赤坂6-6-14","lat":35.66995,"lon":139.73732},{"name":"西新宿児童館","province":"東京都","city":"新宿区","address":"新宿区西新宿4-35-28","lat":35.68602,"lon":139.68749},{"name":"千石児童館","province":"東京都","city":"文京区","address":"文京区千石1-4-3","lat":35.72475,"lon":139.7432},{"name":"湯島児童館","province":"東京都","city":"文京区","address":"文京区本郷3-10-18","lat":35.70408,"lon":139.76379},{"name":"千束児童館","province":"東京都","city":"台東区","address":"台東区千束3-20-6","lat":35.72279,"lon":139.79273},{"name":"松が谷児童館","province":"東京都","city":"台東区","address":"台東区松が谷4-15-11","lat":35.71858,"lon":139.78609},{"name":"中川児童館","province":"東京都","city":"墨田区","address":"墨田区立花5-18-9","lat":35.71285,"lon":139.83092},{"name":"文花児童館","province":"東京都","city":"墨田区","address":"墨田区文花1-32-11","lat":35.70822,"lon":139.82427},{"name":"平野児童館","province":"東京都","city":"江東区","address":"江東区平野1-2-3","lat":35.67817,"lon":139.79894},{"name":"古石場児童館","province":"東京都","city":"江東区","address":"江東区古石場1-11-11","lat":35.66929,"lon":139.79507},{"name":"三ツ木児童センター","province":"東京都","city":"品川区","address":"品川区西品川2-6-13","lat":35.614,"lon":139.72658},{"name":"大原児童センター","province":"東京都","city":"品川区","address":"品川区戸越6-16-1","lat":35.60716,"lon":139.7155},{"name":"後地児童センター","province":"東京都","city":"品川区","address":"品川区小山2-9-19","lat":35.62122,"lon":139.70931},{"name":"こどもの森児童館","province":"東京都","city":"目黒区","address":"目黒区本町1-16-17","lat":35.64046,"lon":139.6987},{"name":"大森中児童館","province":"東京都","city":"大田区","address":"大田区大森中2-13-5","lat":35.56825,"lon":139.7348},{"name":"東糀谷児童館","province":"東京都","city":"大田区","address":"大田区東糀谷4-1-7","lat":35.55673,"lon":139.743},{"name":"萩中児童館","province":"東京都","city":"大田区","address":"大田区萩中1-1-8","lat":35.55213,"lon":139.72286},{"name":"田園調布二丁目児童館","province":"東京都","city":"大田区","address":"大田区田園調布2-17-2","lat":35.59512,"lon":139.67275},{"name":"徳持児童館","province":"東京都","city":"大田区","address":"大田区池上8-13-4","lat":35.56933,"lon":139.6984},{"name":"鵜の木児童館","province":"東京都","city":"大田区","address":"大田区鵜の木3-34-7","lat":35.57583,"lon":139.67539},{"name":"新町児童館","province":"東京都","city":"世田谷区","address":"世田谷区新町2-23-4-101","lat":35.6303,"lon":139.64734},{"name":"桜丘児童館","province":"東京都","city":"世田谷区","address":"世田谷区桜丘5-14-1","lat":35.64478,"lon":139.62203},{"name":"成城さくら児童館","province":"東京都","city":"世田谷区","address":"世田谷区成城3-18-23","lat":35.63368,"lon":139.5983},{"name":"大和西児童館","province":"東京都","city":"中野区","address":"中野区大和町4-14-9","lat":35.71419,"lon":139.64623},{"name":"和田中央児童館","province":"東京都","city":"杉並区","address":"杉並区和田1-38-18","lat":35.69204,"lon":139.66097},{"name":"四宮森児童館","province":"東京都","city":"杉並区","address":"杉並区上井草2-41-11","lat":35.72463,"lon":139.60822},{"name":"松庵児童館","province":"東京都","city":"杉並区","address":"杉並区松庵2-23-34","lat":35.69964,"lon":139.59293},{"name":"上高井戸児童館","province":"東京都","city":"杉並区","address":"杉並区高井戸東1-18-5","lat":35.68255,"lon":139.6199},{"name":"宮前北児童館","province":"東京都","city":"杉並区","address":"杉並区宮前3-29-6","lat":35.69684,"lon":139.60841},{"name":"豊島区立ジャンプ長崎","province":"東京都","city":"豊島区","address":"豊島区長崎2-24-13","lat":35.72928,"lon":139.69103},{"name":"滝野川東児童館","province":"東京都","city":"北区","address":"北区滝野川1-46-7","lat":35.74682,"lon":139.73413},{"name":"赤羽北児童館","province":"東京都","city":"北区","address":"北区赤羽北1-5-5","lat":35.78613,"lon":139.71491},{"name":"峡田ふれあい館","province":"東京都","city":"荒川区","address":"荒川区荒川3-3-10","lat":35.73388,"lon":139.7842},{"name":"熊野前ひろば館","province":"東京都","city":"荒川区","address":"荒川区東尾久5-9-3","lat":35.74841,"lon":139.76885},{"name":"大山東児童館","province":"東京都","city":"板橋区","address":"板橋区大山東町8-7","lat":35.74751,"lon":139.70606},{"name":"弥生児童館","province":"東京都","city":"板橋区","address":"板橋区弥生町16-3","lat":35.75316,"lon":139.6946},{"name":"蓮根第二児童館","province":"東京都","city":"板橋区","address":"板橋区蓮根3-15-1-104","lat":35.78869,"lon":139.67647},{"name":"西徳児童館","province":"東京都","city":"板橋区","address":"板橋区西台4-4-37","lat":35.77062,"lon":139.66808},{"name":"なります児童館","province":"東京都","city":"板橋区","address":"板橋区成増3-34-21","lat":35.78156,"lon":139.63178},{"name":"関町北地区区民館","province":"東京都","city":"練馬区","address":"練馬区関町北4-12-21","lat":35.72981,"lon":139.57707},{"name":"北町地区区民館","province":"東京都","city":"練馬区","address":"練馬区北町2-26-1","lat":35.76787,"lon":139.66036},{"name":"大谷田児童館","province":"東京都","city":"足立区","address":"足立区大谷田1-1-2-101","lat":35.77963,"lon":139.84354},{"name":"竹の塚六月児童館","province":"東京都","city":"足立区","address":"足立区六月2-26-3-101","lat":35.78807,"lon":139.79656},{"name":"宝町児童館","province":"東京都","city":"葛飾区","address":"葛飾区宝町1-5-1","lat":35.74249,"lon":139.83518},{"name":"梅田児童館","province":"東京都","city":"葛飾区","address":"葛飾区立石3-26-10","lat":35.74092,"lon":139.84522},{"name":"新水元児童館","province":"東京都","city":"葛飾区","address":"葛飾区東水元3-5-7","lat":35.78404,"lon":139.86614},{"name":"白鳥児童館","province":"東京都","city":"葛飾区","address":"葛飾区白鳥3-32-6","lat":35.75538,"lon":139.84432},{"name":"共育プラザ中央","province":"東京都","city":"江戸川区","address":"江戸川区松島1-38-1グリーンパレス内","lat":35.70606,"lon":139.86636},{"name":"共育プラザ南小岩","province":"東京都","city":"江戸川区","address":"江戸川区南小岩4-5-8","lat":35.72096,"lon":139.88564},{"name":"共育プラザ南篠崎","province":"東京都","city":"江戸川区","address":"江戸川区南篠崎町3-12-8","lat":35.69663,"lon":139.89914},{"name":"由木児童館","province":"東京都","city":"八王子市","address":"八王子市越野692-1","lat":35.62956,"lon":139.38437},{"name":"新町児童館","province":"東京都","city":"府中市","address":"府中市新町1-66","lat":35.68704,"lon":139.48955},{"name":"昭島市児童センター","province":"東京都","city":"昭島市","address":"昭島市つつじが丘2-3-21","lat":35.71417,"lon":139.36705},{"name":"南大谷子どもクラブ","province":"東京都","city":"町田市","address":"町田市南大谷264","lat":35.55298,"lon":139.45758},{"name":"子どもセンター　ただＯＮ","province":"東京都","city":"町田市","address":"町田市忠生1-11-1","lat":35.57411,"lon":139.42217},{"name":"小山子どもクラブ","province":"東京都","city":"町田市","address":"町田市小山町1165-3","lat":35.59565,"lon":139.37705},{"name":"いずみ児童館","province":"東京都","city":"国分寺市","address":"国分寺市泉町3-29-14","lat":35.69825,"lon":139.46433},{"name":"福生市熊川児童館","province":"東京都","city":"福生市","address":"福生市熊川1143-1","lat":35.72989,"lon":139.3411},{"name":"唐木田児童館","province":"東京都","city":"多摩市","address":"多摩市鶴牧6-14","lat":35.6154,"lon":139.4133},{"name":"第四児童館","province":"東京都","city":"稲城市","address":"稲城市東長沼271","lat":35.64565,"lon":139.50617},{"name":"東児童館","province":"東京都","city":"羽村市","address":"羽村市神明台3-30-2","lat":35.76001,"lon":139.32842},{"name":"若竹児童館","province":"東京都","city":"あきる野市","address":"あきる野市野辺1123","lat":35.72417,"lon":139.3057},{"name":"檜原村児童館","province":"東京都","city":"西多摩郡檜原村","address":"西多摩郡檜原村2717","lat":35.72683,"lon":139.16281},{"name":"高輪子ども中高生プラザ","province":"東京都","city":"港区","address":"港区高輪1-4-35","lat":35.6266,"lon":139.7345},{"name":"薬王寺児童館","province":"東京都","city":"新宿区","address":"新宿区市谷仲之町2-42防災センター内3階","lat":35.69357,"lon":139.72421},{"name":"フレンドリープラザ東向島児童館","province":"東京都","city":"墨田区","address":"墨田区東向島6-6-12","lat":35.71515,"lon":139.80682},{"name":"東向島児童館分館","province":"東京都","city":"墨田区","address":"墨田区京島1-44-21","lat":35.71932,"lon":139.820908},{"name":"目黒区立目黒区民センター児童館","province":"東京都","city":"目黒区","address":"目黒区目黒2-4-36","lat":35.63285,"lon":139.70152},{"name":"弥生児童館","province":"東京都","city":"中野区","address":"中野区弥生1-14-6","lat":39.6925,"lon":141.16884},{"name":"堀ノ内東児童館","province":"東京都","city":"杉並区","address":"杉並区堀ノ内3-49-19-101","lat":35.69122,"lon":139.65062},{"name":"成田児童館","province":"東京都","city":"杉並区","address":"杉並区成田東2-16-5","lat":35.68923,"lon":139.63403},{"name":"大宮児童館","province":"東京都","city":"杉並区","address":"杉並区大宮2-16-16","lat":35.68323,"lon":139.63626},{"name":"永福南児童館","province":"東京都","city":"杉並区","address":"杉並区永福2-6-12","lat":35.67127,"lon":139.63922},{"name":"蓮根第二児童館","province":"東京都","city":"板橋区","address":"板橋区蓮根3-15-1-104","lat":35.78748,"lon":139.6403},{"name":"西徳児童館","province":"東京都","city":"板橋区","address":"板橋区西台4-4-37","lat":35.76996,"lon":139.66786},{"name":"ゆりの木児童館","province":"東京都","city":"板橋区","address":"板橋区赤塚新町3-32-11-209","lat":35.78733,"lon":139.6414},{"name":"春日町児童館","province":"東京都","city":"練馬区","address":"練馬区春日町2-28-3","lat":35.75753,"lon":139.64581},{"name":"青井児童館","province":"東京都","city":"足立区","address":"足立区青井5-11-40-101","lat":35.77156,"lon":139.81064},{"name":"渕江住区センター分館児童館","province":"東京都","city":"足立区","address":"足立区西保木間3-14-16-101","lat":35.80207,"lon":139.79684},{"name":"入谷児童館","province":"東京都","city":"足立区","address":"足立区舎人6-12-4-101","lat":35.78478,"lon":139.82129},{"name":"昭島市児童センター","province":"東京都","city":"昭島市","address":"昭島市つつじが丘2-3-21","lat":35.71263,"lon":139.36771},{"name":"小山子どもクラブ","province":"東京都","city":"町田市","address":"町田市小山町1165-3","lat":35.58764,"lon":139.39058},{"name":"本郷児童館","province":"東京都","city":"稲城市","address":"稲城市東長沼2115-2","lat":35.6487,"lon":139.50085},{"name":"西原北児童館","province":"東京都","city":"西東京市","address":"西東京市西原町4-5-96","lat":35.73921,"lon":139.53331},{"name":"すこやかとしょしつ","province":"","city":"","address":"東上野4丁目22番8号(台東保健所3階)","lat":35.71460431,"lon":139.7815344},{"name":"くらまえオレンジ図書館","province":"","city":"","address":"蔵前4丁目14番6号(環境ふれあい館ひまわり6階)","lat":35.70381549,"lon":139.7896546},{"name":"石浜図書館","province":"","city":"","address":"橋場1丁目35番16号","lat":35.72536488,"lon":139.8077331},{"name":"根岸図書館","province":"","city":"","address":"根岸5丁目18番13号","lat":35.72916307,"lon":139.7905328},{"name":"中央図書館浅草橋分室","province":"","city":"","address":"浅草橋2丁目8番7号","lat":35.69945588,"lon":139.7834753},{"name":"中央図書館","province":"","city":"","address":"西浅草3丁目25番16号","lat":35.71723421,"lon":139.7899035},{"name":"台東区立中央図書館　谷中分室","province":"","city":"","address":"谷中5丁目6番5号台東区谷中防災コミュニティセンター3F","lat":35.72562517,"lon":139.7667584},{"name":"池波正太郎記念文庫","province":"","city":"","address":"西浅草3丁目25番16号","lat":35.7172182,"lon":139.7898403},{"name":"あずさわ児童館","province":"東京都","city":"板橋区","address":"板橋区小豆沢3-9-2-103","lat":35.78055254,"lon":139.6960174},{"name":"大山東児童館","province":"東京都","city":"板橋区","address":"板橋区大山東町8-7","lat":35.74746404,"lon":139.7061018},{"name":"上板橋児童館","province":"東京都","city":"板橋区","address":"板橋区上板橋2-3-8","lat":35.76169547,"lon":139.6737793},{"name":"紅梅児童館","province":"東京都","city":"板橋区","address":"板橋区徳丸6-2-10","lat":35.77640453,"lon":139.6630818},{"name":"さかうえ児童館","province":"東京都","city":"板橋区","address":"板橋区小豆沢1-20-17","lat":35.77569326,"lon":139.7022981},{"name":"清水児童館","province":"東京都","city":"板橋区","address":"板橋区清水町72-7","lat":35.76538538,"lon":139.7046049},{"name":"志村児童館","province":"東京都","city":"板橋区","address":"板橋区志村2-16-11","lat":35.7749649,"lon":139.6858318},{"name":"志村橋児童館","province":"東京都","city":"板橋区","address":"板橋区舟渡3-6-3","lat":35.79354685,"lon":139.6801598},{"name":"しらさぎ児童館","province":"東京都","city":"板橋区","address":"板橋区成増5-19-41","lat":35.78857,"lon":139.6366},{"name":"新河岸児童館","province":"東京都","city":"板橋区","address":"板橋区新河岸1-3-2-101","lat":35.7937633,"lon":139.664161},{"name":"高島平児童館","province":"東京都","city":"板橋区","address":"板橋区高島平3-12-28","lat":35.78700132,"lon":139.6587415},{"name":"東新児童館","province":"東京都","city":"板橋区","address":"板橋区東新町2-43-5","lat":35.75259118,"lon":139.6806096},{"name":"なります児童館","province":"東京都","city":"板橋区","address":"板橋区成増3-34-21","lat":35.78117464,"lon":139.6315036},{"name":"西徳児童館","province":"東京都","city":"板橋区","address":"板橋区西台4-4-37","lat":35.77020916,"lon":139.6680585},{"name":"蓮根児童館","province":"東京都","city":"板橋区","address":"板橋区蓮根2-6-15","lat":35.78129924,"lon":139.6765946},{"name":"蓮根第二児童館","province":"東京都","city":"板橋区","address":"板橋区蓮根3-15-1-104","lat":35.78903786,"lon":139.6765475},{"name":"はすのみ児童館","province":"東京都","city":"板橋区","address":"板橋区高島平1-50-2","lat":35.78405849,"lon":139.671563},{"name":"氷川児童館","province":"東京都","city":"板橋区","address":"板橋区氷川町24-2","lat":35.75436514,"lon":139.7051674},{"name":"富士見台児童館","province":"東京都","city":"板橋区","address":"板橋区前野町1-8-1","lat":35.76401331,"lon":139.69623},{"name":"緑が丘児童館","province":"東京都","city":"板橋区","address":"板橋区中台3-27-2","lat":35.77326021,"lon":139.6791025},{"name":"南板橋児童館","province":"東京都","city":"板橋区","address":"板橋区板橋1-39-1","lat":35.74779264,"lon":139.7149683},{"name":"南前野児童館","province":"東京都","city":"板橋区","address":"板橋区前野町2-23-1","lat":35.7657545,"lon":139.6882041},{"name":"向原児童館","province":"東京都","city":"板橋区","address":"板橋区向原1-18-5","lat":35.74247383,"lon":139.6848543},{"name":"弥生児童館","province":"東京都","city":"板橋区","address":"板橋区弥生町16-3","lat":35.75316198,"lon":139.6942392},{"name":"ゆりの木児童館","province":"東京都","city":"板橋区","address":"板橋区赤塚新町3-32-11-209","lat":35.76922728,"lon":139.6386133},{"name":"赤塚児童館","province":"東京都","city":"板橋区","address":"板橋区赤塚6-38-1","lat":35.77884326,"lon":139.6449369},{"name":"＊?昌平まちかど図書館","province":"東京都","city":"千代田区","address":"千代田区外神田3-4-7","lat":35.701223,"lon":139.769873},{"name":"＊?神田まちかど図書館","province":"東京都","city":"千代田区","address":"千代田区神田司町2-16","lat":35.693357,"lon":139.768304},{"name":"＊?四番町図書館","province":"東京都","city":"千代田区","address":"千代田区四番町1","lat":35.690453,"lon":139.741601},{"name":"＊?千代田図書館","province":"東京都","city":"千代田区","address":"千代田区九段南1-2-1千代田区役所9・10階","lat":35.693997,"lon":139.753585},{"name":"＊?日比谷図書文化館","province":"東京都","city":"千代田区","address":"千代田区日比谷公園1-4","lat":35.671872,"lon":139.754602},{"name":"＊?京橋図書館","province":"東京都","city":"中央区","address":"中央区築地1-1-1","lat":35.67063,"lon":139.772},{"name":"＊?日本橋図書館","province":"東京都","city":"中央区","address":"中央区日本橋人形町1-1-17","lat":35.684773,"lon":139.781493},{"name":"＊?月島図書館","province":"東京都","city":"中央区","address":"中央区月島4-1-1","lat":35.662043,"lon":139.782269},{"name":"＊?みなと図書館","province":"東京都","city":"港区","address":"港区芝公園3-2-25","lat":35.659904,"lon":139.750144},{"name":"＊?三田図書館","province":"東京都","city":"港区","address":"港区芝5-28-4","lat":35.647051,"lon":139.74522},{"name":"＊?麻布図書館","province":"東京都","city":"港区","address":"港区六本木5-12-24","lat":35.657555,"lon":139.735864},{"name":"＊?赤坂図書館","province":"東京都","city":"港区","address":"港区南青山1-3-3","lat":35.671642,"lon":139.725401},{"name":"＊?高輪図書館","province":"東京都","city":"港区","address":"港区高輪1-16-25","lat":35.642092,"lon":139.734268},{"name":"＊?港南図書館","province":"東京都","city":"港区","address":"港区港南3-3-17","lat":35.63298,"lon":139.749563},{"name":"＊?高輪図書館分室","province":"東京都","city":"港区","address":"港区高輪1-4-35","lat":35.642373,"lon":139.734814},{"name":"麻布図書サービスセンター（閉館）","province":"東京都","city":"港区","address":"港区三田1-10-4","lat":35.654939,"lon":139.73823},{"name":"＊?中央図書館","province":"東京都","city":"新宿区","address":"新宿区大久保3-1-1","lat":35.705244,"lon":139.707263},{"name":"＊?こども図書館","province":"東京都","city":"新宿区","address":"新宿区大久保3-1-1","lat":35.705244,"lon":139.707263},{"name":"＊?四谷図書館","province":"東京都","city":"新宿区","address":"新宿区内藤町87","lat":35.687578,"lon":139.714447},{"name":"＊?鶴巻図書館","province":"東京都","city":"新宿区","address":"新宿区早稲田鶴巻町521","lat":35.707405,"lon":139.7247},{"name":"＊?西落合図書館","province":"東京都","city":"新宿区","address":"新宿区西落合4-13-17","lat":35.725769,"lon":139.678965},{"name":"＊?戸山図書館","province":"東京都","city":"新宿区","address":"新宿区戸山2-11-101","lat":35.701951,"lon":139.714195},{"name":"＊?北新宿図書館","province":"東京都","city":"新宿区","address":"新宿区北新宿3-20-2","lat":35.702962,"lon":139.689461},{"name":"＊?中町図書館","province":"東京都","city":"新宿区","address":"新宿区中町25","lat":35.698969,"lon":139.734577},{"name":"＊?角筈図書館","province":"東京都","city":"新宿区","address":"新宿区西新宿4-33-7","lat":35.686218,"lon":139.689091},{"name":"＊?大久保図書館","province":"東京都","city":"新宿区","address":"新宿区大久保2-12-7","lat":35.701416,"lon":139.706773},{"name":"＊?下落合図書館","province":"東京都","city":"新宿区","address":"新宿区下落合1-9-8","lat":35.716019,"lon":139.698795},{"name":"＊?中央図書館区役所内分室","province":"東京都","city":"新宿区","address":"新宿区歌舞伎町1-4-1","lat":35.693893,"lon":139.703426},{"name":"＊?小石川図書館","province":"東京都","city":"文京区","address":"文京区小石川5-9-20","lat":35.71699,"lon":139.740126},{"name":"＊?湯島図書館","province":"東京都","city":"文京区","address":"文京区本郷3-10-18","lat":35.70393,"lon":139.763714},{"name":"＊?真砂中央図書館","province":"東京都","city":"文京区","address":"文京区本郷4-8-15","lat":35.70855,"lon":139.757085},{"name":"＊?根津図書室","province":"東京都","city":"文京区","address":"文京区根津2-20-7","lat":35.719214,"lon":139.764256},{"name":"＊?本郷図書館","province":"東京都","city":"文京区","address":"文京区千駄木3-2-6","lat":35.725545,"lon":139.761477},{"name":"＊?本駒込図書館","province":"東京都","city":"文京区","address":"文京区本駒込4-35-15","lat":35.733349,"lon":139.755447},{"name":"＊?目白台図書館","province":"東京都","city":"文京区","address":"文京区関口3-17-9","lat":35.715131,"lon":139.725508},{"name":"＊?大塚公園みどりの図書室","province":"東京都","city":"文京区","address":"文京区大塚4-49-2","lat":35.723788,"lon":139.732387},{"name":"＊?水道端図書館","province":"東京都","city":"文京区","address":"文京区水道2-16-14","lat":35.710629,"lon":139.737718},{"name":"＊?千石図書館","province":"東京都","city":"文京区","address":"文京区千石1-25-3","lat":35.727541,"lon":139.743701},{"name":"＊?中央図書館","province":"東京都","city":"台東区","address":"台東区西浅草3-25-16","lat":35.717291,"lon":139.789868},{"name":"＊?石浜図書館","province":"東京都","city":"台東区","address":"台東区橋場1-35-16","lat":35.725422,"lon":139.807602},{"name":"＊?根岸図書館","province":"東京都","city":"台東区","address":"台東区根岸5-18-13","lat":35.729252,"lon":139.790448},{"name":"＊?墨田区立ひきふね図書館","province":"東京都","city":"墨田区","address":"墨田区京島1-36-5","lat":35.717105,"lon":139.819579},{"name":"＊?墨田区立八広図書館","province":"東京都","city":"墨田区","address":"墨田区八広5-10-1-104","lat":35.725003,"lon":139.825802},{"name":"＊?墨田区立立花図書館","province":"東京都","city":"墨田区","address":"墨田区立花6-8-1-101","lat":35.710679,"lon":139.834917},{"name":"＊?墨田区立緑図書館","province":"東京都","city":"墨田区","address":"墨田区緑2-24-5","lat":35.695762,"lon":139.800611},{"name":"＊?東雲図書館","province":"東京都","city":"江東区","address":"江東区東雲2-7-5-201","lat":35.643542,"lon":139.805368},{"name":"＊?豊洲図書館","province":"東京都","city":"江東区","address":"江東区豊洲2-2-18豊洲文化センター内","lat":35.654237,"lon":139.795271},{"name":"＊?亀戸図書館","province":"東京都","city":"江東区","address":"江東区亀戸7-39-9","lat":35.696976,"lon":139.839343},{"name":"＊?城東図書館","province":"東京都","city":"江東区","address":"江東区大島4-5-1総合区民センター内","lat":35.68903,"lon":139.826987},{"name":"＊?江東図書館","province":"東京都","city":"江東区","address":"江東区南砂6-7-52","lat":35.671844,"lon":139.834105},{"name":"＊?砂町図書館","province":"東京都","city":"江東区","address":"江東区北砂5-1-7砂町文化センター内","lat":35.680392,"lon":139.831958},{"name":"＊?深川図書館","province":"東京都","city":"江東区","address":"江東区清澄3-3-39","lat":35.679152,"lon":139.796765},{"name":"＊?白河こどもとしょかん","province":"東京都","city":"江東区","address":"江東区白河4-3-19","lat":35.68218,"lon":139.808055},{"name":"＊?東陽図書館","province":"東京都","city":"江東区","address":"江東区東陽2-3-6教育センター内","lat":35.667477,"lon":139.81697},{"name":"＊?東大島図書館","province":"東京都","city":"江東区","address":"江東区大島9-4-2-101","lat":35.691063,"lon":139.845735},{"name":"＊?古石場図書館","province":"東京都","city":"江東区","address":"江東区古石場2-13-2古石場文化センター内","lat":35.666926,"lon":139.799054},{"name":"＊?品川図書館","province":"東京都","city":"品川区","address":"品川区北品川2-32-3","lat":35.616874,"lon":139.7424},{"name":"＊?五反田図書館","province":"東京都","city":"品川区","address":"品川区西五反田6-5-1","lat":35.622538,"lon":139.716574},{"name":"＊?大崎図書館","province":"東京都","city":"品川区","address":"品川区大崎2-4-8","lat":35.618613,"lon":139.725768},{"name":"＊?南大井図書館","province":"東京都","city":"品川区","address":"品川区南大井3-7-13","lat":35.591688,"lon":139.734415},{"name":"＊?大井図書館","province":"東京都","city":"品川区","address":"品川区大井5-19-14","lat":35.598197,"lon":139.729048},{"name":"＊?源氏前図書館","province":"東京都","city":"品川区","address":"品川区中延4-14-17","lat":35.605537,"lon":139.709936},{"name":"＊?二葉図書館","province":"東京都","city":"品川区","address":"品川区二葉1-4-25","lat":35.607995,"lon":139.726706},{"name":"＊?荏原図書館","province":"東京都","city":"品川区","address":"品川区中延1-9-15","lat":35.612166,"lon":139.710676},{"name":"＊?ゆたか図書館","province":"東京都","city":"品川区","address":"品川区豊町1-17-7","lat":35.611585,"lon":139.722443},{"name":"＊?八潮図書館","province":"東京都","city":"品川区","address":"品川区八潮5-10-27","lat":35.600197,"lon":139.751451},{"name":"＊?大橋図書館","province":"東京都","city":"目黒区","address":"目黒区大橋1-5-1","lat":35.651494,"lon":139.688491},{"name":"＊?中目黒駅前図書館","province":"東京都","city":"目黒区","address":"目黒区上目黒2-1-3","lat":35.643227,"lon":139.698683},{"name":"＊?目黒区民センター図書館","province":"東京都","city":"目黒区","address":"目黒区目黒2-4-36","lat":35.635734,"lon":139.708251},{"name":"＊?洗足図書館","province":"東京都","city":"目黒区","address":"目黒区洗足2-8-26","lat":35.612341,"lon":139.692376},{"name":"＊?緑が丘図書館","province":"東京都","city":"目黒区","address":"目黒区緑が丘2-14-23","lat":35.609353,"lon":139.673304},{"name":"＊?目黒本町図書館","province":"東京都","city":"目黒区","address":"目黒区目黒本町2-1-20","lat":35.625238,"lon":139.695228},{"name":"＊?守屋図書館","province":"東京都","city":"目黒区","address":"目黒区五本木2-20-15","lat":35.634099,"lon":139.689114},{"name":"＊?八雲中央図書館","province":"東京都","city":"目黒区","address":"目黒区八雲1-1-1","lat":35.621684,"lon":139.672995},{"name":"＊?大田図書館","province":"東京都","city":"大田区","address":"大田区田園調布南25-1","lat":35.581647,"lon":139.676192},{"name":"＊?洗足池図書館","province":"東京都","city":"大田区","address":"大田区南千束2-2-10","lat":35.600785,"lon":139.691946},{"name":"＊?六郷図書館（仮施設）","province":"東京都","city":"大田区","address":"大田区南六郷3-10-16","lat":35.543634,"lon":139.714574},{"name":"＊?蒲田駅前図書館","province":"東京都","city":"大田区","address":"大田区蒲田5-13-26-301","lat":35.559828,"lon":139.715471},{"name":"＊?蒲田図書館","province":"東京都","city":"大田区","address":"大田区東蒲田1-19-22","lat":35.563696,"lon":139.728437},{"name":"＊?浜竹図書館","province":"東京都","city":"大田区","address":"大田区西糀谷3-32-7","lat":35.553372,"lon":139.737395},{"name":"＊?大森南図書館","province":"東京都","city":"大田区","address":"大田区大森南1-17-7","lat":35.563458,"lon":139.739758},{"name":"＊?羽田図書館","province":"東京都","city":"大田区","address":"大田区羽田1-11-1","lat":35.550414,"lon":139.743502},{"name":"＊?池上図書館","province":"東京都","city":"大田区","address":"大田区池上3-27-6","lat":35.574772,"lon":139.703219},{"name":"＊?久が原図書館","province":"東京都","city":"大田区","address":"大田区久が原2-28-4","lat":35.579341,"lon":139.695315},{"name":"＊?多摩川図書館","province":"東京都","city":"大田区","address":"大田区多摩川2-24-63","lat":35.55604,"lon":139.702347},{"name":"＊?下丸子図書館","province":"東京都","city":"大田区","address":"大田区下丸子2-18-11","lat":35.565882,"lon":139.688044},{"name":"＊?大森西図書館","province":"東京都","city":"大田区","address":"大田区大森西5-2-13","lat":35.571837,"lon":139.726026},{"name":"＊?入新井図書館","province":"東京都","city":"大田区","address":"大田区大森北1-10-14大森複合施設ビル(Luz大森)4階","lat":35.586493,"lon":139.728345},{"name":"＊?大森東図書館","province":"東京都","city":"大田区","address":"大田区大森東1-31-3-104","lat":35.576256,"lon":139.738949},{"name":"＊?馬込図書館","province":"東京都","city":"大田区","address":"大田区中馬込2-26-10","lat":35.595681,"lon":139.71041},{"name":"＊?上北沢図書館","province":"東京都","city":"世田谷区","address":"世田谷区上北沢3-8-9","lat":35.667601,"lon":139.625667},{"name":"＊?粕谷図書館","province":"東京都","city":"世田谷区","address":"世田谷区粕谷4-13-6","lat":35.663119,"lon":139.605106},{"name":"＊?梅丘図書館","province":"東京都","city":"世田谷区","address":"世田谷区代田4-38-10","lat":35.657451,"lon":139.654721},{"name":"＊?烏山図書館","province":"東京都","city":"世田谷区","address":"世田谷区南烏山6-2-19","lat":35.66882,"lon":139.600551},{"name":"＊?下馬図書館","province":"東京都","city":"世田谷区","address":"世田谷区下馬2-32-1","lat":35.641496,"lon":139.676261},{"name":"＊?世田谷図書館","province":"東京都","city":"世田谷区","address":"世田谷区若林4-29-26","lat":35.645903,"lon":139.654908},{"name":"＊?中央図書館","province":"東京都","city":"世田谷区","address":"世田谷区弦巻3-16-8","lat":35.637717,"lon":139.644332},{"name":"＊?桜丘図書館","province":"東京都","city":"世田谷区","address":"世田谷区桜丘5-14-1","lat":35.644834,"lon":139.622119},{"name":"＊?代田図書館","province":"東京都","city":"世田谷区","address":"世田谷区代田6-34-13","lat":35.662811,"lon":139.660649},{"name":"＊?砧図書館","province":"東京都","city":"世田谷区","address":"世田谷区祖師谷3-10-4","lat":35.642272,"lon":139.604076},{"name":"＊?団体貸出センター","province":"東京都","city":"世田谷区","address":"世田谷区弦巻3-16-8","lat":35.637717,"lon":139.644332},{"name":"＊?尾山台図書館","province":"東京都","city":"世田谷区","address":"世田谷区等々力2-17-14","lat":35.605777,"lon":139.652384},{"name":"＊?深沢図書館","province":"東京都","city":"世田谷区","address":"世田谷区深沢4-33-11","lat":35.620254,"lon":139.653776},{"name":"＊?玉川台図書館","province":"東京都","city":"世田谷区","address":"世田谷区玉川台1-6-15","lat":35.622959,"lon":139.633057},{"name":"＊?鎌田図書館","province":"東京都","city":"世田谷区","address":"世田谷区鎌田3-35-1","lat":35.622324,"lon":139.613486},{"name":"＊?奥沢図書館","province":"東京都","city":"世田谷区","address":"世田谷区奥沢3-47-8","lat":35.603639,"lon":139.672651},{"name":"＊?経堂図書館","province":"東京都","city":"世田谷区","address":"世田谷区宮坂3-1-30","lat":35.651562,"lon":139.637821},{"name":"＊?中央図書館","province":"東京都","city":"渋谷区","address":"渋谷区神宮前1-4-1","lat":35.672458,"lon":139.706188},{"name":"＊?西原図書館","province":"東京都","city":"渋谷区","address":"渋谷区西原2-28-9","lat":35.674953,"lon":139.677732},{"name":"＊?渋谷図書館","province":"東京都","city":"渋谷区","address":"渋谷区東1-6-6","lat":35.656504,"lon":139.709774},{"name":"＊?富ヶ谷図書館","province":"東京都","city":"渋谷区","address":"渋谷区上原1-46-2","lat":35.668508,"lon":139.687254},{"name":"＊?笹塚図書館","province":"東京都","city":"渋谷区","address":"渋谷区笹塚1-27-1","lat":35.67223,"lon":139.667182},{"name":"＊?本町図書館","province":"東京都","city":"渋谷区","address":"渋谷区本町1-33-5","lat":35.680752,"lon":139.681671},{"name":"＊?臨川みんなの図書館","province":"東京都","city":"渋谷区","address":"渋谷区広尾1ー9ー17","lat":35.649416,"lon":139.716607},{"name":"＊?代々木図書館","province":"東京都","city":"渋谷区","address":"渋谷区代々木3-51-8","lat":35.681984,"lon":139.695977},{"name":"＊?笹塚こども図書館","province":"東京都","city":"渋谷区","address":"渋谷区笹塚3-3-1","lat":35.678711,"lon":139.669753},{"name":"＊?こもれび大和田図書館","province":"東京都","city":"渋谷区","address":"渋谷区桜丘町23-21","lat":35.655458,"lon":139.699965},{"name":"＊?上高田図書館","province":"東京都","city":"中野区","address":"中野区上高田5-30-15","lat":35.718764,"lon":139.675142},{"name":"＊?江古田図書館","province":"東京都","city":"中野区","address":"中野区江古田2-1-11","lat":35.724899,"lon":139.669068},{"name":"＊?鷺宮図書館","province":"東京都","city":"中野区","address":"中野区鷺宮3-22-5","lat":35.723436,"lon":139.639805},{"name":"＊?東中野図書館","province":"東京都","city":"中野区","address":"中野区東中野1-35-5","lat":35.704584,"lon":139.684825},{"name":"＊?本町図書館","province":"東京都","city":"中野区","address":"中野区本町2-13-2","lat":35.694713,"lon":139.677821},{"name":"＊?南台図書館","province":"東京都","city":"中野区","address":"中野区南台3-26-18","lat":35.68539,"lon":139.665695},{"name":"＊?野方図書館","province":"東京都","city":"中野区","address":"中野区野方3-19-5","lat":35.717446,"lon":139.654271},{"name":"＊?中央図書館","province":"東京都","city":"中野区","address":"中野区中野2-9-7","lat":35.704456,"lon":139.671765},{"name":"＊?高井戸図書館","province":"東京都","city":"杉並区","address":"杉並区高井戸東1-28-1","lat":35.681266,"lon":139.622321},{"name":"＊?西荻図書館","province":"東京都","city":"杉並区","address":"杉並区西荻北2-33-9","lat":35.707809,"lon":139.605958},{"name":"＊?高円寺図書館","province":"東京都","city":"杉並区","address":"杉並区高円寺南2-36-25","lat":35.700401,"lon":139.654107},{"name":"＊?成田図書館","province":"東京都","city":"杉並区","address":"杉並区成田東3-28-5","lat":35.695071,"lon":139.637513},{"name":"＊?永福図書館","province":"東京都","city":"杉並区","address":"杉並区永福4-25-7","lat":35.680747,"lon":139.640793},{"name":"＊?宮前図書館","province":"東京都","city":"杉並区","address":"杉並区宮前5-5-27","lat":35.693197,"lon":139.598933},{"name":"＊?南荻窪図書館","province":"東京都","city":"杉並区","address":"杉並区南荻窪1-10-2","lat":35.695031,"lon":139.61454},{"name":"＊?中央図書館","province":"東京都","city":"杉並区","address":"杉並区荻窪3-40-23","lat":35.70189,"lon":139.626793},{"name":"＊?柿木図書館","province":"東京都","city":"杉並区","address":"杉並区上井草1-6-13","lat":35.720275,"lon":139.612121},{"name":"＊?下井草図書館","province":"東京都","city":"杉並区","address":"杉並区下井草3-26-5","lat":35.720941,"lon":139.623257},{"name":"＊?阿佐谷図書館","province":"東京都","city":"杉並区","address":"杉並区阿佐谷北3-36-14","lat":35.711697,"lon":139.633258},{"name":"＊?方南図書館","province":"東京都","city":"杉並区","address":"杉並区方南1-51-2","lat":35.678993,"lon":139.660059},{"name":"＊?今川図書館","province":"東京都","city":"杉並区","address":"杉並区今川4-12-10","lat":35.715612,"lon":139.599825},{"name":"＊中央図書館","province":"東京都","city":"豊島区","address":"豊島区東池袋4-5-2ライズアリーナビル4・5階","lat":35.726957,"lon":139.71892},{"name":"＊?駒込図書館","province":"東京都","city":"豊島区","address":"豊島区駒込2-2-2","lat":35.737238,"lon":139.74741},{"name":"＊?巣鴨図書館","province":"東京都","city":"豊島区","address":"豊島区巣鴨3-8-2","lat":35.733959,"lon":139.73313},{"name":"＊?上池袋図書館","province":"東京都","city":"豊島区","address":"豊島区上池袋2-45-15","lat":35.738552,"lon":139.717009},{"name":"＊?池袋図書館","province":"東京都","city":"豊島区","address":"豊島区池袋3-29-10","lat":35.73594,"lon":139.705831},{"name":"＊?雑司が谷図書貸出コーナー","province":"東京都","city":"豊島区","address":"豊島区雑司が谷3-1-7","lat":35.719723,"lon":139.713751},{"name":"＊?目白図書館","province":"東京都","city":"豊島区","address":"豊島区目白4-31-8","lat":35.72576,"lon":139.698851},{"name":"＊?千早図書館","province":"東京都","city":"豊島区","address":"豊島区千早2-44-2","lat":35.73562,"lon":139.688442},{"name":"＊?滝野川西図書館","province":"東京都","city":"北区","address":"北区滝野川6-21-25","lat":35.745623,"lon":139.725914},{"name":"＊?東田端図書館","province":"東京都","city":"北区","address":"北区田端新町2-14-15","lat":35.740577,"lon":139.764817},{"name":"＊?田端図書館","province":"東京都","city":"北区","address":"北区田端3-16-2","lat":35.734411,"lon":139.756855},{"name":"＊?昭和町図書館","province":"東京都","city":"北区","address":"北区昭和町3-10-7","lat":35.749495,"lon":139.751368},{"name":"＊?赤羽図書館","province":"東京都","city":"北区","address":"北区赤羽南1-13-1","lat":35.777712,"lon":139.723724},{"name":"＊?上十条図書館","province":"東京都","city":"北区","address":"北区上十条3-3-9","lat":35.760402,"lon":139.718432},{"name":"＊?赤羽西図書館","province":"東京都","city":"北区","address":"北区赤羽西5-7-5","lat":35.77544,"lon":139.710473},{"name":"＊?赤羽北図書館","province":"東京都","city":"北区","address":"北区赤羽北1-18-1-111","lat":35.787216,"lon":139.71286},{"name":"＊?滝野川図書館","province":"東京都","city":"北区","address":"北区西ヶ原1-23-3","lat":35.743446,"lon":139.747565},{"name":"＊?中央図書館","province":"東京都","city":"北区","address":"北区十条台1-2-5","lat":35.756263,"lon":139.729044},{"name":"＊?豊島図書館","province":"東京都","city":"北区","address":"北区豊島3-27-22","lat":35.760469,"lon":139.747816},{"name":"＊?浮間図書館","province":"東京都","city":"北区","address":"北区浮間1-8-2-102","lat":35.790001,"lon":139.702704},{"name":"＊?神谷図書館","province":"東京都","city":"北区","address":"北区神谷3-35-17","lat":35.771319,"lon":139.731087},{"name":"＊?東十条図書館","province":"東京都","city":"北区","address":"北区東十条3-2-14","lat":35.765189,"lon":139.728595},{"name":"＊?中央図書館分室","province":"東京都","city":"北区","address":"北区豊島1-14-12","lat":35.758446,"lon":139.739729},{"name":"＊?南千住図書館","province":"東京都","city":"荒川区","address":"荒川区南千住6-63-1","lat":35.73745,"lon":139.795424},{"name":"＊?尾久図書館","province":"東京都","city":"荒川区","address":"荒川区西尾久3-12-12","lat":35.752255,"lon":139.764508},{"name":"＊?町屋図書館","province":"東京都","city":"荒川区","address":"荒川区町屋5-11-18","lat":35.751277,"lon":139.778956},{"name":"＊?日暮里図書館","province":"東京都","city":"荒川区","address":"荒川区東日暮里6-38-4","lat":35.73118,"lon":139.774993},{"name":"＊?汐入図書サービスステーション","province":"東京都","city":"荒川区","address":"荒川区南千住8-12-5-114","lat":35.737611,"lon":139.808017},{"name":"＊?冠新道図書サービスステーション","province":"東京都","city":"荒川区","address":"荒川区西日暮里6-25-14","lat":35.73692,"lon":139.77071},{"name":"＊?成増図書館","province":"東京都","city":"板橋区","address":"板橋区成増3-13-1","lat":35.778846,"lon":139.63236},{"name":"＊?小茂根図書館","province":"東京都","city":"板橋区","address":"板橋区小茂根1-6-2","lat":35.745567,"lon":139.680865},{"name":"＊?東板橋図書館","province":"東京都","city":"板橋区","address":"板橋区加賀1-10-15","lat":35.754429,"lon":139.715777},{"name":"＊?赤塚図書館","province":"東京都","city":"板橋区","address":"板橋区赤塚6-38-1","lat":35.778715,"lon":139.644803},{"name":"＊?高島平図書館","province":"東京都","city":"板橋区","address":"板橋区高島平3-13-1","lat":35.787514,"lon":139.659091},{"name":"＊?氷川図書館","province":"東京都","city":"板橋区","address":"板橋区氷川町28-9","lat":35.753139,"lon":139.704839},{"name":"＊?蓮根図書館","province":"東京都","city":"板橋区","address":"板橋区蓮根3-15-1-101","lat":35.788859,"lon":139.676511},{"name":"＊?清水図書館","province":"東京都","city":"板橋区","address":"板橋区泉町16-16","lat":35.766449,"lon":139.702166},{"name":"＊?中央図書館","province":"東京都","city":"板橋区","address":"板橋区常盤台1-13-1","lat":35.760026,"lon":139.691511},{"name":"＊?西台図書館","province":"東京都","city":"板橋区","address":"板橋区西台3-13-2","lat":35.773986,"lon":139.668814},{"name":"＊?志村図書館","province":"東京都","city":"板橋区","address":"板橋区小豆沢1-8-1","lat":35.773232,"lon":139.700014},{"name":"＊?いたばしボローニャ子ども絵本館","province":"東京都","city":"板橋区","address":"板橋区本町24-1","lat":35.759732,"lon":139.70838},{"name":"＊?貫井図書館","province":"東京都","city":"練馬区","address":"練馬区貫井1-36-16","lat":35.736971,"lon":139.636105},{"name":"＊?大泉図書館","province":"東京都","city":"練馬区","address":"練馬区大泉学園町2-21-17","lat":35.760609,"lon":139.58713},{"name":"＊?稲荷山図書館","province":"東京都","city":"練馬区","address":"練馬区大泉町1-3-18","lat":35.765328,"lon":139.609229},{"name":"＊?関町図書館","province":"東京都","city":"練馬区","address":"練馬区関町南3-11-2","lat":35.72094,"lon":139.58046},{"name":"＊?平和台図書館","province":"東京都","city":"練馬区","address":"練馬区平和台1-36-17","lat":35.760099,"lon":139.664753},{"name":"＊?練馬図書館","province":"東京都","city":"練馬区","address":"練馬区豊玉北6-8-1","lat":35.734202,"lon":139.651886},{"name":"＊?石神井図書館","province":"東京都","city":"練馬区","address":"練馬区石神井台1-16-31","lat":35.736302,"lon":139.599371},{"name":"＊?春日町図書館","province":"東京都","city":"練馬区","address":"練馬区春日町5-31-2-201","lat":35.751436,"lon":139.638966},{"name":"＊?光が丘図書館","province":"東京都","city":"練馬区","address":"練馬区光が丘4-1-5","lat":35.763101,"lon":139.630025},{"name":"＊?南大泉図書館","province":"東京都","city":"練馬区","address":"練馬区南大泉1-44-7","lat":35.743367,"lon":139.574898},{"name":"＊南大泉図書館分室??こどもと本のひろば","province":"東京都","city":"練馬区","address":"練馬区南大泉3-17-10","lat":35.740655,"lon":139.569381},{"name":"＊?小竹図書館","province":"東京都","city":"練馬区","address":"練馬区小竹町2-43-1","lat":35.741907,"lon":139.676003},{"name":"＊?南田中図書館","province":"東京都","city":"練馬区","address":"練馬区南田中5-15-22","lat":35.737576,"lon":139.611139},{"name":"＊?中央図書館","province":"東京都","city":"足立区","address":"足立区千住5-13-5","lat":35.756577,"lon":139.802512},{"name":"＊?花畑図書館","province":"東京都","city":"足立区","address":"足立区花畑4-16-8","lat":35.802827,"lon":139.807458},{"name":"＊?竹の塚図書館","province":"東京都","city":"足立区","address":"足立区竹の塚2-25-17","lat":35.792631,"lon":139.794598},{"name":"＊?やよい図書館","province":"東京都","city":"足立区","address":"足立区中央本町3-15-1","lat":35.77225,"lon":139.809721},{"name":"＊?東和図書館","province":"東京都","city":"足立区","address":"足立区東和3-12-9","lat":35.771103,"lon":139.83957},{"name":"＊?佐野図書館","province":"東京都","city":"足立区","address":"足立区佐野2-43-5","lat":35.788137,"lon":139.840248},{"name":"＊?舎人図書館","province":"東京都","city":"足立区","address":"足立区舎人1-3-26","lat":35.806068,"lon":139.773204},{"name":"＊?保塚図書館","province":"東京都","city":"足立区","address":"足立区保塚町7-16","lat":35.786691,"lon":139.816105},{"name":"＊?江北図書館","province":"東京都","city":"足立区","address":"足立区江北3-39-4","lat":35.775859,"lon":139.760069},{"name":"＊?江南コミュニティ図書館","province":"東京都","city":"足立区","address":"足立区小台2-4-18","lat":35.755856,"lon":139.757475},{"name":"＊?新田コミュニティ図書館","province":"東京都","city":"足立区","address":"足立区新田2-2-2","lat":35.771499,"lon":139.738115},{"name":"＊?興本図書館","province":"東京都","city":"足立区","address":"足立区興野1-18-38","lat":35.768306,"lon":139.782379},{"name":"＊?伊興図書館","province":"東京都","city":"足立区","address":"足立区伊興2-4-22","lat":35.791207,"lon":139.780993},{"name":"＊?鹿浜図書館","province":"東京都","city":"足立区","address":"足立区鹿浜6-8-1","lat":35.783972,"lon":139.758271},{"name":"＊?梅田図書館","province":"東京都","city":"足立区","address":"足立区梅田7-13-1","lat":35.768336,"lon":139.800716},{"name":"＊?中央図書館","province":"東京都","city":"葛飾区","address":"葛飾区金町6-2-1ヴィナシス金町ブライトコート3階","lat":35.768042,"lon":139.871306},{"name":"＊?水元図書館","province":"東京都","city":"葛飾区","address":"葛飾区東水元1-7-3","lat":35.778909,"lon":139.867538},{"name":"＊?鎌倉図書館","province":"東京都","city":"葛飾区","address":"葛飾区鎌倉2-4-5","lat":35.745245,"lon":139.875339},{"name":"＊?亀有図書館","province":"東京都","city":"葛飾区","address":"葛飾区亀有1-17-5都営住宅5号棟1・2階","lat":35.759189,"lon":139.846026},{"name":"＊?お花茶屋図書館","province":"東京都","city":"葛飾区","address":"葛飾区お花茶屋2-1-15","lat":35.751171,"lon":139.838706},{"name":"＊?立石図書館","province":"東京都","city":"葛飾区","address":"葛飾区立石1-9-1","lat":35.737278,"lon":139.845693},{"name":"＊?上小松図書館","province":"東京都","city":"葛飾区","address":"葛飾区東新小岩3-12-1都営住宅1階","lat":35.722978,"lon":139.861865},{"name":"＊?西水元地区図書館","province":"東京都","city":"葛飾区","address":"葛飾区西水元2-2-8西水元あやめ園内","lat":35.784947,"lon":139.849061},{"name":"＊?四つ木地区図書館","province":"東京都","city":"葛飾区","address":"葛飾区四つ木4-8-1よつぎ小学校内","lat":35.736912,"lon":139.833968},{"name":"＊?青戸地区図書館","province":"東京都","city":"葛飾区","address":"葛飾区青戸5-20-6青戸地区センター内","lat":35.750147,"lon":139.854364},{"name":"＊?奥戸地区図書館","province":"東京都","city":"葛飾区","address":"葛飾区奥戸3-5-1南奥戸小学校内","lat":35.731692,"lon":139.860207},{"name":"＊?新宿図書サービスコーナー","province":"東京都","city":"葛飾区","address":"葛飾区新宿1-5-6新宿憩い交流館内","lat":35.759056,"lon":139.858957},{"name":"＊?こすげ地区図書館","province":"東京都","city":"葛飾区","address":"葛飾区小菅3-8-22こすげ小学校内","lat":35.753796,"lon":139.824833},{"name":"＊?中央図書館","province":"東京都","city":"江戸川区","address":"江戸川区中央3-1-3","lat":35.710543,"lon":139.869755},{"name":"＊?小岩図書館","province":"東京都","city":"江戸川区","address":"江戸川区東小岩3-6-9","lat":35.731285,"lon":139.890507},{"name":"＊?松江図書館","province":"東京都","city":"江戸川区","address":"江戸川区松江2-1-10松江区民プラザ゙内","lat":35.696903,"lon":139.871068},{"name":"＊?小松川図書館","province":"東京都","city":"江戸川区","address":"江戸川区平井1-11-26","lat":35.70149,"lon":139.850902},{"name":"＊?篠崎図書館","province":"東京都","city":"江戸川区","address":"江戸川区篠崎町7-20-19篠崎文化プラザ゙内","lat":35.705429,"lon":139.902971},{"name":"＊?葛西図書館","province":"東京都","city":"江戸川区","address":"江戸川区江戸川6-24-1","lat":35.675543,"lon":139.870847},{"name":"＊?西葛西図書館","province":"東京都","city":"江戸川区","address":"江戸川区西葛西5-10-47","lat":35.664834,"lon":139.862896},{"name":"＊?東葛西図書館","province":"東京都","city":"江戸川区","address":"江戸川区東葛西8-22-1","lat":35.654826,"lon":139.879604},{"name":"＊?東部図書館","province":"東京都","city":"江戸川区","address":"江戸川区江戸川2-35-6","lat":35.684078,"lon":139.900066},{"name":"＊?篠崎子ども図書館","province":"東京都","city":"江戸川区","address":"江戸川区篠崎町3-12-10","lat":35.705748,"lon":139.912819},{"name":"＊?鹿骨コミュニティ図書館","province":"東京都","city":"江戸川区","address":"江戸川区鹿骨1-54-2","lat":35.709506,"lon":139.889719},{"name":"＊?清新町コミュニティ図書館","province":"東京都","city":"江戸川区","address":"江戸川区清新町1-2-2","lat":35.658765,"lon":139.856031},{"name":"＊?中央図書館","province":"東京都","city":"八王子市","address":"八王子市千人町3-3-6","lat":35.657252,"lon":139.310429},{"name":"＊?生涯学習センター図書館","province":"東京都","city":"八王子市","address":"八王子市東町5-6","lat":35.658531,"lon":139.339976},{"name":"＊?南大沢図書館","province":"東京都","city":"八王子市","address":"八王子市南大沢2-27","lat":35.611658,"lon":139.379434},{"name":"＊?川口図書館","province":"東京都","city":"八王子市","address":"八王子市川口町3838","lat":35.686523,"lon":139.299031},{"name":"＊?中央図書館北野分室","province":"東京都","city":"八王子市","address":"八王子市北野町545-3","lat":35.645539,"lon":139.354839},{"name":"＊?中央図書館みなみ野分室","province":"東京都","city":"八王子市","address":"八王子市みなみ野1-7-1片柳学園第3学生会館2階","lat":35.632475,"lon":139.328288},{"name":"＊?柴崎図書館","province":"東京都","city":"立川市","address":"立川市柴崎町1-1-43","lat":35.696668,"lon":139.406788},{"name":"＊?多摩川図書館","province":"東京都","city":"立川市","address":"立川市富士見町6-51-1","lat":35.69121,"lon":139.393237},{"name":"＊?錦図書館","province":"東京都","city":"立川市","address":"立川市錦町3-12-25","lat":35.691166,"lon":139.416413},{"name":"＊?高松図書館","province":"東京都","city":"立川市","address":"立川市高松町3-22-5","lat":35.703004,"lon":139.41915},{"name":"＊?中央図書館","province":"東京都","city":"立川市","address":"立川市曙町2-36-2","lat":35.702202,"lon":139.414096},{"name":"＊?西砂図書館","province":"東京都","city":"立川市","address":"立川市西砂町6-12-10","lat":35.729611,"lon":139.372162},{"name":"＊?上砂図書館","province":"東京都","city":"立川市","address":"立川市上砂町1-13-1","lat":35.720753,"lon":139.390496},{"name":"＊?若葉図書館","province":"東京都","city":"立川市","address":"立川市若葉町3-34-1","lat":35.720211,"lon":139.439189},{"name":"＊?幸図書館","province":"東京都","city":"立川市","address":"立川市幸町5-83-1","lat":35.725742,"lon":139.418449},{"name":"＊?吉祥寺図書館","province":"東京都","city":"武蔵野市","address":"武蔵野市吉祥寺本町1-21-13","lat":35.705002,"lon":139.582266},{"name":"＊?中央図書館","province":"東京都","city":"武蔵野市","address":"武蔵野市吉祥寺北町4-8-3","lat":35.712514,"lon":139.566199},{"name":"＊?西部図書館","province":"東京都","city":"三鷹市","address":"三鷹市大沢2-6-47","lat":35.680978,"lon":139.535786},{"name":"＊?三鷹図書館","province":"東京都","city":"三鷹市","address":"三鷹市上連雀8-3-3","lat":35.685261,"lon":139.558091},{"name":"下連雀図書館（閉館）","province":"東京都","city":"三鷹市","address":"三鷹市下連雀6-13-13","lat":35.688813,"lon":139.565334},{"name":"＊?東部図書館","province":"東京都","city":"三鷹市","address":"三鷹市牟礼5-8-16","lat":35.68275,"lon":139.578649},{"name":"＊?三鷹駅前図書館","province":"東京都","city":"三鷹市","address":"三鷹市下連雀3-13-10","lat":35.69952,"lon":139.563068},{"name":"＊?南部図書館みんなみ","province":"東京都","city":"三鷹市","address":"三鷹市新川5-14-16","lat":35.675223,"lon":139.568624},{"name":"＊?青梅市長淵図書館","province":"東京都","city":"青梅市","address":"青梅市長淵6-492-1","lat":35.780194,"lon":139.268855},{"name":"＊?青梅市中央図書館","province":"東京都","city":"青梅市","address":"青梅市河辺町10-8-1","lat":35.785364,"lon":139.285038},{"name":"＊?青梅市大門図書館","province":"東京都","city":"青梅市","address":"青梅市大門2-288","lat":35.796684,"lon":139.290865},{"name":"＊?青梅市新町図書館","province":"東京都","city":"青梅市","address":"青梅市新町4-17-1","lat":35.786079,"lon":139.304925},{"name":"＊?青梅市今井図書館","province":"東京都","city":"青梅市","address":"青梅市今井2-908-1","lat":35.806511,"lon":139.311031},{"name":"＊?青梅市成木図書館","province":"東京都","city":"青梅市","address":"青梅市成木4-644","lat":35.824159,"lon":139.248541},{"name":"＊?青梅市小曾木図書館","province":"東京都","city":"青梅市","address":"青梅市小曾木3-1656-1","lat":35.818065,"lon":139.275106},{"name":"＊?青梅市梅郷図書館","province":"東京都","city":"青梅市","address":"青梅市梅郷3-749-1","lat":35.786795,"lon":139.224431},{"name":"＊?青梅市沢井図書館","province":"東京都","city":"青梅市","address":"青梅市沢井2-682","lat":35.804713,"lon":139.196304},{"name":"＊?青梅市青梅図書館","province":"東京都","city":"青梅市","address":"青梅市仲町268-9","lat":35.791133,"lon":139.25652},{"name":"＊?河辺市民センター","province":"東京都","city":"青梅市","address":"青梅市河辺町6-18-1","lat":35.778488,"lon":139.293633},{"name":"＊?東青梅市民センター","province":"東京都","city":"青梅市","address":"青梅市師岡町3-9-6","lat":35.790631,"lon":139.282374},{"name":"＊?府中市立中央図書館","province":"広島県","city":"府中市","address":"府中市府中町2-24","lat":35.67599,"lon":139.483917},{"name":"＊?府中市生涯学習センター図書館","province":"東京都","city":"府中市","address":"府中市浅間町1-7","lat":35.679002,"lon":139.49645},{"name":"＊?府中市立是政図書館","province":"東京都","city":"府中市","address":"府中市是政2-20","lat":35.660879,"lon":139.495314},{"name":"＊?府中市立白糸台図書館","province":"東京都","city":"府中市","address":"府中市白糸台1-60","lat":35.667077,"lon":139.506139},{"name":"＊?府中市立四谷図書館","province":"東京都","city":"府中市","address":"府中市四谷2-75","lat":35.665286,"lon":139.44564},{"name":"＊?府中市立住吉図書館","province":"東京都","city":"府中市","address":"府中市住吉町1-61","lat":35.660295,"lon":139.460277},{"name":"＊?府中市立新町図書館","province":"東京都","city":"府中市","address":"府中市新町1-66","lat":35.687183,"lon":139.489386},{"name":"＊?府中市立紅葉丘図書館","province":"東京都","city":"府中市","address":"府中市紅葉丘2-1","lat":35.676537,"lon":139.509247},{"name":"＊?府中市立西府図書館","province":"東京都","city":"府中市","address":"府中市西府町1-10","lat":35.670894,"lon":139.456258},{"name":"＊?府中市立片町図書館","province":"東京都","city":"府中市","address":"府中市片町2-17","lat":35.670274,"lon":139.469367},{"name":"＊?府中市立押立図書館","province":"東京都","city":"府中市","address":"府中市押立町5-4","lat":35.653692,"lon":139.517809},{"name":"＊?府中市立武蔵台図書館","province":"東京都","city":"府中市","address":"府中市武蔵台2-2","lat":35.688577,"lon":139.461418},{"name":"＊?府中市立宮町図書館","province":"東京都","city":"府中市","address":"府中市宮町3-1","lat":35.668845,"lon":139.478691},{"name":"＊?市民図書館","province":"東京都","city":"昭島市","address":"昭島市東町2-6-33","lat":35.705301,"lon":139.38519},{"name":"＊?昭島市民図書館昭和分館","province":"東京都","city":"昭島市","address":"昭島市松原町1-2-25","lat":35.712915,"lon":139.357675},{"name":"＊?昭島市民図書館緑分館","province":"東京都","city":"昭島市","address":"昭島市緑町4-13-26","lat":35.714198,"lon":139.34461},{"name":"＊?昭島市民図書館つつじが丘分室","province":"東京都","city":"昭島市","address":"昭島市つつじが丘3-1-30","lat":35.714331,"lon":139.370987},{"name":"＊?昭島市民図書館やまのかみ分室","province":"東京都","city":"昭島市","address":"昭島市拝島町3-10-3","lat":35.711009,"lon":139.335511},{"name":"＊?調布市立中央図書館","province":"東京都","city":"調布市","address":"調布市小島町2-33-1","lat":35.650998,"lon":139.541309},{"name":"＊?調布市立図書館国領分館","province":"東京都","city":"調布市","address":"調布市国領町3-12-1","lat":35.650885,"lon":139.560276},{"name":"＊?調布市立図書館調和分館","province":"東京都","city":"調布市","address":"調布市西つつじケ丘4-22-6","lat":35.651425,"lon":139.573649},{"name":"＊?調布市立図書館深大寺分館","province":"東京都","city":"調布市","address":"調布市深大寺北町5-17-3","lat":35.678099,"lon":139.550478},{"name":"＊?調布市立図書館神代分館","province":"東京都","city":"調布市","address":"調布市西つつじケ丘1-40-5","lat":35.660732,"lon":139.569995},{"name":"＊?調布市立図書館宮の下分館","province":"東京都","city":"調布市","address":"調布市上石原3-34-10","lat":35.651375,"lon":139.524822},{"name":"＊?調布市立図書館緑ケ丘分館","province":"東京都","city":"調布市","address":"調布市緑ケ丘2-25","lat":35.666937,"lon":139.586473},{"name":"＊?調布市立図書館富士見分館","province":"東京都","city":"調布市","address":"調布市富士見町2-3-26","lat":35.658401,"lon":139.539305},{"name":"＊?調布市立図書館若葉分館","province":"東京都","city":"調布市","address":"調布市若葉町3-16-13","lat":35.654939,"lon":139.583998},{"name":"＊?調布市立図書館染地分館","province":"東京都","city":"調布市","address":"調布市染地3-3-1","lat":35.639832,"lon":139.55581},{"name":"＊?調布市立図書館佐須分館","province":"東京都","city":"調布市","address":"調布市佐須町4-42-2","lat":35.658623,"lon":139.556195},{"name":"＊?町田市立金森図書館","province":"東京都","city":"町田市","address":"町田市金森東3-5-1","lat":35.533448,"lon":139.465968},{"name":"＊?町田市立さるびあ図書館","province":"東京都","city":"町田市","address":"町田市中町2-13-23","lat":35.551439,"lon":139.444204},{"name":"＊?町田市立中央図書館","province":"東京都","city":"町田市","address":"町田市原町田3-2-9","lat":35.540451,"lon":139.450363},{"name":"＊?町田市立鶴川図書館","province":"東京都","city":"町田市","address":"町田市鶴川6-7-2-1-101","lat":35.590544,"lon":139.469124},{"name":"＊?町田市立堺図書館","province":"東京都","city":"町田市","address":"町田市相原町795-1","lat":35.604272,"lon":139.333395},{"name":"＊?町田市立木曽山崎図書館","province":"東京都","city":"町田市","address":"町田市山崎町2160","lat":35.569874,"lon":139.435136},{"name":"＊?町田市立鶴川駅前図書館","province":"東京都","city":"町田市","address":"町田市能ヶ谷1-2-1和光大学ポプリホール鶴川2階","lat":35.582856,"lon":139.478917},{"name":"＊?忠生図書館","province":"東京都","city":"町田市","address":"町田市忠生3-14-2","lat":35.578447,"lon":139.416018},{"name":"＊?小金井市立図書館","province":"東京都","city":"小金井市","address":"小金井市本町1-1-32","lat":35.6977,"lon":139.510624},{"name":"＊?小金井市立図書館貫井北分室","province":"東京都","city":"小金井市","address":"小金井市貫井北町1-11-12","lat":35.702321,"lon":139.497695},{"name":"＊?小金井市立図書館東分室","province":"東京都","city":"小金井市","address":"小金井市東町1-39-1","lat":35.69399,"lon":139.526627},{"name":"＊?西之台会館図書室","province":"東京都","city":"小金井市","address":"小金井市前原町3-8-1","lat":35.693872,"lon":139.499611},{"name":"＊?小金井市立図書館緑分室","province":"東京都","city":"小金井市","address":"小金井市緑町3-3-23","lat":35.709552,"lon":139.516375},{"name":"＊?小平市立喜平図書館","province":"東京都","city":"小平市","address":"小平市喜平町3-3-18","lat":35.71733,"lon":139.490929},{"name":"＊?小平市中央図書館上水南分室","province":"東京都","city":"小平市","address":"小平市上水南町1-27-1","lat":35.713091,"lon":139.483708},{"name":"＊?小平市立津田図書館","province":"東京都","city":"小平市","address":"小平市津田町3-11-1","lat":35.72077,"lon":139.470078},{"name":"＊?小平市大沼図書館","province":"東京都","city":"小平市","address":"小平市大沼町7-1-17","lat":35.735394,"lon":139.497223},{"name":"＊?小平市立小川西町図書館","province":"東京都","city":"小平市","address":"小平市小川西町4-10-13","lat":35.735126,"lon":139.461798},{"name":"＊?小平市立上宿図書館","province":"東京都","city":"小平市","address":"小平市小川町1-345","lat":35.73016,"lon":139.439591},{"name":"＊?小平市立仲町図書館","province":"東京都","city":"小平市","address":"小平市仲町145","lat":35.730896,"lon":139.484917},{"name":"＊?小平市中央図書館","province":"東京都","city":"小平市","address":"小平市小川町2-1325","lat":35.727774,"lon":139.476668},{"name":"＊?小平市中央図書館小川分室","province":"東京都","city":"小平市","address":"小平市小川町1-1012","lat":35.725788,"lon":139.45927},{"name":"＊?小平市中央図書館花小金井北分室","province":"東京都","city":"小平市","address":"小平市花小金井5-41-3","lat":35.734251,"lon":139.510261},{"name":"＊?小平市立花小金井図書館","province":"東京都","city":"小平市","address":"小平市花小金井1-8-1","lat":35.727919,"lon":139.514084},{"name":"＊?日野市立中央図書館","province":"東京都","city":"日野市","address":"日野市豊田2-49","lat":35.65614,"lon":139.382312},{"name":"＊?日野市立多摩平図書館","province":"東京都","city":"日野市","address":"日野市多摩平2-9","lat":35.663342,"lon":139.38162},{"name":"＊?日野市立日野図書館","province":"東京都","city":"日野市","address":"日野市日野本町7-5-14","lat":35.678763,"lon":139.39953},{"name":"＊?日野市立市政図書室","province":"東京都","city":"日野市","address":"日野市神明1-12-1","lat":35.670496,"lon":139.395606},{"name":"＊?日野市立高幡図書館","province":"東京都","city":"日野市","address":"日野市三沢4-1-12","lat":35.658848,"lon":139.41343},{"name":"＊?日野市立平山図書館","province":"東京都","city":"日野市","address":"日野市平山5-18-2","lat":35.64716,"lon":139.380424},{"name":"＊?日野市立百草図書館","province":"東京都","city":"日野市","address":"日野市百草204-1","lat":35.657732,"lon":139.43094},{"name":"＊?東村山市立秋津図書館","province":"東京都","city":"東村山市","address":"東村山市秋津町2-17-10","lat":35.771077,"lon":139.486551},{"name":"＊?東村山市立廻田図書館","province":"東京都","city":"東村山市","address":"東村山市廻田町4-19-1","lat":35.759625,"lon":139.452116},{"name":"＊?東村山市立萩山図書館","province":"東京都","city":"東村山市","address":"東村山市萩山町2-13-1","lat":35.742237,"lon":139.477747},{"name":"＊?東村山市立中央図書館","province":"東京都","city":"東村山市","address":"東村山市本町1-1-10","lat":35.75527,"lon":139.468207},{"name":"＊?東村山市立富士見図書館","province":"東京都","city":"東村山市","address":"東村山市富士見町1-7-35","lat":35.743996,"lon":139.461275},{"name":"＊?並木図書館","province":"東京都","city":"国分寺市","address":"国分寺市並木町2-12-3","lat":35.715824,"lon":139.453219},{"name":"＊?恋ケ窪図書館","province":"東京都","city":"国分寺市","address":"国分寺市西恋ケ窪4-12-8","lat":35.707761,"lon":139.464256},{"name":"＊?本多図書館","province":"東京都","city":"国分寺市","address":"国分寺市本多1-7-1","lat":35.705288,"lon":139.482492},{"name":"＊?もとまち図書館","province":"東京都","city":"国分寺市","address":"国分寺市東元町2-3-13","lat":35.692093,"lon":139.48307},{"name":"＊?光図書館","province":"東京都","city":"国分寺市","address":"国分寺市光町3-13-19","lat":35.70781,"lon":139.443193},{"name":"＊?本多図書館駅前分館","province":"東京都","city":"国分寺市","address":"国分寺市本町4-1-9国分寺本町クリスタルビル4階","lat":35.700596,"lon":139.478077},{"name":"＊?くにたち中央図書館","province":"東京都","city":"国立市","address":"国立市富士見台2-34","lat":35.685151,"lon":139.444416},{"name":"＊?くにたち中央図書館青柳分室","province":"東京都","city":"国立市","address":"国立市青柳244","lat":35.683198,"lon":139.423542},{"name":"＊?くにたち中央図書館谷保東分室","province":"東京都","city":"国立市","address":"国立市谷保135-1","lat":35.686397,"lon":139.430056},{"name":"＊?くにたち中央図書館下谷保分室","province":"東京都","city":"国立市","address":"国立市谷保5066","lat":35.679625,"lon":139.448808},{"name":"＊?くにたち中央図書館南市民プラザ分室","province":"東京都","city":"国立市","address":"国立市泉2-3-21号棟1階","lat":35.674543,"lon":139.430661},{"name":"＊?くにたち中央図書館東分室","province":"東京都","city":"国立市","address":"国立市東3-18-32","lat":35.691456,"lon":139.454847},{"name":"＊?くにたち北市民プラザ図書館","province":"東京都","city":"国立市","address":"国立市北3-1-19号棟1階","lat":35.699365,"lon":139.432662},{"name":"＊?福生市立わかたけ図書館","province":"東京都","city":"福生市","address":"福生市熊川199-1","lat":35.718119,"lon":139.335002},{"name":"＊?福生市立わかぎり図書館","province":"東京都","city":"福生市","address":"福生市福生1280-1","lat":35.746199,"lon":139.320912},{"name":"＊?福生市立中央図書館","province":"東京都","city":"福生市","address":"福生市熊川850-1","lat":35.732073,"lon":139.337586},{"name":"＊?福生市立武蔵野台図書館","province":"東京都","city":"福生市","address":"福生市武蔵野台1-12-2","lat":35.746833,"lon":139.333943},{"name":"＊?狛江市立中央図書館","province":"東京都","city":"狛江市","address":"狛江市和泉本町1-1-5","lat":35.634887,"lon":139.578748},{"name":"＊?東大和市立中央図書館","province":"東京都","city":"東大和市","address":"東大和市中央3-930","lat":35.745395,"lon":139.426625},{"name":"＊?東大和市立桜が丘図書館","province":"東京都","city":"東大和市","address":"東大和市桜が丘3-44-13","lat":35.733817,"lon":139.420084},{"name":"＊?東大和市立清原図書館","province":"東京都","city":"東大和市","address":"東大和市清原4-1","lat":35.740808,"lon":139.447211},{"name":"＊?清瀬市立駅前図書館","province":"東京都","city":"清瀬市","address":"清瀬市元町1-4-5クレア4階","lat":35.773277,"lon":139.520536},{"name":"＊?清瀬市立野塩図書館","province":"東京都","city":"清瀬市","address":"清瀬市野塩1-322-2野塩地域市民センター内","lat":35.779157,"lon":139.499467},{"name":"＊?清瀬市立中央図書館","province":"東京都","city":"清瀬市","address":"清瀬市梅園1-1-21","lat":35.773147,"lon":139.511149},{"name":"＊?清瀬市立竹丘図書館","province":"東京都","city":"清瀬市","address":"清瀬市竹丘1-11-1竹丘地域市民センター内","lat":35.765895,"lon":139.511508},{"name":"＊?清瀬市立下宿図書館","province":"東京都","city":"清瀬市","address":"清瀬市下宿2-524-1下宿地域市民センター内","lat":35.797546,"lon":139.533297},{"name":"＊?清瀬市立元町こども図書館","province":"東京都","city":"清瀬市","address":"清瀬市元町1-6-6清瀬けやきホール内","lat":35.774685,"lon":139.519584},{"name":"＊?東久留米市立東部図書館","province":"東京都","city":"東久留米市","address":"東久留米市大門町2-10-5東部地域センター内","lat":35.764827,"lon":139.540862},{"name":"＊?東久留米市立ひばりが丘図書館","province":"東京都","city":"東久留米市","address":"東久留米市ひばりが丘団地185南部地域センター内","lat":35.746564,"lon":139.534329},{"name":"＊?東久留米市立滝山図書館","province":"東京都","city":"東久留米市","address":"東久留米市滝山4-1-10西部地域センター内","lat":35.744878,"lon":139.504401},{"name":"＊?東久留米市立中央図書館","province":"東京都","city":"東久留米市","address":"東久留米市中央町2-6-23","lat":35.755517,"lon":139.522346},{"name":"＊?残堀・伊奈平地区図書館","province":"東京都","city":"武蔵村山市","address":"武蔵村山市残堀1-60-3","lat":35.746169,"lon":139.375101},{"name":"＊?三ツ木地区図書館","province":"東京都","city":"武蔵村山市","address":"武蔵村山市三ツ木2-39-2","lat":35.758531,"lon":139.368584},{"name":"＊?大南地区図書館","province":"東京都","city":"武蔵村山市","address":"武蔵村山市大南5-1-69","lat":35.735662,"lon":139.40584},{"name":"＊?雷塚地区図書館","province":"東京都","city":"武蔵村山市","address":"武蔵村山市学園4-4","lat":35.745877,"lon":139.400497},{"name":"＊?中藤地区図書館","province":"東京都","city":"武蔵村山市","address":"武蔵村山市中藤3-16","lat":35.756927,"lon":139.400763},{"name":"＊?中久保図書館","province":"東京都","city":"武蔵村山市","address":"武蔵村山市本町2-77-1","lat":35.754543,"lon":139.382963},{"name":"＊?多摩市立図書館","province":"東京都","city":"多摩市","address":"多摩市落合2-29","lat":35.617488,"lon":139.425113},{"name":"＊?多摩市立東寺方図書館","province":"東京都","city":"多摩市","address":"多摩市東寺方626-7","lat":35.643294,"lon":139.437744},{"name":"＊?多摩市立豊ヶ丘図書館","province":"東京都","city":"多摩市","address":"多摩市豊ヶ丘5-6","lat":35.614553,"lon":139.434715},{"name":"＊?多摩市立関戸図書館","province":"東京都","city":"多摩市","address":"多摩市関戸1-1-5ザ・スクエア2階","lat":35.651683,"lon":139.446089},{"name":"＊?多摩市立聖ヶ丘図書館","province":"東京都","city":"多摩市","address":"多摩市聖ヶ丘2-21-1","lat":35.630976,"lon":139.458074},{"name":"＊?多摩市立永山図書館","province":"東京都","city":"多摩市","address":"多摩市永山1-5ベルブ永山3階","lat":35.62826,"lon":139.448429},{"name":"＊?多摩市立唐木田図書館","province":"東京都","city":"多摩市","address":"多摩市鶴牧6-14","lat":35.611895,"lon":139.425901},{"name":"＊?多摩市立図書館行政資料室","province":"東京都","city":"多摩市","address":"多摩市関戸6-12-1","lat":35.637149,"lon":139.446295},{"name":"＊?稲城市立中央図書館","province":"東京都","city":"稲城市","address":"稲城市向陽台4-6-18","lat":35.645642,"lon":139.488417},{"name":"＊?稲城市立第一図書館","province":"東京都","city":"稲城市","address":"稲城市東長沼2111","lat":35.638078,"lon":139.503749},{"name":"＊?稲城市立第二図書館","province":"東京都","city":"稲城市","address":"稲城市矢野口1780","lat":35.634849,"lon":139.518967},{"name":"＊?稲城市立第三図書館","province":"東京都","city":"稲城市","address":"稲城市平尾1-20-5","lat":35.613117,"lon":139.492461},{"name":"＊?稲城市立第四図書館","province":"東京都","city":"稲城市","address":"稲城市東長沼271","lat":35.645914,"lon":139.505366},{"name":"＊?稲城市立iプラザ図書館","province":"東京都","city":"稲城市","address":"稲城市若葉台2-5-2","lat":35.621149,"lon":139.472184},{"name":"＊?羽村市図書館","province":"東京都","city":"羽村市","address":"羽村市緑ヶ丘2-11-2","lat":35.764333,"lon":139.316618},{"name":"＊?羽村市図書館小作台図書室","province":"東京都","city":"羽村市","address":"羽村市小作台5-6-4","lat":35.774731,"lon":139.300783},{"name":"＊?羽村市図書館加美分室","province":"東京都","city":"羽村市","address":"羽村市羽加美3-10-12","lat":35.764221,"lon":139.302333},{"name":"＊?羽村市図書館富士見平分室","province":"東京都","city":"羽村市","address":"羽村市富士見平1-18","lat":35.765932,"lon":139.325657},{"name":"＊?羽村市図書館川崎分室","province":"東京都","city":"羽村市","address":"羽村市川崎4-2-4","lat":35.753009,"lon":139.316964},{"name":"＊?東部図書館エル","province":"東京都","city":"あきる野市","address":"あきる野市野辺39-27","lat":35.725236,"lon":139.315717},{"name":"＊?五日市図書館","province":"東京都","city":"あきる野市","address":"あきる野市五日市368","lat":35.729872,"lon":139.222342},{"name":"＊?中央図書館??増戸分室","province":"東京都","city":"あきる野市","address":"あきる野市伊奈1157-5","lat":35.727463,"lon":139.247615},{"name":"＊?中央図書館","province":"東京都","city":"あきる野市","address":"あきる野市秋川1-16-2","lat":35.730652,"lon":139.288709},{"name":"＊?西東京市中央図書館","province":"東京都","city":"西東京市","address":"西東京市南町5-6-11","lat":35.726018,"lon":139.537789},{"name":"＊?西東京市保谷駅前図書館","province":"東京都","city":"西東京市","address":"西東京市東町3-14-30ステア4階","lat":35.748151,"lon":139.567256},{"name":"＊?西東京市芝久保図書館","province":"東京都","city":"西東京市","address":"西東京市芝久保町5-4-48","lat":35.73269,"lon":139.528134},{"name":"＊?西東京市谷戸図書館","province":"東京都","city":"西東京市","address":"西東京市谷戸町1-17-2","lat":35.741248,"lon":139.54395},{"name":"＊?西東京市柳沢図書館","province":"東京都","city":"西東京市","address":"西東京市柳沢1-15-1","lat":35.728384,"lon":139.553957},{"name":"＊?西東京市ひばりが丘図書館","province":"東京都","city":"西東京市","address":"西東京市ひばりが丘1-2-1","lat":35.751801,"lon":139.54356},{"name":"＊?新町福祉会館図書サービス","province":"東京都","city":"西東京市","address":"西東京市新町5-2-7","lat":35.71296,"lon":139.536402},{"name":"＊?元狭山ふるさと思い出館図書室","province":"東京都","city":"西多摩郡瑞穂町","address":"瑞穂町二本木710","lat":35.789626,"lon":139.354843},{"name":"＊?殿ケ谷図書室","province":"東京都","city":"西多摩郡瑞穂町","address":"瑞穂町殿ケ谷988","lat":35.765225,"lon":139.363774},{"name":"＊?長岡コミュニティセンター図書室","province":"東京都","city":"西多摩郡瑞穂町","address":"瑞穂町箱根ケ崎1180番地長岡コミュニティセンター内","lat":35.780933,"lon":139.337174},{"name":"＊?瑞穂町図書館","province":"東京都","city":"西多摩郡瑞穂町","address":"瑞穂町石畑1962","lat":35.774735,"lon":139.356719},{"name":"＊?武蔵野コミュニティーセンター図書室","province":"東京都","city":"西多摩郡瑞穂町","address":"瑞穂町むさし野1-5瑞穂アパート27号棟武蔵野コミュニティセンター内","lat":35.76158,"lon":139.339706},{"name":"＊?日の出町立図書館大久野分室","province":"東京都","city":"西多摩郡日の出町","address":"日の出町大字大久野1167-6","lat":35.745199,"lon":139.235803},{"name":"＊?日の出町立図書館","province":"東京都","city":"西多摩郡日の出町","address":"日の出町平井2780","lat":35.742186,"lon":139.256972},{"name":"＊?檜原村立図書館","province":"東京都","city":"西多摩郡檜原村","address":"東京都西多摩郡檜原村621-1","lat":35.730768,"lon":139.143517},{"name":"＊?奥多摩町立氷川図書館","province":"東京都","city":"西多摩郡奥多摩町","address":"奥多摩町氷川199-ロ奥多摩町福祉会館内","lat":35.80878,"lon":139.097301},{"name":"＊?奥多摩町立古里図書館","province":"東京都","city":"西多摩郡奥多摩町","address":"奥多摩町小丹波82奥多摩文化会館内","lat":35.815303,"lon":139.149913},{"name":"大島町図書館","province":"東京都","city":"大島町","address":"大島町元町1-15","lat":34.753087,"lon":139.354149},{"name":"＊?神津島村図書館","province":"東京都","city":"神津島村","address":"神津島村974","lat":34.205111,"lon":139.13935},{"name":"＊?三宅村立図書館","province":"東京都","city":"三宅村","address":"三宅村阿古497","lat":34.075968,"lon":139.479169},{"name":"＊?八丈町立図書館","province":"東京都","city":"八丈町","address":"八丈町三根26-6","lat":33.113517,"lon":139.792649},{"name":"＊?青ヶ島村立図書館","province":"東京都","city":"青ヶ島村","address":"東京都青ヶ島村無番地","lat":32.466577,"lon":139.763753},{"name":"ひきふね図書館","province":"東京都","city":"墨田区","address":"墨田区京島一丁目36番5号","lat":35.717058,"lon":139.819491},{"name":"立花図書館","province":"東京都","city":"墨田区","address":"墨田区立花六丁目8番1号101号室","lat":35.710694,"lon":139.834842},{"name":"東駒形コミュニティ会館図書室","province":"東京都","city":"墨田区","address":"墨田区東駒形四丁目14番1号","lat":35.705517,"lon":139.807746},{"name":"梅若橋コミュニティ会館図書室","province":"東京都","city":"墨田区","address":"墨田区堤通二丁目9番1号","lat":35.735335,"lon":139.816746},{"name":"横川コミュニティ会館図書室","province":"東京都","city":"墨田区","address":"墨田区横川五丁目9番1号","lat":35.705116,"lon":139.81758}]}