{"category":"park","data":[{"name":"東八潮緑道公園","province":"東京都","city":"品川区","address":"東京都品川区東八潮","lat":35.619315,"lon":139.771579},{"name":"大井ふ頭中央海浜公園","province":"東京都","city":"品川区","address":"東京都品川区八潮四丁目1番19号","lat":35.594776,"lon":139.753229},{"name":"コンテナふ頭公園","province":"東京都","city":"品川区","address":"東京都品川区八潮二丁目","lat":35.596416,"lon":139.762908},{"name":"みなとが丘ふ頭公園","province":"東京都","city":"品川区","address":"東京都品川区八潮三丁目","lat":35.596471,"lon":139.762922},{"name":"京浜運河緑道公園","province":"東京都","city":"品川区","address":"東京都品川区八潮一丁目・五丁目","lat":35.596784,"lon":139.748901},{"name":"大井ふ頭緑道公園","province":"東京都","city":"品川区","address":"東京都品川区八潮四丁目・五丁目","lat":35.59655,"lon":139.754552},{"name":"潮風公園","province":"東京都","city":"品川区","address":"東京都品川区東八潮1・2番","lat":35.62398,"lon":139.768796},{"name":"五反田文化センター","province":"東京都","city":"品川区","address":"東京都品川区西五反田6-5-1","lat":35.6226453,"lon":139.7166191},{"name":"荏原文化センター","province":"東京都","city":"品川区","address":"東京都品川区中延1-9-15","lat":35.6121257,"lon":139.7106906},{"name":"旗の台文化センター","province":"東京都","city":"品川区","address":"東京都品川区旗の台5-19-5","lat":35.6038448,"lon":139.7002532},{"name":"東品川文化センター","province":"東京都","city":"品川区","address":"東京都品川区東品川3-32-10","lat":35.6129526,"lon":139.7504552},{"name":"南大井文化センター","province":"東京都","city":"品川区","address":"東京都品川区南大井1-12-6","lat":35.5962353,"lon":139.7375818},{"name":"品川図書館","province":"東京都","city":"品川区","address":"東京都品川区北品川2-32-3","lat":35.6168807,"lon":139.7423369},{"name":"二葉図書館","province":"東京都","city":"品川区","address":"東京都品川区二葉1-4-25保育園と併設","lat":35.608058,"lon":139.7268669},{"name":"荏原図書館","province":"東京都","city":"品川区","address":"東京都品川区中延1-9-15文化センターと併設","lat":35.6121614,"lon":139.7105618},{"name":"南大井図書館","province":"東京都","city":"品川区","address":"東京都品川区南大井3-7-13保育園等と併設","lat":35.5915864,"lon":139.7343977},{"name":"源氏前図書館","province":"東京都","city":"品川区","address":"東京都品川区中延4-14-17保育園と併設","lat":35.6054776,"lon":139.7099039},{"name":"ゆたか図書館","province":"東京都","city":"品川区","address":"東京都品川区豊町1-17-7","lat":35.6115833,"lon":139.7224334},{"name":"大井図書館","province":"東京都","city":"品川区","address":"東京都品川区大井5-19-14滝王子児童センターと併設","lat":35.5981956,"lon":139.7291339},{"name":"五反田図書館","province":"東京都","city":"品川区","address":"東京都品川区西五反田6-5-1教育総合会館","lat":35.6224934,"lon":139.7167534},{"name":"大崎図書館","province":"東京都","city":"品川区","address":"東京都品川区大崎2-4-8","lat":35.6185888,"lon":139.7257251},{"name":"八潮図書館","province":"東京都","city":"品川区","address":"東京都品川区八潮5-10-27地域センター内","lat":35.5998508,"lon":139.7516856},{"name":"品川歴史館","province":"東京都","city":"品川区","address":"東京都品川区大井6-11-1","lat":35.596791,"lon":139.7301024},{"name":"メイプルセンター","province":"東京都","city":"品川区","address":"東京都品川区西大井1-4-25","lat":35.6020613,"lon":139.722429},{"name":"O美術館","province":"東京都","city":"品川区","address":"東京都品川区大崎1-6-2大崎ニューシティ2号館2階","lat":35.6207867,"lon":139.7292687},{"name":"品川区民ギャラリー","province":"東京都","city":"品川区","address":"東京都品川区大井1-3-6イトーヨーカドー大井町店8階","lat":35.6071335,"lon":139.7340314},{"name":"しながわ水族館","province":"東京都","city":"品川区","address":"東京都品川区勝島3-2-1しながわ区民公園内","lat":35.5886339,"lon":139.7373639},{"name":"久米美術館","province":"東京都","city":"品川区","address":"東京都品川区上大崎2-25-5久米ビル8階","lat":35.6345473,"lon":139.714759},{"name":"原美術館","province":"東京都","city":"品川区","address":"東京都品川区北品川4-7-25","lat":35.6210782,"lon":139.7360376},{"name":"船の科学館","province":"東京都","city":"品川区","address":"東京都品川区東八潮3-1","lat":35.6201925,"lon":139.7721938},{"name":"杉野学園衣裳博物館","province":"東京都","city":"品川区","address":"東京都品川区上大崎4-6-19","lat":35.631742,"lon":139.7158541},{"name":"総合体育館","province":"東京都","city":"品川区","address":"東京都品川区北品川5-6-11","lat":35.6245295,"lon":139.7284885},{"name":"天王洲公園野球場","province":"東京都","city":"品川区","address":"東京都品川区東品川2-5-42","lat":35.620512,"lon":139.7498021},{"name":"八潮北公園野球場","province":"東京都","city":"品川区","address":"東京都品川区八潮1-3-1","lat":35.612284,"lon":139.7544038},{"name":"大井ふ頭中央海浜公園野球場","province":"東京都","city":"品川区","address":"東京都品川区八潮4-1-19","lat":35.5909394,"lon":139.7524388},{"name":"子供の森野球場","province":"東京都","city":"品川区","address":"東京都品川区北品川3-10-13","lat":35.6162182,"lon":139.7375654},{"name":"しながわ区民公園野球場","province":"東京都","city":"品川区","address":"東京都品川区勝島3-2-2","lat":35.5944787,"lon":139.7402054},{"name":"東品川公園庭球場","province":"東京都","city":"品川区","address":"東京都品川区東品川3-14-9","lat":35.6143635,"lon":139.7461634},{"name":"八潮北公園庭球場","province":"東京都","city":"品川区","address":"東京都品川区八潮1-3-1","lat":35.6129967,"lon":139.7540129},{"name":"しながわ区民公園庭球場","province":"東京都","city":"品川区","address":"東京都品川区勝島3-2-2","lat":35.5936557,"lon":139.7393529},{"name":"しながわ中央公園庭球場","province":"東京都","city":"品川区","address":"東京都品川区西品川1-27","lat":35.6097377,"lon":139.7279341},{"name":"大井ふ頭中央海浜公園","province":"東京都","city":"品川区","address":"東京都品川区八潮4-1-19","lat":35.5925026,"lon":139.7522894},{"name":"東品川公園弓道場","province":"東京都","city":"品川区","address":"東京都品川区東品川3-14-9","lat":35.6140525,"lon":139.7460328},{"name":"大井ふ頭中央海浜公園陸上競技場・球技場","province":"東京都","city":"品川区","address":"東京都品川区八潮4-1-19","lat":35.5940313,"lon":139.7538181},{"name":"しながわ区民公園デイキャンプ場","province":"東京都","city":"品川区","address":"東京都品川区勝島3-2-2","lat":35.5928626,"lon":139.7386287},{"name":"大井ふ頭野外活動広場","province":"東京都","city":"品川区","address":"東京都品川区八潮2-1","lat":35.6126052,"lon":139.7600531},{"name":"都立林試の森公園","province":"東京都","city":"品川区","address":"東京都品川区小山台2","lat":35.624815,"lon":139.7009359},{"name":"戸越公園","province":"東京都","city":"品川区","address":"東京都品川区豊町2-1-30","lat":35.6105921,"lon":139.7223832},{"name":"池田山公園","province":"東京都","city":"品川区","address":"東京都品川区東五反田5-4-35","lat":35.6323459,"lon":139.7236052},{"name":"五反田公園","province":"東京都","city":"品川区","address":"東京都品川区東五反田5-4-35","lat":35.6278208,"lon":139.7237145},{"name":"子供の森公園","province":"東京都","city":"品川区","address":"東京都品川区北品川3-10-13","lat":35.6166914,"lon":139.7381085},{"name":"東品川海上公園","province":"東京都","city":"品川区","address":"東京都品川区東品川2-6-22","lat":35.6186916,"lon":139.7491971},{"name":"権現山公園","province":"東京都","city":"品川区","address":"東京都品川区北品川3-9-5","lat":35.6187142,"lon":139.7376057},{"name":"八ッ山公園","province":"東京都","city":"品川区","address":"東京都品川区北品川1-14-7","lat":35.6247364,"lon":139.7430093},{"name":"聖蹟公園","province":"東京都","city":"品川区","address":"東京都品川区北品川2-7-21","lat":35.6189521,"lon":139.7443715},{"name":"東品川公園","province":"東京都","city":"品川区","address":"東京都品川区東品川3-14-9","lat":35.614099,"lon":139.7463244},{"name":"天王洲公園","province":"東京都","city":"品川区","address":"東京都品川区東品川2-5-42","lat":35.6204067,"lon":139.7499533},{"name":"五反田南公園","province":"東京都","city":"品川区","address":"東京都品川区東五反田2-1-14","lat":35.6246215,"lon":139.7251167},{"name":"東八ツ山公園","province":"東京都","city":"品川区","address":"東京都品川区北品川1-15-11","lat":35.6246366,"lon":139.7436804},{"name":"品川浦公園","province":"東京都","city":"品川区","address":"東京都品川区東品川1-7-17","lat":35.6211219,"lon":139.7422478},{"name":"東海公園","province":"東京都","city":"品川区","address":"東京都品川区東品川3-29-6","lat":35.6130943,"lon":139.7492899},{"name":"品海公園","province":"東京都","city":"品川区","address":"東京都品川区北品川1-30-9","lat":35.6202825,"lon":139.7425247},{"name":"北品川公園","province":"東京都","city":"品川区","address":"東京都品川区北品川2-12-5","lat":35.6187939,"lon":139.7418989},{"name":"東海第二公園","province":"東京都","city":"品川区","address":"東京都品川区東品川3-17-15","lat":35.6141392,"lon":139.7501659},{"name":"上大崎公園","province":"東京都","city":"品川区","address":"東京都品川区上大崎1-3-13","lat":35.6344771,"lon":139.7220198},{"name":"そよかぜ公園","province":"東京都","city":"品川区","address":"東京都品川区西品川2-17-8","lat":35.6119056,"lon":139.726801},{"name":"希望ケ丘公園","province":"東京都","city":"品川区","address":"東京都品川区上大崎3-10-25","lat":35.6316661,"lon":139.7181967},{"name":"東品川一丁目公園","province":"東京都","city":"品川区","address":"東京都品川区東品川1-2-11","lat":35.6228223,"lon":139.7439585},{"name":"西五反田公園","province":"東京都","city":"品川区","address":"東京都品川区西五反田5-6-4","lat":35.6240105,"lon":139.7154566},{"name":"大崎公園","province":"東京都","city":"品川区","address":"東京都品川区大崎5-5-17","lat":35.6229714,"lon":139.7242114},{"name":"西の台公園","province":"東京都","city":"品川区","address":"東京都品川区西品川1-4-8","lat":35.6140173,"lon":139.7292998},{"name":"横丁公園","province":"東京都","city":"品川区","address":"東京都品川区南品川5-4-9","lat":35.6104742,"lon":139.7416732},{"name":"二日市公園","province":"東京都","city":"品川区","address":"東京都品川区南品川6-7-15","lat":35.6114153,"lon":139.7392199},{"name":"洲崎公園","province":"東京都","city":"品川区","address":"東京都品川区東品川1-36-15","lat":35.6181179,"lon":139.7464779},{"name":"敬老公園","province":"東京都","city":"品川区","address":"東京都品川区東品川3-32-8","lat":35.6125913,"lon":139.7504909},{"name":"西八丁公園","province":"東京都","city":"品川区","address":"東京都品川区西五反田8-11-4","lat":35.6198083,"lon":139.7192194},{"name":"御成橋公園","province":"東京都","city":"品川区","address":"東京都品川区東五反田2-15-20","lat":35.6221878,"lon":139.7290515},{"name":"浅間台公園","province":"東京都","city":"品川区","address":"東京都品川区南品川6-18-19","lat":35.6083817,"lon":139.7367316},{"name":"西霧ケ谷公園","province":"東京都","city":"品川区","address":"東京都品川区西五反田5-28-16","lat":35.6232095,"lon":139.7118827},{"name":"北浜公園","province":"東京都","city":"品川区","address":"東京都品川区北品川2-28-12","lat":35.6174921,"lon":139.7449993},{"name":"広町公園","province":"東京都","city":"品川区","address":"東京都品川区広町1-3-30","lat":35.6123605,"lon":139.7351918},{"name":"鎗ケ崎公園","province":"東京都","city":"品川区","address":"東京都品川区西品川3-12-2","lat":35.6156122,"lon":139.7243818},{"name":"三ツ木公園","province":"東京都","city":"品川区","address":"東京都品川区西品川2-6-11","lat":35.6139413,"lon":139.7264799},{"name":"西品川公園","province":"東京都","city":"品川区","address":"東京都品川区西品川1-8-7","lat":35.6128802,"lon":139.7310941},{"name":"仙台坂公園","province":"東京都","city":"品川区","address":"東京都品川区南品川5-16-1","lat":35.6086452,"lon":139.7414579},{"name":"台場浦公園","province":"東京都","city":"品川区","address":"東京都品川区東品川1-8-34","lat":35.6216698,"lon":139.7431657},{"name":"小関公園","province":"東京都","city":"品川区","address":"東京都品川区北品川5-8-21","lat":35.6191593,"lon":139.7334377},{"name":"かむろ坂公園","province":"東京都","city":"品川区","address":"東京都品川区西五反田4-28-9","lat":35.6252248,"lon":139.7115793},{"name":"南品川広場公園","province":"東京都","city":"品川区","address":"東京都品川区南品川5-10-27","lat":35.6091608,"lon":139.7399649},{"name":"西品川おさんぽ公園","province":"東京都","city":"品川区","address":"東京都品川区西品川3-9-24","lat":35.6161546,"lon":139.7238086},{"name":"南五公園","province":"東京都","city":"品川区","address":"東京都品川区南品川5-2-5","lat":35.6121,"lon":139.7412136},{"name":"天王洲アイル第一公園","province":"東京都","city":"品川区","address":"東京都品川区東品川2-3-21","lat":35.6238252,"lon":139.7516914},{"name":"天王洲アイル第四公園","province":"東京都","city":"品川区","address":"東京都品川区東品川2-2-2","lat":35.6236929,"lon":139.7487608},{"name":"天王洲アイル第三公園","province":"東京都","city":"品川区","address":"東京都品川区東品川2-2-12","lat":35.6224955,"lon":139.7492579},{"name":"天王洲アイル第二公園","province":"東京都","city":"品川区","address":"東京都品川区東品川2-2-17","lat":35.6217557,"lon":139.7496532},{"name":"天王洲アイル第九公園","province":"東京都","city":"品川区","address":"東京都品川区東品川2-4-3","lat":35.619101,"lon":139.7512037},{"name":"居木橋公園","province":"東京都","city":"品川区","address":"東京都品川区大崎1-14-4","lat":35.6186203,"lon":139.7327293},{"name":"大井海岸公園","province":"東京都","city":"品川区","address":"東京都品川区南大井3-27-5","lat":35.5884632,"lon":139.7336472},{"name":"大井水神公園","province":"東京都","city":"品川区","address":"東京都品川区南大井5-16-1","lat":35.5953553,"lon":139.7324926},{"name":"鈴ケ森公園","province":"東京都","city":"品川区","address":"東京都品川区南大井4-18-14","lat":35.5935095,"lon":139.7349352},{"name":"大井駅前公園","province":"東京都","city":"品川区","address":"東京都品川区大井1-2-5","lat":35.6053196,"lon":139.7346978},{"name":"大井公園","province":"東京都","city":"品川区","address":"東京都品川区東大井4-8-4","lat":35.605024,"lon":139.7409681},{"name":"東大井公園","province":"東京都","city":"品川区","address":"東京都品川区東大井3-4-4","lat":35.6038641,"lon":139.7388023},{"name":"大井中央公園","province":"東京都","city":"品川区","address":"東京都品川区大井1-46-8","lat":35.6045173,"lon":139.7323525},{"name":"鮫浜公園","province":"東京都","city":"品川区","address":"東京都品川区東大井2-2-3","lat":35.6030276,"lon":139.7415602},{"name":"大井坂下公園","province":"東京都","city":"品川区","address":"東京都品川区南大井6-23-11","lat":35.5895156,"lon":139.7307857},{"name":"金子山公園","province":"東京都","city":"品川区","address":"東京都品川区西大井4-11-6","lat":35.5958295,"lon":139.7207333},{"name":"新浜川公園","province":"東京都","city":"品川区","address":"東京都品川区東大井2-26-18","lat":35.597859,"lon":139.7409281},{"name":"わかくさ公園","province":"東京都","city":"品川区","address":"東京都品川区勝島1-6-1","lat":35.5980432,"lon":139.7439051},{"name":"峰原公園","province":"東京都","city":"品川区","address":"東京都品川区大崎3-17-27","lat":35.6179556,"lon":139.7211907},{"name":"原っぱ公園","province":"東京都","city":"品川区","address":"東京都品川区西大井6-1-14","lat":35.6010988,"lon":139.7147961},{"name":"宮下公園","province":"東京都","city":"品川区","address":"東京都品川区大井2-7-16","lat":35.6052129,"lon":139.7283995},{"name":"浜川公園","province":"東京都","city":"品川区","address":"東京都品川区南大井4-8-22","lat":35.597232,"lon":139.735757},{"name":"滝王子公園","province":"東京都","city":"品川区","address":"東京都品川区大井5-19-5","lat":35.598389,"lon":139.7288059},{"name":"出石公園","province":"東京都","city":"品川区","address":"東京都品川区西大井3-16-27","lat":35.5948663,"lon":139.7220948},{"name":"浜川北公園","province":"東京都","city":"品川区","address":"東京都品川区東大井3-26-6","lat":35.5991428,"lon":139.7375333},{"name":"桐畑公園","province":"東京都","city":"品川区","address":"東京都品川区南大井6-1-17","lat":35.5930521,"lon":139.7316701},{"name":"西の森公園","province":"東京都","city":"品川区","address":"東京都品川区西大井4-2-1","lat":35.5977248,"lon":139.7213155},{"name":"関ケ原公園","province":"東京都","city":"品川区","address":"東京都品川区東大井6-12-21","lat":35.6021738,"lon":139.7356259},{"name":"倉田公園","province":"東京都","city":"品川区","address":"東京都品川区大井4-29-23","lat":35.5985102,"lon":139.7323597},{"name":"西大井広場公園","province":"東京都","city":"品川区","address":"東京都品川区西大井1-4-10","lat":35.6022575,"lon":139.7234259},{"name":"元芝公園","province":"東京都","city":"品川区","address":"東京都品川区東大井3-7-18","lat":35.6027444,"lon":139.739034},{"name":"西大井緑地公園","province":"東京都","city":"品川区","address":"東京都品川区西大井6-10-16","lat":35.6003331,"lon":139.720565},{"name":"八潮公園","province":"東京都","city":"品川区","address":"東京都品川区八潮5-11-16","lat":35.6004044,"lon":139.753707},{"name":"しおじ公園","province":"東京都","city":"品川区","address":"東京都品川区八潮5-8-1","lat":35.596166,"lon":139.7506565},{"name":"大井鹿島公園","province":"東京都","city":"品川区","address":"東京都品川区大井6-8-2","lat":35.5969544,"lon":139.7324428},{"name":"谷垂公園","province":"東京都","city":"品川区","address":"東京都品川区西大井6-13-10","lat":35.5999544,"lon":139.7178919},{"name":"やまなか公園","province":"東京都","city":"品川区","address":"東京都品川区大井3-22-3","lat":35.6010389,"lon":139.7278306},{"name":"大森貝塚遺跡庭園","province":"東京都","city":"品川区","address":"東京都品川区大井6-21-6","lat":35.5934543,"lon":139.729945},{"name":"八潮北公園","province":"東京都","city":"品川区","address":"東京都品川区八潮1-3-1","lat":35.6125983,"lon":139.7539033},{"name":"平塚公園","province":"東京都","city":"品川区","address":"東京都品川区荏原4-5-2","lat":35.6157671,"lon":139.708228},{"name":"荏原南公園","province":"東京都","city":"品川区","address":"東京都品川区荏原6-16-4","lat":35.6113692,"lon":139.7033671},{"name":"小山台公園","province":"東京都","city":"品川区","address":"東京都品川区小山台2-2-1","lat":35.6248922,"lon":139.6981314},{"name":"荏原中央公園","province":"東京都","city":"品川区","address":"東京都品川区荏原5-1-2","lat":35.6159767,"lon":139.7041853},{"name":"西中延公園","province":"東京都","city":"品川区","address":"東京都品川区西中延2-7-14","lat":35.6105541,"lon":139.7085285},{"name":"戸越台公園","province":"東京都","city":"品川区","address":"東京都品川区戸越1-7-17","lat":35.6161321,"lon":139.7177248},{"name":"旗の台公園","province":"東京都","city":"品川区","address":"東京都品川区旗の台5-19-9","lat":35.6040258,"lon":139.7004152},{"name":"小山台東公園","province":"東京都","city":"品川区","address":"東京都品川区小山台1-26-12","lat":35.6223239,"lon":139.7064386},{"name":"旗の台南公園","province":"東京都","city":"品川区","address":"東京都品川区旗の台5-11-11","lat":35.6037154,"lon":139.7027102},{"name":"中原公園","province":"東京都","city":"品川区","address":"東京都品川区小山1-4-4","lat":35.6219746,"lon":139.7124807},{"name":"東中延公園","province":"東京都","city":"品川区","address":"東京都品川区東中延2-10-2","lat":35.6068908,"lon":139.7126514},{"name":"中原東公園","province":"東京都","city":"品川区","address":"東京都品川区荏原1-21-9","lat":35.6185943,"lon":139.7148479},{"name":"荏原町公園","province":"東京都","city":"品川区","address":"東京都品川区中延5-14-5","lat":35.6022758,"lon":139.7089365},{"name":"荏三公園","province":"東京都","city":"品川区","address":"東京都品川区荏原3-3-10","lat":35.6181535,"lon":139.70724},{"name":"平塚中央公園","province":"東京都","city":"品川区","address":"東京都品川区平塚2-2-12","lat":35.6185059,"lon":139.7171993},{"name":"荏原西公園","province":"東京都","city":"品川区","address":"東京都品川区荏原6-5-5","lat":35.6134663,"lon":139.7046724},{"name":"大原公園","province":"東京都","city":"品川区","address":"東京都品川区戸越6-14-1","lat":35.6070604,"lon":139.7142801},{"name":"豊町公園","province":"東京都","city":"品川区","address":"東京都品川区豊町6-16-3","lat":35.6046453,"lon":139.7164018},{"name":"後地公園","province":"東京都","city":"品川区","address":"東京都品川区小山2-9-16","lat":35.620416,"lon":139.7091543},{"name":"京陽公園","province":"東京都","city":"品川区","address":"東京都品川区平塚2-12-3","lat":35.6168582,"lon":139.7130085},{"name":"二葉公園","province":"東京都","city":"品川区","address":"東京都品川区二葉4-13-5","lat":35.6036677,"lon":139.7181245},{"name":"中延公園","province":"東京都","city":"品川区","address":"東京都品川区西中延1-9-8","lat":35.6118321,"lon":139.7078466},{"name":"旗の台北公園","province":"東京都","city":"品川区","address":"東京都品川区旗の台3-10-15","lat":35.6056948,"lon":139.7046722},{"name":"源氏前公園","province":"東京都","city":"品川区","address":"東京都品川区中延6-4-15","lat":35.6021981,"lon":139.7124067},{"name":"平塚たけのこ公園","province":"東京都","city":"品川区","address":"東京都品川区平塚1-17-7","lat":35.612992,"lon":139.7135962},{"name":"東中はなみずき公園","province":"東京都","city":"品川区","address":"東京都品川区東中延1-8-9","lat":35.6111469,"lon":139.7127157},{"name":"延山くすのき公園","province":"東京都","city":"品川区","address":"東京都品川区西中延3-3-1","lat":35.6082001,"lon":139.7090281},{"name":"西中お日さま公園","province":"東京都","city":"品川区","address":"東京都品川区西中延3-10-11","lat":35.6069196,"lon":139.7066103},{"name":"旗の台なか公園","province":"東京都","city":"品川区","address":"東京都品川区旗の台3-9-12","lat":35.6047084,"lon":139.7057966},{"name":"しいのき公園","province":"東京都","city":"品川区","address":"東京都品川区荏原5-5-12","lat":35.6149083,"lon":139.7032179},{"name":"葦山公園","province":"東京都","city":"品川区","address":"東京都品川区豊町1-6-7","lat":35.6136482,"lon":139.7226868},{"name":"戸越南公園","province":"東京都","city":"品川区","address":"東京都品川区戸越6-8-8","lat":35.6073047,"lon":139.7185868},{"name":"江戸見坂公園","province":"東京都","city":"品川区","address":"東京都品川区小山6-23-8","lat":35.6127928,"lon":139.6991778},{"name":"旗の台広場公園","province":"東京都","city":"品川区","address":"東京都品川区旗の台3-1-5","lat":35.6062347,"lon":139.7059768},{"name":"あさひ公園","province":"東京都","city":"品川区","address":"東京都品川区小山2-17-27","lat":35.6192809,"lon":139.7084085},{"name":"二鳳公園","province":"東京都","city":"品川区","address":"東京都品川区豊町4-19-20","lat":35.6054139,"lon":139.7212823},{"name":"戸越一丁目緑地","province":"東京都","city":"品川区","address":"東京都品川区戸越1-27-32","lat":35.6168281,"lon":139.7211557},{"name":"南品川児童遊園","province":"東京都","city":"品川区","address":"東京都品川区南品川1-2-29","lat":35.6157021,"lon":139.7427125},{"name":"北品川三丁目児童遊園","province":"東京都","city":"品川区","address":"東京都品川区北品川3-7-15","lat":35.618197,"lon":139.7402466},{"name":"南品川二丁目児童遊園","province":"東京都","city":"品川区","address":"東京都品川区南品川2-11-5","lat":35.6140925,"lon":139.7438683},{"name":"百反坂下児童遊園","province":"東京都","city":"品川区","address":"東京都品川区西品川3-20-22","lat":35.6155212,"lon":139.7289159},{"name":"五反田児童遊園","province":"東京都","city":"品川区","address":"東京都品川区東五反田5-21-10","lat":35.6291462,"lon":139.7204851},{"name":"上大崎児童遊園","province":"東京都","city":"品川区","address":"東京都品川区上大崎3-3-15","lat":35.6334363,"lon":139.7181125},{"name":"さつき児童遊園","province":"東京都","city":"品川区","address":"東京都品川区南品川5-8-28","lat":35.6104907,"lon":139.7405692},{"name":"西五反田六丁目児童遊園","province":"東京都","city":"品川区","address":"東京都品川区西五反田6-11-7","lat":35.6208792,"lon":139.7174968},{"name":"三ツ木児童遊園","province":"東京都","city":"品川区","address":"東京都品川区西品川2-9-18","lat":35.6133113,"lon":139.7239921},{"name":"大崎五丁目遊園","province":"東京都","city":"品川区","address":"東京都品川区大崎5-2-2","lat":35.6228272,"lon":139.7257946},{"name":"西五反田4丁目遊園","province":"東京都","city":"品川区","address":"東京都品川区西五反田4-19-7","lat":35.6254845,"lon":139.7081357},{"name":"鹿島庚塚児童遊園","province":"東京都","city":"品川区","address":"東京都品川区大井7-29-11","lat":35.5939199,"lon":139.7293702},{"name":"富士見ケ丘児童遊園","province":"東京都","city":"品川区","address":"東京都品川区西大井5-7","lat":35.5994266,"lon":139.7163581},{"name":"北浜川児童遊園","province":"東京都","city":"品川区","address":"東京都品川区東大井2-25-22","lat":35.5979676,"lon":139.7392881},{"name":"出石児童遊園","province":"東京都","city":"品川区","address":"東京都品川区西大井3-1-5","lat":35.5978042,"lon":139.7238416},{"name":"関ケ原児童遊園","province":"東京都","city":"品川区","address":"東京都品川区南大井5-2-15","lat":35.6004095,"lon":139.7349168},{"name":"東大井三丁目児童遊園","province":"東京都","city":"品川区","address":"東京都品川区東大井3-29-6","lat":35.5989275,"lon":139.7370478},{"name":"西大井ちびっこ児童遊園","province":"東京都","city":"品川区","address":"東京都品川区西大井2-24-9","lat":35.5978336,"lon":139.7250297},{"name":"作守児童遊園","province":"東京都","city":"品川区","address":"東京都品川区大井4-12-14","lat":35.6015866,"lon":139.7332105},{"name":"大井町緑地児童遊園","province":"東京都","city":"品川区","address":"東京都品川区大井1-21","lat":35.6072664,"lon":139.7319769},{"name":"桜橋児童遊園","province":"東京都","city":"品川区","address":"東京都品川区東大井3-22-1","lat":35.5998584,"lon":139.7358994},{"name":"西大井二丁目児童遊園","province":"東京都","city":"品川区","address":"東京都品川区西大井2-22-7","lat":35.5988159,"lon":139.7246907},{"name":"森下児童遊園","province":"東京都","city":"品川区","address":"東京都品川区大井2-1-13","lat":35.6062642,"lon":139.7293517},{"name":"大井倉田児童遊園","province":"東京都","city":"品川区","address":"東京都品川区大井4-22-30","lat":35.6002545,"lon":139.7322128},{"name":"鈴ケ森道路児童遊園","province":"東京都","city":"品川区","address":"東京都品川区南大井1-22-1","lat":35.5943422,"lon":139.7366713},{"name":"みなみ児童遊園","province":"東京都","city":"品川区","address":"東京都品川区南大井1-13-8","lat":35.5956552,"lon":139.7370854},{"name":"戸越児童遊園","province":"東京都","city":"品川区","address":"東京都品川区戸越3-9-20","lat":35.6119106,"lon":139.7155939},{"name":"旗岡児童遊園","province":"東京都","city":"品川区","address":"東京都品川区旗の台3-6-12","lat":35.6045153,"lon":139.7085112},{"name":"上神明児童遊園","province":"東京都","city":"品川区","address":"東京都品川区二葉4-26-11","lat":35.6022094,"lon":139.7141675},{"name":"神明児童遊園","province":"東京都","city":"品川区","address":"東京都品川区二葉1-4-25","lat":35.6082221,"lon":139.7265261},{"name":"豊町二丁目児童遊園","province":"東京都","city":"品川区","address":"東京都品川区豊町2-18-1","lat":35.609262,"lon":139.7256453},{"name":"武蔵小山児童遊園","province":"東京都","city":"品川区","address":"東京都品川区小山3-12-6","lat":35.6192277,"lon":139.7065238},{"name":"中延児童遊園","province":"東京都","city":"品川区","address":"東京都品川区中延1-10-15","lat":35.6126071,"lon":139.7106657},{"name":"荏原児童遊園","province":"東京都","city":"品川区","address":"東京都品川区荏原1-25-18","lat":35.619576,"lon":139.7119598},{"name":"荏原2丁目児童遊園","province":"東京都","city":"品川区","address":"東京都品川区荏原2-16-4","lat":35.6173838,"lon":139.7093001},{"name":"戸越六丁目児童遊園","province":"東京都","city":"品川区","address":"東京都品川区戸越6-11-6","lat":35.6075442,"lon":139.7154099},{"name":"豊町5丁目児童遊園","province":"東京都","city":"品川区","address":"東京都品川区豊町5-14-3","lat":35.6048754,"lon":139.7205924},{"name":"荏原4丁目児童遊園","province":"東京都","city":"品川区","address":"東京都品川区荏原4-10-10","lat":35.6167467,"lon":139.7054407},{"name":"西中延3丁目児童遊園","province":"東京都","city":"品川区","address":"東京都品川区西中延3-5-17","lat":35.6075609,"lon":139.7086817},{"name":"立会川児童遊園(その4)","province":"東京都","city":"品川区","address":"東京都品川区旗の台3-7","lat":35.604264,"lon":139.7064216},{"name":"立会川児童遊園(その2)","province":"東京都","city":"品川区","address":"東京都品川区旗の台2-7","lat":35.606224,"lon":139.7043707},{"name":"立会川児童遊園(その3)","province":"東京都","city":"品川区","address":"東京都品川区旗の台3-11","lat":35.6055099,"lon":139.7046205},{"name":"豊町ちびっこ児童遊園","province":"東京都","city":"品川区","address":"東京都品川区豊町1-2-3","lat":35.61505,"lon":139.723645},{"name":"小山四丁目児童遊園","province":"東京都","city":"品川区","address":"東京都品川区小山4-6-2","lat":35.6174477,"lon":139.7047386},{"name":"小山五丁目児童遊園","province":"東京都","city":"品川区","address":"東京都品川区小山5-13-4","lat":35.6165,"lon":139.7019508},{"name":"豊町児童遊園","province":"東京都","city":"品川区","address":"東京都品川区豊町4-1-12","lat":35.6072203,"lon":139.7192001},{"name":"伊藤児童遊園","province":"東京都","city":"品川区","address":"東京都品川区西大井6-17-9","lat":35.6001272,"lon":139.7158239},{"name":"中原児童遊園","province":"東京都","city":"品川区","address":"東京都品川区平塚2-6-4","lat":35.6178646,"lon":139.7153366},{"name":"わかば児童遊園","province":"東京都","city":"品川区","address":"東京都品川区戸越1-29-21","lat":35.6156815,"lon":139.7218039},{"name":"戸越ひだまり広場","province":"東京都","city":"品川区","address":"東京都品川区戸越1-4-11","lat":35.6170057,"lon":139.7193429},{"name":"戸越2丁目広場","province":"東京都","city":"品川区","address":"東京都品川区戸越2-1-9","lat":35.6144983,"lon":139.718529},{"name":"荏原一丁目ふれあい広場","province":"東京都","city":"品川区","address":"東京都品川区荏原1-2-12","lat":35.6213088,"lon":139.7131832},{"name":"コンテナふ頭公園","province":"東京都","city":"品川区","address":"東京都品川区八潮2-9-14","lat":35.6028869,"lon":139.7617793},{"name":"京浜運河緑道公園","province":"東京都","city":"品川区","address":"東京都品川区八潮1","lat":35.5970287,"lon":139.7489966},{"name":"戸越体育館","province":"東京都","city":"品川区","address":"東京都品川区豊町2-1-17","lat":35.6109014,"lon":139.7206443},{"name":"コナミスポーツクラブ","province":"東京都","city":"品川区","address":"東京都品川区東品川4-10-1","lat":35.6079875,"lon":139.7459078},{"name":"スクエア荏原(荏原平塚総合区民会館)","province":"東京都","city":"品川区","address":"東京都品川区荏原4-5-28","lat":35.6156632,"lon":139.7075936},{"name":"(財)品川区スポーツ協会","province":"東京都","city":"品川区","address":"東京都品川区東五反田2-11-2","lat":35.6245285,"lon":139.7279827},{"name":"戸越台温水プール","province":"東京都","city":"品川区","address":"東京都品川区戸越1-15-23","lat":35.6157971,"lon":139.7174902},{"name":"しながわ区民公園屋外プール","province":"東京都","city":"品川区","address":"東京都品川区勝島3-2-2","lat":35.5933913,"lon":139.7397782},{"name":"しながわ区民公園","province":"東京都","city":"品川区","address":"東京都品川区勝島3-2-2","lat":35.5925753,"lon":139.7388816},{"name":"八潮公園多目的広場","province":"東京都","city":"品川区","address":"東京都品川区八潮5-11-16","lat":35.6005626,"lon":139.7529717},{"name":"鮫洲運動公園","province":"東京都","city":"品川区","address":"東京都品川区東大井1-4-11","lat":35.6062665,"lon":139.7448001},{"name":"ねむの木の庭","province":"東京都","city":"品川区","address":"東京都品川区東五反田5丁目19-5","lat":35.6303573,"lon":139.7223487},{"name":"むつみ児童遊園","province":"東京都","city":"品川区","address":"東京都品川区南品川5-2-17","lat":35.6119612,"lon":139.7408933},{"name":"大崎5丁目児童遊園","province":"東京都","city":"品川区","address":"東京都品川区大崎5-8-5","lat":35.6220026,"lon":139.7254599},{"name":"大崎橋広場","province":"東京都","city":"品川区","address":"東京都品川区西五反田1-10-2","lat":35.6248398,"lon":139.7238},{"name":"にしよん広場","province":"東京都","city":"品川区","address":"東京都品川区西五反田4-10-6","lat":35.6258311,"lon":139.7107814},{"name":"鮫洲入江広場","province":"東京都","city":"品川区","address":"東京都品川区東大井1-13","lat":35.6031235,"lon":139.743636},{"name":"わくわく広場","province":"東京都","city":"品川区","address":"東京都品川区荏原1-4-13","lat":35.6201269,"lon":139.7127486},{"name":"宮前坂広場","province":"東京都","city":"品川区","address":"東京都品川区戸越2-6-36","lat":35.6141545,"lon":139.7195762},{"name":"森前公園","province":"東京都","city":"品川区","address":"東京都品川区西大井1-1-10","lat":35.6005115,"lon":139.7212987},{"name":"弁天通り公園","province":"東京都","city":"品川区","address":"東京都品川区中延5-3-8","lat":35.6037519,"lon":139.7087449},{"name":"庚申公園","province":"東京都","city":"品川区","address":"東京都品川区中延5-13-17","lat":35.6016896,"lon":139.7086854},{"name":"都立京浜運河緑道公園","province":"東京都","city":"品川区","address":"東京都品川区八潮1-","lat":35.5967817,"lon":139.7489721},{"name":"都立大井ふ頭中央海浜公園","province":"東京都","city":"品川区","address":"東京都品川区八潮4-1-19","lat":35.592501,"lon":139.752291},{"name":"Ｏ（オー）美術館","province":"東京都","city":"品川区","address":"東京都品川区大崎1-6-2大崎ニューシティ2号館","lat":35.620763,"lon":139.729299},{"name":"きゅりあん（品川区立総合区民会館）","province":"東京都","city":"品川区","address":"東京都品川区東大井5-18-1","lat":35.606198,"lon":139.735946},{"name":"六行会ホール","province":"東京都","city":"品川区","address":"東京都品川区北品川2-32-3","lat":35.61693,"lon":139.742471},{"name":"八潮学園温水プール","province":"東京都","city":"品川区","address":"東京都品川区八潮5-11-2","lat":35.6013431,"lon":139.7524228},{"name":"こみゅにてぃぷらざ八潮(区民活動交流施設)","province":"東京都","city":"品川区","address":"東京都品川区八潮5-9-11","lat":35.5979979,"lon":139.7524344},{"name":"旗の台東広場","province":"東京都","city":"品川区","address":"東京都品川区旗の台4-12-16","lat":35.6021403,"lon":139.7038701},{"name":"不動前緑道","province":"東京都","city":"品川区","address":"東京都品川区小山1-10-1","lat":35.6238741,"lon":139.7104671},{"name":"武蔵小山緑道","province":"東京都","city":"品川区","address":"東京都品川区小山4-10-1","lat":35.6185473,"lon":139.7013614},{"name":"西小山緑道","province":"東京都","city":"品川区","address":"東京都品川区小山6-11-1","lat":35.6140921,"lon":139.6975337},{"name":"街道松の広場","province":"東京都","city":"品川区","address":"東京都品川区南品川1-8-5","lat":35.6155237,"lon":139.744082},{"name":"しながわ中央公園","province":"東京都","city":"品川区","address":"東京都品川区西品川1-27-14","lat":35.609765,"lon":139.7289576},{"name":"谷山公園","province":"東京都","city":"品川区","address":"東京都品川区西五反田3-6-15","lat":35.6278337,"lon":139.7183477},{"name":"品川南ふ頭公園","province":"東京都","city":"品川区","address":"東京都品川区東品川5-8-4","lat":35.6224175,"lon":139.7547437},{"name":"ごこう公園","province":"東京都","city":"品川区","address":"東京都品川区中延5-9-23","lat":35.6020623,"lon":139.7067971},{"name":"東品川ひだまり緑地","province":"東京都","city":"品川区","address":"東京都品川区東品川3-11-23","lat":35.6147386,"lon":139.748782},{"name":"ゆたか南公園","province":"東京都","city":"品川区","address":"東京都品川区豊町6-29-2","lat":35.6040563,"lon":139.7163386},{"name":"相生広場","province":"東京都","city":"品川区","address":"東京都品川区東五反田4-1","lat":35.6328933,"lon":139.7263388},{"name":"亀の甲緑地","province":"東京都","city":"品川区","address":"東京都品川区上大崎4-5-37","lat":35.6282799,"lon":139.7157168},{"name":"ひふみ公園","province":"東京都","city":"品川区","address":"東京都品川区大崎2-2","lat":35.6183548,"lon":139.726293},{"name":"荏原さくら公園","province":"東京都","city":"品川区","address":"東京都品川区荏原1-24","lat":35.6189295,"lon":139.7142068},{"name":"品川シーサイド公園","province":"東京都","city":"品川区","address":"東京都品川区東品川4-12","lat":35.6077732,"lon":139.7492718},{"name":"天王洲アイル第八公園","province":"東京都","city":"品川区","address":"東京都品川区東品川2-4","lat":35.6213202,"lon":139.7510398},{"name":"杜の公園","province":"東京都","city":"品川区","address":"東京都品川区北品川1-6","lat":35.624669,"lon":139.7412033},{"name":"西五反田五丁目特定児童遊園","province":"東京都","city":"品川区","address":"東京都品川区西五反田5-17-7","lat":35.6234283,"lon":139.7142072},{"name":"荏原三丁目特定児童遊園","province":"東京都","city":"品川区","address":"東京都品川区荏原3-4","lat":35.6178543,"lon":139.7083208},{"name":"戸越一丁目特定児童遊園","province":"東京都","city":"品川区","address":"東京都品川区戸越1-9","lat":35.6166034,"lon":139.7187109},{"name":"戸越五丁目特定児童遊園","province":"東京都","city":"品川区","address":"東京都品川区戸越5-12","lat":35.6096288,"lon":139.717144},{"name":"西大井四丁目特定児童遊園","province":"東京都","city":"品川区","address":"東京都品川区西大井4-23-12","lat":35.5929071,"lon":139.7193813},{"name":"東品川屋上庭園","province":"東京都","city":"品川区","address":"東京都品川区東品川3-9","lat":35.6166431,"lon":139.7496172},{"name":"東品川健康広場","province":"東京都","city":"品川区","address":"東京都品川区東品川3-9","lat":35.6169938,"lon":139.748772},{"name":"中延一丁目特定児童遊園","province":"東京都","city":"品川区","address":"東京都品川区中延1-4-16","lat":35.6127962,"lon":139.7114077},{"name":"西品川一丁目特定児童遊園","province":"東京都","city":"品川区","address":"東京都品川区西品川1-14","lat":35.6118561,"lon":139.7290282},{"name":"南大井四丁目特定児童遊園","province":"東京都","city":"品川区","address":"東京都品川区南大井4-6","lat":35.5969682,"lon":139.7368218},{"name":"源氏前特定児童遊園","province":"東京都","city":"品川区","address":"東京都品川区中延6-4","lat":35.6022715,"lon":139.712272},{"name":"南品川六丁目特定児童遊園","province":"東京都","city":"品川区","address":"東京都品川区南品川6-13","lat":35.6103387,"lon":139.7376463},{"name":"大井二丁目特定児童遊園","province":"東京都","city":"品川区","address":"東京都品川区大井2-5-15","lat":35.604237,"lon":139.7275635},{"name":"西大井六丁目特定児童遊園","province":"東京都","city":"品川区","address":"東京都品川区西大井6-5-5","lat":35.6011197,"lon":139.7186875},{"name":"旗の台一丁目特定児童遊園","province":"東京都","city":"品川区","address":"東京都品川区旗の台1-8","lat":35.6102892,"lon":139.7021082},{"name":"西大井三丁目特定児童遊園","province":"東京都","city":"品川区","address":"東京都品川区西大井3-4-14","lat":35.5969421,"lon":139.7239036},{"name":"豊町一丁目特定児童遊園","province":"東京都","city":"品川区","address":"東京都品川区豊町1-13","lat":35.6126741,"lon":139.7240389},{"name":"荏原一丁目特定児童遊園","province":"東京都","city":"品川区","address":"東京都品川区荏原1-25","lat":35.6197265,"lon":139.7117573},{"name":"荏原六丁目特定児童遊園","province":"東京都","city":"品川区","address":"東京都品川区荏原6-7","lat":35.6131177,"lon":139.7053715},{"name":"豊四防災広場","province":"東京都","city":"品川区","address":"東京都品川区豊町4-7-11","lat":35.607273,"lon":139.7222886},{"name":"豊四中央防災広場","province":"東京都","city":"品川区","address":"東京都品川区豊町4-17-1","lat":35.6067133,"lon":139.7206863},{"name":"東品川水辺広場","province":"東京都","city":"品川区","address":"東京都品川区東品川3-9","lat":35.6175169,"lon":139.7489446},{"name":"天王洲アイル第一水辺広場","province":"東京都","city":"品川区","address":"東京都品川区東品川2-3","lat":35.6247019,"lon":139.7518077},{"name":"天王洲アイル第二水辺広場","province":"東京都","city":"品川区","address":"東京都品川区東品川2-2-24","lat":35.6237869,"lon":139.748958},{"name":"天王洲アイル第四水辺広場","province":"東京都","city":"品川区","address":"東京都品川区東品川2-4","lat":35.6191299,"lon":139.7514365},{"name":"しながわ花海道水辺広場","province":"東京都","city":"品川区","address":"東京都品川区東大井1-13","lat":35.5985983,"lon":139.7412459},{"name":"品川シーサイド水辺広場","province":"東京都","city":"品川区","address":"東京都品川区東品川4-13","lat":35.6078089,"lon":139.7503786},{"name":"東八潮緑道公園","province":"東京都","city":"品川区","address":"東京都品川区東八潮","lat":35.6199324,"lon":139.7725884},{"name":"みなとが丘ふ頭公園","province":"東京都","city":"品川区","address":"東京都品川区八潮3-1","lat":35.5959274,"lon":139.7628812},{"name":"大井ふ頭緑道公園","province":"東京都","city":"品川区","address":"東京都品川区八潮5","lat":35.6005284,"lon":139.7545537},{"name":"潮風公園","province":"東京都","city":"品川区","address":"東京都品川区東八潮","lat":35.6221175,"lon":139.7703923},{"name":"中延三丁目特定児童遊園","province":"東京都","city":"品川区","address":"東京都品川区中延3-9","lat":35.607748,"lon":139.7106261},{"name":"御殿山の丘公園","province":"東京都","city":"品川区","address":"東京都品川区北品川6-6-33","lat":35.624635,"lon":139.7331736},{"name":"本三くじら広場","province":"東京都","city":"品川区","address":"東京都品川区西五反田4-4-7","lat":35.6276077,"lon":139.7128381},{"name":"後地クマさん広場","province":"東京都","city":"品川区","address":"東京都品川区小山2-4-13","lat":35.6214691,"lon":139.7080564},{"name":"上蛇広場","province":"東京都","city":"品川区","address":"東京都品川区二葉4-3-10","lat":35.6026579,"lon":139.7144346},{"name":"東中みんなの広場","province":"東京都","city":"品川区","address":"東京都品川区東中延1-2-8","lat":35.6117321,"lon":139.7136583},{"name":"ゆたか防災広場","province":"東京都","city":"品川区","address":"東京都品川区豊町6-11-1","lat":35.6055947,"lon":139.7176567},{"name":"五反田ふれあい水辺広場","province":"東京都","city":"品川区","address":"東京都品川区東五反田2-9-10","lat":35.6242353,"lon":139.7258791},{"name":"天王洲運河水辺広場","province":"東京都","city":"品川区","address":"東京都品川区東品川1-3-3","lat":35.6214346,"lon":139.7465433},{"name":"中二さくらひろば","province":"東京都","city":"品川区","address":"東京都品川区中延2-9-18","lat":35.6103849,"lon":139.7106321},{"name":"小山台一丁目防災広場","province":"東京都","city":"品川区","address":"東京都品川区小山台1-7-3","lat":35.6243175,"lon":139.7059804},{"name":"文庫の森","province":"東京都","city":"品川区","address":"東京都品川区豊町1-16-23","lat":35.6120363,"lon":139.7208355},{"name":"西大井六丁目ふれあい広場","province":"東京都","city":"品川区","address":"東京都品川区西大井6-3-1","lat":35.6011759,"lon":139.716261},{"name":"中三いこいの広場","province":"東京都","city":"品川区","address":"東京都品川区中延3-7-20","lat":35.6082592,"lon":139.7113152},{"name":"カメさん広場","province":"東京都","city":"品川区","address":"東京都品川区戸越2-6-20","lat":35.6129291,"lon":139.7204135},{"name":"ひのみ広場","province":"東京都","city":"品川区","address":"東京都品川区戸越5-20-15","lat":35.6083419,"lon":139.7186389},{"name":"かやの木の広場","province":"東京都","city":"品川区","address":"東京都品川区豊町1-17-2","lat":35.6115694,"lon":139.721957},{"name":"中延みちしるべ防災広場","province":"東京都","city":"品川区","address":"東京都品川区中延5-12-11","lat":35.6011838,"lon":139.7082099},{"name":"二葉中央のんき通り広場","province":"東京都","city":"品川区","address":"東京都品川区二葉3-17-14","lat":35.6041294,"lon":139.7214038},{"name":"ほうさん広場","province":"東京都","city":"品川区","address":"東京都品川区豊町3-4-2","lat":35.6085671,"lon":139.7207244},{"name":"宮前花広場","province":"東京都","city":"品川区","address":"東京都品川区戸越4-9-19","lat":35.6109848,"lon":139.7189959},{"name":"勝島かもめ水辺広場","province":"東京都","city":"品川区","address":"東京都品川区勝島1-4先","lat":35.6017375,"lon":139.7473536},{"name":"ひらさん広場","province":"東京都","city":"品川区","address":"東京都品川区平塚3-9-1","lat":35.6145088,"lon":139.7126284}]}