{"category":"toilet","data":[{"name":"大井町駅前公衆便所","province":"東京都","city":"品川区","address":"東京都品川区大井1丁目2","lat":35.605663,"lon":139.734739},{"name":"大崎橋公衆便所","province":"東京都","city":"品川区","address":"東京都品川区西五反田1丁目10","lat":35.624819,"lon":139.723825},{"name":"東大井公衆便所","province":"東京都","city":"品川区","address":"東京都品川区東大井4丁目15","lat":35.603819,"lon":139.740366},{"name":"居木橋公衆便所","province":"東京都","city":"品川区","address":"東京都品川区大崎1丁目14","lat":35.618108,"lon":139.733175},{"name":"武蔵小山駅前公衆便所","province":"東京都","city":"品川区","address":"東京都品川区小山3丁目27-1","lat":35.619863,"lon":139.703321},{"name":"新浜川橋北公衆便所","province":"東京都","city":"品川区","address":"東京都品川区南大井1丁目6-1","lat":35.596642,"lon":139.740583},{"name":"荏原町駅前公衆便所","province":"東京都","city":"品川区","address":"東京都品川区中延5丁目2-2","lat":35.603784,"lon":139.708096},{"name":"大井水神南公衆便所","province":"東京都","city":"品川区","address":"東京都品川区南大井6丁目15-11","lat":35.589756,"lon":139.729248},{"name":"大井水神北公衆便所","province":"東京都","city":"品川区","address":"東京都品川区南大井5丁目16","lat":35.59555,"lon":139.732645},{"name":"弁天橋公衆便所","province":"東京都","city":"品川区","address":"東京都品川区南大井1丁目4-18","lat":35.597647,"lon":139.738992},{"name":"南大井公衆便所","province":"東京都","city":"品川区","address":"東京都品川区南大井1丁目22","lat":35.594728,"lon":139.736628},{"name":"水神公衆便所","province":"東京都","city":"品川区","address":"東京都品川区南大井6丁目14-15","lat":35.591828,"lon":139.730223},{"name":"新品川橋公衆便所","province":"東京都","city":"品川区","address":"東京都品川区南品川1丁目4-5","lat":35.616795,"lon":139.745299},{"name":"西小山駅前公衆便所","province":"東京都","city":"品川区","address":"東京都品川区小山6丁目2-1","lat":35.615138,"lon":139.698561},{"name":"荏原橋公衆便所","province":"東京都","city":"品川区","address":"東京都品川区中延5丁目1-1","lat":35.603737,"lon":139.707099},{"name":"平塚中央公衆便所","province":"東京都","city":"品川区","address":"東京都品川区平塚2丁目2","lat":35.618608,"lon":139.717354},{"name":"北品川２丁目公衆便所","province":"東京都","city":"品川区","address":"東京都品川区北品川2丁目30-28","lat":35.617112,"lon":139.743827},{"name":"三十五橋公衆便所","province":"東京都","city":"品川区","address":"東京都品川区中延5丁目14","lat":35.602024,"lon":139.709024},{"name":"権現山公衆便所","province":"東京都","city":"品川区","address":"東京都品川区北品川3丁目9","lat":35.618575,"lon":139.737766},{"name":"新馬場北公衆便所","province":"東京都","city":"品川区","address":"東京都品川区北品川2丁目18-1","lat":35.617634,"lon":139.741366},{"name":"新馬場南公衆便所","province":"東京都","city":"品川区","address":"東京都品川区南品川1丁目10","lat":35.615173,"lon":139.742477},{"name":"鹿嶋公衆便所","province":"東京都","city":"品川区","address":"東京都品川区大井6丁目18-36","lat":35.59535,"lon":139.730095},{"name":"西大井公衆便所","province":"東京都","city":"品川区","address":"東京都品川区西大井1丁目3-2","lat":35.601793,"lon":139.721815},{"name":"大井町緑地公衆便所","province":"東京都","city":"品川区","address":"東京都品川区大井1丁目7-6","lat":35.606854,"lon":139.733072},{"name":"南品川六丁目公衆便所","province":"東京都","city":"品川区","address":"東京都品川区南品川6丁目13","lat":35.610462,"lon":139.73734},{"name":"かもめ橋公衆便所","province":"東京都","city":"品川区","address":"東京都品川区八潮5丁目10-27","lat":35.600153,"lon":139.751255},{"name":"旗の台一丁目公衆便所","province":"東京都","city":"品川区","address":"東京都品川区旗の台1丁目8","lat":35.610362,"lon":139.702134},{"name":"荏原中延公衆便所","province":"東京都","city":"品川区","address":"東京都品川区中延2丁目8-1","lat":35.61,"lon":139.711985},{"name":"青物横丁公衆便所","province":"東京都","city":"品川区","address":"東京都品川区南品川2丁目4-1","lat":35.610018,"lon":139.742621},{"name":"仙台坂上公衆便所","province":"東京都","city":"品川区","address":"東京都品川区東大井5丁目26","lat":35.60701,"lon":139.73973},{"name":"西大井六丁目公衆便所","province":"東京都","city":"品川区","address":"東京都品川区西大井6丁目5","lat":35.601089,"lon":139.718661},{"name":"西大井三丁目公衆便所","province":"東京都","city":"品川区","address":"東京都品川区西大井3丁目4","lat":35.597035,"lon":139.723889},{"name":"大井二丁目公衆便所","province":"東京都","city":"品川区","address":"東京都品川区大井2丁目5","lat":35.60425,"lon":139.727388},{"name":"大井町駅東口公衆便所","province":"東京都","city":"品川区","address":"東京都品川区東大井5丁目20","lat":35.605941,"lon":139.735136},{"name":"不動前公衆便所","province":"東京都","city":"品川区","address":"東京都品川区西五反田5丁目1-19","lat":35.625918,"lon":139.714045},{"name":"八ツ山の東司公衆便所","province":"東京都","city":"品川区","address":"東京都品川区北品川1丁目3","lat":35.623805,"lon":139.73916},{"name":"戸越公園（１）便所","province":"東京都","city":"品川区","address":"東京都品川区豊町2丁目1-30","lat":35.611167,"lon":139.722392},{"name":"東品川公園便所","province":"東京都","city":"品川区","address":"東京都品川区東品川3丁目14-9","lat":35.61412,"lon":139.746038},{"name":"荏原南公園便所","province":"東京都","city":"品川区","address":"東京都品川区荏原6丁目16","lat":35.611467,"lon":139.702905},{"name":"鮫洲運動公園（１）便所","province":"東京都","city":"品川区","address":"東京都品川区東大井1丁目4","lat":35.605883,"lon":139.744994},{"name":"小山台公園便所","province":"東京都","city":"品川区","address":"東京都品川区小山台2丁目2-1","lat":35.625557,"lon":139.698802},{"name":"三ツ木公園便所","province":"東京都","city":"品川区","address":"東京都品川区西品川2丁目6-13","lat":35.614006,"lon":139.726217},{"name":"東大井公園便所","province":"東京都","city":"品川区","address":"東京都品川区東大井3丁目4","lat":35.604145,"lon":139.738783},{"name":"東八ツ山公園便所","province":"東京都","city":"品川区","address":"東京都品川区北品川1丁目15","lat":35.62468,"lon":139.743321},{"name":"戸越公園（２）便所","province":"東京都","city":"品川区","address":"東京都品川区豊町2丁目1-30","lat":35.611167,"lon":139.722392},{"name":"荏原中央公園便所","province":"東京都","city":"品川区","address":"東京都品川区荏原5丁目1","lat":35.61596,"lon":139.704166},{"name":"大井海岸公園便所","province":"東京都","city":"品川区","address":"東京都品川区南大井3丁目27","lat":35.588273,"lon":139.733698},{"name":"天王洲公園（１）便所","province":"東京都","city":"品川区","address":"東京都品川区東品川2丁目6-23","lat":35.619442,"lon":139.750193},{"name":"天王洲公園（２）便所","province":"東京都","city":"品川区","address":"東京都品川区東品川2丁目6-23","lat":35.619442,"lon":139.750193},{"name":"子供の森公園便所","province":"東京都","city":"品川区","address":"東京都品川区北品川3丁目10-13","lat":35.616362,"lon":139.738252},{"name":"聖蹟公園便所","province":"東京都","city":"品川区","address":"東京都品川区北品川2丁目7-21","lat":35.618809,"lon":139.743943},{"name":"大井坂下公園便所","province":"東京都","city":"品川区","address":"東京都品川区南大井6丁目23","lat":35.589429,"lon":139.730671},{"name":"そよかぜ公園便所","province":"東京都","city":"品川区","address":"東京都品川区西品川2丁目17","lat":35.612012,"lon":139.726764},{"name":"西五反田公園便所","province":"東京都","city":"品川区","address":"東京都品川区西五反田5丁目6","lat":35.624324,"lon":139.715523},{"name":"新浜川公園便所","province":"東京都","city":"品川区","address":"東京都品川区東大井2丁目26","lat":35.598011,"lon":139.740961},{"name":"大井公園（１）便所","province":"東京都","city":"品川区","address":"東京都品川区東大井4丁目8-4","lat":35.60536,"lon":139.740655},{"name":"わかくさ公園便所","province":"東京都","city":"品川区","address":"東京都品川区勝島1丁目6","lat":35.598042,"lon":139.744147},{"name":"しながわ区民公園（１）便所","province":"東京都","city":"品川区","address":"東京都品川区南大井2丁目3","lat":35.593495,"lon":139.737837},{"name":"大崎公園便所","province":"東京都","city":"品川区","address":"東京都品川区大崎5丁目5","lat":35.622921,"lon":139.72416},{"name":"希望ヶ丘公園便所","province":"東京都","city":"品川区","address":"東京都品川区上大崎3丁目10","lat":35.631598,"lon":139.718203},{"name":"大井中央公園便所","province":"東京都","city":"品川区","address":"東京都品川区大井1丁目46","lat":35.604361,"lon":139.732117},{"name":"旗の台南公園便所","province":"東京都","city":"品川区","address":"東京都品川区旗の台5丁目11","lat":35.603629,"lon":139.702219},{"name":"戸越台公園便所","province":"東京都","city":"品川区","address":"東京都品川区戸越1丁目7-17","lat":35.616153,"lon":139.71757},{"name":"二日市公園便所","province":"東京都","city":"品川区","address":"東京都品川区南品川6丁目7","lat":35.611429,"lon":139.739069},{"name":"浜川公園便所","province":"東京都","city":"品川区","address":"東京都品川区南大井4丁目8","lat":35.596983,"lon":139.735423},{"name":"小山台東公園便所","province":"東京都","city":"品川区","address":"東京都品川区小山台1丁目26","lat":35.622229,"lon":139.706338},{"name":"西大井広場公園（１）便所","province":"東京都","city":"品川区","address":"東京都品川区西大井1丁目4","lat":35.601827,"lon":139.722981},{"name":"西霧ヶ谷公園便所","province":"東京都","city":"品川区","address":"東京都品川区西五反田5丁目28","lat":35.623066,"lon":139.711773},{"name":"北浜公園便所","province":"東京都","city":"品川区","address":"東京都品川区北品川2丁目28","lat":35.617417,"lon":139.744921},{"name":"鈴ヶ森公園便所","province":"東京都","city":"品川区","address":"東京都品川区南大井4丁目18","lat":35.593339,"lon":139.734962},{"name":"鮫洲運動公園（２）便所","province":"東京都","city":"品川区","address":"東京都品川区東大井1丁目4","lat":35.605883,"lon":139.744994},{"name":"京陽公園便所","province":"東京都","city":"品川区","address":"東京都品川区平塚2丁目12","lat":35.616802,"lon":139.713248},{"name":"西品川公園便所","province":"東京都","city":"品川区","address":"東京都品川区西品川1丁目8","lat":35.612826,"lon":139.730885},{"name":"敬老公園便所","province":"東京都","city":"品川区","address":"東京都品川区東品川3丁目32","lat":35.612737,"lon":139.750371},{"name":"天王洲公園（３）便所","province":"東京都","city":"品川区","address":"東京都品川区東品川2丁目5","lat":35.620878,"lon":139.749773},{"name":"二葉公園便所","province":"東京都","city":"品川区","address":"東京都品川区二葉4丁目13","lat":35.603746,"lon":139.71819},{"name":"中延公園便所","province":"東京都","city":"品川区","address":"東京都品川区西中延1丁目9","lat":35.611731,"lon":139.707968},{"name":"西大井緑地公園便所","province":"東京都","city":"品川区","address":"東京都品川区西大井6丁目10","lat":35.600234,"lon":139.720467},{"name":"しながわ区民公園（２）便所","province":"東京都","city":"品川区","address":"東京都品川区勝島3丁目2","lat":35.59084,"lon":139.738123},{"name":"八潮公園便所","province":"東京都","city":"品川区","address":"東京都品川区八潮5丁目11","lat":35.600345,"lon":139.753698},{"name":"洲崎公園便所","province":"東京都","city":"品川区","address":"東京都品川区東品川1丁目36","lat":35.617964,"lon":139.746171},{"name":"原っぱ公園便所","province":"東京都","city":"品川区","address":"東京都品川区西大井6丁目1","lat":35.601366,"lon":139.714599},{"name":"御成橋公園便所","province":"東京都","city":"品川区","address":"東京都品川区東五反田2丁目15","lat":35.622347,"lon":139.728977},{"name":"大井公園（２）便所","province":"東京都","city":"品川区","address":"東京都品川区東大井4丁目3","lat":35.605296,"lon":139.741291},{"name":"池田山公園便所","province":"東京都","city":"品川区","address":"東京都品川区東五反田5丁目4","lat":35.63212,"lon":139.722258},{"name":"しながわ区民公園（３）便所","province":"東京都","city":"品川区","address":"東京都品川区勝島3丁目2","lat":35.592801,"lon":139.738653},{"name":"しながわ区民公園（４）便所","province":"東京都","city":"品川区","address":"東京都品川区勝島3丁目2","lat":35.592801,"lon":139.738653},{"name":"旗の台北公園便所","province":"東京都","city":"品川区","address":"東京都品川区旗の台3丁目10","lat":35.605725,"lon":139.704545},{"name":"源氏前公園便所","province":"東京都","city":"品川区","address":"東京都品川区中延6丁目4","lat":35.602271,"lon":139.712182},{"name":"豊町公園便所","province":"東京都","city":"品川区","address":"東京都品川区豊町6丁目16","lat":35.604746,"lon":139.716437},{"name":"西大井広場公園（２）便所","province":"東京都","city":"品川区","address":"東京都品川区西大井1丁目4","lat":35.601827,"lon":139.722981},{"name":"小関公園便所","province":"東京都","city":"品川区","address":"東京都品川区北品川5丁目8","lat":35.619622,"lon":139.733416},{"name":"台場浦公園便所","province":"東京都","city":"品川区","address":"東京都品川区東品川1丁目8","lat":35.621517,"lon":139.742965},{"name":"しおじ公園便所","province":"東京都","city":"品川区","address":"東京都品川区八潮5丁目6","lat":35.596254,"lon":139.750599},{"name":"横丁公園便所","province":"東京都","city":"品川区","address":"東京都品川区南品川5丁目4","lat":35.610418,"lon":139.741788},{"name":"しながわ区民公園（５）便所","province":"東京都","city":"品川区","address":"東京都品川区勝島3丁目2","lat":35.59084,"lon":139.738123},{"name":"しながわ区民公園（６）便所","province":"東京都","city":"品川区","address":"東京都品川区勝島3丁目2","lat":35.59084,"lon":139.738123},{"name":"浅間台公園便所","province":"東京都","city":"品川区","address":"東京都品川区南品川6丁目18-19","lat":35.608424,"lon":139.736891},{"name":"五反田公園便所","province":"東京都","city":"品川区","address":"東京都品川区東五反田5丁目24","lat":35.627635,"lon":139.72368},{"name":"西八丁公園便所","province":"東京都","city":"品川区","address":"東京都品川区西五反田8丁目11","lat":35.619725,"lon":139.719295},{"name":"出石公園便所","province":"東京都","city":"品川区","address":"東京都品川区西大井3丁目16","lat":35.594583,"lon":139.722149},{"name":"峰原公園便所","province":"東京都","city":"品川区","address":"東京都品川区大崎3丁目17","lat":35.617939,"lon":139.721175},{"name":"品海公園便所","province":"東京都","city":"品川区","address":"東京都品川区北品川1丁目30-9","lat":35.620122,"lon":139.74257},{"name":"かむろ坂公園便所","province":"東京都","city":"品川区","address":"東京都品川区西五反田4丁目28","lat":35.625215,"lon":139.711584},{"name":"戸越公園（３）便所","province":"東京都","city":"品川区","address":"東京都品川区豊町2丁目1-30","lat":35.611167,"lon":139.722392},{"name":"西の台公園便所","province":"東京都","city":"品川区","address":"東京都品川区西品川1丁目4-8","lat":35.613995,"lon":139.729128},{"name":"南品川広場公園便所","province":"東京都","city":"品川区","address":"東京都品川区南品川5丁目10","lat":35.60901,"lon":139.739841},{"name":"西品川おさんぽ公園便所","province":"東京都","city":"品川区","address":"東京都品川区西品川3丁目9-24","lat":35.616247,"lon":139.723856},{"name":"関ヶ原公園便所","province":"東京都","city":"品川区","address":"東京都品川区東大井6丁目12","lat":35.602074,"lon":139.735572},{"name":"平塚たけのこ公園便所","province":"東京都","city":"品川区","address":"東京都品川区平塚1丁目17","lat":35.612756,"lon":139.713482},{"name":"東中はなみずき公園便所","province":"東京都","city":"品川区","address":"東京都品川区東中延1丁目8","lat":35.610823,"lon":139.71256},{"name":"延山くすのき公園便所","province":"東京都","city":"品川区","address":"東京都品川区西中延3丁目3","lat":35.608192,"lon":139.708735},{"name":"西中お日さま公園便所","province":"東京都","city":"品川区","address":"東京都品川区西中延3丁目10","lat":35.607065,"lon":139.706766},{"name":"東品川一丁目公園便所","province":"東京都","city":"品川区","address":"東京都品川区東品川1丁目2","lat":35.622844,"lon":139.744112},{"name":"鎗ヶ崎公園便所","province":"東京都","city":"品川区","address":"東京都品川区西品川3丁目12","lat":35.615536,"lon":139.724478},{"name":"しいのき公園便所","province":"東京都","city":"品川区","address":"東京都品川区荏原5丁目5","lat":35.615011,"lon":139.703369},{"name":"葦山公園便所","province":"東京都","city":"品川区","address":"東京都品川区豊町1丁目6","lat":35.613398,"lon":139.7223},{"name":"大原公園便所","province":"東京都","city":"品川区","address":"東京都品川区戸越6丁目14-8","lat":35.60739,"lon":139.714393},{"name":"南五公園便所","province":"東京都","city":"品川区","address":"東京都品川区南品川5丁目2","lat":35.612148,"lon":139.741108},{"name":"西大井広場公園（３）便所","province":"東京都","city":"品川区","address":"東京都品川区西大井1丁目4","lat":35.601827,"lon":139.722981},{"name":"戸越南公園便所","province":"東京都","city":"品川区","address":"東京都品川区戸越6丁目8","lat":35.607195,"lon":139.718579},{"name":"谷垂公園便所","province":"東京都","city":"品川区","address":"東京都品川区西大井6丁目13","lat":35.600016,"lon":139.718021},{"name":"天王洲アイル第一公園便所","province":"東京都","city":"品川区","address":"東京都品川区東品川2丁目3","lat":35.623053,"lon":139.751501},{"name":"品川浦公園便所","province":"東京都","city":"品川区","address":"東京都品川区東品川1丁目7-17","lat":35.6211,"lon":139.742388},{"name":"江戸見坂公園便所","province":"東京都","city":"品川区","address":"東京都品川区小山6丁目23","lat":35.612753,"lon":139.699255},{"name":"旗の台広場公園便所","province":"東京都","city":"品川区","address":"東京都品川区旗の台3丁目1","lat":35.606009,"lon":139.706011},{"name":"あさひ公園便所","province":"東京都","city":"品川区","address":"東京都品川区小山2丁目17","lat":35.619291,"lon":139.708215},{"name":"天王洲アイル第二公園便所","province":"東京都","city":"品川区","address":"東京都品川区東品川2丁目2-27","lat":35.621611,"lon":139.749059},{"name":"大森貝塚遺跡庭園便所","province":"東京都","city":"品川区","address":"東京都品川区大井6丁目21-6","lat":35.593264,"lon":139.729687},{"name":"八潮北公園便所","province":"東京都","city":"品川区","address":"東京都品川区八潮1丁目3-1","lat":35.612485,"lon":139.753759},{"name":"しながわ中央公園（１）便所","province":"東京都","city":"品川区","address":"東京都品川区西品川1丁目27","lat":35.609226,"lon":139.72892},{"name":"しながわ中央公園（２）便所","province":"東京都","city":"品川区","address":"東京都品川区西品川1丁目20","lat":35.609795,"lon":139.729786},{"name":"品川シーサイド公園便所","province":"東京都","city":"品川区","address":"東京都品川区東品川4丁目12","lat":35.607582,"lon":139.749146},{"name":"森前公園便所","province":"東京都","city":"品川区","address":"東京都品川区西大井1丁目1","lat":35.600877,"lon":139.721809},{"name":"谷山公園便所","province":"東京都","city":"品川区","address":"東京都品川区西五反田3丁目6","lat":35.627768,"lon":139.718575},{"name":"東中延公園便所","province":"東京都","city":"品川区","address":"東京都品川区東中延2丁目10-2","lat":35.606956,"lon":139.712457},{"name":"大井水神公園便所","province":"東京都","city":"品川区","address":"東京都品川区南大井5丁目16","lat":35.59555,"lon":139.732645},{"name":"東品川海上公園便所","province":"東京都","city":"品川区","address":"東京都品川区東品川3丁目9","lat":35.61729,"lon":139.749734},{"name":"品川南ふ頭公園便所","province":"東京都","city":"品川区","address":"東京都品川区東品川5丁目8","lat":35.622006,"lon":139.754864},{"name":"文庫の森便所","province":"東京都","city":"品川区","address":"東京都品川区豊町1丁目16-23","lat":35.612295,"lon":139.720526},{"name":"鮫洲入江広場便所","province":"東京都","city":"品川区","address":"東京都品川区東大井1丁目13-1","lat":35.603119,"lon":139.744102},{"name":"大崎西口公園便所","province":"東京都","city":"品川区","address":"東京都品川区大崎2丁目10","lat":35.617456,"lon":139.728655},{"name":"鹿島庚塚児童遊園便所","province":"東京都","city":"品川区","address":"東京都品川区大井7丁目29","lat":35.594006,"lon":139.728912},{"name":"旗岡児童遊園便所","province":"東京都","city":"品川区","address":"東京都品川区旗の台3丁目6-12","lat":35.604689,"lon":139.707851},{"name":"神明児童遊園便所","province":"東京都","city":"品川区","address":"東京都品川区二葉1丁目4-25","lat":35.608023,"lon":139.726761},{"name":"上神明児童遊園便所","province":"東京都","city":"品川区","address":"東京都品川区二葉4丁目26","lat":35.602251,"lon":139.714168},{"name":"富士見ヶ丘児童遊園便所","province":"東京都","city":"品川区","address":"東京都品川区西大井5丁目7","lat":35.59951,"lon":139.716688},{"name":"みなみ児童遊園便所","province":"東京都","city":"品川区","address":"東京都品川区南大井1丁目12","lat":35.596478,"lon":139.737517},{"name":"戸越児童遊園便所","province":"東京都","city":"品川区","address":"東京都品川区戸越3丁目9-20","lat":35.612006,"lon":139.715757},{"name":"大井倉田児童遊園便所","province":"東京都","city":"品川区","address":"東京都品川区大井4丁目22","lat":35.600216,"lon":139.732117},{"name":"森下児童遊園便所","province":"東京都","city":"品川区","address":"東京都品川区大井2丁目1","lat":35.606267,"lon":139.729194},{"name":"荏原２丁目児童遊園便所","province":"東京都","city":"品川区","address":"東京都品川区荏原2丁目16","lat":35.617586,"lon":139.709279},{"name":"桜橋児童遊園便所","province":"東京都","city":"品川区","address":"東京都品川区東大井3丁目22","lat":35.599969,"lon":139.735828},{"name":"南品川二丁目児童遊園便所","province":"東京都","city":"品川区","address":"東京都品川区南品川2丁目11-5","lat":35.614007,"lon":139.743966},{"name":"大崎五丁目遊園便所","province":"東京都","city":"品川区","address":"東京都品川区大崎5丁目2","lat":35.622611,"lon":139.725961},{"name":"わかば児童遊園便所","province":"東京都","city":"品川区","address":"東京都品川区戸越1丁目29","lat":35.615489,"lon":139.721642},{"name":"立会川児童遊園（その２）便所","province":"東京都","city":"品川区","address":"東京都品川区旗の台2丁目7","lat":35.606037,"lon":139.704097},{"name":"豊町５丁目児童遊園便所","province":"東京都","city":"品川区","address":"東京都品川区豊町5丁目14","lat":35.60459,"lon":139.72059},{"name":"北品川三丁目児童遊園便所","province":"東京都","city":"品川区","address":"東京都品川区北品川3丁目7-15","lat":35.618448,"lon":139.739632},{"name":"戸越２丁目広場便所","province":"東京都","city":"品川区","address":"東京都品川区戸越2丁目1","lat":35.614347,"lon":139.718367},{"name":"ゆたか防災広場便所","province":"東京都","city":"品川区","address":"東京都品川区豊町6丁目11","lat":35.60536,"lon":139.71789},{"name":"ひらさん広場便所","province":"東京都","city":"品川区","address":"東京都品川区平塚3丁目9-1","lat":35.613972,"lon":139.712785}]}