{"category":"wireless","data":[{"name":"昭和大学病院","province":"東京都","city":"品川区","address":"東京都品川区旗の台1丁目5-8","lat":35.60849688,"lon":139.70353258},{"name":"ＮＴＴ東日本関東病院","province":"東京都","city":"品川区","address":"東京都品川区東五反田5丁目9-22","lat":35.63091968,"lon":139.72494947},{"name":"桐ヶ谷火葬場","province":"東京都","city":"品川区","address":"東京都品川区西五反田5丁目32-20","lat":35.62232046,"lon":139.71367573},{"name":"（公財）塩事業センター","province":"東京都","city":"品川区","address":"東京都品川区大井1丁目47-1","lat":35.605259,"lon":139.73249415},{"name":"区立戸越公園","province":"東京都","city":"品川区","address":"東京都品川区豊町2丁目1-30","lat":35.61109965,"lon":139.72238087},{"name":"区立しおじ公園","province":"東京都","city":"品川区","address":"東京都品川区八潮5丁目6","lat":35.59734124,"lon":139.74955159},{"name":"都立八潮高等学校","province":"東京都","city":"品川区","address":"東京都品川区東品川3丁目27-22","lat":35.61185035,"lon":139.74660949},{"name":"都立産業技術高等専門学校品川キャンパス","province":"東京都","city":"品川区","address":"東京都品川区東大井1丁目10-40","lat":35.60696497,"lon":139.7491345},{"name":"城南職業能力開発センター","province":"東京都","city":"品川区","address":"東京都品川区東品川3丁目31-16","lat":35.61250038,"lon":139.74965367},{"name":"大井ふ頭中央海浜公園","province":"東京都","city":"品川区","address":"東京都品川区八潮4丁目1-19","lat":35.59255032,"lon":139.75229052},{"name":"大井ふ頭中央海浜公園","province":"東京都","city":"品川区","address":"東京都品川区八潮4丁目2-1","lat":35.59337233,"lon":139.74986565},{"name":"大崎高等学校","province":"東京都","city":"品川区","address":"東京都品川区豊町2丁目1-7","lat":35.60950813,"lon":139.72128656},{"name":"小山台高等学校","province":"東京都","city":"品川区","address":"東京都品川区小山3丁目3-32","lat":35.62114821,"lon":139.70368496},{"name":"八潮高等学校","province":"東京都","city":"品川区","address":"東京都品川区東品川3丁目27-22","lat":35.61185035,"lon":139.74660949},{"name":"大井コンテナふ頭","province":"東京都","city":"品川区","address":"東京都品川区八潮2丁目","lat":35.59506725,"lon":139.76759209},{"name":"大井ふ頭中央海浜公園","province":"東京都","city":"品川区","address":"東京都品川区八潮4丁目","lat":35.59273644,"lon":139.75297102},{"name":"東海橋","province":"東京都","city":"品川区","address":"東京都品川区北品川3丁目","lat":35.61868541,"lon":139.73912927},{"name":"勝島１丁目","province":"東京都","city":"品川区","address":"東京都品川区勝島","lat":35.5980771,"lon":139.74558239},{"name":"品川区防災センター","province":"東京都","city":"品川区","address":"東京都品川区広町2丁目1-36","lat":35.60881128,"lon":139.73028866},{"name":"品川ふ頭","province":"東京都","city":"品川区","address":"東京都品川区東品川5丁目","lat":35.62216053,"lon":139.75607776}]}