{"keyword":"し尿","data":[{"name":"品川区子育て支援センター","province":"東京都","city":"品川区","address":"品川区平塚2-12-2品川区立家庭あんしんセンター内","lat":35.617063,"lon":139.71282},{"name":"品川区保健所","province":"東京都","city":"品川区","address":"品川区広町2-1-36","lat":35.608836,"lon":139.730241},{"name":"品川保健センター","province":"東京都","city":"品川区","address":"品川区北品川3-11-22","lat":35.616586,"lon":139.740732},{"name":"大井保健センター","province":"東京都","city":"品川区","address":"品川区大井2-27-20","lat":35.604084,"lon":139.730375},{"name":"荏原保健センター","province":"東京都","city":"品川区","address":"品川区荏原2-9-6","lat":35.617185,"lon":139.711504},{"name":"品川区","province":"東京都","city":"品川区","address":"品川区広町2-1-36","lat":35.6088372,"lon":139.7302417},{"name":"大井ふ頭中央海浜公園ホッケー競技場","province":"東京都","city":"品川区","address":"東京都品川区八潮4丁目1","lat":35.593097,"lon":139.752977},{"name":"大井ふ頭中央海浜公園ホッケー競技場","province":"東京都","city":"品川区","address":"東京都品川区八潮4丁目1-19","lat":35.592905,"lon":139.753081},{"name":"大井ふ頭中央海浜公園ホッケー競技場","province":"東京都","city":"品川区","address":"東京都品川区八潮4丁目1-19","lat":35.592375,"lon":139.753054},{"name":"大井ふ頭中央海浜公園ホッケー競技場","province":"東京都","city":"品川区","address":"東京都品川区八潮4丁目1-19","lat":35.592936,"lon":139.752967},{"name":"大井ふ頭中央海浜公園ホッケー競技場","province":"東京都","city":"品川区","address":"東京都品川区八潮4丁目1-19","lat":35.592753,"lon":139.752992},{"name":"大井ふ頭中央海浜公園ホッケー競技場","province":"東京都","city":"品川区","address":"東京都品川区八潮4丁目1-19","lat":35.59232,"lon":139.752941},{"name":"大井ふ頭中央海浜公園ホッケー競技場","province":"東京都","city":"品川区","address":"東京都品川区八潮4丁目1-19","lat":35.592858,"lon":139.752971},{"name":"大井ふ頭中央海浜公園ホッケー競技場","province":"東京都","city":"品川区","address":"東京都品川区八潮4丁目1-19","lat":35.592517,"lon":139.752992},{"name":"大井ふ頭中央海浜公園ホッケー競技場","province":"東京都","city":"品川区","address":"東京都品川区八潮4丁目1-19","lat":35.592405,"lon":139.752932},{"name":"城南職業能力開発センター","province":"東京都","city":"品川区","address":"東京都品川区東品川3丁目31-16","lat":35.612024,"lon":139.749757},{"name":"城南職業能力開発センター","province":"東京都","city":"品川区","address":"東京都品川区東品川3丁目31-16","lat":35.611975,"lon":139.749888},{"name":"東京都南部労政会館","province":"東京都","city":"品川区","address":"東京都品川区大崎1丁目11-1","lat":35.619552,"lon":139.730812},{"name":"林試の森公園","province":"東京都","city":"品川区","address":"東京都品川区小山台2丁目6","lat":35.624441,"lon":139.701575},{"name":"林試の森公園","province":"東京都","city":"品川区","address":"東京都品川区小山台2丁目6","lat":35.625275,"lon":139.701365},{"name":"林試の森公園","province":"東京都","city":"品川区","address":"東京都品川区小山台2丁目7","lat":35.624621,"lon":139.702704},{"name":"潮風公園","province":"東京都","city":"品川区","address":"東京都品川区東八潮1-2","lat":35.62379,"lon":139.769918},{"name":"潮風公園","province":"東京都","city":"品川区","address":"東京都品川区東八潮2","lat":35.620596,"lon":139.769884},{"name":"潮風公園","province":"東京都","city":"品川区","address":"東京都品川区東八潮1","lat":35.623319,"lon":139.768649},{"name":"潮風公園","province":"東京都","city":"品川区","address":"東京都品川区東八潮1","lat":35.623259,"lon":139.76865},{"name":"大井中央海浜公園","province":"東京都","city":"品川区","address":"東京都品川区八潮4丁目1-19","lat":35.592579,"lon":139.752229},{"name":"大井中央海浜公園","province":"東京都","city":"品川区","address":"東京都品川区八潮4丁目2","lat":35.593922,"lon":139.750581},{"name":"大井中央海浜公園","province":"東京都","city":"品川区","address":"東京都品川区八潮4丁目1","lat":35.59061,"lon":139.752343},{"name":"大井中央海浜公園","province":"東京都","city":"品川区","address":"東京都品川区八潮4丁目1","lat":35.594199,"lon":139.753134},{"name":"大井中央海浜公園","province":"東京都","city":"品川区","address":"東京都品川区八潮4丁目1","lat":35.594286,"lon":139.753141},{"name":"大井中央海浜公園","province":"東京都","city":"品川区","address":"東京都品川区八潮4丁目1-19","lat":35.592469,"lon":139.752221},{"name":"みなとが丘ふ頭公園","province":"東京都","city":"品川区","address":"東京都品川区八潮3丁目1","lat":35.595574,"lon":139.76418},{"name":"京浜運河緑道公園","province":"東京都","city":"品川区","address":"東京都品川区八潮5丁目3","lat":35.595892,"lon":139.748995},{"name":"京浜運河緑道公園","province":"東京都","city":"品川区","address":"東京都品川区八潮1丁目4","lat":35.605772,"lon":139.752283},{"name":"大井ふ頭緑道公園","province":"東京都","city":"品川区","address":"東京都品川区八潮5丁目","lat":35.595876,"lon":139.754506},{"name":"都営浅草線中延駅","province":"東京都","city":"品川区","address":"東京都品川区豊町6丁目24","lat":35.604859,"lon":139.713557},{"name":"都営浅草線戸越駅","province":"東京都","city":"品川区","address":"東京都品川区戸越3丁目1","lat":35.614727,"lon":139.716501},{"name":"都営浅草線五反田駅","province":"東京都","city":"品川区","address":"東京都品川区東五反田5丁目25","lat":35.627258,"lon":139.724392},{"name":"東京都水道局品川営業所","province":"東京都","city":"品川区","address":"東京都品川区西中延1丁目9-10","lat":35.611613,"lon":139.70788},{"name":"品川消防署東品川出張所","province":"東京都","city":"品川区","address":"東京都品川区東品川3丁目25-11","lat":35.612932,"lon":139.747264},{"name":"八潮児童センター","province":"東京都","city":"品川区","address":"東京都品川区八潮5丁目10-27","lat":35.59988,"lon":139.751483},{"name":"中小企業センター","province":"東京都","city":"品川区","address":"東京都品川区西品川1丁目28-3","lat":35.60932,"lon":139.727666},{"name":"品川第一地域センタービル","province":"東京都","city":"品川区","address":"東京都品川区北品川3丁目11-16","lat":35.61661,"lon":139.74},{"name":"品川第二地域センター","province":"東京都","city":"品川区","address":"東京都品川区南品川5丁目3-20","lat":35.61132,"lon":139.741236},{"name":"大崎第一地域センター","province":"東京都","city":"品川区","address":"東京都品川区西五反田3丁目6-3","lat":35.628,"lon":139.716543},{"name":"大崎第二地域センター","province":"東京都","city":"品川区","address":"東京都品川区大崎2丁目9-4","lat":35.61694,"lon":139.727615},{"name":"大井第二地域センター","province":"東京都","city":"品川区","address":"東京都品川区大井2丁目27-20","lat":35.60404,"lon":139.730383},{"name":"大井第三地域交流センター","province":"東京都","city":"品川区","address":"東京都品川区西大井2丁目10","lat":35.598668,"lon":139.72212},{"name":"荏原第一地域センター","province":"東京都","city":"品川区","address":"東京都品川区小山3丁目14-1","lat":35.62113,"lon":139.70607},{"name":"荏原第二地域センター","province":"東京都","city":"品川区","address":"東京都品川区荏原6丁目17-12","lat":35.611024,"lon":139.704397},{"name":"荏原第三地域センター","province":"東京都","city":"品川区","address":"東京都品川区平塚1丁目13-18","lat":35.61339,"lon":139.715366},{"name":"荏原第四地域センター","province":"東京都","city":"品川区","address":"東京都品川区中延5丁目3-12","lat":35.60383,"lon":139.708356},{"name":"荏原第五地域センター","province":"東京都","city":"品川区","address":"東京都品川区二葉1丁目1-2","lat":35.60811,"lon":139.725765},{"name":"八潮地域センター","province":"東京都","city":"品川区","address":"東京都品川区八潮5丁目10-27","lat":35.600206,"lon":139.751392},{"name":"八潮地域センター","province":"東京都","city":"品川区","address":"東京都品川区八潮5丁目10-27","lat":35.600211,"lon":139.751371},{"name":"品川区役所議会棟","province":"東京都","city":"品川区","address":"東京都品川区広町2丁目1-36","lat":35.609184,"lon":139.730207},{"name":"品川区役所本庁舎","province":"東京都","city":"品川区","address":"東京都品川区広町2丁目1-36","lat":35.609205,"lon":139.730225},{"name":"品川区役所第二庁舎","province":"東京都","city":"品川区","address":"東京都品川区広町2丁目1-36","lat":35.609734,"lon":139.73032},{"name":"品川区役所第二庁舎","province":"東京都","city":"品川区","address":"東京都品川区広町2丁目1-36","lat":35.609715,"lon":139.730333},{"name":"品川区役所第二庁舎","province":"東京都","city":"品川区","address":"東京都品川区広町2丁目1-36","lat":35.60971,"lon":139.730259},{"name":"品川区役所第三庁舎","province":"東京都","city":"品川区","address":"東京都品川区広町2丁目1-36","lat":35.608371,"lon":139.729994},{"name":"大崎第一区民集会所(第五・六集会室)","province":"東京都","city":"品川区","address":"東京都品川区西五反田3丁目6-38","lat":35.62721,"lon":139.718108},{"name":"荏原区民センター","province":"東京都","city":"品川区","address":"東京都品川区荏原5丁目6-5","lat":35.614522,"lon":139.702143},{"name":"東大井区民集会所","province":"東京都","city":"品川区","address":"東京都品川区東大井2丁目16-12","lat":35.60051,"lon":139.741529},{"name":"東大井区民集会所","province":"東京都","city":"品川区","address":"東京都品川区東大井2丁目16-12","lat":35.6005,"lon":139.741539},{"name":"ウェルカムセンター原・交流施設","province":"東京都","city":"品川区","address":"東京都品川区西大井2丁目5-21","lat":35.5991,"lon":139.721384},{"name":"荏原文化センター","province":"東京都","city":"品川区","address":"東京都品川区中延1丁目9-15","lat":35.612232,"lon":139.710724},{"name":"品川区立荏原平塚総合区民会館","province":"東京都","city":"品川区","address":"東京都品川区荏原4丁目5-28","lat":35.615449,"lon":139.707523},{"name":"品川区立荏原平塚総合区民会館","province":"東京都","city":"品川区","address":"東京都品川区荏原4丁目5-28","lat":35.615386,"lon":139.707971},{"name":"品川区立荏原平塚総合区民会館","province":"東京都","city":"品川区","address":"東京都品川区荏原4丁目5-28","lat":35.615661,"lon":139.707422},{"name":"品川区立荏原平塚総合区民会館","province":"東京都","city":"品川区","address":"東京都品川区荏原4丁目5-28","lat":35.615259,"lon":139.707412},{"name":"品川区立荏原平塚総合区民会館","province":"東京都","city":"品川区","address":"東京都品川区荏原4丁目5-28","lat":35.615584,"lon":139.707278},{"name":"品川区立荏原平塚総合区民会館","province":"東京都","city":"品川区","address":"東京都品川区荏原4丁目5-28","lat":35.615155,"lon":139.707548},{"name":"品川区立荏原平塚総合区民会館","province":"東京都","city":"品川区","address":"東京都品川区荏原4丁目5-28","lat":35.615155,"lon":139.707547},{"name":"南大井文化センター","province":"東京都","city":"品川区","address":"東京都品川区南大井1丁目12-6","lat":35.596304,"lon":139.737548},{"name":"五反田文化センター","province":"東京都","city":"品川区","address":"東京都品川区西五反田6丁目5-1","lat":35.622476,"lon":139.71653},{"name":"五反田文化センター","province":"東京都","city":"品川区","address":"東京都品川区西五反田6丁目5-1","lat":35.622537,"lon":139.716441},{"name":"きゅりあん品川区立総合区民会館","province":"東京都","city":"品川区","address":"東京都品川区東大井5丁目18-1","lat":35.606043,"lon":139.736202},{"name":"こみゅにてぃぷらざ八潮","province":"東京都","city":"品川区","address":"東京都品川区八潮5丁目9-11","lat":35.597726,"lon":139.752531},{"name":"東品川文化センター","province":"東京都","city":"品川区","address":"東京都品川区東品川3丁目32-11","lat":35.61291,"lon":139.750609},{"name":"品川保健センター","province":"東京都","city":"品川区","address":"東京都品川区北品川3丁目11-22","lat":35.61655,"lon":139.74067},{"name":"大井保健センター","province":"東京都","city":"品川区","address":"東京都品川区大井2丁目27-20","lat":35.60406,"lon":139.730367},{"name":"品川区立品川図書館","province":"東京都","city":"品川区","address":"東京都品川区北品川2丁目32-3","lat":35.616842,"lon":139.742501},{"name":"品川区立品川図書館","province":"東京都","city":"品川区","address":"東京都品川区北品川2丁目32-3","lat":35.616923,"lon":139.742567},{"name":"品川区立荏原図書館","province":"東京都","city":"品川区","address":"東京都品川区中延1丁目9-15","lat":35.61224,"lon":139.710379},{"name":"品川区立ゆたか図書館","province":"東京都","city":"品川区","address":"東京都品川区豊町1丁目17-7","lat":35.6116,"lon":139.722359},{"name":"品川区立大井図書館","province":"東京都","city":"品川区","address":"東京都品川区大井5丁目19-14","lat":35.59826,"lon":139.729171},{"name":"品川区立八潮図書館","province":"東京都","city":"品川区","address":"東京都品川区八潮5丁目10-27","lat":35.59987,"lon":139.751456},{"name":"品川区立五反田図書館","province":"東京都","city":"品川区","address":"東京都品川区西五反田6丁目5-1","lat":35.62267,"lon":139.716473},{"name":"品川区立大崎図書館","province":"東京都","city":"品川区","address":"東京都品川区北品川5丁目2-1","lat":35.62342,"lon":139.731753},{"name":"品川区立二葉図書館","province":"東京都","city":"品川区","address":"東京都品川区二葉1丁目4-25","lat":35.608,"lon":139.726688},{"name":"品川区立大崎図書館分館","province":"東京都","city":"品川区","address":"東京都品川区大崎3丁目11","lat":35.618742,"lon":139.72379},{"name":"荏原中央公園","province":"東京都","city":"品川区","address":"東京都品川区荏原5丁目1","lat":35.615956,"lon":139.704132},{"name":"豊町公園","province":"東京都","city":"品川区","address":"東京都品川区豊町6丁目16","lat":35.604627,"lon":139.716338},{"name":"洲崎公園","province":"東京都","city":"品川区","address":"東京都品川区東品川1丁目36","lat":35.618023,"lon":139.746511},{"name":"八潮公園","province":"東京都","city":"品川区","address":"東京都品川区八潮5丁目10-55","lat":35.599563,"lon":139.753395},{"name":"二葉公園","province":"東京都","city":"品川区","address":"東京都品川区二葉4丁目13","lat":35.603761,"lon":139.718218},{"name":"西品川公園","province":"東京都","city":"品川区","address":"東京都品川区西品川1丁目8","lat":35.6126,"lon":139.730977},{"name":"鈴ヶ森公園","province":"東京都","city":"品川区","address":"東京都品川区南大井4丁目19-3","lat":35.593263,"lon":139.734644},{"name":"大井水神公園","province":"東京都","city":"品川区","address":"東京都品川区南大井5丁目16","lat":35.59549,"lon":139.732655},{"name":"西大井広場公園","province":"東京都","city":"品川区","address":"東京都品川区西大井1丁目4","lat":35.601975,"lon":139.723817},{"name":"西大井広場公園","province":"東京都","city":"品川区","address":"東京都品川区西大井1丁目4","lat":35.602564,"lon":139.723847},{"name":"浜川公園","province":"東京都","city":"品川区","address":"東京都品川区南大井4丁目8","lat":35.596899,"lon":139.735359},{"name":"しながわ区民公園","province":"東京都","city":"品川区","address":"東京都品川区南大井2丁目3","lat":35.593498,"lon":139.737902},{"name":"しながわ区民公園","province":"東京都","city":"品川区","address":"東京都品川区勝島3丁目2","lat":35.593972,"lon":139.739885},{"name":"しながわ区民公園","province":"東京都","city":"品川区","address":"東京都品川区勝島3丁目2","lat":35.592883,"lon":139.7391},{"name":"しながわ区民公園","province":"東京都","city":"品川区","address":"東京都品川区勝島3丁目2","lat":35.590379,"lon":139.737169},{"name":"しながわ区民公園","province":"東京都","city":"品川区","address":"東京都品川区勝島3丁目2","lat":35.588704,"lon":139.738544},{"name":"わかくさ公園","province":"東京都","city":"品川区","address":"東京都品川区勝島1丁目6","lat":35.597996,"lon":139.743768},{"name":"天王洲公園","province":"東京都","city":"品川区","address":"東京都品川区東品川2丁目6-23","lat":35.619425,"lon":139.750207},{"name":"天王洲公園","province":"東京都","city":"品川区","address":"東京都品川区東品川2丁目5","lat":35.620478,"lon":139.749307},{"name":"しおじ公園","province":"東京都","city":"品川区","address":"東京都品川区八潮5丁目6-39","lat":35.596674,"lon":139.750731},{"name":"谷山公園","province":"東京都","city":"品川区","address":"東京都品川区西五反田3丁目6","lat":35.627766,"lon":139.718554},{"name":"大崎西口公園","province":"東京都","city":"品川区","address":"東京都品川区大崎2丁目10","lat":35.617594,"lon":139.728966},{"name":"鮫洲入江広場","province":"東京都","city":"品川区","address":"東京都品川区東大井1丁目13","lat":35.603246,"lon":139.743743},{"name":"品川シーサイド公園","province":"東京都","city":"品川区","address":"東京都品川区東品川4丁目12","lat":35.607567,"lon":139.749138},{"name":"東品川海上公園","province":"東京都","city":"品川区","address":"東京都品川区東品川3丁目9","lat":35.617143,"lon":139.749388},{"name":"天王洲アイル第一公園","province":"東京都","city":"品川区","address":"東京都品川区東品川2丁目3-16","lat":35.623494,"lon":139.751298},{"name":"しながわ中央公園","province":"東京都","city":"品川区","address":"東京都品川区西品川1丁目27","lat":35.609408,"lon":139.728837},{"name":"しながわ中央公園","province":"東京都","city":"品川区","address":"東京都品川区西品川1丁目28","lat":35.608965,"lon":139.72738},{"name":"八潮北公園","province":"東京都","city":"品川区","address":"東京都品川区八潮1丁目3-1","lat":35.612505,"lon":139.753769},{"name":"大森貝塚遺跡庭園","province":"東京都","city":"品川区","address":"東京都品川区大井6丁目21","lat":35.593354,"lon":139.729948},{"name":"品川浦公園","province":"東京都","city":"品川区","address":"東京都品川区東品川1丁目7","lat":35.621148,"lon":139.74212},{"name":"かむろ坂公園","province":"東京都","city":"品川区","address":"東京都品川区西五反田4丁目28","lat":35.625203,"lon":139.711604},{"name":"品海公園","province":"東京都","city":"品川区","address":"東京都品川区北品川1丁目30","lat":35.620037,"lon":139.742194},{"name":"品川南ふ頭公園","province":"東京都","city":"品川区","address":"東京都品川区東品川5丁目8","lat":35.621988,"lon":139.754866},{"name":"荏原南公園","province":"東京都","city":"品川区","address":"東京都品川区荏原6丁目15","lat":35.611767,"lon":139.703017},{"name":"東品川公園","province":"東京都","city":"品川区","address":"東京都品川区東品川3丁目14","lat":35.614952,"lon":139.746533},{"name":"鮫洲運動公園","province":"東京都","city":"品川区","address":"東京都品川区東大井1丁目4","lat":35.606564,"lon":139.744786},{"name":"鮫洲運動公園","province":"東京都","city":"品川区","address":"東京都品川区東大井1丁目4","lat":35.605924,"lon":139.745038},{"name":"ひらさん広場","province":"東京都","city":"品川区","address":"東京都品川区平塚3丁目9","lat":35.614026,"lon":139.712639},{"name":"五反田ふれあい水辺広場","province":"東京都","city":"品川区","address":"東京都品川区東五反田2丁目9","lat":35.624186,"lon":139.726396},{"name":"文庫の森","province":"東京都","city":"品川区","address":"東京都品川区豊町1丁目16","lat":35.611366,"lon":139.720625},{"name":"京陽公園","province":"東京都","city":"品川区","address":"東京都品川区平塚2丁目12","lat":35.616767,"lon":139.71323},{"name":"上神明児童遊園","province":"東京都","city":"品川区","address":"東京都品川区二葉4丁目26","lat":35.602244,"lon":139.714196},{"name":"小山台東公園","province":"東京都","city":"品川区","address":"東京都品川区小山台1丁目26","lat":35.62228,"lon":139.706355},{"name":"大井中央公園","province":"東京都","city":"品川区","address":"東京都品川区大井1丁目46","lat":35.604643,"lon":139.732225},{"name":"台場浦公園","province":"東京都","city":"品川区","address":"東京都品川区東品川1丁目8","lat":35.621538,"lon":139.742958},{"name":"峰原公園","province":"東京都","city":"品川区","address":"東京都品川区大崎3丁目17","lat":35.617991,"lon":139.721141},{"name":"武蔵小山駅前公衆便所","province":"東京都","city":"品川区","address":"東京都品川区小山3丁目27","lat":35.620049,"lon":139.703545},{"name":"新馬場北公衆便所","province":"東京都","city":"品川区","address":"東京都品川区北品川2丁目18-1","lat":35.617719,"lon":139.741363},{"name":"不動前公衆便所","province":"東京都","city":"品川区","address":"東京都品川区西五反田5丁目1","lat":35.625951,"lon":139.714184},{"name":"大井町駅東口公衆便所","province":"東京都","city":"品川区","address":"東京都品川区大井1丁目2","lat":35.606838,"lon":139.735183},{"name":"西大井公衆便所","province":"東京都","city":"品川区","address":"東京都品川区西大井1丁目3-2","lat":35.60165,"lon":139.721787},{"name":"三十五橋公衆便所","province":"東京都","city":"品川区","address":"東京都品川区中延5丁目14","lat":35.602349,"lon":139.709006},{"name":"西小山駅前公衆便所","province":"東京都","city":"品川区","address":"東京都品川区小山6丁目2","lat":35.615125,"lon":139.698398},{"name":"新品川橋公衆便所","province":"東京都","city":"品川区","address":"東京都品川区東品川3丁目1","lat":35.616939,"lon":139.745334},{"name":"南大井公衆便所","province":"東京都","city":"品川区","address":"東京都品川区南大井1丁目22","lat":35.594707,"lon":139.73663},{"name":"大井水神南公衆便所","province":"東京都","city":"品川区","address":"東京都品川区南大井6丁目15-11","lat":35.589779,"lon":139.729263},{"name":"荏原町駅前公衆便所","province":"東京都","city":"品川区","address":"東京都品川区中延5丁目2","lat":35.603793,"lon":139.708155},{"name":"荏原中延公衆便所","province":"東京都","city":"品川区","address":"東京都品川区東中延1丁目9","lat":35.609693,"lon":139.71185},{"name":"八ツ山の東司","province":"東京都","city":"品川区","address":"東京都品川区北品川1丁目3","lat":35.623759,"lon":139.739138},{"name":"新浜川橋北公衆便所","province":"東京都","city":"品川区","address":"東京都品川区南大井1丁目6","lat":35.596405,"lon":139.740942},{"name":"大井町駅前公衆便所","province":"東京都","city":"品川区","address":"東京都品川区大井1丁目2","lat":35.60565,"lon":139.734733},{"name":"新馬場南公衆便所","province":"東京都","city":"品川区","address":"東京都品川区南品川1丁目1","lat":35.614687,"lon":139.74191},{"name":"青物横丁公衆便所","province":"東京都","city":"品川区","address":"東京都品川区南品川2丁目5","lat":35.610097,"lon":139.742777},{"name":"大崎橋公衆便所","province":"東京都","city":"品川区","address":"東京都品川区西五反田1丁目10","lat":35.624599,"lon":139.724257},{"name":"品川区立大崎高齢者多世代交流支援施設(呼称：大崎ゆうゆうプラザ)","province":"東京都","city":"品川区","address":"東京都品川区大崎2丁目7-13","lat":35.6168,"lon":139.725836},{"name":"品川区立平塚橋高齢者多世代交流支援施設(呼称：平塚橋ゆうゆうプラザ)","province":"東京都","city":"品川区","address":"東京都品川区西中延1丁目2-8","lat":35.61428,"lon":139.709987},{"name":"南ゆたか児童センター","province":"東京都","city":"品川区","address":"東京都品川区豊町4丁目17-21","lat":35.606509,"lon":139.720918},{"name":"品川区立なぎさ会館","province":"東京都","city":"品川区","address":"東京都品川区勝島3丁目1-3","lat":35.59631,"lon":139.741776},{"name":"品川区立総合体育館","province":"東京都","city":"品川区","address":"東京都品川区東五反田2丁目11-1","lat":35.6245,"lon":139.728523},{"name":"品川区立総合体育館","province":"東京都","city":"品川区","address":"東京都品川区東五反田2丁目11-1","lat":35.62462,"lon":139.72846},{"name":"品川区立総合体育館","province":"東京都","city":"品川区","address":"東京都品川区東五反田2丁目11-1","lat":35.62453,"lon":139.728195},{"name":"品川区立戸越体育館","province":"東京都","city":"品川区","address":"東京都品川区豊町2丁目1-17","lat":35.61099,"lon":139.720543},{"name":"品川区清掃事務所","province":"東京都","city":"品川区","address":"東京都品川区大崎1丁目14-1","lat":35.61842,"lon":139.733304},{"name":"品川区立心身障害者福祉会館","province":"東京都","city":"品川区","address":"東京都品川区旗の台5丁目2-2","lat":35.60504,"lon":139.700453},{"name":"品川区立心身障害者福祉会館","province":"東京都","city":"品川区","address":"東京都品川区旗の台5丁目2-2","lat":35.60504,"lon":139.700406},{"name":"品川区立心身障害者福祉会館","province":"東京都","city":"品川区","address":"東京都品川区旗の台5丁目2-2","lat":35.60504,"lon":139.70043},{"name":"品川区立平塚高齢者多世代交流支援施設（呼称：平塚ゆうゆうプラザ）","province":"東京都","city":"品川区","address":"東京都品川区平塚2丁目10-20","lat":35.616926,"lon":139.71401},{"name":"品川区立障害児者総合支援施設","province":"東京都","city":"品川区","address":"東京都品川区南品川3丁目7-7","lat":35.607127,"lon":139.744875},{"name":"品川区立障害児者総合支援施設","province":"東京都","city":"品川区","address":"東京都品川区南品川3丁目7-7","lat":35.607199,"lon":139.74508},{"name":"品川区立障害児者総合支援施設","province":"東京都","city":"品川区","address":"東京都品川区南品川3丁目7-7","lat":35.607178,"lon":139.744809},{"name":"品川区立障害児者総合支援施設","province":"東京都","city":"品川区","address":"東京都品川区南品川3丁目7-7","lat":35.607303,"lon":139.744888},{"name":"メイプルカルチャーセンター","province":"東京都","city":"品川区","address":"東京都品川区西大井1丁目4","lat":35.602195,"lon":139.722438},{"name":"ゆたか防災広場","province":"東京都","city":"品川区","address":"東京都品川区豊町6丁目11","lat":35.605585,"lon":139.717701},{"name":"品川区立東品川高齢者多世代交流支援施設（呼称：東品川ゆうゆうプラザ）","province":"東京都","city":"品川区","address":"東京都品川区東品川3丁目32-11","lat":35.613002,"lon":139.750591},{"name":"ファミーユ西品川子ども未来部分室105号室","province":"東京都","city":"品川区","address":"東京都品川区西品川1丁目16-2","lat":35.612145,"lon":139.729911},{"name":"東大井児童センター","province":"東京都","city":"品川区","address":"東京都品川区東大井1丁目22-16","lat":35.603314,"lon":139.741363},{"name":"子ども家庭支援センター","province":"東京都","city":"品川区","address":"東京都品川区二葉1丁目7-15","lat":35.608697,"lon":139.729292},{"name":"武蔵小山図書取次施設","province":"東京都","city":"品川区","address":"東京都品川区小山3丁目22-3","lat":35.619219,"lon":139.705798},{"name":"後地児童センター","province":"東京都","city":"品川区","address":"東京都品川区小山2丁目9-19","lat":35.620618,"lon":139.709179},{"name":"大原児童センター","province":"東京都","city":"品川区","address":"東京都品川区戸越6丁目16-1","lat":35.607348,"lon":139.715397},{"name":"ゆたか児童センター","province":"東京都","city":"品川区","address":"東京都品川区豊町1丁目18-15","lat":35.611498,"lon":139.722742},{"name":"中原児童センター（仮設）","province":"東京都","city":"品川区","address":"東京都品川区西五反田6丁目6-6","lat":35.623204,"lon":139.717292},{"name":"品川区立環境学習交流施設(エコルとごし)","province":"東京都","city":"品川区","address":"東京都品川区豊町2丁目1-30","lat":35.611007,"lon":139.722297},{"name":"フューネラルジャパン株式会社","province":"東京都","city":"品川区","address":"東京都品川区大井1丁目53-7","lat":35.60456746,"lon":139.73380519},{"name":"品川区保健所","province":"東京都","city":"品川区","address":"東京都品川区広町2丁目1-36","lat":35.60881128,"lon":139.73028866},{"name":"品川保健センター","province":"東京都","city":"品川区","address":"東京都品川区北品川3丁目11-22","lat":35.61658571,"lon":139.74073199},{"name":"大井保健センター","province":"東京都","city":"品川区","address":"東京都品川区大井2丁目27-20","lat":35.60406184,"lon":139.73038047},{"name":"荏原保健センター","province":"東京都","city":"品川区","address":"東京都品川区西五反田6丁目6-6","lat":35.62309266,"lon":139.71741427},{"name":"品川区保健所","province":"東京都","city":"品川区","address":"品川区広町2-1-36","lat":35.6083,"lon":139.73096},{"name":"品川保健センター","province":"東京都","city":"品川区","address":"品川区北品川3-11-22","lat":35.61644,"lon":139.73927},{"name":"大井保健センター","province":"東京都","city":"品川区","address":"品川区大井2-27-20","lat":35.60418,"lon":139.73032},{"name":"荏原保健センター","province":"東京都","city":"品川区","address":"品川区西五反田6-6-6","lat":35.62268,"lon":139.71748},{"name":"品川区子ども家庭支援センター","province":"東京都","city":"品川区","address":"品川区二葉1-7-15","lat":35.60878,"lon":139.72881},{"name":"荏原保健センター","province":"東京都","city":"品川区","address":"品川区荏原2-9-6","lat":35.61701,"lon":139.71111},{"name":"品川区子育て支援センター","province":"東京都","city":"品川区","address":"品川区平塚2-12-2品川区立家庭あんしんセンター内","lat":35.61694,"lon":139.71266},{"name":"荏原消防署","province":"東京都","city":"品川区","address":"東京都品川区平塚3丁目16-20","lat":35.6144967,"lon":139.7105109},{"name":"品川消防署","province":"東京都","city":"品川区","address":"東京都品川区北品川3丁目7-31","lat":35.6170878,"lon":139.7397523},{"name":"滝王子出張所","province":"東京都","city":"品川区","address":"東京都品川区大井5丁目17","lat":35.5984647,"lon":139.7274195},{"name":"消防署","province":"東京都","city":"品川区","address":"東京都品川区旗の台6丁目24-12","lat":35.6056823,"lon":139.6999571},{"name":"戸越出張所","province":"東京都","city":"品川区","address":"東京都品川区戸越5丁目20-15","lat":35.6083161,"lon":139.7187459},{"name":"東品川出張所","province":"東京都","city":"品川区","address":"東京都品川区東品川3丁目32","lat":35.6134542,"lon":139.7504186},{"name":"消防署","province":"東京都","city":"品川区","address":"東京都品川区西五反田7丁目25","lat":35.6200332,"lon":139.7185314},{"name":"大井警察署","province":"東京都","city":"品川区","address":"東京都品川区大井5丁目10-2","lat":35.5989109,"lon":139.7298653},{"name":"荏原警察署","province":"東京都","city":"品川区","address":"東京都品川区荏原6丁目19-10","lat":35.6120395,"lon":139.7062371},{"name":"品川警察署","province":"東京都","city":"品川区","address":"東京都品川区東品川3丁目14","lat":35.6138397,"lon":139.7450501},{"name":"大崎警察署","province":"東京都","city":"品川区","address":"東京都品川区大崎4丁目2-10","lat":35.6217168,"lon":139.7241446},{"name":"(株)共益商会  大森営業所","province":"東京都","city":"品川区","address":"品川区南大井6-8-1","lat":35.591969,"lon":139.733063},{"name":"(有)後藤商店","province":"東京都","city":"品川区","address":"品川区西五反田5-30-16","lat":35.622742,"lon":139.713181},{"name":"(有)鈴木紙業","province":"東京都","city":"品川区","address":"品川区南品川4-8-4","lat":35.612625,"lon":139.736069},{"name":"(有)スリーシープランニング","province":"東京都","city":"品川区","address":"品川区南品川3-6-31","lat":35.608429,"lon":139.744705},{"name":"川村金属(株)","province":"東京都","city":"品川区","address":"品川区荏原4-8-8","lat":35.615547,"lon":139.706345},{"name":"品川区選挙管理委員会","province":"東京都","city":"品川区","address":"品川区広町2-1-36品川区防災センター・第2庁舎","lat":35.609177,"lon":139.730167},{"name":"品川都税事務所","province":"東京都","city":"品川区","address":"東京都品川区広町2-1-36","lat":35.6089834,"lon":139.7302954},{"name":"鮫洲運転免許試験場","province":"東京都","city":"品川区","address":"東京都品川区東大井1-12-5","lat":35.6033213,"lon":139.7464659},{"name":"品川児童相談所","province":"東京都","city":"品川区","address":"東京都品川区北品川3-7-21","lat":35.6175581,"lon":139.7404569},{"name":"品川警察署","province":"東京都","city":"品川区","address":"東京都品川区東品川3-14-32","lat":35.6139521,"lon":139.7454043},{"name":"大崎警察署","province":"東京都","city":"品川区","address":"東京都品川区大崎4-2-10","lat":35.6217304,"lon":139.7241517},{"name":"大井警察署","province":"東京都","city":"品川区","address":"東京都品川区大井5-10-2","lat":35.5987968,"lon":139.7298873},{"name":"荏原警察署","province":"東京都","city":"品川区","address":"東京都品川区荏原6-19-10","lat":35.6120733,"lon":139.7061891},{"name":"東京水上警察署","province":"東京都","city":"品川区","address":"東京都品川区港区港南5-8-36","lat":35.6323499,"lon":139.7550883},{"name":"品川消防署","province":"東京都","city":"品川区","address":"東京都品川区北品川3-7-31","lat":35.6171422,"lon":139.7398073},{"name":"品川消防署東品川出張所","province":"東京都","city":"品川区","address":"東京都品川区東品川3-25-11","lat":35.6128705,"lon":139.7473344},{"name":"品川消防署大崎出張所","province":"東京都","city":"品川区","address":"東京都品川区大崎2-8-27","lat":35.6133836,"lon":139.731659},{"name":"品川消防署五反田出張所","province":"東京都","city":"品川区","address":"東京都品川区西五反田7-25-14","lat":35.6200165,"lon":139.7187382},{"name":"大井消防署","province":"東京都","city":"品川区","address":"東京都品川区東大井3-6-12","lat":35.6034742,"lon":139.7401437},{"name":"大井消防署滝王子出張所","province":"東京都","city":"品川区","address":"東京都品川区大井5-17-9","lat":35.5983307,"lon":139.7281165},{"name":"大井消防署八潮出張所","province":"東京都","city":"品川区","address":"東京都品川区八潮5-8-3","lat":35.5971201,"lon":139.7515991},{"name":"荏原消防署","province":"東京都","city":"品川区","address":"東京都品川区平塚3-16-20","lat":35.6148569,"lon":139.7105344},{"name":"荏原消防署戸越出張所","province":"東京都","city":"品川区","address":"東京都品川区戸越5-20-15","lat":35.6083098,"lon":139.7187484},{"name":"荏原消防署小山出張所","province":"東京都","city":"品川区","address":"東京都品川区小山5-12-11","lat":35.6160664,"lon":139.7022552},{"name":"荏原消防署旗の台出張所","province":"東京都","city":"品川区","address":"東京都品川区旗の台6-24-11","lat":35.60578,"lon":139.7000222},{"name":"品川税務署","province":"東京都","city":"品川区","address":"東京都品川区港区高輪3-13-22","lat":35.6296746,"lon":139.734836},{"name":"荏原税務署","province":"東京都","city":"品川区","address":"東京都品川区中延1-1-5","lat":35.613837,"lon":139.7097508},{"name":"品川自動車税事務所","province":"東京都","city":"品川区","address":"東京都品川区東大井1-12-18","lat":35.60493,"lon":139.7473986},{"name":"関東運輸局東京陸運支局","province":"東京都","city":"品川区","address":"東京都品川区東大井1-12-17","lat":35.6046993,"lon":139.7469919},{"name":"品川郵便局","province":"東京都","city":"品川区","address":"東京都品川区東大井5-23-34","lat":35.6050717,"lon":139.7361881},{"name":"大崎郵便局","province":"東京都","city":"品川区","address":"東京都品川区西五反田2-32-7","lat":35.6252595,"lon":139.7189457},{"name":"荏原郵便局","province":"東京都","city":"品川区","address":"東京都品川区西中延1-7-23","lat":35.612713,"lon":139.7073544},{"name":"水道局品川営業所","province":"東京都","city":"品川区","address":"東京都品川区西中延1-9-10","lat":35.6116016,"lon":139.7078304},{"name":"下水道局南部下水道事務所品川出張所","province":"東京都","city":"品川区","address":"東京都品川区西品川1-8-1","lat":35.6129282,"lon":139.7301521},{"name":"品川年金事務所","province":"東京都","city":"品川区","address":"東京都品川区大崎5-1-5高徳ビル","lat":35.6236396,"lon":139.7248636},{"name":"品川労働基準監督署","province":"東京都","city":"品川区","address":"東京都品川区東五反田2-6-17","lat":35.6296077,"lon":139.7190353},{"name":"東京法務局品川出張所（登記所）","province":"東京都","city":"品川区","address":"東京都品川区広町2-1-36品川区総合庁舎","lat":35.6090951,"lon":139.7302296},{"name":"五反田公証役場","province":"東京都","city":"品川区","address":"東京都品川区東五反田5-27-6","lat":35.6270162,"lon":139.7234544},{"name":"目黒公証役場","province":"東京都","city":"品川区","address":"東京都品川区上大崎2-17-5","lat":35.6355392,"lon":139.7150243},{"name":"大森公証役場","province":"東京都","city":"品川区","address":"東京都品川区南大井6-12-12","lat":35.5871233,"lon":139.7301537},{"name":"五反田駅","province":"東京都","city":"品川区","address":"東京都品川区東五反田1丁目26-2","lat":35.6260453,"lon":139.7235869},{"name":"大崎駅","province":"東京都","city":"品川区","address":"東京都品川区大崎1丁目21-4","lat":35.6190999,"lon":139.7285802},{"name":"大井町駅","province":"東京都","city":"品川区","address":"東京都品川区大井1丁目2-12","lat":35.607536,"lon":139.7349666},{"name":"西大井町駅","province":"東京都","city":"品川区","address":"東京都品川区西大井1丁目3-2","lat":35.601478,"lon":139.721434},{"name":"不動前駅","province":"東京都","city":"品川区","address":"東京都品川区西五反田5丁目12-1","lat":35.6254279,"lon":139.7132457},{"name":"武蔵小山駅","province":"東京都","city":"品川区","address":"東京都品川区小山3丁目4-8","lat":35.6206461,"lon":139.7047325},{"name":"大崎広小路駅","province":"東京都","city":"品川区","address":"東京都品川区大崎4丁目1-1","lat":35.6224256,"lon":139.722493},{"name":"荏原中延駅","province":"東京都","city":"品川区","address":"東京都品川区中延2丁目8-1","lat":35.6098891,"lon":139.7119465},{"name":"旗の台駅","province":"東京都","city":"品川区","address":"東京都品川区旗の台2丁目13-1","lat":35.604834,"lon":139.7027961},{"name":"下神明駅","province":"東京都","city":"品川区","address":"東京都品川区西品川1丁目29-6","lat":35.6087526,"lon":139.7264653},{"name":"戸越公園駅","province":"東京都","city":"品川区","address":"東京都品川区戸越5丁目10-15","lat":35.6089987,"lon":139.7184968},{"name":"東急中延駅","province":"東京都","city":"品川区","address":"東京都品川区東中延2丁目9-12","lat":35.6057842,"lon":139.7126428},{"name":"北品川駅","province":"東京都","city":"品川区","address":"東京都品川区北品川1丁目1-4","lat":35.6225433,"lon":139.7392315},{"name":"新馬場駅","province":"東京都","city":"品川区","address":"東京都品川区北品川2丁目18-1","lat":35.6170364,"lon":139.7414247},{"name":"青物横丁駅","province":"東京都","city":"品川区","address":"東京都品川区南品川3丁目1-20","lat":35.6090709,"lon":139.7431279},{"name":"鮫洲駅","province":"東京都","city":"品川区","address":"東京都品川区東大井1丁目2-20","lat":35.6051498,"lon":139.7424961},{"name":"立会川駅","province":"東京都","city":"品川区","address":"東京都品川区東大井2丁目23-1","lat":35.5986501,"lon":139.7389746},{"name":"大森海岸駅","province":"東京都","city":"品川区","address":"東京都品川区南大井3丁目32-1","lat":35.5874923,"lon":139.7352991},{"name":"戸越駅","province":"東京都","city":"品川区","address":"東京都品川区戸越3丁目4-17","lat":35.6143511,"lon":139.716256},{"name":"都営中延駅","province":"東京都","city":"品川区","address":"東京都品川区東中延2丁目9-12","lat":35.6055999,"lon":139.7135855},{"name":"天王洲アイル駅（りんかい線）","province":"東京都","city":"品川区","address":"東京都品川区東品川2-5-8","lat":35.6216148,"lon":139.7508566},{"name":"品川シーサイド駅","province":"東京都","city":"品川区","address":"東京都品川区東品川4丁目12","lat":35.6103127,"lon":139.7498309},{"name":"大井競馬場前駅","province":"東京都","city":"品川区","address":"東京都品川区勝島2丁目2","lat":35.5949348,"lon":139.7471756},{"name":"荏原町駅","province":"東京都","city":"品川区","address":"東京都品川区中延5-2-1","lat":35.6039899,"lon":139.7076062},{"name":"西小山駅","province":"東京都","city":"品川区","address":"東京都品川区小山6-3-9","lat":35.6158275,"lon":139.6989315},{"name":"戸越銀座駅","province":"東京都","city":"品川区","address":"東京都品川区平塚2-16-1","lat":35.6158834,"lon":139.7148438},{"name":"都営浅草線五反田駅「定期券販売所」","province":"東京都","city":"品川区","address":"東京都品川区東五反田1-26-2","lat":35.626418,"lon":139.7236661},{"name":"五反田駅(東急)","province":"東京都","city":"品川区","address":"東京都品川区東五反田2-1-1","lat":35.625404,"lon":139.7242969},{"name":"目黒駅(東急)","province":"東京都","city":"品川区","address":"東京都品川区上大崎4-2-1","lat":35.633395,"lon":139.715439},{"name":"大井町駅(ＪＲ)","province":"東京都","city":"品川区","address":"東京都品川区大井1-2-12","lat":35.606221,"lon":139.734833},{"name":"目黒駅(ＪＲ)","province":"東京都","city":"品川区","address":"東京都品川区上大崎2-16-9","lat":35.634114,"lon":139.715767},{"name":"都営バス「品川自動車営業所」","province":"東京都","city":"品川区","address":"東京都品川区北品川1-5-12","lat":35.623274,"lon":139.740748},{"name":"都営バス「品川自動車営業所目黒支所」","province":"東京都","city":"品川区","address":"東京都品川区上大崎3-1-2","lat":35.632837,"lon":139.716783},{"name":"東急バス「荏原営業所」","province":"東京都","city":"品川区","address":"東京都品川区二葉4-27-1","lat":35.602427,"lon":139.713326},{"name":"西大井駅(JR横須賀線)","province":"東京都","city":"品川区","address":"東京都品川区","lat":35.602127,"lon":139.7219446},{"name":"大森駅(JR京浜東北線)","province":"東京都","city":"品川区","address":"東京都品川区","lat":35.5889869,"lon":139.7281534},{"name":"天王洲アイル駅（東京モノレール）","province":"東京都","city":"品川区","address":"東京都品川区東品川2-3-8","lat":35.6231178,"lon":139.7503428},{"name":"大井警察署八潮団地交番","province":"東京都","city":"品川区","address":"東京都品川区八潮5-5-5","lat":35.5988304,"lon":139.7508339},{"name":"品川区本庁舎","province":"東京都","city":"品川区","address":"品川区広町2-1-36","lat":35.608837,"lon":139.730242},{"name":"第六機動隊","province":"東京都","city":"品川区","address":"品川区勝島1-3-18","lat":35.5987,"lon":139.7446},{"name":"第二方面本部","province":"東京都","city":"品川区","address":"品川区勝島1-3-12","lat":35.59853,"lon":139.7449},{"name":"荏原警察署","province":"東京都","city":"品川区","address":"品川区荏原6-19-10","lat":35.61205,"lon":139.7062},{"name":"大井警察署","province":"東京都","city":"品川区","address":"品川区大井5-10-2","lat":35.59883,"lon":139.7298},{"name":"大崎警察署","province":"東京都","city":"品川区","address":"品川区大崎4-2-10","lat":35.62179,"lon":139.7241},{"name":"荏原消防署","province":"東京都","city":"品川区","address":"品川区平塚3-16-20","lat":35.61459,"lon":139.7105},{"name":"大井消防署","province":"東京都","city":"品川区","address":"品川区東大井3-6-12","lat":35.60361,"lon":139.7401},{"name":"品川消防署","province":"東京都","city":"品川区","address":"品川区北品川3-7-31","lat":35.61715,"lon":139.7398},{"name":"都立大井ふ頭中央海浜公園陸上競技場","province":"東京都","city":"品川区","address":"品川区八潮4丁目地内","lat":35.59263,"lon":139.7523},{"name":"品川清掃工場","province":"東京都","city":"品川区","address":"品川区八潮1-4-1","lat":35.60794,"lon":139.7532},{"name":"品川区立西大井広場公園","province":"東京都","city":"品川区","address":"品川区西大井1-4-10","lat":35.60183,"lon":139.723},{"name":"品川自動車営業所","province":"東京都","city":"品川区","address":"東京都品川区北品川1丁目5-12","lat":35.62329323,"lon":139.74073729},{"name":"東京法務局品川出張所(登記所)","province":"東京都","city":"品川区","address":"東京都品川区広町2-1-36品川区総合庁舎","lat":35.6090951,"lon":139.7302296,"備考":"品川区広町2-1-36品川区総合庁舎1階","経度":"139.7302296","緯度":"35.6090951"},{"name":"大井町駅(JR)","province":"東京都","city":"品川区","address":"東京都品川区大井1-2-12","lat":35.606221,"lon":139.734833,"備考":"東京都品川区大井1-2-12","経度":"139.734833","緯度":"35.606221"},{"name":"目黒駅(JR)","province":"東京都","city":"品川区","address":"東京都品川区上大崎2-16-9","lat":35.634114,"lon":139.715767,"備考":"東京都品川区上大崎2-16-9","経度":"139.715767","緯度":"35.634114"},{"name":"都立城南職業能力開発センター","province":"東京都","city":"品川区","address":"東京都品川区東品川3-31-16","lat":35.6119765,"lon":139.7497704,"備考":"東品川3-31-16\n電話 3472-3411","経度":"139.7497704","緯度":"35.6119765"},{"name":"品川区子育て支援センター","province":"東京都","city":"品川区","address":"品川区平塚2-12-2品川区立家庭あんしんセンター内","lat":35.617063,"lon":139.71282},{"name":"品川区保健所","province":"東京都","city":"品川区","address":"品川区広町2-1-36","lat":35.608836,"lon":139.730241},{"name":"品川保健センター","province":"東京都","city":"品川区","address":"品川区北品川3-11-22","lat":35.616586,"lon":139.740732},{"name":"大井保健センター","province":"東京都","city":"品川区","address":"品川区大井2-27-20","lat":35.604084,"lon":139.730375},{"name":"荏原保健センター","province":"東京都","city":"品川区","address":"品川区荏原2-9-6","lat":35.617185,"lon":139.711504},{"name":"品川区","province":"東京都","city":"品川区","address":"品川区広町2-1-36","lat":35.6088372,"lon":139.7302417},{"name":"大井ふ頭中央海浜公園ホッケー競技場","province":"東京都","city":"品川区","address":"東京都品川区八潮4丁目1","lat":35.593097,"lon":139.752977},{"name":"大井ふ頭中央海浜公園ホッケー競技場","province":"東京都","city":"品川区","address":"東京都品川区八潮4丁目1-19","lat":35.592905,"lon":139.753081},{"name":"大井ふ頭中央海浜公園ホッケー競技場","province":"東京都","city":"品川区","address":"東京都品川区八潮4丁目1-19","lat":35.592375,"lon":139.753054},{"name":"大井ふ頭中央海浜公園ホッケー競技場","province":"東京都","city":"品川区","address":"東京都品川区八潮4丁目1-19","lat":35.592936,"lon":139.752967},{"name":"大井ふ頭中央海浜公園ホッケー競技場","province":"東京都","city":"品川区","address":"東京都品川区八潮4丁目1-19","lat":35.592753,"lon":139.752992},{"name":"大井ふ頭中央海浜公園ホッケー競技場","province":"東京都","city":"品川区","address":"東京都品川区八潮4丁目1-19","lat":35.59232,"lon":139.752941},{"name":"大井ふ頭中央海浜公園ホッケー競技場","province":"東京都","city":"品川区","address":"東京都品川区八潮4丁目1-19","lat":35.592858,"lon":139.752971},{"name":"大井ふ頭中央海浜公園ホッケー競技場","province":"東京都","city":"品川区","address":"東京都品川区八潮4丁目1-19","lat":35.592517,"lon":139.752992},{"name":"大井ふ頭中央海浜公園ホッケー競技場","province":"東京都","city":"品川区","address":"東京都品川区八潮4丁目1-19","lat":35.592405,"lon":139.752932},{"name":"城南職業能力開発センター","province":"東京都","city":"品川区","address":"東京都品川区東品川3丁目31-16","lat":35.612024,"lon":139.749757},{"name":"城南職業能力開発センター","province":"東京都","city":"品川区","address":"東京都品川区東品川3丁目31-16","lat":35.611975,"lon":139.749888},{"name":"東京都南部労政会館","province":"東京都","city":"品川区","address":"東京都品川区大崎1丁目11-1","lat":35.619552,"lon":139.730812},{"name":"林試の森公園","province":"東京都","city":"品川区","address":"東京都品川区小山台2丁目6","lat":35.624441,"lon":139.701575},{"name":"林試の森公園","province":"東京都","city":"品川区","address":"東京都品川区小山台2丁目6","lat":35.625275,"lon":139.701365},{"name":"林試の森公園","province":"東京都","city":"品川区","address":"東京都品川区小山台2丁目7","lat":35.624621,"lon":139.702704},{"name":"潮風公園","province":"東京都","city":"品川区","address":"東京都品川区東八潮1-2","lat":35.62379,"lon":139.769918},{"name":"潮風公園","province":"東京都","city":"品川区","address":"東京都品川区東八潮2","lat":35.620596,"lon":139.769884},{"name":"潮風公園","province":"東京都","city":"品川区","address":"東京都品川区東八潮1","lat":35.623319,"lon":139.768649},{"name":"潮風公園","province":"東京都","city":"品川区","address":"東京都品川区東八潮1","lat":35.623259,"lon":139.76865},{"name":"大井中央海浜公園","province":"東京都","city":"品川区","address":"東京都品川区八潮4丁目1-19","lat":35.592579,"lon":139.752229},{"name":"大井中央海浜公園","province":"東京都","city":"品川区","address":"東京都品川区八潮4丁目2","lat":35.593922,"lon":139.750581},{"name":"大井中央海浜公園","province":"東京都","city":"品川区","address":"東京都品川区八潮4丁目1","lat":35.59061,"lon":139.752343},{"name":"大井中央海浜公園","province":"東京都","city":"品川区","address":"東京都品川区八潮4丁目1","lat":35.594199,"lon":139.753134},{"name":"大井中央海浜公園","province":"東京都","city":"品川区","address":"東京都品川区八潮4丁目1","lat":35.594286,"lon":139.753141},{"name":"大井中央海浜公園","province":"東京都","city":"品川区","address":"東京都品川区八潮4丁目1-19","lat":35.592469,"lon":139.752221},{"name":"みなとが丘ふ頭公園","province":"東京都","city":"品川区","address":"東京都品川区八潮3丁目1","lat":35.595574,"lon":139.76418},{"name":"京浜運河緑道公園","province":"東京都","city":"品川区","address":"東京都品川区八潮5丁目3","lat":35.595892,"lon":139.748995},{"name":"京浜運河緑道公園","province":"東京都","city":"品川区","address":"東京都品川区八潮1丁目4","lat":35.605772,"lon":139.752283},{"name":"大井ふ頭緑道公園","province":"東京都","city":"品川区","address":"東京都品川区八潮5丁目","lat":35.595876,"lon":139.754506},{"name":"都営浅草線中延駅","province":"東京都","city":"品川区","address":"東京都品川区豊町6丁目24","lat":35.604859,"lon":139.713557},{"name":"都営浅草線戸越駅","province":"東京都","city":"品川区","address":"東京都品川区戸越3丁目1","lat":35.614727,"lon":139.716501},{"name":"都営浅草線五反田駅","province":"東京都","city":"品川区","address":"東京都品川区東五反田5丁目25","lat":35.627258,"lon":139.724392},{"name":"東京都水道局品川営業所","province":"東京都","city":"品川区","address":"東京都品川区西中延1丁目9-10","lat":35.611613,"lon":139.70788},{"name":"品川消防署東品川出張所","province":"東京都","city":"品川区","address":"東京都品川区東品川3丁目25-11","lat":35.612932,"lon":139.747264},{"name":"八潮児童センター","province":"東京都","city":"品川区","address":"東京都品川区八潮5丁目10-27","lat":35.59988,"lon":139.751483},{"name":"中小企業センター","province":"東京都","city":"品川区","address":"東京都品川区西品川1丁目28-3","lat":35.60932,"lon":139.727666},{"name":"品川第一地域センタービル","province":"東京都","city":"品川区","address":"東京都品川区北品川3丁目11-16","lat":35.61661,"lon":139.74},{"name":"品川第二地域センター","province":"東京都","city":"品川区","address":"東京都品川区南品川5丁目3-20","lat":35.61132,"lon":139.741236},{"name":"大崎第一地域センター","province":"東京都","city":"品川区","address":"東京都品川区西五反田3丁目6-3","lat":35.628,"lon":139.716543},{"name":"大崎第二地域センター","province":"東京都","city":"品川区","address":"東京都品川区大崎2丁目9-4","lat":35.61694,"lon":139.727615},{"name":"大井第二地域センター","province":"東京都","city":"品川区","address":"東京都品川区大井2丁目27-20","lat":35.60404,"lon":139.730383},{"name":"大井第三地域交流センター","province":"東京都","city":"品川区","address":"東京都品川区西大井2丁目10","lat":35.598668,"lon":139.72212},{"name":"荏原第一地域センター","province":"東京都","city":"品川区","address":"東京都品川区小山3丁目14-1","lat":35.62113,"lon":139.70607},{"name":"荏原第二地域センター","province":"東京都","city":"品川区","address":"東京都品川区荏原6丁目17-12","lat":35.611024,"lon":139.704397},{"name":"荏原第三地域センター","province":"東京都","city":"品川区","address":"東京都品川区平塚1丁目13-18","lat":35.61339,"lon":139.715366},{"name":"荏原第四地域センター","province":"東京都","city":"品川区","address":"東京都品川区中延5丁目3-12","lat":35.60383,"lon":139.708356},{"name":"荏原第五地域センター","province":"東京都","city":"品川区","address":"東京都品川区二葉1丁目1-2","lat":35.60811,"lon":139.725765},{"name":"八潮地域センター","province":"東京都","city":"品川区","address":"東京都品川区八潮5丁目10-27","lat":35.600206,"lon":139.751392},{"name":"八潮地域センター","province":"東京都","city":"品川区","address":"東京都品川区八潮5丁目10-27","lat":35.600211,"lon":139.751371},{"name":"品川区役所議会棟","province":"東京都","city":"品川区","address":"東京都品川区広町2丁目1-36","lat":35.609184,"lon":139.730207},{"name":"品川区役所本庁舎","province":"東京都","city":"品川区","address":"東京都品川区広町2丁目1-36","lat":35.609205,"lon":139.730225},{"name":"品川区役所第二庁舎","province":"東京都","city":"品川区","address":"東京都品川区広町2丁目1-36","lat":35.609734,"lon":139.73032},{"name":"品川区役所第二庁舎","province":"東京都","city":"品川区","address":"東京都品川区広町2丁目1-36","lat":35.609715,"lon":139.730333},{"name":"品川区役所第二庁舎","province":"東京都","city":"品川区","address":"東京都品川区広町2丁目1-36","lat":35.60971,"lon":139.730259},{"name":"品川区役所第三庁舎","province":"東京都","city":"品川区","address":"東京都品川区広町2丁目1-36","lat":35.608371,"lon":139.729994},{"name":"大崎第一区民集会所(第五・六集会室)","province":"東京都","city":"品川区","address":"東京都品川区西五反田3丁目6-38","lat":35.62721,"lon":139.718108},{"name":"荏原区民センター","province":"東京都","city":"品川区","address":"東京都品川区荏原5丁目6-5","lat":35.614522,"lon":139.702143},{"name":"東大井区民集会所","province":"東京都","city":"品川区","address":"東京都品川区東大井2丁目16-12","lat":35.60051,"lon":139.741529},{"name":"東大井区民集会所","province":"東京都","city":"品川区","address":"東京都品川区東大井2丁目16-12","lat":35.6005,"lon":139.741539},{"name":"ウェルカムセンター原・交流施設","province":"東京都","city":"品川区","address":"東京都品川区西大井2丁目5-21","lat":35.5991,"lon":139.721384},{"name":"荏原文化センター","province":"東京都","city":"品川区","address":"東京都品川区中延1丁目9-15","lat":35.612232,"lon":139.710724},{"name":"品川区立荏原平塚総合区民会館","province":"東京都","city":"品川区","address":"東京都品川区荏原4丁目5-28","lat":35.615449,"lon":139.707523},{"name":"品川区立荏原平塚総合区民会館","province":"東京都","city":"品川区","address":"東京都品川区荏原4丁目5-28","lat":35.615386,"lon":139.707971},{"name":"品川区立荏原平塚総合区民会館","province":"東京都","city":"品川区","address":"東京都品川区荏原4丁目5-28","lat":35.615661,"lon":139.707422},{"name":"品川区立荏原平塚総合区民会館","province":"東京都","city":"品川区","address":"東京都品川区荏原4丁目5-28","lat":35.615259,"lon":139.707412},{"name":"品川区立荏原平塚総合区民会館","province":"東京都","city":"品川区","address":"東京都品川区荏原4丁目5-28","lat":35.615584,"lon":139.707278},{"name":"品川区立荏原平塚総合区民会館","province":"東京都","city":"品川区","address":"東京都品川区荏原4丁目5-28","lat":35.615155,"lon":139.707548},{"name":"品川区立荏原平塚総合区民会館","province":"東京都","city":"品川区","address":"東京都品川区荏原4丁目5-28","lat":35.615155,"lon":139.707547},{"name":"南大井文化センター","province":"東京都","city":"品川区","address":"東京都品川区南大井1丁目12-6","lat":35.596304,"lon":139.737548},{"name":"五反田文化センター","province":"東京都","city":"品川区","address":"東京都品川区西五反田6丁目5-1","lat":35.622476,"lon":139.71653},{"name":"五反田文化センター","province":"東京都","city":"品川区","address":"東京都品川区西五反田6丁目5-1","lat":35.622537,"lon":139.716441},{"name":"きゅりあん品川区立総合区民会館","province":"東京都","city":"品川区","address":"東京都品川区東大井5丁目18-1","lat":35.606043,"lon":139.736202},{"name":"こみゅにてぃぷらざ八潮","province":"東京都","city":"品川区","address":"東京都品川区八潮5丁目9-11","lat":35.597726,"lon":139.752531},{"name":"東品川文化センター","province":"東京都","city":"品川区","address":"東京都品川区東品川3丁目32-11","lat":35.61291,"lon":139.750609},{"name":"品川保健センター","province":"東京都","city":"品川区","address":"東京都品川区北品川3丁目11-22","lat":35.61655,"lon":139.74067},{"name":"大井保健センター","province":"東京都","city":"品川区","address":"東京都品川区大井2丁目27-20","lat":35.60406,"lon":139.730367},{"name":"品川区立品川図書館","province":"東京都","city":"品川区","address":"東京都品川区北品川2丁目32-3","lat":35.616842,"lon":139.742501},{"name":"品川区立品川図書館","province":"東京都","city":"品川区","address":"東京都品川区北品川2丁目32-3","lat":35.616923,"lon":139.742567},{"name":"品川区立荏原図書館","province":"東京都","city":"品川区","address":"東京都品川区中延1丁目9-15","lat":35.61224,"lon":139.710379},{"name":"品川区立ゆたか図書館","province":"東京都","city":"品川区","address":"東京都品川区豊町1丁目17-7","lat":35.6116,"lon":139.722359},{"name":"品川区立大井図書館","province":"東京都","city":"品川区","address":"東京都品川区大井5丁目19-14","lat":35.59826,"lon":139.729171},{"name":"品川区立八潮図書館","province":"東京都","city":"品川区","address":"東京都品川区八潮5丁目10-27","lat":35.59987,"lon":139.751456},{"name":"品川区立五反田図書館","province":"東京都","city":"品川区","address":"東京都品川区西五反田6丁目5-1","lat":35.62267,"lon":139.716473},{"name":"品川区立大崎図書館","province":"東京都","city":"品川区","address":"東京都品川区北品川5丁目2-1","lat":35.62342,"lon":139.731753},{"name":"品川区立二葉図書館","province":"東京都","city":"品川区","address":"東京都品川区二葉1丁目4-25","lat":35.608,"lon":139.726688},{"name":"品川区立大崎図書館分館","province":"東京都","city":"品川区","address":"東京都品川区大崎3丁目11","lat":35.618742,"lon":139.72379},{"name":"荏原中央公園","province":"東京都","city":"品川区","address":"東京都品川区荏原5丁目1","lat":35.615956,"lon":139.704132},{"name":"豊町公園","province":"東京都","city":"品川区","address":"東京都品川区豊町6丁目16","lat":35.604627,"lon":139.716338},{"name":"洲崎公園","province":"東京都","city":"品川区","address":"東京都品川区東品川1丁目36","lat":35.618023,"lon":139.746511},{"name":"八潮公園","province":"東京都","city":"品川区","address":"東京都品川区八潮5丁目10-55","lat":35.599563,"lon":139.753395},{"name":"二葉公園","province":"東京都","city":"品川区","address":"東京都品川区二葉4丁目13","lat":35.603761,"lon":139.718218},{"name":"西品川公園","province":"東京都","city":"品川区","address":"東京都品川区西品川1丁目8","lat":35.6126,"lon":139.730977},{"name":"鈴ヶ森公園","province":"東京都","city":"品川区","address":"東京都品川区南大井4丁目19-3","lat":35.593263,"lon":139.734644},{"name":"大井水神公園","province":"東京都","city":"品川区","address":"東京都品川区南大井5丁目16","lat":35.59549,"lon":139.732655},{"name":"西大井広場公園","province":"東京都","city":"品川区","address":"東京都品川区西大井1丁目4","lat":35.601975,"lon":139.723817},{"name":"西大井広場公園","province":"東京都","city":"品川区","address":"東京都品川区西大井1丁目4","lat":35.602564,"lon":139.723847},{"name":"浜川公園","province":"東京都","city":"品川区","address":"東京都品川区南大井4丁目8","lat":35.596899,"lon":139.735359},{"name":"しながわ区民公園","province":"東京都","city":"品川区","address":"東京都品川区南大井2丁目3","lat":35.593498,"lon":139.737902},{"name":"しながわ区民公園","province":"東京都","city":"品川区","address":"東京都品川区勝島3丁目2","lat":35.593972,"lon":139.739885},{"name":"しながわ区民公園","province":"東京都","city":"品川区","address":"東京都品川区勝島3丁目2","lat":35.592883,"lon":139.7391},{"name":"しながわ区民公園","province":"東京都","city":"品川区","address":"東京都品川区勝島3丁目2","lat":35.590379,"lon":139.737169},{"name":"しながわ区民公園","province":"東京都","city":"品川区","address":"東京都品川区勝島3丁目2","lat":35.588704,"lon":139.738544},{"name":"わかくさ公園","province":"東京都","city":"品川区","address":"東京都品川区勝島1丁目6","lat":35.597996,"lon":139.743768},{"name":"天王洲公園","province":"東京都","city":"品川区","address":"東京都品川区東品川2丁目6-23","lat":35.619425,"lon":139.750207},{"name":"天王洲公園","province":"東京都","city":"品川区","address":"東京都品川区東品川2丁目5","lat":35.620478,"lon":139.749307},{"name":"しおじ公園","province":"東京都","city":"品川区","address":"東京都品川区八潮5丁目6-39","lat":35.596674,"lon":139.750731},{"name":"谷山公園","province":"東京都","city":"品川区","address":"東京都品川区西五反田3丁目6","lat":35.627766,"lon":139.718554},{"name":"大崎西口公園","province":"東京都","city":"品川区","address":"東京都品川区大崎2丁目10","lat":35.617594,"lon":139.728966},{"name":"鮫洲入江広場","province":"東京都","city":"品川区","address":"東京都品川区東大井1丁目13","lat":35.603246,"lon":139.743743},{"name":"品川シーサイド公園","province":"東京都","city":"品川区","address":"東京都品川区東品川4丁目12","lat":35.607567,"lon":139.749138},{"name":"東品川海上公園","province":"東京都","city":"品川区","address":"東京都品川区東品川3丁目9","lat":35.617143,"lon":139.749388},{"name":"天王洲アイル第一公園","province":"東京都","city":"品川区","address":"東京都品川区東品川2丁目3-16","lat":35.623494,"lon":139.751298},{"name":"しながわ中央公園","province":"東京都","city":"品川区","address":"東京都品川区西品川1丁目27","lat":35.609408,"lon":139.728837},{"name":"しながわ中央公園","province":"東京都","city":"品川区","address":"東京都品川区西品川1丁目28","lat":35.608965,"lon":139.72738},{"name":"八潮北公園","province":"東京都","city":"品川区","address":"東京都品川区八潮1丁目3-1","lat":35.612505,"lon":139.753769},{"name":"大森貝塚遺跡庭園","province":"東京都","city":"品川区","address":"東京都品川区大井6丁目21","lat":35.593354,"lon":139.729948},{"name":"品川浦公園","province":"東京都","city":"品川区","address":"東京都品川区東品川1丁目7","lat":35.621148,"lon":139.74212},{"name":"かむろ坂公園","province":"東京都","city":"品川区","address":"東京都品川区西五反田4丁目28","lat":35.625203,"lon":139.711604},{"name":"品海公園","province":"東京都","city":"品川区","address":"東京都品川区北品川1丁目30","lat":35.620037,"lon":139.742194},{"name":"品川南ふ頭公園","province":"東京都","city":"品川区","address":"東京都品川区東品川5丁目8","lat":35.621988,"lon":139.754866},{"name":"荏原南公園","province":"東京都","city":"品川区","address":"東京都品川区荏原6丁目15","lat":35.611767,"lon":139.703017},{"name":"東品川公園","province":"東京都","city":"品川区","address":"東京都品川区東品川3丁目14","lat":35.614952,"lon":139.746533},{"name":"鮫洲運動公園","province":"東京都","city":"品川区","address":"東京都品川区東大井1丁目4","lat":35.606564,"lon":139.744786},{"name":"鮫洲運動公園","province":"東京都","city":"品川区","address":"東京都品川区東大井1丁目4","lat":35.605924,"lon":139.745038},{"name":"ひらさん広場","province":"東京都","city":"品川区","address":"東京都品川区平塚3丁目9","lat":35.614026,"lon":139.712639},{"name":"五反田ふれあい水辺広場","province":"東京都","city":"品川区","address":"東京都品川区東五反田2丁目9","lat":35.624186,"lon":139.726396},{"name":"文庫の森","province":"東京都","city":"品川区","address":"東京都品川区豊町1丁目16","lat":35.611366,"lon":139.720625},{"name":"京陽公園","province":"東京都","city":"品川区","address":"東京都品川区平塚2丁目12","lat":35.616767,"lon":139.71323},{"name":"上神明児童遊園","province":"東京都","city":"品川区","address":"東京都品川区二葉4丁目26","lat":35.602244,"lon":139.714196},{"name":"小山台東公園","province":"東京都","city":"品川区","address":"東京都品川区小山台1丁目26","lat":35.62228,"lon":139.706355},{"name":"大井中央公園","province":"東京都","city":"品川区","address":"東京都品川区大井1丁目46","lat":35.604643,"lon":139.732225},{"name":"台場浦公園","province":"東京都","city":"品川区","address":"東京都品川区東品川1丁目8","lat":35.621538,"lon":139.742958},{"name":"峰原公園","province":"東京都","city":"品川区","address":"東京都品川区大崎3丁目17","lat":35.617991,"lon":139.721141},{"name":"武蔵小山駅前公衆便所","province":"東京都","city":"品川区","address":"東京都品川区小山3丁目27","lat":35.620049,"lon":139.703545},{"name":"新馬場北公衆便所","province":"東京都","city":"品川区","address":"東京都品川区北品川2丁目18-1","lat":35.617719,"lon":139.741363},{"name":"不動前公衆便所","province":"東京都","city":"品川区","address":"東京都品川区西五反田5丁目1","lat":35.625951,"lon":139.714184},{"name":"大井町駅東口公衆便所","province":"東京都","city":"品川区","address":"東京都品川区大井1丁目2","lat":35.606838,"lon":139.735183},{"name":"西大井公衆便所","province":"東京都","city":"品川区","address":"東京都品川区西大井1丁目3-2","lat":35.60165,"lon":139.721787},{"name":"三十五橋公衆便所","province":"東京都","city":"品川区","address":"東京都品川区中延5丁目14","lat":35.602349,"lon":139.709006},{"name":"西小山駅前公衆便所","province":"東京都","city":"品川区","address":"東京都品川区小山6丁目2","lat":35.615125,"lon":139.698398},{"name":"新品川橋公衆便所","province":"東京都","city":"品川区","address":"東京都品川区東品川3丁目1","lat":35.616939,"lon":139.745334},{"name":"南大井公衆便所","province":"東京都","city":"品川区","address":"東京都品川区南大井1丁目22","lat":35.594707,"lon":139.73663},{"name":"大井水神南公衆便所","province":"東京都","city":"品川区","address":"東京都品川区南大井6丁目15-11","lat":35.589779,"lon":139.729263},{"name":"荏原町駅前公衆便所","province":"東京都","city":"品川区","address":"東京都品川区中延5丁目2","lat":35.603793,"lon":139.708155},{"name":"荏原中延公衆便所","province":"東京都","city":"品川区","address":"東京都品川区東中延1丁目9","lat":35.609693,"lon":139.71185},{"name":"八ツ山の東司","province":"東京都","city":"品川区","address":"東京都品川区北品川1丁目3","lat":35.623759,"lon":139.739138},{"name":"新浜川橋北公衆便所","province":"東京都","city":"品川区","address":"東京都品川区南大井1丁目6","lat":35.596405,"lon":139.740942},{"name":"大井町駅前公衆便所","province":"東京都","city":"品川区","address":"東京都品川区大井1丁目2","lat":35.60565,"lon":139.734733},{"name":"新馬場南公衆便所","province":"東京都","city":"品川区","address":"東京都品川区南品川1丁目1","lat":35.614687,"lon":139.74191},{"name":"青物横丁公衆便所","province":"東京都","city":"品川区","address":"東京都品川区南品川2丁目5","lat":35.610097,"lon":139.742777},{"name":"大崎橋公衆便所","province":"東京都","city":"品川区","address":"東京都品川区西五反田1丁目10","lat":35.624599,"lon":139.724257},{"name":"品川区立大崎高齢者多世代交流支援施設(呼称：大崎ゆうゆうプラザ)","province":"東京都","city":"品川区","address":"東京都品川区大崎2丁目7-13","lat":35.6168,"lon":139.725836},{"name":"品川区立平塚橋高齢者多世代交流支援施設(呼称：平塚橋ゆうゆうプラザ)","province":"東京都","city":"品川区","address":"東京都品川区西中延1丁目2-8","lat":35.61428,"lon":139.709987},{"name":"南ゆたか児童センター","province":"東京都","city":"品川区","address":"東京都品川区豊町4丁目17-21","lat":35.606509,"lon":139.720918},{"name":"品川区立なぎさ会館","province":"東京都","city":"品川区","address":"東京都品川区勝島3丁目1-3","lat":35.59631,"lon":139.741776},{"name":"品川区立総合体育館","province":"東京都","city":"品川区","address":"東京都品川区東五反田2丁目11-1","lat":35.6245,"lon":139.728523},{"name":"品川区立総合体育館","province":"東京都","city":"品川区","address":"東京都品川区東五反田2丁目11-1","lat":35.62462,"lon":139.72846},{"name":"品川区立総合体育館","province":"東京都","city":"品川区","address":"東京都品川区東五反田2丁目11-1","lat":35.62453,"lon":139.728195},{"name":"品川区立戸越体育館","province":"東京都","city":"品川区","address":"東京都品川区豊町2丁目1-17","lat":35.61099,"lon":139.720543},{"name":"品川区清掃事務所","province":"東京都","city":"品川区","address":"東京都品川区大崎1丁目14-1","lat":35.61842,"lon":139.733304},{"name":"品川区立心身障害者福祉会館","province":"東京都","city":"品川区","address":"東京都品川区旗の台5丁目2-2","lat":35.60504,"lon":139.700453},{"name":"品川区立心身障害者福祉会館","province":"東京都","city":"品川区","address":"東京都品川区旗の台5丁目2-2","lat":35.60504,"lon":139.700406},{"name":"品川区立心身障害者福祉会館","province":"東京都","city":"品川区","address":"東京都品川区旗の台5丁目2-2","lat":35.60504,"lon":139.70043},{"name":"品川区立平塚高齢者多世代交流支援施設（呼称：平塚ゆうゆうプラザ）","province":"東京都","city":"品川区","address":"東京都品川区平塚2丁目10-20","lat":35.616926,"lon":139.71401},{"name":"品川区立障害児者総合支援施設","province":"東京都","city":"品川区","address":"東京都品川区南品川3丁目7-7","lat":35.607127,"lon":139.744875},{"name":"品川区立障害児者総合支援施設","province":"東京都","city":"品川区","address":"東京都品川区南品川3丁目7-7","lat":35.607199,"lon":139.74508},{"name":"品川区立障害児者総合支援施設","province":"東京都","city":"品川区","address":"東京都品川区南品川3丁目7-7","lat":35.607178,"lon":139.744809},{"name":"品川区立障害児者総合支援施設","province":"東京都","city":"品川区","address":"東京都品川区南品川3丁目7-7","lat":35.607303,"lon":139.744888},{"name":"メイプルカルチャーセンター","province":"東京都","city":"品川区","address":"東京都品川区西大井1丁目4","lat":35.602195,"lon":139.722438},{"name":"ゆたか防災広場","province":"東京都","city":"品川区","address":"東京都品川区豊町6丁目11","lat":35.605585,"lon":139.717701},{"name":"品川区立東品川高齢者多世代交流支援施設（呼称：東品川ゆうゆうプラザ）","province":"東京都","city":"品川区","address":"東京都品川区東品川3丁目32-11","lat":35.613002,"lon":139.750591},{"name":"ファミーユ西品川子ども未来部分室105号室","province":"東京都","city":"品川区","address":"東京都品川区西品川1丁目16-2","lat":35.612145,"lon":139.729911},{"name":"東大井児童センター","province":"東京都","city":"品川区","address":"東京都品川区東大井1丁目22-16","lat":35.603314,"lon":139.741363},{"name":"子ども家庭支援センター","province":"東京都","city":"品川区","address":"東京都品川区二葉1丁目7-15","lat":35.608697,"lon":139.729292},{"name":"武蔵小山図書取次施設","province":"東京都","city":"品川区","address":"東京都品川区小山3丁目22-3","lat":35.619219,"lon":139.705798},{"name":"後地児童センター","province":"東京都","city":"品川区","address":"東京都品川区小山2丁目9-19","lat":35.620618,"lon":139.709179},{"name":"大原児童センター","province":"東京都","city":"品川区","address":"東京都品川区戸越6丁目16-1","lat":35.607348,"lon":139.715397},{"name":"ゆたか児童センター","province":"東京都","city":"品川区","address":"東京都品川区豊町1丁目18-15","lat":35.611498,"lon":139.722742},{"name":"中原児童センター（仮設）","province":"東京都","city":"品川区","address":"東京都品川区西五反田6丁目6-6","lat":35.623204,"lon":139.717292},{"name":"品川区立環境学習交流施設(エコルとごし)","province":"東京都","city":"品川区","address":"東京都品川区豊町2丁目1-30","lat":35.611007,"lon":139.722297},{"name":"フューネラルジャパン株式会社","province":"東京都","city":"品川区","address":"東京都品川区大井1丁目53-7","lat":35.60456746,"lon":139.73380519},{"name":"品川区保健所","province":"東京都","city":"品川区","address":"東京都品川区広町2丁目1-36","lat":35.60881128,"lon":139.73028866},{"name":"品川保健センター","province":"東京都","city":"品川区","address":"東京都品川区北品川3丁目11-22","lat":35.61658571,"lon":139.74073199},{"name":"大井保健センター","province":"東京都","city":"品川区","address":"東京都品川区大井2丁目27-20","lat":35.60406184,"lon":139.73038047},{"name":"荏原保健センター","province":"東京都","city":"品川区","address":"東京都品川区西五反田6丁目6-6","lat":35.62309266,"lon":139.71741427},{"name":"品川区保健所","province":"東京都","city":"品川区","address":"品川区広町2-1-36","lat":35.6083,"lon":139.73096},{"name":"品川保健センター","province":"東京都","city":"品川区","address":"品川区北品川3-11-22","lat":35.61644,"lon":139.73927},{"name":"大井保健センター","province":"東京都","city":"品川区","address":"品川区大井2-27-20","lat":35.60418,"lon":139.73032},{"name":"荏原保健センター","province":"東京都","city":"品川区","address":"品川区西五反田6-6-6","lat":35.62268,"lon":139.71748},{"name":"品川区子ども家庭支援センター","province":"東京都","city":"品川区","address":"品川区二葉1-7-15","lat":35.60878,"lon":139.72881},{"name":"荏原保健センター","province":"東京都","city":"品川区","address":"品川区荏原2-9-6","lat":35.61701,"lon":139.71111},{"name":"品川区子育て支援センター","province":"東京都","city":"品川区","address":"品川区平塚2-12-2品川区立家庭あんしんセンター内","lat":35.61694,"lon":139.71266},{"name":"荏原消防署","province":"東京都","city":"品川区","address":"東京都品川区平塚3丁目16-20","lat":35.6144967,"lon":139.7105109},{"name":"品川消防署","province":"東京都","city":"品川区","address":"東京都品川区北品川3丁目7-31","lat":35.6170878,"lon":139.7397523},{"name":"滝王子出張所","province":"東京都","city":"品川区","address":"東京都品川区大井5丁目17","lat":35.5984647,"lon":139.7274195},{"name":"消防署","province":"東京都","city":"品川区","address":"東京都品川区旗の台6丁目24-12","lat":35.6056823,"lon":139.6999571},{"name":"戸越出張所","province":"東京都","city":"品川区","address":"東京都品川区戸越5丁目20-15","lat":35.6083161,"lon":139.7187459},{"name":"東品川出張所","province":"東京都","city":"品川区","address":"東京都品川区東品川3丁目32","lat":35.6134542,"lon":139.7504186},{"name":"消防署","province":"東京都","city":"品川区","address":"東京都品川区西五反田7丁目25","lat":35.6200332,"lon":139.7185314},{"name":"大井警察署","province":"東京都","city":"品川区","address":"東京都品川区大井5丁目10-2","lat":35.5989109,"lon":139.7298653},{"name":"荏原警察署","province":"東京都","city":"品川区","address":"東京都品川区荏原6丁目19-10","lat":35.6120395,"lon":139.7062371},{"name":"品川警察署","province":"東京都","city":"品川区","address":"東京都品川区東品川3丁目14","lat":35.6138397,"lon":139.7450501},{"name":"大崎警察署","province":"東京都","city":"品川区","address":"東京都品川区大崎4丁目2-10","lat":35.6217168,"lon":139.7241446},{"name":"(株)共益商会  大森営業所","province":"東京都","city":"品川区","address":"品川区南大井6-8-1","lat":35.591969,"lon":139.733063},{"name":"(有)後藤商店","province":"東京都","city":"品川区","address":"品川区西五反田5-30-16","lat":35.622742,"lon":139.713181},{"name":"(有)鈴木紙業","province":"東京都","city":"品川区","address":"品川区南品川4-8-4","lat":35.612625,"lon":139.736069},{"name":"(有)スリーシープランニング","province":"東京都","city":"品川区","address":"品川区南品川3-6-31","lat":35.608429,"lon":139.744705},{"name":"川村金属(株)","province":"東京都","city":"品川区","address":"品川区荏原4-8-8","lat":35.615547,"lon":139.706345},{"name":"品川区選挙管理委員会","province":"東京都","city":"品川区","address":"品川区広町2-1-36品川区防災センター・第2庁舎","lat":35.609177,"lon":139.730167},{"name":"品川都税事務所","province":"東京都","city":"品川区","address":"東京都品川区広町2-1-36","lat":35.6089834,"lon":139.7302954},{"name":"鮫洲運転免許試験場","province":"東京都","city":"品川区","address":"東京都品川区東大井1-12-5","lat":35.6033213,"lon":139.7464659},{"name":"品川児童相談所","province":"東京都","city":"品川区","address":"東京都品川区北品川3-7-21","lat":35.6175581,"lon":139.7404569},{"name":"品川警察署","province":"東京都","city":"品川区","address":"東京都品川区東品川3-14-32","lat":35.6139521,"lon":139.7454043},{"name":"大崎警察署","province":"東京都","city":"品川区","address":"東京都品川区大崎4-2-10","lat":35.6217304,"lon":139.7241517},{"name":"大井警察署","province":"東京都","city":"品川区","address":"東京都品川区大井5-10-2","lat":35.5987968,"lon":139.7298873},{"name":"荏原警察署","province":"東京都","city":"品川区","address":"東京都品川区荏原6-19-10","lat":35.6120733,"lon":139.7061891},{"name":"東京水上警察署","province":"東京都","city":"品川区","address":"東京都品川区港区港南5-8-36","lat":35.6323499,"lon":139.7550883},{"name":"品川消防署","province":"東京都","city":"品川区","address":"東京都品川区北品川3-7-31","lat":35.6171422,"lon":139.7398073},{"name":"品川消防署東品川出張所","province":"東京都","city":"品川区","address":"東京都品川区東品川3-25-11","lat":35.6128705,"lon":139.7473344},{"name":"品川消防署大崎出張所","province":"東京都","city":"品川区","address":"東京都品川区大崎2-8-27","lat":35.6133836,"lon":139.731659},{"name":"品川消防署五反田出張所","province":"東京都","city":"品川区","address":"東京都品川区西五反田7-25-14","lat":35.6200165,"lon":139.7187382},{"name":"大井消防署","province":"東京都","city":"品川区","address":"東京都品川区東大井3-6-12","lat":35.6034742,"lon":139.7401437},{"name":"大井消防署滝王子出張所","province":"東京都","city":"品川区","address":"東京都品川区大井5-17-9","lat":35.5983307,"lon":139.7281165},{"name":"大井消防署八潮出張所","province":"東京都","city":"品川区","address":"東京都品川区八潮5-8-3","lat":35.5971201,"lon":139.7515991},{"name":"荏原消防署","province":"東京都","city":"品川区","address":"東京都品川区平塚3-16-20","lat":35.6148569,"lon":139.7105344},{"name":"荏原消防署戸越出張所","province":"東京都","city":"品川区","address":"東京都品川区戸越5-20-15","lat":35.6083098,"lon":139.7187484},{"name":"荏原消防署小山出張所","province":"東京都","city":"品川区","address":"東京都品川区小山5-12-11","lat":35.6160664,"lon":139.7022552},{"name":"荏原消防署旗の台出張所","province":"東京都","city":"品川区","address":"東京都品川区旗の台6-24-11","lat":35.60578,"lon":139.7000222},{"name":"品川税務署","province":"東京都","city":"品川区","address":"東京都品川区港区高輪3-13-22","lat":35.6296746,"lon":139.734836},{"name":"荏原税務署","province":"東京都","city":"品川区","address":"東京都品川区中延1-1-5","lat":35.613837,"lon":139.7097508},{"name":"品川自動車税事務所","province":"東京都","city":"品川区","address":"東京都品川区東大井1-12-18","lat":35.60493,"lon":139.7473986},{"name":"関東運輸局東京陸運支局","province":"東京都","city":"品川区","address":"東京都品川区東大井1-12-17","lat":35.6046993,"lon":139.7469919},{"name":"品川郵便局","province":"東京都","city":"品川区","address":"東京都品川区東大井5-23-34","lat":35.6050717,"lon":139.7361881},{"name":"大崎郵便局","province":"東京都","city":"品川区","address":"東京都品川区西五反田2-32-7","lat":35.6252595,"lon":139.7189457},{"name":"荏原郵便局","province":"東京都","city":"品川区","address":"東京都品川区西中延1-7-23","lat":35.612713,"lon":139.7073544},{"name":"水道局品川営業所","province":"東京都","city":"品川区","address":"東京都品川区西中延1-9-10","lat":35.6116016,"lon":139.7078304},{"name":"下水道局南部下水道事務所品川出張所","province":"東京都","city":"品川区","address":"東京都品川区西品川1-8-1","lat":35.6129282,"lon":139.7301521},{"name":"品川年金事務所","province":"東京都","city":"品川区","address":"東京都品川区大崎5-1-5高徳ビル","lat":35.6236396,"lon":139.7248636},{"name":"品川労働基準監督署","province":"東京都","city":"品川区","address":"東京都品川区東五反田2-6-17","lat":35.6296077,"lon":139.7190353},{"name":"東京法務局品川出張所（登記所）","province":"東京都","city":"品川区","address":"東京都品川区広町2-1-36品川区総合庁舎","lat":35.6090951,"lon":139.7302296},{"name":"五反田公証役場","province":"東京都","city":"品川区","address":"東京都品川区東五反田5-27-6","lat":35.6270162,"lon":139.7234544},{"name":"目黒公証役場","province":"東京都","city":"品川区","address":"東京都品川区上大崎2-17-5","lat":35.6355392,"lon":139.7150243},{"name":"大森公証役場","province":"東京都","city":"品川区","address":"東京都品川区南大井6-12-12","lat":35.5871233,"lon":139.7301537},{"name":"五反田駅","province":"東京都","city":"品川区","address":"東京都品川区東五反田1丁目26-2","lat":35.6260453,"lon":139.7235869},{"name":"大崎駅","province":"東京都","city":"品川区","address":"東京都品川区大崎1丁目21-4","lat":35.6190999,"lon":139.7285802},{"name":"大井町駅","province":"東京都","city":"品川区","address":"東京都品川区大井1丁目2-12","lat":35.607536,"lon":139.7349666},{"name":"西大井町駅","province":"東京都","city":"品川区","address":"東京都品川区西大井1丁目3-2","lat":35.601478,"lon":139.721434},{"name":"不動前駅","province":"東京都","city":"品川区","address":"東京都品川区西五反田5丁目12-1","lat":35.6254279,"lon":139.7132457},{"name":"武蔵小山駅","province":"東京都","city":"品川区","address":"東京都品川区小山3丁目4-8","lat":35.6206461,"lon":139.7047325},{"name":"大崎広小路駅","province":"東京都","city":"品川区","address":"東京都品川区大崎4丁目1-1","lat":35.6224256,"lon":139.722493},{"name":"荏原中延駅","province":"東京都","city":"品川区","address":"東京都品川区中延2丁目8-1","lat":35.6098891,"lon":139.7119465},{"name":"旗の台駅","province":"東京都","city":"品川区","address":"東京都品川区旗の台2丁目13-1","lat":35.604834,"lon":139.7027961},{"name":"下神明駅","province":"東京都","city":"品川区","address":"東京都品川区西品川1丁目29-6","lat":35.6087526,"lon":139.7264653},{"name":"戸越公園駅","province":"東京都","city":"品川区","address":"東京都品川区戸越5丁目10-15","lat":35.6089987,"lon":139.7184968},{"name":"東急中延駅","province":"東京都","city":"品川区","address":"東京都品川区東中延2丁目9-12","lat":35.6057842,"lon":139.7126428},{"name":"北品川駅","province":"東京都","city":"品川区","address":"東京都品川区北品川1丁目1-4","lat":35.6225433,"lon":139.7392315},{"name":"新馬場駅","province":"東京都","city":"品川区","address":"東京都品川区北品川2丁目18-1","lat":35.6170364,"lon":139.7414247},{"name":"青物横丁駅","province":"東京都","city":"品川区","address":"東京都品川区南品川3丁目1-20","lat":35.6090709,"lon":139.7431279},{"name":"鮫洲駅","province":"東京都","city":"品川区","address":"東京都品川区東大井1丁目2-20","lat":35.6051498,"lon":139.7424961},{"name":"立会川駅","province":"東京都","city":"品川区","address":"東京都品川区東大井2丁目23-1","lat":35.5986501,"lon":139.7389746},{"name":"大森海岸駅","province":"東京都","city":"品川区","address":"東京都品川区南大井3丁目32-1","lat":35.5874923,"lon":139.7352991},{"name":"戸越駅","province":"東京都","city":"品川区","address":"東京都品川区戸越3丁目4-17","lat":35.6143511,"lon":139.716256},{"name":"都営中延駅","province":"東京都","city":"品川区","address":"東京都品川区東中延2丁目9-12","lat":35.6055999,"lon":139.7135855},{"name":"天王洲アイル駅（りんかい線）","province":"東京都","city":"品川区","address":"東京都品川区東品川2-5-8","lat":35.6216148,"lon":139.7508566},{"name":"品川シーサイド駅","province":"東京都","city":"品川区","address":"東京都品川区東品川4丁目12","lat":35.6103127,"lon":139.7498309},{"name":"大井競馬場前駅","province":"東京都","city":"品川区","address":"東京都品川区勝島2丁目2","lat":35.5949348,"lon":139.7471756},{"name":"荏原町駅","province":"東京都","city":"品川区","address":"東京都品川区中延5-2-1","lat":35.6039899,"lon":139.7076062},{"name":"西小山駅","province":"東京都","city":"品川区","address":"東京都品川区小山6-3-9","lat":35.6158275,"lon":139.6989315},{"name":"戸越銀座駅","province":"東京都","city":"品川区","address":"東京都品川区平塚2-16-1","lat":35.6158834,"lon":139.7148438},{"name":"都営浅草線五反田駅「定期券販売所」","province":"東京都","city":"品川区","address":"東京都品川区東五反田1-26-2","lat":35.626418,"lon":139.7236661},{"name":"五反田駅(東急)","province":"東京都","city":"品川区","address":"東京都品川区東五反田2-1-1","lat":35.625404,"lon":139.7242969},{"name":"目黒駅(東急)","province":"東京都","city":"品川区","address":"東京都品川区上大崎4-2-1","lat":35.633395,"lon":139.715439},{"name":"大井町駅(ＪＲ)","province":"東京都","city":"品川区","address":"東京都品川区大井1-2-12","lat":35.606221,"lon":139.734833},{"name":"目黒駅(ＪＲ)","province":"東京都","city":"品川区","address":"東京都品川区上大崎2-16-9","lat":35.634114,"lon":139.715767},{"name":"都営バス「品川自動車営業所」","province":"東京都","city":"品川区","address":"東京都品川区北品川1-5-12","lat":35.623274,"lon":139.740748},{"name":"都営バス「品川自動車営業所目黒支所」","province":"東京都","city":"品川区","address":"東京都品川区上大崎3-1-2","lat":35.632837,"lon":139.716783},{"name":"東急バス「荏原営業所」","province":"東京都","city":"品川区","address":"東京都品川区二葉4-27-1","lat":35.602427,"lon":139.713326},{"name":"西大井駅(JR横須賀線)","province":"東京都","city":"品川区","address":"東京都品川区","lat":35.602127,"lon":139.7219446},{"name":"大森駅(JR京浜東北線)","province":"東京都","city":"品川区","address":"東京都品川区","lat":35.5889869,"lon":139.7281534},{"name":"天王洲アイル駅（東京モノレール）","province":"東京都","city":"品川区","address":"東京都品川区東品川2-3-8","lat":35.6231178,"lon":139.7503428},{"name":"大井警察署八潮団地交番","province":"東京都","city":"品川区","address":"東京都品川区八潮5-5-5","lat":35.5988304,"lon":139.7508339},{"name":"東京法務局品川出張所(登記所)","province":"東京都","city":"品川区","address":"東京都品川区広町2-1-36品川区総合庁舎","lat":35.6090951,"lon":139.7302296,"備考":"品川区広町2-1-36品川区総合庁舎1階","経度":"139.7302296","緯度":"35.6090951"},{"name":"大井町駅(JR)","province":"東京都","city":"品川区","address":"東京都品川区大井1-2-12","lat":35.606221,"lon":139.734833,"備考":"東京都品川区大井1-2-12","経度":"139.734833","緯度":"35.606221"},{"name":"目黒駅(JR)","province":"東京都","city":"品川区","address":"東京都品川区上大崎2-16-9","lat":35.634114,"lon":139.715767,"備考":"東京都品川区上大崎2-16-9","経度":"139.715767","緯度":"35.634114"},{"name":"都立城南職業能力開発センター","province":"東京都","city":"品川区","address":"東京都品川区東品川3-31-16","lat":35.6119765,"lon":139.7497704,"備考":"東品川3-31-16\n電話 3472-3411","経度":"139.7497704","緯度":"35.6119765"},{"name":"品川区子育て支援センター","province":"東京都","city":"品川区","address":"品川区平塚2-12-2品川区立家庭あんしんセンター内","lat":35.617063,"lon":139.71282},{"name":"品川区保健所","province":"東京都","city":"品川区","address":"品川区広町2-1-36","lat":35.608836,"lon":139.730241},{"name":"品川保健センター","province":"東京都","city":"品川区","address":"品川区北品川3-11-22","lat":35.616586,"lon":139.740732},{"name":"大井保健センター","province":"東京都","city":"品川区","address":"品川区大井2-27-20","lat":35.604084,"lon":139.730375},{"name":"荏原保健センター","province":"東京都","city":"品川区","address":"品川区荏原2-9-6","lat":35.617185,"lon":139.711504},{"name":"品川区","province":"東京都","city":"品川区","address":"品川区広町2-1-36","lat":35.6088372,"lon":139.7302417},{"name":"フューネラルジャパン株式会社","province":"東京都","city":"品川区","address":"東京都品川区大井1丁目53-7","lat":35.60456746,"lon":139.73380519},{"name":"品川区保健所","province":"東京都","city":"品川区","address":"東京都品川区広町2丁目1-36","lat":35.60881128,"lon":139.73028866},{"name":"品川保健センター","province":"東京都","city":"品川区","address":"東京都品川区北品川3丁目11-22","lat":35.61658571,"lon":139.74073199},{"name":"大井保健センター","province":"東京都","city":"品川区","address":"東京都品川区大井2丁目27-20","lat":35.60406184,"lon":139.73038047},{"name":"荏原保健センター","province":"東京都","city":"品川区","address":"東京都品川区西五反田6丁目6-6","lat":35.62309266,"lon":139.71741427},{"name":"品川区保健所","province":"東京都","city":"品川区","address":"品川区広町2-1-36","lat":35.6083,"lon":139.73096},{"name":"品川保健センター","province":"東京都","city":"品川区","address":"品川区北品川3-11-22","lat":35.61644,"lon":139.73927},{"name":"大井保健センター","province":"東京都","city":"品川区","address":"品川区大井2-27-20","lat":35.60418,"lon":139.73032},{"name":"荏原保健センター","province":"東京都","city":"品川区","address":"品川区西五反田6-6-6","lat":35.62268,"lon":139.71748},{"name":"品川区子ども家庭支援センター","province":"東京都","city":"品川区","address":"品川区二葉1-7-15","lat":35.60878,"lon":139.72881},{"name":"荏原保健センター","province":"東京都","city":"品川区","address":"品川区荏原2-9-6","lat":35.61701,"lon":139.71111},{"name":"品川区子育て支援センター","province":"東京都","city":"品川区","address":"品川区平塚2-12-2品川区立家庭あんしんセンター内","lat":35.61694,"lon":139.71266},{"name":"荏原消防署","province":"東京都","city":"品川区","address":"東京都品川区平塚3丁目16-20","lat":35.6144967,"lon":139.7105109},{"name":"品川消防署","province":"東京都","city":"品川区","address":"東京都品川区北品川3丁目7-31","lat":35.6170878,"lon":139.7397523},{"name":"滝王子出張所","province":"東京都","city":"品川区","address":"東京都品川区大井5丁目17","lat":35.5984647,"lon":139.7274195},{"name":"消防署","province":"東京都","city":"品川区","address":"東京都品川区旗の台6丁目24-12","lat":35.6056823,"lon":139.6999571},{"name":"戸越出張所","province":"東京都","city":"品川区","address":"東京都品川区戸越5丁目20-15","lat":35.6083161,"lon":139.7187459},{"name":"東品川出張所","province":"東京都","city":"品川区","address":"東京都品川区東品川3丁目32","lat":35.6134542,"lon":139.7504186},{"name":"消防署","province":"東京都","city":"品川区","address":"東京都品川区西五反田7丁目25","lat":35.6200332,"lon":139.7185314},{"name":"大井警察署","province":"東京都","city":"品川区","address":"東京都品川区大井5丁目10-2","lat":35.5989109,"lon":139.7298653},{"name":"荏原警察署","province":"東京都","city":"品川区","address":"東京都品川区荏原6丁目19-10","lat":35.6120395,"lon":139.7062371},{"name":"品川警察署","province":"東京都","city":"品川区","address":"東京都品川区東品川3丁目14","lat":35.6138397,"lon":139.7450501},{"name":"大崎警察署","province":"東京都","city":"品川区","address":"東京都品川区大崎4丁目2-10","lat":35.6217168,"lon":139.7241446},{"name":"(株)共益商会  大森営業所","province":"東京都","city":"品川区","address":"品川区南大井6-8-1","lat":35.591969,"lon":139.733063},{"name":"(有)後藤商店","province":"東京都","city":"品川区","address":"品川区西五反田5-30-16","lat":35.622742,"lon":139.713181},{"name":"(有)鈴木紙業","province":"東京都","city":"品川区","address":"品川区南品川4-8-4","lat":35.612625,"lon":139.736069},{"name":"(有)スリーシープランニング","province":"東京都","city":"品川区","address":"品川区南品川3-6-31","lat":35.608429,"lon":139.744705},{"name":"川村金属(株)","province":"東京都","city":"品川区","address":"品川区荏原4-8-8","lat":35.615547,"lon":139.706345},{"name":"品川区選挙管理委員会","province":"東京都","city":"品川区","address":"品川区広町2-1-36品川区防災センター・第2庁舎","lat":35.609177,"lon":139.730167},{"name":"品川都税事務所","province":"東京都","city":"品川区","address":"東京都品川区広町2-1-36","lat":35.6089834,"lon":139.7302954},{"name":"鮫洲運転免許試験場","province":"東京都","city":"品川区","address":"東京都品川区東大井1-12-5","lat":35.6033213,"lon":139.7464659},{"name":"品川児童相談所","province":"東京都","city":"品川区","address":"東京都品川区北品川3-7-21","lat":35.6175581,"lon":139.7404569},{"name":"品川警察署","province":"東京都","city":"品川区","address":"東京都品川区東品川3-14-32","lat":35.6139521,"lon":139.7454043},{"name":"大崎警察署","province":"東京都","city":"品川区","address":"東京都品川区大崎4-2-10","lat":35.6217304,"lon":139.7241517},{"name":"大井警察署","province":"東京都","city":"品川区","address":"東京都品川区大井5-10-2","lat":35.5987968,"lon":139.7298873},{"name":"荏原警察署","province":"東京都","city":"品川区","address":"東京都品川区荏原6-19-10","lat":35.6120733,"lon":139.7061891},{"name":"東京水上警察署","province":"東京都","city":"品川区","address":"東京都品川区港区港南5-8-36","lat":35.6323499,"lon":139.7550883},{"name":"品川消防署","province":"東京都","city":"品川区","address":"東京都品川区北品川3-7-31","lat":35.6171422,"lon":139.7398073},{"name":"品川消防署東品川出張所","province":"東京都","city":"品川区","address":"東京都品川区東品川3-25-11","lat":35.6128705,"lon":139.7473344},{"name":"品川消防署大崎出張所","province":"東京都","city":"品川区","address":"東京都品川区大崎2-8-27","lat":35.6133836,"lon":139.731659},{"name":"品川消防署五反田出張所","province":"東京都","city":"品川区","address":"東京都品川区西五反田7-25-14","lat":35.6200165,"lon":139.7187382},{"name":"大井消防署","province":"東京都","city":"品川区","address":"東京都品川区東大井3-6-12","lat":35.6034742,"lon":139.7401437},{"name":"大井消防署滝王子出張所","province":"東京都","city":"品川区","address":"東京都品川区大井5-17-9","lat":35.5983307,"lon":139.7281165},{"name":"大井消防署八潮出張所","province":"東京都","city":"品川区","address":"東京都品川区八潮5-8-3","lat":35.5971201,"lon":139.7515991},{"name":"荏原消防署","province":"東京都","city":"品川区","address":"東京都品川区平塚3-16-20","lat":35.6148569,"lon":139.7105344},{"name":"荏原消防署戸越出張所","province":"東京都","city":"品川区","address":"東京都品川区戸越5-20-15","lat":35.6083098,"lon":139.7187484},{"name":"荏原消防署小山出張所","province":"東京都","city":"品川区","address":"東京都品川区小山5-12-11","lat":35.6160664,"lon":139.7022552},{"name":"荏原消防署旗の台出張所","province":"東京都","city":"品川区","address":"東京都品川区旗の台6-24-11","lat":35.60578,"lon":139.7000222},{"name":"品川税務署","province":"東京都","city":"品川区","address":"東京都品川区港区高輪3-13-22","lat":35.6296746,"lon":139.734836},{"name":"荏原税務署","province":"東京都","city":"品川区","address":"東京都品川区中延1-1-5","lat":35.613837,"lon":139.7097508},{"name":"品川自動車税事務所","province":"東京都","city":"品川区","address":"東京都品川区東大井1-12-18","lat":35.60493,"lon":139.7473986},{"name":"関東運輸局東京陸運支局","province":"東京都","city":"品川区","address":"東京都品川区東大井1-12-17","lat":35.6046993,"lon":139.7469919},{"name":"品川郵便局","province":"東京都","city":"品川区","address":"東京都品川区東大井5-23-34","lat":35.6050717,"lon":139.7361881},{"name":"大崎郵便局","province":"東京都","city":"品川区","address":"東京都品川区西五反田2-32-7","lat":35.6252595,"lon":139.7189457},{"name":"荏原郵便局","province":"東京都","city":"品川区","address":"東京都品川区西中延1-7-23","lat":35.612713,"lon":139.7073544},{"name":"水道局品川営業所","province":"東京都","city":"品川区","address":"東京都品川区西中延1-9-10","lat":35.6116016,"lon":139.7078304},{"name":"下水道局南部下水道事務所品川出張所","province":"東京都","city":"品川区","address":"東京都品川区西品川1-8-1","lat":35.6129282,"lon":139.7301521},{"name":"品川年金事務所","province":"東京都","city":"品川区","address":"東京都品川区大崎5-1-5高徳ビル","lat":35.6236396,"lon":139.7248636},{"name":"品川労働基準監督署","province":"東京都","city":"品川区","address":"東京都品川区東五反田2-6-17","lat":35.6296077,"lon":139.7190353},{"name":"東京法務局品川出張所（登記所）","province":"東京都","city":"品川区","address":"東京都品川区広町2-1-36品川区総合庁舎","lat":35.6090951,"lon":139.7302296},{"name":"五反田公証役場","province":"東京都","city":"品川区","address":"東京都品川区東五反田5-27-6","lat":35.6270162,"lon":139.7234544},{"name":"目黒公証役場","province":"東京都","city":"品川区","address":"東京都品川区上大崎2-17-5","lat":35.6355392,"lon":139.7150243},{"name":"大森公証役場","province":"東京都","city":"品川区","address":"東京都品川区南大井6-12-12","lat":35.5871233,"lon":139.7301537},{"name":"五反田駅","province":"東京都","city":"品川区","address":"東京都品川区東五反田1丁目26-2","lat":35.6260453,"lon":139.7235869},{"name":"大崎駅","province":"東京都","city":"品川区","address":"東京都品川区大崎1丁目21-4","lat":35.6190999,"lon":139.7285802},{"name":"大井町駅","province":"東京都","city":"品川区","address":"東京都品川区大井1丁目2-12","lat":35.607536,"lon":139.7349666},{"name":"西大井町駅","province":"東京都","city":"品川区","address":"東京都品川区西大井1丁目3-2","lat":35.601478,"lon":139.721434},{"name":"不動前駅","province":"東京都","city":"品川区","address":"東京都品川区西五反田5丁目12-1","lat":35.6254279,"lon":139.7132457},{"name":"武蔵小山駅","province":"東京都","city":"品川区","address":"東京都品川区小山3丁目4-8","lat":35.6206461,"lon":139.7047325},{"name":"大崎広小路駅","province":"東京都","city":"品川区","address":"東京都品川区大崎4丁目1-1","lat":35.6224256,"lon":139.722493},{"name":"荏原中延駅","province":"東京都","city":"品川区","address":"東京都品川区中延2丁目8-1","lat":35.6098891,"lon":139.7119465},{"name":"旗の台駅","province":"東京都","city":"品川区","address":"東京都品川区旗の台2丁目13-1","lat":35.604834,"lon":139.7027961},{"name":"下神明駅","province":"東京都","city":"品川区","address":"東京都品川区西品川1丁目29-6","lat":35.6087526,"lon":139.7264653},{"name":"戸越公園駅","province":"東京都","city":"品川区","address":"東京都品川区戸越5丁目10-15","lat":35.6089987,"lon":139.7184968},{"name":"東急中延駅","province":"東京都","city":"品川区","address":"東京都品川区東中延2丁目9-12","lat":35.6057842,"lon":139.7126428},{"name":"北品川駅","province":"東京都","city":"品川区","address":"東京都品川区北品川1丁目1-4","lat":35.6225433,"lon":139.7392315},{"name":"新馬場駅","province":"東京都","city":"品川区","address":"東京都品川区北品川2丁目18-1","lat":35.6170364,"lon":139.7414247},{"name":"青物横丁駅","province":"東京都","city":"品川区","address":"東京都品川区南品川3丁目1-20","lat":35.6090709,"lon":139.7431279},{"name":"鮫洲駅","province":"東京都","city":"品川区","address":"東京都品川区東大井1丁目2-20","lat":35.6051498,"lon":139.7424961},{"name":"立会川駅","province":"東京都","city":"品川区","address":"東京都品川区東大井2丁目23-1","lat":35.5986501,"lon":139.7389746},{"name":"大森海岸駅","province":"東京都","city":"品川区","address":"東京都品川区南大井3丁目32-1","lat":35.5874923,"lon":139.7352991},{"name":"戸越駅","province":"東京都","city":"品川区","address":"東京都品川区戸越3丁目4-17","lat":35.6143511,"lon":139.716256},{"name":"都営中延駅","province":"東京都","city":"品川区","address":"東京都品川区東中延2丁目9-12","lat":35.6055999,"lon":139.7135855},{"name":"天王洲アイル駅（りんかい線）","province":"東京都","city":"品川区","address":"東京都品川区東品川2-5-8","lat":35.6216148,"lon":139.7508566},{"name":"品川シーサイド駅","province":"東京都","city":"品川区","address":"東京都品川区東品川4丁目12","lat":35.6103127,"lon":139.7498309},{"name":"大井競馬場前駅","province":"東京都","city":"品川区","address":"東京都品川区勝島2丁目2","lat":35.5949348,"lon":139.7471756},{"name":"荏原町駅","province":"東京都","city":"品川区","address":"東京都品川区中延5-2-1","lat":35.6039899,"lon":139.7076062},{"name":"西小山駅","province":"東京都","city":"品川区","address":"東京都品川区小山6-3-9","lat":35.6158275,"lon":139.6989315},{"name":"戸越銀座駅","province":"東京都","city":"品川区","address":"東京都品川区平塚2-16-1","lat":35.6158834,"lon":139.7148438},{"name":"都営浅草線五反田駅「定期券販売所」","province":"東京都","city":"品川区","address":"東京都品川区東五反田1-26-2","lat":35.626418,"lon":139.7236661},{"name":"五反田駅(東急)","province":"東京都","city":"品川区","address":"東京都品川区東五反田2-1-1","lat":35.625404,"lon":139.7242969},{"name":"目黒駅(東急)","province":"東京都","city":"品川区","address":"東京都品川区上大崎4-2-1","lat":35.633395,"lon":139.715439},{"name":"大井町駅(ＪＲ)","province":"東京都","city":"品川区","address":"東京都品川区大井1-2-12","lat":35.606221,"lon":139.734833},{"name":"目黒駅(ＪＲ)","province":"東京都","city":"品川区","address":"東京都品川区上大崎2-16-9","lat":35.634114,"lon":139.715767},{"name":"都営バス「品川自動車営業所」","province":"東京都","city":"品川区","address":"東京都品川区北品川1-5-12","lat":35.623274,"lon":139.740748},{"name":"都営バス「品川自動車営業所目黒支所」","province":"東京都","city":"品川区","address":"東京都品川区上大崎3-1-2","lat":35.632837,"lon":139.716783},{"name":"東急バス「荏原営業所」","province":"東京都","city":"品川区","address":"東京都品川区二葉4-27-1","lat":35.602427,"lon":139.713326},{"name":"西大井駅(JR横須賀線)","province":"東京都","city":"品川区","address":"東京都品川区","lat":35.602127,"lon":139.7219446},{"name":"大森駅(JR京浜東北線)","province":"東京都","city":"品川区","address":"東京都品川区","lat":35.5889869,"lon":139.7281534},{"name":"天王洲アイル駅（東京モノレール）","province":"東京都","city":"品川区","address":"東京都品川区東品川2-3-8","lat":35.6231178,"lon":139.7503428},{"name":"大井警察署八潮団地交番","province":"東京都","city":"品川区","address":"東京都品川区八潮5-5-5","lat":35.5988304,"lon":139.7508339},{"name":"東京法務局品川出張所(登記所)","province":"東京都","city":"品川区","address":"東京都品川区広町2-1-36品川区総合庁舎","lat":35.6090951,"lon":139.7302296,"備考":"品川区広町2-1-36品川区総合庁舎1階","経度":"139.7302296","緯度":"35.6090951"},{"name":"大井町駅(JR)","province":"東京都","city":"品川区","address":"東京都品川区大井1-2-12","lat":35.606221,"lon":139.734833,"備考":"東京都品川区大井1-2-12","経度":"139.734833","緯度":"35.606221"},{"name":"目黒駅(JR)","province":"東京都","city":"品川区","address":"東京都品川区上大崎2-16-9","lat":35.634114,"lon":139.715767,"備考":"東京都品川区上大崎2-16-9","経度":"139.715767","緯度":"35.634114"},{"name":"都立城南職業能力開発センター","province":"東京都","city":"品川区","address":"東京都品川区東品川3-31-16","lat":35.6119765,"lon":139.7497704,"備考":"東品川3-31-16\n電話 3472-3411","経度":"139.7497704","緯度":"35.6119765"},{"name":"品川区保健所","province":"東京都","city":"品川区","address":"品川区広町2-1-36","lat":35.608836,"lon":139.730241},{"name":"品川保健センター","province":"東京都","city":"品川区","address":"品川区北品川3-11-22","lat":35.616586,"lon":139.740732},{"name":"大井保健センター","province":"東京都","city":"品川区","address":"品川区大井2-27-20","lat":35.604084,"lon":139.730375},{"name":"荏原保健センター","province":"東京都","city":"品川区","address":"品川区荏原2-9-6","lat":35.617185,"lon":139.711504},{"name":"品川区","province":"東京都","city":"品川区","address":"品川区広町2-1-36","lat":35.6088372,"lon":139.7302417},{"name":"フューネラルジャパン株式会社","province":"東京都","city":"品川区","address":"東京都品川区大井1丁目53-7","lat":35.60456746,"lon":139.73380519},{"name":"品川区保健所","province":"東京都","city":"品川区","address":"東京都品川区広町2丁目1-36","lat":35.60881128,"lon":139.73028866},{"name":"品川保健センター","province":"東京都","city":"品川区","address":"東京都品川区北品川3丁目11-22","lat":35.61658571,"lon":139.74073199},{"name":"大井保健センター","province":"東京都","city":"品川区","address":"東京都品川区大井2丁目27-20","lat":35.60406184,"lon":139.73038047},{"name":"荏原保健センター","province":"東京都","city":"品川区","address":"東京都品川区西五反田6丁目6-6","lat":35.62309266,"lon":139.71741427},{"name":"品川区保健所","province":"東京都","city":"品川区","address":"品川区広町2-1-36","lat":35.6083,"lon":139.73096},{"name":"品川保健センター","province":"東京都","city":"品川区","address":"品川区北品川3-11-22","lat":35.61644,"lon":139.73927},{"name":"大井保健センター","province":"東京都","city":"品川区","address":"品川区大井2-27-20","lat":35.60418,"lon":139.73032},{"name":"荏原保健センター","province":"東京都","city":"品川区","address":"品川区西五反田6-6-6","lat":35.62268,"lon":139.71748},{"name":"荏原保健センター","province":"東京都","city":"品川区","address":"品川区荏原2-9-6","lat":35.61701,"lon":139.71111},{"name":"荏原消防署","province":"東京都","city":"品川区","address":"東京都品川区平塚3丁目16-20","lat":35.6144967,"lon":139.7105109},{"name":"品川消防署","province":"東京都","city":"品川区","address":"東京都品川区北品川3丁目7-31","lat":35.6170878,"lon":139.7397523},{"name":"大井警察署","province":"東京都","city":"品川区","address":"東京都品川区大井5丁目10-2","lat":35.5989109,"lon":139.7298653},{"name":"荏原警察署","province":"東京都","city":"品川区","address":"東京都品川区荏原6丁目19-10","lat":35.6120395,"lon":139.7062371},{"name":"品川警察署","province":"東京都","city":"品川区","address":"東京都品川区東品川3丁目14","lat":35.6138397,"lon":139.7450501},{"name":"大崎警察署","province":"東京都","city":"品川区","address":"東京都品川区大崎4丁目2-10","lat":35.6217168,"lon":139.7241446},{"name":"(株)共益商会  大森営業所","province":"東京都","city":"品川区","address":"品川区南大井6-8-1","lat":35.591969,"lon":139.733063},{"name":"(有)後藤商店","province":"東京都","city":"品川区","address":"品川区西五反田5-30-16","lat":35.622742,"lon":139.713181},{"name":"(有)鈴木紙業","province":"東京都","city":"品川区","address":"品川区南品川4-8-4","lat":35.612625,"lon":139.736069},{"name":"(有)スリーシープランニング","province":"東京都","city":"品川区","address":"品川区南品川3-6-31","lat":35.608429,"lon":139.744705},{"name":"川村金属(株)","province":"東京都","city":"品川区","address":"品川区荏原4-8-8","lat":35.615547,"lon":139.706345},{"name":"品川区選挙管理委員会","province":"東京都","city":"品川区","address":"品川区広町2-1-36品川区防災センター・第2庁舎","lat":35.609177,"lon":139.730167},{"name":"品川都税事務所","province":"東京都","city":"品川区","address":"東京都品川区広町2-1-36","lat":35.6089834,"lon":139.7302954},{"name":"鮫洲運転免許試験場","province":"東京都","city":"品川区","address":"東京都品川区東大井1-12-5","lat":35.6033213,"lon":139.7464659},{"name":"品川児童相談所","province":"東京都","city":"品川区","address":"東京都品川区北品川3-7-21","lat":35.6175581,"lon":139.7404569},{"name":"品川警察署","province":"東京都","city":"品川区","address":"東京都品川区東品川3-14-32","lat":35.6139521,"lon":139.7454043},{"name":"大崎警察署","province":"東京都","city":"品川区","address":"東京都品川区大崎4-2-10","lat":35.6217304,"lon":139.7241517},{"name":"大井警察署","province":"東京都","city":"品川区","address":"東京都品川区大井5-10-2","lat":35.5987968,"lon":139.7298873},{"name":"荏原警察署","province":"東京都","city":"品川区","address":"東京都品川区荏原6-19-10","lat":35.6120733,"lon":139.7061891},{"name":"東京水上警察署","province":"東京都","city":"品川区","address":"東京都品川区港区港南5-8-36","lat":35.6323499,"lon":139.7550883},{"name":"品川消防署","province":"東京都","city":"品川区","address":"東京都品川区北品川3-7-31","lat":35.6171422,"lon":139.7398073},{"name":"品川消防署東品川出張所","province":"東京都","city":"品川区","address":"東京都品川区東品川3-25-11","lat":35.6128705,"lon":139.7473344},{"name":"品川消防署大崎出張所","province":"東京都","city":"品川区","address":"東京都品川区大崎2-8-27","lat":35.6133836,"lon":139.731659},{"name":"品川消防署五反田出張所","province":"東京都","city":"品川区","address":"東京都品川区西五反田7-25-14","lat":35.6200165,"lon":139.7187382},{"name":"大井消防署","province":"東京都","city":"品川区","address":"東京都品川区東大井3-6-12","lat":35.6034742,"lon":139.7401437},{"name":"大井消防署滝王子出張所","province":"東京都","city":"品川区","address":"東京都品川区大井5-17-9","lat":35.5983307,"lon":139.7281165},{"name":"大井消防署八潮出張所","province":"東京都","city":"品川区","address":"東京都品川区八潮5-8-3","lat":35.5971201,"lon":139.7515991},{"name":"荏原消防署","province":"東京都","city":"品川区","address":"東京都品川区平塚3-16-20","lat":35.6148569,"lon":139.7105344},{"name":"荏原消防署戸越出張所","province":"東京都","city":"品川区","address":"東京都品川区戸越5-20-15","lat":35.6083098,"lon":139.7187484},{"name":"荏原消防署小山出張所","province":"東京都","city":"品川区","address":"東京都品川区小山5-12-11","lat":35.6160664,"lon":139.7022552},{"name":"荏原消防署旗の台出張所","province":"東京都","city":"品川区","address":"東京都品川区旗の台6-24-11","lat":35.60578,"lon":139.7000222},{"name":"品川税務署","province":"東京都","city":"品川区","address":"東京都品川区港区高輪3-13-22","lat":35.6296746,"lon":139.734836},{"name":"荏原税務署","province":"東京都","city":"品川区","address":"東京都品川区中延1-1-5","lat":35.613837,"lon":139.7097508},{"name":"品川自動車税事務所","province":"東京都","city":"品川区","address":"東京都品川区東大井1-12-18","lat":35.60493,"lon":139.7473986},{"name":"関東運輸局東京陸運支局","province":"東京都","city":"品川区","address":"東京都品川区東大井1-12-17","lat":35.6046993,"lon":139.7469919},{"name":"品川郵便局","province":"東京都","city":"品川区","address":"東京都品川区東大井5-23-34","lat":35.6050717,"lon":139.7361881},{"name":"大崎郵便局","province":"東京都","city":"品川区","address":"東京都品川区西五反田2-32-7","lat":35.6252595,"lon":139.7189457},{"name":"荏原郵便局","province":"東京都","city":"品川区","address":"東京都品川区西中延1-7-23","lat":35.612713,"lon":139.7073544},{"name":"水道局品川営業所","province":"東京都","city":"品川区","address":"東京都品川区西中延1-9-10","lat":35.6116016,"lon":139.7078304},{"name":"下水道局南部下水道事務所品川出張所","province":"東京都","city":"品川区","address":"東京都品川区西品川1-8-1","lat":35.6129282,"lon":139.7301521},{"name":"品川年金事務所","province":"東京都","city":"品川区","address":"東京都品川区大崎5-1-5高徳ビル","lat":35.6236396,"lon":139.7248636},{"name":"品川労働基準監督署","province":"東京都","city":"品川区","address":"東京都品川区東五反田2-6-17","lat":35.6296077,"lon":139.7190353},{"name":"東京法務局品川出張所（登記所）","province":"東京都","city":"品川区","address":"東京都品川区広町2-1-36品川区総合庁舎","lat":35.6090951,"lon":139.7302296},{"name":"五反田公証役場","province":"東京都","city":"品川区","address":"東京都品川区東五反田5-27-6","lat":35.6270162,"lon":139.7234544},{"name":"目黒公証役場","province":"東京都","city":"品川区","address":"東京都品川区上大崎2-17-5","lat":35.6355392,"lon":139.7150243},{"name":"大森公証役場","province":"東京都","city":"品川区","address":"東京都品川区南大井6-12-12","lat":35.5871233,"lon":139.7301537},{"name":"五反田駅","province":"東京都","city":"品川区","address":"東京都品川区東五反田1丁目26-2","lat":35.6260453,"lon":139.7235869},{"name":"大崎駅","province":"東京都","city":"品川区","address":"東京都品川区大崎1丁目21-4","lat":35.6190999,"lon":139.7285802},{"name":"大井町駅","province":"東京都","city":"品川区","address":"東京都品川区大井1丁目2-12","lat":35.607536,"lon":139.7349666},{"name":"西大井町駅","province":"東京都","city":"品川区","address":"東京都品川区西大井1丁目3-2","lat":35.601478,"lon":139.721434},{"name":"不動前駅","province":"東京都","city":"品川区","address":"東京都品川区西五反田5丁目12-1","lat":35.6254279,"lon":139.7132457},{"name":"武蔵小山駅","province":"東京都","city":"品川区","address":"東京都品川区小山3丁目4-8","lat":35.6206461,"lon":139.7047325},{"name":"大崎広小路駅","province":"東京都","city":"品川区","address":"東京都品川区大崎4丁目1-1","lat":35.6224256,"lon":139.722493},{"name":"荏原中延駅","province":"東京都","city":"品川区","address":"東京都品川区中延2丁目8-1","lat":35.6098891,"lon":139.7119465},{"name":"旗の台駅","province":"東京都","city":"品川区","address":"東京都品川区旗の台2丁目13-1","lat":35.604834,"lon":139.7027961},{"name":"下神明駅","province":"東京都","city":"品川区","address":"東京都品川区西品川1丁目29-6","lat":35.6087526,"lon":139.7264653},{"name":"戸越公園駅","province":"東京都","city":"品川区","address":"東京都品川区戸越5丁目10-15","lat":35.6089987,"lon":139.7184968},{"name":"東急中延駅","province":"東京都","city":"品川区","address":"東京都品川区東中延2丁目9-12","lat":35.6057842,"lon":139.7126428},{"name":"北品川駅","province":"東京都","city":"品川区","address":"東京都品川区北品川1丁目1-4","lat":35.6225433,"lon":139.7392315},{"name":"新馬場駅","province":"東京都","city":"品川区","address":"東京都品川区北品川2丁目18-1","lat":35.6170364,"lon":139.7414247},{"name":"青物横丁駅","province":"東京都","city":"品川区","address":"東京都品川区南品川3丁目1-20","lat":35.6090709,"lon":139.7431279},{"name":"鮫洲駅","province":"東京都","city":"品川区","address":"東京都品川区東大井1丁目2-20","lat":35.6051498,"lon":139.7424961},{"name":"立会川駅","province":"東京都","city":"品川区","address":"東京都品川区東大井2丁目23-1","lat":35.5986501,"lon":139.7389746},{"name":"大森海岸駅","province":"東京都","city":"品川区","address":"東京都品川区南大井3丁目32-1","lat":35.5874923,"lon":139.7352991},{"name":"戸越駅","province":"東京都","city":"品川区","address":"東京都品川区戸越3丁目4-17","lat":35.6143511,"lon":139.716256},{"name":"都営中延駅","province":"東京都","city":"品川区","address":"東京都品川区東中延2丁目9-12","lat":35.6055999,"lon":139.7135855},{"name":"天王洲アイル駅（りんかい線）","province":"東京都","city":"品川区","address":"東京都品川区東品川2-5-8","lat":35.6216148,"lon":139.7508566},{"name":"品川シーサイド駅","province":"東京都","city":"品川区","address":"東京都品川区東品川4丁目12","lat":35.6103127,"lon":139.7498309},{"name":"大井競馬場前駅","province":"東京都","city":"品川区","address":"東京都品川区勝島2丁目2","lat":35.5949348,"lon":139.7471756},{"name":"荏原町駅","province":"東京都","city":"品川区","address":"東京都品川区中延5-2-1","lat":35.6039899,"lon":139.7076062},{"name":"西小山駅","province":"東京都","city":"品川区","address":"東京都品川区小山6-3-9","lat":35.6158275,"lon":139.6989315},{"name":"戸越銀座駅","province":"東京都","city":"品川区","address":"東京都品川区平塚2-16-1","lat":35.6158834,"lon":139.7148438},{"name":"都営浅草線五反田駅「定期券販売所」","province":"東京都","city":"品川区","address":"東京都品川区東五反田1-26-2","lat":35.626418,"lon":139.7236661},{"name":"五反田駅(東急)","province":"東京都","city":"品川区","address":"東京都品川区東五反田2-1-1","lat":35.625404,"lon":139.7242969},{"name":"目黒駅(東急)","province":"東京都","city":"品川区","address":"東京都品川区上大崎4-2-1","lat":35.633395,"lon":139.715439},{"name":"大井町駅(ＪＲ)","province":"東京都","city":"品川区","address":"東京都品川区大井1-2-12","lat":35.606221,"lon":139.734833},{"name":"目黒駅(ＪＲ)","province":"東京都","city":"品川区","address":"東京都品川区上大崎2-16-9","lat":35.634114,"lon":139.715767},{"name":"都営バス「品川自動車営業所」","province":"東京都","city":"品川区","address":"東京都品川区北品川1-5-12","lat":35.623274,"lon":139.740748},{"name":"都営バス「品川自動車営業所目黒支所」","province":"東京都","city":"品川区","address":"東京都品川区上大崎3-1-2","lat":35.632837,"lon":139.716783},{"name":"東急バス「荏原営業所」","province":"東京都","city":"品川区","address":"東京都品川区二葉4-27-1","lat":35.602427,"lon":139.713326},{"name":"西大井駅(JR横須賀線)","province":"東京都","city":"品川区","address":"東京都品川区","lat":35.602127,"lon":139.7219446},{"name":"大森駅(JR京浜東北線)","province":"東京都","city":"品川区","address":"東京都品川区","lat":35.5889869,"lon":139.7281534},{"name":"天王洲アイル駅（東京モノレール）","province":"東京都","city":"品川区","address":"東京都品川区東品川2-3-8","lat":35.6231178,"lon":139.7503428},{"name":"大井警察署八潮団地交番","province":"東京都","city":"品川区","address":"東京都品川区八潮5-5-5","lat":35.5988304,"lon":139.7508339},{"name":"東京法務局品川出張所(登記所)","province":"東京都","city":"品川区","address":"東京都品川区広町2-1-36品川区総合庁舎","lat":35.6090951,"lon":139.7302296,"備考":"品川区広町2-1-36品川区総合庁舎1階","経度":"139.7302296","緯度":"35.6090951"},{"name":"大井町駅(JR)","province":"東京都","city":"品川区","address":"東京都品川区大井1-2-12","lat":35.606221,"lon":139.734833,"備考":"東京都品川区大井1-2-12","経度":"139.734833","緯度":"35.606221"},{"name":"目黒駅(JR)","province":"東京都","city":"品川区","address":"東京都品川区上大崎2-16-9","lat":35.634114,"lon":139.715767,"備考":"東京都品川区上大崎2-16-9","経度":"139.715767","緯度":"35.634114"},{"name":"都立城南職業能力開発センター","province":"東京都","city":"品川区","address":"東京都品川区東品川3-31-16","lat":35.6119765,"lon":139.7497704,"備考":"東品川3-31-16\n電話 3472-3411","経度":"139.7497704","緯度":"35.6119765"},{"name":"品川区保健所","province":"東京都","city":"品川区","address":"品川区広町2-1-36","lat":35.608836,"lon":139.730241},{"name":"品川保健センター","province":"東京都","city":"品川区","address":"品川区北品川3-11-22","lat":35.616586,"lon":139.740732},{"name":"大井保健センター","province":"東京都","city":"品川区","address":"品川区大井2-27-20","lat":35.604084,"lon":139.730375},{"name":"荏原保健センター","province":"東京都","city":"品川区","address":"品川区荏原2-9-6","lat":35.617185,"lon":139.711504},{"name":"品川区","province":"東京都","city":"品川区","address":"品川区広町2-1-36","lat":35.6088372,"lon":139.7302417},{"name":"フューネラルジャパン株式会社","province":"東京都","city":"品川区","address":"東京都品川区大井1丁目53-7","lat":35.60456746,"lon":139.73380519},{"name":"品川区保健所","province":"東京都","city":"品川区","address":"東京都品川区広町2丁目1-36","lat":35.60881128,"lon":139.73028866},{"name":"品川保健センター","province":"東京都","city":"品川区","address":"東京都品川区北品川3丁目11-22","lat":35.61658571,"lon":139.74073199},{"name":"大井保健センター","province":"東京都","city":"品川区","address":"東京都品川区大井2丁目27-20","lat":35.60406184,"lon":139.73038047},{"name":"荏原保健センター","province":"東京都","city":"品川区","address":"東京都品川区西五反田6丁目6-6","lat":35.62309266,"lon":139.71741427},{"name":"品川区保健所","province":"東京都","city":"品川区","address":"品川区広町2-1-36","lat":35.6083,"lon":139.73096},{"name":"品川保健センター","province":"東京都","city":"品川区","address":"品川区北品川3-11-22","lat":35.61644,"lon":139.73927},{"name":"大井保健センター","province":"東京都","city":"品川区","address":"品川区大井2-27-20","lat":35.60418,"lon":139.73032},{"name":"荏原保健センター","province":"東京都","city":"品川区","address":"品川区西五反田6-6-6","lat":35.62268,"lon":139.71748},{"name":"荏原保健センター","province":"東京都","city":"品川区","address":"品川区荏原2-9-6","lat":35.61701,"lon":139.71111},{"name":"荏原消防署","province":"東京都","city":"品川区","address":"東京都品川区平塚3丁目16-20","lat":35.6144967,"lon":139.7105109},{"name":"品川消防署","province":"東京都","city":"品川区","address":"東京都品川区北品川3丁目7-31","lat":35.6170878,"lon":139.7397523},{"name":"大井警察署","province":"東京都","city":"品川区","address":"東京都品川区大井5丁目10-2","lat":35.5989109,"lon":139.7298653},{"name":"荏原警察署","province":"東京都","city":"品川区","address":"東京都品川区荏原6丁目19-10","lat":35.6120395,"lon":139.7062371},{"name":"品川警察署","province":"東京都","city":"品川区","address":"東京都品川区東品川3丁目14","lat":35.6138397,"lon":139.7450501},{"name":"大崎警察署","province":"東京都","city":"品川区","address":"東京都品川区大崎4丁目2-10","lat":35.6217168,"lon":139.7241446},{"name":"(株)共益商会  大森営業所","province":"東京都","city":"品川区","address":"品川区南大井6-8-1","lat":35.591969,"lon":139.733063},{"name":"(有)後藤商店","province":"東京都","city":"品川区","address":"品川区西五反田5-30-16","lat":35.622742,"lon":139.713181},{"name":"(有)鈴木紙業","province":"東京都","city":"品川区","address":"品川区南品川4-8-4","lat":35.612625,"lon":139.736069},{"name":"(有)スリーシープランニング","province":"東京都","city":"品川区","address":"品川区南品川3-6-31","lat":35.608429,"lon":139.744705},{"name":"川村金属(株)","province":"東京都","city":"品川区","address":"品川区荏原4-8-8","lat":35.615547,"lon":139.706345},{"name":"品川区選挙管理委員会","province":"東京都","city":"品川区","address":"品川区広町2-1-36品川区防災センター・第2庁舎","lat":35.609177,"lon":139.730167},{"name":"品川都税事務所","province":"東京都","city":"品川区","address":"東京都品川区広町2-1-36","lat":35.6089834,"lon":139.7302954},{"name":"鮫洲運転免許試験場","province":"東京都","city":"品川区","address":"東京都品川区東大井1-12-5","lat":35.6033213,"lon":139.7464659},{"name":"品川児童相談所","province":"東京都","city":"品川区","address":"東京都品川区北品川3-7-21","lat":35.6175581,"lon":139.7404569},{"name":"品川警察署","province":"東京都","city":"品川区","address":"東京都品川区東品川3-14-32","lat":35.6139521,"lon":139.7454043},{"name":"大崎警察署","province":"東京都","city":"品川区","address":"東京都品川区大崎4-2-10","lat":35.6217304,"lon":139.7241517},{"name":"大井警察署","province":"東京都","city":"品川区","address":"東京都品川区大井5-10-2","lat":35.5987968,"lon":139.7298873},{"name":"荏原警察署","province":"東京都","city":"品川区","address":"東京都品川区荏原6-19-10","lat":35.6120733,"lon":139.7061891},{"name":"東京水上警察署","province":"東京都","city":"品川区","address":"東京都品川区港区港南5-8-36","lat":35.6323499,"lon":139.7550883},{"name":"品川消防署","province":"東京都","city":"品川区","address":"東京都品川区北品川3-7-31","lat":35.6171422,"lon":139.7398073},{"name":"品川消防署東品川出張所","province":"東京都","city":"品川区","address":"東京都品川区東品川3-25-11","lat":35.6128705,"lon":139.7473344},{"name":"品川消防署大崎出張所","province":"東京都","city":"品川区","address":"東京都品川区大崎2-8-27","lat":35.6133836,"lon":139.731659},{"name":"品川消防署五反田出張所","province":"東京都","city":"品川区","address":"東京都品川区西五反田7-25-14","lat":35.6200165,"lon":139.7187382},{"name":"大井消防署","province":"東京都","city":"品川区","address":"東京都品川区東大井3-6-12","lat":35.6034742,"lon":139.7401437},{"name":"大井消防署滝王子出張所","province":"東京都","city":"品川区","address":"東京都品川区大井5-17-9","lat":35.5983307,"lon":139.7281165},{"name":"大井消防署八潮出張所","province":"東京都","city":"品川区","address":"東京都品川区八潮5-8-3","lat":35.5971201,"lon":139.7515991},{"name":"荏原消防署","province":"東京都","city":"品川区","address":"東京都品川区平塚3-16-20","lat":35.6148569,"lon":139.7105344},{"name":"荏原消防署戸越出張所","province":"東京都","city":"品川区","address":"東京都品川区戸越5-20-15","lat":35.6083098,"lon":139.7187484},{"name":"荏原消防署小山出張所","province":"東京都","city":"品川区","address":"東京都品川区小山5-12-11","lat":35.6160664,"lon":139.7022552},{"name":"荏原消防署旗の台出張所","province":"東京都","city":"品川区","address":"東京都品川区旗の台6-24-11","lat":35.60578,"lon":139.7000222},{"name":"品川税務署","province":"東京都","city":"品川区","address":"東京都品川区港区高輪3-13-22","lat":35.6296746,"lon":139.734836},{"name":"荏原税務署","province":"東京都","city":"品川区","address":"東京都品川区中延1-1-5","lat":35.613837,"lon":139.7097508},{"name":"品川自動車税事務所","province":"東京都","city":"品川区","address":"東京都品川区東大井1-12-18","lat":35.60493,"lon":139.7473986},{"name":"関東運輸局東京陸運支局","province":"東京都","city":"品川区","address":"東京都品川区東大井1-12-17","lat":35.6046993,"lon":139.7469919},{"name":"品川郵便局","province":"東京都","city":"品川区","address":"東京都品川区東大井5-23-34","lat":35.6050717,"lon":139.7361881},{"name":"大崎郵便局","province":"東京都","city":"品川区","address":"東京都品川区西五反田2-32-7","lat":35.6252595,"lon":139.7189457},{"name":"荏原郵便局","province":"東京都","city":"品川区","address":"東京都品川区西中延1-7-23","lat":35.612713,"lon":139.7073544},{"name":"水道局品川営業所","province":"東京都","city":"品川区","address":"東京都品川区西中延1-9-10","lat":35.6116016,"lon":139.7078304},{"name":"下水道局南部下水道事務所品川出張所","province":"東京都","city":"品川区","address":"東京都品川区西品川1-8-1","lat":35.6129282,"lon":139.7301521},{"name":"品川年金事務所","province":"東京都","city":"品川区","address":"東京都品川区大崎5-1-5高徳ビル","lat":35.6236396,"lon":139.7248636},{"name":"品川労働基準監督署","province":"東京都","city":"品川区","address":"東京都品川区東五反田2-6-17","lat":35.6296077,"lon":139.7190353},{"name":"東京法務局品川出張所（登記所）","province":"東京都","city":"品川区","address":"東京都品川区広町2-1-36品川区総合庁舎","lat":35.6090951,"lon":139.7302296},{"name":"五反田公証役場","province":"東京都","city":"品川区","address":"東京都品川区東五反田5-27-6","lat":35.6270162,"lon":139.7234544},{"name":"目黒公証役場","province":"東京都","city":"品川区","address":"東京都品川区上大崎2-17-5","lat":35.6355392,"lon":139.7150243},{"name":"大森公証役場","province":"東京都","city":"品川区","address":"東京都品川区南大井6-12-12","lat":35.5871233,"lon":139.7301537},{"name":"五反田駅","province":"東京都","city":"品川区","address":"東京都品川区東五反田1丁目26-2","lat":35.6260453,"lon":139.7235869},{"name":"大崎駅","province":"東京都","city":"品川区","address":"東京都品川区大崎1丁目21-4","lat":35.6190999,"lon":139.7285802},{"name":"大井町駅","province":"東京都","city":"品川区","address":"東京都品川区大井1丁目2-12","lat":35.607536,"lon":139.7349666},{"name":"西大井町駅","province":"東京都","city":"品川区","address":"東京都品川区西大井1丁目3-2","lat":35.601478,"lon":139.721434},{"name":"不動前駅","province":"東京都","city":"品川区","address":"東京都品川区西五反田5丁目12-1","lat":35.6254279,"lon":139.7132457},{"name":"武蔵小山駅","province":"東京都","city":"品川区","address":"東京都品川区小山3丁目4-8","lat":35.6206461,"lon":139.7047325},{"name":"大崎広小路駅","province":"東京都","city":"品川区","address":"東京都品川区大崎4丁目1-1","lat":35.6224256,"lon":139.722493},{"name":"荏原中延駅","province":"東京都","city":"品川区","address":"東京都品川区中延2丁目8-1","lat":35.6098891,"lon":139.7119465},{"name":"旗の台駅","province":"東京都","city":"品川区","address":"東京都品川区旗の台2丁目13-1","lat":35.604834,"lon":139.7027961},{"name":"下神明駅","province":"東京都","city":"品川区","address":"東京都品川区西品川1丁目29-6","lat":35.6087526,"lon":139.7264653},{"name":"戸越公園駅","province":"東京都","city":"品川区","address":"東京都品川区戸越5丁目10-15","lat":35.6089987,"lon":139.7184968},{"name":"東急中延駅","province":"東京都","city":"品川区","address":"東京都品川区東中延2丁目9-12","lat":35.6057842,"lon":139.7126428},{"name":"北品川駅","province":"東京都","city":"品川区","address":"東京都品川区北品川1丁目1-4","lat":35.6225433,"lon":139.7392315},{"name":"新馬場駅","province":"東京都","city":"品川区","address":"東京都品川区北品川2丁目18-1","lat":35.6170364,"lon":139.7414247},{"name":"青物横丁駅","province":"東京都","city":"品川区","address":"東京都品川区南品川3丁目1-20","lat":35.6090709,"lon":139.7431279},{"name":"鮫洲駅","province":"東京都","city":"品川区","address":"東京都品川区東大井1丁目2-20","lat":35.6051498,"lon":139.7424961},{"name":"立会川駅","province":"東京都","city":"品川区","address":"東京都品川区東大井2丁目23-1","lat":35.5986501,"lon":139.7389746},{"name":"大森海岸駅","province":"東京都","city":"品川区","address":"東京都品川区南大井3丁目32-1","lat":35.5874923,"lon":139.7352991},{"name":"戸越駅","province":"東京都","city":"品川区","address":"東京都品川区戸越3丁目4-17","lat":35.6143511,"lon":139.716256},{"name":"都営中延駅","province":"東京都","city":"品川区","address":"東京都品川区東中延2丁目9-12","lat":35.6055999,"lon":139.7135855},{"name":"天王洲アイル駅（りんかい線）","province":"東京都","city":"品川区","address":"東京都品川区東品川2-5-8","lat":35.6216148,"lon":139.7508566},{"name":"品川シーサイド駅","province":"東京都","city":"品川区","address":"東京都品川区東品川4丁目12","lat":35.6103127,"lon":139.7498309},{"name":"大井競馬場前駅","province":"東京都","city":"品川区","address":"東京都品川区勝島2丁目2","lat":35.5949348,"lon":139.7471756},{"name":"荏原町駅","province":"東京都","city":"品川区","address":"東京都品川区中延5-2-1","lat":35.6039899,"lon":139.7076062},{"name":"西小山駅","province":"東京都","city":"品川区","address":"東京都品川区小山6-3-9","lat":35.6158275,"lon":139.6989315},{"name":"戸越銀座駅","province":"東京都","city":"品川区","address":"東京都品川区平塚2-16-1","lat":35.6158834,"lon":139.7148438},{"name":"都営浅草線五反田駅「定期券販売所」","province":"東京都","city":"品川区","address":"東京都品川区東五反田1-26-2","lat":35.626418,"lon":139.7236661},{"name":"五反田駅(東急)","province":"東京都","city":"品川区","address":"東京都品川区東五反田2-1-1","lat":35.625404,"lon":139.7242969},{"name":"目黒駅(東急)","province":"東京都","city":"品川区","address":"東京都品川区上大崎4-2-1","lat":35.633395,"lon":139.715439},{"name":"大井町駅(ＪＲ)","province":"東京都","city":"品川区","address":"東京都品川区大井1-2-12","lat":35.606221,"lon":139.734833},{"name":"目黒駅(ＪＲ)","province":"東京都","city":"品川区","address":"東京都品川区上大崎2-16-9","lat":35.634114,"lon":139.715767},{"name":"都営バス「品川自動車営業所」","province":"東京都","city":"品川区","address":"東京都品川区北品川1-5-12","lat":35.623274,"lon":139.740748},{"name":"都営バス「品川自動車営業所目黒支所」","province":"東京都","city":"品川区","address":"東京都品川区上大崎3-1-2","lat":35.632837,"lon":139.716783},{"name":"東急バス「荏原営業所」","province":"東京都","city":"品川区","address":"東京都品川区二葉4-27-1","lat":35.602427,"lon":139.713326},{"name":"西大井駅(JR横須賀線)","province":"東京都","city":"品川区","address":"東京都品川区","lat":35.602127,"lon":139.7219446},{"name":"大森駅(JR京浜東北線)","province":"東京都","city":"品川区","address":"東京都品川区","lat":35.5889869,"lon":139.7281534},{"name":"天王洲アイル駅（東京モノレール）","province":"東京都","city":"品川区","address":"東京都品川区東品川2-3-8","lat":35.6231178,"lon":139.7503428},{"name":"大井警察署八潮団地交番","province":"東京都","city":"品川区","address":"東京都品川区八潮5-5-5","lat":35.5988304,"lon":139.7508339},{"name":"東京法務局品川出張所(登記所)","province":"東京都","city":"品川区","address":"東京都品川区広町2-1-36品川区総合庁舎","lat":35.6090951,"lon":139.7302296,"備考":"品川区広町2-1-36品川区総合庁舎1階","経度":"139.7302296","緯度":"35.6090951"},{"name":"大井町駅(JR)","province":"東京都","city":"品川区","address":"東京都品川区大井1-2-12","lat":35.606221,"lon":139.734833,"備考":"東京都品川区大井1-2-12","経度":"139.734833","緯度":"35.606221"},{"name":"目黒駅(JR)","province":"東京都","city":"品川区","address":"東京都品川区上大崎2-16-9","lat":35.634114,"lon":139.715767,"備考":"東京都品川区上大崎2-16-9","経度":"139.715767","緯度":"35.634114"},{"name":"都立城南職業能力開発センター","province":"東京都","city":"品川区","address":"東京都品川区東品川3-31-16","lat":35.6119765,"lon":139.7497704,"備考":"東品川3-31-16\n電話 3472-3411","経度":"139.7497704","緯度":"35.6119765"},{"name":"品川区保健所","province":"東京都","city":"品川区","address":"品川区広町2-1-36","lat":35.608836,"lon":139.730241},{"name":"品川保健センター","province":"東京都","city":"品川区","address":"品川区北品川3-11-22","lat":35.616586,"lon":139.740732},{"name":"大井保健センター","province":"東京都","city":"品川区","address":"品川区大井2-27-20","lat":35.604084,"lon":139.730375},{"name":"荏原保健センター","province":"東京都","city":"品川区","address":"品川区荏原2-9-6","lat":35.617185,"lon":139.711504},{"name":"品川区","province":"東京都","city":"品川区","address":"品川区広町2-1-36","lat":35.6088372,"lon":139.7302417},{"name":"品川区保健所","province":"東京都","city":"品川区","address":"東京都品川区広町2丁目1-36","lat":35.60881128,"lon":139.73028866},{"name":"品川保健センター","province":"東京都","city":"品川区","address":"東京都品川区北品川3丁目11-22","lat":35.61658571,"lon":139.74073199},{"name":"大井保健センター","province":"東京都","city":"品川区","address":"東京都品川区大井2丁目27-20","lat":35.60406184,"lon":139.73038047},{"name":"荏原保健センター","province":"東京都","city":"品川区","address":"東京都品川区西五反田6丁目6-6","lat":35.62309266,"lon":139.71741427},{"name":"品川区保健所","province":"東京都","city":"品川区","address":"品川区広町2-1-36","lat":35.6083,"lon":139.73096},{"name":"品川保健センター","province":"東京都","city":"品川区","address":"品川区北品川3-11-22","lat":35.61644,"lon":139.73927},{"name":"大井保健センター","province":"東京都","city":"品川区","address":"品川区大井2-27-20","lat":35.60418,"lon":139.73032},{"name":"荏原保健センター","province":"東京都","city":"品川区","address":"品川区西五反田6-6-6","lat":35.62268,"lon":139.71748},{"name":"荏原保健センター","province":"東京都","city":"品川区","address":"品川区荏原2-9-6","lat":35.61701,"lon":139.71111},{"name":"荏原消防署","province":"東京都","city":"品川区","address":"東京都品川区平塚3丁目16-20","lat":35.6144967,"lon":139.7105109},{"name":"品川消防署","province":"東京都","city":"品川区","address":"東京都品川区北品川3丁目7-31","lat":35.6170878,"lon":139.7397523},{"name":"大井警察署","province":"東京都","city":"品川区","address":"東京都品川区大井5丁目10-2","lat":35.5989109,"lon":139.7298653},{"name":"荏原警察署","province":"東京都","city":"品川区","address":"東京都品川区荏原6丁目19-10","lat":35.6120395,"lon":139.7062371},{"name":"品川警察署","province":"東京都","city":"品川区","address":"東京都品川区東品川3丁目14","lat":35.6138397,"lon":139.7450501},{"name":"大崎警察署","province":"東京都","city":"品川区","address":"東京都品川区大崎4丁目2-10","lat":35.6217168,"lon":139.7241446},{"name":"(株)共益商会  大森営業所","province":"東京都","city":"品川区","address":"品川区南大井6-8-1","lat":35.591969,"lon":139.733063},{"name":"(有)後藤商店","province":"東京都","city":"品川区","address":"品川区西五反田5-30-16","lat":35.622742,"lon":139.713181},{"name":"(有)鈴木紙業","province":"東京都","city":"品川区","address":"品川区南品川4-8-4","lat":35.612625,"lon":139.736069},{"name":"(有)スリーシープランニング","province":"東京都","city":"品川区","address":"品川区南品川3-6-31","lat":35.608429,"lon":139.744705},{"name":"川村金属(株)","province":"東京都","city":"品川区","address":"品川区荏原4-8-8","lat":35.615547,"lon":139.706345},{"name":"品川区選挙管理委員会","province":"東京都","city":"品川区","address":"品川区広町2-1-36品川区防災センター・第2庁舎","lat":35.609177,"lon":139.730167},{"name":"品川都税事務所","province":"東京都","city":"品川区","address":"東京都品川区広町2-1-36","lat":35.6089834,"lon":139.7302954},{"name":"鮫洲運転免許試験場","province":"東京都","city":"品川区","address":"東京都品川区東大井1-12-5","lat":35.6033213,"lon":139.7464659},{"name":"品川児童相談所","province":"東京都","city":"品川区","address":"東京都品川区北品川3-7-21","lat":35.6175581,"lon":139.7404569},{"name":"品川警察署","province":"東京都","city":"品川区","address":"東京都品川区東品川3-14-32","lat":35.6139521,"lon":139.7454043},{"name":"大崎警察署","province":"東京都","city":"品川区","address":"東京都品川区大崎4-2-10","lat":35.6217304,"lon":139.7241517},{"name":"大井警察署","province":"東京都","city":"品川区","address":"東京都品川区大井5-10-2","lat":35.5987968,"lon":139.7298873},{"name":"荏原警察署","province":"東京都","city":"品川区","address":"東京都品川区荏原6-19-10","lat":35.6120733,"lon":139.7061891},{"name":"東京水上警察署","province":"東京都","city":"品川区","address":"東京都品川区港区港南5-8-36","lat":35.6323499,"lon":139.7550883},{"name":"品川消防署","province":"東京都","city":"品川区","address":"東京都品川区北品川3-7-31","lat":35.6171422,"lon":139.7398073},{"name":"品川消防署東品川出張所","province":"東京都","city":"品川区","address":"東京都品川区東品川3-25-11","lat":35.6128705,"lon":139.7473344},{"name":"品川消防署大崎出張所","province":"東京都","city":"品川区","address":"東京都品川区大崎2-8-27","lat":35.6133836,"lon":139.731659},{"name":"品川消防署五反田出張所","province":"東京都","city":"品川区","address":"東京都品川区西五反田7-25-14","lat":35.6200165,"lon":139.7187382},{"name":"大井消防署","province":"東京都","city":"品川区","address":"東京都品川区東大井3-6-12","lat":35.6034742,"lon":139.7401437},{"name":"大井消防署滝王子出張所","province":"東京都","city":"品川区","address":"東京都品川区大井5-17-9","lat":35.5983307,"lon":139.7281165},{"name":"大井消防署八潮出張所","province":"東京都","city":"品川区","address":"東京都品川区八潮5-8-3","lat":35.5971201,"lon":139.7515991},{"name":"荏原消防署","province":"東京都","city":"品川区","address":"東京都品川区平塚3-16-20","lat":35.6148569,"lon":139.7105344},{"name":"荏原消防署戸越出張所","province":"東京都","city":"品川区","address":"東京都品川区戸越5-20-15","lat":35.6083098,"lon":139.7187484},{"name":"荏原消防署小山出張所","province":"東京都","city":"品川区","address":"東京都品川区小山5-12-11","lat":35.6160664,"lon":139.7022552},{"name":"荏原消防署旗の台出張所","province":"東京都","city":"品川区","address":"東京都品川区旗の台6-24-11","lat":35.60578,"lon":139.7000222},{"name":"品川税務署","province":"東京都","city":"品川区","address":"東京都品川区港区高輪3-13-22","lat":35.6296746,"lon":139.734836},{"name":"荏原税務署","province":"東京都","city":"品川区","address":"東京都品川区中延1-1-5","lat":35.613837,"lon":139.7097508},{"name":"品川自動車税事務所","province":"東京都","city":"品川区","address":"東京都品川区東大井1-12-18","lat":35.60493,"lon":139.7473986},{"name":"関東運輸局東京陸運支局","province":"東京都","city":"品川区","address":"東京都品川区東大井1-12-17","lat":35.6046993,"lon":139.7469919},{"name":"品川郵便局","province":"東京都","city":"品川区","address":"東京都品川区東大井5-23-34","lat":35.6050717,"lon":139.7361881},{"name":"大崎郵便局","province":"東京都","city":"品川区","address":"東京都品川区西五反田2-32-7","lat":35.6252595,"lon":139.7189457},{"name":"荏原郵便局","province":"東京都","city":"品川区","address":"東京都品川区西中延1-7-23","lat":35.612713,"lon":139.7073544},{"name":"水道局品川営業所","province":"東京都","city":"品川区","address":"東京都品川区西中延1-9-10","lat":35.6116016,"lon":139.7078304},{"name":"下水道局南部下水道事務所品川出張所","province":"東京都","city":"品川区","address":"東京都品川区西品川1-8-1","lat":35.6129282,"lon":139.7301521},{"name":"品川年金事務所","province":"東京都","city":"品川区","address":"東京都品川区大崎5-1-5高徳ビル","lat":35.6236396,"lon":139.7248636},{"name":"品川労働基準監督署","province":"東京都","city":"品川区","address":"東京都品川区東五反田2-6-17","lat":35.6296077,"lon":139.7190353},{"name":"東京法務局品川出張所（登記所）","province":"東京都","city":"品川区","address":"東京都品川区広町2-1-36品川区総合庁舎","lat":35.6090951,"lon":139.7302296},{"name":"五反田公証役場","province":"東京都","city":"品川区","address":"東京都品川区東五反田5-27-6","lat":35.6270162,"lon":139.7234544},{"name":"目黒公証役場","province":"東京都","city":"品川区","address":"東京都品川区上大崎2-17-5","lat":35.6355392,"lon":139.7150243},{"name":"大森公証役場","province":"東京都","city":"品川区","address":"東京都品川区南大井6-12-12","lat":35.5871233,"lon":139.7301537},{"name":"五反田駅","province":"東京都","city":"品川区","address":"東京都品川区東五反田1丁目26-2","lat":35.6260453,"lon":139.7235869},{"name":"大崎駅","province":"東京都","city":"品川区","address":"東京都品川区大崎1丁目21-4","lat":35.6190999,"lon":139.7285802},{"name":"大井町駅","province":"東京都","city":"品川区","address":"東京都品川区大井1丁目2-12","lat":35.607536,"lon":139.7349666},{"name":"西大井町駅","province":"東京都","city":"品川区","address":"東京都品川区西大井1丁目3-2","lat":35.601478,"lon":139.721434},{"name":"不動前駅","province":"東京都","city":"品川区","address":"東京都品川区西五反田5丁目12-1","lat":35.6254279,"lon":139.7132457},{"name":"武蔵小山駅","province":"東京都","city":"品川区","address":"東京都品川区小山3丁目4-8","lat":35.6206461,"lon":139.7047325},{"name":"大崎広小路駅","province":"東京都","city":"品川区","address":"東京都品川区大崎4丁目1-1","lat":35.6224256,"lon":139.722493},{"name":"荏原中延駅","province":"東京都","city":"品川区","address":"東京都品川区中延2丁目8-1","lat":35.6098891,"lon":139.7119465},{"name":"旗の台駅","province":"東京都","city":"品川区","address":"東京都品川区旗の台2丁目13-1","lat":35.604834,"lon":139.7027961},{"name":"下神明駅","province":"東京都","city":"品川区","address":"東京都品川区西品川1丁目29-6","lat":35.6087526,"lon":139.7264653},{"name":"戸越公園駅","province":"東京都","city":"品川区","address":"東京都品川区戸越5丁目10-15","lat":35.6089987,"lon":139.7184968},{"name":"東急中延駅","province":"東京都","city":"品川区","address":"東京都品川区東中延2丁目9-12","lat":35.6057842,"lon":139.7126428},{"name":"北品川駅","province":"東京都","city":"品川区","address":"東京都品川区北品川1丁目1-4","lat":35.6225433,"lon":139.7392315},{"name":"新馬場駅","province":"東京都","city":"品川区","address":"東京都品川区北品川2丁目18-1","lat":35.6170364,"lon":139.7414247},{"name":"青物横丁駅","province":"東京都","city":"品川区","address":"東京都品川区南品川3丁目1-20","lat":35.6090709,"lon":139.7431279},{"name":"鮫洲駅","province":"東京都","city":"品川区","address":"東京都品川区東大井1丁目2-20","lat":35.6051498,"lon":139.7424961},{"name":"立会川駅","province":"東京都","city":"品川区","address":"東京都品川区東大井2丁目23-1","lat":35.5986501,"lon":139.7389746},{"name":"大森海岸駅","province":"東京都","city":"品川区","address":"東京都品川区南大井3丁目32-1","lat":35.5874923,"lon":139.7352991},{"name":"戸越駅","province":"東京都","city":"品川区","address":"東京都品川区戸越3丁目4-17","lat":35.6143511,"lon":139.716256},{"name":"都営中延駅","province":"東京都","city":"品川区","address":"東京都品川区東中延2丁目9-12","lat":35.6055999,"lon":139.7135855},{"name":"天王洲アイル駅（りんかい線）","province":"東京都","city":"品川区","address":"東京都品川区東品川2-5-8","lat":35.6216148,"lon":139.7508566},{"name":"品川シーサイド駅","province":"東京都","city":"品川区","address":"東京都品川区東品川4丁目12","lat":35.6103127,"lon":139.7498309},{"name":"大井競馬場前駅","province":"東京都","city":"品川区","address":"東京都品川区勝島2丁目2","lat":35.5949348,"lon":139.7471756},{"name":"荏原町駅","province":"東京都","city":"品川区","address":"東京都品川区中延5-2-1","lat":35.6039899,"lon":139.7076062},{"name":"西小山駅","province":"東京都","city":"品川区","address":"東京都品川区小山6-3-9","lat":35.6158275,"lon":139.6989315},{"name":"戸越銀座駅","province":"東京都","city":"品川区","address":"東京都品川区平塚2-16-1","lat":35.6158834,"lon":139.7148438},{"name":"都営浅草線五反田駅「定期券販売所」","province":"東京都","city":"品川区","address":"東京都品川区東五反田1-26-2","lat":35.626418,"lon":139.7236661},{"name":"五反田駅(東急)","province":"東京都","city":"品川区","address":"東京都品川区東五反田2-1-1","lat":35.625404,"lon":139.7242969},{"name":"目黒駅(東急)","province":"東京都","city":"品川区","address":"東京都品川区上大崎4-2-1","lat":35.633395,"lon":139.715439},{"name":"大井町駅(ＪＲ)","province":"東京都","city":"品川区","address":"東京都品川区大井1-2-12","lat":35.606221,"lon":139.734833},{"name":"目黒駅(ＪＲ)","province":"東京都","city":"品川区","address":"東京都品川区上大崎2-16-9","lat":35.634114,"lon":139.715767},{"name":"都営バス「品川自動車営業所」","province":"東京都","city":"品川区","address":"東京都品川区北品川1-5-12","lat":35.623274,"lon":139.740748},{"name":"都営バス「品川自動車営業所目黒支所」","province":"東京都","city":"品川区","address":"東京都品川区上大崎3-1-2","lat":35.632837,"lon":139.716783},{"name":"東急バス「荏原営業所」","province":"東京都","city":"品川区","address":"東京都品川区二葉4-27-1","lat":35.602427,"lon":139.713326},{"name":"西大井駅(JR横須賀線)","province":"東京都","city":"品川区","address":"東京都品川区","lat":35.602127,"lon":139.7219446},{"name":"大森駅(JR京浜東北線)","province":"東京都","city":"品川区","address":"東京都品川区","lat":35.5889869,"lon":139.7281534},{"name":"天王洲アイル駅（東京モノレール）","province":"東京都","city":"品川区","address":"東京都品川区東品川2-3-8","lat":35.6231178,"lon":139.7503428},{"name":"大井警察署八潮団地交番","province":"東京都","city":"品川区","address":"東京都品川区八潮5-5-5","lat":35.5988304,"lon":139.7508339},{"name":"東京法務局品川出張所(登記所)","province":"東京都","city":"品川区","address":"東京都品川区広町2-1-36品川区総合庁舎","lat":35.6090951,"lon":139.7302296,"備考":"品川区広町2-1-36品川区総合庁舎1階","経度":"139.7302296","緯度":"35.6090951"},{"name":"大井町駅(JR)","province":"東京都","city":"品川区","address":"東京都品川区大井1-2-12","lat":35.606221,"lon":139.734833,"備考":"東京都品川区大井1-2-12","経度":"139.734833","緯度":"35.606221"},{"name":"目黒駅(JR)","province":"東京都","city":"品川区","address":"東京都品川区上大崎2-16-9","lat":35.634114,"lon":139.715767,"備考":"東京都品川区上大崎2-16-9","経度":"139.715767","緯度":"35.634114"},{"name":"都立城南職業能力開発センター","province":"東京都","city":"品川区","address":"東京都品川区東品川3-31-16","lat":35.6119765,"lon":139.7497704,"備考":"東品川3-31-16\n電話 3472-3411","経度":"139.7497704","緯度":"35.6119765"},{"name":"品川区保健所","province":"東京都","city":"品川区","address":"品川区広町2-1-36","lat":35.608836,"lon":139.730241},{"name":"品川保健センター","province":"東京都","city":"品川区","address":"品川区北品川3-11-22","lat":35.616586,"lon":139.740732},{"name":"大井保健センター","province":"東京都","city":"品川区","address":"品川区大井2-27-20","lat":35.604084,"lon":139.730375},{"name":"荏原保健センター","province":"東京都","city":"品川区","address":"品川区荏原2-9-6","lat":35.617185,"lon":139.711504},{"name":"品川区保健所","province":"東京都","city":"品川区","address":"東京都品川区広町2丁目1-36","lat":35.60881128,"lon":139.73028866},{"name":"品川保健センター","province":"東京都","city":"品川区","address":"東京都品川区北品川3丁目11-22","lat":35.61658571,"lon":139.74073199},{"name":"大井保健センター","province":"東京都","city":"品川区","address":"東京都品川区大井2丁目27-20","lat":35.60406184,"lon":139.73038047},{"name":"荏原保健センター","province":"東京都","city":"品川区","address":"東京都品川区西五反田6丁目6-6","lat":35.62309266,"lon":139.71741427},{"name":"品川区保健所","province":"東京都","city":"品川区","address":"品川区広町2-1-36","lat":35.6083,"lon":139.73096},{"name":"品川保健センター","province":"東京都","city":"品川区","address":"品川区北品川3-11-22","lat":35.61644,"lon":139.73927},{"name":"大井保健センター","province":"東京都","city":"品川区","address":"品川区大井2-27-20","lat":35.60418,"lon":139.73032},{"name":"荏原保健センター","province":"東京都","city":"品川区","address":"品川区西五反田6-6-6","lat":35.62268,"lon":139.71748},{"name":"荏原保健センター","province":"東京都","city":"品川区","address":"品川区荏原2-9-6","lat":35.61701,"lon":139.71111},{"name":"荏原消防署","province":"東京都","city":"品川区","address":"東京都品川区平塚3丁目16-20","lat":35.6144967,"lon":139.7105109},{"name":"品川消防署","province":"東京都","city":"品川区","address":"東京都品川区北品川3丁目7-31","lat":35.6170878,"lon":139.7397523},{"name":"大井警察署","province":"東京都","city":"品川区","address":"東京都品川区大井5丁目10-2","lat":35.5989109,"lon":139.7298653},{"name":"荏原警察署","province":"東京都","city":"品川区","address":"東京都品川区荏原6丁目19-10","lat":35.6120395,"lon":139.7062371},{"name":"品川警察署","province":"東京都","city":"品川区","address":"東京都品川区東品川3丁目14","lat":35.6138397,"lon":139.7450501},{"name":"大崎警察署","province":"東京都","city":"品川区","address":"東京都品川区大崎4丁目2-10","lat":35.6217168,"lon":139.7241446},{"name":"(株)共益商会  大森営業所","province":"東京都","city":"品川区","address":"品川区南大井6-8-1","lat":35.591969,"lon":139.733063},{"name":"(有)後藤商店","province":"東京都","city":"品川区","address":"品川区西五反田5-30-16","lat":35.622742,"lon":139.713181},{"name":"(有)鈴木紙業","province":"東京都","city":"品川区","address":"品川区南品川4-8-4","lat":35.612625,"lon":139.736069},{"name":"(有)スリーシープランニング","province":"東京都","city":"品川区","address":"品川区南品川3-6-31","lat":35.608429,"lon":139.744705},{"name":"川村金属(株)","province":"東京都","city":"品川区","address":"品川区荏原4-8-8","lat":35.615547,"lon":139.706345},{"name":"品川区選挙管理委員会","province":"東京都","city":"品川区","address":"品川区広町2-1-36品川区防災センター・第2庁舎","lat":35.609177,"lon":139.730167},{"name":"品川都税事務所","province":"東京都","city":"品川区","address":"東京都品川区広町2-1-36","lat":35.6089834,"lon":139.7302954},{"name":"鮫洲運転免許試験場","province":"東京都","city":"品川区","address":"東京都品川区東大井1-12-5","lat":35.6033213,"lon":139.7464659},{"name":"品川児童相談所","province":"東京都","city":"品川区","address":"東京都品川区北品川3-7-21","lat":35.6175581,"lon":139.7404569},{"name":"品川警察署","province":"東京都","city":"品川区","address":"東京都品川区東品川3-14-32","lat":35.6139521,"lon":139.7454043},{"name":"大崎警察署","province":"東京都","city":"品川区","address":"東京都品川区大崎4-2-10","lat":35.6217304,"lon":139.7241517},{"name":"大井警察署","province":"東京都","city":"品川区","address":"東京都品川区大井5-10-2","lat":35.5987968,"lon":139.7298873},{"name":"荏原警察署","province":"東京都","city":"品川区","address":"東京都品川区荏原6-19-10","lat":35.6120733,"lon":139.7061891},{"name":"東京水上警察署","province":"東京都","city":"品川区","address":"東京都品川区港区港南5-8-36","lat":35.6323499,"lon":139.7550883},{"name":"品川消防署","province":"東京都","city":"品川区","address":"東京都品川区北品川3-7-31","lat":35.6171422,"lon":139.7398073},{"name":"品川消防署東品川出張所","province":"東京都","city":"品川区","address":"東京都品川区東品川3-25-11","lat":35.6128705,"lon":139.7473344},{"name":"品川消防署大崎出張所","province":"東京都","city":"品川区","address":"東京都品川区大崎2-8-27","lat":35.6133836,"lon":139.731659},{"name":"品川消防署五反田出張所","province":"東京都","city":"品川区","address":"東京都品川区西五反田7-25-14","lat":35.6200165,"lon":139.7187382},{"name":"大井消防署","province":"東京都","city":"品川区","address":"東京都品川区東大井3-6-12","lat":35.6034742,"lon":139.7401437},{"name":"大井消防署滝王子出張所","province":"東京都","city":"品川区","address":"東京都品川区大井5-17-9","lat":35.5983307,"lon":139.7281165},{"name":"大井消防署八潮出張所","province":"東京都","city":"品川区","address":"東京都品川区八潮5-8-3","lat":35.5971201,"lon":139.7515991},{"name":"荏原消防署","province":"東京都","city":"品川区","address":"東京都品川区平塚3-16-20","lat":35.6148569,"lon":139.7105344},{"name":"荏原消防署戸越出張所","province":"東京都","city":"品川区","address":"東京都品川区戸越5-20-15","lat":35.6083098,"lon":139.7187484},{"name":"荏原消防署小山出張所","province":"東京都","city":"品川区","address":"東京都品川区小山5-12-11","lat":35.6160664,"lon":139.7022552},{"name":"荏原消防署旗の台出張所","province":"東京都","city":"品川区","address":"東京都品川区旗の台6-24-11","lat":35.60578,"lon":139.7000222},{"name":"品川税務署","province":"東京都","city":"品川区","address":"東京都品川区港区高輪3-13-22","lat":35.6296746,"lon":139.734836},{"name":"荏原税務署","province":"東京都","city":"品川区","address":"東京都品川区中延1-1-5","lat":35.613837,"lon":139.7097508},{"name":"品川自動車税事務所","province":"東京都","city":"品川区","address":"東京都品川区東大井1-12-18","lat":35.60493,"lon":139.7473986},{"name":"関東運輸局東京陸運支局","province":"東京都","city":"品川区","address":"東京都品川区東大井1-12-17","lat":35.6046993,"lon":139.7469919},{"name":"品川郵便局","province":"東京都","city":"品川区","address":"東京都品川区東大井5-23-34","lat":35.6050717,"lon":139.7361881},{"name":"大崎郵便局","province":"東京都","city":"品川区","address":"東京都品川区西五反田2-32-7","lat":35.6252595,"lon":139.7189457},{"name":"荏原郵便局","province":"東京都","city":"品川区","address":"東京都品川区西中延1-7-23","lat":35.612713,"lon":139.7073544},{"name":"水道局品川営業所","province":"東京都","city":"品川区","address":"東京都品川区西中延1-9-10","lat":35.6116016,"lon":139.7078304},{"name":"下水道局南部下水道事務所品川出張所","province":"東京都","city":"品川区","address":"東京都品川区西品川1-8-1","lat":35.6129282,"lon":139.7301521},{"name":"品川年金事務所","province":"東京都","city":"品川区","address":"東京都品川区大崎5-1-5高徳ビル","lat":35.6236396,"lon":139.7248636},{"name":"品川労働基準監督署","province":"東京都","city":"品川区","address":"東京都品川区東五反田2-6-17","lat":35.6296077,"lon":139.7190353},{"name":"東京法務局品川出張所（登記所）","province":"東京都","city":"品川区","address":"東京都品川区広町2-1-36品川区総合庁舎","lat":35.6090951,"lon":139.7302296},{"name":"五反田公証役場","province":"東京都","city":"品川区","address":"東京都品川区東五反田5-27-6","lat":35.6270162,"lon":139.7234544},{"name":"目黒公証役場","province":"東京都","city":"品川区","address":"東京都品川区上大崎2-17-5","lat":35.6355392,"lon":139.7150243},{"name":"大森公証役場","province":"東京都","city":"品川区","address":"東京都品川区南大井6-12-12","lat":35.5871233,"lon":139.7301537},{"name":"五反田駅","province":"東京都","city":"品川区","address":"東京都品川区東五反田1丁目26-2","lat":35.6260453,"lon":139.7235869},{"name":"大崎駅","province":"東京都","city":"品川区","address":"東京都品川区大崎1丁目21-4","lat":35.6190999,"lon":139.7285802},{"name":"大井町駅","province":"東京都","city":"品川区","address":"東京都品川区大井1丁目2-12","lat":35.607536,"lon":139.7349666},{"name":"西大井町駅","province":"東京都","city":"品川区","address":"東京都品川区西大井1丁目3-2","lat":35.601478,"lon":139.721434},{"name":"不動前駅","province":"東京都","city":"品川区","address":"東京都品川区西五反田5丁目12-1","lat":35.6254279,"lon":139.7132457},{"name":"武蔵小山駅","province":"東京都","city":"品川区","address":"東京都品川区小山3丁目4-8","lat":35.6206461,"lon":139.7047325},{"name":"大崎広小路駅","province":"東京都","city":"品川区","address":"東京都品川区大崎4丁目1-1","lat":35.6224256,"lon":139.722493},{"name":"荏原中延駅","province":"東京都","city":"品川区","address":"東京都品川区中延2丁目8-1","lat":35.6098891,"lon":139.7119465},{"name":"旗の台駅","province":"東京都","city":"品川区","address":"東京都品川区旗の台2丁目13-1","lat":35.604834,"lon":139.7027961},{"name":"下神明駅","province":"東京都","city":"品川区","address":"東京都品川区西品川1丁目29-6","lat":35.6087526,"lon":139.7264653},{"name":"戸越公園駅","province":"東京都","city":"品川区","address":"東京都品川区戸越5丁目10-15","lat":35.6089987,"lon":139.7184968},{"name":"東急中延駅","province":"東京都","city":"品川区","address":"東京都品川区東中延2丁目9-12","lat":35.6057842,"lon":139.7126428},{"name":"北品川駅","province":"東京都","city":"品川区","address":"東京都品川区北品川1丁目1-4","lat":35.6225433,"lon":139.7392315},{"name":"新馬場駅","province":"東京都","city":"品川区","address":"東京都品川区北品川2丁目18-1","lat":35.6170364,"lon":139.7414247},{"name":"青物横丁駅","province":"東京都","city":"品川区","address":"東京都品川区南品川3丁目1-20","lat":35.6090709,"lon":139.7431279},{"name":"鮫洲駅","province":"東京都","city":"品川区","address":"東京都品川区東大井1丁目2-20","lat":35.6051498,"lon":139.7424961},{"name":"立会川駅","province":"東京都","city":"品川区","address":"東京都品川区東大井2丁目23-1","lat":35.5986501,"lon":139.7389746},{"name":"大森海岸駅","province":"東京都","city":"品川区","address":"東京都品川区南大井3丁目32-1","lat":35.5874923,"lon":139.7352991},{"name":"戸越駅","province":"東京都","city":"品川区","address":"東京都品川区戸越3丁目4-17","lat":35.6143511,"lon":139.716256},{"name":"都営中延駅","province":"東京都","city":"品川区","address":"東京都品川区東中延2丁目9-12","lat":35.6055999,"lon":139.7135855},{"name":"天王洲アイル駅（りんかい線）","province":"東京都","city":"品川区","address":"東京都品川区東品川2-5-8","lat":35.6216148,"lon":139.7508566},{"name":"品川シーサイド駅","province":"東京都","city":"品川区","address":"東京都品川区東品川4丁目12","lat":35.6103127,"lon":139.7498309},{"name":"大井競馬場前駅","province":"東京都","city":"品川区","address":"東京都品川区勝島2丁目2","lat":35.5949348,"lon":139.7471756},{"name":"荏原町駅","province":"東京都","city":"品川区","address":"東京都品川区中延5-2-1","lat":35.6039899,"lon":139.7076062},{"name":"西小山駅","province":"東京都","city":"品川区","address":"東京都品川区小山6-3-9","lat":35.6158275,"lon":139.6989315},{"name":"戸越銀座駅","province":"東京都","city":"品川区","address":"東京都品川区平塚2-16-1","lat":35.6158834,"lon":139.7148438},{"name":"都営浅草線五反田駅「定期券販売所」","province":"東京都","city":"品川区","address":"東京都品川区東五反田1-26-2","lat":35.626418,"lon":139.7236661},{"name":"五反田駅(東急)","province":"東京都","city":"品川区","address":"東京都品川区東五反田2-1-1","lat":35.625404,"lon":139.7242969},{"name":"目黒駅(東急)","province":"東京都","city":"品川区","address":"東京都品川区上大崎4-2-1","lat":35.633395,"lon":139.715439},{"name":"大井町駅(ＪＲ)","province":"東京都","city":"品川区","address":"東京都品川区大井1-2-12","lat":35.606221,"lon":139.734833},{"name":"目黒駅(ＪＲ)","province":"東京都","city":"品川区","address":"東京都品川区上大崎2-16-9","lat":35.634114,"lon":139.715767},{"name":"都営バス「品川自動車営業所」","province":"東京都","city":"品川区","address":"東京都品川区北品川1-5-12","lat":35.623274,"lon":139.740748},{"name":"都営バス「品川自動車営業所目黒支所」","province":"東京都","city":"品川区","address":"東京都品川区上大崎3-1-2","lat":35.632837,"lon":139.716783},{"name":"東急バス「荏原営業所」","province":"東京都","city":"品川区","address":"東京都品川区二葉4-27-1","lat":35.602427,"lon":139.713326},{"name":"西大井駅(JR横須賀線)","province":"東京都","city":"品川区","address":"東京都品川区","lat":35.602127,"lon":139.7219446},{"name":"大森駅(JR京浜東北線)","province":"東京都","city":"品川区","address":"東京都品川区","lat":35.5889869,"lon":139.7281534},{"name":"天王洲アイル駅（東京モノレール）","province":"東京都","city":"品川区","address":"東京都品川区東品川2-3-8","lat":35.6231178,"lon":139.7503428},{"name":"大井警察署八潮団地交番","province":"東京都","city":"品川区","address":"東京都品川区八潮5-5-5","lat":35.5988304,"lon":139.7508339},{"name":"東京法務局品川出張所(登記所)","province":"東京都","city":"品川区","address":"東京都品川区広町2-1-36品川区総合庁舎","lat":35.6090951,"lon":139.7302296,"備考":"品川区広町2-1-36品川区総合庁舎1階","経度":"139.7302296","緯度":"35.6090951"},{"name":"大井町駅(JR)","province":"東京都","city":"品川区","address":"東京都品川区大井1-2-12","lat":35.606221,"lon":139.734833,"備考":"東京都品川区大井1-2-12","経度":"139.734833","緯度":"35.606221"},{"name":"目黒駅(JR)","province":"東京都","city":"品川区","address":"東京都品川区上大崎2-16-9","lat":35.634114,"lon":139.715767,"備考":"東京都品川区上大崎2-16-9","経度":"139.715767","緯度":"35.634114"},{"name":"都立城南職業能力開発センター","province":"東京都","city":"品川区","address":"東京都品川区東品川3-31-16","lat":35.6119765,"lon":139.7497704,"備考":"東品川3-31-16\n電話 3472-3411","経度":"139.7497704","緯度":"35.6119765"},{"name":"品川区保健所","province":"東京都","city":"品川区","address":"品川区広町2-1-36","lat":35.608836,"lon":139.730241},{"name":"品川保健センター","province":"東京都","city":"品川区","address":"品川区北品川3-11-22","lat":35.616586,"lon":139.740732},{"name":"大井保健センター","province":"東京都","city":"品川区","address":"品川区大井2-27-20","lat":35.604084,"lon":139.730375},{"name":"荏原保健センター","province":"東京都","city":"品川区","address":"品川区荏原2-9-6","lat":35.617185,"lon":139.711504},{"name":"品川区保健所","province":"東京都","city":"品川区","address":"東京都品川区広町2丁目1-36","lat":35.60881128,"lon":139.73028866},{"name":"品川保健センター","province":"東京都","city":"品川区","address":"東京都品川区北品川3丁目11-22","lat":35.61658571,"lon":139.74073199},{"name":"大井保健センター","province":"東京都","city":"品川区","address":"東京都品川区大井2丁目27-20","lat":35.60406184,"lon":139.73038047},{"name":"荏原保健センター","province":"東京都","city":"品川区","address":"東京都品川区西五反田6丁目6-6","lat":35.62309266,"lon":139.71741427},{"name":"品川区保健所","province":"東京都","city":"品川区","address":"品川区広町2-1-36","lat":35.6083,"lon":139.73096},{"name":"品川保健センター","province":"東京都","city":"品川区","address":"品川区北品川3-11-22","lat":35.61644,"lon":139.73927},{"name":"大井保健センター","province":"東京都","city":"品川区","address":"品川区大井2-27-20","lat":35.60418,"lon":139.73032},{"name":"荏原保健センター","province":"東京都","city":"品川区","address":"品川区西五反田6-6-6","lat":35.62268,"lon":139.71748},{"name":"荏原保健センター","province":"東京都","city":"品川区","address":"品川区荏原2-9-6","lat":35.61701,"lon":139.71111},{"name":"荏原消防署","province":"東京都","city":"品川区","address":"東京都品川区平塚3丁目16-20","lat":35.6144967,"lon":139.7105109},{"name":"品川消防署","province":"東京都","city":"品川区","address":"東京都品川区北品川3丁目7-31","lat":35.6170878,"lon":139.7397523},{"name":"大井警察署","province":"東京都","city":"品川区","address":"東京都品川区大井5丁目10-2","lat":35.5989109,"lon":139.7298653},{"name":"荏原警察署","province":"東京都","city":"品川区","address":"東京都品川区荏原6丁目19-10","lat":35.6120395,"lon":139.7062371},{"name":"品川警察署","province":"東京都","city":"品川区","address":"東京都品川区東品川3丁目14","lat":35.6138397,"lon":139.7450501},{"name":"大崎警察署","province":"東京都","city":"品川区","address":"東京都品川区大崎4丁目2-10","lat":35.6217168,"lon":139.7241446},{"name":"品川区選挙管理委員会","province":"東京都","city":"品川区","address":"品川区広町2-1-36品川区防災センター・第2庁舎","lat":35.609177,"lon":139.730167},{"name":"品川区保健所","province":"東京都","city":"品川区","address":"品川区広町2-1-36","lat":35.608836,"lon":139.730241},{"name":"品川保健センター","province":"東京都","city":"品川区","address":"品川区北品川3-11-22","lat":35.616586,"lon":139.740732},{"name":"大井保健センター","province":"東京都","city":"品川区","address":"品川区大井2-27-20","lat":35.604084,"lon":139.730375},{"name":"荏原保健センター","province":"東京都","city":"品川区","address":"品川区荏原2-9-6","lat":35.617185,"lon":139.711504},{"name":"品川区保健所","province":"東京都","city":"品川区","address":"東京都品川区広町2丁目1-36","lat":35.60881128,"lon":139.73028866},{"name":"品川保健センター","province":"東京都","city":"品川区","address":"東京都品川区北品川3丁目11-22","lat":35.61658571,"lon":139.74073199},{"name":"大井保健センター","province":"東京都","city":"品川区","address":"東京都品川区大井2丁目27-20","lat":35.60406184,"lon":139.73038047},{"name":"荏原保健センター","province":"東京都","city":"品川区","address":"東京都品川区西五反田6丁目6-6","lat":35.62309266,"lon":139.71741427},{"name":"品川区保健所","province":"東京都","city":"品川区","address":"品川区広町2-1-36","lat":35.6083,"lon":139.73096},{"name":"品川保健センター","province":"東京都","city":"品川区","address":"品川区北品川3-11-22","lat":35.61644,"lon":139.73927},{"name":"大井保健センター","province":"東京都","city":"品川区","address":"品川区大井2-27-20","lat":35.60418,"lon":139.73032},{"name":"荏原保健センター","province":"東京都","city":"品川区","address":"品川区西五反田6-6-6","lat":35.62268,"lon":139.71748},{"name":"荏原保健センター","province":"東京都","city":"品川区","address":"品川区荏原2-9-6","lat":35.61701,"lon":139.71111},{"name":"荏原消防署","province":"東京都","city":"品川区","address":"東京都品川区平塚3丁目16-20","lat":35.6144967,"lon":139.7105109},{"name":"品川消防署","province":"東京都","city":"品川区","address":"東京都品川区北品川3丁目7-31","lat":35.6170878,"lon":139.7397523},{"name":"大井警察署","province":"東京都","city":"品川区","address":"東京都品川区大井5丁目10-2","lat":35.5989109,"lon":139.7298653},{"name":"荏原警察署","province":"東京都","city":"品川区","address":"東京都品川区荏原6丁目19-10","lat":35.6120395,"lon":139.7062371},{"name":"品川警察署","province":"東京都","city":"品川区","address":"東京都品川区東品川3丁目14","lat":35.6138397,"lon":139.7450501},{"name":"大崎警察署","province":"東京都","city":"品川区","address":"東京都品川区大崎4丁目2-10","lat":35.6217168,"lon":139.7241446},{"name":"品川区選挙管理委員会","province":"東京都","city":"品川区","address":"品川区広町2-1-36品川区防災センター・第2庁舎","lat":35.609177,"lon":139.730167},{"name":"品川区保健所","province":"東京都","city":"品川区","address":"品川区広町2-1-36","lat":35.608836,"lon":139.730241},{"name":"品川保健センター","province":"東京都","city":"品川区","address":"品川区北品川3-11-22","lat":35.616586,"lon":139.740732},{"name":"大井保健センター","province":"東京都","city":"品川区","address":"品川区大井2-27-20","lat":35.604084,"lon":139.730375},{"name":"荏原保健センター","province":"東京都","city":"品川区","address":"品川区荏原2-9-6","lat":35.617185,"lon":139.711504},{"name":"品川区保健所","province":"東京都","city":"品川区","address":"東京都品川区広町2丁目1-36","lat":35.60881128,"lon":139.73028866},{"name":"品川保健センター","province":"東京都","city":"品川区","address":"東京都品川区北品川3丁目11-22","lat":35.61658571,"lon":139.74073199},{"name":"大井保健センター","province":"東京都","city":"品川区","address":"東京都品川区大井2丁目27-20","lat":35.60406184,"lon":139.73038047},{"name":"荏原保健センター","province":"東京都","city":"品川区","address":"東京都品川区西五反田6丁目6-6","lat":35.62309266,"lon":139.71741427},{"name":"品川区保健所","province":"東京都","city":"品川区","address":"品川区広町2-1-36","lat":35.6083,"lon":139.73096},{"name":"品川保健センター","province":"東京都","city":"品川区","address":"品川区北品川3-11-22","lat":35.61644,"lon":139.73927},{"name":"大井保健センター","province":"東京都","city":"品川区","address":"品川区大井2-27-20","lat":35.60418,"lon":139.73032},{"name":"荏原保健センター","province":"東京都","city":"品川区","address":"品川区西五反田6-6-6","lat":35.62268,"lon":139.71748},{"name":"荏原保健センター","province":"東京都","city":"品川区","address":"品川区荏原2-9-6","lat":35.61701,"lon":139.71111},{"name":"荏原消防署","province":"東京都","city":"品川区","address":"東京都品川区平塚3丁目16-20","lat":35.6144967,"lon":139.7105109},{"name":"品川消防署","province":"東京都","city":"品川区","address":"東京都品川区北品川3丁目7-31","lat":35.6170878,"lon":139.7397523},{"name":"大井警察署","province":"東京都","city":"品川区","address":"東京都品川区大井5丁目10-2","lat":35.5989109,"lon":139.7298653},{"name":"荏原警察署","province":"東京都","city":"品川区","address":"東京都品川区荏原6丁目19-10","lat":35.6120395,"lon":139.7062371},{"name":"品川警察署","province":"東京都","city":"品川区","address":"東京都品川区東品川3丁目14","lat":35.6138397,"lon":139.7450501},{"name":"大崎警察署","province":"東京都","city":"品川区","address":"東京都品川区大崎4丁目2-10","lat":35.6217168,"lon":139.7241446},{"name":"品川区選挙管理委員会","province":"東京都","city":"品川区","address":"品川区広町2-1-36品川区防災センター・第2庁舎","lat":35.609177,"lon":139.730167},{"name":"品川区保健所","province":"東京都","city":"品川区","address":"品川区広町2-1-36","lat":35.608836,"lon":139.730241},{"name":"品川保健センター","province":"東京都","city":"品川区","address":"品川区北品川3-11-22","lat":35.616586,"lon":139.740732},{"name":"大井保健センター","province":"東京都","city":"品川区","address":"品川区大井2-27-20","lat":35.604084,"lon":139.730375},{"name":"荏原保健センター","province":"東京都","city":"品川区","address":"品川区荏原2-9-6","lat":35.617185,"lon":139.711504},{"name":"品川区保健所","province":"東京都","city":"品川区","address":"東京都品川区広町2丁目1-36","lat":35.60881128,"lon":139.73028866},{"name":"品川保健センター","province":"東京都","city":"品川区","address":"東京都品川区北品川3丁目11-22","lat":35.61658571,"lon":139.74073199},{"name":"大井保健センター","province":"東京都","city":"品川区","address":"東京都品川区大井2丁目27-20","lat":35.60406184,"lon":139.73038047},{"name":"荏原保健センター","province":"東京都","city":"品川区","address":"東京都品川区西五反田6丁目6-6","lat":35.62309266,"lon":139.71741427},{"name":"品川区保健所","province":"東京都","city":"品川区","address":"品川区広町2-1-36","lat":35.6083,"lon":139.73096},{"name":"品川保健センター","province":"東京都","city":"品川区","address":"品川区北品川3-11-22","lat":35.61644,"lon":139.73927},{"name":"大井保健センター","province":"東京都","city":"品川区","address":"品川区大井2-27-20","lat":35.60418,"lon":139.73032},{"name":"荏原保健センター","province":"東京都","city":"品川区","address":"品川区西五反田6-6-6","lat":35.62268,"lon":139.71748},{"name":"荏原保健センター","province":"東京都","city":"品川区","address":"品川区荏原2-9-6","lat":35.61701,"lon":139.71111},{"name":"品川区選挙管理委員会","province":"東京都","city":"品川区","address":"品川区広町2-1-36品川区防災センター・第2庁舎","lat":35.609177,"lon":139.730167},{"name":"品川区保健所","province":"東京都","city":"品川区","address":"品川区広町2-1-36","lat":35.608836,"lon":139.730241},{"name":"品川保健センター","province":"東京都","city":"品川区","address":"品川区北品川3-11-22","lat":35.616586,"lon":139.740732},{"name":"大井保健センター","province":"東京都","city":"品川区","address":"品川区大井2-27-20","lat":35.604084,"lon":139.730375},{"name":"荏原保健センター","province":"東京都","city":"品川区","address":"品川区荏原2-9-6","lat":35.617185,"lon":139.711504},{"name":"品川区保健所","province":"東京都","city":"品川区","address":"東京都品川区広町2丁目1-36","lat":35.60881128,"lon":139.73028866},{"name":"品川保健センター","province":"東京都","city":"品川区","address":"東京都品川区北品川3丁目11-22","lat":35.61658571,"lon":139.74073199},{"name":"大井保健センター","province":"東京都","city":"品川区","address":"東京都品川区大井2丁目27-20","lat":35.60406184,"lon":139.73038047},{"name":"荏原保健センター","province":"東京都","city":"品川区","address":"東京都品川区西五反田6丁目6-6","lat":35.62309266,"lon":139.71741427},{"name":"品川区保健所","province":"東京都","city":"品川区","address":"品川区広町2-1-36","lat":35.6083,"lon":139.73096},{"name":"品川保健センター","province":"東京都","city":"品川区","address":"品川区北品川3-11-22","lat":35.61644,"lon":139.73927},{"name":"大井保健センター","province":"東京都","city":"品川区","address":"品川区大井2-27-20","lat":35.60418,"lon":139.73032},{"name":"荏原保健センター","province":"東京都","city":"品川区","address":"品川区西五反田6-6-6","lat":35.62268,"lon":139.71748},{"name":"荏原保健センター","province":"東京都","city":"品川区","address":"品川区荏原2-9-6","lat":35.61701,"lon":139.71111},{"name":"品川区選挙管理委員会","province":"東京都","city":"品川区","address":"品川区広町2-1-36品川区防災センター・第2庁舎","lat":35.609177,"lon":139.730167},{"name":"品川区保健所","province":"東京都","city":"品川区","address":"品川区広町2-1-36","lat":35.608836,"lon":139.730241},{"name":"品川保健センター","province":"東京都","city":"品川区","address":"品川区北品川3-11-22","lat":35.616586,"lon":139.740732},{"name":"大井保健センター","province":"東京都","city":"品川区","address":"品川区大井2-27-20","lat":35.604084,"lon":139.730375},{"name":"荏原保健センター","province":"東京都","city":"品川区","address":"品川区荏原2-9-6","lat":35.617185,"lon":139.711504},{"name":"品川区保健所","province":"東京都","city":"品川区","address":"東京都品川区広町2丁目1-36","lat":35.60881128,"lon":139.73028866},{"name":"品川保健センター","province":"東京都","city":"品川区","address":"東京都品川区北品川3丁目11-22","lat":35.61658571,"lon":139.74073199},{"name":"大井保健センター","province":"東京都","city":"品川区","address":"東京都品川区大井2丁目27-20","lat":35.60406184,"lon":139.73038047},{"name":"荏原保健センター","province":"東京都","city":"品川区","address":"東京都品川区西五反田6丁目6-6","lat":35.62309266,"lon":139.71741427},{"name":"品川区保健所","province":"東京都","city":"品川区","address":"品川区広町2-1-36","lat":35.6083,"lon":139.73096},{"name":"品川保健センター","province":"東京都","city":"品川区","address":"品川区北品川3-11-22","lat":35.61644,"lon":139.73927},{"name":"大井保健センター","province":"東京都","city":"品川区","address":"品川区大井2-27-20","lat":35.60418,"lon":139.73032},{"name":"荏原保健センター","province":"東京都","city":"品川区","address":"品川区西五反田6-6-6","lat":35.62268,"lon":139.71748},{"name":"荏原保健センター","province":"東京都","city":"品川区","address":"品川区荏原2-9-6","lat":35.61701,"lon":139.71111},{"name":"品川区選挙管理委員会","province":"東京都","city":"品川区","address":"品川区広町2-1-36品川区防災センター・第2庁舎","lat":35.609177,"lon":139.730167},{"name":"品川区保健所","province":"東京都","city":"品川区","address":"品川区広町2-1-36","lat":35.608836,"lon":139.730241},{"name":"品川保健センター","province":"東京都","city":"品川区","address":"品川区北品川3-11-22","lat":35.616586,"lon":139.740732},{"name":"大井保健センター","province":"東京都","city":"品川区","address":"品川区大井2-27-20","lat":35.604084,"lon":139.730375},{"name":"荏原保健センター","province":"東京都","city":"品川区","address":"品川区荏原2-9-6","lat":35.617185,"lon":139.711504},{"name":"品川区保健所","province":"東京都","city":"品川区","address":"東京都品川区広町2丁目1-36","lat":35.60881128,"lon":139.73028866},{"name":"品川保健センター","province":"東京都","city":"品川区","address":"東京都品川区北品川3丁目11-22","lat":35.61658571,"lon":139.74073199},{"name":"大井保健センター","province":"東京都","city":"品川区","address":"東京都品川区大井2丁目27-20","lat":35.60406184,"lon":139.73038047},{"name":"荏原保健センター","province":"東京都","city":"品川区","address":"東京都品川区西五反田6丁目6-6","lat":35.62309266,"lon":139.71741427},{"name":"品川区保健所","province":"東京都","city":"品川区","address":"品川区広町2-1-36","lat":35.6083,"lon":139.73096},{"name":"品川保健センター","province":"東京都","city":"品川区","address":"品川区北品川3-11-22","lat":35.61644,"lon":139.73927},{"name":"大井保健センター","province":"東京都","city":"品川区","address":"品川区大井2-27-20","lat":35.60418,"lon":139.73032},{"name":"荏原保健センター","province":"東京都","city":"品川区","address":"品川区西五反田6-6-6","lat":35.62268,"lon":139.71748},{"name":"荏原保健センター","province":"東京都","city":"品川区","address":"品川区荏原2-9-6","lat":35.61701,"lon":139.71111},{"name":"品川区選挙管理委員会","province":"東京都","city":"品川区","address":"品川区広町2-1-36品川区防災センター・第2庁舎","lat":35.609177,"lon":139.730167},{"name":"品川区保健所","province":"東京都","city":"品川区","address":"品川区広町2-1-36","lat":35.608836,"lon":139.730241},{"name":"品川保健センター","province":"東京都","city":"品川区","address":"品川区北品川3-11-22","lat":35.616586,"lon":139.740732},{"name":"大井保健センター","province":"東京都","city":"品川区","address":"品川区大井2-27-20","lat":35.604084,"lon":139.730375},{"name":"荏原保健センター","province":"東京都","city":"品川区","address":"品川区荏原2-9-6","lat":35.617185,"lon":139.711504},{"name":"品川区保健所","province":"東京都","city":"品川区","address":"東京都品川区広町2丁目1-36","lat":35.60881128,"lon":139.73028866},{"name":"品川保健センター","province":"東京都","city":"品川区","address":"東京都品川区北品川3丁目11-22","lat":35.61658571,"lon":139.74073199},{"name":"大井保健センター","province":"東京都","city":"品川区","address":"東京都品川区大井2丁目27-20","lat":35.60406184,"lon":139.73038047},{"name":"荏原保健センター","province":"東京都","city":"品川区","address":"東京都品川区西五反田6丁目6-6","lat":35.62309266,"lon":139.71741427},{"name":"品川区保健所","province":"東京都","city":"品川区","address":"品川区広町2-1-36","lat":35.6083,"lon":139.73096},{"name":"品川保健センター","province":"東京都","city":"品川区","address":"品川区北品川3-11-22","lat":35.61644,"lon":139.73927},{"name":"大井保健センター","province":"東京都","city":"品川区","address":"品川区大井2-27-20","lat":35.60418,"lon":139.73032},{"name":"荏原保健センター","province":"東京都","city":"品川区","address":"品川区西五反田6-6-6","lat":35.62268,"lon":139.71748},{"name":"荏原保健センター","province":"東京都","city":"品川区","address":"品川区荏原2-9-6","lat":35.61701,"lon":139.71111},{"name":"品川区選挙管理委員会","province":"東京都","city":"品川区","address":"品川区広町2-1-36品川区防災センター・第2庁舎","lat":35.609177,"lon":139.730167},{"name":"品川区保健所","province":"東京都","city":"品川区","address":"品川区広町2-1-36","lat":35.608836,"lon":139.730241},{"name":"品川保健センター","province":"東京都","city":"品川区","address":"品川区北品川3-11-22","lat":35.616586,"lon":139.740732},{"name":"大井保健センター","province":"東京都","city":"品川区","address":"品川区大井2-27-20","lat":35.604084,"lon":139.730375},{"name":"荏原保健センター","province":"東京都","city":"品川区","address":"品川区荏原2-9-6","lat":35.617185,"lon":139.711504},{"name":"品川区保健所","province":"東京都","city":"品川区","address":"東京都品川区広町2丁目1-36","lat":35.60881128,"lon":139.73028866},{"name":"品川保健センター","province":"東京都","city":"品川区","address":"東京都品川区北品川3丁目11-22","lat":35.61658571,"lon":139.74073199},{"name":"大井保健センター","province":"東京都","city":"品川区","address":"東京都品川区大井2丁目27-20","lat":35.60406184,"lon":139.73038047},{"name":"荏原保健センター","province":"東京都","city":"品川区","address":"東京都品川区西五反田6丁目6-6","lat":35.62309266,"lon":139.71741427},{"name":"品川区保健所","province":"東京都","city":"品川区","address":"品川区広町2-1-36","lat":35.6083,"lon":139.73096},{"name":"品川保健センター","province":"東京都","city":"品川区","address":"品川区北品川3-11-22","lat":35.61644,"lon":139.73927},{"name":"大井保健センター","province":"東京都","city":"品川区","address":"品川区大井2-27-20","lat":35.60418,"lon":139.73032},{"name":"荏原保健センター","province":"東京都","city":"品川区","address":"品川区西五反田6-6-6","lat":35.62268,"lon":139.71748},{"name":"荏原保健センター","province":"東京都","city":"品川区","address":"品川区荏原2-9-6","lat":35.61701,"lon":139.71111},{"name":"品川区選挙管理委員会","province":"東京都","city":"品川区","address":"品川区広町2-1-36品川区防災センター・第2庁舎","lat":35.609177,"lon":139.730167},{"name":"品川区保健所","province":"東京都","city":"品川区","address":"品川区広町2-1-36","lat":35.608836,"lon":139.730241},{"name":"品川保健センター","province":"東京都","city":"品川区","address":"品川区北品川3-11-22","lat":35.616586,"lon":139.740732},{"name":"大井保健センター","province":"東京都","city":"品川区","address":"品川区大井2-27-20","lat":35.604084,"lon":139.730375},{"name":"荏原保健センター","province":"東京都","city":"品川区","address":"品川区荏原2-9-6","lat":35.617185,"lon":139.711504},{"name":"品川区保健所","province":"東京都","city":"品川区","address":"東京都品川区広町2丁目1-36","lat":35.60881128,"lon":139.73028866},{"name":"品川保健センター","province":"東京都","city":"品川区","address":"東京都品川区北品川3丁目11-22","lat":35.61658571,"lon":139.74073199},{"name":"大井保健センター","province":"東京都","city":"品川区","address":"東京都品川区大井2丁目27-20","lat":35.60406184,"lon":139.73038047},{"name":"荏原保健センター","province":"東京都","city":"品川区","address":"東京都品川区西五反田6丁目6-6","lat":35.62309266,"lon":139.71741427},{"name":"品川区保健所","province":"東京都","city":"品川区","address":"品川区広町2-1-36","lat":35.6083,"lon":139.73096},{"name":"品川保健センター","province":"東京都","city":"品川区","address":"品川区北品川3-11-22","lat":35.61644,"lon":139.73927},{"name":"大井保健センター","province":"東京都","city":"品川区","address":"品川区大井2-27-20","lat":35.60418,"lon":139.73032},{"name":"荏原保健センター","province":"東京都","city":"品川区","address":"品川区西五反田6-6-6","lat":35.62268,"lon":139.71748},{"name":"荏原保健センター","province":"東京都","city":"品川区","address":"品川区荏原2-9-6","lat":35.61701,"lon":139.71111},{"name":"品川区選挙管理委員会","province":"東京都","city":"品川区","address":"品川区広町2-1-36品川区防災センター・第2庁舎","lat":35.609177,"lon":139.730167},{"name":"品川区保健所","province":"東京都","city":"品川区","address":"品川区広町2-1-36","lat":35.608836,"lon":139.730241},{"name":"品川保健センター","province":"東京都","city":"品川区","address":"品川区北品川3-11-22","lat":35.616586,"lon":139.740732},{"name":"大井保健センター","province":"東京都","city":"品川区","address":"品川区大井2-27-20","lat":35.604084,"lon":139.730375},{"name":"荏原保健センター","province":"東京都","city":"品川区","address":"品川区荏原2-9-6","lat":35.617185,"lon":139.711504},{"name":"品川区保健所","province":"東京都","city":"品川区","address":"東京都品川区広町2丁目1-36","lat":35.60881128,"lon":139.73028866},{"name":"品川保健センター","province":"東京都","city":"品川区","address":"東京都品川区北品川3丁目11-22","lat":35.61658571,"lon":139.74073199},{"name":"大井保健センター","province":"東京都","city":"品川区","address":"東京都品川区大井2丁目27-20","lat":35.60406184,"lon":139.73038047},{"name":"荏原保健センター","province":"東京都","city":"品川区","address":"東京都品川区西五反田6丁目6-6","lat":35.62309266,"lon":139.71741427},{"name":"品川区保健所","province":"東京都","city":"品川区","address":"品川区広町2-1-36","lat":35.6083,"lon":139.73096},{"name":"品川保健センター","province":"東京都","city":"品川区","address":"品川区北品川3-11-22","lat":35.61644,"lon":139.73927},{"name":"大井保健センター","province":"東京都","city":"品川区","address":"品川区大井2-27-20","lat":35.60418,"lon":139.73032},{"name":"荏原保健センター","province":"東京都","city":"品川区","address":"品川区西五反田6-6-6","lat":35.62268,"lon":139.71748},{"name":"荏原保健センター","province":"東京都","city":"品川区","address":"品川区荏原2-9-6","lat":35.61701,"lon":139.71111},{"name":"品川区選挙管理委員会","province":"東京都","city":"品川区","address":"品川区広町2-1-36品川区防災センター・第2庁舎","lat":35.609177,"lon":139.730167},{"name":"品川区保健所","province":"東京都","city":"品川区","address":"品川区広町2-1-36","lat":35.608836,"lon":139.730241},{"name":"品川保健センター","province":"東京都","city":"品川区","address":"品川区北品川3-11-22","lat":35.616586,"lon":139.740732},{"name":"大井保健センター","province":"東京都","city":"品川区","address":"品川区大井2-27-20","lat":35.604084,"lon":139.730375},{"name":"荏原保健センター","province":"東京都","city":"品川区","address":"品川区荏原2-9-6","lat":35.617185,"lon":139.711504},{"name":"品川区保健所","province":"東京都","city":"品川区","address":"東京都品川区広町2丁目1-36","lat":35.60881128,"lon":139.73028866},{"name":"品川保健センター","province":"東京都","city":"品川区","address":"東京都品川区北品川3丁目11-22","lat":35.61658571,"lon":139.74073199},{"name":"大井保健センター","province":"東京都","city":"品川区","address":"東京都品川区大井2丁目27-20","lat":35.60406184,"lon":139.73038047},{"name":"荏原保健センター","province":"東京都","city":"品川区","address":"東京都品川区西五反田6丁目6-6","lat":35.62309266,"lon":139.71741427},{"name":"品川区保健所","province":"東京都","city":"品川区","address":"品川区広町2-1-36","lat":35.6083,"lon":139.73096},{"name":"品川保健センター","province":"東京都","city":"品川区","address":"品川区北品川3-11-22","lat":35.61644,"lon":139.73927},{"name":"大井保健センター","province":"東京都","city":"品川区","address":"品川区大井2-27-20","lat":35.60418,"lon":139.73032},{"name":"荏原保健センター","province":"東京都","city":"品川区","address":"品川区西五反田6-6-6","lat":35.62268,"lon":139.71748},{"name":"荏原保健センター","province":"東京都","city":"品川区","address":"品川区荏原2-9-6","lat":35.61701,"lon":139.71111},{"name":"品川区選挙管理委員会","province":"東京都","city":"品川区","address":"品川区広町2-1-36品川区防災センター・第2庁舎","lat":35.609177,"lon":139.730167},{"name":"品川区保健所","province":"東京都","city":"品川区","address":"品川区広町2-1-36","lat":35.608836,"lon":139.730241},{"name":"品川保健センター","province":"東京都","city":"品川区","address":"品川区北品川3-11-22","lat":35.616586,"lon":139.740732},{"name":"大井保健センター","province":"東京都","city":"品川区","address":"品川区大井2-27-20","lat":35.604084,"lon":139.730375},{"name":"荏原保健センター","province":"東京都","city":"品川区","address":"品川区荏原2-9-6","lat":35.617185,"lon":139.711504},{"name":"品川区保健所","province":"東京都","city":"品川区","address":"東京都品川区広町2丁目1-36","lat":35.60881128,"lon":139.73028866},{"name":"品川保健センター","province":"東京都","city":"品川区","address":"東京都品川区北品川3丁目11-22","lat":35.61658571,"lon":139.74073199},{"name":"大井保健センター","province":"東京都","city":"品川区","address":"東京都品川区大井2丁目27-20","lat":35.60406184,"lon":139.73038047},{"name":"荏原保健センター","province":"東京都","city":"品川区","address":"東京都品川区西五反田6丁目6-6","lat":35.62309266,"lon":139.71741427},{"name":"品川区保健所","province":"東京都","city":"品川区","address":"品川区広町2-1-36","lat":35.6083,"lon":139.73096},{"name":"品川保健センター","province":"東京都","city":"品川区","address":"品川区北品川3-11-22","lat":35.61644,"lon":139.73927},{"name":"大井保健センター","province":"東京都","city":"品川区","address":"品川区大井2-27-20","lat":35.60418,"lon":139.73032},{"name":"荏原保健センター","province":"東京都","city":"品川区","address":"品川区西五反田6-6-6","lat":35.62268,"lon":139.71748},{"name":"荏原保健センター","province":"東京都","city":"品川区","address":"品川区荏原2-9-6","lat":35.61701,"lon":139.71111},{"name":"品川区選挙管理委員会","province":"東京都","city":"品川区","address":"品川区広町2-1-36品川区防災センター・第2庁舎","lat":35.609177,"lon":139.730167},{"name":"品川区保健所","province":"東京都","city":"品川区","address":"品川区広町2-1-36","lat":35.608836,"lon":139.730241},{"name":"品川保健センター","province":"東京都","city":"品川区","address":"品川区北品川3-11-22","lat":35.616586,"lon":139.740732},{"name":"大井保健センター","province":"東京都","city":"品川区","address":"品川区大井2-27-20","lat":35.604084,"lon":139.730375},{"name":"荏原保健センター","province":"東京都","city":"品川区","address":"品川区荏原2-9-6","lat":35.617185,"lon":139.711504},{"name":"品川区保健所","province":"東京都","city":"品川区","address":"東京都品川区広町2丁目1-36","lat":35.60881128,"lon":139.73028866},{"name":"品川保健センター","province":"東京都","city":"品川区","address":"東京都品川区北品川3丁目11-22","lat":35.61658571,"lon":139.74073199},{"name":"大井保健センター","province":"東京都","city":"品川区","address":"東京都品川区大井2丁目27-20","lat":35.60406184,"lon":139.73038047},{"name":"荏原保健センター","province":"東京都","city":"品川区","address":"東京都品川区西五反田6丁目6-6","lat":35.62309266,"lon":139.71741427},{"name":"品川区保健所","province":"東京都","city":"品川区","address":"品川区広町2-1-36","lat":35.6083,"lon":139.73096},{"name":"品川保健センター","province":"東京都","city":"品川区","address":"品川区北品川3-11-22","lat":35.61644,"lon":139.73927},{"name":"大井保健センター","province":"東京都","city":"品川区","address":"品川区大井2-27-20","lat":35.60418,"lon":139.73032},{"name":"荏原保健センター","province":"東京都","city":"品川区","address":"品川区西五反田6-6-6","lat":35.62268,"lon":139.71748},{"name":"荏原保健センター","province":"東京都","city":"品川区","address":"品川区荏原2-9-6","lat":35.61701,"lon":139.71111},{"name":"品川区選挙管理委員会","province":"東京都","city":"品川区","address":"品川区広町2-1-36品川区防災センター・第2庁舎","lat":35.609177,"lon":139.730167},{"name":"品川区保健所","province":"東京都","city":"品川区","address":"品川区広町2-1-36","lat":35.608836,"lon":139.730241},{"name":"品川保健センター","province":"東京都","city":"品川区","address":"品川区北品川3-11-22","lat":35.616586,"lon":139.740732},{"name":"大井保健センター","province":"東京都","city":"品川区","address":"品川区大井2-27-20","lat":35.604084,"lon":139.730375},{"name":"荏原保健センター","province":"東京都","city":"品川区","address":"品川区荏原2-9-6","lat":35.617185,"lon":139.711504},{"name":"品川区保健所","province":"東京都","city":"品川区","address":"東京都品川区広町2丁目1-36","lat":35.60881128,"lon":139.73028866},{"name":"品川保健センター","province":"東京都","city":"品川区","address":"東京都品川区北品川3丁目11-22","lat":35.61658571,"lon":139.74073199},{"name":"大井保健センター","province":"東京都","city":"品川区","address":"東京都品川区大井2丁目27-20","lat":35.60406184,"lon":139.73038047},{"name":"荏原保健センター","province":"東京都","city":"品川区","address":"東京都品川区西五反田6丁目6-6","lat":35.62309266,"lon":139.71741427},{"name":"品川区保健所","province":"東京都","city":"品川区","address":"品川区広町2-1-36","lat":35.6083,"lon":139.73096},{"name":"品川保健センター","province":"東京都","city":"品川区","address":"品川区北品川3-11-22","lat":35.61644,"lon":139.73927},{"name":"大井保健センター","province":"東京都","city":"品川区","address":"品川区大井2-27-20","lat":35.60418,"lon":139.73032},{"name":"荏原保健センター","province":"東京都","city":"品川区","address":"品川区西五反田6-6-6","lat":35.62268,"lon":139.71748},{"name":"荏原保健センター","province":"東京都","city":"品川区","address":"品川区荏原2-9-6","lat":35.61701,"lon":139.71111},{"name":"品川区選挙管理委員会","province":"東京都","city":"品川区","address":"品川区広町2-1-36品川区防災センター・第2庁舎","lat":35.609177,"lon":139.730167},{"name":"品川区保健所","province":"東京都","city":"品川区","address":"品川区広町2-1-36","lat":35.608836,"lon":139.730241},{"name":"品川保健センター","province":"東京都","city":"品川区","address":"品川区北品川3-11-22","lat":35.616586,"lon":139.740732},{"name":"大井保健センター","province":"東京都","city":"品川区","address":"品川区大井2-27-20","lat":35.604084,"lon":139.730375},{"name":"荏原保健センター","province":"東京都","city":"品川区","address":"品川区荏原2-9-6","lat":35.617185,"lon":139.711504},{"name":"品川区保健所","province":"東京都","city":"品川区","address":"東京都品川区広町2丁目1-36","lat":35.60881128,"lon":139.73028866},{"name":"品川保健センター","province":"東京都","city":"品川区","address":"東京都品川区北品川3丁目11-22","lat":35.61658571,"lon":139.74073199},{"name":"大井保健センター","province":"東京都","city":"品川区","address":"東京都品川区大井2丁目27-20","lat":35.60406184,"lon":139.73038047},{"name":"荏原保健センター","province":"東京都","city":"品川区","address":"東京都品川区西五反田6丁目6-6","lat":35.62309266,"lon":139.71741427},{"name":"品川区保健所","province":"東京都","city":"品川区","address":"品川区広町2-1-36","lat":35.6083,"lon":139.73096},{"name":"品川保健センター","province":"東京都","city":"品川区","address":"品川区北品川3-11-22","lat":35.61644,"lon":139.73927},{"name":"大井保健センター","province":"東京都","city":"品川区","address":"品川区大井2-27-20","lat":35.60418,"lon":139.73032},{"name":"荏原保健センター","province":"東京都","city":"品川区","address":"品川区西五反田6-6-6","lat":35.62268,"lon":139.71748},{"name":"荏原保健センター","province":"東京都","city":"品川区","address":"品川区荏原2-9-6","lat":35.61701,"lon":139.71111},{"name":"品川区選挙管理委員会","province":"東京都","city":"品川区","address":"品川区広町2-1-36品川区防災センター・第2庁舎","lat":35.609177,"lon":139.730167},{"name":"品川区保健所","province":"東京都","city":"品川区","address":"品川区広町2-1-36","lat":35.608836,"lon":139.730241},{"name":"品川保健センター","province":"東京都","city":"品川区","address":"品川区北品川3-11-22","lat":35.616586,"lon":139.740732},{"name":"大井保健センター","province":"東京都","city":"品川区","address":"品川区大井2-27-20","lat":35.604084,"lon":139.730375},{"name":"荏原保健センター","province":"東京都","city":"品川区","address":"品川区荏原2-9-6","lat":35.617185,"lon":139.711504},{"name":"品川区保健所","province":"東京都","city":"品川区","address":"東京都品川区広町2丁目1-36","lat":35.60881128,"lon":139.73028866},{"name":"品川保健センター","province":"東京都","city":"品川区","address":"東京都品川区北品川3丁目11-22","lat":35.61658571,"lon":139.74073199},{"name":"大井保健センター","province":"東京都","city":"品川区","address":"東京都品川区大井2丁目27-20","lat":35.60406184,"lon":139.73038047},{"name":"荏原保健センター","province":"東京都","city":"品川区","address":"東京都品川区西五反田6丁目6-6","lat":35.62309266,"lon":139.71741427},{"name":"品川区保健所","province":"東京都","city":"品川区","address":"品川区広町2-1-36","lat":35.6083,"lon":139.73096},{"name":"品川保健センター","province":"東京都","city":"品川区","address":"品川区北品川3-11-22","lat":35.61644,"lon":139.73927},{"name":"大井保健センター","province":"東京都","city":"品川区","address":"品川区大井2-27-20","lat":35.60418,"lon":139.73032},{"name":"荏原保健センター","province":"東京都","city":"品川区","address":"品川区西五反田6-6-6","lat":35.62268,"lon":139.71748},{"name":"荏原保健センター","province":"東京都","city":"品川区","address":"品川区荏原2-9-6","lat":35.61701,"lon":139.71111},{"name":"品川区選挙管理委員会","province":"東京都","city":"品川区","address":"品川区広町2-1-36品川区防災センター・第2庁舎","lat":35.609177,"lon":139.730167},{"name":"品川区保健所","province":"東京都","city":"品川区","address":"品川区広町2-1-36","lat":35.608836,"lon":139.730241},{"name":"品川保健センター","province":"東京都","city":"品川区","address":"品川区北品川3-11-22","lat":35.616586,"lon":139.740732},{"name":"大井保健センター","province":"東京都","city":"品川区","address":"品川区大井2-27-20","lat":35.604084,"lon":139.730375},{"name":"荏原保健センター","province":"東京都","city":"品川区","address":"品川区荏原2-9-6","lat":35.617185,"lon":139.711504},{"name":"品川区保健所","province":"東京都","city":"品川区","address":"東京都品川区広町2丁目1-36","lat":35.60881128,"lon":139.73028866},{"name":"品川保健センター","province":"東京都","city":"品川区","address":"東京都品川区北品川3丁目11-22","lat":35.61658571,"lon":139.74073199},{"name":"大井保健センター","province":"東京都","city":"品川区","address":"東京都品川区大井2丁目27-20","lat":35.60406184,"lon":139.73038047},{"name":"荏原保健センター","province":"東京都","city":"品川区","address":"東京都品川区西五反田6丁目6-6","lat":35.62309266,"lon":139.71741427},{"name":"品川区保健所","province":"東京都","city":"品川区","address":"品川区広町2-1-36","lat":35.6083,"lon":139.73096},{"name":"品川保健センター","province":"東京都","city":"品川区","address":"品川区北品川3-11-22","lat":35.61644,"lon":139.73927},{"name":"大井保健センター","province":"東京都","city":"品川区","address":"品川区大井2-27-20","lat":35.60418,"lon":139.73032},{"name":"荏原保健センター","province":"東京都","city":"品川区","address":"品川区西五反田6-6-6","lat":35.62268,"lon":139.71748},{"name":"荏原保健センター","province":"東京都","city":"品川区","address":"品川区荏原2-9-6","lat":35.61701,"lon":139.71111},{"name":"品川区選挙管理委員会","province":"東京都","city":"品川区","address":"品川区広町2-1-36品川区防災センター・第2庁舎","lat":35.609177,"lon":139.730167},{"name":"品川区保健所","province":"東京都","city":"品川区","address":"品川区広町2-1-36","lat":35.608836,"lon":139.730241},{"name":"品川保健センター","province":"東京都","city":"品川区","address":"品川区北品川3-11-22","lat":35.616586,"lon":139.740732},{"name":"大井保健センター","province":"東京都","city":"品川区","address":"品川区大井2-27-20","lat":35.604084,"lon":139.730375},{"name":"荏原保健センター","province":"東京都","city":"品川区","address":"品川区荏原2-9-6","lat":35.617185,"lon":139.711504},{"name":"品川区保健所","province":"東京都","city":"品川区","address":"東京都品川区広町2丁目1-36","lat":35.60881128,"lon":139.73028866},{"name":"品川保健センター","province":"東京都","city":"品川区","address":"東京都品川区北品川3丁目11-22","lat":35.61658571,"lon":139.74073199},{"name":"大井保健センター","province":"東京都","city":"品川区","address":"東京都品川区大井2丁目27-20","lat":35.60406184,"lon":139.73038047},{"name":"荏原保健センター","province":"東京都","city":"品川区","address":"東京都品川区西五反田6丁目6-6","lat":35.62309266,"lon":139.71741427},{"name":"品川区保健所","province":"東京都","city":"品川区","address":"品川区広町2-1-36","lat":35.6083,"lon":139.73096},{"name":"品川保健センター","province":"東京都","city":"品川区","address":"品川区北品川3-11-22","lat":35.61644,"lon":139.73927},{"name":"大井保健センター","province":"東京都","city":"品川区","address":"品川区大井2-27-20","lat":35.60418,"lon":139.73032},{"name":"荏原保健センター","province":"東京都","city":"品川区","address":"品川区西五反田6-6-6","lat":35.62268,"lon":139.71748},{"name":"荏原保健センター","province":"東京都","city":"品川区","address":"品川区荏原2-9-6","lat":35.61701,"lon":139.71111},{"name":"品川区選挙管理委員会","province":"東京都","city":"品川区","address":"品川区広町2-1-36品川区防災センター・第2庁舎","lat":35.609177,"lon":139.730167},{"name":"品川区保健所","province":"東京都","city":"品川区","address":"品川区広町2-1-36","lat":35.608836,"lon":139.730241},{"name":"品川保健センター","province":"東京都","city":"品川区","address":"品川区北品川3-11-22","lat":35.616586,"lon":139.740732},{"name":"大井保健センター","province":"東京都","city":"品川区","address":"品川区大井2-27-20","lat":35.604084,"lon":139.730375},{"name":"荏原保健センター","province":"東京都","city":"品川区","address":"品川区荏原2-9-6","lat":35.617185,"lon":139.711504},{"name":"品川区保健所","province":"東京都","city":"品川区","address":"東京都品川区広町2丁目1-36","lat":35.60881128,"lon":139.73028866},{"name":"品川保健センター","province":"東京都","city":"品川区","address":"東京都品川区北品川3丁目11-22","lat":35.61658571,"lon":139.74073199},{"name":"大井保健センター","province":"東京都","city":"品川区","address":"東京都品川区大井2丁目27-20","lat":35.60406184,"lon":139.73038047},{"name":"荏原保健センター","province":"東京都","city":"品川区","address":"東京都品川区西五反田6丁目6-6","lat":35.62309266,"lon":139.71741427},{"name":"品川区保健所","province":"東京都","city":"品川区","address":"品川区広町2-1-36","lat":35.6083,"lon":139.73096},{"name":"品川保健センター","province":"東京都","city":"品川区","address":"品川区北品川3-11-22","lat":35.61644,"lon":139.73927},{"name":"大井保健センター","province":"東京都","city":"品川区","address":"品川区大井2-27-20","lat":35.60418,"lon":139.73032},{"name":"荏原保健センター","province":"東京都","city":"品川区","address":"品川区西五反田6-6-6","lat":35.62268,"lon":139.71748},{"name":"荏原保健センター","province":"東京都","city":"品川区","address":"品川区荏原2-9-6","lat":35.61701,"lon":139.71111},{"name":"品川区選挙管理委員会","province":"東京都","city":"品川区","address":"品川区広町2-1-36品川区防災センター・第2庁舎","lat":35.609177,"lon":139.730167},{"name":"品川区保健所","province":"東京都","city":"品川区","address":"品川区広町2-1-36","lat":35.608836,"lon":139.730241},{"name":"品川保健センター","province":"東京都","city":"品川区","address":"品川区北品川3-11-22","lat":35.616586,"lon":139.740732},{"name":"大井保健センター","province":"東京都","city":"品川区","address":"品川区大井2-27-20","lat":35.604084,"lon":139.730375},{"name":"荏原保健センター","province":"東京都","city":"品川区","address":"品川区荏原2-9-6","lat":35.617185,"lon":139.711504},{"name":"品川区保健所","province":"東京都","city":"品川区","address":"東京都品川区広町2丁目1-36","lat":35.60881128,"lon":139.73028866},{"name":"品川保健センター","province":"東京都","city":"品川区","address":"東京都品川区北品川3丁目11-22","lat":35.61658571,"lon":139.74073199},{"name":"大井保健センター","province":"東京都","city":"品川区","address":"東京都品川区大井2丁目27-20","lat":35.60406184,"lon":139.73038047},{"name":"荏原保健センター","province":"東京都","city":"品川区","address":"東京都品川区西五反田6丁目6-6","lat":35.62309266,"lon":139.71741427},{"name":"品川区保健所","province":"東京都","city":"品川区","address":"品川区広町2-1-36","lat":35.6083,"lon":139.73096},{"name":"品川保健センター","province":"東京都","city":"品川区","address":"品川区北品川3-11-22","lat":35.61644,"lon":139.73927},{"name":"大井保健センター","province":"東京都","city":"品川区","address":"品川区大井2-27-20","lat":35.60418,"lon":139.73032},{"name":"荏原保健センター","province":"東京都","city":"品川区","address":"品川区西五反田6-6-6","lat":35.62268,"lon":139.71748},{"name":"荏原保健センター","province":"東京都","city":"品川区","address":"品川区荏原2-9-6","lat":35.61701,"lon":139.71111},{"name":"品川区選挙管理委員会","province":"東京都","city":"品川区","address":"品川区広町2-1-36品川区防災センター・第2庁舎","lat":35.609177,"lon":139.730167},{"name":"品川区保健所","province":"東京都","city":"品川区","address":"品川区広町2-1-36","lat":35.608836,"lon":139.730241},{"name":"品川保健センター","province":"東京都","city":"品川区","address":"品川区北品川3-11-22","lat":35.616586,"lon":139.740732},{"name":"大井保健センター","province":"東京都","city":"品川区","address":"品川区大井2-27-20","lat":35.604084,"lon":139.730375},{"name":"荏原保健センター","province":"東京都","city":"品川区","address":"品川区荏原2-9-6","lat":35.617185,"lon":139.711504},{"name":"品川区保健所","province":"東京都","city":"品川区","address":"東京都品川区広町2丁目1-36","lat":35.60881128,"lon":139.73028866},{"name":"品川保健センター","province":"東京都","city":"品川区","address":"東京都品川区北品川3丁目11-22","lat":35.61658571,"lon":139.74073199},{"name":"大井保健センター","province":"東京都","city":"品川区","address":"東京都品川区大井2丁目27-20","lat":35.60406184,"lon":139.73038047},{"name":"荏原保健センター","province":"東京都","city":"品川区","address":"東京都品川区西五反田6丁目6-6","lat":35.62309266,"lon":139.71741427},{"name":"品川区保健所","province":"東京都","city":"品川区","address":"品川区広町2-1-36","lat":35.6083,"lon":139.73096},{"name":"品川保健センター","province":"東京都","city":"品川区","address":"品川区北品川3-11-22","lat":35.61644,"lon":139.73927},{"name":"大井保健センター","province":"東京都","city":"品川区","address":"品川区大井2-27-20","lat":35.60418,"lon":139.73032},{"name":"荏原保健センター","province":"東京都","city":"品川区","address":"品川区西五反田6-6-6","lat":35.62268,"lon":139.71748},{"name":"荏原保健センター","province":"東京都","city":"品川区","address":"品川区荏原2-9-6","lat":35.61701,"lon":139.71111},{"name":"品川区選挙管理委員会","province":"東京都","city":"品川区","address":"品川区広町2-1-36品川区防災センター・第2庁舎","lat":35.609177,"lon":139.730167},{"name":"品川区保健所","province":"東京都","city":"品川区","address":"品川区広町2-1-36","lat":35.608836,"lon":139.730241},{"name":"品川保健センター","province":"東京都","city":"品川区","address":"品川区北品川3-11-22","lat":35.616586,"lon":139.740732},{"name":"大井保健センター","province":"東京都","city":"品川区","address":"品川区大井2-27-20","lat":35.604084,"lon":139.730375},{"name":"荏原保健センター","province":"東京都","city":"品川区","address":"品川区荏原2-9-6","lat":35.617185,"lon":139.711504},{"name":"品川区保健所","province":"東京都","city":"品川区","address":"東京都品川区広町2丁目1-36","lat":35.60881128,"lon":139.73028866},{"name":"品川保健センター","province":"東京都","city":"品川区","address":"東京都品川区北品川3丁目11-22","lat":35.61658571,"lon":139.74073199},{"name":"大井保健センター","province":"東京都","city":"品川区","address":"東京都品川区大井2丁目27-20","lat":35.60406184,"lon":139.73038047},{"name":"荏原保健センター","province":"東京都","city":"品川区","address":"東京都品川区西五反田6丁目6-6","lat":35.62309266,"lon":139.71741427},{"name":"品川区保健所","province":"東京都","city":"品川区","address":"品川区広町2-1-36","lat":35.6083,"lon":139.73096},{"name":"品川保健センター","province":"東京都","city":"品川区","address":"品川区北品川3-11-22","lat":35.61644,"lon":139.73927},{"name":"大井保健センター","province":"東京都","city":"品川区","address":"品川区大井2-27-20","lat":35.60418,"lon":139.73032},{"name":"荏原保健センター","province":"東京都","city":"品川区","address":"品川区西五反田6-6-6","lat":35.62268,"lon":139.71748},{"name":"荏原保健センター","province":"東京都","city":"品川区","address":"品川区荏原2-9-6","lat":35.61701,"lon":139.71111},{"name":"品川区選挙管理委員会","province":"東京都","city":"品川区","address":"品川区広町2-1-36品川区防災センター・第2庁舎","lat":35.609177,"lon":139.730167},{"name":"品川区保健所","province":"東京都","city":"品川区","address":"品川区広町2-1-36","lat":35.608836,"lon":139.730241},{"name":"品川保健センター","province":"東京都","city":"品川区","address":"品川区北品川3-11-22","lat":35.616586,"lon":139.740732},{"name":"大井保健センター","province":"東京都","city":"品川区","address":"品川区大井2-27-20","lat":35.604084,"lon":139.730375},{"name":"荏原保健センター","province":"東京都","city":"品川区","address":"品川区荏原2-9-6","lat":35.617185,"lon":139.711504},{"name":"品川区保健所","province":"東京都","city":"品川区","address":"東京都品川区広町2丁目1-36","lat":35.60881128,"lon":139.73028866},{"name":"品川保健センター","province":"東京都","city":"品川区","address":"東京都品川区北品川3丁目11-22","lat":35.61658571,"lon":139.74073199},{"name":"大井保健センター","province":"東京都","city":"品川区","address":"東京都品川区大井2丁目27-20","lat":35.60406184,"lon":139.73038047},{"name":"荏原保健センター","province":"東京都","city":"品川区","address":"東京都品川区西五反田6丁目6-6","lat":35.62309266,"lon":139.71741427},{"name":"品川区保健所","province":"東京都","city":"品川区","address":"品川区広町2-1-36","lat":35.6083,"lon":139.73096},{"name":"品川保健センター","province":"東京都","city":"品川区","address":"品川区北品川3-11-22","lat":35.61644,"lon":139.73927},{"name":"大井保健センター","province":"東京都","city":"品川区","address":"品川区大井2-27-20","lat":35.60418,"lon":139.73032},{"name":"荏原保健センター","province":"東京都","city":"品川区","address":"品川区西五反田6-6-6","lat":35.62268,"lon":139.71748},{"name":"荏原保健センター","province":"東京都","city":"品川区","address":"品川区荏原2-9-6","lat":35.61701,"lon":139.71111},{"name":"品川区選挙管理委員会","province":"東京都","city":"品川区","address":"品川区広町2-1-36品川区防災センター・第2庁舎","lat":35.609177,"lon":139.730167},{"name":"品川区保健所","province":"東京都","city":"品川区","address":"品川区広町2-1-36","lat":35.608836,"lon":139.730241},{"name":"品川保健センター","province":"東京都","city":"品川区","address":"品川区北品川3-11-22","lat":35.616586,"lon":139.740732},{"name":"大井保健センター","province":"東京都","city":"品川区","address":"品川区大井2-27-20","lat":35.604084,"lon":139.730375},{"name":"荏原保健センター","province":"東京都","city":"品川区","address":"品川区荏原2-9-6","lat":35.617185,"lon":139.711504},{"name":"品川区保健所","province":"東京都","city":"品川区","address":"東京都品川区広町2丁目1-36","lat":35.60881128,"lon":139.73028866},{"name":"品川保健センター","province":"東京都","city":"品川区","address":"東京都品川区北品川3丁目11-22","lat":35.61658571,"lon":139.74073199},{"name":"大井保健センター","province":"東京都","city":"品川区","address":"東京都品川区大井2丁目27-20","lat":35.60406184,"lon":139.73038047},{"name":"荏原保健センター","province":"東京都","city":"品川区","address":"東京都品川区西五反田6丁目6-6","lat":35.62309266,"lon":139.71741427},{"name":"品川区保健所","province":"東京都","city":"品川区","address":"品川区広町2-1-36","lat":35.6083,"lon":139.73096},{"name":"品川保健センター","province":"東京都","city":"品川区","address":"品川区北品川3-11-22","lat":35.61644,"lon":139.73927},{"name":"大井保健センター","province":"東京都","city":"品川区","address":"品川区大井2-27-20","lat":35.60418,"lon":139.73032},{"name":"荏原保健センター","province":"東京都","city":"品川区","address":"品川区西五反田6-6-6","lat":35.62268,"lon":139.71748},{"name":"荏原保健センター","province":"東京都","city":"品川区","address":"品川区荏原2-9-6","lat":35.61701,"lon":139.71111},{"name":"品川区選挙管理委員会","province":"東京都","city":"品川区","address":"品川区広町2-1-36品川区防災センター・第2庁舎","lat":35.609177,"lon":139.730167},{"name":"品川区保健所","province":"東京都","city":"品川区","address":"品川区広町2-1-36","lat":35.608836,"lon":139.730241},{"name":"品川保健センター","province":"東京都","city":"品川区","address":"品川区北品川3-11-22","lat":35.616586,"lon":139.740732},{"name":"大井保健センター","province":"東京都","city":"品川区","address":"品川区大井2-27-20","lat":35.604084,"lon":139.730375},{"name":"荏原保健センター","province":"東京都","city":"品川区","address":"品川区荏原2-9-6","lat":35.617185,"lon":139.711504},{"name":"品川区保健所","province":"東京都","city":"品川区","address":"東京都品川区広町2丁目1-36","lat":35.60881128,"lon":139.73028866},{"name":"品川保健センター","province":"東京都","city":"品川区","address":"東京都品川区北品川3丁目11-22","lat":35.61658571,"lon":139.74073199},{"name":"大井保健センター","province":"東京都","city":"品川区","address":"東京都品川区大井2丁目27-20","lat":35.60406184,"lon":139.73038047},{"name":"荏原保健センター","province":"東京都","city":"品川区","address":"東京都品川区西五反田6丁目6-6","lat":35.62309266,"lon":139.71741427},{"name":"品川区保健所","province":"東京都","city":"品川区","address":"品川区広町2-1-36","lat":35.6083,"lon":139.73096},{"name":"品川保健センター","province":"東京都","city":"品川区","address":"品川区北品川3-11-22","lat":35.61644,"lon":139.73927},{"name":"大井保健センター","province":"東京都","city":"品川区","address":"品川区大井2-27-20","lat":35.60418,"lon":139.73032},{"name":"荏原保健センター","province":"東京都","city":"品川区","address":"品川区西五反田6-6-6","lat":35.62268,"lon":139.71748},{"name":"荏原保健センター","province":"東京都","city":"品川区","address":"品川区荏原2-9-6","lat":35.61701,"lon":139.71111},{"name":"品川区選挙管理委員会","province":"東京都","city":"品川区","address":"品川区広町2-1-36品川区防災センター・第2庁舎","lat":35.609177,"lon":139.730167},{"name":"品川区保健所","province":"東京都","city":"品川区","address":"品川区広町2-1-36","lat":35.608836,"lon":139.730241},{"name":"品川保健センター","province":"東京都","city":"品川区","address":"品川区北品川3-11-22","lat":35.616586,"lon":139.740732},{"name":"大井保健センター","province":"東京都","city":"品川区","address":"品川区大井2-27-20","lat":35.604084,"lon":139.730375},{"name":"荏原保健センター","province":"東京都","city":"品川区","address":"品川区荏原2-9-6","lat":35.617185,"lon":139.711504},{"name":"品川区保健所","province":"東京都","city":"品川区","address":"東京都品川区広町2丁目1-36","lat":35.60881128,"lon":139.73028866},{"name":"品川保健センター","province":"東京都","city":"品川区","address":"東京都品川区北品川3丁目11-22","lat":35.61658571,"lon":139.74073199},{"name":"大井保健センター","province":"東京都","city":"品川区","address":"東京都品川区大井2丁目27-20","lat":35.60406184,"lon":139.73038047},{"name":"荏原保健センター","province":"東京都","city":"品川区","address":"東京都品川区西五反田6丁目6-6","lat":35.62309266,"lon":139.71741427},{"name":"品川区保健所","province":"東京都","city":"品川区","address":"品川区広町2-1-36","lat":35.6083,"lon":139.73096},{"name":"品川保健センター","province":"東京都","city":"品川区","address":"品川区北品川3-11-22","lat":35.61644,"lon":139.73927},{"name":"大井保健センター","province":"東京都","city":"品川区","address":"品川区大井2-27-20","lat":35.60418,"lon":139.73032},{"name":"荏原保健センター","province":"東京都","city":"品川区","address":"品川区西五反田6-6-6","lat":35.62268,"lon":139.71748},{"name":"荏原保健センター","province":"東京都","city":"品川区","address":"品川区荏原2-9-6","lat":35.61701,"lon":139.71111},{"name":"品川区選挙管理委員会","province":"東京都","city":"品川区","address":"品川区広町2-1-36品川区防災センター・第2庁舎","lat":35.609177,"lon":139.730167},{"name":"品川区保健所","province":"東京都","city":"品川区","address":"品川区広町2-1-36","lat":35.608836,"lon":139.730241},{"name":"品川保健センター","province":"東京都","city":"品川区","address":"品川区北品川3-11-22","lat":35.616586,"lon":139.740732},{"name":"大井保健センター","province":"東京都","city":"品川区","address":"品川区大井2-27-20","lat":35.604084,"lon":139.730375},{"name":"荏原保健センター","province":"東京都","city":"品川区","address":"品川区荏原2-9-6","lat":35.617185,"lon":139.711504},{"name":"品川区保健所","province":"東京都","city":"品川区","address":"東京都品川区広町2丁目1-36","lat":35.60881128,"lon":139.73028866},{"name":"品川保健センター","province":"東京都","city":"品川区","address":"東京都品川区北品川3丁目11-22","lat":35.61658571,"lon":139.74073199},{"name":"大井保健センター","province":"東京都","city":"品川区","address":"東京都品川区大井2丁目27-20","lat":35.60406184,"lon":139.73038047},{"name":"荏原保健センター","province":"東京都","city":"品川区","address":"東京都品川区西五反田6丁目6-6","lat":35.62309266,"lon":139.71741427},{"name":"品川区保健所","province":"東京都","city":"品川区","address":"品川区広町2-1-36","lat":35.6083,"lon":139.73096},{"name":"品川保健センター","province":"東京都","city":"品川区","address":"品川区北品川3-11-22","lat":35.61644,"lon":139.73927},{"name":"大井保健センター","province":"東京都","city":"品川区","address":"品川区大井2-27-20","lat":35.60418,"lon":139.73032},{"name":"荏原保健センター","province":"東京都","city":"品川区","address":"品川区西五反田6-6-6","lat":35.62268,"lon":139.71748},{"name":"荏原保健センター","province":"東京都","city":"品川区","address":"品川区荏原2-9-6","lat":35.61701,"lon":139.71111},{"name":"品川区選挙管理委員会","province":"東京都","city":"品川区","address":"品川区広町2-1-36品川区防災センター・第2庁舎","lat":35.609177,"lon":139.730167},{"name":"品川区保健所","province":"東京都","city":"品川区","address":"品川区広町2-1-36","lat":35.608836,"lon":139.730241},{"name":"品川保健センター","province":"東京都","city":"品川区","address":"品川区北品川3-11-22","lat":35.616586,"lon":139.740732},{"name":"大井保健センター","province":"東京都","city":"品川区","address":"品川区大井2-27-20","lat":35.604084,"lon":139.730375},{"name":"荏原保健センター","province":"東京都","city":"品川区","address":"品川区荏原2-9-6","lat":35.617185,"lon":139.711504},{"name":"品川区保健所","province":"東京都","city":"品川区","address":"東京都品川区広町2丁目1-36","lat":35.60881128,"lon":139.73028866},{"name":"品川保健センター","province":"東京都","city":"品川区","address":"東京都品川区北品川3丁目11-22","lat":35.61658571,"lon":139.74073199},{"name":"大井保健センター","province":"東京都","city":"品川区","address":"東京都品川区大井2丁目27-20","lat":35.60406184,"lon":139.73038047},{"name":"荏原保健センター","province":"東京都","city":"品川区","address":"東京都品川区西五反田6丁目6-6","lat":35.62309266,"lon":139.71741427},{"name":"品川区保健所","province":"東京都","city":"品川区","address":"品川区広町2-1-36","lat":35.6083,"lon":139.73096},{"name":"品川保健センター","province":"東京都","city":"品川区","address":"品川区北品川3-11-22","lat":35.61644,"lon":139.73927},{"name":"大井保健センター","province":"東京都","city":"品川区","address":"品川区大井2-27-20","lat":35.60418,"lon":139.73032},{"name":"荏原保健センター","province":"東京都","city":"品川区","address":"品川区西五反田6-6-6","lat":35.62268,"lon":139.71748},{"name":"荏原保健センター","province":"東京都","city":"品川区","address":"品川区荏原2-9-6","lat":35.61701,"lon":139.71111},{"name":"品川区選挙管理委員会","province":"東京都","city":"品川区","address":"品川区広町2-1-36品川区防災センター・第2庁舎","lat":35.609177,"lon":139.730167},{"name":"品川区保健所","province":"東京都","city":"品川区","address":"品川区広町2-1-36","lat":35.608836,"lon":139.730241},{"name":"品川保健センター","province":"東京都","city":"品川区","address":"品川区北品川3-11-22","lat":35.616586,"lon":139.740732},{"name":"大井保健センター","province":"東京都","city":"品川区","address":"品川区大井2-27-20","lat":35.604084,"lon":139.730375},{"name":"荏原保健センター","province":"東京都","city":"品川区","address":"品川区荏原2-9-6","lat":35.617185,"lon":139.711504},{"name":"品川区保健所","province":"東京都","city":"品川区","address":"東京都品川区広町2丁目1-36","lat":35.60881128,"lon":139.73028866},{"name":"品川保健センター","province":"東京都","city":"品川区","address":"東京都品川区北品川3丁目11-22","lat":35.61658571,"lon":139.74073199},{"name":"大井保健センター","province":"東京都","city":"品川区","address":"東京都品川区大井2丁目27-20","lat":35.60406184,"lon":139.73038047},{"name":"荏原保健センター","province":"東京都","city":"品川区","address":"東京都品川区西五反田6丁目6-6","lat":35.62309266,"lon":139.71741427},{"name":"品川区保健所","province":"東京都","city":"品川区","address":"品川区広町2-1-36","lat":35.6083,"lon":139.73096},{"name":"品川保健センター","province":"東京都","city":"品川区","address":"品川区北品川3-11-22","lat":35.61644,"lon":139.73927},{"name":"大井保健センター","province":"東京都","city":"品川区","address":"品川区大井2-27-20","lat":35.60418,"lon":139.73032},{"name":"荏原保健センター","province":"東京都","city":"品川区","address":"品川区西五反田6-6-6","lat":35.62268,"lon":139.71748},{"name":"荏原保健センター","province":"東京都","city":"品川区","address":"品川区荏原2-9-6","lat":35.61701,"lon":139.71111},{"name":"品川区選挙管理委員会","province":"東京都","city":"品川区","address":"品川区広町2-1-36品川区防災センター・第2庁舎","lat":35.609177,"lon":139.730167},{"name":"品川区保健所","province":"東京都","city":"品川区","address":"品川区広町2-1-36","lat":35.608836,"lon":139.730241},{"name":"品川保健センター","province":"東京都","city":"品川区","address":"品川区北品川3-11-22","lat":35.616586,"lon":139.740732},{"name":"大井保健センター","province":"東京都","city":"品川区","address":"品川区大井2-27-20","lat":35.604084,"lon":139.730375},{"name":"荏原保健センター","province":"東京都","city":"品川区","address":"品川区荏原2-9-6","lat":35.617185,"lon":139.711504},{"name":"品川区保健所","province":"東京都","city":"品川区","address":"東京都品川区広町2丁目1-36","lat":35.60881128,"lon":139.73028866},{"name":"品川保健センター","province":"東京都","city":"品川区","address":"東京都品川区北品川3丁目11-22","lat":35.61658571,"lon":139.74073199},{"name":"大井保健センター","province":"東京都","city":"品川区","address":"東京都品川区大井2丁目27-20","lat":35.60406184,"lon":139.73038047},{"name":"荏原保健センター","province":"東京都","city":"品川区","address":"東京都品川区西五反田6丁目6-6","lat":35.62309266,"lon":139.71741427},{"name":"品川区保健所","province":"東京都","city":"品川区","address":"品川区広町2-1-36","lat":35.6083,"lon":139.73096},{"name":"品川保健センター","province":"東京都","city":"品川区","address":"品川区北品川3-11-22","lat":35.61644,"lon":139.73927},{"name":"大井保健センター","province":"東京都","city":"品川区","address":"品川区大井2-27-20","lat":35.60418,"lon":139.73032},{"name":"荏原保健センター","province":"東京都","city":"品川区","address":"品川区西五反田6-6-6","lat":35.62268,"lon":139.71748},{"name":"荏原保健センター","province":"東京都","city":"品川区","address":"品川区荏原2-9-6","lat":35.61701,"lon":139.71111},{"name":"品川区選挙管理委員会","province":"東京都","city":"品川区","address":"品川区広町2-1-36品川区防災センター・第2庁舎","lat":35.609177,"lon":139.730167},{"name":"品川区保健所","province":"東京都","city":"品川区","address":"品川区広町2-1-36","lat":35.608836,"lon":139.730241},{"name":"品川保健センター","province":"東京都","city":"品川区","address":"品川区北品川3-11-22","lat":35.616586,"lon":139.740732},{"name":"大井保健センター","province":"東京都","city":"品川区","address":"品川区大井2-27-20","lat":35.604084,"lon":139.730375},{"name":"荏原保健センター","province":"東京都","city":"品川区","address":"品川区荏原2-9-6","lat":35.617185,"lon":139.711504},{"name":"品川区保健所","province":"東京都","city":"品川区","address":"東京都品川区広町2丁目1-36","lat":35.60881128,"lon":139.73028866},{"name":"品川保健センター","province":"東京都","city":"品川区","address":"東京都品川区北品川3丁目11-22","lat":35.61658571,"lon":139.74073199},{"name":"大井保健センター","province":"東京都","city":"品川区","address":"東京都品川区大井2丁目27-20","lat":35.60406184,"lon":139.73038047},{"name":"荏原保健センター","province":"東京都","city":"品川区","address":"東京都品川区西五反田6丁目6-6","lat":35.62309266,"lon":139.71741427},{"name":"品川区保健所","province":"東京都","city":"品川区","address":"品川区広町2-1-36","lat":35.6083,"lon":139.73096},{"name":"品川保健センター","province":"東京都","city":"品川区","address":"品川区北品川3-11-22","lat":35.61644,"lon":139.73927},{"name":"大井保健センター","province":"東京都","city":"品川区","address":"品川区大井2-27-20","lat":35.60418,"lon":139.73032},{"name":"荏原保健センター","province":"東京都","city":"品川区","address":"品川区西五反田6-6-6","lat":35.62268,"lon":139.71748},{"name":"荏原保健センター","province":"東京都","city":"品川区","address":"品川区荏原2-9-6","lat":35.61701,"lon":139.71111},{"name":"品川区選挙管理委員会","province":"東京都","city":"品川区","address":"品川区広町2-1-36品川区防災センター・第2庁舎","lat":35.609177,"lon":139.730167},{"name":"品川区保健所","province":"東京都","city":"品川区","address":"品川区広町2-1-36","lat":35.608836,"lon":139.730241},{"name":"品川保健センター","province":"東京都","city":"品川区","address":"品川区北品川3-11-22","lat":35.616586,"lon":139.740732},{"name":"大井保健センター","province":"東京都","city":"品川区","address":"品川区大井2-27-20","lat":35.604084,"lon":139.730375},{"name":"荏原保健センター","province":"東京都","city":"品川区","address":"品川区荏原2-9-6","lat":35.617185,"lon":139.711504},{"name":"品川区保健所","province":"東京都","city":"品川区","address":"東京都品川区広町2丁目1-36","lat":35.60881128,"lon":139.73028866},{"name":"品川保健センター","province":"東京都","city":"品川区","address":"東京都品川区北品川3丁目11-22","lat":35.61658571,"lon":139.74073199},{"name":"大井保健センター","province":"東京都","city":"品川区","address":"東京都品川区大井2丁目27-20","lat":35.60406184,"lon":139.73038047},{"name":"荏原保健センター","province":"東京都","city":"品川区","address":"東京都品川区西五反田6丁目6-6","lat":35.62309266,"lon":139.71741427},{"name":"品川区保健所","province":"東京都","city":"品川区","address":"品川区広町2-1-36","lat":35.6083,"lon":139.73096},{"name":"品川保健センター","province":"東京都","city":"品川区","address":"品川区北品川3-11-22","lat":35.61644,"lon":139.73927},{"name":"大井保健センター","province":"東京都","city":"品川区","address":"品川区大井2-27-20","lat":35.60418,"lon":139.73032},{"name":"荏原保健センター","province":"東京都","city":"品川区","address":"品川区西五反田6-6-6","lat":35.62268,"lon":139.71748},{"name":"荏原保健センター","province":"東京都","city":"品川区","address":"品川区荏原2-9-6","lat":35.61701,"lon":139.71111},{"name":"品川区選挙管理委員会","province":"東京都","city":"品川区","address":"品川区広町2-1-36品川区防災センター・第2庁舎","lat":35.609177,"lon":139.730167},{"name":"品川区保健所","province":"東京都","city":"品川区","address":"品川区広町2-1-36","lat":35.608836,"lon":139.730241},{"name":"品川保健センター","province":"東京都","city":"品川区","address":"品川区北品川3-11-22","lat":35.616586,"lon":139.740732},{"name":"大井保健センター","province":"東京都","city":"品川区","address":"品川区大井2-27-20","lat":35.604084,"lon":139.730375},{"name":"荏原保健センター","province":"東京都","city":"品川区","address":"品川区荏原2-9-6","lat":35.617185,"lon":139.711504},{"name":"品川区保健所","province":"東京都","city":"品川区","address":"東京都品川区広町2丁目1-36","lat":35.60881128,"lon":139.73028866},{"name":"品川保健センター","province":"東京都","city":"品川区","address":"東京都品川区北品川3丁目11-22","lat":35.61658571,"lon":139.74073199},{"name":"大井保健センター","province":"東京都","city":"品川区","address":"東京都品川区大井2丁目27-20","lat":35.60406184,"lon":139.73038047},{"name":"荏原保健センター","province":"東京都","city":"品川区","address":"東京都品川区西五反田6丁目6-6","lat":35.62309266,"lon":139.71741427},{"name":"品川区保健所","province":"東京都","city":"品川区","address":"品川区広町2-1-36","lat":35.6083,"lon":139.73096},{"name":"品川保健センター","province":"東京都","city":"品川区","address":"品川区北品川3-11-22","lat":35.61644,"lon":139.73927},{"name":"大井保健センター","province":"東京都","city":"品川区","address":"品川区大井2-27-20","lat":35.60418,"lon":139.73032},{"name":"荏原保健センター","province":"東京都","city":"品川区","address":"品川区西五反田6-6-6","lat":35.62268,"lon":139.71748},{"name":"荏原保健センター","province":"東京都","city":"品川区","address":"品川区荏原2-9-6","lat":35.61701,"lon":139.71111},{"name":"品川区選挙管理委員会","province":"東京都","city":"品川区","address":"品川区広町2-1-36品川区防災センター・第2庁舎","lat":35.609177,"lon":139.730167},{"name":"品川区保健所","province":"東京都","city":"品川区","address":"品川区広町2-1-36","lat":35.608836,"lon":139.730241},{"name":"品川保健センター","province":"東京都","city":"品川区","address":"品川区北品川3-11-22","lat":35.616586,"lon":139.740732},{"name":"大井保健センター","province":"東京都","city":"品川区","address":"品川区大井2-27-20","lat":35.604084,"lon":139.730375},{"name":"荏原保健センター","province":"東京都","city":"品川区","address":"品川区荏原2-9-6","lat":35.617185,"lon":139.711504},{"name":"品川区保健所","province":"東京都","city":"品川区","address":"東京都品川区広町2丁目1-36","lat":35.60881128,"lon":139.73028866},{"name":"品川保健センター","province":"東京都","city":"品川区","address":"東京都品川区北品川3丁目11-22","lat":35.61658571,"lon":139.74073199},{"name":"大井保健センター","province":"東京都","city":"品川区","address":"東京都品川区大井2丁目27-20","lat":35.60406184,"lon":139.73038047},{"name":"荏原保健センター","province":"東京都","city":"品川区","address":"東京都品川区西五反田6丁目6-6","lat":35.62309266,"lon":139.71741427},{"name":"品川区保健所","province":"東京都","city":"品川区","address":"品川区広町2-1-36","lat":35.6083,"lon":139.73096},{"name":"品川保健センター","province":"東京都","city":"品川区","address":"品川区北品川3-11-22","lat":35.61644,"lon":139.73927},{"name":"大井保健センター","province":"東京都","city":"品川区","address":"品川区大井2-27-20","lat":35.60418,"lon":139.73032},{"name":"荏原保健センター","province":"東京都","city":"品川区","address":"品川区西五反田6-6-6","lat":35.62268,"lon":139.71748},{"name":"荏原保健センター","province":"東京都","city":"品川区","address":"品川区荏原2-9-6","lat":35.61701,"lon":139.71111},{"name":"品川区選挙管理委員会","province":"東京都","city":"品川区","address":"品川区広町2-1-36品川区防災センター・第2庁舎","lat":35.609177,"lon":139.730167},{"name":"品川区保健所","province":"東京都","city":"品川区","address":"品川区広町2-1-36","lat":35.608836,"lon":139.730241},{"name":"品川保健センター","province":"東京都","city":"品川区","address":"品川区北品川3-11-22","lat":35.616586,"lon":139.740732},{"name":"大井保健センター","province":"東京都","city":"品川区","address":"品川区大井2-27-20","lat":35.604084,"lon":139.730375},{"name":"荏原保健センター","province":"東京都","city":"品川区","address":"品川区荏原2-9-6","lat":35.617185,"lon":139.711504},{"name":"品川区保健所","province":"東京都","city":"品川区","address":"東京都品川区広町2丁目1-36","lat":35.60881128,"lon":139.73028866},{"name":"品川保健センター","province":"東京都","city":"品川区","address":"東京都品川区北品川3丁目11-22","lat":35.61658571,"lon":139.74073199},{"name":"大井保健センター","province":"東京都","city":"品川区","address":"東京都品川区大井2丁目27-20","lat":35.60406184,"lon":139.73038047},{"name":"荏原保健センター","province":"東京都","city":"品川区","address":"東京都品川区西五反田6丁目6-6","lat":35.62309266,"lon":139.71741427},{"name":"品川区保健所","province":"東京都","city":"品川区","address":"品川区広町2-1-36","lat":35.6083,"lon":139.73096},{"name":"品川保健センター","province":"東京都","city":"品川区","address":"品川区北品川3-11-22","lat":35.61644,"lon":139.73927},{"name":"大井保健センター","province":"東京都","city":"品川区","address":"品川区大井2-27-20","lat":35.60418,"lon":139.73032},{"name":"荏原保健センター","province":"東京都","city":"品川区","address":"品川区西五反田6-6-6","lat":35.62268,"lon":139.71748},{"name":"荏原保健センター","province":"東京都","city":"品川区","address":"品川区荏原2-9-6","lat":35.61701,"lon":139.71111},{"name":"品川区選挙管理委員会","province":"東京都","city":"品川区","address":"品川区広町2-1-36品川区防災センター・第2庁舎","lat":35.609177,"lon":139.730167},{"name":"品川区保健所","province":"東京都","city":"品川区","address":"品川区広町2-1-36","lat":35.608836,"lon":139.730241},{"name":"品川保健センター","province":"東京都","city":"品川区","address":"品川区北品川3-11-22","lat":35.616586,"lon":139.740732},{"name":"大井保健センター","province":"東京都","city":"品川区","address":"品川区大井2-27-20","lat":35.604084,"lon":139.730375},{"name":"荏原保健センター","province":"東京都","city":"品川区","address":"品川区荏原2-9-6","lat":35.617185,"lon":139.711504},{"name":"品川区保健所","province":"東京都","city":"品川区","address":"東京都品川区広町2丁目1-36","lat":35.60881128,"lon":139.73028866},{"name":"品川保健センター","province":"東京都","city":"品川区","address":"東京都品川区北品川3丁目11-22","lat":35.61658571,"lon":139.74073199},{"name":"大井保健センター","province":"東京都","city":"品川区","address":"東京都品川区大井2丁目27-20","lat":35.60406184,"lon":139.73038047},{"name":"荏原保健センター","province":"東京都","city":"品川区","address":"東京都品川区西五反田6丁目6-6","lat":35.62309266,"lon":139.71741427},{"name":"品川区保健所","province":"東京都","city":"品川区","address":"品川区広町2-1-36","lat":35.6083,"lon":139.73096},{"name":"品川保健センター","province":"東京都","city":"品川区","address":"品川区北品川3-11-22","lat":35.61644,"lon":139.73927},{"name":"大井保健センター","province":"東京都","city":"品川区","address":"品川区大井2-27-20","lat":35.60418,"lon":139.73032},{"name":"荏原保健センター","province":"東京都","city":"品川区","address":"品川区西五反田6-6-6","lat":35.62268,"lon":139.71748},{"name":"荏原保健センター","province":"東京都","city":"品川区","address":"品川区荏原2-9-6","lat":35.61701,"lon":139.71111},{"name":"品川区選挙管理委員会","province":"東京都","city":"品川区","address":"品川区広町2-1-36品川区防災センター・第2庁舎","lat":35.609177,"lon":139.730167},{"name":"品川区保健所","province":"東京都","city":"品川区","address":"品川区広町2-1-36","lat":35.608836,"lon":139.730241},{"name":"品川保健センター","province":"東京都","city":"品川区","address":"品川区北品川3-11-22","lat":35.616586,"lon":139.740732},{"name":"大井保健センター","province":"東京都","city":"品川区","address":"品川区大井2-27-20","lat":35.604084,"lon":139.730375},{"name":"荏原保健センター","province":"東京都","city":"品川区","address":"品川区荏原2-9-6","lat":35.617185,"lon":139.711504},{"name":"品川区保健所","province":"東京都","city":"品川区","address":"東京都品川区広町2丁目1-36","lat":35.60881128,"lon":139.73028866},{"name":"品川保健センター","province":"東京都","city":"品川区","address":"東京都品川区北品川3丁目11-22","lat":35.61658571,"lon":139.74073199},{"name":"大井保健センター","province":"東京都","city":"品川区","address":"東京都品川区大井2丁目27-20","lat":35.60406184,"lon":139.73038047},{"name":"荏原保健センター","province":"東京都","city":"品川区","address":"東京都品川区西五反田6丁目6-6","lat":35.62309266,"lon":139.71741427},{"name":"品川区保健所","province":"東京都","city":"品川区","address":"品川区広町2-1-36","lat":35.6083,"lon":139.73096},{"name":"品川保健センター","province":"東京都","city":"品川区","address":"品川区北品川3-11-22","lat":35.61644,"lon":139.73927},{"name":"大井保健センター","province":"東京都","city":"品川区","address":"品川区大井2-27-20","lat":35.60418,"lon":139.73032},{"name":"荏原保健センター","province":"東京都","city":"品川区","address":"品川区西五反田6-6-6","lat":35.62268,"lon":139.71748},{"name":"荏原保健センター","province":"東京都","city":"品川区","address":"品川区荏原2-9-6","lat":35.61701,"lon":139.71111},{"name":"品川区選挙管理委員会","province":"東京都","city":"品川区","address":"品川区広町2-1-36品川区防災センター・第2庁舎","lat":35.609177,"lon":139.730167},{"name":"品川区保健所","province":"東京都","city":"品川区","address":"品川区広町2-1-36","lat":35.608836,"lon":139.730241},{"name":"品川保健センター","province":"東京都","city":"品川区","address":"品川区北品川3-11-22","lat":35.616586,"lon":139.740732},{"name":"大井保健センター","province":"東京都","city":"品川区","address":"品川区大井2-27-20","lat":35.604084,"lon":139.730375},{"name":"荏原保健センター","province":"東京都","city":"品川区","address":"品川区荏原2-9-6","lat":35.617185,"lon":139.711504},{"name":"品川区保健所","province":"東京都","city":"品川区","address":"東京都品川区広町2丁目1-36","lat":35.60881128,"lon":139.73028866},{"name":"品川保健センター","province":"東京都","city":"品川区","address":"東京都品川区北品川3丁目11-22","lat":35.61658571,"lon":139.74073199},{"name":"大井保健センター","province":"東京都","city":"品川区","address":"東京都品川区大井2丁目27-20","lat":35.60406184,"lon":139.73038047},{"name":"荏原保健センター","province":"東京都","city":"品川区","address":"東京都品川区西五反田6丁目6-6","lat":35.62309266,"lon":139.71741427},{"name":"品川区保健所","province":"東京都","city":"品川区","address":"品川区広町2-1-36","lat":35.6083,"lon":139.73096},{"name":"品川保健センター","province":"東京都","city":"品川区","address":"品川区北品川3-11-22","lat":35.61644,"lon":139.73927},{"name":"大井保健センター","province":"東京都","city":"品川区","address":"品川区大井2-27-20","lat":35.60418,"lon":139.73032},{"name":"荏原保健センター","province":"東京都","city":"品川区","address":"品川区西五反田6-6-6","lat":35.62268,"lon":139.71748},{"name":"荏原保健センター","province":"東京都","city":"品川区","address":"品川区荏原2-9-6","lat":35.61701,"lon":139.71111},{"name":"品川区選挙管理委員会","province":"東京都","city":"品川区","address":"品川区広町2-1-36品川区防災センター・第2庁舎","lat":35.609177,"lon":139.730167},{"name":"品川区保健所","province":"東京都","city":"品川区","address":"品川区広町2-1-36","lat":35.608836,"lon":139.730241},{"name":"品川保健センター","province":"東京都","city":"品川区","address":"品川区北品川3-11-22","lat":35.616586,"lon":139.740732},{"name":"大井保健センター","province":"東京都","city":"品川区","address":"品川区大井2-27-20","lat":35.604084,"lon":139.730375},{"name":"荏原保健センター","province":"東京都","city":"品川区","address":"品川区荏原2-9-6","lat":35.617185,"lon":139.711504},{"name":"品川区保健所","province":"東京都","city":"品川区","address":"東京都品川区広町2丁目1-36","lat":35.60881128,"lon":139.73028866},{"name":"品川保健センター","province":"東京都","city":"品川区","address":"東京都品川区北品川3丁目11-22","lat":35.61658571,"lon":139.74073199},{"name":"大井保健センター","province":"東京都","city":"品川区","address":"東京都品川区大井2丁目27-20","lat":35.60406184,"lon":139.73038047},{"name":"荏原保健センター","province":"東京都","city":"品川区","address":"東京都品川区西五反田6丁目6-6","lat":35.62309266,"lon":139.71741427},{"name":"品川区保健所","province":"東京都","city":"品川区","address":"品川区広町2-1-36","lat":35.6083,"lon":139.73096},{"name":"品川保健センター","province":"東京都","city":"品川区","address":"品川区北品川3-11-22","lat":35.61644,"lon":139.73927},{"name":"大井保健センター","province":"東京都","city":"品川区","address":"品川区大井2-27-20","lat":35.60418,"lon":139.73032},{"name":"荏原保健センター","province":"東京都","city":"品川区","address":"品川区西五反田6-6-6","lat":35.62268,"lon":139.71748},{"name":"荏原保健センター","province":"東京都","city":"品川区","address":"品川区荏原2-9-6","lat":35.61701,"lon":139.71111},{"name":"品川区選挙管理委員会","province":"東京都","city":"品川区","address":"品川区広町2-1-36品川区防災センター・第2庁舎","lat":35.609177,"lon":139.730167},{"name":"品川区保健所","province":"東京都","city":"品川区","address":"品川区広町2-1-36","lat":35.608836,"lon":139.730241},{"name":"品川保健センター","province":"東京都","city":"品川区","address":"品川区北品川3-11-22","lat":35.616586,"lon":139.740732},{"name":"大井保健センター","province":"東京都","city":"品川区","address":"品川区大井2-27-20","lat":35.604084,"lon":139.730375},{"name":"荏原保健センター","province":"東京都","city":"品川区","address":"品川区荏原2-9-6","lat":35.617185,"lon":139.711504},{"name":"品川区保健所","province":"東京都","city":"品川区","address":"東京都品川区広町2丁目1-36","lat":35.60881128,"lon":139.73028866},{"name":"品川保健センター","province":"東京都","city":"品川区","address":"東京都品川区北品川3丁目11-22","lat":35.61658571,"lon":139.74073199},{"name":"大井保健センター","province":"東京都","city":"品川区","address":"東京都品川区大井2丁目27-20","lat":35.60406184,"lon":139.73038047},{"name":"荏原保健センター","province":"東京都","city":"品川区","address":"東京都品川区西五反田6丁目6-6","lat":35.62309266,"lon":139.71741427},{"name":"品川区保健所","province":"東京都","city":"品川区","address":"品川区広町2-1-36","lat":35.6083,"lon":139.73096},{"name":"品川保健センター","province":"東京都","city":"品川区","address":"品川区北品川3-11-22","lat":35.61644,"lon":139.73927},{"name":"大井保健センター","province":"東京都","city":"品川区","address":"品川区大井2-27-20","lat":35.60418,"lon":139.73032},{"name":"荏原保健センター","province":"東京都","city":"品川区","address":"品川区西五反田6-6-6","lat":35.62268,"lon":139.71748},{"name":"荏原保健センター","province":"東京都","city":"品川区","address":"品川区荏原2-9-6","lat":35.61701,"lon":139.71111},{"name":"品川区選挙管理委員会","province":"東京都","city":"品川区","address":"品川区広町2-1-36品川区防災センター・第2庁舎","lat":35.609177,"lon":139.730167},{"name":"品川区保健所","province":"東京都","city":"品川区","address":"品川区広町2-1-36","lat":35.608836,"lon":139.730241},{"name":"品川保健センター","province":"東京都","city":"品川区","address":"品川区北品川3-11-22","lat":35.616586,"lon":139.740732},{"name":"大井保健センター","province":"東京都","city":"品川区","address":"品川区大井2-27-20","lat":35.604084,"lon":139.730375},{"name":"荏原保健センター","province":"東京都","city":"品川区","address":"品川区荏原2-9-6","lat":35.617185,"lon":139.711504},{"name":"品川区保健所","province":"東京都","city":"品川区","address":"東京都品川区広町2丁目1-36","lat":35.60881128,"lon":139.73028866},{"name":"品川保健センター","province":"東京都","city":"品川区","address":"東京都品川区北品川3丁目11-22","lat":35.61658571,"lon":139.74073199},{"name":"大井保健センター","province":"東京都","city":"品川区","address":"東京都品川区大井2丁目27-20","lat":35.60406184,"lon":139.73038047},{"name":"荏原保健センター","province":"東京都","city":"品川区","address":"東京都品川区西五反田6丁目6-6","lat":35.62309266,"lon":139.71741427},{"name":"品川区保健所","province":"東京都","city":"品川区","address":"品川区広町2-1-36","lat":35.6083,"lon":139.73096},{"name":"品川保健センター","province":"東京都","city":"品川区","address":"品川区北品川3-11-22","lat":35.61644,"lon":139.73927},{"name":"大井保健センター","province":"東京都","city":"品川区","address":"品川区大井2-27-20","lat":35.60418,"lon":139.73032},{"name":"荏原保健センター","province":"東京都","city":"品川区","address":"品川区西五反田6-6-6","lat":35.62268,"lon":139.71748},{"name":"荏原保健センター","province":"東京都","city":"品川区","address":"品川区荏原2-9-6","lat":35.61701,"lon":139.71111},{"name":"品川区選挙管理委員会","province":"東京都","city":"品川区","address":"品川区広町2-1-36品川区防災センター・第2庁舎","lat":35.609177,"lon":139.730167},{"name":"品川区保健所","province":"東京都","city":"品川区","address":"品川区広町2-1-36","lat":35.608836,"lon":139.730241},{"name":"品川保健センター","province":"東京都","city":"品川区","address":"品川区北品川3-11-22","lat":35.616586,"lon":139.740732},{"name":"大井保健センター","province":"東京都","city":"品川区","address":"品川区大井2-27-20","lat":35.604084,"lon":139.730375},{"name":"荏原保健センター","province":"東京都","city":"品川区","address":"品川区荏原2-9-6","lat":35.617185,"lon":139.711504},{"name":"品川区保健所","province":"東京都","city":"品川区","address":"東京都品川区広町2丁目1-36","lat":35.60881128,"lon":139.73028866},{"name":"品川保健センター","province":"東京都","city":"品川区","address":"東京都品川区北品川3丁目11-22","lat":35.61658571,"lon":139.74073199},{"name":"大井保健センター","province":"東京都","city":"品川区","address":"東京都品川区大井2丁目27-20","lat":35.60406184,"lon":139.73038047},{"name":"荏原保健センター","province":"東京都","city":"品川区","address":"東京都品川区西五反田6丁目6-6","lat":35.62309266,"lon":139.71741427},{"name":"品川区保健所","province":"東京都","city":"品川区","address":"品川区広町2-1-36","lat":35.6083,"lon":139.73096},{"name":"品川保健センター","province":"東京都","city":"品川区","address":"品川区北品川3-11-22","lat":35.61644,"lon":139.73927},{"name":"大井保健センター","province":"東京都","city":"品川区","address":"品川区大井2-27-20","lat":35.60418,"lon":139.73032},{"name":"荏原保健センター","province":"東京都","city":"品川区","address":"品川区西五反田6-6-6","lat":35.62268,"lon":139.71748},{"name":"荏原保健センター","province":"東京都","city":"品川区","address":"品川区荏原2-9-6","lat":35.61701,"lon":139.71111},{"name":"品川区保健所","province":"東京都","city":"品川区","address":"品川区広町2-1-36","lat":35.608836,"lon":139.730241},{"name":"品川保健センター","province":"東京都","city":"品川区","address":"品川区北品川3-11-22","lat":35.616586,"lon":139.740732},{"name":"大井保健センター","province":"東京都","city":"品川区","address":"品川区大井2-27-20","lat":35.604084,"lon":139.730375},{"name":"荏原保健センター","province":"東京都","city":"品川区","address":"品川区荏原2-9-6","lat":35.617185,"lon":139.711504},{"name":"品川区保健所","province":"東京都","city":"品川区","address":"東京都品川区広町2丁目1-36","lat":35.60881128,"lon":139.73028866},{"name":"品川保健センター","province":"東京都","city":"品川区","address":"東京都品川区北品川3丁目11-22","lat":35.61658571,"lon":139.74073199},{"name":"大井保健センター","province":"東京都","city":"品川区","address":"東京都品川区大井2丁目27-20","lat":35.60406184,"lon":139.73038047},{"name":"荏原保健センター","province":"東京都","city":"品川区","address":"東京都品川区西五反田6丁目6-6","lat":35.62309266,"lon":139.71741427},{"name":"品川区保健所","province":"東京都","city":"品川区","address":"品川区広町2-1-36","lat":35.6083,"lon":139.73096},{"name":"品川保健センター","province":"東京都","city":"品川区","address":"品川区北品川3-11-22","lat":35.61644,"lon":139.73927},{"name":"大井保健センター","province":"東京都","city":"品川区","address":"品川区大井2-27-20","lat":35.60418,"lon":139.73032},{"name":"荏原保健センター","province":"東京都","city":"品川区","address":"品川区西五反田6-6-6","lat":35.62268,"lon":139.71748},{"name":"荏原保健センター","province":"東京都","city":"品川区","address":"品川区荏原2-9-6","lat":35.61701,"lon":139.71111},{"name":"品川区保健所","province":"東京都","city":"品川区","address":"品川区広町2-1-36","lat":35.608836,"lon":139.730241},{"name":"品川保健センター","province":"東京都","city":"品川区","address":"品川区北品川3-11-22","lat":35.616586,"lon":139.740732},{"name":"大井保健センター","province":"東京都","city":"品川区","address":"品川区大井2-27-20","lat":35.604084,"lon":139.730375},{"name":"荏原保健センター","province":"東京都","city":"品川区","address":"品川区荏原2-9-6","lat":35.617185,"lon":139.711504},{"name":"品川区保健所","province":"東京都","city":"品川区","address":"東京都品川区広町2丁目1-36","lat":35.60881128,"lon":139.73028866},{"name":"品川保健センター","province":"東京都","city":"品川区","address":"東京都品川区北品川3丁目11-22","lat":35.61658571,"lon":139.74073199},{"name":"大井保健センター","province":"東京都","city":"品川区","address":"東京都品川区大井2丁目27-20","lat":35.60406184,"lon":139.73038047},{"name":"荏原保健センター","province":"東京都","city":"品川区","address":"東京都品川区西五反田6丁目6-6","lat":35.62309266,"lon":139.71741427},{"name":"品川区保健所","province":"東京都","city":"品川区","address":"品川区広町2-1-36","lat":35.6083,"lon":139.73096},{"name":"品川保健センター","province":"東京都","city":"品川区","address":"品川区北品川3-11-22","lat":35.61644,"lon":139.73927},{"name":"大井保健センター","province":"東京都","city":"品川区","address":"品川区大井2-27-20","lat":35.60418,"lon":139.73032},{"name":"荏原保健センター","province":"東京都","city":"品川区","address":"品川区西五反田6-6-6","lat":35.62268,"lon":139.71748},{"name":"荏原保健センター","province":"東京都","city":"品川区","address":"品川区荏原2-9-6","lat":35.61701,"lon":139.71111},{"name":"品川区保健所","province":"東京都","city":"品川区","address":"品川区広町2-1-36","lat":35.608836,"lon":139.730241},{"name":"品川保健センター","province":"東京都","city":"品川区","address":"品川区北品川3-11-22","lat":35.616586,"lon":139.740732},{"name":"大井保健センター","province":"東京都","city":"品川区","address":"品川区大井2-27-20","lat":35.604084,"lon":139.730375},{"name":"荏原保健センター","province":"東京都","city":"品川区","address":"品川区荏原2-9-6","lat":35.617185,"lon":139.711504},{"name":"品川区保健所","province":"東京都","city":"品川区","address":"東京都品川区広町2丁目1-36","lat":35.60881128,"lon":139.73028866},{"name":"品川保健センター","province":"東京都","city":"品川区","address":"東京都品川区北品川3丁目11-22","lat":35.61658571,"lon":139.74073199},{"name":"大井保健センター","province":"東京都","city":"品川区","address":"東京都品川区大井2丁目27-20","lat":35.60406184,"lon":139.73038047},{"name":"荏原保健センター","province":"東京都","city":"品川区","address":"東京都品川区西五反田6丁目6-6","lat":35.62309266,"lon":139.71741427},{"name":"品川区保健所","province":"東京都","city":"品川区","address":"品川区広町2-1-36","lat":35.6083,"lon":139.73096},{"name":"品川保健センター","province":"東京都","city":"品川区","address":"品川区北品川3-11-22","lat":35.61644,"lon":139.73927},{"name":"大井保健センター","province":"東京都","city":"品川区","address":"品川区大井2-27-20","lat":35.60418,"lon":139.73032},{"name":"荏原保健センター","province":"東京都","city":"品川区","address":"品川区西五反田6-6-6","lat":35.62268,"lon":139.71748},{"name":"荏原保健センター","province":"東京都","city":"品川区","address":"品川区荏原2-9-6","lat":35.61701,"lon":139.71111}]}