{"keyword":"センター","data":[{"name":"北品川シルバーセンター","province":"東京都","city":"品川区","address":"品川区北品川1-29-12","lat":35.62078,"lon":139.74176},{"name":"東品川シルバーセンター","province":"東京都","city":"品川区","address":"品川区東品川3-32-10","lat":35.614192,"lon":139.750748},{"name":"北品川シルバーセンター","province":"東京都","city":"品川区","address":"品川区北品川1-29-12","lat":35.620532,"lon":139.741771},{"name":"関ケ原シルバーセンター","province":"東京都","city":"品川区","address":"品川区東大井6-11-11","lat":35.601935,"lon":139.736483},{"name":"南大井シルバーセンター","province":"東京都","city":"品川区","address":"品川区南大井3-7-13","lat":35.591827,"lon":139.7343},{"name":"西大井いきいきセンター","province":"東京都","city":"品川区","address":"品川区西大井2-5-21","lat":35.599254,"lon":139.721865},{"name":"上大崎シルバーセンター","province":"東京都","city":"品川区","address":"品川区上大崎1-3-12","lat":35.634597,"lon":139.722075},{"name":"ゆたかシルバーセンター","province":"東京都","city":"品川区","address":"品川区豊町3-2-15","lat":35.608336,"lon":139.719606},{"name":"後地シルバーセンター","province":"東京都","city":"品川区","address":"品川区小山2-9-19","lat":35.620629,"lon":139.709198},{"name":"小山シルバーセンター","province":"東京都","city":"品川区","address":"品川区小山5-17-18","lat":35.614835,"lon":139.701441},{"name":"旗の台シルバーセンター","province":"東京都","city":"品川区","address":"品川区旗の台4-13-1","lat":35.602584,"lon":139.704669},{"name":"北品川シルバーセンター","province":"東京都","city":"品川区","address":"品川区北品川1-29-12","lat":35.62079,"lon":139.74176},{"name":"関ケ原シルバーセンター","province":"東京都","city":"品川区","address":"品川区東大井6-11-11","lat":35.60222,"lon":139.7363},{"name":"西大井いきいきセンター","province":"東京都","city":"品川区","address":"品川区西大井2-5-21","lat":35.59926,"lon":139.72263},{"name":"上大崎シルバーセンター","province":"東京都","city":"品川区","address":"品川区上大崎1-3-12","lat":35.635,"lon":139.72195},{"name":"後地シルバーセンター","province":"東京都","city":"品川区","address":"品川区小山2-9-19","lat":35.62122,"lon":139.70931},{"name":"品川区立東品川高齢者多世代交流支援施設　東品川ゆうゆうプラザ","province":"東京都","city":"品川区","address":"品川区東品川3-32-10","lat":35.61488,"lon":139.75073}]}