{"keyword":"メール","data":[{"name":"都立産業技術高等専門学校品川キャンパス","province":"東京都","city":"品川区","address":"東京都品川区東大井1丁目10-40","lat":35.60696497,"lon":139.7491345},{"name":"城南職業能力開発センター","province":"東京都","city":"品川区","address":"東京都品川区東品川3丁目31-16","lat":35.61250038,"lon":139.74965367},{"name":"大井ふ頭中央海浜公園","province":"東京都","city":"品川区","address":"東京都品川区八潮4丁目1-19","lat":35.59255032,"lon":139.75229052},{"name":"大井ふ頭中央海浜公園","province":"東京都","city":"品川区","address":"東京都品川区八潮4丁目2-1","lat":35.59337233,"lon":139.74986565},{"name":"大崎高等学校","province":"東京都","city":"品川区","address":"東京都品川区豊町2丁目1-7","lat":35.60950813,"lon":139.72128656},{"name":"小山台高等学校","province":"東京都","city":"品川区","address":"東京都品川区小山3丁目3-32","lat":35.62114821,"lon":139.70368496},{"name":"八潮高等学校","province":"東京都","city":"品川区","address":"東京都品川区東品川3丁目27-22","lat":35.61185035,"lon":139.74660949},{"name":"品川第一区民集会所","province":"東京都","city":"品川区","address":"品川区北品川3丁目11番16号","lat":35.616673,"lon":139.740036},{"name":"大崎第一区民集会所","province":"東京都","city":"品川区","address":"品川区西五反田3丁目6番3号","lat":35.627795,"lon":139.716815},{"name":"大崎第二区民集会所","province":"東京都","city":"品川区","address":"品川区大崎2丁目9番4号","lat":35.616808,"lon":139.727724},{"name":"五反田文化センター","province":"東京都","city":"品川区","address":"品川区西五反田6丁目5番1号","lat":35.622538,"lon":139.716574},{"name":"きゅりあん（品川区立総合区民会館）","province":"東京都","city":"品川区","address":"品川区東大井5丁目18番1号","lat":35.606223,"lon":139.735889},{"name":"城南職業能力開発センター","province":"東京都","city":"品川区","address":"品川区東品川3丁目31番16号","lat":35.61204,"lon":139.749783},{"name":"小山台高等学校","province":"東京都","city":"品川区","address":"品川区小山3丁目3番32号","lat":35.621184,"lon":139.703525},{"name":"大崎高等学校","province":"東京都","city":"品川区","address":"品川区豊町2丁目1番7号","lat":35.609565,"lon":139.721284},{"name":"大井ふ頭中央海浜公園ホッケー競技場","province":"東京都","city":"品川区","address":"品川区八潮4丁目1番19号","lat":35.592387,"lon":139.75299},{"name":"都立産業技術高等専門学校品川キャンパス","province":"東京都","city":"品川区","address":"東京都品川区東大井1丁目10-40","lat":35.60696497,"lon":139.7491345},{"name":"城南職業能力開発センター","province":"東京都","city":"品川区","address":"東京都品川区東品川3丁目31-16","lat":35.61250038,"lon":139.74965367},{"name":"大井ふ頭中央海浜公園","province":"東京都","city":"品川区","address":"東京都品川区八潮4丁目1-19","lat":35.59255032,"lon":139.75229052},{"name":"大井ふ頭中央海浜公園","province":"東京都","city":"品川区","address":"東京都品川区八潮4丁目2-1","lat":35.59337233,"lon":139.74986565},{"name":"大崎高等学校","province":"東京都","city":"品川区","address":"東京都品川区豊町2丁目1-7","lat":35.60950813,"lon":139.72128656},{"name":"小山台高等学校","province":"東京都","city":"品川区","address":"東京都品川区小山3丁目3-32","lat":35.62114821,"lon":139.70368496},{"name":"八潮高等学校","province":"東京都","city":"品川区","address":"東京都品川区東品川3丁目27-22","lat":35.61185035,"lon":139.74660949},{"name":"品川第一区民集会所","province":"東京都","city":"品川区","address":"品川区北品川3丁目11番16号","lat":35.616673,"lon":139.740036},{"name":"大崎第一区民集会所","province":"東京都","city":"品川区","address":"品川区西五反田3丁目6番3号","lat":35.627795,"lon":139.716815},{"name":"大崎第二区民集会所","province":"東京都","city":"品川区","address":"品川区大崎2丁目9番4号","lat":35.616808,"lon":139.727724},{"name":"五反田文化センター","province":"東京都","city":"品川区","address":"品川区西五反田6丁目5番1号","lat":35.622538,"lon":139.716574},{"name":"きゅりあん（品川区立総合区民会館）","province":"東京都","city":"品川区","address":"品川区東大井5丁目18番1号","lat":35.606223,"lon":139.735889},{"name":"城南職業能力開発センター","province":"東京都","city":"品川区","address":"品川区東品川3丁目31番16号","lat":35.61204,"lon":139.749783},{"name":"小山台高等学校","province":"東京都","city":"品川区","address":"品川区小山3丁目3番32号","lat":35.621184,"lon":139.703525},{"name":"大崎高等学校","province":"東京都","city":"品川区","address":"品川区豊町2丁目1番7号","lat":35.609565,"lon":139.721284},{"name":"大井ふ頭中央海浜公園ホッケー競技場","province":"東京都","city":"品川区","address":"品川区八潮4丁目1番19号","lat":35.592387,"lon":139.75299},{"name":"都立産業技術高等専門学校品川キャンパス","province":"東京都","city":"品川区","address":"東京都品川区東大井1丁目10-40","lat":35.60696497,"lon":139.7491345},{"name":"城南職業能力開発センター","province":"東京都","city":"品川区","address":"東京都品川区東品川3丁目31-16","lat":35.61250038,"lon":139.74965367},{"name":"大井ふ頭中央海浜公園","province":"東京都","city":"品川区","address":"東京都品川区八潮4丁目1-19","lat":35.59255032,"lon":139.75229052},{"name":"大井ふ頭中央海浜公園","province":"東京都","city":"品川区","address":"東京都品川区八潮4丁目2-1","lat":35.59337233,"lon":139.74986565},{"name":"大崎高等学校","province":"東京都","city":"品川区","address":"東京都品川区豊町2丁目1-7","lat":35.60950813,"lon":139.72128656},{"name":"小山台高等学校","province":"東京都","city":"品川区","address":"東京都品川区小山3丁目3-32","lat":35.62114821,"lon":139.70368496},{"name":"八潮高等学校","province":"東京都","city":"品川区","address":"東京都品川区東品川3丁目27-22","lat":35.61185035,"lon":139.74660949},{"name":"品川第一区民集会所","province":"東京都","city":"品川区","address":"品川区北品川3丁目11番16号","lat":35.616673,"lon":139.740036},{"name":"大崎第一区民集会所","province":"東京都","city":"品川区","address":"品川区西五反田3丁目6番3号","lat":35.627795,"lon":139.716815},{"name":"大崎第二区民集会所","province":"東京都","city":"品川区","address":"品川区大崎2丁目9番4号","lat":35.616808,"lon":139.727724},{"name":"五反田文化センター","province":"東京都","city":"品川区","address":"品川区西五反田6丁目5番1号","lat":35.622538,"lon":139.716574},{"name":"きゅりあん（品川区立総合区民会館）","province":"東京都","city":"品川区","address":"品川区東大井5丁目18番1号","lat":35.606223,"lon":139.735889},{"name":"城南職業能力開発センター","province":"東京都","city":"品川区","address":"品川区東品川3丁目31番16号","lat":35.61204,"lon":139.749783},{"name":"小山台高等学校","province":"東京都","city":"品川区","address":"品川区小山3丁目3番32号","lat":35.621184,"lon":139.703525},{"name":"大崎高等学校","province":"東京都","city":"品川区","address":"品川区豊町2丁目1番7号","lat":35.609565,"lon":139.721284},{"name":"大井ふ頭中央海浜公園ホッケー競技場","province":"東京都","city":"品川区","address":"品川区八潮4丁目1番19号","lat":35.592387,"lon":139.75299},{"name":"都立産業技術高等専門学校品川キャンパス","province":"東京都","city":"品川区","address":"東京都品川区東大井1丁目10-40","lat":35.60696497,"lon":139.7491345},{"name":"城南職業能力開発センター","province":"東京都","city":"品川区","address":"東京都品川区東品川3丁目31-16","lat":35.61250038,"lon":139.74965367},{"name":"大井ふ頭中央海浜公園","province":"東京都","city":"品川区","address":"東京都品川区八潮4丁目1-19","lat":35.59255032,"lon":139.75229052},{"name":"大井ふ頭中央海浜公園","province":"東京都","city":"品川区","address":"東京都品川区八潮4丁目2-1","lat":35.59337233,"lon":139.74986565},{"name":"大崎高等学校","province":"東京都","city":"品川区","address":"東京都品川区豊町2丁目1-7","lat":35.60950813,"lon":139.72128656},{"name":"小山台高等学校","province":"東京都","city":"品川区","address":"東京都品川区小山3丁目3-32","lat":35.62114821,"lon":139.70368496},{"name":"八潮高等学校","province":"東京都","city":"品川区","address":"東京都品川区東品川3丁目27-22","lat":35.61185035,"lon":139.74660949},{"name":"品川第一区民集会所","province":"東京都","city":"品川区","address":"品川区北品川3丁目11番16号","lat":35.616673,"lon":139.740036},{"name":"大崎第一区民集会所","province":"東京都","city":"品川区","address":"品川区西五反田3丁目6番3号","lat":35.627795,"lon":139.716815},{"name":"大崎第二区民集会所","province":"東京都","city":"品川区","address":"品川区大崎2丁目9番4号","lat":35.616808,"lon":139.727724},{"name":"五反田文化センター","province":"東京都","city":"品川区","address":"品川区西五反田6丁目5番1号","lat":35.622538,"lon":139.716574},{"name":"きゅりあん（品川区立総合区民会館）","province":"東京都","city":"品川区","address":"品川区東大井5丁目18番1号","lat":35.606223,"lon":139.735889},{"name":"城南職業能力開発センター","province":"東京都","city":"品川区","address":"品川区東品川3丁目31番16号","lat":35.61204,"lon":139.749783},{"name":"小山台高等学校","province":"東京都","city":"品川区","address":"品川区小山3丁目3番32号","lat":35.621184,"lon":139.703525},{"name":"大崎高等学校","province":"東京都","city":"品川区","address":"品川区豊町2丁目1番7号","lat":35.609565,"lon":139.721284},{"name":"大井ふ頭中央海浜公園ホッケー競技場","province":"東京都","city":"品川区","address":"品川区八潮4丁目1番19号","lat":35.592387,"lon":139.75299},{"name":"都立産業技術高等専門学校品川キャンパス","province":"東京都","city":"品川区","address":"東京都品川区東大井1丁目10-40","lat":35.60696497,"lon":139.7491345},{"name":"城南職業能力開発センター","province":"東京都","city":"品川区","address":"東京都品川区東品川3丁目31-16","lat":35.61250038,"lon":139.74965367},{"name":"大井ふ頭中央海浜公園","province":"東京都","city":"品川区","address":"東京都品川区八潮4丁目1-19","lat":35.59255032,"lon":139.75229052},{"name":"大井ふ頭中央海浜公園","province":"東京都","city":"品川区","address":"東京都品川区八潮4丁目2-1","lat":35.59337233,"lon":139.74986565},{"name":"大崎高等学校","province":"東京都","city":"品川区","address":"東京都品川区豊町2丁目1-7","lat":35.60950813,"lon":139.72128656},{"name":"小山台高等学校","province":"東京都","city":"品川区","address":"東京都品川区小山3丁目3-32","lat":35.62114821,"lon":139.70368496},{"name":"八潮高等学校","province":"東京都","city":"品川区","address":"東京都品川区東品川3丁目27-22","lat":35.61185035,"lon":139.74660949},{"name":"品川第一区民集会所","province":"東京都","city":"品川区","address":"品川区北品川3丁目11番16号","lat":35.616673,"lon":139.740036},{"name":"大崎第一区民集会所","province":"東京都","city":"品川区","address":"品川区西五反田3丁目6番3号","lat":35.627795,"lon":139.716815},{"name":"大崎第二区民集会所","province":"東京都","city":"品川区","address":"品川区大崎2丁目9番4号","lat":35.616808,"lon":139.727724},{"name":"五反田文化センター","province":"東京都","city":"品川区","address":"品川区西五反田6丁目5番1号","lat":35.622538,"lon":139.716574},{"name":"きゅりあん（品川区立総合区民会館）","province":"東京都","city":"品川区","address":"品川区東大井5丁目18番1号","lat":35.606223,"lon":139.735889},{"name":"城南職業能力開発センター","province":"東京都","city":"品川区","address":"品川区東品川3丁目31番16号","lat":35.61204,"lon":139.749783},{"name":"小山台高等学校","province":"東京都","city":"品川区","address":"品川区小山3丁目3番32号","lat":35.621184,"lon":139.703525},{"name":"大崎高等学校","province":"東京都","city":"品川区","address":"品川区豊町2丁目1番7号","lat":35.609565,"lon":139.721284},{"name":"大井ふ頭中央海浜公園ホッケー競技場","province":"東京都","city":"品川区","address":"品川区八潮4丁目1番19号","lat":35.592387,"lon":139.75299},{"name":"都立産業技術高等専門学校品川キャンパス","province":"東京都","city":"品川区","address":"東京都品川区東大井1丁目10-40","lat":35.60696497,"lon":139.7491345},{"name":"城南職業能力開発センター","province":"東京都","city":"品川区","address":"東京都品川区東品川3丁目31-16","lat":35.61250038,"lon":139.74965367},{"name":"大井ふ頭中央海浜公園","province":"東京都","city":"品川区","address":"東京都品川区八潮4丁目1-19","lat":35.59255032,"lon":139.75229052},{"name":"大井ふ頭中央海浜公園","province":"東京都","city":"品川区","address":"東京都品川区八潮4丁目2-1","lat":35.59337233,"lon":139.74986565},{"name":"大崎高等学校","province":"東京都","city":"品川区","address":"東京都品川区豊町2丁目1-7","lat":35.60950813,"lon":139.72128656},{"name":"小山台高等学校","province":"東京都","city":"品川区","address":"東京都品川区小山3丁目3-32","lat":35.62114821,"lon":139.70368496},{"name":"八潮高等学校","province":"東京都","city":"品川区","address":"東京都品川区東品川3丁目27-22","lat":35.61185035,"lon":139.74660949},{"name":"品川第一区民集会所","province":"東京都","city":"品川区","address":"品川区北品川3丁目11番16号","lat":35.616673,"lon":139.740036},{"name":"大崎第一区民集会所","province":"東京都","city":"品川区","address":"品川区西五反田3丁目6番3号","lat":35.627795,"lon":139.716815},{"name":"大崎第二区民集会所","province":"東京都","city":"品川区","address":"品川区大崎2丁目9番4号","lat":35.616808,"lon":139.727724},{"name":"五反田文化センター","province":"東京都","city":"品川区","address":"品川区西五反田6丁目5番1号","lat":35.622538,"lon":139.716574},{"name":"きゅりあん（品川区立総合区民会館）","province":"東京都","city":"品川区","address":"品川区東大井5丁目18番1号","lat":35.606223,"lon":139.735889},{"name":"城南職業能力開発センター","province":"東京都","city":"品川区","address":"品川区東品川3丁目31番16号","lat":35.61204,"lon":139.749783},{"name":"小山台高等学校","province":"東京都","city":"品川区","address":"品川区小山3丁目3番32号","lat":35.621184,"lon":139.703525},{"name":"大崎高等学校","province":"東京都","city":"品川区","address":"品川区豊町2丁目1番7号","lat":35.609565,"lon":139.721284},{"name":"大井ふ頭中央海浜公園ホッケー競技場","province":"東京都","city":"品川区","address":"品川区八潮4丁目1番19号","lat":35.592387,"lon":139.75299},{"name":"都立産業技術高等専門学校品川キャンパス","province":"東京都","city":"品川区","address":"東京都品川区東大井1丁目10-40","lat":35.60696497,"lon":139.7491345},{"name":"城南職業能力開発センター","province":"東京都","city":"品川区","address":"東京都品川区東品川3丁目31-16","lat":35.61250038,"lon":139.74965367},{"name":"大井ふ頭中央海浜公園","province":"東京都","city":"品川区","address":"東京都品川区八潮4丁目1-19","lat":35.59255032,"lon":139.75229052},{"name":"大井ふ頭中央海浜公園","province":"東京都","city":"品川区","address":"東京都品川区八潮4丁目2-1","lat":35.59337233,"lon":139.74986565},{"name":"大崎高等学校","province":"東京都","city":"品川区","address":"東京都品川区豊町2丁目1-7","lat":35.60950813,"lon":139.72128656},{"name":"小山台高等学校","province":"東京都","city":"品川区","address":"東京都品川区小山3丁目3-32","lat":35.62114821,"lon":139.70368496},{"name":"八潮高等学校","province":"東京都","city":"品川区","address":"東京都品川区東品川3丁目27-22","lat":35.61185035,"lon":139.74660949},{"name":"品川第一区民集会所","province":"東京都","city":"品川区","address":"品川区北品川3丁目11番16号","lat":35.616673,"lon":139.740036},{"name":"大崎第一区民集会所","province":"東京都","city":"品川区","address":"品川区西五反田3丁目6番3号","lat":35.627795,"lon":139.716815},{"name":"大崎第二区民集会所","province":"東京都","city":"品川区","address":"品川区大崎2丁目9番4号","lat":35.616808,"lon":139.727724},{"name":"五反田文化センター","province":"東京都","city":"品川区","address":"品川区西五反田6丁目5番1号","lat":35.622538,"lon":139.716574},{"name":"きゅりあん（品川区立総合区民会館）","province":"東京都","city":"品川区","address":"品川区東大井5丁目18番1号","lat":35.606223,"lon":139.735889},{"name":"城南職業能力開発センター","province":"東京都","city":"品川区","address":"品川区東品川3丁目31番16号","lat":35.61204,"lon":139.749783},{"name":"小山台高等学校","province":"東京都","city":"品川区","address":"品川区小山3丁目3番32号","lat":35.621184,"lon":139.703525},{"name":"大崎高等学校","province":"東京都","city":"品川区","address":"品川区豊町2丁目1番7号","lat":35.609565,"lon":139.721284},{"name":"大井ふ頭中央海浜公園ホッケー競技場","province":"東京都","city":"品川区","address":"品川区八潮4丁目1番19号","lat":35.592387,"lon":139.75299},{"name":"品川第一区民集会所","province":"東京都","city":"品川区","address":"品川区北品川3丁目11番16号","lat":35.616673,"lon":139.740036},{"name":"大崎第一区民集会所","province":"東京都","city":"品川区","address":"品川区西五反田3丁目6番3号","lat":35.627795,"lon":139.716815},{"name":"大崎第二区民集会所","province":"東京都","city":"品川区","address":"品川区大崎2丁目9番4号","lat":35.616808,"lon":139.727724},{"name":"五反田文化センター","province":"東京都","city":"品川区","address":"品川区西五反田6丁目5番1号","lat":35.622538,"lon":139.716574},{"name":"きゅりあん（品川区立総合区民会館）","province":"東京都","city":"品川区","address":"品川区東大井5丁目18番1号","lat":35.606223,"lon":139.735889},{"name":"城南職業能力開発センター","province":"東京都","city":"品川区","address":"品川区東品川3丁目31番16号","lat":35.61204,"lon":139.749783},{"name":"小山台高等学校","province":"東京都","city":"品川区","address":"品川区小山3丁目3番32号","lat":35.621184,"lon":139.703525},{"name":"大崎高等学校","province":"東京都","city":"品川区","address":"品川区豊町2丁目1番7号","lat":35.609565,"lon":139.721284},{"name":"大井ふ頭中央海浜公園ホッケー競技場","province":"東京都","city":"品川区","address":"品川区八潮4丁目1番19号","lat":35.592387,"lon":139.75299},{"name":"品川第一区民集会所","province":"東京都","city":"品川区","address":"品川区北品川3丁目11番16号","lat":35.616673,"lon":139.740036},{"name":"大崎第一区民集会所","province":"東京都","city":"品川区","address":"品川区西五反田3丁目6番3号","lat":35.627795,"lon":139.716815},{"name":"大崎第二区民集会所","province":"東京都","city":"品川区","address":"品川区大崎2丁目9番4号","lat":35.616808,"lon":139.727724},{"name":"五反田文化センター","province":"東京都","city":"品川区","address":"品川区西五反田6丁目5番1号","lat":35.622538,"lon":139.716574},{"name":"きゅりあん（品川区立総合区民会館）","province":"東京都","city":"品川区","address":"品川区東大井5丁目18番1号","lat":35.606223,"lon":139.735889},{"name":"城南職業能力開発センター","province":"東京都","city":"品川区","address":"品川区東品川3丁目31番16号","lat":35.61204,"lon":139.749783},{"name":"小山台高等学校","province":"東京都","city":"品川区","address":"品川区小山3丁目3番32号","lat":35.621184,"lon":139.703525},{"name":"大崎高等学校","province":"東京都","city":"品川区","address":"品川区豊町2丁目1番7号","lat":35.609565,"lon":139.721284},{"name":"大井ふ頭中央海浜公園ホッケー競技場","province":"東京都","city":"品川区","address":"品川区八潮4丁目1番19号","lat":35.592387,"lon":139.75299},{"name":"品川第一区民集会所","province":"東京都","city":"品川区","address":"品川区北品川3丁目11番16号","lat":35.616673,"lon":139.740036},{"name":"大崎第一区民集会所","province":"東京都","city":"品川区","address":"品川区西五反田3丁目6番3号","lat":35.627795,"lon":139.716815},{"name":"大崎第二区民集会所","province":"東京都","city":"品川区","address":"品川区大崎2丁目9番4号","lat":35.616808,"lon":139.727724},{"name":"五反田文化センター","province":"東京都","city":"品川区","address":"品川区西五反田6丁目5番1号","lat":35.622538,"lon":139.716574},{"name":"きゅりあん（品川区立総合区民会館）","province":"東京都","city":"品川区","address":"品川区東大井5丁目18番1号","lat":35.606223,"lon":139.735889},{"name":"城南職業能力開発センター","province":"東京都","city":"品川区","address":"品川区東品川3丁目31番16号","lat":35.61204,"lon":139.749783},{"name":"小山台高等学校","province":"東京都","city":"品川区","address":"品川区小山3丁目3番32号","lat":35.621184,"lon":139.703525},{"name":"大崎高等学校","province":"東京都","city":"品川区","address":"品川区豊町2丁目1番7号","lat":35.609565,"lon":139.721284},{"name":"大井ふ頭中央海浜公園ホッケー競技場","province":"東京都","city":"品川区","address":"品川区八潮4丁目1番19号","lat":35.592387,"lon":139.75299},{"name":"品川第一区民集会所","province":"東京都","city":"品川区","address":"品川区北品川3丁目11番16号","lat":35.616673,"lon":139.740036},{"name":"大崎第一区民集会所","province":"東京都","city":"品川区","address":"品川区西五反田3丁目6番3号","lat":35.627795,"lon":139.716815},{"name":"大崎第二区民集会所","province":"東京都","city":"品川区","address":"品川区大崎2丁目9番4号","lat":35.616808,"lon":139.727724},{"name":"五反田文化センター","province":"東京都","city":"品川区","address":"品川区西五反田6丁目5番1号","lat":35.622538,"lon":139.716574},{"name":"きゅりあん（品川区立総合区民会館）","province":"東京都","city":"品川区","address":"品川区東大井5丁目18番1号","lat":35.606223,"lon":139.735889},{"name":"城南職業能力開発センター","province":"東京都","city":"品川区","address":"品川区東品川3丁目31番16号","lat":35.61204,"lon":139.749783},{"name":"小山台高等学校","province":"東京都","city":"品川区","address":"品川区小山3丁目3番32号","lat":35.621184,"lon":139.703525},{"name":"大崎高等学校","province":"東京都","city":"品川区","address":"品川区豊町2丁目1番7号","lat":35.609565,"lon":139.721284},{"name":"大井ふ頭中央海浜公園ホッケー競技場","province":"東京都","city":"品川区","address":"品川区八潮4丁目1番19号","lat":35.592387,"lon":139.75299},{"name":"品川第一区民集会所","province":"東京都","city":"品川区","address":"品川区北品川3丁目11番16号","lat":35.616673,"lon":139.740036},{"name":"大崎第一区民集会所","province":"東京都","city":"品川区","address":"品川区西五反田3丁目6番3号","lat":35.627795,"lon":139.716815},{"name":"大崎第二区民集会所","province":"東京都","city":"品川区","address":"品川区大崎2丁目9番4号","lat":35.616808,"lon":139.727724},{"name":"五反田文化センター","province":"東京都","city":"品川区","address":"品川区西五反田6丁目5番1号","lat":35.622538,"lon":139.716574},{"name":"きゅりあん（品川区立総合区民会館）","province":"東京都","city":"品川区","address":"品川区東大井5丁目18番1号","lat":35.606223,"lon":139.735889},{"name":"城南職業能力開発センター","province":"東京都","city":"品川区","address":"品川区東品川3丁目31番16号","lat":35.61204,"lon":139.749783},{"name":"小山台高等学校","province":"東京都","city":"品川区","address":"品川区小山3丁目3番32号","lat":35.621184,"lon":139.703525},{"name":"大崎高等学校","province":"東京都","city":"品川区","address":"品川区豊町2丁目1番7号","lat":35.609565,"lon":139.721284},{"name":"大井ふ頭中央海浜公園ホッケー競技場","province":"東京都","city":"品川区","address":"品川区八潮4丁目1番19号","lat":35.592387,"lon":139.75299},{"name":"品川第一区民集会所","province":"東京都","city":"品川区","address":"品川区北品川3丁目11番16号","lat":35.616673,"lon":139.740036},{"name":"大崎第一区民集会所","province":"東京都","city":"品川区","address":"品川区西五反田3丁目6番3号","lat":35.627795,"lon":139.716815},{"name":"大崎第二区民集会所","province":"東京都","city":"品川区","address":"品川区大崎2丁目9番4号","lat":35.616808,"lon":139.727724},{"name":"五反田文化センター","province":"東京都","city":"品川区","address":"品川区西五反田6丁目5番1号","lat":35.622538,"lon":139.716574},{"name":"きゅりあん（品川区立総合区民会館）","province":"東京都","city":"品川区","address":"品川区東大井5丁目18番1号","lat":35.606223,"lon":139.735889},{"name":"城南職業能力開発センター","province":"東京都","city":"品川区","address":"品川区東品川3丁目31番16号","lat":35.61204,"lon":139.749783},{"name":"小山台高等学校","province":"東京都","city":"品川区","address":"品川区小山3丁目3番32号","lat":35.621184,"lon":139.703525},{"name":"大崎高等学校","province":"東京都","city":"品川区","address":"品川区豊町2丁目1番7号","lat":35.609565,"lon":139.721284},{"name":"大井ふ頭中央海浜公園ホッケー競技場","province":"東京都","city":"品川区","address":"品川区八潮4丁目1番19号","lat":35.592387,"lon":139.75299},{"name":"品川第一区民集会所","province":"東京都","city":"品川区","address":"品川区北品川3丁目11番16号","lat":35.616673,"lon":139.740036},{"name":"大崎第一区民集会所","province":"東京都","city":"品川区","address":"品川区西五反田3丁目6番3号","lat":35.627795,"lon":139.716815},{"name":"大崎第二区民集会所","province":"東京都","city":"品川区","address":"品川区大崎2丁目9番4号","lat":35.616808,"lon":139.727724},{"name":"五反田文化センター","province":"東京都","city":"品川区","address":"品川区西五反田6丁目5番1号","lat":35.622538,"lon":139.716574},{"name":"きゅりあん（品川区立総合区民会館）","province":"東京都","city":"品川区","address":"品川区東大井5丁目18番1号","lat":35.606223,"lon":139.735889},{"name":"城南職業能力開発センター","province":"東京都","city":"品川区","address":"品川区東品川3丁目31番16号","lat":35.61204,"lon":139.749783},{"name":"小山台高等学校","province":"東京都","city":"品川区","address":"品川区小山3丁目3番32号","lat":35.621184,"lon":139.703525},{"name":"大崎高等学校","province":"東京都","city":"品川区","address":"品川区豊町2丁目1番7号","lat":35.609565,"lon":139.721284},{"name":"大井ふ頭中央海浜公園ホッケー競技場","province":"東京都","city":"品川区","address":"品川区八潮4丁目1番19号","lat":35.592387,"lon":139.75299},{"name":"品川第一区民集会所","province":"東京都","city":"品川区","address":"品川区北品川3丁目11番16号","lat":35.616673,"lon":139.740036},{"name":"大崎第一区民集会所","province":"東京都","city":"品川区","address":"品川区西五反田3丁目6番3号","lat":35.627795,"lon":139.716815},{"name":"大崎第二区民集会所","province":"東京都","city":"品川区","address":"品川区大崎2丁目9番4号","lat":35.616808,"lon":139.727724},{"name":"五反田文化センター","province":"東京都","city":"品川区","address":"品川区西五反田6丁目5番1号","lat":35.622538,"lon":139.716574},{"name":"きゅりあん（品川区立総合区民会館）","province":"東京都","city":"品川区","address":"品川区東大井5丁目18番1号","lat":35.606223,"lon":139.735889},{"name":"城南職業能力開発センター","province":"東京都","city":"品川区","address":"品川区東品川3丁目31番16号","lat":35.61204,"lon":139.749783},{"name":"小山台高等学校","province":"東京都","city":"品川区","address":"品川区小山3丁目3番32号","lat":35.621184,"lon":139.703525},{"name":"大崎高等学校","province":"東京都","city":"品川区","address":"品川区豊町2丁目1番7号","lat":35.609565,"lon":139.721284},{"name":"大井ふ頭中央海浜公園ホッケー競技場","province":"東京都","city":"品川区","address":"品川区八潮4丁目1番19号","lat":35.592387,"lon":139.75299},{"name":"品川第一区民集会所","province":"東京都","city":"品川区","address":"品川区北品川3丁目11番16号","lat":35.616673,"lon":139.740036},{"name":"大崎第一区民集会所","province":"東京都","city":"品川区","address":"品川区西五反田3丁目6番3号","lat":35.627795,"lon":139.716815},{"name":"大崎第二区民集会所","province":"東京都","city":"品川区","address":"品川区大崎2丁目9番4号","lat":35.616808,"lon":139.727724},{"name":"五反田文化センター","province":"東京都","city":"品川区","address":"品川区西五反田6丁目5番1号","lat":35.622538,"lon":139.716574},{"name":"きゅりあん（品川区立総合区民会館）","province":"東京都","city":"品川区","address":"品川区東大井5丁目18番1号","lat":35.606223,"lon":139.735889},{"name":"城南職業能力開発センター","province":"東京都","city":"品川区","address":"品川区東品川3丁目31番16号","lat":35.61204,"lon":139.749783},{"name":"小山台高等学校","province":"東京都","city":"品川区","address":"品川区小山3丁目3番32号","lat":35.621184,"lon":139.703525},{"name":"大崎高等学校","province":"東京都","city":"品川区","address":"品川区豊町2丁目1番7号","lat":35.609565,"lon":139.721284},{"name":"大井ふ頭中央海浜公園ホッケー競技場","province":"東京都","city":"品川区","address":"品川区八潮4丁目1番19号","lat":35.592387,"lon":139.75299},{"name":"品川第一区民集会所","province":"東京都","city":"品川区","address":"品川区北品川3丁目11番16号","lat":35.616673,"lon":139.740036},{"name":"大崎第一区民集会所","province":"東京都","city":"品川区","address":"品川区西五反田3丁目6番3号","lat":35.627795,"lon":139.716815},{"name":"大崎第二区民集会所","province":"東京都","city":"品川区","address":"品川区大崎2丁目9番4号","lat":35.616808,"lon":139.727724},{"name":"五反田文化センター","province":"東京都","city":"品川区","address":"品川区西五反田6丁目5番1号","lat":35.622538,"lon":139.716574},{"name":"きゅりあん（品川区立総合区民会館）","province":"東京都","city":"品川区","address":"品川区東大井5丁目18番1号","lat":35.606223,"lon":139.735889},{"name":"城南職業能力開発センター","province":"東京都","city":"品川区","address":"品川区東品川3丁目31番16号","lat":35.61204,"lon":139.749783},{"name":"小山台高等学校","province":"東京都","city":"品川区","address":"品川区小山3丁目3番32号","lat":35.621184,"lon":139.703525},{"name":"大崎高等学校","province":"東京都","city":"品川区","address":"品川区豊町2丁目1番7号","lat":35.609565,"lon":139.721284},{"name":"大井ふ頭中央海浜公園ホッケー競技場","province":"東京都","city":"品川区","address":"品川区八潮4丁目1番19号","lat":35.592387,"lon":139.75299},{"name":"品川第一区民集会所","province":"東京都","city":"品川区","address":"品川区北品川3丁目11番16号","lat":35.616673,"lon":139.740036},{"name":"大崎第一区民集会所","province":"東京都","city":"品川区","address":"品川区西五反田3丁目6番3号","lat":35.627795,"lon":139.716815},{"name":"大崎第二区民集会所","province":"東京都","city":"品川区","address":"品川区大崎2丁目9番4号","lat":35.616808,"lon":139.727724},{"name":"五反田文化センター","province":"東京都","city":"品川区","address":"品川区西五反田6丁目5番1号","lat":35.622538,"lon":139.716574},{"name":"きゅりあん（品川区立総合区民会館）","province":"東京都","city":"品川区","address":"品川区東大井5丁目18番1号","lat":35.606223,"lon":139.735889},{"name":"城南職業能力開発センター","province":"東京都","city":"品川区","address":"品川区東品川3丁目31番16号","lat":35.61204,"lon":139.749783},{"name":"小山台高等学校","province":"東京都","city":"品川区","address":"品川区小山3丁目3番32号","lat":35.621184,"lon":139.703525},{"name":"大崎高等学校","province":"東京都","city":"品川区","address":"品川区豊町2丁目1番7号","lat":35.609565,"lon":139.721284},{"name":"大井ふ頭中央海浜公園ホッケー競技場","province":"東京都","city":"品川区","address":"品川区八潮4丁目1番19号","lat":35.592387,"lon":139.75299},{"name":"品川第一区民集会所","province":"東京都","city":"品川区","address":"品川区北品川3丁目11番16号","lat":35.616673,"lon":139.740036},{"name":"大崎第一区民集会所","province":"東京都","city":"品川区","address":"品川区西五反田3丁目6番3号","lat":35.627795,"lon":139.716815},{"name":"大崎第二区民集会所","province":"東京都","city":"品川区","address":"品川区大崎2丁目9番4号","lat":35.616808,"lon":139.727724},{"name":"五反田文化センター","province":"東京都","city":"品川区","address":"品川区西五反田6丁目5番1号","lat":35.622538,"lon":139.716574},{"name":"きゅりあん（品川区立総合区民会館）","province":"東京都","city":"品川区","address":"品川区東大井5丁目18番1号","lat":35.606223,"lon":139.735889},{"name":"城南職業能力開発センター","province":"東京都","city":"品川区","address":"品川区東品川3丁目31番16号","lat":35.61204,"lon":139.749783},{"name":"小山台高等学校","province":"東京都","city":"品川区","address":"品川区小山3丁目3番32号","lat":35.621184,"lon":139.703525},{"name":"大崎高等学校","province":"東京都","city":"品川区","address":"品川区豊町2丁目1番7号","lat":35.609565,"lon":139.721284},{"name":"大井ふ頭中央海浜公園ホッケー競技場","province":"東京都","city":"品川区","address":"品川区八潮4丁目1番19号","lat":35.592387,"lon":139.75299},{"name":"品川第一区民集会所","province":"東京都","city":"品川区","address":"品川区北品川3丁目11番16号","lat":35.616673,"lon":139.740036},{"name":"大崎第一区民集会所","province":"東京都","city":"品川区","address":"品川区西五反田3丁目6番3号","lat":35.627795,"lon":139.716815},{"name":"大崎第二区民集会所","province":"東京都","city":"品川区","address":"品川区大崎2丁目9番4号","lat":35.616808,"lon":139.727724},{"name":"五反田文化センター","province":"東京都","city":"品川区","address":"品川区西五反田6丁目5番1号","lat":35.622538,"lon":139.716574},{"name":"きゅりあん（品川区立総合区民会館）","province":"東京都","city":"品川区","address":"品川区東大井5丁目18番1号","lat":35.606223,"lon":139.735889},{"name":"城南職業能力開発センター","province":"東京都","city":"品川区","address":"品川区東品川3丁目31番16号","lat":35.61204,"lon":139.749783},{"name":"小山台高等学校","province":"東京都","city":"品川区","address":"品川区小山3丁目3番32号","lat":35.621184,"lon":139.703525},{"name":"大崎高等学校","province":"東京都","city":"品川区","address":"品川区豊町2丁目1番7号","lat":35.609565,"lon":139.721284},{"name":"大井ふ頭中央海浜公園ホッケー競技場","province":"東京都","city":"品川区","address":"品川区八潮4丁目1番19号","lat":35.592387,"lon":139.75299},{"name":"品川第一区民集会所","province":"東京都","city":"品川区","address":"品川区北品川3丁目11番16号","lat":35.616673,"lon":139.740036},{"name":"大崎第一区民集会所","province":"東京都","city":"品川区","address":"品川区西五反田3丁目6番3号","lat":35.627795,"lon":139.716815},{"name":"大崎第二区民集会所","province":"東京都","city":"品川区","address":"品川区大崎2丁目9番4号","lat":35.616808,"lon":139.727724},{"name":"五反田文化センター","province":"東京都","city":"品川区","address":"品川区西五反田6丁目5番1号","lat":35.622538,"lon":139.716574},{"name":"きゅりあん（品川区立総合区民会館）","province":"東京都","city":"品川区","address":"品川区東大井5丁目18番1号","lat":35.606223,"lon":139.735889},{"name":"城南職業能力開発センター","province":"東京都","city":"品川区","address":"品川区東品川3丁目31番16号","lat":35.61204,"lon":139.749783},{"name":"小山台高等学校","province":"東京都","city":"品川区","address":"品川区小山3丁目3番32号","lat":35.621184,"lon":139.703525},{"name":"大崎高等学校","province":"東京都","city":"品川区","address":"品川区豊町2丁目1番7号","lat":35.609565,"lon":139.721284},{"name":"大井ふ頭中央海浜公園ホッケー競技場","province":"東京都","city":"品川区","address":"品川区八潮4丁目1番19号","lat":35.592387,"lon":139.75299},{"name":"品川第一区民集会所","province":"東京都","city":"品川区","address":"品川区北品川3丁目11番16号","lat":35.616673,"lon":139.740036},{"name":"大崎第一区民集会所","province":"東京都","city":"品川区","address":"品川区西五反田3丁目6番3号","lat":35.627795,"lon":139.716815},{"name":"大崎第二区民集会所","province":"東京都","city":"品川区","address":"品川区大崎2丁目9番4号","lat":35.616808,"lon":139.727724},{"name":"五反田文化センター","province":"東京都","city":"品川区","address":"品川区西五反田6丁目5番1号","lat":35.622538,"lon":139.716574},{"name":"きゅりあん（品川区立総合区民会館）","province":"東京都","city":"品川区","address":"品川区東大井5丁目18番1号","lat":35.606223,"lon":139.735889},{"name":"城南職業能力開発センター","province":"東京都","city":"品川区","address":"品川区東品川3丁目31番16号","lat":35.61204,"lon":139.749783},{"name":"小山台高等学校","province":"東京都","city":"品川区","address":"品川区小山3丁目3番32号","lat":35.621184,"lon":139.703525},{"name":"大崎高等学校","province":"東京都","city":"品川区","address":"品川区豊町2丁目1番7号","lat":35.609565,"lon":139.721284},{"name":"大井ふ頭中央海浜公園ホッケー競技場","province":"東京都","city":"品川区","address":"品川区八潮4丁目1番19号","lat":35.592387,"lon":139.75299},{"name":"品川第一区民集会所","province":"東京都","city":"品川区","address":"品川区北品川3丁目11番16号","lat":35.616673,"lon":139.740036},{"name":"大崎第一区民集会所","province":"東京都","city":"品川区","address":"品川区西五反田3丁目6番3号","lat":35.627795,"lon":139.716815},{"name":"大崎第二区民集会所","province":"東京都","city":"品川区","address":"品川区大崎2丁目9番4号","lat":35.616808,"lon":139.727724},{"name":"五反田文化センター","province":"東京都","city":"品川区","address":"品川区西五反田6丁目5番1号","lat":35.622538,"lon":139.716574},{"name":"きゅりあん（品川区立総合区民会館）","province":"東京都","city":"品川区","address":"品川区東大井5丁目18番1号","lat":35.606223,"lon":139.735889},{"name":"城南職業能力開発センター","province":"東京都","city":"品川区","address":"品川区東品川3丁目31番16号","lat":35.61204,"lon":139.749783},{"name":"小山台高等学校","province":"東京都","city":"品川区","address":"品川区小山3丁目3番32号","lat":35.621184,"lon":139.703525},{"name":"大崎高等学校","province":"東京都","city":"品川区","address":"品川区豊町2丁目1番7号","lat":35.609565,"lon":139.721284},{"name":"大井ふ頭中央海浜公園ホッケー競技場","province":"東京都","city":"品川区","address":"品川区八潮4丁目1番19号","lat":35.592387,"lon":139.75299},{"name":"品川第一区民集会所","province":"東京都","city":"品川区","address":"品川区北品川3丁目11番16号","lat":35.616673,"lon":139.740036},{"name":"大崎第一区民集会所","province":"東京都","city":"品川区","address":"品川区西五反田3丁目6番3号","lat":35.627795,"lon":139.716815},{"name":"大崎第二区民集会所","province":"東京都","city":"品川区","address":"品川区大崎2丁目9番4号","lat":35.616808,"lon":139.727724},{"name":"五反田文化センター","province":"東京都","city":"品川区","address":"品川区西五反田6丁目5番1号","lat":35.622538,"lon":139.716574},{"name":"きゅりあん（品川区立総合区民会館）","province":"東京都","city":"品川区","address":"品川区東大井5丁目18番1号","lat":35.606223,"lon":139.735889},{"name":"城南職業能力開発センター","province":"東京都","city":"品川区","address":"品川区東品川3丁目31番16号","lat":35.61204,"lon":139.749783},{"name":"小山台高等学校","province":"東京都","city":"品川区","address":"品川区小山3丁目3番32号","lat":35.621184,"lon":139.703525},{"name":"大崎高等学校","province":"東京都","city":"品川区","address":"品川区豊町2丁目1番7号","lat":35.609565,"lon":139.721284},{"name":"大井ふ頭中央海浜公園ホッケー競技場","province":"東京都","city":"品川区","address":"品川区八潮4丁目1番19号","lat":35.592387,"lon":139.75299},{"name":"品川第一区民集会所","province":"東京都","city":"品川区","address":"品川区北品川3丁目11番16号","lat":35.616673,"lon":139.740036},{"name":"大崎第一区民集会所","province":"東京都","city":"品川区","address":"品川区西五反田3丁目6番3号","lat":35.627795,"lon":139.716815},{"name":"大崎第二区民集会所","province":"東京都","city":"品川区","address":"品川区大崎2丁目9番4号","lat":35.616808,"lon":139.727724},{"name":"五反田文化センター","province":"東京都","city":"品川区","address":"品川区西五反田6丁目5番1号","lat":35.622538,"lon":139.716574},{"name":"きゅりあん（品川区立総合区民会館）","province":"東京都","city":"品川区","address":"品川区東大井5丁目18番1号","lat":35.606223,"lon":139.735889},{"name":"城南職業能力開発センター","province":"東京都","city":"品川区","address":"品川区東品川3丁目31番16号","lat":35.61204,"lon":139.749783},{"name":"小山台高等学校","province":"東京都","city":"品川区","address":"品川区小山3丁目3番32号","lat":35.621184,"lon":139.703525},{"name":"大崎高等学校","province":"東京都","city":"品川区","address":"品川区豊町2丁目1番7号","lat":35.609565,"lon":139.721284},{"name":"大井ふ頭中央海浜公園ホッケー競技場","province":"東京都","city":"品川区","address":"品川区八潮4丁目1番19号","lat":35.592387,"lon":139.75299},{"name":"品川第一区民集会所","province":"東京都","city":"品川区","address":"品川区北品川3丁目11番16号","lat":35.616673,"lon":139.740036},{"name":"大崎第一区民集会所","province":"東京都","city":"品川区","address":"品川区西五反田3丁目6番3号","lat":35.627795,"lon":139.716815},{"name":"大崎第二区民集会所","province":"東京都","city":"品川区","address":"品川区大崎2丁目9番4号","lat":35.616808,"lon":139.727724},{"name":"五反田文化センター","province":"東京都","city":"品川区","address":"品川区西五反田6丁目5番1号","lat":35.622538,"lon":139.716574},{"name":"きゅりあん（品川区立総合区民会館）","province":"東京都","city":"品川区","address":"品川区東大井5丁目18番1号","lat":35.606223,"lon":139.735889},{"name":"城南職業能力開発センター","province":"東京都","city":"品川区","address":"品川区東品川3丁目31番16号","lat":35.61204,"lon":139.749783},{"name":"小山台高等学校","province":"東京都","city":"品川区","address":"品川区小山3丁目3番32号","lat":35.621184,"lon":139.703525},{"name":"大崎高等学校","province":"東京都","city":"品川区","address":"品川区豊町2丁目1番7号","lat":35.609565,"lon":139.721284},{"name":"大井ふ頭中央海浜公園ホッケー競技場","province":"東京都","city":"品川区","address":"品川区八潮4丁目1番19号","lat":35.592387,"lon":139.75299}]}