{"keyword":"一覧","data":[{"name":"荏原区民センター","province":"東京都","city":"品川区","address":"東京都品川区荏原5丁目6-5","lat":35.61452119,"lon":139.70215197},{"name":"一本橋児童センター","province":"東京都","city":"品川区","address":"東京都品川区大井2丁目25-1","lat":35.60473672,"lon":139.72948051},{"name":"大井倉田児童センター","province":"東京都","city":"品川区","address":"東京都品川区大井4丁目11-34","lat":35.60221774,"lon":139.73370528},{"name":"滝王子児童センター","province":"東京都","city":"品川区","address":"東京都品川区大井5丁目19-14","lat":35.59819863,"lon":139.72897802},{"name":"大井図書館","province":"東京都","city":"品川区","address":"東京都品川区大井5丁目19-14","lat":35.59819863,"lon":139.72897802},{"name":"大崎図書館分館","province":"東京都","city":"品川区","address":"東京都品川区大崎3丁目12-22","lat":35.61922938,"lon":139.72504708},{"name":"品川図書館","province":"東京都","city":"品川区","address":"東京都品川区北品川2丁目32-3","lat":35.61686349,"lon":139.7424013},{"name":"北品川児童センター","province":"東京都","city":"品川区","address":"東京都品川区北品川2丁目7-21","lat":35.61882165,"lon":139.74394554},{"name":"大崎図書館","province":"東京都","city":"品川区","address":"東京都品川区北品川5丁目2-1","lat":35.62324296,"lon":139.73171026},{"name":"小関児童センター","province":"東京都","city":"品川区","address":"東京都品川区北品川5丁目8-15","lat":35.62010726,"lon":139.73244088},{"name":"中原児童センター","province":"東京都","city":"品川区","address":"東京都品川区小山1丁目4-1","lat":35.62207326,"lon":139.71277582},{"name":"後地児童センター","province":"東京都","city":"品川区","address":"東京都品川区小山2丁目9-19","lat":35.62062891,"lon":139.70919839},{"name":"戸越駅（都営浅草線）","province":"東京都","city":"品川区","address":"東京都品川区戸越3丁目4-17","lat":35.61396034,"lon":139.71639796},{"name":"大原児童センター","province":"東京都","city":"品川区","address":"東京都品川区戸越6丁目16-1","lat":35.60736937,"lon":139.71538157},{"name":"ゆたか図書館","province":"東京都","city":"品川区","address":"東京都品川区豊町1丁目17-7","lat":35.61159126,"lon":139.72236141},{"name":"荏原文化センター","province":"東京都","city":"品川区","address":"東京都品川区中延1丁目9-15","lat":35.6121521,"lon":139.71059573},{"name":"源氏前図書館","province":"東京都","city":"品川区","address":"東京都品川区中延4丁目14-17","lat":35.60550838,"lon":139.70997653},{"name":"伊藤児童センター","province":"東京都","city":"品川区","address":"東京都品川区西大井6丁目13-1","lat":35.60070073,"lon":139.71758159},{"name":"冨士見台児童センター","province":"東京都","city":"品川区","address":"東京都品川区西大井6丁目1-8","lat":35.60132004,"lon":139.71424019},{"name":"五反田図書館","province":"東京都","city":"品川区","address":"東京都品川区西五反田6丁目5-1","lat":35.62252882,"lon":139.71650881},{"name":"三ツ木児童センター","province":"東京都","city":"品川区","address":"東京都品川区西品川2丁目6-13","lat":35.614005,"lon":139.72621658},{"name":"中延児童センター","province":"東京都","city":"品川区","address":"東京都品川区西中延1丁目6-16","lat":35.61241871,"lon":139.70849591},{"name":"水道局品川営業所","province":"東京都","city":"品川区","address":"東京都品川区西中延1丁目9-10","lat":35.61157991,"lon":139.70782933},{"name":"西中延児童センター","province":"東京都","city":"品川区","address":"東京都品川区西中延3丁目8-5","lat":35.60733038,"lon":139.70810165},{"name":"旗の台児童センター","province":"東京都","city":"品川区","address":"東京都品川区旗の台5丁目19-5","lat":35.60376678,"lon":139.70041633},{"name":"旗の台文化センター","province":"東京都","city":"品川区","address":"東京都品川区旗の台5丁目19-5","lat":35.60376678,"lon":139.70041633},{"name":"東大井児童センター","province":"東京都","city":"品川区","address":"東京都品川区東大井1丁目22-16","lat":35.60349289,"lon":139.74135467},{"name":"五反田駅（都営浅草線）","province":"東京都","city":"品川区","address":"東京都品川区東五反田1丁目26-2","lat":35.62643961,"lon":139.72358862},{"name":"総合体育館","province":"東京都","city":"品川区","address":"東京都品川区東五反田2丁目11-2","lat":35.62417888,"lon":139.7282633},{"name":"東五反田児童センター","province":"東京都","city":"品川区","address":"東京都品川区東五反田5丁目24-1","lat":35.62797832,"lon":139.72339691},{"name":"東品川児童センター","province":"東京都","city":"品川区","address":"東京都品川区東品川1丁目34-9","lat":35.61912722,"lon":139.7460398},{"name":"東中延児童センター","province":"東京都","city":"品川区","address":"東京都品川区東中延2丁目5-10","lat":35.60783319,"lon":139.71383447},{"name":"平塚児童センター","province":"東京都","city":"品川区","address":"東京都品川区平塚2丁目2-3","lat":35.61879037,"lon":139.71740885},{"name":"二葉図書館","province":"東京都","city":"品川区","address":"東京都品川区二葉1丁目4-25","lat":35.60800569,"lon":139.72668618},{"name":"水神児童センター","province":"東京都","city":"品川区","address":"東京都品川区南大井5丁目13-19","lat":35.59548249,"lon":139.73399442},{"name":"南品川児童センター","province":"東京都","city":"品川区","address":"東京都品川区南品川4丁目5-28","lat":35.61348323,"lon":139.73868783},{"name":"八潮児童センター","province":"東京都","city":"品川区","address":"東京都品川区八潮5丁目10-27","lat":35.60015206,"lon":139.7512541},{"name":"ゆたか児童センター","province":"東京都","city":"品川区","address":"東京都品川区豊町1丁目18-15","lat":35.61155516,"lon":139.72275305},{"name":"戸越体育館","province":"東京都","city":"品川区","address":"東京都品川区豊町2丁目1-17","lat":35.61083852,"lon":139.72058936},{"name":"南ゆたか児童センター","province":"東京都","city":"品川区","address":"東京都品川区豊町4丁目17-21","lat":35.60650845,"lon":139.72092279},{"name":"八潮図書館","province":"東京都","city":"品川区","address":"東京都品川区八潮5丁目10-27","lat":35.60015206,"lon":139.7512541}]}