{"keyword":"位置","data":[{"name":"南大井シルバーセンター","province":"東京都","city":"品川区","address":"東京都品川区南大井3丁目7-14","lat":35.5916187,"lon":139.7342376},{"name":"春光福祉会　特別養護老人ホーム「ロイヤルサニー」","province":"東京都","city":"品川区","address":"東京都品川区西大井2丁目4-4","lat":35.5999621,"lon":139.7224704},{"name":"さくら会老人保健施設「ケアセンター南大井」","province":"東京都","city":"品川区","address":"東京都品川区南大井5丁目19","lat":35.5945343,"lon":139.733675},{"name":"西大井シルバーセンター","province":"東京都","city":"品川区","address":"東京都品川区西大井1丁目8-7","lat":35.6008976,"lon":139.7230698},{"name":"八潮児童センター","province":"東京都","city":"品川区","address":"東京都品川区八潮5丁目10-27","lat":35.5998066,"lon":139.7516327},{"name":"高齢者住宅八潮わかくさ荘","province":"東京都","city":"品川区","address":"東京都品川区八潮5丁目10-27","lat":35.5998699,"lon":139.7509539},{"name":"心身障害者福祉会館","province":"東京都","city":"品川区","address":"東京都品川区旗の台5丁目2","lat":35.6048875,"lon":139.7006163},{"name":"旗の台シルバーセンター","province":"東京都","city":"品川区","address":"東京都品川区旗の台4丁目13-1","lat":35.6025803,"lon":139.7046896},{"name":"関ヶ原シルバーセンター","province":"東京都","city":"品川区","address":"東京都品川区東大井6丁目11-11","lat":35.6018677,"lon":139.7364935},{"name":"品川児童学園","province":"東京都","city":"品川区","address":"東京都品川区南品川3丁目7","lat":35.6073495,"lon":139.7446282},{"name":"品川総合福祉センター","province":"東京都","city":"品川区","address":"東京都品川区八潮5丁目1-1","lat":35.6052496,"lon":139.7522717},{"name":"中延シルバーセンター","province":"東京都","city":"品川区","address":"東京都品川区中延1丁目4-12","lat":35.6125932,"lon":139.7118185},{"name":"特別養護老人ホーム「成幸ホーム」","province":"東京都","city":"品川区","address":"東京都品川区中延1丁目8-15","lat":35.6122655,"lon":139.7115887},{"name":"ゆたかシルバーセンター","province":"東京都","city":"品川区","address":"東京都品川区豊町3丁目2","lat":35.6081669,"lon":139.7194903},{"name":"南品川シルバーセンター","province":"東京都","city":"品川区","address":"東京都品川区南品川5丁目10","lat":35.6100801,"lon":139.7395401},{"name":"都立品川特別支援学校","province":"東京都","city":"品川区","address":"東京都品川区南品川6丁目15-20","lat":35.6097666,"lon":139.7378227},{"name":"東品川シルバーセンター","province":"東京都","city":"品川区","address":"東京都品川区東品川3丁目32","lat":35.6126645,"lon":139.7503745},{"name":"小山シルバーセンター","province":"東京都","city":"品川区","address":"東京都品川区小山5丁目17-17","lat":35.6147042,"lon":139.7014478},{"name":"平塚シルバーセンター","province":"東京都","city":"品川区","address":"東京都品川区平塚2丁目10","lat":35.6169969,"lon":139.7139996},{"name":"大崎シルバーセンター","province":"東京都","city":"品川区","address":"東京都品川区大崎2丁目7","lat":35.6168885,"lon":139.7256112},{"name":"北品川シルバーセンター","province":"東京都","city":"品川区","address":"東京都品川区北品川1丁目29-11","lat":35.6206822,"lon":139.7418432},{"name":"福栄会","province":"東京都","city":"品川区","address":"東京都品川区東品川3丁目1-8","lat":35.617101,"lon":139.7467953},{"name":"西五反田シルバーセンター","province":"東京都","city":"品川区","address":"東京都品川区西五反田3丁目9-9","lat":35.6266424,"lon":139.7170725},{"name":"五反田保育園","province":"東京都","city":"品川区","address":"東京都品川区東五反田2丁目15","lat":35.6216342,"lon":139.7294771},{"name":"上大崎シルバーセンター","province":"東京都","city":"品川区","address":"東京都品川区上大崎1丁目3-11","lat":35.6347299,"lon":139.7222261},{"name":"荏原消防署","province":"東京都","city":"品川区","address":"東京都品川区平塚3丁目16-20","lat":35.6144967,"lon":139.7105109},{"name":"品川消防署","province":"東京都","city":"品川区","address":"東京都品川区北品川3丁目7-31","lat":35.6170878,"lon":139.7397523},{"name":"滝王子出張所","province":"東京都","city":"品川区","address":"東京都品川区大井5丁目17","lat":35.5984647,"lon":139.7274195},{"name":"消防署","province":"東京都","city":"品川区","address":"東京都品川区旗の台6丁目24-12","lat":35.6056823,"lon":139.6999571},{"name":"戸越出張所","province":"東京都","city":"品川区","address":"東京都品川区戸越5丁目20-15","lat":35.6083161,"lon":139.7187459},{"name":"東品川出張所","province":"東京都","city":"品川区","address":"東京都品川区東品川3丁目32","lat":35.6134542,"lon":139.7504186},{"name":"消防署","province":"東京都","city":"品川区","address":"東京都品川区西五反田7丁目25","lat":35.6200332,"lon":139.7185314},{"name":"大井警察署","province":"東京都","city":"品川区","address":"東京都品川区大井5丁目10-2","lat":35.5989109,"lon":139.7298653},{"name":"荏原警察署","province":"東京都","city":"品川区","address":"東京都品川区荏原6丁目19-10","lat":35.6120395,"lon":139.7062371},{"name":"品川警察署","province":"東京都","city":"品川区","address":"東京都品川区東品川3丁目14","lat":35.6138397,"lon":139.7450501},{"name":"大崎警察署","province":"東京都","city":"品川区","address":"東京都品川区大崎4丁目2-10","lat":35.6217168,"lon":139.7241446},{"name":"春光福祉会 特別養護老人ホーム「ロイヤルサニー」","province":"東京都","city":"品川区","address":"東京都品川区西大井2丁目4-4","lat":35.5999621,"lon":139.7224704,"経度":"139.7224704","緯度":"35.5999621"}]}