{"keyword":"保育","data":[{"name":"北品川第二保育園","province":"東京都","city":"品川区","address":"品川区北品川3-7-43","lat":35.618052,"lon":139.739338},{"name":"北品川保育園","province":"東京都","city":"品川区","address":"品川区北品川2-7-21","lat":35.618822,"lon":139.743946},{"name":"きたしながわさくらさくほいくえん","province":"東京都","city":"品川区","address":"品川区北品川1-28-10","lat":35.62028,"lon":139.741454},{"name":"ひがしやつやま保育園","province":"東京都","city":"品川区","address":"品川区北品川1-16-4","lat":35.624157,"lon":139.743615},{"name":"台場保育園","province":"東京都","city":"品川区","address":"品川区東品川1-8-30","lat":35.620952,"lon":139.743607},{"name":"東品川保育園","province":"東京都","city":"品川区","address":"品川区東品川1-34-9","lat":35.619127,"lon":139.74604},{"name":"八ツ山保育園","province":"東京都","city":"品川区","address":"品川区東品川1-2-15","lat":35.622971,"lon":139.74354},{"name":"アンジェリカ東品川保育園","province":"東京都","city":"品川区","address":"品川区東品川4-8-8","lat":35.609448,"lon":139.74584},{"name":"みずなら保育園","province":"東京都","city":"品川区","address":"品川区東品川3-21-10","lat":35.613331,"lon":139.747429},{"name":"青物横丁えほん保育園","province":"東京都","city":"品川区","address":"品川区東品川4-8-82F","lat":35.609448,"lon":139.74584},{"name":"アイ保育園","province":"東京都","city":"品川区","address":"品川区東品川1-36-11","lat":35.61833,"lon":139.746279},{"name":"八潮北保育園","province":"東京都","city":"品川区","address":"品川区八潮5-1-3","lat":35.604704,"lon":139.753207},{"name":"八潮西保育園","province":"東京都","city":"品川区","address":"品川区八潮5-4-16","lat":35.601655,"lon":139.751321},{"name":"八潮南保育園","province":"東京都","city":"品川区","address":"品川区八潮5-8-41","lat":35.596614,"lon":139.752126},{"name":"八潮中央保育園","province":"東京都","city":"品川区","address":"品川区八潮5-10-60-101","lat":35.599249,"lon":139.751312},{"name":"とうかいどう保育園","province":"東京都","city":"品川区","address":"品川区南品川1-2-11","lat":35.616175,"lon":139.743304},{"name":"どんぐり保育園","province":"東京都","city":"品川区","address":"品川区南品川2-9-13","lat":35.614122,"lon":139.74311},{"name":"太陽の子南品川保育園","province":"東京都","city":"品川区","address":"品川区南品川5-3-10","lat":35.611634,"lon":139.741671},{"name":"くりのき保育園","province":"東京都","city":"品川区","address":"品川区南品川4-1-11","lat":35.614508,"lon":139.738168},{"name":"こころしながわおおいまち保育園","province":"東京都","city":"品川区","address":"品川区南品川6-3-4","lat":35.611886,"lon":139.737752},{"name":"ひろまち保育園","province":"東京都","city":"品川区","address":"品川区広町2-1-18","lat":35.608145,"lon":139.733329},{"name":"大井保育園","province":"東京都","city":"品川区","address":"品川区東大井6-14-16","lat":35.600926,"lon":139.735208},{"name":"品川保育園","province":"東京都","city":"品川区","address":"品川区東大井5-8-12","lat":35.607637,"lon":139.737902},{"name":"東大井保育園","province":"東京都","city":"品川区","address":"品川区東大井1-22-16","lat":35.603493,"lon":139.741357},{"name":"アンジェリカはまかわ保育園","province":"東京都","city":"品川区","address":"品川区東大井3-18-2","lat":35.600621,"lon":139.738508},{"name":"ひがしおおいさくらさくほいくえん","province":"東京都","city":"品川区","address":"品川区東大井2-11-4","lat":35.601443,"lon":139.740002},{"name":"ポピンズナーサリースクール勝島","province":"東京都","city":"品川区","address":"品川区勝島1-6-5","lat":35.597719,"lon":139.744399},{"name":"えがおの森保育園・かつしま","province":"東京都","city":"品川区","address":"品川区勝島1-6-32","lat":35.596152,"lon":139.743863},{"name":"にじいろ保育園勝島","province":"東京都","city":"品川区","address":"品川区勝島3-2-2","lat":35.5928,"lon":139.738653},{"name":"水神保育園","province":"東京都","city":"品川区","address":"品川区南大井6-2-15","lat":35.592788,"lon":139.732892},{"name":"南大井保育園","province":"東京都","city":"品川区","address":"品川区南大井3-7-4","lat":35.591614,"lon":139.73437},{"name":"アスク南大井保育園","province":"東京都","city":"品川区","address":"品川区南大井6-22-7大森ベルポートE館1F","lat":35.589272,"lon":139.73215},{"name":"大空と大地のなーさりぃ大森駅前園","province":"東京都","city":"品川区","address":"品川区南大井6-16-16","lat":35.590947,"lon":139.730206},{"name":"キッズガーデン南大井","province":"東京都","city":"品川区","address":"品川区南大井6-26-2B館1F","lat":35.587875,"lon":139.7313},{"name":"にじいろ保育園南大井","province":"東京都","city":"品川区","address":"品川区南大井1-16-6","lat":35.594933,"lon":139.738394},{"name":"一本橋保育園","province":"東京都","city":"品川区","address":"品川区大井2-25-1","lat":35.604651,"lon":139.729633},{"name":"大井倉田保育園","province":"東京都","city":"品川区","address":"品川区大井4-11-8","lat":35.602271,"lon":139.7341},{"name":"滝王子保育園","province":"東京都","city":"品川区","address":"品川区大井5-18-1","lat":35.598071,"lon":139.727711},{"name":"緑の家保育園","province":"東京都","city":"品川区","address":"品川区大井7-4-18","lat":35.596335,"lon":139.728809},{"name":"あいのもり保育園","province":"東京都","city":"品川区","address":"品川区大井1-16-2","lat":35.607648,"lon":139.730161},{"name":"伊藤保育園","province":"東京都","city":"品川区","address":"品川区西大井6-13-1","lat":35.600701,"lon":139.717582},{"name":"西大井保育園","province":"東京都","city":"品川区","address":"品川区西大井1-1-1","lat":35.60077,"lon":139.721581},{"name":"冨士見台保育園","province":"東京都","city":"品川区","address":"品川区西大井6-1-15","lat":35.601001,"lon":139.714274},{"name":"キッズタウンにしおおい","province":"東京都","city":"品川区","address":"品川区西大井2-5-21","lat":35.599254,"lon":139.721865},{"name":"グローバルキッズ西大井園","province":"東京都","city":"品川区","address":"品川区西大井6-6-2","lat":35.60139,"lon":139.719942},{"name":"みどりの丘保育園","province":"東京都","city":"品川区","address":"品川区西大井4-19-11","lat":35.593874,"lon":139.719179},{"name":"まなびの森保育園西大井","province":"東京都","city":"品川区","address":"品川区西大井1-4-1","lat":35.602442,"lon":139.723898},{"name":"西大井えほん保育園","province":"東京都","city":"品川区","address":"品川区西大井6-7-1","lat":35.601851,"lon":139.721181},{"name":"グローバルキッズ大崎園","province":"東京都","city":"品川区","address":"品川区北品川5-9-15","lat":35.618791,"lon":139.73438},{"name":"品川区立五反田第二保育園","province":"東京都","city":"品川区","address":"品川区北品川五丁目3番1号","lat":35.622551,"lon":139.731691},{"name":"キッズガーデン北品川","province":"東京都","city":"品川区","address":"品川区北品川6-7-22","lat":35.623376,"lon":139.734921},{"name":"ＴＫチルドレンズファーム上大崎校","province":"東京都","city":"品川区","address":"品川区上大崎3-14-35","lat":35.629373,"lon":139.71975},{"name":"キッズガーデン品川上大崎","province":"東京都","city":"品川区","address":"品川区上大崎4-5-37本多電機ビル1・2階","lat":35.628975,"lon":139.715336},{"name":"花房山目黒駅前保育園３３３","province":"東京都","city":"品川区","address":"品川区上大崎3-1-1目黒セントラルスクエア3階","lat":35.633241,"lon":139.715947},{"name":"五反田保育園","province":"東京都","city":"品川区","address":"品川区東五反田2-15-6","lat":35.621932,"lon":139.729441},{"name":"東五反田保育園","province":"東京都","city":"品川区","address":"品川区東五反田5-24-1","lat":35.627981,"lon":139.7233},{"name":"ほっぺるランド東五反田","province":"東京都","city":"品川区","address":"品川区東五反田1-2-25","lat":35.627842,"lon":139.727183},{"name":"大空と大地のなーさりぃ東五反田園","province":"東京都","city":"品川区","address":"品川区東五反田4-7-20","lat":35.630389,"lon":139.727952},{"name":"ポピンズナーサリースクール西五反田","province":"東京都","city":"品川区","address":"品川区西五反田8-10-8","lat":35.619632,"lon":139.719675},{"name":"学研こども園","province":"東京都","city":"品川区","address":"品川区西五反田2-11-8","lat":35.627395,"lon":139.720264},{"name":"西五反田保育園","province":"東京都","city":"品川区","address":"品川区西五反田3-9-10","lat":35.626512,"lon":139.716889},{"name":"西五反田第二保育園","province":"東京都","city":"品川区","address":"品川区西五反田6-5-6","lat":35.622132,"lon":139.716359},{"name":"ぷりすくーる西五反田","province":"東京都","city":"品川区","address":"品川区西五反田3-9-9","lat":35.626745,"lon":139.717161},{"name":"宝保育園","province":"東京都","city":"品川区","address":"品川区西五反田4-11-18","lat":35.626625,"lon":139.710515},{"name":"まなびの森保育園大崎広小路","province":"東京都","city":"品川区","address":"品川区西五反田1-21-8","lat":35.622982,"lon":139.723275},{"name":"こころしながわふどうまえ保育園","province":"東京都","city":"品川区","address":"品川区西五反田5-6-38","lat":35.624323,"lon":139.715523},{"name":"キッズガーデン品川西五反田","province":"東京都","city":"品川区","address":"品川区西五反田8-10-21","lat":35.619751,"lon":139.720375},{"name":"大崎保育園","province":"東京都","city":"品川区","address":"品川区大崎5-2-1","lat":35.622185,"lon":139.726189},{"name":"大崎ひまわり保育園","province":"東京都","city":"品川区","address":"品川区大崎3-1-9","lat":35.620843,"lon":139.724789},{"name":"ココファン・ナーサリー大崎","province":"東京都","city":"品川区","address":"品川区大崎3-6-32","lat":35.620407,"lon":139.726522},{"name":"にじいろ保育園大崎","province":"東京都","city":"品川区","address":"品川区大崎5-4-3小野ビル1階","lat":35.623107,"lon":139.725316},{"name":"ベネッセ大崎広小路保育園","province":"東京都","city":"品川区","address":"品川区大崎4-1-2ウィン第2五反田ビル2F","lat":35.622609,"lon":139.72288},{"name":"西品川保育園","province":"東京都","city":"品川区","address":"品川区西品川3-16-35","lat":35.615044,"lon":139.726167},{"name":"三ツ木保育園","province":"東京都","city":"品川区","address":"品川区西品川1-9-18","lat":35.613114,"lon":139.729697},{"name":"キッズガーデン西品川","province":"東京都","city":"品川区","address":"品川区西品川2-22-2","lat":35.612263,"lon":139.725158},{"name":"そらのいろ保育園","province":"東京都","city":"品川区","address":"品川区西品川1-28-14","lat":35.609019,"lon":139.7265},{"name":"グローバルキッズ戸越園","province":"東京都","city":"品川区","address":"品川区戸越5-14-23","lat":35.610472,"lon":139.71534},{"name":"東戸越保育園","province":"東京都","city":"品川区","address":"品川区戸越4-1-10","lat":35.612263,"lon":139.71782},{"name":"南ゆたか保育園","province":"東京都","city":"品川区","address":"品川区豊町4-17-21","lat":35.606492,"lon":139.720881},{"name":"ゆたか保育園","province":"東京都","city":"品川区","address":"品川区豊町1-18-15","lat":35.611533,"lon":139.722706},{"name":"日本音楽学校保育園","province":"東京都","city":"品川区","address":"品川区豊町2-16-12","lat":35.610141,"lon":139.725003},{"name":"キッズガーデン品川豊町","province":"東京都","city":"品川区","address":"品川区豊町5-13-15","lat":35.605209,"lon":139.720226},{"name":"二葉保育園","province":"東京都","city":"品川区","address":"品川区二葉1-4-25","lat":35.608047,"lon":139.726425},{"name":"二葉つぼみ保育園","province":"東京都","city":"品川区","address":"品川区二葉1-3-40","lat":35.607336,"lon":139.72557},{"name":"大井町のぞみ保育園","province":"東京都","city":"品川区","address":"品川区二葉1-12-18","lat":35.606797,"lon":139.726828},{"name":"こころしながわなかのぶ保育園","province":"東京都","city":"品川区","address":"品川区二葉4-2-13","lat":35.602512,"lon":139.713799},{"name":"平塚保育園","province":"東京都","city":"品川区","address":"品川区平塚2-2-3","lat":35.61879,"lon":139.717409},{"name":"とごしの杜保育園","province":"東京都","city":"品川区","address":"品川区平塚2-18-19","lat":35.615468,"lon":139.713293},{"name":"東中延保育園","province":"東京都","city":"品川区","address":"品川区東中延2-5-10","lat":35.607805,"lon":139.713807},{"name":"モニカ荏原中延園","province":"東京都","city":"品川区","address":"品川区東中延1-6-2","lat":35.611036,"lon":139.714087},{"name":"源氏前保育園","province":"東京都","city":"品川区","address":"品川区中延4-14-19","lat":35.605383,"lon":139.710099},{"name":"グローバルキッズ荏原町保育園","province":"東京都","city":"品川区","address":"品川区中延5-2-1","lat":35.60377,"lon":139.707905},{"name":"グローバルキッズ中延園","province":"東京都","city":"品川区","address":"品川区中延4-5-7","lat":35.60577,"lon":139.712879},{"name":"このえ中延保育園","province":"東京都","city":"品川区","address":"品川区中延6-1-19","lat":35.603167,"lon":139.710635},{"name":"中延保育園","province":"東京都","city":"品川区","address":"品川区西中延1-6-16","lat":35.612419,"lon":139.708496},{"name":"西中延保育園","province":"東京都","city":"品川区","address":"品川区西中延3-8-5","lat":35.60733,"lon":139.708102},{"name":"小山台保育園","province":"東京都","city":"品川区","address":"品川区小山台1-3-8","lat":35.625045,"lon":139.706754},{"name":"中原保育園","province":"東京都","city":"品川区","address":"品川区小山1-4-1","lat":35.622093,"lon":139.712604},{"name":"ウィズブック保育園武蔵小山","province":"東京都","city":"品川区","address":"品川区小山4-4-7コスモ武蔵小山ビル1・2階","lat":35.618524,"lon":139.704321},{"name":"こころしながわむさしこやま保育園","province":"東京都","city":"品川区","address":"品川区小山5-9-16","lat":35.616543,"lon":139.702913},{"name":"ウィズブック保育園武蔵小山パルズ","province":"東京都","city":"品川区","address":"品川区小山4-14-10","lat":35.617526,"lon":139.702955},{"name":"キッズガーデン品川洗足","province":"東京都","city":"品川区","address":"品川区小山7-11-6","lat":35.610013,"lon":139.697789},{"name":"石井こども園","province":"東京都","city":"品川区","address":"品川区小山2-6-15","lat":35.62084,"lon":139.707157},{"name":"荏原保育園","province":"東京都","city":"品川区","address":"品川区荏原2-16-18","lat":35.616735,"lon":139.708896},{"name":"荏原西保育園","province":"東京都","city":"品川区","address":"品川区荏原4-16-11","lat":35.61393,"lon":139.706113},{"name":"荏原西第二保育園","province":"東京都","city":"品川区","address":"品川区荏原4-5-22","lat":35.615074,"lon":139.707638},{"name":"清水台保育園","province":"東京都","city":"品川区","address":"品川区荏原7-8-3","lat":35.611705,"lon":139.701497},{"name":"むさしこやまさくらさくほいくえん","province":"東京都","city":"品川区","address":"品川区荏原3-1-18","lat":35.618965,"lon":139.707521},{"name":"ウィズブック保育園荏原","province":"東京都","city":"品川区","address":"品川区荏原6-12-15","lat":35.612544,"lon":139.705699},{"name":"旗の台保育園","province":"東京都","city":"品川区","address":"品川区旗の台5-19-5","lat":35.603767,"lon":139.700416},{"name":"みらいく旗の台園","province":"東京都","city":"品川区","address":"品川区旗の台3-2-9","lat":35.604953,"lon":139.706905}]}