{"keyword":"公","data":[{"name":"品川都税事務所","province":"東京都","city":"品川区","address":"東京都品川区広町2-1-36","lat":35.6089834,"lon":139.7302954},{"name":"鮫洲運転免許試験場","province":"東京都","city":"品川区","address":"東京都品川区東大井1-12-5","lat":35.6033213,"lon":139.7464659},{"name":"品川児童相談所","province":"東京都","city":"品川区","address":"東京都品川区北品川3-7-21","lat":35.6175581,"lon":139.7404569},{"name":"品川警察署","province":"東京都","city":"品川区","address":"東京都品川区東品川3-14-32","lat":35.6139521,"lon":139.7454043},{"name":"大崎警察署","province":"東京都","city":"品川区","address":"東京都品川区大崎4-2-10","lat":35.6217304,"lon":139.7241517},{"name":"大井警察署","province":"東京都","city":"品川区","address":"東京都品川区大井5-10-2","lat":35.5987968,"lon":139.7298873},{"name":"荏原警察署","province":"東京都","city":"品川区","address":"東京都品川区荏原6-19-10","lat":35.6120733,"lon":139.7061891},{"name":"東京水上警察署","province":"東京都","city":"品川区","address":"東京都品川区港区港南5-8-36","lat":35.6323499,"lon":139.7550883},{"name":"品川消防署","province":"東京都","city":"品川区","address":"東京都品川区北品川3-7-31","lat":35.6171422,"lon":139.7398073},{"name":"品川消防署東品川出張所","province":"東京都","city":"品川区","address":"東京都品川区東品川3-25-11","lat":35.6128705,"lon":139.7473344},{"name":"品川消防署大崎出張所","province":"東京都","city":"品川区","address":"東京都品川区大崎2-8-27","lat":35.6133836,"lon":139.731659},{"name":"品川消防署五反田出張所","province":"東京都","city":"品川区","address":"東京都品川区西五反田7-25-14","lat":35.6200165,"lon":139.7187382},{"name":"大井消防署","province":"東京都","city":"品川区","address":"東京都品川区東大井3-6-12","lat":35.6034742,"lon":139.7401437},{"name":"大井消防署滝王子出張所","province":"東京都","city":"品川区","address":"東京都品川区大井5-17-9","lat":35.5983307,"lon":139.7281165},{"name":"大井消防署八潮出張所","province":"東京都","city":"品川区","address":"東京都品川区八潮5-8-3","lat":35.5971201,"lon":139.7515991},{"name":"荏原消防署","province":"東京都","city":"品川区","address":"東京都品川区平塚3-16-20","lat":35.6148569,"lon":139.7105344},{"name":"荏原消防署戸越出張所","province":"東京都","city":"品川区","address":"東京都品川区戸越5-20-15","lat":35.6083098,"lon":139.7187484},{"name":"荏原消防署小山出張所","province":"東京都","city":"品川区","address":"東京都品川区小山5-12-11","lat":35.6160664,"lon":139.7022552},{"name":"荏原消防署旗の台出張所","province":"東京都","city":"品川区","address":"東京都品川区旗の台6-24-11","lat":35.60578,"lon":139.7000222},{"name":"品川税務署","province":"東京都","city":"品川区","address":"東京都品川区港区高輪3-13-22","lat":35.6296746,"lon":139.734836},{"name":"荏原税務署","province":"東京都","city":"品川区","address":"東京都品川区中延1-1-5","lat":35.613837,"lon":139.7097508},{"name":"品川自動車税事務所","province":"東京都","city":"品川区","address":"東京都品川区東大井1-12-18","lat":35.60493,"lon":139.7473986},{"name":"関東運輸局東京陸運支局","province":"東京都","city":"品川区","address":"東京都品川区東大井1-12-17","lat":35.6046993,"lon":139.7469919},{"name":"品川郵便局","province":"東京都","city":"品川区","address":"東京都品川区東大井5-23-34","lat":35.6050717,"lon":139.7361881},{"name":"大崎郵便局","province":"東京都","city":"品川区","address":"東京都品川区西五反田2-32-7","lat":35.6252595,"lon":139.7189457},{"name":"荏原郵便局","province":"東京都","city":"品川区","address":"東京都品川区西中延1-7-23","lat":35.612713,"lon":139.7073544},{"name":"水道局品川営業所","province":"東京都","city":"品川区","address":"東京都品川区西中延1-9-10","lat":35.6116016,"lon":139.7078304},{"name":"下水道局南部下水道事務所品川出張所","province":"東京都","city":"品川区","address":"東京都品川区西品川1-8-1","lat":35.6129282,"lon":139.7301521},{"name":"品川年金事務所","province":"東京都","city":"品川区","address":"東京都品川区大崎5-1-5高徳ビル","lat":35.6236396,"lon":139.7248636},{"name":"品川労働基準監督署","province":"東京都","city":"品川区","address":"東京都品川区東五反田2-6-17","lat":35.6296077,"lon":139.7190353},{"name":"東京法務局品川出張所（登記所）","province":"東京都","city":"品川区","address":"東京都品川区広町2-1-36品川区総合庁舎","lat":35.6090951,"lon":139.7302296},{"name":"五反田公証役場","province":"東京都","city":"品川区","address":"東京都品川区東五反田5-27-6","lat":35.6270162,"lon":139.7234544},{"name":"目黒公証役場","province":"東京都","city":"品川区","address":"東京都品川区上大崎2-17-5","lat":35.6355392,"lon":139.7150243},{"name":"大森公証役場","province":"東京都","city":"品川区","address":"東京都品川区南大井6-12-12","lat":35.5871233,"lon":139.7301537},{"name":"五反田駅","province":"東京都","city":"品川区","address":"東京都品川区東五反田1丁目26-2","lat":35.6260453,"lon":139.7235869},{"name":"大崎駅","province":"東京都","city":"品川区","address":"東京都品川区大崎1丁目21-4","lat":35.6190999,"lon":139.7285802},{"name":"大井町駅","province":"東京都","city":"品川区","address":"東京都品川区大井1丁目2-12","lat":35.607536,"lon":139.7349666},{"name":"西大井町駅","province":"東京都","city":"品川区","address":"東京都品川区西大井1丁目3-2","lat":35.601478,"lon":139.721434},{"name":"不動前駅","province":"東京都","city":"品川区","address":"東京都品川区西五反田5丁目12-1","lat":35.6254279,"lon":139.7132457},{"name":"武蔵小山駅","province":"東京都","city":"品川区","address":"東京都品川区小山3丁目4-8","lat":35.6206461,"lon":139.7047325},{"name":"大崎広小路駅","province":"東京都","city":"品川区","address":"東京都品川区大崎4丁目1-1","lat":35.6224256,"lon":139.722493},{"name":"荏原中延駅","province":"東京都","city":"品川区","address":"東京都品川区中延2丁目8-1","lat":35.6098891,"lon":139.7119465},{"name":"旗の台駅","province":"東京都","city":"品川区","address":"東京都品川区旗の台2丁目13-1","lat":35.604834,"lon":139.7027961},{"name":"下神明駅","province":"東京都","city":"品川区","address":"東京都品川区西品川1丁目29-6","lat":35.6087526,"lon":139.7264653},{"name":"戸越公園駅","province":"東京都","city":"品川区","address":"東京都品川区戸越5丁目10-15","lat":35.6089987,"lon":139.7184968},{"name":"東急中延駅","province":"東京都","city":"品川区","address":"東京都品川区東中延2丁目9-12","lat":35.6057842,"lon":139.7126428},{"name":"北品川駅","province":"東京都","city":"品川区","address":"東京都品川区北品川1丁目1-4","lat":35.6225433,"lon":139.7392315},{"name":"新馬場駅","province":"東京都","city":"品川区","address":"東京都品川区北品川2丁目18-1","lat":35.6170364,"lon":139.7414247},{"name":"青物横丁駅","province":"東京都","city":"品川区","address":"東京都品川区南品川3丁目1-20","lat":35.6090709,"lon":139.7431279},{"name":"鮫洲駅","province":"東京都","city":"品川区","address":"東京都品川区東大井1丁目2-20","lat":35.6051498,"lon":139.7424961},{"name":"立会川駅","province":"東京都","city":"品川区","address":"東京都品川区東大井2丁目23-1","lat":35.5986501,"lon":139.7389746},{"name":"大森海岸駅","province":"東京都","city":"品川区","address":"東京都品川区南大井3丁目32-1","lat":35.5874923,"lon":139.7352991},{"name":"戸越駅","province":"東京都","city":"品川区","address":"東京都品川区戸越3丁目4-17","lat":35.6143511,"lon":139.716256},{"name":"都営中延駅","province":"東京都","city":"品川区","address":"東京都品川区東中延2丁目9-12","lat":35.6055999,"lon":139.7135855},{"name":"天王洲アイル駅（りんかい線）","province":"東京都","city":"品川区","address":"東京都品川区東品川2-5-8","lat":35.6216148,"lon":139.7508566},{"name":"品川シーサイド駅","province":"東京都","city":"品川区","address":"東京都品川区東品川4丁目12","lat":35.6103127,"lon":139.7498309},{"name":"大井競馬場前駅","province":"東京都","city":"品川区","address":"東京都品川区勝島2丁目2","lat":35.5949348,"lon":139.7471756},{"name":"荏原町駅","province":"東京都","city":"品川区","address":"東京都品川区中延5-2-1","lat":35.6039899,"lon":139.7076062},{"name":"西小山駅","province":"東京都","city":"品川区","address":"東京都品川区小山6-3-9","lat":35.6158275,"lon":139.6989315},{"name":"戸越銀座駅","province":"東京都","city":"品川区","address":"東京都品川区平塚2-16-1","lat":35.6158834,"lon":139.7148438},{"name":"都営浅草線五反田駅「定期券販売所」","province":"東京都","city":"品川区","address":"東京都品川区東五反田1-26-2","lat":35.626418,"lon":139.7236661},{"name":"五反田駅(東急)","province":"東京都","city":"品川区","address":"東京都品川区東五反田2-1-1","lat":35.625404,"lon":139.7242969},{"name":"目黒駅(東急)","province":"東京都","city":"品川区","address":"東京都品川区上大崎4-2-1","lat":35.633395,"lon":139.715439},{"name":"大井町駅(ＪＲ)","province":"東京都","city":"品川区","address":"東京都品川区大井1-2-12","lat":35.606221,"lon":139.734833},{"name":"目黒駅(ＪＲ)","province":"東京都","city":"品川区","address":"東京都品川区上大崎2-16-9","lat":35.634114,"lon":139.715767},{"name":"都営バス「品川自動車営業所」","province":"東京都","city":"品川区","address":"東京都品川区北品川1-5-12","lat":35.623274,"lon":139.740748},{"name":"都営バス「品川自動車営業所目黒支所」","province":"東京都","city":"品川区","address":"東京都品川区上大崎3-1-2","lat":35.632837,"lon":139.716783},{"name":"東急バス「荏原営業所」","province":"東京都","city":"品川区","address":"東京都品川区二葉4-27-1","lat":35.602427,"lon":139.713326},{"name":"西大井駅(JR横須賀線)","province":"東京都","city":"品川区","address":"東京都品川区","lat":35.602127,"lon":139.7219446},{"name":"大森駅(JR京浜東北線)","province":"東京都","city":"品川区","address":"東京都品川区","lat":35.5889869,"lon":139.7281534},{"name":"天王洲アイル駅（東京モノレール）","province":"東京都","city":"品川区","address":"東京都品川区東品川2-3-8","lat":35.6231178,"lon":139.7503428},{"name":"大井警察署八潮団地交番","province":"東京都","city":"品川区","address":"東京都品川区八潮5-5-5","lat":35.5988304,"lon":139.7508339},{"name":"東京法務局品川出張所(登記所)","province":"東京都","city":"品川区","address":"東京都品川区広町2-1-36品川区総合庁舎","lat":35.6090951,"lon":139.7302296,"備考":"品川区広町2-1-36品川区総合庁舎1階","経度":"139.7302296","緯度":"35.6090951"},{"name":"大井町駅(JR)","province":"東京都","city":"品川区","address":"東京都品川区大井1-2-12","lat":35.606221,"lon":139.734833,"備考":"東京都品川区大井1-2-12","経度":"139.734833","緯度":"35.606221"},{"name":"目黒駅(JR)","province":"東京都","city":"品川区","address":"東京都品川区上大崎2-16-9","lat":35.634114,"lon":139.715767,"備考":"東京都品川区上大崎2-16-9","経度":"139.715767","緯度":"35.634114"},{"name":"都立城南職業能力開発センター","province":"東京都","city":"品川区","address":"東京都品川区東品川3-31-16","lat":35.6119765,"lon":139.7497704,"備考":"東品川3-31-16\n電話 3472-3411","経度":"139.7497704","緯度":"35.6119765"}]}