{"keyword":"公共","data":[{"name":"品川区役所","province":"東京都","city":"品川区","address":"東京都品川区広町2-1-36","lat":35.608837,"lon":139.73024},{"name":"品川第一地域センター","province":"東京都","city":"品川区","address":"東京都品川区北品川3-11-16","lat":35.616681,"lon":139.74008},{"name":"品川第二地域センター","province":"東京都","city":"品川区","address":"東京都品川区南品川5-3-20","lat":35.611373,"lon":139.74129},{"name":"大崎第一地域センター","province":"東京都","city":"品川区","address":"東京都品川区西五反田3-6-3","lat":35.627776,"lon":139.71686},{"name":"大崎第二地域センター","province":"東京都","city":"品川区","address":"東京都品川区大崎2-9-4","lat":35.616945,"lon":139.72757},{"name":"大井第一地域センター","province":"東京都","city":"品川区","address":"東京都品川区南大井1-12-6","lat":35.596306,"lon":139.73759},{"name":"大井第二地域センター","province":"東京都","city":"品川区","address":"東京都品川区大井2-27-20","lat":35.604091,"lon":139.73038},{"name":"荏原第一地域センター","province":"東京都","city":"品川区","address":"東京都品川区小山3-22-3","lat":35.619294,"lon":139.70569},{"name":"荏原第二地域センター","province":"東京都","city":"品川区","address":"東京都品川区荏原6-17-12","lat":35.611062,"lon":139.70442},{"name":"荏原第三地域センター","province":"東京都","city":"品川区","address":"東京都品川区平塚1-13-18","lat":35.613392,"lon":139.71541},{"name":"荏原第四地域センター","province":"東京都","city":"品川区","address":"東京都品川区中延5-3-12","lat":35.60374,"lon":139.70836},{"name":"荏原第五地域センター","province":"東京都","city":"品川区","address":"東京都品川区二葉1-1-2","lat":35.6082,"lon":139.72573},{"name":"八潮地域センター","province":"東京都","city":"品川区","address":"東京都品川区八潮5-10-27","lat":35.600153,"lon":139.75125},{"name":"東大井区民集会所","province":"東京都","city":"品川区","address":"東京都品川区東大井2-16-12","lat":35.600719,"lon":139.7417},{"name":"荏原区民センター","province":"東京都","city":"品川区","address":"東京都品川区荏原5-6-5","lat":35.614536,"lon":139.70213},{"name":"防災センター","province":"東京都","city":"品川区","address":"東京都品川区広町2-1-36","lat":35.608837,"lon":139.73024},{"name":"品川区環境情報活動センター","province":"東京都","city":"品川区","address":"東京都品川区広町2-1-36","lat":35.608837,"lon":139.73024},{"name":"台場在宅介護支援センター","province":"東京都","city":"品川区","address":"東京都品川区北品川3-11-16","lat":35.616681,"lon":139.74008},{"name":"東品川在宅介護支援センター","province":"東京都","city":"品川区","address":"東京都品川区東品川3-1-5","lat":35.617173,"lon":139.74738},{"name":"東品川第二在宅介護支援センター","province":"東京都","city":"品川区","address":"東京都品川区東品川3-27-25オフィス・イン品川3階","lat":35.61129,"lon":139.74593},{"name":"上大崎在宅介護支援センター","province":"東京都","city":"品川区","address":"東京都品川区上大崎1-3-12","lat":35.634598,"lon":139.72207},{"name":"西五反田在宅介護支援センター","province":"東京都","city":"品川区","address":"東京都品川区西五反田3-6-6","lat":35.628118,"lon":139.71696},{"name":"大崎在宅介護支援センター","province":"東京都","city":"品川区","address":"東京都品川区大崎2-11-1","lat":35.635856,"lon":139.71536},{"name":"南大井在宅介護支援センター","province":"東京都","city":"品川区","address":"東京都品川区南大井4-19-3","lat":35.593234,"lon":139.73466},{"name":"南大井第二在宅介護支援センター","province":"東京都","city":"品川区","address":"東京都品川区東大井4-9-1","lat":35.6053,"lon":139.74033},{"name":"八潮在宅介護支援センター","province":"東京都","city":"品川区","address":"東京都品川区八潮5-10-27","lat":35.600153,"lon":139.75125},{"name":"大井在宅介護支援センター","province":"東京都","city":"品川区","address":"東京都品川区大井4-14-8","lat":35.60188,"lon":139.73283},{"name":"大井第二在宅介護支援センター","province":"東京都","city":"品川区","address":"東京都品川区大井3-15-7","lat":35.602366,"lon":139.72954},{"name":"西大井在宅介護支援センター","province":"東京都","city":"品川区","address":"東京都品川区西大井2-4-4","lat":35.59993,"lon":139.72253},{"name":"荏原在宅介護支援センター","province":"東京都","city":"品川区","address":"東京都品川区荏原2-9-6","lat":35.617091,"lon":139.71111},{"name":"小山台在宅介護支援センター","province":"東京都","city":"品川区","address":"東京都品川区小山台1-4-1りんし213階","lat":35.624337,"lon":139.70447},{"name":"小山在宅介護支援センター","province":"東京都","city":"品川区","address":"東京都品川区小山7-14-18","lat":35.609006,"lon":139.69648},{"name":"成幸在宅介護支援センター","province":"東京都","city":"品川区","address":"東京都品川区中延1-8-7","lat":35.612084,"lon":139.71184},{"name":"中延在宅介護支援センター","province":"東京都","city":"品川区","address":"東京都品川区中延6-8-8","lat":35.601813,"lon":139.71119},{"name":"大原在宅介護支援センター","province":"東京都","city":"品川区","address":"東京都品川区豊町6-25-13","lat":35.603807,"lon":139.71361},{"name":"戸越台在宅介護支援センター","province":"東京都","city":"品川区","address":"東京都品川区戸越1-15-23","lat":35.615706,"lon":139.71759},{"name":"杜松在宅介護支援センター","province":"東京都","city":"品川区","address":"東京都品川区豊町4-24-15","lat":35.606135,"lon":139.72276},{"name":"成幸ホーム","province":"東京都","city":"品川区","address":"東京都品川区中延1-8-7","lat":35.612084,"lon":139.71184},{"name":"かえで荘","province":"東京都","city":"品川区","address":"東京都品川区八潮5-1-1","lat":35.605155,"lon":139.75243},{"name":"晴楓ホーム","province":"東京都","city":"品川区","address":"東京都品川区東品川3-1-8","lat":35.617256,"lon":139.74684},{"name":"戸越台特別養護老人ホーム","province":"東京都","city":"品川区","address":"東京都品川区戸越1-15-23","lat":35.615706,"lon":139.71759},{"name":"荏原特別養護老人ホーム","province":"東京都","city":"品川区","address":"東京都品川区荏原2-9-6","lat":35.617091,"lon":139.71111},{"name":"中延特別養護老人ホーム","province":"東京都","city":"品川区","address":"東京都品川区中延6-8-8","lat":35.601813,"lon":139.71119},{"name":"ロイヤルサニー","province":"東京都","city":"品川区","address":"東京都品川区西大井2-4-4","lat":35.59993,"lon":139.72253},{"name":"八潮南特別養護老人ホーム","province":"東京都","city":"品川区","address":"東京都品川区八潮5-9-2","lat":35.598721,"lon":139.75267},{"name":"杜松 特別養護老人ホーム","province":"東京都","city":"品川区","address":"東京都品川区豊町4-24-15","lat":35.605987,"lon":139.72258},{"name":"ケアセンター南大井","province":"東京都","city":"品川区","address":"東京都品川区南大井5-19-1","lat":35.594659,"lon":139.73398},{"name":"東海ホーム","province":"東京都","city":"品川区","address":"東京都品川区東品川3-1-8","lat":35.617256,"lon":139.74684},{"name":"さくらハイツ南大井","province":"東京都","city":"品川区","address":"東京都品川区南大井5-19-1","lat":35.594659,"lon":139.73398},{"name":"さくらハイツ西五反田","province":"東京都","city":"品川区","address":"東京都品川区西五反田3-6-6","lat":35.628118,"lon":139.71696},{"name":"ケアホーム西五反田","province":"東京都","city":"品川区","address":"東京都品川区西五反田3-6-6","lat":35.628118,"lon":139.71696},{"name":"ケアホーム東大井","province":"東京都","city":"品川区","address":"東京都品川区東大井5-8-12","lat":35.607638,"lon":139.7379},{"name":"東品川シルバーセンター","province":"東京都","city":"品川区","address":"東京都品川区東品川3-32-10","lat":35.614193,"lon":139.75075},{"name":"北品川シルバーセンター","province":"東京都","city":"品川区","address":"東京都品川区北品川1-29-12","lat":35.620533,"lon":139.74177},{"name":"南品川シルバーセンター","province":"東京都","city":"品川区","address":"東京都品川区南品川5-10-3","lat":35.610215,"lon":139.73984},{"name":"五反田シルバーセンター","province":"東京都","city":"品川区","address":"東京都品川区東五反田2-15-6","lat":35.621933,"lon":139.72944},{"name":"上大崎シルバーセンター","province":"東京都","city":"品川区","address":"東京都品川区上大崎1-3-12","lat":35.634598,"lon":139.72207},{"name":"西五反田シルバーセンター","province":"東京都","city":"品川区","address":"東京都品川区西五反田3-9-10","lat":35.626535,"lon":139.71691},{"name":"平塚シルバーセンター","province":"東京都","city":"品川区","address":"東京都品川区平塚2-10-20","lat":35.616914,"lon":139.71396},{"name":"後地シルバーセンター","province":"東京都","city":"品川区","address":"東京都品川区小山2-9-19","lat":35.62063,"lon":139.7092},{"name":"小山シルバーセンター","province":"東京都","city":"品川区","address":"東京都品川区小山5-17-18","lat":35.614836,"lon":139.70144},{"name":"旗の台シルバーセンター","province":"東京都","city":"品川区","address":"東京都品川区旗の台4-13-1","lat":35.602585,"lon":139.70467},{"name":"ゆたかシルバーセンター","province":"東京都","city":"品川区","address":"東京都品川区豊町3-2-15","lat":35.608337,"lon":139.71961},{"name":"西大井いきいきセンター","province":"東京都","city":"品川区","address":"東京都品川区西大井2-5-21","lat":35.599255,"lon":139.72186},{"name":"関ヶ原シルバーセンター","province":"東京都","city":"品川区","address":"東京都品川区東大井6-11-11","lat":35.601883,"lon":139.73651},{"name":"南大井シルバーセンター","province":"東京都","city":"品川区","address":"東京都品川区南大井3-7-13","lat":35.591828,"lon":139.7343},{"name":"品川区シルバー人材センター","province":"東京都","city":"品川区","address":"東京都品川区北品川3-11-16","lat":35.616681,"lon":139.74008},{"name":"品川区シルバー人材センター東大井支所","province":"東京都","city":"品川区","address":"東京都品川区東大井1-4-14","lat":35.605677,"lon":139.74506},{"name":"品川区シルバー人材センター荏原支部","province":"東京都","city":"品川区","address":"東京都品川区荏原2-16-18","lat":35.616736,"lon":139.70892},{"name":"品川区シルバー人材センターゆたか分室","province":"東京都","city":"品川区","address":"東京都品川区豊町3-2-15","lat":35.608337,"lon":139.71961},{"name":"品川介護福祉専門学校","province":"東京都","city":"品川区","address":"東京都品川区西品川1-28-3","lat":35.609295,"lon":139.72769},{"name":"品川区社会福祉協議会","province":"東京都","city":"品川区","address":"東京都品川区大井1-14-1大井1丁目共同ビル","lat":35.607696,"lon":139.73146},{"name":"医師会立品川区訪問看護ステーション","province":"東京都","city":"品川区","address":"東京都品川区北品川3-7-25品川区医師会館2階","lat":35.617095,"lon":139.74064},{"name":"医師会立荏原訪問看護ステーション","province":"東京都","city":"品川区","address":"東京都品川区中延2-6-5荏原医師会新館3階","lat":35.611542,"lon":139.71226},{"name":"社会福祉法人さくら会南大井訪問看護ステーション","province":"東京都","city":"品川区","address":"東京都品川区東大井4-9-1品川区大井林町高齢者複合施設内","lat":35.6053,"lon":139.74033},{"name":"医療法人財団城南福祉医療協会西品川訪問看護ステーション","province":"東京都","city":"品川区","address":"東京都品川区西品川1-8-22","lat":35.612542,"lon":139.73036},{"name":"医療法人社団リゾーム慶和会小山台訪問看護ステーション","province":"東京都","city":"品川区","address":"東京都品川区小山台1-24-4カーサエスペランサ102号","lat":35.621704,"lon":139.706},{"name":"ソフィアメディ株式会社ソフィア訪問看護ステーション小山","province":"東京都","city":"品川区","address":"東京都品川区小山7-10-1ロワール洗足102","lat":35.610094,"lon":139.69609},{"name":"医療法人財団城南福祉医療協会ゆたか訪問看護ステーション","province":"東京都","city":"品川区","address":"東京都品川区豊町4-3-20","lat":35.606815,"lon":139.71977},{"name":"株式会社仁済訪問看護ステーション品川","province":"東京都","city":"品川区","address":"東京都品川区大井1-32-14HFビル1階","lat":35.605077,"lon":139.73068},{"name":"株式会社ライフケアサービスセンター訪問看護ステーション","province":"東京都","city":"品川区","address":"東京都品川区北品川3-3-3東和ビル3階","lat":35.621761,"lon":139.73875},{"name":"有限会社アローズ元気訪問看護ステーション","province":"東京都","city":"品川区","address":"東京都品川区北品川2-9-21","lat":35.618292,"lon":139.74321},{"name":"ソフィアメディ株式会社ソフィア訪問看護ステーション不動前","province":"東京都","city":"品川区","address":"東京都品川区上大崎3-11-2メゾン花房山2202号室","lat":35.630612,"lon":139.71747},{"name":"有限会社新井湯訪問看護ステーション・湯～亀","province":"東京都","city":"品川区","address":"東京都品川区旗の台4-5-17","lat":35.602562,"lon":139.70578},{"name":"セントケア東京株式会社セントケア訪問看護ステーションあい","province":"東京都","city":"品川区","address":"東京都品川区大井4-10-6ベルリッチ小松2階","lat":35.603052,"lon":139.73419},{"name":"ソフィアメディ株式会社ソフィア訪問看護ステーション豊町","province":"東京都","city":"品川区","address":"東京都品川区豊町1-6-11プレジール101","lat":35.61335,"lon":139.72251},{"name":"株式会社ファインナースステーションもも","province":"東京都","city":"品川区","address":"東京都品川区東五反田2-19-4坂本ビル2階","lat":35.625135,"lon":139.72955},{"name":"サポしながわ","province":"東京都","city":"品川区","address":"東京都品川区西品川1-28-3品川区立中小企業センター1階","lat":35.609295,"lon":139.72769},{"name":"品川保健センター","province":"東京都","city":"品川区","address":"東京都品川区北品川3-11-22","lat":35.616606,"lon":139.74069},{"name":"荏原保健センター","province":"東京都","city":"品川区","address":"東京都品川区荏原2-9-6","lat":35.617091,"lon":139.71111},{"name":"大井保健センター","province":"東京都","city":"品川区","address":"東京都品川区大井2-27-20","lat":35.604091,"lon":139.73038},{"name":"荏原健康センター","province":"東京都","city":"品川区","address":"東京都品川区荏原2-9-6","lat":35.617091,"lon":139.71111},{"name":"品川健康センター","province":"東京都","city":"品川区","address":"東京都品川区北品川3-11-22","lat":35.616606,"lon":139.74069},{"name":"区立心身障害者福祉会館","province":"東京都","city":"品川区","address":"東京都品川区旗の台5-2-2","lat":35.605004,"lon":139.70042},{"name":"区立西大井福祉園","province":"東京都","city":"品川区","address":"東京都品川区西大井5-7-24","lat":35.59926,"lon":139.71662},{"name":"区立かがやき園","province":"東京都","city":"品川区","address":"東京都品川区西大井6-2-14","lat":35.600838,"lon":139.7155},{"name":"（社福）品川総合福祉センターかもめ園","province":"東京都","city":"品川区","address":"東京都品川区八潮5-1-1","lat":35.605155,"lon":139.75243},{"name":"（社福）品川総合福祉センターさつき","province":"東京都","city":"品川区","address":"東京都品川区八潮5-3-8","lat":35.6032,"lon":139.75193},{"name":"（社福）品川総合福祉センター サンかもめ","province":"東京都","city":"品川区","address":"東京都品川区八潮5-10-27","lat":35.600153,"lon":139.75125},{"name":"（社福）福栄会 第一しいのき学園","province":"東京都","city":"品川区","address":"東京都品川区東品川3-1-8","lat":35.617256,"lon":139.74684},{"name":"（社福）福栄会 第二しいのき学園","province":"東京都","city":"品川区","address":"東京都品川区東品川3-1-8","lat":35.617256,"lon":139.74684},{"name":"（社福）福栄会 南品川むつみ園","province":"東京都","city":"品川区","address":"東京都品川区南品川5-16-25","lat":35.607107,"lon":139.74287},{"name":"（社福）げんき","province":"東京都","city":"品川区","address":"東京都品川区大崎4-11-12","lat":35.61858,"lon":139.7214},{"name":"区立発達障害者支援施設  「ぷらーす」","province":"東京都","city":"品川区","address":"東京都品川区上大崎1-20-12","lat":35.633101,"lon":139.72218},{"name":"ジョブザ品川区","province":"東京都","city":"品川区","address":"東京都品川区西五反田1-13-7マルキビル3F","lat":35.62398,"lon":139.72415},{"name":"区立品川児童学園 （児童発達支援センター）","province":"東京都","city":"品川区","address":"東京都品川区南品川3-7-7","lat":35.607318,"lon":139.74477},{"name":"区立品川児童学園 （コンパス）","province":"東京都","city":"品川区","address":"東京都品川区南品川3-7-7","lat":35.607318,"lon":139.74477},{"name":"ちびっこタイム品川","province":"東京都","city":"品川区","address":"東京都品川区東品川3-25-16","lat":35.612826,"lon":139.74665},{"name":"トット文化館","province":"東京都","city":"品川区","address":"東京都品川区西品川2-2-16","lat":35.614706,"lon":139.72854},{"name":"かもめ第一工房","province":"東京都","city":"品川区","address":"東京都品川区北品川3-7-21","lat":35.617875,"lon":139.74034},{"name":"かもめ第二工房","province":"東京都","city":"品川区","address":"東京都品川区西大井1-8-7","lat":35.600907,"lon":139.72311},{"name":"かもめ第三工房","province":"東京都","city":"品川区","address":"東京都品川区西五反田2-24-2","lat":35.626013,"lon":139.7193},{"name":"区立北品川つばさの家","province":"東京都","city":"品川区","address":"東京都品川区北品川3-7-21","lat":35.617875,"lon":139.74034},{"name":"区立西大井つばさの家","province":"東京都","city":"品川区","address":"東京都品川区西大井5-7-24","lat":35.59926,"lon":139.71662},{"name":"渡辺寮","province":"東京都","city":"品川区","address":"東京都品川区豊町2-11-17","lat":35.611815,"lon":139.72395},{"name":"若草寮","province":"東京都","city":"品川区","address":"東京都品川区豊町2-5-11","lat":35.609726,"lon":139.72349},{"name":"わいわいてい","province":"東京都","city":"品川区","address":"東京都品川区西大井6-9-3","lat":35.600832,"lon":139.7208},{"name":"旗の台つばさの家","province":"東京都","city":"品川区","address":"東京都品川区旗の台3-5-11","lat":35.60504,"lon":139.70839},{"name":"海老沢寮","province":"東京都","city":"品川区","address":"東京都品川区東大井4-8-11","lat":35.605535,"lon":139.74071},{"name":"八潮寮","province":"東京都","city":"品川区","address":"東京都品川区八潮5-6-33-403","lat":35.597231,"lon":139.74976},{"name":"グループホーム森前","province":"東京都","city":"品川区","address":"東京都品川区西大井1-8-7","lat":35.600907,"lon":139.72311},{"name":"鮫洲なぎさの家","province":"東京都","city":"品川区","address":"東京都品川区西大井1-3-10","lat":35.601641,"lon":139.72197},{"name":"ミドリホーム品川","province":"東京都","city":"品川区","address":"東京都品川区東大井2-19-3","lat":35.599872,"lon":139.74002},{"name":"かもめハウス","province":"東京都","city":"品川区","address":"東京都品川区南大井3-20-14","lat":35.589004,"lon":139.73519},{"name":"(社福）品川総合福祉センター福祉工場しながわ","province":"東京都","city":"品川区","address":"東京都品川区東大井1-3-10","lat":35.605796,"lon":139.74397},{"name":"区立障害者生活支援センター（心身障害者福祉会館内）","province":"東京都","city":"品川区","address":"東京都品川区旗の台5-2-2","lat":35.605004,"lon":139.70042},{"name":"福栄会 障害者相談支援センター","province":"東京都","city":"品川区","address":"東京都品川区東品川3-1-8","lat":35.617256,"lon":139.74684},{"name":"精神障害者地域生活支援センター（たいむ）","province":"東京都","city":"品川区","address":"東京都品川区西五反田2-24-2","lat":35.626013,"lon":139.7193},{"name":"障害者就労支援センター（げんき品川）","province":"東京都","city":"品川区","address":"東京都品川区大崎4-11-12","lat":35.61858,"lon":139.7214},{"name":"区立地域活動支援センター 逢「あえる」                  （心身障害者福祉会館内）","province":"東京都","city":"品川区","address":"東京都品川区旗の台5-2-2","lat":35.605004,"lon":139.70042},{"name":"品川児童相談所","province":"東京都","city":"品川区","address":"東京都品川区北品川3-7-21","lat":35.617875,"lon":139.74034},{"name":"ふれあい作業所","province":"東京都","city":"品川区","address":"東京都品川区西大井4-9-9","lat":35.596236,"lon":139.72028},{"name":"ふれあい作業所西品川分室","province":"東京都","city":"品川区","address":"東京都品川区西品川1-28-3","lat":35.609295,"lon":139.72769},{"name":"ふれあい作業所荏原分室","province":"東京都","city":"品川区","address":"東京都品川区西中延1-2-8","lat":35.614147,"lon":139.70978},{"name":"障害者日中一時支援事業（放課後サポート）    にじのひろば荏原","province":"東京都","city":"品川区","address":"東京都品川区荏原4-12-20","lat":35.616061,"lon":139.70529},{"name":"障害者日中一時支援事業（放課後サポート）    にじのひろば八潮","province":"東京都","city":"品川区","address":"東京都品川区八潮5-3-8","lat":35.6032,"lon":139.75193},{"name":"発達障害児思春期サポート事業（ら・るーと）","province":"東京都","city":"品川区","address":"東京都品川区北品川3-7-21","lat":35.617875,"lon":139.74034},{"name":"重症心身障害者通所事業「ピッコロ」","province":"東京都","city":"品川区","address":"東京都品川区八潮5-3-8","lat":35.6032,"lon":139.75193},{"name":"城南幼稚園","province":"東京都","city":"品川区","address":"東京都品川区南品川2-8-21","lat":35.613329,"lon":139.74275},{"name":"幼保一体施設「平塚すこやか園」","province":"東京都","city":"品川区","address":"東京都品川区荏原4-5-22","lat":35.61503,"lon":139.70769},{"name":"浜川幼稚園","province":"東京都","city":"品川区","address":"東京都品川区南大井4-3-14","lat":35.597783,"lon":139.73658},{"name":"幼保一体施設「御殿山すこやか園」","province":"東京都","city":"品川区","address":"東京都品川区北品川5-3-1","lat":35.622519,"lon":139.7317},{"name":"伊藤幼稚園","province":"東京都","city":"品川区","address":"東京都品川区西大井5-22-8","lat":35.598113,"lon":139.71685},{"name":"幼保一体施設「第一日野すこやか園」","province":"東京都","city":"品川区","address":"東京都品川区西五反田6-5-6","lat":35.622133,"lon":139.71636},{"name":"幼保一体施設「のびっこ園台場」","province":"東京都","city":"品川区","address":"東京都品川区東品川1-8-30","lat":35.621383,"lon":139.74318},{"name":"幼保一体施設「二葉すこやか園」","province":"東京都","city":"品川区","address":"東京都品川区二葉1-3-40","lat":35.607287,"lon":139.72569},{"name":"八潮わかば幼稚園","province":"東京都","city":"品川区","address":"東京都品川区八潮5-6-32","lat":35.596631,"lon":139.74991},{"name":"あけぼの幼稚園","province":"東京都","city":"品川区","address":"東京都品川区大井5-10-12","lat":35.598294,"lon":139.73001},{"name":"アライアンス幼稚園","province":"東京都","city":"品川区","address":"東京都品川区小山4-4-13","lat":35.61843,"lon":139.70397},{"name":"荏原学園旭幼稚園","province":"東京都","city":"品川区","address":"東京都品川区中延5-6-18","lat":35.603154,"lon":139.7085},{"name":"エトワール幼稚園","province":"東京都","city":"品川区","address":"東京都品川区南品川5-12-4","lat":35.608568,"lon":139.74025},{"name":"大井うさぎ幼稚園","province":"東京都","city":"品川区","address":"東京都品川区大井7-1-5","lat":35.597313,"lon":139.72525},{"name":"大崎幼稚園","province":"東京都","city":"品川区","address":"東京都品川区大崎3-11-1","lat":35.619283,"lon":139.72341},{"name":"小野学園幼稚園","province":"東京都","city":"品川区","address":"東京都品川区西大井1-6-13","lat":35.602538,"lon":139.72628},{"name":"亀田幼稚園","province":"東京都","city":"品川区","address":"東京都品川区中延6-1-3","lat":35.603907,"lon":139.71037},{"name":"品川教会附属幼稚園","province":"東京都","city":"品川区","address":"東京都品川区北品川4-7-40","lat":35.6225,"lon":139.73753},{"name":"鈴ヶ森めばえ幼稚園","province":"東京都","city":"品川区","address":"東京都品川区南大井2-4-1","lat":35.593228,"lon":139.73687},{"name":"専修幼稚園","province":"東京都","city":"品川区","address":"東京都品川区西五反田6-11-5","lat":35.620994,"lon":139.71755},{"name":"洗足うさぎ幼稚園","province":"東京都","city":"品川区","address":"東京都品川区荏原7-18-15","lat":35.609947,"lon":139.69869},{"name":"戸越幼稚園","province":"東京都","city":"品川区","address":"東京都品川区戸越1-21-15","lat":35.615122,"lon":139.72134},{"name":"帝京にしき幼稚園","province":"東京都","city":"品川区","address":"東京都品川区旗の台6-5-30","lat":35.608803,"lon":139.70024},{"name":"日本音楽学校幼稚園","province":"東京都","city":"品川区","address":"東京都品川区豊町2-16-12","lat":35.610151,"lon":139.725},{"name":"ひまわり幼稚園","province":"東京都","city":"品川区","address":"東京都品川区小山6-10-11","lat":35.613655,"lon":139.69793},{"name":"文教大学付属幼稚園","province":"東京都","city":"品川区","address":"東京都品川区旗の台3-2-17","lat":35.605712,"lon":139.70647},{"name":"八潮幼稚園","province":"東京都","city":"品川区","address":"東京都品川区東品川3-24-8","lat":35.612396,"lon":139.74573},{"name":"一本橋保育園","province":"東京都","city":"品川区","address":"東京都品川区大井2-25-1","lat":35.604652,"lon":139.72963},{"name":"伊藤保育園","province":"東京都","city":"品川区","address":"東京都品川区西大井6-13-1","lat":35.600741,"lon":139.71756},{"name":"荏原保育園","province":"東京都","city":"品川区","address":"東京都品川区荏原2-16-18","lat":35.616736,"lon":139.70892},{"name":"荏原西保育園","province":"東京都","city":"品川区","address":"東京都品川区荏原4-16-11","lat":35.61393,"lon":139.70611},{"name":"大井保育園","province":"東京都","city":"品川区","address":"東京都品川区東大井6-14-16","lat":35.600927,"lon":139.73521},{"name":"大井倉田保育園","province":"東京都","city":"品川区","address":"東京都品川区大井4-11-8","lat":35.602272,"lon":139.7341},{"name":"大崎保育園","province":"東京都","city":"品川区","address":"東京都品川区大崎5-2-1","lat":35.621949,"lon":139.72637},{"name":"北品川保育園","province":"東京都","city":"品川区","address":"東京都品川区北品川2-7-21","lat":35.618809,"lon":139.74394},{"name":"北品川第二保育園","province":"東京都","city":"品川区","address":"東京都品川区北品川3-7-43","lat":35.61804,"lon":139.73926},{"name":"源氏前保育園","province":"東京都","city":"品川区","address":"東京都品川区中延4-14-19","lat":35.605384,"lon":139.7101},{"name":"五反田保育園","province":"東京都","city":"品川区","address":"東京都品川区東五反田2-15-6","lat":35.621933,"lon":139.72944},{"name":"小山台保育園","province":"東京都","city":"品川区","address":"東京都品川区小山台1-3-8","lat":35.625046,"lon":139.70675},{"name":"品川保育園","province":"東京都","city":"品川区","address":"東京都品川区東大井5-8-12","lat":35.607638,"lon":139.7379},{"name":"清水台保育園","province":"東京都","city":"品川区","address":"東京都品川区荏原7-8-3","lat":35.611706,"lon":139.7015},{"name":"水神保育園","province":"東京都","city":"品川区","address":"東京都品川区南大井6-2-15","lat":35.592789,"lon":139.73289},{"name":"滝王子保育園","province":"東京都","city":"品川区","address":"東京都品川区大井5-18-1","lat":35.598072,"lon":139.72771},{"name":"中原保育園","province":"東京都","city":"品川区","address":"東京都品川区小山1-4-1","lat":35.622094,"lon":139.7126},{"name":"中延保育園","province":"東京都","city":"品川区","address":"東京都品川区西中延1-6-16","lat":35.61242,"lon":139.7085},{"name":"西大井保育園","province":"東京都","city":"品川区","address":"東京都品川区西大井1-1-1","lat":35.600771,"lon":139.72158},{"name":"西五反田保育園","province":"東京都","city":"品川区","address":"東京都品川区西五反田3-9-10","lat":35.626535,"lon":139.71691},{"name":"西五反田第二保育園","province":"東京都","city":"品川区","address":"東京都品川区西五反田6-5-6","lat":35.622133,"lon":139.71636},{"name":"西品川保育園","province":"東京都","city":"品川区","address":"東京都品川区西品川3-16-35","lat":35.615045,"lon":139.72617},{"name":"西中延保育園","province":"東京都","city":"品川区","address":"東京都品川区西中延3-8-5","lat":35.607334,"lon":139.70815},{"name":"旗の台保育園","province":"東京都","city":"品川区","address":"東京都品川区旗の台5-19-5","lat":35.603756,"lon":139.70045},{"name":"東大井保育園","province":"東京都","city":"品川区","address":"東京都品川区東大井1-22-16","lat":35.603483,"lon":139.74137},{"name":"東五反田保育園","province":"東京都","city":"品川区","address":"東京都品川区東五反田5-24-1","lat":35.628013,"lon":139.72339},{"name":"東品川保育園","province":"東京都","city":"品川区","address":"東京都品川区東品川1-34-9","lat":35.619128,"lon":139.74604},{"name":"東中延保育園","province":"東京都","city":"品川区","address":"東京都品川区東中延2-5-10","lat":35.607806,"lon":139.71381},{"name":"平塚保育園","province":"東京都","city":"品川区","address":"東京都品川区平塚2-2-3","lat":35.618791,"lon":139.71741},{"name":"冨士見台保育園","province":"東京都","city":"品川区","address":"東京都品川区西大井6-1-15","lat":35.600993,"lon":139.71427},{"name":"二葉保育園","province":"東京都","city":"品川区","address":"東京都品川区二葉1-4-25","lat":35.608023,"lon":139.72676},{"name":"二葉つぼみ保育園","province":"東京都","city":"品川区","address":"東京都品川区二葉1-3-40","lat":35.607287,"lon":139.72569},{"name":"三ッ木保育園","province":"東京都","city":"品川区","address":"東京都品川区西品川1-9-18","lat":35.613115,"lon":139.7297},{"name":"南ゆたか保育園","province":"東京都","city":"品川区","address":"東京都品川区豊町4-17-21","lat":35.606479,"lon":139.72091},{"name":"八潮北保育園","province":"東京都","city":"品川区","address":"東京都品川区八潮5-1-3","lat":35.604769,"lon":139.75323},{"name":"八潮西保育園","province":"東京都","city":"品川区","address":"東京都品川区八潮5-4-16","lat":35.601633,"lon":139.75131},{"name":"八潮南保育園","province":"東京都","city":"品川区","address":"東京都品川区八潮5-8-41","lat":35.596614,"lon":139.75213},{"name":"八ッ山保育園","province":"東京都","city":"品川区","address":"東京都品川区東品川1-2-15","lat":35.622986,"lon":139.74356},{"name":"ゆたか保育園","province":"東京都","city":"品川区","address":"東京都品川区豊町1-18-15","lat":35.611534,"lon":139.72271},{"name":"台場保育園","province":"東京都","city":"品川区","address":"東京都品川区東品川1-8-30","lat":35.621383,"lon":139.74318},{"name":"荏原西第二保育園","province":"東京都","city":"品川区","address":"東京都品川区荏原4-5-22","lat":35.61503,"lon":139.70769},{"name":"ひろまち保育園","province":"東京都","city":"品川区","address":"東京都品川区広町2-1-18","lat":35.608265,"lon":139.73336},{"name":"ぷりすくーる西五反田","province":"東京都","city":"品川区","address":"東京都品川区西五反田3-9-9","lat":35.626751,"lon":139.71714},{"name":"あいのもり保育園","province":"東京都","city":"品川区","address":"東京都品川区大井1-16-2","lat":35.607637,"lon":139.73015},{"name":"アスク南大井保育園","province":"東京都","city":"品川区","address":"東京都品川区南大井6-22-7","lat":35.589273,"lon":139.73215},{"name":"アンジェリカはまかわ保育園","province":"東京都","city":"品川区","address":"東京都品川区東大井3-18-2","lat":35.600622,"lon":139.73851},{"name":"アンジェリカ東品川保育園","province":"東京都","city":"品川区","address":"東京都品川区東品川4-8-8","lat":35.60944,"lon":139.74585},{"name":"石井保育園","province":"東京都","city":"品川区","address":"東京都品川区小山2-6-15","lat":35.620841,"lon":139.70716},{"name":"ウィズブック保育園武蔵小山","province":"東京都","city":"品川区","address":"東京都品川区小山4-4-7","lat":35.618524,"lon":139.70432},{"name":"大井町のぞみ保育園","province":"東京都","city":"品川区","address":"東京都品川区二葉1-12-18","lat":35.606799,"lon":139.72683},{"name":"キッズタウンにしおおい","province":"東京都","city":"品川区","address":"東京都品川区西大井2-5-21","lat":35.599255,"lon":139.72186},{"name":"大空と大地のなーさりぃ大森駅前園","province":"東京都","city":"品川区","address":"東京都品川区南大井6-16-16","lat":35.590948,"lon":139.73021},{"name":"きたしながわさくらさくほいくえん","province":"東京都","city":"品川区","address":"東京都品川区北品川1-28-10","lat":35.620264,"lon":139.74145},{"name":"キッズガーデン品川上大崎","province":"東京都","city":"品川区","address":"東京都品川区上大崎4-5-37","lat":35.628976,"lon":139.71534},{"name":"キッズタウンにしおおい","province":"東京都","city":"品川区","address":"東京都品川区西大井2-5-21","lat":35.599255,"lon":139.72187},{"name":"くりのき保育園","province":"東京都","city":"品川区","address":"東京都品川区南品川4-1-11","lat":35.614587,"lon":139.7382},{"name":"グローバルキッズ荏原町","province":"東京都","city":"品川区","address":"東京都品川区中延5-2-1","lat":35.603762,"lon":139.7074},{"name":"グローバルキッズ大崎園","province":"東京都","city":"品川区","address":"東京都品川区北品川5-9-15","lat":35.618792,"lon":139.73438},{"name":"グローバルキッズ戸越園","province":"東京都","city":"品川区","address":"東京都品川区戸越5-14-23","lat":35.610473,"lon":139.71534},{"name":"グローバルキッズ中延園","province":"東京都","city":"品川区","address":"東京都品川区中延4-5-7","lat":35.605568,"lon":139.71262},{"name":"グローバルキッズ西大井園","province":"東京都","city":"品川区","address":"東京都品川区西大井6-6-2","lat":35.601243,"lon":139.71937},{"name":"ココファン・ナーサリー大崎","province":"東京都","city":"品川区","address":"東京都品川区大崎3-6-32","lat":35.62044,"lon":139.72658},{"name":"太陽の子南品川保育園","province":"東京都","city":"品川区","address":"東京都品川区南品川5-3-10","lat":35.611635,"lon":139.74167},{"name":"宝保育園","province":"東京都","city":"品川区","address":"東京都品川区西五反田4-11-18","lat":35.626626,"lon":139.71052},{"name":"TKチルドレンズファーム上大崎校","province":"東京都","city":"品川区","address":"東京都品川区上大崎3-14-35山手ビル1階","lat":35.629373,"lon":139.71975},{"name":"とうかいどう保育園","province":"東京都","city":"品川区","address":"東京都品川区南品川1-2-11","lat":35.616201,"lon":139.74327},{"name":"とごしの杜保育園","province":"東京都","city":"品川区","address":"東京都品川区平塚2-18-19","lat":35.615458,"lon":139.71332},{"name":"どんぐり保育園","province":"東京都","city":"品川区","address":"東京都品川区南品川2-9-13","lat":35.614123,"lon":139.74311},{"name":"にじいろ保育園大崎","province":"東京都","city":"品川区","address":"東京都品川区大崎5-4-3","lat":35.623108,"lon":139.72532},{"name":"日本音楽学校保育園","province":"東京都","city":"品川区","address":"東京都品川区豊町2-16-12","lat":35.610151,"lon":139.725},{"name":"東戸越保育園","province":"東京都","city":"品川区","address":"東京都品川区戸越4-1-10","lat":35.612264,"lon":139.71782},{"name":"ベネッセ大崎広小路保育園","province":"東京都","city":"品川区","address":"東京都品川区大崎4-1-2","lat":35.622605,"lon":139.72287},{"name":"ほっぺるランド東五反田","province":"東京都","city":"品川区","address":"東京都品川区東五反田1-2-25","lat":35.627843,"lon":139.72718},{"name":"ポピンズナーサリースクール勝島","province":"東京都","city":"品川区","address":"東京都品川区勝島1-6-5","lat":35.59677,"lon":139.74439},{"name":"まなびの森保育園大崎広小路","province":"東京都","city":"品川区","address":"東京都品川区西五反田1-21-8","lat":35.622983,"lon":139.72328},{"name":"みずなら保育園","province":"東京都","city":"品川区","address":"東京都品川区東品川3-21-10","lat":35.613332,"lon":139.74743},{"name":"緑の家保育園","province":"東京都","city":"品川区","address":"東京都品川区大井7-4-18","lat":35.596336,"lon":139.72881},{"name":"みどりの丘保育園","province":"東京都","city":"品川区","address":"東京都品川区西大井4-19-11","lat":35.593875,"lon":139.71915},{"name":"八潮中央保育園","province":"東京都","city":"品川区","address":"東京都品川区八潮5-10-60-101","lat":35.59925,"lon":139.75131},{"name":"学研こども園","province":"東京都","city":"品川区","address":"東京都品川区西五反田2-11-8","lat":35.627393,"lon":139.72026},{"name":"ポピンズナーサリースクール西五反田","province":"東京都","city":"品川区","address":"東京都品川区西五反田8-10-8","lat":35.619627,"lon":139.7195},{"name":"アートチャイルドケア目黒","province":"東京都","city":"品川区","address":"東京都品川区上大崎2-10-33コミュニティースペース目黒3階","lat":35.635386,"lon":139.71701},{"name":"アスク不動前保育園","province":"東京都","city":"品川区","address":"東京都品川区西五反田4-1-10アーバンハイム不動前1階","lat":35.628068,"lon":139.71218},{"name":"ウィズブック保育園天王洲","province":"東京都","city":"品川区","address":"東京都品川区東品川2-5-5ハーバーワンビル1階","lat":35.621203,"lon":139.7494},{"name":"うみのくに保育園とごし","province":"東京都","city":"品川区","address":"東京都品川区戸越1-19-18エスト戸越2階","lat":35.614764,"lon":139.7201},{"name":"こぐま保育園","province":"東京都","city":"品川区","address":"東京都品川区旗の台2-7-17","lat":35.606334,"lon":139.7042},{"name":"こっこる","province":"東京都","city":"品川区","address":"東京都品川区西五反田2-10-8ドルミ五反田ドゥメゾン211","lat":35.62701,"lon":139.72088},{"name":"さくら大崎保育園","province":"東京都","city":"品川区","address":"東京都品川区大崎2-9-4大崎ウエストシティタワーズ","lat":35.616945,"lon":139.72757},{"name":"しながわがくどうえん","province":"東京都","city":"品川区","address":"東京都品川区戸越1-21-14","lat":35.6151,"lon":139.72154},{"name":"小学館アカデミーアトレ大井町保育園","province":"東京都","city":"品川区","address":"東京都品川区大井1-1-1アトレ大井町23階","lat":35.607646,"lon":139.73457},{"name":"小学館アカデミーおおさき駅前保育園","province":"東京都","city":"品川区","address":"東京都品川区大崎1-2-3アートヴィレッジ大崎ビュータワー1階","lat":35.622905,"lon":139.72678},{"name":"小学館アカデミーむさしこやま保育園","province":"東京都","city":"品川区","address":"東京都品川区小山3-27-5武蔵小山創業支援センター2・3階","lat":35.619766,"lon":139.70334},{"name":"太陽の子 東五反田保育園","province":"東京都","city":"品川区","address":"東京都品川区東五反田1-6-31階","lat":35.627193,"lon":139.7262},{"name":"たんぽぽ保育所東大井園","province":"東京都","city":"品川区","address":"東京都品川区東大井2-12-19Mkビル2階","lat":35.602138,"lon":139.74004},{"name":"TKチルドレンズファーム東大井校","province":"東京都","city":"品川区","address":"東京都品川区東大井3-18-13東大井MSビル3階","lat":35.599491,"lon":139.7383},{"name":"パレット保育園不動前","province":"東京都","city":"品川区","address":"東京都品川区西五反田5-12-1不動前駅2階","lat":35.625774,"lon":139.7136},{"name":"東大井かがやき保育園","province":"東京都","city":"品川区","address":"東京都品川区東大井2-13-13季美東大井2階","lat":35.601208,"lon":139.73965},{"name":"ひよこの家保育園","province":"東京都","city":"品川区","address":"東京都品川区大崎4-6-3ファミネス・ハイツ第2","lat":35.619608,"lon":139.7233},{"name":"BunBu学院Jr戸越園","province":"東京都","city":"品川区","address":"東京都品川区戸越5-4-3アズ品川202","lat":35.61072,"lon":139.71732},{"name":"ポピンズナーサリースクール東五反田","province":"東京都","city":"品川区","address":"東京都品川区東五反田2-10-1パークタワーグランスカイ2階","lat":35.624349,"lon":139.72715},{"name":"ポピンズナーサリースクール東品川","province":"東京都","city":"品川区","address":"東京都品川区東品川4-12-12","lat":35.607535,"lon":139.74869},{"name":"めだか保育園","province":"東京都","city":"品川区","address":"東京都品川区東大井3-22-2","lat":35.600008,"lon":139.73593},{"name":"ゆらりん東品川保育園","province":"東京都","city":"品川区","address":"東京都品川区東品川3-7-10ATGPark東品川1階","lat":35.616187,"lon":139.7474},{"name":"ルーチェ保育園南品川","province":"東京都","city":"品川区","address":"東京都品川区南品川2-4-7アサミビル1階","lat":35.61064,"lon":139.74251},{"name":"品川学園","province":"東京都","city":"品川区","address":"東京都品川区北品川3-9-30","lat":35.61805,"lon":139.73798},{"name":"日野学園","province":"東京都","city":"品川区","address":"東京都品川区東五反田2-11-1","lat":35.624505,"lon":139.72817},{"name":"伊藤学園","province":"東京都","city":"品川区","address":"東京都品川区大井5-1-37","lat":35.600152,"lon":139.7261},{"name":"荏原平塚学園","province":"東京都","city":"品川区","address":"東京都品川区平塚3-16-26","lat":35.615325,"lon":139.7101},{"name":"八潮学園","province":"東京都","city":"品川区","address":"東京都品川区八潮5-11-2","lat":35.601392,"lon":139.75253},{"name":"豊葉の杜学園","province":"東京都","city":"品川区","address":"東京都品川区二葉1-3-40","lat":35.607287,"lon":139.72569},{"name":"城南小学校","province":"東京都","city":"品川区","address":"東京都品川区南品川2-8-21","lat":35.613329,"lon":139.74275},{"name":"浅間台小学校","province":"東京都","city":"品川区","address":"東京都品川区南品川6-8-8","lat":35.611484,"lon":139.73649},{"name":"三木小学校","province":"東京都","city":"品川区","address":"東京都品川区西品川3-16-28","lat":35.615528,"lon":139.72686},{"name":"御殿山小学校","province":"東京都","city":"品川区","address":"東京都品川区北品川5-2-6","lat":35.623133,"lon":139.73177},{"name":"城南第二小学校","province":"東京都","city":"品川区","address":"東京都品川区東品川3-4-5","lat":35.615579,"lon":139.74599},{"name":"第一日野小学校","province":"東京都","city":"品川区","address":"東京都品川区西五反田6-5-32","lat":35.622169,"lon":139.7161},{"name":"芳水小学校","province":"東京都","city":"品川区","address":"東京都品川区大崎3-12-22","lat":35.619255,"lon":139.72472},{"name":"第三日野小学校","province":"東京都","city":"品川区","address":"東京都品川区上大崎1-19-19","lat":35.632801,"lon":139.72382},{"name":"第四日野小学校","province":"東京都","city":"品川区","address":"東京都品川区西五反田4-29-9","lat":35.625804,"lon":139.71234},{"name":"大井第一小学校","province":"東京都","city":"品川区","address":"東京都品川区大井6-1-32","lat":35.598722,"lon":139.73119},{"name":"鮫浜小学校","province":"東京都","city":"品川区","address":"東京都品川区東大井2-10-14","lat":35.601716,"lon":139.74067},{"name":"山中小学校","province":"東京都","city":"品川区","address":"東京都品川区大井3-7-19","lat":35.602788,"lon":139.72993},{"name":"立会小学校","province":"東京都","city":"品川区","address":"東京都品川区東大井4-15-9","lat":35.604469,"lon":139.74019},{"name":"浜川小学校","province":"東京都","city":"品川区","address":"東京都品川区南大井4-3-27","lat":35.59828,"lon":139.7362},{"name":"伊藤小学校","province":"東京都","city":"品川区","address":"東京都品川区西大井5-6-8","lat":35.598755,"lon":139.71728},{"name":"鈴ヶ森小学校","province":"東京都","city":"品川区","address":"東京都品川区南大井4-16-2","lat":35.594478,"lon":139.73524},{"name":"台場小学校","province":"東京都","city":"品川区","address":"東京都品川区東品川1-8-30","lat":35.621383,"lon":139.74318},{"name":"京陽小学校","province":"東京都","city":"品川区","address":"東京都品川区平塚2-19-20","lat":35.615117,"lon":139.71308},{"name":"延山小学校","province":"東京都","city":"品川区","address":"東京都品川区西中延2-17-5","lat":35.609012,"lon":139.70808},{"name":"中延小学校","province":"東京都","city":"品川区","address":"東京都品川区中延1-11-15","lat":35.612567,"lon":139.7095},{"name":"小山小学校","province":"東京都","city":"品川区","address":"東京都品川区小山5-10-6","lat":35.616002,"lon":139.70325},{"name":"大原小学校","province":"東京都","city":"品川区","address":"東京都品川区戸越6-17-3","lat":35.607323,"lon":139.716},{"name":"宮前小学校","province":"東京都","city":"品川区","address":"東京都品川区戸越4-5-10","lat":35.611878,"lon":139.71833},{"name":"源氏前小学校","province":"東京都","city":"品川区","address":"東京都品川区中延6-2-18","lat":35.603448,"lon":139.71168},{"name":"第二延山小学校","province":"東京都","city":"品川区","address":"東京都品川区旗の台1-6-1","lat":35.61012,"lon":139.70361},{"name":"後地小学校","province":"東京都","city":"品川区","address":"東京都品川区小山2-4-6","lat":35.621568,"lon":139.70857},{"name":"戸越小学校","province":"東京都","city":"品川区","address":"東京都品川区豊町2-1-20","lat":35.610762,"lon":139.72097},{"name":"旗台小学校","province":"東京都","city":"品川区","address":"東京都品川区旗の台4-7-11","lat":35.603354,"lon":139.70419},{"name":"上神明小学校","province":"東京都","city":"品川区","address":"東京都品川区二葉4-4-10","lat":35.602921,"lon":139.71575},{"name":"清水台小学校","province":"東京都","city":"品川区","address":"東京都品川区旗の台1-11-17","lat":35.60742,"lon":139.70233},{"name":"小山台小学校","province":"東京都","city":"品川区","address":"東京都品川区小山台1-18-24","lat":35.622793,"lon":139.70347},{"name":"東海中学校","province":"東京都","city":"品川区","address":"東京都品川区東品川3-30-15","lat":35.612621,"lon":139.74897},{"name":"大崎中学校","province":"東京都","city":"品川区","address":"東京都品川区西品川3-10-6","lat":35.615836,"lon":139.72301},{"name":"浜川中学校","province":"東京都","city":"品川区","address":"東京都品川区東大井3-18-34","lat":35.6002,"lon":139.73794},{"name":"鈴ヶ森中学校","province":"東京都","city":"品川区","address":"東京都品川区南大井2-3-14","lat":35.593149,"lon":139.73778},{"name":"冨士見台中学校","province":"東京都","city":"品川区","address":"東京都品川区西大井5-5-14","lat":35.598555,"lon":139.71526},{"name":"荏原第一中学校","province":"東京都","city":"品川区","address":"東京都品川区荏原1-24-30","lat":35.619447,"lon":139.71287},{"name":"荏原第五中学校","province":"東京都","city":"品川区","address":"東京都品川区旗の台5-11-13","lat":35.603157,"lon":139.7021},{"name":"荏原第六中学校","province":"東京都","city":"品川区","address":"東京都品川区小山5-20-19","lat":35.616363,"lon":139.69988},{"name":"戸越台中学校","province":"東京都","city":"品川区","address":"東京都品川区戸越1-15-23","lat":35.615706,"lon":139.71759},{"name":"大崎高等学校","province":"東京都","city":"品川区","address":"東京都品川区豊町2-1-7","lat":35.609509,"lon":139.72129},{"name":"小山台高等学校","province":"東京都","city":"品川区","address":"東京都品川区小山3-3-32","lat":35.621149,"lon":139.70369},{"name":"八潮高等学校","province":"東京都","city":"品川区","address":"東京都品川区東品川3-27-22","lat":35.611851,"lon":139.74661},{"name":"都立産業技術高等専門学校","province":"東京都","city":"品川区","address":"東京都品川区東大井1-10-40","lat":35.606916,"lon":139.74897},{"name":"杉野服飾大学","province":"東京都","city":"品川区","address":"東京都品川区上大崎4-6-19","lat":35.631587,"lon":139.71585},{"name":"星薬科大学","province":"東京都","city":"品川区","address":"東京都品川区荏原2-4-41","lat":35.618949,"lon":139.71217},{"name":"立正大学","province":"東京都","city":"品川区","address":"東京都品川区大崎4-2-16","lat":35.620988,"lon":139.72356},{"name":"清泉女子大学","province":"東京都","city":"品川区","address":"東京都品川区東五反田3-16-21","lat":35.627682,"lon":139.72869},{"name":"昭和大学","province":"東京都","city":"品川区","address":"東京都品川区旗の台1-5-8","lat":35.608495,"lon":139.7035},{"name":"産業技術大学院大学","province":"東京都","city":"品川区","address":"東京都品川区東大井1-10-40","lat":35.606916,"lon":139.74897},{"name":"日本高等洋裁学院","province":"東京都","city":"品川区","address":"東京都品川区西大井1-6-13","lat":35.602538,"lon":139.72628},{"name":"池見東京歯科衛生士専門学校","province":"東京都","city":"品川区","address":"東京都品川区東大井3-5-6","lat":35.603291,"lon":139.73914},{"name":"池見東京医療専門学校","province":"東京都","city":"品川区","address":"東京都品川区東大井4-12-10","lat":35.605655,"lon":139.73903},{"name":"荏原医師会立看護高等専修学校","province":"東京都","city":"品川区","address":"東京都品川区中延1-7-12","lat":35.61185,"lon":139.71247},{"name":"昭和大学医学部附属看護専門学校","province":"東京都","city":"品川区","address":"東京都品川区旗の台1-5-8","lat":35.608495,"lon":139.7035},{"name":"新東京歯科衛生士学校","province":"東京都","city":"品川区","address":"東京都品川区南大井4-20-2","lat":35.592956,"lon":139.7358},{"name":"新東京歯科技工士学校","province":"東京都","city":"品川区","address":"東京都品川区南大井4-20-2","lat":35.592956,"lon":139.7358},{"name":"東京健康科学専門学校","province":"東京都","city":"品川区","address":"東京都品川区南品川6-10-5","lat":35.609748,"lon":139.73619},{"name":"東京工科専門学校品川校","province":"東京都","city":"品川区","address":"東京都品川区南品川3-7-12","lat":35.606891,"lon":139.7449},{"name":"東京歯科技工専門学校","province":"東京都","city":"品川区","address":"東京都品川区西五反田5-1-10","lat":35.625943,"lon":139.71523},{"name":"東京聖星社会福祉専門学校","province":"東京都","city":"品川区","address":"東京都品川区豊町2-16-12","lat":35.610151,"lon":139.725},{"name":"東京マックス美容専門学校","province":"東京都","city":"品川区","address":"東京都品川区大井1-48-11","lat":35.605357,"lon":139.73297},{"name":"ドレスメーカー学院","province":"東京都","city":"品川区","address":"東京都品川区上大崎4-6-19","lat":35.631587,"lon":139.71585},{"name":"宮川文化服装専門学校","province":"東京都","city":"品川区","address":"東京都品川区大崎4-5-20","lat":35.619952,"lon":139.7224},{"name":"日本書道専門学校","province":"東京都","city":"品川区","address":"東京都品川区上大崎2-19-6","lat":35.637042,"lon":139.71454},{"name":"教育総合支援センター","province":"東京都","city":"品川区","address":"東京都品川区西五反田6-5-1(教育文化会館4階)","lat":35.62246,"lon":139.71664},{"name":"マイスクール八潮","province":"東京都","city":"品川区","address":"東京都品川区八潮5-2-1","lat":35.603872,"lon":139.75311},{"name":"東品川児童センター","province":"東京都","city":"品川区","address":"東京都品川区東品川1-34-9","lat":35.619128,"lon":139.74604},{"name":"北品川児童センター","province":"東京都","city":"品川区","address":"東京都品川区北品川2-7-21","lat":35.618809,"lon":139.74394},{"name":"南品川児童センター","province":"東京都","city":"品川区","address":"東京都品川区南品川4-5-28","lat":35.613489,"lon":139.73874},{"name":"小関児童センター","province":"東京都","city":"品川区","address":"東京都品川区北品川5-8-15","lat":35.620139,"lon":139.73243},{"name":"三ツ木児童センター","province":"東京都","city":"品川区","address":"東京都品川区西品川2-6-13","lat":35.614006,"lon":139.72622},{"name":"東五反田児童センター","province":"東京都","city":"品川区","address":"東京都品川区東五反田5-24-1","lat":35.628013,"lon":139.72339},{"name":"中原児童センター","province":"東京都","city":"品川区","address":"東京都品川区小山1-4-1","lat":35.622094,"lon":139.7126},{"name":"平塚児童センター","province":"東京都","city":"品川区","address":"東京都品川区平塚2-2-3","lat":35.618791,"lon":139.71741},{"name":"後地児童センター","province":"東京都","city":"品川区","address":"東京都品川区小山2-9-19","lat":35.62063,"lon":139.7092},{"name":"中延児童センター","province":"東京都","city":"品川区","address":"東京都品川区西中延1-6-16","lat":35.61242,"lon":139.7085},{"name":"旗の台児童センター","province":"東京都","city":"品川区","address":"東京都品川区旗の台5-19-5","lat":35.603756,"lon":139.70045},{"name":"西中延児童センター","province":"東京都","city":"品川区","address":"東京都品川区西中延3-8-5","lat":35.607334,"lon":139.70815},{"name":"東中延児童センター","province":"東京都","city":"品川区","address":"東京都品川区東中延2-5-10","lat":35.607806,"lon":139.71381},{"name":"ゆたか児童センター","province":"東京都","city":"品川区","address":"東京都品川区豊町1-18-15","lat":35.611534,"lon":139.72271},{"name":"南ゆたか児童センター","province":"東京都","city":"品川区","address":"東京都品川区豊町4-17-21","lat":35.606479,"lon":139.72091},{"name":"大原児童センター","province":"東京都","city":"品川区","address":"東京都品川区戸越6-16-1","lat":35.607329,"lon":139.71534},{"name":"冨士見台児童センター","province":"東京都","city":"品川区","address":"東京都品川区西大井6-1-8","lat":35.601329,"lon":139.71423},{"name":"伊藤児童センター","province":"東京都","city":"品川区","address":"東京都品川区西大井6-13-1","lat":35.600741,"lon":139.71756},{"name":"一本橋児童センター","province":"東京都","city":"品川区","address":"東京都品川区大井2-25-1","lat":35.604652,"lon":139.72963},{"name":"大井倉田児童センター","province":"東京都","city":"品川区","address":"東京都品川区大井4-11-34","lat":35.602358,"lon":139.73369},{"name":"滝王子児童センター","province":"東京都","city":"品川区","address":"東京都品川区大井5-19-14","lat":35.598219,"lon":139.72899},{"name":"水神児童センター","province":"東京都","city":"品川区","address":"東京都品川区南大井5-13-19","lat":35.595456,"lon":139.73393},{"name":"南大井児童センター","province":"東京都","city":"品川区","address":"東京都品川区南大井3-7-13","lat":35.591828,"lon":139.7343},{"name":"東大井児童センター","province":"東京都","city":"品川区","address":"東京都品川区東大井1-22-16","lat":35.603483,"lon":139.74137},{"name":"八潮児童センター","province":"東京都","city":"品川区","address":"東京都品川区八潮5-10-27","lat":35.600153,"lon":139.75125},{"name":"すまいるスクール品川学園","province":"東京都","city":"品川区","address":"東京都品川区北品川3-9-30","lat":35.61805,"lon":139.73798},{"name":"すまいるスクール城南","province":"東京都","city":"品川区","address":"東京都品川区南品川2-8-21","lat":35.613329,"lon":139.74275},{"name":"すまいるスクール浅間台","province":"東京都","city":"品川区","address":"東京都品川区南品川6-8-8","lat":35.611484,"lon":139.73649},{"name":"すまいるスクール三木","province":"東京都","city":"品川区","address":"東京都品川区西品川3-16-28","lat":35.615528,"lon":139.72686},{"name":"すまいるスクール御殿山","province":"東京都","city":"品川区","address":"東京都品川区北品川5-2-6","lat":35.623133,"lon":139.73177},{"name":"すまいるスクール城南第二","province":"東京都","city":"品川区","address":"東京都品川区東品川3-4-5","lat":35.615579,"lon":139.74599},{"name":"すまいるスクール第一日野","province":"東京都","city":"品川区","address":"東京都品川区西五反田6-5-32","lat":35.622169,"lon":139.7161},{"name":"すまいるスクール日野学園","province":"東京都","city":"品川区","address":"東京都品川区東五反田2-11-1","lat":35.624505,"lon":139.72817},{"name":"すまいるスクール芳水","province":"東京都","city":"品川区","address":"東京都品川区大崎3-12-22","lat":35.619255,"lon":139.72472},{"name":"すまいるスクール第三日野","province":"東京都","city":"品川区","address":"東京都品川区上大崎1-19-19","lat":35.632801,"lon":139.72382},{"name":"すまいるスクール第四日野","province":"東京都","city":"品川区","address":"東京都品川区西五反田4-29-9","lat":35.625804,"lon":139.71234},{"name":"すまいるスクール台場","province":"東京都","city":"品川区","address":"東京都品川区東品川1-8-30","lat":35.621383,"lon":139.74318},{"name":"すまいるスクール大井第一","province":"東京都","city":"品川区","address":"東京都品川区大井6-1-32","lat":35.598722,"lon":139.73119},{"name":"すまいるスクール鮫浜","province":"東京都","city":"品川区","address":"東京都品川区東大井2-10-14","lat":35.601716,"lon":139.74067},{"name":"すまいるスクール山中","province":"東京都","city":"品川区","address":"東京都品川区大井3-7-19","lat":35.602788,"lon":139.72993},{"name":"すまいるスクール伊藤学園","province":"東京都","city":"品川区","address":"東京都品川区大井5-1-37","lat":35.600152,"lon":139.7261},{"name":"すまいるスクール立会","province":"東京都","city":"品川区","address":"東京都品川区東大井4-15-9","lat":35.604469,"lon":139.74019},{"name":"すまいるスクール浜川","province":"東京都","city":"品川区","address":"東京都品川区南大井4-3-27","lat":35.59828,"lon":139.7362},{"name":"すまいるスクール伊藤","province":"東京都","city":"品川区","address":"東京都品川区西大井5-6-8","lat":35.598755,"lon":139.71728},{"name":"すまいるスクール鈴ケ森","province":"東京都","city":"品川区","address":"東京都品川区南大井4-16-2","lat":35.594478,"lon":139.73524},{"name":"すまいるスクール八潮学園","province":"東京都","city":"品川区","address":"東京都品川区八潮5-11-2","lat":35.601392,"lon":139.75253},{"name":"すまいるスクール大原","province":"東京都","city":"品川区","address":"東京都品川区戸越6-17-3","lat":35.607323,"lon":139.716},{"name":"すまいるスクール宮前","province":"東京都","city":"品川区","address":"東京都品川区戸越4-5-10","lat":35.611878,"lon":139.71833},{"name":"すまいるスクール源氏前","province":"東京都","city":"品川区","address":"東京都品川区中延6-2-18","lat":35.603448,"lon":139.71168},{"name":"すまいるスクール戸越","province":"東京都","city":"品川区","address":"東京都品川区豊町2-1-20","lat":35.610762,"lon":139.72097},{"name":"すまいるスクール旗台","province":"東京都","city":"品川区","address":"東京都品川区旗の台4-7-11","lat":35.603354,"lon":139.70419},{"name":"すまいるスクール上神明","province":"東京都","city":"品川区","address":"東京都品川区二葉4-4-10","lat":35.602921,"lon":139.71575},{"name":"すまいるスクール豊葉の杜学園","province":"東京都","city":"品川区","address":"東京都品川区二葉1-3-40","lat":35.607287,"lon":139.72569},{"name":"すまいるスクール京陽","province":"東京都","city":"品川区","address":"東京都品川区平塚2-19-20","lat":35.615117,"lon":139.71308},{"name":"すまいるスクール延山","province":"東京都","city":"品川区","address":"東京都品川区西中延2-17-5","lat":35.609012,"lon":139.70808},{"name":"すまいるスクール中延","province":"東京都","city":"品川区","address":"東京都品川区中延1-11-15","lat":35.612567,"lon":139.7095},{"name":"すまいるスクール小山","province":"東京都","city":"品川区","address":"東京都品川区小山5-10-6","lat":35.616002,"lon":139.70325},{"name":"すまいるスクール第二延山","province":"東京都","city":"品川区","address":"東京都品川区旗の台1-6-1","lat":35.61012,"lon":139.70361},{"name":"すまいるスクール後地","province":"東京都","city":"品川区","address":"東京都品川区小山2-4-6","lat":35.621568,"lon":139.70857},{"name":"すまいるスクール荏原平塚学園","province":"東京都","city":"品川区","address":"東京都品川区平塚3-16-26","lat":35.615325,"lon":139.7101},{"name":"すまいるスクール清水台","province":"東京都","city":"品川区","address":"東京都品川区旗の台1-11-17","lat":35.60742,"lon":139.70233},{"name":"すまいるスクール小山台","province":"東京都","city":"品川区","address":"東京都品川区小山台1-18-24","lat":35.622793,"lon":139.70347},{"name":"こみゅにてぃぷらざ八潮","province":"東京都","city":"品川区","address":"東京都品川区八潮5-9-11","lat":35.5982,"lon":139.75235},{"name":"五反田文化センター","province":"東京都","city":"品川区","address":"東京都品川区西五反田6-5-1","lat":35.62246,"lon":139.71664},{"name":"荏原文化センター","province":"東京都","city":"品川区","address":"東京都品川区中延1-9-15","lat":35.612164,"lon":139.71055},{"name":"旗の台文化センター","province":"東京都","city":"品川区","address":"東京都品川区旗の台5-19-5","lat":35.603756,"lon":139.70045},{"name":"東品川文化センター","province":"東京都","city":"品川区","address":"東京都品川区東品川3-32-10","lat":35.614193,"lon":139.75075},{"name":"品川歴史館","province":"東京都","city":"品川区","address":"東京都品川区大井6-11-1","lat":35.596733,"lon":139.73016},{"name":"きゅりあん","province":"東京都","city":"品川区","address":"東京都品川区東大井5-18-1","lat":35.606177,"lon":139.73584},{"name":"スクエア荏原","province":"東京都","city":"品川区","address":"東京都品川区荏原4-5-28","lat":35.615344,"lon":139.70749},{"name":"メイプルセンター","province":"東京都","city":"品川区","address":"東京都品川区西大井1-4-25","lat":35.602074,"lon":139.72235},{"name":"O(オー)美術館","province":"東京都","city":"品川区","address":"東京都品川区大崎1-6-2大崎ニューシティ2号館2階","lat":35.620939,"lon":139.72917},{"name":"品川区民ギャラリー","province":"東京都","city":"品川区","address":"東京都品川区大井1-3-6イトーヨーカドー大井町店8階","lat":35.607301,"lon":139.73387},{"name":"しながわ水族館","province":"東京都","city":"品川区","address":"東京都品川区勝島3-2-1しながわ区民公園内","lat":35.588476,"lon":139.7375},{"name":"ウェルカムセンター原","province":"東京都","city":"品川区","address":"東京都品川区西大井2-5-21","lat":35.599255,"lon":139.72186},{"name":"品川図書館","province":"東京都","city":"品川区","address":"東京都品川区北品川2-32-3","lat":35.616839,"lon":139.74237},{"name":"二葉図書館","province":"東京都","city":"品川区","address":"東京都品川区二葉1-4-25","lat":35.608023,"lon":139.72676},{"name":"荏原図書館","province":"東京都","city":"品川区","address":"東京都品川区中延1-9-15","lat":35.612164,"lon":139.71055},{"name":"南大井図書館","province":"東京都","city":"品川区","address":"東京都品川区南大井3-7-13","lat":35.591828,"lon":139.7343},{"name":"源氏前図書館","province":"東京都","city":"品川区","address":"東京都品川区中延4-14-17","lat":35.605509,"lon":139.70998},{"name":"ゆたか図書館","province":"東京都","city":"品川区","address":"東京都品川区豊町1-17-7","lat":35.611592,"lon":139.72236},{"name":"大井図書館","province":"東京都","city":"品川区","address":"東京都品川区大井5-19-14","lat":35.598219,"lon":139.72899},{"name":"五反田図書館","province":"東京都","city":"品川区","address":"東京都品川区西五反田6-5-1","lat":35.62246,"lon":139.71664},{"name":"大崎図書館","province":"東京都","city":"品川区","address":"東京都品川区大崎2-4-8","lat":35.618575,"lon":139.72571},{"name":"八潮図書館","province":"東京都","city":"品川区","address":"東京都品川区八潮5-10-27","lat":35.600153,"lon":139.75125},{"name":"総合体育館","province":"東京都","city":"品川区","address":"東京都品川区東五反田2-11-2","lat":35.62418,"lon":139.72826},{"name":"戸越体育館","province":"東京都","city":"品川区","address":"東京都品川区豊町2-1-17","lat":35.61084,"lon":139.72059},{"name":"総合体育館温水プール","province":"東京都","city":"品川区","address":"東京都品川区東五反田2-11-2","lat":35.62418,"lon":139.72826},{"name":"戸越台中学校温水プール","province":"東京都","city":"品川区","address":"東京都品川区戸越1-15-23","lat":35.615706,"lon":139.71759},{"name":"荏原文化センター温水プール","province":"東京都","city":"品川区","address":"東京都品川区中延1-9-15","lat":35.612164,"lon":139.71055},{"name":"八潮学園温水プール","province":"東京都","city":"品川区","address":"東京都品川区八潮5-11-2","lat":35.601392,"lon":139.75253},{"name":"品川学園温水プール","province":"東京都","city":"品川区","address":"東京都品川区北品川3-9-30","lat":35.61805,"lon":139.73798},{"name":"豊葉の杜学園温水プール","province":"東京都","city":"品川区","address":"東京都品川区二葉1-3-40","lat":35.607287,"lon":139.72569},{"name":"権現山公園","province":"東京都","city":"品川区","address":"東京都品川区北品川3-9-5","lat":35.618575,"lon":139.73777},{"name":"八ッ山公園","province":"東京都","city":"品川区","address":"東京都品川区北品川1-14-7","lat":35.624686,"lon":139.74292},{"name":"聖蹟公園","province":"東京都","city":"品川区","address":"東京都品川区北品川2-7-21","lat":35.618809,"lon":139.74394},{"name":"東品川公園","province":"東京都","city":"品川区","address":"東京都品川区東品川3-14-9","lat":35.61412,"lon":139.74604},{"name":"五反田公園","province":"東京都","city":"品川区","address":"東京都品川区東五反田5-24-6","lat":35.627642,"lon":139.72369},{"name":"天王洲公園","province":"東京都","city":"品川区","address":"東京都品川区東品川2-6-23","lat":35.619442,"lon":139.75019},{"name":"五反田南公園","province":"東京都","city":"品川区","address":"東京都品川区東五反田2-1-14","lat":35.625332,"lon":139.7246},{"name":"東八ツ山公園","province":"東京都","city":"品川区","address":"東京都品川区北品川1-15-11","lat":35.62468,"lon":139.74332},{"name":"品川浦公園","province":"東京都","city":"品川区","address":"東京都品川区東品川1-7-17","lat":35.6211,"lon":139.74239},{"name":"東海公園","province":"東京都","city":"品川区","address":"東京都品川区東品川3-29-6","lat":35.612911,"lon":139.74923},{"name":"品海公園","province":"東京都","city":"品川区","address":"東京都品川区北品川1-30-9","lat":35.620122,"lon":139.74257},{"name":"北品川公園","province":"東京都","city":"品川区","address":"東京都品川区北品川2-12-5","lat":35.618748,"lon":139.74163},{"name":"東海第二公園","province":"東京都","city":"品川区","address":"東京都品川区東品川3-17-15","lat":35.614223,"lon":139.75002},{"name":"子供の森公園","province":"東京都","city":"品川区","address":"東京都品川区北品川3-10-13","lat":35.616345,"lon":139.73823},{"name":"上大崎公園","province":"東京都","city":"品川区","address":"東京都品川区上大崎1-3-13","lat":35.635462,"lon":139.72166},{"name":"そよかぜ公園","province":"東京都","city":"品川区","address":"東京都品川区西品川2-17-8","lat":35.612012,"lon":139.72676},{"name":"希望ケ丘公園","province":"東京都","city":"品川区","address":"東京都品川区上大崎3-10-25","lat":35.631604,"lon":139.71821},{"name":"東品川一丁目公園","province":"東京都","city":"品川区","address":"東京都品川区東品川1-2-11","lat":35.622844,"lon":139.74411},{"name":"西五反田公園","province":"東京都","city":"品川区","address":"東京都品川区西五反田5-6-4","lat":35.624324,"lon":139.71552},{"name":"大崎公園","province":"東京都","city":"品川区","address":"東京都品川区大崎5-5-17","lat":35.622919,"lon":139.72418},{"name":"西の台公園","province":"東京都","city":"品川区","address":"東京都品川区西品川1-4-8","lat":35.613995,"lon":139.72913},{"name":"峰原公園","province":"東京都","city":"品川区","address":"東京都品川区大崎3-17-27","lat":35.617939,"lon":139.72118},{"name":"横丁公園","province":"東京都","city":"品川区","address":"東京都品川区南品川5-4-9","lat":35.610418,"lon":139.74179},{"name":"二日市公園","province":"東京都","city":"品川区","address":"東京都品川区南品川6-7-15","lat":35.611441,"lon":139.73907},{"name":"洲崎公園","province":"東京都","city":"品川区","address":"東京都品川区東品川1-36-15","lat":35.617964,"lon":139.74617},{"name":"敬老公園","province":"東京都","city":"品川区","address":"東京都品川区東品川3-32-8","lat":35.612737,"lon":139.75037},{"name":"西八丁公園","province":"東京都","city":"品川区","address":"東京都品川区西五反田8-11-4","lat":35.619723,"lon":139.71929},{"name":"御成橋公園","province":"東京都","city":"品川区","address":"東京都品川区東五反田2-15-20","lat":35.622338,"lon":139.72897},{"name":"浅間台公園","province":"東京都","city":"品川区","address":"東京都品川区南品川6-18-19","lat":35.608424,"lon":139.73689},{"name":"西霧ケ谷公園","province":"東京都","city":"品川区","address":"東京都品川区西五反田5-28-16","lat":35.623066,"lon":139.71177},{"name":"北浜公園","province":"東京都","city":"品川区","address":"東京都品川区北品川2-28-12","lat":35.617417,"lon":139.74492},{"name":"広町公園","province":"東京都","city":"品川区","address":"東京都品川区広町1-3-30","lat":35.612365,"lon":139.7351},{"name":"鎗ケ崎公園","province":"東京都","city":"品川区","address":"東京都品川区西品川3-12-2","lat":35.615536,"lon":139.72448},{"name":"三ツ木公園","province":"東京都","city":"品川区","address":"東京都品川区西品川2-6-11","lat":35.613912,"lon":139.72646},{"name":"西品川公園","province":"東京都","city":"品川区","address":"東京都品川区西品川1-8-7","lat":35.612826,"lon":139.73089},{"name":"仙台坂公園","province":"東京都","city":"品川区","address":"東京都品川区南品川5-16-1","lat":35.608738,"lon":139.74165},{"name":"台場浦公園","province":"東京都","city":"品川区","address":"東京都品川区東品川1-8-34","lat":35.621517,"lon":139.74297},{"name":"池田山公園","province":"東京都","city":"品川区","address":"東京都品川区東五反田5-4-35","lat":35.632565,"lon":139.72343},{"name":"小関公園","province":"東京都","city":"品川区","address":"東京都品川区北品川5-8-21","lat":35.619594,"lon":139.73337},{"name":"かむろ坂公園","province":"東京都","city":"品川区","address":"東京都品川区西五反田4-28-9","lat":35.625215,"lon":139.71158},{"name":"南品川広場公園","province":"東京都","city":"品川区","address":"東京都品川区南品川5-10-27","lat":35.608995,"lon":139.73984},{"name":"西品川おさんぽ公園","province":"東京都","city":"品川区","address":"東京都品川区西品川3-9-24","lat":35.616247,"lon":139.72386},{"name":"南五公園","province":"東京都","city":"品川区","address":"東京都品川区南品川5-2-5","lat":35.612148,"lon":139.74111},{"name":"天王洲アイル第一公園","province":"東京都","city":"品川区","address":"東京都品川区東品川2-3-21","lat":35.623053,"lon":139.7515},{"name":"天王洲アイル第四公園","province":"東京都","city":"品川区","address":"東京都品川区東品川2-2-2","lat":35.622392,"lon":139.74933},{"name":"天王洲アイル第三公園","province":"東京都","city":"品川区","address":"東京都品川区東品川2-2-12","lat":35.622392,"lon":139.74933},{"name":"天王洲アイル第二公園","province":"東京都","city":"品川区","address":"東京都品川区東品川2-2-17","lat":35.6221,"lon":139.75053},{"name":"東品川海上公園","province":"東京都","city":"品川区","address":"東京都品川区東品川3-9-21","lat":35.61729,"lon":139.74973},{"name":"天王洲アイル第九公園","province":"東京都","city":"品川区","address":"東京都品川区東品川2-4-3","lat":35.619276,"lon":139.75106},{"name":"居木橋公園","province":"東京都","city":"品川区","address":"東京都品川区大崎1-14-4","lat":35.634076,"lon":139.72666},{"name":"天王洲アイル第八公園","province":"東京都","city":"品川区","address":"東京都品川区東品川2-4-19","lat":35.619276,"lon":139.75106},{"name":"杜の公園","province":"東京都","city":"品川区","address":"東京都品川区北品川1-6-10","lat":35.624947,"lon":139.74228},{"name":"品川シーサイド公園","province":"東京都","city":"品川区","address":"東京都品川区東品川4-12-13","lat":35.607513,"lon":139.74918},{"name":"谷山公園","province":"東京都","city":"品川区","address":"東京都品川区西五反田3-6-15","lat":35.627775,"lon":139.71855},{"name":"ねむの木の庭","province":"東京都","city":"品川区","address":"東京都品川区東五反田5-19-5","lat":35.630215,"lon":139.72195},{"name":"品川南ふ頭公園","province":"東京都","city":"品川区","address":"東京都品川区東品川5-8-4","lat":35.622006,"lon":139.75486},{"name":"大崎光の滝公園","province":"東京都","city":"品川区","address":"東京都品川区大崎1-1-2","lat":35.624069,"lon":139.7255},{"name":"ひふみ公園","province":"東京都","city":"品川区","address":"東京都品川区大崎2-2-11","lat":35.61843,"lon":139.72632},{"name":"御殿山の丘公園","province":"東京都","city":"品川区","address":"東京都品川区北品川6-6-32","lat":35.624713,"lon":139.73373},{"name":"亀の甲緑地","province":"東京都","city":"品川区","address":"東京都品川区上大崎4-5-37","lat":35.628976,"lon":139.71534},{"name":"東品川ひだまり緑地","province":"東京都","city":"品川区","address":"東京都品川区東品川3-11-23","lat":35.614998,"lon":139.74911},{"name":"大井海岸公園","province":"東京都","city":"品川区","address":"東京都品川区南大井3-27-5","lat":35.588273,"lon":139.7337},{"name":"大井水神公園","province":"東京都","city":"品川区","address":"東京都品川区南大井6-15-2","lat":35.590956,"lon":139.72976},{"name":"鈴ケ森公園","province":"東京都","city":"品川区","address":"東京都品川区南大井4-18-14","lat":35.593346,"lon":139.73494},{"name":"大井駅前公園","province":"東京都","city":"品川区","address":"東京都品川区大井1-2-5","lat":35.606727,"lon":139.73428},{"name":"鮫洲運動公園","province":"東京都","city":"品川区","address":"東京都品川区東大井1-4-11","lat":35.605883,"lon":139.74499},{"name":"大井公園","province":"東京都","city":"品川区","address":"東京都品川区東大井4-3-18","lat":35.605296,"lon":139.74129},{"name":"東大井公園","province":"東京都","city":"品川区","address":"東京都品川区東大井3-4-4","lat":35.604145,"lon":139.73878},{"name":"大井中央公園","province":"東京都","city":"品川区","address":"東京都品川区大井1-46-8","lat":35.604349,"lon":139.73213},{"name":"鮫浜公園","province":"東京都","city":"品川区","address":"東京都品川区東大井2-2-3","lat":35.603052,"lon":139.74143},{"name":"大井坂下公園","province":"東京都","city":"品川区","address":"東京都品川区南大井6-23-11","lat":35.589429,"lon":139.73067},{"name":"金子山公園","province":"東京都","city":"品川区","address":"東京都品川区西大井4-11-6","lat":35.595611,"lon":139.72027},{"name":"新浜川公園","province":"東京都","city":"品川区","address":"東京都品川区東大井2-26-18","lat":35.598008,"lon":139.74092},{"name":"わかくさ公園","province":"東京都","city":"品川区","address":"東京都品川区勝島1-6-1","lat":35.598047,"lon":139.74416},{"name":"原っぱ公園","province":"東京都","city":"品川区","address":"東京都品川区西大井6-1-14","lat":35.601367,"lon":139.71461},{"name":"宮下公園","province":"東京都","city":"品川区","address":"東京都品川区大井2-7-16","lat":35.605163,"lon":139.72849},{"name":"浜川公園","province":"東京都","city":"品川区","address":"東京都品川区南大井4-8-22","lat":35.596986,"lon":139.73543},{"name":"滝王子公園","province":"東京都","city":"品川区","address":"東京都品川区大井5-19-5","lat":35.598264,"lon":139.72851},{"name":"出石公園","province":"東京都","city":"品川区","address":"東京都品川区西大井3-16-27","lat":35.594582,"lon":139.72214},{"name":"浜川北公園","province":"東京都","city":"品川区","address":"東京都品川区東大井3-26-6","lat":35.599253,"lon":139.73764},{"name":"桐畑公園","province":"東京都","city":"品川区","address":"東京都品川区南大井6-1-17","lat":35.593142,"lon":139.73226},{"name":"西の森公園","province":"東京都","city":"品川区","address":"東京都品川区西大井4-2-1","lat":35.597302,"lon":139.72119},{"name":"関ケ原公園","province":"東京都","city":"品川区","address":"東京都品川区東大井6-12-21","lat":35.602076,"lon":139.73557},{"name":"倉田公園","province":"東京都","city":"品川区","address":"東京都品川区大井4-29-23","lat":35.5993,"lon":139.73131},{"name":"西大井広場公園","province":"東京都","city":"品川区","address":"東京都品川区二葉2-19-7","lat":35.602971,"lon":139.72382},{"name":"元芝公園","province":"東京都","city":"品川区","address":"東京都品川区東大井3-7-18","lat":35.602366,"lon":139.7394},{"name":"しながわ区民公園","province":"東京都","city":"品川区","address":"東京都品川区南大井2-3-17","lat":35.593495,"lon":139.73784},{"name":"西大井緑地公園","province":"東京都","city":"品川区","address":"東京都品川区西大井6-10-16","lat":35.600234,"lon":139.72047},{"name":"八潮公園","province":"東京都","city":"品川区","address":"東京都品川区八潮5-11-16","lat":35.600345,"lon":139.7537},{"name":"しおじ公園","province":"東京都","city":"品川区","address":"東京都品川区八潮5-6-9","lat":35.596254,"lon":139.7506},{"name":"大井鹿島公園","province":"東京都","city":"品川区","address":"東京都品川区大井6-8-2","lat":35.592125,"lon":139.73285},{"name":"谷垂公園","province":"東京都","city":"品川区","address":"東京都品川区西大井6-13-10","lat":35.600013,"lon":139.71803},{"name":"やまなか公園","province":"東京都","city":"品川区","address":"東京都品川区大井3-22-3","lat":35.589379,"lon":139.73384},{"name":"大森貝塚遺跡庭園","province":"東京都","city":"品川区","address":"東京都品川区大井6-21-6","lat":35.593264,"lon":139.72969},{"name":"八潮北公園","province":"東京都","city":"品川区","address":"東京都品川区八潮1-3-1","lat":35.612485,"lon":139.75376},{"name":"森前公園","province":"東京都","city":"品川区","address":"東京都品川区西大井1-1-10","lat":35.600877,"lon":139.72181},{"name":"鮫洲入江広場","province":"東京都","city":"品川区","address":"東京都品川区東大井1-13-1","lat":35.603309,"lon":139.74419},{"name":"戸越公園","province":"東京都","city":"品川区","address":"東京都品川区豊町2-1-30","lat":35.611167,"lon":139.72239},{"name":"平塚公園","province":"東京都","city":"品川区","address":"東京都品川区荏原4-5-2","lat":35.614503,"lon":139.7079},{"name":"荏原南公園","province":"東京都","city":"品川区","address":"東京都品川区荏原6-16-4","lat":35.611467,"lon":139.70291},{"name":"小山台公園","province":"東京都","city":"品川区","address":"東京都品川区小山台2-2-1","lat":35.625557,"lon":139.6988},{"name":"荏原中央公園","province":"東京都","city":"品川区","address":"東京都品川区荏原5-1-2","lat":35.61596,"lon":139.70417},{"name":"西中延公園","province":"東京都","city":"品川区","address":"東京都品川区西中延2-7-14","lat":35.610526,"lon":139.7085},{"name":"戸越台公園","province":"東京都","city":"品川区","address":"東京都品川区戸越1-7-17","lat":35.616153,"lon":139.71757},{"name":"旗の台公園","province":"東京都","city":"品川区","address":"東京都品川区旗の台5-19-9","lat":35.603731,"lon":139.70014},{"name":"小山台東公園","province":"東京都","city":"品川区","address":"東京都品川区小山台1-26-12","lat":35.622229,"lon":139.70634},{"name":"旗の台南公園","province":"東京都","city":"品川区","address":"東京都品川区旗の台5-11-11","lat":35.603629,"lon":139.70222},{"name":"中原公園","province":"東京都","city":"品川区","address":"東京都品川区小山1-4-4","lat":35.621898,"lon":139.71261},{"name":"東中延公園","province":"東京都","city":"品川区","address":"東京都品川区東中延2-10-2","lat":35.606956,"lon":139.71246},{"name":"中原東公園","province":"東京都","city":"品川区","address":"東京都品川区荏原1-21-9","lat":35.618708,"lon":139.71481},{"name":"荏原町公園","province":"東京都","city":"品川区","address":"東京都品川区中延5-14-5","lat":35.602024,"lon":139.70902},{"name":"荏三公園","province":"東京都","city":"品川区","address":"東京都品川区荏原3-3-10","lat":35.618183,"lon":139.70669},{"name":"平塚中央公園","province":"東京都","city":"品川区","address":"東京都品川区平塚2-2-12","lat":35.618608,"lon":139.71735},{"name":"荏原西公園","province":"東京都","city":"品川区","address":"東京都品川区荏原6-5-5","lat":35.613414,"lon":139.70444},{"name":"大原公園","province":"東京都","city":"品川区","address":"東京都品川区戸越6-14-1","lat":35.60739,"lon":139.71439},{"name":"豊町公園","province":"東京都","city":"品川区","address":"東京都品川区豊町6-16-3","lat":35.604746,"lon":139.71644},{"name":"後地公園","province":"東京都","city":"品川区","address":"東京都品川区小山2-9-16","lat":35.621316,"lon":139.70924},{"name":"京陽公園","province":"東京都","city":"品川区","address":"東京都品川区平塚2-12-3","lat":35.616804,"lon":139.71326},{"name":"二葉公園","province":"東京都","city":"品川区","address":"東京都品川区二葉4-13-5","lat":35.603746,"lon":139.71819},{"name":"中延公園","province":"東京都","city":"品川区","address":"東京都品川区西中延1-9-8","lat":35.61174,"lon":139.70798},{"name":"旗の台北公園","province":"東京都","city":"品川区","address":"東京都品川区旗の台3-10-15","lat":35.605734,"lon":139.70454},{"name":"源氏前公園","province":"東京都","city":"品川区","address":"東京都品川区中延6-4-15","lat":35.602271,"lon":139.71218},{"name":"平塚たけのこ公園","province":"東京都","city":"品川区","address":"東京都品川区平塚1-17-7","lat":35.612756,"lon":139.71348},{"name":"東中はなみずき公園","province":"東京都","city":"品川区","address":"東京都品川区東中延1-8-9","lat":35.610817,"lon":139.71255},{"name":"延山くすのき公園","province":"東京都","city":"品川区","address":"東京都品川区西中延3-3-1","lat":35.608192,"lon":139.70874},{"name":"西中お日さま公園","province":"東京都","city":"品川区","address":"東京都品川区西中延3-10-11","lat":35.607065,"lon":139.70677},{"name":"旗の台なか公園","province":"東京都","city":"品川区","address":"東京都品川区旗の台3-9-12","lat":35.604801,"lon":139.70559},{"name":"しいのき公園","province":"東京都","city":"品川区","address":"東京都品川区荏原5-5-12","lat":35.615011,"lon":139.70337},{"name":"葦山公園","province":"東京都","city":"品川区","address":"東京都品川区豊町1-6-7","lat":35.613398,"lon":139.7223},{"name":"戸越南公園","province":"東京都","city":"品川区","address":"東京都品川区戸越6-8-8","lat":35.607195,"lon":139.71858},{"name":"江戸見坂公園","province":"東京都","city":"品川区","address":"東京都品川区小山6-23-8","lat":35.612753,"lon":139.69926},{"name":"旗の台広場公園","province":"東京都","city":"品川区","address":"東京都品川区旗の台3-1-5","lat":35.606009,"lon":139.70601},{"name":"あさひ公園","province":"東京都","city":"品川区","address":"東京都品川区小山2-17-27","lat":35.619286,"lon":139.70821},{"name":"二鳳公園","province":"東京都","city":"品川区","address":"東京都品川区豊町4-19-20","lat":35.605546,"lon":139.72112},{"name":"しながわ中央公園","province":"東京都","city":"品川区","address":"東京都品川区西品川1-20-13","lat":35.609795,"lon":139.72979},{"name":"弁天通り公園","province":"東京都","city":"品川区","address":"東京都品川区中延5-3-8","lat":35.603496,"lon":139.7085},{"name":"庚申公園","province":"東京都","city":"品川区","address":"東京都品川区中延5-13-17","lat":35.601626,"lon":139.70882},{"name":"荏原さくら公園","province":"東京都","city":"品川区","address":"東京都品川区荏原1-24-18","lat":35.619905,"lon":139.71329},{"name":"ごこう広場","province":"東京都","city":"品川区","address":"東京都品川区中延5-9-23","lat":35.602091,"lon":139.70694},{"name":"中六桜広場","province":"東京都","city":"品川区","address":"東京都品川区中延6-10-3","lat":35.601346,"lon":139.71132},{"name":"文庫の森","province":"東京都","city":"品川区","address":"東京都品川区豊町1-16-23","lat":35.612295,"lon":139.72053},{"name":"ゆたか南公園","province":"東京都","city":"品川区","address":"東京都品川区豊町6-29-2","lat":35.603985,"lon":139.71622},{"name":"戸越一丁目緑地","province":"東京都","city":"品川区","address":"東京都品川区戸越1-27-32","lat":35.616683,"lon":139.72161},{"name":"南品川児童遊園","province":"東京都","city":"品川区","address":"東京都品川区南品川1-2-29","lat":35.61564,"lon":139.74273},{"name":"北品川三丁目児童遊園","province":"東京都","city":"品川区","address":"東京都品川区北品川3-7-15","lat":35.618435,"lon":139.73962},{"name":"むつみ児童遊園","province":"東京都","city":"品川区","address":"東京都品川区南品川5-2-17","lat":35.611982,"lon":139.74098},{"name":"南品川二丁目児童遊園","province":"東京都","city":"品川区","address":"東京都品川区南品川2-11-5","lat":35.614007,"lon":139.74397},{"name":"百反坂下児童遊園","province":"東京都","city":"品川区","address":"東京都品川区西品川3-20-22","lat":35.615603,"lon":139.72928},{"name":"五反田児童遊園","province":"東京都","city":"品川区","address":"東京都品川区東五反田5-21-10","lat":35.628821,"lon":139.72084},{"name":"上大崎児童遊園","province":"東京都","city":"品川区","address":"東京都品川区上大崎3-3-15","lat":35.633576,"lon":139.71802},{"name":"さつき児童遊園","province":"東京都","city":"品川区","address":"東京都品川区南品川5-8-28","lat":35.610485,"lon":139.74066},{"name":"西五反田六丁目児童遊園","province":"東京都","city":"品川区","address":"東京都品川区西五反田6-11-7","lat":35.621013,"lon":139.71761},{"name":"三ツ木児童遊園","province":"東京都","city":"品川区","address":"東京都品川区西品川2-9-18","lat":35.613584,"lon":139.72443},{"name":"大崎5丁目児童遊園","province":"東京都","city":"品川区","address":"東京都品川区大崎5-8-5","lat":35.622008,"lon":139.72515},{"name":"大崎五丁目遊園","province":"東京都","city":"品川区","address":"東京都品川区大崎5-2-2","lat":35.622611,"lon":139.72596},{"name":"西五反田4丁目遊園","province":"東京都","city":"品川区","address":"東京都品川区西五反田4-19-7","lat":35.625532,"lon":139.70791},{"name":"大崎橋広場","province":"東京都","city":"品川区","address":"東京都品川区西五反田1-10-2","lat":35.624815,"lon":139.72382},{"name":"にしよん広場","province":"東京都","city":"品川区","address":"東京都品川区西五反田4-10-6","lat":35.625849,"lon":139.71099},{"name":"相生広場","province":"東京都","city":"品川区","address":"東京都品川区東五反田4-1-32","lat":35.631921,"lon":139.72641},{"name":"東品川屋上庭園","province":"東京都","city":"品川区","address":"東京都品川区東品川3-9-21","lat":35.61729,"lon":139.74973},{"name":"東品川健康広場","province":"東京都","city":"品川区","address":"東京都品川区東品川3-9-21","lat":35.61729,"lon":139.74973},{"name":"鹿島庚塚児童遊園","province":"東京都","city":"品川区","address":"東京都品川区大井7-29-11","lat":35.593995,"lon":139.72892},{"name":"富士見ケ丘児童遊園","province":"東京都","city":"品川区","address":"東京都品川区西大井5-7-3","lat":35.599502,"lon":139.7167},{"name":"北浜川児童遊園","province":"東京都","city":"品川区","address":"東京都品川区東大井2-25-22","lat":35.597872,"lon":139.73913},{"name":"出石児童遊園","province":"東京都","city":"品川区","address":"東京都品川区西大井3-1-5","lat":35.597755,"lon":139.72363},{"name":"関ケ原児童遊園","province":"東京都","city":"品川区","address":"東京都品川区南大井5-2-15","lat":35.599947,"lon":139.73502},{"name":"東大井三丁目児童遊園","province":"東京都","city":"品川区","address":"東京都品川区東大井3-29-6","lat":35.598866,"lon":139.73693},{"name":"西大井ちびっこ児童遊園","province":"東京都","city":"品川区","address":"東京都品川区西大井2-24-9","lat":35.598005,"lon":139.72506},{"name":"作守児童遊園","province":"東京都","city":"品川区","address":"東京都品川区大井4-12-14","lat":35.60163,"lon":139.73318},{"name":"大井町緑地児童遊園","province":"東京都","city":"品川区","address":"東京都品川区大井1-7地先","lat":35.606893,"lon":139.73289},{"name":"南大井三丁目児童遊園","province":"東京都","city":"品川区","address":"東京都品川区南大井3-7-10","lat":35.5915,"lon":139.73461},{"name":"桜橋児童遊園","province":"東京都","city":"品川区","address":"東京都品川区東大井3-22-1","lat":35.599969,"lon":139.73583},{"name":"西大井二丁目児童遊園","province":"東京都","city":"品川区","address":"東京都品川区西大井2-22-7","lat":35.598791,"lon":139.7245},{"name":"森下児童遊園","province":"東京都","city":"品川区","address":"東京都品川区大井2-1-13","lat":35.60626,"lon":139.72919},{"name":"伊藤児童遊園","province":"東京都","city":"品川区","address":"東京都品川区西大井6-17-9","lat":35.600407,"lon":139.71537},{"name":"大井倉田児童遊園","province":"東京都","city":"品川区","address":"東京都品川区大井4-22-30","lat":35.600222,"lon":139.73211},{"name":"鈴ケ森道路児童遊園","province":"東京都","city":"品川区","address":"東京都品川区南大井1-22-1","lat":35.594281,"lon":139.7365},{"name":"みなみ児童遊園","province":"東京都","city":"品川区","address":"東京都品川区南大井1-13-8","lat":35.595317,"lon":139.737},{"name":"戸越児童遊園","province":"東京都","city":"品川区","address":"東京都品川区戸越3-9-20","lat":35.612006,"lon":139.71576},{"name":"旗岡児童遊園","province":"東京都","city":"品川区","address":"東京都品川区旗の台3-6-12","lat":35.60464,"lon":139.70783},{"name":"上神明児童遊園","province":"東京都","city":"品川区","address":"東京都品川区二葉4-3-15","lat":35.606416,"lon":139.72016},{"name":"神明児童遊園","province":"東京都","city":"品川区","address":"東京都品川区二葉1-4-25","lat":35.608023,"lon":139.72676},{"name":"豊町二丁目児童遊園","province":"東京都","city":"品川区","address":"東京都品川区豊町2-18-1","lat":35.609457,"lon":139.7256},{"name":"武蔵小山児童遊園","province":"東京都","city":"品川区","address":"東京都品川区小山3-12-6","lat":35.619805,"lon":139.7059},{"name":"中延児童遊園","province":"東京都","city":"品川区","address":"東京都品川区中延1-10-15","lat":35.612492,"lon":139.71073},{"name":"荏原児童遊園","province":"東京都","city":"品川区","address":"東京都品川区荏原1-25-18","lat":35.619724,"lon":139.712},{"name":"荏原2丁目児童遊園","province":"東京都","city":"品川区","address":"東京都品川区荏原2-16-4","lat":35.617586,"lon":139.70928},{"name":"戸越六丁目児童遊園","province":"東京都","city":"品川区","address":"東京都品川区戸越6-11-6","lat":35.607673,"lon":139.71556},{"name":"豊町5丁目児童遊園","province":"東京都","city":"品川区","address":"東京都品川区豊町5-14-3","lat":35.60459,"lon":139.72059},{"name":"荏原4丁目児童遊園","province":"東京都","city":"品川区","address":"東京都品川区荏原4-10-10","lat":35.616597,"lon":139.70538},{"name":"西中延3丁目児童遊園","province":"東京都","city":"品川区","address":"東京都品川区西中延3-5-17","lat":35.607667,"lon":139.70907},{"name":"立会川児童遊園（その4）","province":"東京都","city":"品川区","address":"東京都品川区旗の台3-9地先","lat":35.604973,"lon":139.70567},{"name":"立会川児童遊園（その2）","province":"東京都","city":"品川区","address":"東京都品川区旗の台2-1地先","lat":35.607553,"lon":139.70472},{"name":"立会川児童遊園（その3）","province":"東京都","city":"品川区","address":"東京都品川区旗の台3-10地先","lat":35.605601,"lon":139.70487},{"name":"豊町ちびっこ児童遊園","province":"東京都","city":"品川区","address":"東京都品川区豊町1-2-3","lat":35.614667,"lon":139.72405},{"name":"小山四丁目児童遊園","province":"東京都","city":"品川区","address":"東京都品川区小山4-6-2","lat":35.617249,"lon":139.70459},{"name":"小山五丁目児童遊園","province":"東京都","city":"品川区","address":"東京都品川区小山5-13-4","lat":35.616402,"lon":139.70179},{"name":"豊町児童遊園","province":"東京都","city":"品川区","address":"東京都品川区豊町4-1-12","lat":35.607126,"lon":139.71918},{"name":"中原児童遊園","province":"東京都","city":"品川区","address":"東京都品川区平塚2-6-4","lat":35.617864,"lon":139.71534},{"name":"わかば児童遊園","province":"東京都","city":"品川区","address":"東京都品川区戸越1-29-21","lat":35.615489,"lon":139.72164},{"name":"戸越ひだまり広場","province":"東京都","city":"品川区","address":"東京都品川区戸越1-4-11","lat":35.614231,"lon":139.72291},{"name":"戸越2丁目広場","province":"東京都","city":"品川区","address":"東京都品川区戸越2-1-9","lat":35.614347,"lon":139.71837},{"name":"荏原一丁目ふれあい広場","province":"東京都","city":"品川区","address":"東京都品川区荏原1-2-12","lat":35.62118,"lon":139.71281},{"name":"わくわく広場","province":"東京都","city":"品川区","address":"東京都品川区荏原1-4-13","lat":35.620113,"lon":139.71257},{"name":"宮前坂広場","province":"東京都","city":"品川区","address":"東京都品川区戸越2-6-36","lat":35.614234,"lon":139.71981},{"name":"旗の台東広場","province":"東京都","city":"品川区","address":"東京都品川区旗の台4-12-16","lat":35.601857,"lon":139.70386},{"name":"不動前緑道","province":"東京都","city":"品川区","address":"東京都品川区小山2-6-1","lat":35.621504,"lon":139.7064},{"name":"武蔵小山緑道","province":"東京都","city":"品川区","address":"東京都品川区小山5-3-1","lat":35.617491,"lon":139.70058},{"name":"西小山緑道","province":"東京都","city":"品川区","address":"東京都品川区小山6-27-1","lat":35.612541,"lon":139.69594},{"name":"ひらさん広場","province":"東京都","city":"品川区","address":"東京都品川区平塚3-9-1","lat":35.614011,"lon":139.71266},{"name":"西五反田五丁目特定児童遊園","province":"東京都","city":"品川区","address":"東京都品川区西五反田5-17-7","lat":35.623629,"lon":139.71432},{"name":"荏原三丁目特定児童遊園","province":"東京都","city":"品川区","address":"東京都品川区荏原3-4-3","lat":35.617533,"lon":139.70778},{"name":"西大井四丁目特定児童遊園","province":"東京都","city":"品川区","address":"東京都品川区西大井4-23-12","lat":35.593014,"lon":139.71947},{"name":"戸越一丁目特定児童遊園","province":"東京都","city":"品川区","address":"東京都品川区戸越1-9-6","lat":35.616772,"lon":139.71851},{"name":"戸越五丁目特定児童遊園","province":"東京都","city":"品川区","address":"東京都品川区戸越5-12-10","lat":35.609595,"lon":139.71723},{"name":"中延一丁目特定児童遊園","province":"東京都","city":"品川区","address":"東京都品川区中延1-4-16","lat":35.612728,"lon":139.71143},{"name":"中延三丁目特定児童遊園","province":"東京都","city":"品川区","address":"東京都品川区中延3-9-2","lat":35.607795,"lon":139.71066},{"name":"西品川一丁目特定児童遊園","province":"東京都","city":"品川区","address":"東京都品川区西品川1-14-13","lat":35.611809,"lon":139.72901},{"name":"南大井四丁目特定児童遊園","province":"東京都","city":"品川区","address":"東京都品川区南大井4-6-20","lat":35.596422,"lon":139.73689},{"name":"源氏前特定児童遊園","province":"東京都","city":"品川区","address":"東京都品川区中延6-4-8","lat":35.602263,"lon":139.71243},{"name":"南品川六丁目特定児童遊園","province":"東京都","city":"品川区","address":"東京都品川区南品川6-14-1","lat":35.610501,"lon":139.73782},{"name":"大井二丁目特定児童遊園","province":"東京都","city":"品川区","address":"東京都品川区大井2-5-15","lat":35.60425,"lon":139.72739},{"name":"西大井六丁目特定児童遊園","province":"東京都","city":"品川区","address":"東京都品川区西大井6-5-5","lat":35.601089,"lon":139.71866},{"name":"旗の台一丁目特定児童遊園","province":"東京都","city":"品川区","address":"東京都品川区旗の台1-8-5","lat":35.610364,"lon":139.70214},{"name":"西大井三丁目特定児童遊園","province":"東京都","city":"品川区","address":"東京都品川区西大井3-4-14","lat":35.597035,"lon":139.72389},{"name":"豊町一丁目特定児童遊園","province":"東京都","city":"品川区","address":"東京都品川区豊町1-13-5","lat":35.612523,"lon":139.72388},{"name":"荏原一丁目特定児童遊園","province":"東京都","city":"品川区","address":"東京都品川区荏原1-25-20","lat":35.619913,"lon":139.7118},{"name":"荏原六丁目特定児童遊園","province":"東京都","city":"品川区","address":"東京都品川区荏原6-7-2","lat":35.613004,"lon":139.70538},{"name":"豊四防災広場","province":"東京都","city":"品川区","address":"東京都品川区豊町4-7-11","lat":35.607268,"lon":139.72228},{"name":"豊四中央防災広場","province":"東京都","city":"品川区","address":"東京都品川区豊町4-17-1","lat":35.606593,"lon":139.72102},{"name":"本三くじら広場","province":"東京都","city":"品川区","address":"東京都品川区西五反田4-4-7","lat":35.627454,"lon":139.71284},{"name":"小山台一丁目防災広場","province":"東京都","city":"品川区","address":"東京都品川区小山台1-7-3","lat":35.624326,"lon":139.70607},{"name":"上蛇広場","province":"東京都","city":"品川区","address":"東京都品川区二葉4-3-10","lat":35.602632,"lon":139.71464},{"name":"東中みんなの広場","province":"東京都","city":"品川区","address":"東京都品川区東中延1-2-8","lat":35.611739,"lon":139.71366},{"name":"中二さくらひろば","province":"東京都","city":"品川区","address":"東京都品川区中延2-9-18","lat":35.610253,"lon":139.71066},{"name":"ゆたか防災広場","province":"東京都","city":"品川区","address":"東京都品川区豊町6-11-1","lat":35.60536,"lon":139.71789},{"name":"中三いこいの広場","province":"東京都","city":"品川区","address":"東京都品川区中延3-7-20","lat":35.60837,"lon":139.71122},{"name":"カメさん広場","province":"東京都","city":"品川区","address":"東京都品川区戸越2-6-20","lat":35.613011,"lon":139.72046},{"name":"ひのみ広場","province":"東京都","city":"品川区","address":"東京都品川区戸越5-20-15","lat":35.608368,"lon":139.71876},{"name":"かやの木の広場","province":"東京都","city":"品川区","address":"東京都品川区豊町1-17-2","lat":35.61147,"lon":139.72203},{"name":"中延みちしるべ防災広場","province":"東京都","city":"品川区","address":"東京都品川区中延5-12-11","lat":35.601185,"lon":139.70834},{"name":"二葉中央のんき通り広場","province":"東京都","city":"品川区","address":"東京都品川区二葉3-17-14","lat":35.60404,"lon":139.72171},{"name":"ほうさん広場","province":"東京都","city":"品川区","address":"東京都品川区豊町3-4-2","lat":35.608232,"lon":139.72059},{"name":"宮前花広場","province":"東京都","city":"品川区","address":"東京都品川区戸越4-9-19","lat":35.611056,"lon":139.71902},{"name":"西大井六丁目ふれあい広場","province":"東京都","city":"品川区","address":"東京都品川区西大井6-3-1","lat":35.601032,"lon":139.71626},{"name":"東品川水辺広場","province":"東京都","city":"品川区","address":"東京都品川区東品川3-9-21地先","lat":35.61729,"lon":139.74973},{"name":"天王洲アイル第一水辺広場","province":"東京都","city":"品川区","address":"東京都品川区東品川2-3-21地先","lat":35.623053,"lon":139.7515},{"name":"天王洲アイル第二水辺広場","province":"東京都","city":"品川区","address":"東京都品川区東品川2-2-24地先","lat":35.622689,"lon":139.74878},{"name":"天王洲アイル第四水辺広場","province":"東京都","city":"品川区","address":"東京都品川区東品川2-4-3地先","lat":35.619276,"lon":139.75106},{"name":"しながわ花海道水辺広場","province":"東京都","city":"品川区","address":"東京都品川区東大井1-13先外","lat":35.604266,"lon":139.74421},{"name":"品川シーサイド水辺広場","province":"東京都","city":"品川区","address":"東京都品川区東品川4-13先","lat":35.610135,"lon":139.74996},{"name":"五反田ふれあい水辺広場","province":"東京都","city":"品川区","address":"東京都品川区東五反田2-9-11","lat":35.624344,"lon":139.7261},{"name":"天王洲運河水辺広場","province":"東京都","city":"品川区","address":"東京都品川区東品川1-3","lat":35.621714,"lon":139.74602},{"name":"勝島かもめ水辺広場","province":"東京都","city":"品川区","address":"東京都品川区勝島1-4先","lat":35.599986,"lon":139.74601},{"name":"街道松の広場","province":"東京都","city":"品川区","address":"東京都品川区南品川1-8-5","lat":35.61564,"lon":139.74413},{"name":"しながわ中央公園暫定開放広場","province":"東京都","city":"品川区","address":"東京都品川区西品川1-28","lat":35.609473,"lon":139.72648},{"name":"林試の森公園","province":"東京都","city":"品川区","address":"東京都品川区小山台2丁目地内","lat":35.624687,"lon":139.6986},{"name":"コンテナふ頭公園","province":"東京都","city":"品川区","address":"東京都品川区八潮2-9-14","lat":35.604522,"lon":139.76082},{"name":"京浜運河緑道公園","province":"東京都","city":"品川区","address":"東京都品川区八潮1、5","lat":35.617434,"lon":139.7553},{"name":"東八潮緑道公園","province":"東京都","city":"品川区","address":"東京都品川区東八潮","lat":35.620345,"lon":139.77237},{"name":"みなとが丘ふ頭公園","province":"東京都","city":"品川区","address":"東京都品川区八潮3-1-11","lat":35.599137,"lon":139.76206},{"name":"大井ふ頭緑道公園","province":"東京都","city":"品川区","address":"東京都品川区八潮5","lat":35.599009,"lon":139.75012},{"name":"大井ふ頭中央海浜公園","province":"東京都","city":"品川区","address":"東京都品川区八潮4-1-19","lat":35.592626,"lon":139.75227},{"name":"(公財)品川区国際友好協会","province":"東京都","city":"品川区","address":"東京都品川区広町2-1-36品川区総合庁舎第3庁舎","lat":35.608837,"lon":139.73024},{"name":"(財)品川区スポーツ協会","province":"東京都","city":"品川区","address":"東京都品川区東五反田2-11-2総合体育館内","lat":35.62418,"lon":139.72826},{"name":"八潮北保管所","province":"東京都","city":"品川区","address":"東京都品川区八潮1-3-1","lat":35.612485,"lon":139.75376},{"name":"品川警察署","province":"東京都","city":"品川区","address":"東京都品川区東品川3-14-32","lat":35.61387,"lon":139.7452},{"name":"大崎警察署","province":"東京都","city":"品川区","address":"東京都品川区大崎4-2-10","lat":35.62177,"lon":139.72413},{"name":"大井警察署","province":"東京都","city":"品川区","address":"東京都品川区大井5-10-2","lat":35.598827,"lon":139.72979},{"name":"荏原警察署","province":"東京都","city":"品川区","address":"東京都品川区荏原6-19-10","lat":35.612053,"lon":139.70619},{"name":"品川消防署","province":"東京都","city":"品川区","address":"東京都品川区北品川3-7-31","lat":35.617156,"lon":139.73973},{"name":"品川消防署東品川出張所","province":"東京都","city":"品川区","address":"東京都品川区東品川3-32-12","lat":35.613321,"lon":139.75038},{"name":"品川消防署大崎出張所","province":"東京都","city":"品川区","address":"東京都品川区西品川1-7-9","lat":35.61359,"lon":139.73162},{"name":"品川消防署五反田出張所","province":"東京都","city":"品川区","address":"東京都品川区西五反田7-25-14","lat":35.620005,"lon":139.71848},{"name":"大井消防署","province":"東京都","city":"品川区","address":"東京都品川区東大井3-6-12","lat":35.60351,"lon":139.74006},{"name":"大井消防署滝王子出張所","province":"東京都","city":"品川区","address":"東京都品川区大井5-17-9","lat":35.598294,"lon":139.72816},{"name":"大井消防署八潮出張所","province":"東京都","city":"品川区","address":"東京都品川区八潮5-8-3","lat":35.597075,"lon":139.75154},{"name":"荏原消防署","province":"東京都","city":"品川区","address":"東京都品川区平塚3-16-20","lat":35.614586,"lon":139.71053},{"name":"荏原消防署戸越出張所","province":"東京都","city":"品川区","address":"東京都品川区戸越5-20-15","lat":35.608368,"lon":139.71876},{"name":"荏原消防署小山出張所","province":"東京都","city":"品川区","address":"東京都品川区小山5-12-11","lat":35.616052,"lon":139.70226},{"name":"荏原消防署旗の台出張所","province":"東京都","city":"品川区","address":"東京都品川区旗の台6-24-11","lat":35.605834,"lon":139.7},{"name":"品川税務署","province":"東京都","city":"品川区","address":"東京都品川区港区高輪3-13-22","lat":35.629544,"lon":139.73475},{"name":"荏原税務署","province":"東京都","city":"品川区","address":"東京都品川区中延1-1-5","lat":35.613831,"lon":139.70975},{"name":"品川都税事務所","province":"東京都","city":"品川区","address":"東京都品川区広町2-1-36品川区総合庁舎","lat":35.608837,"lon":139.73024},{"name":"品川自動車税事務所","province":"東京都","city":"品川区","address":"東京都品川区東大井1-12-18","lat":35.605038,"lon":139.74661},{"name":"関東運輸局東京陸運支局","province":"東京都","city":"品川区","address":"東京都品川区東大井1-12-17","lat":35.604733,"lon":139.74705},{"name":"品川郵便局","province":"東京都","city":"品川区","address":"東京都品川区東大井5-23-34","lat":35.605077,"lon":139.73627},{"name":"大崎郵便局","province":"東京都","city":"品川区","address":"東京都品川区西五反田2-32-7","lat":35.625038,"lon":139.71901},{"name":"荏原郵便局","province":"東京都","city":"品川区","address":"東京都品川区西中延1-7-23","lat":35.612669,"lon":139.70732},{"name":"水道局品川営業所","province":"東京都","city":"品川区","address":"東京都品川区西中延1-9-10","lat":35.611581,"lon":139.70783},{"name":"下水道局南部管理事務所品川出張所","province":"東京都","city":"品川区","address":"東京都品川区西品川1-8-1","lat":35.612998,"lon":139.73011},{"name":"品川年金事務所","province":"東京都","city":"品川区","address":"東京都品川区大崎5-1-5高徳ビル2階","lat":35.623666,"lon":139.72489},{"name":"都立城南職業能力開発センター","province":"東京都","city":"品川区","address":"東京都品川区東品川3-31-16","lat":35.612501,"lon":139.74965},{"name":"品川労働基準監督署","province":"東京都","city":"品川区","address":"東京都品川区上大崎3-13-26","lat":35.62959,"lon":139.71909},{"name":"五反田公証役場","province":"東京都","city":"品川区","address":"東京都品川区東五反田5-27-6","lat":35.62706,"lon":139.72337},{"name":"目黒公証役場","province":"東京都","city":"品川区","address":"東京都品川区上大崎2-17-5","lat":35.635534,"lon":139.71503},{"name":"大森公証役場","province":"東京都","city":"品川区","address":"東京都品川区大田区大森北1-17-2大森センタービル2階","lat":35.587087,"lon":139.73045},{"name":"東京電力品川支社","province":"東京都","city":"品川区","address":"東京都品川区西五反田5-3-1","lat":35.625643,"lon":139.71672},{"name":"品川火力発電所","province":"東京都","city":"品川区","address":"東京都品川区東品川5-6-22","lat":35.62139,"lon":139.75487},{"name":"大井火力発電所","province":"東京都","city":"品川区","address":"東京都品川区八潮1-2-2","lat":35.615023,"lon":139.75608},{"name":"大井町サービスコーナー","province":"東京都","city":"品川区","address":"東京都品川区JR京浜東北線大井町駅ビル「アトレ」中央西口階段下","lat":35.606182,"lon":139.73489},{"name":"武蔵小山サービスコーナー","province":"東京都","city":"品川区","address":"東京都品川区小山3-27-5武蔵小山創業支援センター4階","lat":35.619766,"lon":139.70334},{"name":"品川区立中小企業センター","province":"東京都","city":"品川区","address":"東京都品川区西品川1-28-3","lat":35.609295,"lon":139.72769},{"name":"品川産業支援交流施設SHIP","province":"東京都","city":"品川区","address":"東京都品川区北品川5-5-15大崎ブライトコア3・4階","lat":35.622547,"lon":139.7307},{"name":"武蔵小山創業支援センター","province":"東京都","city":"品川区","address":"東京都品川区小山3-27-5","lat":35.619766,"lon":139.70334},{"name":"西大井創業支援センター","province":"東京都","city":"品川区","address":"東京都品川区西大井1-1-2","lat":35.601166,"lon":139.72211},{"name":"天王洲創業支援センター","province":"東京都","city":"品川区","address":"東京都品川区東品川2-2-5","lat":35.622392,"lon":139.74933},{"name":"広町一丁目工場アパート・創業支援センター","province":"東京都","city":"品川区","address":"東京都品川区広町1-5-28","lat":35.614345,"lon":139.73567},{"name":"品川区清掃事務所","province":"東京都","city":"品川区","address":"東京都品川区大崎1-14-1","lat":35.618255,"lon":139.73335},{"name":"品川区清掃事務所　荏原庁舎","province":"東京都","city":"品川区","address":"東京都品川区平塚1-10-11","lat":35.614002,"lon":139.71429},{"name":"品川清掃工場","province":"東京都","city":"品川区","address":"東京都品川区八潮1-4-1","lat":35.607941,"lon":139.75322},{"name":"なぎさ会館","province":"東京都","city":"品川区","address":"東京都品川区勝島3-1-3","lat":35.596317,"lon":139.74173},{"name":"品川区消費者センター","province":"東京都","city":"品川区","address":"東京都品川区大井1-14-1大井1丁目共同ビル4階","lat":35.607696,"lon":139.73146},{"name":"男女共同参画センター","province":"東京都","city":"品川区","address":"東京都品川区東大井5-18-1品川区立総合区民会館3階","lat":35.606177,"lon":139.73584},{"name":"品川区就業センター","province":"東京都","city":"品川区","address":"東京都品川区西品川1-28-3","lat":35.609295,"lon":139.72769},{"name":"東八潮緑道公園","province":"東京都","city":"品川区","address":"東京都品川区東八潮","lat":35.619315,"lon":139.771579},{"name":"大井ふ頭中央海浜公園","province":"東京都","city":"品川区","address":"東京都品川区八潮四丁目1番19号","lat":35.594776,"lon":139.753229},{"name":"コンテナふ頭公園","province":"東京都","city":"品川区","address":"東京都品川区八潮二丁目","lat":35.596416,"lon":139.762908},{"name":"みなとが丘ふ頭公園","province":"東京都","city":"品川区","address":"東京都品川区八潮三丁目","lat":35.596471,"lon":139.762922},{"name":"京浜運河緑道公園","province":"東京都","city":"品川区","address":"東京都品川区八潮一丁目・五丁目","lat":35.596784,"lon":139.748901},{"name":"大井ふ頭緑道公園","province":"東京都","city":"品川区","address":"東京都品川区八潮四丁目・五丁目","lat":35.59655,"lon":139.754552},{"name":"潮風公園","province":"東京都","city":"品川区","address":"東京都品川区東八潮1・2番","lat":35.62398,"lon":139.768796}]}