{"keyword":"初動","data":[{"name":"第六機動隊","province":"東京都","city":"品川区","address":"品川区勝島1-3-18","lat":35.5987,"lon":139.7446},{"name":"第二方面本部","province":"東京都","city":"品川区","address":"品川区勝島1-3-12","lat":35.59853,"lon":139.7449},{"name":"荏原警察署","province":"東京都","city":"品川区","address":"品川区荏原6-19-10","lat":35.61205,"lon":139.7062},{"name":"大井警察署","province":"東京都","city":"品川区","address":"品川区大井5-10-2","lat":35.59883,"lon":139.7298},{"name":"大崎警察署","province":"東京都","city":"品川区","address":"品川区大崎4-2-10","lat":35.62179,"lon":139.7241},{"name":"荏原消防署","province":"東京都","city":"品川区","address":"品川区平塚3-16-20","lat":35.61459,"lon":139.7105},{"name":"大井消防署","province":"東京都","city":"品川区","address":"品川区東大井3-6-12","lat":35.60361,"lon":139.7401},{"name":"品川消防署","province":"東京都","city":"品川区","address":"品川区北品川3-7-31","lat":35.61715,"lon":139.7398},{"name":"品川区","province":"東京都","city":"品川区","address":"品川区東中延2-4-2","lat":35.60927,"lon":139.7141},{"name":"東邦薬品（株）ＴＢＣ東京","province":"東京都","city":"品川区","address":"品川区八潮3-2-29エフプラザ東京E棟","lat":35.59926,"lon":139.7599}]}