{"keyword":"区","data":[{"name":"品川区保健所","province":"東京都","city":"品川区","address":"品川区広町2-1-36","lat":35.608836,"lon":139.730241},{"name":"品川保健センター","province":"東京都","city":"品川区","address":"品川区北品川3-11-22","lat":35.616586,"lon":139.740732},{"name":"大井保健センター","province":"東京都","city":"品川区","address":"品川区大井2-27-20","lat":35.604084,"lon":139.730375},{"name":"荏原保健センター","province":"東京都","city":"品川区","address":"品川区荏原2-9-6","lat":35.617185,"lon":139.711504},{"name":"品川区保健所","province":"東京都","city":"品川区","address":"東京都品川区広町2丁目1-36","lat":35.60881128,"lon":139.73028866},{"name":"品川保健センター","province":"東京都","city":"品川区","address":"東京都品川区北品川3丁目11-22","lat":35.61658571,"lon":139.74073199},{"name":"大井保健センター","province":"東京都","city":"品川区","address":"東京都品川区大井2丁目27-20","lat":35.60406184,"lon":139.73038047},{"name":"荏原保健センター","province":"東京都","city":"品川区","address":"東京都品川区西五反田6丁目6-6","lat":35.62309266,"lon":139.71741427},{"name":"品川区保健所","province":"東京都","city":"品川区","address":"品川区広町2-1-36","lat":35.6083,"lon":139.73096},{"name":"品川保健センター","province":"東京都","city":"品川区","address":"品川区北品川3-11-22","lat":35.61644,"lon":139.73927},{"name":"大井保健センター","province":"東京都","city":"品川区","address":"品川区大井2-27-20","lat":35.60418,"lon":139.73032},{"name":"荏原保健センター","province":"東京都","city":"品川区","address":"品川区西五反田6-6-6","lat":35.62268,"lon":139.71748},{"name":"荏原保健センター","province":"東京都","city":"品川区","address":"品川区荏原2-9-6","lat":35.61701,"lon":139.71111}]}