{"keyword":"医薬","data":[{"name":"品川区","province":"東京都","city":"品川区","address":"品川区広町2-1-36","lat":35.6088372,"lon":139.7302417},{"name":"大井ふ頭中央海浜公園ホッケー競技場","province":"東京都","city":"品川区","address":"東京都品川区八潮4丁目1","lat":35.593097,"lon":139.752977},{"name":"大井ふ頭中央海浜公園ホッケー競技場","province":"東京都","city":"品川区","address":"東京都品川区八潮4丁目1-19","lat":35.592905,"lon":139.753081},{"name":"大井ふ頭中央海浜公園ホッケー競技場","province":"東京都","city":"品川区","address":"東京都品川区八潮4丁目1-19","lat":35.592375,"lon":139.753054},{"name":"大井ふ頭中央海浜公園ホッケー競技場","province":"東京都","city":"品川区","address":"東京都品川区八潮4丁目1-19","lat":35.592936,"lon":139.752967},{"name":"大井ふ頭中央海浜公園ホッケー競技場","province":"東京都","city":"品川区","address":"東京都品川区八潮4丁目1-19","lat":35.592753,"lon":139.752992},{"name":"大井ふ頭中央海浜公園ホッケー競技場","province":"東京都","city":"品川区","address":"東京都品川区八潮4丁目1-19","lat":35.59232,"lon":139.752941},{"name":"大井ふ頭中央海浜公園ホッケー競技場","province":"東京都","city":"品川区","address":"東京都品川区八潮4丁目1-19","lat":35.592858,"lon":139.752971},{"name":"大井ふ頭中央海浜公園ホッケー競技場","province":"東京都","city":"品川区","address":"東京都品川区八潮4丁目1-19","lat":35.592517,"lon":139.752992},{"name":"大井ふ頭中央海浜公園ホッケー競技場","province":"東京都","city":"品川区","address":"東京都品川区八潮4丁目1-19","lat":35.592405,"lon":139.752932},{"name":"城南職業能力開発センター","province":"東京都","city":"品川区","address":"東京都品川区東品川3丁目31-16","lat":35.612024,"lon":139.749757},{"name":"城南職業能力開発センター","province":"東京都","city":"品川区","address":"東京都品川区東品川3丁目31-16","lat":35.611975,"lon":139.749888},{"name":"東京都南部労政会館","province":"東京都","city":"品川区","address":"東京都品川区大崎1丁目11-1","lat":35.619552,"lon":139.730812},{"name":"林試の森公園","province":"東京都","city":"品川区","address":"東京都品川区小山台2丁目6","lat":35.624441,"lon":139.701575},{"name":"林試の森公園","province":"東京都","city":"品川区","address":"東京都品川区小山台2丁目6","lat":35.625275,"lon":139.701365},{"name":"林試の森公園","province":"東京都","city":"品川区","address":"東京都品川区小山台2丁目7","lat":35.624621,"lon":139.702704},{"name":"潮風公園","province":"東京都","city":"品川区","address":"東京都品川区東八潮1-2","lat":35.62379,"lon":139.769918},{"name":"潮風公園","province":"東京都","city":"品川区","address":"東京都品川区東八潮2","lat":35.620596,"lon":139.769884},{"name":"潮風公園","province":"東京都","city":"品川区","address":"東京都品川区東八潮1","lat":35.623319,"lon":139.768649},{"name":"潮風公園","province":"東京都","city":"品川区","address":"東京都品川区東八潮1","lat":35.623259,"lon":139.76865},{"name":"大井中央海浜公園","province":"東京都","city":"品川区","address":"東京都品川区八潮4丁目1-19","lat":35.592579,"lon":139.752229},{"name":"大井中央海浜公園","province":"東京都","city":"品川区","address":"東京都品川区八潮4丁目2","lat":35.593922,"lon":139.750581},{"name":"大井中央海浜公園","province":"東京都","city":"品川区","address":"東京都品川区八潮4丁目1","lat":35.59061,"lon":139.752343},{"name":"大井中央海浜公園","province":"東京都","city":"品川区","address":"東京都品川区八潮4丁目1","lat":35.594199,"lon":139.753134},{"name":"大井中央海浜公園","province":"東京都","city":"品川区","address":"東京都品川区八潮4丁目1","lat":35.594286,"lon":139.753141},{"name":"大井中央海浜公園","province":"東京都","city":"品川区","address":"東京都品川区八潮4丁目1-19","lat":35.592469,"lon":139.752221},{"name":"みなとが丘ふ頭公園","province":"東京都","city":"品川区","address":"東京都品川区八潮3丁目1","lat":35.595574,"lon":139.76418},{"name":"京浜運河緑道公園","province":"東京都","city":"品川区","address":"東京都品川区八潮5丁目3","lat":35.595892,"lon":139.748995},{"name":"京浜運河緑道公園","province":"東京都","city":"品川区","address":"東京都品川区八潮1丁目4","lat":35.605772,"lon":139.752283},{"name":"大井ふ頭緑道公園","province":"東京都","city":"品川区","address":"東京都品川区八潮5丁目","lat":35.595876,"lon":139.754506},{"name":"都営浅草線中延駅","province":"東京都","city":"品川区","address":"東京都品川区豊町6丁目24","lat":35.604859,"lon":139.713557},{"name":"都営浅草線戸越駅","province":"東京都","city":"品川区","address":"東京都品川区戸越3丁目1","lat":35.614727,"lon":139.716501},{"name":"都営浅草線五反田駅","province":"東京都","city":"品川区","address":"東京都品川区東五反田5丁目25","lat":35.627258,"lon":139.724392},{"name":"東京都水道局品川営業所","province":"東京都","city":"品川区","address":"東京都品川区西中延1丁目9-10","lat":35.611613,"lon":139.70788},{"name":"品川消防署東品川出張所","province":"東京都","city":"品川区","address":"東京都品川区東品川3丁目25-11","lat":35.612932,"lon":139.747264},{"name":"八潮児童センター","province":"東京都","city":"品川区","address":"東京都品川区八潮5丁目10-27","lat":35.59988,"lon":139.751483},{"name":"中小企業センター","province":"東京都","city":"品川区","address":"東京都品川区西品川1丁目28-3","lat":35.60932,"lon":139.727666},{"name":"品川第一地域センタービル","province":"東京都","city":"品川区","address":"東京都品川区北品川3丁目11-16","lat":35.61661,"lon":139.74},{"name":"品川第二地域センター","province":"東京都","city":"品川区","address":"東京都品川区南品川5丁目3-20","lat":35.61132,"lon":139.741236},{"name":"大崎第一地域センター","province":"東京都","city":"品川区","address":"東京都品川区西五反田3丁目6-3","lat":35.628,"lon":139.716543},{"name":"大崎第二地域センター","province":"東京都","city":"品川区","address":"東京都品川区大崎2丁目9-4","lat":35.61694,"lon":139.727615},{"name":"大井第二地域センター","province":"東京都","city":"品川区","address":"東京都品川区大井2丁目27-20","lat":35.60404,"lon":139.730383},{"name":"大井第三地域交流センター","province":"東京都","city":"品川区","address":"東京都品川区西大井2丁目10","lat":35.598668,"lon":139.72212},{"name":"荏原第一地域センター","province":"東京都","city":"品川区","address":"東京都品川区小山3丁目14-1","lat":35.62113,"lon":139.70607},{"name":"荏原第二地域センター","province":"東京都","city":"品川区","address":"東京都品川区荏原6丁目17-12","lat":35.611024,"lon":139.704397},{"name":"荏原第三地域センター","province":"東京都","city":"品川区","address":"東京都品川区平塚1丁目13-18","lat":35.61339,"lon":139.715366},{"name":"荏原第四地域センター","province":"東京都","city":"品川区","address":"東京都品川区中延5丁目3-12","lat":35.60383,"lon":139.708356},{"name":"荏原第五地域センター","province":"東京都","city":"品川区","address":"東京都品川区二葉1丁目1-2","lat":35.60811,"lon":139.725765},{"name":"八潮地域センター","province":"東京都","city":"品川区","address":"東京都品川区八潮5丁目10-27","lat":35.600206,"lon":139.751392},{"name":"八潮地域センター","province":"東京都","city":"品川区","address":"東京都品川区八潮5丁目10-27","lat":35.600211,"lon":139.751371},{"name":"品川区役所議会棟","province":"東京都","city":"品川区","address":"東京都品川区広町2丁目1-36","lat":35.609184,"lon":139.730207},{"name":"品川区役所本庁舎","province":"東京都","city":"品川区","address":"東京都品川区広町2丁目1-36","lat":35.609205,"lon":139.730225},{"name":"品川区役所第二庁舎","province":"東京都","city":"品川区","address":"東京都品川区広町2丁目1-36","lat":35.609734,"lon":139.73032},{"name":"品川区役所第二庁舎","province":"東京都","city":"品川区","address":"東京都品川区広町2丁目1-36","lat":35.609715,"lon":139.730333},{"name":"品川区役所第二庁舎","province":"東京都","city":"品川区","address":"東京都品川区広町2丁目1-36","lat":35.60971,"lon":139.730259},{"name":"品川区役所第三庁舎","province":"東京都","city":"品川区","address":"東京都品川区広町2丁目1-36","lat":35.608371,"lon":139.729994},{"name":"大崎第一区民集会所(第五・六集会室)","province":"東京都","city":"品川区","address":"東京都品川区西五反田3丁目6-38","lat":35.62721,"lon":139.718108},{"name":"荏原区民センター","province":"東京都","city":"品川区","address":"東京都品川区荏原5丁目6-5","lat":35.614522,"lon":139.702143},{"name":"東大井区民集会所","province":"東京都","city":"品川区","address":"東京都品川区東大井2丁目16-12","lat":35.60051,"lon":139.741529},{"name":"東大井区民集会所","province":"東京都","city":"品川区","address":"東京都品川区東大井2丁目16-12","lat":35.6005,"lon":139.741539},{"name":"ウェルカムセンター原・交流施設","province":"東京都","city":"品川区","address":"東京都品川区西大井2丁目5-21","lat":35.5991,"lon":139.721384},{"name":"荏原文化センター","province":"東京都","city":"品川区","address":"東京都品川区中延1丁目9-15","lat":35.612232,"lon":139.710724},{"name":"品川区立荏原平塚総合区民会館","province":"東京都","city":"品川区","address":"東京都品川区荏原4丁目5-28","lat":35.615449,"lon":139.707523},{"name":"品川区立荏原平塚総合区民会館","province":"東京都","city":"品川区","address":"東京都品川区荏原4丁目5-28","lat":35.615386,"lon":139.707971},{"name":"品川区立荏原平塚総合区民会館","province":"東京都","city":"品川区","address":"東京都品川区荏原4丁目5-28","lat":35.615661,"lon":139.707422},{"name":"品川区立荏原平塚総合区民会館","province":"東京都","city":"品川区","address":"東京都品川区荏原4丁目5-28","lat":35.615259,"lon":139.707412},{"name":"品川区立荏原平塚総合区民会館","province":"東京都","city":"品川区","address":"東京都品川区荏原4丁目5-28","lat":35.615584,"lon":139.707278},{"name":"品川区立荏原平塚総合区民会館","province":"東京都","city":"品川区","address":"東京都品川区荏原4丁目5-28","lat":35.615155,"lon":139.707548},{"name":"品川区立荏原平塚総合区民会館","province":"東京都","city":"品川区","address":"東京都品川区荏原4丁目5-28","lat":35.615155,"lon":139.707547},{"name":"南大井文化センター","province":"東京都","city":"品川区","address":"東京都品川区南大井1丁目12-6","lat":35.596304,"lon":139.737548},{"name":"五反田文化センター","province":"東京都","city":"品川区","address":"東京都品川区西五反田6丁目5-1","lat":35.622476,"lon":139.71653},{"name":"五反田文化センター","province":"東京都","city":"品川区","address":"東京都品川区西五反田6丁目5-1","lat":35.622537,"lon":139.716441},{"name":"きゅりあん品川区立総合区民会館","province":"東京都","city":"品川区","address":"東京都品川区東大井5丁目18-1","lat":35.606043,"lon":139.736202},{"name":"こみゅにてぃぷらざ八潮","province":"東京都","city":"品川区","address":"東京都品川区八潮5丁目9-11","lat":35.597726,"lon":139.752531},{"name":"東品川文化センター","province":"東京都","city":"品川区","address":"東京都品川区東品川3丁目32-11","lat":35.61291,"lon":139.750609},{"name":"品川保健センター","province":"東京都","city":"品川区","address":"東京都品川区北品川3丁目11-22","lat":35.61655,"lon":139.74067},{"name":"大井保健センター","province":"東京都","city":"品川区","address":"東京都品川区大井2丁目27-20","lat":35.60406,"lon":139.730367},{"name":"品川区立品川図書館","province":"東京都","city":"品川区","address":"東京都品川区北品川2丁目32-3","lat":35.616842,"lon":139.742501},{"name":"品川区立品川図書館","province":"東京都","city":"品川区","address":"東京都品川区北品川2丁目32-3","lat":35.616923,"lon":139.742567},{"name":"品川区立荏原図書館","province":"東京都","city":"品川区","address":"東京都品川区中延1丁目9-15","lat":35.61224,"lon":139.710379},{"name":"品川区立ゆたか図書館","province":"東京都","city":"品川区","address":"東京都品川区豊町1丁目17-7","lat":35.6116,"lon":139.722359},{"name":"品川区立大井図書館","province":"東京都","city":"品川区","address":"東京都品川区大井5丁目19-14","lat":35.59826,"lon":139.729171},{"name":"品川区立八潮図書館","province":"東京都","city":"品川区","address":"東京都品川区八潮5丁目10-27","lat":35.59987,"lon":139.751456},{"name":"品川区立五反田図書館","province":"東京都","city":"品川区","address":"東京都品川区西五反田6丁目5-1","lat":35.62267,"lon":139.716473},{"name":"品川区立大崎図書館","province":"東京都","city":"品川区","address":"東京都品川区北品川5丁目2-1","lat":35.62342,"lon":139.731753},{"name":"品川区立二葉図書館","province":"東京都","city":"品川区","address":"東京都品川区二葉1丁目4-25","lat":35.608,"lon":139.726688},{"name":"品川区立大崎図書館分館","province":"東京都","city":"品川区","address":"東京都品川区大崎3丁目11","lat":35.618742,"lon":139.72379},{"name":"荏原中央公園","province":"東京都","city":"品川区","address":"東京都品川区荏原5丁目1","lat":35.615956,"lon":139.704132},{"name":"豊町公園","province":"東京都","city":"品川区","address":"東京都品川区豊町6丁目16","lat":35.604627,"lon":139.716338},{"name":"洲崎公園","province":"東京都","city":"品川区","address":"東京都品川区東品川1丁目36","lat":35.618023,"lon":139.746511},{"name":"八潮公園","province":"東京都","city":"品川区","address":"東京都品川区八潮5丁目10-55","lat":35.599563,"lon":139.753395},{"name":"二葉公園","province":"東京都","city":"品川区","address":"東京都品川区二葉4丁目13","lat":35.603761,"lon":139.718218},{"name":"西品川公園","province":"東京都","city":"品川区","address":"東京都品川区西品川1丁目8","lat":35.6126,"lon":139.730977},{"name":"鈴ヶ森公園","province":"東京都","city":"品川区","address":"東京都品川区南大井4丁目19-3","lat":35.593263,"lon":139.734644},{"name":"大井水神公園","province":"東京都","city":"品川区","address":"東京都品川区南大井5丁目16","lat":35.59549,"lon":139.732655},{"name":"西大井広場公園","province":"東京都","city":"品川区","address":"東京都品川区西大井1丁目4","lat":35.601975,"lon":139.723817},{"name":"西大井広場公園","province":"東京都","city":"品川区","address":"東京都品川区西大井1丁目4","lat":35.602564,"lon":139.723847},{"name":"浜川公園","province":"東京都","city":"品川区","address":"東京都品川区南大井4丁目8","lat":35.596899,"lon":139.735359},{"name":"しながわ区民公園","province":"東京都","city":"品川区","address":"東京都品川区南大井2丁目3","lat":35.593498,"lon":139.737902},{"name":"しながわ区民公園","province":"東京都","city":"品川区","address":"東京都品川区勝島3丁目2","lat":35.593972,"lon":139.739885},{"name":"しながわ区民公園","province":"東京都","city":"品川区","address":"東京都品川区勝島3丁目2","lat":35.592883,"lon":139.7391},{"name":"しながわ区民公園","province":"東京都","city":"品川区","address":"東京都品川区勝島3丁目2","lat":35.590379,"lon":139.737169},{"name":"しながわ区民公園","province":"東京都","city":"品川区","address":"東京都品川区勝島3丁目2","lat":35.588704,"lon":139.738544},{"name":"わかくさ公園","province":"東京都","city":"品川区","address":"東京都品川区勝島1丁目6","lat":35.597996,"lon":139.743768},{"name":"天王洲公園","province":"東京都","city":"品川区","address":"東京都品川区東品川2丁目6-23","lat":35.619425,"lon":139.750207},{"name":"天王洲公園","province":"東京都","city":"品川区","address":"東京都品川区東品川2丁目5","lat":35.620478,"lon":139.749307},{"name":"しおじ公園","province":"東京都","city":"品川区","address":"東京都品川区八潮5丁目6-39","lat":35.596674,"lon":139.750731},{"name":"谷山公園","province":"東京都","city":"品川区","address":"東京都品川区西五反田3丁目6","lat":35.627766,"lon":139.718554},{"name":"大崎西口公園","province":"東京都","city":"品川区","address":"東京都品川区大崎2丁目10","lat":35.617594,"lon":139.728966},{"name":"鮫洲入江広場","province":"東京都","city":"品川区","address":"東京都品川区東大井1丁目13","lat":35.603246,"lon":139.743743},{"name":"品川シーサイド公園","province":"東京都","city":"品川区","address":"東京都品川区東品川4丁目12","lat":35.607567,"lon":139.749138},{"name":"東品川海上公園","province":"東京都","city":"品川区","address":"東京都品川区東品川3丁目9","lat":35.617143,"lon":139.749388},{"name":"天王洲アイル第一公園","province":"東京都","city":"品川区","address":"東京都品川区東品川2丁目3-16","lat":35.623494,"lon":139.751298},{"name":"しながわ中央公園","province":"東京都","city":"品川区","address":"東京都品川区西品川1丁目27","lat":35.609408,"lon":139.728837},{"name":"しながわ中央公園","province":"東京都","city":"品川区","address":"東京都品川区西品川1丁目28","lat":35.608965,"lon":139.72738},{"name":"八潮北公園","province":"東京都","city":"品川区","address":"東京都品川区八潮1丁目3-1","lat":35.612505,"lon":139.753769},{"name":"大森貝塚遺跡庭園","province":"東京都","city":"品川区","address":"東京都品川区大井6丁目21","lat":35.593354,"lon":139.729948},{"name":"品川浦公園","province":"東京都","city":"品川区","address":"東京都品川区東品川1丁目7","lat":35.621148,"lon":139.74212},{"name":"かむろ坂公園","province":"東京都","city":"品川区","address":"東京都品川区西五反田4丁目28","lat":35.625203,"lon":139.711604},{"name":"品海公園","province":"東京都","city":"品川区","address":"東京都品川区北品川1丁目30","lat":35.620037,"lon":139.742194},{"name":"品川南ふ頭公園","province":"東京都","city":"品川区","address":"東京都品川区東品川5丁目8","lat":35.621988,"lon":139.754866},{"name":"荏原南公園","province":"東京都","city":"品川区","address":"東京都品川区荏原6丁目15","lat":35.611767,"lon":139.703017},{"name":"東品川公園","province":"東京都","city":"品川区","address":"東京都品川区東品川3丁目14","lat":35.614952,"lon":139.746533},{"name":"鮫洲運動公園","province":"東京都","city":"品川区","address":"東京都品川区東大井1丁目4","lat":35.606564,"lon":139.744786},{"name":"鮫洲運動公園","province":"東京都","city":"品川区","address":"東京都品川区東大井1丁目4","lat":35.605924,"lon":139.745038},{"name":"ひらさん広場","province":"東京都","city":"品川区","address":"東京都品川区平塚3丁目9","lat":35.614026,"lon":139.712639},{"name":"五反田ふれあい水辺広場","province":"東京都","city":"品川区","address":"東京都品川区東五反田2丁目9","lat":35.624186,"lon":139.726396},{"name":"文庫の森","province":"東京都","city":"品川区","address":"東京都品川区豊町1丁目16","lat":35.611366,"lon":139.720625},{"name":"京陽公園","province":"東京都","city":"品川区","address":"東京都品川区平塚2丁目12","lat":35.616767,"lon":139.71323},{"name":"上神明児童遊園","province":"東京都","city":"品川区","address":"東京都品川区二葉4丁目26","lat":35.602244,"lon":139.714196},{"name":"小山台東公園","province":"東京都","city":"品川区","address":"東京都品川区小山台1丁目26","lat":35.62228,"lon":139.706355},{"name":"大井中央公園","province":"東京都","city":"品川区","address":"東京都品川区大井1丁目46","lat":35.604643,"lon":139.732225},{"name":"台場浦公園","province":"東京都","city":"品川区","address":"東京都品川区東品川1丁目8","lat":35.621538,"lon":139.742958},{"name":"峰原公園","province":"東京都","city":"品川区","address":"東京都品川区大崎3丁目17","lat":35.617991,"lon":139.721141},{"name":"武蔵小山駅前公衆便所","province":"東京都","city":"品川区","address":"東京都品川区小山3丁目27","lat":35.620049,"lon":139.703545},{"name":"新馬場北公衆便所","province":"東京都","city":"品川区","address":"東京都品川区北品川2丁目18-1","lat":35.617719,"lon":139.741363},{"name":"不動前公衆便所","province":"東京都","city":"品川区","address":"東京都品川区西五反田5丁目1","lat":35.625951,"lon":139.714184},{"name":"大井町駅東口公衆便所","province":"東京都","city":"品川区","address":"東京都品川区大井1丁目2","lat":35.606838,"lon":139.735183},{"name":"西大井公衆便所","province":"東京都","city":"品川区","address":"東京都品川区西大井1丁目3-2","lat":35.60165,"lon":139.721787},{"name":"三十五橋公衆便所","province":"東京都","city":"品川区","address":"東京都品川区中延5丁目14","lat":35.602349,"lon":139.709006},{"name":"西小山駅前公衆便所","province":"東京都","city":"品川区","address":"東京都品川区小山6丁目2","lat":35.615125,"lon":139.698398},{"name":"新品川橋公衆便所","province":"東京都","city":"品川区","address":"東京都品川区東品川3丁目1","lat":35.616939,"lon":139.745334},{"name":"南大井公衆便所","province":"東京都","city":"品川区","address":"東京都品川区南大井1丁目22","lat":35.594707,"lon":139.73663},{"name":"大井水神南公衆便所","province":"東京都","city":"品川区","address":"東京都品川区南大井6丁目15-11","lat":35.589779,"lon":139.729263},{"name":"荏原町駅前公衆便所","province":"東京都","city":"品川区","address":"東京都品川区中延5丁目2","lat":35.603793,"lon":139.708155},{"name":"荏原中延公衆便所","province":"東京都","city":"品川区","address":"東京都品川区東中延1丁目9","lat":35.609693,"lon":139.71185},{"name":"八ツ山の東司","province":"東京都","city":"品川区","address":"東京都品川区北品川1丁目3","lat":35.623759,"lon":139.739138},{"name":"新浜川橋北公衆便所","province":"東京都","city":"品川区","address":"東京都品川区南大井1丁目6","lat":35.596405,"lon":139.740942},{"name":"大井町駅前公衆便所","province":"東京都","city":"品川区","address":"東京都品川区大井1丁目2","lat":35.60565,"lon":139.734733},{"name":"新馬場南公衆便所","province":"東京都","city":"品川区","address":"東京都品川区南品川1丁目1","lat":35.614687,"lon":139.74191},{"name":"青物横丁公衆便所","province":"東京都","city":"品川区","address":"東京都品川区南品川2丁目5","lat":35.610097,"lon":139.742777},{"name":"大崎橋公衆便所","province":"東京都","city":"品川区","address":"東京都品川区西五反田1丁目10","lat":35.624599,"lon":139.724257},{"name":"品川区立大崎高齢者多世代交流支援施設(呼称：大崎ゆうゆうプラザ)","province":"東京都","city":"品川区","address":"東京都品川区大崎2丁目7-13","lat":35.6168,"lon":139.725836},{"name":"品川区立平塚橋高齢者多世代交流支援施設(呼称：平塚橋ゆうゆうプラザ)","province":"東京都","city":"品川区","address":"東京都品川区西中延1丁目2-8","lat":35.61428,"lon":139.709987},{"name":"南ゆたか児童センター","province":"東京都","city":"品川区","address":"東京都品川区豊町4丁目17-21","lat":35.606509,"lon":139.720918},{"name":"品川区立なぎさ会館","province":"東京都","city":"品川区","address":"東京都品川区勝島3丁目1-3","lat":35.59631,"lon":139.741776},{"name":"品川区立総合体育館","province":"東京都","city":"品川区","address":"東京都品川区東五反田2丁目11-1","lat":35.6245,"lon":139.728523},{"name":"品川区立総合体育館","province":"東京都","city":"品川区","address":"東京都品川区東五反田2丁目11-1","lat":35.62462,"lon":139.72846},{"name":"品川区立総合体育館","province":"東京都","city":"品川区","address":"東京都品川区東五反田2丁目11-1","lat":35.62453,"lon":139.728195},{"name":"品川区立戸越体育館","province":"東京都","city":"品川区","address":"東京都品川区豊町2丁目1-17","lat":35.61099,"lon":139.720543},{"name":"品川区清掃事務所","province":"東京都","city":"品川区","address":"東京都品川区大崎1丁目14-1","lat":35.61842,"lon":139.733304},{"name":"品川区立心身障害者福祉会館","province":"東京都","city":"品川区","address":"東京都品川区旗の台5丁目2-2","lat":35.60504,"lon":139.700453},{"name":"品川区立心身障害者福祉会館","province":"東京都","city":"品川区","address":"東京都品川区旗の台5丁目2-2","lat":35.60504,"lon":139.700406},{"name":"品川区立心身障害者福祉会館","province":"東京都","city":"品川区","address":"東京都品川区旗の台5丁目2-2","lat":35.60504,"lon":139.70043},{"name":"品川区立平塚高齢者多世代交流支援施設（呼称：平塚ゆうゆうプラザ）","province":"東京都","city":"品川区","address":"東京都品川区平塚2丁目10-20","lat":35.616926,"lon":139.71401},{"name":"品川区立障害児者総合支援施設","province":"東京都","city":"品川区","address":"東京都品川区南品川3丁目7-7","lat":35.607127,"lon":139.744875},{"name":"品川区立障害児者総合支援施設","province":"東京都","city":"品川区","address":"東京都品川区南品川3丁目7-7","lat":35.607199,"lon":139.74508},{"name":"品川区立障害児者総合支援施設","province":"東京都","city":"品川区","address":"東京都品川区南品川3丁目7-7","lat":35.607178,"lon":139.744809},{"name":"品川区立障害児者総合支援施設","province":"東京都","city":"品川区","address":"東京都品川区南品川3丁目7-7","lat":35.607303,"lon":139.744888},{"name":"メイプルカルチャーセンター","province":"東京都","city":"品川区","address":"東京都品川区西大井1丁目4","lat":35.602195,"lon":139.722438},{"name":"ゆたか防災広場","province":"東京都","city":"品川区","address":"東京都品川区豊町6丁目11","lat":35.605585,"lon":139.717701},{"name":"品川区立東品川高齢者多世代交流支援施設（呼称：東品川ゆうゆうプラザ）","province":"東京都","city":"品川区","address":"東京都品川区東品川3丁目32-11","lat":35.613002,"lon":139.750591},{"name":"ファミーユ西品川子ども未来部分室105号室","province":"東京都","city":"品川区","address":"東京都品川区西品川1丁目16-2","lat":35.612145,"lon":139.729911},{"name":"東大井児童センター","province":"東京都","city":"品川区","address":"東京都品川区東大井1丁目22-16","lat":35.603314,"lon":139.741363},{"name":"子ども家庭支援センター","province":"東京都","city":"品川区","address":"東京都品川区二葉1丁目7-15","lat":35.608697,"lon":139.729292},{"name":"武蔵小山図書取次施設","province":"東京都","city":"品川区","address":"東京都品川区小山3丁目22-3","lat":35.619219,"lon":139.705798},{"name":"後地児童センター","province":"東京都","city":"品川区","address":"東京都品川区小山2丁目9-19","lat":35.620618,"lon":139.709179},{"name":"大原児童センター","province":"東京都","city":"品川区","address":"東京都品川区戸越6丁目16-1","lat":35.607348,"lon":139.715397},{"name":"ゆたか児童センター","province":"東京都","city":"品川区","address":"東京都品川区豊町1丁目18-15","lat":35.611498,"lon":139.722742},{"name":"中原児童センター（仮設）","province":"東京都","city":"品川区","address":"東京都品川区西五反田6丁目6-6","lat":35.623204,"lon":139.717292},{"name":"品川区立環境学習交流施設(エコルとごし)","province":"東京都","city":"品川区","address":"東京都品川区豊町2丁目1-30","lat":35.611007,"lon":139.722297},{"name":"品川第一地域センター","province":"東京都","city":"品川区","address":"品川区北品川3-11-16","lat":35.616673,"lon":139.740036},{"name":"台場小学校","province":"東京都","city":"品川区","address":"品川区東品川1-8-30","lat":35.620869,"lon":139.743667},{"name":"三木小学校","province":"東京都","city":"品川区","address":"品川区西品川3-16-28","lat":35.615256,"lon":139.726544},{"name":"大崎第一地域センター","province":"東京都","city":"品川区","address":"品川区西五反田3-6-3","lat":35.627795,"lon":139.716815},{"name":"第一日野小学校","province":"東京都","city":"品川区","address":"品川区西五反田6-5-32","lat":35.622228,"lon":139.716127},{"name":"日野学園","province":"東京都","city":"品川区","address":"品川区東五反田2-11-1","lat":35.62454,"lon":139.72831},{"name":"第三日野小学校","province":"東京都","city":"品川区","address":"品川区上大崎1-19-19","lat":35.632789,"lon":139.723939},{"name":"後地小学校","province":"東京都","city":"品川区","address":"品川区小山2-4-6","lat":35.621519,"lon":139.708452},{"name":"小山小学校","province":"東京都","city":"品川区","address":"品川区小山5-10-6","lat":35.616018,"lon":139.70329},{"name":"大原小学校","province":"東京都","city":"品川区","address":"品川区戸越6-17-3","lat":35.607167,"lon":139.716467},{"name":"大井第一小学校","province":"東京都","city":"品川区","address":"品川区大井6-1-32","lat":35.598644,"lon":139.730919},{"name":"伊藤学園","province":"東京都","city":"品川区","address":"品川区大井5-1-37","lat":35.599873,"lon":139.726009},{"name":"鈴ケ森小学校","province":"東京都","city":"品川区","address":"品川区南大井4-16-2","lat":35.594487,"lon":139.735286},{"name":"大井第二地域センター","province":"東京都","city":"品川区","address":"品川区大井2-27-20","lat":35.604027,"lon":139.730464},{"name":"浅間台小学校","province":"東京都","city":"品川区","address":"品川区南品川6-8-8","lat":35.611462,"lon":139.736584},{"name":"大井第三地域センター","province":"東京都","city":"品川区","address":"品川区西大井4-1-8","lat":35.597669,"lon":139.72108},{"name":"京陽小学校","province":"東京都","city":"品川区","address":"品川区平塚2-19-20","lat":35.330742,"lon":139.337875},{"name":"城南第二小学校","province":"東京都","city":"品川区","address":"品川区東品川3-4-5","lat":35.615644,"lon":139.746083},{"name":"立会小学校","province":"東京都","city":"品川区","address":"品川区東大井4-15-9","lat":35.604432,"lon":139.740166},{"name":"旗台小学校","province":"東京都","city":"品川区","address":"品川区旗の台4-7-11","lat":35.603162,"lon":139.703765},{"name":"豊葉の杜学園","province":"東京都","city":"品川区","address":"品川区二葉1-3-40","lat":35.607037,"lon":139.72556},{"name":"延山小学校","province":"東京都","city":"品川区","address":"品川区西中延2-17-5","lat":35.608779,"lon":139.707882},{"name":"宮前小学校","province":"東京都","city":"品川区","address":"品川区戸越4-5-10","lat":35.611768,"lon":139.718319},{"name":"品川区役所","province":"東京都","city":"品川区","address":"品川区広町2-1-36","lat":35.609181,"lon":139.730167},{"name":"品川区清掃事務所","province":"東京都","city":"品川区","address":"品川区大崎1-14-1","lat":35.618345,"lon":139.733502},{"name":"芳水小学校","province":"東京都","city":"品川区","address":"品川区大崎3-12-22","lat":35.61857,"lon":139.724154},{"name":"伊藤小学校","province":"東京都","city":"品川区","address":"品川区西大井5-6-8","lat":35.598691,"lon":139.717367},{"name":"源氏前小学校","province":"東京都","city":"品川区","address":"品川区中延6-2-18","lat":35.603165,"lon":139.712064},{"name":"小山台小学校","province":"東京都","city":"品川区","address":"品川区小山台1-18-24","lat":35.62276,"lon":139.703466},{"name":"区立戸越公園","province":"東京都","city":"品川区","address":"東京都品川区豊町2-1-30","lat":35.61059,"lon":139.72284},{"name":"区立しおじ公園","province":"東京都","city":"品川区","address":"東京都品川区八潮5-6","lat":35.59629,"lon":139.75039},{"name":"都立八潮高等学校","province":"東京都","city":"品川区","address":"東京都品川区東品川3-27-22","lat":35.611851,"lon":139.74661},{"name":"大井町駅西口区営自転車等駐車場","province":"東京都","city":"品川区","address":"東京都品川区大井1丁目7-9","lat":35.6069477,"lon":139.73276353},{"name":"荏原町駅区営自転車等駐車場","province":"東京都","city":"品川区","address":"東京都品川区中延5丁目1-1","lat":35.60373632,"lon":139.70709906},{"name":"大井町駅東口区営自転車等駐車場","province":"東京都","city":"品川区","address":"東京都品川区東大井5丁目20","lat":35.60593956,"lon":139.7351356},{"name":"大井町駅西口第２区営自転車等駐車場","province":"東京都","city":"品川区","address":"東京都品川区大井4丁目3","lat":35.6043425,"lon":139.73430794},{"name":"大崎駅東口区営自転車等駐車場","province":"東京都","city":"品川区","address":"東京都品川区大崎1丁目4","lat":35.62122922,"lon":139.72766623},{"name":"大崎駅西口区営自転車等駐車場","province":"東京都","city":"品川区","address":"東京都品川区大崎2丁目1-1","lat":35.61837956,"lon":139.72802742},{"name":"天王洲アイル駅第1区営自転車等駐車場","province":"東京都","city":"品川区","address":"東京都品川区東品川2丁目5","lat":35.62087714,"lon":139.74977277},{"name":"品川シーサイド駅区営自転車等駐車場","province":"東京都","city":"品川区","address":"東京都品川区東品川4丁目12","lat":35.61013954,"lon":139.74892049},{"name":"新馬場駅区営自転車等駐車場","province":"東京都","city":"品川区","address":"東京都品川区南品川2丁目9","lat":35.61410271,"lon":139.74211254},{"name":"大井競馬場前駅区営自転車等駐車場","province":"東京都","city":"品川区","address":"東京都品川区勝島1丁目4","lat":35.59839374,"lon":139.74625178},{"name":"五反田駅区営自転車等駐車場","province":"東京都","city":"品川区","address":"東京都品川区西五反田2丁目2","lat":35.62741723,"lon":139.72130823},{"name":"地下鉄中延駅第2区営自転車等駐車場","province":"東京都","city":"品川区","address":"東京都品川区中延4丁目7","lat":35.60468074,"lon":139.71304018},{"name":"地下鉄中延駅第3区営自転車等駐車場","province":"東京都","city":"品川区","address":"東京都品川区豊町6丁目24","lat":35.60496128,"lon":139.71401231},{"name":"地下鉄戸越駅第1区営自転車等駐車場","province":"東京都","city":"品川区","address":"東京都品川区平塚1丁目6","lat":35.61576846,"lon":139.71593684},{"name":"旗の台駅第1区営自転車等駐車場","province":"東京都","city":"品川区","address":"東京都品川区旗の台2丁目6","lat":35.60612214,"lon":139.70458811},{"name":"旗の台駅第2区営自転車等駐車場","province":"東京都","city":"品川区","address":"東京都品川区旗の台2丁目7","lat":35.60603603,"lon":139.70409648},{"name":"大森駅水神口区営自転車等駐車場","province":"東京都","city":"品川区","address":"東京都品川区南大井6丁目15","lat":35.59096903,"lon":139.72973936},{"name":"西大井駅区営自転車等駐車場","province":"東京都","city":"品川区","address":"東京都品川区二葉2丁目26-6","lat":35.60234505,"lon":139.72205061},{"name":"青物横丁駅区営自転車等駐車場","province":"東京都","city":"品川区","address":"東京都品川区南品川2丁目4","lat":35.61029207,"lon":139.74243766},{"name":"立会川駅区営自転車等駐車場","province":"東京都","city":"品川区","address":"東京都品川区南大井1丁目3-1","lat":35.59782961,"lon":139.73858289},{"name":"下神明駅区営自転車等駐車場","province":"東京都","city":"品川区","address":"東京都品川区二葉1丁目1","lat":35.60827784,"lon":139.72551405},{"name":"戸越公園駅第1区営自転車等駐車場","province":"東京都","city":"品川区","address":"東京都品川区戸越5丁目10","lat":35.60913035,"lon":139.71878957},{"name":"戸越公園駅第2区営自転車等駐車場","province":"東京都","city":"品川区","address":"東京都品川区戸越6丁目6","lat":35.60852205,"lon":139.7170925},{"name":"八潮福祉センター前","province":"東京都","city":"品川区","address":"東京都品川区八潮1丁目4-1","lat":35.60946205,"lon":139.75402291},{"name":"北品川二丁目","province":"東京都","city":"品川区","address":"東京都品川区北品川2丁目34-3","lat":35.61659961,"lon":139.74127362},{"name":"北埠頭橋","province":"東京都","city":"品川区","address":"東京都品川区東品川3丁目27-16","lat":35.61165873,"lon":139.74736499},{"name":"東品川三丁目","province":"東京都","city":"品川区","address":"東京都品川区東品川3丁目6-7","lat":35.61553327,"lon":139.74747316},{"name":"八潮橋","province":"東京都","city":"品川区","address":"東京都品川区東品川4丁目11-34","lat":35.607301,"lon":139.74804846},{"name":"南品川五丁目","province":"東京都","city":"品川区","address":"東京都品川区南品川5丁目3-13","lat":35.61132248,"lon":139.74175433},{"name":"新東海橋","province":"東京都","city":"品川区","address":"東京都品川区東品川1丁目32-3","lat":35.62012434,"lon":139.74618419},{"name":"東品川公園入口","province":"東京都","city":"品川区","address":"東京都品川区東品川3丁目15-10","lat":35.61392513,"lon":139.74735102},{"name":"居木橋","province":"東京都","city":"品川区","address":"東京都品川区北品川4丁目10-5","lat":35.61812701,"lon":139.73499073},{"name":"西品川三丁目","province":"東京都","city":"品川区","address":"東京都品川区大崎2丁目10-14","lat":35.61760745,"lon":139.72900236},{"name":"東品川海上公園","province":"東京都","city":"品川区","address":"東京都品川区東品川3丁目32-36","lat":35.61646105,"lon":139.75092286},{"name":"都立高専前","province":"東京都","city":"品川区","address":"東京都品川区東大井1丁目11-25","lat":35.60682891,"lon":139.75000944},{"name":"品川職業技術専門校前","province":"東京都","city":"品川区","address":"東京都品川区東品川3丁目32-3","lat":35.6119477,"lon":139.75048419},{"name":"新八ツ山橋","province":"東京都","city":"品川区","address":"東京都品川区北品川4丁目7","lat":35.62179607,"lon":139.73699321},{"name":"北品川六丁目","province":"東京都","city":"品川区","address":"東京都品川区東五反田3丁目21-5","lat":35.6249733,"lon":139.73137689},{"name":"東海道北品川","province":"東京都","city":"品川区","address":"東京都品川区北品川2丁目24-5","lat":35.61814672,"lon":139.74379558},{"name":"品川図書館前","province":"東京都","city":"品川区","address":"東京都品川区北品川2丁目30","lat":35.6173746,"lon":139.74390116},{"name":"品川シーサイド駅","province":"東京都","city":"品川区","address":"東京都品川区東品川4丁目13-14","lat":35.60853703,"lon":139.75024546},{"name":"新東海橋東","province":"東京都","city":"品川区","address":"東京都品川区東品川2丁目2-28","lat":35.62179923,"lon":139.74896723},{"name":"八潮橋北","province":"東京都","city":"品川区","address":"東京都品川区東品川4丁目12-1","lat":35.60854805,"lon":139.7479262},{"name":"品川区役所前","province":"東京都","city":"品川区","address":"東京都品川区広町2丁目1-36","lat":35.60881128,"lon":139.73028866},{"name":"東品川シルバーセンター前","province":"東京都","city":"品川区","address":"東京都品川区東品川3丁目32-12","lat":35.61330587,"lon":139.75067301},{"name":"百反坂下","province":"東京都","city":"品川区","address":"東京都品川区西品川3丁目21-8","lat":35.61626598,"lon":139.73041617},{"name":"品川区役所前第二","province":"東京都","city":"品川区","address":"東京都品川区西品川1丁目27-14","lat":35.60922229,"lon":139.72882487},{"name":"大井町駅東口","province":"東京都","city":"品川区","address":"東京都品川区東大井5丁目16-5","lat":35.60713943,"lon":139.73552164},{"name":"立会川","province":"東京都","city":"品川区","address":"東京都品川区東大井2丁目23-2","lat":35.59826843,"lon":139.738369},{"name":"大井町駅西口","province":"東京都","city":"品川区","address":"東京都品川区南大井1丁目3-12","lat":35.5969797,"lon":139.73831627},{"name":"ゼームス坂上","province":"東京都","city":"品川区","address":"東京都品川区東大井5丁目15-4","lat":35.60706171,"lon":139.73642713},{"name":"鈴ヶ森","province":"東京都","city":"品川区","address":"東京都品川区南大井3丁目10","lat":35.59062486,"lon":139.73578617},{"name":"大井権現","province":"東京都","city":"品川区","address":"東京都品川区南大井1丁目1-16","lat":35.59775459,"lon":139.73799126},{"name":"西大井二丁目","province":"東京都","city":"品川区","address":"東京都品川区西大井2丁目4-7","lat":35.59992319,"lon":139.72314505},{"name":"大井一丁目","province":"東京都","city":"品川区","address":"東京都品川区大井1丁目37-10","lat":35.6048062,"lon":139.7307693},{"name":"鮫洲試験場前","province":"東京都","city":"品川区","address":"東京都品川区東大井1丁目12-5","lat":35.6038986,"lon":139.74647094},{"name":"品川区役所入口","province":"東京都","city":"品川区","address":"東京都品川区大井1丁目16-2","lat":35.60764196,"lon":139.73016647},{"name":"鈴ヶ森第二","province":"東京都","city":"品川区","address":"東京都品川区南大井2丁目10-6","lat":35.59019161,"lon":139.73658614},{"name":"大井一丁目第二","province":"東京都","city":"品川区","address":"東京都品川区大井1丁目35-3","lat":35.60507011,"lon":139.73187477},{"name":"大井町駅西口第二","province":"東京都","city":"品川区","address":"東京都品川区大井1丁目10-3","lat":35.60745598,"lon":139.73317737},{"name":"ＪＲ大井町駅南","province":"東京都","city":"品川区","address":"東京都品川区大井1丁目50-5","lat":35.60568679,"lon":139.73414401},{"name":"ＪＲ大井町駅前","province":"東京都","city":"品川区","address":"東京都品川区大井1丁目50-5","lat":35.60568679,"lon":139.73414401},{"name":"大井一本橋","province":"東京都","city":"品川区","address":"東京都品川区大井1丁目20-29","lat":35.60706703,"lon":139.73012762},{"name":"きゅりあん裏","province":"東京都","city":"品川区","address":"東京都品川区東大井5丁目23-37","lat":35.60514807,"lon":139.73690493},{"name":"大井鎧橋","province":"東京都","city":"品川区","address":"東京都品川区大井1丁目49-15","lat":35.60605615,"lon":139.73337462},{"name":"ＪＲ大井工場前","province":"東京都","city":"品川区","address":"東京都品川区大井1丁目1","lat":35.60767819,"lon":139.73352455},{"name":"大森駅北口入口","province":"東京都","city":"品川区","address":"東京都品川区南大井6丁目23-1","lat":35.58961922,"lon":139.73039492},{"name":"大井町駅東口第二","province":"東京都","city":"品川区","address":"東京都品川区大井1丁目2","lat":35.60672556,"lon":139.73428286},{"name":"八潮地域センター前","province":"東京都","city":"品川区","address":"東京都品川区八潮5丁目10-27","lat":35.60015206,"lon":139.7512541},{"name":"ちょうちょ橋","province":"東京都","city":"品川区","address":"東京都品川区八潮5丁目8","lat":35.5968109,"lon":139.75291526},{"name":"中央海浜公園前","province":"東京都","city":"品川区","address":"東京都品川区八潮4丁目2","lat":35.59275297,"lon":139.74978513},{"name":"大井海浜公園前","province":"東京都","city":"品川区","address":"東京都品川区八潮4丁目1","lat":35.59123385,"lon":139.75266834},{"name":"大井町駅入口","province":"東京都","city":"品川区","address":"東京都品川区大井2丁目1-5","lat":35.6065393,"lon":139.72985265},{"name":"五反田駅旧ガード下","province":"東京都","city":"品川区","address":"東京都品川区東五反田1丁目26-6","lat":35.62585636,"lon":139.7240636},{"name":"目黒駅西口前","province":"東京都","city":"品川区","address":"東京都品川区上大崎4丁目1","lat":35.633422,"lon":139.71450866},{"name":"大崎広小路","province":"東京都","city":"品川区","address":"東京都品川区西五反田8丁目4-13","lat":35.6229261,"lon":139.72211664},{"name":"目黒駅東口前","province":"東京都","city":"品川区","address":"東京都品川区上大崎3丁目1","lat":35.63269988,"lon":139.71636408},{"name":"西五反田一丁目","province":"東京都","city":"品川区","address":"東京都品川区西五反田1丁目33-10","lat":35.6240204,"lon":139.72136667},{"name":"五反田駅新ガード下","province":"東京都","city":"品川区","address":"東京都品川区東五反田1丁目26-1","lat":35.6265035,"lon":139.72369972},{"name":"目蒲線ガード下","province":"東京都","city":"品川区","address":"東京都品川区西五反田5丁目1-1","lat":35.62658389,"lon":139.71501159},{"name":"上大崎二丁目","province":"東京都","city":"品川区","address":"東京都品川区上大崎2丁目25-5","lat":35.63461074,"lon":139.71476139},{"name":"上大崎三丁目第二","province":"東京都","city":"品川区","address":"東京都品川区西五反田2丁目1-1","lat":35.62813381,"lon":139.72050273},{"name":"大崎四丁目","province":"東京都","city":"品川区","address":"東京都品川区大崎4丁目2-2","lat":35.62231509,"lon":139.72326656},{"name":"目黒駅ビル前","province":"東京都","city":"品川区","address":"東京都品川区上大崎2丁目15-21","lat":35.63442468,"lon":139.71631958},{"name":"大崎駅西口第二","province":"東京都","city":"品川区","address":"東京都品川区大崎1丁目21-4","lat":35.61970165,"lon":139.72879675},{"name":"大崎駅西口","province":"東京都","city":"品川区","address":"東京都品川区大崎2丁目1-1","lat":35.61837956,"lon":139.72802742},{"name":"平塚橋交番前","province":"東京都","city":"品川区","address":"東京都品川区西中延1丁目1-10","lat":35.61549615,"lon":139.7092402},{"name":"戸越銀座","province":"東京都","city":"品川区","address":"東京都品川区平塚1丁目6-14","lat":35.61544906,"lon":139.71649791},{"name":"昭和医大前","province":"東京都","city":"品川区","address":"東京都品川区旗の台1丁目2-14","lat":35.60944957,"lon":139.70490466},{"name":"昭和医大前第二","province":"東京都","city":"品川区","address":"東京都品川区旗の台1丁目6-16","lat":35.60916903,"lon":139.7039603},{"name":"旗の台駅入口","province":"東京都","city":"品川区","address":"東京都品川区旗の台1丁目4-13","lat":35.60742477,"lon":139.70386869},{"name":"旗の台二丁目","province":"東京都","city":"品川区","address":"東京都品川区旗の台2丁目11-6","lat":35.60577768,"lon":139.70077457},{"name":"戸越銀座入口","province":"東京都","city":"品川区","address":"東京都品川区平塚3丁目2-17","lat":35.61631275,"lon":139.71070949},{"name":"小山四丁目","province":"東京都","city":"品川区","address":"東京都品川区小山4丁目4-7","lat":35.61852353,"lon":139.70432109},{"name":"荏原四丁目","province":"東京都","city":"品川区","address":"東京都品川区荏原4丁目1-1","lat":35.61760698,"lon":139.70549602},{"name":"小山三丁目","province":"東京都","city":"品川区","address":"東京都品川区小山4丁目4-22","lat":35.61905678,"lon":139.70358781},{"name":"第二延山小角","province":"東京都","city":"品川区","address":"東京都品川区旗の台1丁目2-1","lat":35.61073553,"lon":139.70387693},{"name":"武蔵小山駅西","province":"東京都","city":"品川区","address":"東京都品川区小山4丁目2-1","lat":35.6196567,"lon":139.70292952},{"name":"戸越四丁目東","province":"東京都","city":"品川区","address":"東京都品川区戸越5丁目6-4","lat":35.61041631,"lon":139.71847011},{"name":"大森北一丁目","province":"東京都","city":"品川区","address":"東京都品川区南大井3丁目35-10","lat":35.58753902,"lon":139.73258653},{"name":"大森北五差路","province":"東京都","city":"品川区","address":"東京都品川区南大井6丁目27-20","lat":35.58751393,"lon":139.73003949},{"name":"大森海岸駅西","province":"東京都","city":"品川区","address":"東京都品川区南大井3丁目31","lat":35.58793351,"lon":139.73518633},{"name":"大森駅東口広場前","province":"東京都","city":"品川区","address":"東京都品川区南大井6丁目28-8","lat":35.5879583,"lon":139.72972838},{"name":"昭和大学病院","province":"東京都","city":"品川区","address":"東京都品川区旗の台1丁目5-8","lat":35.60849688,"lon":139.70353258},{"name":"ＮＴＴ東日本関東病院","province":"東京都","city":"品川区","address":"東京都品川区東五反田5丁目9-22","lat":35.63091968,"lon":139.72494947},{"name":"区立戸越公園","province":"東京都","city":"品川区","address":"東京都品川区豊町2丁目1-30","lat":35.61109965,"lon":139.72238087},{"name":"区立しおじ公園","province":"東京都","city":"品川区","address":"東京都品川区八潮5丁目6","lat":35.59734124,"lon":139.74955159},{"name":"都立八潮高等学校","province":"東京都","city":"品川区","address":"東京都品川区東品川3丁目27-22","lat":35.61185035,"lon":139.74660949},{"name":"南大井シルバーセンター","province":"東京都","city":"品川区","address":"東京都品川区南大井3丁目7-14","lat":35.5916187,"lon":139.7342376},{"name":"春光福祉会　特別養護老人ホーム「ロイヤルサニー」","province":"東京都","city":"品川区","address":"東京都品川区西大井2丁目4-4","lat":35.5999621,"lon":139.7224704},{"name":"さくら会老人保健施設「ケアセンター南大井」","province":"東京都","city":"品川区","address":"東京都品川区南大井5丁目19","lat":35.5945343,"lon":139.733675},{"name":"西大井シルバーセンター","province":"東京都","city":"品川区","address":"東京都品川区西大井1丁目8-7","lat":35.6008976,"lon":139.7230698},{"name":"八潮児童センター","province":"東京都","city":"品川区","address":"東京都品川区八潮5丁目10-27","lat":35.5998066,"lon":139.7516327},{"name":"高齢者住宅八潮わかくさ荘","province":"東京都","city":"品川区","address":"東京都品川区八潮5丁目10-27","lat":35.5998699,"lon":139.7509539},{"name":"心身障害者福祉会館","province":"東京都","city":"品川区","address":"東京都品川区旗の台5丁目2","lat":35.6048875,"lon":139.7006163},{"name":"旗の台シルバーセンター","province":"東京都","city":"品川区","address":"東京都品川区旗の台4丁目13-1","lat":35.6025803,"lon":139.7046896},{"name":"関ヶ原シルバーセンター","province":"東京都","city":"品川区","address":"東京都品川区東大井6丁目11-11","lat":35.6018677,"lon":139.7364935},{"name":"品川児童学園","province":"東京都","city":"品川区","address":"東京都品川区南品川3丁目7","lat":35.6073495,"lon":139.7446282},{"name":"品川総合福祉センター","province":"東京都","city":"品川区","address":"東京都品川区八潮5丁目1-1","lat":35.6052496,"lon":139.7522717},{"name":"中延シルバーセンター","province":"東京都","city":"品川区","address":"東京都品川区中延1丁目4-12","lat":35.6125932,"lon":139.7118185},{"name":"特別養護老人ホーム「成幸ホーム」","province":"東京都","city":"品川区","address":"東京都品川区中延1丁目8-15","lat":35.6122655,"lon":139.7115887},{"name":"ゆたかシルバーセンター","province":"東京都","city":"品川区","address":"東京都品川区豊町3丁目2","lat":35.6081669,"lon":139.7194903},{"name":"南品川シルバーセンター","province":"東京都","city":"品川区","address":"東京都品川区南品川5丁目10","lat":35.6100801,"lon":139.7395401},{"name":"都立品川特別支援学校","province":"東京都","city":"品川区","address":"東京都品川区南品川6丁目15-20","lat":35.6097666,"lon":139.7378227},{"name":"東品川シルバーセンター","province":"東京都","city":"品川区","address":"東京都品川区東品川3丁目32","lat":35.6126645,"lon":139.7503745},{"name":"小山シルバーセンター","province":"東京都","city":"品川区","address":"東京都品川区小山5丁目17-17","lat":35.6147042,"lon":139.7014478},{"name":"平塚シルバーセンター","province":"東京都","city":"品川区","address":"東京都品川区平塚2丁目10","lat":35.6169969,"lon":139.7139996},{"name":"大崎シルバーセンター","province":"東京都","city":"品川区","address":"東京都品川区大崎2丁目7","lat":35.6168885,"lon":139.7256112},{"name":"北品川シルバーセンター","province":"東京都","city":"品川区","address":"東京都品川区北品川1丁目29-11","lat":35.6206822,"lon":139.7418432},{"name":"福栄会","province":"東京都","city":"品川区","address":"東京都品川区東品川3丁目1-8","lat":35.617101,"lon":139.7467953},{"name":"西五反田シルバーセンター","province":"東京都","city":"品川区","address":"東京都品川区西五反田3丁目9-9","lat":35.6266424,"lon":139.7170725},{"name":"五反田保育園","province":"東京都","city":"品川区","address":"東京都品川区東五反田2丁目15","lat":35.6216342,"lon":139.7294771},{"name":"上大崎シルバーセンター","province":"東京都","city":"品川区","address":"東京都品川区上大崎1丁目3-11","lat":35.6347299,"lon":139.7222261},{"name":"仙台坂トンネル","province":"東京都","city":"品川区","address":"東京都品川区","lat":35.60890571,"lon":139.73030809},{"name":"品川区役所","province":"東京都","city":"品川区","address":"東京都品川区広町2-1-36","lat":35.6093959,"lon":139.7301459},{"name":"品川第一地域センター・区民集会所","province":"東京都","city":"品川区","address":"東京都品川区北品川3-11-16","lat":35.6166735,"lon":139.739995},{"name":"品川第二地域センター・区民集会所","province":"東京都","city":"品川区","address":"東京都品川区南品川5-3-20","lat":35.6113482,"lon":139.7412774},{"name":"大崎第一地域センター・区民集会所","province":"東京都","city":"品川区","address":"東京都品川区西五反田3-6-3","lat":35.6279721,"lon":139.7164476},{"name":"大井第一地域センター","province":"東京都","city":"品川区","address":"東京都品川区南大井1-12-6","lat":35.5963292,"lon":139.7375406},{"name":"大井第二地域センター・区民集会所","province":"東京都","city":"品川区","address":"東京都品川区大井2-27-20","lat":35.6040785,"lon":139.7304557},{"name":"大井第三地域センター・区民集会所","province":"東京都","city":"品川区","address":"東京都品川区西大井4-1-8","lat":35.5976934,"lon":139.7211039},{"name":"荏原第一地域センター・区民集会所","province":"東京都","city":"品川区","address":"東京都品川区小山3-22-3","lat":35.6192605,"lon":139.7057503},{"name":"荏原第二地域センター・区民集会所","province":"東京都","city":"品川区","address":"東京都品川区荏原6-17-12","lat":35.6110694,"lon":139.7043829},{"name":"荏原第三地域センター・区民集会所","province":"東京都","city":"品川区","address":"東京都品川区平塚1-13-18","lat":35.6133434,"lon":139.7153629},{"name":"荏原第四地域センター・区民集会所","province":"東京都","city":"品川区","address":"東京都品川区中延5-3-12","lat":35.6038249,"lon":139.7084941},{"name":"八潮地域センター・区民集会所","province":"東京都","city":"品川区","address":"東京都品川区八潮5-10-27","lat":35.6001681,"lon":139.7514663},{"name":"東大井区民集会所","province":"東京都","city":"品川区","address":"東京都品川区東大井2-16-12","lat":35.6005168,"lon":139.7415771},{"name":"防災センター","province":"東京都","city":"品川区","address":"東京都品川区広町2-1-36","lat":35.6096778,"lon":139.7302715},{"name":"大崎第二地域センター・区民集会所","province":"東京都","city":"品川区","address":"東京都品川区大崎2-9-4","lat":35.616649,"lon":139.7279883},{"name":"荏原第五地域センター・区民集会所","province":"東京都","city":"品川区","address":"東京都品川区二葉1-1-2","lat":35.6081773,"lon":139.7256994},{"name":"男女共同参画センター","province":"東京都","city":"品川区","address":"東京都品川区東大井5-18-1きゅりあん3階","lat":35.6059391,"lon":139.7361889},{"name":"品川区消費者センター","province":"東京都","city":"品川区","address":"東京都品川区大井1-14-1大井1丁目共同ビル","lat":35.6076929,"lon":139.7315911},{"name":"リサイクルショップ「リボン」旗の台店","province":"東京都","city":"品川区","address":"東京都品川区旗の台5-13-9","lat":35.6044516,"lon":139.7011809},{"name":"リサイクルショップ「リボン」大井町店","province":"東京都","city":"品川区","address":"東京都品川区広町2-1-36品川区役所第三庁舎2階","lat":35.6083047,"lon":139.7299228},{"name":"区民斎場 なぎさ会館","province":"東京都","city":"品川区","address":"東京都品川区勝島3-1-3","lat":35.5963655,"lon":139.7417383},{"name":"品川区清掃事務所","province":"東京都","city":"品川区","address":"東京都品川区大崎1-14-1","lat":35.6182916,"lon":139.7335512},{"name":"品川区清掃事務所 荏原庁舎","province":"東京都","city":"品川区","address":"東京都品川区平塚1-10-11","lat":35.6139998,"lon":139.714295},{"name":"品川清掃工場","province":"東京都","city":"品川区","address":"東京都品川区八潮1-4-1","lat":35.6094519,"lon":139.7538716},{"name":"総務部分室","province":"東京都","city":"品川区","address":"東京都品川区南大井3-7-10","lat":35.5915071,"lon":139.7346758},{"name":"中小企業センター","province":"東京都","city":"品川区","address":"東京都品川区西品川1-28-3","lat":35.6092731,"lon":139.7277367},{"name":"(財)品川区国際友好協会","province":"東京都","city":"品川区","address":"東京都品川区広町2-1-36品川区総合庁舎第3庁舎","lat":35.6082826,"lon":139.7301693},{"name":"八潮北保管所","province":"東京都","city":"品川区","address":"東京都品川区八潮1-3-1","lat":35.6124909,"lon":139.753783},{"name":"不動前保管所","province":"東京都","city":"品川区","address":"東京都品川区西五反田3丁目11番14号","lat":35.6270646,"lon":139.7153674},{"name":"東京電力品川支社","province":"東京都","city":"品川区","address":"東京都品川区西五反田5-3-1","lat":35.6256727,"lon":139.7167447},{"name":"品川火力発電所","province":"東京都","city":"品川区","address":"東京都品川区東品川5-6-22","lat":35.6204462,"lon":139.7557467},{"name":"大井火力発電所","province":"東京都","city":"品川区","address":"東京都品川区八潮1-2-2","lat":35.6149784,"lon":139.7561033},{"name":"戸越公園駅第1駐輪場","province":"東京都","city":"品川区","address":"東京都品川区戸越5丁目10番","lat":35.6092411,"lon":139.7184687},{"name":"戸越公園駅第2駐輪場","province":"東京都","city":"品川区","address":"東京都品川区戸越5丁目9番","lat":35.608984,"lon":139.7190806},{"name":"武蔵小山駅第1駐輪場","province":"東京都","city":"品川区","address":"東京都品川区小山3丁目27番","lat":35.6198649,"lon":139.703474},{"name":"武蔵小山駅第2駐輪場","province":"東京都","city":"品川区","address":"東京都品川区小山4丁目2番","lat":35.619253,"lon":139.7024883},{"name":"西小山駅第1駐輪場","province":"東京都","city":"品川区","address":"東京都品川区小山5丁目21番","lat":35.6159619,"lon":139.6993625},{"name":"西小山駅第2駐輪場","province":"東京都","city":"品川区","address":"東京都品川区小山6丁目3番","lat":35.6155511,"lon":139.6988545},{"name":"不動前駅第1駐輪場","province":"東京都","city":"品川区","address":"東京都品川区西五反田4丁目32番","lat":35.6265225,"lon":139.7142059},{"name":"不動前駅第2駐輪場","province":"東京都","city":"品川区","address":"東京都品川区西五反田4丁目32番","lat":35.6266118,"lon":139.7141236},{"name":"下神明駅第1駐輪場","province":"東京都","city":"品川区","address":"東京都品川区二葉1丁目4番","lat":35.6078806,"lon":139.7266536},{"name":"下神明駅第2駐輪場","province":"東京都","city":"品川区","address":"東京都品川区西品川1丁目28番","lat":35.6090898,"lon":139.7267388},{"name":"下神明駅第3駐輪場","province":"東京都","city":"品川区","address":"東京都品川区西品川1丁目29番","lat":35.6091172,"lon":139.726076},{"name":"大崎駅西口第1駐輪場","province":"東京都","city":"品川区","address":"東京都品川区大崎2丁目1番","lat":35.6185107,"lon":139.7273061},{"name":"大崎駅西口第2駐輪場","province":"東京都","city":"品川区","address":"東京都品川区大崎2丁目1番1号","lat":35.6185063,"lon":139.7274698},{"name":"大崎駅東口駐輪場","province":"東京都","city":"品川区","address":"東京都品川区大崎1丁目6番","lat":35.6203316,"lon":139.7294111},{"name":"大井町駅西口第2駐輪場","province":"東京都","city":"品川区","address":"東京都品川区大井4丁目4番","lat":35.6038141,"lon":139.7341963},{"name":"大井町駅東口駐輪場","province":"東京都","city":"品川区","address":"東京都品川区東大井6丁目1番","lat":35.6046329,"lon":139.734944},{"name":"五反田駅駐輪場","province":"東京都","city":"品川区","address":"東京都品川区西五反田2丁目2番","lat":35.6276401,"lon":139.7211897},{"name":"戸越銀座駅駐輪場","province":"東京都","city":"品川区","address":"東京都品川区平塚1丁目5番1号","lat":35.6162308,"lon":139.7152362},{"name":"地下鉄戸越駅第1駐輪場","province":"東京都","city":"品川区","address":"東京都品川区平塚1丁目6番","lat":35.6157926,"lon":139.7161897},{"name":"地下鉄中延駅第2駐輪場","province":"東京都","city":"品川区","address":"東京都品川区中延4丁目7番","lat":35.6046514,"lon":139.7130022},{"name":"地下鉄中延駅第3駐輪場","province":"東京都","city":"品川区","address":"東京都品川区豊町6丁目24番","lat":35.6048964,"lon":139.7138543},{"name":"旗の台駅第1駐輪場","province":"東京都","city":"品川区","address":"東京都品川区旗の台2丁目7番","lat":35.6061953,"lon":139.7040833},{"name":"旗の台駅第2駐輪場","province":"東京都","city":"品川区","address":"東京都品川区旗の台2丁目7番","lat":35.606106,"lon":139.7041492},{"name":"天王洲アイル駅駐輪場","province":"東京都","city":"品川区","address":"東京都品川区東品川2丁目5番","lat":35.6208436,"lon":139.7498958},{"name":"品川シーサイド駅駐輪場","province":"東京都","city":"品川区","address":"東京都品川区東品川4丁目12番","lat":35.6098947,"lon":139.7484094},{"name":"新馬場駅駐輪場","province":"東京都","city":"品川区","address":"東京都品川区南品川1丁目9番","lat":35.6151705,"lon":139.7432847},{"name":"大井競馬場前駅駐輪場","province":"東京都","city":"品川区","address":"東京都品川区勝島1丁目4番先","lat":35.6000574,"lon":139.7471319},{"name":"大森駅水神口前駐輪場","province":"東京都","city":"品川区","address":"東京都品川区南大井6丁目15番","lat":35.5908255,"lon":139.7297364},{"name":"西大井駅駐輪場","province":"東京都","city":"品川区","address":"東京都品川区二葉2丁目26番6号","lat":35.602296,"lon":139.723247},{"name":"荏原町駅駐輪場","province":"東京都","city":"品川区","address":"東京都品川区中延5丁目1番1号","lat":35.6037341,"lon":139.706972},{"name":"大井町駅西口","province":"東京都","city":"品川区","address":"東京都品川区大井1丁目7番9号","lat":35.6069579,"lon":139.73288},{"name":"青物横丁駅駐輪場","province":"東京都","city":"品川区","address":"東京都品川区南品川2丁目4番","lat":35.610308,"lon":139.7424635},{"name":"立会川駅駐輪場","province":"東京都","city":"品川区","address":"東京都品川区南大井1丁目3番1号","lat":35.5977345,"lon":139.7387794},{"name":"東急中延駅駐輪場","province":"東京都","city":"品川区","address":"東京都品川区中延4丁目5番5号","lat":35.6058244,"lon":139.7131038},{"name":"荏原中延駅駐輪場","province":"東京都","city":"品川区","address":"東京都品川区中延2丁目9番","lat":35.6103396,"lon":139.7106984},{"name":"大井町サービスコーナー","province":"東京都","city":"品川区","address":"東京都品川区大井1-2-12","lat":35.6063113,"lon":139.7347525},{"name":"大井町サイクルパーキング","province":"東京都","city":"品川区","address":"東京都品川区東大井5-1","lat":35.6082895,"lon":139.7359832},{"name":"JR東急目黒ビル","province":"東京都","city":"品川区","address":"東京都品川区上大崎4-2-1","lat":35.6330805,"lon":139.715571},{"name":"武蔵小山サービスコーナー","province":"東京都","city":"品川区","address":"東京都品川区小山3-27-5","lat":35.6197658,"lon":139.7033658},{"name":"シティコート目黒","province":"東京都","city":"品川区","address":"東京都品川区上大崎2-10-34","lat":35.635528,"lon":139.7167063},{"name":"荏原区民センター","province":"東京都","city":"品川区","address":"東京都品川区荏原5-6-5","lat":35.6145639,"lon":139.7021029},{"name":"北品川ホームズ","province":"東京都","city":"品川区","address":"東京都品川区北品川5-8-15","lat":35.6196588,"lon":139.7325397},{"name":"睦交通","province":"東京都","city":"品川区","address":"東京都品川区南大井5-10-12","lat":35.5971173,"lon":139.7352232},{"name":"荏原町商店街会館","province":"東京都","city":"品川区","address":"東京都品川区中延5-6-16","lat":35.6028693,"lon":139.7083071},{"name":"戸越銀座銀六商店街","province":"東京都","city":"品川区","address":"東京都品川区豊町1-4-16","lat":35.6143983,"lon":139.7221892},{"name":"サポしながわ","province":"東京都","city":"品川区","address":"東京都品川区西品川1-28-3品川区立中小企業センター1階","lat":35.6092107,"lon":139.7278737},{"name":"武蔵小山駅前公衆便所","province":"東京都","city":"品川区","address":"東京都品川区小山3-4-5","lat":35.620543,"lon":139.70459},{"name":"新馬場北公衆便所","province":"東京都","city":"品川区","address":"東京都品川区北品川2-18-1","lat":35.617548,"lon":139.741362},{"name":"西大井公衆便所","province":"東京都","city":"品川区","address":"東京都品川区西大井1-3-2","lat":35.601655,"lon":139.721789},{"name":"大井町駅東口公衆便所","province":"東京都","city":"品川区","address":"東京都品川区東大井5-20-1","lat":35.605721,"lon":139.7353381},{"name":"不動前公衆便所","province":"東京都","city":"品川区","address":"東京都品川区西五反田5-1","lat":35.626351,"lon":139.7149692},{"name":"谷山公園公衆便所","province":"東京都","city":"品川区","address":"東京都品川区西五反田3-6-15","lat":35.627771,"lon":139.718572},{"name":"東急ストア","province":"東京都","city":"品川区","address":"東京都品川区東五反田2-1-2","lat":35.625574,"lon":139.724544},{"name":"桐ヶ谷斎場","province":"東京都","city":"品川区","address":"東京都品川区西五反田5-32-20","lat":35.622418,"lon":139.713656},{"name":"イトーヨーカドー 大井町店","province":"東京都","city":"品川区","address":"東京都品川区大井1-3-6","lat":35.607212,"lon":139.733911},{"name":"阪急大井町","province":"東京都","city":"品川区","address":"東京都品川区大井1-50-7","lat":35.60559,"lon":139.734252},{"name":"アトレ大井町","province":"東京都","city":"品川区","address":"東京都品川区大井1-2-1","lat":35.6061548,"lon":139.7347307},{"name":"大崎ニューシティ","province":"東京都","city":"品川区","address":"東京都品川区大崎1-6-4","lat":35.620363,"lon":139.728974},{"name":"ゲートシティ大崎","province":"東京都","city":"品川区","address":"東京都品川区大崎1-11-1","lat":35.619475,"lon":139.73076},{"name":"ゆうぽうと","province":"東京都","city":"品川区","address":"東京都品川区西五反田8-4-13","lat":35.62251,"lon":139.722011},{"name":"ＴＯＣビル","province":"東京都","city":"品川区","address":"東京都品川区西五反田7-22-17","lat":35.622146,"lon":139.718811},{"name":"ヒルトップガーデン","province":"東京都","city":"品川区","address":"東京都品川区上大崎2-16-9","lat":35.6340202,"lon":139.7158876},{"name":"アトレ目黒","province":"東京都","city":"品川区","address":"東京都品川区上大崎3-1-1","lat":35.633106,"lon":139.715881},{"name":"ジャスコ品川シーサイド店","province":"東京都","city":"品川区","address":"東京都品川区東品川4-12-5","lat":35.610916,"lon":139.7491529},{"name":"ダイエー","province":"東京都","city":"品川区","address":"東京都品川区八潮5-5-3","lat":35.599733,"lon":139.750118},{"name":"西友","province":"東京都","city":"品川区","address":"東京都品川区南大井6-27-25","lat":35.588528,"lon":139.730412},{"name":"アワーズイン阪急","province":"東京都","city":"品川区","address":"東京都品川区大井1-50-5","lat":35.605793,"lon":139.733608},{"name":"第一ホテル東京シーフォート","province":"東京都","city":"品川区","address":"東京都品川区東品川2-3-15","lat":35.62443,"lon":139.7512501},{"name":"御殿山ヒルズ ホテルラフォーレ東京","province":"東京都","city":"品川区","address":"東京都品川区北品川4-7-36","lat":35.621438,"lon":139.737207},{"name":"東横イン南品川青物横丁駅","province":"東京都","city":"品川区","address":"東京都品川区南品川3-1-1","lat":35.607571,"lon":139.7431741},{"name":"環境情報活動センター","province":"東京都","city":"品川区","address":"東京都品川区広町2-1-36","lat":35.6083574,"lon":139.7300388},{"name":"大井コンテナふ頭","province":"東京都","city":"品川区","address":"東京都品川区八潮2丁目","lat":35.59506725,"lon":139.76759209},{"name":"大井ふ頭中央海浜公園","province":"東京都","city":"品川区","address":"東京都品川区八潮4丁目","lat":35.59273644,"lon":139.75297102},{"name":"東海橋","province":"東京都","city":"品川区","address":"東京都品川区北品川3丁目","lat":35.61868541,"lon":139.73912927},{"name":"勝島１丁目","province":"東京都","city":"品川区","address":"東京都品川区勝島","lat":35.5980771,"lon":139.74558239},{"name":"品川区防災センター","province":"東京都","city":"品川区","address":"東京都品川区広町2丁目1-36","lat":35.60881128,"lon":139.73028866},{"name":"品川ふ頭","province":"東京都","city":"品川区","address":"東京都品川区東品川5丁目","lat":35.62216053,"lon":139.75607776},{"name":"品川区本庁舎","province":"東京都","city":"品川区","address":"品川区広町2-1-36","lat":35.608837,"lon":139.730242},{"name":"第二建設事務所","province":"東京都","city":"品川区","address":"品川区広町2-1-36","lat":35.608837,"lon":139.730242},{"name":"第六機動隊","province":"東京都","city":"品川区","address":"品川区勝島1-3-18","lat":35.5987,"lon":139.7446},{"name":"第二方面本部","province":"東京都","city":"品川区","address":"品川区勝島1-3-12","lat":35.59853,"lon":139.7449},{"name":"荏原警察署","province":"東京都","city":"品川区","address":"品川区荏原6-19-10","lat":35.61205,"lon":139.7062},{"name":"大井警察署","province":"東京都","city":"品川区","address":"品川区大井5-10-2","lat":35.59883,"lon":139.7298},{"name":"大崎警察署","province":"東京都","city":"品川区","address":"品川区大崎4-2-10","lat":35.62179,"lon":139.7241},{"name":"荏原消防署","province":"東京都","city":"品川区","address":"品川区平塚3-16-20","lat":35.61459,"lon":139.7105},{"name":"大井消防署","province":"東京都","city":"品川区","address":"品川区東大井3-6-12","lat":35.60361,"lon":139.7401},{"name":"品川消防署","province":"東京都","city":"品川区","address":"品川区北品川3-7-31","lat":35.61715,"lon":139.7398},{"name":"品川区","province":"東京都","city":"品川区","address":"品川区東中延2-4-2","lat":35.60927,"lon":139.7141},{"name":"東邦薬品（株）ＴＢＣ東京","province":"東京都","city":"品川区","address":"品川区八潮3-2-29エフプラザ東京E棟","lat":35.59926,"lon":139.7599},{"name":"都立大井ふ頭中央海浜公園陸上競技場","province":"東京都","city":"品川区","address":"品川区八潮4丁目地内","lat":35.59263,"lon":139.7523},{"name":"品川清掃工場","province":"東京都","city":"品川区","address":"品川区八潮1-4-1","lat":35.60794,"lon":139.7532},{"name":"品川区立西大井広場公園","province":"東京都","city":"品川区","address":"品川区西大井1-4-10","lat":35.60183,"lon":139.723},{"name":"東京電力（株）品川支社","province":"東京都","city":"品川区","address":"品川区西五反田5-3-1","lat":35.62566,"lon":139.7168},{"name":"品川ふ頭","province":"東京都","city":"品川区","address":"東京都品川区東品川5丁目","lat":35.62216053,"lon":139.75607776},{"name":"日本貨物鉄道（株）東京貨物ターミナル駅","province":"東京都","city":"品川区","address":"東京都品川区","lat":35.60890571,"lon":139.73030809},{"name":"大井ＰＡ（西行）","province":"東京都","city":"品川区","address":"東京都品川区","lat":35.60890571,"lon":139.73030809},{"name":"大井ＰＡ（東行）","province":"東京都","city":"品川区","address":"東京都品川区","lat":35.60890571,"lon":139.73030809},{"name":"品川自動車営業所","province":"東京都","city":"品川区","address":"東京都品川区北品川1丁目5-12","lat":35.62329323,"lon":139.74073729},{"name":"桐ヶ谷斎場","province":"東京都","city":"品川区","address":"東京都品川区西五反田5丁目32-20","lat":35.62232046,"lon":139.71367573},{"name":"TOCビル","province":"東京都","city":"品川区","address":"東京都品川区西五反田7-22-17","lat":35.622146,"lon":139.718811,"備考":"東京都品川区西五反田7-22-17","経度":"139.718811","緯度":"35.622146"},{"name":"春光福祉会 特別養護老人ホーム「ロイヤルサニー」","province":"東京都","city":"品川区","address":"東京都品川区西大井2丁目4-4","lat":35.5999621,"lon":139.7224704,"経度":"139.7224704","緯度":"35.5999621"},{"name":"品川区","province":"東京都","city":"品川区","address":"品川区広町2-1-36","lat":35.6088372,"lon":139.7302417},{"name":"大井ふ頭中央海浜公園ホッケー競技場","province":"東京都","city":"品川区","address":"東京都品川区八潮4丁目1","lat":35.593097,"lon":139.752977},{"name":"大井ふ頭中央海浜公園ホッケー競技場","province":"東京都","city":"品川区","address":"東京都品川区八潮4丁目1-19","lat":35.592905,"lon":139.753081},{"name":"大井ふ頭中央海浜公園ホッケー競技場","province":"東京都","city":"品川区","address":"東京都品川区八潮4丁目1-19","lat":35.592375,"lon":139.753054},{"name":"大井ふ頭中央海浜公園ホッケー競技場","province":"東京都","city":"品川区","address":"東京都品川区八潮4丁目1-19","lat":35.592936,"lon":139.752967},{"name":"大井ふ頭中央海浜公園ホッケー競技場","province":"東京都","city":"品川区","address":"東京都品川区八潮4丁目1-19","lat":35.592753,"lon":139.752992},{"name":"大井ふ頭中央海浜公園ホッケー競技場","province":"東京都","city":"品川区","address":"東京都品川区八潮4丁目1-19","lat":35.59232,"lon":139.752941},{"name":"大井ふ頭中央海浜公園ホッケー競技場","province":"東京都","city":"品川区","address":"東京都品川区八潮4丁目1-19","lat":35.592858,"lon":139.752971},{"name":"大井ふ頭中央海浜公園ホッケー競技場","province":"東京都","city":"品川区","address":"東京都品川区八潮4丁目1-19","lat":35.592517,"lon":139.752992},{"name":"大井ふ頭中央海浜公園ホッケー競技場","province":"東京都","city":"品川区","address":"東京都品川区八潮4丁目1-19","lat":35.592405,"lon":139.752932},{"name":"城南職業能力開発センター","province":"東京都","city":"品川区","address":"東京都品川区東品川3丁目31-16","lat":35.612024,"lon":139.749757},{"name":"城南職業能力開発センター","province":"東京都","city":"品川区","address":"東京都品川区東品川3丁目31-16","lat":35.611975,"lon":139.749888},{"name":"東京都南部労政会館","province":"東京都","city":"品川区","address":"東京都品川区大崎1丁目11-1","lat":35.619552,"lon":139.730812},{"name":"林試の森公園","province":"東京都","city":"品川区","address":"東京都品川区小山台2丁目6","lat":35.624441,"lon":139.701575},{"name":"林試の森公園","province":"東京都","city":"品川区","address":"東京都品川区小山台2丁目6","lat":35.625275,"lon":139.701365},{"name":"林試の森公園","province":"東京都","city":"品川区","address":"東京都品川区小山台2丁目7","lat":35.624621,"lon":139.702704},{"name":"潮風公園","province":"東京都","city":"品川区","address":"東京都品川区東八潮1-2","lat":35.62379,"lon":139.769918},{"name":"潮風公園","province":"東京都","city":"品川区","address":"東京都品川区東八潮2","lat":35.620596,"lon":139.769884},{"name":"潮風公園","province":"東京都","city":"品川区","address":"東京都品川区東八潮1","lat":35.623319,"lon":139.768649},{"name":"潮風公園","province":"東京都","city":"品川区","address":"東京都品川区東八潮1","lat":35.623259,"lon":139.76865},{"name":"大井中央海浜公園","province":"東京都","city":"品川区","address":"東京都品川区八潮4丁目1-19","lat":35.592579,"lon":139.752229},{"name":"大井中央海浜公園","province":"東京都","city":"品川区","address":"東京都品川区八潮4丁目2","lat":35.593922,"lon":139.750581},{"name":"大井中央海浜公園","province":"東京都","city":"品川区","address":"東京都品川区八潮4丁目1","lat":35.59061,"lon":139.752343},{"name":"大井中央海浜公園","province":"東京都","city":"品川区","address":"東京都品川区八潮4丁目1","lat":35.594199,"lon":139.753134},{"name":"大井中央海浜公園","province":"東京都","city":"品川区","address":"東京都品川区八潮4丁目1","lat":35.594286,"lon":139.753141},{"name":"大井中央海浜公園","province":"東京都","city":"品川区","address":"東京都品川区八潮4丁目1-19","lat":35.592469,"lon":139.752221},{"name":"みなとが丘ふ頭公園","province":"東京都","city":"品川区","address":"東京都品川区八潮3丁目1","lat":35.595574,"lon":139.76418},{"name":"京浜運河緑道公園","province":"東京都","city":"品川区","address":"東京都品川区八潮5丁目3","lat":35.595892,"lon":139.748995},{"name":"京浜運河緑道公園","province":"東京都","city":"品川区","address":"東京都品川区八潮1丁目4","lat":35.605772,"lon":139.752283},{"name":"大井ふ頭緑道公園","province":"東京都","city":"品川区","address":"東京都品川区八潮5丁目","lat":35.595876,"lon":139.754506},{"name":"都営浅草線中延駅","province":"東京都","city":"品川区","address":"東京都品川区豊町6丁目24","lat":35.604859,"lon":139.713557},{"name":"都営浅草線戸越駅","province":"東京都","city":"品川区","address":"東京都品川区戸越3丁目1","lat":35.614727,"lon":139.716501},{"name":"都営浅草線五反田駅","province":"東京都","city":"品川区","address":"東京都品川区東五反田5丁目25","lat":35.627258,"lon":139.724392},{"name":"東京都水道局品川営業所","province":"東京都","city":"品川区","address":"東京都品川区西中延1丁目9-10","lat":35.611613,"lon":139.70788},{"name":"品川消防署東品川出張所","province":"東京都","city":"品川区","address":"東京都品川区東品川3丁目25-11","lat":35.612932,"lon":139.747264},{"name":"八潮児童センター","province":"東京都","city":"品川区","address":"東京都品川区八潮5丁目10-27","lat":35.59988,"lon":139.751483},{"name":"中小企業センター","province":"東京都","city":"品川区","address":"東京都品川区西品川1丁目28-3","lat":35.60932,"lon":139.727666},{"name":"品川第一地域センタービル","province":"東京都","city":"品川区","address":"東京都品川区北品川3丁目11-16","lat":35.61661,"lon":139.74},{"name":"品川第二地域センター","province":"東京都","city":"品川区","address":"東京都品川区南品川5丁目3-20","lat":35.61132,"lon":139.741236},{"name":"大崎第一地域センター","province":"東京都","city":"品川区","address":"東京都品川区西五反田3丁目6-3","lat":35.628,"lon":139.716543},{"name":"大崎第二地域センター","province":"東京都","city":"品川区","address":"東京都品川区大崎2丁目9-4","lat":35.61694,"lon":139.727615},{"name":"大井第二地域センター","province":"東京都","city":"品川区","address":"東京都品川区大井2丁目27-20","lat":35.60404,"lon":139.730383},{"name":"大井第三地域交流センター","province":"東京都","city":"品川区","address":"東京都品川区西大井2丁目10","lat":35.598668,"lon":139.72212},{"name":"荏原第一地域センター","province":"東京都","city":"品川区","address":"東京都品川区小山3丁目14-1","lat":35.62113,"lon":139.70607},{"name":"荏原第二地域センター","province":"東京都","city":"品川区","address":"東京都品川区荏原6丁目17-12","lat":35.611024,"lon":139.704397},{"name":"荏原第三地域センター","province":"東京都","city":"品川区","address":"東京都品川区平塚1丁目13-18","lat":35.61339,"lon":139.715366},{"name":"荏原第四地域センター","province":"東京都","city":"品川区","address":"東京都品川区中延5丁目3-12","lat":35.60383,"lon":139.708356},{"name":"荏原第五地域センター","province":"東京都","city":"品川区","address":"東京都品川区二葉1丁目1-2","lat":35.60811,"lon":139.725765},{"name":"八潮地域センター","province":"東京都","city":"品川区","address":"東京都品川区八潮5丁目10-27","lat":35.600206,"lon":139.751392},{"name":"八潮地域センター","province":"東京都","city":"品川区","address":"東京都品川区八潮5丁目10-27","lat":35.600211,"lon":139.751371},{"name":"品川区役所議会棟","province":"東京都","city":"品川区","address":"東京都品川区広町2丁目1-36","lat":35.609184,"lon":139.730207},{"name":"品川区役所本庁舎","province":"東京都","city":"品川区","address":"東京都品川区広町2丁目1-36","lat":35.609205,"lon":139.730225},{"name":"品川区役所第二庁舎","province":"東京都","city":"品川区","address":"東京都品川区広町2丁目1-36","lat":35.609734,"lon":139.73032},{"name":"品川区役所第二庁舎","province":"東京都","city":"品川区","address":"東京都品川区広町2丁目1-36","lat":35.609715,"lon":139.730333},{"name":"品川区役所第二庁舎","province":"東京都","city":"品川区","address":"東京都品川区広町2丁目1-36","lat":35.60971,"lon":139.730259},{"name":"品川区役所第三庁舎","province":"東京都","city":"品川区","address":"東京都品川区広町2丁目1-36","lat":35.608371,"lon":139.729994},{"name":"大崎第一区民集会所(第五・六集会室)","province":"東京都","city":"品川区","address":"東京都品川区西五反田3丁目6-38","lat":35.62721,"lon":139.718108},{"name":"荏原区民センター","province":"東京都","city":"品川区","address":"東京都品川区荏原5丁目6-5","lat":35.614522,"lon":139.702143},{"name":"東大井区民集会所","province":"東京都","city":"品川区","address":"東京都品川区東大井2丁目16-12","lat":35.60051,"lon":139.741529},{"name":"東大井区民集会所","province":"東京都","city":"品川区","address":"東京都品川区東大井2丁目16-12","lat":35.6005,"lon":139.741539},{"name":"ウェルカムセンター原・交流施設","province":"東京都","city":"品川区","address":"東京都品川区西大井2丁目5-21","lat":35.5991,"lon":139.721384},{"name":"荏原文化センター","province":"東京都","city":"品川区","address":"東京都品川区中延1丁目9-15","lat":35.612232,"lon":139.710724},{"name":"品川区立荏原平塚総合区民会館","province":"東京都","city":"品川区","address":"東京都品川区荏原4丁目5-28","lat":35.615449,"lon":139.707523},{"name":"品川区立荏原平塚総合区民会館","province":"東京都","city":"品川区","address":"東京都品川区荏原4丁目5-28","lat":35.615386,"lon":139.707971},{"name":"品川区立荏原平塚総合区民会館","province":"東京都","city":"品川区","address":"東京都品川区荏原4丁目5-28","lat":35.615661,"lon":139.707422},{"name":"品川区立荏原平塚総合区民会館","province":"東京都","city":"品川区","address":"東京都品川区荏原4丁目5-28","lat":35.615259,"lon":139.707412},{"name":"品川区立荏原平塚総合区民会館","province":"東京都","city":"品川区","address":"東京都品川区荏原4丁目5-28","lat":35.615584,"lon":139.707278},{"name":"品川区立荏原平塚総合区民会館","province":"東京都","city":"品川区","address":"東京都品川区荏原4丁目5-28","lat":35.615155,"lon":139.707548},{"name":"品川区立荏原平塚総合区民会館","province":"東京都","city":"品川区","address":"東京都品川区荏原4丁目5-28","lat":35.615155,"lon":139.707547},{"name":"南大井文化センター","province":"東京都","city":"品川区","address":"東京都品川区南大井1丁目12-6","lat":35.596304,"lon":139.737548},{"name":"五反田文化センター","province":"東京都","city":"品川区","address":"東京都品川区西五反田6丁目5-1","lat":35.622476,"lon":139.71653},{"name":"五反田文化センター","province":"東京都","city":"品川区","address":"東京都品川区西五反田6丁目5-1","lat":35.622537,"lon":139.716441},{"name":"きゅりあん品川区立総合区民会館","province":"東京都","city":"品川区","address":"東京都品川区東大井5丁目18-1","lat":35.606043,"lon":139.736202},{"name":"こみゅにてぃぷらざ八潮","province":"東京都","city":"品川区","address":"東京都品川区八潮5丁目9-11","lat":35.597726,"lon":139.752531},{"name":"東品川文化センター","province":"東京都","city":"品川区","address":"東京都品川区東品川3丁目32-11","lat":35.61291,"lon":139.750609},{"name":"品川保健センター","province":"東京都","city":"品川区","address":"東京都品川区北品川3丁目11-22","lat":35.61655,"lon":139.74067},{"name":"大井保健センター","province":"東京都","city":"品川区","address":"東京都品川区大井2丁目27-20","lat":35.60406,"lon":139.730367},{"name":"品川区立品川図書館","province":"東京都","city":"品川区","address":"東京都品川区北品川2丁目32-3","lat":35.616842,"lon":139.742501},{"name":"品川区立品川図書館","province":"東京都","city":"品川区","address":"東京都品川区北品川2丁目32-3","lat":35.616923,"lon":139.742567},{"name":"品川区立荏原図書館","province":"東京都","city":"品川区","address":"東京都品川区中延1丁目9-15","lat":35.61224,"lon":139.710379},{"name":"品川区立ゆたか図書館","province":"東京都","city":"品川区","address":"東京都品川区豊町1丁目17-7","lat":35.6116,"lon":139.722359},{"name":"品川区立大井図書館","province":"東京都","city":"品川区","address":"東京都品川区大井5丁目19-14","lat":35.59826,"lon":139.729171},{"name":"品川区立八潮図書館","province":"東京都","city":"品川区","address":"東京都品川区八潮5丁目10-27","lat":35.59987,"lon":139.751456},{"name":"品川区立五反田図書館","province":"東京都","city":"品川区","address":"東京都品川区西五反田6丁目5-1","lat":35.62267,"lon":139.716473},{"name":"品川区立大崎図書館","province":"東京都","city":"品川区","address":"東京都品川区北品川5丁目2-1","lat":35.62342,"lon":139.731753},{"name":"品川区立二葉図書館","province":"東京都","city":"品川区","address":"東京都品川区二葉1丁目4-25","lat":35.608,"lon":139.726688},{"name":"品川区立大崎図書館分館","province":"東京都","city":"品川区","address":"東京都品川区大崎3丁目11","lat":35.618742,"lon":139.72379},{"name":"荏原中央公園","province":"東京都","city":"品川区","address":"東京都品川区荏原5丁目1","lat":35.615956,"lon":139.704132},{"name":"豊町公園","province":"東京都","city":"品川区","address":"東京都品川区豊町6丁目16","lat":35.604627,"lon":139.716338},{"name":"洲崎公園","province":"東京都","city":"品川区","address":"東京都品川区東品川1丁目36","lat":35.618023,"lon":139.746511},{"name":"八潮公園","province":"東京都","city":"品川区","address":"東京都品川区八潮5丁目10-55","lat":35.599563,"lon":139.753395},{"name":"二葉公園","province":"東京都","city":"品川区","address":"東京都品川区二葉4丁目13","lat":35.603761,"lon":139.718218},{"name":"西品川公園","province":"東京都","city":"品川区","address":"東京都品川区西品川1丁目8","lat":35.6126,"lon":139.730977},{"name":"鈴ヶ森公園","province":"東京都","city":"品川区","address":"東京都品川区南大井4丁目19-3","lat":35.593263,"lon":139.734644},{"name":"大井水神公園","province":"東京都","city":"品川区","address":"東京都品川区南大井5丁目16","lat":35.59549,"lon":139.732655},{"name":"西大井広場公園","province":"東京都","city":"品川区","address":"東京都品川区西大井1丁目4","lat":35.601975,"lon":139.723817},{"name":"西大井広場公園","province":"東京都","city":"品川区","address":"東京都品川区西大井1丁目4","lat":35.602564,"lon":139.723847},{"name":"浜川公園","province":"東京都","city":"品川区","address":"東京都品川区南大井4丁目8","lat":35.596899,"lon":139.735359},{"name":"しながわ区民公園","province":"東京都","city":"品川区","address":"東京都品川区南大井2丁目3","lat":35.593498,"lon":139.737902},{"name":"しながわ区民公園","province":"東京都","city":"品川区","address":"東京都品川区勝島3丁目2","lat":35.593972,"lon":139.739885},{"name":"しながわ区民公園","province":"東京都","city":"品川区","address":"東京都品川区勝島3丁目2","lat":35.592883,"lon":139.7391},{"name":"しながわ区民公園","province":"東京都","city":"品川区","address":"東京都品川区勝島3丁目2","lat":35.590379,"lon":139.737169},{"name":"しながわ区民公園","province":"東京都","city":"品川区","address":"東京都品川区勝島3丁目2","lat":35.588704,"lon":139.738544},{"name":"わかくさ公園","province":"東京都","city":"品川区","address":"東京都品川区勝島1丁目6","lat":35.597996,"lon":139.743768},{"name":"天王洲公園","province":"東京都","city":"品川区","address":"東京都品川区東品川2丁目6-23","lat":35.619425,"lon":139.750207},{"name":"天王洲公園","province":"東京都","city":"品川区","address":"東京都品川区東品川2丁目5","lat":35.620478,"lon":139.749307},{"name":"しおじ公園","province":"東京都","city":"品川区","address":"東京都品川区八潮5丁目6-39","lat":35.596674,"lon":139.750731},{"name":"谷山公園","province":"東京都","city":"品川区","address":"東京都品川区西五反田3丁目6","lat":35.627766,"lon":139.718554},{"name":"大崎西口公園","province":"東京都","city":"品川区","address":"東京都品川区大崎2丁目10","lat":35.617594,"lon":139.728966},{"name":"鮫洲入江広場","province":"東京都","city":"品川区","address":"東京都品川区東大井1丁目13","lat":35.603246,"lon":139.743743},{"name":"品川シーサイド公園","province":"東京都","city":"品川区","address":"東京都品川区東品川4丁目12","lat":35.607567,"lon":139.749138},{"name":"東品川海上公園","province":"東京都","city":"品川区","address":"東京都品川区東品川3丁目9","lat":35.617143,"lon":139.749388},{"name":"天王洲アイル第一公園","province":"東京都","city":"品川区","address":"東京都品川区東品川2丁目3-16","lat":35.623494,"lon":139.751298},{"name":"しながわ中央公園","province":"東京都","city":"品川区","address":"東京都品川区西品川1丁目27","lat":35.609408,"lon":139.728837},{"name":"しながわ中央公園","province":"東京都","city":"品川区","address":"東京都品川区西品川1丁目28","lat":35.608965,"lon":139.72738},{"name":"八潮北公園","province":"東京都","city":"品川区","address":"東京都品川区八潮1丁目3-1","lat":35.612505,"lon":139.753769},{"name":"大森貝塚遺跡庭園","province":"東京都","city":"品川区","address":"東京都品川区大井6丁目21","lat":35.593354,"lon":139.729948},{"name":"品川浦公園","province":"東京都","city":"品川区","address":"東京都品川区東品川1丁目7","lat":35.621148,"lon":139.74212},{"name":"かむろ坂公園","province":"東京都","city":"品川区","address":"東京都品川区西五反田4丁目28","lat":35.625203,"lon":139.711604},{"name":"品海公園","province":"東京都","city":"品川区","address":"東京都品川区北品川1丁目30","lat":35.620037,"lon":139.742194},{"name":"品川南ふ頭公園","province":"東京都","city":"品川区","address":"東京都品川区東品川5丁目8","lat":35.621988,"lon":139.754866},{"name":"荏原南公園","province":"東京都","city":"品川区","address":"東京都品川区荏原6丁目15","lat":35.611767,"lon":139.703017},{"name":"東品川公園","province":"東京都","city":"品川区","address":"東京都品川区東品川3丁目14","lat":35.614952,"lon":139.746533},{"name":"鮫洲運動公園","province":"東京都","city":"品川区","address":"東京都品川区東大井1丁目4","lat":35.606564,"lon":139.744786},{"name":"鮫洲運動公園","province":"東京都","city":"品川区","address":"東京都品川区東大井1丁目4","lat":35.605924,"lon":139.745038},{"name":"ひらさん広場","province":"東京都","city":"品川区","address":"東京都品川区平塚3丁目9","lat":35.614026,"lon":139.712639},{"name":"五反田ふれあい水辺広場","province":"東京都","city":"品川区","address":"東京都品川区東五反田2丁目9","lat":35.624186,"lon":139.726396},{"name":"文庫の森","province":"東京都","city":"品川区","address":"東京都品川区豊町1丁目16","lat":35.611366,"lon":139.720625},{"name":"京陽公園","province":"東京都","city":"品川区","address":"東京都品川区平塚2丁目12","lat":35.616767,"lon":139.71323},{"name":"上神明児童遊園","province":"東京都","city":"品川区","address":"東京都品川区二葉4丁目26","lat":35.602244,"lon":139.714196},{"name":"小山台東公園","province":"東京都","city":"品川区","address":"東京都品川区小山台1丁目26","lat":35.62228,"lon":139.706355},{"name":"大井中央公園","province":"東京都","city":"品川区","address":"東京都品川区大井1丁目46","lat":35.604643,"lon":139.732225},{"name":"台場浦公園","province":"東京都","city":"品川区","address":"東京都品川区東品川1丁目8","lat":35.621538,"lon":139.742958},{"name":"峰原公園","province":"東京都","city":"品川区","address":"東京都品川区大崎3丁目17","lat":35.617991,"lon":139.721141},{"name":"武蔵小山駅前公衆便所","province":"東京都","city":"品川区","address":"東京都品川区小山3丁目27","lat":35.620049,"lon":139.703545},{"name":"新馬場北公衆便所","province":"東京都","city":"品川区","address":"東京都品川区北品川2丁目18-1","lat":35.617719,"lon":139.741363},{"name":"不動前公衆便所","province":"東京都","city":"品川区","address":"東京都品川区西五反田5丁目1","lat":35.625951,"lon":139.714184},{"name":"大井町駅東口公衆便所","province":"東京都","city":"品川区","address":"東京都品川区大井1丁目2","lat":35.606838,"lon":139.735183},{"name":"西大井公衆便所","province":"東京都","city":"品川区","address":"東京都品川区西大井1丁目3-2","lat":35.60165,"lon":139.721787},{"name":"三十五橋公衆便所","province":"東京都","city":"品川区","address":"東京都品川区中延5丁目14","lat":35.602349,"lon":139.709006},{"name":"西小山駅前公衆便所","province":"東京都","city":"品川区","address":"東京都品川区小山6丁目2","lat":35.615125,"lon":139.698398},{"name":"新品川橋公衆便所","province":"東京都","city":"品川区","address":"東京都品川区東品川3丁目1","lat":35.616939,"lon":139.745334},{"name":"南大井公衆便所","province":"東京都","city":"品川区","address":"東京都品川区南大井1丁目22","lat":35.594707,"lon":139.73663},{"name":"大井水神南公衆便所","province":"東京都","city":"品川区","address":"東京都品川区南大井6丁目15-11","lat":35.589779,"lon":139.729263},{"name":"荏原町駅前公衆便所","province":"東京都","city":"品川区","address":"東京都品川区中延5丁目2","lat":35.603793,"lon":139.708155},{"name":"荏原中延公衆便所","province":"東京都","city":"品川区","address":"東京都品川区東中延1丁目9","lat":35.609693,"lon":139.71185},{"name":"八ツ山の東司","province":"東京都","city":"品川区","address":"東京都品川区北品川1丁目3","lat":35.623759,"lon":139.739138},{"name":"新浜川橋北公衆便所","province":"東京都","city":"品川区","address":"東京都品川区南大井1丁目6","lat":35.596405,"lon":139.740942},{"name":"大井町駅前公衆便所","province":"東京都","city":"品川区","address":"東京都品川区大井1丁目2","lat":35.60565,"lon":139.734733},{"name":"新馬場南公衆便所","province":"東京都","city":"品川区","address":"東京都品川区南品川1丁目1","lat":35.614687,"lon":139.74191},{"name":"青物横丁公衆便所","province":"東京都","city":"品川区","address":"東京都品川区南品川2丁目5","lat":35.610097,"lon":139.742777},{"name":"大崎橋公衆便所","province":"東京都","city":"品川区","address":"東京都品川区西五反田1丁目10","lat":35.624599,"lon":139.724257},{"name":"品川区立大崎高齢者多世代交流支援施設(呼称：大崎ゆうゆうプラザ)","province":"東京都","city":"品川区","address":"東京都品川区大崎2丁目7-13","lat":35.6168,"lon":139.725836},{"name":"品川区立平塚橋高齢者多世代交流支援施設(呼称：平塚橋ゆうゆうプラザ)","province":"東京都","city":"品川区","address":"東京都品川区西中延1丁目2-8","lat":35.61428,"lon":139.709987},{"name":"南ゆたか児童センター","province":"東京都","city":"品川区","address":"東京都品川区豊町4丁目17-21","lat":35.606509,"lon":139.720918},{"name":"品川区立なぎさ会館","province":"東京都","city":"品川区","address":"東京都品川区勝島3丁目1-3","lat":35.59631,"lon":139.741776},{"name":"品川区立総合体育館","province":"東京都","city":"品川区","address":"東京都品川区東五反田2丁目11-1","lat":35.6245,"lon":139.728523},{"name":"品川区立総合体育館","province":"東京都","city":"品川区","address":"東京都品川区東五反田2丁目11-1","lat":35.62462,"lon":139.72846},{"name":"品川区立総合体育館","province":"東京都","city":"品川区","address":"東京都品川区東五反田2丁目11-1","lat":35.62453,"lon":139.728195},{"name":"品川区立戸越体育館","province":"東京都","city":"品川区","address":"東京都品川区豊町2丁目1-17","lat":35.61099,"lon":139.720543},{"name":"品川区清掃事務所","province":"東京都","city":"品川区","address":"東京都品川区大崎1丁目14-1","lat":35.61842,"lon":139.733304},{"name":"品川区立心身障害者福祉会館","province":"東京都","city":"品川区","address":"東京都品川区旗の台5丁目2-2","lat":35.60504,"lon":139.700453},{"name":"品川区立心身障害者福祉会館","province":"東京都","city":"品川区","address":"東京都品川区旗の台5丁目2-2","lat":35.60504,"lon":139.700406},{"name":"品川区立心身障害者福祉会館","province":"東京都","city":"品川区","address":"東京都品川区旗の台5丁目2-2","lat":35.60504,"lon":139.70043},{"name":"品川区立平塚高齢者多世代交流支援施設（呼称：平塚ゆうゆうプラザ）","province":"東京都","city":"品川区","address":"東京都品川区平塚2丁目10-20","lat":35.616926,"lon":139.71401},{"name":"品川区立障害児者総合支援施設","province":"東京都","city":"品川区","address":"東京都品川区南品川3丁目7-7","lat":35.607127,"lon":139.744875},{"name":"品川区立障害児者総合支援施設","province":"東京都","city":"品川区","address":"東京都品川区南品川3丁目7-7","lat":35.607199,"lon":139.74508},{"name":"品川区立障害児者総合支援施設","province":"東京都","city":"品川区","address":"東京都品川区南品川3丁目7-7","lat":35.607178,"lon":139.744809},{"name":"品川区立障害児者総合支援施設","province":"東京都","city":"品川区","address":"東京都品川区南品川3丁目7-7","lat":35.607303,"lon":139.744888},{"name":"メイプルカルチャーセンター","province":"東京都","city":"品川区","address":"東京都品川区西大井1丁目4","lat":35.602195,"lon":139.722438},{"name":"ゆたか防災広場","province":"東京都","city":"品川区","address":"東京都品川区豊町6丁目11","lat":35.605585,"lon":139.717701},{"name":"品川区立東品川高齢者多世代交流支援施設（呼称：東品川ゆうゆうプラザ）","province":"東京都","city":"品川区","address":"東京都品川区東品川3丁目32-11","lat":35.613002,"lon":139.750591},{"name":"ファミーユ西品川子ども未来部分室105号室","province":"東京都","city":"品川区","address":"東京都品川区西品川1丁目16-2","lat":35.612145,"lon":139.729911},{"name":"東大井児童センター","province":"東京都","city":"品川区","address":"東京都品川区東大井1丁目22-16","lat":35.603314,"lon":139.741363},{"name":"子ども家庭支援センター","province":"東京都","city":"品川区","address":"東京都品川区二葉1丁目7-15","lat":35.608697,"lon":139.729292},{"name":"武蔵小山図書取次施設","province":"東京都","city":"品川区","address":"東京都品川区小山3丁目22-3","lat":35.619219,"lon":139.705798},{"name":"後地児童センター","province":"東京都","city":"品川区","address":"東京都品川区小山2丁目9-19","lat":35.620618,"lon":139.709179},{"name":"大原児童センター","province":"東京都","city":"品川区","address":"東京都品川区戸越6丁目16-1","lat":35.607348,"lon":139.715397},{"name":"ゆたか児童センター","province":"東京都","city":"品川区","address":"東京都品川区豊町1丁目18-15","lat":35.611498,"lon":139.722742},{"name":"中原児童センター（仮設）","province":"東京都","city":"品川区","address":"東京都品川区西五反田6丁目6-6","lat":35.623204,"lon":139.717292},{"name":"品川区立環境学習交流施設(エコルとごし)","province":"東京都","city":"品川区","address":"東京都品川区豊町2丁目1-30","lat":35.611007,"lon":139.722297},{"name":"品川第一地域センター","province":"東京都","city":"品川区","address":"品川区北品川3-11-16","lat":35.616673,"lon":139.740036},{"name":"台場小学校","province":"東京都","city":"品川区","address":"品川区東品川1-8-30","lat":35.620869,"lon":139.743667},{"name":"三木小学校","province":"東京都","city":"品川区","address":"品川区西品川3-16-28","lat":35.615256,"lon":139.726544},{"name":"大崎第一地域センター","province":"東京都","city":"品川区","address":"品川区西五反田3-6-3","lat":35.627795,"lon":139.716815},{"name":"第一日野小学校","province":"東京都","city":"品川区","address":"品川区西五反田6-5-32","lat":35.622228,"lon":139.716127},{"name":"日野学園","province":"東京都","city":"品川区","address":"品川区東五反田2-11-1","lat":35.62454,"lon":139.72831},{"name":"第三日野小学校","province":"東京都","city":"品川区","address":"品川区上大崎1-19-19","lat":35.632789,"lon":139.723939},{"name":"後地小学校","province":"東京都","city":"品川区","address":"品川区小山2-4-6","lat":35.621519,"lon":139.708452},{"name":"小山小学校","province":"東京都","city":"品川区","address":"品川区小山5-10-6","lat":35.616018,"lon":139.70329},{"name":"大原小学校","province":"東京都","city":"品川区","address":"品川区戸越6-17-3","lat":35.607167,"lon":139.716467},{"name":"大井第一小学校","province":"東京都","city":"品川区","address":"品川区大井6-1-32","lat":35.598644,"lon":139.730919},{"name":"伊藤学園","province":"東京都","city":"品川区","address":"品川区大井5-1-37","lat":35.599873,"lon":139.726009},{"name":"鈴ケ森小学校","province":"東京都","city":"品川区","address":"品川区南大井4-16-2","lat":35.594487,"lon":139.735286},{"name":"大井第二地域センター","province":"東京都","city":"品川区","address":"品川区大井2-27-20","lat":35.604027,"lon":139.730464},{"name":"浅間台小学校","province":"東京都","city":"品川区","address":"品川区南品川6-8-8","lat":35.611462,"lon":139.736584},{"name":"大井第三地域センター","province":"東京都","city":"品川区","address":"品川区西大井4-1-8","lat":35.597669,"lon":139.72108},{"name":"京陽小学校","province":"東京都","city":"品川区","address":"品川区平塚2-19-20","lat":35.330742,"lon":139.337875},{"name":"城南第二小学校","province":"東京都","city":"品川区","address":"品川区東品川3-4-5","lat":35.615644,"lon":139.746083},{"name":"立会小学校","province":"東京都","city":"品川区","address":"品川区東大井4-15-9","lat":35.604432,"lon":139.740166},{"name":"旗台小学校","province":"東京都","city":"品川区","address":"品川区旗の台4-7-11","lat":35.603162,"lon":139.703765},{"name":"豊葉の杜学園","province":"東京都","city":"品川区","address":"品川区二葉1-3-40","lat":35.607037,"lon":139.72556},{"name":"延山小学校","province":"東京都","city":"品川区","address":"品川区西中延2-17-5","lat":35.608779,"lon":139.707882},{"name":"宮前小学校","province":"東京都","city":"品川区","address":"品川区戸越4-5-10","lat":35.611768,"lon":139.718319},{"name":"品川区役所","province":"東京都","city":"品川区","address":"品川区広町2-1-36","lat":35.609181,"lon":139.730167},{"name":"品川区清掃事務所","province":"東京都","city":"品川区","address":"品川区大崎1-14-1","lat":35.618345,"lon":139.733502},{"name":"芳水小学校","province":"東京都","city":"品川区","address":"品川区大崎3-12-22","lat":35.61857,"lon":139.724154},{"name":"伊藤小学校","province":"東京都","city":"品川区","address":"品川区西大井5-6-8","lat":35.598691,"lon":139.717367},{"name":"源氏前小学校","province":"東京都","city":"品川区","address":"品川区中延6-2-18","lat":35.603165,"lon":139.712064},{"name":"小山台小学校","province":"東京都","city":"品川区","address":"品川区小山台1-18-24","lat":35.62276,"lon":139.703466},{"name":"区立戸越公園","province":"東京都","city":"品川区","address":"東京都品川区豊町2-1-30","lat":35.61059,"lon":139.72284},{"name":"区立しおじ公園","province":"東京都","city":"品川区","address":"東京都品川区八潮5-6","lat":35.59629,"lon":139.75039},{"name":"都立八潮高等学校","province":"東京都","city":"品川区","address":"東京都品川区東品川3-27-22","lat":35.611851,"lon":139.74661},{"name":"大井町駅西口区営自転車等駐車場","province":"東京都","city":"品川区","address":"東京都品川区大井1丁目7-9","lat":35.6069477,"lon":139.73276353},{"name":"荏原町駅区営自転車等駐車場","province":"東京都","city":"品川区","address":"東京都品川区中延5丁目1-1","lat":35.60373632,"lon":139.70709906},{"name":"大井町駅東口区営自転車等駐車場","province":"東京都","city":"品川区","address":"東京都品川区東大井5丁目20","lat":35.60593956,"lon":139.7351356},{"name":"大井町駅西口第２区営自転車等駐車場","province":"東京都","city":"品川区","address":"東京都品川区大井4丁目3","lat":35.6043425,"lon":139.73430794},{"name":"大崎駅東口区営自転車等駐車場","province":"東京都","city":"品川区","address":"東京都品川区大崎1丁目4","lat":35.62122922,"lon":139.72766623},{"name":"大崎駅西口区営自転車等駐車場","province":"東京都","city":"品川区","address":"東京都品川区大崎2丁目1-1","lat":35.61837956,"lon":139.72802742},{"name":"天王洲アイル駅第1区営自転車等駐車場","province":"東京都","city":"品川区","address":"東京都品川区東品川2丁目5","lat":35.62087714,"lon":139.74977277},{"name":"品川シーサイド駅区営自転車等駐車場","province":"東京都","city":"品川区","address":"東京都品川区東品川4丁目12","lat":35.61013954,"lon":139.74892049},{"name":"新馬場駅区営自転車等駐車場","province":"東京都","city":"品川区","address":"東京都品川区南品川2丁目9","lat":35.61410271,"lon":139.74211254},{"name":"大井競馬場前駅区営自転車等駐車場","province":"東京都","city":"品川区","address":"東京都品川区勝島1丁目4","lat":35.59839374,"lon":139.74625178},{"name":"五反田駅区営自転車等駐車場","province":"東京都","city":"品川区","address":"東京都品川区西五反田2丁目2","lat":35.62741723,"lon":139.72130823},{"name":"地下鉄中延駅第2区営自転車等駐車場","province":"東京都","city":"品川区","address":"東京都品川区中延4丁目7","lat":35.60468074,"lon":139.71304018},{"name":"地下鉄中延駅第3区営自転車等駐車場","province":"東京都","city":"品川区","address":"東京都品川区豊町6丁目24","lat":35.60496128,"lon":139.71401231},{"name":"地下鉄戸越駅第1区営自転車等駐車場","province":"東京都","city":"品川区","address":"東京都品川区平塚1丁目6","lat":35.61576846,"lon":139.71593684},{"name":"旗の台駅第1区営自転車等駐車場","province":"東京都","city":"品川区","address":"東京都品川区旗の台2丁目6","lat":35.60612214,"lon":139.70458811},{"name":"旗の台駅第2区営自転車等駐車場","province":"東京都","city":"品川区","address":"東京都品川区旗の台2丁目7","lat":35.60603603,"lon":139.70409648},{"name":"大森駅水神口区営自転車等駐車場","province":"東京都","city":"品川区","address":"東京都品川区南大井6丁目15","lat":35.59096903,"lon":139.72973936},{"name":"西大井駅区営自転車等駐車場","province":"東京都","city":"品川区","address":"東京都品川区二葉2丁目26-6","lat":35.60234505,"lon":139.72205061},{"name":"青物横丁駅区営自転車等駐車場","province":"東京都","city":"品川区","address":"東京都品川区南品川2丁目4","lat":35.61029207,"lon":139.74243766},{"name":"立会川駅区営自転車等駐車場","province":"東京都","city":"品川区","address":"東京都品川区南大井1丁目3-1","lat":35.59782961,"lon":139.73858289},{"name":"下神明駅区営自転車等駐車場","province":"東京都","city":"品川区","address":"東京都品川区二葉1丁目1","lat":35.60827784,"lon":139.72551405},{"name":"戸越公園駅第1区営自転車等駐車場","province":"東京都","city":"品川区","address":"東京都品川区戸越5丁目10","lat":35.60913035,"lon":139.71878957},{"name":"戸越公園駅第2区営自転車等駐車場","province":"東京都","city":"品川区","address":"東京都品川区戸越6丁目6","lat":35.60852205,"lon":139.7170925},{"name":"八潮福祉センター前","province":"東京都","city":"品川区","address":"東京都品川区八潮1丁目4-1","lat":35.60946205,"lon":139.75402291},{"name":"北品川二丁目","province":"東京都","city":"品川区","address":"東京都品川区北品川2丁目34-3","lat":35.61659961,"lon":139.74127362},{"name":"北埠頭橋","province":"東京都","city":"品川区","address":"東京都品川区東品川3丁目27-16","lat":35.61165873,"lon":139.74736499},{"name":"東品川三丁目","province":"東京都","city":"品川区","address":"東京都品川区東品川3丁目6-7","lat":35.61553327,"lon":139.74747316},{"name":"八潮橋","province":"東京都","city":"品川区","address":"東京都品川区東品川4丁目11-34","lat":35.607301,"lon":139.74804846},{"name":"南品川五丁目","province":"東京都","city":"品川区","address":"東京都品川区南品川5丁目3-13","lat":35.61132248,"lon":139.74175433},{"name":"新東海橋","province":"東京都","city":"品川区","address":"東京都品川区東品川1丁目32-3","lat":35.62012434,"lon":139.74618419},{"name":"東品川公園入口","province":"東京都","city":"品川区","address":"東京都品川区東品川3丁目15-10","lat":35.61392513,"lon":139.74735102},{"name":"居木橋","province":"東京都","city":"品川区","address":"東京都品川区北品川4丁目10-5","lat":35.61812701,"lon":139.73499073},{"name":"西品川三丁目","province":"東京都","city":"品川区","address":"東京都品川区大崎2丁目10-14","lat":35.61760745,"lon":139.72900236},{"name":"東品川海上公園","province":"東京都","city":"品川区","address":"東京都品川区東品川3丁目32-36","lat":35.61646105,"lon":139.75092286},{"name":"都立高専前","province":"東京都","city":"品川区","address":"東京都品川区東大井1丁目11-25","lat":35.60682891,"lon":139.75000944},{"name":"品川職業技術専門校前","province":"東京都","city":"品川区","address":"東京都品川区東品川3丁目32-3","lat":35.6119477,"lon":139.75048419},{"name":"新八ツ山橋","province":"東京都","city":"品川区","address":"東京都品川区北品川4丁目7","lat":35.62179607,"lon":139.73699321},{"name":"北品川六丁目","province":"東京都","city":"品川区","address":"東京都品川区東五反田3丁目21-5","lat":35.6249733,"lon":139.73137689},{"name":"東海道北品川","province":"東京都","city":"品川区","address":"東京都品川区北品川2丁目24-5","lat":35.61814672,"lon":139.74379558},{"name":"品川図書館前","province":"東京都","city":"品川区","address":"東京都品川区北品川2丁目30","lat":35.6173746,"lon":139.74390116},{"name":"品川シーサイド駅","province":"東京都","city":"品川区","address":"東京都品川区東品川4丁目13-14","lat":35.60853703,"lon":139.75024546},{"name":"新東海橋東","province":"東京都","city":"品川区","address":"東京都品川区東品川2丁目2-28","lat":35.62179923,"lon":139.74896723},{"name":"八潮橋北","province":"東京都","city":"品川区","address":"東京都品川区東品川4丁目12-1","lat":35.60854805,"lon":139.7479262},{"name":"品川区役所前","province":"東京都","city":"品川区","address":"東京都品川区広町2丁目1-36","lat":35.60881128,"lon":139.73028866},{"name":"東品川シルバーセンター前","province":"東京都","city":"品川区","address":"東京都品川区東品川3丁目32-12","lat":35.61330587,"lon":139.75067301},{"name":"百反坂下","province":"東京都","city":"品川区","address":"東京都品川区西品川3丁目21-8","lat":35.61626598,"lon":139.73041617},{"name":"品川区役所前第二","province":"東京都","city":"品川区","address":"東京都品川区西品川1丁目27-14","lat":35.60922229,"lon":139.72882487},{"name":"大井町駅東口","province":"東京都","city":"品川区","address":"東京都品川区東大井5丁目16-5","lat":35.60713943,"lon":139.73552164},{"name":"立会川","province":"東京都","city":"品川区","address":"東京都品川区東大井2丁目23-2","lat":35.59826843,"lon":139.738369},{"name":"大井町駅西口","province":"東京都","city":"品川区","address":"東京都品川区南大井1丁目3-12","lat":35.5969797,"lon":139.73831627},{"name":"ゼームス坂上","province":"東京都","city":"品川区","address":"東京都品川区東大井5丁目15-4","lat":35.60706171,"lon":139.73642713},{"name":"鈴ヶ森","province":"東京都","city":"品川区","address":"東京都品川区南大井3丁目10","lat":35.59062486,"lon":139.73578617},{"name":"大井権現","province":"東京都","city":"品川区","address":"東京都品川区南大井1丁目1-16","lat":35.59775459,"lon":139.73799126},{"name":"西大井二丁目","province":"東京都","city":"品川区","address":"東京都品川区西大井2丁目4-7","lat":35.59992319,"lon":139.72314505},{"name":"大井一丁目","province":"東京都","city":"品川区","address":"東京都品川区大井1丁目37-10","lat":35.6048062,"lon":139.7307693},{"name":"鮫洲試験場前","province":"東京都","city":"品川区","address":"東京都品川区東大井1丁目12-5","lat":35.6038986,"lon":139.74647094},{"name":"品川区役所入口","province":"東京都","city":"品川区","address":"東京都品川区大井1丁目16-2","lat":35.60764196,"lon":139.73016647},{"name":"鈴ヶ森第二","province":"東京都","city":"品川区","address":"東京都品川区南大井2丁目10-6","lat":35.59019161,"lon":139.73658614},{"name":"大井一丁目第二","province":"東京都","city":"品川区","address":"東京都品川区大井1丁目35-3","lat":35.60507011,"lon":139.73187477},{"name":"大井町駅西口第二","province":"東京都","city":"品川区","address":"東京都品川区大井1丁目10-3","lat":35.60745598,"lon":139.73317737},{"name":"ＪＲ大井町駅南","province":"東京都","city":"品川区","address":"東京都品川区大井1丁目50-5","lat":35.60568679,"lon":139.73414401},{"name":"ＪＲ大井町駅前","province":"東京都","city":"品川区","address":"東京都品川区大井1丁目50-5","lat":35.60568679,"lon":139.73414401},{"name":"大井一本橋","province":"東京都","city":"品川区","address":"東京都品川区大井1丁目20-29","lat":35.60706703,"lon":139.73012762},{"name":"きゅりあん裏","province":"東京都","city":"品川区","address":"東京都品川区東大井5丁目23-37","lat":35.60514807,"lon":139.73690493},{"name":"大井鎧橋","province":"東京都","city":"品川区","address":"東京都品川区大井1丁目49-15","lat":35.60605615,"lon":139.73337462},{"name":"ＪＲ大井工場前","province":"東京都","city":"品川区","address":"東京都品川区大井1丁目1","lat":35.60767819,"lon":139.73352455},{"name":"大森駅北口入口","province":"東京都","city":"品川区","address":"東京都品川区南大井6丁目23-1","lat":35.58961922,"lon":139.73039492},{"name":"大井町駅東口第二","province":"東京都","city":"品川区","address":"東京都品川区大井1丁目2","lat":35.60672556,"lon":139.73428286},{"name":"八潮地域センター前","province":"東京都","city":"品川区","address":"東京都品川区八潮5丁目10-27","lat":35.60015206,"lon":139.7512541},{"name":"ちょうちょ橋","province":"東京都","city":"品川区","address":"東京都品川区八潮5丁目8","lat":35.5968109,"lon":139.75291526},{"name":"中央海浜公園前","province":"東京都","city":"品川区","address":"東京都品川区八潮4丁目2","lat":35.59275297,"lon":139.74978513},{"name":"大井海浜公園前","province":"東京都","city":"品川区","address":"東京都品川区八潮4丁目1","lat":35.59123385,"lon":139.75266834},{"name":"大井町駅入口","province":"東京都","city":"品川区","address":"東京都品川区大井2丁目1-5","lat":35.6065393,"lon":139.72985265},{"name":"五反田駅旧ガード下","province":"東京都","city":"品川区","address":"東京都品川区東五反田1丁目26-6","lat":35.62585636,"lon":139.7240636},{"name":"目黒駅西口前","province":"東京都","city":"品川区","address":"東京都品川区上大崎4丁目1","lat":35.633422,"lon":139.71450866},{"name":"大崎広小路","province":"東京都","city":"品川区","address":"東京都品川区西五反田8丁目4-13","lat":35.6229261,"lon":139.72211664},{"name":"目黒駅東口前","province":"東京都","city":"品川区","address":"東京都品川区上大崎3丁目1","lat":35.63269988,"lon":139.71636408},{"name":"西五反田一丁目","province":"東京都","city":"品川区","address":"東京都品川区西五反田1丁目33-10","lat":35.6240204,"lon":139.72136667},{"name":"五反田駅新ガード下","province":"東京都","city":"品川区","address":"東京都品川区東五反田1丁目26-1","lat":35.6265035,"lon":139.72369972},{"name":"目蒲線ガード下","province":"東京都","city":"品川区","address":"東京都品川区西五反田5丁目1-1","lat":35.62658389,"lon":139.71501159},{"name":"上大崎二丁目","province":"東京都","city":"品川区","address":"東京都品川区上大崎2丁目25-5","lat":35.63461074,"lon":139.71476139},{"name":"上大崎三丁目第二","province":"東京都","city":"品川区","address":"東京都品川区西五反田2丁目1-1","lat":35.62813381,"lon":139.72050273},{"name":"大崎四丁目","province":"東京都","city":"品川区","address":"東京都品川区大崎4丁目2-2","lat":35.62231509,"lon":139.72326656},{"name":"目黒駅ビル前","province":"東京都","city":"品川区","address":"東京都品川区上大崎2丁目15-21","lat":35.63442468,"lon":139.71631958},{"name":"大崎駅西口第二","province":"東京都","city":"品川区","address":"東京都品川区大崎1丁目21-4","lat":35.61970165,"lon":139.72879675},{"name":"大崎駅西口","province":"東京都","city":"品川区","address":"東京都品川区大崎2丁目1-1","lat":35.61837956,"lon":139.72802742},{"name":"平塚橋交番前","province":"東京都","city":"品川区","address":"東京都品川区西中延1丁目1-10","lat":35.61549615,"lon":139.7092402},{"name":"戸越銀座","province":"東京都","city":"品川区","address":"東京都品川区平塚1丁目6-14","lat":35.61544906,"lon":139.71649791},{"name":"昭和医大前","province":"東京都","city":"品川区","address":"東京都品川区旗の台1丁目2-14","lat":35.60944957,"lon":139.70490466},{"name":"昭和医大前第二","province":"東京都","city":"品川区","address":"東京都品川区旗の台1丁目6-16","lat":35.60916903,"lon":139.7039603},{"name":"旗の台駅入口","province":"東京都","city":"品川区","address":"東京都品川区旗の台1丁目4-13","lat":35.60742477,"lon":139.70386869},{"name":"旗の台二丁目","province":"東京都","city":"品川区","address":"東京都品川区旗の台2丁目11-6","lat":35.60577768,"lon":139.70077457},{"name":"戸越銀座入口","province":"東京都","city":"品川区","address":"東京都品川区平塚3丁目2-17","lat":35.61631275,"lon":139.71070949},{"name":"小山四丁目","province":"東京都","city":"品川区","address":"東京都品川区小山4丁目4-7","lat":35.61852353,"lon":139.70432109},{"name":"荏原四丁目","province":"東京都","city":"品川区","address":"東京都品川区荏原4丁目1-1","lat":35.61760698,"lon":139.70549602},{"name":"小山三丁目","province":"東京都","city":"品川区","address":"東京都品川区小山4丁目4-22","lat":35.61905678,"lon":139.70358781},{"name":"第二延山小角","province":"東京都","city":"品川区","address":"東京都品川区旗の台1丁目2-1","lat":35.61073553,"lon":139.70387693},{"name":"武蔵小山駅西","province":"東京都","city":"品川区","address":"東京都品川区小山4丁目2-1","lat":35.6196567,"lon":139.70292952},{"name":"戸越四丁目東","province":"東京都","city":"品川区","address":"東京都品川区戸越5丁目6-4","lat":35.61041631,"lon":139.71847011},{"name":"大森北一丁目","province":"東京都","city":"品川区","address":"東京都品川区南大井3丁目35-10","lat":35.58753902,"lon":139.73258653},{"name":"大森北五差路","province":"東京都","city":"品川区","address":"東京都品川区南大井6丁目27-20","lat":35.58751393,"lon":139.73003949},{"name":"大森海岸駅西","province":"東京都","city":"品川区","address":"東京都品川区南大井3丁目31","lat":35.58793351,"lon":139.73518633},{"name":"大森駅東口広場前","province":"東京都","city":"品川区","address":"東京都品川区南大井6丁目28-8","lat":35.5879583,"lon":139.72972838},{"name":"昭和大学病院","province":"東京都","city":"品川区","address":"東京都品川区旗の台1丁目5-8","lat":35.60849688,"lon":139.70353258},{"name":"ＮＴＴ東日本関東病院","province":"東京都","city":"品川区","address":"東京都品川区東五反田5丁目9-22","lat":35.63091968,"lon":139.72494947},{"name":"区立戸越公園","province":"東京都","city":"品川区","address":"東京都品川区豊町2丁目1-30","lat":35.61109965,"lon":139.72238087},{"name":"区立しおじ公園","province":"東京都","city":"品川区","address":"東京都品川区八潮5丁目6","lat":35.59734124,"lon":139.74955159},{"name":"都立八潮高等学校","province":"東京都","city":"品川区","address":"東京都品川区東品川3丁目27-22","lat":35.61185035,"lon":139.74660949},{"name":"南大井シルバーセンター","province":"東京都","city":"品川区","address":"東京都品川区南大井3丁目7-14","lat":35.5916187,"lon":139.7342376},{"name":"春光福祉会　特別養護老人ホーム「ロイヤルサニー」","province":"東京都","city":"品川区","address":"東京都品川区西大井2丁目4-4","lat":35.5999621,"lon":139.7224704},{"name":"さくら会老人保健施設「ケアセンター南大井」","province":"東京都","city":"品川区","address":"東京都品川区南大井5丁目19","lat":35.5945343,"lon":139.733675},{"name":"西大井シルバーセンター","province":"東京都","city":"品川区","address":"東京都品川区西大井1丁目8-7","lat":35.6008976,"lon":139.7230698},{"name":"八潮児童センター","province":"東京都","city":"品川区","address":"東京都品川区八潮5丁目10-27","lat":35.5998066,"lon":139.7516327},{"name":"高齢者住宅八潮わかくさ荘","province":"東京都","city":"品川区","address":"東京都品川区八潮5丁目10-27","lat":35.5998699,"lon":139.7509539},{"name":"心身障害者福祉会館","province":"東京都","city":"品川区","address":"東京都品川区旗の台5丁目2","lat":35.6048875,"lon":139.7006163},{"name":"旗の台シルバーセンター","province":"東京都","city":"品川区","address":"東京都品川区旗の台4丁目13-1","lat":35.6025803,"lon":139.7046896},{"name":"関ヶ原シルバーセンター","province":"東京都","city":"品川区","address":"東京都品川区東大井6丁目11-11","lat":35.6018677,"lon":139.7364935},{"name":"品川児童学園","province":"東京都","city":"品川区","address":"東京都品川区南品川3丁目7","lat":35.6073495,"lon":139.7446282},{"name":"品川総合福祉センター","province":"東京都","city":"品川区","address":"東京都品川区八潮5丁目1-1","lat":35.6052496,"lon":139.7522717},{"name":"中延シルバーセンター","province":"東京都","city":"品川区","address":"東京都品川区中延1丁目4-12","lat":35.6125932,"lon":139.7118185},{"name":"特別養護老人ホーム「成幸ホーム」","province":"東京都","city":"品川区","address":"東京都品川区中延1丁目8-15","lat":35.6122655,"lon":139.7115887},{"name":"ゆたかシルバーセンター","province":"東京都","city":"品川区","address":"東京都品川区豊町3丁目2","lat":35.6081669,"lon":139.7194903},{"name":"南品川シルバーセンター","province":"東京都","city":"品川区","address":"東京都品川区南品川5丁目10","lat":35.6100801,"lon":139.7395401},{"name":"都立品川特別支援学校","province":"東京都","city":"品川区","address":"東京都品川区南品川6丁目15-20","lat":35.6097666,"lon":139.7378227},{"name":"東品川シルバーセンター","province":"東京都","city":"品川区","address":"東京都品川区東品川3丁目32","lat":35.6126645,"lon":139.7503745},{"name":"小山シルバーセンター","province":"東京都","city":"品川区","address":"東京都品川区小山5丁目17-17","lat":35.6147042,"lon":139.7014478},{"name":"平塚シルバーセンター","province":"東京都","city":"品川区","address":"東京都品川区平塚2丁目10","lat":35.6169969,"lon":139.7139996},{"name":"大崎シルバーセンター","province":"東京都","city":"品川区","address":"東京都品川区大崎2丁目7","lat":35.6168885,"lon":139.7256112},{"name":"北品川シルバーセンター","province":"東京都","city":"品川区","address":"東京都品川区北品川1丁目29-11","lat":35.6206822,"lon":139.7418432},{"name":"福栄会","province":"東京都","city":"品川区","address":"東京都品川区東品川3丁目1-8","lat":35.617101,"lon":139.7467953},{"name":"西五反田シルバーセンター","province":"東京都","city":"品川区","address":"東京都品川区西五反田3丁目9-9","lat":35.6266424,"lon":139.7170725},{"name":"五反田保育園","province":"東京都","city":"品川区","address":"東京都品川区東五反田2丁目15","lat":35.6216342,"lon":139.7294771},{"name":"上大崎シルバーセンター","province":"東京都","city":"品川区","address":"東京都品川区上大崎1丁目3-11","lat":35.6347299,"lon":139.7222261},{"name":"仙台坂トンネル","province":"東京都","city":"品川区","address":"東京都品川区","lat":35.60890571,"lon":139.73030809},{"name":"品川区役所","province":"東京都","city":"品川区","address":"東京都品川区広町2-1-36","lat":35.6093959,"lon":139.7301459},{"name":"品川第一地域センター・区民集会所","province":"東京都","city":"品川区","address":"東京都品川区北品川3-11-16","lat":35.6166735,"lon":139.739995},{"name":"品川第二地域センター・区民集会所","province":"東京都","city":"品川区","address":"東京都品川区南品川5-3-20","lat":35.6113482,"lon":139.7412774},{"name":"大崎第一地域センター・区民集会所","province":"東京都","city":"品川区","address":"東京都品川区西五反田3-6-3","lat":35.6279721,"lon":139.7164476},{"name":"大井第一地域センター","province":"東京都","city":"品川区","address":"東京都品川区南大井1-12-6","lat":35.5963292,"lon":139.7375406},{"name":"大井第二地域センター・区民集会所","province":"東京都","city":"品川区","address":"東京都品川区大井2-27-20","lat":35.6040785,"lon":139.7304557},{"name":"大井第三地域センター・区民集会所","province":"東京都","city":"品川区","address":"東京都品川区西大井4-1-8","lat":35.5976934,"lon":139.7211039},{"name":"荏原第一地域センター・区民集会所","province":"東京都","city":"品川区","address":"東京都品川区小山3-22-3","lat":35.6192605,"lon":139.7057503},{"name":"荏原第二地域センター・区民集会所","province":"東京都","city":"品川区","address":"東京都品川区荏原6-17-12","lat":35.6110694,"lon":139.7043829},{"name":"荏原第三地域センター・区民集会所","province":"東京都","city":"品川区","address":"東京都品川区平塚1-13-18","lat":35.6133434,"lon":139.7153629},{"name":"荏原第四地域センター・区民集会所","province":"東京都","city":"品川区","address":"東京都品川区中延5-3-12","lat":35.6038249,"lon":139.7084941},{"name":"八潮地域センター・区民集会所","province":"東京都","city":"品川区","address":"東京都品川区八潮5-10-27","lat":35.6001681,"lon":139.7514663},{"name":"東大井区民集会所","province":"東京都","city":"品川区","address":"東京都品川区東大井2-16-12","lat":35.6005168,"lon":139.7415771},{"name":"防災センター","province":"東京都","city":"品川区","address":"東京都品川区広町2-1-36","lat":35.6096778,"lon":139.7302715},{"name":"大崎第二地域センター・区民集会所","province":"東京都","city":"品川区","address":"東京都品川区大崎2-9-4","lat":35.616649,"lon":139.7279883},{"name":"荏原第五地域センター・区民集会所","province":"東京都","city":"品川区","address":"東京都品川区二葉1-1-2","lat":35.6081773,"lon":139.7256994},{"name":"男女共同参画センター","province":"東京都","city":"品川区","address":"東京都品川区東大井5-18-1きゅりあん3階","lat":35.6059391,"lon":139.7361889},{"name":"品川区消費者センター","province":"東京都","city":"品川区","address":"東京都品川区大井1-14-1大井1丁目共同ビル","lat":35.6076929,"lon":139.7315911},{"name":"リサイクルショップ「リボン」旗の台店","province":"東京都","city":"品川区","address":"東京都品川区旗の台5-13-9","lat":35.6044516,"lon":139.7011809},{"name":"リサイクルショップ「リボン」大井町店","province":"東京都","city":"品川区","address":"東京都品川区広町2-1-36品川区役所第三庁舎2階","lat":35.6083047,"lon":139.7299228},{"name":"区民斎場 なぎさ会館","province":"東京都","city":"品川区","address":"東京都品川区勝島3-1-3","lat":35.5963655,"lon":139.7417383},{"name":"品川区清掃事務所","province":"東京都","city":"品川区","address":"東京都品川区大崎1-14-1","lat":35.6182916,"lon":139.7335512},{"name":"品川区清掃事務所 荏原庁舎","province":"東京都","city":"品川区","address":"東京都品川区平塚1-10-11","lat":35.6139998,"lon":139.714295},{"name":"品川清掃工場","province":"東京都","city":"品川区","address":"東京都品川区八潮1-4-1","lat":35.6094519,"lon":139.7538716},{"name":"総務部分室","province":"東京都","city":"品川区","address":"東京都品川区南大井3-7-10","lat":35.5915071,"lon":139.7346758},{"name":"中小企業センター","province":"東京都","city":"品川区","address":"東京都品川区西品川1-28-3","lat":35.6092731,"lon":139.7277367},{"name":"(財)品川区国際友好協会","province":"東京都","city":"品川区","address":"東京都品川区広町2-1-36品川区総合庁舎第3庁舎","lat":35.6082826,"lon":139.7301693},{"name":"八潮北保管所","province":"東京都","city":"品川区","address":"東京都品川区八潮1-3-1","lat":35.6124909,"lon":139.753783},{"name":"不動前保管所","province":"東京都","city":"品川区","address":"東京都品川区西五反田3丁目11番14号","lat":35.6270646,"lon":139.7153674},{"name":"東京電力品川支社","province":"東京都","city":"品川区","address":"東京都品川区西五反田5-3-1","lat":35.6256727,"lon":139.7167447},{"name":"品川火力発電所","province":"東京都","city":"品川区","address":"東京都品川区東品川5-6-22","lat":35.6204462,"lon":139.7557467},{"name":"大井火力発電所","province":"東京都","city":"品川区","address":"東京都品川区八潮1-2-2","lat":35.6149784,"lon":139.7561033},{"name":"戸越公園駅第1駐輪場","province":"東京都","city":"品川区","address":"東京都品川区戸越5丁目10番","lat":35.6092411,"lon":139.7184687},{"name":"戸越公園駅第2駐輪場","province":"東京都","city":"品川区","address":"東京都品川区戸越5丁目9番","lat":35.608984,"lon":139.7190806},{"name":"武蔵小山駅第1駐輪場","province":"東京都","city":"品川区","address":"東京都品川区小山3丁目27番","lat":35.6198649,"lon":139.703474},{"name":"武蔵小山駅第2駐輪場","province":"東京都","city":"品川区","address":"東京都品川区小山4丁目2番","lat":35.619253,"lon":139.7024883},{"name":"西小山駅第1駐輪場","province":"東京都","city":"品川区","address":"東京都品川区小山5丁目21番","lat":35.6159619,"lon":139.6993625},{"name":"西小山駅第2駐輪場","province":"東京都","city":"品川区","address":"東京都品川区小山6丁目3番","lat":35.6155511,"lon":139.6988545},{"name":"不動前駅第1駐輪場","province":"東京都","city":"品川区","address":"東京都品川区西五反田4丁目32番","lat":35.6265225,"lon":139.7142059},{"name":"不動前駅第2駐輪場","province":"東京都","city":"品川区","address":"東京都品川区西五反田4丁目32番","lat":35.6266118,"lon":139.7141236},{"name":"下神明駅第1駐輪場","province":"東京都","city":"品川区","address":"東京都品川区二葉1丁目4番","lat":35.6078806,"lon":139.7266536},{"name":"下神明駅第2駐輪場","province":"東京都","city":"品川区","address":"東京都品川区西品川1丁目28番","lat":35.6090898,"lon":139.7267388},{"name":"下神明駅第3駐輪場","province":"東京都","city":"品川区","address":"東京都品川区西品川1丁目29番","lat":35.6091172,"lon":139.726076},{"name":"大崎駅西口第1駐輪場","province":"東京都","city":"品川区","address":"東京都品川区大崎2丁目1番","lat":35.6185107,"lon":139.7273061},{"name":"大崎駅西口第2駐輪場","province":"東京都","city":"品川区","address":"東京都品川区大崎2丁目1番1号","lat":35.6185063,"lon":139.7274698},{"name":"大崎駅東口駐輪場","province":"東京都","city":"品川区","address":"東京都品川区大崎1丁目6番","lat":35.6203316,"lon":139.7294111},{"name":"大井町駅西口第2駐輪場","province":"東京都","city":"品川区","address":"東京都品川区大井4丁目4番","lat":35.6038141,"lon":139.7341963},{"name":"大井町駅東口駐輪場","province":"東京都","city":"品川区","address":"東京都品川区東大井6丁目1番","lat":35.6046329,"lon":139.734944},{"name":"五反田駅駐輪場","province":"東京都","city":"品川区","address":"東京都品川区西五反田2丁目2番","lat":35.6276401,"lon":139.7211897},{"name":"戸越銀座駅駐輪場","province":"東京都","city":"品川区","address":"東京都品川区平塚1丁目5番1号","lat":35.6162308,"lon":139.7152362},{"name":"地下鉄戸越駅第1駐輪場","province":"東京都","city":"品川区","address":"東京都品川区平塚1丁目6番","lat":35.6157926,"lon":139.7161897},{"name":"地下鉄中延駅第2駐輪場","province":"東京都","city":"品川区","address":"東京都品川区中延4丁目7番","lat":35.6046514,"lon":139.7130022},{"name":"地下鉄中延駅第3駐輪場","province":"東京都","city":"品川区","address":"東京都品川区豊町6丁目24番","lat":35.6048964,"lon":139.7138543},{"name":"旗の台駅第1駐輪場","province":"東京都","city":"品川区","address":"東京都品川区旗の台2丁目7番","lat":35.6061953,"lon":139.7040833},{"name":"旗の台駅第2駐輪場","province":"東京都","city":"品川区","address":"東京都品川区旗の台2丁目7番","lat":35.606106,"lon":139.7041492},{"name":"天王洲アイル駅駐輪場","province":"東京都","city":"品川区","address":"東京都品川区東品川2丁目5番","lat":35.6208436,"lon":139.7498958},{"name":"品川シーサイド駅駐輪場","province":"東京都","city":"品川区","address":"東京都品川区東品川4丁目12番","lat":35.6098947,"lon":139.7484094},{"name":"新馬場駅駐輪場","province":"東京都","city":"品川区","address":"東京都品川区南品川1丁目9番","lat":35.6151705,"lon":139.7432847},{"name":"大井競馬場前駅駐輪場","province":"東京都","city":"品川区","address":"東京都品川区勝島1丁目4番先","lat":35.6000574,"lon":139.7471319},{"name":"大森駅水神口前駐輪場","province":"東京都","city":"品川区","address":"東京都品川区南大井6丁目15番","lat":35.5908255,"lon":139.7297364},