{"keyword":"収蔵","data":[{"name":"区立戸越公園","province":"東京都","city":"品川区","address":"東京都品川区豊町2-1-30","lat":35.61059,"lon":139.72284},{"name":"区立しおじ公園","province":"東京都","city":"品川区","address":"東京都品川区八潮5-6","lat":35.59629,"lon":139.75039},{"name":"都立八潮高等学校","province":"東京都","city":"品川区","address":"東京都品川区東品川3-27-22","lat":35.611851,"lon":139.74661},{"name":"昭和大学病院","province":"東京都","city":"品川区","address":"東京都品川区旗の台1丁目5-8","lat":35.60849688,"lon":139.70353258},{"name":"ＮＴＴ東日本関東病院","province":"東京都","city":"品川区","address":"東京都品川区東五反田5丁目9-22","lat":35.63091968,"lon":139.72494947},{"name":"区立戸越公園","province":"東京都","city":"品川区","address":"東京都品川区豊町2丁目1-30","lat":35.61109965,"lon":139.72238087},{"name":"区立しおじ公園","province":"東京都","city":"品川区","address":"東京都品川区八潮5丁目6","lat":35.59734124,"lon":139.74955159},{"name":"都立八潮高等学校","province":"東京都","city":"品川区","address":"東京都品川区東品川3丁目27-22","lat":35.61185035,"lon":139.74660949},{"name":"都立大井埠頭中央海浜公園陸上競技場","province":"東京都","city":"品川区","address":"東京都品川区八潮4丁目1-19","lat":35.59255032,"lon":139.75229052},{"name":"品川区立天王州公園","province":"東京都","city":"品川区","address":"東京都品川区東品川2丁目5-42","lat":35.62054383,"lon":139.74927004},{"name":"品川区立鮫洲運動公園","province":"東京都","city":"品川区","address":"東京都品川区東大井1丁目4-11","lat":35.60589551,"lon":139.74500986},{"name":"品川区立八潮公園多目的広場","province":"東京都","city":"品川区","address":"東京都品川区八潮5丁目11-16","lat":35.60033269,"lon":139.75372891},{"name":"林試の森公園","province":"東京都","city":"品川区","address":"東京都品川区小山台2丁目","lat":35.62477825,"lon":139.69861029},{"name":"大井コンテナふ頭","province":"東京都","city":"品川区","address":"東京都品川区八潮2丁目","lat":35.59506725,"lon":139.76759209},{"name":"品川ふ頭","province":"東京都","city":"品川区","address":"東京都品川区東品川5丁目","lat":35.62216053,"lon":139.75607776},{"name":"品川区","province":"東京都","city":"品川区","address":"品川区東中延2-4-2","lat":35.60927,"lon":139.7141},{"name":"東邦薬品（株）ＴＢＣ東京","province":"東京都","city":"品川区","address":"品川区八潮3-2-29エフプラザ東京E棟","lat":35.59926,"lon":139.7599},{"name":"品川ふ頭","province":"東京都","city":"品川区","address":"東京都品川区東品川5丁目","lat":35.62216053,"lon":139.75607776},{"name":"区立戸越公園","province":"東京都","city":"品川区","address":"東京都品川区豊町2-1-30","lat":35.61059,"lon":139.72284},{"name":"区立しおじ公園","province":"東京都","city":"品川区","address":"東京都品川区八潮5-6","lat":35.59629,"lon":139.75039},{"name":"都立八潮高等学校","province":"東京都","city":"品川区","address":"東京都品川区東品川3-27-22","lat":35.611851,"lon":139.74661},{"name":"昭和大学病院","province":"東京都","city":"品川区","address":"東京都品川区旗の台1丁目5-8","lat":35.60849688,"lon":139.70353258},{"name":"ＮＴＴ東日本関東病院","province":"東京都","city":"品川区","address":"東京都品川区東五反田5丁目9-22","lat":35.63091968,"lon":139.72494947},{"name":"区立戸越公園","province":"東京都","city":"品川区","address":"東京都品川区豊町2丁目1-30","lat":35.61109965,"lon":139.72238087},{"name":"区立しおじ公園","province":"東京都","city":"品川区","address":"東京都品川区八潮5丁目6","lat":35.59734124,"lon":139.74955159},{"name":"都立八潮高等学校","province":"東京都","city":"品川区","address":"東京都品川区東品川3丁目27-22","lat":35.61185035,"lon":139.74660949},{"name":"都立大井埠頭中央海浜公園陸上競技場","province":"東京都","city":"品川区","address":"東京都品川区八潮4丁目1-19","lat":35.59255032,"lon":139.75229052},{"name":"品川区立天王州公園","province":"東京都","city":"品川区","address":"東京都品川区東品川2丁目5-42","lat":35.62054383,"lon":139.74927004},{"name":"品川区立鮫洲運動公園","province":"東京都","city":"品川区","address":"東京都品川区東大井1丁目4-11","lat":35.60589551,"lon":139.74500986},{"name":"品川区立八潮公園多目的広場","province":"東京都","city":"品川区","address":"東京都品川区八潮5丁目11-16","lat":35.60033269,"lon":139.75372891},{"name":"林試の森公園","province":"東京都","city":"品川区","address":"東京都品川区小山台2丁目","lat":35.62477825,"lon":139.69861029},{"name":"品川区","province":"東京都","city":"品川区","address":"品川区東中延2-4-2","lat":35.60927,"lon":139.7141},{"name":"東邦薬品（株）ＴＢＣ東京","province":"東京都","city":"品川区","address":"品川区八潮3-2-29エフプラザ東京E棟","lat":35.59926,"lon":139.7599},{"name":"区立戸越公園","province":"東京都","city":"品川区","address":"東京都品川区豊町2-1-30","lat":35.61059,"lon":139.72284},{"name":"区立しおじ公園","province":"東京都","city":"品川区","address":"東京都品川区八潮5-6","lat":35.59629,"lon":139.75039},{"name":"都立八潮高等学校","province":"東京都","city":"品川区","address":"東京都品川区東品川3-27-22","lat":35.611851,"lon":139.74661},{"name":"昭和大学病院","province":"東京都","city":"品川区","address":"東京都品川区旗の台1丁目5-8","lat":35.60849688,"lon":139.70353258},{"name":"ＮＴＴ東日本関東病院","province":"東京都","city":"品川区","address":"東京都品川区東五反田5丁目9-22","lat":35.63091968,"lon":139.72494947},{"name":"区立戸越公園","province":"東京都","city":"品川区","address":"東京都品川区豊町2丁目1-30","lat":35.61109965,"lon":139.72238087},{"name":"区立しおじ公園","province":"東京都","city":"品川区","address":"東京都品川区八潮5丁目6","lat":35.59734124,"lon":139.74955159},{"name":"都立八潮高等学校","province":"東京都","city":"品川区","address":"東京都品川区東品川3丁目27-22","lat":35.61185035,"lon":139.74660949},{"name":"都立大井埠頭中央海浜公園陸上競技場","province":"東京都","city":"品川区","address":"東京都品川区八潮4丁目1-19","lat":35.59255032,"lon":139.75229052},{"name":"品川区立天王州公園","province":"東京都","city":"品川区","address":"東京都品川区東品川2丁目5-42","lat":35.62054383,"lon":139.74927004},{"name":"品川区立鮫洲運動公園","province":"東京都","city":"品川区","address":"東京都品川区東大井1丁目4-11","lat":35.60589551,"lon":139.74500986},{"name":"品川区立八潮公園多目的広場","province":"東京都","city":"品川区","address":"東京都品川区八潮5丁目11-16","lat":35.60033269,"lon":139.75372891},{"name":"林試の森公園","province":"東京都","city":"品川区","address":"東京都品川区小山台2丁目","lat":35.62477825,"lon":139.69861029},{"name":"品川区","province":"東京都","city":"品川区","address":"品川区東中延2-4-2","lat":35.60927,"lon":139.7141},{"name":"東邦薬品（株）ＴＢＣ東京","province":"東京都","city":"品川区","address":"品川区八潮3-2-29エフプラザ東京E棟","lat":35.59926,"lon":139.7599},{"name":"区立戸越公園","province":"東京都","city":"品川区","address":"東京都品川区豊町2-1-30","lat":35.61059,"lon":139.72284},{"name":"区立しおじ公園","province":"東京都","city":"品川区","address":"東京都品川区八潮5-6","lat":35.59629,"lon":139.75039},{"name":"都立八潮高等学校","province":"東京都","city":"品川区","address":"東京都品川区東品川3-27-22","lat":35.611851,"lon":139.74661},{"name":"昭和大学病院","province":"東京都","city":"品川区","address":"東京都品川区旗の台1丁目5-8","lat":35.60849688,"lon":139.70353258},{"name":"ＮＴＴ東日本関東病院","province":"東京都","city":"品川区","address":"東京都品川区東五反田5丁目9-22","lat":35.63091968,"lon":139.72494947},{"name":"都立大井埠頭中央海浜公園陸上競技場","province":"東京都","city":"品川区","address":"東京都品川区八潮4丁目1-19","lat":35.59255032,"lon":139.75229052},{"name":"品川区立天王州公園","province":"東京都","city":"品川区","address":"東京都品川区東品川2丁目5-42","lat":35.62054383,"lon":139.74927004},{"name":"品川区立鮫洲運動公園","province":"東京都","city":"品川区","address":"東京都品川区東大井1丁目4-11","lat":35.60589551,"lon":139.74500986},{"name":"品川区立八潮公園多目的広場","province":"東京都","city":"品川区","address":"東京都品川区八潮5丁目11-16","lat":35.60033269,"lon":139.75372891},{"name":"林試の森公園","province":"東京都","city":"品川区","address":"東京都品川区小山台2丁目","lat":35.62477825,"lon":139.69861029},{"name":"品川区","province":"東京都","city":"品川区","address":"品川区東中延2-4-2","lat":35.60927,"lon":139.7141},{"name":"東邦薬品（株）ＴＢＣ東京","province":"東京都","city":"品川区","address":"品川区八潮3-2-29エフプラザ東京E棟","lat":35.59926,"lon":139.7599},{"name":"区立戸越公園","province":"東京都","city":"品川区","address":"東京都品川区豊町2-1-30","lat":35.61059,"lon":139.72284},{"name":"区立しおじ公園","province":"東京都","city":"品川区","address":"東京都品川区八潮5-6","lat":35.59629,"lon":139.75039},{"name":"都立八潮高等学校","province":"東京都","city":"品川区","address":"東京都品川区東品川3-27-22","lat":35.611851,"lon":139.74661},{"name":"昭和大学病院","province":"東京都","city":"品川区","address":"東京都品川区旗の台1丁目5-8","lat":35.60849688,"lon":139.70353258},{"name":"ＮＴＴ東日本関東病院","province":"東京都","city":"品川区","address":"東京都品川区東五反田5丁目9-22","lat":35.63091968,"lon":139.72494947},{"name":"品川区","province":"東京都","city":"品川区","address":"品川区東中延2-4-2","lat":35.60927,"lon":139.7141},{"name":"東邦薬品（株）ＴＢＣ東京","province":"東京都","city":"品川区","address":"品川区八潮3-2-29エフプラザ東京E棟","lat":35.59926,"lon":139.7599},{"name":"区立戸越公園","province":"東京都","city":"品川区","address":"東京都品川区豊町2-1-30","lat":35.61059,"lon":139.72284},{"name":"区立しおじ公園","province":"東京都","city":"品川区","address":"東京都品川区八潮5-6","lat":35.59629,"lon":139.75039},{"name":"都立八潮高等学校","province":"東京都","city":"品川区","address":"東京都品川区東品川3-27-22","lat":35.611851,"lon":139.74661},{"name":"昭和大学病院","province":"東京都","city":"品川区","address":"東京都品川区旗の台1丁目5-8","lat":35.60849688,"lon":139.70353258},{"name":"ＮＴＴ東日本関東病院","province":"東京都","city":"品川区","address":"東京都品川区東五反田5丁目9-22","lat":35.63091968,"lon":139.72494947},{"name":"品川区","province":"東京都","city":"品川区","address":"品川区東中延2-4-2","lat":35.60927,"lon":139.7141},{"name":"東邦薬品（株）ＴＢＣ東京","province":"東京都","city":"品川区","address":"品川区八潮3-2-29エフプラザ東京E棟","lat":35.59926,"lon":139.7599},{"name":"区立戸越公園","province":"東京都","city":"品川区","address":"東京都品川区豊町2-1-30","lat":35.61059,"lon":139.72284},{"name":"区立しおじ公園","province":"東京都","city":"品川区","address":"東京都品川区八潮5-6","lat":35.59629,"lon":139.75039},{"name":"都立八潮高等学校","province":"東京都","city":"品川区","address":"東京都品川区東品川3-27-22","lat":35.611851,"lon":139.74661},{"name":"昭和大学病院","province":"東京都","city":"品川区","address":"東京都品川区旗の台1丁目5-8","lat":35.60849688,"lon":139.70353258},{"name":"ＮＴＴ東日本関東病院","province":"東京都","city":"品川区","address":"東京都品川区東五反田5丁目9-22","lat":35.63091968,"lon":139.72494947},{"name":"品川区","province":"東京都","city":"品川区","address":"品川区東中延2-4-2","lat":35.60927,"lon":139.7141},{"name":"東邦薬品（株）ＴＢＣ東京","province":"東京都","city":"品川区","address":"品川区八潮3-2-29エフプラザ東京E棟","lat":35.59926,"lon":139.7599},{"name":"区立戸越公園","province":"東京都","city":"品川区","address":"東京都品川区豊町2-1-30","lat":35.61059,"lon":139.72284},{"name":"区立しおじ公園","province":"東京都","city":"品川区","address":"東京都品川区八潮5-6","lat":35.59629,"lon":139.75039},{"name":"都立八潮高等学校","province":"東京都","city":"品川区","address":"東京都品川区東品川3-27-22","lat":35.611851,"lon":139.74661},{"name":"昭和大学病院","province":"東京都","city":"品川区","address":"東京都品川区旗の台1丁目5-8","lat":35.60849688,"lon":139.70353258},{"name":"ＮＴＴ東日本関東病院","province":"東京都","city":"品川区","address":"東京都品川区東五反田5丁目9-22","lat":35.63091968,"lon":139.72494947},{"name":"品川区","province":"東京都","city":"品川区","address":"品川区東中延2-4-2","lat":35.60927,"lon":139.7141},{"name":"東邦薬品（株）ＴＢＣ東京","province":"東京都","city":"品川区","address":"品川区八潮3-2-29エフプラザ東京E棟","lat":35.59926,"lon":139.7599},{"name":"区立戸越公園","province":"東京都","city":"品川区","address":"東京都品川区豊町2-1-30","lat":35.61059,"lon":139.72284},{"name":"区立しおじ公園","province":"東京都","city":"品川区","address":"東京都品川区八潮5-6","lat":35.59629,"lon":139.75039},{"name":"都立八潮高等学校","province":"東京都","city":"品川区","address":"東京都品川区東品川3-27-22","lat":35.611851,"lon":139.74661},{"name":"昭和大学病院","province":"東京都","city":"品川区","address":"東京都品川区旗の台1丁目5-8","lat":35.60849688,"lon":139.70353258},{"name":"ＮＴＴ東日本関東病院","province":"東京都","city":"品川区","address":"東京都品川区東五反田5丁目9-22","lat":35.63091968,"lon":139.72494947},{"name":"品川区","province":"東京都","city":"品川区","address":"品川区東中延2-4-2","lat":35.60927,"lon":139.7141},{"name":"東邦薬品（株）ＴＢＣ東京","province":"東京都","city":"品川区","address":"品川区八潮3-2-29エフプラザ東京E棟","lat":35.59926,"lon":139.7599},{"name":"区立戸越公園","province":"東京都","city":"品川区","address":"東京都品川区豊町2-1-30","lat":35.61059,"lon":139.72284},{"name":"区立しおじ公園","province":"東京都","city":"品川区","address":"東京都品川区八潮5-6","lat":35.59629,"lon":139.75039},{"name":"都立八潮高等学校","province":"東京都","city":"品川区","address":"東京都品川区東品川3-27-22","lat":35.611851,"lon":139.74661},{"name":"昭和大学病院","province":"東京都","city":"品川区","address":"東京都品川区旗の台1丁目5-8","lat":35.60849688,"lon":139.70353258},{"name":"ＮＴＴ東日本関東病院","province":"東京都","city":"品川区","address":"東京都品川区東五反田5丁目9-22","lat":35.63091968,"lon":139.72494947},{"name":"品川区","province":"東京都","city":"品川区","address":"品川区東中延2-4-2","lat":35.60927,"lon":139.7141},{"name":"東邦薬品（株）ＴＢＣ東京","province":"東京都","city":"品川区","address":"品川区八潮3-2-29エフプラザ東京E棟","lat":35.59926,"lon":139.7599},{"name":"区立戸越公園","province":"東京都","city":"品川区","address":"東京都品川区豊町2-1-30","lat":35.61059,"lon":139.72284},{"name":"区立しおじ公園","province":"東京都","city":"品川区","address":"東京都品川区八潮5-6","lat":35.59629,"lon":139.75039},{"name":"都立八潮高等学校","province":"東京都","city":"品川区","address":"東京都品川区東品川3-27-22","lat":35.611851,"lon":139.74661},{"name":"品川区","province":"東京都","city":"品川区","address":"品川区東中延2-4-2","lat":35.60927,"lon":139.7141},{"name":"東邦薬品（株）ＴＢＣ東京","province":"東京都","city":"品川区","address":"品川区八潮3-2-29エフプラザ東京E棟","lat":35.59926,"lon":139.7599},{"name":"区立戸越公園","province":"東京都","city":"品川区","address":"東京都品川区豊町2-1-30","lat":35.61059,"lon":139.72284},{"name":"区立しおじ公園","province":"東京都","city":"品川区","address":"東京都品川区八潮5-6","lat":35.59629,"lon":139.75039},{"name":"都立八潮高等学校","province":"東京都","city":"品川区","address":"東京都品川区東品川3-27-22","lat":35.611851,"lon":139.74661},{"name":"品川区","province":"東京都","city":"品川区","address":"品川区東中延2-4-2","lat":35.60927,"lon":139.7141},{"name":"東邦薬品（株）ＴＢＣ東京","province":"東京都","city":"品川区","address":"品川区八潮3-2-29エフプラザ東京E棟","lat":35.59926,"lon":139.7599},{"name":"区立戸越公園","province":"東京都","city":"品川区","address":"東京都品川区豊町2-1-30","lat":35.61059,"lon":139.72284},{"name":"区立しおじ公園","province":"東京都","city":"品川区","address":"東京都品川区八潮5-6","lat":35.59629,"lon":139.75039},{"name":"都立八潮高等学校","province":"東京都","city":"品川区","address":"東京都品川区東品川3-27-22","lat":35.611851,"lon":139.74661},{"name":"品川区","province":"東京都","city":"品川区","address":"品川区東中延2-4-2","lat":35.60927,"lon":139.7141},{"name":"東邦薬品（株）ＴＢＣ東京","province":"東京都","city":"品川区","address":"品川区八潮3-2-29エフプラザ東京E棟","lat":35.59926,"lon":139.7599},{"name":"区立戸越公園","province":"東京都","city":"品川区","address":"東京都品川区豊町2-1-30","lat":35.61059,"lon":139.72284},{"name":"区立しおじ公園","province":"東京都","city":"品川区","address":"東京都品川区八潮5-6","lat":35.59629,"lon":139.75039},{"name":"都立八潮高等学校","province":"東京都","city":"品川区","address":"東京都品川区東品川3-27-22","lat":35.611851,"lon":139.74661},{"name":"品川区","province":"東京都","city":"品川区","address":"品川区東中延2-4-2","lat":35.60927,"lon":139.7141},{"name":"東邦薬品（株）ＴＢＣ東京","province":"東京都","city":"品川区","address":"品川区八潮3-2-29エフプラザ東京E棟","lat":35.59926,"lon":139.7599},{"name":"区立戸越公園","province":"東京都","city":"品川区","address":"東京都品川区豊町2-1-30","lat":35.61059,"lon":139.72284},{"name":"区立しおじ公園","province":"東京都","city":"品川区","address":"東京都品川区八潮5-6","lat":35.59629,"lon":139.75039},{"name":"都立八潮高等学校","province":"東京都","city":"品川区","address":"東京都品川区東品川3-27-22","lat":35.611851,"lon":139.74661},{"name":"品川区","province":"東京都","city":"品川区","address":"品川区東中延2-4-2","lat":35.60927,"lon":139.7141},{"name":"東邦薬品（株）ＴＢＣ東京","province":"東京都","city":"品川区","address":"品川区八潮3-2-29エフプラザ東京E棟","lat":35.59926,"lon":139.7599},{"name":"区立戸越公園","province":"東京都","city":"品川区","address":"東京都品川区豊町2-1-30","lat":35.61059,"lon":139.72284},{"name":"区立しおじ公園","province":"東京都","city":"品川区","address":"東京都品川区八潮5-6","lat":35.59629,"lon":139.75039},{"name":"都立八潮高等学校","province":"東京都","city":"品川区","address":"東京都品川区東品川3-27-22","lat":35.611851,"lon":139.74661},{"name":"品川区","province":"東京都","city":"品川区","address":"品川区東中延2-4-2","lat":35.60927,"lon":139.7141},{"name":"東邦薬品（株）ＴＢＣ東京","province":"東京都","city":"品川区","address":"品川区八潮3-2-29エフプラザ東京E棟","lat":35.59926,"lon":139.7599},{"name":"区立戸越公園","province":"東京都","city":"品川区","address":"東京都品川区豊町2-1-30","lat":35.61059,"lon":139.72284},{"name":"区立しおじ公園","province":"東京都","city":"品川区","address":"東京都品川区八潮5-6","lat":35.59629,"lon":139.75039},{"name":"都立八潮高等学校","province":"東京都","city":"品川区","address":"東京都品川区東品川3-27-22","lat":35.611851,"lon":139.74661},{"name":"品川区","province":"東京都","city":"品川区","address":"品川区東中延2-4-2","lat":35.60927,"lon":139.7141},{"name":"東邦薬品（株）ＴＢＣ東京","province":"東京都","city":"品川区","address":"品川区八潮3-2-29エフプラザ東京E棟","lat":35.59926,"lon":139.7599},{"name":"区立戸越公園","province":"東京都","city":"品川区","address":"東京都品川区豊町2-1-30","lat":35.61059,"lon":139.72284},{"name":"区立しおじ公園","province":"東京都","city":"品川区","address":"東京都品川区八潮5-6","lat":35.59629,"lon":139.75039},{"name":"都立八潮高等学校","province":"東京都","city":"品川区","address":"東京都品川区東品川3-27-22","lat":35.611851,"lon":139.74661},{"name":"品川区","province":"東京都","city":"品川区","address":"品川区東中延2-4-2","lat":35.60927,"lon":139.7141},{"name":"東邦薬品（株）ＴＢＣ東京","province":"東京都","city":"品川区","address":"品川区八潮3-2-29エフプラザ東京E棟","lat":35.59926,"lon":139.7599},{"name":"区立戸越公園","province":"東京都","city":"品川区","address":"東京都品川区豊町2-1-30","lat":35.61059,"lon":139.72284},{"name":"区立しおじ公園","province":"東京都","city":"品川区","address":"東京都品川区八潮5-6","lat":35.59629,"lon":139.75039},{"name":"都立八潮高等学校","province":"東京都","city":"品川区","address":"東京都品川区東品川3-27-22","lat":35.611851,"lon":139.74661},{"name":"品川区","province":"東京都","city":"品川区","address":"品川区東中延2-4-2","lat":35.60927,"lon":139.7141},{"name":"東邦薬品（株）ＴＢＣ東京","province":"東京都","city":"品川区","address":"品川区八潮3-2-29エフプラザ東京E棟","lat":35.59926,"lon":139.7599},{"name":"区立戸越公園","province":"東京都","city":"品川区","address":"東京都品川区豊町2-1-30","lat":35.61059,"lon":139.72284},{"name":"区立しおじ公園","province":"東京都","city":"品川区","address":"東京都品川区八潮5-6","lat":35.59629,"lon":139.75039},{"name":"都立八潮高等学校","province":"東京都","city":"品川区","address":"東京都品川区東品川3-27-22","lat":35.611851,"lon":139.74661},{"name":"品川区","province":"東京都","city":"品川区","address":"品川区東中延2-4-2","lat":35.60927,"lon":139.7141},{"name":"東邦薬品（株）ＴＢＣ東京","province":"東京都","city":"品川区","address":"品川区八潮3-2-29エフプラザ東京E棟","lat":35.59926,"lon":139.7599},{"name":"区立戸越公園","province":"東京都","city":"品川区","address":"東京都品川区豊町2-1-30","lat":35.61059,"lon":139.72284},{"name":"区立しおじ公園","province":"東京都","city":"品川区","address":"東京都品川区八潮5-6","lat":35.59629,"lon":139.75039},{"name":"都立八潮高等学校","province":"東京都","city":"品川区","address":"東京都品川区東品川3-27-22","lat":35.611851,"lon":139.74661},{"name":"品川区","province":"東京都","city":"品川区","address":"品川区東中延2-4-2","lat":35.60927,"lon":139.7141},{"name":"東邦薬品（株）ＴＢＣ東京","province":"東京都","city":"品川区","address":"品川区八潮3-2-29エフプラザ東京E棟","lat":35.59926,"lon":139.7599},{"name":"区立戸越公園","province":"東京都","city":"品川区","address":"東京都品川区豊町2-1-30","lat":35.61059,"lon":139.72284},{"name":"区立しおじ公園","province":"東京都","city":"品川区","address":"東京都品川区八潮5-6","lat":35.59629,"lon":139.75039},{"name":"都立八潮高等学校","province":"東京都","city":"品川区","address":"東京都品川区東品川3-27-22","lat":35.611851,"lon":139.74661},{"name":"品川区","province":"東京都","city":"品川区","address":"品川区東中延2-4-2","lat":35.60927,"lon":139.7141},{"name":"東邦薬品（株）ＴＢＣ東京","province":"東京都","city":"品川区","address":"品川区八潮3-2-29エフプラザ東京E棟","lat":35.59926,"lon":139.7599},{"name":"区立戸越公園","province":"東京都","city":"品川区","address":"東京都品川区豊町2-1-30","lat":35.61059,"lon":139.72284},{"name":"区立しおじ公園","province":"東京都","city":"品川区","address":"東京都品川区八潮5-6","lat":35.59629,"lon":139.75039},{"name":"都立八潮高等学校","province":"東京都","city":"品川区","address":"東京都品川区東品川3-27-22","lat":35.611851,"lon":139.74661},{"name":"品川区","province":"東京都","city":"品川区","address":"品川区東中延2-4-2","lat":35.60927,"lon":139.7141},{"name":"東邦薬品（株）ＴＢＣ東京","province":"東京都","city":"品川区","address":"品川区八潮3-2-29エフプラザ東京E棟","lat":35.59926,"lon":139.7599},{"name":"区立戸越公園","province":"東京都","city":"品川区","address":"東京都品川区豊町2-1-30","lat":35.61059,"lon":139.72284},{"name":"区立しおじ公園","province":"東京都","city":"品川区","address":"東京都品川区八潮5-6","lat":35.59629,"lon":139.75039},{"name":"都立八潮高等学校","province":"東京都","city":"品川区","address":"東京都品川区東品川3-27-22","lat":35.611851,"lon":139.74661},{"name":"品川区","province":"東京都","city":"品川区","address":"品川区東中延2-4-2","lat":35.60927,"lon":139.7141},{"name":"東邦薬品（株）ＴＢＣ東京","province":"東京都","city":"品川区","address":"品川区八潮3-2-29エフプラザ東京E棟","lat":35.59926,"lon":139.7599},{"name":"区立戸越公園","province":"東京都","city":"品川区","address":"東京都品川区豊町2-1-30","lat":35.61059,"lon":139.72284},{"name":"区立しおじ公園","province":"東京都","city":"品川区","address":"東京都品川区八潮5-6","lat":35.59629,"lon":139.75039},{"name":"都立八潮高等学校","province":"東京都","city":"品川区","address":"東京都品川区東品川3-27-22","lat":35.611851,"lon":139.74661},{"name":"品川区","province":"東京都","city":"品川区","address":"品川区東中延2-4-2","lat":35.60927,"lon":139.7141},{"name":"東邦薬品（株）ＴＢＣ東京","province":"東京都","city":"品川区","address":"品川区八潮3-2-29エフプラザ東京E棟","lat":35.59926,"lon":139.7599},{"name":"区立戸越公園","province":"東京都","city":"品川区","address":"東京都品川区豊町2-1-30","lat":35.61059,"lon":139.72284},{"name":"区立しおじ公園","province":"東京都","city":"品川区","address":"東京都品川区八潮5-6","lat":35.59629,"lon":139.75039},{"name":"都立八潮高等学校","province":"東京都","city":"品川区","address":"東京都品川区東品川3-27-22","lat":35.611851,"lon":139.74661},{"name":"品川区","province":"東京都","city":"品川区","address":"品川区東中延2-4-2","lat":35.60927,"lon":139.7141},{"name":"東邦薬品（株）ＴＢＣ東京","province":"東京都","city":"品川区","address":"品川区八潮3-2-29エフプラザ東京E棟","lat":35.59926,"lon":139.7599},{"name":"区立戸越公園","province":"東京都","city":"品川区","address":"東京都品川区豊町2-1-30","lat":35.61059,"lon":139.72284},{"name":"区立しおじ公園","province":"東京都","city":"品川区","address":"東京都品川区八潮5-6","lat":35.59629,"lon":139.75039},{"name":"都立八潮高等学校","province":"東京都","city":"品川区","address":"東京都品川区東品川3-27-22","lat":35.611851,"lon":139.74661},{"name":"品川区","province":"東京都","city":"品川区","address":"品川区東中延2-4-2","lat":35.60927,"lon":139.7141},{"name":"東邦薬品（株）ＴＢＣ東京","province":"東京都","city":"品川区","address":"品川区八潮3-2-29エフプラザ東京E棟","lat":35.59926,"lon":139.7599},{"name":"区立戸越公園","province":"東京都","city":"品川区","address":"東京都品川区豊町2-1-30","lat":35.61059,"lon":139.72284},{"name":"区立しおじ公園","province":"東京都","city":"品川区","address":"東京都品川区八潮5-6","lat":35.59629,"lon":139.75039},{"name":"都立八潮高等学校","province":"東京都","city":"品川区","address":"東京都品川区東品川3-27-22","lat":35.611851,"lon":139.74661},{"name":"品川区","province":"東京都","city":"品川区","address":"品川区東中延2-4-2","lat":35.60927,"lon":139.7141},{"name":"東邦薬品（株）ＴＢＣ東京","province":"東京都","city":"品川区","address":"品川区八潮3-2-29エフプラザ東京E棟","lat":35.59926,"lon":139.7599},{"name":"区立戸越公園","province":"東京都","city":"品川区","address":"東京都品川区豊町2-1-30","lat":35.61059,"lon":139.72284},{"name":"区立しおじ公園","province":"東京都","city":"品川区","address":"東京都品川区八潮5-6","lat":35.59629,"lon":139.75039},{"name":"都立八潮高等学校","province":"東京都","city":"品川区","address":"東京都品川区東品川3-27-22","lat":35.611851,"lon":139.74661},{"name":"品川区","province":"東京都","city":"品川区","address":"品川区東中延2-4-2","lat":35.60927,"lon":139.7141},{"name":"東邦薬品（株）ＴＢＣ東京","province":"東京都","city":"品川区","address":"品川区八潮3-2-29エフプラザ東京E棟","lat":35.59926,"lon":139.7599},{"name":"区立戸越公園","province":"東京都","city":"品川区","address":"東京都品川区豊町2-1-30","lat":35.61059,"lon":139.72284},{"name":"区立しおじ公園","province":"東京都","city":"品川区","address":"東京都品川区八潮5-6","lat":35.59629,"lon":139.75039},{"name":"都立八潮高等学校","province":"東京都","city":"品川区","address":"東京都品川区東品川3-27-22","lat":35.611851,"lon":139.74661},{"name":"品川区","province":"東京都","city":"品川区","address":"品川区東中延2-4-2","lat":35.60927,"lon":139.7141},{"name":"東邦薬品（株）ＴＢＣ東京","province":"東京都","city":"品川区","address":"品川区八潮3-2-29エフプラザ東京E棟","lat":35.59926,"lon":139.7599},{"name":"区立戸越公園","province":"東京都","city":"品川区","address":"東京都品川区豊町2-1-30","lat":35.61059,"lon":139.72284},{"name":"区立しおじ公園","province":"東京都","city":"品川区","address":"東京都品川区八潮5-6","lat":35.59629,"lon":139.75039},{"name":"都立八潮高等学校","province":"東京都","city":"品川区","address":"東京都品川区東品川3-27-22","lat":35.611851,"lon":139.74661},{"name":"品川区","province":"東京都","city":"品川区","address":"品川区東中延2-4-2","lat":35.60927,"lon":139.7141},{"name":"東邦薬品（株）ＴＢＣ東京","province":"東京都","city":"品川区","address":"品川区八潮3-2-29エフプラザ東京E棟","lat":35.59926,"lon":139.7599},{"name":"区立戸越公園","province":"東京都","city":"品川区","address":"東京都品川区豊町2-1-30","lat":35.61059,"lon":139.72284},{"name":"区立しおじ公園","province":"東京都","city":"品川区","address":"東京都品川区八潮5-6","lat":35.59629,"lon":139.75039},{"name":"都立八潮高等学校","province":"東京都","city":"品川区","address":"東京都品川区東品川3-27-22","lat":35.611851,"lon":139.74661},{"name":"品川区","province":"東京都","city":"品川区","address":"品川区東中延2-4-2","lat":35.60927,"lon":139.7141},{"name":"東邦薬品（株）ＴＢＣ東京","province":"東京都","city":"品川区","address":"品川区八潮3-2-29エフプラザ東京E棟","lat":35.59926,"lon":139.7599},{"name":"区立戸越公園","province":"東京都","city":"品川区","address":"東京都品川区豊町2-1-30","lat":35.61059,"lon":139.72284},{"name":"区立しおじ公園","province":"東京都","city":"品川区","address":"東京都品川区八潮5-6","lat":35.59629,"lon":139.75039},{"name":"都立八潮高等学校","province":"東京都","city":"品川区","address":"東京都品川区東品川3-27-22","lat":35.611851,"lon":139.74661},{"name":"区立戸越公園","province":"東京都","city":"品川区","address":"東京都品川区豊町2-1-30","lat":35.61059,"lon":139.72284},{"name":"区立しおじ公園","province":"東京都","city":"品川区","address":"東京都品川区八潮5-6","lat":35.59629,"lon":139.75039},{"name":"都立八潮高等学校","province":"東京都","city":"品川区","address":"東京都品川区東品川3-27-22","lat":35.611851,"lon":139.74661},{"name":"区立戸越公園","province":"東京都","city":"品川区","address":"東京都品川区豊町2-1-30","lat":35.61059,"lon":139.72284},{"name":"区立しおじ公園","province":"東京都","city":"品川区","address":"東京都品川区八潮5-6","lat":35.59629,"lon":139.75039},{"name":"都立八潮高等学校","province":"東京都","city":"品川区","address":"東京都品川区東品川3-27-22","lat":35.611851,"lon":139.74661},{"name":"区立戸越公園","province":"東京都","city":"品川区","address":"東京都品川区豊町2-1-30","lat":35.61059,"lon":139.72284},{"name":"区立しおじ公園","province":"東京都","city":"品川区","address":"東京都品川区八潮5-6","lat":35.59629,"lon":139.75039},{"name":"都立八潮高等学校","province":"東京都","city":"品川区","address":"東京都品川区東品川3-27-22","lat":35.611851,"lon":139.74661},{"name":"区立戸越公園","province":"東京都","city":"品川区","address":"東京都品川区豊町2-1-30","lat":35.61059,"lon":139.72284},{"name":"区立しおじ公園","province":"東京都","city":"品川区","address":"東京都品川区八潮5-6","lat":35.59629,"lon":139.75039},{"name":"都立八潮高等学校","province":"東京都","city":"品川区","address":"東京都品川区東品川3-27-22","lat":35.611851,"lon":139.74661},{"name":"区立戸越公園","province":"東京都","city":"品川区","address":"東京都品川区豊町2-1-30","lat":35.61059,"lon":139.72284},{"name":"区立しおじ公園","province":"東京都","city":"品川区","address":"東京都品川区八潮5-6","lat":35.59629,"lon":139.75039},{"name":"都立八潮高等学校","province":"東京都","city":"品川区","address":"東京都品川区東品川3-27-22","lat":35.611851,"lon":139.74661},{"name":"区立戸越公園","province":"東京都","city":"品川区","address":"東京都品川区豊町2-1-30","lat":35.61059,"lon":139.72284},{"name":"区立しおじ公園","province":"東京都","city":"品川区","address":"東京都品川区八潮5-6","lat":35.59629,"lon":139.75039},{"name":"都立八潮高等学校","province":"東京都","city":"品川区","address":"東京都品川区東品川3-27-22","lat":35.611851,"lon":139.74661},{"name":"区立戸越公園","province":"東京都","city":"品川区","address":"東京都品川区豊町2-1-30","lat":35.61059,"lon":139.72284},{"name":"区立しおじ公園","province":"東京都","city":"品川区","address":"東京都品川区八潮5-6","lat":35.59629,"lon":139.75039},{"name":"都立八潮高等学校","province":"東京都","city":"品川区","address":"東京都品川区東品川3-27-22","lat":35.611851,"lon":139.74661},{"name":"区立戸越公園","province":"東京都","city":"品川区","address":"東京都品川区豊町2-1-30","lat":35.61059,"lon":139.72284},{"name":"区立しおじ公園","province":"東京都","city":"品川区","address":"東京都品川区八潮5-6","lat":35.59629,"lon":139.75039},{"name":"都立八潮高等学校","province":"東京都","city":"品川区","address":"東京都品川区東品川3-27-22","lat":35.611851,"lon":139.74661},{"name":"区立戸越公園","province":"東京都","city":"品川区","address":"東京都品川区豊町2-1-30","lat":35.61059,"lon":139.72284},{"name":"区立しおじ公園","province":"東京都","city":"品川区","address":"東京都品川区八潮5-6","lat":35.59629,"lon":139.75039},{"name":"都立八潮高等学校","province":"東京都","city":"品川区","address":"東京都品川区東品川3-27-22","lat":35.611851,"lon":139.74661},{"name":"区立戸越公園","province":"東京都","city":"品川区","address":"東京都品川区豊町2-1-30","lat":35.61059,"lon":139.72284},{"name":"区立しおじ公園","province":"東京都","city":"品川区","address":"東京都品川区八潮5-6","lat":35.59629,"lon":139.75039},{"name":"都立八潮高等学校","province":"東京都","city":"品川区","address":"東京都品川区東品川3-27-22","lat":35.611851,"lon":139.74661},{"name":"区立戸越公園","province":"東京都","city":"品川区","address":"東京都品川区豊町2-1-30","lat":35.61059,"lon":139.72284},{"name":"区立しおじ公園","province":"東京都","city":"品川区","address":"東京都品川区八潮5-6","lat":35.59629,"lon":139.75039},{"name":"都立八潮高等学校","province":"東京都","city":"品川区","address":"東京都品川区東品川3-27-22","lat":35.611851,"lon":139.74661},{"name":"区立戸越公園","province":"東京都","city":"品川区","address":"東京都品川区豊町2-1-30","lat":35.61059,"lon":139.72284},{"name":"区立しおじ公園","province":"東京都","city":"品川区","address":"東京都品川区八潮5-6","lat":35.59629,"lon":139.75039},{"name":"都立八潮高等学校","province":"東京都","city":"品川区","address":"東京都品川区東品川3-27-22","lat":35.611851,"lon":139.74661}]}