{"keyword":"回収","data":[{"name":"品川第一地域センター","province":"東京都","city":"品川区","address":"品川区北品川3-11-16","lat":35.616673,"lon":139.740036},{"name":"台場小学校","province":"東京都","city":"品川区","address":"品川区東品川1-8-30","lat":35.620869,"lon":139.743667},{"name":"三木小学校","province":"東京都","city":"品川区","address":"品川区西品川3-16-28","lat":35.615256,"lon":139.726544},{"name":"大崎第一地域センター","province":"東京都","city":"品川区","address":"品川区西五反田3-6-3","lat":35.627795,"lon":139.716815},{"name":"第一日野小学校","province":"東京都","city":"品川区","address":"品川区西五反田6-5-32","lat":35.622228,"lon":139.716127},{"name":"日野学園","province":"東京都","city":"品川区","address":"品川区東五反田2-11-1","lat":35.62454,"lon":139.72831},{"name":"第三日野小学校","province":"東京都","city":"品川区","address":"品川区上大崎1-19-19","lat":35.632789,"lon":139.723939},{"name":"後地小学校","province":"東京都","city":"品川区","address":"品川区小山2-4-6","lat":35.621519,"lon":139.708452},{"name":"小山小学校","province":"東京都","city":"品川区","address":"品川区小山5-10-6","lat":35.616018,"lon":139.70329},{"name":"大原小学校","province":"東京都","city":"品川区","address":"品川区戸越6-17-3","lat":35.607167,"lon":139.716467},{"name":"大井第一小学校","province":"東京都","city":"品川区","address":"品川区大井6-1-32","lat":35.598644,"lon":139.730919},{"name":"伊藤学園","province":"東京都","city":"品川区","address":"品川区大井5-1-37","lat":35.599873,"lon":139.726009},{"name":"鈴ケ森小学校","province":"東京都","city":"品川区","address":"品川区南大井4-16-2","lat":35.594487,"lon":139.735286},{"name":"大井第二地域センター","province":"東京都","city":"品川区","address":"品川区大井2-27-20","lat":35.604027,"lon":139.730464},{"name":"浅間台小学校","province":"東京都","city":"品川区","address":"品川区南品川6-8-8","lat":35.611462,"lon":139.736584},{"name":"大井第三地域センター","province":"東京都","city":"品川区","address":"品川区西大井4-1-8","lat":35.597669,"lon":139.72108},{"name":"京陽小学校","province":"東京都","city":"品川区","address":"品川区平塚2-19-20","lat":35.330742,"lon":139.337875},{"name":"城南第二小学校","province":"東京都","city":"品川区","address":"品川区東品川3-4-5","lat":35.615644,"lon":139.746083},{"name":"立会小学校","province":"東京都","city":"品川区","address":"品川区東大井4-15-9","lat":35.604432,"lon":139.740166},{"name":"旗台小学校","province":"東京都","city":"品川区","address":"品川区旗の台4-7-11","lat":35.603162,"lon":139.703765},{"name":"豊葉の杜学園","province":"東京都","city":"品川区","address":"品川区二葉1-3-40","lat":35.607037,"lon":139.72556},{"name":"延山小学校","province":"東京都","city":"品川区","address":"品川区西中延2-17-5","lat":35.608779,"lon":139.707882},{"name":"宮前小学校","province":"東京都","city":"品川区","address":"品川区戸越4-5-10","lat":35.611768,"lon":139.718319},{"name":"品川区役所","province":"東京都","city":"品川区","address":"品川区広町2-1-36","lat":35.609181,"lon":139.730167},{"name":"品川区清掃事務所","province":"東京都","city":"品川区","address":"品川区大崎1-14-1","lat":35.618345,"lon":139.733502},{"name":"芳水小学校","province":"東京都","city":"品川区","address":"品川区大崎3-12-22","lat":35.61857,"lon":139.724154},{"name":"伊藤小学校","province":"東京都","city":"品川区","address":"品川区西大井5-6-8","lat":35.598691,"lon":139.717367},{"name":"源氏前小学校","province":"東京都","city":"品川区","address":"品川区中延6-2-18","lat":35.603165,"lon":139.712064},{"name":"小山台小学校","province":"東京都","city":"品川区","address":"品川区小山台1-18-24","lat":35.62276,"lon":139.703466}]}