{"keyword":"形式","data":[{"name":"ヒヤリハット地点","province":"東京都","city":"品川区","address":"東京都品川区中延2丁目9","lat":35.61096644,"lon":139.7104154},{"name":"ヒヤリハット地点","province":"東京都","city":"品川区","address":"東京都品川区東品川3丁目4","lat":35.6146253,"lon":139.7450205},{"name":"ヒヤリハット地点","province":"東京都","city":"品川区","address":"東京都品川区中延2丁目15","lat":35.60933864,"lon":139.7107214},{"name":"ヒヤリハット地点","province":"東京都","city":"品川区","address":"東京都品川区東品川3丁目4","lat":35.61511095,"lon":139.7466275},{"name":"ヒヤリハット地点","province":"東京都","city":"品川区","address":"東京都品川区中延3丁目1","lat":35.60935025,"lon":139.7110594},{"name":"ヒヤリハット地点","province":"東京都","city":"品川区","address":"東京都品川区中延3丁目3","lat":35.60911902,"lon":139.7108183},{"name":"ヒヤリハット地点","province":"東京都","city":"品川区","address":"東京都品川区大崎2丁目9","lat":35.61642615,"lon":139.7264433},{"name":"ヒヤリハット地点","province":"東京都","city":"品川区","address":"東京都品川区中延2丁目4","lat":35.61195342,"lon":139.7115039},{"name":"ヒヤリハット地点","province":"東京都","city":"品川区","address":"東京都品川区東五反田1丁目23","lat":35.62620485,"lon":139.7272061},{"name":"ヒヤリハット地点","province":"東京都","city":"品川区","address":"東京都品川区大崎2丁目5","lat":35.61872979,"lon":139.7247835},{"name":"ヒヤリハット地点","province":"東京都","city":"品川区","address":"東京都品川区戸越4丁目5","lat":35.61223349,"lon":139.7187939},{"name":"ヒヤリハット地点","province":"東京都","city":"品川区","address":"東京都品川区戸越3丁目2","lat":35.61505142,"lon":139.7179143},{"name":"ヒヤリハット地点","province":"東京都","city":"品川区","address":"東京都品川区豊町2丁目11","lat":35.61201337,"lon":139.7236716},{"name":"ヒヤリハット地点","province":"東京都","city":"品川区","address":"東京都品川区豊町2丁目2","lat":35.61125237,"lon":139.7229258},{"name":"ヒヤリハット地点","province":"東京都","city":"品川区","address":"東京都品川区戸越1丁目30","lat":35.61583233,"lon":139.7225346},{"name":"ヒヤリハット地点","province":"東京都","city":"品川区","address":"東京都品川区東品川3丁目14","lat":35.61458783,"lon":139.7450846},{"name":"ヒヤリハット地点","province":"東京都","city":"品川区","address":"東京都品川区戸越3丁目4","lat":35.61382387,"lon":139.7162604},{"name":"ヒヤリハット地点","province":"東京都","city":"品川区","address":"東京都品川区戸越5丁目1","lat":35.61153688,"lon":139.7152688},{"name":"ヒヤリハット地点","province":"東京都","city":"品川区","address":"東京都品川区戸越2丁目6","lat":35.61360614,"lon":139.7206208},{"name":"ヒヤリハット地点","province":"東京都","city":"品川区","address":"東京都品川区戸越1丁目17","lat":35.61473467,"lon":139.7197157},{"name":"ヒヤリハット地点","province":"東京都","city":"品川区","address":"東京都品川区豊町5丁目13","lat":35.60551347,"lon":139.720448},{"name":"ヒヤリハット地点","province":"東京都","city":"品川区","address":"東京都品川区二葉2丁目2","lat":35.60660725,"lon":139.724432},{"name":"ヒヤリハット地点","province":"東京都","city":"品川区","address":"東京都品川区西品川1丁目25","lat":35.60985108,"lon":139.7266912},{"name":"ヒヤリハット地点","province":"東京都","city":"品川区","address":"東京都品川区西五反田4丁目31","lat":35.62733858,"lon":139.713925},{"name":"ヒヤリハット地点","province":"東京都","city":"品川区","address":"東京都品川区旗の台4丁目15","lat":35.602152,"lon":139.7062241},{"name":"ヒヤリハット地点","province":"東京都","city":"品川区","address":"東京都品川区南品川6丁目7","lat":35.61123291,"lon":139.7398334},{"name":"ヒヤリハット地点","province":"東京都","city":"品川区","address":"東京都品川区東品川3丁目6","lat":35.61545403,"lon":139.7476},{"name":"ヒヤリハット地点","province":"東京都","city":"品川区","address":"東京都品川区東品川3丁目8","lat":35.61563445,"lon":139.7477999},{"name":"ヒヤリハット地点","province":"東京都","city":"品川区","address":"東京都品川区東品川3丁目8","lat":35.61552187,"lon":139.747938},{"name":"ヒヤリハット地点","province":"東京都","city":"品川区","address":"東京都品川区戸越6丁目6","lat":35.60857219,"lon":139.717758},{"name":"ヒヤリハット地点","province":"東京都","city":"品川区","address":"東京都品川区西品川1丁目21","lat":35.61058554,"lon":139.7280469},{"name":"ヒヤリハット地点","province":"東京都","city":"品川区","address":"東京都品川区西品川1丁目9","lat":35.61342932,"lon":139.7295819},{"name":"ヒヤリハット地点","province":"東京都","city":"品川区","address":"東京都品川区西品川1丁目5","lat":35.61346871,"lon":139.7295266},{"name":"ヒヤリハット地点","province":"東京都","city":"品川区","address":"東京都品川区西品川2丁目6","lat":35.61386262,"lon":139.7261938},{"name":"ヒヤリハット地点","province":"東京都","city":"品川区","address":"東京都品川区戸越3丁目7","lat":35.61205652,"lon":139.7174599},{"name":"ヒヤリハット地点","province":"東京都","city":"品川区","address":"東京都品川区大崎2丁目6","lat":35.61697466,"lon":139.7247844},{"name":"ヒヤリハット地点","province":"東京都","city":"品川区","address":"東京都品川区西品川2丁目21","lat":35.61161517,"lon":139.7256521},{"name":"ヒヤリハット地点","province":"東京都","city":"品川区","address":"東京都品川区南大井5丁目1","lat":35.60063478,"lon":139.7347254},{"name":"ヒヤリハット地点","province":"東京都","city":"品川区","address":"東京都品川区南大井4丁目4","lat":35.59851795,"lon":139.7373614},{"name":"ヒヤリハット地点","province":"東京都","city":"品川区","address":"東京都品川区勝島1丁目3","lat":35.5982668,"lon":139.7429308},{"name":"ヒヤリハット地点","province":"東京都","city":"品川区","address":"東京都品川区南大井4丁目14","lat":35.59451555,"lon":139.7358246},{"name":"ヒヤリハット地点","province":"東京都","city":"品川区","address":"東京都品川区豊町3丁目3","lat":35.6077709,"lon":139.7204212},{"name":"ヒヤリハット地点","province":"東京都","city":"品川区","address":"東京都品川区豊町4丁目10","lat":35.60705646,"lon":139.7233558},{"name":"ヒヤリハット地点","province":"東京都","city":"品川区","address":"東京都品川区小山1丁目1","lat":35.62359729,"lon":139.7109975},{"name":"ヒヤリハット地点","province":"東京都","city":"品川区","address":"東京都品川区西大井2丁目24","lat":35.59777768,"lon":139.7242913},{"name":"ヒヤリハット地点","province":"東京都","city":"品川区","address":"東京都品川区荏原1丁目24","lat":35.62000584,"lon":139.7131717},{"name":"ヒヤリハット地点","province":"東京都","city":"品川区","address":"東京都品川区西大井2丁目5","lat":35.59881864,"lon":139.7223405},{"name":"ヒヤリハット地点","province":"東京都","city":"品川区","address":"東京都品川区西大井1丁目7","lat":35.60065281,"lon":139.7238153},{"name":"ヒヤリハット地点","province":"東京都","city":"品川区","address":"東京都品川区北品川5丁目7","lat":35.62164767,"lon":139.7312482},{"name":"ヒヤリハット地点","province":"東京都","city":"品川区","address":"東京都品川区大崎1丁目6","lat":35.62040764,"lon":139.7304908},{"name":"ヒヤリハット地点","province":"東京都","city":"品川区","address":"東京都品川区大崎1丁目21-4","lat":35.62061969,"lon":139.7281446},{"name":"ヒヤリハット地点","province":"東京都","city":"品川区","address":"東京都品川区北品川5丁目3","lat":35.62264141,"lon":139.7313327},{"name":"ヒヤリハット地点","province":"東京都","city":"品川区","address":"東京都品川区西大井5丁目5","lat":35.59807029,"lon":139.7156393},{"name":"ヒヤリハット地点","province":"東京都","city":"品川区","address":"東京都品川区西大井6丁目7","lat":35.60194548,"lon":139.7207588},{"name":"ヒヤリハット地点","province":"東京都","city":"品川区","address":"東京都品川区豊町3丁目2","lat":35.6087986,"lon":139.7197154},{"name":"ヒヤリハット地点","province":"東京都","city":"品川区","address":"東京都品川区東品川3丁目4","lat":35.61501147,"lon":139.7463129},{"name":"ヒヤリハット地点","province":"東京都","city":"品川区","address":"東京都品川区大崎2丁目2","lat":35.6191725,"lon":139.7259656},{"name":"ヒヤリハット地点","province":"東京都","city":"品川区","address":"東京都品川区北品川4丁目","lat":35.62046426,"lon":139.7376732},{"name":"ヒヤリハット地点","province":"東京都","city":"品川区","address":"東京都品川区北品川5丁目12","lat":35.62311521,"lon":139.7346065},{"name":"ヒヤリハット地点","province":"東京都","city":"品川区","address":"東京都品川区北品川5丁目4","lat":35.62131008,"lon":139.7317523},{"name":"ヒヤリハット地点","province":"東京都","city":"品川区","address":"東京都品川区北品川5丁目14","lat":35.6224731,"lon":139.7347591},{"name":"ヒヤリハット地点","province":"東京都","city":"品川区","address":"東京都品川区西大井4丁目24","lat":35.59267206,"lon":139.7202476},{"name":"ヒヤリハット地点","province":"東京都","city":"品川区","address":"東京都品川区西大井5丁目13","lat":35.59882348,"lon":139.7197147},{"name":"ヒヤリハット地点","province":"東京都","city":"品川区","address":"東京都品川区北品川5丁目9","lat":35.62116366,"lon":139.7318145},{"name":"ヒヤリハット地点","province":"東京都","city":"品川区","address":"東京都品川区東五反田2丁目22","lat":35.62366399,"lon":139.7306453},{"name":"ヒヤリハット地点","province":"東京都","city":"品川区","address":"東京都品川区北品川5丁目2","lat":35.62360826,"lon":139.731363},{"name":"ヒヤリハット地点","province":"東京都","city":"品川区","address":"東京都品川区東五反田2丁目18","lat":35.62370849,"lon":139.7299829},{"name":"ヒヤリハット地点","province":"東京都","city":"品川区","address":"東京都品川区北品川5丁目15","lat":35.62198307,"lon":139.7348701},{"name":"ヒヤリハット地点","province":"東京都","city":"品川区","address":"東京都品川区二葉2丁目8","lat":35.60422272,"lon":139.7243092},{"name":"ヒヤリハット地点","province":"東京都","city":"品川区","address":"東京都品川区旗の台4丁目7","lat":35.60396365,"lon":139.7048603},{"name":"ヒヤリハット地点","province":"東京都","city":"品川区","address":"東京都品川区大井6丁目18","lat":35.59605061,"lon":139.7311195},{"name":"ヒヤリハット地点","province":"東京都","city":"品川区","address":"東京都品川区南品川2丁目8","lat":35.61294829,"lon":139.7440498},{"name":"ヒヤリハット地点","province":"東京都","city":"品川区","address":"東京都品川区豊町5丁目8","lat":35.60525239,"lon":139.7190159},{"name":"ヒヤリハット地点","province":"東京都","city":"品川区","address":"東京都品川区西大井3丁目6","lat":35.59701981,"lon":139.7238275},{"name":"ヒヤリハット地点","province":"東京都","city":"品川区","address":"東京都品川区西大井3丁目6","lat":35.59681693,"lon":139.7237519},{"name":"ヒヤリハット地点","province":"東京都","city":"品川区","address":"東京都品川区大井3丁目22","lat":35.60095767,"lon":139.7275732},{"name":"ヒヤリハット地点","province":"東京都","city":"品川区","address":"東京都品川区東五反田2丁目16","lat":35.62294239,"lon":139.7300597},{"name":"ヒヤリハット地点","province":"東京都","city":"品川区","address":"東京都品川区大崎4丁目11","lat":35.61872962,"lon":139.7221577},{"name":"ヒヤリハット地点","province":"東京都","city":"品川区","address":"東京都品川区大井6丁目4","lat":35.59793994,"lon":139.7335934},{"name":"ヒヤリハット地点","province":"東京都","city":"品川区","address":"東京都品川区西大井3丁目15","lat":35.59571074,"lon":139.7225678},{"name":"ヒヤリハット地点","province":"東京都","city":"品川区","address":"東京都品川区戸越6丁目19","lat":35.60740579,"lon":139.7176052},{"name":"ヒヤリハット地点","province":"東京都","city":"品川区","address":"東京都品川区大井1丁目28","lat":35.60645209,"lon":139.730058},{"name":"ヒヤリハット地点","province":"東京都","city":"品川区","address":"東京都品川区北品川3丁目6","lat":35.61899674,"lon":139.7405906},{"name":"ヒヤリハット地点","province":"東京都","city":"品川区","address":"東京都品川区北品川3丁目11","lat":35.61681061,"lon":139.7402137},{"name":"ヒヤリハット地点","province":"東京都","city":"品川区","address":"東京都品川区南大井4丁目6","lat":35.5971792,"lon":139.7372938},{"name":"ヒヤリハット地点","province":"東京都","city":"品川区","address":"東京都品川区東大井3丁目26","lat":35.59886378,"lon":139.7374505},{"name":"ヒヤリハット地点","province":"東京都","city":"品川区","address":"東京都品川区南大井5丁目12","lat":35.59674859,"lon":139.7342663},{"name":"ヒヤリハット地点","province":"東京都","city":"品川区","address":"東京都品川区西五反田3丁目13","lat":35.62762055,"lon":139.7142213},{"name":"ヒヤリハット地点","province":"東京都","city":"品川区","address":"東京都品川区西五反田3丁目1","lat":35.62907513,"lon":139.7163073},{"name":"ヒヤリハット地点","province":"東京都","city":"品川区","address":"東京都品川区西五反田4丁目6","lat":35.62662016,"lon":139.7124854},{"name":"ヒヤリハット地点","province":"東京都","city":"品川区","address":"東京都品川区西五反田4丁目14","lat":35.62493875,"lon":139.7099211},{"name":"ヒヤリハット地点","province":"東京都","city":"品川区","address":"東京都品川区西五反田3丁目7","lat":35.62554087,"lon":139.717643},{"name":"ヒヤリハット地点","province":"東京都","city":"品川区","address":"東京都品川区上大崎1丁目20","lat":35.63237247,"lon":139.7215527},{"name":"ヒヤリハット地点","province":"東京都","city":"品川区","address":"東京都品川区小山7丁目7","lat":35.61130296,"lon":139.6968763},{"name":"ヒヤリハット地点","province":"東京都","city":"品川区","address":"東京都品川区荏原4丁目12","lat":35.61563536,"lon":139.7047029},{"name":"ヒヤリハット地点","province":"東京都","city":"品川区","address":"東京都品川区小山4丁目5","lat":35.61763792,"lon":139.7047032},{"name":"ヒヤリハット地点","province":"東京都","city":"品川区","address":"東京都品川区荏原3丁目8","lat":35.61825879,"lon":139.7059829},{"name":"ヒヤリハット地点","province":"東京都","city":"品川区","address":"東京都品川区小山2丁目16","lat":35.62034826,"lon":139.7086259},{"name":"ヒヤリハット地点","province":"東京都","city":"品川区","address":"東京都品川区荏原2丁目14","lat":35.61800859,"lon":139.7090354},{"name":"ヒヤリハット地点","province":"東京都","city":"品川区","address":"東京都品川区西五反田4丁目3","lat":35.62633958,"lon":139.7126958},{"name":"ヒヤリハット地点","province":"東京都","city":"品川区","address":"東京都品川区平塚2丁目20","lat":35.61509737,"lon":139.7138636},{"name":"ヒヤリハット地点","province":"東京都","city":"品川区","address":"東京都品川区西五反田5丁目31","lat":35.62223611,"lon":139.7148604},{"name":"ヒヤリハット地点","province":"東京都","city":"品川区","address":"東京都品川区西五反田6丁目5","lat":35.62286073,"lon":139.7165185},{"name":"ヒヤリハット地点","province":"東京都","city":"品川区","address":"東京都品川区西大井4丁目5","lat":35.59711876,"lon":139.7222347},{"name":"ヒヤリハット地点","province":"東京都","city":"品川区","address":"東京都品川区西大井2丁目16","lat":35.59965705,"lon":139.7237326},{"name":"ヒヤリハット地点","province":"東京都","city":"品川区","address":"東京都品川区東五反田5丁目27","lat":35.62714158,"lon":139.7242811},{"name":"ヒヤリハット地点","province":"東京都","city":"品川区","address":"東京都品川区東五反田2丁目9","lat":35.62384303,"lon":139.7266979},{"name":"ヒヤリハット地点","province":"東京都","city":"品川区","address":"東京都品川区東五反田3丁目15","lat":35.62588568,"lon":139.7294765},{"name":"ヒヤリハット地点","province":"東京都","city":"品川区","address":"東京都品川区東五反田2丁目22","lat":35.62358056,"lon":139.7313456},{"name":"ヒヤリハット地点","province":"東京都","city":"品川区","address":"東京都品川区北品川5丁目4","lat":35.62203699,"lon":139.7314676},{"name":"ヒヤリハット地点","province":"東京都","city":"品川区","address":"東京都品川区北品川5丁目8","lat":35.62068823,"lon":139.731915},{"name":"ヒヤリハット地点","province":"東京都","city":"品川区","address":"東京都品川区大井4丁目7","lat":35.6029509,"lon":139.7323317},{"name":"ヒヤリハット地点","province":"東京都","city":"品川区","address":"東京都品川区大井6丁目2","lat":35.59783868,"lon":139.7326207},{"name":"ヒヤリハット地点","province":"東京都","city":"品川区","address":"東京都品川区北品川4丁目8","lat":35.62029649,"lon":139.7353346},{"name":"ヒヤリハット地点","province":"東京都","city":"品川区","address":"東京都品川区南大井4丁目18","lat":35.59316983,"lon":139.7354443},{"name":"ヒヤリハット地点","province":"東京都","city":"品川区","address":"東京都品川区南品川4丁目5","lat":35.61413765,"lon":139.7394869},{"name":"ヒヤリハット地点","province":"東京都","city":"品川区","address":"東京都品川区南品川4丁目2","lat":35.61443282,"lon":139.7411188},{"name":"ヒヤリハット地点","province":"東京都","city":"品川区","address":"東京都品川区東品川3丁目17","lat":35.61470904,"lon":139.7503385},{"name":"ヒヤリハット地点","province":"東京都","city":"品川区","address":"東京都品川区荏原5丁目16","lat":35.6129521237,"lon":139.701927093},{"name":"ヒヤリハット地点","province":"東京都","city":"品川区","address":"東京都品川区戸越3丁目7","lat":35.6123251456,"lon":139.716531249},{"name":"ヒヤリハット地点","province":"東京都","city":"品川区","address":"東京都品川区戸越4丁目5","lat":35.6119534419,"lon":139.717830145},{"name":"ヒヤリハット地点","province":"東京都","city":"品川区","address":"東京都品川区上大崎3丁目5","lat":35.6346085381,"lon":139.719361798},{"name":"ヒヤリハット地点","province":"東京都","city":"品川区","address":"東京都品川区戸越4丁目10","lat":35.6114548414,"lon":139.720319939},{"name":"ヒヤリハット地点","province":"東京都","city":"品川区","address":"東京都品川区大井5丁目28","lat":35.598159211,"lon":139.726387578},{"name":"ヒヤリハット地点","province":"東京都","city":"品川区","address":"東京都品川区南大井5丁目15","lat":35.5956073372,"lon":139.732852138},{"name":"ヒヤリハット地点","province":"東京都","city":"品川区","address":"東京都品川区南大井4丁目5","lat":35.5977153719,"lon":139.737051591},{"name":"ヒヤリハット地点","province":"東京都","city":"品川区","address":"東京都品川区東品川1丁目29","lat":35.6207500265,"lon":139.742524789},{"name":"ヒヤリハット地点","province":"東京都","city":"品川区","address":"東京都品川区北品川2丁目7","lat":35.6192614027,"lon":139.744064113},{"name":"ヒヤリハット地点","province":"東京都","city":"品川区","address":"東京都品川区東品川3丁目22","lat":35.613246969,"lon":139.744803352},{"name":"ヒヤリハット地点","province":"東京都","city":"品川区","address":"東京都品川区勝島1丁目4","lat":35.6003336185,"lon":139.745568758},{"name":"ヒヤリハット地点","province":"東京都","city":"品川区","address":"東京都品川区東品川1丁目3","lat":35.621377917,"lon":139.745967005},{"name":"ヒヤリハット地点","province":"東京都","city":"品川区","address":"東京都品川区大崎1丁目","lat":35.62273308,"lon":139.7264058},{"name":"ヒヤリハット地点","province":"東京都","city":"品川区","address":"東京都品川区西五反田3丁目1","lat":35.63099955,"lon":139.7164392},{"name":"ヒヤリハット地点","province":"東京都","city":"品川区","address":"東京都品川区荏原3丁目5","lat":35.61761187,"lon":139.7085664},{"name":"ヒヤリハット地点","province":"東京都","city":"品川区","address":"東京都品川区荏原2丁目15","lat":35.61841655,"lon":139.7083461},{"name":"ヒヤリハット地点","province":"東京都","city":"品川区","address":"東京都品川区荏原4丁目2","lat":35.61711954,"lon":139.7064248},{"name":"ヒヤリハット地点","province":"東京都","city":"品川区","address":"東京都品川区西五反田6丁目14","lat":35.62014705,"lon":139.716689},{"name":"ヒヤリハット地点","province":"東京都","city":"品川区","address":"東京都品川区小山1丁目11","lat":35.6224964,"lon":139.708724},{"name":"ヒヤリハット地点","province":"東京都","city":"品川区","address":"東京都品川区二葉4丁目4","lat":35.60230673,"lon":139.7146733},{"name":"安全安心総点検","province":"東京都","city":"品川区","address":"東京都品川区東五反田2丁目22","lat":35.62360387,"lon":139.7312813},{"name":"安全安心総点検","province":"東京都","city":"品川区","address":"東京都品川区東五反田2丁目10","lat":35.62385755,"lon":139.7267826},{"name":"安全安心総点検","province":"東京都","city":"品川区","address":"東京都品川区西五反田2丁目","lat":35.62519513,"lon":139.7186137},{"name":"安全安心総点検","province":"東京都","city":"品川区","address":"東京都品川区西五反田4丁目29","lat":35.62580986,"lon":139.71313},{"name":"安全安心総点検","province":"東京都","city":"品川区","address":"東京都品川区北品川5丁目7","lat":35.62116928,"lon":139.7317562},{"name":"安全安心総点検","province":"東京都","city":"品川区","address":"東京都品川区南品川2丁目16","lat":35.61325902,"lon":139.7444269},{"name":"安全安心総点検","province":"東京都","city":"品川区","address":"東京都品川区豊町1丁目11","lat":35.61248157,"lon":139.7215599},{"name":"安全安心総点検","province":"東京都","city":"品川区","address":"東京都品川区戸越4丁目3","lat":35.61219315,"lon":139.7191771},{"name":"安全安心総点検","province":"東京都","city":"品川区","address":"東京都品川区戸越2丁目2","lat":35.61405203,"lon":139.7177638},{"name":"安全安心総点検","province":"東京都","city":"品川区","address":"東京都品川区戸越2丁目1","lat":35.61487581,"lon":139.7187878},{"name":"安全安心総点検","province":"東京都","city":"品川区","address":"東京都品川区平塚1丁目1","lat":35.61796315,"lon":139.7176267},{"name":"安全安心総点検","province":"東京都","city":"品川区","address":"東京都品川区荏原2丁目3","lat":35.61748279,"lon":139.7129572},{"name":"安全安心総点検","province":"東京都","city":"品川区","address":"東京都品川区平塚2丁目11","lat":35.61725397,"lon":139.713089},{"name":"安全安心総点検","province":"東京都","city":"品川区","address":"東京都品川区平塚2丁目19","lat":35.614779,"lon":139.7136622},{"name":"安全安心総点検","province":"東京都","city":"品川区","address":"東京都品川区平塚1丁目18","lat":35.61261113,"lon":139.7136654},{"name":"安全安心総点検","province":"東京都","city":"品川区","address":"東京都品川区小山4丁目8","lat":35.61869605,"lon":139.7031503},{"name":"安全安心総点検","province":"東京都","city":"品川区","address":"東京都品川区荏原5丁目9","lat":35.6148463,"lon":139.7026834},{"name":"安全安心総点検","province":"東京都","city":"品川区","address":"東京都品川区旗の台1丁目11","lat":35.60680393,"lon":139.7022672},{"name":"安全安心総点検","province":"東京都","city":"品川区","address":"東京都品川区旗の台2丁目9","lat":35.60671075,"lon":139.7021096},{"name":"安全安心総点検","province":"東京都","city":"品川区","address":"東京都品川区旗の台2丁目9-3","lat":35.60653187,"lon":139.7021012},{"name":"安全安心総点検","province":"東京都","city":"品川区","address":"東京都品川区戸越4丁目4","lat":35.61145847,"lon":139.7203084},{"name":"安全安心総点検","province":"東京都","city":"品川区","address":"東京都品川区戸越4丁目11","lat":35.61063576,"lon":139.7203972},{"name":"安全安心総点検","province":"東京都","city":"品川区","address":"東京都品川区南品川2丁目8-20","lat":35.61245865,"lon":139.7441124},{"name":"安全安心総点検","province":"東京都","city":"品川区","address":"東京都品川区南品川3丁目6","lat":35.61064855,"lon":139.7441757},{"name":"安全安心総点検","province":"東京都","city":"品川区","address":"東京都品川区東大井3丁目6","lat":35.60365564,"lon":139.7405653},{"name":"安全安心総点検","province":"東京都","city":"品川区","address":"東京都品川区東大井3丁目1","lat":35.60504155,"lon":139.7378654},{"name":"安全安心総点検","province":"東京都","city":"品川区","address":"東京都品川区大井4丁目19","lat":35.60094553,"lon":139.7335339},{"name":"安全安心総点検","province":"東京都","city":"品川区","address":"東京都品川区中延6丁目3","lat":35.60368142,"lon":139.7130655},{"name":"安全安心総点検","province":"東京都","city":"品川区","address":"東京都品川区中延6丁目4","lat":35.60272895,"lon":139.7121821},{"name":"安全安心総点検","province":"東京都","city":"品川区","address":"東京都品川区中延4丁目21","lat":35.60378801,"lon":139.7123382},{"name":"安全安心総点検","province":"東京都","city":"品川区","address":"東京都品川区中延6丁目2","lat":35.60395834,"lon":139.7109625},{"name":"安全安心総点検","province":"東京都","city":"品川区","address":"東京都品川区中延6丁目6","lat":35.60290679,"lon":139.7111568},{"name":"安全安心総点検","province":"東京都","city":"品川区","address":"東京都品川区中延4丁目14","lat":35.60508818,"lon":139.710365},{"name":"安全安心総点検","province":"東京都","city":"品川区","address":"東京都品川区旗の台5丁目1","lat":35.60491188,"lon":139.6993529},{"name":"安全安心総点検","province":"東京都","city":"品川区","address":"東京都品川区西大井5丁目17","lat":35.59849898,"lon":139.7179263},{"name":"安全安心総点検","province":"東京都","city":"品川区","address":"東京都品川区西大井5丁目10","lat":35.59995235,"lon":139.7189229},{"name":"安全安心総点検","province":"東京都","city":"品川区","address":"東京都品川区大井6丁目15","lat":35.59612119,"lon":139.7310958},{"name":"安全安心総点検","province":"東京都","city":"品川区","address":"東京都品川区南大井1丁目22","lat":35.59391486,"lon":139.7365296},{"name":"安全安心総点検","province":"東京都","city":"品川区","address":"東京都品川区南大井6丁目16","lat":35.59167749,"lon":139.7304007},{"name":"安全安心総点検","province":"東京都","city":"品川区","address":"東京都品川区大井7丁目24","lat":35.59483114,"lon":139.7285396}]}