{"keyword":"戸数","data":[{"name":"品川区社会福祉協議会","province":"東京都","city":"品川区","address":"品川区大井1-14-1大井一丁目共同ビル2階","lat":35.607695,"lon":139.731458},{"name":"品川区","province":"東京都","city":"品川区","address":"品川区広町2-1-36","lat":35.6088372,"lon":139.7302417},{"name":"フューネラルジャパン株式会社","province":"東京都","city":"品川区","address":"東京都品川区大井1丁目53-7","lat":35.60456746,"lon":139.73380519},{"name":"品川区社会福祉協議会","province":"東京都","city":"品川区","address":"品川区大井1-14-1大井1丁目共同ビル2階","lat":35.60756,"lon":139.73161},{"name":"品川区福祉計画課","province":"東京都","city":"品川区","address":"品川区広町2-1-36","lat":35.608299,"lon":139.730957},{"name":"成幸在宅介護支援センター","province":"東京都","city":"品川区","address":"品川区中延1-8-7","lat":35.612217,"lon":139.711746},{"name":"東品川在宅介護支援センター","province":"東京都","city":"品川区","address":"品川区東品川3-1-5","lat":35.616982,"lon":139.746597},{"name":"大井在宅介護支援センター","province":"東京都","city":"品川区","address":"品川区大井4-14-8","lat":35.601936,"lon":139.732315},{"name":"大崎在宅介護支援センター","province":"東京都","city":"品川区","address":"品川区大崎2-11-1、2階","lat":35.61837,"lon":139.727356},{"name":"戸越台在宅介護支援センター","province":"東京都","city":"品川区","address":"品川区平塚2-3-4","lat":35.618355,"lon":139.717682},{"name":"八潮在宅介護支援センター","province":"東京都","city":"品川区","address":"品川区八潮5-10-27","lat":35.599377,"lon":139.752625},{"name":"荏原在宅介護支援センター","province":"東京都","city":"品川区","address":"品川区荏原2-9-6","lat":35.617012,"lon":139.711105},{"name":"品川区統括在宅介護支援センター（品川区地域包括支援センター）","province":"東京都","city":"品川区","address":"品川区広町2-1-36","lat":35.608299,"lon":139.730957},{"name":"小山在宅介護支援センター","province":"東京都","city":"品川区","address":"品川区小山7-14-18","lat":35.608883,"lon":139.696838},{"name":"中延在宅介護支援センター","province":"東京都","city":"品川区","address":"品川区中延6-8-8","lat":35.601826,"lon":139.711487},{"name":"上大崎在宅介護支援センター","province":"東京都","city":"品川区","address":"品川区上大崎3-1-1","lat":35.632851,"lon":139.716843},{"name":"台場在宅介護支援センター","province":"東京都","city":"品川区","address":"品川区北品川3-11-16","lat":35.616436,"lon":139.739273},{"name":"西大井在宅介護支援センター","province":"東京都","city":"品川区","address":"品川区西大井2-4-4","lat":35.599796,"lon":139.722351},{"name":"南大井在宅介護支援センター","province":"東京都","city":"品川区","address":"品川区南大井4-19-3","lat":35.593044,"lon":139.734695},{"name":"杜松在宅介護支援センター","province":"東京都","city":"品川区","address":"品川区豊町4-24-15","lat":35.605835,"lon":139.722733},{"name":"南大井第二在宅介護支援センター","province":"東京都","city":"品川区","address":"品川区東大井4-9-1","lat":35.605358,"lon":139.740372},{"name":"大原在宅介護支援センター","province":"東京都","city":"品川区","address":"品川区豊町6-25-13","lat":35.603725,"lon":139.713684},{"name":"東品川第二在宅介護支援センター","province":"東京都","city":"品川区","address":"品川区東品川3-27-25オフィスイン品川3階","lat":35.611816,"lon":139.746674},{"name":"大井第二在宅介護支援センター","province":"東京都","city":"品川区","address":"品川区大井3-15-7","lat":35.602428,"lon":139.729401},{"name":"西五反田在宅介護支援センター","province":"東京都","city":"品川区","address":"品川区西五反田3-6-6","lat":35.627678,"lon":139.71785},{"name":"小山台在宅介護支援センター","province":"東京都","city":"品川区","address":"品川区小山台1-4-1(りんし21区民集会所3階)","lat":35.624367,"lon":139.704758},{"name":"品川区消費者センター","province":"東京都","city":"品川区","address":"品川区大井1-14-1大井1丁目共同ビル4階","lat":35.607559,"lon":139.731613},{"name":"昭和大学病院","province":"東京都","city":"品川区","address":"東京都品川区旗の台1丁目5-8","lat":35.60849688,"lon":139.70353258},{"name":"ＮＴＴ東日本関東病院","province":"東京都","city":"品川区","address":"東京都品川区東五反田5丁目9-22","lat":35.63091968,"lon":139.72494947},{"name":"桐ヶ谷火葬場","province":"東京都","city":"品川区","address":"東京都品川区西五反田5丁目32-20","lat":35.62232046,"lon":139.71367573},{"name":"（公財）塩事業センター","province":"東京都","city":"品川区","address":"東京都品川区大井1丁目47-1","lat":35.605259,"lon":139.73249415},{"name":"区立戸越公園","province":"東京都","city":"品川区","address":"東京都品川区豊町2丁目1-30","lat":35.61109965,"lon":139.72238087},{"name":"区立しおじ公園","province":"東京都","city":"品川区","address":"東京都品川区八潮5丁目6","lat":35.59734124,"lon":139.74955159},{"name":"都立八潮高等学校","province":"東京都","city":"品川区","address":"東京都品川区東品川3丁目27-22","lat":35.61185035,"lon":139.74660949},{"name":"都立大井埠頭中央海浜公園陸上競技場","province":"東京都","city":"品川区","address":"東京都品川区八潮4丁目1-19","lat":35.59255032,"lon":139.75229052},{"name":"品川区立天王州公園","province":"東京都","city":"品川区","address":"東京都品川区東品川2丁目5-42","lat":35.62054383,"lon":139.74927004},{"name":"品川区立鮫洲運動公園","province":"東京都","city":"品川区","address":"東京都品川区東大井1丁目4-11","lat":35.60589551,"lon":139.74500986},{"name":"品川区立八潮公園多目的広場","province":"東京都","city":"品川区","address":"東京都品川区八潮5丁目11-16","lat":35.60033269,"lon":139.75372891},{"name":"林試の森公園","province":"東京都","city":"品川区","address":"東京都品川区小山台2丁目","lat":35.62477825,"lon":139.69861029},{"name":"品川区選挙管理委員会","province":"東京都","city":"品川区","address":"品川区広町2-1-36品川区防災センター・第2庁舎","lat":35.609177,"lon":139.730167},{"name":"都立産業技術高等専門学校品川キャンパス","province":"東京都","city":"品川区","address":"東京都品川区東大井1丁目10-40","lat":35.60696497,"lon":139.7491345},{"name":"城南職業能力開発センター","province":"東京都","city":"品川区","address":"東京都品川区東品川3丁目31-16","lat":35.61250038,"lon":139.74965367},{"name":"大井ふ頭中央海浜公園","province":"東京都","city":"品川区","address":"東京都品川区八潮4丁目1-19","lat":35.59255032,"lon":139.75229052},{"name":"大井ふ頭中央海浜公園","province":"東京都","city":"品川区","address":"東京都品川区八潮4丁目2-1","lat":35.59337233,"lon":139.74986565},{"name":"大崎高等学校","province":"東京都","city":"品川区","address":"東京都品川区豊町2丁目1-7","lat":35.60950813,"lon":139.72128656},{"name":"小山台高等学校","province":"東京都","city":"品川区","address":"東京都品川区小山3丁目3-32","lat":35.62114821,"lon":139.70368496},{"name":"八潮高等学校","province":"東京都","city":"品川区","address":"東京都品川区東品川3丁目27-22","lat":35.61185035,"lon":139.74660949},{"name":"第二建設事務所","province":"東京都","city":"品川区","address":"品川区広町2-1-36","lat":35.608837,"lon":139.730242},{"name":"品川区","province":"東京都","city":"品川区","address":"品川区東中延2-4-2","lat":35.60927,"lon":139.7141},{"name":"東邦薬品（株）ＴＢＣ東京","province":"東京都","city":"品川区","address":"品川区八潮3-2-29エフプラザ東京E棟","lat":35.59926,"lon":139.7599},{"name":"品川Ｒ・Ｃセンター","province":"東京都","city":"品川区","address":"品川区八潮3-2-11","lat":35.591099,"lon":139.756607},{"name":"品川区社会福祉協議会","province":"東京都","city":"品川区","address":"品川区大井1-14-1大井一丁目共同ビル2階","lat":35.607695,"lon":139.731458},{"name":"品川区社会福祉協議会","province":"東京都","city":"品川区","address":"品川区大井1-14-1大井1丁目共同ビル2階","lat":35.60756,"lon":139.73161},{"name":"品川区福祉計画課","province":"東京都","city":"品川区","address":"品川区広町2-1-36","lat":35.608299,"lon":139.730957},{"name":"成幸在宅介護支援センター","province":"東京都","city":"品川区","address":"品川区中延1-8-7","lat":35.612217,"lon":139.711746},{"name":"東品川在宅介護支援センター","province":"東京都","city":"品川区","address":"品川区東品川3-1-5","lat":35.616982,"lon":139.746597},{"name":"大井在宅介護支援センター","province":"東京都","city":"品川区","address":"品川区大井4-14-8","lat":35.601936,"lon":139.732315},{"name":"大崎在宅介護支援センター","province":"東京都","city":"品川区","address":"品川区大崎2-11-1、2階","lat":35.61837,"lon":139.727356},{"name":"戸越台在宅介護支援センター","province":"東京都","city":"品川区","address":"品川区平塚2-3-4","lat":35.618355,"lon":139.717682},{"name":"八潮在宅介護支援センター","province":"東京都","city":"品川区","address":"品川区八潮5-10-27","lat":35.599377,"lon":139.752625},{"name":"荏原在宅介護支援センター","province":"東京都","city":"品川区","address":"品川区荏原2-9-6","lat":35.617012,"lon":139.711105},{"name":"品川区統括在宅介護支援センター（品川区地域包括支援センター）","province":"東京都","city":"品川区","address":"品川区広町2-1-36","lat":35.608299,"lon":139.730957},{"name":"小山在宅介護支援センター","province":"東京都","city":"品川区","address":"品川区小山7-14-18","lat":35.608883,"lon":139.696838},{"name":"中延在宅介護支援センター","province":"東京都","city":"品川区","address":"品川区中延6-8-8","lat":35.601826,"lon":139.711487},{"name":"上大崎在宅介護支援センター","province":"東京都","city":"品川区","address":"品川区上大崎3-1-1","lat":35.632851,"lon":139.716843},{"name":"台場在宅介護支援センター","province":"東京都","city":"品川区","address":"品川区北品川3-11-16","lat":35.616436,"lon":139.739273},{"name":"西大井在宅介護支援センター","province":"東京都","city":"品川区","address":"品川区西大井2-4-4","lat":35.599796,"lon":139.722351},{"name":"南大井在宅介護支援センター","province":"東京都","city":"品川区","address":"品川区南大井4-19-3","lat":35.593044,"lon":139.734695},{"name":"杜松在宅介護支援センター","province":"東京都","city":"品川区","address":"品川区豊町4-24-15","lat":35.605835,"lon":139.722733},{"name":"南大井第二在宅介護支援センター","province":"東京都","city":"品川区","address":"品川区東大井4-9-1","lat":35.605358,"lon":139.740372},{"name":"大原在宅介護支援センター","province":"東京都","city":"品川区","address":"品川区豊町6-25-13","lat":35.603725,"lon":139.713684},{"name":"東品川第二在宅介護支援センター","province":"東京都","city":"品川区","address":"品川区東品川3-27-25オフィスイン品川3階","lat":35.611816,"lon":139.746674},{"name":"大井第二在宅介護支援センター","province":"東京都","city":"品川区","address":"品川区大井3-15-7","lat":35.602428,"lon":139.729401},{"name":"西五反田在宅介護支援センター","province":"東京都","city":"品川区","address":"品川区西五反田3-6-6","lat":35.627678,"lon":139.71785},{"name":"小山台在宅介護支援センター","province":"東京都","city":"品川区","address":"品川区小山台1-4-1(りんし21区民集会所3階)","lat":35.624367,"lon":139.704758},{"name":"品川区消費者センター","province":"東京都","city":"品川区","address":"品川区大井1-14-1大井1丁目共同ビル4階","lat":35.607559,"lon":139.731613},{"name":"昭和大学病院","province":"東京都","city":"品川区","address":"東京都品川区旗の台1丁目5-8","lat":35.60849688,"lon":139.70353258},{"name":"ＮＴＴ東日本関東病院","province":"東京都","city":"品川区","address":"東京都品川区東五反田5丁目9-22","lat":35.63091968,"lon":139.72494947},{"name":"桐ヶ谷火葬場","province":"東京都","city":"品川区","address":"東京都品川区西五反田5丁目32-20","lat":35.62232046,"lon":139.71367573},{"name":"（公財）塩事業センター","province":"東京都","city":"品川区","address":"東京都品川区大井1丁目47-1","lat":35.605259,"lon":139.73249415},{"name":"区立戸越公園","province":"東京都","city":"品川区","address":"東京都品川区豊町2丁目1-30","lat":35.61109965,"lon":139.72238087},{"name":"区立しおじ公園","province":"東京都","city":"品川区","address":"東京都品川区八潮5丁目6","lat":35.59734124,"lon":139.74955159},{"name":"都立八潮高等学校","province":"東京都","city":"品川区","address":"東京都品川区東品川3丁目27-22","lat":35.61185035,"lon":139.74660949},{"name":"都立大井埠頭中央海浜公園陸上競技場","province":"東京都","city":"品川区","address":"東京都品川区八潮4丁目1-19","lat":35.59255032,"lon":139.75229052},{"name":"品川区立天王州公園","province":"東京都","city":"品川区","address":"東京都品川区東品川2丁目5-42","lat":35.62054383,"lon":139.74927004},{"name":"品川区立鮫洲運動公園","province":"東京都","city":"品川区","address":"東京都品川区東大井1丁目4-11","lat":35.60589551,"lon":139.74500986},{"name":"品川区立八潮公園多目的広場","province":"東京都","city":"品川区","address":"東京都品川区八潮5丁目11-16","lat":35.60033269,"lon":139.75372891},{"name":"林試の森公園","province":"東京都","city":"品川区","address":"東京都品川区小山台2丁目","lat":35.62477825,"lon":139.69861029},{"name":"都立産業技術高等専門学校品川キャンパス","province":"東京都","city":"品川区","address":"東京都品川区東大井1丁目10-40","lat":35.60696497,"lon":139.7491345},{"name":"城南職業能力開発センター","province":"東京都","city":"品川区","address":"東京都品川区東品川3丁目31-16","lat":35.61250038,"lon":139.74965367},{"name":"大井ふ頭中央海浜公園","province":"東京都","city":"品川区","address":"東京都品川区八潮4丁目1-19","lat":35.59255032,"lon":139.75229052},{"name":"大井ふ頭中央海浜公園","province":"東京都","city":"品川区","address":"東京都品川区八潮4丁目2-1","lat":35.59337233,"lon":139.74986565},{"name":"大崎高等学校","province":"東京都","city":"品川区","address":"東京都品川区豊町2丁目1-7","lat":35.60950813,"lon":139.72128656},{"name":"小山台高等学校","province":"東京都","city":"品川区","address":"東京都品川区小山3丁目3-32","lat":35.62114821,"lon":139.70368496},{"name":"八潮高等学校","province":"東京都","city":"品川区","address":"東京都品川区東品川3丁目27-22","lat":35.61185035,"lon":139.74660949},{"name":"第二建設事務所","province":"東京都","city":"品川区","address":"品川区広町2-1-36","lat":35.608837,"lon":139.730242},{"name":"品川区","province":"東京都","city":"品川区","address":"品川区東中延2-4-2","lat":35.60927,"lon":139.7141},{"name":"東邦薬品（株）ＴＢＣ東京","province":"東京都","city":"品川区","address":"品川区八潮3-2-29エフプラザ東京E棟","lat":35.59926,"lon":139.7599},{"name":"品川Ｒ・Ｃセンター","province":"東京都","city":"品川区","address":"品川区八潮3-2-11","lat":35.591099,"lon":139.756607},{"name":"品川区福祉計画課","province":"東京都","city":"品川区","address":"品川区広町2-1-36","lat":35.608299,"lon":139.730957},{"name":"成幸在宅介護支援センター","province":"東京都","city":"品川区","address":"品川区中延1-8-7","lat":35.612217,"lon":139.711746},{"name":"東品川在宅介護支援センター","province":"東京都","city":"品川区","address":"品川区東品川3-1-5","lat":35.616982,"lon":139.746597},{"name":"大井在宅介護支援センター","province":"東京都","city":"品川区","address":"品川区大井4-14-8","lat":35.601936,"lon":139.732315},{"name":"大崎在宅介護支援センター","province":"東京都","city":"品川区","address":"品川区大崎2-11-1、2階","lat":35.61837,"lon":139.727356},{"name":"戸越台在宅介護支援センター","province":"東京都","city":"品川区","address":"品川区平塚2-3-4","lat":35.618355,"lon":139.717682},{"name":"八潮在宅介護支援センター","province":"東京都","city":"品川区","address":"品川区八潮5-10-27","lat":35.599377,"lon":139.752625},{"name":"荏原在宅介護支援センター","province":"東京都","city":"品川区","address":"品川区荏原2-9-6","lat":35.617012,"lon":139.711105},{"name":"品川区統括在宅介護支援センター（品川区地域包括支援センター）","province":"東京都","city":"品川区","address":"品川区広町2-1-36","lat":35.608299,"lon":139.730957},{"name":"小山在宅介護支援センター","province":"東京都","city":"品川区","address":"品川区小山7-14-18","lat":35.608883,"lon":139.696838},{"name":"中延在宅介護支援センター","province":"東京都","city":"品川区","address":"品川区中延6-8-8","lat":35.601826,"lon":139.711487},{"name":"上大崎在宅介護支援センター","province":"東京都","city":"品川区","address":"品川区上大崎3-1-1","lat":35.632851,"lon":139.716843},{"name":"台場在宅介護支援センター","province":"東京都","city":"品川区","address":"品川区北品川3-11-16","lat":35.616436,"lon":139.739273},{"name":"西大井在宅介護支援センター","province":"東京都","city":"品川区","address":"品川区西大井2-4-4","lat":35.599796,"lon":139.722351},{"name":"南大井在宅介護支援センター","province":"東京都","city":"品川区","address":"品川区南大井4-19-3","lat":35.593044,"lon":139.734695},{"name":"杜松在宅介護支援センター","province":"東京都","city":"品川区","address":"品川区豊町4-24-15","lat":35.605835,"lon":139.722733},{"name":"南大井第二在宅介護支援センター","province":"東京都","city":"品川区","address":"品川区東大井4-9-1","lat":35.605358,"lon":139.740372},{"name":"大原在宅介護支援センター","province":"東京都","city":"品川区","address":"品川区豊町6-25-13","lat":35.603725,"lon":139.713684},{"name":"東品川第二在宅介護支援センター","province":"東京都","city":"品川区","address":"品川区東品川3-27-25オフィスイン品川3階","lat":35.611816,"lon":139.746674},{"name":"大井第二在宅介護支援センター","province":"東京都","city":"品川区","address":"品川区大井3-15-7","lat":35.602428,"lon":139.729401},{"name":"西五反田在宅介護支援センター","province":"東京都","city":"品川区","address":"品川区西五反田3-6-6","lat":35.627678,"lon":139.71785},{"name":"小山台在宅介護支援センター","province":"東京都","city":"品川区","address":"品川区小山台1-4-1(りんし21区民集会所3階)","lat":35.624367,"lon":139.704758},{"name":"品川区消費者センター","province":"東京都","city":"品川区","address":"品川区大井1-14-1大井1丁目共同ビル4階","lat":35.607559,"lon":139.731613},{"name":"昭和大学病院","province":"東京都","city":"品川区","address":"東京都品川区旗の台1丁目5-8","lat":35.60849688,"lon":139.70353258},{"name":"ＮＴＴ東日本関東病院","province":"東京都","city":"品川区","address":"東京都品川区東五反田5丁目9-22","lat":35.63091968,"lon":139.72494947},{"name":"（公財）塩事業センター","province":"東京都","city":"品川区","address":"東京都品川区大井1丁目47-1","lat":35.605259,"lon":139.73249415},{"name":"都立産業技術高等専門学校品川キャンパス","province":"東京都","city":"品川区","address":"東京都品川区東大井1丁目10-40","lat":35.60696497,"lon":139.7491345},{"name":"城南職業能力開発センター","province":"東京都","city":"品川区","address":"東京都品川区東品川3丁目31-16","lat":35.61250038,"lon":139.74965367},{"name":"大井ふ頭中央海浜公園","province":"東京都","city":"品川区","address":"東京都品川区八潮4丁目1-19","lat":35.59255032,"lon":139.75229052},{"name":"大井ふ頭中央海浜公園","province":"東京都","city":"品川区","address":"東京都品川区八潮4丁目2-1","lat":35.59337233,"lon":139.74986565},{"name":"大崎高等学校","province":"東京都","city":"品川区","address":"東京都品川区豊町2丁目1-7","lat":35.60950813,"lon":139.72128656},{"name":"小山台高等学校","province":"東京都","city":"品川区","address":"東京都品川区小山3丁目3-32","lat":35.62114821,"lon":139.70368496},{"name":"八潮高等学校","province":"東京都","city":"品川区","address":"東京都品川区東品川3丁目27-22","lat":35.61185035,"lon":139.74660949},{"name":"品川区福祉計画課","province":"東京都","city":"品川区","address":"品川区広町2-1-36","lat":35.608299,"lon":139.730957},{"name":"成幸在宅介護支援センター","province":"東京都","city":"品川区","address":"品川区中延1-8-7","lat":35.612217,"lon":139.711746},{"name":"東品川在宅介護支援センター","province":"東京都","city":"品川区","address":"品川区東品川3-1-5","lat":35.616982,"lon":139.746597},{"name":"大井在宅介護支援センター","province":"東京都","city":"品川区","address":"品川区大井4-14-8","lat":35.601936,"lon":139.732315},{"name":"大崎在宅介護支援センター","province":"東京都","city":"品川区","address":"品川区大崎2-11-1、2階","lat":35.61837,"lon":139.727356},{"name":"戸越台在宅介護支援センター","province":"東京都","city":"品川区","address":"品川区平塚2-3-4","lat":35.618355,"lon":139.717682},{"name":"八潮在宅介護支援センター","province":"東京都","city":"品川区","address":"品川区八潮5-10-27","lat":35.599377,"lon":139.752625},{"name":"荏原在宅介護支援センター","province":"東京都","city":"品川区","address":"品川区荏原2-9-6","lat":35.617012,"lon":139.711105},{"name":"品川区統括在宅介護支援センター（品川区地域包括支援センター）","province":"東京都","city":"品川区","address":"品川区広町2-1-36","lat":35.608299,"lon":139.730957},{"name":"小山在宅介護支援センター","province":"東京都","city":"品川区","address":"品川区小山7-14-18","lat":35.608883,"lon":139.696838},{"name":"中延在宅介護支援センター","province":"東京都","city":"品川区","address":"品川区中延6-8-8","lat":35.601826,"lon":139.711487},{"name":"上大崎在宅介護支援センター","province":"東京都","city":"品川区","address":"品川区上大崎3-1-1","lat":35.632851,"lon":139.716843},{"name":"台場在宅介護支援センター","province":"東京都","city":"品川区","address":"品川区北品川3-11-16","lat":35.616436,"lon":139.739273},{"name":"西大井在宅介護支援センター","province":"東京都","city":"品川区","address":"品川区西大井2-4-4","lat":35.599796,"lon":139.722351},{"name":"南大井在宅介護支援センター","province":"東京都","city":"品川区","address":"品川区南大井4-19-3","lat":35.593044,"lon":139.734695},{"name":"杜松在宅介護支援センター","province":"東京都","city":"品川区","address":"品川区豊町4-24-15","lat":35.605835,"lon":139.722733},{"name":"南大井第二在宅介護支援センター","province":"東京都","city":"品川区","address":"品川区東大井4-9-1","lat":35.605358,"lon":139.740372},{"name":"大原在宅介護支援センター","province":"東京都","city":"品川区","address":"品川区豊町6-25-13","lat":35.603725,"lon":139.713684},{"name":"東品川第二在宅介護支援センター","province":"東京都","city":"品川区","address":"品川区東品川3-27-25オフィスイン品川3階","lat":35.611816,"lon":139.746674},{"name":"大井第二在宅介護支援センター","province":"東京都","city":"品川区","address":"品川区大井3-15-7","lat":35.602428,"lon":139.729401},{"name":"西五反田在宅介護支援センター","province":"東京都","city":"品川区","address":"品川区西五反田3-6-6","lat":35.627678,"lon":139.71785},{"name":"小山台在宅介護支援センター","province":"東京都","city":"品川区","address":"品川区小山台1-4-1(りんし21区民集会所3階)","lat":35.624367,"lon":139.704758},{"name":"品川区消費者センター","province":"東京都","city":"品川区","address":"品川区大井1-14-1大井1丁目共同ビル4階","lat":35.607559,"lon":139.731613},{"name":"昭和大学病院","province":"東京都","city":"品川区","address":"東京都品川区旗の台1丁目5-8","lat":35.60849688,"lon":139.70353258},{"name":"ＮＴＴ東日本関東病院","province":"東京都","city":"品川区","address":"東京都品川区東五反田5丁目9-22","lat":35.63091968,"lon":139.72494947},{"name":"（公財）塩事業センター","province":"東京都","city":"品川区","address":"東京都品川区大井1丁目47-1","lat":35.605259,"lon":139.73249415},{"name":"都立産業技術高等専門学校品川キャンパス","province":"東京都","city":"品川区","address":"東京都品川区東大井1丁目10-40","lat":35.60696497,"lon":139.7491345},{"name":"城南職業能力開発センター","province":"東京都","city":"品川区","address":"東京都品川区東品川3丁目31-16","lat":35.61250038,"lon":139.74965367},{"name":"大井ふ頭中央海浜公園","province":"東京都","city":"品川区","address":"東京都品川区八潮4丁目1-19","lat":35.59255032,"lon":139.75229052},{"name":"大井ふ頭中央海浜公園","province":"東京都","city":"品川区","address":"東京都品川区八潮4丁目2-1","lat":35.59337233,"lon":139.74986565},{"name":"大崎高等学校","province":"東京都","city":"品川区","address":"東京都品川区豊町2丁目1-7","lat":35.60950813,"lon":139.72128656},{"name":"小山台高等学校","province":"東京都","city":"品川区","address":"東京都品川区小山3丁目3-32","lat":35.62114821,"lon":139.70368496},{"name":"八潮高等学校","province":"東京都","city":"品川区","address":"東京都品川区東品川3丁目27-22","lat":35.61185035,"lon":139.74660949},{"name":"品川区福祉計画課","province":"東京都","city":"品川区","address":"品川区広町2-1-36","lat":35.608299,"lon":139.730957},{"name":"成幸在宅介護支援センター","province":"東京都","city":"品川区","address":"品川区中延1-8-7","lat":35.612217,"lon":139.711746},{"name":"東品川在宅介護支援センター","province":"東京都","city":"品川区","address":"品川区東品川3-1-5","lat":35.616982,"lon":139.746597},{"name":"大井在宅介護支援センター","province":"東京都","city":"品川区","address":"品川区大井4-14-8","lat":35.601936,"lon":139.732315},{"name":"大崎在宅介護支援センター","province":"東京都","city":"品川区","address":"品川区大崎2-11-1、2階","lat":35.61837,"lon":139.727356},{"name":"戸越台在宅介護支援センター","province":"東京都","city":"品川区","address":"品川区平塚2-3-4","lat":35.618355,"lon":139.717682},{"name":"八潮在宅介護支援センター","province":"東京都","city":"品川区","address":"品川区八潮5-10-27","lat":35.599377,"lon":139.752625},{"name":"荏原在宅介護支援センター","province":"東京都","city":"品川区","address":"品川区荏原2-9-6","lat":35.617012,"lon":139.711105},{"name":"品川区統括在宅介護支援センター（品川区地域包括支援センター）","province":"東京都","city":"品川区","address":"品川区広町2-1-36","lat":35.608299,"lon":139.730957},{"name":"小山在宅介護支援センター","province":"東京都","city":"品川区","address":"品川区小山7-14-18","lat":35.608883,"lon":139.696838},{"name":"中延在宅介護支援センター","province":"東京都","city":"品川区","address":"品川区中延6-8-8","lat":35.601826,"lon":139.711487},{"name":"上大崎在宅介護支援センター","province":"東京都","city":"品川区","address":"品川区上大崎3-1-1","lat":35.632851,"lon":139.716843},{"name":"台場在宅介護支援センター","province":"東京都","city":"品川区","address":"品川区北品川3-11-16","lat":35.616436,"lon":139.739273},{"name":"西大井在宅介護支援センター","province":"東京都","city":"品川区","address":"品川区西大井2-4-4","lat":35.599796,"lon":139.722351},{"name":"南大井在宅介護支援センター","province":"東京都","city":"品川区","address":"品川区南大井4-19-3","lat":35.593044,"lon":139.734695},{"name":"杜松在宅介護支援センター","province":"東京都","city":"品川区","address":"品川区豊町4-24-15","lat":35.605835,"lon":139.722733},{"name":"南大井第二在宅介護支援センター","province":"東京都","city":"品川区","address":"品川区東大井4-9-1","lat":35.605358,"lon":139.740372},{"name":"大原在宅介護支援センター","province":"東京都","city":"品川区","address":"品川区豊町6-25-13","lat":35.603725,"lon":139.713684},{"name":"東品川第二在宅介護支援センター","province":"東京都","city":"品川区","address":"品川区東品川3-27-25オフィスイン品川3階","lat":35.611816,"lon":139.746674},{"name":"大井第二在宅介護支援センター","province":"東京都","city":"品川区","address":"品川区大井3-15-7","lat":35.602428,"lon":139.729401},{"name":"西五反田在宅介護支援センター","province":"東京都","city":"品川区","address":"品川区西五反田3-6-6","lat":35.627678,"lon":139.71785},{"name":"小山台在宅介護支援センター","province":"東京都","city":"品川区","address":"品川区小山台1-4-1(りんし21区民集会所3階)","lat":35.624367,"lon":139.704758},{"name":"品川区消費者センター","province":"東京都","city":"品川区","address":"品川区大井1-14-1大井1丁目共同ビル4階","lat":35.607559,"lon":139.731613},{"name":"品川区福祉計画課","province":"東京都","city":"品川区","address":"品川区広町2-1-36","lat":35.608299,"lon":139.730957},{"name":"成幸在宅介護支援センター","province":"東京都","city":"品川区","address":"品川区中延1-8-7","lat":35.612217,"lon":139.711746},{"name":"東品川在宅介護支援センター","province":"東京都","city":"品川区","address":"品川区東品川3-1-5","lat":35.616982,"lon":139.746597},{"name":"大井在宅介護支援センター","province":"東京都","city":"品川区","address":"品川区大井4-14-8","lat":35.601936,"lon":139.732315},{"name":"大崎在宅介護支援センター","province":"東京都","city":"品川区","address":"品川区大崎2-11-1、2階","lat":35.61837,"lon":139.727356},{"name":"戸越台在宅介護支援センター","province":"東京都","city":"品川区","address":"品川区平塚2-3-4","lat":35.618355,"lon":139.717682},{"name":"八潮在宅介護支援センター","province":"東京都","city":"品川区","address":"品川区八潮5-10-27","lat":35.599377,"lon":139.752625},{"name":"荏原在宅介護支援センター","province":"東京都","city":"品川区","address":"品川区荏原2-9-6","lat":35.617012,"lon":139.711105},{"name":"品川区統括在宅介護支援センター（品川区地域包括支援センター）","province":"東京都","city":"品川区","address":"品川区広町2-1-36","lat":35.608299,"lon":139.730957},{"name":"小山在宅介護支援センター","province":"東京都","city":"品川区","address":"品川区小山7-14-18","lat":35.608883,"lon":139.696838},{"name":"中延在宅介護支援センター","province":"東京都","city":"品川区","address":"品川区中延6-8-8","lat":35.601826,"lon":139.711487},{"name":"上大崎在宅介護支援センター","province":"東京都","city":"品川区","address":"品川区上大崎3-1-1","lat":35.632851,"lon":139.716843},{"name":"台場在宅介護支援センター","province":"東京都","city":"品川区","address":"品川区北品川3-11-16","lat":35.616436,"lon":139.739273},{"name":"西大井在宅介護支援センター","province":"東京都","city":"品川区","address":"品川区西大井2-4-4","lat":35.599796,"lon":139.722351},{"name":"南大井在宅介護支援センター","province":"東京都","city":"品川区","address":"品川区南大井4-19-3","lat":35.593044,"lon":139.734695},{"name":"杜松在宅介護支援センター","province":"東京都","city":"品川区","address":"品川区豊町4-24-15","lat":35.605835,"lon":139.722733},{"name":"南大井第二在宅介護支援センター","province":"東京都","city":"品川区","address":"品川区東大井4-9-1","lat":35.605358,"lon":139.740372},{"name":"大原在宅介護支援センター","province":"東京都","city":"品川区","address":"品川区豊町6-25-13","lat":35.603725,"lon":139.713684},{"name":"東品川第二在宅介護支援センター","province":"東京都","city":"品川区","address":"品川区東品川3-27-25オフィスイン品川3階","lat":35.611816,"lon":139.746674},{"name":"大井第二在宅介護支援センター","province":"東京都","city":"品川区","address":"品川区大井3-15-7","lat":35.602428,"lon":139.729401},{"name":"西五反田在宅介護支援センター","province":"東京都","city":"品川区","address":"品川区西五反田3-6-6","lat":35.627678,"lon":139.71785},{"name":"小山台在宅介護支援センター","province":"東京都","city":"品川区","address":"品川区小山台1-4-1(りんし21区民集会所3階)","lat":35.624367,"lon":139.704758},{"name":"品川区消費者センター","province":"東京都","city":"品川区","address":"品川区大井1-14-1大井1丁目共同ビル4階","lat":35.607559,"lon":139.731613},{"name":"品川区福祉計画課","province":"東京都","city":"品川区","address":"品川区広町2-1-36","lat":35.608299,"lon":139.730957},{"name":"成幸在宅介護支援センター","province":"東京都","city":"品川区","address":"品川区中延1-8-7","lat":35.612217,"lon":139.711746},{"name":"東品川在宅介護支援センター","province":"東京都","city":"品川区","address":"品川区東品川3-1-5","lat":35.616982,"lon":139.746597},{"name":"大井在宅介護支援センター","province":"東京都","city":"品川区","address":"品川区大井4-14-8","lat":35.601936,"lon":139.732315},{"name":"大崎在宅介護支援センター","province":"東京都","city":"品川区","address":"品川区大崎2-11-1、2階","lat":35.61837,"lon":139.727356},{"name":"戸越台在宅介護支援センター","province":"東京都","city":"品川区","address":"品川区平塚2-3-4","lat":35.618355,"lon":139.717682},{"name":"八潮在宅介護支援センター","province":"東京都","city":"品川区","address":"品川区八潮5-10-27","lat":35.599377,"lon":139.752625},{"name":"荏原在宅介護支援センター","province":"東京都","city":"品川区","address":"品川区荏原2-9-6","lat":35.617012,"lon":139.711105},{"name":"品川区統括在宅介護支援センター（品川区地域包括支援センター）","province":"東京都","city":"品川区","address":"品川区広町2-1-36","lat":35.608299,"lon":139.730957},{"name":"小山在宅介護支援センター","province":"東京都","city":"品川区","address":"品川区小山7-14-18","lat":35.608883,"lon":139.696838},{"name":"中延在宅介護支援センター","province":"東京都","city":"品川区","address":"品川区中延6-8-8","lat":35.601826,"lon":139.711487},{"name":"上大崎在宅介護支援センター","province":"東京都","city":"品川区","address":"品川区上大崎3-1-1","lat":35.632851,"lon":139.716843},{"name":"台場在宅介護支援センター","province":"東京都","city":"品川区","address":"品川区北品川3-11-16","lat":35.616436,"lon":139.739273},{"name":"西大井在宅介護支援センター","province":"東京都","city":"品川区","address":"品川区西大井2-4-4","lat":35.599796,"lon":139.722351},{"name":"南大井在宅介護支援センター","province":"東京都","city":"品川区","address":"品川区南大井4-19-3","lat":35.593044,"lon":139.734695},{"name":"杜松在宅介護支援センター","province":"東京都","city":"品川区","address":"品川区豊町4-24-15","lat":35.605835,"lon":139.722733},{"name":"南大井第二在宅介護支援センター","province":"東京都","city":"品川区","address":"品川区東大井4-9-1","lat":35.605358,"lon":139.740372},{"name":"大原在宅介護支援センター","province":"東京都","city":"品川区","address":"品川区豊町6-25-13","lat":35.603725,"lon":139.713684},{"name":"東品川第二在宅介護支援センター","province":"東京都","city":"品川区","address":"品川区東品川3-27-25オフィスイン品川3階","lat":35.611816,"lon":139.746674},{"name":"大井第二在宅介護支援センター","province":"東京都","city":"品川区","address":"品川区大井3-15-7","lat":35.602428,"lon":139.729401},{"name":"西五反田在宅介護支援センター","province":"東京都","city":"品川区","address":"品川区西五反田3-6-6","lat":35.627678,"lon":139.71785},{"name":"小山台在宅介護支援センター","province":"東京都","city":"品川区","address":"品川区小山台1-4-1(りんし21区民集会所3階)","lat":35.624367,"lon":139.704758},{"name":"品川区消費者センター","province":"東京都","city":"品川区","address":"品川区大井1-14-1大井1丁目共同ビル4階","lat":35.607559,"lon":139.731613},{"name":"品川区福祉計画課","province":"東京都","city":"品川区","address":"品川区広町2-1-36","lat":35.608299,"lon":139.730957},{"name":"成幸在宅介護支援センター","province":"東京都","city":"品川区","address":"品川区中延1-8-7","lat":35.612217,"lon":139.711746},{"name":"東品川在宅介護支援センター","province":"東京都","city":"品川区","address":"品川区東品川3-1-5","lat":35.616982,"lon":139.746597},{"name":"大井在宅介護支援センター","province":"東京都","city":"品川区","address":"品川区大井4-14-8","lat":35.601936,"lon":139.732315},{"name":"大崎在宅介護支援センター","province":"東京都","city":"品川区","address":"品川区大崎2-11-1、2階","lat":35.61837,"lon":139.727356},{"name":"戸越台在宅介護支援センター","province":"東京都","city":"品川区","address":"品川区平塚2-3-4","lat":35.618355,"lon":139.717682},{"name":"八潮在宅介護支援センター","province":"東京都","city":"品川区","address":"品川区八潮5-10-27","lat":35.599377,"lon":139.752625},{"name":"荏原在宅介護支援センター","province":"東京都","city":"品川区","address":"品川区荏原2-9-6","lat":35.617012,"lon":139.711105},{"name":"品川区統括在宅介護支援センター（品川区地域包括支援センター）","province":"東京都","city":"品川区","address":"品川区広町2-1-36","lat":35.608299,"lon":139.730957},{"name":"小山在宅介護支援センター","province":"東京都","city":"品川区","address":"品川区小山7-14-18","lat":35.608883,"lon":139.696838},{"name":"中延在宅介護支援センター","province":"東京都","city":"品川区","address":"品川区中延6-8-8","lat":35.601826,"lon":139.711487},{"name":"上大崎在宅介護支援センター","province":"東京都","city":"品川区","address":"品川区上大崎3-1-1","lat":35.632851,"lon":139.716843},{"name":"台場在宅介護支援センター","province":"東京都","city":"品川区","address":"品川区北品川3-11-16","lat":35.616436,"lon":139.739273},{"name":"西大井在宅介護支援センター","province":"東京都","city":"品川区","address":"品川区西大井2-4-4","lat":35.599796,"lon":139.722351},{"name":"南大井在宅介護支援センター","province":"東京都","city":"品川区","address":"品川区南大井4-19-3","lat":35.593044,"lon":139.734695},{"name":"杜松在宅介護支援センター","province":"東京都","city":"品川区","address":"品川区豊町4-24-15","lat":35.605835,"lon":139.722733},{"name":"南大井第二在宅介護支援センター","province":"東京都","city":"品川区","address":"品川区東大井4-9-1","lat":35.605358,"lon":139.740372},{"name":"大原在宅介護支援センター","province":"東京都","city":"品川区","address":"品川区豊町6-25-13","lat":35.603725,"lon":139.713684},{"name":"東品川第二在宅介護支援センター","province":"東京都","city":"品川区","address":"品川区東品川3-27-25オフィスイン品川3階","lat":35.611816,"lon":139.746674},{"name":"大井第二在宅介護支援センター","province":"東京都","city":"品川区","address":"品川区大井3-15-7","lat":35.602428,"lon":139.729401},{"name":"西五反田在宅介護支援センター","province":"東京都","city":"品川区","address":"品川区西五反田3-6-6","lat":35.627678,"lon":139.71785},{"name":"小山台在宅介護支援センター","province":"東京都","city":"品川区","address":"品川区小山台1-4-1(りんし21区民集会所3階)","lat":35.624367,"lon":139.704758},{"name":"品川区消費者センター","province":"東京都","city":"品川区","address":"品川区大井1-14-1大井1丁目共同ビル4階","lat":35.607559,"lon":139.731613},{"name":"品川区福祉計画課","province":"東京都","city":"品川区","address":"品川区広町2-1-36","lat":35.608299,"lon":139.730957},{"name":"成幸在宅介護支援センター","province":"東京都","city":"品川区","address":"品川区中延1-8-7","lat":35.612217,"lon":139.711746},{"name":"東品川在宅介護支援センター","province":"東京都","city":"品川区","address":"品川区東品川3-1-5","lat":35.616982,"lon":139.746597},{"name":"大井在宅介護支援センター","province":"東京都","city":"品川区","address":"品川区大井4-14-8","lat":35.601936,"lon":139.732315},{"name":"大崎在宅介護支援センター","province":"東京都","city":"品川区","address":"品川区大崎2-11-1、2階","lat":35.61837,"lon":139.727356},{"name":"戸越台在宅介護支援センター","province":"東京都","city":"品川区","address":"品川区平塚2-3-4","lat":35.618355,"lon":139.717682},{"name":"八潮在宅介護支援センター","province":"東京都","city":"品川区","address":"品川区八潮5-10-27","lat":35.599377,"lon":139.752625},{"name":"荏原在宅介護支援センター","province":"東京都","city":"品川区","address":"品川区荏原2-9-6","lat":35.617012,"lon":139.711105},{"name":"品川区統括在宅介護支援センター（品川区地域包括支援センター）","province":"東京都","city":"品川区","address":"品川区広町2-1-36","lat":35.608299,"lon":139.730957},{"name":"小山在宅介護支援センター","province":"東京都","city":"品川区","address":"品川区小山7-14-18","lat":35.608883,"lon":139.696838},{"name":"中延在宅介護支援センター","province":"東京都","city":"品川区","address":"品川区中延6-8-8","lat":35.601826,"lon":139.711487},{"name":"上大崎在宅介護支援センター","province":"東京都","city":"品川区","address":"品川区上大崎3-1-1","lat":35.632851,"lon":139.716843},{"name":"台場在宅介護支援センター","province":"東京都","city":"品川区","address":"品川区北品川3-11-16","lat":35.616436,"lon":139.739273},{"name":"西大井在宅介護支援センター","province":"東京都","city":"品川区","address":"品川区西大井2-4-4","lat":35.599796,"lon":139.722351},{"name":"南大井在宅介護支援センター","province":"東京都","city":"品川区","address":"品川区南大井4-19-3","lat":35.593044,"lon":139.734695},{"name":"杜松在宅介護支援センター","province":"東京都","city":"品川区","address":"品川区豊町4-24-15","lat":35.605835,"lon":139.722733},{"name":"南大井第二在宅介護支援センター","province":"東京都","city":"品川区","address":"品川区東大井4-9-1","lat":35.605358,"lon":139.740372},{"name":"大原在宅介護支援センター","province":"東京都","city":"品川区","address":"品川区豊町6-25-13","lat":35.603725,"lon":139.713684},{"name":"東品川第二在宅介護支援センター","province":"東京都","city":"品川区","address":"品川区東品川3-27-25オフィスイン品川3階","lat":35.611816,"lon":139.746674},{"name":"大井第二在宅介護支援センター","province":"東京都","city":"品川区","address":"品川区大井3-15-7","lat":35.602428,"lon":139.729401},{"name":"西五反田在宅介護支援センター","province":"東京都","city":"品川区","address":"品川区西五反田3-6-6","lat":35.627678,"lon":139.71785},{"name":"小山台在宅介護支援センター","province":"東京都","city":"品川区","address":"品川区小山台1-4-1(りんし21区民集会所3階)","lat":35.624367,"lon":139.704758},{"name":"品川区消費者センター","province":"東京都","city":"品川区","address":"品川区大井1-14-1大井1丁目共同ビル4階","lat":35.607559,"lon":139.731613},{"name":"品川区福祉計画課","province":"東京都","city":"品川区","address":"品川区広町2-1-36","lat":35.608299,"lon":139.730957},{"name":"成幸在宅介護支援センター","province":"東京都","city":"品川区","address":"品川区中延1-8-7","lat":35.612217,"lon":139.711746},{"name":"東品川在宅介護支援センター","province":"東京都","city":"品川区","address":"品川区東品川3-1-5","lat":35.616982,"lon":139.746597},{"name":"大井在宅介護支援センター","province":"東京都","city":"品川区","address":"品川区大井4-14-8","lat":35.601936,"lon":139.732315},{"name":"大崎在宅介護支援センター","province":"東京都","city":"品川区","address":"品川区大崎2-11-1、2階","lat":35.61837,"lon":139.727356},{"name":"戸越台在宅介護支援センター","province":"東京都","city":"品川区","address":"品川区平塚2-3-4","lat":35.618355,"lon":139.717682},{"name":"八潮在宅介護支援センター","province":"東京都","city":"品川区","address":"品川区八潮5-10-27","lat":35.599377,"lon":139.752625},{"name":"荏原在宅介護支援センター","province":"東京都","city":"品川区","address":"品川区荏原2-9-6","lat":35.617012,"lon":139.711105},{"name":"品川区統括在宅介護支援センター（品川区地域包括支援センター）","province":"東京都","city":"品川区","address":"品川区広町2-1-36","lat":35.608299,"lon":139.730957},{"name":"小山在宅介護支援センター","province":"東京都","city":"品川区","address":"品川区小山7-14-18","lat":35.608883,"lon":139.696838},{"name":"中延在宅介護支援センター","province":"東京都","city":"品川区","address":"品川区中延6-8-8","lat":35.601826,"lon":139.711487},{"name":"上大崎在宅介護支援センター","province":"東京都","city":"品川区","address":"品川区上大崎3-1-1","lat":35.632851,"lon":139.716843},{"name":"台場在宅介護支援センター","province":"東京都","city":"品川区","address":"品川区北品川3-11-16","lat":35.616436,"lon":139.739273},{"name":"西大井在宅介護支援センター","province":"東京都","city":"品川区","address":"品川区西大井2-4-4","lat":35.599796,"lon":139.722351},{"name":"南大井在宅介護支援センター","province":"東京都","city":"品川区","address":"品川区南大井4-19-3","lat":35.593044,"lon":139.734695},{"name":"杜松在宅介護支援センター","province":"東京都","city":"品川区","address":"品川区豊町4-24-15","lat":35.605835,"lon":139.722733},{"name":"南大井第二在宅介護支援センター","province":"東京都","city":"品川区","address":"品川区東大井4-9-1","lat":35.605358,"lon":139.740372},{"name":"大原在宅介護支援センター","province":"東京都","city":"品川区","address":"品川区豊町6-25-13","lat":35.603725,"lon":139.713684},{"name":"東品川第二在宅介護支援センター","province":"東京都","city":"品川区","address":"品川区東品川3-27-25オフィスイン品川3階","lat":35.611816,"lon":139.746674},{"name":"大井第二在宅介護支援センター","province":"東京都","city":"品川区","address":"品川区大井3-15-7","lat":35.602428,"lon":139.729401},{"name":"西五反田在宅介護支援センター","province":"東京都","city":"品川区","address":"品川区西五反田3-6-6","lat":35.627678,"lon":139.71785},{"name":"小山台在宅介護支援センター","province":"東京都","city":"品川区","address":"品川区小山台1-4-1(りんし21区民集会所3階)","lat":35.624367,"lon":139.704758},{"name":"品川区消費者センター","province":"東京都","city":"品川区","address":"品川区大井1-14-1大井1丁目共同ビル4階","lat":35.607559,"lon":139.731613},{"name":"品川区福祉計画課","province":"東京都","city":"品川区","address":"品川区広町2-1-36","lat":35.608299,"lon":139.730957},{"name":"成幸在宅介護支援センター","province":"東京都","city":"品川区","address":"品川区中延1-8-7","lat":35.612217,"lon":139.711746},{"name":"東品川在宅介護支援センター","province":"東京都","city":"品川区","address":"品川区東品川3-1-5","lat":35.616982,"lon":139.746597},{"name":"大井在宅介護支援センター","province":"東京都","city":"品川区","address":"品川区大井4-14-8","lat":35.601936,"lon":139.732315},{"name":"大崎在宅介護支援センター","province":"東京都","city":"品川区","address":"品川区大崎2-11-1、2階","lat":35.61837,"lon":139.727356},{"name":"戸越台在宅介護支援センター","province":"東京都","city":"品川区","address":"品川区平塚2-3-4","lat":35.618355,"lon":139.717682},{"name":"八潮在宅介護支援センター","province":"東京都","city":"品川区","address":"品川区八潮5-10-27","lat":35.599377,"lon":139.752625},{"name":"荏原在宅介護支援センター","province":"東京都","city":"品川区","address":"品川区荏原2-9-6","lat":35.617012,"lon":139.711105},{"name":"品川区統括在宅介護支援センター（品川区地域包括支援センター）","province":"東京都","city":"品川区","address":"品川区広町2-1-36","lat":35.608299,"lon":139.730957},{"name":"小山在宅介護支援センター","province":"東京都","city":"品川区","address":"品川区小山7-14-18","lat":35.608883,"lon":139.696838},{"name":"中延在宅介護支援センター","province":"東京都","city":"品川区","address":"品川区中延6-8-8","lat":35.601826,"lon":139.711487},{"name":"上大崎在宅介護支援センター","province":"東京都","city":"品川区","address":"品川区上大崎3-1-1","lat":35.632851,"lon":139.716843},{"name":"台場在宅介護支援センター","province":"東京都","city":"品川区","address":"品川区北品川3-11-16","lat":35.616436,"lon":139.739273},{"name":"西大井在宅介護支援センター","province":"東京都","city":"品川区","address":"品川区西大井2-4-4","lat":35.599796,"lon":139.722351},{"name":"南大井在宅介護支援センター","province":"東京都","city":"品川区","address":"品川区南大井4-19-3","lat":35.593044,"lon":139.734695},{"name":"杜松在宅介護支援センター","province":"東京都","city":"品川区","address":"品川区豊町4-24-15","lat":35.605835,"lon":139.722733},{"name":"南大井第二在宅介護支援センター","province":"東京都","city":"品川区","address":"品川区東大井4-9-1","lat":35.605358,"lon":139.740372},{"name":"大原在宅介護支援センター","province":"東京都","city":"品川区","address":"品川区豊町6-25-13","lat":35.603725,"lon":139.713684},{"name":"東品川第二在宅介護支援センター","province":"東京都","city":"品川区","address":"品川区東品川3-27-25オフィスイン品川3階","lat":35.611816,"lon":139.746674},{"name":"大井第二在宅介護支援センター","province":"東京都","city":"品川区","address":"品川区大井3-15-7","lat":35.602428,"lon":139.729401},{"name":"西五反田在宅介護支援センター","province":"東京都","city":"品川区","address":"品川区西五反田3-6-6","lat":35.627678,"lon":139.71785},{"name":"小山台在宅介護支援センター","province":"東京都","city":"品川区","address":"品川区小山台1-4-1(りんし21区民集会所3階)","lat":35.624367,"lon":139.704758},{"name":"品川区消費者センター","province":"東京都","city":"品川区","address":"品川区大井1-14-1大井1丁目共同ビル4階","lat":35.607559,"lon":139.731613},{"name":"品川区福祉計画課","province":"東京都","city":"品川区","address":"品川区広町2-1-36","lat":35.608299,"lon":139.730957},{"name":"成幸在宅介護支援センター","province":"東京都","city":"品川区","address":"品川区中延1-8-7","lat":35.612217,"lon":139.711746},{"name":"東品川在宅介護支援センター","province":"東京都","city":"品川区","address":"品川区東品川3-1-5","lat":35.616982,"lon":139.746597},{"name":"大井在宅介護支援センター","province":"東京都","city":"品川区","address":"品川区大井4-14-8","lat":35.601936,"lon":139.732315},{"name":"大崎在宅介護支援センター","province":"東京都","city":"品川区","address":"品川区大崎2-11-1、2階","lat":35.61837,"lon":139.727356},{"name":"戸越台在宅介護支援センター","province":"東京都","city":"品川区","address":"品川区平塚2-3-4","lat":35.618355,"lon":139.717682},{"name":"八潮在宅介護支援センター","province":"東京都","city":"品川区","address":"品川区八潮5-10-27","lat":35.599377,"lon":139.752625},{"name":"荏原在宅介護支援センター","province":"東京都","city":"品川区","address":"品川区荏原2-9-6","lat":35.617012,"lon":139.711105},{"name":"品川区統括在宅介護支援センター（品川区地域包括支援センター）","province":"東京都","city":"品川区","address":"品川区広町2-1-36","lat":35.608299,"lon":139.730957},{"name":"小山在宅介護支援センター","province":"東京都","city":"品川区","address":"品川区小山7-14-18","lat":35.608883,"lon":139.696838},{"name":"中延在宅介護支援センター","province":"東京都","city":"品川区","address":"品川区中延6-8-8","lat":35.601826,"lon":139.711487},{"name":"上大崎在宅介護支援センター","province":"東京都","city":"品川区","address":"品川区上大崎3-1-1","lat":35.632851,"lon":139.716843},{"name":"台場在宅介護支援センター","province":"東京都","city":"品川区","address":"品川区北品川3-11-16","lat":35.616436,"lon":139.739273},{"name":"西大井在宅介護支援センター","province":"東京都","city":"品川区","address":"品川区西大井2-4-4","lat":35.599796,"lon":139.722351},{"name":"南大井在宅介護支援センター","province":"東京都","city":"品川区","address":"品川区南大井4-19-3","lat":35.593044,"lon":139.734695},{"name":"杜松在宅介護支援センター","province":"東京都","city":"品川区","address":"品川区豊町4-24-15","lat":35.605835,"lon":139.722733},{"name":"南大井第二在宅介護支援センター","province":"東京都","city":"品川区","address":"品川区東大井4-9-1","lat":35.605358,"lon":139.740372},{"name":"大原在宅介護支援センター","province":"東京都","city":"品川区","address":"品川区豊町6-25-13","lat":35.603725,"lon":139.713684},{"name":"東品川第二在宅介護支援センター","province":"東京都","city":"品川区","address":"品川区東品川3-27-25オフィスイン品川3階","lat":35.611816,"lon":139.746674},{"name":"大井第二在宅介護支援センター","province":"東京都","city":"品川区","address":"品川区大井3-15-7","lat":35.602428,"lon":139.729401},{"name":"西五反田在宅介護支援センター","province":"東京都","city":"品川区","address":"品川区西五反田3-6-6","lat":35.627678,"lon":139.71785},{"name":"小山台在宅介護支援センター","province":"東京都","city":"品川区","address":"品川区小山台1-4-1(りんし21区民集会所3階)","lat":35.624367,"lon":139.704758},{"name":"品川区消費者センター","province":"東京都","city":"品川区","address":"品川区大井1-14-1大井1丁目共同ビル4階","lat":35.607559,"lon":139.731613},{"name":"品川区福祉計画課","province":"東京都","city":"品川区","address":"品川区広町2-1-36","lat":35.608299,"lon":139.730957},{"name":"成幸在宅介護支援センター","province":"東京都","city":"品川区","address":"品川区中延1-8-7","lat":35.612217,"lon":139.711746},{"name":"東品川在宅介護支援センター","province":"東京都","city":"品川区","address":"品川区東品川3-1-5","lat":35.616982,"lon":139.746597},{"name":"大井在宅介護支援センター","province":"東京都","city":"品川区","address":"品川区大井4-14-8","lat":35.601936,"lon":139.732315},{"name":"大崎在宅介護支援センター","province":"東京都","city":"品川区","address":"品川区大崎2-11-1、2階","lat":35.61837,"lon":139.727356},{"name":"戸越台在宅介護支援センター","province":"東京都","city":"品川区","address":"品川区平塚2-3-4","lat":35.618355,"lon":139.717682},{"name":"八潮在宅介護支援センター","province":"東京都","city":"品川区","address":"品川区八潮5-10-27","lat":35.599377,"lon":139.752625},{"name":"荏原在宅介護支援センター","province":"東京都","city":"品川区","address":"品川区荏原2-9-6","lat":35.617012,"lon":139.711105},{"name":"品川区統括在宅介護支援センター（品川区地域包括支援センター）","province":"東京都","city":"品川区","address":"品川区広町2-1-36","lat":35.608299,"lon":139.730957},{"name":"小山在宅介護支援センター","province":"東京都","city":"品川区","address":"品川区小山7-14-18","lat":35.608883,"lon":139.696838},{"name":"中延在宅介護支援センター","province":"東京都","city":"品川区","address":"品川区中延6-8-8","lat":35.601826,"lon":139.711487},{"name":"上大崎在宅介護支援センター","province":"東京都","city":"品川区","address":"品川区上大崎3-1-1","lat":35.632851,"lon":139.716843},{"name":"台場在宅介護支援センター","province":"東京都","city":"品川区","address":"品川区北品川3-11-16","lat":35.616436,"lon":139.739273},{"name":"西大井在宅介護支援センター","province":"東京都","city":"品川区","address":"品川区西大井2-4-4","lat":35.599796,"lon":139.722351},{"name":"南大井在宅介護支援センター","province":"東京都","city":"品川区","address":"品川区南大井4-19-3","lat":35.593044,"lon":139.734695},{"name":"杜松在宅介護支援センター","province":"東京都","city":"品川区","address":"品川区豊町4-24-15","lat":35.605835,"lon":139.722733},{"name":"南大井第二在宅介護支援センター","province":"東京都","city":"品川区","address":"品川区東大井4-9-1","lat":35.605358,"lon":139.740372},{"name":"大原在宅介護支援センター","province":"東京都","city":"品川区","address":"品川区豊町6-25-13","lat":35.603725,"lon":139.713684},{"name":"東品川第二在宅介護支援センター","province":"東京都","city":"品川区","address":"品川区東品川3-27-25オフィスイン品川3階","lat":35.611816,"lon":139.746674},{"name":"大井第二在宅介護支援センター","province":"東京都","city":"品川区","address":"品川区大井3-15-7","lat":35.602428,"lon":139.729401},{"name":"西五反田在宅介護支援センター","province":"東京都","city":"品川区","address":"品川区西五反田3-6-6","lat":35.627678,"lon":139.71785},{"name":"小山台在宅介護支援センター","province":"東京都","city":"品川区","address":"品川区小山台1-4-1(りんし21区民集会所3階)","lat":35.624367,"lon":139.704758},{"name":"品川区消費者センター","province":"東京都","city":"品川区","address":"品川区大井1-14-1大井1丁目共同ビル4階","lat":35.607559,"lon":139.731613},{"name":"品川区福祉計画課","province":"東京都","city":"品川区","address":"品川区広町2-1-36","lat":35.608299,"lon":139.730957},{"name":"成幸在宅介護支援センター","province":"東京都","city":"品川区","address":"品川区中延1-8-7","lat":35.612217,"lon":139.711746},{"name":"東品川在宅介護支援センター","province":"東京都","city":"品川区","address":"品川区東品川3-1-5","lat":35.616982,"lon":139.746597},{"name":"大井在宅介護支援センター","province":"東京都","city":"品川区","address":"品川区大井4-14-8","lat":35.601936,"lon":139.732315},{"name":"大崎在宅介護支援センター","province":"東京都","city":"品川区","address":"品川区大崎2-11-1、2階","lat":35.61837,"lon":139.727356},{"name":"戸越台在宅介護支援センター","province":"東京都","city":"品川区","address":"品川区平塚2-3-4","lat":35.618355,"lon":139.717682},{"name":"八潮在宅介護支援センター","province":"東京都","city":"品川区","address":"品川区八潮5-10-27","lat":35.599377,"lon":139.752625},{"name":"荏原在宅介護支援センター","province":"東京都","city":"品川区","address":"品川区荏原2-9-6","lat":35.617012,"lon":139.711105},{"name":"品川区統括在宅介護支援センター（品川区地域包括支援センター）","province":"東京都","city":"品川区","address":"品川区広町2-1-36","lat":35.608299,"lon":139.730957},{"name":"小山在宅介護支援センター","province":"東京都","city":"品川区","address":"品川区小山7-14-18","lat":35.608883,"lon":139.696838},{"name":"中延在宅介護支援センター","province":"東京都","city":"品川区","address":"品川区中延6-8-8","lat":35.601826,"lon":139.711487},{"name":"上大崎在宅介護支援センター","province":"東京都","city":"品川区","address":"品川区上大崎3-1-1","lat":35.632851,"lon":139.716843},{"name":"台場在宅介護支援センター","province":"東京都","city":"品川区","address":"品川区北品川3-11-16","lat":35.616436,"lon":139.739273},{"name":"西大井在宅介護支援センター","province":"東京都","city":"品川区","address":"品川区西大井2-4-4","lat":35.599796,"lon":139.722351},{"name":"南大井在宅介護支援センター","province":"東京都","city":"品川区","address":"品川区南大井4-19-3","lat":35.593044,"lon":139.734695},{"name":"杜松在宅介護支援センター","province":"東京都","city":"品川区","address":"品川区豊町4-24-15","lat":35.605835,"lon":139.722733},{"name":"南大井第二在宅介護支援センター","province":"東京都","city":"品川区","address":"品川区東大井4-9-1","lat":35.605358,"lon":139.740372},{"name":"大原在宅介護支援センター","province":"東京都","city":"品川区","address":"品川区豊町6-25-13","lat":35.603725,"lon":139.713684},{"name":"東品川第二在宅介護支援センター","province":"東京都","city":"品川区","address":"品川区東品川3-27-25オフィスイン品川3階","lat":35.611816,"lon":139.746674},{"name":"大井第二在宅介護支援センター","province":"東京都","city":"品川区","address":"品川区大井3-15-7","lat":35.602428,"lon":139.729401},{"name":"西五反田在宅介護支援センター","province":"東京都","city":"品川区","address":"品川区西五反田3-6-6","lat":35.627678,"lon":139.71785},{"name":"小山台在宅介護支援センター","province":"東京都","city":"品川区","address":"品川区小山台1-4-1(りんし21区民集会所3階)","lat":35.624367,"lon":139.704758},{"name":"品川区消費者センター","province":"東京都","city":"品川区","address":"品川区大井1-14-1大井1丁目共同ビル4階","lat":35.607559,"lon":139.731613},{"name":"品川区福祉計画課","province":"東京都","city":"品川区","address":"品川区広町2-1-36","lat":35.608299,"lon":139.730957},{"name":"成幸在宅介護支援センター","province":"東京都","city":"品川区","address":"品川区中延1-8-7","lat":35.612217,"lon":139.711746},{"name":"東品川在宅介護支援センター","province":"東京都","city":"品川区","address":"品川区東品川3-1-5","lat":35.616982,"lon":139.746597},{"name":"大井在宅介護支援センター","province":"東京都","city":"品川区","address":"品川区大井4-14-8","lat":35.601936,"lon":139.732315},{"name":"大崎在宅介護支援センター","province":"東京都","city":"品川区","address":"品川区大崎2-11-1、2階","lat":35.61837,"lon":139.727356},{"name":"戸越台在宅介護支援センター","province":"東京都","city":"品川区","address":"品川区平塚2-3-4","lat":35.618355,"lon":139.717682},{"name":"八潮在宅介護支援センター","province":"東京都","city":"品川区","address":"品川区八潮5-10-27","lat":35.599377,"lon":139.752625},{"name":"荏原在宅介護支援センター","province":"東京都","city":"品川区","address":"品川区荏原2-9-6","lat":35.617012,"lon":139.711105},{"name":"品川区統括在宅介護支援センター（品川区地域包括支援センター）","province":"東京都","city":"品川区","address":"品川区広町2-1-36","lat":35.608299,"lon":139.730957},{"name":"小山在宅介護支援センター","province":"東京都","city":"品川区","address":"品川区小山7-14-18","lat":35.608883,"lon":139.696838},{"name":"中延在宅介護支援センター","province":"東京都","city":"品川区","address":"品川区中延6-8-8","lat":35.601826,"lon":139.711487},{"name":"上大崎在宅介護支援センター","province":"東京都","city":"品川区","address":"品川区上大崎3-1-1","lat":35.632851,"lon":139.716843},{"name":"台場在宅介護支援センター","province":"東京都","city":"品川区","address":"品川区北品川3-11-16","lat":35.616436,"lon":139.739273},{"name":"西大井在宅介護支援センター","province":"東京都","city":"品川区","address":"品川区西大井2-4-4","lat":35.599796,"lon":139.722351},{"name":"南大井在宅介護支援センター","province":"東京都","city":"品川区","address":"品川区南大井4-19-3","lat":35.593044,"lon":139.734695},{"name":"杜松在宅介護支援センター","province":"東京都","city":"品川区","address":"品川区豊町4-24-15","lat":35.605835,"lon":139.722733},{"name":"南大井第二在宅介護支援センター","province":"東京都","city":"品川区","address":"品川区東大井4-9-1","lat":35.605358,"lon":139.740372},{"name":"大原在宅介護支援センター","province":"東京都","city":"品川区","address":"品川区豊町6-25-13","lat":35.603725,"lon":139.713684},{"name":"東品川第二在宅介護支援センター","province":"東京都","city":"品川区","address":"品川区東品川3-27-25オフィスイン品川3階","lat":35.611816,"lon":139.746674},{"name":"大井第二在宅介護支援センター","province":"東京都","city":"品川区","address":"品川区大井3-15-7","lat":35.602428,"lon":139.729401},{"name":"西五反田在宅介護支援センター","province":"東京都","city":"品川区","address":"品川区西五反田3-6-6","lat":35.627678,"lon":139.71785},{"name":"小山台在宅介護支援センター","province":"東京都","city":"品川区","address":"品川区小山台1-4-1(りんし21区民集会所3階)","lat":35.624367,"lon":139.704758},{"name":"品川区消費者センター","province":"東京都","city":"品川区","address":"品川区大井1-14-1大井1丁目共同ビル4階","lat":35.607559,"lon":139.731613},{"name":"品川区福祉計画課","province":"東京都","city":"品川区","address":"品川区広町2-1-36","lat":35.608299,"lon":139.730957},{"name":"成幸在宅介護支援センター","province":"東京都","city":"品川区","address":"品川区中延1-8-7","lat":35.612217,"lon":139.711746},{"name":"東品川在宅介護支援センター","province":"東京都","city":"品川区","address":"品川区東品川3-1-5","lat":35.616982,"lon":139.746597},{"name":"大井在宅介護支援センター","province":"東京都","city":"品川区","address":"品川区大井4-14-8","lat":35.601936,"lon":139.732315},{"name":"大崎在宅介護支援センター","province":"東京都","city":"品川区","address":"品川区大崎2-11-1、2階","lat":35.61837,"lon":139.727356},{"name":"戸越台在宅介護支援センター","province":"東京都","city":"品川区","address":"品川区平塚2-3-4","lat":35.618355,"lon":139.717682},{"name":"八潮在宅介護支援センター","province":"東京都","city":"品川区","address":"品川区八潮5-10-27","lat":35.599377,"lon":139.752625},{"name":"荏原在宅介護支援センター","province":"東京都","city":"品川区","address":"品川区荏原2-9-6","lat":35.617012,"lon":139.711105},{"name":"品川区統括在宅介護支援センター（品川区地域包括支援センター）","province":"東京都","city":"品川区","address":"品川区広町2-1-36","lat":35.608299,"lon":139.730957},{"name":"小山在宅介護支援センター","province":"東京都","city":"品川区","address":"品川区小山7-14-18","lat":35.608883,"lon":139.696838},{"name":"中延在宅介護支援センター","province":"東京都","city":"品川区","address":"品川区中延6-8-8","lat":35.601826,"lon":139.711487},{"name":"上大崎在宅介護支援センター","province":"東京都","city":"品川区","address":"品川区上大崎3-1-1","lat":35.632851,"lon":139.716843},{"name":"台場在宅介護支援センター","province":"東京都","city":"品川区","address":"品川区北品川3-11-16","lat":35.616436,"lon":139.739273},{"name":"西大井在宅介護支援センター","province":"東京都","city":"品川区","address":"品川区西大井2-4-4","lat":35.599796,"lon":139.722351},{"name":"南大井在宅介護支援センター","province":"東京都","city":"品川区","address":"品川区南大井4-19-3","lat":35.593044,"lon":139.734695},{"name":"杜松在宅介護支援センター","province":"東京都","city":"品川区","address":"品川区豊町4-24-15","lat":35.605835,"lon":139.722733},{"name":"南大井第二在宅介護支援センター","province":"東京都","city":"品川区","address":"品川区東大井4-9-1","lat":35.605358,"lon":139.740372},{"name":"大原在宅介護支援センター","province":"東京都","city":"品川区","address":"品川区豊町6-25-13","lat":35.603725,"lon":139.713684},{"name":"東品川第二在宅介護支援センター","province":"東京都","city":"品川区","address":"品川区東品川3-27-25オフィスイン品川3階","lat":35.611816,"lon":139.746674},{"name":"大井第二在宅介護支援センター","province":"東京都","city":"品川区","address":"品川区大井3-15-7","lat":35.602428,"lon":139.729401},{"name":"西五反田在宅介護支援センター","province":"東京都","city":"品川区","address":"品川区西五反田3-6-6","lat":35.627678,"lon":139.71785},{"name":"小山台在宅介護支援センター","province":"東京都","city":"品川区","address":"品川区小山台1-4-1(りんし21区民集会所3階)","lat":35.624367,"lon":139.704758},{"name":"品川区消費者センター","province":"東京都","city":"品川区","address":"品川区大井1-14-1大井1丁目共同ビル4階","lat":35.607559,"lon":139.731613},{"name":"品川区福祉計画課","province":"東京都","city":"品川区","address":"品川区広町2-1-36","lat":35.608299,"lon":139.730957},{"name":"成幸在宅介護支援センター","province":"東京都","city":"品川区","address":"品川区中延1-8-7","lat":35.612217,"lon":139.711746},{"name":"東品川在宅介護支援センター","province":"東京都","city":"品川区","address":"品川区東品川3-1-5","lat":35.616982,"lon":139.746597},{"name":"大井在宅介護支援センター","province":"東京都","city":"品川区","address":"品川区大井4-14-8","lat":35.601936,"lon":139.732315},{"name":"大崎在宅介護支援センター","province":"東京都","city":"品川区","address":"品川区大崎2-11-1、2階","lat":35.61837,"lon":139.727356},{"name":"戸越台在宅介護支援センター","province":"東京都","city":"品川区","address":"品川区平塚2-3-4","lat":35.618355,"lon":139.717682},{"name":"八潮在宅介護支援センター","province":"東京都","city":"品川区","address":"品川区八潮5-10-27","lat":35.599377,"lon":139.752625},{"name":"荏原在宅介護支援センター","province":"東京都","city":"品川区","address":"品川区荏原2-9-6","lat":35.617012,"lon":139.711105},{"name":"品川区統括在宅介護支援センター（品川区地域包括支援センター）","province":"東京都","city":"品川区","address":"品川区広町2-1-36","lat":35.608299,"lon":139.730957},{"name":"小山在宅介護支援センター","province":"東京都","city":"品川区","address":"品川区小山7-14-18","lat":35.608883,"lon":139.696838},{"name":"中延在宅介護支援センター","province":"東京都","city":"品川区","address":"品川区中延6-8-8","lat":35.601826,"lon":139.711487},{"name":"上大崎在宅介護支援センター","province":"東京都","city":"品川区","address":"品川区上大崎3-1-1","lat":35.632851,"lon":139.716843},{"name":"台場在宅介護支援センター","province":"東京都","city":"品川区","address":"品川区北品川3-11-16","lat":35.616436,"lon":139.739273},{"name":"西大井在宅介護支援センター","province":"東京都","city":"品川区","address":"品川区西大井2-4-4","lat":35.599796,"lon":139.722351},{"name":"南大井在宅介護支援センター","province":"東京都","city":"品川区","address":"品川区南大井4-19-3","lat":35.593044,"lon":139.734695},{"name":"杜松在宅介護支援センター","province":"東京都","city":"品川区","address":"品川区豊町4-24-15","lat":35.605835,"lon":139.722733},{"name":"南大井第二在宅介護支援センター","province":"東京都","city":"品川区","address":"品川区東大井4-9-1","lat":35.605358,"lon":139.740372},{"name":"大原在宅介護支援センター","province":"東京都","city":"品川区","address":"品川区豊町6-25-13","lat":35.603725,"lon":139.713684},{"name":"東品川第二在宅介護支援センター","province":"東京都","city":"品川区","address":"品川区東品川3-27-25オフィスイン品川3階","lat":35.611816,"lon":139.746674},{"name":"大井第二在宅介護支援センター","province":"東京都","city":"品川区","address":"品川区大井3-15-7","lat":35.602428,"lon":139.729401},{"name":"西五反田在宅介護支援センター","province":"東京都","city":"品川区","address":"品川区西五反田3-6-6","lat":35.627678,"lon":139.71785},{"name":"小山台在宅介護支援センター","province":"東京都","city":"品川区","address":"品川区小山台1-4-1(りんし21区民集会所3階)","lat":35.624367,"lon":139.704758},{"name":"品川区消費者センター","province":"東京都","city":"品川区","address":"品川区大井1-14-1大井1丁目共同ビル4階","lat":35.607559,"lon":139.731613},{"name":"品川区福祉計画課","province":"東京都","city":"品川区","address":"品川区広町2-1-36","lat":35.608299,"lon":139.730957},{"name":"成幸在宅介護支援センター","province":"東京都","city":"品川区","address":"品川区中延1-8-7","lat":35.612217,"lon":139.711746},{"name":"東品川在宅介護支援センター","province":"東京都","city":"品川区","address":"品川区東品川3-1-5","lat":35.616982,"lon":139.746597},{"name":"大井在宅介護支援センター","province":"東京都","city":"品川区","address":"品川区大井4-14-8","lat":35.601936,"lon":139.732315},{"name":"大崎在宅介護支援センター","province":"東京都","city":"品川区","address":"品川区大崎2-11-1、2階","lat":35.61837,"lon":139.727356},{"name":"戸越台在宅介護支援センター","province":"東京都","city":"品川区","address":"品川区平塚2-3-4","lat":35.618355,"lon":139.717682},{"name":"八潮在宅介護支援センター","province":"東京都","city":"品川区","address":"品川区八潮5-10-27","lat":35.599377,"lon":139.752625},{"name":"荏原在宅介護支援センター","province":"東京都","city":"品川区","address":"品川区荏原2-9-6","lat":35.617012,"lon":139.711105},{"name":"品川区統括在宅介護支援センター（品川区地域包括支援センター）","province":"東京都","city":"品川区","address":"品川区広町2-1-36","lat":35.608299,"lon":139.730957},{"name":"小山在宅介護支援センター","province":"東京都","city":"品川区","address":"品川区小山7-14-18","lat":35.608883,"lon":139.696838},{"name":"中延在宅介護支援センター","province":"東京都","city":"品川区","address":"品川区中延6-8-8","lat":35.601826,"lon":139.711487},{"name":"上大崎在宅介護支援センター","province":"東京都","city":"品川区","address":"品川区上大崎3-1-1","lat":35.632851,"lon":139.716843},{"name":"台場在宅介護支援センター","province":"東京都","city":"品川区","address":"品川区北品川3-11-16","lat":35.616436,"lon":139.739273},{"name":"西大井在宅介護支援センター","province":"東京都","city":"品川区","address":"品川区西大井2-4-4","lat":35.599796,"lon":139.722351},{"name":"南大井在宅介護支援センター","province":"東京都","city":"品川区","address":"品川区南大井4-19-3","lat":35.593044,"lon":139.734695},{"name":"杜松在宅介護支援センター","province":"東京都","city":"品川区","address":"品川区豊町4-24-15","lat":35.605835,"lon":139.722733},{"name":"南大井第二在宅介護支援センター","province":"東京都","city":"品川区","address":"品川区東大井4-9-1","lat":35.605358,"lon":139.740372},{"name":"大原在宅介護支援センター","province":"東京都","city":"品川区","address":"品川区豊町6-25-13","lat":35.603725,"lon":139.713684},{"name":"東品川第二在宅介護支援センター","province":"東京都","city":"品川区","address":"品川区東品川3-27-25オフィスイン品川3階","lat":35.611816,"lon":139.746674},{"name":"大井第二在宅介護支援センター","province":"東京都","city":"品川区","address":"品川区大井3-15-7","lat":35.602428,"lon":139.729401},{"name":"西五反田在宅介護支援センター","province":"東京都","city":"品川区","address":"品川区西五反田3-6-6","lat":35.627678,"lon":139.71785},{"name":"小山台在宅介護支援センター","province":"東京都","city":"品川区","address":"品川区小山台1-4-1(りんし21区民集会所3階)","lat":35.624367,"lon":139.704758},{"name":"品川区消費者センター","province":"東京都","city":"品川区","address":"品川区大井1-14-1大井1丁目共同ビル4階","lat":35.607559,"lon":139.731613},{"name":"品川区福祉計画課","province":"東京都","city":"品川区","address":"品川区広町2-1-36","lat":35.608299,"lon":139.730957},{"name":"成幸在宅介護支援センター","province":"東京都","city":"品川区","address":"品川区中延1-8-7","lat":35.612217,"lon":139.711746},{"name":"東品川在宅介護支援センター","province":"東京都","city":"品川区","address":"品川区東品川3-1-5","lat":35.616982,"lon":139.746597},{"name":"大井在宅介護支援センター","province":"東京都","city":"品川区","address":"品川区大井4-14-8","lat":35.601936,"lon":139.732315},{"name":"大崎在宅介護支援センター","province":"東京都","city":"品川区","address":"品川区大崎2-11-1、2階","lat":35.61837,"lon":139.727356},{"name":"戸越台在宅介護支援センター","province":"東京都","city":"品川区","address":"品川区平塚2-3-4","lat":35.618355,"lon":139.717682},{"name":"八潮在宅介護支援センター","province":"東京都","city":"品川区","address":"品川区八潮5-10-27","lat":35.599377,"lon":139.752625},{"name":"荏原在宅介護支援センター","province":"東京都","city":"品川区","address":"品川区荏原2-9-6","lat":35.617012,"lon":139.711105},{"name":"品川区統括在宅介護支援センター（品川区地域包括支援センター）","province":"東京都","city":"品川区","address":"品川区広町2-1-36","lat":35.608299,"lon":139.730957},{"name":"小山在宅介護支援センター","province":"東京都","city":"品川区","address":"品川区小山7-14-18","lat":35.608883,"lon":139.696838},{"name":"中延在宅介護支援センター","province":"東京都","city":"品川区","address":"品川区中延6-8-8","lat":35.601826,"lon":139.711487},{"name":"上大崎在宅介護支援センター","province":"東京都","city":"品川区","address":"品川区上大崎3-1-1","lat":35.632851,"lon":139.716843},{"name":"台場在宅介護支援センター","province":"東京都","city":"品川区","address":"品川区北品川3-11-16","lat":35.616436,"lon":139.739273},{"name":"西大井在宅介護支援センター","province":"東京都","city":"品川区","address":"品川区西大井2-4-4","lat":35.599796,"lon":139.722351},{"name":"南大井在宅介護支援センター","province":"東京都","city":"品川区","address":"品川区南大井4-19-3","lat":35.593044,"lon":139.734695},{"name":"杜松在宅介護支援センター","province":"東京都","city":"品川区","address":"品川区豊町4-24-15","lat":35.605835,"lon":139.722733},{"name":"南大井第二在宅介護支援センター","province":"東京都","city":"品川区","address":"品川区東大井4-9-1","lat":35.605358,"lon":139.740372},{"name":"大原在宅介護支援センター","province":"東京都","city":"品川区","address":"品川区豊町6-25-13","lat":35.603725,"lon":139.713684},{"name":"東品川第二在宅介護支援センター","province":"東京都","city":"品川区","address":"品川区東品川3-27-25オフィスイン品川3階","lat":35.611816,"lon":139.746674},{"name":"大井第二在宅介護支援センター","province":"東京都","city":"品川区","address":"品川区大井3-15-7","lat":35.602428,"lon":139.729401},{"name":"西五反田在宅介護支援センター","province":"東京都","city":"品川区","address":"品川区西五反田3-6-6","lat":35.627678,"lon":139.71785},{"name":"小山台在宅介護支援センター","province":"東京都","city":"品川区","address":"品川区小山台1-4-1(りんし21区民集会所3階)","lat":35.624367,"lon":139.704758},{"name":"品川区消費者センター","province":"東京都","city":"品川区","address":"品川区大井1-14-1大井1丁目共同ビル4階","lat":35.607559,"lon":139.731613},{"name":"品川区福祉計画課","province":"東京都","city":"品川区","address":"品川区広町2-1-36","lat":35.608299,"lon":139.730957},{"name":"成幸在宅介護支援センター","province":"東京都","city":"品川区","address":"品川区中延1-8-7","lat":35.612217,"lon":139.711746},{"name":"東品川在宅介護支援センター","province":"東京都","city":"品川区","address":"品川区東品川3-1-5","lat":35.616982,"lon":139.746597},{"name":"大井在宅介護支援センター","province":"東京都","city":"品川区","address":"品川区大井4-14-8","lat":35.601936,"lon":139.732315},{"name":"大崎在宅介護支援センター","province":"東京都","city":"品川区","address":"品川区大崎2-11-1、2階","lat":35.61837,"lon":139.727356},{"name":"戸越台在宅介護支援センター","province":"東京都","city":"品川区","address":"品川区平塚2-3-4","lat":35.618355,"lon":139.717682},{"name":"八潮在宅介護支援センター","province":"東京都","city":"品川区","address":"品川区八潮5-10-27","lat":35.599377,"lon":139.752625},{"name":"荏原在宅介護支援センター","province":"東京都","city":"品川区","address":"品川区荏原2-9-6","lat":35.617012,"lon":139.711105},{"name":"品川区統括在宅介護支援センター（品川区地域包括支援センター）","province":"東京都","city":"品川区","address":"品川区広町2-1-36","lat":35.608299,"lon":139.730957},{"name":"小山在宅介護支援センター","province":"東京都","city":"品川区","address":"品川区小山7-14-18","lat":35.608883,"lon":139.696838},{"name":"中延在宅介護支援センター","province":"東京都","city":"品川区","address":"品川区中延6-8-8","lat":35.601826,"lon":139.711487},{"name":"上大崎在宅介護支援センター","province":"東京都","city":"品川区","address":"品川区上大崎3-1-1","lat":35.632851,"lon":139.716843},{"name":"台場在宅介護支援センター","province":"東京都","city":"品川区","address":"品川区北品川3-11-16","lat":35.616436,"lon":139.739273},{"name":"西大井在宅介護支援センター","province":"東京都","city":"品川区","address":"品川区西大井2-4-4","lat":35.599796,"lon":139.722351},{"name":"南大井在宅介護支援センター","province":"東京都","city":"品川区","address":"品川区南大井4-19-3","lat":35.593044,"lon":139.734695},{"name":"杜松在宅介護支援センター","province":"東京都","city":"品川区","address":"品川区豊町4-24-15","lat":35.605835,"lon":139.722733},{"name":"南大井第二在宅介護支援センター","province":"東京都","city":"品川区","address":"品川区東大井4-9-1","lat":35.605358,"lon":139.740372},{"name":"大原在宅介護支援センター","province":"東京都","city":"品川区","address":"品川区豊町6-25-13","lat":35.603725,"lon":139.713684},{"name":"東品川第二在宅介護支援センター","province":"東京都","city":"品川区","address":"品川区東品川3-27-25オフィスイン品川3階","lat":35.611816,"lon":139.746674},{"name":"大井第二在宅介護支援センター","province":"東京都","city":"品川区","address":"品川区大井3-15-7","lat":35.602428,"lon":139.729401},{"name":"西五反田在宅介護支援センター","province":"東京都","city":"品川区","address":"品川区西五反田3-6-6","lat":35.627678,"lon":139.71785},{"name":"小山台在宅介護支援センター","province":"東京都","city":"品川区","address":"品川区小山台1-4-1(りんし21区民集会所3階)","lat":35.624367,"lon":139.704758},{"name":"品川区消費者センター","province":"東京都","city":"品川区","address":"品川区大井1-14-1大井1丁目共同ビル4階","lat":35.607559,"lon":139.731613},{"name":"品川区福祉計画課","province":"東京都","city":"品川区","address":"品川区広町2-1-36","lat":35.608299,"lon":139.730957},{"name":"成幸在宅介護支援センター","province":"東京都","city":"品川区","address":"品川区中延1-8-7","lat":35.612217,"lon":139.711746},{"name":"東品川在宅介護支援センター","province":"東京都","city":"品川区","address":"品川区東品川3-1-5","lat":35.616982,"lon":139.746597},{"name":"大井在宅介護支援センター","province":"東京都","city":"品川区","address":"品川区大井4-14-8","lat":35.601936,"lon":139.732315},{"name":"大崎在宅介護支援センター","province":"東京都","city":"品川区","address":"品川区大崎2-11-1、2階","lat":35.61837,"lon":139.727356},{"name":"戸越台在宅介護支援センター","province":"東京都","city":"品川区","address":"品川区平塚2-3-4","lat":35.618355,"lon":139.717682},{"name":"八潮在宅介護支援センター","province":"東京都","city":"品川区","address":"品川区八潮5-10-27","lat":35.599377,"lon":139.752625},{"name":"荏原在宅介護支援センター","province":"東京都","city":"品川区","address":"品川区荏原2-9-6","lat":35.617012,"lon":139.711105},{"name":"品川区統括在宅介護支援センター（品川区地域包括支援センター）","province":"東京都","city":"品川区","address":"品川区広町2-1-36","lat":35.608299,"lon":139.730957},{"name":"小山在宅介護支援センター","province":"東京都","city":"品川区","address":"品川区小山7-14-18","lat":35.608883,"lon":139.696838},{"name":"中延在宅介護支援センター","province":"東京都","city":"品川区","address":"品川区中延6-8-8","lat":35.601826,"lon":139.711487},{"name":"上大崎在宅介護支援センター","province":"東京都","city":"品川区","address":"品川区上大崎3-1-1","lat":35.632851,"lon":139.716843},{"name":"台場在宅介護支援センター","province":"東京都","city":"品川区","address":"品川区北品川3-11-16","lat":35.616436,"lon":139.739273},{"name":"西大井在宅介護支援センター","province":"東京都","city":"品川区","address":"品川区西大井2-4-4","lat":35.599796,"lon":139.722351},{"name":"南大井在宅介護支援センター","province":"東京都","city":"品川区","address":"品川区南大井4-19-3","lat":35.593044,"lon":139.734695},{"name":"杜松在宅介護支援センター","province":"東京都","city":"品川区","address":"品川区豊町4-24-15","lat":35.605835,"lon":139.722733},{"name":"南大井第二在宅介護支援センター","province":"東京都","city":"品川区","address":"品川区東大井4-9-1","lat":35.605358,"lon":139.740372},{"name":"大原在宅介護支援センター","province":"東京都","city":"品川区","address":"品川区豊町6-25-13","lat":35.603725,"lon":139.713684},{"name":"東品川第二在宅介護支援センター","province":"東京都","city":"品川区","address":"品川区東品川3-27-25オフィスイン品川3階","lat":35.611816,"lon":139.746674},{"name":"大井第二在宅介護支援センター","province":"東京都","city":"品川区","address":"品川区大井3-15-7","lat":35.602428,"lon":139.729401},{"name":"西五反田在宅介護支援センター","province":"東京都","city":"品川区","address":"品川区西五反田3-6-6","lat":35.627678,"lon":139.71785},{"name":"小山台在宅介護支援センター","province":"東京都","city":"品川区","address":"品川区小山台1-4-1(りんし21区民集会所3階)","lat":35.624367,"lon":139.704758},{"name":"品川区消費者センター","province":"東京都","city":"品川区","address":"品川区大井1-14-1大井1丁目共同ビル4階","lat":35.607559,"lon":139.731613}]}