{"keyword":"放課後","data":[{"name":"てんとうむし","province":"東京都","city":"品川区","address":"品川区北品川4-1-1松風ビル2階","lat":35.62294,"lon":139.734843},{"name":"アプリ児童デイサービス北品川","province":"東京都","city":"品川区","address":"品川区北品川2-18-2","lat":35.618158,"lon":139.741437},{"name":"ちびっこタイム品川","province":"東京都","city":"品川区","address":"品川区東大井5-23-16-110号","lat":35.604407,"lon":139.737158},{"name":"めるへんキッズ大森園","province":"東京都","city":"品川区","address":"品川区南大井6-16-1サンハイツ大森101号室","lat":35.591441,"lon":139.730539},{"name":"スキップランド　西大井","province":"東京都","city":"品川区","address":"品川区西大井6-14-15","lat":35.599776,"lon":139.717037},{"name":"アプリ児童デイサービス不動前","province":"東京都","city":"品川区","address":"品川区西五反田三丁目13番14号ロイヤルコート","lat":35.628086,"lon":139.714056},{"name":"品川区立品川児童学園分室","province":"東京都","city":"品川区","address":"品川区戸越6-16-14","lat":35.607372,"lon":139.715378},{"name":"療育スタジオ・ピコ　戸越公園教室","province":"東京都","city":"品川区","address":"品川区豊町3-1-1ひかりオークス1階","lat":35.609,"lon":139.719884},{"name":"キッズアイランドワイキキ","province":"東京都","city":"品川区","address":"品川区二葉4-4-19","lat":35.602334,"lon":139.715223},{"name":"スタジオそら品川戸越","province":"東京都","city":"品川区","address":"品川区東中延1-3-11","lat":35.611277,"lon":139.714126},{"name":"このこのリーフ　中延","province":"東京都","city":"品川区","address":"品川区中延3-13-19芙蓉ハイツ101号","lat":35.606489,"lon":139.71134},{"name":"みんなの家　ゆめっこ","province":"東京都","city":"品川区","address":"品川区中延6-3-16","lat":35.602767,"lon":139.71256}]}