{"keyword":"月間","data":[{"name":"てんとうむし","province":"東京都","city":"品川区","address":"品川区北品川4-1-1松風ビル2階","lat":35.62294,"lon":139.734843},{"name":"アプリ児童デイサービス北品川","province":"東京都","city":"品川区","address":"品川区北品川2-18-2","lat":35.618158,"lon":139.741437},{"name":"ちびっこタイム品川","province":"東京都","city":"品川区","address":"品川区東大井5-23-16-110号","lat":35.604407,"lon":139.737158},{"name":"めるへんキッズ大森園","province":"東京都","city":"品川区","address":"品川区南大井6-16-1サンハイツ大森101号室","lat":35.591441,"lon":139.730539},{"name":"スキップランド　西大井","province":"東京都","city":"品川区","address":"品川区西大井6-14-15","lat":35.599776,"lon":139.717037},{"name":"アプリ児童デイサービス不動前","province":"東京都","city":"品川区","address":"品川区西五反田三丁目13番14号ロイヤルコート","lat":35.628086,"lon":139.714056},{"name":"品川区立品川児童学園分室","province":"東京都","city":"品川区","address":"品川区戸越6-16-14","lat":35.607372,"lon":139.715378},{"name":"療育スタジオ・ピコ　戸越公園教室","province":"東京都","city":"品川区","address":"品川区豊町3-1-1ひかりオークス1階","lat":35.609,"lon":139.719884},{"name":"キッズアイランドワイキキ","province":"東京都","city":"品川区","address":"品川区二葉4-4-19","lat":35.602334,"lon":139.715223},{"name":"スタジオそら品川戸越","province":"東京都","city":"品川区","address":"品川区東中延1-3-11","lat":35.611277,"lon":139.714126},{"name":"このこのリーフ　中延","province":"東京都","city":"品川区","address":"品川区中延3-13-19芙蓉ハイツ101号","lat":35.606489,"lon":139.71134},{"name":"みんなの家　ゆめっこ","province":"東京都","city":"品川区","address":"品川区中延6-3-16","lat":35.602767,"lon":139.71256},{"name":"品川区子育て支援センター","province":"東京都","city":"品川区","address":"品川区平塚2-12-2品川区立家庭あんしんセンター内","lat":35.617063,"lon":139.71282},{"name":"品川第一地域センター","province":"東京都","city":"品川区","address":"品川区北品川3-11-16","lat":35.616673,"lon":139.740036},{"name":"台場小学校","province":"東京都","city":"品川区","address":"品川区東品川1-8-30","lat":35.620869,"lon":139.743667},{"name":"三木小学校","province":"東京都","city":"品川区","address":"品川区西品川3-16-28","lat":35.615256,"lon":139.726544},{"name":"大崎第一地域センター","province":"東京都","city":"品川区","address":"品川区西五反田3-6-3","lat":35.627795,"lon":139.716815},{"name":"第一日野小学校","province":"東京都","city":"品川区","address":"品川区西五反田6-5-32","lat":35.622228,"lon":139.716127},{"name":"日野学園","province":"東京都","city":"品川区","address":"品川区東五反田2-11-1","lat":35.62454,"lon":139.72831},{"name":"第三日野小学校","province":"東京都","city":"品川区","address":"品川区上大崎1-19-19","lat":35.632789,"lon":139.723939},{"name":"後地小学校","province":"東京都","city":"品川区","address":"品川区小山2-4-6","lat":35.621519,"lon":139.708452},{"name":"小山小学校","province":"東京都","city":"品川区","address":"品川区小山5-10-6","lat":35.616018,"lon":139.70329},{"name":"大原小学校","province":"東京都","city":"品川区","address":"品川区戸越6-17-3","lat":35.607167,"lon":139.716467},{"name":"大井第一小学校","province":"東京都","city":"品川区","address":"品川区大井6-1-32","lat":35.598644,"lon":139.730919},{"name":"伊藤学園","province":"東京都","city":"品川区","address":"品川区大井5-1-37","lat":35.599873,"lon":139.726009},{"name":"鈴ケ森小学校","province":"東京都","city":"品川区","address":"品川区南大井4-16-2","lat":35.594487,"lon":139.735286},{"name":"大井第二地域センター","province":"東京都","city":"品川区","address":"品川区大井2-27-20","lat":35.604027,"lon":139.730464},{"name":"浅間台小学校","province":"東京都","city":"品川区","address":"品川区南品川6-8-8","lat":35.611462,"lon":139.736584},{"name":"大井第三地域センター","province":"東京都","city":"品川区","address":"品川区西大井4-1-8","lat":35.597669,"lon":139.72108},{"name":"京陽小学校","province":"東京都","city":"品川区","address":"品川区平塚2-19-20","lat":35.330742,"lon":139.337875},{"name":"城南第二小学校","province":"東京都","city":"品川区","address":"品川区東品川3-4-5","lat":35.615644,"lon":139.746083},{"name":"立会小学校","province":"東京都","city":"品川区","address":"品川区東大井4-15-9","lat":35.604432,"lon":139.740166},{"name":"旗台小学校","province":"東京都","city":"品川区","address":"品川区旗の台4-7-11","lat":35.603162,"lon":139.703765},{"name":"豊葉の杜学園","province":"東京都","city":"品川区","address":"品川区二葉1-3-40","lat":35.607037,"lon":139.72556},{"name":"延山小学校","province":"東京都","city":"品川区","address":"品川区西中延2-17-5","lat":35.608779,"lon":139.707882},{"name":"宮前小学校","province":"東京都","city":"品川区","address":"品川区戸越4-5-10","lat":35.611768,"lon":139.718319},{"name":"品川区役所","province":"東京都","city":"品川区","address":"品川区広町2-1-36","lat":35.609181,"lon":139.730167},{"name":"品川区清掃事務所","province":"東京都","city":"品川区","address":"品川区大崎1-14-1","lat":35.618345,"lon":139.733502},{"name":"芳水小学校","province":"東京都","city":"品川区","address":"品川区大崎3-12-22","lat":35.61857,"lon":139.724154},{"name":"伊藤小学校","province":"東京都","city":"品川区","address":"品川区西大井5-6-8","lat":35.598691,"lon":139.717367},{"name":"源氏前小学校","province":"東京都","city":"品川区","address":"品川区中延6-2-18","lat":35.603165,"lon":139.712064},{"name":"小山台小学校","province":"東京都","city":"品川区","address":"品川区小山台1-18-24","lat":35.62276,"lon":139.703466},{"name":"品川区子ども家庭支援センター","province":"東京都","city":"品川区","address":"品川区二葉1-7-15","lat":35.60878,"lon":139.72881},{"name":"品川区子育て支援センター","province":"東京都","city":"品川区","address":"品川区平塚2-12-2品川区立家庭あんしんセンター内","lat":35.61694,"lon":139.71266},{"name":"八潮福祉センター前","province":"東京都","city":"品川区","address":"東京都品川区八潮1丁目4-1","lat":35.60946205,"lon":139.75402291},{"name":"北品川二丁目","province":"東京都","city":"品川区","address":"東京都品川区北品川2丁目34-3","lat":35.61659961,"lon":139.74127362},{"name":"北埠頭橋","province":"東京都","city":"品川区","address":"東京都品川区東品川3丁目27-16","lat":35.61165873,"lon":139.74736499},{"name":"東品川三丁目","province":"東京都","city":"品川区","address":"東京都品川区東品川3丁目6-7","lat":35.61553327,"lon":139.74747316},{"name":"八潮橋","province":"東京都","city":"品川区","address":"東京都品川区東品川4丁目11-34","lat":35.607301,"lon":139.74804846},{"name":"南品川五丁目","province":"東京都","city":"品川区","address":"東京都品川区南品川5丁目3-13","lat":35.61132248,"lon":139.74175433},{"name":"新東海橋","province":"東京都","city":"品川区","address":"東京都品川区東品川1丁目32-3","lat":35.62012434,"lon":139.74618419},{"name":"東品川公園入口","province":"東京都","city":"品川区","address":"東京都品川区東品川3丁目15-10","lat":35.61392513,"lon":139.74735102},{"name":"居木橋","province":"東京都","city":"品川区","address":"東京都品川区北品川4丁目10-5","lat":35.61812701,"lon":139.73499073},{"name":"西品川三丁目","province":"東京都","city":"品川区","address":"東京都品川区大崎2丁目10-14","lat":35.61760745,"lon":139.72900236},{"name":"東品川海上公園","province":"東京都","city":"品川区","address":"東京都品川区東品川3丁目32-36","lat":35.61646105,"lon":139.75092286},{"name":"都立高専前","province":"東京都","city":"品川区","address":"東京都品川区東大井1丁目11-25","lat":35.60682891,"lon":139.75000944},{"name":"品川職業技術専門校前","province":"東京都","city":"品川区","address":"東京都品川区東品川3丁目32-3","lat":35.6119477,"lon":139.75048419},{"name":"新八ツ山橋","province":"東京都","city":"品川区","address":"東京都品川区北品川4丁目7","lat":35.62179607,"lon":139.73699321},{"name":"北品川六丁目","province":"東京都","city":"品川区","address":"東京都品川区東五反田3丁目21-5","lat":35.6249733,"lon":139.73137689},{"name":"東海道北品川","province":"東京都","city":"品川区","address":"東京都品川区北品川2丁目24-5","lat":35.61814672,"lon":139.74379558},{"name":"品川図書館前","province":"東京都","city":"品川区","address":"東京都品川区北品川2丁目30","lat":35.6173746,"lon":139.74390116},{"name":"品川シーサイド駅","province":"東京都","city":"品川区","address":"東京都品川区東品川4丁目13-14","lat":35.60853703,"lon":139.75024546},{"name":"新東海橋東","province":"東京都","city":"品川区","address":"東京都品川区東品川2丁目2-28","lat":35.62179923,"lon":139.74896723},{"name":"八潮橋北","province":"東京都","city":"品川区","address":"東京都品川区東品川4丁目12-1","lat":35.60854805,"lon":139.7479262},{"name":"品川区役所前","province":"東京都","city":"品川区","address":"東京都品川区広町2丁目1-36","lat":35.60881128,"lon":139.73028866},{"name":"東品川シルバーセンター前","province":"東京都","city":"品川区","address":"東京都品川区東品川3丁目32-12","lat":35.61330587,"lon":139.75067301},{"name":"百反坂下","province":"東京都","city":"品川区","address":"東京都品川区西品川3丁目21-8","lat":35.61626598,"lon":139.73041617},{"name":"品川区役所前第二","province":"東京都","city":"品川区","address":"東京都品川区西品川1丁目27-14","lat":35.60922229,"lon":139.72882487},{"name":"大井町駅東口","province":"東京都","city":"品川区","address":"東京都品川区東大井5丁目16-5","lat":35.60713943,"lon":139.73552164},{"name":"立会川","province":"東京都","city":"品川区","address":"東京都品川区東大井2丁目23-2","lat":35.59826843,"lon":139.738369},{"name":"大井町駅西口","province":"東京都","city":"品川区","address":"東京都品川区南大井1丁目3-12","lat":35.5969797,"lon":139.73831627},{"name":"ゼームス坂上","province":"東京都","city":"品川区","address":"東京都品川区東大井5丁目15-4","lat":35.60706171,"lon":139.73642713},{"name":"鈴ヶ森","province":"東京都","city":"品川区","address":"東京都品川区南大井3丁目10","lat":35.59062486,"lon":139.73578617},{"name":"大井権現","province":"東京都","city":"品川区","address":"東京都品川区南大井1丁目1-16","lat":35.59775459,"lon":139.73799126},{"name":"西大井二丁目","province":"東京都","city":"品川区","address":"東京都品川区西大井2丁目4-7","lat":35.59992319,"lon":139.72314505},{"name":"大井一丁目","province":"東京都","city":"品川区","address":"東京都品川区大井1丁目37-10","lat":35.6048062,"lon":139.7307693},{"name":"鮫洲試験場前","province":"東京都","city":"品川区","address":"東京都品川区東大井1丁目12-5","lat":35.6038986,"lon":139.74647094},{"name":"品川区役所入口","province":"東京都","city":"品川区","address":"東京都品川区大井1丁目16-2","lat":35.60764196,"lon":139.73016647},{"name":"鈴ヶ森第二","province":"東京都","city":"品川区","address":"東京都品川区南大井2丁目10-6","lat":35.59019161,"lon":139.73658614},{"name":"大井一丁目第二","province":"東京都","city":"品川区","address":"東京都品川区大井1丁目35-3","lat":35.60507011,"lon":139.73187477},{"name":"大井町駅西口第二","province":"東京都","city":"品川区","address":"東京都品川区大井1丁目10-3","lat":35.60745598,"lon":139.73317737},{"name":"ＪＲ大井町駅南","province":"東京都","city":"品川区","address":"東京都品川区大井1丁目50-5","lat":35.60568679,"lon":139.73414401},{"name":"ＪＲ大井町駅前","province":"東京都","city":"品川区","address":"東京都品川区大井1丁目50-5","lat":35.60568679,"lon":139.73414401},{"name":"大井一本橋","province":"東京都","city":"品川区","address":"東京都品川区大井1丁目20-29","lat":35.60706703,"lon":139.73012762},{"name":"きゅりあん裏","province":"東京都","city":"品川区","address":"東京都品川区東大井5丁目23-37","lat":35.60514807,"lon":139.73690493},{"name":"大井鎧橋","province":"東京都","city":"品川区","address":"東京都品川区大井1丁目49-15","lat":35.60605615,"lon":139.73337462},{"name":"ＪＲ大井工場前","province":"東京都","city":"品川区","address":"東京都品川区大井1丁目1","lat":35.60767819,"lon":139.73352455},{"name":"大森駅北口入口","province":"東京都","city":"品川区","address":"東京都品川区南大井6丁目23-1","lat":35.58961922,"lon":139.73039492},{"name":"大井町駅東口第二","province":"東京都","city":"品川区","address":"東京都品川区大井1丁目2","lat":35.60672556,"lon":139.73428286},{"name":"八潮地域センター前","province":"東京都","city":"品川区","address":"東京都品川区八潮5丁目10-27","lat":35.60015206,"lon":139.7512541},{"name":"ちょうちょ橋","province":"東京都","city":"品川区","address":"東京都品川区八潮5丁目8","lat":35.5968109,"lon":139.75291526},{"name":"中央海浜公園前","province":"東京都","city":"品川区","address":"東京都品川区八潮4丁目2","lat":35.59275297,"lon":139.74978513},{"name":"大井海浜公園前","province":"東京都","city":"品川区","address":"東京都品川区八潮4丁目1","lat":35.59123385,"lon":139.75266834},{"name":"大井町駅入口","province":"東京都","city":"品川区","address":"東京都品川区大井2丁目1-5","lat":35.6065393,"lon":139.72985265},{"name":"五反田駅旧ガード下","province":"東京都","city":"品川区","address":"東京都品川区東五反田1丁目26-6","lat":35.62585636,"lon":139.7240636},{"name":"目黒駅西口前","province":"東京都","city":"品川区","address":"東京都品川区上大崎4丁目1","lat":35.633422,"lon":139.71450866},{"name":"大崎広小路","province":"東京都","city":"品川区","address":"東京都品川区西五反田8丁目4-13","lat":35.6229261,"lon":139.72211664},{"name":"目黒駅東口前","province":"東京都","city":"品川区","address":"東京都品川区上大崎3丁目1","lat":35.63269988,"lon":139.71636408},{"name":"西五反田一丁目","province":"東京都","city":"品川区","address":"東京都品川区西五反田1丁目33-10","lat":35.6240204,"lon":139.72136667},{"name":"五反田駅新ガード下","province":"東京都","city":"品川区","address":"東京都品川区東五反田1丁目26-1","lat":35.6265035,"lon":139.72369972},{"name":"目蒲線ガード下","province":"東京都","city":"品川区","address":"東京都品川区西五反田5丁目1-1","lat":35.62658389,"lon":139.71501159},{"name":"上大崎二丁目","province":"東京都","city":"品川区","address":"東京都品川区上大崎2丁目25-5","lat":35.63461074,"lon":139.71476139},{"name":"上大崎三丁目第二","province":"東京都","city":"品川区","address":"東京都品川区西五反田2丁目1-1","lat":35.62813381,"lon":139.72050273},{"name":"大崎四丁目","province":"東京都","city":"品川区","address":"東京都品川区大崎4丁目2-2","lat":35.62231509,"lon":139.72326656},{"name":"目黒駅ビル前","province":"東京都","city":"品川区","address":"東京都品川区上大崎2丁目15-21","lat":35.63442468,"lon":139.71631958},{"name":"大崎駅西口第二","province":"東京都","city":"品川区","address":"東京都品川区大崎1丁目21-4","lat":35.61970165,"lon":139.72879675},{"name":"大崎駅西口","province":"東京都","city":"品川区","address":"東京都品川区大崎2丁目1-1","lat":35.61837956,"lon":139.72802742},{"name":"平塚橋交番前","province":"東京都","city":"品川区","address":"東京都品川区西中延1丁目1-10","lat":35.61549615,"lon":139.7092402},{"name":"戸越銀座","province":"東京都","city":"品川区","address":"東京都品川区平塚1丁目6-14","lat":35.61544906,"lon":139.71649791},{"name":"昭和医大前","province":"東京都","city":"品川区","address":"東京都品川区旗の台1丁目2-14","lat":35.60944957,"lon":139.70490466},{"name":"昭和医大前第二","province":"東京都","city":"品川区","address":"東京都品川区旗の台1丁目6-16","lat":35.60916903,"lon":139.7039603},{"name":"旗の台駅入口","province":"東京都","city":"品川区","address":"東京都品川区旗の台1丁目4-13","lat":35.60742477,"lon":139.70386869},{"name":"旗の台二丁目","province":"東京都","city":"品川区","address":"東京都品川区旗の台2丁目11-6","lat":35.60577768,"lon":139.70077457},{"name":"戸越銀座入口","province":"東京都","city":"品川区","address":"東京都品川区平塚3丁目2-17","lat":35.61631275,"lon":139.71070949},{"name":"小山四丁目","province":"東京都","city":"品川区","address":"東京都品川区小山4丁目4-7","lat":35.61852353,"lon":139.70432109},{"name":"荏原四丁目","province":"東京都","city":"品川区","address":"東京都品川区荏原4丁目1-1","lat":35.61760698,"lon":139.70549602},{"name":"小山三丁目","province":"東京都","city":"品川区","address":"東京都品川区小山4丁目4-22","lat":35.61905678,"lon":139.70358781},{"name":"第二延山小角","province":"東京都","city":"品川区","address":"東京都品川区旗の台1丁目2-1","lat":35.61073553,"lon":139.70387693},{"name":"武蔵小山駅西","province":"東京都","city":"品川区","address":"東京都品川区小山4丁目2-1","lat":35.6196567,"lon":139.70292952},{"name":"戸越四丁目東","province":"東京都","city":"品川区","address":"東京都品川区戸越5丁目6-4","lat":35.61041631,"lon":139.71847011},{"name":"大森北一丁目","province":"東京都","city":"品川区","address":"東京都品川区南大井3丁目35-10","lat":35.58753902,"lon":139.73258653},{"name":"大森北五差路","province":"東京都","city":"品川区","address":"東京都品川区南大井6丁目27-20","lat":35.58751393,"lon":139.73003949},{"name":"大森海岸駅西","province":"東京都","city":"品川区","address":"東京都品川区南大井3丁目31","lat":35.58793351,"lon":139.73518633},{"name":"大森駅東口広場前","province":"東京都","city":"品川区","address":"東京都品川区南大井6丁目28-8","lat":35.5879583,"lon":139.72972838},{"name":"昭和大学病院","province":"東京都","city":"品川区","address":"東京都品川区旗の台1丁目5-8","lat":35.60849688,"lon":139.70353258},{"name":"ＮＴＴ東日本関東病院","province":"東京都","city":"品川区","address":"東京都品川区東五反田5丁目9-22","lat":35.63091968,"lon":139.72494947},{"name":"桐ヶ谷火葬場","province":"東京都","city":"品川区","address":"東京都品川区西五反田5丁目32-20","lat":35.62232046,"lon":139.71367573},{"name":"（公財）塩事業センター","province":"東京都","city":"品川区","address":"東京都品川区大井1丁目47-1","lat":35.605259,"lon":139.73249415},{"name":"区立戸越公園","province":"東京都","city":"品川区","address":"東京都品川区豊町2丁目1-30","lat":35.61109965,"lon":139.72238087},{"name":"区立しおじ公園","province":"東京都","city":"品川区","address":"東京都品川区八潮5丁目6","lat":35.59734124,"lon":139.74955159},{"name":"都立八潮高等学校","province":"東京都","city":"品川区","address":"東京都品川区東品川3丁目27-22","lat":35.61185035,"lon":139.74660949},{"name":"都立大井埠頭中央海浜公園陸上競技場","province":"東京都","city":"品川区","address":"東京都品川区八潮4丁目1-19","lat":35.59255032,"lon":139.75229052},{"name":"品川区立天王州公園","province":"東京都","city":"品川区","address":"東京都品川区東品川2丁目5-42","lat":35.62054383,"lon":139.74927004},{"name":"品川区立鮫洲運動公園","province":"東京都","city":"品川区","address":"東京都品川区東大井1丁目4-11","lat":35.60589551,"lon":139.74500986},{"name":"品川区立八潮公園多目的広場","province":"東京都","city":"品川区","address":"東京都品川区八潮5丁目11-16","lat":35.60033269,"lon":139.75372891},{"name":"林試の森公園","province":"東京都","city":"品川区","address":"東京都品川区小山台2丁目","lat":35.62477825,"lon":139.69861029},{"name":"滝王子出張所","province":"東京都","city":"品川区","address":"東京都品川区大井5丁目17","lat":35.5984647,"lon":139.7274195},{"name":"消防署","province":"東京都","city":"品川区","address":"東京都品川区旗の台6丁目24-12","lat":35.6056823,"lon":139.6999571},{"name":"戸越出張所","province":"東京都","city":"品川区","address":"東京都品川区戸越5丁目20-15","lat":35.6083161,"lon":139.7187459},{"name":"東品川出張所","province":"東京都","city":"品川区","address":"東京都品川区東品川3丁目32","lat":35.6134542,"lon":139.7504186},{"name":"消防署","province":"東京都","city":"品川区","address":"東京都品川区西五反田7丁目25","lat":35.6200332,"lon":139.7185314},{"name":"＊?品川区男女共同参画センター","province":"東京都","city":"品川区","address":"品川区東大井5-18-1","lat":35.606223,"lon":139.735889},{"name":"都立産業技術高等専門学校品川キャンパス","province":"東京都","city":"品川区","address":"東京都品川区東大井1丁目10-40","lat":35.60696497,"lon":139.7491345},{"name":"城南職業能力開発センター","province":"東京都","city":"品川区","address":"東京都品川区東品川3丁目31-16","lat":35.61250038,"lon":139.74965367},{"name":"大井ふ頭中央海浜公園","province":"東京都","city":"品川区","address":"東京都品川区八潮4丁目1-19","lat":35.59255032,"lon":139.75229052},{"name":"大井ふ頭中央海浜公園","province":"東京都","city":"品川区","address":"東京都品川区八潮4丁目2-1","lat":35.59337233,"lon":139.74986565},{"name":"大崎高等学校","province":"東京都","city":"品川区","address":"東京都品川区豊町2丁目1-7","lat":35.60950813,"lon":139.72128656},{"name":"小山台高等学校","province":"東京都","city":"品川区","address":"東京都品川区小山3丁目3-32","lat":35.62114821,"lon":139.70368496},{"name":"八潮高等学校","province":"東京都","city":"品川区","address":"東京都品川区東品川3丁目27-22","lat":35.61185035,"lon":139.74660949},{"name":"大井コンテナふ頭","province":"東京都","city":"品川区","address":"東京都品川区八潮2丁目","lat":35.59506725,"lon":139.76759209},{"name":"大井ふ頭中央海浜公園","province":"東京都","city":"品川区","address":"東京都品川区八潮4丁目","lat":35.59273644,"lon":139.75297102},{"name":"東海橋","province":"東京都","city":"品川区","address":"東京都品川区北品川3丁目","lat":35.61868541,"lon":139.73912927},{"name":"勝島１丁目","province":"東京都","city":"品川区","address":"東京都品川区勝島","lat":35.5980771,"lon":139.74558239},{"name":"品川区防災センター","province":"東京都","city":"品川区","address":"東京都品川区広町2丁目1-36","lat":35.60881128,"lon":139.73028866},{"name":"品川ふ頭","province":"東京都","city":"品川区","address":"東京都品川区東品川5丁目","lat":35.62216053,"lon":139.75607776},{"name":"品川区本庁舎","province":"東京都","city":"品川区","address":"品川区広町2-1-36","lat":35.608837,"lon":139.730242},{"name":"第二建設事務所","province":"東京都","city":"品川区","address":"品川区広町2-1-36","lat":35.608837,"lon":139.730242},{"name":"第六機動隊","province":"東京都","city":"品川区","address":"品川区勝島1-3-18","lat":35.5987,"lon":139.7446},{"name":"第二方面本部","province":"東京都","city":"品川区","address":"品川区勝島1-3-12","lat":35.59853,"lon":139.7449},{"name":"荏原警察署","province":"東京都","city":"品川区","address":"品川区荏原6-19-10","lat":35.61205,"lon":139.7062},{"name":"大井警察署","province":"東京都","city":"品川区","address":"品川区大井5-10-2","lat":35.59883,"lon":139.7298},{"name":"大崎警察署","province":"東京都","city":"品川区","address":"品川区大崎4-2-10","lat":35.62179,"lon":139.7241},{"name":"荏原消防署","province":"東京都","city":"品川区","address":"品川区平塚3-16-20","lat":35.61459,"lon":139.7105},{"name":"大井消防署","province":"東京都","city":"品川区","address":"品川区東大井3-6-12","lat":35.60361,"lon":139.7401},{"name":"品川消防署","province":"東京都","city":"品川区","address":"品川区北品川3-7-31","lat":35.61715,"lon":139.7398},{"name":"品川区","province":"東京都","city":"品川区","address":"品川区東中延2-4-2","lat":35.60927,"lon":139.7141},{"name":"東邦薬品（株）ＴＢＣ東京","province":"東京都","city":"品川区","address":"品川区八潮3-2-29エフプラザ東京E棟","lat":35.59926,"lon":139.7599},{"name":"都立大井ふ頭中央海浜公園陸上競技場","province":"東京都","city":"品川区","address":"品川区八潮4丁目地内","lat":35.59263,"lon":139.7523},{"name":"品川清掃工場","province":"東京都","city":"品川区","address":"品川区八潮1-4-1","lat":35.60794,"lon":139.7532},{"name":"品川区立西大井広場公園","province":"東京都","city":"品川区","address":"品川区西大井1-4-10","lat":35.60183,"lon":139.723},{"name":"東京電力（株）品川支社","province":"東京都","city":"品川区","address":"品川区西五反田5-3-1","lat":35.62566,"lon":139.7168},{"name":"品川ふ頭","province":"東京都","city":"品川区","address":"東京都品川区東品川5丁目","lat":35.62216053,"lon":139.75607776},{"name":"日本貨物鉄道（株）東京貨物ターミナル駅","province":"東京都","city":"品川区","address":"東京都品川区","lat":35.60890571,"lon":139.73030809},{"name":"大井ＰＡ（西行）","province":"東京都","city":"品川区","address":"東京都品川区","lat":35.60890571,"lon":139.73030809},{"name":"大井ＰＡ（東行）","province":"東京都","city":"品川区","address":"東京都品川区","lat":35.60890571,"lon":139.73030809},{"name":"品川自動車営業所","province":"東京都","city":"品川区","address":"東京都品川区北品川1丁目5-12","lat":35.62329323,"lon":139.74073729},{"name":"桐ヶ谷斎場","province":"東京都","city":"品川区","address":"東京都品川区西五反田5丁目32-20","lat":35.62232046,"lon":139.71367573},{"name":"てんとうむし","province":"東京都","city":"品川区","address":"品川区北品川4-1-1松風ビル2階","lat":35.62294,"lon":139.734843},{"name":"アプリ児童デイサービス北品川","province":"東京都","city":"品川区","address":"品川区北品川2-18-2","lat":35.618158,"lon":139.741437},{"name":"ちびっこタイム品川","province":"東京都","city":"品川区","address":"品川区東大井5-23-16-110号","lat":35.604407,"lon":139.737158},{"name":"めるへんキッズ大森園","province":"東京都","city":"品川区","address":"品川区南大井6-16-1サンハイツ大森101号室","lat":35.591441,"lon":139.730539},{"name":"スキップランド　西大井","province":"東京都","city":"品川区","address":"品川区西大井6-14-15","lat":35.599776,"lon":139.717037},{"name":"アプリ児童デイサービス不動前","province":"東京都","city":"品川区","address":"品川区西五反田三丁目13番14号ロイヤルコート","lat":35.628086,"lon":139.714056},{"name":"品川区立品川児童学園分室","province":"東京都","city":"品川区","address":"品川区戸越6-16-14","lat":35.607372,"lon":139.715378},{"name":"療育スタジオ・ピコ　戸越公園教室","province":"東京都","city":"品川区","address":"品川区豊町3-1-1ひかりオークス1階","lat":35.609,"lon":139.719884},{"name":"キッズアイランドワイキキ","province":"東京都","city":"品川区","address":"品川区二葉4-4-19","lat":35.602334,"lon":139.715223},{"name":"スタジオそら品川戸越","province":"東京都","city":"品川区","address":"品川区東中延1-3-11","lat":35.611277,"lon":139.714126},{"name":"このこのリーフ　中延","province":"東京都","city":"品川区","address":"品川区中延3-13-19芙蓉ハイツ101号","lat":35.606489,"lon":139.71134},{"name":"みんなの家　ゆめっこ","province":"東京都","city":"品川区","address":"品川区中延6-3-16","lat":35.602767,"lon":139.71256},{"name":"品川区子育て支援センター","province":"東京都","city":"品川区","address":"品川区平塚2-12-2品川区立家庭あんしんセンター内","lat":35.617063,"lon":139.71282},{"name":"品川第一地域センター","province":"東京都","city":"品川区","address":"品川区北品川3-11-16","lat":35.616673,"lon":139.740036},{"name":"台場小学校","province":"東京都","city":"品川区","address":"品川区東品川1-8-30","lat":35.620869,"lon":139.743667},{"name":"三木小学校","province":"東京都","city":"品川区","address":"品川区西品川3-16-28","lat":35.615256,"lon":139.726544},{"name":"大崎第一地域センター","province":"東京都","city":"品川区","address":"品川区西五反田3-6-3","lat":35.627795,"lon":139.716815},{"name":"第一日野小学校","province":"東京都","city":"品川区","address":"品川区西五反田6-5-32","lat":35.622228,"lon":139.716127},{"name":"日野学園","province":"東京都","city":"品川区","address":"品川区東五反田2-11-1","lat":35.62454,"lon":139.72831},{"name":"第三日野小学校","province":"東京都","city":"品川区","address":"品川区上大崎1-19-19","lat":35.632789,"lon":139.723939},{"name":"後地小学校","province":"東京都","city":"品川区","address":"品川区小山2-4-6","lat":35.621519,"lon":139.708452},{"name":"小山小学校","province":"東京都","city":"品川区","address":"品川区小山5-10-6","lat":35.616018,"lon":139.70329},{"name":"大原小学校","province":"東京都","city":"品川区","address":"品川区戸越6-17-3","lat":35.607167,"lon":139.716467},{"name":"大井第一小学校","province":"東京都","city":"品川区","address":"品川区大井6-1-32","lat":35.598644,"lon":139.730919},{"name":"伊藤学園","province":"東京都","city":"品川区","address":"品川区大井5-1-37","lat":35.599873,"lon":139.726009},{"name":"鈴ケ森小学校","province":"東京都","city":"品川区","address":"品川区南大井4-16-2","lat":35.594487,"lon":139.735286},{"name":"大井第二地域センター","province":"東京都","city":"品川区","address":"品川区大井2-27-20","lat":35.604027,"lon":139.730464},{"name":"浅間台小学校","province":"東京都","city":"品川区","address":"品川区南品川6-8-8","lat":35.611462,"lon":139.736584},{"name":"大井第三地域センター","province":"東京都","city":"品川区","address":"品川区西大井4-1-8","lat":35.597669,"lon":139.72108},{"name":"京陽小学校","province":"東京都","city":"品川区","address":"品川区平塚2-19-20","lat":35.330742,"lon":139.337875},{"name":"城南第二小学校","province":"東京都","city":"品川区","address":"品川区東品川3-4-5","lat":35.615644,"lon":139.746083},{"name":"立会小学校","province":"東京都","city":"品川区","address":"品川区東大井4-15-9","lat":35.604432,"lon":139.740166},{"name":"旗台小学校","province":"東京都","city":"品川区","address":"品川区旗の台4-7-11","lat":35.603162,"lon":139.703765},{"name":"豊葉の杜学園","province":"東京都","city":"品川区","address":"品川区二葉1-3-40","lat":35.607037,"lon":139.72556},{"name":"延山小学校","province":"東京都","city":"品川区","address":"品川区西中延2-17-5","lat":35.608779,"lon":139.707882},{"name":"宮前小学校","province":"東京都","city":"品川区","address":"品川区戸越4-5-10","lat":35.611768,"lon":139.718319},{"name":"品川区役所","province":"東京都","city":"品川区","address":"品川区広町2-1-36","lat":35.609181,"lon":139.730167},{"name":"品川区清掃事務所","province":"東京都","city":"品川区","address":"品川区大崎1-14-1","lat":35.618345,"lon":139.733502},{"name":"芳水小学校","province":"東京都","city":"品川区","address":"品川区大崎3-12-22","lat":35.61857,"lon":139.724154},{"name":"伊藤小学校","province":"東京都","city":"品川区","address":"品川区西大井5-6-8","lat":35.598691,"lon":139.717367},{"name":"源氏前小学校","province":"東京都","city":"品川区","address":"品川区中延6-2-18","lat":35.603165,"lon":139.712064},{"name":"小山台小学校","province":"東京都","city":"品川区","address":"品川区小山台1-18-24","lat":35.62276,"lon":139.703466},{"name":"品川区子ども家庭支援センター","province":"東京都","city":"品川区","address":"品川区二葉1-7-15","lat":35.60878,"lon":139.72881},{"name":"品川区子育て支援センター","province":"東京都","city":"品川区","address":"品川区平塚2-12-2品川区立家庭あんしんセンター内","lat":35.61694,"lon":139.71266},{"name":"八潮福祉センター前","province":"東京都","city":"品川区","address":"東京都品川区八潮1丁目4-1","lat":35.60946205,"lon":139.75402291},{"name":"北品川二丁目","province":"東京都","city":"品川区","address":"東京都品川区北品川2丁目34-3","lat":35.61659961,"lon":139.74127362},{"name":"北埠頭橋","province":"東京都","city":"品川区","address":"東京都品川区東品川3丁目27-16","lat":35.61165873,"lon":139.74736499},{"name":"東品川三丁目","province":"東京都","city":"品川区","address":"東京都品川区東品川3丁目6-7","lat":35.61553327,"lon":139.74747316},{"name":"八潮橋","province":"東京都","city":"品川区","address":"東京都品川区東品川4丁目11-34","lat":35.607301,"lon":139.74804846},{"name":"南品川五丁目","province":"東京都","city":"品川区","address":"東京都品川区南品川5丁目3-13","lat":35.61132248,"lon":139.74175433},{"name":"新東海橋","province":"東京都","city":"品川区","address":"東京都品川区東品川1丁目32-3","lat":35.62012434,"lon":139.74618419},{"name":"東品川公園入口","province":"東京都","city":"品川区","address":"東京都品川区東品川3丁目15-10","lat":35.61392513,"lon":139.74735102},{"name":"居木橋","province":"東京都","city":"品川区","address":"東京都品川区北品川4丁目10-5","lat":35.61812701,"lon":139.73499073},{"name":"西品川三丁目","province":"東京都","city":"品川区","address":"東京都品川区大崎2丁目10-14","lat":35.61760745,"lon":139.72900236},{"name":"東品川海上公園","province":"東京都","city":"品川区","address":"東京都品川区東品川3丁目32-36","lat":35.61646105,"lon":139.75092286},{"name":"都立高専前","province":"東京都","city":"品川区","address":"東京都品川区東大井1丁目11-25","lat":35.60682891,"lon":139.75000944},{"name":"品川職業技術専門校前","province":"東京都","city":"品川区","address":"東京都品川区東品川3丁目32-3","lat":35.6119477,"lon":139.75048419},{"name":"新八ツ山橋","province":"東京都","city":"品川区","address":"東京都品川区北品川4丁目7","lat":35.62179607,"lon":139.73699321},{"name":"北品川六丁目","province":"東京都","city":"品川区","address":"東京都品川区東五反田3丁目21-5","lat":35.6249733,"lon":139.73137689},{"name":"東海道北品川","province":"東京都","city":"品川区","address":"東京都品川区北品川2丁目24-5","lat":35.61814672,"lon":139.74379558},{"name":"品川図書館前","province":"東京都","city":"品川区","address":"東京都品川区北品川2丁目30","lat":35.6173746,"lon":139.74390116},{"name":"品川シーサイド駅","province":"東京都","city":"品川区","address":"東京都品川区東品川4丁目13-14","lat":35.60853703,"lon":139.75024546},{"name":"新東海橋東","province":"東京都","city":"品川区","address":"東京都品川区東品川2丁目2-28","lat":35.62179923,"lon":139.74896723},{"name":"八潮橋北","province":"東京都","city":"品川区","address":"東京都品川区東品川4丁目12-1","lat":35.60854805,"lon":139.7479262},{"name":"品川区役所前","province":"東京都","city":"品川区","address":"東京都品川区広町2丁目1-36","lat":35.60881128,"lon":139.73028866},{"name":"東品川シルバーセンター前","province":"東京都","city":"品川区","address":"東京都品川区東品川3丁目32-12","lat":35.61330587,"lon":139.75067301},{"name":"百反坂下","province":"東京都","city":"品川区","address":"東京都品川区西品川3丁目21-8","lat":35.61626598,"lon":139.73041617},{"name":"品川区役所前第二","province":"東京都","city":"品川区","address":"東京都品川区西品川1丁目27-14","lat":35.60922229,"lon":139.72882487},{"name":"大井町駅東口","province":"東京都","city":"品川区","address":"東京都品川区東大井5丁目16-5","lat":35.60713943,"lon":139.73552164},{"name":"立会川","province":"東京都","city":"品川区","address":"東京都品川区東大井2丁目23-2","lat":35.59826843,"lon":139.738369},{"name":"大井町駅西口","province":"東京都","city":"品川区","address":"東京都品川区南大井1丁目3-12","lat":35.5969797,"lon":139.73831627},{"name":"ゼームス坂上","province":"東京都","city":"品川区","address":"東京都品川区東大井5丁目15-4","lat":35.60706171,"lon":139.73642713},{"name":"鈴ヶ森","province":"東京都","city":"品川区","address":"東京都品川区南大井3丁目10","lat":35.59062486,"lon":139.73578617},{"name":"大井権現","province":"東京都","city":"品川区","address":"東京都品川区南大井1丁目1-16","lat":35.59775459,"lon":139.73799126},{"name":"西大井二丁目","province":"東京都","city":"品川区","address":"東京都品川区西大井2丁目4-7","lat":35.59992319,"lon":139.72314505},{"name":"大井一丁目","province":"東京都","city":"品川区","address":"東京都品川区大井1丁目37-10","lat":35.6048062,"lon":139.7307693},{"name":"鮫洲試験場前","province":"東京都","city":"品川区","address":"東京都品川区東大井1丁目12-5","lat":35.6038986,"lon":139.74647094},{"name":"品川区役所入口","province":"東京都","city":"品川区","address":"東京都品川区大井1丁目16-2","lat":35.60764196,"lon":139.73016647},{"name":"鈴ヶ森第二","province":"東京都","city":"品川区","address":"東京都品川区南大井2丁目10-6","lat":35.59019161,"lon":139.73658614},{"name":"大井一丁目第二","province":"東京都","city":"品川区","address":"東京都品川区大井1丁目35-3","lat":35.60507011,"lon":139.73187477},{"name":"大井町駅西口第二","province":"東京都","city":"品川区","address":"東京都品川区大井1丁目10-3","lat":35.60745598,"lon":139.73317737},{"name":"ＪＲ大井町駅南","province":"東京都","city":"品川区","address":"東京都品川区大井1丁目50-5","lat":35.60568679,"lon":139.73414401},{"name":"ＪＲ大井町駅前","province":"東京都","city":"品川区","address":"東京都品川区大井1丁目50-5","lat":35.60568679,"lon":139.73414401},{"name":"大井一本橋","province":"東京都","city":"品川区","address":"東京都品川区大井1丁目20-29","lat":35.60706703,"lon":139.73012762},{"name":"きゅりあん裏","province":"東京都","city":"品川区","address":"東京都品川区東大井5丁目23-37","lat":35.60514807,"lon":139.73690493},{"name":"大井鎧橋","province":"東京都","city":"品川区","address":"東京都品川区大井1丁目49-15","lat":35.60605615,"lon":139.73337462},{"name":"ＪＲ大井工場前","province":"東京都","city":"品川区","address":"東京都品川区大井1丁目1","lat":35.60767819,"lon":139.73352455},{"name":"大森駅北口入口","province":"東京都","city":"品川区","address":"東京都品川区南大井6丁目23-1","lat":35.58961922,"lon":139.73039492},{"name":"大井町駅東口第二","province":"東京都","city":"品川区","address":"東京都品川区大井1丁目2","lat":35.60672556,"lon":139.73428286},{"name":"八潮地域センター前","province":"東京都","city":"品川区","address":"東京都品川区八潮5丁目10-27","lat":35.60015206,"lon":139.7512541},{"name":"ちょうちょ橋","province":"東京都","city":"品川区","address":"東京都品川区八潮5丁目8","lat":35.5968109,"lon":139.75291526},{"name":"中央海浜公園前","province":"東京都","city":"品川区","address":"東京都品川区八潮4丁目2","lat":35.59275297,"lon":139.74978513},{"name":"大井海浜公園前","province":"東京都","city":"品川区","address":"東京都品川区八潮4丁目1","lat":35.59123385,"lon":139.75266834},{"name":"大井町駅入口","province":"東京都","city":"品川区","address":"東京都品川区大井2丁目1-5","lat":35.6065393,"lon":139.72985265},{"name":"五反田駅旧ガード下","province":"東京都","city":"品川区","address":"東京都品川区東五反田1丁目26-6","lat":35.62585636,"lon":139.7240636},{"name":"目黒駅西口前","province":"東京都","city":"品川区","address":"東京都品川区上大崎4丁目1","lat":35.633422,"lon":139.71450866},{"name":"大崎広小路","province":"東京都","city":"品川区","address":"東京都品川区西五反田8丁目4-13","lat":35.6229261,"lon":139.72211664},{"name":"目黒駅東口前","province":"東京都","city":"品川区","address":"東京都品川区上大崎3丁目1","lat":35.63269988,"lon":139.71636408},{"name":"西五反田一丁目","province":"東京都","city":"品川区","address":"東京都品川区西五反田1丁目33-10","lat":35.6240204,"lon":139.72136667},{"name":"五反田駅新ガード下","province":"東京都","city":"品川区","address":"東京都品川区東五反田1丁目26-1","lat":35.6265035,"lon":139.72369972},{"name":"目蒲線ガード下","province":"東京都","city":"品川区","address":"東京都品川区西五反田5丁目1-1","lat":35.62658389,"lon":139.71501159},{"name":"上大崎二丁目","province":"東京都","city":"品川区","address":"東京都品川区上大崎2丁目25-5","lat":35.63461074,"lon":139.71476139},{"name":"上大崎三丁目第二","province":"東京都","city":"品川区","address":"東京都品川区西五反田2丁目1-1","lat":35.62813381,"lon":139.72050273},{"name":"大崎四丁目","province":"東京都","city":"品川区","address":"東京都品川区大崎4丁目2-2","lat":35.62231509,"lon":139.72326656},{"name":"目黒駅ビル前","province":"東京都","city":"品川区","address":"東京都品川区上大崎2丁目15-21","lat":35.63442468,"lon":139.71631958},{"name":"大崎駅西口第二","province":"東京都","city":"品川区","address":"東京都品川区大崎1丁目21-4","lat":35.61970165,"lon":139.72879675},{"name":"大崎駅西口","province":"東京都","city":"品川区","address":"東京都品川区大崎2丁目1-1","lat":35.61837956,"lon":139.72802742},{"name":"平塚橋交番前","province":"東京都","city":"品川区","address":"東京都品川区西中延1丁目1-10","lat":35.61549615,"lon":139.7092402},{"name":"戸越銀座","province":"東京都","city":"品川区","address":"東京都品川区平塚1丁目6-14","lat":35.61544906,"lon":139.71649791},{"name":"昭和医大前","province":"東京都","city":"品川区","address":"東京都品川区旗の台1丁目2-14","lat":35.60944957,"lon":139.70490466},{"name":"昭和医大前第二","province":"東京都","city":"品川区","address":"東京都品川区旗の台1丁目6-16","lat":35.60916903,"lon":139.7039603},{"name":"旗の台駅入口","province":"東京都","city":"品川区","address":"東京都品川区旗の台1丁目4-13","lat":35.60742477,"lon":139.70386869},{"name":"旗の台二丁目","province":"東京都","city":"品川区","address":"東京都品川区旗の台2丁目11-6","lat":35.60577768,"lon":139.70077457},{"name":"戸越銀座入口","province":"東京都","city":"品川区","address":"東京都品川区平塚3丁目2-17","lat":35.61631275,"lon":139.71070949},{"name":"小山四丁目","province":"東京都","city":"品川区","address":"東京都品川区小山4丁目4-7","lat":35.61852353,"lon":139.70432109},{"name":"荏原四丁目","province":"東京都","city":"品川区","address":"東京都品川区荏原4丁目1-1","lat":35.61760698,"lon":139.70549602},{"name":"小山三丁目","province":"東京都","city":"品川区","address":"東京都品川区小山4丁目4-22","lat":35.61905678,"lon":139.70358781},{"name":"第二延山小角","province":"東京都","city":"品川区","address":"東京都品川区旗の台1丁目2-1","lat":35.61073553,"lon":139.70387693},{"name":"武蔵小山駅西","province":"東京都","city":"品川区","address":"東京都品川区小山4丁目2-1","lat":35.6196567,"lon":139.70292952},{"name":"戸越四丁目東","province":"東京都","city":"品川区","address":"東京都品川区戸越5丁目6-4","lat":35.61041631,"lon":139.71847011},{"name":"大森北一丁目","province":"東京都","city":"品川区","address":"東京都品川区南大井3丁目35-10","lat":35.58753902,"lon":139.73258653},{"name":"大森北五差路","province":"東京都","city":"品川区","address":"東京都品川区南大井6丁目27-20","lat":35.58751393,"lon":139.73003949},{"name":"大森海岸駅西","province":"東京都","city":"品川区","address":"東京都品川区南大井3丁目31","lat":35.58793351,"lon":139.73518633},{"name":"大森駅東口広場前","province":"東京都","city":"品川区","address":"東京都品川区南大井6丁目28-8","lat":35.5879583,"lon":139.72972838},{"name":"昭和大学病院","province":"東京都","city":"品川区","address":"東京都品川区旗の台1丁目5-8","lat":35.60849688,"lon":139.70353258},{"name":"ＮＴＴ東日本関東病院","province":"東京都","city":"品川区","address":"東京都品川区東五反田5丁目9-22","lat":35.63091968,"lon":139.72494947},{"name":"桐ヶ谷火葬場","province":"東京都","city":"品川区","address":"東京都品川区西五反田5丁目32-20","lat":35.62232046,"lon":139.71367573},{"name":"（公財）塩事業センター","province":"東京都","city":"品川区","address":"東京都品川区大井1丁目47-1","lat":35.605259,"lon":139.73249415},{"name":"区立戸越公園","province":"東京都","city":"品川区","address":"東京都品川区豊町2丁目1-30","lat":35.61109965,"lon":139.72238087},{"name":"区立しおじ公園","province":"東京都","city":"品川区","address":"東京都品川区八潮5丁目6","lat":35.59734124,"lon":139.74955159},{"name":"都立八潮高等学校","province":"東京都","city":"品川区","address":"東京都品川区東品川3丁目27-22","lat":35.61185035,"lon":139.74660949},{"name":"都立大井埠頭中央海浜公園陸上競技場","province":"東京都","city":"品川区","address":"東京都品川区八潮4丁目1-19","lat":35.59255032,"lon":139.75229052},{"name":"品川区立天王州公園","province":"東京都","city":"品川区","address":"東京都品川区東品川2丁目5-42","lat":35.62054383,"lon":139.74927004},{"name":"品川区立鮫洲運動公園","province":"東京都","city":"品川区","address":"東京都品川区東大井1丁目4-11","lat":35.60589551,"lon":139.74500986},{"name":"品川区立八潮公園多目的広場","province":"東京都","city":"品川区","address":"東京都品川区八潮5丁目11-16","lat":35.60033269,"lon":139.75372891},{"name":"林試の森公園","province":"東京都","city":"品川区","address":"東京都品川区小山台2丁目","lat":35.62477825,"lon":139.69861029},{"name":"滝王子出張所","province":"東京都","city":"品川区","address":"東京都品川区大井5丁目17","lat":35.5984647,"lon":139.7274195},{"name":"消防署","province":"東京都","city":"品川区","address":"東京都品川区旗の台6丁目24-12","lat":35.6056823,"lon":139.6999571},{"name":"戸越出張所","province":"東京都","city":"品川区","address":"東京都品川区戸越5丁目20-15","lat":35.6083161,"lon":139.7187459},{"name":"東品川出張所","province":"東京都","city":"品川区","address":"東京都品川区東品川3丁目32","lat":35.6134542,"lon":139.7504186},{"name":"消防署","province":"東京都","city":"品川区","address":"東京都品川区西五反田7丁目25","lat":35.6200332,"lon":139.7185314},{"name":"＊?品川区男女共同参画センター","province":"東京都","city":"品川区","address":"品川区東大井5-18-1","lat":35.606223,"lon":139.735889},{"name":"都立産業技術高等専門学校品川キャンパス","province":"東京都","city":"品川区","address":"東京都品川区東大井1丁目10-40","lat":35.60696497,"lon":139.7491345},{"name":"城南職業能力開発センター","province":"東京都","city":"品川区","address":"東京都品川区東品川3丁目31-16","lat":35.61250038,"lon":139.74965367},{"name":"大井ふ頭中央海浜公園","province":"東京都","city":"品川区","address":"東京都品川区八潮4丁目1-19","lat":35.59255032,"lon":139.75229052},{"name":"大井ふ頭中央海浜公園","province":"東京都","city":"品川区","address":"東京都品川区八潮4丁目2-1","lat":35.59337233,"lon":139.74986565},{"name":"大崎高等学校","province":"東京都","city":"品川区","address":"東京都品川区豊町2丁目1-7","lat":35.60950813,"lon":139.72128656},{"name":"小山台高等学校","province":"東京都","city":"品川区","address":"東京都品川区小山3丁目3-32","lat":35.62114821,"lon":139.70368496},{"name":"八潮高等学校","province":"東京都","city":"品川区","address":"東京都品川区東品川3丁目27-22","lat":35.61185035,"lon":139.74660949},{"name":"てんとうむし","province":"東京都","city":"品川区","address":"品川区北品川4-1-1松風ビル2階","lat":35.62294,"lon":139.734843},{"name":"アプリ児童デイサービス北品川","province":"東京都","city":"品川区","address":"品川区北品川2-18-2","lat":35.618158,"lon":139.741437},{"name":"ちびっこタイム品川","province":"東京都","city":"品川区","address":"品川区東大井5-23-16-110号","lat":35.604407,"lon":139.737158},{"name":"めるへんキッズ大森園","province":"東京都","city":"品川区","address":"品川区南大井6-16-1サンハイツ大森101号室","lat":35.591441,"lon":139.730539},{"name":"スキップランド　西大井","province":"東京都","city":"品川区","address":"品川区西大井6-14-15","lat":35.599776,"lon":139.717037},{"name":"アプリ児童デイサービス不動前","province":"東京都","city":"品川区","address":"品川区西五反田三丁目13番14号ロイヤルコート","lat":35.628086,"lon":139.714056},{"name":"品川区立品川児童学園分室","province":"東京都","city":"品川区","address":"品川区戸越6-16-14","lat":35.607372,"lon":139.715378},{"name":"療育スタジオ・ピコ　戸越公園教室","province":"東京都","city":"品川区","address":"品川区豊町3-1-1ひかりオークス1階","lat":35.609,"lon":139.719884},{"name":"キッズアイランドワイキキ","province":"東京都","city":"品川区","address":"品川区二葉4-4-19","lat":35.602334,"lon":139.715223},{"name":"スタジオそら品川戸越","province":"東京都","city":"品川区","address":"品川区東中延1-3-11","lat":35.611277,"lon":139.714126},{"name":"このこのリーフ　中延","province":"東京都","city":"品川区","address":"品川区中延3-13-19芙蓉ハイツ101号","lat":35.606489,"lon":139.71134},{"name":"みんなの家　ゆめっこ","province":"東京都","city":"品川区","address":"品川区中延6-3-16","lat":35.602767,"lon":139.71256},{"name":"品川区子育て支援センター","province":"東京都","city":"品川区","address":"品川区平塚2-12-2品川区立家庭あんしんセンター内","lat":35.617063,"lon":139.71282},{"name":"品川第一地域センター","province":"東京都","city":"品川区","address":"品川区北品川3-11-16","lat":35.616673,"lon":139.740036},{"name":"台場小学校","province":"東京都","city":"品川区","address":"品川区東品川1-8-30","lat":35.620869,"lon":139.743667},{"name":"三木小学校","province":"東京都","city":"品川区","address":"品川区西品川3-16-28","lat":35.615256,"lon":139.726544},{"name":"大崎第一地域センター","province":"東京都","city":"品川区","address":"品川区西五反田3-6-3","lat":35.627795,"lon":139.716815},{"name":"第一日野小学校","province":"東京都","city":"品川区","address":"品川区西五反田6-5-32","lat":35.622228,"lon":139.716127},{"name":"日野学園","province":"東京都","city":"品川区","address":"品川区東五反田2-11-1","lat":35.62454,"lon":139.72831},{"name":"第三日野小学校","province":"東京都","city":"品川区","address":"品川区上大崎1-19-19","lat":35.632789,"lon":139.723939},{"name":"後地小学校","province":"東京都","city":"品川区","address":"品川区小山2-4-6","lat":35.621519,"lon":139.708452},{"name":"小山小学校","province":"東京都","city":"品川区","address":"品川区小山5-10-6","lat":35.616018,"lon":139.70329},{"name":"大原小学校","province":"東京都","city":"品川区","address":"品川区戸越6-17-3","lat":35.607167,"lon":139.716467},{"name":"大井第一小学校","province":"東京都","city":"品川区","address":"品川区大井6-1-32","lat":35.598644,"lon":139.730919},{"name":"伊藤学園","province":"東京都","city":"品川区","address":"品川区大井5-1-37","lat":35.599873,"lon":139.726009},{"name":"鈴ケ森小学校","province":"東京都","city":"品川区","address":"品川区南大井4-16-2","lat":35.594487,"lon":139.735286},{"name":"大井第二地域センター","province":"東京都","city":"品川区","address":"品川区大井2-27-20","lat":35.604027,"lon":139.730464},{"name":"浅間台小学校","province":"東京都","city":"品川区","address":"品川区南品川6-8-8","lat":35.611462,"lon":139.736584},{"name":"大井第三地域センター","province":"東京都","city":"品川区","address":"品川区西大井4-1-8","lat":35.597669,"lon":139.72108},{"name":"京陽小学校","province":"東京都","city":"品川区","address":"品川区平塚2-19-20","lat":35.330742,"lon":139.337875},{"name":"城南第二小学校","province":"東京都","city":"品川区","address":"品川区東品川3-4-5","lat":35.615644,"lon":139.746083},{"name":"立会小学校","province":"東京都","city":"品川区","address":"品川区東大井4-15-9","lat":35.604432,"lon":139.740166},{"name":"旗台小学校","province":"東京都","city":"品川区","address":"品川区旗の台4-7-11","lat":35.603162,"lon":139.703765},{"name":"豊葉の杜学園","province":"東京都","city":"品川区","address":"品川区二葉1-3-40","lat":35.607037,"lon":139.72556},{"name":"延山小学校","province":"東京都","city":"品川区","address":"品川区西中延2-17-5","lat":35.608779,"lon":139.707882},{"name":"宮前小学校","province":"東京都","city":"品川区","address":"品川区戸越4-5-10","lat":35.611768,"lon":139.718319},{"name":"品川区役所","province":"東京都","city":"品川区","address":"品川区広町2-1-36","lat":35.609181,"lon":139.730167},{"name":"品川区清掃事務所","province":"東京都","city":"品川区","address":"品川区大崎1-14-1","lat":35.618345,"lon":139.733502},{"name":"芳水小学校","province":"東京都","city":"品川区","address":"品川区大崎3-12-22","lat":35.61857,"lon":139.724154},{"name":"伊藤小学校","province":"東京都","city":"品川区","address":"品川区西大井5-6-8","lat":35.598691,"lon":139.717367},{"name":"源氏前小学校","province":"東京都","city":"品川区","address":"品川区中延6-2-18","lat":35.603165,"lon":139.712064},{"name":"小山台小学校","province":"東京都","city":"品川区","address":"品川区小山台1-18-24","lat":35.62276,"lon":139.703466},{"name":"品川区子ども家庭支援センター","province":"東京都","city":"品川区","address":"品川区二葉1-7-15","lat":35.60878,"lon":139.72881},{"name":"品川区子育て支援センター","province":"東京都","city":"品川区","address":"品川区平塚2-12-2品川区立家庭あんしんセンター内","lat":35.61694,"lon":139.71266},{"name":"八潮福祉センター前","province":"東京都","city":"品川区","address":"東京都品川区八潮1丁目4-1","lat":35.60946205,"lon":139.75402291},{"name":"北品川二丁目","province":"東京都","city":"品川区","address":"東京都品川区北品川2丁目34-3","lat":35.61659961,"lon":139.74127362},{"name":"北埠頭橋","province":"東京都","city":"品川区","address":"東京都品川区東品川3丁目27-16","lat":35.61165873,"lon":139.74736499},{"name":"東品川三丁目","province":"東京都","city":"品川区","address":"東京都品川区東品川3丁目6-7","lat":35.61553327,"lon":139.74747316},{"name":"八潮橋","province":"東京都","city":"品川区","address":"東京都品川区東品川4丁目11-34","lat":35.607301,"lon":139.74804846},{"name":"南品川五丁目","province":"東京都","city":"品川区","address":"東京都品川区南品川5丁目3-13","lat":35.61132248,"lon":139.74175433},{"name":"新東海橋","province":"東京都","city":"品川区","address":"東京都品川区東品川1丁目32-3","lat":35.62012434,"lon":139.74618419},{"name":"東品川公園入口","province":"東京都","city":"品川区","address":"東京都品川区東品川3丁目15-10","lat":35.61392513,"lon":139.74735102},{"name":"居木橋","province":"東京都","city":"品川区","address":"東京都品川区北品川4丁目10-5","lat":35.61812701,"lon":139.73499073},{"name":"西品川三丁目","province":"東京都","city":"品川区","address":"東京都品川区大崎2丁目10-14","lat":35.61760745,"lon":139.72900236},{"name":"東品川海上公園","province":"東京都","city":"品川区","address":"東京都品川区東品川3丁目32-36","lat":35.61646105,"lon":139.75092286},{"name":"都立高専前","province":"東京都","city":"品川区","address":"東京都品川区東大井1丁目11-25","lat":35.60682891,"lon":139.75000944},{"name":"品川職業技術専門校前","province":"東京都","city":"品川区","address":"東京都品川区東品川3丁目32-3","lat":35.6119477,"lon":139.75048419},{"name":"新八ツ山橋","province":"東京都","city":"品川区","address":"東京都品川区北品川4丁目7","lat":35.62179607,"lon":139.73699321},{"name":"北品川六丁目","province":"東京都","city":"品川区","address":"東京都品川区東五反田3丁目21-5","lat":35.6249733,"lon":139.73137689},{"name":"東海道北品川","province":"東京都","city":"品川区","address":"東京都品川区北品川2丁目24-5","lat":35.61814672,"lon":139.74379558},{"name":"品川図書館前","province":"東京都","city":"品川区","address":"東京都品川区北品川2丁目30","lat":35.6173746,"lon":139.74390116},{"name":"品川シーサイド駅","province":"東京都","city":"品川区","address":"東京都品川区東品川4丁目13-14","lat":35.60853703,"lon":139.75024546},{"name":"新東海橋東","province":"東京都","city":"品川区","address":"東京都品川区東品川2丁目2-28","lat":35.62179923,"lon":139.74896723},{"name":"八潮橋北","province":"東京都","city":"品川区","address":"東京都品川区東品川4丁目12-1","lat":35.60854805,"lon":139.7479262},{"name":"品川区役所前","province":"東京都","city":"品川区","address":"東京都品川区広町2丁目1-36","lat":35.60881128,"lon":139.73028866},{"name":"東品川シルバーセンター前","province":"東京都","city":"品川区","address":"東京都品川区東品川3丁目32-12","lat":35.61330587,"lon":139.75067301},{"name":"百反坂下","province":"東京都","city":"品川区","address":"東京都品川区西品川3丁目21-8","lat":35.61626598,"lon":139.73041617},{"name":"品川区役所前第二","province":"東京都","city":"品川区","address":"東京都品川区西品川1丁目27-14","lat":35.60922229,"lon":139.72882487},{"name":"大井町駅東口","province":"東京都","city":"品川区","address":"東京都品川区東大井5丁目16-5","lat":35.60713943,"lon":139.73552164},{"name":"立会川","province":"東京都","city":"品川区","address":"東京都品川区東大井2丁目23-2","lat":35.59826843,"lon":139.738369},{"name":"大井町駅西口","province":"東京都","city":"品川区","address":"東京都品川区南大井1丁目3-12","lat":35.5969797,"lon":139.73831627},{"name":"ゼームス坂上","province":"東京都","city":"品川区","address":"東京都品川区東大井5丁目15-4","lat":35.60706171,"lon":139.73642713},{"name":"鈴ヶ森","province":"東京都","city":"品川区","address":"東京都品川区南大井3丁目10","lat":35.59062486,"lon":139.73578617},{"name":"大井権現","province":"東京都","city":"品川区","address":"東京都品川区南大井1丁目1-16","lat":35.59775459,"lon":139.73799126},{"name":"西大井二丁目","province":"東京都","city":"品川区","address":"東京都品川区西大井2丁目4-7","lat":35.59992319,"lon":139.72314505},{"name":"大井一丁目","province":"東京都","city":"品川区","address":"東京都品川区大井1丁目37-10","lat":35.6048062,"lon":139.7307693},{"name":"鮫洲試験場前","province":"東京都","city":"品川区","address":"東京都品川区東大井1丁目12-5","lat":35.6038986,"lon":139.74647094},{"name":"品川区役所入口","province":"東京都","city":"品川区","address":"東京都品川区大井1丁目16-2","lat":35.60764196,"lon":139.73016647},{"name":"鈴ヶ森第二","province":"東京都","city":"品川区","address":"東京都品川区南大井2丁目10-6","lat":35.59019161,"lon":139.73658614},{"name":"大井一丁目第二","province":"東京都","city":"品川区","address":"東京都品川区大井1丁目35-3","lat":35.60507011,"lon":139.73187477},{"name":"大井町駅西口第二","province":"東京都","city":"品川区","address":"東京都品川区大井1丁目10-3","lat":35.60745598,"lon":139.73317737},{"name":"ＪＲ大井町駅南","province":"東京都","city":"品川区","address":"東京都品川区大井1丁目50-5","lat":35.60568679,"lon":139.73414401},{"name":"ＪＲ大井町駅前","province":"東京都","city":"品川区","address":"東京都品川区大井1丁目50-5","lat":35.60568679,"lon":139.73414401},{"name":"大井一本橋","province":"東京都","city":"品川区","address":"東京都品川区大井1丁目20-29","lat":35.60706703,"lon":139.73012762},{"name":"きゅりあん裏","province":"東京都","city":"品川区","address":"東京都品川区東大井5丁目23-37","lat":35.60514807,"lon":139.73690493},{"name":"大井鎧橋","province":"東京都","city":"品川区","address":"東京都品川区大井1丁目49-15","lat":35.60605615,"lon":139.73337462},{"name":"ＪＲ大井工場前","province":"東京都","city":"品川区","address":"東京都品川区大井1丁目1","lat":35.60767819,"lon":139.73352455},{"name":"大森駅北口入口","province":"東京都","city":"品川区","address":"東京都品川区南大井6丁目23-1","lat":35.58961922,"lon":139.73039492},{"name":"大井町駅東口第二","province":"東京都","city":"品川区","address":"東京都品川区大井1丁目2","lat":35.60672556,"lon":139.73428286},{"name":"八潮地域センター前","province":"東京都","city":"品川区","address":"東京都品川区八潮5丁目10-27","lat":35.60015206,"lon":139.7512541},{"name":"ちょうちょ橋","province":"東京都","city":"品川区","address":"東京都品川区八潮5丁目8","lat":35.5968109,"lon":139.75291526},{"name":"中央海浜公園前","province":"東京都","city":"品川区","address":"東京都品川区八潮4丁目2","lat":35.59275297,"lon":139.74978513},{"name":"大井海浜公園前","province":"東京都","city":"品川区","address":"東京都品川区八潮4丁目1","lat":35.59123385,"lon":139.75266834},{"name":"大井町駅入口","province":"東京都","city":"品川区","address":"東京都品川区大井2丁目1-5","lat":35.6065393,"lon":139.72985265},{"name":"五反田駅旧ガード下","province":"東京都","city":"品川区","address":"東京都品川区東五反田1丁目26-6","lat":35.62585636,"lon":139.7240636},{"name":"目黒駅西口前","province":"東京都","city":"品川区","address":"東京都品川区上大崎4丁目1","lat":35.633422,"lon":139.71450866},{"name":"大崎広小路","province":"東京都","city":"品川区","address":"東京都品川区西五反田8丁目4-13","lat":35.6229261,"lon":139.72211664},{"name":"目黒駅東口前","province":"東京都","city":"品川区","address":"東京都品川区上大崎3丁目1","lat":35.63269988,"lon":139.71636408},{"name":"西五反田一丁目","province":"東京都","city":"品川区","address":"東京都品川区西五反田1丁目33-10","lat":35.6240204,"lon":139.72136667},{"name":"五反田駅新ガード下","province":"東京都","city":"品川区","address":"東京都品川区東五反田1丁目26-1","lat":35.6265035,"lon":139.72369972},{"name":"目蒲線ガード下","province":"東京都","city":"品川区","address":"東京都品川区西五反田5丁目1-1","lat":35.62658389,"lon":139.71501159},{"name":"上大崎二丁目","province":"東京都","city":"品川区","address":"東京都品川区上大崎2丁目25-5","lat":35.63461074,"lon":139.71476139},{"name":"上大崎三丁目第二","province":"東京都","city":"品川区","address":"東京都品川区西五反田2丁目1-1","lat":35.62813381,"lon":139.72050273},{"name":"大崎四丁目","province":"東京都","city":"品川区","address":"東京都品川区大崎4丁目2-2","lat":35.62231509,"lon":139.72326656},{"name":"目黒駅ビル前","province":"東京都","city":"品川区","address":"東京都品川区上大崎2丁目15-21","lat":35.63442468,"lon":139.71631958},{"name":"大崎駅西口第二","province":"東京都","city":"品川区","address":"東京都品川区大崎1丁目21-4","lat":35.61970165,"lon":139.72879675},{"name":"大崎駅西口","province":"東京都","city":"品川区","address":"東京都品川区大崎2丁目1-1","lat":35.61837956,"lon":139.72802742},{"name":"平塚橋交番前","province":"東京都","city":"品川区","address":"東京都品川区西中延1丁目1-10","lat":35.61549615,"lon":139.7092402},{"name":"戸越銀座","province":"東京都","city":"品川区","address":"東京都品川区平塚1丁目6-14","lat":35.61544906,"lon":139.71649791},{"name":"昭和医大前","province":"東京都","city":"品川区","address":"東京都品川区旗の台1丁目2-14","lat":35.60944957,"lon":139.70490466},{"name":"昭和医大前第二","province":"東京都","city":"品川区","address":"東京都品川区旗の台1丁目6-16","lat":35.60916903,"lon":139.7039603},{"name":"旗の台駅入口","province":"東京都","city":"品川区","address":"東京都品川区旗の台1丁目4-13","lat":35.60742477,"lon":139.70386869},{"name":"旗の台二丁目","province":"東京都","city":"品川区","address":"東京都品川区旗の台2丁目11-6","lat":35.60577768,"lon":139.70077457},{"name":"戸越銀座入口","province":"東京都","city":"品川区","address":"東京都品川区平塚3丁目2-17","lat":35.61631275,"lon":139.71070949},{"name":"小山四丁目","province":"東京都","city":"品川区","address":"東京都品川区小山4丁目4-7","lat":35.61852353,"lon":139.70432109},{"name":"荏原四丁目","province":"東京都","city":"品川区","address":"東京都品川区荏原4丁目1-1","lat":35.61760698,"lon":139.70549602},{"name":"小山三丁目","province":"東京都","city":"品川区","address":"東京都品川区小山4丁目4-22","lat":35.61905678,"lon":139.70358781},{"name":"第二延山小角","province":"東京都","city":"品川区","address":"東京都品川区旗の台1丁目2-1","lat":35.61073553,"lon":139.70387693},{"name":"武蔵小山駅西","province":"東京都","city":"品川区","address":"東京都品川区小山4丁目2-1","lat":35.6196567,"lon":139.70292952},{"name":"戸越四丁目東","province":"東京都","city":"品川区","address":"東京都品川区戸越5丁目6-4","lat":35.61041631,"lon":139.71847011},{"name":"大森北一丁目","province":"東京都","city":"品川区","address":"東京都品川区南大井3丁目35-10","lat":35.58753902,"lon":139.73258653},{"name":"大森北五差路","province":"東京都","city":"品川区","address":"東京都品川区南大井6丁目27-20","lat":35.58751393,"lon":139.73003949},{"name":"大森海岸駅西","province":"東京都","city":"品川区","address":"東京都品川区南大井3丁目31","lat":35.58793351,"lon":139.73518633},{"name":"大森駅東口広場前","province":"東京都","city":"品川区","address":"東京都品川区南大井6丁目28-8","lat":35.5879583,"lon":139.72972838},{"name":"昭和大学病院","province":"東京都","city":"品川区","address":"東京都品川区旗の台1丁目5-8","lat":35.60849688,"lon":139.70353258},{"name":"ＮＴＴ東日本関東病院","province":"東京都","city":"品川区","address":"東京都品川区東五反田5丁目9-22","lat":35.63091968,"lon":139.72494947},{"name":"桐ヶ谷火葬場","province":"東京都","city":"品川区","address":"東京都品川区西五反田5丁目32-20","lat":35.62232046,"lon":139.71367573},{"name":"（公財）塩事業センター","province":"東京都","city":"品川区","address":"東京都品川区大井1丁目47-1","lat":35.605259,"lon":139.73249415},{"name":"区立戸越公園","province":"東京都","city":"品川区","address":"東京都品川区豊町2丁目1-30","lat":35.61109965,"lon":139.72238087},{"name":"区立しおじ公園","province":"東京都","city":"品川区","address":"東京都品川区八潮5丁目6","lat":35.59734124,"lon":139.74955159},{"name":"都立八潮高等学校","province":"東京都","city":"品川区","address":"東京都品川区東品川3丁目27-22","lat":35.61185035,"lon":139.74660949},{"name":"都立大井埠頭中央海浜公園陸上競技場","province":"東京都","city":"品川区","address":"東京都品川区八潮4丁目1-19","lat":35.59255032,"lon":139.75229052},{"name":"品川区立天王州公園","province":"東京都","city":"品川区","address":"東京都品川区東品川2丁目5-42","lat":35.62054383,"lon":139.74927004},{"name":"品川区立鮫洲運動公園","province":"東京都","city":"品川区","address":"東京都品川区東大井1丁目4-11","lat":35.60589551,"lon":139.74500986},{"name":"品川区立八潮公園多目的広場","province":"東京都","city":"品川区","address":"東京都品川区八潮5丁目11-16","lat":35.60033269,"lon":139.75372891},{"name":"林試の森公園","province":"東京都","city":"品川区","address":"東京都品川区小山台2丁目","lat":35.62477825,"lon":139.69861029},{"name":"滝王子出張所","province":"東京都","city":"品川区","address":"東京都品川区大井5丁目17","lat":35.5984647,"lon":139.7274195},{"name":"消防署","province":"東京都","city":"品川区","address":"東京都品川区旗の台6丁目24-12","lat":35.6056823,"lon":139.6999571},{"name":"戸越出張所","province":"東京都","city":"品川区","address":"東京都品川区戸越5丁目20-15","lat":35.6083161,"lon":139.7187459},{"name":"東品川出張所","province":"東京都","city":"品川区","address":"東京都品川区東品川3丁目32","lat":35.6134542,"lon":139.7504186},{"name":"消防署","province":"東京都","city":"品川区","address":"東京都品川区西五反田7丁目25","lat":35.6200332,"lon":139.7185314},{"name":"＊?品川区男女共同参画センター","province":"東京都","city":"品川区","address":"品川区東大井5-18-1","lat":35.606223,"lon":139.735889},{"name":"都立産業技術高等専門学校品川キャンパス","province":"東京都","city":"品川区","address":"東京都品川区東大井1丁目10-40","lat":35.60696497,"lon":139.7491345},{"name":"城南職業能力開発センター","province":"東京都","city":"品川区","address":"東京都品川区東品川3丁目31-16","lat":35.61250038,"lon":139.74965367},{"name":"大井ふ頭中央海浜公園","province":"東京都","city":"品川区","address":"東京都品川区八潮4丁目1-19","lat":35.59255032,"lon":139.75229052},{"name":"大井ふ頭中央海浜公園","province":"東京都","city":"品川区","address":"東京都品川区八潮4丁目2-1","lat":35.59337233,"lon":139.74986565},{"name":"大崎高等学校","province":"東京都","city":"品川区","address":"東京都品川区豊町2丁目1-7","lat":35.60950813,"lon":139.72128656},{"name":"小山台高等学校","province":"東京都","city":"品川区","address":"東京都品川区小山3丁目3-32","lat":35.62114821,"lon":139.70368496},{"name":"八潮高等学校","province":"東京都","city":"品川区","address":"東京都品川区東品川3丁目27-22","lat":35.61185035,"lon":139.74660949},{"name":"てんとうむし","province":"東京都","city":"品川区","address":"品川区北品川4-1-1松風ビル2階","lat":35.62294,"lon":139.734843},{"name":"アプリ児童デイサービス北品川","province":"東京都","city":"品川区","address":"品川区北品川2-18-2","lat":35.618158,"lon":139.741437},{"name":"ちびっこタイム品川","province":"東京都","city":"品川区","address":"品川区東大井5-23-16-110号","lat":35.604407,"lon":139.737158},{"name":"めるへんキッズ大森園","province":"東京都","city":"品川区","address":"品川区南大井6-16-1サンハイツ大森101号室","lat":35.591441,"lon":139.730539},{"name":"スキップランド　西大井","province":"東京都","city":"品川区","address":"品川区西大井6-14-15","lat":35.599776,"lon":139.717037},{"name":"アプリ児童デイサービス不動前","province":"東京都","city":"品川区","address":"品川区西五反田三丁目13番14号ロイヤルコート","lat":35.628086,"lon":139.714056},{"name":"品川区立品川児童学園分室","province":"東京都","city":"品川区","address":"品川区戸越6-16-14","lat":35.607372,"lon":139.715378},{"name":"療育スタジオ・ピコ　戸越公園教室","province":"東京都","city":"品川区","address":"品川区豊町3-1-1ひかりオークス1階","lat":35.609,"lon":139.719884},{"name":"キッズアイランドワイキキ","province":"東京都","city":"品川区","address":"品川区二葉4-4-19","lat":35.602334,"lon":139.715223},{"name":"スタジオそら品川戸越","province":"東京都","city":"品川区","address":"品川区東中延1-3-11","lat":35.611277,"lon":139.714126},{"name":"このこのリーフ　中延","province":"東京都","city":"品川区","address":"品川区中延3-13-19芙蓉ハイツ101号","lat":35.606489,"lon":139.71134},{"name":"みんなの家　ゆめっこ","province":"東京都","city":"品川区","address":"品川区中延6-3-16","lat":35.602767,"lon":139.71256},{"name":"品川区子育て支援センター","province":"東京都","city":"品川区","address":"品川区平塚2-12-2品川区立家庭あんしんセンター内","lat":35.617063,"lon":139.71282},{"name":"品川区子ども家庭支援センター","province":"東京都","city":"品川区","address":"品川区二葉1-7-15","lat":35.60878,"lon":139.72881},{"name":"品川区子育て支援センター","province":"東京都","city":"品川区","address":"品川区平塚2-12-2品川区立家庭あんしんセンター内","lat":35.61694,"lon":139.71266},{"name":"桐ヶ谷火葬場","province":"東京都","city":"品川区","address":"東京都品川区西五反田5丁目32-20","lat":35.62232046,"lon":139.71367573},{"name":"（公財）塩事業センター","province":"東京都","city":"品川区","address":"東京都品川区大井1丁目47-1","lat":35.605259,"lon":139.73249415},{"name":"都立大井埠頭中央海浜公園陸上競技場","province":"東京都","city":"品川区","address":"東京都品川区八潮4丁目1-19","lat":35.59255032,"lon":139.75229052},{"name":"品川区立天王州公園","province":"東京都","city":"品川区","address":"東京都品川区東品川2丁目5-42","lat":35.62054383,"lon":139.74927004},{"name":"品川区立鮫洲運動公園","province":"東京都","city":"品川区","address":"東京都品川区東大井1丁目4-11","lat":35.60589551,"lon":139.74500986},{"name":"品川区立八潮公園多目的広場","province":"東京都","city":"品川区","address":"東京都品川区八潮5丁目11-16","lat":35.60033269,"lon":139.75372891},{"name":"林試の森公園","province":"東京都","city":"品川区","address":"東京都品川区小山台2丁目","lat":35.62477825,"lon":139.69861029},{"name":"滝王子出張所","province":"東京都","city":"品川区","address":"東京都品川区大井5丁目17","lat":35.5984647,"lon":139.7274195},{"name":"消防署","province":"東京都","city":"品川区","address":"東京都品川区旗の台6丁目24-12","lat":35.6056823,"lon":139.6999571},{"name":"戸越出張所","province":"東京都","city":"品川区","address":"東京都品川区戸越5丁目20-15","lat":35.6083161,"lon":139.7187459},{"name":"東品川出張所","province":"東京都","city":"品川区","address":"東京都品川区東品川3丁目32","lat":35.6134542,"lon":139.7504186},{"name":"消防署","province":"東京都","city":"品川区","address":"東京都品川区西五反田7丁目25","lat":35.6200332,"lon":139.7185314},{"name":"＊?品川区男女共同参画センター","province":"東京都","city":"品川区","address":"品川区東大井5-18-1","lat":35.606223,"lon":139.735889},{"name":"都立産業技術高等専門学校品川キャンパス","province":"東京都","city":"品川区","address":"東京都品川区東大井1丁目10-40","lat":35.60696497,"lon":139.7491345},{"name":"城南職業能力開発センター","province":"東京都","city":"品川区","address":"東京都品川区東品川3丁目31-16","lat":35.61250038,"lon":139.74965367},{"name":"大井ふ頭中央海浜公園","province":"東京都","city":"品川区","address":"東京都品川区八潮4丁目1-19","lat":35.59255032,"lon":139.75229052},{"name":"大井ふ頭中央海浜公園","province":"東京都","city":"品川区","address":"東京都品川区八潮4丁目2-1","lat":35.59337233,"lon":139.74986565},{"name":"大崎高等学校","province":"東京都","city":"品川区","address":"東京都品川区豊町2丁目1-7","lat":35.60950813,"lon":139.72128656},{"name":"小山台高等学校","province":"東京都","city":"品川区","address":"東京都品川区小山3丁目3-32","lat":35.62114821,"lon":139.70368496},{"name":"八潮高等学校","province":"東京都","city":"品川区","address":"東京都品川区東品川3丁目27-22","lat":35.61185035,"lon":139.74660949},{"name":"てんとうむし","province":"東京都","city":"品川区","address":"品川区北品川4-1-1松風ビル2階","lat":35.62294,"lon":139.734843},{"name":"アプリ児童デイサービス北品川","province":"東京都","city":"品川区","address":"品川区北品川2-18-2","lat":35.618158,"lon":139.741437},{"name":"ちびっこタイム品川","province":"東京都","city":"品川区","address":"品川区東大井5-23-16-110号","lat":35.604407,"lon":139.737158},{"name":"めるへんキッズ大森園","province":"東京都","city":"品川区","address":"品川区南大井6-16-1サンハイツ大森101号室","lat":35.591441,"lon":139.730539},{"name":"スキップランド　西大井","province":"東京都","city":"品川区","address":"品川区西大井6-14-15","lat":35.599776,"lon":139.717037},{"name":"アプリ児童デイサービス不動前","province":"東京都","city":"品川区","address":"品川区西五反田三丁目13番14号ロイヤルコート","lat":35.628086,"lon":139.714056},{"name":"品川区立品川児童学園分室","province":"東京都","city":"品川区","address":"品川区戸越6-16-14","lat":35.607372,"lon":139.715378},{"name":"療育スタジオ・ピコ　戸越公園教室","province":"東京都","city":"品川区","address":"品川区豊町3-1-1ひかりオークス1階","lat":35.609,"lon":139.719884},{"name":"キッズアイランドワイキキ","province":"東京都","city":"品川区","address":"品川区二葉4-4-19","lat":35.602334,"lon":139.715223},{"name":"スタジオそら品川戸越","province":"東京都","city":"品川区","address":"品川区東中延1-3-11","lat":35.611277,"lon":139.714126},{"name":"このこのリーフ　中延","province":"東京都","city":"品川区","address":"品川区中延3-13-19芙蓉ハイツ101号","lat":35.606489,"lon":139.71134},{"name":"みんなの家　ゆめっこ","province":"東京都","city":"品川区","address":"品川区中延6-3-16","lat":35.602767,"lon":139.71256},{"name":"品川区子育て支援センター","province":"東京都","city":"品川区","address":"品川区平塚2-12-2品川区立家庭あんしんセンター内","lat":35.617063,"lon":139.71282},{"name":"品川区子ども家庭支援センター","province":"東京都","city":"品川区","address":"品川区二葉1-7-15","lat":35.60878,"lon":139.72881},{"name":"品川区子育て支援センター","province":"東京都","city":"品川区","address":"品川区平塚2-12-2品川区立家庭あんしんセンター内","lat":35.61694,"lon":139.71266},{"name":"桐ヶ谷火葬場","province":"東京都","city":"品川区","address":"東京都品川区西五反田5丁目32-20","lat":35.62232046,"lon":139.71367573},{"name":"（公財）塩事業センター","province":"東京都","city":"品川区","address":"東京都品川区大井1丁目47-1","lat":35.605259,"lon":139.73249415},{"name":"滝王子出張所","province":"東京都","city":"品川区","address":"東京都品川区大井5丁目17","lat":35.5984647,"lon":139.7274195},{"name":"消防署","province":"東京都","city":"品川区","address":"東京都品川区旗の台6丁目24-12","lat":35.6056823,"lon":139.6999571},{"name":"戸越出張所","province":"東京都","city":"品川区","address":"東京都品川区戸越5丁目20-15","lat":35.6083161,"lon":139.7187459},{"name":"東品川出張所","province":"東京都","city":"品川区","address":"東京都品川区東品川3丁目32","lat":35.6134542,"lon":139.7504186},{"name":"消防署","province":"東京都","city":"品川区","address":"東京都品川区西五反田7丁目25","lat":35.6200332,"lon":139.7185314},{"name":"＊?品川区男女共同参画センター","province":"東京都","city":"品川区","address":"品川区東大井5-18-1","lat":35.606223,"lon":139.735889},{"name":"都立産業技術高等専門学校品川キャンパス","province":"東京都","city":"品川区","address":"東京都品川区東大井1丁目10-40","lat":35.60696497,"lon":139.7491345},{"name":"城南職業能力開発センター","province":"東京都","city":"品川区","address":"東京都品川区東品川3丁目31-16","lat":35.61250038,"lon":139.74965367},{"name":"大井ふ頭中央海浜公園","province":"東京都","city":"品川区","address":"東京都品川区八潮4丁目1-19","lat":35.59255032,"lon":139.75229052},{"name":"大井ふ頭中央海浜公園","province":"東京都","city":"品川区","address":"東京都品川区八潮4丁目2-1","lat":35.59337233,"lon":139.74986565},{"name":"大崎高等学校","province":"東京都","city":"品川区","address":"東京都品川区豊町2丁目1-7","lat":35.60950813,"lon":139.72128656},{"name":"小山台高等学校","province":"東京都","city":"品川区","address":"東京都品川区小山3丁目3-32","lat":35.62114821,"lon":139.70368496},{"name":"八潮高等学校","province":"東京都","city":"品川区","address":"東京都品川区東品川3丁目27-22","lat":35.61185035,"lon":139.74660949},{"name":"てんとうむし","province":"東京都","city":"品川区","address":"品川区北品川4-1-1松風ビル2階","lat":35.62294,"lon":139.734843},{"name":"アプリ児童デイサービス北品川","province":"東京都","city":"品川区","address":"品川区北品川2-18-2","lat":35.618158,"lon":139.741437},{"name":"ちびっこタイム品川","province":"東京都","city":"品川区","address":"品川区東大井5-23-16-110号","lat":35.604407,"lon":139.737158},{"name":"めるへんキッズ大森園","province":"東京都","city":"品川区","address":"品川区南大井6-16-1サンハイツ大森101号室","lat":35.591441,"lon":139.730539},{"name":"スキップランド　西大井","province":"東京都","city":"品川区","address":"品川区西大井6-14-15","lat":35.599776,"lon":139.717037},{"name":"アプリ児童デイサービス不動前","province":"東京都","city":"品川区","address":"品川区西五反田三丁目13番14号ロイヤルコート","lat":35.628086,"lon":139.714056},{"name":"品川区立品川児童学園分室","province":"東京都","city":"品川区","address":"品川区戸越6-16-14","lat":35.607372,"lon":139.715378},{"name":"療育スタジオ・ピコ　戸越公園教室","province":"東京都","city":"品川区","address":"品川区豊町3-1-1ひかりオークス1階","lat":35.609,"lon":139.719884},{"name":"キッズアイランドワイキキ","province":"東京都","city":"品川区","address":"品川区二葉4-4-19","lat":35.602334,"lon":139.715223},{"name":"スタジオそら品川戸越","province":"東京都","city":"品川区","address":"品川区東中延1-3-11","lat":35.611277,"lon":139.714126},{"name":"このこのリーフ　中延","province":"東京都","city":"品川区","address":"品川区中延3-13-19芙蓉ハイツ101号","lat":35.606489,"lon":139.71134},{"name":"みんなの家　ゆめっこ","province":"東京都","city":"品川区","address":"品川区中延6-3-16","lat":35.602767,"lon":139.71256},{"name":"品川区子育て支援センター","province":"東京都","city":"品川区","address":"品川区平塚2-12-2品川区立家庭あんしんセンター内","lat":35.617063,"lon":139.71282},{"name":"品川区子ども家庭支援センター","province":"東京都","city":"品川区","address":"品川区二葉1-7-15","lat":35.60878,"lon":139.72881},{"name":"品川区子育て支援センター","province":"東京都","city":"品川区","address":"品川区平塚2-12-2品川区立家庭あんしんセンター内","lat":35.61694,"lon":139.71266},{"name":"桐ヶ谷火葬場","province":"東京都","city":"品川区","address":"東京都品川区西五反田5丁目32-20","lat":35.62232046,"lon":139.71367573},{"name":"（公財）塩事業センター","province":"東京都","city":"品川区","address":"東京都品川区大井1丁目47-1","lat":35.605259,"lon":139.73249415},{"name":"滝王子出張所","province":"東京都","city":"品川区","address":"東京都品川区大井5丁目17","lat":35.5984647,"lon":139.7274195},{"name":"消防署","province":"東京都","city":"品川区","address":"東京都品川区旗の台6丁目24-12","lat":35.6056823,"lon":139.6999571},{"name":"戸越出張所","province":"東京都","city":"品川区","address":"東京都品川区戸越5丁目20-15","lat":35.6083161,"lon":139.7187459},{"name":"東品川出張所","province":"東京都","city":"品川区","address":"東京都品川区東品川3丁目32","lat":35.6134542,"lon":139.7504186},{"name":"消防署","province":"東京都","city":"品川区","address":"東京都品川区西五反田7丁目25","lat":35.6200332,"lon":139.7185314},{"name":"＊?品川区男女共同参画センター","province":"東京都","city":"品川区","address":"品川区東大井5-18-1","lat":35.606223,"lon":139.735889},{"name":"都立産業技術高等専門学校品川キャンパス","province":"東京都","city":"品川区","address":"東京都品川区東大井1丁目10-40","lat":35.60696497,"lon":139.7491345},{"name":"城南職業能力開発センター","province":"東京都","city":"品川区","address":"東京都品川区東品川3丁目31-16","lat":35.61250038,"lon":139.74965367},{"name":"大井ふ頭中央海浜公園","province":"東京都","city":"品川区","address":"東京都品川区八潮4丁目1-19","lat":35.59255032,"lon":139.75229052},{"name":"大井ふ頭中央海浜公園","province":"東京都","city":"品川区","address":"東京都品川区八潮4丁目2-1","lat":35.59337233,"lon":139.74986565},{"name":"大崎高等学校","province":"東京都","city":"品川区","address":"東京都品川区豊町2丁目1-7","lat":35.60950813,"lon":139.72128656},{"name":"小山台高等学校","province":"東京都","city":"品川区","address":"東京都品川区小山3丁目3-32","lat":35.62114821,"lon":139.70368496},{"name":"八潮高等学校","province":"東京都","city":"品川区","address":"東京都品川区東品川3丁目27-22","lat":35.61185035,"lon":139.74660949},{"name":"てんとうむし","province":"東京都","city":"品川区","address":"品川区北品川4-1-1松風ビル2階","lat":35.62294,"lon":139.734843},{"name":"アプリ児童デイサービス北品川","province":"東京都","city":"品川区","address":"品川区北品川2-18-2","lat":35.618158,"lon":139.741437},{"name":"ちびっこタイム品川","province":"東京都","city":"品川区","address":"品川区東大井5-23-16-110号","lat":35.604407,"lon":139.737158},{"name":"めるへんキッズ大森園","province":"東京都","city":"品川区","address":"品川区南大井6-16-1サンハイツ大森101号室","lat":35.591441,"lon":139.730539},{"name":"スキップランド　西大井","province":"東京都","city":"品川区","address":"品川区西大井6-14-15","lat":35.599776,"lon":139.717037},{"name":"アプリ児童デイサービス不動前","province":"東京都","city":"品川区","address":"品川区西五反田三丁目13番14号ロイヤルコート","lat":35.628086,"lon":139.714056},{"name":"品川区立品川児童学園分室","province":"東京都","city":"品川区","address":"品川区戸越6-16-14","lat":35.607372,"lon":139.715378},{"name":"療育スタジオ・ピコ　戸越公園教室","province":"東京都","city":"品川区","address":"品川区豊町3-1-1ひかりオークス1階","lat":35.609,"lon":139.719884},{"name":"キッズアイランドワイキキ","province":"東京都","city":"品川区","address":"品川区二葉4-4-19","lat":35.602334,"lon":139.715223},{"name":"スタジオそら品川戸越","province":"東京都","city":"品川区","address":"品川区東中延1-3-11","lat":35.611277,"lon":139.714126},{"name":"このこのリーフ　中延","province":"東京都","city":"品川区","address":"品川区中延3-13-19芙蓉ハイツ101号","lat":35.606489,"lon":139.71134},{"name":"みんなの家　ゆめっこ","province":"東京都","city":"品川区","address":"品川区中延6-3-16","lat":35.602767,"lon":139.71256},{"name":"品川区子育て支援センター","province":"東京都","city":"品川区","address":"品川区平塚2-12-2品川区立家庭あんしんセンター内","lat":35.617063,"lon":139.71282},{"name":"品川区子ども家庭支援センター","province":"東京都","city":"品川区","address":"品川区二葉1-7-15","lat":35.60878,"lon":139.72881},{"name":"品川区子育て支援センター","province":"東京都","city":"品川区","address":"品川区平塚2-12-2品川区立家庭あんしんセンター内","lat":35.61694,"lon":139.71266},{"name":"桐ヶ谷火葬場","province":"東京都","city":"品川区","address":"東京都品川区西五反田5丁目32-20","lat":35.62232046,"lon":139.71367573},{"name":"（公財）塩事業センター","province":"東京都","city":"品川区","address":"東京都品川区大井1丁目47-1","lat":35.605259,"lon":139.73249415},{"name":"滝王子出張所","province":"東京都","city":"品川区","address":"東京都品川区大井5丁目17","lat":35.5984647,"lon":139.7274195},{"name":"消防署","province":"東京都","city":"品川区","address":"東京都品川区旗の台6丁目24-12","lat":35.6056823,"lon":139.6999571},{"name":"戸越出張所","province":"東京都","city":"品川区","address":"東京都品川区戸越5丁目20-15","lat":35.6083161,"lon":139.7187459},{"name":"東品川出張所","province":"東京都","city":"品川区","address":"東京都品川区東品川3丁目32","lat":35.6134542,"lon":139.7504186},{"name":"消防署","province":"東京都","city":"品川区","address":"東京都品川区西五反田7丁目25","lat":35.6200332,"lon":139.7185314},{"name":"＊?品川区男女共同参画センター","province":"東京都","city":"品川区","address":"品川区東大井5-18-1","lat":35.606223,"lon":139.735889},{"name":"都立産業技術高等専門学校品川キャンパス","province":"東京都","city":"品川区","address":"東京都品川区東大井1丁目10-40","lat":35.60696497,"lon":139.7491345},{"name":"城南職業能力開発センター","province":"東京都","city":"品川区","address":"東京都品川区東品川3丁目31-16","lat":35.61250038,"lon":139.74965367},{"name":"大井ふ頭中央海浜公園","province":"東京都","city":"品川区","address":"東京都品川区八潮4丁目1-19","lat":35.59255032,"lon":139.75229052},{"name":"大井ふ頭中央海浜公園","province":"東京都","city":"品川区","address":"東京都品川区八潮4丁目2-1","lat":35.59337233,"lon":139.74986565},{"name":"大崎高等学校","province":"東京都","city":"品川区","address":"東京都品川区豊町2丁目1-7","lat":35.60950813,"lon":139.72128656},{"name":"小山台高等学校","province":"東京都","city":"品川区","address":"東京都品川区小山3丁目3-32","lat":35.62114821,"lon":139.70368496},{"name":"八潮高等学校","province":"東京都","city":"品川区","address":"東京都品川区東品川3丁目27-22","lat":35.61185035,"lon":139.74660949},{"name":"てんとうむし","province":"東京都","city":"品川区","address":"品川区北品川4-1-1松風ビル2階","lat":35.62294,"lon":139.734843},{"name":"アプリ児童デイサービス北品川","province":"東京都","city":"品川区","address":"品川区北品川2-18-2","lat":35.618158,"lon":139.741437},{"name":"ちびっこタイム品川","province":"東京都","city":"品川区","address":"品川区東大井5-23-16-110号","lat":35.604407,"lon":139.737158},{"name":"めるへんキッズ大森園","province":"東京都","city":"品川区","address":"品川区南大井6-16-1サンハイツ大森101号室","lat":35.591441,"lon":139.730539},{"name":"スキップランド　西大井","province":"東京都","city":"品川区","address":"品川区西大井6-14-15","lat":35.599776,"lon":139.717037},{"name":"アプリ児童デイサービス不動前","province":"東京都","city":"品川区","address":"品川区西五反田三丁目13番14号ロイヤルコート","lat":35.628086,"lon":139.714056},{"name":"品川区立品川児童学園分室","province":"東京都","city":"品川区","address":"品川区戸越6-16-14","lat":35.607372,"lon":139.715378},{"name":"療育スタジオ・ピコ　戸越公園教室","province":"東京都","city":"品川区","address":"品川区豊町3-1-1ひかりオークス1階","lat":35.609,"lon":139.719884},{"name":"キッズアイランドワイキキ","province":"東京都","city":"品川区","address":"品川区二葉4-4-19","lat":35.602334,"lon":139.715223},{"name":"スタジオそら品川戸越","province":"東京都","city":"品川区","address":"品川区東中延1-3-11","lat":35.611277,"lon":139.714126},{"name":"このこのリーフ　中延","province":"東京都","city":"品川区","address":"品川区中延3-13-19芙蓉ハイツ101号","lat":35.606489,"lon":139.71134},{"name":"みんなの家　ゆめっこ","province":"東京都","city":"品川区","address":"品川区中延6-3-16","lat":35.602767,"lon":139.71256},{"name":"品川区子育て支援センター","province":"東京都","city":"品川区","address":"品川区平塚2-12-2品川区立家庭あんしんセンター内","lat":35.617063,"lon":139.71282},{"name":"品川区子ども家庭支援センター","province":"東京都","city":"品川区","address":"品川区二葉1-7-15","lat":35.60878,"lon":139.72881},{"name":"品川区子育て支援センター","province":"東京都","city":"品川区","address":"品川区平塚2-12-2品川区立家庭あんしんセンター内","lat":35.61694,"lon":139.71266},{"name":"桐ヶ谷火葬場","province":"東京都","city":"品川区","address":"東京都品川区西五反田5丁目32-20","lat":35.62232046,"lon":139.71367573},{"name":"＊?品川区男女共同参画センター","province":"東京都","city":"品川区","address":"品川区東大井5-18-1","lat":35.606223,"lon":139.735889},{"name":"都立産業技術高等専門学校品川キャンパス","province":"東京都","city":"品川区","address":"東京都品川区東大井1丁目10-40","lat":35.60696497,"lon":139.7491345},{"name":"城南職業能力開発センター","province":"東京都","city":"品川区","address":"東京都品川区東品川3丁目31-16","lat":35.61250038,"lon":139.74965367},{"name":"大井ふ頭中央海浜公園","province":"東京都","city":"品川区","address":"東京都品川区八潮4丁目1-19","lat":35.59255032,"lon":139.75229052},{"name":"大井ふ頭中央海浜公園","province":"東京都","city":"品川区","address":"東京都品川区八潮4丁目2-1","lat":35.59337233,"lon":139.74986565},{"name":"大崎高等学校","province":"東京都","city":"品川区","address":"東京都品川区豊町2丁目1-7","lat":35.60950813,"lon":139.72128656},{"name":"小山台高等学校","province":"東京都","city":"品川区","address":"東京都品川区小山3丁目3-32","lat":35.62114821,"lon":139.70368496},{"name":"八潮高等学校","province":"東京都","city":"品川区","address":"東京都品川区東品川3丁目27-22","lat":35.61185035,"lon":139.74660949},{"name":"てんとうむし","province":"東京都","city":"品川区","address":"品川区北品川4-1-1松風ビル2階","lat":35.62294,"lon":139.734843},{"name":"アプリ児童デイサービス北品川","province":"東京都","city":"品川区","address":"品川区北品川2-18-2","lat":35.618158,"lon":139.741437},{"name":"ちびっこタイム品川","province":"東京都","city":"品川区","address":"品川区東大井5-23-16-110号","lat":35.604407,"lon":139.737158},{"name":"めるへんキッズ大森園","province":"東京都","city":"品川区","address":"品川区南大井6-16-1サンハイツ大森101号室","lat":35.591441,"lon":139.730539},{"name":"スキップランド　西大井","province":"東京都","city":"品川区","address":"品川区西大井6-14-15","lat":35.599776,"lon":139.717037},{"name":"アプリ児童デイサービス不動前","province":"東京都","city":"品川区","address":"品川区西五反田三丁目13番14号ロイヤルコート","lat":35.628086,"lon":139.714056},{"name":"品川区立品川児童学園分室","province":"東京都","city":"品川区","address":"品川区戸越6-16-14","lat":35.607372,"lon":139.715378},{"name":"療育スタジオ・ピコ　戸越公園教室","province":"東京都","city":"品川区","address":"品川区豊町3-1-1ひかりオークス1階","lat":35.609,"lon":139.719884},{"name":"キッズアイランドワイキキ","province":"東京都","city":"品川区","address":"品川区二葉4-4-19","lat":35.602334,"lon":139.715223},{"name":"スタジオそら品川戸越","province":"東京都","city":"品川区","address":"品川区東中延1-3-11","lat":35.611277,"lon":139.714126},{"name":"このこのリーフ　中延","province":"東京都","city":"品川区","address":"品川区中延3-13-19芙蓉ハイツ101号","lat":35.606489,"lon":139.71134},{"name":"みんなの家　ゆめっこ","province":"東京都","city":"品川区","address":"品川区中延6-3-16","lat":35.602767,"lon":139.71256},{"name":"品川区子育て支援センター","province":"東京都","city":"品川区","address":"品川区平塚2-12-2品川区立家庭あんしんセンター内","lat":35.617063,"lon":139.71282},{"name":"品川区子ども家庭支援センター","province":"東京都","city":"品川区","address":"品川区二葉1-7-15","lat":35.60878,"lon":139.72881},{"name":"品川区子育て支援センター","province":"東京都","city":"品川区","address":"品川区平塚2-12-2品川区立家庭あんしんセンター内","lat":35.61694,"lon":139.71266},{"name":"桐ヶ谷火葬場","province":"東京都","city":"品川区","address":"東京都品川区西五反田5丁目32-20","lat":35.62232046,"lon":139.71367573},{"name":"＊?品川区男女共同参画センター","province":"東京都","city":"品川区","address":"品川区東大井5-18-1","lat":35.606223,"lon":139.735889},{"name":"都立産業技術高等専門学校品川キャンパス","province":"東京都","city":"品川区","address":"東京都品川区東大井1丁目10-40","lat":35.60696497,"lon":139.7491345},{"name":"城南職業能力開発センター","province":"東京都","city":"品川区","address":"東京都品川区東品川3丁目31-16","lat":35.61250038,"lon":139.74965367},{"name":"大井ふ頭中央海浜公園","province":"東京都","city":"品川区","address":"東京都品川区八潮4丁目1-19","lat":35.59255032,"lon":139.75229052},{"name":"大井ふ頭中央海浜公園","province":"東京都","city":"品川区","address":"東京都品川区八潮4丁目2-1","lat":35.59337233,"lon":139.74986565},{"name":"大崎高等学校","province":"東京都","city":"品川区","address":"東京都品川区豊町2丁目1-7","lat":35.60950813,"lon":139.72128656},{"name":"小山台高等学校","province":"東京都","city":"品川区","address":"東京都品川区小山3丁目3-32","lat":35.62114821,"lon":139.70368496},{"name":"八潮高等学校","province":"東京都","city":"品川区","address":"東京都品川区東品川3丁目27-22","lat":35.61185035,"lon":139.74660949},{"name":"てんとうむし","province":"東京都","city":"品川区","address":"品川区北品川4-1-1松風ビル2階","lat":35.62294,"lon":139.734843},{"name":"アプリ児童デイサービス北品川","province":"東京都","city":"品川区","address":"品川区北品川2-18-2","lat":35.618158,"lon":139.741437},{"name":"ちびっこタイム品川","province":"東京都","city":"品川区","address":"品川区東大井5-23-16-110号","lat":35.604407,"lon":139.737158},{"name":"めるへんキッズ大森園","province":"東京都","city":"品川区","address":"品川区南大井6-16-1サンハイツ大森101号室","lat":35.591441,"lon":139.730539},{"name":"スキップランド　西大井","province":"東京都","city":"品川区","address":"品川区西大井6-14-15","lat":35.599776,"lon":139.717037},{"name":"アプリ児童デイサービス不動前","province":"東京都","city":"品川区","address":"品川区西五反田三丁目13番14号ロイヤルコート","lat":35.628086,"lon":139.714056},{"name":"品川区立品川児童学園分室","province":"東京都","city":"品川区","address":"品川区戸越6-16-14","lat":35.607372,"lon":139.715378},{"name":"療育スタジオ・ピコ　戸越公園教室","province":"東京都","city":"品川区","address":"品川区豊町3-1-1ひかりオークス1階","lat":35.609,"lon":139.719884},{"name":"キッズアイランドワイキキ","province":"東京都","city":"品川区","address":"品川区二葉4-4-19","lat":35.602334,"lon":139.715223},{"name":"スタジオそら品川戸越","province":"東京都","city":"品川区","address":"品川区東中延1-3-11","lat":35.611277,"lon":139.714126},{"name":"このこのリーフ　中延","province":"東京都","city":"品川区","address":"品川区中延3-13-19芙蓉ハイツ101号","lat":35.606489,"lon":139.71134},{"name":"みんなの家　ゆめっこ","province":"東京都","city":"品川区","address":"品川区中延6-3-16","lat":35.602767,"lon":139.71256},{"name":"品川区子育て支援センター","province":"東京都","city":"品川区","address":"品川区平塚2-12-2品川区立家庭あんしんセンター内","lat":35.617063,"lon":139.71282},{"name":"品川区子ども家庭支援センター","province":"東京都","city":"品川区","address":"品川区二葉1-7-15","lat":35.60878,"lon":139.72881},{"name":"品川区子育て支援センター","province":"東京都","city":"品川区","address":"品川区平塚2-12-2品川区立家庭あんしんセンター内","lat":35.61694,"lon":139.71266},{"name":"桐ヶ谷火葬場","province":"東京都","city":"品川区","address":"東京都品川区西五反田5丁目32-20","lat":35.62232046,"lon":139.71367573},{"name":"＊?品川区男女共同参画センター","province":"東京都","city":"品川区","address":"品川区東大井5-18-1","lat":35.606223,"lon":139.735889},{"name":"都立産業技術高等専門学校品川キャンパス","province":"東京都","city":"品川区","address":"東京都品川区東大井1丁目10-40","lat":35.60696497,"lon":139.7491345},{"name":"城南職業能力開発センター","province":"東京都","city":"品川区","address":"東京都品川区東品川3丁目31-16","lat":35.61250038,"lon":139.74965367},{"name":"大井ふ頭中央海浜公園","province":"東京都","city":"品川区","address":"東京都品川区八潮4丁目1-19","lat":35.59255032,"lon":139.75229052},{"name":"大井ふ頭中央海浜公園","province":"東京都","city":"品川区","address":"東京都品川区八潮4丁目2-1","lat":35.59337233,"lon":139.74986565},{"name":"大崎高等学校","province":"東京都","city":"品川区","address":"東京都品川区豊町2丁目1-7","lat":35.60950813,"lon":139.72128656},{"name":"小山台高等学校","province":"東京都","city":"品川区","address":"東京都品川区小山3丁目3-32","lat":35.62114821,"lon":139.70368496},{"name":"八潮高等学校","province":"東京都","city":"品川区","address":"東京都品川区東品川3丁目27-22","lat":35.61185035,"lon":139.74660949},{"name":"てんとうむし","province":"東京都","city":"品川区","address":"品川区北品川4-1-1松風ビル2階","lat":35.62294,"lon":139.734843},{"name":"アプリ児童デイサービス北品川","province":"東京都","city":"品川区","address":"品川区北品川2-18-2","lat":35.618158,"lon":139.741437},{"name":"ちびっこタイム品川","province":"東京都","city":"品川区","address":"品川区東大井5-23-16-110号","lat":35.604407,"lon":139.737158},{"name":"めるへんキッズ大森園","province":"東京都","city":"品川区","address":"品川区南大井6-16-1サンハイツ大森101号室","lat":35.591441,"lon":139.730539},{"name":"スキップランド　西大井","province":"東京都","city":"品川区","address":"品川区西大井6-14-15","lat":35.599776,"lon":139.717037},{"name":"アプリ児童デイサービス不動前","province":"東京都","city":"品川区","address":"品川区西五反田三丁目13番14号ロイヤルコート","lat":35.628086,"lon":139.714056},{"name":"品川区立品川児童学園分室","province":"東京都","city":"品川区","address":"品川区戸越6-16-14","lat":35.607372,"lon":139.715378},{"name":"療育スタジオ・ピコ　戸越公園教室","province":"東京都","city":"品川区","address":"品川区豊町3-1-1ひかりオークス1階","lat":35.609,"lon":139.719884},{"name":"キッズアイランドワイキキ","province":"東京都","city":"品川区","address":"品川区二葉4-4-19","lat":35.602334,"lon":139.715223},{"name":"スタジオそら品川戸越","province":"東京都","city":"品川区","address":"品川区東中延1-3-11","lat":35.611277,"lon":139.714126},{"name":"このこのリーフ　中延","province":"東京都","city":"品川区","address":"品川区中延3-13-19芙蓉ハイツ101号","lat":35.606489,"lon":139.71134},{"name":"みんなの家　ゆめっこ","province":"東京都","city":"品川区","address":"品川区中延6-3-16","lat":35.602767,"lon":139.71256},{"name":"品川区子育て支援センター","province":"東京都","city":"品川区","address":"品川区平塚2-12-2品川区立家庭あんしんセンター内","lat":35.617063,"lon":139.71282},{"name":"品川区子ども家庭支援センター","province":"東京都","city":"品川区","address":"品川区二葉1-7-15","lat":35.60878,"lon":139.72881},{"name":"品川区子育て支援センター","province":"東京都","city":"品川区","address":"品川区平塚2-12-2品川区立家庭あんしんセンター内","lat":35.61694,"lon":139.71266},{"name":"桐ヶ谷火葬場","province":"東京都","city":"品川区","address":"東京都品川区西五反田5丁目32-20","lat":35.62232046,"lon":139.71367573},{"name":"＊?品川区男女共同参画センター","province":"東京都","city":"品川区","address":"品川区東大井5-18-1","lat":35.606223,"lon":139.735889},{"name":"都立産業技術高等専門学校品川キャンパス","province":"東京都","city":"品川区","address":"東京都品川区東大井1丁目10-40","lat":35.60696497,"lon":139.7491345},{"name":"城南職業能力開発センター","province":"東京都","city":"品川区","address":"東京都品川区東品川3丁目31-16","lat":35.61250038,"lon":139.74965367},{"name":"大井ふ頭中央海浜公園","province":"東京都","city":"品川区","address":"東京都品川区八潮4丁目1-19","lat":35.59255032,"lon":139.75229052},{"name":"大井ふ頭中央海浜公園","province":"東京都","city":"品川区","address":"東京都品川区八潮4丁目2-1","lat":35.59337233,"lon":139.74986565},{"name":"大崎高等学校","province":"東京都","city":"品川区","address":"東京都品川区豊町2丁目1-7","lat":35.60950813,"lon":139.72128656},{"name":"小山台高等学校","province":"東京都","city":"品川区","address":"東京都品川区小山3丁目3-32","lat":35.62114821,"lon":139.70368496},{"name":"八潮高等学校","province":"東京都","city":"品川区","address":"東京都品川区東品川3丁目27-22","lat":35.61185035,"lon":139.74660949},{"name":"てんとうむし","province":"東京都","city":"品川区","address":"品川区北品川4-1-1松風ビル2階","lat":35.62294,"lon":139.734843},{"name":"アプリ児童デイサービス北品川","province":"東京都","city":"品川区","address":"品川区北品川2-18-2","lat":35.618158,"lon":139.741437},{"name":"ちびっこタイム品川","province":"東京都","city":"品川区","address":"品川区東大井5-23-16-110号","lat":35.604407,"lon":139.737158},{"name":"めるへんキッズ大森園","province":"東京都","city":"品川区","address":"品川区南大井6-16-1サンハイツ大森101号室","lat":35.591441,"lon":139.730539},{"name":"スキップランド　西大井","province":"東京都","city":"品川区","address":"品川区西大井6-14-15","lat":35.599776,"lon":139.717037},{"name":"アプリ児童デイサービス不動前","province":"東京都","city":"品川区","address":"品川区西五反田三丁目13番14号ロイヤルコート","lat":35.628086,"lon":139.714056},{"name":"品川区立品川児童学園分室","province":"東京都","city":"品川区","address":"品川区戸越6-16-14","lat":35.607372,"lon":139.715378},{"name":"療育スタジオ・ピコ　戸越公園教室","province":"東京都","city":"品川区","address":"品川区豊町3-1-1ひかりオークス1階","lat":35.609,"lon":139.719884},{"name":"キッズアイランドワイキキ","province":"東京都","city":"品川区","address":"品川区二葉4-4-19","lat":35.602334,"lon":139.715223},{"name":"スタジオそら品川戸越","province":"東京都","city":"品川区","address":"品川区東中延1-3-11","lat":35.611277,"lon":139.714126},{"name":"このこのリーフ　中延","province":"東京都","city":"品川区","address":"品川区中延3-13-19芙蓉ハイツ101号","lat":35.606489,"lon":139.71134},{"name":"みんなの家　ゆめっこ","province":"東京都","city":"品川区","address":"品川区中延6-3-16","lat":35.602767,"lon":139.71256},{"name":"品川区子育て支援センター","province":"東京都","city":"品川区","address":"品川区平塚2-12-2品川区立家庭あんしんセンター内","lat":35.617063,"lon":139.71282},{"name":"品川区子ども家庭支援センター","province":"東京都","city":"品川区","address":"品川区二葉1-7-15","lat":35.60878,"lon":139.72881},{"name":"品川区子育て支援センター","province":"東京都","city":"品川区","address":"品川区平塚2-12-2品川区立家庭あんしんセンター内","lat":35.61694,"lon":139.71266},{"name":"桐ヶ谷火葬場","province":"東京都","city":"品川区","address":"東京都品川区西五反田5丁目32-20","lat":35.62232046,"lon":139.71367573},{"name":"＊?品川区男女共同参画センター","province":"東京都","city":"品川区","address":"品川区東大井5-18-1","lat":35.606223,"lon":139.735889},{"name":"都立産業技術高等専門学校品川キャンパス","province":"東京都","city":"品川区","address":"東京都品川区東大井1丁目10-40","lat":35.60696497,"lon":139.7491345},{"name":"城南職業能力開発センター","province":"東京都","city":"品川区","address":"東京都品川区東品川3丁目31-16","lat":35.61250038,"lon":139.74965367},{"name":"大井ふ頭中央海浜公園","province":"東京都","city":"品川区","address":"東京都品川区八潮4丁目1-19","lat":35.59255032,"lon":139.75229052},{"name":"大井ふ頭中央海浜公園","province":"東京都","city":"品川区","address":"東京都品川区八潮4丁目2-1","lat":35.59337233,"lon":139.74986565},{"name":"大崎高等学校","province":"東京都","city":"品川区","address":"東京都品川区豊町2丁目1-7","lat":35.60950813,"lon":139.72128656},{"name":"小山台高等学校","province":"東京都","city":"品川区","address":"東京都品川区小山3丁目3-32","lat":35.62114821,"lon":139.70368496},{"name":"八潮高等学校","province":"東京都","city":"品川区","address":"東京都品川区東品川3丁目27-22","lat":35.61185035,"lon":139.74660949},{"name":"てんとうむし","province":"東京都","city":"品川区","address":"品川区北品川4-1-1松風ビル2階","lat":35.62294,"lon":139.734843},{"name":"アプリ児童デイサービス北品川","province":"東京都","city":"品川区","address":"品川区北品川2-18-2","lat":35.618158,"lon":139.741437},{"name":"ちびっこタイム品川","province":"東京都","city":"品川区","address":"品川区東大井5-23-16-110号","lat":35.604407,"lon":139.737158},{"name":"めるへんキッズ大森園","province":"東京都","city":"品川区","address":"品川区南大井6-16-1サンハイツ大森101号室","lat":35.591441,"lon":139.730539},{"name":"スキップランド　西大井","province":"東京都","city":"品川区","address":"品川区西大井6-14-15","lat":35.599776,"lon":139.717037},{"name":"アプリ児童デイサービス不動前","province":"東京都","city":"品川区","address":"品川区西五反田三丁目13番14号ロイヤルコート","lat":35.628086,"lon":139.714056},{"name":"品川区立品川児童学園分室","province":"東京都","city":"品川区","address":"品川区戸越6-16-14","lat":35.607372,"lon":139.715378},{"name":"療育スタジオ・ピコ　戸越公園教室","province":"東京都","city":"品川区","address":"品川区豊町3-1-1ひかりオークス1階","lat":35.609,"lon":139.719884},{"name":"キッズアイランドワイキキ","province":"東京都","city":"品川区","address":"品川区二葉4-4-19","lat":35.602334,"lon":139.715223},{"name":"スタジオそら品川戸越","province":"東京都","city":"品川区","address":"品川区東中延1-3-11","lat":35.611277,"lon":139.714126},{"name":"このこのリーフ　中延","province":"東京都","city":"品川区","address":"品川区中延3-13-19芙蓉ハイツ101号","lat":35.606489,"lon":139.71134},{"name":"みんなの家　ゆめっこ","province":"東京都","city":"品川区","address":"品川区中延6-3-16","lat":35.602767,"lon":139.71256},{"name":"品川区子育て支援センター","province":"東京都","city":"品川区","address":"品川区平塚2-12-2品川区立家庭あんしんセンター内","lat":35.617063,"lon":139.71282},{"name":"品川区子ども家庭支援センター","province":"東京都","city":"品川区","address":"品川区二葉1-7-15","lat":35.60878,"lon":139.72881},{"name":"品川区子育て支援センター","province":"東京都","city":"品川区","address":"品川区平塚2-12-2品川区立家庭あんしんセンター内","lat":35.61694,"lon":139.71266},{"name":"桐ヶ谷火葬場","province":"東京都","city":"品川区","address":"東京都品川区西五反田5丁目32-20","lat":35.62232046,"lon":139.71367573},{"name":"＊?品川区男女共同参画センター","province":"東京都","city":"品川区","address":"品川区東大井5-18-1","lat":35.606223,"lon":139.735889},{"name":"都立産業技術高等専門学校品川キャンパス","province":"東京都","city":"品川区","address":"東京都品川区東大井1丁目10-40","lat":35.60696497,"lon":139.7491345},{"name":"城南職業能力開発センター","province":"東京都","city":"品川区","address":"東京都品川区東品川3丁目31-16","lat":35.61250038,"lon":139.74965367},{"name":"大井ふ頭中央海浜公園","province":"東京都","city":"品川区","address":"東京都品川区八潮4丁目1-19","lat":35.59255032,"lon":139.75229052},{"name":"大井ふ頭中央海浜公園","province":"東京都","city":"品川区","address":"東京都品川区八潮4丁目2-1","lat":35.59337233,"lon":139.74986565},{"name":"大崎高等学校","province":"東京都","city":"品川区","address":"東京都品川区豊町2丁目1-7","lat":35.60950813,"lon":139.72128656},{"name":"小山台高等学校","province":"東京都","city":"品川区","address":"東京都品川区小山3丁目3-32","lat":35.62114821,"lon":139.70368496},{"name":"八潮高等学校","province":"東京都","city":"品川区","address":"東京都品川区東品川3丁目27-22","lat":35.61185035,"lon":139.74660949},{"name":"てんとうむし","province":"東京都","city":"品川区","address":"品川区北品川4-1-1松風ビル2階","lat":35.62294,"lon":139.734843},{"name":"アプリ児童デイサービス北品川","province":"東京都","city":"品川区","address":"品川区北品川2-18-2","lat":35.618158,"lon":139.741437},{"name":"ちびっこタイム品川","province":"東京都","city":"品川区","address":"品川区東大井5-23-16-110号","lat":35.604407,"lon":139.737158},{"name":"めるへんキッズ大森園","province":"東京都","city":"品川区","address":"品川区南大井6-16-1サンハイツ大森101号室","lat":35.591441,"lon":139.730539},{"name":"スキップランド　西大井","province":"東京都","city":"品川区","address":"品川区西大井6-14-15","lat":35.599776,"lon":139.717037},{"name":"アプリ児童デイサービス不動前","province":"東京都","city":"品川区","address":"品川区西五反田三丁目13番14号ロイヤルコート","lat":35.628086,"lon":139.714056},{"name":"品川区立品川児童学園分室","province":"東京都","city":"品川区","address":"品川区戸越6-16-14","lat":35.607372,"lon":139.715378},{"name":"療育スタジオ・ピコ　戸越公園教室","province":"東京都","city":"品川区","address":"品川区豊町3-1-1ひかりオークス1階","lat":35.609,"lon":139.719884},{"name":"キッズアイランドワイキキ","province":"東京都","city":"品川区","address":"品川区二葉4-4-19","lat":35.602334,"lon":139.715223},{"name":"スタジオそら品川戸越","province":"東京都","city":"品川区","address":"品川区東中延1-3-11","lat":35.611277,"lon":139.714126},{"name":"このこのリーフ　中延","province":"東京都","city":"品川区","address":"品川区中延3-13-19芙蓉ハイツ101号","lat":35.606489,"lon":139.71134},{"name":"みんなの家　ゆめっこ","province":"東京都","city":"品川区","address":"品川区中延6-3-16","lat":35.602767,"lon":139.71256},{"name":"品川区子育て支援センター","province":"東京都","city":"品川区","address":"品川区平塚2-12-2品川区立家庭あんしんセンター内","lat":35.617063,"lon":139.71282},{"name":"品川区子ども家庭支援センター","province":"東京都","city":"品川区","address":"品川区二葉1-7-15","lat":35.60878,"lon":139.72881},{"name":"品川区子育て支援センター","province":"東京都","city":"品川区","address":"品川区平塚2-12-2品川区立家庭あんしんセンター内","lat":35.61694,"lon":139.71266},{"name":"桐ヶ谷火葬場","province":"東京都","city":"品川区","address":"東京都品川区西五反田5丁目32-20","lat":35.62232046,"lon":139.71367573},{"name":"＊?品川区男女共同参画センター","province":"東京都","city":"品川区","address":"品川区東大井5-18-1","lat":35.606223,"lon":139.735889},{"name":"都立産業技術高等専門学校品川キャンパス","province":"東京都","city":"品川区","address":"東京都品川区東大井1丁目10-40","lat":35.60696497,"lon":139.7491345},{"name":"城南職業能力開発センター","province":"東京都","city":"品川区","address":"東京都品川区東品川3丁目31-16","lat":35.61250038,"lon":139.74965367},{"name":"大井ふ頭中央海浜公園","province":"東京都","city":"品川区","address":"東京都品川区八潮4丁目1-19","lat":35.59255032,"lon":139.75229052},{"name":"大井ふ頭中央海浜公園","province":"東京都","city":"品川区","address":"東京都品川区八潮4丁目2-1","lat":35.59337233,"lon":139.74986565},{"name":"大崎高等学校","province":"東京都","city":"品川区","address":"東京都品川区豊町2丁目1-7","lat":35.60950813,"lon":139.72128656},{"name":"小山台高等学校","province":"東京都","city":"品川区","address":"東京都品川区小山3丁目3-32","lat":35.62114821,"lon":139.70368496},{"name":"八潮高等学校","province":"東京都","city":"品川区","address":"東京都品川区東品川3丁目27-22","lat":35.61185035,"lon":139.74660949},{"name":"てんとうむし","province":"東京都","city":"品川区","address":"品川区北品川4-1-1松風ビル2階","lat":35.62294,"lon":139.734843},{"name":"アプリ児童デイサービス北品川","province":"東京都","city":"品川区","address":"品川区北品川2-18-2","lat":35.618158,"lon":139.741437},{"name":"ちびっこタイム品川","province":"東京都","city":"品川区","address":"品川区東大井5-23-16-110号","lat":35.604407,"lon":139.737158},{"name":"めるへんキッズ大森園","province":"東京都","city":"品川区","address":"品川区南大井6-16-1サンハイツ大森101号室","lat":35.591441,"lon":139.730539},{"name":"スキップランド　西大井","province":"東京都","city":"品川区","address":"品川区西大井6-14-15","lat":35.599776,"lon":139.717037},{"name":"アプリ児童デイサービス不動前","province":"東京都","city":"品川区","address":"品川区西五反田三丁目13番14号ロイヤルコート","lat":35.628086,"lon":139.714056},{"name":"品川区立品川児童学園分室","province":"東京都","city":"品川区","address":"品川区戸越6-16-14","lat":35.607372,"lon":139.715378},{"name":"療育スタジオ・ピコ　戸越公園教室","province":"東京都","city":"品川区","address":"品川区豊町3-1-1ひかりオークス1階","lat":35.609,"lon":139.719884},{"name":"キッズアイランドワイキキ","province":"東京都","city":"品川区","address":"品川区二葉4-4-19","lat":35.602334,"lon":139.715223},{"name":"スタジオそら品川戸越","province":"東京都","city":"品川区","address":"品川区東中延1-3-11","lat":35.611277,"lon":139.714126},{"name":"このこのリーフ　中延","province":"東京都","city":"品川区","address":"品川区中延3-13-19芙蓉ハイツ101号","lat":35.606489,"lon":139.71134},{"name":"みんなの家　ゆめっこ","province":"東京都","city":"品川区","address":"品川区中延6-3-16","lat":35.602767,"lon":139.71256},{"name":"品川区子育て支援センター","province":"東京都","city":"品川区","address":"品川区平塚2-12-2品川区立家庭あんしんセンター内","lat":35.617063,"lon":139.71282},{"name":"品川区子ども家庭支援センター","province":"東京都","city":"品川区","address":"品川区二葉1-7-15","lat":35.60878,"lon":139.72881},{"name":"品川区子育て支援センター","province":"東京都","city":"品川区","address":"品川区平塚2-12-2品川区立家庭あんしんセンター内","lat":35.61694,"lon":139.71266},{"name":"桐ヶ谷火葬場","province":"東京都","city":"品川区","address":"東京都品川区西五反田5丁目32-20","lat":35.62232046,"lon":139.71367573},{"name":"＊?品川区男女共同参画センター","province":"東京都","city":"品川区","address":"品川区東大井5-18-1","lat":35.606223,"lon":139.735889},{"name":"都立産業技術高等専門学校品川キャンパス","province":"東京都","city":"品川区","address":"東京都品川区東大井1丁目10-40","lat":35.60696497,"lon":139.7491345},{"name":"城南職業能力開発センター","province":"東京都","city":"品川区","address":"東京都品川区東品川3丁目31-16","lat":35.61250038,"lon":139.74965367},{"name":"大井ふ頭中央海浜公園","province":"東京都","city":"品川区","address":"東京都品川区八潮4丁目1-19","lat":35.59255032,"lon":139.75229052},{"name":"大井ふ頭中央海浜公園","province":"東京都","city":"品川区","address":"東京都品川区八潮4丁目2-1","lat":35.59337233,"lon":139.74986565},{"name":"大崎高等学校","province":"東京都","city":"品川区","address":"東京都品川区豊町2丁目1-7","lat":35.60950813,"lon":139.72128656},{"name":"小山台高等学校","province":"東京都","city":"品川区","address":"東京都品川区小山3丁目3-32","lat":35.62114821,"lon":139.70368496},{"name":"八潮高等学校","province":"東京都","city":"品川区","address":"東京都品川区東品川3丁目27-22","lat":35.61185035,"lon":139.74660949},{"name":"てんとうむし","province":"東京都","city":"品川区","address":"品川区北品川4-1-1松風ビル2階","lat":35.62294,"lon":139.734843},{"name":"アプリ児童デイサービス北品川","province":"東京都","city":"品川区","address":"品川区北品川2-18-2","lat":35.618158,"lon":139.741437},{"name":"ちびっこタイム品川","province":"東京都","city":"品川区","address":"品川区東大井5-23-16-110号","lat":35.604407,"lon":139.737158},{"name":"めるへんキッズ大森園","province":"東京都","city":"品川区","address":"品川区南大井6-16-1サンハイツ大森101号室","lat":35.591441,"lon":139.730539},{"name":"スキップランド　西大井","province":"東京都","city":"品川区","address":"品川区西大井6-14-15","lat":35.599776,"lon":139.717037},{"name":"アプリ児童デイサービス不動前","province":"東京都","city":"品川区","address":"品川区西五反田三丁目13番14号ロイヤルコート","lat":35.628086,"lon":139.714056},{"name":"品川区立品川児童学園分室","province":"東京都","city":"品川区","address":"品川区戸越6-16-14","lat":35.607372,"lon":139.715378},{"name":"療育スタジオ・ピコ　戸越公園教室","province":"東京都","city":"品川区","address":"品川区豊町3-1-1ひかりオークス1階","lat":35.609,"lon":139.719884},{"name":"キッズアイランドワイキキ","province":"東京都","city":"品川区","address":"品川区二葉4-4-19","lat":35.602334,"lon":139.715223},{"name":"スタジオそら品川戸越","province":"東京都","city":"品川区","address":"品川区東中延1-3-11","lat":35.611277,"lon":139.714126},{"name":"このこのリーフ　中延","province":"東京都","city":"品川区","address":"品川区中延3-13-19芙蓉ハイツ101号","lat":35.606489,"lon":139.71134},{"name":"みんなの家　ゆめっこ","province":"東京都","city":"品川区","address":"品川区中延6-3-16","lat":35.602767,"lon":139.71256},{"name":"品川区子育て支援センター","province":"東京都","city":"品川区","address":"品川区平塚2-12-2品川区立家庭あんしんセンター内","lat":35.617063,"lon":139.71282},{"name":"品川区子ども家庭支援センター","province":"東京都","city":"品川区","address":"品川区二葉1-7-15","lat":35.60878,"lon":139.72881},{"name":"品川区子育て支援センター","province":"東京都","city":"品川区","address":"品川区平塚2-12-2品川区立家庭あんしんセンター内","lat":35.61694,"lon":139.71266},{"name":"桐ヶ谷火葬場","province":"東京都","city":"品川区","address":"東京都品川区西五反田5丁目32-20","lat":35.62232046,"lon":139.71367573},{"name":"＊?品川区男女共同参画センター","province":"東京都","city":"品川区","address":"品川区東大井5-18-1","lat":35.606223,"lon":139.735889},{"name":"都立産業技術高等専門学校品川キャンパス","province":"東京都","city":"品川区","address":"東京都品川区東大井1丁目10-40","lat":35.60696497,"lon":139.7491345},{"name":"城南職業能力開発センター","province":"東京都","city":"品川区","address":"東京都品川区東品川3丁目31-16","lat":35.61250038,"lon":139.74965367},{"name":"大井ふ頭中央海浜公園","province":"東京都","city":"品川区","address":"東京都品川区八潮4丁目1-19","lat":35.59255032,"lon":139.75229052},{"name":"大井ふ頭中央海浜公園","province":"東京都","city":"品川区","address":"東京都品川区八潮4丁目2-1","lat":35.59337233,"lon":139.74986565},{"name":"大崎高等学校","province":"東京都","city":"品川区","address":"東京都品川区豊町2丁目1-7","lat":35.60950813,"lon":139.72128656},{"name":"小山台高等学校","province":"東京都","city":"品川区","address":"東京都品川区小山3丁目3-32","lat":35.62114821,"lon":139.70368496},{"name":"八潮高等学校","province":"東京都","city":"品川区","address":"東京都品川区東品川3丁目27-22","lat":35.61185035,"lon":139.74660949},{"name":"てんとうむし","province":"東京都","city":"品川区","address":"品川区北品川4-1-1松風ビル2階","lat":35.62294,"lon":139.734843},{"name":"アプリ児童デイサービス北品川","province":"東京都","city":"品川区","address":"品川区北品川2-18-2","lat":35.618158,"lon":139.741437},{"name":"ちびっこタイム品川","province":"東京都","city":"品川区","address":"品川区東大井5-23-16-110号","lat":35.604407,"lon":139.737158},{"name":"めるへんキッズ大森園","province":"東京都","city":"品川区","address":"品川区南大井6-16-1サンハイツ大森101号室","lat":35.591441,"lon":139.730539},{"name":"スキップランド　西大井","province":"東京都","city":"品川区","address":"品川区西大井6-14-15","lat":35.599776,"lon":139.717037},{"name":"アプリ児童デイサービス不動前","province":"東京都","city":"品川区","address":"品川区西五反田三丁目13番14号ロイヤルコート","lat":35.628086,"lon":139.714056},{"name":"品川区立品川児童学園分室","province":"東京都","city":"品川区","address":"品川区戸越6-16-14","lat":35.607372,"lon":139.715378},{"name":"療育スタジオ・ピコ　戸越公園教室","province":"東京都","city":"品川区","address":"品川区豊町3-1-1ひかりオークス1階","lat":35.609,"lon":139.719884},{"name":"キッズアイランドワイキキ","province":"東京都","city":"品川区","address":"品川区二葉4-4-19","lat":35.602334,"lon":139.715223},{"name":"スタジオそら品川戸越","province":"東京都","city":"品川区","address":"品川区東中延1-3-11","lat":35.611277,"lon":139.714126},{"name":"このこのリーフ　中延","province":"東京都","city":"品川区","address":"品川区中延3-13-19芙蓉ハイツ101号","lat":35.606489,"lon":139.71134},{"name":"みんなの家　ゆめっこ","province":"東京都","city":"品川区","address":"品川区中延6-3-16","lat":35.602767,"lon":139.71256},{"name":"品川区子育て支援センター","province":"東京都","city":"品川区","address":"品川区平塚2-12-2品川区立家庭あんしんセンター内","lat":35.617063,"lon":139.71282},{"name":"品川区子ども家庭支援センター","province":"東京都","city":"品川区","address":"品川区二葉1-7-15","lat":35.60878,"lon":139.72881},{"name":"品川区子育て支援センター","province":"東京都","city":"品川区","address":"品川区平塚2-12-2品川区立家庭あんしんセンター内","lat":35.61694,"lon":139.71266},{"name":"桐ヶ谷火葬場","province":"東京都","city":"品川区","address":"東京都品川区西五反田5丁目32-20","lat":35.62232046,"lon":139.71367573},{"name":"＊?品川区男女共同参画センター","province":"東京都","city":"品川区","address":"品川区東大井5-18-1","lat":35.606223,"lon":139.735889},{"name":"都立産業技術高等専門学校品川キャンパス","province":"東京都","city":"品川区","address":"東京都品川区東大井1丁目10-40","lat":35.60696497,"lon":139.7491345},{"name":"城南職業能力開発センター","province":"東京都","city":"品川区","address":"東京都品川区東品川3丁目31-16","lat":35.61250038,"lon":139.74965367},{"name":"大井ふ頭中央海浜公園","province":"東京都","city":"品川区","address":"東京都品川区八潮4丁目1-19","lat":35.59255032,"lon":139.75229052},{"name":"大井ふ頭中央海浜公園","province":"東京都","city":"品川区","address":"東京都品川区八潮4丁目2-1","lat":35.59337233,"lon":139.74986565},{"name":"大崎高等学校","province":"東京都","city":"品川区","address":"東京都品川区豊町2丁目1-7","lat":35.60950813,"lon":139.72128656},{"name":"小山台高等学校","province":"東京都","city":"品川区","address":"東京都品川区小山3丁目3-32","lat":35.62114821,"lon":139.70368496},{"name":"八潮高等学校","province":"東京都","city":"品川区","address":"東京都品川区東品川3丁目27-22","lat":35.61185035,"lon":139.74660949},{"name":"てんとうむし","province":"東京都","city":"品川区","address":"品川区北品川4-1-1松風ビル2階","lat":35.62294,"lon":139.734843},{"name":"アプリ児童デイサービス北品川","province":"東京都","city":"品川区","address":"品川区北品川2-18-2","lat":35.618158,"lon":139.741437},{"name":"ちびっこタイム品川","province":"東京都","city":"品川区","address":"品川区東大井5-23-16-110号","lat":35.604407,"lon":139.737158},{"name":"めるへんキッズ大森園","province":"東京都","city":"品川区","address":"品川区南大井6-16-1サンハイツ大森101号室","lat":35.591441,"lon":139.730539},{"name":"スキップランド　西大井","province":"東京都","city":"品川区","address":"品川区西大井6-14-15","lat":35.599776,"lon":139.717037},{"name":"アプリ児童デイサービス不動前","province":"東京都","city":"品川区","address":"品川区西五反田三丁目13番14号ロイヤルコート","lat":35.628086,"lon":139.714056},{"name":"品川区立品川児童学園分室","province":"東京都","city":"品川区","address":"品川区戸越6-16-14","lat":35.607372,"lon":139.715378},{"name":"療育スタジオ・ピコ　戸越公園教室","province":"東京都","city":"品川区","address":"品川区豊町3-1-1ひかりオークス1階","lat":35.609,"lon":139.719884},{"name":"キッズアイランドワイキキ","province":"東京都","city":"品川区","address":"品川区二葉4-4-19","lat":35.602334,"lon":139.715223},{"name":"スタジオそら品川戸越","province":"東京都","city":"品川区","address":"品川区東中延1-3-11","lat":35.611277,"lon":139.714126},{"name":"このこのリーフ　中延","province":"東京都","city":"品川区","address":"品川区中延3-13-19芙蓉ハイツ101号","lat":35.606489,"lon":139.71134},{"name":"みんなの家　ゆめっこ","province":"東京都","city":"品川区","address":"品川区中延6-3-16","lat":35.602767,"lon":139.71256},{"name":"品川区子育て支援センター","province":"東京都","city":"品川区","address":"品川区平塚2-12-2品川区立家庭あんしんセンター内","lat":35.617063,"lon":139.71282},{"name":"品川区子ども家庭支援センター","province":"東京都","city":"品川区","address":"品川区二葉1-7-15","lat":35.60878,"lon":139.72881},{"name":"品川区子育て支援センター","province":"東京都","city":"品川区","address":"品川区平塚2-12-2品川区立家庭あんしんセンター内","lat":35.61694,"lon":139.71266},{"name":"桐ヶ谷火葬場","province":"東京都","city":"品川区","address":"東京都品川区西五反田5丁目32-20","lat":35.62232046,"lon":139.71367573},{"name":"＊?品川区男女共同参画センター","province":"東京都","city":"品川区","address":"品川区東大井5-18-1","lat":35.606223,"lon":139.735889},{"name":"都立産業技術高等専門学校品川キャンパス","province":"東京都","city":"品川区","address":"東京都品川区東大井1丁目10-40","lat":35.60696497,"lon":139.7491345},{"name":"城南職業能力開発センター","province":"東京都","city":"品川区","address":"東京都品川区東品川3丁目31-16","lat":35.61250038,"lon":139.74965367},{"name":"大井ふ頭中央海浜公園","province":"東京都","city":"品川区","address":"東京都品川区八潮4丁目1-19","lat":35.59255032,"lon":139.75229052},{"name":"大井ふ頭中央海浜公園","province":"東京都","city":"品川区","address":"東京都品川区八潮4丁目2-1","lat":35.59337233,"lon":139.74986565},{"name":"大崎高等学校","province":"東京都","city":"品川区","address":"東京都品川区豊町2丁目1-7","lat":35.60950813,"lon":139.72128656},{"name":"小山台高等学校","province":"東京都","city":"品川区","address":"東京都品川区小山3丁目3-32","lat":35.62114821,"lon":139.70368496},{"name":"八潮高等学校","province":"東京都","city":"品川区","address":"東京都品川区東品川3丁目27-22","lat":35.61185035,"lon":139.74660949},{"name":"てんとうむし","province":"東京都","city":"品川区","address":"品川区北品川4-1-1松風ビル2階","lat":35.62294,"lon":139.734843},{"name":"アプリ児童デイサービス北品川","province":"東京都","city":"品川区","address":"品川区北品川2-18-2","lat":35.618158,"lon":139.741437},{"name":"ちびっこタイム品川","province":"東京都","city":"品川区","address":"品川区東大井5-23-16-110号","lat":35.604407,"lon":139.737158},{"name":"めるへんキッズ大森園","province":"東京都","city":"品川区","address":"品川区南大井6-16-1サンハイツ大森101号室","lat":35.591441,"lon":139.730539},{"name":"スキップランド　西大井","province":"東京都","city":"品川区","address":"品川区西大井6-14-15","lat":35.599776,"lon":139.717037},{"name":"アプリ児童デイサービス不動前","province":"東京都","city":"品川区","address":"品川区西五反田三丁目13番14号ロイヤルコート","lat":35.628086,"lon":139.714056},{"name":"品川区立品川児童学園分室","province":"東京都","city":"品川区","address":"品川区戸越6-16-14","lat":35.607372,"lon":139.715378},{"name":"療育スタジオ・ピコ　戸越公園教室","province":"東京都","city":"品川区","address":"品川区豊町3-1-1ひかりオークス1階","lat":35.609,"lon":139.719884},{"name":"キッズアイランドワイキキ","province":"東京都","city":"品川区","address":"品川区二葉4-4-19","lat":35.602334,"lon":139.715223},{"name":"スタジオそら品川戸越","province":"東京都","city":"品川区","address":"品川区東中延1-3-11","lat":35.611277,"lon":139.714126},{"name":"このこのリーフ　中延","province":"東京都","city":"品川区","address":"品川区中延3-13-19芙蓉ハイツ101号","lat":35.606489,"lon":139.71134},{"name":"みんなの家　ゆめっこ","province":"東京都","city":"品川区","address":"品川区中延6-3-16","lat":35.602767,"lon":139.71256},{"name":"品川区子育て支援センター","province":"東京都","city":"品川区","address":"品川区平塚2-12-2品川区立家庭あんしんセンター内","lat":35.617063,"lon":139.71282},{"name":"品川区子ども家庭支援センター","province":"東京都","city":"品川区","address":"品川区二葉1-7-15","lat":35.60878,"lon":139.72881},{"name":"品川区子育て支援センター","province":"東京都","city":"品川区","address":"品川区平塚2-12-2品川区立家庭あんしんセンター内","lat":35.61694,"lon":139.71266},{"name":"桐ヶ谷火葬場","province":"東京都","city":"品川区","address":"東京都品川区西五反田5丁目32-20","lat":35.62232046,"lon":139.71367573},{"name":"＊?品川区男女共同参画センター","province":"東京都","city":"品川区","address":"品川区東大井5-18-1","lat":35.606223,"lon":139.735889},{"name":"てんとうむし","province":"東京都","city":"品川区","address":"品川区北品川4-1-1松風ビル2階","lat":35.62294,"lon":139.734843},{"name":"アプリ児童デイサービス北品川","province":"東京都","city":"品川区","address":"品川区北品川2-18-2","lat":35.618158,"lon":139.741437},{"name":"ちびっこタイム品川","province":"東京都","city":"品川区","address":"品川区東大井5-23-16-110号","lat":35.604407,"lon":139.737158},{"name":"めるへんキッズ大森園","province":"東京都","city":"品川区","address":"品川区南大井6-16-1サンハイツ大森101号室","lat":35.591441,"lon":139.730539},{"name":"スキップランド　西大井","province":"東京都","city":"品川区","address":"品川区西大井6-14-15","lat":35.599776,"lon":139.717037},{"name":"アプリ児童デイサービス不動前","province":"東京都","city":"品川区","address":"品川区西五反田三丁目13番14号ロイヤルコート","lat":35.628086,"lon":139.714056},{"name":"品川区立品川児童学園分室","province":"東京都","city":"品川区","address":"品川区戸越6-16-14","lat":35.607372,"lon":139.715378},{"name":"療育スタジオ・ピコ　戸越公園教室","province":"東京都","city":"品川区","address":"品川区豊町3-1-1ひかりオークス1階","lat":35.609,"lon":139.719884},{"name":"キッズアイランドワイキキ","province":"東京都","city":"品川区","address":"品川区二葉4-4-19","lat":35.602334,"lon":139.715223},{"name":"スタジオそら品川戸越","province":"東京都","city":"品川区","address":"品川区東中延1-3-11","lat":35.611277,"lon":139.714126},{"name":"このこのリーフ　中延","province":"東京都","city":"品川区","address":"品川区中延3-13-19芙蓉ハイツ101号","lat":35.606489,"lon":139.71134},{"name":"みんなの家　ゆめっこ","province":"東京都","city":"品川区","address":"品川区中延6-3-16","lat":35.602767,"lon":139.71256},{"name":"品川区子育て支援センター","province":"東京都","city":"品川区","address":"品川区平塚2-12-2品川区立家庭あんしんセンター内","lat":35.617063,"lon":139.71282},{"name":"品川区子ども家庭支援センター","province":"東京都","city":"品川区","address":"品川区二葉1-7-15","lat":35.60878,"lon":139.72881},{"name":"品川区子育て支援センター","province":"東京都","city":"品川区","address":"品川区平塚2-12-2品川区立家庭あんしんセンター内","lat":35.61694,"lon":139.71266},{"name":"桐ヶ谷火葬場","province":"東京都","city":"品川区","address":"東京都品川区西五反田5丁目32-20","lat":35.62232046,"lon":139.71367573},{"name":"＊?品川区男女共同参画センター","province":"東京都","city":"品川区","address":"品川区東大井5-18-1","lat":35.606223,"lon":139.735889},{"name":"てんとうむし","province":"東京都","city":"品川区","address":"品川区北品川4-1-1松風ビル2階","lat":35.62294,"lon":139.734843},{"name":"アプリ児童デイサービス北品川","province":"東京都","city":"品川区","address":"品川区北品川2-18-2","lat":35.618158,"lon":139.741437},{"name":"ちびっこタイム品川","province":"東京都","city":"品川区","address":"品川区東大井5-23-16-110号","lat":35.604407,"lon":139.737158},{"name":"めるへんキッズ大森園","province":"東京都","city":"品川区","address":"品川区南大井6-16-1サンハイツ大森101号室","lat":35.591441,"lon":139.730539},{"name":"スキップランド　西大井","province":"東京都","city":"品川区","address":"品川区西大井6-14-15","lat":35.599776,"lon":139.717037},{"name":"アプリ児童デイサービス不動前","province":"東京都","city":"品川区","address":"品川区西五反田三丁目13番14号ロイヤルコート","lat":35.628086,"lon":139.714056},{"name":"品川区立品川児童学園分室","province":"東京都","city":"品川区","address":"品川区戸越6-16-14","lat":35.607372,"lon":139.715378},{"name":"療育スタジオ・ピコ　戸越公園教室","province":"東京都","city":"品川区","address":"品川区豊町3-1-1ひかりオークス1階","lat":35.609,"lon":139.719884},{"name":"キッズアイランドワイキキ","province":"東京都","city":"品川区","address":"品川区二葉4-4-19","lat":35.602334,"lon":139.715223},{"name":"スタジオそら品川戸越","province":"東京都","city":"品川区","address":"品川区東中延1-3-11","lat":35.611277,"lon":139.714126},{"name":"このこのリーフ　中延","province":"東京都","city":"品川区","address":"品川区中延3-13-19芙蓉ハイツ101号","lat":35.606489,"lon":139.71134},{"name":"みんなの家　ゆめっこ","province":"東京都","city":"品川区","address":"品川区中延6-3-16","lat":35.602767,"lon":139.71256},{"name":"品川区子育て支援センター","province":"東京都","city":"品川区","address":"品川区平塚2-12-2品川区立家庭あんしんセンター内","lat":35.617063,"lon":139.71282},{"name":"品川区子ども家庭支援センター","province":"東京都","city":"品川区","address":"品川区二葉1-7-15","lat":35.60878,"lon":139.72881},{"name":"品川区子育て支援センター","province":"東京都","city":"品川区","address":"品川区平塚2-12-2品川区立家庭あんしんセンター内","lat":35.61694,"lon":139.71266},{"name":"桐ヶ谷火葬場","province":"東京都","city":"品川区","address":"東京都品川区西五反田5丁目32-20","lat":35.62232046,"lon":139.71367573},{"name":"＊?品川区男女共同参画センター","province":"東京都","city":"品川区","address":"品川区東大井5-18-1","lat":35.606223,"lon":139.735889},{"name":"てんとうむし","province":"東京都","city":"品川区","address":"品川区北品川4-1-1松風ビル2階","lat":35.62294,"lon":139.734843},{"name":"アプリ児童デイサービス北品川","province":"東京都","city":"品川区","address":"品川区北品川2-18-2","lat":35.618158,"lon":139.741437},{"name":"ちびっこタイム品川","province":"東京都","city":"品川区","address":"品川区東大井5-23-16-110号","lat":35.604407,"lon":139.737158},{"name":"めるへんキッズ大森園","province":"東京都","city":"品川区","address":"品川区南大井6-16-1サンハイツ大森101号室","lat":35.591441,"lon":139.730539},{"name":"スキップランド　西大井","province":"東京都","city":"品川区","address":"品川区西大井6-14-15","lat":35.599776,"lon":139.717037},{"name":"アプリ児童デイサービス不動前","province":"東京都","city":"品川区","address":"品川区西五反田三丁目13番14号ロイヤルコート","lat":35.628086,"lon":139.714056},{"name":"品川区立品川児童学園分室","province":"東京都","city":"品川区","address":"品川区戸越6-16-14","lat":35.607372,"lon":139.715378},{"name":"療育スタジオ・ピコ　戸越公園教室","province":"東京都","city":"品川区","address":"品川区豊町3-1-1ひかりオークス1階","lat":35.609,"lon":139.719884},{"name":"キッズアイランドワイキキ","province":"東京都","city":"品川区","address":"品川区二葉4-4-19","lat":35.602334,"lon":139.715223},{"name":"スタジオそら品川戸越","province":"東京都","city":"品川区","address":"品川区東中延1-3-11","lat":35.611277,"lon":139.714126},{"name":"このこのリーフ　中延","province":"東京都","city":"品川区","address":"品川区中延3-13-19芙蓉ハイツ101号","lat":35.606489,"lon":139.71134},{"name":"みんなの家　ゆめっこ","province":"東京都","city":"品川区","address":"品川区中延6-3-16","lat":35.602767,"lon":139.71256},{"name":"品川区子育て支援センター","province":"東京都","city":"品川区","address":"品川区平塚2-12-2品川区立家庭あんしんセンター内","lat":35.617063,"lon":139.71282},{"name":"品川区子ども家庭支援センター","province":"東京都","city":"品川区","address":"品川区二葉1-7-15","lat":35.60878,"lon":139.72881},{"name":"品川区子育て支援センター","province":"東京都","city":"品川区","address":"品川区平塚2-12-2品川区立家庭あんしんセンター内","lat":35.61694,"lon":139.71266},{"name":"桐ヶ谷火葬場","province":"東京都","city":"品川区","address":"東京都品川区西五反田5丁目32-20","lat":35.62232046,"lon":139.71367573},{"name":"＊?品川区男女共同参画センター","province":"東京都","city":"品川区","address":"品川区東大井5-18-1","lat":35.606223,"lon":139.735889},{"name":"てんとうむし","province":"東京都","city":"品川区","address":"品川区北品川4-1-1松風ビル2階","lat":35.62294,"lon":139.734843},{"name":"アプリ児童デイサービス北品川","province":"東京都","city":"品川区","address":"品川区北品川2-18-2","lat":35.618158,"lon":139.741437},{"name":"ちびっこタイム品川","province":"東京都","city":"品川区","address":"品川区東大井5-23-16-110号","lat":35.604407,"lon":139.737158},{"name":"めるへんキッズ大森園","province":"東京都","city":"品川区","address":"品川区南大井6-16-1サンハイツ大森101号室","lat":35.591441,"lon":139.730539},{"name":"スキップランド　西大井","province":"東京都","city":"品川区","address":"品川区西大井6-14-15","lat":35.599776,"lon":139.717037},{"name":"アプリ児童デイサービス不動前","province":"東京都","city":"品川区","address":"品川区西五反田三丁目13番14号ロイヤルコート","lat":35.628086,"lon":139.714056},{"name":"品川区立品川児童学園分室","province":"東京都","city":"品川区","address":"品川区戸越6-16-14","lat":35.607372,"lon":139.715378},{"name":"療育スタジオ・ピコ　戸越公園教室","province":"東京都","city":"品川区","address":"品川区豊町3-1-1ひかりオークス1階","lat":35.609,"lon":139.719884},{"name":"キッズアイランドワイキキ","province":"東京都","city":"品川区","address":"品川区二葉4-4-19","lat":35.602334,"lon":139.715223},{"name":"スタジオそら品川戸越","province":"東京都","city":"品川区","address":"品川区東中延1-3-11","lat":35.611277,"lon":139.714126},{"name":"このこのリーフ　中延","province":"東京都","city":"品川区","address":"品川区中延3-13-19芙蓉ハイツ101号","lat":35.606489,"lon":139.71134},{"name":"みんなの家　ゆめっこ","province":"東京都","city":"品川区","address":"品川区中延6-3-16","lat":35.602767,"lon":139.71256},{"name":"品川区子育て支援センター","province":"東京都","city":"品川区","address":"品川区平塚2-12-2品川区立家庭あんしんセンター内","lat":35.617063,"lon":139.71282},{"name":"品川区子ども家庭支援センター","province":"東京都","city":"品川区","address":"品川区二葉1-7-15","lat":35.60878,"lon":139.72881},{"name":"品川区子育て支援センター","province":"東京都","city":"品川区","address":"品川区平塚2-12-2品川区立家庭あんしんセンター内","lat":35.61694,"lon":139.71266},{"name":"桐ヶ谷火葬場","province":"東京都","city":"品川区","address":"東京都品川区西五反田5丁目32-20","lat":35.62232046,"lon":139.71367573},{"name":"＊?品川区男女共同参画センター","province":"東京都","city":"品川区","address":"品川区東大井5-18-1","lat":35.606223,"lon":139.735889},{"name":"てんとうむし","province":"東京都","city":"品川区","address":"品川区北品川4-1-1松風ビル2階","lat":35.62294,"lon":139.734843},{"name":"アプリ児童デイサービス北品川","province":"東京都","city":"品川区","address":"品川区北品川2-18-2","lat":35.618158,"lon":139.741437},{"name":"ちびっこタイム品川","province":"東京都","city":"品川区","address":"品川区東大井5-23-16-110号","lat":35.604407,"lon":139.737158},{"name":"めるへんキッズ大森園","province":"東京都","city":"品川区","address":"品川区南大井6-16-1サンハイツ大森101号室","lat":35.591441,"lon":139.730539},{"name":"スキップランド　西大井","province":"東京都","city":"品川区","address":"品川区西大井6-14-15","lat":35.599776,"lon":139.717037},{"name":"アプリ児童デイサービス不動前","province":"東京都","city":"品川区","address":"品川区西五反田三丁目13番14号ロイヤルコート","lat":35.628086,"lon":139.714056},{"name":"品川区立品川児童学園分室","province":"東京都","city":"品川区","address":"品川区戸越6-16-14","lat":35.607372,"lon":139.715378},{"name":"療育スタジオ・ピコ　戸越公園教室","province":"東京都","city":"品川区","address":"品川区豊町3-1-1ひかりオークス1階","lat":35.609,"lon":139.719884},{"name":"キッズアイランドワイキキ","province":"東京都","city":"品川区","address":"品川区二葉4-4-19","lat":35.602334,"lon":139.715223},{"name":"スタジオそら品川戸越","province":"東京都","city":"品川区","address":"品川区東中延1-3-11","lat":35.611277,"lon":139.714126},{"name":"このこのリーフ　中延","province":"東京都","city":"品川区","address":"品川区中延3-13-19芙蓉ハイツ101号","lat":35.606489,"lon":139.71134},{"name":"みんなの家　ゆめっこ","province":"東京都","city":"品川区","address":"品川区中延6-3-16","lat":35.602767,"lon":139.71256},{"name":"品川区子育て支援センター","province":"東京都","city":"品川区","address":"品川区平塚2-12-2品川区立家庭あんしんセンター内","lat":35.617063,"lon":139.71282},{"name":"品川区子ども家庭支援センター","province":"東京都","city":"品川区","address":"品川区二葉1-7-15","lat":35.60878,"lon":139.72881},{"name":"品川区子育て支援センター","province":"東京都","city":"品川区","address":"品川区平塚2-12-2品川区立家庭あんしんセンター内","lat":35.61694,"lon":139.71266},{"name":"桐ヶ谷火葬場","province":"東京都","city":"品川区","address":"東京都品川区西五反田5丁目32-20","lat":35.62232046,"lon":139.71367573},{"name":"＊?品川区男女共同参画センター","province":"東京都","city":"品川区","address":"品川区東大井5-18-1","lat":35.606223,"lon":139.735889},{"name":"てんとうむし","province":"東京都","city":"品川区","address":"品川区北品川4-1-1松風ビル2階","lat":35.62294,"lon":139.734843},{"name":"アプリ児童デイサービス北品川","province":"東京都","city":"品川区","address":"品川区北品川2-18-2","lat":35.618158,"lon":139.741437},{"name":"ちびっこタイム品川","province":"東京都","city":"品川区","address":"品川区東大井5-23-16-110号","lat":35.604407,"lon":139.737158},{"name":"めるへんキッズ大森園","province":"東京都","city":"品川区","address":"品川区南大井6-16-1サンハイツ大森101号室","lat":35.591441,"lon":139.730539},{"name":"スキップランド　西大井","province":"東京都","city":"品川区","address":"品川区西大井6-14-15","lat":35.599776,"lon":139.717037},{"name":"アプリ児童デイサービス不動前","province":"東京都","city":"品川区","address":"品川区西五反田三丁目13番14号ロイヤルコート","lat":35.628086,"lon":139.714056},{"name":"品川区立品川児童学園分室","province":"東京都","city":"品川区","address":"品川区戸越6-16-14","lat":35.607372,"lon":139.715378},{"name":"療育スタジオ・ピコ　戸越公園教室","province":"東京都","city":"品川区","address":"品川区豊町3-1-1ひかりオークス1階","lat":35.609,"lon":139.719884},{"name":"キッズアイランドワイキキ","province":"東京都","city":"品川区","address":"品川区二葉4-4-19","lat":35.602334,"lon":139.715223},{"name":"スタジオそら品川戸越","province":"東京都","city":"品川区","address":"品川区東中延1-3-11","lat":35.611277,"lon":139.714126},{"name":"このこのリーフ　中延","province":"東京都","city":"品川区","address":"品川区中延3-13-19芙蓉ハイツ101号","lat":35.606489,"lon":139.71134},{"name":"みんなの家　ゆめっこ","province":"東京都","city":"品川区","address":"品川区中延6-3-16","lat":35.602767,"lon":139.71256},{"name":"品川区子育て支援センター","province":"東京都","city":"品川区","address":"品川区平塚2-12-2品川区立家庭あんしんセンター内","lat":35.617063,"lon":139.71282},{"name":"品川区子ども家庭支援センター","province":"東京都","city":"品川区","address":"品川区二葉1-7-15","lat":35.60878,"lon":139.72881},{"name":"品川区子育て支援センター","province":"東京都","city":"品川区","address":"品川区平塚2-12-2品川区立家庭あんしんセンター内","lat":35.61694,"lon":139.71266},{"name":"桐ヶ谷火葬場","province":"東京都","city":"品川区","address":"東京都品川区西五反田5丁目32-20","lat":35.62232046,"lon":139.71367573},{"name":"＊?品川区男女共同参画センター","province":"東京都","city":"品川区","address":"品川区東大井5-18-1","lat":35.606223,"lon":139.735889},{"name":"てんとうむし","province":"東京都","city":"品川区","address":"品川区北品川4-1-1松風ビル2階","lat":35.62294,"lon":139.734843},{"name":"アプリ児童デイサービス北品川","province":"東京都","city":"品川区","address":"品川区北品川2-18-2","lat":35.618158,"lon":139.741437},{"name":"ちびっこタイム品川","province":"東京都","city":"品川区","address":"品川区東大井5-23-16-110号","lat":35.604407,"lon":139.737158},{"name":"めるへんキッズ大森園","province":"東京都","city":"品川区","address":"品川区南大井6-16-1サンハイツ大森101号室","lat":35.591441,"lon":139.730539},{"name":"スキップランド　西大井","province":"東京都","city":"品川区","address":"品川区西大井6-14-15","lat":35.599776,"lon":139.717037},{"name":"アプリ児童デイサービス不動前","province":"東京都","city":"品川区","address":"品川区西五反田三丁目13番14号ロイヤルコート","lat":35.628086,"lon":139.714056},{"name":"品川区立品川児童学園分室","province":"東京都","city":"品川区","address":"品川区戸越6-16-14","lat":35.607372,"lon":139.715378},{"name":"療育スタジオ・ピコ　戸越公園教室","province":"東京都","city":"品川区","address":"品川区豊町3-1-1ひかりオークス1階","lat":35.609,"lon":139.719884},{"name":"キッズアイランドワイキキ","province":"東京都","city":"品川区","address":"品川区二葉4-4-19","lat":35.602334,"lon":139.715223},{"name":"スタジオそら品川戸越","province":"東京都","city":"品川区","address":"品川区東中延1-3-11","lat":35.611277,"lon":139.714126},{"name":"このこのリーフ　中延","province":"東京都","city":"品川区","address":"品川区中延3-13-19芙蓉ハイツ101号","lat":35.606489,"lon":139.71134},{"name":"みんなの家　ゆめっこ","province":"東京都","city":"品川区","address":"品川区中延6-3-16","lat":35.602767,"lon":139.71256},{"name":"品川区子育て支援センター","province":"東京都","city":"品川区","address":"品川区平塚2-12-2品川区立家庭あんしんセンター内","lat":35.617063,"lon":139.71282},{"name":"品川区子ども家庭支援センター","province":"東京都","city":"品川区","address":"品川区二葉1-7-15","lat":35.60878,"lon":139.72881},{"name":"品川区子育て支援センター","province":"東京都","city":"品川区","address":"品川区平塚2-12-2品川区立家庭あんしんセンター内","lat":35.61694,"lon":139.71266},{"name":"＊?品川区男女共同参画センター","province":"東京都","city":"品川区","address":"品川区東大井5-18-1","lat":35.606223,"lon":139.735889},{"name":"てんとうむし","province":"東京都","city":"品川区","address":"品川区北品川4-1-1松風ビル2階","lat":35.62294,"lon":139.734843},{"name":"アプリ児童デイサービス北品川","province":"東京都","city":"品川区","address":"品川区北品川2-18-2","lat":35.618158,"lon":139.741437},{"name":"ちびっこタイム品川","province":"東京都","city":"品川区","address":"品川区東大井5-23-16-110号","lat":35.604407,"lon":139.737158},{"name":"めるへんキッズ大森園","province":"東京都","city":"品川区","address":"品川区南大井6-16-1サンハイツ大森101号室","lat":35.591441,"lon":139.730539},{"name":"スキップランド　西大井","province":"東京都","city":"品川区","address":"品川区西大井6-14-15","lat":35.599776,"lon":139.717037},{"name":"アプリ児童デイサービス不動前","province":"東京都","city":"品川区","address":"品川区西五反田三丁目13番14号ロイヤルコート","lat":35.628086,"lon":139.714056},{"name":"品川区立品川児童学園分室","province":"東京都","city":"品川区","address":"品川区戸越6-16-14","lat":35.607372,"lon":139.715378},{"name":"療育スタジオ・ピコ　戸越公園教室","province":"東京都","city":"品川区","address":"品川区豊町3-1-1ひかりオークス1階","lat":35.609,"lon":139.719884},{"name":"キッズアイランドワイキキ","province":"東京都","city":"品川区","address":"品川区二葉4-4-19","lat":35.602334,"lon":139.715223},{"name":"スタジオそら品川戸越","province":"東京都","city":"品川区","address":"品川区東中延1-3-11","lat":35.611277,"lon":139.714126},{"name":"このこのリーフ　中延","province":"東京都","city":"品川区","address":"品川区中延3-13-19芙蓉ハイツ101号","lat":35.606489,"lon":139.71134},{"name":"みんなの家　ゆめっこ","province":"東京都","city":"品川区","address":"品川区中延6-3-16","lat":35.602767,"lon":139.71256},{"name":"品川区子育て支援センター","province":"東京都","city":"品川区","address":"品川区平塚2-12-2品川区立家庭あんしんセンター内","lat":35.617063,"lon":139.71282},{"name":"品川区子ども家庭支援センター","province":"東京都","city":"品川区","address":"品川区二葉1-7-15","lat":35.60878,"lon":139.72881},{"name":"品川区子育て支援センター","province":"東京都","city":"品川区","address":"品川区平塚2-12-2品川区立家庭あんしんセンター内","lat":35.61694,"lon":139.71266},{"name":"＊?品川区男女共同参画センター","province":"東京都","city":"品川区","address":"品川区東大井5-18-1","lat":35.606223,"lon":139.735889},{"name":"てんとうむし","province":"東京都","city":"品川区","address":"品川区北品川4-1-1松風ビル2階","lat":35.62294,"lon":139.734843},{"name":"アプリ児童デイサービス北品川","province":"東京都","city":"品川区","address":"品川区北品川2-18-2","lat":35.618158,"lon":139.741437},{"name":"ちびっこタイム品川","province":"東京都","city":"品川区","address":"品川区東大井5-23-16-110号","lat":35.604407,"lon":139.737158},{"name":"めるへんキッズ大森園","province":"東京都","city":"品川区","address":"品川区南大井6-16-1サンハイツ大森101号室","lat":35.591441,"lon":139.730539},{"name":"スキップランド　西大井","province":"東京都","city":"品川区","address":"品川区西大井6-14-15","lat":35.599776,"lon":139.717037},{"name":"アプリ児童デイサービス不動前","province":"東京都","city":"品川区","address":"品川区西五反田三丁目13番14号ロイヤルコート","lat":35.628086,"lon":139.714056},{"name":"品川区立品川児童学園分室","province":"東京都","city":"品川区","address":"品川区戸越6-16-14","lat":35.607372,"lon":139.715378},{"name":"療育スタジオ・ピコ　戸越公園教室","province":"東京都","city":"品川区","address":"品川区豊町3-1-1ひかりオークス1階","lat":35.609,"lon":139.719884},{"name":"キッズアイランドワイキキ","province":"東京都","city":"品川区","address":"品川区二葉4-4-19","lat":35.602334,"lon":139.715223},{"name":"スタジオそら品川戸越","province":"東京都","city":"品川区","address":"品川区東中延1-3-11","lat":35.611277,"lon":139.714126},{"name":"このこのリーフ　中延","province":"東京都","city":"品川区","address":"品川区中延3-13-19芙蓉ハイツ101号","lat":35.606489,"lon":139.71134},{"name":"みんなの家　ゆめっこ","province":"東京都","city":"品川区","address":"品川区中延6-3-16","lat":35.602767,"lon":139.71256},{"name":"品川区子育て支援センター","province":"東京都","city":"品川区","address":"品川区平塚2-12-2品川区立家庭あんしんセンター内","lat":35.617063,"lon":139.71282},{"name":"品川区子ども家庭支援センター","province":"東京都","city":"品川区","address":"品川区二葉1-7-15","lat":35.60878,"lon":139.72881},{"name":"品川区子育て支援センター","province":"東京都","city":"品川区","address":"品川区平塚2-12-2品川区立家庭あんしんセンター内","lat":35.61694,"lon":139.71266},{"name":"＊?品川区男女共同参画センター","province":"東京都","city":"品川区","address":"品川区東大井5-18-1","lat":35.606223,"lon":139.735889},{"name":"てんとうむし","province":"東京都","city":"品川区","address":"品川区北品川4-1-1松風ビル2階","lat":35.62294,"lon":139.734843},{"name":"アプリ児童デイサービス北品川","province":"東京都","city":"品川区","address":"品川区北品川2-18-2","lat":35.618158,"lon":139.741437},{"name":"ちびっこタイム品川","province":"東京都","city":"品川区","address":"品川区東大井5-23-16-110号","lat":35.604407,"lon":139.737158},{"name":"めるへんキッズ大森園","province":"東京都","city":"品川区","address":"品川区南大井6-16-1サンハイツ大森101号室","lat":35.591441,"lon":139.730539},{"name":"スキップランド　西大井","province":"東京都","city":"品川区","address":"品川区西大井6-14-15","lat":35.599776,"lon":139.717037},{"name":"アプリ児童デイサービス不動前","province":"東京都","city":"品川区","address":"品川区西五反田三丁目13番14号ロイヤルコート","lat":35.628086,"lon":139.714056},{"name":"品川区立品川児童学園分室","province":"東京都","city":"品川区","address":"品川区戸越6-16-14","lat":35.607372,"lon":139.715378},{"name":"療育スタジオ・ピコ　戸越公園教室","province":"東京都","city":"品川区","address":"品川区豊町3-1-1ひかりオークス1階","lat":35.609,"lon":139.719884},{"name":"キッズアイランドワイキキ","province":"東京都","city":"品川区","address":"品川区二葉4-4-19","lat":35.602334,"lon":139.715223},{"name":"スタジオそら品川戸越","province":"東京都","city":"品川区","address":"品川区東中延1-3-11","lat":35.611277,"lon":139.714126},{"name":"このこのリーフ　中延","province":"東京都","city":"品川区","address":"品川区中延3-13-19芙蓉ハイツ101号","lat":35.606489,"lon":139.71134},{"name":"みんなの家　ゆめっこ","province":"東京都","city":"品川区","address":"品川区中延6-3-16","lat":35.602767,"lon":139.71256},{"name":"品川区子育て支援センター","province":"東京都","city":"品川区","address":"品川区平塚2-12-2品川区立家庭あんしんセンター内","lat":35.617063,"lon":139.71282},{"name":"品川区子ども家庭支援センター","province":"東京都","city":"品川区","address":"品川区二葉1-7-15","lat":35.60878,"lon":139.72881},{"name":"品川区子育て支援センター","province":"東京都","city":"品川区","address":"品川区平塚2-12-2品川区立家庭あんしんセンター内","lat":35.61694,"lon":139.71266},{"name":"＊?品川区男女共同参画センター","province":"東京都","city":"品川区","address":"品川区東大井5-18-1","lat":35.606223,"lon":139.735889},{"name":"てんとうむし","province":"東京都","city":"品川区","address":"品川区北品川4-1-1松風ビル2階","lat":35.62294,"lon":139.734843},{"name":"アプリ児童デイサービス北品川","province":"東京都","city":"品川区","address":"品川区北品川2-18-2","lat":35.618158,"lon":139.741437},{"name":"ちびっこタイム品川","province":"東京都","city":"品川区","address":"品川区東大井5-23-16-110号","lat":35.604407,"lon":139.737158},{"name":"めるへんキッズ大森園","province":"東京都","city":"品川区","address":"品川区南大井6-16-1サンハイツ大森101号室","lat":35.591441,"lon":139.730539},{"name":"スキップランド　西大井","province":"東京都","city":"品川区","address":"品川区西大井6-14-15","lat":35.599776,"lon":139.717037},{"name":"アプリ児童デイサービス不動前","province":"東京都","city":"品川区","address":"品川区西五反田三丁目13番14号ロイヤルコート","lat":35.628086,"lon":139.714056},{"name":"品川区立品川児童学園分室","province":"東京都","city":"品川区","address":"品川区戸越6-16-14","lat":35.607372,"lon":139.715378},{"name":"療育スタジオ・ピコ　戸越公園教室","province":"東京都","city":"品川区","address":"品川区豊町3-1-1ひかりオークス1階","lat":35.609,"lon":139.719884},{"name":"キッズアイランドワイキキ","province":"東京都","city":"品川区","address":"品川区二葉4-4-19","lat":35.602334,"lon":139.715223},{"name":"スタジオそら品川戸越","province":"東京都","city":"品川区","address":"品川区東中延1-3-11","lat":35.611277,"lon":139.714126},{"name":"このこのリーフ　中延","province":"東京都","city":"品川区","address":"品川区中延3-13-19芙蓉ハイツ101号","lat":35.606489,"lon":139.71134},{"name":"みんなの家　ゆめっこ","province":"東京都","city":"品川区","address":"品川区中延6-3-16","lat":35.602767,"lon":139.71256},{"name":"品川区子育て支援センター","province":"東京都","city":"品川区","address":"品川区平塚2-12-2品川区立家庭あんしんセンター内","lat":35.617063,"lon":139.71282},{"name":"品川区子ども家庭支援センター","province":"東京都","city":"品川区","address":"品川区二葉1-7-15","lat":35.60878,"lon":139.72881},{"name":"品川区子育て支援センター","province":"東京都","city":"品川区","address":"品川区平塚2-12-2品川区立家庭あんしんセンター内","lat":35.61694,"lon":139.71266},{"name":"＊?品川区男女共同参画センター","province":"東京都","city":"品川区","address":"品川区東大井5-18-1","lat":35.606223,"lon":139.735889},{"name":"てんとうむし","province":"東京都","city":"品川区","address":"品川区北品川4-1-1松風ビル2階","lat":35.62294,"lon":139.734843},{"name":"アプリ児童デイサービス北品川","province":"東京都","city":"品川区","address":"品川区北品川2-18-2","lat":35.618158,"lon":139.741437},{"name":"ちびっこタイム品川","province":"東京都","city":"品川区","address":"品川区東大井5-23-16-110号","lat":35.604407,"lon":139.737158},{"name":"めるへんキッズ大森園","province":"東京都","city":"品川区","address":"品川区南大井6-16-1サンハイツ大森101号室","lat":35.591441,"lon":139.730539},{"name":"スキップランド　西大井","province":"東京都","city":"品川区","address":"品川区西大井6-14-15","lat":35.599776,"lon":139.717037},{"name":"アプリ児童デイサービス不動前","province":"東京都","city":"品川区","address":"品川区西五反田三丁目13番14号ロイヤルコート","lat":35.628086,"lon":139.714056},{"name":"品川区立品川児童学園分室","province":"東京都","city":"品川区","address":"品川区戸越6-16-14","lat":35.607372,"lon":139.715378},{"name":"療育スタジオ・ピコ　戸越公園教室","province":"東京都","city":"品川区","address":"品川区豊町3-1-1ひかりオークス1階","lat":35.609,"lon":139.719884},{"name":"キッズアイランドワイキキ","province":"東京都","city":"品川区","address":"品川区二葉4-4-19","lat":35.602334,"lon":139.715223},{"name":"スタジオそら品川戸越","province":"東京都","city":"品川区","address":"品川区東中延1-3-11","lat":35.611277,"lon":139.714126},{"name":"このこのリーフ　中延","province":"東京都","city":"品川区","address":"品川区中延3-13-19芙蓉ハイツ101号","lat":35.606489,"lon":139.71134},{"name":"みんなの家　ゆめっこ","province":"東京都","city":"品川区","address":"品川区中延6-3-16","lat":35.602767,"lon":139.71256},{"name":"品川区子育て支援センター","province":"東京都","city":"品川区","address":"品川区平塚2-12-2品川区立家庭あんしんセンター内","lat":35.617063,"lon":139.71282},{"name":"品川区子ども家庭支援センター","province":"東京都","city":"品川区","address":"品川区二葉1-7-15","lat":35.60878,"lon":139.72881},{"name":"品川区子育て支援センター","province":"東京都","city":"品川区","address":"品川区平塚2-12-2品川区立家庭あんしんセンター内","lat":35.61694,"lon":139.71266},{"name":"＊?品川区男女共同参画センター","province":"東京都","city":"品川区","address":"品川区東大井5-18-1","lat":35.606223,"lon":139.735889},{"name":"てんとうむし","province":"東京都","city":"品川区","address":"品川区北品川4-1-1松風ビル2階","lat":35.62294,"lon":139.734843},{"name":"アプリ児童デイサービス北品川","province":"東京都","city":"品川区","address":"品川区北品川2-18-2","lat":35.618158,"lon":139.741437},{"name":"ちびっこタイム品川","province":"東京都","city":"品川区","address":"品川区東大井5-23-16-110号","lat":35.604407,"lon":139.737158},{"name":"めるへんキッズ大森園","province":"東京都","city":"品川区","address":"品川区南大井6-16-1サンハイツ大森101号室","lat":35.591441,"lon":139.730539},{"name":"スキップランド　西大井","province":"東京都","city":"品川区","address":"品川区西大井6-14-15","lat":35.599776,"lon":139.717037},{"name":"アプリ児童デイサービス不動前","province":"東京都","city":"品川区","address":"品川区西五反田三丁目13番14号ロイヤルコート","lat":35.628086,"lon":139.714056},{"name":"品川区立品川児童学園分室","province":"東京都","city":"品川区","address":"品川区戸越6-16-14","lat":35.607372,"lon":139.715378},{"name":"療育スタジオ・ピコ　戸越公園教室","province":"東京都","city":"品川区","address":"品川区豊町3-1-1ひかりオークス1階","lat":35.609,"lon":139.719884},{"name":"キッズアイランドワイキキ","province":"東京都","city":"品川区","address":"品川区二葉4-4-19","lat":35.602334,"lon":139.715223},{"name":"スタジオそら品川戸越","province":"東京都","city":"品川区","address":"品川区東中延1-3-11","lat":35.611277,"lon":139.714126},{"name":"このこのリーフ　中延","province":"東京都","city":"品川区","address":"品川区中延3-13-19芙蓉ハイツ101号","lat":35.606489,"lon":139.71134},{"name":"みんなの家　ゆめっこ","province":"東京都","city":"品川区","address":"品川区中延6-3-16","lat":35.602767,"lon":139.71256},{"name":"品川区子育て支援センター","province":"東京都","city":"品川区","address":"品川区平塚2-12-2品川区立家庭あんしんセンター内","lat":35.617063,"lon":139.71282},{"name":"品川区子ども家庭支援センター","province":"東京都","city":"品川区","address":"品川区二葉1-7-15","lat":35.60878,"lon":139.72881},{"name":"品川区子育て支援センター","province":"東京都","city":"品川区","address":"品川区平塚2-12-2品川区立家庭あんしんセンター内","lat":35.61694,"lon":139.71266},{"name":"＊?品川区男女共同参画センター","province":"東京都","city":"品川区","address":"品川区東大井5-18-1","lat":35.606223,"lon":139.735889},{"name":"てんとうむし","province":"東京都","city":"品川区","address":"品川区北品川4-1-1松風ビル2階","lat":35.62294,"lon":139.734843},{"name":"アプリ児童デイサービス北品川","province":"東京都","city":"品川区","address":"品川区北品川2-18-2","lat":35.618158,"lon":139.741437},{"name":"ちびっこタイム品川","province":"東京都","city":"品川区","address":"品川区東大井5-23-16-110号","lat":35.604407,"lon":139.737158},{"name":"めるへんキッズ大森園","province":"東京都","city":"品川区","address":"品川区南大井6-16-1サンハイツ大森101号室","lat":35.591441,"lon":139.730539},{"name":"スキップランド　西大井","province":"東京都","city":"品川区","address":"品川区西大井6-14-15","lat":35.599776,"lon":139.717037},{"name":"アプリ児童デイサービス不動前","province":"東京都","city":"品川区","address":"品川区西五反田三丁目13番14号ロイヤルコート","lat":35.628086,"lon":139.714056},{"name":"品川区立品川児童学園分室","province":"東京都","city":"品川区","address":"品川区戸越6-16-14","lat":35.607372,"lon":139.715378},{"name":"療育スタジオ・ピコ　戸越公園教室","province":"東京都","city":"品川区","address":"品川区豊町3-1-1ひかりオークス1階","lat":35.609,"lon":139.719884},{"name":"キッズアイランドワイキキ","province":"東京都","city":"品川区","address":"品川区二葉4-4-19","lat":35.602334,"lon":139.715223},{"name":"スタジオそら品川戸越","province":"東京都","city":"品川区","address":"品川区東中延1-3-11","lat":35.611277,"lon":139.714126},{"name":"このこのリーフ　中延","province":"東京都","city":"品川区","address":"品川区中延3-13-19芙蓉ハイツ101号","lat":35.606489,"lon":139.71134},{"name":"みんなの家　ゆめっこ","province":"東京都","city":"品川区","address":"品川区中延6-3-16","lat":35.602767,"lon":139.71256},{"name":"品川区子育て支援センター","province":"東京都","city":"品川区","address":"品川区平塚2-12-2品川区立家庭あんしんセンター内","lat":35.617063,"lon":139.71282},{"name":"品川区子ども家庭支援センター","province":"東京都","city":"品川区","address":"品川区二葉1-7-15","lat":35.60878,"lon":139.72881},{"name":"品川区子育て支援センター","province":"東京都","city":"品川区","address":"品川区平塚2-12-2品川区立家庭あんしんセンター内","lat":35.61694,"lon":139.71266},{"name":"＊?品川区男女共同参画センター","province":"東京都","city":"品川区","address":"品川区東大井5-18-1","lat":35.606223,"lon":139.735889},{"name":"てんとうむし","province":"東京都","city":"品川区","address":"品川区北品川4-1-1松風ビル2階","lat":35.62294,"lon":139.734843},{"name":"アプリ児童デイサービス北品川","province":"東京都","city":"品川区","address":"品川区北品川2-18-2","lat":35.618158,"lon":139.741437},{"name":"ちびっこタイム品川","province":"東京都","city":"品川区","address":"品川区東大井5-23-16-110号","lat":35.604407,"lon":139.737158},{"name":"めるへんキッズ大森園","province":"東京都","city":"品川区","address":"品川区南大井6-16-1サンハイツ大森101号室","lat":35.591441,"lon":139.730539},{"name":"スキップランド　西大井","province":"東京都","city":"品川区","address":"品川区西大井6-14-15","lat":35.599776,"lon":139.717037},{"name":"アプリ児童デイサービス不動前","province":"東京都","city":"品川区","address":"品川区西五反田三丁目13番14号ロイヤルコート","lat":35.628086,"lon":139.714056},{"name":"品川区立品川児童学園分室","province":"東京都","city":"品川区","address":"品川区戸越6-16-14","lat":35.607372,"lon":139.715378},{"name":"療育スタジオ・ピコ　戸越公園教室","province":"東京都","city":"品川区","address":"品川区豊町3-1-1ひかりオークス1階","lat":35.609,"lon":139.719884},{"name":"キッズアイランドワイキキ","province":"東京都","city":"品川区","address":"品川区二葉4-4-19","lat":35.602334,"lon":139.715223},{"name":"スタジオそら品川戸越","province":"東京都","city":"品川区","address":"品川区東中延1-3-11","lat":35.611277,"lon":139.714126},{"name":"このこのリーフ　中延","province":"東京都","city":"品川区","address":"品川区中延3-13-19芙蓉ハイツ101号","lat":35.606489,"lon":139.71134},{"name":"みんなの家　ゆめっこ","province":"東京都","city":"品川区","address":"品川区中延6-3-16","lat":35.602767,"lon":139.71256},{"name":"品川区子育て支援センター","province":"東京都","city":"品川区","address":"品川区平塚2-12-2品川区立家庭あんしんセンター内","lat":35.617063,"lon":139.71282},{"name":"品川区子ども家庭支援センター","province":"東京都","city":"品川区","address":"品川区二葉1-7-15","lat":35.60878,"lon":139.72881},{"name":"品川区子育て支援センター","province":"東京都","city":"品川区","address":"品川区平塚2-12-2品川区立家庭あんしんセンター内","lat":35.61694,"lon":139.71266},{"name":"＊?品川区男女共同参画センター","province":"東京都","city":"品川区","address":"品川区東大井5-18-1","lat":35.606223,"lon":139.735889},{"name":"てんとうむし","province":"東京都","city":"品川区","address":"品川区北品川4-1-1松風ビル2階","lat":35.62294,"lon":139.734843},{"name":"アプリ児童デイサービス北品川","province":"東京都","city":"品川区","address":"品川区北品川2-18-2","lat":35.618158,"lon":139.741437},{"name":"ちびっこタイム品川","province":"東京都","city":"品川区","address":"品川区東大井5-23-16-110号","lat":35.604407,"lon":139.737158},{"name":"めるへんキッズ大森園","province":"東京都","city":"品川区","address":"品川区南大井6-16-1サンハイツ大森101号室","lat":35.591441,"lon":139.730539},{"name":"スキップランド　西大井","province":"東京都","city":"品川区","address":"品川区西大井6-14-15","lat":35.599776,"lon":139.717037},{"name":"アプリ児童デイサービス不動前","province":"東京都","city":"品川区","address":"品川区西五反田三丁目13番14号ロイヤルコート","lat":35.628086,"lon":139.714056},{"name":"品川区立品川児童学園分室","province":"東京都","city":"品川区","address":"品川区戸越6-16-14","lat":35.607372,"lon":139.715378},{"name":"療育スタジオ・ピコ　戸越公園教室","province":"東京都","city":"品川区","address":"品川区豊町3-1-1ひかりオークス1階","lat":35.609,"lon":139.719884},{"name":"キッズアイランドワイキキ","province":"東京都","city":"品川区","address":"品川区二葉4-4-19","lat":35.602334,"lon":139.715223},{"name":"スタジオそら品川戸越","province":"東京都","city":"品川区","address":"品川区東中延1-3-11","lat":35.611277,"lon":139.714126},{"name":"このこのリーフ　中延","province":"東京都","city":"品川区","address":"品川区中延3-13-19芙蓉ハイツ101号","lat":35.606489,"lon":139.71134},{"name":"みんなの家　ゆめっこ","province":"東京都","city":"品川区","address":"品川区中延6-3-16","lat":35.602767,"lon":139.71256},{"name":"品川区子育て支援センター","province":"東京都","city":"品川区","address":"品川区平塚2-12-2品川区立家庭あんしんセンター内","lat":35.617063,"lon":139.71282},{"name":"品川区子ども家庭支援センター","province":"東京都","city":"品川区","address":"品川区二葉1-7-15","lat":35.60878,"lon":139.72881},{"name":"品川区子育て支援センター","province":"東京都","city":"品川区","address":"品川区平塚2-12-2品川区立家庭あんしんセンター内","lat":35.61694,"lon":139.71266},{"name":"＊?品川区男女共同参画センター","province":"東京都","city":"品川区","address":"品川区東大井5-18-1","lat":35.606223,"lon":139.735889},{"name":"てんとうむし","province":"東京都","city":"品川区","address":"品川区北品川4-1-1松風ビル2階","lat":35.62294,"lon":139.734843},{"name":"アプリ児童デイサービス北品川","province":"東京都","city":"品川区","address":"品川区北品川2-18-2","lat":35.618158,"lon":139.741437},{"name":"ちびっこタイム品川","province":"東京都","city":"品川区","address":"品川区東大井5-23-16-110号","lat":35.604407,"lon":139.737158},{"name":"めるへんキッズ大森園","province":"東京都","city":"品川区","address":"品川区南大井6-16-1サンハイツ大森101号室","lat":35.591441,"lon":139.730539},{"name":"スキップランド　西大井","province":"東京都","city":"品川区","address":"品川区西大井6-14-15","lat":35.599776,"lon":139.717037},{"name":"アプリ児童デイサービス不動前","province":"東京都","city":"品川区","address":"品川区西五反田三丁目13番14号ロイヤルコート","lat":35.628086,"lon":139.714056},{"name":"品川区立品川児童学園分室","province":"東京都","city":"品川区","address":"品川区戸越6-16-14","lat":35.607372,"lon":139.715378},{"name":"療育スタジオ・ピコ　戸越公園教室","province":"東京都","city":"品川区","address":"品川区豊町3-1-1ひかりオークス1階","lat":35.609,"lon":139.719884},{"name":"キッズアイランドワイキキ","province":"東京都","city":"品川区","address":"品川区二葉4-4-19","lat":35.602334,"lon":139.715223},{"name":"スタジオそら品川戸越","province":"東京都","city":"品川区","address":"品川区東中延1-3-11","lat":35.611277,"lon":139.714126},{"name":"このこのリーフ　中延","province":"東京都","city":"品川区","address":"品川区中延3-13-19芙蓉ハイツ101号","lat":35.606489,"lon":139.71134},{"name":"みんなの家　ゆめっこ","province":"東京都","city":"品川区","address":"品川区中延6-3-16","lat":35.602767,"lon":139.71256},{"name":"品川区子育て支援センター","province":"東京都","city":"品川区","address":"品川区平塚2-12-2品川区立家庭あんしんセンター内","lat":35.617063,"lon":139.71282},{"name":"品川区子ども家庭支援センター","province":"東京都","city":"品川区","address":"品川区二葉1-7-15","lat":35.60878,"lon":139.72881},{"name":"品川区子育て支援センター","province":"東京都","city":"品川区","address":"品川区平塚2-12-2品川区立家庭あんしんセンター内","lat":35.61694,"lon":139.71266},{"name":"＊?品川区男女共同参画センター","province":"東京都","city":"品川区","address":"品川区東大井5-18-1","lat":35.606223,"lon":139.735889},{"name":"てんとうむし","province":"東京都","city":"品川区","address":"品川区北品川4-1-1松風ビル2階","lat":35.62294,"lon":139.734843},{"name":"アプリ児童デイサービス北品川","province":"東京都","city":"品川区","address":"品川区北品川2-18-2","lat":35.618158,"lon":139.741437},{"name":"ちびっこタイム品川","province":"東京都","city":"品川区","address":"品川区東大井5-23-16-110号","lat":35.604407,"lon":139.737158},{"name":"めるへんキッズ大森園","province":"東京都","city":"品川区","address":"品川区南大井6-16-1サンハイツ大森101号室","lat":35.591441,"lon":139.730539},{"name":"スキップランド　西大井","province":"東京都","city":"品川区","address":"品川区西大井6-14-15","lat":35.599776,"lon":139.717037},{"name":"アプリ児童デイサービス不動前","province":"東京都","city":"品川区","address":"品川区西五反田三丁目13番14号ロイヤルコート","lat":35.628086,"lon":139.714056},{"name":"品川区立品川児童学園分室","province":"東京都","city":"品川区","address":"品川区戸越6-16-14","lat":35.607372,"lon":139.715378},{"name":"療育スタジオ・ピコ　戸越公園教室","province":"東京都","city":"品川区","address":"品川区豊町3-1-1ひかりオークス1階","lat":35.609,"lon":139.719884},{"name":"キッズアイランドワイキキ","province":"東京都","city":"品川区","address":"品川区二葉4-4-19","lat":35.602334,"lon":139.715223},{"name":"スタジオそら品川戸越","province":"東京都","city":"品川区","address":"品川区東中延1-3-11","lat":35.611277,"lon":139.714126},{"name":"このこのリーフ　中延","province":"東京都","city":"品川区","address":"品川区中延3-13-19芙蓉ハイツ101号","lat":35.606489,"lon":139.71134},{"name":"みんなの家　ゆめっこ","province":"東京都","city":"品川区","address":"品川区中延6-3-16","lat":35.602767,"lon":139.71256},{"name":"品川区子育て支援センター","province":"東京都","city":"品川区","address":"品川区平塚2-12-2品川区立家庭あんしんセンター内","lat":35.617063,"lon":139.71282},{"name":"品川区子ども家庭支援センター","province":"東京都","city":"品川区","address":"品川区二葉1-7-15","lat":35.60878,"lon":139.72881},{"name":"品川区子育て支援センター","province":"東京都","city":"品川区","address":"品川区平塚2-12-2品川区立家庭あんしんセンター内","lat":35.61694,"lon":139.71266},{"name":"＊?品川区男女共同参画センター","province":"東京都","city":"品川区","address":"品川区東大井5-18-1","lat":35.606223,"lon":139.735889},{"name":"てんとうむし","province":"東京都","city":"品川区","address":"品川区北品川4-1-1松風ビル2階","lat":35.62294,"lon":139.734843},{"name":"アプリ児童デイサービス北品川","province":"東京都","city":"品川区","address":"品川区北品川2-18-2","lat":35.618158,"lon":139.741437},{"name":"ちびっこタイム品川","province":"東京都","city":"品川区","address":"品川区東大井5-23-16-110号","lat":35.604407,"lon":139.737158},{"name":"めるへんキッズ大森園","province":"東京都","city":"品川区","address":"品川区南大井6-16-1サンハイツ大森101号室","lat":35.591441,"lon":139.730539},{"name":"スキップランド　西大井","province":"東京都","city":"品川区","address":"品川区西大井6-14-15","lat":35.599776,"lon":139.717037},{"name":"アプリ児童デイサービス不動前","province":"東京都","city":"品川区","address":"品川区西五反田三丁目13番14号ロイヤルコート","lat":35.628086,"lon":139.714056},{"name":"品川区立品川児童学園分室","province":"東京都","city":"品川区","address":"品川区戸越6-16-14","lat":35.607372,"lon":139.715378},{"name":"療育スタジオ・ピコ　戸越公園教室","province":"東京都","city":"品川区","address":"品川区豊町3-1-1ひかりオークス1階","lat":35.609,"lon":139.719884},{"name":"キッズアイランドワイキキ","province":"東京都","city":"品川区","address":"品川区二葉4-4-19","lat":35.602334,"lon":139.715223},{"name":"スタジオそら品川戸越","province":"東京都","city":"品川区","address":"品川区東中延1-3-11","lat":35.611277,"lon":139.714126},{"name":"このこのリーフ　中延","province":"東京都","city":"品川区","address":"品川区中延3-13-19芙蓉ハイツ101号","lat":35.606489,"lon":139.71134},{"name":"みんなの家　ゆめっこ","province":"東京都","city":"品川区","address":"品川区中延6-3-16","lat":35.602767,"lon":139.71256},{"name":"品川区子育て支援センター","province":"東京都","city":"品川区","address":"品川区平塚2-12-2品川区立家庭あんしんセンター内","lat":35.617063,"lon":139.71282},{"name":"品川区子ども家庭支援センター","province":"東京都","city":"品川区","address":"品川区二葉1-7-15","lat":35.60878,"lon":139.72881},{"name":"品川区子育て支援センター","province":"東京都","city":"品川区","address":"品川区平塚2-12-2品川区立家庭あんしんセンター内","lat":35.61694,"lon":139.71266},{"name":"＊?品川区男女共同参画センター","province":"東京都","city":"品川区","address":"品川区東大井5-18-1","lat":35.606223,"lon":139.735889},{"name":"てんとうむし","province":"東京都","city":"品川区","address":"品川区北品川4-1-1松風ビル2階","lat":35.62294,"lon":139.734843},{"name":"アプリ児童デイサービス北品川","province":"東京都","city":"品川区","address":"品川区北品川2-18-2","lat":35.618158,"lon":139.741437},{"name":"ちびっこタイム品川","province":"東京都","city":"品川区","address":"品川区東大井5-23-16-110号","lat":35.604407,"lon":139.737158},{"name":"めるへんキッズ大森園","province":"東京都","city":"品川区","address":"品川区南大井6-16-1サンハイツ大森101号室","lat":35.591441,"lon":139.730539},{"name":"スキップランド　西大井","province":"東京都","city":"品川区","address":"品川区西大井6-14-15","lat":35.599776,"lon":139.717037},{"name":"アプリ児童デイサービス不動前","province":"東京都","city":"品川区","address":"品川区西五反田三丁目13番14号ロイヤルコート","lat":35.628086,"lon":139.714056},{"name":"品川区立品川児童学園分室","province":"東京都","city":"品川区","address":"品川区戸越6-16-14","lat":35.607372,"lon":139.715378},{"name":"療育スタジオ・ピコ　戸越公園教室","province":"東京都","city":"品川区","address":"品川区豊町3-1-1ひかりオークス1階","lat":35.609,"lon":139.719884},{"name":"キッズアイランドワイキキ","province":"東京都","city":"品川区","address":"品川区二葉4-4-19","lat":35.602334,"lon":139.715223},{"name":"スタジオそら品川戸越","province":"東京都","city":"品川区","address":"品川区東中延1-3-11","lat":35.611277,"lon":139.714126},{"name":"このこのリーフ　中延","province":"東京都","city":"品川区","address":"品川区中延3-13-19芙蓉ハイツ101号","lat":35.606489,"lon":139.71134},{"name":"みんなの家　ゆめっこ","province":"東京都","city":"品川区","address":"品川区中延6-3-16","lat":35.602767,"lon":139.71256},{"name":"品川区子育て支援センター","province":"東京都","city":"品川区","address":"品川区平塚2-12-2品川区立家庭あんしんセンター内","lat":35.617063,"lon":139.71282},{"name":"品川区子ども家庭支援センター","province":"東京都","city":"品川区","address":"品川区二葉1-7-15","lat":35.60878,"lon":139.72881},{"name":"品川区子育て支援センター","province":"東京都","city":"品川区","address":"品川区平塚2-12-2品川区立家庭あんしんセンター内","lat":35.61694,"lon":139.71266},{"name":"＊?品川区男女共同参画センター","province":"東京都","city":"品川区","address":"品川区東大井5-18-1","lat":35.606223,"lon":139.735889},{"name":"てんとうむし","province":"東京都","city":"品川区","address":"品川区北品川4-1-1松風ビル2階","lat":35.62294,"lon":139.734843},{"name":"アプリ児童デイサービス北品川","province":"東京都","city":"品川区","address":"品川区北品川2-18-2","lat":35.618158,"lon":139.741437},{"name":"ちびっこタイム品川","province":"東京都","city":"品川区","address":"品川区東大井5-23-16-110号","lat":35.604407,"lon":139.737158},{"name":"めるへんキッズ大森園","province":"東京都","city":"品川区","address":"品川区南大井6-16-1サンハイツ大森101号室","lat":35.591441,"lon":139.730539},{"name":"スキップランド　西大井","province":"東京都","city":"品川区","address":"品川区西大井6-14-15","lat":35.599776,"lon":139.717037},{"name":"アプリ児童デイサービス不動前","province":"東京都","city":"品川区","address":"品川区西五反田三丁目13番14号ロイヤルコート","lat":35.628086,"lon":139.714056},{"name":"品川区立品川児童学園分室","province":"東京都","city":"品川区","address":"品川区戸越6-16-14","lat":35.607372,"lon":139.715378},{"name":"療育スタジオ・ピコ　戸越公園教室","province":"東京都","city":"品川区","address":"品川区豊町3-1-1ひかりオークス1階","lat":35.609,"lon":139.719884},{"name":"キッズアイランドワイキキ","province":"東京都","city":"品川区","address":"品川区二葉4-4-19","lat":35.602334,"lon":139.715223},{"name":"スタジオそら品川戸越","province":"東京都","city":"品川区","address":"品川区東中延1-3-11","lat":35.611277,"lon":139.714126},{"name":"このこのリーフ　中延","province":"東京都","city":"品川区","address":"品川区中延3-13-19芙蓉ハイツ101号","lat":35.606489,"lon":139.71134},{"name":"みんなの家　ゆめっこ","province":"東京都","city":"品川区","address":"品川区中延6-3-16","lat":35.602767,"lon":139.71256},{"name":"品川区子育て支援センター","province":"東京都","city":"品川区","address":"品川区平塚2-12-2品川区立家庭あんしんセンター内","lat":35.617063,"lon":139.71282},{"name":"品川区子ども家庭支援センター","province":"東京都","city":"品川区","address":"品川区二葉1-7-15","lat":35.60878,"lon":139.72881},{"name":"品川区子育て支援センター","province":"東京都","city":"品川区","address":"品川区平塚2-12-2品川区立家庭あんしんセンター内","lat":35.61694,"lon":139.71266},{"name":"＊?品川区男女共同参画センター","province":"東京都","city":"品川区","address":"品川区東大井5-18-1","lat":35.606223,"lon":139.735889},{"name":"てんとうむし","province":"東京都","city":"品川区","address":"品川区北品川4-1-1松風ビル2階","lat":35.62294,"lon":139.734843},{"name":"アプリ児童デイサービス北品川","province":"東京都","city":"品川区","address":"品川区北品川2-18-2","lat":35.618158,"lon":139.741437},{"name":"ちびっこタイム品川","province":"東京都","city":"品川区","address":"品川区東大井5-23-16-110号","lat":35.604407,"lon":139.737158},{"name":"めるへんキッズ大森園","province":"東京都","city":"品川区","address":"品川区南大井6-16-1サンハイツ大森101号室","lat":35.591441,"lon":139.730539},{"name":"スキップランド　西大井","province":"東京都","city":"品川区","address":"品川区西大井6-14-15","lat":35.599776,"lon":139.717037},{"name":"アプリ児童デイサービス不動前","province":"東京都","city":"品川区","address":"品川区西五反田三丁目13番14号ロイヤルコート","lat":35.628086,"lon":139.714056},{"name":"品川区立品川児童学園分室","province":"東京都","city":"品川区","address":"品川区戸越6-16-14","lat":35.607372,"lon":139.715378},{"name":"療育スタジオ・ピコ　戸越公園教室","province":"東京都","city":"品川区","address":"品川区豊町3-1-1ひかりオークス1階","lat":35.609,"lon":139.719884},{"name":"キッズアイランドワイキキ","province":"東京都","city":"品川区","address":"品川区二葉4-4-19","lat":35.602334,"lon":139.715223},{"name":"スタジオそら品川戸越","province":"東京都","city":"品川区","address":"品川区東中延1-3-11","lat":35.611277,"lon":139.714126},{"name":"このこのリーフ　中延","province":"東京都","city":"品川区","address":"品川区中延3-13-19芙蓉ハイツ101号","lat":35.606489,"lon":139.71134},{"name":"みんなの家　ゆめっこ","province":"東京都","city":"品川区","address":"品川区中延6-3-16","lat":35.602767,"lon":139.71256},{"name":"品川区子育て支援センター","province":"東京都","city":"品川区","address":"品川区平塚2-12-2品川区立家庭あんしんセンター内","lat":35.617063,"lon":139.71282},{"name":"品川区子ども家庭支援センター","province":"東京都","city":"品川区","address":"品川区二葉1-7-15","lat":35.60878,"lon":139.72881},{"name":"品川区子育て支援センター","province":"東京都","city":"品川区","address":"品川区平塚2-12-2品川区立家庭あんしんセンター内","lat":35.61694,"lon":139.71266},{"name":"＊?品川区男女共同参画センター","province":"東京都","city":"品川区","address":"品川区東大井5-18-1","lat":35.606223,"lon":139.735889},{"name":"てんとうむし","province":"東京都","city":"品川区","address":"品川区北品川4-1-1松風ビル2階","lat":35.62294,"lon":139.734843},{"name":"アプリ児童デイサービス北品川","province":"東京都","city":"品川区","address":"品川区北品川2-18-2","lat":35.618158,"lon":139.741437},{"name":"ちびっこタイム品川","province":"東京都","city":"品川区","address":"品川区東大井5-23-16-110号","lat":35.604407,"lon":139.737158},{"name":"めるへんキッズ大森園","province":"東京都","city":"品川区","address":"品川区南大井6-16-1サンハイツ大森101号室","lat":35.591441,"lon":139.730539},{"name":"スキップランド　西大井","province":"東京都","city":"品川区","address":"品川区西大井6-14-15","lat":35.599776,"lon":139.717037},{"name":"アプリ児童デイサービス不動前","province":"東京都","city":"品川区","address":"品川区西五反田三丁目13番14号ロイヤルコート","lat":35.628086,"lon":139.714056},{"name":"品川区立品川児童学園分室","province":"東京都","city":"品川区","address":"品川区戸越6-16-14","lat":35.607372,"lon":139.715378},{"name":"療育スタジオ・ピコ　戸越公園教室","province":"東京都","city":"品川区","address":"品川区豊町3-1-1ひかりオークス1階","lat":35.609,"lon":139.719884},{"name":"キッズアイランドワイキキ","province":"東京都","city":"品川区","address":"品川区二葉4-4-19","lat":35.602334,"lon":139.715223},{"name":"スタジオそら品川戸越","province":"東京都","city":"品川区","address":"品川区東中延1-3-11","lat":35.611277,"lon":139.714126},{"name":"このこのリーフ　中延","province":"東京都","city":"品川区","address":"品川区中延3-13-19芙蓉ハイツ101号","lat":35.606489,"lon":139.71134},{"name":"みんなの家　ゆめっこ","province":"東京都","city":"品川区","address":"品川区中延6-3-16","lat":35.602767,"lon":139.71256},{"name":"品川区子育て支援センター","province":"東京都","city":"品川区","address":"品川区平塚2-12-2品川区立家庭あんしんセンター内","lat":35.617063,"lon":139.71282},{"name":"品川区子ども家庭支援センター","province":"東京都","city":"品川区","address":"品川区二葉1-7-15","lat":35.60878,"lon":139.72881},{"name":"品川区子育て支援センター","province":"東京都","city":"品川区","address":"品川区平塚2-12-2品川区立家庭あんしんセンター内","lat":35.61694,"lon":139.71266},{"name":"＊?品川区男女共同参画センター","province":"東京都","city":"品川区","address":"品川区東大井5-18-1","lat":35.606223,"lon":139.735889},{"name":"てんとうむし","province":"東京都","city":"品川区","address":"品川区北品川4-1-1松風ビル2階","lat":35.62294,"lon":139.734843},{"name":"アプリ児童デイサービス北品川","province":"東京都","city":"品川区","address":"品川区北品川2-18-2","lat":35.618158,"lon":139.741437},{"name":"ちびっこタイム品川","province":"東京都","city":"品川区","address":"品川区東大井5-23-16-110号","lat":35.604407,"lon":139.737158},{"name":"めるへんキッズ大森園","province":"東京都","city":"品川区","address":"品川区南大井6-16-1サンハイツ大森101号室","lat":35.591441,"lon":139.730539},{"name":"スキップランド　西大井","province":"東京都","city":"品川区","address":"品川区西大井6-14-15","lat":35.599776,"lon":139.717037},{"name":"アプリ児童デイサービス不動前","province":"東京都","city":"品川区","address":"品川区西五反田三丁目13番14号ロイヤルコート","lat":35.628086,"lon":139.714056},{"name":"品川区立品川児童学園分室","province":"東京都","city":"品川区","address":"品川区戸越6-16-14","lat":35.607372,"lon":139.715378},{"name":"療育スタジオ・ピコ　戸越公園教室","province":"東京都","city":"品川区","address":"品川区豊町3-1-1ひかりオークス1階","lat":35.609,"lon":139.719884},{"name":"キッズアイランドワイキキ","province":"東京都","city":"品川区","address":"品川区二葉4-4-19","lat":35.602334,"lon":139.715223},{"name":"スタジオそら品川戸越","province":"東京都","city":"品川区","address":"品川区東中延1-3-11","lat":35.611277,"lon":139.714126},{"name":"このこのリーフ　中延","province":"東京都","city":"品川区","address":"品川区中延3-13-19芙蓉ハイツ101号","lat":35.606489,"lon":139.71134},{"name":"みんなの家　ゆめっこ","province":"東京都","city":"品川区","address":"品川区中延6-3-16","lat":35.602767,"lon":139.71256},{"name":"品川区子育て支援センター","province":"東京都","city":"品川区","address":"品川区平塚2-12-2品川区立家庭あんしんセンター内","lat":35.617063,"lon":139.71282},{"name":"品川区子ども家庭支援センター","province":"東京都","city":"品川区","address":"品川区二葉1-7-15","lat":35.60878,"lon":139.72881},{"name":"品川区子育て支援センター","province":"東京都","city":"品川区","address":"品川区平塚2-12-2品川区立家庭あんしんセンター内","lat":35.61694,"lon":139.71266},{"name":"＊?品川区男女共同参画センター","province":"東京都","city":"品川区","address":"品川区東大井5-18-1","lat":35.606223,"lon":139.735889},{"name":"てんとうむし","province":"東京都","city":"品川区","address":"品川区北品川4-1-1松風ビル2階","lat":35.62294,"lon":139.734843},{"name":"アプリ児童デイサービス北品川","province":"東京都","city":"品川区","address":"品川区北品川2-18-2","lat":35.618158,"lon":139.741437},{"name":"ちびっこタイム品川","province":"東京都","city":"品川区","address":"品川区東大井5-23-16-110号","lat":35.604407,"lon":139.737158},{"name":"めるへんキッズ大森園","province":"東京都","city":"品川区","address":"品川区南大井6-16-1サンハイツ大森101号室","lat":35.591441,"lon":139.730539},{"name":"スキップランド　西大井","province":"東京都","city":"品川区","address":"品川区西大井6-14-15","lat":35.599776,"lon":139.717037},{"name":"アプリ児童デイサービス不動前","province":"東京都","city":"品川区","address":"品川区西五反田三丁目13番14号ロイヤルコート","lat":35.628086,"lon":139.714056},{"name":"品川区立品川児童学園分室","province":"東京都","city":"品川区","address":"品川区戸越6-16-14","lat":35.607372,"lon":139.715378},{"name":"療育スタジオ・ピコ　戸越公園教室","province":"東京都","city":"品川区","address":"品川区豊町3-1-1ひかりオークス1階","lat":35.609,"lon":139.719884},{"name":"キッズアイランドワイキキ","province":"東京都","city":"品川区","address":"品川区二葉4-4-19","lat":35.602334,"lon":139.715223},{"name":"スタジオそら品川戸越","province":"東京都","city":"品川区","address":"品川区東中延1-3-11","lat":35.611277,"lon":139.714126},{"name":"このこのリーフ　中延","province":"東京都","city":"品川区","address":"品川区中延3-13-19芙蓉ハイツ101号","lat":35.606489,"lon":139.71134},{"name":"みんなの家　ゆめっこ","province":"東京都","city":"品川区","address":"品川区中延6-3-16","lat":35.602767,"lon":139.71256},{"name":"品川区子育て支援センター","province":"東京都","city":"品川区","address":"品川区平塚2-12-2品川区立家庭あんしんセンター内","lat":35.617063,"lon":139.71282},{"name":"品川区子ども家庭支援センター","province":"東京都","city":"品川区","address":"品川区二葉1-7-15","lat":35.60878,"lon":139.72881},{"name":"品川区子育て支援センター","province":"東京都","city":"品川区","address":"品川区平塚2-12-2品川区立家庭あんしんセンター内","lat":35.61694,"lon":139.71266},{"name":"＊?品川区男女共同参画センター","province":"東京都","city":"品川区","address":"品川区東大井5-18-1","lat":35.606223,"lon":139.735889},{"name":"てんとうむし","province":"東京都","city":"品川区","address":"品川区北品川4-1-1松風ビル2階","lat":35.62294,"lon":139.734843},{"name":"アプリ児童デイサービス北品川","province":"東京都","city":"品川区","address":"品川区北品川2-18-2","lat":35.618158,"lon":139.741437},{"name":"ちびっこタイム品川","province":"東京都","city":"品川区","address":"品川区東大井5-23-16-110号","lat":35.604407,"lon":139.737158},{"name":"めるへんキッズ大森園","province":"東京都","city":"品川区","address":"品川区南大井6-16-1サンハイツ大森101号室","lat":35.591441,"lon":139.730539},{"name":"スキップランド　西大井","province":"東京都","city":"品川区","address":"品川区西大井6-14-15","lat":35.599776,"lon":139.717037},{"name":"アプリ児童デイサービス不動前","province":"東京都","city":"品川区","address":"品川区西五反田三丁目13番14号ロイヤルコート","lat":35.628086,"lon":139.714056},{"name":"品川区立品川児童学園分室","province":"東京都","city":"品川区","address":"品川区戸越6-16-14","lat":35.607372,"lon":139.715378},{"name":"療育スタジオ・ピコ　戸越公園教室","province":"東京都","city":"品川区","address":"品川区豊町3-1-1ひかりオークス1階","lat":35.609,"lon":139.719884},{"name":"キッズアイランドワイキキ","province":"東京都","city":"品川区","address":"品川区二葉4-4-19","lat":35.602334,"lon":139.715223},{"name":"スタジオそら品川戸越","province":"東京都","city":"品川区","address":"品川区東中延1-3-11","lat":35.611277,"lon":139.714126},{"name":"このこのリーフ　中延","province":"東京都","city":"品川区","address":"品川区中延3-13-19芙蓉ハイツ101号","lat":35.606489,"lon":139.71134},{"name":"みんなの家　ゆめっこ","province":"東京都","city":"品川区","address":"品川区中延6-3-16","lat":35.602767,"lon":139.71256},{"name":"品川区子育て支援センター","province":"東京都","city":"品川区","address":"品川区平塚2-12-2品川区立家庭あんしんセンター内","lat":35.617063,"lon":139.71282},{"name":"品川区子ども家庭支援センター","province":"東京都","city":"品川区","address":"品川区二葉1-7-15","lat":35.60878,"lon":139.72881},{"name":"品川区子育て支援センター","province":"東京都","city":"品川区","address":"品川区平塚2-12-2品川区立家庭あんしんセンター内","lat":35.61694,"lon":139.71266},{"name":"＊?品川区男女共同参画センター","province":"東京都","city":"品川区","address":"品川区東大井5-18-1","lat":35.606223,"lon":139.735889},{"name":"てんとうむし","province":"東京都","city":"品川区","address":"品川区北品川4-1-1松風ビル2階","lat":35.62294,"lon":139.734843},{"name":"アプリ児童デイサービス北品川","province":"東京都","city":"品川区","address":"品川区北品川2-18-2","lat":35.618158,"lon":139.741437},{"name":"ちびっこタイム品川","province":"東京都","city":"品川区","address":"品川区東大井5-23-16-110号","lat":35.604407,"lon":139.737158},{"name":"めるへんキッズ大森園","province":"東京都","city":"品川区","address":"品川区南大井6-16-1サンハイツ大森101号室","lat":35.591441,"lon":139.730539},{"name":"スキップランド　西大井","province":"東京都","city":"品川区","address":"品川区西大井6-14-15","lat":35.599776,"lon":139.717037},{"name":"アプリ児童デイサービス不動前","province":"東京都","city":"品川区","address":"品川区西五反田三丁目13番14号ロイヤルコート","lat":35.628086,"lon":139.714056},{"name":"品川区立品川児童学園分室","province":"東京都","city":"品川区","address":"品川区戸越6-16-14","lat":35.607372,"lon":139.715378},{"name":"療育スタジオ・ピコ　戸越公園教室","province":"東京都","city":"品川区","address":"品川区豊町3-1-1ひかりオークス1階","lat":35.609,"lon":139.719884},{"name":"キッズアイランドワイキキ","province":"東京都","city":"品川区","address":"品川区二葉4-4-19","lat":35.602334,"lon":139.715223},{"name":"スタジオそら品川戸越","province":"東京都","city":"品川区","address":"品川区東中延1-3-11","lat":35.611277,"lon":139.714126},{"name":"このこのリーフ　中延","province":"東京都","city":"品川区","address":"品川区中延3-13-19芙蓉ハイツ101号","lat":35.606489,"lon":139.71134},{"name":"みんなの家　ゆめっこ","province":"東京都","city":"品川区","address":"品川区中延6-3-16","lat":35.602767,"lon":139.71256},{"name":"品川区子育て支援センター","province":"東京都","city":"品川区","address":"品川区平塚2-12-2品川区立家庭あんしんセンター内","lat":35.617063,"lon":139.71282},{"name":"品川区子ども家庭支援センター","province":"東京都","city":"品川区","address":"品川区二葉1-7-15","lat":35.60878,"lon":139.72881},{"name":"品川区子育て支援センター","province":"東京都","city":"品川区","address":"品川区平塚2-12-2品川区立家庭あんしんセンター内","lat":35.61694,"lon":139.71266},{"name":"＊?品川区男女共同参画センター","province":"東京都","city":"品川区","address":"品川区東大井5-18-1","lat":35.606223,"lon":139.735889},{"name":"てんとうむし","province":"東京都","city":"品川区","address":"品川区北品川4-1-1松風ビル2階","lat":35.62294,"lon":139.734843},{"name":"アプリ児童デイサービス北品川","province":"東京都","city":"品川区","address":"品川区北品川2-18-2","lat":35.618158,"lon":139.741437},{"name":"ちびっこタイム品川","province":"東京都","city":"品川区","address":"品川区東大井5-23-16-110号","lat":35.604407,"lon":139.737158},{"name":"めるへんキッズ大森園","province":"東京都","city":"品川区","address":"品川区南大井6-16-1サンハイツ大森101号室","lat":35.591441,"lon":139.730539},{"name":"スキップランド　西大井","province":"東京都","city":"品川区","address":"品川区西大井6-14-15","lat":35.599776,"lon":139.717037},{"name":"アプリ児童デイサービス不動前","province":"東京都","city":"品川区","address":"品川区西五反田三丁目13番14号ロイヤルコート","lat":35.628086,"lon":139.714056},{"name":"品川区立品川児童学園分室","province":"東京都","city":"品川区","address":"品川区戸越6-16-14","lat":35.607372,"lon":139.715378},{"name":"療育スタジオ・ピコ　戸越公園教室","province":"東京都","city":"品川区","address":"品川区豊町3-1-1ひかりオークス1階","lat":35.609,"lon":139.719884},{"name":"キッズアイランドワイキキ","province":"東京都","city":"品川区","address":"品川区二葉4-4-19","lat":35.602334,"lon":139.715223},{"name":"スタジオそら品川戸越","province":"東京都","city":"品川区","address":"品川区東中延1-3-11","lat":35.611277,"lon":139.714126},{"name":"このこのリーフ　中延","province":"東京都","city":"品川区","address":"品川区中延3-13-19芙蓉ハイツ101号","lat":35.606489,"lon":139.71134},{"name":"みんなの家　ゆめっこ","province":"東京都","city":"品川区","address":"品川区中延6-3-16","lat":35.602767,"lon":139.71256},{"name":"品川区子育て支援センター","province":"東京都","city":"品川区","address":"品川区平塚2-12-2品川区立家庭あんしんセンター内","lat":35.617063,"lon":139.71282},{"name":"品川区子ども家庭支援センター","province":"東京都","city":"品川区","address":"品川区二葉1-7-15","lat":35.60878,"lon":139.72881},{"name":"品川区子育て支援センター","province":"東京都","city":"品川区","address":"品川区平塚2-12-2品川区立家庭あんしんセンター内","lat":35.61694,"lon":139.71266},{"name":"＊?品川区男女共同参画センター","province":"東京都","city":"品川区","address":"品川区東大井5-18-1","lat":35.606223,"lon":139.735889},{"name":"てんとうむし","province":"東京都","city":"品川区","address":"品川区北品川4-1-1松風ビル2階","lat":35.62294,"lon":139.734843},{"name":"アプリ児童デイサービス北品川","province":"東京都","city":"品川区","address":"品川区北品川2-18-2","lat":35.618158,"lon":139.741437},{"name":"ちびっこタイム品川","province":"東京都","city":"品川区","address":"品川区東大井5-23-16-110号","lat":35.604407,"lon":139.737158},{"name":"めるへんキッズ大森園","province":"東京都","city":"品川区","address":"品川区南大井6-16-1サンハイツ大森101号室","lat":35.591441,"lon":139.730539},{"name":"スキップランド　西大井","province":"東京都","city":"品川区","address":"品川区西大井6-14-15","lat":35.599776,"lon":139.717037},{"name":"アプリ児童デイサービス不動前","province":"東京都","city":"品川区","address":"品川区西五反田三丁目13番14号ロイヤルコート","lat":35.628086,"lon":139.714056},{"name":"品川区立品川児童学園分室","province":"東京都","city":"品川区","address":"品川区戸越6-16-14","lat":35.607372,"lon":139.715378},{"name":"療育スタジオ・ピコ　戸越公園教室","province":"東京都","city":"品川区","address":"品川区豊町3-1-1ひかりオークス1階","lat":35.609,"lon":139.719884},{"name":"キッズアイランドワイキキ","province":"東京都","city":"品川区","address":"品川区二葉4-4-19","lat":35.602334,"lon":139.715223},{"name":"スタジオそら品川戸越","province":"東京都","city":"品川区","address":"品川区東中延1-3-11","lat":35.611277,"lon":139.714126},{"name":"このこのリーフ　中延","province":"東京都","city":"品川区","address":"品川区中延3-13-19芙蓉ハイツ101号","lat":35.606489,"lon":139.71134},{"name":"みんなの家　ゆめっこ","province":"東京都","city":"品川区","address":"品川区中延6-3-16","lat":35.602767,"lon":139.71256},{"name":"品川区子育て支援センター","province":"東京都","city":"品川区","address":"品川区平塚2-12-2品川区立家庭あんしんセンター内","lat":35.617063,"lon":139.71282},{"name":"品川区子ども家庭支援センター","province":"東京都","city":"品川区","address":"品川区二葉1-7-15","lat":35.60878,"lon":139.72881},{"name":"品川区子育て支援センター","province":"東京都","city":"品川区","address":"品川区平塚2-12-2品川区立家庭あんしんセンター内","lat":35.61694,"lon":139.71266},{"name":"＊?品川区男女共同参画センター","province":"東京都","city":"品川区","address":"品川区東大井5-18-1","lat":35.606223,"lon":139.735889},{"name":"てんとうむし","province":"東京都","city":"品川区","address":"品川区北品川4-1-1松風ビル2階","lat":35.62294,"lon":139.734843},{"name":"アプリ児童デイサービス北品川","province":"東京都","city":"品川区","address":"品川区北品川2-18-2","lat":35.618158,"lon":139.741437},{"name":"ちびっこタイム品川","province":"東京都","city":"品川区","address":"品川区東大井5-23-16-110号","lat":35.604407,"lon":139.737158},{"name":"めるへんキッズ大森園","province":"東京都","city":"品川区","address":"品川区南大井6-16-1サンハイツ大森101号室","lat":35.591441,"lon":139.730539},{"name":"スキップランド　西大井","province":"東京都","city":"品川区","address":"品川区西大井6-14-15","lat":35.599776,"lon":139.717037},{"name":"アプリ児童デイサービス不動前","province":"東京都","city":"品川区","address":"品川区西五反田三丁目13番14号ロイヤルコート","lat":35.628086,"lon":139.714056},{"name":"品川区立品川児童学園分室","province":"東京都","city":"品川区","address":"品川区戸越6-16-14","lat":35.607372,"lon":139.715378},{"name":"療育スタジオ・ピコ　戸越公園教室","province":"東京都","city":"品川区","address":"品川区豊町3-1-1ひかりオークス1階","lat":35.609,"lon":139.719884},{"name":"キッズアイランドワイキキ","province":"東京都","city":"品川区","address":"品川区二葉4-4-19","lat":35.602334,"lon":139.715223},{"name":"スタジオそら品川戸越","province":"東京都","city":"品川区","address":"品川区東中延1-3-11","lat":35.611277,"lon":139.714126},{"name":"このこのリーフ　中延","province":"東京都","city":"品川区","address":"品川区中延3-13-19芙蓉ハイツ101号","lat":35.606489,"lon":139.71134},{"name":"みんなの家　ゆめっこ","province":"東京都","city":"品川区","address":"品川区中延6-3-16","lat":35.602767,"lon":139.71256},{"name":"品川区子育て支援センター","province":"東京都","city":"品川区","address":"品川区平塚2-12-2品川区立家庭あんしんセンター内","lat":35.617063,"lon":139.71282},{"name":"品川区子ども家庭支援センター","province":"東京都","city":"品川区","address":"品川区二葉1-7-15","lat":35.60878,"lon":139.72881},{"name":"品川区子育て支援センター","province":"東京都","city":"品川区","address":"品川区平塚2-12-2品川区立家庭あんしんセンター内","lat":35.61694,"lon":139.71266},{"name":"＊?品川区男女共同参画センター","province":"東京都","city":"品川区","address":"品川区東大井5-18-1","lat":35.606223,"lon":139.735889},{"name":"てんとうむし","province":"東京都","city":"品川区","address":"品川区北品川4-1-1松風ビル2階","lat":35.62294,"lon":139.734843},{"name":"アプリ児童デイサービス北品川","province":"東京都","city":"品川区","address":"品川区北品川2-18-2","lat":35.618158,"lon":139.741437},{"name":"ちびっこタイム品川","province":"東京都","city":"品川区","address":"品川区東大井5-23-16-110号","lat":35.604407,"lon":139.737158},{"name":"めるへんキッズ大森園","province":"東京都","city":"品川区","address":"品川区南大井6-16-1サンハイツ大森101号室","lat":35.591441,"lon":139.730539},{"name":"スキップランド　西大井","province":"東京都","city":"品川区","address":"品川区西大井6-14-15","lat":35.599776,"lon":139.717037},{"name":"アプリ児童デイサービス不動前","province":"東京都","city":"品川区","address":"品川区西五反田三丁目13番14号ロイヤルコート","lat":35.628086,"lon":139.714056},{"name":"品川区立品川児童学園分室","province":"東京都","city":"品川区","address":"品川区戸越6-16-14","lat":35.607372,"lon":139.715378},{"name":"療育スタジオ・ピコ　戸越公園教室","province":"東京都","city":"品川区","address":"品川区豊町3-1-1ひかりオークス1階","lat":35.609,"lon":139.719884},{"name":"キッズアイランドワイキキ","province":"東京都","city":"品川区","address":"品川区二葉4-4-19","lat":35.602334,"lon":139.715223},{"name":"スタジオそら品川戸越","province":"東京都","city":"品川区","address":"品川区東中延1-3-11","lat":35.611277,"lon":139.714126},{"name":"このこのリーフ　中延","province":"東京都","city":"品川区","address":"品川区中延3-13-19芙蓉ハイツ101号","lat":35.606489,"lon":139.71134},{"name":"みんなの家　ゆめっこ","province":"東京都","city":"品川区","address":"品川区中延6-3-16","lat":35.602767,"lon":139.71256},{"name":"品川区子育て支援センター","province":"東京都","city":"品川区","address":"品川区平塚2-12-2品川区立家庭あんしんセンター内","lat":35.617063,"lon":139.71282},{"name":"品川区子ども家庭支援センター","province":"東京都","city":"品川区","address":"品川区二葉1-7-15","lat":35.60878,"lon":139.72881},{"name":"品川区子育て支援センター","province":"東京都","city":"品川区","address":"品川区平塚2-12-2品川区立家庭あんしんセンター内","lat":35.61694,"lon":139.71266},{"name":"＊?品川区男女共同参画センター","province":"東京都","city":"品川区","address":"品川区東大井5-18-1","lat":35.606223,"lon":139.735889}]}