{"keyword":"朝","data":[{"name":"フューネラルジャパン株式会社","province":"東京都","city":"品川区","address":"東京都品川区大井1丁目53-7","lat":35.60456746,"lon":139.73380519},{"name":"クロモンこども食堂","province":"東京都","city":"品川区","address":"東京都品川区北品川1丁目","lat":35.62126015,"lon":139.74102346},{"name":"となんこども食堂","province":"東京都","city":"品川区","address":"東京都品川区南品川6丁目6-7","lat":35.61190568,"lon":139.74000445},{"name":"ぬくもりこども食堂","province":"東京都","city":"品川区","address":"東京都品川区大井3丁目3-4","lat":35.60366747,"lon":139.73137485},{"name":"子ども食堂　ふたば","province":"東京都","city":"品川区","address":"東京都品川区二葉4丁目21-4","lat":35.60211999,"lon":139.71715936},{"name":"宿題外来","province":"東京都","city":"品川区","address":"東京都品川区豊町4丁目18-21","lat":35.6060696,"lon":139.72034785},{"name":"子どもゆめ食堂　だんらん","province":"東京都","city":"品川区","address":"東京都品川区西大井2丁目5-21","lat":35.59925377,"lon":139.72186462},{"name":"東五反田食堂","province":"東京都","city":"品川区","address":"東京都品川区東五反田4丁目11-6","lat":35.63025033,"lon":139.7259855},{"name":"こども食堂　ビストロ　ウッフ","province":"東京都","city":"品川区","address":"東京都品川区中延6丁目3-14","lat":35.60282261,"lon":139.71285692},{"name":"こども食堂　あかゆ","province":"東京都","city":"品川区","address":"東京都品川区小山4丁目1-6","lat":35.61980112,"lon":139.70267398},{"name":"福栄みらい塾","province":"東京都","city":"品川区","address":"東京都品川区東品川3丁目1-8","lat":35.61714416,"lon":139.74681759},{"name":"オリーブの樹","province":"東京都","city":"品川区","address":"東京都品川区東大井2丁目23-3","lat":35.59841841,"lon":139.73834677},{"name":"こども食堂ｗａｉｗａｉ","province":"東京都","city":"品川区","address":"東京都品川区中延4丁目4-1","lat":35.60627499,"lon":139.71137083},{"name":"なるとキッチン子ども食堂","province":"東京都","city":"品川区","address":"東京都品川区西五反田2丁目26-4","lat":35.62501749,"lon":139.72051671},{"name":"トントンみんなの子ども食堂","province":"東京都","city":"品川区","address":"東京都品川区二葉3丁目3-5","lat":35.60270607,"lon":139.7193786},{"name":"子ども食堂ぬまフェス！！","province":"東京都","city":"品川区","address":"東京都品川区中延4丁目19-9","lat":35.60410021,"lon":139.71021266},{"name":"てしおこども食堂","province":"東京都","city":"品川区","address":"東京都品川区小山6丁目5-10","lat":35.61436284,"lon":139.69860784},{"name":"スタジオMINAMI子ども食堂部","province":"東京都","city":"品川区","address":"東京都品川区中延1丁目10-19","lat":35.61261594,"lon":139.71049018},{"name":"旗の台ひかりっ子食堂","province":"東京都","city":"品川区","address":"東京都品川区旗の台6丁目22-24","lat":35.6064554,"lon":139.70109675},{"name":"みつばちマーヤこども食堂","province":"東京都","city":"品川区","address":"東京都品川区荏原7丁目6-9","lat":35.61176317,"lon":139.70035222},{"name":"ComidasTKD子ども食堂","province":"東京都","city":"品川区","address":"東京都品川区大崎3丁目10-16","lat":35.61955433,"lon":139.72441656},{"name":"あーちゃんの子ども食堂","province":"東京都","city":"品川区","address":"東京都品川区西品川2丁目5-10","lat":35.61407448,"lon":139.72737761},{"name":"歌の力子ども食堂","province":"東京都","city":"品川区","address":"東京都品川区大井2丁目27-15","lat":35.60430903,"lon":139.73049434},{"name":"クラブ・ターニー","province":"東京都","city":"品川区","address":"東京都品川区大崎1丁目2-2","lat":35.6222763,"lon":139.72729122},{"name":"しなちる子ども食堂","province":"東京都","city":"品川区","address":"東京都品川区南大井1丁目1-18","lat":35.59796846,"lon":139.7380857},{"name":"ゆたか子ども食堂","province":"東京都","city":"品川区","address":"東京都品川区豊町4丁目10-9","lat":35.60663072,"lon":139.72331982},{"name":"はたのだい子ども食堂","province":"東京都","city":"品川区","address":"東京都品川区旗の台3丁目2-9","lat":35.60506117,"lon":139.70685182},{"name":"かもめこども食堂","province":"東京都","city":"品川区","address":"東京都品川区東品川1丁目29-6","lat":35.62039365,"lon":139.74314554},{"name":"レガーメ子ども食堂","province":"東京都","city":"品川区","address":"東京都品川区戸越6丁目5-5","lat":35.60886922,"lon":139.71633144},{"name":"西大井ひかり食堂","province":"東京都","city":"品川区","address":"東京都品川区西大井2丁目4-4","lat":35.59995094,"lon":139.72248399},{"name":"まるごはんこども食堂","province":"東京都","city":"品川区","address":"東京都品川区西五反田4丁目31-23","lat":35.62708381,"lon":139.71379224},{"name":"かみしながわ食堂","province":"東京都","city":"品川区","address":"東京都品川区南品川4丁目15-11","lat":35.61284999,"lon":139.73917393},{"name":"しーしーきっちん子ども食堂","province":"東京都","city":"品川区","address":"東京都品川区南品川2丁目9-2","lat":35.61445823,"lon":139.74218752},{"name":"こどもダイニングほかげ","province":"東京都","city":"品川区","address":"東京都品川区中延6丁目1-21","lat":35.60320031,"lon":139.71023213},{"name":"子ども食堂ひよこ","province":"東京都","city":"品川区","address":"東京都品川区八潮5丁目10-27","lat":35.60015206,"lon":139.7512541},{"name":"八潮福祉センター前","province":"東京都","city":"品川区","address":"東京都品川区八潮1丁目4-1","lat":35.60946205,"lon":139.75402291},{"name":"北品川二丁目","province":"東京都","city":"品川区","address":"東京都品川区北品川2丁目34-3","lat":35.61659961,"lon":139.74127362},{"name":"北埠頭橋","province":"東京都","city":"品川区","address":"東京都品川区東品川3丁目27-16","lat":35.61165873,"lon":139.74736499},{"name":"東品川三丁目","province":"東京都","city":"品川区","address":"東京都品川区東品川3丁目6-7","lat":35.61553327,"lon":139.74747316},{"name":"八潮橋","province":"東京都","city":"品川区","address":"東京都品川区東品川4丁目11-34","lat":35.607301,"lon":139.74804846},{"name":"南品川五丁目","province":"東京都","city":"品川区","address":"東京都品川区南品川5丁目3-13","lat":35.61132248,"lon":139.74175433},{"name":"新東海橋","province":"東京都","city":"品川区","address":"東京都品川区東品川1丁目32-3","lat":35.62012434,"lon":139.74618419},{"name":"東品川公園入口","province":"東京都","city":"品川区","address":"東京都品川区東品川3丁目15-10","lat":35.61392513,"lon":139.74735102},{"name":"居木橋","province":"東京都","city":"品川区","address":"東京都品川区北品川4丁目10-5","lat":35.61812701,"lon":139.73499073},{"name":"西品川三丁目","province":"東京都","city":"品川区","address":"東京都品川区大崎2丁目10-14","lat":35.61760745,"lon":139.72900236},{"name":"東品川海上公園","province":"東京都","city":"品川区","address":"東京都品川区東品川3丁目32-36","lat":35.61646105,"lon":139.75092286},{"name":"都立高専前","province":"東京都","city":"品川区","address":"東京都品川区東大井1丁目11-25","lat":35.60682891,"lon":139.75000944},{"name":"品川職業技術専門校前","province":"東京都","city":"品川区","address":"東京都品川区東品川3丁目32-3","lat":35.6119477,"lon":139.75048419},{"name":"新八ツ山橋","province":"東京都","city":"品川区","address":"東京都品川区北品川4丁目7","lat":35.62179607,"lon":139.73699321},{"name":"北品川六丁目","province":"東京都","city":"品川区","address":"東京都品川区東五反田3丁目21-5","lat":35.6249733,"lon":139.73137689},{"name":"東海道北品川","province":"東京都","city":"品川区","address":"東京都品川区北品川2丁目24-5","lat":35.61814672,"lon":139.74379558},{"name":"品川図書館前","province":"東京都","city":"品川区","address":"東京都品川区北品川2丁目30","lat":35.6173746,"lon":139.74390116},{"name":"品川シーサイド駅","province":"東京都","city":"品川区","address":"東京都品川区東品川4丁目13-14","lat":35.60853703,"lon":139.75024546},{"name":"新東海橋東","province":"東京都","city":"品川区","address":"東京都品川区東品川2丁目2-28","lat":35.62179923,"lon":139.74896723},{"name":"八潮橋北","province":"東京都","city":"品川区","address":"東京都品川区東品川4丁目12-1","lat":35.60854805,"lon":139.7479262},{"name":"品川区役所前","province":"東京都","city":"品川区","address":"東京都品川区広町2丁目1-36","lat":35.60881128,"lon":139.73028866},{"name":"東品川シルバーセンター前","province":"東京都","city":"品川区","address":"東京都品川区東品川3丁目32-12","lat":35.61330587,"lon":139.75067301},{"name":"百反坂下","province":"東京都","city":"品川区","address":"東京都品川区西品川3丁目21-8","lat":35.61626598,"lon":139.73041617},{"name":"品川区役所前第二","province":"東京都","city":"品川区","address":"東京都品川区西品川1丁目27-14","lat":35.60922229,"lon":139.72882487},{"name":"大井町駅東口","province":"東京都","city":"品川区","address":"東京都品川区東大井5丁目16-5","lat":35.60713943,"lon":139.73552164},{"name":"立会川","province":"東京都","city":"品川区","address":"東京都品川区東大井2丁目23-2","lat":35.59826843,"lon":139.738369},{"name":"大井町駅西口","province":"東京都","city":"品川区","address":"東京都品川区南大井1丁目3-12","lat":35.5969797,"lon":139.73831627},{"name":"ゼームス坂上","province":"東京都","city":"品川区","address":"東京都品川区東大井5丁目15-4","lat":35.60706171,"lon":139.73642713},{"name":"鈴ヶ森","province":"東京都","city":"品川区","address":"東京都品川区南大井3丁目10","lat":35.59062486,"lon":139.73578617},{"name":"大井権現","province":"東京都","city":"品川区","address":"東京都品川区南大井1丁目1-16","lat":35.59775459,"lon":139.73799126},{"name":"西大井二丁目","province":"東京都","city":"品川区","address":"東京都品川区西大井2丁目4-7","lat":35.59992319,"lon":139.72314505},{"name":"大井一丁目","province":"東京都","city":"品川区","address":"東京都品川区大井1丁目37-10","lat":35.6048062,"lon":139.7307693},{"name":"鮫洲試験場前","province":"東京都","city":"品川区","address":"東京都品川区東大井1丁目12-5","lat":35.6038986,"lon":139.74647094},{"name":"品川区役所入口","province":"東京都","city":"品川区","address":"東京都品川区大井1丁目16-2","lat":35.60764196,"lon":139.73016647},{"name":"鈴ヶ森第二","province":"東京都","city":"品川区","address":"東京都品川区南大井2丁目10-6","lat":35.59019161,"lon":139.73658614},{"name":"大井一丁目第二","province":"東京都","city":"品川区","address":"東京都品川区大井1丁目35-3","lat":35.60507011,"lon":139.73187477},{"name":"大井町駅西口第二","province":"東京都","city":"品川区","address":"東京都品川区大井1丁目10-3","lat":35.60745598,"lon":139.73317737},{"name":"ＪＲ大井町駅南","province":"東京都","city":"品川区","address":"東京都品川区大井1丁目50-5","lat":35.60568679,"lon":139.73414401},{"name":"ＪＲ大井町駅前","province":"東京都","city":"品川区","address":"東京都品川区大井1丁目50-5","lat":35.60568679,"lon":139.73414401},{"name":"大井一本橋","province":"東京都","city":"品川区","address":"東京都品川区大井1丁目20-29","lat":35.60706703,"lon":139.73012762},{"name":"きゅりあん裏","province":"東京都","city":"品川区","address":"東京都品川区東大井5丁目23-37","lat":35.60514807,"lon":139.73690493},{"name":"大井鎧橋","province":"東京都","city":"品川区","address":"東京都品川区大井1丁目49-15","lat":35.60605615,"lon":139.73337462},{"name":"ＪＲ大井工場前","province":"東京都","city":"品川区","address":"東京都品川区大井1丁目1","lat":35.60767819,"lon":139.73352455},{"name":"大森駅北口入口","province":"東京都","city":"品川区","address":"東京都品川区南大井6丁目23-1","lat":35.58961922,"lon":139.73039492},{"name":"大井町駅東口第二","province":"東京都","city":"品川区","address":"東京都品川区大井1丁目2","lat":35.60672556,"lon":139.73428286},{"name":"八潮地域センター前","province":"東京都","city":"品川区","address":"東京都品川区八潮5丁目10-27","lat":35.60015206,"lon":139.7512541},{"name":"ちょうちょ橋","province":"東京都","city":"品川区","address":"東京都品川区八潮5丁目8","lat":35.5968109,"lon":139.75291526},{"name":"中央海浜公園前","province":"東京都","city":"品川区","address":"東京都品川区八潮4丁目2","lat":35.59275297,"lon":139.74978513},{"name":"大井海浜公園前","province":"東京都","city":"品川区","address":"東京都品川区八潮4丁目1","lat":35.59123385,"lon":139.75266834},{"name":"大井町駅入口","province":"東京都","city":"品川区","address":"東京都品川区大井2丁目1-5","lat":35.6065393,"lon":139.72985265},{"name":"五反田駅旧ガード下","province":"東京都","city":"品川区","address":"東京都品川区東五反田1丁目26-6","lat":35.62585636,"lon":139.7240636},{"name":"目黒駅西口前","province":"東京都","city":"品川区","address":"東京都品川区上大崎4丁目1","lat":35.633422,"lon":139.71450866},{"name":"大崎広小路","province":"東京都","city":"品川区","address":"東京都品川区西五反田8丁目4-13","lat":35.6229261,"lon":139.72211664},{"name":"目黒駅東口前","province":"東京都","city":"品川区","address":"東京都品川区上大崎3丁目1","lat":35.63269988,"lon":139.71636408},{"name":"西五反田一丁目","province":"東京都","city":"品川区","address":"東京都品川区西五反田1丁目33-10","lat":35.6240204,"lon":139.72136667},{"name":"五反田駅新ガード下","province":"東京都","city":"品川区","address":"東京都品川区東五反田1丁目26-1","lat":35.6265035,"lon":139.72369972},{"name":"目蒲線ガード下","province":"東京都","city":"品川区","address":"東京都品川区西五反田5丁目1-1","lat":35.62658389,"lon":139.71501159},{"name":"上大崎二丁目","province":"東京都","city":"品川区","address":"東京都品川区上大崎2丁目25-5","lat":35.63461074,"lon":139.71476139},{"name":"上大崎三丁目第二","province":"東京都","city":"品川区","address":"東京都品川区西五反田2丁目1-1","lat":35.62813381,"lon":139.72050273},{"name":"大崎四丁目","province":"東京都","city":"品川区","address":"東京都品川区大崎4丁目2-2","lat":35.62231509,"lon":139.72326656},{"name":"目黒駅ビル前","province":"東京都","city":"品川区","address":"東京都品川区上大崎2丁目15-21","lat":35.63442468,"lon":139.71631958},{"name":"大崎駅西口第二","province":"東京都","city":"品川区","address":"東京都品川区大崎1丁目21-4","lat":35.61970165,"lon":139.72879675},{"name":"大崎駅西口","province":"東京都","city":"品川区","address":"東京都品川区大崎2丁目1-1","lat":35.61837956,"lon":139.72802742},{"name":"平塚橋交番前","province":"東京都","city":"品川区","address":"東京都品川区西中延1丁目1-10","lat":35.61549615,"lon":139.7092402},{"name":"戸越銀座","province":"東京都","city":"品川区","address":"東京都品川区平塚1丁目6-14","lat":35.61544906,"lon":139.71649791},{"name":"昭和医大前","province":"東京都","city":"品川区","address":"東京都品川区旗の台1丁目2-14","lat":35.60944957,"lon":139.70490466},{"name":"昭和医大前第二","province":"東京都","city":"品川区","address":"東京都品川区旗の台1丁目6-16","lat":35.60916903,"lon":139.7039603},{"name":"旗の台駅入口","province":"東京都","city":"品川区","address":"東京都品川区旗の台1丁目4-13","lat":35.60742477,"lon":139.70386869},{"name":"旗の台二丁目","province":"東京都","city":"品川区","address":"東京都品川区旗の台2丁目11-6","lat":35.60577768,"lon":139.70077457},{"name":"戸越銀座入口","province":"東京都","city":"品川区","address":"東京都品川区平塚3丁目2-17","lat":35.61631275,"lon":139.71070949},{"name":"小山四丁目","province":"東京都","city":"品川区","address":"東京都品川区小山4丁目4-7","lat":35.61852353,"lon":139.70432109},{"name":"荏原四丁目","province":"東京都","city":"品川区","address":"東京都品川区荏原4丁目1-1","lat":35.61760698,"lon":139.70549602},{"name":"小山三丁目","province":"東京都","city":"品川区","address":"東京都品川区小山4丁目4-22","lat":35.61905678,"lon":139.70358781},{"name":"第二延山小角","province":"東京都","city":"品川区","address":"東京都品川区旗の台1丁目2-1","lat":35.61073553,"lon":139.70387693},{"name":"武蔵小山駅西","province":"東京都","city":"品川区","address":"東京都品川区小山4丁目2-1","lat":35.6196567,"lon":139.70292952},{"name":"戸越四丁目東","province":"東京都","city":"品川区","address":"東京都品川区戸越5丁目6-4","lat":35.61041631,"lon":139.71847011},{"name":"大森北一丁目","province":"東京都","city":"品川区","address":"東京都品川区南大井3丁目35-10","lat":35.58753902,"lon":139.73258653},{"name":"大森北五差路","province":"東京都","city":"品川区","address":"東京都品川区南大井6丁目27-20","lat":35.58751393,"lon":139.73003949},{"name":"大森海岸駅西","province":"東京都","city":"品川区","address":"東京都品川区南大井3丁目31","lat":35.58793351,"lon":139.73518633},{"name":"大森駅東口広場前","province":"東京都","city":"品川区","address":"東京都品川区南大井6丁目28-8","lat":35.5879583,"lon":139.72972838},{"name":"区立戸越公園","province":"東京都","city":"品川区","address":"東京都品川区豊町2丁目1-30","lat":35.61109965,"lon":139.72238087},{"name":"区立しおじ公園","province":"東京都","city":"品川区","address":"東京都品川区八潮5丁目6","lat":35.59734124,"lon":139.74955159},{"name":"都立八潮高等学校","province":"東京都","city":"品川区","address":"東京都品川区東品川3丁目27-22","lat":35.61185035,"lon":139.74660949},{"name":"フューネラルジャパン株式会社","province":"東京都","city":"品川区","address":"東京都品川区大井1丁目53-7","lat":35.60456746,"lon":139.73380519},{"name":"クロモンこども食堂","province":"東京都","city":"品川区","address":"東京都品川区北品川1丁目","lat":35.62126015,"lon":139.74102346},{"name":"となんこども食堂","province":"東京都","city":"品川区","address":"東京都品川区南品川6丁目6-7","lat":35.61190568,"lon":139.74000445},{"name":"ぬくもりこども食堂","province":"東京都","city":"品川区","address":"東京都品川区大井3丁目3-4","lat":35.60366747,"lon":139.73137485},{"name":"子ども食堂　ふたば","province":"東京都","city":"品川区","address":"東京都品川区二葉4丁目21-4","lat":35.60211999,"lon":139.71715936},{"name":"宿題外来","province":"東京都","city":"品川区","address":"東京都品川区豊町4丁目18-21","lat":35.6060696,"lon":139.72034785},{"name":"子どもゆめ食堂　だんらん","province":"東京都","city":"品川区","address":"東京都品川区西大井2丁目5-21","lat":35.59925377,"lon":139.72186462},{"name":"東五反田食堂","province":"東京都","city":"品川区","address":"東京都品川区東五反田4丁目11-6","lat":35.63025033,"lon":139.7259855},{"name":"こども食堂　ビストロ　ウッフ","province":"東京都","city":"品川区","address":"東京都品川区中延6丁目3-14","lat":35.60282261,"lon":139.71285692},{"name":"こども食堂　あかゆ","province":"東京都","city":"品川区","address":"東京都品川区小山4丁目1-6","lat":35.61980112,"lon":139.70267398},{"name":"福栄みらい塾","province":"東京都","city":"品川区","address":"東京都品川区東品川3丁目1-8","lat":35.61714416,"lon":139.74681759},{"name":"オリーブの樹","province":"東京都","city":"品川区","address":"東京都品川区東大井2丁目23-3","lat":35.59841841,"lon":139.73834677},{"name":"こども食堂ｗａｉｗａｉ","province":"東京都","city":"品川区","address":"東京都品川区中延4丁目4-1","lat":35.60627499,"lon":139.71137083},{"name":"なるとキッチン子ども食堂","province":"東京都","city":"品川区","address":"東京都品川区西五反田2丁目26-4","lat":35.62501749,"lon":139.72051671},{"name":"トントンみんなの子ども食堂","province":"東京都","city":"品川区","address":"東京都品川区二葉3丁目3-5","lat":35.60270607,"lon":139.7193786},{"name":"子ども食堂ぬまフェス！！","province":"東京都","city":"品川区","address":"東京都品川区中延4丁目19-9","lat":35.60410021,"lon":139.71021266},{"name":"てしおこども食堂","province":"東京都","city":"品川区","address":"東京都品川区小山6丁目5-10","lat":35.61436284,"lon":139.69860784},{"name":"スタジオMINAMI子ども食堂部","province":"東京都","city":"品川区","address":"東京都品川区中延1丁目10-19","lat":35.61261594,"lon":139.71049018},{"name":"旗の台ひかりっ子食堂","province":"東京都","city":"品川区","address":"東京都品川区旗の台6丁目22-24","lat":35.6064554,"lon":139.70109675},{"name":"みつばちマーヤこども食堂","province":"東京都","city":"品川区","address":"東京都品川区荏原7丁目6-9","lat":35.61176317,"lon":139.70035222},{"name":"ComidasTKD子ども食堂","province":"東京都","city":"品川区","address":"東京都品川区大崎3丁目10-16","lat":35.61955433,"lon":139.72441656},{"name":"あーちゃんの子ども食堂","province":"東京都","city":"品川区","address":"東京都品川区西品川2丁目5-10","lat":35.61407448,"lon":139.72737761},{"name":"歌の力子ども食堂","province":"東京都","city":"品川区","address":"東京都品川区大井2丁目27-15","lat":35.60430903,"lon":139.73049434},{"name":"クラブ・ターニー","province":"東京都","city":"品川区","address":"東京都品川区大崎1丁目2-2","lat":35.6222763,"lon":139.72729122},{"name":"しなちる子ども食堂","province":"東京都","city":"品川区","address":"東京都品川区南大井1丁目1-18","lat":35.59796846,"lon":139.7380857},{"name":"ゆたか子ども食堂","province":"東京都","city":"品川区","address":"東京都品川区豊町4丁目10-9","lat":35.60663072,"lon":139.72331982},{"name":"はたのだい子ども食堂","province":"東京都","city":"品川区","address":"東京都品川区旗の台3丁目2-9","lat":35.60506117,"lon":139.70685182},{"name":"かもめこども食堂","province":"東京都","city":"品川区","address":"東京都品川区東品川1丁目29-6","lat":35.62039365,"lon":139.74314554},{"name":"レガーメ子ども食堂","province":"東京都","city":"品川区","address":"東京都品川区戸越6丁目5-5","lat":35.60886922,"lon":139.71633144},{"name":"西大井ひかり食堂","province":"東京都","city":"品川区","address":"東京都品川区西大井2丁目4-4","lat":35.59995094,"lon":139.72248399},{"name":"まるごはんこども食堂","province":"東京都","city":"品川区","address":"東京都品川区西五反田4丁目31-23","lat":35.62708381,"lon":139.71379224},{"name":"かみしながわ食堂","province":"東京都","city":"品川区","address":"東京都品川区南品川4丁目15-11","lat":35.61284999,"lon":139.73917393},{"name":"しーしーきっちん子ども食堂","province":"東京都","city":"品川区","address":"東京都品川区南品川2丁目9-2","lat":35.61445823,"lon":139.74218752},{"name":"こどもダイニングほかげ","province":"東京都","city":"品川区","address":"東京都品川区中延6丁目1-21","lat":35.60320031,"lon":139.71023213},{"name":"子ども食堂ひよこ","province":"東京都","city":"品川区","address":"東京都品川区八潮5丁目10-27","lat":35.60015206,"lon":139.7512541},{"name":"八潮福祉センター前","province":"東京都","city":"品川区","address":"東京都品川区八潮1丁目4-1","lat":35.60946205,"lon":139.75402291},{"name":"北品川二丁目","province":"東京都","city":"品川区","address":"東京都品川区北品川2丁目34-3","lat":35.61659961,"lon":139.74127362},{"name":"北埠頭橋","province":"東京都","city":"品川区","address":"東京都品川区東品川3丁目27-16","lat":35.61165873,"lon":139.74736499},{"name":"東品川三丁目","province":"東京都","city":"品川区","address":"東京都品川区東品川3丁目6-7","lat":35.61553327,"lon":139.74747316},{"name":"八潮橋","province":"東京都","city":"品川区","address":"東京都品川区東品川4丁目11-34","lat":35.607301,"lon":139.74804846},{"name":"南品川五丁目","province":"東京都","city":"品川区","address":"東京都品川区南品川5丁目3-13","lat":35.61132248,"lon":139.74175433},{"name":"新東海橋","province":"東京都","city":"品川区","address":"東京都品川区東品川1丁目32-3","lat":35.62012434,"lon":139.74618419},{"name":"東品川公園入口","province":"東京都","city":"品川区","address":"東京都品川区東品川3丁目15-10","lat":35.61392513,"lon":139.74735102},{"name":"居木橋","province":"東京都","city":"品川区","address":"東京都品川区北品川4丁目10-5","lat":35.61812701,"lon":139.73499073},{"name":"西品川三丁目","province":"東京都","city":"品川区","address":"東京都品川区大崎2丁目10-14","lat":35.61760745,"lon":139.72900236},{"name":"東品川海上公園","province":"東京都","city":"品川区","address":"東京都品川区東品川3丁目32-36","lat":35.61646105,"lon":139.75092286},{"name":"都立高専前","province":"東京都","city":"品川区","address":"東京都品川区東大井1丁目11-25","lat":35.60682891,"lon":139.75000944},{"name":"品川職業技術専門校前","province":"東京都","city":"品川区","address":"東京都品川区東品川3丁目32-3","lat":35.6119477,"lon":139.75048419},{"name":"新八ツ山橋","province":"東京都","city":"品川区","address":"東京都品川区北品川4丁目7","lat":35.62179607,"lon":139.73699321},{"name":"北品川六丁目","province":"東京都","city":"品川区","address":"東京都品川区東五反田3丁目21-5","lat":35.6249733,"lon":139.73137689},{"name":"東海道北品川","province":"東京都","city":"品川区","address":"東京都品川区北品川2丁目24-5","lat":35.61814672,"lon":139.74379558},{"name":"品川図書館前","province":"東京都","city":"品川区","address":"東京都品川区北品川2丁目30","lat":35.6173746,"lon":139.74390116},{"name":"品川シーサイド駅","province":"東京都","city":"品川区","address":"東京都品川区東品川4丁目13-14","lat":35.60853703,"lon":139.75024546},{"name":"新東海橋東","province":"東京都","city":"品川区","address":"東京都品川区東品川2丁目2-28","lat":35.62179923,"lon":139.74896723},{"name":"八潮橋北","province":"東京都","city":"品川区","address":"東京都品川区東品川4丁目12-1","lat":35.60854805,"lon":139.7479262},{"name":"品川区役所前","province":"東京都","city":"品川区","address":"東京都品川区広町2丁目1-36","lat":35.60881128,"lon":139.73028866},{"name":"東品川シルバーセンター前","province":"東京都","city":"品川区","address":"東京都品川区東品川3丁目32-12","lat":35.61330587,"lon":139.75067301},{"name":"百反坂下","province":"東京都","city":"品川区","address":"東京都品川区西品川3丁目21-8","lat":35.61626598,"lon":139.73041617},{"name":"品川区役所前第二","province":"東京都","city":"品川区","address":"東京都品川区西品川1丁目27-14","lat":35.60922229,"lon":139.72882487},{"name":"大井町駅東口","province":"東京都","city":"品川区","address":"東京都品川区東大井5丁目16-5","lat":35.60713943,"lon":139.73552164},{"name":"立会川","province":"東京都","city":"品川区","address":"東京都品川区東大井2丁目23-2","lat":35.59826843,"lon":139.738369},{"name":"大井町駅西口","province":"東京都","city":"品川区","address":"東京都品川区南大井1丁目3-12","lat":35.5969797,"lon":139.73831627},{"name":"ゼームス坂上","province":"東京都","city":"品川区","address":"東京都品川区東大井5丁目15-4","lat":35.60706171,"lon":139.73642713},{"name":"鈴ヶ森","province":"東京都","city":"品川区","address":"東京都品川区南大井3丁目10","lat":35.59062486,"lon":139.73578617},{"name":"大井権現","province":"東京都","city":"品川区","address":"東京都品川区南大井1丁目1-16","lat":35.59775459,"lon":139.73799126},{"name":"西大井二丁目","province":"東京都","city":"品川区","address":"東京都品川区西大井2丁目4-7","lat":35.59992319,"lon":139.72314505},{"name":"大井一丁目","province":"東京都","city":"品川区","address":"東京都品川区大井1丁目37-10","lat":35.6048062,"lon":139.7307693},{"name":"鮫洲試験場前","province":"東京都","city":"品川区","address":"東京都品川区東大井1丁目12-5","lat":35.6038986,"lon":139.74647094},{"name":"品川区役所入口","province":"東京都","city":"品川区","address":"東京都品川区大井1丁目16-2","lat":35.60764196,"lon":139.73016647},{"name":"鈴ヶ森第二","province":"東京都","city":"品川区","address":"東京都品川区南大井2丁目10-6","lat":35.59019161,"lon":139.73658614},{"name":"大井一丁目第二","province":"東京都","city":"品川区","address":"東京都品川区大井1丁目35-3","lat":35.60507011,"lon":139.73187477},{"name":"大井町駅西口第二","province":"東京都","city":"品川区","address":"東京都品川区大井1丁目10-3","lat":35.60745598,"lon":139.73317737},{"name":"ＪＲ大井町駅南","province":"東京都","city":"品川区","address":"東京都品川区大井1丁目50-5","lat":35.60568679,"lon":139.73414401},{"name":"ＪＲ大井町駅前","province":"東京都","city":"品川区","address":"東京都品川区大井1丁目50-5","lat":35.60568679,"lon":139.73414401},{"name":"大井一本橋","province":"東京都","city":"品川区","address":"東京都品川区大井1丁目20-29","lat":35.60706703,"lon":139.73012762},{"name":"きゅりあん裏","province":"東京都","city":"品川区","address":"東京都品川区東大井5丁目23-37","lat":35.60514807,"lon":139.73690493},{"name":"大井鎧橋","province":"東京都","city":"品川区","address":"東京都品川区大井1丁目49-15","lat":35.60605615,"lon":139.73337462},{"name":"ＪＲ大井工場前","province":"東京都","city":"品川区","address":"東京都品川区大井1丁目1","lat":35.60767819,"lon":139.73352455},{"name":"大森駅北口入口","province":"東京都","city":"品川区","address":"東京都品川区南大井6丁目23-1","lat":35.58961922,"lon":139.73039492},{"name":"大井町駅東口第二","province":"東京都","city":"品川区","address":"東京都品川区大井1丁目2","lat":35.60672556,"lon":139.73428286},{"name":"八潮地域センター前","province":"東京都","city":"品川区","address":"東京都品川区八潮5丁目10-27","lat":35.60015206,"lon":139.7512541},{"name":"ちょうちょ橋","province":"東京都","city":"品川区","address":"東京都品川区八潮5丁目8","lat":35.5968109,"lon":139.75291526},{"name":"中央海浜公園前","province":"東京都","city":"品川区","address":"東京都品川区八潮4丁目2","lat":35.59275297,"lon":139.74978513},{"name":"大井海浜公園前","province":"東京都","city":"品川区","address":"東京都品川区八潮4丁目1","lat":35.59123385,"lon":139.75266834},{"name":"大井町駅入口","province":"東京都","city":"品川区","address":"東京都品川区大井2丁目1-5","lat":35.6065393,"lon":139.72985265},{"name":"五反田駅旧ガード下","province":"東京都","city":"品川区","address":"東京都品川区東五反田1丁目26-6","lat":35.62585636,"lon":139.7240636},{"name":"目黒駅西口前","province":"東京都","city":"品川区","address":"東京都品川区上大崎4丁目1","lat":35.633422,"lon":139.71450866},{"name":"大崎広小路","province":"東京都","city":"品川区","address":"東京都品川区西五反田8丁目4-13","lat":35.6229261,"lon":139.72211664},{"name":"目黒駅東口前","province":"東京都","city":"品川区","address":"東京都品川区上大崎3丁目1","lat":35.63269988,"lon":139.71636408},{"name":"西五反田一丁目","province":"東京都","city":"品川区","address":"東京都品川区西五反田1丁目33-10","lat":35.6240204,"lon":139.72136667},{"name":"五反田駅新ガード下","province":"東京都","city":"品川区","address":"東京都品川区東五反田1丁目26-1","lat":35.6265035,"lon":139.72369972},{"name":"目蒲線ガード下","province":"東京都","city":"品川区","address":"東京都品川区西五反田5丁目1-1","lat":35.62658389,"lon":139.71501159},{"name":"上大崎二丁目","province":"東京都","city":"品川区","address":"東京都品川区上大崎2丁目25-5","lat":35.63461074,"lon":139.71476139},{"name":"上大崎三丁目第二","province":"東京都","city":"品川区","address":"東京都品川区西五反田2丁目1-1","lat":35.62813381,"lon":139.72050273},{"name":"大崎四丁目","province":"東京都","city":"品川区","address":"東京都品川区大崎4丁目2-2","lat":35.62231509,"lon":139.72326656},{"name":"目黒駅ビル前","province":"東京都","city":"品川区","address":"東京都品川区上大崎2丁目15-21","lat":35.63442468,"lon":139.71631958},{"name":"大崎駅西口第二","province":"東京都","city":"品川区","address":"東京都品川区大崎1丁目21-4","lat":35.61970165,"lon":139.72879675},{"name":"大崎駅西口","province":"東京都","city":"品川区","address":"東京都品川区大崎2丁目1-1","lat":35.61837956,"lon":139.72802742},{"name":"平塚橋交番前","province":"東京都","city":"品川区","address":"東京都品川区西中延1丁目1-10","lat":35.61549615,"lon":139.7092402},{"name":"戸越銀座","province":"東京都","city":"品川区","address":"東京都品川区平塚1丁目6-14","lat":35.61544906,"lon":139.71649791},{"name":"昭和医大前","province":"東京都","city":"品川区","address":"東京都品川区旗の台1丁目2-14","lat":35.60944957,"lon":139.70490466},{"name":"昭和医大前第二","province":"東京都","city":"品川区","address":"東京都品川区旗の台1丁目6-16","lat":35.60916903,"lon":139.7039603},{"name":"旗の台駅入口","province":"東京都","city":"品川区","address":"東京都品川区旗の台1丁目4-13","lat":35.60742477,"lon":139.70386869},{"name":"旗の台二丁目","province":"東京都","city":"品川区","address":"東京都品川区旗の台2丁目11-6","lat":35.60577768,"lon":139.70077457},{"name":"戸越銀座入口","province":"東京都","city":"品川区","address":"東京都品川区平塚3丁目2-17","lat":35.61631275,"lon":139.71070949},{"name":"小山四丁目","province":"東京都","city":"品川区","address":"東京都品川区小山4丁目4-7","lat":35.61852353,"lon":139.70432109},{"name":"荏原四丁目","province":"東京都","city":"品川区","address":"東京都品川区荏原4丁目1-1","lat":35.61760698,"lon":139.70549602},{"name":"小山三丁目","province":"東京都","city":"品川区","address":"東京都品川区小山4丁目4-22","lat":35.61905678,"lon":139.70358781},{"name":"第二延山小角","province":"東京都","city":"品川区","address":"東京都品川区旗の台1丁目2-1","lat":35.61073553,"lon":139.70387693},{"name":"武蔵小山駅西","province":"東京都","city":"品川区","address":"東京都品川区小山4丁目2-1","lat":35.6196567,"lon":139.70292952},{"name":"戸越四丁目東","province":"東京都","city":"品川区","address":"東京都品川区戸越5丁目6-4","lat":35.61041631,"lon":139.71847011},{"name":"大森北一丁目","province":"東京都","city":"品川区","address":"東京都品川区南大井3丁目35-10","lat":35.58753902,"lon":139.73258653},{"name":"大森北五差路","province":"東京都","city":"品川区","address":"東京都品川区南大井6丁目27-20","lat":35.58751393,"lon":139.73003949},{"name":"大森海岸駅西","province":"東京都","city":"品川区","address":"東京都品川区南大井3丁目31","lat":35.58793351,"lon":139.73518633},{"name":"大森駅東口広場前","province":"東京都","city":"品川区","address":"東京都品川区南大井6丁目28-8","lat":35.5879583,"lon":139.72972838},{"name":"区立戸越公園","province":"東京都","city":"品川区","address":"東京都品川区豊町2丁目1-30","lat":35.61109965,"lon":139.72238087},{"name":"区立しおじ公園","province":"東京都","city":"品川区","address":"東京都品川区八潮5丁目6","lat":35.59734124,"lon":139.74955159},{"name":"都立八潮高等学校","province":"東京都","city":"品川区","address":"東京都品川区東品川3丁目27-22","lat":35.61185035,"lon":139.74660949},{"name":"フューネラルジャパン株式会社","province":"東京都","city":"品川区","address":"東京都品川区大井1丁目53-7","lat":35.60456746,"lon":139.73380519},{"name":"クロモンこども食堂","province":"東京都","city":"品川区","address":"東京都品川区北品川1丁目","lat":35.62126015,"lon":139.74102346},{"name":"となんこども食堂","province":"東京都","city":"品川区","address":"東京都品川区南品川6丁目6-7","lat":35.61190568,"lon":139.74000445},{"name":"ぬくもりこども食堂","province":"東京都","city":"品川区","address":"東京都品川区大井3丁目3-4","lat":35.60366747,"lon":139.73137485},{"name":"子ども食堂　ふたば","province":"東京都","city":"品川区","address":"東京都品川区二葉4丁目21-4","lat":35.60211999,"lon":139.71715936},{"name":"宿題外来","province":"東京都","city":"品川区","address":"東京都品川区豊町4丁目18-21","lat":35.6060696,"lon":139.72034785},{"name":"子どもゆめ食堂　だんらん","province":"東京都","city":"品川区","address":"東京都品川区西大井2丁目5-21","lat":35.59925377,"lon":139.72186462},{"name":"東五反田食堂","province":"東京都","city":"品川区","address":"東京都品川区東五反田4丁目11-6","lat":35.63025033,"lon":139.7259855},{"name":"こども食堂　ビストロ　ウッフ","province":"東京都","city":"品川区","address":"東京都品川区中延6丁目3-14","lat":35.60282261,"lon":139.71285692},{"name":"こども食堂　あかゆ","province":"東京都","city":"品川区","address":"東京都品川区小山4丁目1-6","lat":35.61980112,"lon":139.70267398},{"name":"福栄みらい塾","province":"東京都","city":"品川区","address":"東京都品川区東品川3丁目1-8","lat":35.61714416,"lon":139.74681759},{"name":"オリーブの樹","province":"東京都","city":"品川区","address":"東京都品川区東大井2丁目23-3","lat":35.59841841,"lon":139.73834677},{"name":"こども食堂ｗａｉｗａｉ","province":"東京都","city":"品川区","address":"東京都品川区中延4丁目4-1","lat":35.60627499,"lon":139.71137083},{"name":"なるとキッチン子ども食堂","province":"東京都","city":"品川区","address":"東京都品川区西五反田2丁目26-4","lat":35.62501749,"lon":139.72051671},{"name":"トントンみんなの子ども食堂","province":"東京都","city":"品川区","address":"東京都品川区二葉3丁目3-5","lat":35.60270607,"lon":139.7193786},{"name":"子ども食堂ぬまフェス！！","province":"東京都","city":"品川区","address":"東京都品川区中延4丁目19-9","lat":35.60410021,"lon":139.71021266},{"name":"てしおこども食堂","province":"東京都","city":"品川区","address":"東京都品川区小山6丁目5-10","lat":35.61436284,"lon":139.69860784},{"name":"スタジオMINAMI子ども食堂部","province":"東京都","city":"品川区","address":"東京都品川区中延1丁目10-19","lat":35.61261594,"lon":139.71049018},{"name":"旗の台ひかりっ子食堂","province":"東京都","city":"品川区","address":"東京都品川区旗の台6丁目22-24","lat":35.6064554,"lon":139.70109675},{"name":"みつばちマーヤこども食堂","province":"東京都","city":"品川区","address":"東京都品川区荏原7丁目6-9","lat":35.61176317,"lon":139.70035222},{"name":"ComidasTKD子ども食堂","province":"東京都","city":"品川区","address":"東京都品川区大崎3丁目10-16","lat":35.61955433,"lon":139.72441656},{"name":"あーちゃんの子ども食堂","province":"東京都","city":"品川区","address":"東京都品川区西品川2丁目5-10","lat":35.61407448,"lon":139.72737761},{"name":"歌の力子ども食堂","province":"東京都","city":"品川区","address":"東京都品川区大井2丁目27-15","lat":35.60430903,"lon":139.73049434},{"name":"クラブ・ターニー","province":"東京都","city":"品川区","address":"東京都品川区大崎1丁目2-2","lat":35.6222763,"lon":139.72729122},{"name":"しなちる子ども食堂","province":"東京都","city":"品川区","address":"東京都品川区南大井1丁目1-18","lat":35.59796846,"lon":139.7380857},{"name":"ゆたか子ども食堂","province":"東京都","city":"品川区","address":"東京都品川区豊町4丁目10-9","lat":35.60663072,"lon":139.72331982},{"name":"はたのだい子ども食堂","province":"東京都","city":"品川区","address":"東京都品川区旗の台3丁目2-9","lat":35.60506117,"lon":139.70685182},{"name":"かもめこども食堂","province":"東京都","city":"品川区","address":"東京都品川区東品川1丁目29-6","lat":35.62039365,"lon":139.74314554},{"name":"レガーメ子ども食堂","province":"東京都","city":"品川区","address":"東京都品川区戸越6丁目5-5","lat":35.60886922,"lon":139.71633144},{"name":"西大井ひかり食堂","province":"東京都","city":"品川区","address":"東京都品川区西大井2丁目4-4","lat":35.59995094,"lon":139.72248399},{"name":"まるごはんこども食堂","province":"東京都","city":"品川区","address":"東京都品川区西五反田4丁目31-23","lat":35.62708381,"lon":139.71379224},{"name":"かみしながわ食堂","province":"東京都","city":"品川区","address":"東京都品川区南品川4丁目15-11","lat":35.61284999,"lon":139.73917393},{"name":"しーしーきっちん子ども食堂","province":"東京都","city":"品川区","address":"東京都品川区南品川2丁目9-2","lat":35.61445823,"lon":139.74218752},{"name":"こどもダイニングほかげ","province":"東京都","city":"品川区","address":"東京都品川区中延6丁目1-21","lat":35.60320031,"lon":139.71023213},{"name":"子ども食堂ひよこ","province":"東京都","city":"品川区","address":"東京都品川区八潮5丁目10-27","lat":35.60015206,"lon":139.7512541},{"name":"八潮福祉センター前","province":"東京都","city":"品川区","address":"東京都品川区八潮1丁目4-1","lat":35.60946205,"lon":139.75402291},{"name":"北品川二丁目","province":"東京都","city":"品川区","address":"東京都品川区北品川2丁目34-3","lat":35.61659961,"lon":139.74127362},{"name":"北埠頭橋","province":"東京都","city":"品川区","address":"東京都品川区東品川3丁目27-16","lat":35.61165873,"lon":139.74736499},{"name":"東品川三丁目","province":"東京都","city":"品川区","address":"東京都品川区東品川3丁目6-7","lat":35.61553327,"lon":139.74747316},{"name":"八潮橋","province":"東京都","city":"品川区","address":"東京都品川区東品川4丁目11-34","lat":35.607301,"lon":139.74804846},{"name":"南品川五丁目","province":"東京都","city":"品川区","address":"東京都品川区南品川5丁目3-13","lat":35.61132248,"lon":139.74175433},{"name":"新東海橋","province":"東京都","city":"品川区","address":"東京都品川区東品川1丁目32-3","lat":35.62012434,"lon":139.74618419},{"name":"東品川公園入口","province":"東京都","city":"品川区","address":"東京都品川区東品川3丁目15-10","lat":35.61392513,"lon":139.74735102},{"name":"居木橋","province":"東京都","city":"品川区","address":"東京都品川区北品川4丁目10-5","lat":35.61812701,"lon":139.73499073},{"name":"西品川三丁目","province":"東京都","city":"品川区","address":"東京都品川区大崎2丁目10-14","lat":35.61760745,"lon":139.72900236},{"name":"東品川海上公園","province":"東京都","city":"品川区","address":"東京都品川区東品川3丁目32-36","lat":35.61646105,"lon":139.75092286},{"name":"都立高専前","province":"東京都","city":"品川区","address":"東京都品川区東大井1丁目11-25","lat":35.60682891,"lon":139.75000944},{"name":"品川職業技術専門校前","province":"東京都","city":"品川区","address":"東京都品川区東品川3丁目32-3","lat":35.6119477,"lon":139.75048419},{"name":"新八ツ山橋","province":"東京都","city":"品川区","address":"東京都品川区北品川4丁目7","lat":35.62179607,"lon":139.73699321},{"name":"北品川六丁目","province":"東京都","city":"品川区","address":"東京都品川区東五反田3丁目21-5","lat":35.6249733,"lon":139.73137689},{"name":"東海道北品川","province":"東京都","city":"品川区","address":"東京都品川区北品川2丁目24-5","lat":35.61814672,"lon":139.74379558},{"name":"品川図書館前","province":"東京都","city":"品川区","address":"東京都品川区北品川2丁目30","lat":35.6173746,"lon":139.74390116},{"name":"品川シーサイド駅","province":"東京都","city":"品川区","address":"東京都品川区東品川4丁目13-14","lat":35.60853703,"lon":139.75024546},{"name":"新東海橋東","province":"東京都","city":"品川区","address":"東京都品川区東品川2丁目2-28","lat":35.62179923,"lon":139.74896723},{"name":"八潮橋北","province":"東京都","city":"品川区","address":"東京都品川区東品川4丁目12-1","lat":35.60854805,"lon":139.7479262},{"name":"品川区役所前","province":"東京都","city":"品川区","address":"東京都品川区広町2丁目1-36","lat":35.60881128,"lon":139.73028866},{"name":"東品川シルバーセンター前","province":"東京都","city":"品川区","address":"東京都品川区東品川3丁目32-12","lat":35.61330587,"lon":139.75067301},{"name":"百反坂下","province":"東京都","city":"品川区","address":"東京都品川区西品川3丁目21-8","lat":35.61626598,"lon":139.73041617},{"name":"品川区役所前第二","province":"東京都","city":"品川区","address":"東京都品川区西品川1丁目27-14","lat":35.60922229,"lon":139.72882487},{"name":"大井町駅東口","province":"東京都","city":"品川区","address":"東京都品川区東大井5丁目16-5","lat":35.60713943,"lon":139.73552164},{"name":"立会川","province":"東京都","city":"品川区","address":"東京都品川区東大井2丁目23-2","lat":35.59826843,"lon":139.738369},{"name":"大井町駅西口","province":"東京都","city":"品川区","address":"東京都品川区南大井1丁目3-12","lat":35.5969797,"lon":139.73831627},{"name":"ゼームス坂上","province":"東京都","city":"品川区","address":"東京都品川区東大井5丁目15-4","lat":35.60706171,"lon":139.73642713},{"name":"鈴ヶ森","province":"東京都","city":"品川区","address":"東京都品川区南大井3丁目10","lat":35.59062486,"lon":139.73578617},{"name":"大井権現","province":"東京都","city":"品川区","address":"東京都品川区南大井1丁目1-16","lat":35.59775459,"lon":139.73799126},{"name":"西大井二丁目","province":"東京都","city":"品川区","address":"東京都品川区西大井2丁目4-7","lat":35.59992319,"lon":139.72314505},{"name":"大井一丁目","province":"東京都","city":"品川区","address":"東京都品川区大井1丁目37-10","lat":35.6048062,"lon":139.7307693},{"name":"鮫洲試験場前","province":"東京都","city":"品川区","address":"東京都品川区東大井1丁目12-5","lat":35.6038986,"lon":139.74647094},{"name":"品川区役所入口","province":"東京都","city":"品川区","address":"東京都品川区大井1丁目16-2","lat":35.60764196,"lon":139.73016647},{"name":"鈴ヶ森第二","province":"東京都","city":"品川区","address":"東京都品川区南大井2丁目10-6","lat":35.59019161,"lon":139.73658614},{"name":"大井一丁目第二","province":"東京都","city":"品川区","address":"東京都品川区大井1丁目35-3","lat":35.60507011,"lon":139.73187477},{"name":"大井町駅西口第二","province":"東京都","city":"品川区","address":"東京都品川区大井1丁目10-3","lat":35.60745598,"lon":139.73317737},{"name":"ＪＲ大井町駅南","province":"東京都","city":"品川区","address":"東京都品川区大井1丁目50-5","lat":35.60568679,"lon":139.73414401},{"name":"ＪＲ大井町駅前","province":"東京都","city":"品川区","address":"東京都品川区大井1丁目50-5","lat":35.60568679,"lon":139.73414401},{"name":"大井一本橋","province":"東京都","city":"品川区","address":"東京都品川区大井1丁目20-29","lat":35.60706703,"lon":139.73012762},{"name":"きゅりあん裏","province":"東京都","city":"品川区","address":"東京都品川区東大井5丁目23-37","lat":35.60514807,"lon":139.73690493},{"name":"大井鎧橋","province":"東京都","city":"品川区","address":"東京都品川区大井1丁目49-15","lat":35.60605615,"lon":139.73337462},{"name":"ＪＲ大井工場前","province":"東京都","city":"品川区","address":"東京都品川区大井1丁目1","lat":35.60767819,"lon":139.73352455},{"name":"大森駅北口入口","province":"東京都","city":"品川区","address":"東京都品川区南大井6丁目23-1","lat":35.58961922,"lon":139.73039492},{"name":"大井町駅東口第二","province":"東京都","city":"品川区","address":"東京都品川区大井1丁目2","lat":35.60672556,"lon":139.73428286},{"name":"八潮地域センター前","province":"東京都","city":"品川区","address":"東京都品川区八潮5丁目10-27","lat":35.60015206,"lon":139.7512541},{"name":"ちょうちょ橋","province":"東京都","city":"品川区","address":"東京都品川区八潮5丁目8","lat":35.5968109,"lon":139.75291526},{"name":"中央海浜公園前","province":"東京都","city":"品川区","address":"東京都品川区八潮4丁目2","lat":35.59275297,"lon":139.74978513},{"name":"大井海浜公園前","province":"東京都","city":"品川区","address":"東京都品川区八潮4丁目1","lat":35.59123385,"lon":139.75266834},{"name":"大井町駅入口","province":"東京都","city":"品川区","address":"東京都品川区大井2丁目1-5","lat":35.6065393,"lon":139.72985265},{"name":"五反田駅旧ガード下","province":"東京都","city":"品川区","address":"東京都品川区東五反田1丁目26-6","lat":35.62585636,"lon":139.7240636},{"name":"目黒駅西口前","province":"東京都","city":"品川区","address":"東京都品川区上大崎4丁目1","lat":35.633422,"lon":139.71450866},{"name":"大崎広小路","province":"東京都","city":"品川区","address":"東京都品川区西五反田8丁目4-13","lat":35.6229261,"lon":139.72211664},{"name":"目黒駅東口前","province":"東京都","city":"品川区","address":"東京都品川区上大崎3丁目1","lat":35.63269988,"lon":139.71636408},{"name":"西五反田一丁目","province":"東京都","city":"品川区","address":"東京都品川区西五反田1丁目33-10","lat":35.6240204,"lon":139.72136667},{"name":"五反田駅新ガード下","province":"東京都","city":"品川区","address":"東京都品川区東五反田1丁目26-1","lat":35.6265035,"lon":139.72369972},{"name":"目蒲線ガード下","province":"東京都","city":"品川区","address":"東京都品川区西五反田5丁目1-1","lat":35.62658389,"lon":139.71501159},{"name":"上大崎二丁目","province":"東京都","city":"品川区","address":"東京都品川区上大崎2丁目25-5","lat":35.63461074,"lon":139.71476139},{"name":"上大崎三丁目第二","province":"東京都","city":"品川区","address":"東京都品川区西五反田2丁目1-1","lat":35.62813381,"lon":139.72050273},{"name":"大崎四丁目","province":"東京都","city":"品川区","address":"東京都品川区大崎4丁目2-2","lat":35.62231509,"lon":139.72326656},{"name":"目黒駅ビル前","province":"東京都","city":"品川区","address":"東京都品川区上大崎2丁目15-21","lat":35.63442468,"lon":139.71631958},{"name":"大崎駅西口第二","province":"東京都","city":"品川区","address":"東京都品川区大崎1丁目21-4","lat":35.61970165,"lon":139.72879675},{"name":"大崎駅西口","province":"東京都","city":"品川区","address":"東京都品川区大崎2丁目1-1","lat":35.61837956,"lon":139.72802742},{"name":"平塚橋交番前","province":"東京都","city":"品川区","address":"東京都品川区西中延1丁目1-10","lat":35.61549615,"lon":139.7092402},{"name":"戸越銀座","province":"東京都","city":"品川区","address":"東京都品川区平塚1丁目6-14","lat":35.61544906,"lon":139.71649791},{"name":"昭和医大前","province":"東京都","city":"品川区","address":"東京都品川区旗の台1丁目2-14","lat":35.60944957,"lon":139.70490466},{"name":"昭和医大前第二","province":"東京都","city":"品川区","address":"東京都品川区旗の台1丁目6-16","lat":35.60916903,"lon":139.7039603},{"name":"旗の台駅入口","province":"東京都","city":"品川区","address":"東京都品川区旗の台1丁目4-13","lat":35.60742477,"lon":139.70386869},{"name":"旗の台二丁目","province":"東京都","city":"品川区","address":"東京都品川区旗の台2丁目11-6","lat":35.60577768,"lon":139.70077457},{"name":"戸越銀座入口","province":"東京都","city":"品川区","address":"東京都品川区平塚3丁目2-17","lat":35.61631275,"lon":139.71070949},{"name":"小山四丁目","province":"東京都","city":"品川区","address":"東京都品川区小山4丁目4-7","lat":35.61852353,"lon":139.70432109},{"name":"荏原四丁目","province":"東京都","city":"品川区","address":"東京都品川区荏原4丁目1-1","lat":35.61760698,"lon":139.70549602},{"name":"小山三丁目","province":"東京都","city":"品川区","address":"東京都品川区小山4丁目4-22","lat":35.61905678,"lon":139.70358781},{"name":"第二延山小角","province":"東京都","city":"品川区","address":"東京都品川区旗の台1丁目2-1","lat":35.61073553,"lon":139.70387693},{"name":"武蔵小山駅西","province":"東京都","city":"品川区","address":"東京都品川区小山4丁目2-1","lat":35.6196567,"lon":139.70292952},{"name":"戸越四丁目東","province":"東京都","city":"品川区","address":"東京都品川区戸越5丁目6-4","lat":35.61041631,"lon":139.71847011},{"name":"大森北一丁目","province":"東京都","city":"品川区","address":"東京都品川区南大井3丁目35-10","lat":35.58753902,"lon":139.73258653},{"name":"大森北五差路","province":"東京都","city":"品川区","address":"東京都品川区南大井6丁目27-20","lat":35.58751393,"lon":139.73003949},{"name":"大森海岸駅西","province":"東京都","city":"品川区","address":"東京都品川区南大井3丁目31","lat":35.58793351,"lon":139.73518633},{"name":"大森駅東口広場前","province":"東京都","city":"品川区","address":"東京都品川区南大井6丁目28-8","lat":35.5879583,"lon":139.72972838},{"name":"区立戸越公園","province":"東京都","city":"品川区","address":"東京都品川区豊町2丁目1-30","lat":35.61109965,"lon":139.72238087},{"name":"区立しおじ公園","province":"東京都","city":"品川区","address":"東京都品川区八潮5丁目6","lat":35.59734124,"lon":139.74955159},{"name":"都立八潮高等学校","province":"東京都","city":"品川区","address":"東京都品川区東品川3丁目27-22","lat":35.61185035,"lon":139.74660949},{"name":"フューネラルジャパン株式会社","province":"東京都","city":"品川区","address":"東京都品川区大井1丁目53-7","lat":35.60456746,"lon":139.73380519},{"name":"クロモンこども食堂","province":"東京都","city":"品川区","address":"東京都品川区北品川1丁目","lat":35.62126015,"lon":139.74102346},{"name":"となんこども食堂","province":"東京都","city":"品川区","address":"東京都品川区南品川6丁目6-7","lat":35.61190568,"lon":139.74000445},{"name":"ぬくもりこども食堂","province":"東京都","city":"品川区","address":"東京都品川区大井3丁目3-4","lat":35.60366747,"lon":139.73137485},{"name":"子ども食堂　ふたば","province":"東京都","city":"品川区","address":"東京都品川区二葉4丁目21-4","lat":35.60211999,"lon":139.71715936},{"name":"宿題外来","province":"東京都","city":"品川区","address":"東京都品川区豊町4丁目18-21","lat":35.6060696,"lon":139.72034785},{"name":"子どもゆめ食堂　だんらん","province":"東京都","city":"品川区","address":"東京都品川区西大井2丁目5-21","lat":35.59925377,"lon":139.72186462},{"name":"東五反田食堂","province":"東京都","city":"品川区","address":"東京都品川区東五反田4丁目11-6","lat":35.63025033,"lon":139.7259855},{"name":"こども食堂　ビストロ　ウッフ","province":"東京都","city":"品川区","address":"東京都品川区中延6丁目3-14","lat":35.60282261,"lon":139.71285692},{"name":"こども食堂　あかゆ","province":"東京都","city":"品川区","address":"東京都品川区小山4丁目1-6","lat":35.61980112,"lon":139.70267398},{"name":"福栄みらい塾","province":"東京都","city":"品川区","address":"東京都品川区東品川3丁目1-8","lat":35.61714416,"lon":139.74681759},{"name":"オリーブの樹","province":"東京都","city":"品川区","address":"東京都品川区東大井2丁目23-3","lat":35.59841841,"lon":139.73834677},{"name":"こども食堂ｗａｉｗａｉ","province":"東京都","city":"品川区","address":"東京都品川区中延4丁目4-1","lat":35.60627499,"lon":139.71137083},{"name":"なるとキッチン子ども食堂","province":"東京都","city":"品川区","address":"東京都品川区西五反田2丁目26-4","lat":35.62501749,"lon":139.72051671},{"name":"トントンみんなの子ども食堂","province":"東京都","city":"品川区","address":"東京都品川区二葉3丁目3-5","lat":35.60270607,"lon":139.7193786},{"name":"子ども食堂ぬまフェス！！","province":"東京都","city":"品川区","address":"東京都品川区中延4丁目19-9","lat":35.60410021,"lon":139.71021266},{"name":"てしおこども食堂","province":"東京都","city":"品川区","address":"東京都品川区小山6丁目5-10","lat":35.61436284,"lon":139.69860784},{"name":"スタジオMINAMI子ども食堂部","province":"東京都","city":"品川区","address":"東京都品川区中延1丁目10-19","lat":35.61261594,"lon":139.71049018},{"name":"旗の台ひかりっ子食堂","province":"東京都","city":"品川区","address":"東京都品川区旗の台6丁目22-24","lat":35.6064554,"lon":139.70109675},{"name":"みつばちマーヤこども食堂","province":"東京都","city":"品川区","address":"東京都品川区荏原7丁目6-9","lat":35.61176317,"lon":139.70035222},{"name":"ComidasTKD子ども食堂","province":"東京都","city":"品川区","address":"東京都品川区大崎3丁目10-16","lat":35.61955433,"lon":139.72441656},{"name":"あーちゃんの子ども食堂","province":"東京都","city":"品川区","address":"東京都品川区西品川2丁目5-10","lat":35.61407448,"lon":139.72737761},{"name":"歌の力子ども食堂","province":"東京都","city":"品川区","address":"東京都品川区大井2丁目27-15","lat":35.60430903,"lon":139.73049434},{"name":"クラブ・ターニー","province":"東京都","city":"品川区","address":"東京都品川区大崎1丁目2-2","lat":35.6222763,"lon":139.72729122},{"name":"しなちる子ども食堂","province":"東京都","city":"品川区","address":"東京都品川区南大井1丁目1-18","lat":35.59796846,"lon":139.7380857},{"name":"ゆたか子ども食堂","province":"東京都","city":"品川区","address":"東京都品川区豊町4丁目10-9","lat":35.60663072,"lon":139.72331982},{"name":"はたのだい子ども食堂","province":"東京都","city":"品川区","address":"東京都品川区旗の台3丁目2-9","lat":35.60506117,"lon":139.70685182},{"name":"かもめこども食堂","province":"東京都","city":"品川区","address":"東京都品川区東品川1丁目29-6","lat":35.62039365,"lon":139.74314554},{"name":"レガーメ子ども食堂","province":"東京都","city":"品川区","address":"東京都品川区戸越6丁目5-5","lat":35.60886922,"lon":139.71633144},{"name":"西大井ひかり食堂","province":"東京都","city":"品川区","address":"東京都品川区西大井2丁目4-4","lat":35.59995094,"lon":139.72248399},{"name":"まるごはんこども食堂","province":"東京都","city":"品川区","address":"東京都品川区西五反田4丁目31-23","lat":35.62708381,"lon":139.71379224},{"name":"かみしながわ食堂","province":"東京都","city":"品川区","address":"東京都品川区南品川4丁目15-11","lat":35.61284999,"lon":139.73917393},{"name":"しーしーきっちん子ども食堂","province":"東京都","city":"品川区","address":"東京都品川区南品川2丁目9-2","lat":35.61445823,"lon":139.74218752},{"name":"こどもダイニングほかげ","province":"東京都","city":"品川区","address":"東京都品川区中延6丁目1-21","lat":35.60320031,"lon":139.71023213},{"name":"子ども食堂ひよこ","province":"東京都","city":"品川区","address":"東京都品川区八潮5丁目10-27","lat":35.60015206,"lon":139.7512541},{"name":"八潮福祉センター前","province":"東京都","city":"品川区","address":"東京都品川区八潮1丁目4-1","lat":35.60946205,"lon":139.75402291},{"name":"北品川二丁目","province":"東京都","city":"品川区","address":"東京都品川区北品川2丁目34-3","lat":35.61659961,"lon":139.74127362},{"name":"北埠頭橋","province":"東京都","city":"品川区","address":"東京都品川区東品川3丁目27-16","lat":35.61165873,"lon":139.74736499},{"name":"東品川三丁目","province":"東京都","city":"品川区","address":"東京都品川区東品川3丁目6-7","lat":35.61553327,"lon":139.74747316},{"name":"八潮橋","province":"東京都","city":"品川区","address":"東京都品川区東品川4丁目11-34","lat":35.607301,"lon":139.74804846},{"name":"南品川五丁目","province":"東京都","city":"品川区","address":"東京都品川区南品川5丁目3-13","lat":35.61132248,"lon":139.74175433},{"name":"新東海橋","province":"東京都","city":"品川区","address":"東京都品川区東品川1丁目32-3","lat":35.62012434,"lon":139.74618419},{"name":"東品川公園入口","province":"東京都","city":"品川区","address":"東京都品川区東品川3丁目15-10","lat":35.61392513,"lon":139.74735102},{"name":"居木橋","province":"東京都","city":"品川区","address":"東京都品川区北品川4丁目10-5","lat":35.61812701,"lon":139.73499073},{"name":"西品川三丁目","province":"東京都","city":"品川区","address":"東京都品川区大崎2丁目10-14","lat":35.61760745,"lon":139.72900236},{"name":"東品川海上公園","province":"東京都","city":"品川区","address":"東京都品川区東品川3丁目32-36","lat":35.61646105,"lon":139.75092286},{"name":"都立高専前","province":"東京都","city":"品川区","address":"東京都品川区東大井1丁目11-25","lat":35.60682891,"lon":139.75000944},{"name":"品川職業技術専門校前","province":"東京都","city":"品川区","address":"東京都品川区東品川3丁目32-3","lat":35.6119477,"lon":139.75048419},{"name":"新八ツ山橋","province":"東京都","city":"品川区","address":"東京都品川区北品川4丁目7","lat":35.62179607,"lon":139.73699321},{"name":"北品川六丁目","province":"東京都","city":"品川区","address":"東京都品川区東五反田3丁目21-5","lat":35.6249733,"lon":139.73137689},{"name":"東海道北品川","province":"東京都","city":"品川区","address":"東京都品川区北品川2丁目24-5","lat":35.61814672,"lon":139.74379558},{"name":"品川図書館前","province":"東京都","city":"品川区","address":"東京都品川区北品川2丁目30","lat":35.6173746,"lon":139.74390116},{"name":"品川シーサイド駅","province":"東京都","city":"品川区","address":"東京都品川区東品川4丁目13-14","lat":35.60853703,"lon":139.75024546},{"name":"新東海橋東","province":"東京都","city":"品川区","address":"東京都品川区東品川2丁目2-28","lat":35.62179923,"lon":139.74896723},{"name":"八潮橋北","province":"東京都","city":"品川区","address":"東京都品川区東品川4丁目12-1","lat":35.60854805,"lon":139.7479262},{"name":"品川区役所前","province":"東京都","city":"品川区","address":"東京都品川区広町2丁目1-36","lat":35.60881128,"lon":139.73028866},{"name":"東品川シルバーセンター前","province":"東京都","city":"品川区","address":"東京都品川区東品川3丁目32-12","lat":35.61330587,"lon":139.75067301},{"name":"百反坂下","province":"東京都","city":"品川区","address":"東京都品川区西品川3丁目21-8","lat":35.61626598,"lon":139.73041617},{"name":"品川区役所前第二","province":"東京都","city":"品川区","address":"東京都品川区西品川1丁目27-14","lat":35.60922229,"lon":139.72882487},{"name":"大井町駅東口","province":"東京都","city":"品川区","address":"東京都品川区東大井5丁目16-5","lat":35.60713943,"lon":139.73552164},{"name":"立会川","province":"東京都","city":"品川区","address":"東京都品川区東大井2丁目23-2","lat":35.59826843,"lon":139.738369},{"name":"大井町駅西口","province":"東京都","city":"品川区","address":"東京都品川区南大井1丁目3-12","lat":35.5969797,"lon":139.73831627},{"name":"ゼームス坂上","province":"東京都","city":"品川区","address":"東京都品川区東大井5丁目15-4","lat":35.60706171,"lon":139.73642713},{"name":"鈴ヶ森","province":"東京都","city":"品川区","address":"東京都品川区南大井3丁目10","lat":35.59062486,"lon":139.73578617},{"name":"大井権現","province":"東京都","city":"品川区","address":"東京都品川区南大井1丁目1-16","lat":35.59775459,"lon":139.73799126},{"name":"西大井二丁目","province":"東京都","city":"品川区","address":"東京都品川区西大井2丁目4-7","lat":35.59992319,"lon":139.72314505},{"name":"大井一丁目","province":"東京都","city":"品川区","address":"東京都品川区大井1丁目37-10","lat":35.6048062,"lon":139.7307693},{"name":"鮫洲試験場前","province":"東京都","city":"品川区","address":"東京都品川区東大井1丁目12-5","lat":35.6038986,"lon":139.74647094},{"name":"品川区役所入口","province":"東京都","city":"品川区","address":"東京都品川区大井1丁目16-2","lat":35.60764196,"lon":139.73016647},{"name":"鈴ヶ森第二","province":"東京都","city":"品川区","address":"東京都品川区南大井2丁目10-6","lat":35.59019161,"lon":139.73658614},{"name":"大井一丁目第二","province":"東京都","city":"品川区","address":"東京都品川区大井1丁目35-3","lat":35.60507011,"lon":139.73187477},{"name":"大井町駅西口第二","province":"東京都","city":"品川区","address":"東京都品川区大井1丁目10-3","lat":35.60745598,"lon":139.73317737},{"name":"ＪＲ大井町駅南","province":"東京都","city":"品川区","address":"東京都品川区大井1丁目50-5","lat":35.60568679,"lon":139.73414401},{"name":"ＪＲ大井町駅前","province":"東京都","city":"品川区","address":"東京都品川区大井1丁目50-5","lat":35.60568679,"lon":139.73414401},{"name":"大井一本橋","province":"東京都","city":"品川区","address":"東京都品川区大井1丁目20-29","lat":35.60706703,"lon":139.73012762},{"name":"きゅりあん裏","province":"東京都","city":"品川区","address":"東京都品川区東大井5丁目23-37","lat":35.60514807,"lon":139.73690493},{"name":"大井鎧橋","province":"東京都","city":"品川区","address":"東京都品川区大井1丁目49-15","lat":35.60605615,"lon":139.73337462},{"name":"ＪＲ大井工場前","province":"東京都","city":"品川区","address":"東京都品川区大井1丁目1","lat":35.60767819,"lon":139.73352455},{"name":"大森駅北口入口","province":"東京都","city":"品川区","address":"東京都品川区南大井6丁目23-1","lat":35.58961922,"lon":139.73039492},{"name":"大井町駅東口第二","province":"東京都","city":"品川区","address":"東京都品川区大井1丁目2","lat":35.60672556,"lon":139.73428286},{"name":"八潮地域センター前","province":"東京都","city":"品川区","address":"東京都品川区八潮5丁目10-27","lat":35.60015206,"lon":139.7512541},{"name":"ちょうちょ橋","province":"東京都","city":"品川区","address":"東京都品川区八潮5丁目8","lat":35.5968109,"lon":139.75291526},{"name":"中央海浜公園前","province":"東京都","city":"品川区","address":"東京都品川区八潮4丁目2","lat":35.59275297,"lon":139.74978513},{"name":"大井海浜公園前","province":"東京都","city":"品川区","address":"東京都品川区八潮4丁目1","lat":35.59123385,"lon":139.75266834},{"name":"大井町駅入口","province":"東京都","city":"品川区","address":"東京都品川区大井2丁目1-5","lat":35.6065393,"lon":139.72985265},{"name":"五反田駅旧ガード下","province":"東京都","city":"品川区","address":"東京都品川区東五反田1丁目26-6","lat":35.62585636,"lon":139.7240636},{"name":"目黒駅西口前","province":"東京都","city":"品川区","address":"東京都品川区上大崎4丁目1","lat":35.633422,"lon":139.71450866},{"name":"大崎広小路","province":"東京都","city":"品川区","address":"東京都品川区西五反田8丁目4-13","lat":35.6229261,"lon":139.72211664},{"name":"目黒駅東口前","province":"東京都","city":"品川区","address":"東京都品川区上大崎3丁目1","lat":35.63269988,"lon":139.71636408},{"name":"西五反田一丁目","province":"東京都","city":"品川区","address":"東京都品川区西五反田1丁目33-10","lat":35.6240204,"lon":139.72136667},{"name":"五反田駅新ガード下","province":"東京都","city":"品川区","address":"東京都品川区東五反田1丁目26-1","lat":35.6265035,"lon":139.72369972},{"name":"目蒲線ガード下","province":"東京都","city":"品川区","address":"東京都品川区西五反田5丁目1-1","lat":35.62658389,"lon":139.71501159},{"name":"上大崎二丁目","province":"東京都","city":"品川区","address":"東京都品川区上大崎2丁目25-5","lat":35.63461074,"lon":139.71476139},{"name":"上大崎三丁目第二","province":"東京都","city":"品川区","address":"東京都品川区西五反田2丁目1-1","lat":35.62813381,"lon":139.72050273},{"name":"大崎四丁目","province":"東京都","city":"品川区","address":"東京都品川区大崎4丁目2-2","lat":35.62231509,"lon":139.72326656},{"name":"目黒駅ビル前","province":"東京都","city":"品川区","address":"東京都品川区上大崎2丁目15-21","lat":35.63442468,"lon":139.71631958},{"name":"大崎駅西口第二","province":"東京都","city":"品川区","address":"東京都品川区大崎1丁目21-4","lat":35.61970165,"lon":139.72879675},{"name":"大崎駅西口","province":"東京都","city":"品川区","address":"東京都品川区大崎2丁目1-1","lat":35.61837956,"lon":139.72802742},{"name":"平塚橋交番前","province":"東京都","city":"品川区","address":"東京都品川区西中延1丁目1-10","lat":35.61549615,"lon":139.7092402},{"name":"戸越銀座","province":"東京都","city":"品川区","address":"東京都品川区平塚1丁目6-14","lat":35.61544906,"lon":139.71649791},{"name":"昭和医大前","province":"東京都","city":"品川区","address":"東京都品川区旗の台1丁目2-14","lat":35.60944957,"lon":139.70490466},{"name":"昭和医大前第二","province":"東京都","city":"品川区","address":"東京都品川区旗の台1丁目6-16","lat":35.60916903,"lon":139.7039603},{"name":"旗の台駅入口","province":"東京都","city":"品川区","address":"東京都品川区旗の台1丁目4-13","lat":35.60742477,"lon":139.70386869},{"name":"旗の台二丁目","province":"東京都","city":"品川区","address":"東京都品川区旗の台2丁目11-6","lat":35.60577768,"lon":139.70077457},{"name":"戸越銀座入口","province":"東京都","city":"品川区","address":"東京都品川区平塚3丁目2-17","lat":35.61631275,"lon":139.71070949},{"name":"小山四丁目","province":"東京都","city":"品川区","address":"東京都品川区小山4丁目4-7","lat":35.61852353,"lon":139.70432109},{"name":"荏原四丁目","province":"東京都","city":"品川区","address":"東京都品川区荏原4丁目1-1","lat":35.61760698,"lon":139.70549602},{"name":"小山三丁目","province":"東京都","city":"品川区","address":"東京都品川区小山4丁目4-22","lat":35.61905678,"lon":139.70358781},{"name":"第二延山小角","province":"東京都","city":"品川区","address":"東京都品川区旗の台1丁目2-1","lat":35.61073553,"lon":139.70387693},{"name":"武蔵小山駅西","province":"東京都","city":"品川区","address":"東京都品川区小山4丁目2-1","lat":35.6196567,"lon":139.70292952},{"name":"戸越四丁目東","province":"東京都","city":"品川区","address":"東京都品川区戸越5丁目6-4","lat":35.61041631,"lon":139.71847011},{"name":"大森北一丁目","province":"東京都","city":"品川区","address":"東京都品川区南大井3丁目35-10","lat":35.58753902,"lon":139.73258653},{"name":"大森北五差路","province":"東京都","city":"品川区","address":"東京都品川区南大井6丁目27-20","lat":35.58751393,"lon":139.73003949},{"name":"大森海岸駅西","province":"東京都","city":"品川区","address":"東京都品川区南大井3丁目31","lat":35.58793351,"lon":139.73518633},{"name":"大森駅東口広場前","province":"東京都","city":"品川区","address":"東京都品川区南大井6丁目28-8","lat":35.5879583,"lon":139.72972838},{"name":"区立戸越公園","province":"東京都","city":"品川区","address":"東京都品川区豊町2丁目1-30","lat":35.61109965,"lon":139.72238087},{"name":"区立しおじ公園","province":"東京都","city":"品川区","address":"東京都品川区八潮5丁目6","lat":35.59734124,"lon":139.74955159},{"name":"都立八潮高等学校","province":"東京都","city":"品川区","address":"東京都品川区東品川3丁目27-22","lat":35.61185035,"lon":139.74660949},{"name":"フューネラルジャパン株式会社","province":"東京都","city":"品川区","address":"東京都品川区大井1丁目53-7","lat":35.60456746,"lon":139.73380519},{"name":"クロモンこども食堂","province":"東京都","city":"品川区","address":"東京都品川区北品川1丁目","lat":35.62126015,"lon":139.74102346},{"name":"となんこども食堂","province":"東京都","city":"品川区","address":"東京都品川区南品川6丁目6-7","lat":35.61190568,"lon":139.74000445},{"name":"ぬくもりこども食堂","province":"東京都","city":"品川区","address":"東京都品川区大井3丁目3-4","lat":35.60366747,"lon":139.73137485},{"name":"子ども食堂　ふたば","province":"東京都","city":"品川区","address":"東京都品川区二葉4丁目21-4","lat":35.60211999,"lon":139.71715936},{"name":"宿題外来","province":"東京都","city":"品川区","address":"東京都品川区豊町4丁目18-21","lat":35.6060696,"lon":139.72034785},{"name":"子どもゆめ食堂　だんらん","province":"東京都","city":"品川区","address":"東京都品川区西大井2丁目5-21","lat":35.59925377,"lon":139.72186462},{"name":"東五反田食堂","province":"東京都","city":"品川区","address":"東京都品川区東五反田4丁目11-6","lat":35.63025033,"lon":139.7259855},{"name":"こども食堂　ビストロ　ウッフ","province":"東京都","city":"品川区","address":"東京都品川区中延6丁目3-14","lat":35.60282261,"lon":139.71285692},{"name":"こども食堂　あかゆ","province":"東京都","city":"品川区","address":"東京都品川区小山4丁目1-6","lat":35.61980112,"lon":139.70267398},{"name":"福栄みらい塾","province":"東京都","city":"品川区","address":"東京都品川区東品川3丁目1-8","lat":35.61714416,"lon":139.74681759},{"name":"オリーブの樹","province":"東京都","city":"品川区","address":"東京都品川区東大井2丁目23-3","lat":35.59841841,"lon":139.73834677},{"name":"こども食堂ｗａｉｗａｉ","province":"東京都","city":"品川区","address":"東京都品川区中延4丁目4-1","lat":35.60627499,"lon":139.71137083},{"name":"なるとキッチン子ども食堂","province":"東京都","city":"品川区","address":"東京都品川区西五反田2丁目26-4","lat":35.62501749,"lon":139.72051671},{"name":"トントンみんなの子ども食堂","province":"東京都","city":"品川区","address":"東京都品川区二葉3丁目3-5","lat":35.60270607,"lon":139.7193786},{"name":"子ども食堂ぬまフェス！！","province":"東京都","city":"品川区","address":"東京都品川区中延4丁目19-9","lat":35.60410021,"lon":139.71021266},{"name":"てしおこども食堂","province":"東京都","city":"品川区","address":"東京都品川区小山6丁目5-10","lat":35.61436284,"lon":139.69860784},{"name":"スタジオMINAMI子ども食堂部","province":"東京都","city":"品川区","address":"東京都品川区中延1丁目10-19","lat":35.61261594,"lon":139.71049018},{"name":"旗の台ひかりっ子食堂","province":"東京都","city":"品川区","address":"東京都品川区旗の台6丁目22-24","lat":35.6064554,"lon":139.70109675},{"name":"みつばちマーヤこども食堂","province":"東京都","city":"品川区","address":"東京都品川区荏原7丁目6-9","lat":35.61176317,"lon":139.70035222},{"name":"ComidasTKD子ども食堂","province":"東京都","city":"品川区","address":"東京都品川区大崎3丁目10-16","lat":35.61955433,"lon":139.72441656},{"name":"あーちゃんの子ども食堂","province":"東京都","city":"品川区","address":"東京都品川区西品川2丁目5-10","lat":35.61407448,"lon":139.72737761},{"name":"歌の力子ども食堂","province":"東京都","city":"品川区","address":"東京都品川区大井2丁目27-15","lat":35.60430903,"lon":139.73049434},{"name":"クラブ・ターニー","province":"東京都","city":"品川区","address":"東京都品川区大崎1丁目2-2","lat":35.6222763,"lon":139.72729122},{"name":"しなちる子ども食堂","province":"東京都","city":"品川区","address":"東京都品川区南大井1丁目1-18","lat":35.59796846,"lon":139.7380857},{"name":"ゆたか子ども食堂","province":"東京都","city":"品川区","address":"東京都品川区豊町4丁目10-9","lat":35.60663072,"lon":139.72331982},{"name":"はたのだい子ども食堂","province":"東京都","city":"品川区","address":"東京都品川区旗の台3丁目2-9","lat":35.60506117,"lon":139.70685182},{"name":"かもめこども食堂","province":"東京都","city":"品川区","address":"東京都品川区東品川1丁目29-6","lat":35.62039365,"lon":139.74314554},{"name":"レガーメ子ども食堂","province":"東京都","city":"品川区","address":"東京都品川区戸越6丁目5-5","lat":35.60886922,"lon":139.71633144},{"name":"西大井ひかり食堂","province":"東京都","city":"品川区","address":"東京都品川区西大井2丁目4-4","lat":35.59995094,"lon":139.72248399},{"name":"まるごはんこども食堂","province":"東京都","city":"品川区","address":"東京都品川区西五反田4丁目31-23","lat":35.62708381,"lon":139.71379224},{"name":"かみしながわ食堂","province":"東京都","city":"品川区","address":"東京都品川区南品川4丁目15-11","lat":35.61284999,"lon":139.73917393},{"name":"しーしーきっちん子ども食堂","province":"東京都","city":"品川区","address":"東京都品川区南品川2丁目9-2","lat":35.61445823,"lon":139.74218752},{"name":"こどもダイニングほかげ","province":"東京都","city":"品川区","address":"東京都品川区中延6丁目1-21","lat":35.60320031,"lon":139.71023213},{"name":"子ども食堂ひよこ","province":"東京都","city":"品川区","address":"東京都品川区八潮5丁目10-27","lat":35.60015206,"lon":139.7512541},{"name":"八潮福祉センター前","province":"東京都","city":"品川区","address":"東京都品川区八潮1丁目4-1","lat":35.60946205,"lon":139.75402291},{"name":"北品川二丁目","province":"東京都","city":"品川区","address":"東京都品川区北品川2丁目34-3","lat":35.61659961,"lon":139.74127362},{"name":"北埠頭橋","province":"東京都","city":"品川区","address":"東京都品川区東品川3丁目27-16","lat":35.61165873,"lon":139.74736499},{"name":"東品川三丁目","province":"東京都","city":"品川区","address":"東京都品川区東品川3丁目6-7","lat":35.61553327,"lon":139.74747316},{"name":"八潮橋","province":"東京都","city":"品川区","address":"東京都品川区東品川4丁目11-34","lat":35.607301,"lon":139.74804846},{"name":"南品川五丁目","province":"東京都","city":"品川区","address":"東京都品川区南品川5丁目3-13","lat":35.61132248,"lon":139.74175433},{"name":"新東海橋","province":"東京都","city":"品川区","address":"東京都品川区東品川1丁目32-3","lat":35.62012434,"lon":139.74618419},{"name":"東品川公園入口","province":"東京都","city":"品川区","address":"東京都品川区東品川3丁目15-10","lat":35.61392513,"lon":139.74735102},{"name":"居木橋","province":"東京都","city":"品川区","address":"東京都品川区北品川4丁目10-5","lat":35.61812701,"lon":139.73499073},{"name":"西品川三丁目","province":"東京都","city":"品川区","address":"東京都品川区大崎2丁目10-14","lat":35.61760745,"lon":139.72900236},{"name":"東品川海上公園","province":"東京都","city":"品川区","address":"東京都品川区東品川3丁目32-36","lat":35.61646105,"lon":139.75092286},{"name":"都立高専前","province":"東京都","city":"品川区","address":"東京都品川区東大井1丁目11-25","lat":35.60682891,"lon":139.75000944},{"name":"品川職業技術専門校前","province":"東京都","city":"品川区","address":"東京都品川区東品川3丁目32-3","lat":35.6119477,"lon":139.75048419},{"name":"新八ツ山橋","province":"東京都","city":"品川区","address":"東京都品川区北品川4丁目7","lat":35.62179607,"lon":139.73699321},{"name":"北品川六丁目","province":"東京都","city":"品川区","address":"東京都品川区東五反田3丁目21-5","lat":35.6249733,"lon":139.73137689},{"name":"東海道北品川","province":"東京都","city":"品川区","address":"東京都品川区北品川2丁目24-5","lat":35.61814672,"lon":139.74379558},{"name":"品川図書館前","province":"東京都","city":"品川区","address":"東京都品川区北品川2丁目30","lat":35.6173746,"lon":139.74390116},{"name":"品川シーサイド駅","province":"東京都","city":"品川区","address":"東京都品川区東品川4丁目13-14","lat":35.60853703,"lon":139.75024546},{"name":"新東海橋東","province":"東京都","city":"品川区","address":"東京都品川区東品川2丁目2-28","lat":35.62179923,"lon":139.74896723},{"name":"八潮橋北","province":"東京都","city":"品川区","address":"東京都品川区東品川4丁目12-1","lat":35.60854805,"lon":139.7479262},{"name":"品川区役所前","province":"東京都","city":"品川区","address":"東京都品川区広町2丁目1-36","lat":35.60881128,"lon":139.73028866},{"name":"東品川シルバーセンター前","province":"東京都","city":"品川区","address":"東京都品川区東品川3丁目32-12","lat":35.61330587,"lon":139.75067301},{"name":"百反坂下","province":"東京都","city":"品川区","address":"東京都品川区西品川3丁目21-8","lat":35.61626598,"lon":139.73041617},{"name":"品川区役所前第二","province":"東京都","city":"品川区","address":"東京都品川区西品川1丁目27-14","lat":35.60922229,"lon":139.72882487},{"name":"大井町駅東口","province":"東京都","city":"品川区","address":"東京都品川区東大井5丁目16-5","lat":35.60713943,"lon":139.73552164},{"name":"立会川","province":"東京都","city":"品川区","address":"東京都品川区東大井2丁目23-2","lat":35.59826843,"lon":139.738369},{"name":"大井町駅西口","province":"東京都","city":"品川区","address":"東京都品川区南大井1丁目3-12","lat":35.5969797,"lon":139.73831627},{"name":"ゼームス坂上","province":"東京都","city":"品川区","address":"東京都品川区東大井5丁目15-4","lat":35.60706171,"lon":139.73642713},{"name":"鈴ヶ森","province":"東京都","city":"品川区","address":"東京都品川区南大井3丁目10","lat":35.59062486,"lon":139.73578617},{"name":"大井権現","province":"東京都","city":"品川区","address":"東京都品川区南大井1丁目1-16","lat":35.59775459,"lon":139.73799126},{"name":"西大井二丁目","province":"東京都","city":"品川区","address":"東京都品川区西大井2丁目4-7","lat":35.59992319,"lon":139.72314505},{"name":"大井一丁目","province":"東京都","city":"品川区","address":"東京都品川区大井1丁目37-10","lat":35.6048062,"lon":139.7307693},{"name":"鮫洲試験場前","province":"東京都","city":"品川区","address":"東京都品川区東大井1丁目12-5","lat":35.6038986,"lon":139.74647094},{"name":"品川区役所入口","province":"東京都","city":"品川区","address":"東京都品川区大井1丁目16-2","lat":35.60764196,"lon":139.73016647},{"name":"鈴ヶ森第二","province":"東京都","city":"品川区","address":"東京都品川区南大井2丁目10-6","lat":35.59019161,"lon":139.73658614},{"name":"大井一丁目第二","province":"東京都","city":"品川区","address":"東京都品川区大井1丁目35-3","lat":35.60507011,"lon":139.73187477},{"name":"大井町駅西口第二","province":"東京都","city":"品川区","address":"東京都品川区大井1丁目10-3","lat":35.60745598,"lon":139.73317737},{"name":"ＪＲ大井町駅南","province":"東京都","city":"品川区","address":"東京都品川区大井1丁目50-5","lat":35.60568679,"lon":139.73414401},{"name":"ＪＲ大井町駅前","province":"東京都","city":"品川区","address":"東京都品川区大井1丁目50-5","lat":35.60568679,"lon":139.73414401},{"name":"大井一本橋","province":"東京都","city":"品川区","address":"東京都品川区大井1丁目20-29","lat":35.60706703,"lon":139.73012762},{"name":"きゅりあん裏","province":"東京都","city":"品川区","address":"東京都品川区東大井5丁目23-37","lat":35.60514807,"lon":139.73690493},{"name":"大井鎧橋","province":"東京都","city":"品川区","address":"東京都品川区大井1丁目49-15","lat":35.60605615,"lon":139.73337462},{"name":"ＪＲ大井工場前","province":"東京都","city":"品川区","address":"東京都品川区大井1丁目1","lat":35.60767819,"lon":139.73352455},{"name":"大森駅北口入口","province":"東京都","city":"品川区","address":"東京都品川区南大井6丁目23-1","lat":35.58961922,"lon":139.73039492},{"name":"大井町駅東口第二","province":"東京都","city":"品川区","address":"東京都品川区大井1丁目2","lat":35.60672556,"lon":139.73428286},{"name":"八潮地域センター前","province":"東京都","city":"品川区","address":"東京都品川区八潮5丁目10-27","lat":35.60015206,"lon":139.7512541},{"name":"ちょうちょ橋","province":"東京都","city":"品川区","address":"東京都品川区八潮5丁目8","lat":35.5968109,"lon":139.75291526},{"name":"中央海浜公園前","province":"東京都","city":"品川区","address":"東京都品川区八潮4丁目2","lat":35.59275297,"lon":139.74978513},{"name":"大井海浜公園前","province":"東京都","city":"品川区","address":"東京都品川区八潮4丁目1","lat":35.59123385,"lon":139.75266834},{"name":"大井町駅入口","province":"東京都","city":"品川区","address":"東京都品川区大井2丁目1-5","lat":35.6065393,"lon":139.72985265},{"name":"五反田駅旧ガード下","province":"東京都","city":"品川区","address":"東京都品川区東五反田1丁目26-6","lat":35.62585636,"lon":139.7240636},{"name":"目黒駅西口前","province":"東京都","city":"品川区","address":"東京都品川区上大崎4丁目1","lat":35.633422,"lon":139.71450866},{"name":"大崎広小路","province":"東京都","city":"品川区","address":"東京都品川区西五反田8丁目4-13","lat":35.6229261,"lon":139.72211664},{"name":"目黒駅東口前","province":"東京都","city":"品川区","address":"東京都品川区上大崎3丁目1","lat":35.63269988,"lon":139.71636408},{"name":"西五反田一丁目","province":"東京都","city":"品川区","address":"東京都品川区西五反田1丁目33-10","lat":35.6240204,"lon":139.72136667},{"name":"五反田駅新ガード下","province":"東京都","city":"品川区","address":"東京都品川区東五反田1丁目26-1","lat":35.6265035,"lon":139.72369972},{"name":"目蒲線ガード下","province":"東京都","city":"品川区","address":"東京都品川区西五反田5丁目1-1","lat":35.62658389,"lon":139.71501159},{"name":"上大崎二丁目","province":"東京都","city":"品川区","address":"東京都品川区上大崎2丁目25-5","lat":35.63461074,"lon":139.71476139},{"name":"上大崎三丁目第二","province":"東京都","city":"品川区","address":"東京都品川区西五反田2丁目1-1","lat":35.62813381,"lon":139.72050273},{"name":"大崎四丁目","province":"東京都","city":"品川区","address":"東京都品川区大崎4丁目2-2","lat":35.62231509,"lon":139.72326656},{"name":"目黒駅ビル前","province":"東京都","city":"品川区","address":"東京都品川区上大崎2丁目15-21","lat":35.63442468,"lon":139.71631958},{"name":"大崎駅西口第二","province":"東京都","city":"品川区","address":"東京都品川区大崎1丁目21-4","lat":35.61970165,"lon":139.72879675},{"name":"大崎駅西口","province":"東京都","city":"品川区","address":"東京都品川区大崎2丁目1-1","lat":35.61837956,"lon":139.72802742},{"name":"平塚橋交番前","province":"東京都","city":"品川区","address":"東京都品川区西中延1丁目1-10","lat":35.61549615,"lon":139.7092402},{"name":"戸越銀座","province":"東京都","city":"品川区","address":"東京都品川区平塚1丁目6-14","lat":35.61544906,"lon":139.71649791},{"name":"昭和医大前","province":"東京都","city":"品川区","address":"東京都品川区旗の台1丁目2-14","lat":35.60944957,"lon":139.70490466},{"name":"昭和医大前第二","province":"東京都","city":"品川区","address":"東京都品川区旗の台1丁目6-16","lat":35.60916903,"lon":139.7039603},{"name":"旗の台駅入口","province":"東京都","city":"品川区","address":"東京都品川区旗の台1丁目4-13","lat":35.60742477,"lon":139.70386869},{"name":"旗の台二丁目","province":"東京都","city":"品川区","address":"東京都品川区旗の台2丁目11-6","lat":35.60577768,"lon":139.70077457},{"name":"戸越銀座入口","province":"東京都","city":"品川区","address":"東京都品川区平塚3丁目2-17","lat":35.61631275,"lon":139.71070949},{"name":"小山四丁目","province":"東京都","city":"品川区","address":"東京都品川区小山4丁目4-7","lat":35.61852353,"lon":139.70432109},{"name":"荏原四丁目","province":"東京都","city":"品川区","address":"東京都品川区荏原4丁目1-1","lat":35.61760698,"lon":139.70549602},{"name":"小山三丁目","province":"東京都","city":"品川区","address":"東京都品川区小山4丁目4-22","lat":35.61905678,"lon":139.70358781},{"name":"第二延山小角","province":"東京都","city":"品川区","address":"東京都品川区旗の台1丁目2-1","lat":35.61073553,"lon":139.70387693},{"name":"武蔵小山駅西","province":"東京都","city":"品川区","address":"東京都品川区小山4丁目2-1","lat":35.6196567,"lon":139.70292952},{"name":"戸越四丁目東","province":"東京都","city":"品川区","address":"東京都品川区戸越5丁目6-4","lat":35.61041631,"lon":139.71847011},{"name":"大森北一丁目","province":"東京都","city":"品川区","address":"東京都品川区南大井3丁目35-10","lat":35.58753902,"lon":139.73258653},{"name":"大森北五差路","province":"東京都","city":"品川区","address":"東京都品川区南大井6丁目27-20","lat":35.58751393,"lon":139.73003949},{"name":"大森海岸駅西","province":"東京都","city":"品川区","address":"東京都品川区南大井3丁目31","lat":35.58793351,"lon":139.73518633},{"name":"大森駅東口広場前","province":"東京都","city":"品川区","address":"東京都品川区南大井6丁目28-8","lat":35.5879583,"lon":139.72972838},{"name":"区立戸越公園","province":"東京都","city":"品川区","address":"東京都品川区豊町2丁目1-30","lat":35.61109965,"lon":139.72238087},{"name":"区立しおじ公園","province":"東京都","city":"品川区","address":"東京都品川区八潮5丁目6","lat":35.59734124,"lon":139.74955159},{"name":"都立八潮高等学校","province":"東京都","city":"品川区","address":"東京都品川区東品川3丁目27-22","lat":35.61185035,"lon":139.74660949},{"name":"フューネラルジャパン株式会社","province":"東京都","city":"品川区","address":"東京都品川区大井1丁目53-7","lat":35.60456746,"lon":139.73380519},{"name":"クロモンこども食堂","province":"東京都","city":"品川区","address":"東京都品川区北品川1丁目","lat":35.62126015,"lon":139.74102346},{"name":"となんこども食堂","province":"東京都","city":"品川区","address":"東京都品川区南品川6丁目6-7","lat":35.61190568,"lon":139.74000445},{"name":"ぬくもりこども食堂","province":"東京都","city":"品川区","address":"東京都品川区大井3丁目3-4","lat":35.60366747,"lon":139.73137485},{"name":"子ども食堂　ふたば","province":"東京都","city":"品川区","address":"東京都品川区二葉4丁目21-4","lat":35.60211999,"lon":139.71715936},{"name":"宿題外来","province":"東京都","city":"品川区","address":"東京都品川区豊町4丁目18-21","lat":35.6060696,"lon":139.72034785},{"name":"子どもゆめ食堂　だんらん","province":"東京都","city":"品川区","address":"東京都品川区西大井2丁目5-21","lat":35.59925377,"lon":139.72186462},{"name":"東五反田食堂","province":"東京都","city":"品川区","address":"東京都品川区東五反田4丁目11-6","lat":35.63025033,"lon":139.7259855},{"name":"こども食堂　ビストロ　ウッフ","province":"東京都","city":"品川区","address":"東京都品川区中延6丁目3-14","lat":35.60282261,"lon":139.71285692},{"name":"こども食堂　あかゆ","province":"東京都","city":"品川区","address":"東京都品川区小山4丁目1-6","lat":35.61980112,"lon":139.70267398},{"name":"福栄みらい塾","province":"東京都","city":"品川区","address":"東京都品川区東品川3丁目1-8","lat":35.61714416,"lon":139.74681759},{"name":"オリーブの樹","province":"東京都","city":"品川区","address":"東京都品川区東大井2丁目23-3","lat":35.59841841,"lon":139.73834677},{"name":"こども食堂ｗａｉｗａｉ","province":"東京都","city":"品川区","address":"東京都品川区中延4丁目4-1","lat":35.60627499,"lon":139.71137083},{"name":"なるとキッチン子ども食堂","province":"東京都","city":"品川区","address":"東京都品川区西五反田2丁目26-4","lat":35.62501749,"lon":139.72051671},{"name":"トントンみんなの子ども食堂","province":"東京都","city":"品川区","address":"東京都品川区二葉3丁目3-5","lat":35.60270607,"lon":139.7193786},{"name":"子ども食堂ぬまフェス！！","province":"東京都","city":"品川区","address":"東京都品川区中延4丁目19-9","lat":35.60410021,"lon":139.71021266},{"name":"てしおこども食堂","province":"東京都","city":"品川区","address":"東京都品川区小山6丁目5-10","lat":35.61436284,"lon":139.69860784},{"name":"スタジオMINAMI子ども食堂部","province":"東京都","city":"品川区","address":"東京都品川区中延1丁目10-19","lat":35.61261594,"lon":139.71049018},{"name":"旗の台ひかりっ子食堂","province":"東京都","city":"品川区","address":"東京都品川区旗の台6丁目22-24","lat":35.6064554,"lon":139.70109675},{"name":"みつばちマーヤこども食堂","province":"東京都","city":"品川区","address":"東京都品川区荏原7丁目6-9","lat":35.61176317,"lon":139.70035222},{"name":"ComidasTKD子ども食堂","province":"東京都","city":"品川区","address":"東京都品川区大崎3丁目10-16","lat":35.61955433,"lon":139.72441656},{"name":"あーちゃんの子ども食堂","province":"東京都","city":"品川区","address":"東京都品川区西品川2丁目5-10","lat":35.61407448,"lon":139.72737761},{"name":"歌の力子ども食堂","province":"東京都","city":"品川区","address":"東京都品川区大井2丁目27-15","lat":35.60430903,"lon":139.73049434},{"name":"クラブ・ターニー","province":"東京都","city":"品川区","address":"東京都品川区大崎1丁目2-2","lat":35.6222763,"lon":139.72729122},{"name":"しなちる子ども食堂","province":"東京都","city":"品川区","address":"東京都品川区南大井1丁目1-18","lat":35.59796846,"lon":139.7380857},{"name":"ゆたか子ども食堂","province":"東京都","city":"品川区","address":"東京都品川区豊町4丁目10-9","lat":35.60663072,"lon":139.72331982},{"name":"はたのだい子ども食堂","province":"東京都","city":"品川区","address":"東京都品川区旗の台3丁目2-9","lat":35.60506117,"lon":139.70685182},{"name":"かもめこども食堂","province":"東京都","city":"品川区","address":"東京都品川区東品川1丁目29-6","lat":35.62039365,"lon":139.74314554},{"name":"レガーメ子ども食堂","province":"東京都","city":"品川区","address":"東京都品川区戸越6丁目5-5","lat":35.60886922,"lon":139.71633144},{"name":"西大井ひかり食堂","province":"東京都","city":"品川区","address":"東京都品川区西大井2丁目4-4","lat":35.59995094,"lon":139.72248399},{"name":"まるごはんこども食堂","province":"東京都","city":"品川区","address":"東京都品川区西五反田4丁目31-23","lat":35.62708381,"lon":139.71379224},{"name":"かみしながわ食堂","province":"東京都","city":"品川区","address":"東京都品川区南品川4丁目15-11","lat":35.61284999,"lon":139.73917393},{"name":"しーしーきっちん子ども食堂","province":"東京都","city":"品川区","address":"東京都品川区南品川2丁目9-2","lat":35.61445823,"lon":139.74218752},{"name":"こどもダイニングほかげ","province":"東京都","city":"品川区","address":"東京都品川区中延6丁目1-21","lat":35.60320031,"lon":139.71023213},{"name":"子ども食堂ひよこ","province":"東京都","city":"品川区","address":"東京都品川区八潮5丁目10-27","lat":35.60015206,"lon":139.7512541},{"name":"八潮福祉センター前","province":"東京都","city":"品川区","address":"東京都品川区八潮1丁目4-1","lat":35.60946205,"lon":139.75402291},{"name":"北品川二丁目","province":"東京都","city":"品川区","address":"東京都品川区北品川2丁目34-3","lat":35.61659961,"lon":139.74127362},{"name":"北埠頭橋","province":"東京都","city":"品川区","address":"東京都品川区東品川3丁目27-16","lat":35.61165873,"lon":139.74736499},{"name":"東品川三丁目","province":"東京都","city":"品川区","address":"東京都品川区東品川3丁目6-7","lat":35.61553327,"lon":139.74747316},{"name":"八潮橋","province":"東京都","city":"品川区","address":"東京都品川区東品川4丁目11-34","lat":35.607301,"lon":139.74804846},{"name":"南品川五丁目","province":"東京都","city":"品川区","address":"東京都品川区南品川5丁目3-13","lat":35.61132248,"lon":139.74175433},{"name":"新東海橋","province":"東京都","city":"品川区","address":"東京都品川区東品川1丁目32-3","lat":35.62012434,"lon":139.74618419},{"name":"東品川公園入口","province":"東京都","city":"品川区","address":"東京都品川区東品川3丁目15-10","lat":35.61392513,"lon":139.74735102},{"name":"居木橋","province":"東京都","city":"品川区","address":"東京都品川区北品川4丁目10-5","lat":35.61812701,"lon":139.73499073},{"name":"西品川三丁目","province":"東京都","city":"品川区","address":"東京都品川区大崎2丁目10-14","lat":35.61760745,"lon":139.72900236},{"name":"東品川海上公園","province":"東京都","city":"品川区","address":"東京都品川区東品川3丁目32-36","lat":35.61646105,"lon":139.75092286},{"name":"都立高専前","province":"東京都","city":"品川区","address":"東京都品川区東大井1丁目11-25","lat":35.60682891,"lon":139.75000944},{"name":"品川職業技術専門校前","province":"東京都","city":"品川区","address":"東京都品川区東品川3丁目32-3","lat":35.6119477,"lon":139.75048419},{"name":"新八ツ山橋","province":"東京都","city":"品川区","address":"東京都品川区北品川4丁目7","lat":35.62179607,"lon":139.73699321},{"name":"北品川六丁目","province":"東京都","city":"品川区","address":"東京都品川区東五反田3丁目21-5","lat":35.6249733,"lon":139.73137689},{"name":"東海道北品川","province":"東京都","city":"品川区","address":"東京都品川区北品川2丁目24-5","lat":35.61814672,"lon":139.74379558},{"name":"品川図書館前","province":"東京都","city":"品川区","address":"東京都品川区北品川2丁目30","lat":35.6173746,"lon":139.74390116},{"name":"品川シーサイド駅","province":"東京都","city":"品川区","address":"東京都品川区東品川4丁目13-14","lat":35.60853703,"lon":139.75024546},{"name":"新東海橋東","province":"東京都","city":"品川区","address":"東京都品川区東品川2丁目2-28","lat":35.62179923,"lon":139.74896723},{"name":"八潮橋北","province":"東京都","city":"品川区","address":"東京都品川区東品川4丁目12-1","lat":35.60854805,"lon":139.7479262},{"name":"品川区役所前","province":"東京都","city":"品川区","address":"東京都品川区広町2丁目1-36","lat":35.60881128,"lon":139.73028866},{"name":"東品川シルバーセンター前","province":"東京都","city":"品川区","address":"東京都品川区東品川3丁目32-12","lat":35.61330587,"lon":139.75067301},{"name":"百反坂下","province":"東京都","city":"品川区","address":"東京都品川区西品川3丁目21-8","lat":35.61626598,"lon":139.73041617},{"name":"品川区役所前第二","province":"東京都","city":"品川区","address":"東京都品川区西品川1丁目27-14","lat":35.60922229,"lon":139.72882487},{"name":"大井町駅東口","province":"東京都","city":"品川区","address":"東京都品川区東大井5丁目16-5","lat":35.60713943,"lon":139.73552164},{"name":"立会川","province":"東京都","city":"品川区","address":"東京都品川区東大井2丁目23-2","lat":35.59826843,"lon":139.738369},{"name":"大井町駅西口","province":"東京都","city":"品川区","address":"東京都品川区南大井1丁目3-12","lat":35.5969797,"lon":139.73831627},{"name":"ゼームス坂上","province":"東京都","city":"品川区","address":"東京都品川区東大井5丁目15-4","lat":35.60706171,"lon":139.73642713},{"name":"鈴ヶ森","province":"東京都","city":"品川区","address":"東京都品川区南大井3丁目10","lat":35.59062486,"lon":139.73578617},{"name":"大井権現","province":"東京都","city":"品川区","address":"東京都品川区南大井1丁目1-16","lat":35.59775459,"lon":139.73799126},{"name":"西大井二丁目","province":"東京都","city":"品川区","address":"東京都品川区西大井2丁目4-7","lat":35.59992319,"lon":139.72314505},{"name":"大井一丁目","province":"東京都","city":"品川区","address":"東京都品川区大井1丁目37-10","lat":35.6048062,"lon":139.7307693},{"name":"鮫洲試験場前","province":"東京都","city":"品川区","address":"東京都品川区東大井1丁目12-5","lat":35.6038986,"lon":139.74647094},{"name":"品川区役所入口","province":"東京都","city":"品川区","address":"東京都品川区大井1丁目16-2","lat":35.60764196,"lon":139.73016647},{"name":"鈴ヶ森第二","province":"東京都","city":"品川区","address":"東京都品川区南大井2丁目10-6","lat":35.59019161,"lon":139.73658614},{"name":"大井一丁目第二","province":"東京都","city":"品川区","address":"東京都品川区大井1丁目35-3","lat":35.60507011,"lon":139.73187477},{"name":"大井町駅西口第二","province":"東京都","city":"品川区","address":"東京都品川区大井1丁目10-3","lat":35.60745598,"lon":139.73317737},{"name":"ＪＲ大井町駅南","province":"東京都","city":"品川区","address":"東京都品川区大井1丁目50-5","lat":35.60568679,"lon":139.73414401},{"name":"ＪＲ大井町駅前","province":"東京都","city":"品川区","address":"東京都品川区大井1丁目50-5","lat":35.60568679,"lon":139.73414401},{"name":"大井一本橋","province":"東京都","city":"品川区","address":"東京都品川区大井1丁目20-29","lat":35.60706703,"lon":139.73012762},{"name":"きゅりあん裏","province":"東京都","city":"品川区","address":"東京都品川区東大井5丁目23-37","lat":35.60514807,"lon":139.73690493},{"name":"大井鎧橋","province":"東京都","city":"品川区","address":"東京都品川区大井1丁目49-15","lat":35.60605615,"lon":139.73337462},{"name":"ＪＲ大井工場前","province":"東京都","city":"品川区","address":"東京都品川区大井1丁目1","lat":35.60767819,"lon":139.73352455},{"name":"大森駅北口入口","province":"東京都","city":"品川区","address":"東京都品川区南大井6丁目23-1","lat":35.58961922,"lon":139.73039492},{"name":"大井町駅東口第二","province":"東京都","city":"品川区","address":"東京都品川区大井1丁目2","lat":35.60672556,"lon":139.73428286},{"name":"八潮地域センター前","province":"東京都","city":"品川区","address":"東京都品川区八潮5丁目10-27","lat":35.60015206,"lon":139.7512541},{"name":"ちょうちょ橋","province":"東京都","city":"品川区","address":"東京都品川区八潮5丁目8","lat":35.5968109,"lon":139.75291526},{"name":"中央海浜公園前","province":"東京都","city":"品川区","address":"東京都品川区八潮4丁目2","lat":35.59275297,"lon":139.74978513},{"name":"大井海浜公園前","province":"東京都","city":"品川区","address":"東京都品川区八潮4丁目1","lat":35.59123385,"lon":139.75266834},{"name":"大井町駅入口","province":"東京都","city":"品川区","address":"東京都品川区大井2丁目1-5","lat":35.6065393,"lon":139.72985265},{"name":"五反田駅旧ガード下","province":"東京都","city":"品川区","address":"東京都品川区東五反田1丁目26-6","lat":35.62585636,"lon":139.7240636},{"name":"目黒駅西口前","province":"東京都","city":"品川区","address":"東京都品川区上大崎4丁目1","lat":35.633422,"lon":139.71450866},{"name":"大崎広小路","province":"東京都","city":"品川区","address":"東京都品川区西五反田8丁目4-13","lat":35.6229261,"lon":139.72211664},{"name":"目黒駅東口前","province":"東京都","city":"品川区","address":"東京都品川区上大崎3丁目1","lat":35.63269988,"lon":139.71636408},{"name":"西五反田一丁目","province":"東京都","city":"品川区","address":"東京都品川区西五反田1丁目33-10","lat":35.6240204,"lon":139.72136667},{"name":"五反田駅新ガード下","province":"東京都","city":"品川区","address":"東京都品川区東五反田1丁目26-1","lat":35.6265035,"lon":139.72369972},{"name":"目蒲線ガード下","province":"東京都","city":"品川区","address":"東京都品川区西五反田5丁目1-1","lat":35.62658389,"lon":139.71501159},{"name":"上大崎二丁目","province":"東京都","city":"品川区","address":"東京都品川区上大崎2丁目25-5","lat":35.63461074,"lon":139.71476139},{"name":"上大崎三丁目第二","province":"東京都","city":"品川区","address":"東京都品川区西五反田2丁目1-1","lat":35.62813381,"lon":139.72050273},{"name":"大崎四丁目","province":"東京都","city":"品川区","address":"東京都品川区大崎4丁目2-2","lat":35.62231509,"lon":139.72326656},{"name":"目黒駅ビル前","province":"東京都","city":"品川区","address":"東京都品川区上大崎2丁目15-21","lat":35.63442468,"lon":139.71631958},{"name":"大崎駅西口第二","province":"東京都","city":"品川区","address":"東京都品川区大崎1丁目21-4","lat":35.61970165,"lon":139.72879675},{"name":"大崎駅西口","province":"東京都","city":"品川区","address":"東京都品川区大崎2丁目1-1","lat":35.61837956,"lon":139.72802742},{"name":"平塚橋交番前","province":"東京都","city":"品川区","address":"東京都品川区西中延1丁目1-10","lat":35.61549615,"lon":139.7092402},{"name":"戸越銀座","province":"東京都","city":"品川区","address":"東京都品川区平塚1丁目6-14","lat":35.61544906,"lon":139.71649791},{"name":"昭和医大前","province":"東京都","city":"品川区","address":"東京都品川区旗の台1丁目2-14","lat":35.60944957,"lon":139.70490466},{"name":"昭和医大前第二","province":"東京都","city":"品川区","address":"東京都品川区旗の台1丁目6-16","lat":35.60916903,"lon":139.7039603},{"name":"旗の台駅入口","province":"東京都","city":"品川区","address":"東京都品川区旗の台1丁目4-13","lat":35.60742477,"lon":139.70386869},{"name":"旗の台二丁目","province":"東京都","city":"品川区","address":"東京都品川区旗の台2丁目11-6","lat":35.60577768,"lon":139.70077457},{"name":"戸越銀座入口","province":"東京都","city":"品川区","address":"東京都品川区平塚3丁目2-17","lat":35.61631275,"lon":139.71070949},{"name":"小山四丁目","province":"東京都","city":"品川区","address":"東京都品川区小山4丁目4-7","lat":35.61852353,"lon":139.70432109},{"name":"荏原四丁目","province":"東京都","city":"品川区","address":"東京都品川区荏原4丁目1-1","lat":35.61760698,"lon":139.70549602},{"name":"小山三丁目","province":"東京都","city":"品川区","address":"東京都品川区小山4丁目4-22","lat":35.61905678,"lon":139.70358781},{"name":"第二延山小角","province":"東京都","city":"品川区","address":"東京都品川区旗の台1丁目2-1","lat":35.61073553,"lon":139.70387693},{"name":"武蔵小山駅西","province":"東京都","city":"品川区","address":"東京都品川区小山4丁目2-1","lat":35.6196567,"lon":139.70292952},{"name":"戸越四丁目東","province":"東京都","city":"品川区","address":"東京都品川区戸越5丁目6-4","lat":35.61041631,"lon":139.71847011},{"name":"大森北一丁目","province":"東京都","city":"品川区","address":"東京都品川区南大井3丁目35-10","lat":35.58753902,"lon":139.73258653},{"name":"大森北五差路","province":"東京都","city":"品川区","address":"東京都品川区南大井6丁目27-20","lat":35.58751393,"lon":139.73003949},{"name":"大森海岸駅西","province":"東京都","city":"品川区","address":"東京都品川区南大井3丁目31","lat":35.58793351,"lon":139.73518633},{"name":"大森駅東口広場前","province":"東京都","city":"品川区","address":"東京都品川区南大井6丁目28-8","lat":35.5879583,"lon":139.72972838},{"name":"区立戸越公園","province":"東京都","city":"品川区","address":"東京都品川区豊町2丁目1-30","lat":35.61109965,"lon":139.72238087},{"name":"区立しおじ公園","province":"東京都","city":"品川区","address":"東京都品川区八潮5丁目6","lat":35.59734124,"lon":139.74955159},{"name":"都立八潮高等学校","province":"東京都","city":"品川区","address":"東京都品川区東品川3丁目27-22","lat":35.61185035,"lon":139.74660949},{"name":"フューネラルジャパン株式会社","province":"東京都","city":"品川区","address":"東京都品川区大井1丁目53-7","lat":35.60456746,"lon":139.73380519},{"name":"クロモンこども食堂","province":"東京都","city":"品川区","address":"東京都品川区北品川1丁目","lat":35.62126015,"lon":139.74102346},{"name":"となんこども食堂","province":"東京都","city":"品川区","address":"東京都品川区南品川6丁目6-7","lat":35.61190568,"lon":139.74000445},{"name":"ぬくもりこども食堂","province":"東京都","city":"品川区","address":"東京都品川区大井3丁目3-4","lat":35.60366747,"lon":139.73137485},{"name":"子ども食堂　ふたば","province":"東京都","city":"品川区","address":"東京都品川区二葉4丁目21-4","lat":35.60211999,"lon":139.71715936},{"name":"宿題外来","province":"東京都","city":"品川区","address":"東京都品川区豊町4丁目18-21","lat":35.6060696,"lon":139.72034785},{"name":"子どもゆめ食堂　だんらん","province":"東京都","city":"品川区","address":"東京都品川区西大井2丁目5-21","lat":35.59925377,"lon":139.72186462},{"name":"東五反田食堂","province":"東京都","city":"品川区","address":"東京都品川区東五反田4丁目11-6","lat":35.63025033,"lon":139.7259855},{"name":"こども食堂　ビストロ　ウッフ","province":"東京都","city":"品川区","address":"東京都品川区中延6丁目3-14","lat":35.60282261,"lon":139.71285692},{"name":"こども食堂　あかゆ","province":"東京都","city":"品川区","address":"東京都品川区小山4丁目1-6","lat":35.61980112,"lon":139.70267398},{"name":"福栄みらい塾","province":"東京都","city":"品川区","address":"東京都品川区東品川3丁目1-8","lat":35.61714416,"lon":139.74681759},{"name":"オリーブの樹","province":"東京都","city":"品川区","address":"東京都品川区東大井2丁目23-3","lat":35.59841841,"lon":139.73834677},{"name":"こども食堂ｗａｉｗａｉ","province":"東京都","city":"品川区","address":"東京都品川区中延4丁目4-1","lat":35.60627499,"lon":139.71137083},{"name":"なるとキッチン子ども食堂","province":"東京都","city":"品川区","address":"東京都品川区西五反田2丁目26-4","lat":35.62501749,"lon":139.72051671},{"name":"トントンみんなの子ども食堂","province":"東京都","city":"品川区","address":"東京都品川区二葉3丁目3-5","lat":35.60270607,"lon":139.7193786},{"name":"子ども食堂ぬまフェス！！","province":"東京都","city":"品川区","address":"東京都品川区中延4丁目19-9","lat":35.60410021,"lon":139.71021266},{"name":"てしおこども食堂","province":"東京都","city":"品川区","address":"東京都品川区小山6丁目5-10","lat":35.61436284,"lon":139.69860784},{"name":"スタジオMINAMI子ども食堂部","province":"東京都","city":"品川区","address":"東京都品川区中延1丁目10-19","lat":35.61261594,"lon":139.71049018},{"name":"旗の台ひかりっ子食堂","province":"東京都","city":"品川区","address":"東京都品川区旗の台6丁目22-24","lat":35.6064554,"lon":139.70109675},{"name":"みつばちマーヤこども食堂","province":"東京都","city":"品川区","address":"東京都品川区荏原7丁目6-9","lat":35.61176317,"lon":139.70035222},{"name":"ComidasTKD子ども食堂","province":"東京都","city":"品川区","address":"東京都品川区大崎3丁目10-16","lat":35.61955433,"lon":139.72441656},{"name":"あーちゃんの子ども食堂","province":"東京都","city":"品川区","address":"東京都品川区西品川2丁目5-10","lat":35.61407448,"lon":139.72737761},{"name":"歌の力子ども食堂","province":"東京都","city":"品川区","address":"東京都品川区大井2丁目27-15","lat":35.60430903,"lon":139.73049434},{"name":"クラブ・ターニー","province":"東京都","city":"品川区","address":"東京都品川区大崎1丁目2-2","lat":35.6222763,"lon":139.72729122},{"name":"しなちる子ども食堂","province":"東京都","city":"品川区","address":"東京都品川区南大井1丁目1-18","lat":35.59796846,"lon":139.7380857},{"name":"ゆたか子ども食堂","province":"東京都","city":"品川区","address":"東京都品川区豊町4丁目10-9","lat":35.60663072,"lon":139.72331982},{"name":"はたのだい子ども食堂","province":"東京都","city":"品川区","address":"東京都品川区旗の台3丁目2-9","lat":35.60506117,"lon":139.70685182},{"name":"かもめこども食堂","province":"東京都","city":"品川区","address":"東京都品川区東品川1丁目29-6","lat":35.62039365,"lon":139.74314554},{"name":"レガーメ子ども食堂","province":"東京都","city":"品川区","address":"東京都品川区戸越6丁目5-5","lat":35.60886922,"lon":139.71633144},{"name":"西大井ひかり食堂","province":"東京都","city":"品川区","address":"東京都品川区西大井2丁目4-4","lat":35.59995094,"lon":139.72248399},{"name":"まるごはんこども食堂","province":"東京都","city":"品川区","address":"東京都品川区西五反田4丁目31-23","lat":35.62708381,"lon":139.71379224},{"name":"かみしながわ食堂","province":"東京都","city":"品川区","address":"東京都品川区南品川4丁目15-11","lat":35.61284999,"lon":139.73917393},{"name":"しーしーきっちん子ども食堂","province":"東京都","city":"品川区","address":"東京都品川区南品川2丁目9-2","lat":35.61445823,"lon":139.74218752},{"name":"こどもダイニングほかげ","province":"東京都","city":"品川区","address":"東京都品川区中延6丁目1-21","lat":35.60320031,"lon":139.71023213},{"name":"子ども食堂ひよこ","province":"東京都","city":"品川区","address":"東京都品川区八潮5丁目10-27","lat":35.60015206,"lon":139.7512541},{"name":"八潮福祉センター前","province":"東京都","city":"品川区","address":"東京都品川区八潮1丁目4-1","lat":35.60946205,"lon":139.75402291},{"name":"北品川二丁目","province":"東京都","city":"品川区","address":"東京都品川区北品川2丁目34-3","lat":35.61659961,"lon":139.74127362},{"name":"北埠頭橋","province":"東京都","city":"品川区","address":"東京都品川区東品川3丁目27-16","lat":35.61165873,"lon":139.74736499},{"name":"東品川三丁目","province":"東京都","city":"品川区","address":"東京都品川区東品川3丁目6-7","lat":35.61553327,"lon":139.74747316},{"name":"八潮橋","province":"東京都","city":"品川区","address":"東京都品川区東品川4丁目11-34","lat":35.607301,"lon":139.74804846},{"name":"南品川五丁目","province":"東京都","city":"品川区","address":"東京都品川区南品川5丁目3-13","lat":35.61132248,"lon":139.74175433},{"name":"新東海橋","province":"東京都","city":"品川区","address":"東京都品川区東品川1丁目32-3","lat":35.62012434,"lon":139.74618419},{"name":"東品川公園入口","province":"東京都","city":"品川区","address":"東京都品川区東品川3丁目15-10","lat":35.61392513,"lon":139.74735102},{"name":"居木橋","province":"東京都","city":"品川区","address":"東京都品川区北品川4丁目10-5","lat":35.61812701,"lon":139.73499073},{"name":"西品川三丁目","province":"東京都","city":"品川区","address":"東京都品川区大崎2丁目10-14","lat":35.61760745,"lon":139.72900236},{"name":"東品川海上公園","province":"東京都","city":"品川区","address":"東京都品川区東品川3丁目32-36","lat":35.61646105,"lon":139.75092286},{"name":"都立高専前","province":"東京都","city":"品川区","address":"東京都品川区東大井1丁目11-25","lat":35.60682891,"lon":139.75000944},{"name":"品川職業技術専門校前","province":"東京都","city":"品川区","address":"東京都品川区東品川3丁目32-3","lat":35.6119477,"lon":139.75048419},{"name":"新八ツ山橋","province":"東京都","city":"品川区","address":"東京都品川区北品川4丁目7","lat":35.62179607,"lon":139.73699321},{"name":"北品川六丁目","province":"東京都","city":"品川区","address":"東京都品川区東五反田3丁目21-5","lat":35.6249733,"lon":139.73137689},{"name":"東海道北品川","province":"東京都","city":"品川区","address":"東京都品川区北品川2丁目24-5","lat":35.61814672,"lon":139.74379558},{"name":"品川図書館前","province":"東京都","city":"品川区","address":"東京都品川区北品川2丁目30","lat":35.6173746,"lon":139.74390116},{"name":"品川シーサイド駅","province":"東京都","city":"品川区","address":"東京都品川区東品川4丁目13-14","lat":35.60853703,"lon":139.75024546},{"name":"新東海橋東","province":"東京都","city":"品川区","address":"東京都品川区東品川2丁目2-28","lat":35.62179923,"lon":139.74896723},{"name":"八潮橋北","province":"東京都","city":"品川区","address":"東京都品川区東品川4丁目12-1","lat":35.60854805,"lon":139.7479262},{"name":"品川区役所前","province":"東京都","city":"品川区","address":"東京都品川区広町2丁目1-36","lat":35.60881128,"lon":139.73028866},{"name":"東品川シルバーセンター前","province":"東京都","city":"品川区","address":"東京都品川区東品川3丁目32-12","lat":35.61330587,"lon":139.75067301},{"name":"百反坂下","province":"東京都","city":"品川区","address":"東京都品川区西品川3丁目21-8","lat":35.61626598,"lon":139.73041617},{"name":"品川区役所前第二","province":"東京都","city":"品川区","address":"東京都品川区西品川1丁目27-14","lat":35.60922229,"lon":139.72882487},{"name":"大井町駅東口","province":"東京都","city":"品川区","address":"東京都品川区東大井5丁目16-5","lat":35.60713943,"lon":139.73552164},{"name":"立会川","province":"東京都","city":"品川区","address":"東京都品川区東大井2丁目23-2","lat":35.59826843,"lon":139.738369},{"name":"大井町駅西口","province":"東京都","city":"品川区","address":"東京都品川区南大井1丁目3-12","lat":35.5969797,"lon":139.73831627},{"name":"ゼームス坂上","province":"東京都","city":"品川区","address":"東京都品川区東大井5丁目15-4","lat":35.60706171,"lon":139.73642713},{"name":"鈴ヶ森","province":"東京都","city":"品川区","address":"東京都品川区南大井3丁目10","lat":35.59062486,"lon":139.73578617},{"name":"大井権現","province":"東京都","city":"品川区","address":"東京都品川区南大井1丁目1-16","lat":35.59775459,"lon":139.73799126},{"name":"西大井二丁目","province":"東京都","city":"品川区","address":"東京都品川区西大井2丁目4-7","lat":35.59992319,"lon":139.72314505},{"name":"大井一丁目","province":"東京都","city":"品川区","address":"東京都品川区大井1丁目37-10","lat":35.6048062,"lon":139.7307693},{"name":"鮫洲試験場前","province":"東京都","city":"品川区","address":"東京都品川区東大井1丁目12-5","lat":35.6038986,"lon":139.74647094},{"name":"品川区役所入口","province":"東京都","city":"品川区","address":"東京都品川区大井1丁目16-2","lat":35.60764196,"lon":139.73016647},{"name":"鈴ヶ森第二","province":"東京都","city":"品川区","address":"東京都品川区南大井2丁目10-6","lat":35.59019161,"lon":139.73658614},{"name":"大井一丁目第二","province":"東京都","city":"品川区","address":"東京都品川区大井1丁目35-3","lat":35.60507011,"lon":139.73187477},{"name":"大井町駅西口第二","province":"東京都","city":"品川区","address":"東京都品川区大井1丁目10-3","lat":35.60745598,"lon":139.73317737},{"name":"ＪＲ大井町駅南","province":"東京都","city":"品川区","address":"東京都品川区大井1丁目50-5","lat":35.60568679,"lon":139.73414401},{"name":"ＪＲ大井町駅前","province":"東京都","city":"品川区","address":"東京都品川区大井1丁目50-5","lat":35.60568679,"lon":139.73414401},{"name":"大井一本橋","province":"東京都","city":"品川区","address":"東京都品川区大井1丁目20-29","lat":35.60706703,"lon":139.73012762},{"name":"きゅりあん裏","province":"東京都","city":"品川区","address":"東京都品川区東大井5丁目23-37","lat":35.60514807,"lon":139.73690493},{"name":"大井鎧橋","province":"東京都","city":"品川区","address":"東京都品川区大井1丁目49-15","lat":35.60605615,"lon":139.73337462},{"name":"ＪＲ大井工場前","province":"東京都","city":"品川区","address":"東京都品川区大井1丁目1","lat":35.60767819,"lon":139.73352455},{"name":"大森駅北口入口","province":"東京都","city":"品川区","address":"東京都品川区南大井6丁目23-1","lat":35.58961922,"lon":139.73039492},{"name":"大井町駅東口第二","province":"東京都","city":"品川区","address":"東京都品川区大井1丁目2","lat":35.60672556,"lon":139.73428286},{"name":"八潮地域センター前","province":"東京都","city":"品川区","address":"東京都品川区八潮5丁目10-27","lat":35.60015206,"lon":139.7512541},{"name":"ちょうちょ橋","province":"東京都","city":"品川区","address":"東京都品川区八潮5丁目8","lat":35.5968109,"lon":139.75291526},{"name":"中央海浜公園前","province":"東京都","city":"品川区","address":"東京都品川区八潮4丁目2","lat":35.59275297,"lon":139.74978513},{"name":"大井海浜公園前","province":"東京都","city":"品川区","address":"東京都品川区八潮4丁目1","lat":35.59123385,"lon":139.75266834},{"name":"大井町駅入口","province":"東京都","city":"品川区","address":"東京都品川区大井2丁目1-5","lat":35.6065393,"lon":139.72985265},{"name":"五反田駅旧ガード下","province":"東京都","city":"品川区","address":"東京都品川区東五反田1丁目26-6","lat":35.62585636,"lon":139.7240636},{"name":"目黒駅西口前","province":"東京都","city":"品川区","address":"東京都品川区上大崎4丁目1","lat":35.633422,"lon":139.71450866},{"name":"大崎広小路","province":"東京都","city":"品川区","address":"東京都品川区西五反田8丁目4-13","lat":35.6229261,"lon":139.72211664},{"name":"目黒駅東口前","province":"東京都","city":"品川区","address":"東京都品川区上大崎3丁目1","lat":35.63269988,"lon":139.71636408},{"name":"西五反田一丁目","province":"東京都","city":"品川区","address":"東京都品川区西五反田1丁目33-10","lat":35.6240204,"lon":139.72136667},{"name":"五反田駅新ガード下","province":"東京都","city":"品川区","address":"東京都品川区東五反田1丁目26-1","lat":35.6265035,"lon":139.72369972},{"name":"目蒲線ガード下","province":"東京都","city":"品川区","address":"東京都品川区西五反田5丁目1-1","lat":35.62658389,"lon":139.71501159},{"name":"上大崎二丁目","province":"東京都","city":"品川区","address":"東京都品川区上大崎2丁目25-5","lat":35.63461074,"lon":139.71476139},{"name":"上大崎三丁目第二","province":"東京都","city":"品川区","address":"東京都品川区西五反田2丁目1-1","lat":35.62813381,"lon":139.72050273},{"name":"大崎四丁目","province":"東京都","city":"品川区","address":"東京都品川区大崎4丁目2-2","lat":35.62231509,"lon":139.72326656},{"name":"目黒駅ビル前","province":"東京都","city":"品川区","address":"東京都品川区上大崎2丁目15-21","lat":35.63442468,"lon":139.71631958},{"name":"大崎駅西口第二","province":"東京都","city":"品川区","address":"東京都品川区大崎1丁目21-4","lat":35.61970165,"lon":139.72879675},{"name":"大崎駅西口","province":"東京都","city":"品川区","address":"東京都品川区大崎2丁目1-1","lat":35.61837956,"lon":139.72802742},{"name":"平塚橋交番前","province":"東京都","city":"品川区","address":"東京都品川区西中延1丁目1-10","lat":35.61549615,"lon":139.7092402},{"name":"戸越銀座","province":"東京都","city":"品川区","address":"東京都品川区平塚1丁目6-14","lat":35.61544906,"lon":139.71649791},{"name":"昭和医大前","province":"東京都","city":"品川区","address":"東京都品川区旗の台1丁目2-14","lat":35.60944957,"lon":139.70490466},{"name":"昭和医大前第二","province":"東京都","city":"品川区","address":"東京都品川区旗の台1丁目6-16","lat":35.60916903,"lon":139.7039603},{"name":"旗の台駅入口","province":"東京都","city":"品川区","address":"東京都品川区旗の台1丁目4-13","lat":35.60742477,"lon":139.70386869},{"name":"旗の台二丁目","province":"東京都","city":"品川区","address":"東京都品川区旗の台2丁目11-6","lat":35.60577768,"lon":139.70077457},{"name":"戸越銀座入口","province":"東京都","city":"品川区","address":"東京都品川区平塚3丁目2-17","lat":35.61631275,"lon":139.71070949},{"name":"小山四丁目","province":"東京都","city":"品川区","address":"東京都品川区小山4丁目4-7","lat":35.61852353,"lon":139.70432109},{"name":"荏原四丁目","province":"東京都","city":"品川区","address":"東京都品川区荏原4丁目1-1","lat":35.61760698,"lon":139.70549602},{"name":"小山三丁目","province":"東京都","city":"品川区","address":"東京都品川区小山4丁目4-22","lat":35.61905678,"lon":139.70358781},{"name":"第二延山小角","province":"東京都","city":"品川区","address":"東京都品川区旗の台1丁目2-1","lat":35.61073553,"lon":139.70387693},{"name":"武蔵小山駅西","province":"東京都","city":"品川区","address":"東京都品川区小山4丁目2-1","lat":35.6196567,"lon":139.70292952},{"name":"戸越四丁目東","province":"東京都","city":"品川区","address":"東京都品川区戸越5丁目6-4","lat":35.61041631,"lon":139.71847011},{"name":"大森北一丁目","province":"東京都","city":"品川区","address":"東京都品川区南大井3丁目35-10","lat":35.58753902,"lon":139.73258653},{"name":"大森北五差路","province":"東京都","city":"品川区","address":"東京都品川区南大井6丁目27-20","lat":35.58751393,"lon":139.73003949},{"name":"大森海岸駅西","province":"東京都","city":"品川区","address":"東京都品川区南大井3丁目31","lat":35.58793351,"lon":139.73518633},{"name":"大森駅東口広場前","province":"東京都","city":"品川区","address":"東京都品川区南大井6丁目28-8","lat":35.5879583,"lon":139.72972838},{"name":"区立戸越公園","province":"東京都","city":"品川区","address":"東京都品川区豊町2丁目1-30","lat":35.61109965,"lon":139.72238087},{"name":"区立しおじ公園","province":"東京都","city":"品川区","address":"東京都品川区八潮5丁目6","lat":35.59734124,"lon":139.74955159},{"name":"都立八潮高等学校","province":"東京都","city":"品川区","address":"東京都品川区東品川3丁目27-22","lat":35.61185035,"lon":139.74660949},{"name":"フューネラルジャパン株式会社","province":"東京都","city":"品川区","address":"東京都品川区大井1丁目53-7","lat":35.60456746,"lon":139.73380519},{"name":"クロモンこども食堂","province":"東京都","city":"品川区","address":"東京都品川区北品川1丁目","lat":35.62126015,"lon":139.74102346},{"name":"となんこども食堂","province":"東京都","city":"品川区","address":"東京都品川区南品川6丁目6-7","lat":35.61190568,"lon":139.74000445},{"name":"ぬくもりこども食堂","province":"東京都","city":"品川区","address":"東京都品川区大井3丁目3-4","lat":35.60366747,"lon":139.73137485},{"name":"子ども食堂　ふたば","province":"東京都","city":"品川区","address":"東京都品川区二葉4丁目21-4","lat":35.60211999,"lon":139.71715936},{"name":"宿題外来","province":"東京都","city":"品川区","address":"東京都品川区豊町4丁目18-21","lat":35.6060696,"lon":139.72034785},{"name":"子どもゆめ食堂　だんらん","province":"東京都","city":"品川区","address":"東京都品川区西大井2丁目5-21","lat":35.59925377,"lon":139.72186462},{"name":"東五反田食堂","province":"東京都","city":"品川区","address":"東京都品川区東五反田4丁目11-6","lat":35.63025033,"lon":139.7259855},{"name":"こども食堂　ビストロ　ウッフ","province":"東京都","city":"品川区","address":"東京都品川区中延6丁目3-14","lat":35.60282261,"lon":139.71285692},{"name":"こども食堂　あかゆ","province":"東京都","city":"品川区","address":"東京都品川区小山4丁目1-6","lat":35.61980112,"lon":139.70267398},{"name":"福栄みらい塾","province":"東京都","city":"品川区","address":"東京都品川区東品川3丁目1-8","lat":35.61714416,"lon":139.74681759},{"name":"オリーブの樹","province":"東京都","city":"品川区","address":"東京都品川区東大井2丁目23-3","lat":35.59841841,"lon":139.73834677},{"name":"こども食堂ｗａｉｗａｉ","province":"東京都","city":"品川区","address":"東京都品川区中延4丁目4-1","lat":35.60627499,"lon":139.71137083},{"name":"なるとキッチン子ども食堂","province":"東京都","city":"品川区","address":"東京都品川区西五反田2丁目26-4","lat":35.62501749,"lon":139.72051671},{"name":"トントンみんなの子ども食堂","province":"東京都","city":"品川区","address":"東京都品川区二葉3丁目3-5","lat":35.60270607,"lon":139.7193786},{"name":"子ども食堂ぬまフェス！！","province":"東京都","city":"品川区","address":"東京都品川区中延4丁目19-9","lat":35.60410021,"lon":139.71021266},{"name":"てしおこども食堂","province":"東京都","city":"品川区","address":"東京都品川区小山6丁目5-10","lat":35.61436284,"lon":139.69860784},{"name":"スタジオMINAMI子ども食堂部","province":"東京都","city":"品川区","address":"東京都品川区中延1丁目10-19","lat":35.61261594,"lon":139.71049018},{"name":"旗の台ひかりっ子食堂","province":"東京都","city":"品川区","address":"東京都品川区旗の台6丁目22-24","lat":35.6064554,"lon":139.70109675},{"name":"みつばちマーヤこども食堂","province":"東京都","city":"品川区","address":"東京都品川区荏原7丁目6-9","lat":35.61176317,"lon":139.70035222},{"name":"ComidasTKD子ども食堂","province":"東京都","city":"品川区","address":"東京都品川区大崎3丁目10-16","lat":35.61955433,"lon":139.72441656},{"name":"あーちゃんの子ども食堂","province":"東京都","city":"品川区","address":"東京都品川区西品川2丁目5-10","lat":35.61407448,"lon":139.72737761},{"name":"歌の力子ども食堂","province":"東京都","city":"品川区","address":"東京都品川区大井2丁目27-15","lat":35.60430903,"lon":139.73049434},{"name":"クラブ・ターニー","province":"東京都","city":"品川区","address":"東京都品川区大崎1丁目2-2","lat":35.6222763,"lon":139.72729122},{"name":"しなちる子ども食堂","province":"東京都","city":"品川区","address":"東京都品川区南大井1丁目1-18","lat":35.59796846,"lon":139.7380857},{"name":"ゆたか子ども食堂","province":"東京都","city":"品川区","address":"東京都品川区豊町4丁目10-9","lat":35.60663072,"lon":139.72331982},{"name":"はたのだい子ども食堂","province":"東京都","city":"品川区","address":"東京都品川区旗の台3丁目2-9","lat":35.60506117,"lon":139.70685182},{"name":"かもめこども食堂","province":"東京都","city":"品川区","address":"東京都品川区東品川1丁目29-6","lat":35.62039365,"lon":139.74314554},{"name":"レガーメ子ども食堂","province":"東京都","city":"品川区","address":"東京都品川区戸越6丁目5-5","lat":35.60886922,"lon":139.71633144},{"name":"西大井ひかり食堂","province":"東京都","city":"品川区","address":"東京都品川区西大井2丁目4-4","lat":35.59995094,"lon":139.72248399},{"name":"まるごはんこども食堂","province":"東京都","city":"品川区","address":"東京都品川区西五反田4丁目31-23","lat":35.62708381,"lon":139.71379224},{"name":"かみしながわ食堂","province":"東京都","city":"品川区","address":"東京都品川区南品川4丁目15-11","lat":35.61284999,"lon":139.73917393},{"name":"しーしーきっちん子ども食堂","province":"東京都","city":"品川区","address":"東京都品川区南品川2丁目9-2","lat":35.61445823,"lon":139.74218752},{"name":"こどもダイニングほかげ","province":"東京都","city":"品川区","address":"東京都品川区中延6丁目1-21","lat":35.60320031,"lon":139.71023213},{"name":"子ども食堂ひよこ","province":"東京都","city":"品川区","address":"東京都品川区八潮5丁目10-27","lat":35.60015206,"lon":139.7512541},{"name":"八潮福祉センター前","province":"東京都","city":"品川区","address":"東京都品川区八潮1丁目4-1","lat":35.60946205,"lon":139.75402291},{"name":"北品川二丁目","province":"東京都","city":"品川区","address":"東京都品川区北品川2丁目34-3","lat":35.61659961,"lon":139.74127362},{"name":"北埠頭橋","province":"東京都","city":"品川区","address":"東京都品川区東品川3丁目27-16","lat":35.61165873,"lon":139.74736499},{"name":"東品川三丁目","province":"東京都","city":"品川区","address":"東京都品川区東品川3丁目6-7","lat":35.61553327,"lon":139.74747316},{"name":"八潮橋","province":"東京都","city":"品川区","address":"東京都品川区東品川4丁目11-34","lat":35.607301,"lon":139.74804846},{"name":"南品川五丁目","province":"東京都","city":"品川区","address":"東京都品川区南品川5丁目3-13","lat":35.61132248,"lon":139.74175433},{"name":"新東海橋","province":"東京都","city":"品川区","address":"東京都品川区東品川1丁目32-3","lat":35.62012434,"lon":139.74618419},{"name":"東品川公園入口","province":"東京都","city":"品川区","address":"東京都品川区東品川3丁目15-10","lat":35.61392513,"lon":139.74735102},{"name":"居木橋","province":"東京都","city":"品川区","address":"東京都品川区北品川4丁目10-5","lat":35.61812701,"lon":139.73499073},{"name":"西品川三丁目","province":"東京都","city":"品川区","address":"東京都品川区大崎2丁目10-14","lat":35.61760745,"lon":139.72900236},{"name":"東品川海上公園","province":"東京都","city":"品川区","address":"東京都品川区東品川3丁目32-36","lat":35.61646105,"lon":139.75092286},{"name":"都立高専前","province":"東京都","city":"品川区","address":"東京都品川区東大井1丁目11-25","lat":35.60682891,"lon":139.75000944},