{"keyword":"椅子","data":[{"name":"大井ふ頭中央海浜公園ホッケー競技場","province":"東京都","city":"品川区","address":"東京都品川区八潮4丁目1","lat":35.593097,"lon":139.752977},{"name":"大井ふ頭中央海浜公園ホッケー競技場","province":"東京都","city":"品川区","address":"東京都品川区八潮4丁目1-19","lat":35.592905,"lon":139.753081},{"name":"大井ふ頭中央海浜公園ホッケー競技場","province":"東京都","city":"品川区","address":"東京都品川区八潮4丁目1-19","lat":35.592375,"lon":139.753054},{"name":"大井ふ頭中央海浜公園ホッケー競技場","province":"東京都","city":"品川区","address":"東京都品川区八潮4丁目1-19","lat":35.592936,"lon":139.752967},{"name":"大井ふ頭中央海浜公園ホッケー競技場","province":"東京都","city":"品川区","address":"東京都品川区八潮4丁目1-19","lat":35.592753,"lon":139.752992},{"name":"大井ふ頭中央海浜公園ホッケー競技場","province":"東京都","city":"品川区","address":"東京都品川区八潮4丁目1-19","lat":35.59232,"lon":139.752941},{"name":"大井ふ頭中央海浜公園ホッケー競技場","province":"東京都","city":"品川区","address":"東京都品川区八潮4丁目1-19","lat":35.592858,"lon":139.752971},{"name":"大井ふ頭中央海浜公園ホッケー競技場","province":"東京都","city":"品川区","address":"東京都品川区八潮4丁目1-19","lat":35.592517,"lon":139.752992},{"name":"大井ふ頭中央海浜公園ホッケー競技場","province":"東京都","city":"品川区","address":"東京都品川区八潮4丁目1-19","lat":35.592405,"lon":139.752932},{"name":"城南職業能力開発センター","province":"東京都","city":"品川区","address":"東京都品川区東品川3丁目31-16","lat":35.612024,"lon":139.749757},{"name":"城南職業能力開発センター","province":"東京都","city":"品川区","address":"東京都品川区東品川3丁目31-16","lat":35.611975,"lon":139.749888},{"name":"東京都南部労政会館","province":"東京都","city":"品川区","address":"東京都品川区大崎1丁目11-1","lat":35.619552,"lon":139.730812},{"name":"林試の森公園","province":"東京都","city":"品川区","address":"東京都品川区小山台2丁目6","lat":35.624441,"lon":139.701575},{"name":"林試の森公園","province":"東京都","city":"品川区","address":"東京都品川区小山台2丁目6","lat":35.625275,"lon":139.701365},{"name":"林試の森公園","province":"東京都","city":"品川区","address":"東京都品川区小山台2丁目7","lat":35.624621,"lon":139.702704},{"name":"潮風公園","province":"東京都","city":"品川区","address":"東京都品川区東八潮1-2","lat":35.62379,"lon":139.769918},{"name":"潮風公園","province":"東京都","city":"品川区","address":"東京都品川区東八潮2","lat":35.620596,"lon":139.769884},{"name":"潮風公園","province":"東京都","city":"品川区","address":"東京都品川区東八潮1","lat":35.623319,"lon":139.768649},{"name":"潮風公園","province":"東京都","city":"品川区","address":"東京都品川区東八潮1","lat":35.623259,"lon":139.76865},{"name":"大井中央海浜公園","province":"東京都","city":"品川区","address":"東京都品川区八潮4丁目1-19","lat":35.592579,"lon":139.752229},{"name":"大井中央海浜公園","province":"東京都","city":"品川区","address":"東京都品川区八潮4丁目2","lat":35.593922,"lon":139.750581},{"name":"大井中央海浜公園","province":"東京都","city":"品川区","address":"東京都品川区八潮4丁目1","lat":35.59061,"lon":139.752343},{"name":"大井中央海浜公園","province":"東京都","city":"品川区","address":"東京都品川区八潮4丁目1","lat":35.594199,"lon":139.753134},{"name":"大井中央海浜公園","province":"東京都","city":"品川区","address":"東京都品川区八潮4丁目1","lat":35.594286,"lon":139.753141},{"name":"大井中央海浜公園","province":"東京都","city":"品川区","address":"東京都品川区八潮4丁目1-19","lat":35.592469,"lon":139.752221},{"name":"みなとが丘ふ頭公園","province":"東京都","city":"品川区","address":"東京都品川区八潮3丁目1","lat":35.595574,"lon":139.76418},{"name":"京浜運河緑道公園","province":"東京都","city":"品川区","address":"東京都品川区八潮5丁目3","lat":35.595892,"lon":139.748995},{"name":"京浜運河緑道公園","province":"東京都","city":"品川区","address":"東京都品川区八潮1丁目4","lat":35.605772,"lon":139.752283},{"name":"大井ふ頭緑道公園","province":"東京都","city":"品川区","address":"東京都品川区八潮5丁目","lat":35.595876,"lon":139.754506},{"name":"都営浅草線中延駅","province":"東京都","city":"品川区","address":"東京都品川区豊町6丁目24","lat":35.604859,"lon":139.713557},{"name":"都営浅草線戸越駅","province":"東京都","city":"品川区","address":"東京都品川区戸越3丁目1","lat":35.614727,"lon":139.716501},{"name":"都営浅草線五反田駅","province":"東京都","city":"品川区","address":"東京都品川区東五反田5丁目25","lat":35.627258,"lon":139.724392},{"name":"東京都水道局品川営業所","province":"東京都","city":"品川区","address":"東京都品川区西中延1丁目9-10","lat":35.611613,"lon":139.70788},{"name":"品川消防署東品川出張所","province":"東京都","city":"品川区","address":"東京都品川区東品川3丁目25-11","lat":35.612932,"lon":139.747264},{"name":"八潮児童センター","province":"東京都","city":"品川区","address":"東京都品川区八潮5丁目10-27","lat":35.59988,"lon":139.751483},{"name":"中小企業センター","province":"東京都","city":"品川区","address":"東京都品川区西品川1丁目28-3","lat":35.60932,"lon":139.727666},{"name":"品川第一地域センタービル","province":"東京都","city":"品川区","address":"東京都品川区北品川3丁目11-16","lat":35.61661,"lon":139.74},{"name":"品川第二地域センター","province":"東京都","city":"品川区","address":"東京都品川区南品川5丁目3-20","lat":35.61132,"lon":139.741236},{"name":"大崎第一地域センター","province":"東京都","city":"品川区","address":"東京都品川区西五反田3丁目6-3","lat":35.628,"lon":139.716543},{"name":"大崎第二地域センター","province":"東京都","city":"品川区","address":"東京都品川区大崎2丁目9-4","lat":35.61694,"lon":139.727615},{"name":"大井第二地域センター","province":"東京都","city":"品川区","address":"東京都品川区大井2丁目27-20","lat":35.60404,"lon":139.730383},{"name":"大井第三地域交流センター","province":"東京都","city":"品川区","address":"東京都品川区西大井2丁目10","lat":35.598668,"lon":139.72212},{"name":"荏原第一地域センター","province":"東京都","city":"品川区","address":"東京都品川区小山3丁目14-1","lat":35.62113,"lon":139.70607},{"name":"荏原第二地域センター","province":"東京都","city":"品川区","address":"東京都品川区荏原6丁目17-12","lat":35.611024,"lon":139.704397},{"name":"荏原第三地域センター","province":"東京都","city":"品川区","address":"東京都品川区平塚1丁目13-18","lat":35.61339,"lon":139.715366},{"name":"荏原第四地域センター","province":"東京都","city":"品川区","address":"東京都品川区中延5丁目3-12","lat":35.60383,"lon":139.708356},{"name":"荏原第五地域センター","province":"東京都","city":"品川区","address":"東京都品川区二葉1丁目1-2","lat":35.60811,"lon":139.725765},{"name":"八潮地域センター","province":"東京都","city":"品川区","address":"東京都品川区八潮5丁目10-27","lat":35.600206,"lon":139.751392},{"name":"八潮地域センター","province":"東京都","city":"品川区","address":"東京都品川区八潮5丁目10-27","lat":35.600211,"lon":139.751371},{"name":"品川区役所議会棟","province":"東京都","city":"品川区","address":"東京都品川区広町2丁目1-36","lat":35.609184,"lon":139.730207},{"name":"品川区役所本庁舎","province":"東京都","city":"品川区","address":"東京都品川区広町2丁目1-36","lat":35.609205,"lon":139.730225},{"name":"品川区役所第二庁舎","province":"東京都","city":"品川区","address":"東京都品川区広町2丁目1-36","lat":35.609734,"lon":139.73032},{"name":"品川区役所第二庁舎","province":"東京都","city":"品川区","address":"東京都品川区広町2丁目1-36","lat":35.609715,"lon":139.730333},{"name":"品川区役所第二庁舎","province":"東京都","city":"品川区","address":"東京都品川区広町2丁目1-36","lat":35.60971,"lon":139.730259},{"name":"品川区役所第三庁舎","province":"東京都","city":"品川区","address":"東京都品川区広町2丁目1-36","lat":35.608371,"lon":139.729994},{"name":"大崎第一区民集会所(第五・六集会室)","province":"東京都","city":"品川区","address":"東京都品川区西五反田3丁目6-38","lat":35.62721,"lon":139.718108},{"name":"荏原区民センター","province":"東京都","city":"品川区","address":"東京都品川区荏原5丁目6-5","lat":35.614522,"lon":139.702143},{"name":"東大井区民集会所","province":"東京都","city":"品川区","address":"東京都品川区東大井2丁目16-12","lat":35.60051,"lon":139.741529},{"name":"東大井区民集会所","province":"東京都","city":"品川区","address":"東京都品川区東大井2丁目16-12","lat":35.6005,"lon":139.741539},{"name":"ウェルカムセンター原・交流施設","province":"東京都","city":"品川区","address":"東京都品川区西大井2丁目5-21","lat":35.5991,"lon":139.721384},{"name":"荏原文化センター","province":"東京都","city":"品川区","address":"東京都品川区中延1丁目9-15","lat":35.612232,"lon":139.710724},{"name":"品川区立荏原平塚総合区民会館","province":"東京都","city":"品川区","address":"東京都品川区荏原4丁目5-28","lat":35.615449,"lon":139.707523},{"name":"品川区立荏原平塚総合区民会館","province":"東京都","city":"品川区","address":"東京都品川区荏原4丁目5-28","lat":35.615386,"lon":139.707971},{"name":"品川区立荏原平塚総合区民会館","province":"東京都","city":"品川区","address":"東京都品川区荏原4丁目5-28","lat":35.615661,"lon":139.707422},{"name":"品川区立荏原平塚総合区民会館","province":"東京都","city":"品川区","address":"東京都品川区荏原4丁目5-28","lat":35.615259,"lon":139.707412},{"name":"品川区立荏原平塚総合区民会館","province":"東京都","city":"品川区","address":"東京都品川区荏原4丁目5-28","lat":35.615584,"lon":139.707278},{"name":"品川区立荏原平塚総合区民会館","province":"東京都","city":"品川区","address":"東京都品川区荏原4丁目5-28","lat":35.615155,"lon":139.707548},{"name":"品川区立荏原平塚総合区民会館","province":"東京都","city":"品川区","address":"東京都品川区荏原4丁目5-28","lat":35.615155,"lon":139.707547},{"name":"南大井文化センター","province":"東京都","city":"品川区","address":"東京都品川区南大井1丁目12-6","lat":35.596304,"lon":139.737548},{"name":"五反田文化センター","province":"東京都","city":"品川区","address":"東京都品川区西五反田6丁目5-1","lat":35.622476,"lon":139.71653},{"name":"五反田文化センター","province":"東京都","city":"品川区","address":"東京都品川区西五反田6丁目5-1","lat":35.622537,"lon":139.716441},{"name":"きゅりあん品川区立総合区民会館","province":"東京都","city":"品川区","address":"東京都品川区東大井5丁目18-1","lat":35.606043,"lon":139.736202},{"name":"こみゅにてぃぷらざ八潮","province":"東京都","city":"品川区","address":"東京都品川区八潮5丁目9-11","lat":35.597726,"lon":139.752531},{"name":"東品川文化センター","province":"東京都","city":"品川区","address":"東京都品川区東品川3丁目32-11","lat":35.61291,"lon":139.750609},{"name":"品川保健センター","province":"東京都","city":"品川区","address":"東京都品川区北品川3丁目11-22","lat":35.61655,"lon":139.74067},{"name":"大井保健センター","province":"東京都","city":"品川区","address":"東京都品川区大井2丁目27-20","lat":35.60406,"lon":139.730367},{"name":"品川区立品川図書館","province":"東京都","city":"品川区","address":"東京都品川区北品川2丁目32-3","lat":35.616842,"lon":139.742501},{"name":"品川区立品川図書館","province":"東京都","city":"品川区","address":"東京都品川区北品川2丁目32-3","lat":35.616923,"lon":139.742567},{"name":"品川区立荏原図書館","province":"東京都","city":"品川区","address":"東京都品川区中延1丁目9-15","lat":35.61224,"lon":139.710379},{"name":"品川区立ゆたか図書館","province":"東京都","city":"品川区","address":"東京都品川区豊町1丁目17-7","lat":35.6116,"lon":139.722359},{"name":"品川区立大井図書館","province":"東京都","city":"品川区","address":"東京都品川区大井5丁目19-14","lat":35.59826,"lon":139.729171},{"name":"品川区立八潮図書館","province":"東京都","city":"品川区","address":"東京都品川区八潮5丁目10-27","lat":35.59987,"lon":139.751456},{"name":"品川区立五反田図書館","province":"東京都","city":"品川区","address":"東京都品川区西五反田6丁目5-1","lat":35.62267,"lon":139.716473},{"name":"品川区立大崎図書館","province":"東京都","city":"品川区","address":"東京都品川区北品川5丁目2-1","lat":35.62342,"lon":139.731753},{"name":"品川区立二葉図書館","province":"東京都","city":"品川区","address":"東京都品川区二葉1丁目4-25","lat":35.608,"lon":139.726688},{"name":"品川区立大崎図書館分館","province":"東京都","city":"品川区","address":"東京都品川区大崎3丁目11","lat":35.618742,"lon":139.72379},{"name":"荏原中央公園","province":"東京都","city":"品川区","address":"東京都品川区荏原5丁目1","lat":35.615956,"lon":139.704132},{"name":"豊町公園","province":"東京都","city":"品川区","address":"東京都品川区豊町6丁目16","lat":35.604627,"lon":139.716338},{"name":"洲崎公園","province":"東京都","city":"品川区","address":"東京都品川区東品川1丁目36","lat":35.618023,"lon":139.746511},{"name":"八潮公園","province":"東京都","city":"品川区","address":"東京都品川区八潮5丁目10-55","lat":35.599563,"lon":139.753395},{"name":"二葉公園","province":"東京都","city":"品川区","address":"東京都品川区二葉4丁目13","lat":35.603761,"lon":139.718218},{"name":"西品川公園","province":"東京都","city":"品川区","address":"東京都品川区西品川1丁目8","lat":35.6126,"lon":139.730977},{"name":"鈴ヶ森公園","province":"東京都","city":"品川区","address":"東京都品川区南大井4丁目19-3","lat":35.593263,"lon":139.734644},{"name":"大井水神公園","province":"東京都","city":"品川区","address":"東京都品川区南大井5丁目16","lat":35.59549,"lon":139.732655},{"name":"西大井広場公園","province":"東京都","city":"品川区","address":"東京都品川区西大井1丁目4","lat":35.601975,"lon":139.723817},{"name":"西大井広場公園","province":"東京都","city":"品川区","address":"東京都品川区西大井1丁目4","lat":35.602564,"lon":139.723847},{"name":"浜川公園","province":"東京都","city":"品川区","address":"東京都品川区南大井4丁目8","lat":35.596899,"lon":139.735359},{"name":"しながわ区民公園","province":"東京都","city":"品川区","address":"東京都品川区南大井2丁目3","lat":35.593498,"lon":139.737902},{"name":"しながわ区民公園","province":"東京都","city":"品川区","address":"東京都品川区勝島3丁目2","lat":35.593972,"lon":139.739885},{"name":"しながわ区民公園","province":"東京都","city":"品川区","address":"東京都品川区勝島3丁目2","lat":35.592883,"lon":139.7391},{"name":"しながわ区民公園","province":"東京都","city":"品川区","address":"東京都品川区勝島3丁目2","lat":35.590379,"lon":139.737169},{"name":"しながわ区民公園","province":"東京都","city":"品川区","address":"東京都品川区勝島3丁目2","lat":35.588704,"lon":139.738544},{"name":"わかくさ公園","province":"東京都","city":"品川区","address":"東京都品川区勝島1丁目6","lat":35.597996,"lon":139.743768},{"name":"天王洲公園","province":"東京都","city":"品川区","address":"東京都品川区東品川2丁目6-23","lat":35.619425,"lon":139.750207},{"name":"天王洲公園","province":"東京都","city":"品川区","address":"東京都品川区東品川2丁目5","lat":35.620478,"lon":139.749307},{"name":"しおじ公園","province":"東京都","city":"品川区","address":"東京都品川区八潮5丁目6-39","lat":35.596674,"lon":139.750731},{"name":"谷山公園","province":"東京都","city":"品川区","address":"東京都品川区西五反田3丁目6","lat":35.627766,"lon":139.718554},{"name":"大崎西口公園","province":"東京都","city":"品川区","address":"東京都品川区大崎2丁目10","lat":35.617594,"lon":139.728966},{"name":"鮫洲入江広場","province":"東京都","city":"品川区","address":"東京都品川区東大井1丁目13","lat":35.603246,"lon":139.743743},{"name":"品川シーサイド公園","province":"東京都","city":"品川区","address":"東京都品川区東品川4丁目12","lat":35.607567,"lon":139.749138},{"name":"東品川海上公園","province":"東京都","city":"品川区","address":"東京都品川区東品川3丁目9","lat":35.617143,"lon":139.749388},{"name":"天王洲アイル第一公園","province":"東京都","city":"品川区","address":"東京都品川区東品川2丁目3-16","lat":35.623494,"lon":139.751298},{"name":"しながわ中央公園","province":"東京都","city":"品川区","address":"東京都品川区西品川1丁目27","lat":35.609408,"lon":139.728837},{"name":"しながわ中央公園","province":"東京都","city":"品川区","address":"東京都品川区西品川1丁目28","lat":35.608965,"lon":139.72738},{"name":"八潮北公園","province":"東京都","city":"品川区","address":"東京都品川区八潮1丁目3-1","lat":35.612505,"lon":139.753769},{"name":"大森貝塚遺跡庭園","province":"東京都","city":"品川区","address":"東京都品川区大井6丁目21","lat":35.593354,"lon":139.729948},{"name":"品川浦公園","province":"東京都","city":"品川区","address":"東京都品川区東品川1丁目7","lat":35.621148,"lon":139.74212},{"name":"かむろ坂公園","province":"東京都","city":"品川区","address":"東京都品川区西五反田4丁目28","lat":35.625203,"lon":139.711604},{"name":"品海公園","province":"東京都","city":"品川区","address":"東京都品川区北品川1丁目30","lat":35.620037,"lon":139.742194},{"name":"品川南ふ頭公園","province":"東京都","city":"品川区","address":"東京都品川区東品川5丁目8","lat":35.621988,"lon":139.754866},{"name":"荏原南公園","province":"東京都","city":"品川区","address":"東京都品川区荏原6丁目15","lat":35.611767,"lon":139.703017},{"name":"東品川公園","province":"東京都","city":"品川区","address":"東京都品川区東品川3丁目14","lat":35.614952,"lon":139.746533},{"name":"鮫洲運動公園","province":"東京都","city":"品川区","address":"東京都品川区東大井1丁目4","lat":35.606564,"lon":139.744786},{"name":"鮫洲運動公園","province":"東京都","city":"品川区","address":"東京都品川区東大井1丁目4","lat":35.605924,"lon":139.745038},{"name":"ひらさん広場","province":"東京都","city":"品川区","address":"東京都品川区平塚3丁目9","lat":35.614026,"lon":139.712639},{"name":"五反田ふれあい水辺広場","province":"東京都","city":"品川区","address":"東京都品川区東五反田2丁目9","lat":35.624186,"lon":139.726396},{"name":"文庫の森","province":"東京都","city":"品川区","address":"東京都品川区豊町1丁目16","lat":35.611366,"lon":139.720625},{"name":"京陽公園","province":"東京都","city":"品川区","address":"東京都品川区平塚2丁目12","lat":35.616767,"lon":139.71323},{"name":"上神明児童遊園","province":"東京都","city":"品川区","address":"東京都品川区二葉4丁目26","lat":35.602244,"lon":139.714196},{"name":"小山台東公園","province":"東京都","city":"品川区","address":"東京都品川区小山台1丁目26","lat":35.62228,"lon":139.706355},{"name":"大井中央公園","province":"東京都","city":"品川区","address":"東京都品川区大井1丁目46","lat":35.604643,"lon":139.732225},{"name":"台場浦公園","province":"東京都","city":"品川区","address":"東京都品川区東品川1丁目8","lat":35.621538,"lon":139.742958},{"name":"峰原公園","province":"東京都","city":"品川区","address":"東京都品川区大崎3丁目17","lat":35.617991,"lon":139.721141},{"name":"武蔵小山駅前公衆便所","province":"東京都","city":"品川区","address":"東京都品川区小山3丁目27","lat":35.620049,"lon":139.703545},{"name":"新馬場北公衆便所","province":"東京都","city":"品川区","address":"東京都品川区北品川2丁目18-1","lat":35.617719,"lon":139.741363},{"name":"不動前公衆便所","province":"東京都","city":"品川区","address":"東京都品川区西五反田5丁目1","lat":35.625951,"lon":139.714184},{"name":"大井町駅東口公衆便所","province":"東京都","city":"品川区","address":"東京都品川区大井1丁目2","lat":35.606838,"lon":139.735183},{"name":"西大井公衆便所","province":"東京都","city":"品川区","address":"東京都品川区西大井1丁目3-2","lat":35.60165,"lon":139.721787},{"name":"三十五橋公衆便所","province":"東京都","city":"品川区","address":"東京都品川区中延5丁目14","lat":35.602349,"lon":139.709006},{"name":"西小山駅前公衆便所","province":"東京都","city":"品川区","address":"東京都品川区小山6丁目2","lat":35.615125,"lon":139.698398},{"name":"新品川橋公衆便所","province":"東京都","city":"品川区","address":"東京都品川区東品川3丁目1","lat":35.616939,"lon":139.745334},{"name":"南大井公衆便所","province":"東京都","city":"品川区","address":"東京都品川区南大井1丁目22","lat":35.594707,"lon":139.73663},{"name":"大井水神南公衆便所","province":"東京都","city":"品川区","address":"東京都品川区南大井6丁目15-11","lat":35.589779,"lon":139.729263},{"name":"荏原町駅前公衆便所","province":"東京都","city":"品川区","address":"東京都品川区中延5丁目2","lat":35.603793,"lon":139.708155},{"name":"荏原中延公衆便所","province":"東京都","city":"品川区","address":"東京都品川区東中延1丁目9","lat":35.609693,"lon":139.71185},{"name":"八ツ山の東司","province":"東京都","city":"品川区","address":"東京都品川区北品川1丁目3","lat":35.623759,"lon":139.739138},{"name":"新浜川橋北公衆便所","province":"東京都","city":"品川区","address":"東京都品川区南大井1丁目6","lat":35.596405,"lon":139.740942},{"name":"大井町駅前公衆便所","province":"東京都","city":"品川区","address":"東京都品川区大井1丁目2","lat":35.60565,"lon":139.734733},{"name":"新馬場南公衆便所","province":"東京都","city":"品川区","address":"東京都品川区南品川1丁目1","lat":35.614687,"lon":139.74191},{"name":"青物横丁公衆便所","province":"東京都","city":"品川区","address":"東京都品川区南品川2丁目5","lat":35.610097,"lon":139.742777},{"name":"大崎橋公衆便所","province":"東京都","city":"品川区","address":"東京都品川区西五反田1丁目10","lat":35.624599,"lon":139.724257},{"name":"品川区立大崎高齢者多世代交流支援施設(呼称：大崎ゆうゆうプラザ)","province":"東京都","city":"品川区","address":"東京都品川区大崎2丁目7-13","lat":35.6168,"lon":139.725836},{"name":"品川区立平塚橋高齢者多世代交流支援施設(呼称：平塚橋ゆうゆうプラザ)","province":"東京都","city":"品川区","address":"東京都品川区西中延1丁目2-8","lat":35.61428,"lon":139.709987},{"name":"南ゆたか児童センター","province":"東京都","city":"品川区","address":"東京都品川区豊町4丁目17-21","lat":35.606509,"lon":139.720918},{"name":"品川区立なぎさ会館","province":"東京都","city":"品川区","address":"東京都品川区勝島3丁目1-3","lat":35.59631,"lon":139.741776},{"name":"品川区立総合体育館","province":"東京都","city":"品川区","address":"東京都品川区東五反田2丁目11-1","lat":35.6245,"lon":139.728523},{"name":"品川区立総合体育館","province":"東京都","city":"品川区","address":"東京都品川区東五反田2丁目11-1","lat":35.62462,"lon":139.72846},{"name":"品川区立総合体育館","province":"東京都","city":"品川区","address":"東京都品川区東五反田2丁目11-1","lat":35.62453,"lon":139.728195},{"name":"品川区立戸越体育館","province":"東京都","city":"品川区","address":"東京都品川区豊町2丁目1-17","lat":35.61099,"lon":139.720543},{"name":"品川区清掃事務所","province":"東京都","city":"品川区","address":"東京都品川区大崎1丁目14-1","lat":35.61842,"lon":139.733304},{"name":"品川区立心身障害者福祉会館","province":"東京都","city":"品川区","address":"東京都品川区旗の台5丁目2-2","lat":35.60504,"lon":139.700453},{"name":"品川区立心身障害者福祉会館","province":"東京都","city":"品川区","address":"東京都品川区旗の台5丁目2-2","lat":35.60504,"lon":139.700406},{"name":"品川区立心身障害者福祉会館","province":"東京都","city":"品川区","address":"東京都品川区旗の台5丁目2-2","lat":35.60504,"lon":139.70043},{"name":"品川区立平塚高齢者多世代交流支援施設（呼称：平塚ゆうゆうプラザ）","province":"東京都","city":"品川区","address":"東京都品川区平塚2丁目10-20","lat":35.616926,"lon":139.71401},{"name":"品川区立障害児者総合支援施設","province":"東京都","city":"品川区","address":"東京都品川区南品川3丁目7-7","lat":35.607127,"lon":139.744875},{"name":"品川区立障害児者総合支援施設","province":"東京都","city":"品川区","address":"東京都品川区南品川3丁目7-7","lat":35.607199,"lon":139.74508},{"name":"品川区立障害児者総合支援施設","province":"東京都","city":"品川区","address":"東京都品川区南品川3丁目7-7","lat":35.607178,"lon":139.744809},{"name":"品川区立障害児者総合支援施設","province":"東京都","city":"品川区","address":"東京都品川区南品川3丁目7-7","lat":35.607303,"lon":139.744888},{"name":"メイプルカルチャーセンター","province":"東京都","city":"品川区","address":"東京都品川区西大井1丁目4","lat":35.602195,"lon":139.722438},{"name":"ゆたか防災広場","province":"東京都","city":"品川区","address":"東京都品川区豊町6丁目11","lat":35.605585,"lon":139.717701},{"name":"品川区立東品川高齢者多世代交流支援施設（呼称：東品川ゆうゆうプラザ）","province":"東京都","city":"品川区","address":"東京都品川区東品川3丁目32-11","lat":35.613002,"lon":139.750591},{"name":"ファミーユ西品川子ども未来部分室105号室","province":"東京都","city":"品川区","address":"東京都品川区西品川1丁目16-2","lat":35.612145,"lon":139.729911},{"name":"東大井児童センター","province":"東京都","city":"品川区","address":"東京都品川区東大井1丁目22-16","lat":35.603314,"lon":139.741363},{"name":"子ども家庭支援センター","province":"東京都","city":"品川区","address":"東京都品川区二葉1丁目7-15","lat":35.608697,"lon":139.729292},{"name":"武蔵小山図書取次施設","province":"東京都","city":"品川区","address":"東京都品川区小山3丁目22-3","lat":35.619219,"lon":139.705798},{"name":"後地児童センター","province":"東京都","city":"品川区","address":"東京都品川区小山2丁目9-19","lat":35.620618,"lon":139.709179},{"name":"大原児童センター","province":"東京都","city":"品川区","address":"東京都品川区戸越6丁目16-1","lat":35.607348,"lon":139.715397},{"name":"ゆたか児童センター","province":"東京都","city":"品川区","address":"東京都品川区豊町1丁目18-15","lat":35.611498,"lon":139.722742},{"name":"中原児童センター（仮設）","province":"東京都","city":"品川区","address":"東京都品川区西五反田6丁目6-6","lat":35.623204,"lon":139.717292},{"name":"品川区立環境学習交流施設(エコルとごし)","province":"東京都","city":"品川区","address":"東京都品川区豊町2丁目1-30","lat":35.611007,"lon":139.722297}]}