{"keyword":"自転車","data":[{"name":"大井町駅西口区営自転車等駐車場","province":"東京都","city":"品川区","address":"東京都品川区大井1丁目7-9","lat":35.6069477,"lon":139.73276353},{"name":"荏原町駅区営自転車等駐車場","province":"東京都","city":"品川区","address":"東京都品川区中延5丁目1-1","lat":35.60373632,"lon":139.70709906},{"name":"大井町駅東口区営自転車等駐車場","province":"東京都","city":"品川区","address":"東京都品川区東大井5丁目20","lat":35.60593956,"lon":139.7351356},{"name":"大井町駅西口第２区営自転車等駐車場","province":"東京都","city":"品川区","address":"東京都品川区大井4丁目3","lat":35.6043425,"lon":139.73430794},{"name":"大崎駅東口区営自転車等駐車場","province":"東京都","city":"品川区","address":"東京都品川区大崎1丁目4","lat":35.62122922,"lon":139.72766623},{"name":"大崎駅西口区営自転車等駐車場","province":"東京都","city":"品川区","address":"東京都品川区大崎2丁目1-1","lat":35.61837956,"lon":139.72802742},{"name":"天王洲アイル駅第1区営自転車等駐車場","province":"東京都","city":"品川区","address":"東京都品川区東品川2丁目5","lat":35.62087714,"lon":139.74977277},{"name":"品川シーサイド駅区営自転車等駐車場","province":"東京都","city":"品川区","address":"東京都品川区東品川4丁目12","lat":35.61013954,"lon":139.74892049},{"name":"新馬場駅区営自転車等駐車場","province":"東京都","city":"品川区","address":"東京都品川区南品川2丁目9","lat":35.61410271,"lon":139.74211254},{"name":"大井競馬場前駅区営自転車等駐車場","province":"東京都","city":"品川区","address":"東京都品川区勝島1丁目4","lat":35.59839374,"lon":139.74625178},{"name":"五反田駅区営自転車等駐車場","province":"東京都","city":"品川区","address":"東京都品川区西五反田2丁目2","lat":35.62741723,"lon":139.72130823},{"name":"地下鉄中延駅第2区営自転車等駐車場","province":"東京都","city":"品川区","address":"東京都品川区中延4丁目7","lat":35.60468074,"lon":139.71304018},{"name":"地下鉄中延駅第3区営自転車等駐車場","province":"東京都","city":"品川区","address":"東京都品川区豊町6丁目24","lat":35.60496128,"lon":139.71401231},{"name":"地下鉄戸越駅第1区営自転車等駐車場","province":"東京都","city":"品川区","address":"東京都品川区平塚1丁目6","lat":35.61576846,"lon":139.71593684},{"name":"旗の台駅第1区営自転車等駐車場","province":"東京都","city":"品川区","address":"東京都品川区旗の台2丁目6","lat":35.60612214,"lon":139.70458811},{"name":"旗の台駅第2区営自転車等駐車場","province":"東京都","city":"品川区","address":"東京都品川区旗の台2丁目7","lat":35.60603603,"lon":139.70409648},{"name":"大森駅水神口区営自転車等駐車場","province":"東京都","city":"品川区","address":"東京都品川区南大井6丁目15","lat":35.59096903,"lon":139.72973936},{"name":"西大井駅区営自転車等駐車場","province":"東京都","city":"品川区","address":"東京都品川区二葉2丁目26-6","lat":35.60234505,"lon":139.72205061},{"name":"青物横丁駅区営自転車等駐車場","province":"東京都","city":"品川区","address":"東京都品川区南品川2丁目4","lat":35.61029207,"lon":139.74243766},{"name":"立会川駅区営自転車等駐車場","province":"東京都","city":"品川区","address":"東京都品川区南大井1丁目3-1","lat":35.59782961,"lon":139.73858289},{"name":"下神明駅区営自転車等駐車場","province":"東京都","city":"品川区","address":"東京都品川区二葉1丁目1","lat":35.60827784,"lon":139.72551405},{"name":"戸越公園駅第1区営自転車等駐車場","province":"東京都","city":"品川区","address":"東京都品川区戸越5丁目10","lat":35.60913035,"lon":139.71878957},{"name":"戸越公園駅第2区営自転車等駐車場","province":"東京都","city":"品川区","address":"東京都品川区戸越6丁目6","lat":35.60852205,"lon":139.7170925}]}