{"keyword":"認可","data":[{"name":"大井保育園","province":"東京都","city":"品川区","address":"品川区東大井6-14-16","lat":35.60114,"lon":139.73528},{"name":"AIAI NURSERY 大崎","province":"東京都","city":"品川区","address":"品川区大崎2-1-1ThinkParkPlaza1階","lat":35.61837,"lon":139.72736},{"name":"三ツ木保育園","province":"東京都","city":"品川区","address":"品川区豊町2-1-30","lat":35.61019,"lon":139.72151},{"name":"日本音楽学校保育園","province":"東京都","city":"品川区","address":"品川区豊町2-16-12","lat":35.61028,"lon":139.72488},{"name":"東大井保育園","province":"東京都","city":"品川区","address":"品川区東大井3-4-4","lat":35.60338,"lon":139.73846},{"name":"品川区立五反田第二保育園","province":"東京都","city":"品川区","address":"品川区北品川五丁目3番1号","lat":35.62237,"lon":139.73167},{"name":"八潮北保育園","province":"東京都","city":"品川区","address":"品川区八潮5-1-3","lat":35.59703,"lon":139.75186},{"name":"ひろまち保育園","province":"東京都","city":"品川区","address":"品川区広町2-1-18","lat":35.6083,"lon":139.73096},{"name":"しなおおコスモ保育園","province":"東京都","city":"品川区","address":"品川区大井1-31-1シティタワー大井町1階","lat":35.60583,"lon":139.73064},{"name":"ココファン・ナーサリー大崎","province":"東京都","city":"品川区","address":"品川区大崎3-6-32","lat":35.6199,"lon":139.72702},{"name":"南ゆたか保育園","province":"東京都","city":"品川区","address":"品川区豊町3-5-31","lat":35.60881,"lon":139.72163},{"name":"大井町のぞみ保育園","province":"東京都","city":"品川区","address":"品川区二葉1-12-18","lat":35.60663,"lon":139.72699},{"name":"ニチイキッズむさしこやま保育園","province":"東京都","city":"品川区","address":"品川区小山3-15-1パークシティ武蔵小山ザモール","lat":35.62044,"lon":139.7049},{"name":"さくらさくみらい　御殿山","province":"東京都","city":"品川区","address":"品川区北品川3-6-1","lat":35.61952,"lon":139.73944},{"name":"さくらさくみらい　武蔵小山","province":"東京都","city":"品川区","address":"品川区荏原3-1-18","lat":35.61885,"lon":139.70769},{"name":"ココファン・ナーサリー旗の台","province":"東京都","city":"品川区","address":"品川区旗の台3-3-20","lat":35.60509,"lon":139.70715},{"name":"台場保育園","province":"東京都","city":"品川区","address":"品川区東品川1-8-30","lat":35.62124,"lon":139.74362},{"name":"アイ保育園","province":"東京都","city":"品川区","address":"品川区東品川1-36-11","lat":35.61754,"lon":139.74608},{"name":"八潮西保育園","province":"東京都","city":"品川区","address":"品川区八潮5-8-41","lat":35.59703,"lon":139.75186},{"name":"八潮中央保育園","province":"東京都","city":"品川区","address":"品川区八潮5-10-60-101","lat":35.59938,"lon":139.75263},{"name":"さくらさくみらい　東大井","province":"東京都","city":"品川区","address":"品川区東大井2-11-4","lat":35.60222,"lon":139.74052},{"name":"アソシエ東大井公園保育園","province":"東京都","city":"品川区","address":"品川区東大井3-1-11","lat":35.60456,"lon":139.73821},{"name":"にじいろ保育園勝島","province":"東京都","city":"品川区","address":"品川区勝島3-2-2","lat":35.58901,"lon":139.7376},{"name":"クオリスキッズ大井町第２保育園","province":"東京都","city":"品川区","address":"品川区大井3-26-7","lat":35.60066,"lon":139.7301},{"name":"キッズタウンにしおおい","province":"東京都","city":"品川区","address":"品川区西大井2-5-21","lat":35.59926,"lon":139.72263},{"name":"大崎保育園","province":"東京都","city":"品川区","address":"品川区大崎5-2-1","lat":35.62174,"lon":139.72644},{"name":"二葉つぼみ保育園","province":"東京都","city":"品川区","address":"品川区二葉1-3-40","lat":35.60692,"lon":139.72572},{"name":"源氏前保育園","province":"東京都","city":"品川区","address":"品川区中延4-14-19","lat":35.60547,"lon":139.71014},{"name":"グローバルキッズ荏原町保育園","province":"東京都","city":"品川区","address":"品川区中延5-2-1","lat":35.6037,"lon":139.70773},{"name":"荏原西第二保育園","province":"東京都","city":"品川区","address":"品川区荏原4-5-22","lat":35.61527,"lon":139.70793},{"name":"ココファン・ナーサリー旗の台","province":"東京都","city":"品川区","address":"品川区旗の台3-3-20","lat":35.6051,"lon":139.70715},{"name":"アスク南大井保育園","province":"東京都","city":"品川区","address":"品川区南大井6-22-7大森ベルポートE館1階","lat":35.6068,"lon":139.72672},{"name":"キッズガーデン品川上大崎","province":"東京都","city":"品川区","address":"品川区上大崎4-5-37本多電機ビル1・2階","lat":35.62355,"lon":139.72507}]}