{"keyword":"連絡","data":[{"name":"品川区福祉計画課","province":"東京都","city":"品川区","address":"品川区広町2-1-36","lat":35.608299,"lon":139.730957},{"name":"成幸在宅介護支援センター","province":"東京都","city":"品川区","address":"品川区中延1-8-7","lat":35.612217,"lon":139.711746},{"name":"東品川在宅介護支援センター","province":"東京都","city":"品川区","address":"品川区東品川3-1-5","lat":35.616982,"lon":139.746597},{"name":"大井在宅介護支援センター","province":"東京都","city":"品川区","address":"品川区大井4-14-8","lat":35.601936,"lon":139.732315},{"name":"大崎在宅介護支援センター","province":"東京都","city":"品川区","address":"品川区大崎2-11-1、2階","lat":35.61837,"lon":139.727356},{"name":"戸越台在宅介護支援センター","province":"東京都","city":"品川区","address":"品川区平塚2-3-4","lat":35.618355,"lon":139.717682},{"name":"八潮在宅介護支援センター","province":"東京都","city":"品川区","address":"品川区八潮5-10-27","lat":35.599377,"lon":139.752625},{"name":"荏原在宅介護支援センター","province":"東京都","city":"品川区","address":"品川区荏原2-9-6","lat":35.617012,"lon":139.711105},{"name":"品川区統括在宅介護支援センター（品川区地域包括支援センター）","province":"東京都","city":"品川区","address":"品川区広町2-1-36","lat":35.608299,"lon":139.730957},{"name":"小山在宅介護支援センター","province":"東京都","city":"品川区","address":"品川区小山7-14-18","lat":35.608883,"lon":139.696838},{"name":"中延在宅介護支援センター","province":"東京都","city":"品川区","address":"品川区中延6-8-8","lat":35.601826,"lon":139.711487},{"name":"上大崎在宅介護支援センター","province":"東京都","city":"品川区","address":"品川区上大崎3-1-1","lat":35.632851,"lon":139.716843},{"name":"台場在宅介護支援センター","province":"東京都","city":"品川区","address":"品川区北品川3-11-16","lat":35.616436,"lon":139.739273},{"name":"西大井在宅介護支援センター","province":"東京都","city":"品川区","address":"品川区西大井2-4-4","lat":35.599796,"lon":139.722351},{"name":"南大井在宅介護支援センター","province":"東京都","city":"品川区","address":"品川区南大井4-19-3","lat":35.593044,"lon":139.734695},{"name":"杜松在宅介護支援センター","province":"東京都","city":"品川区","address":"品川区豊町4-24-15","lat":35.605835,"lon":139.722733},{"name":"南大井第二在宅介護支援センター","province":"東京都","city":"品川区","address":"品川区東大井4-9-1","lat":35.605358,"lon":139.740372},{"name":"大原在宅介護支援センター","province":"東京都","city":"品川区","address":"品川区豊町6-25-13","lat":35.603725,"lon":139.713684},{"name":"東品川第二在宅介護支援センター","province":"東京都","city":"品川区","address":"品川区東品川3-27-25オフィスイン品川3階","lat":35.611816,"lon":139.746674},{"name":"大井第二在宅介護支援センター","province":"東京都","city":"品川区","address":"品川区大井3-15-7","lat":35.602428,"lon":139.729401},{"name":"西五反田在宅介護支援センター","province":"東京都","city":"品川区","address":"品川区西五反田3-6-6","lat":35.627678,"lon":139.71785},{"name":"小山台在宅介護支援センター","province":"東京都","city":"品川区","address":"品川区小山台1-4-1(りんし21区民集会所3階)","lat":35.624367,"lon":139.704758},{"name":"品川区消費者センター","province":"東京都","city":"品川区","address":"品川区大井1-14-1大井1丁目共同ビル4階","lat":35.607559,"lon":139.731613}]}