{"keyword":"集会","data":[{"name":"品川区役所","province":"東京都","city":"品川区","address":"東京都品川区広町2-1-36","lat":35.6093959,"lon":139.7301459},{"name":"品川第一地域センター・区民集会所","province":"東京都","city":"品川区","address":"東京都品川区北品川3-11-16","lat":35.6166735,"lon":139.739995},{"name":"品川第二地域センター・区民集会所","province":"東京都","city":"品川区","address":"東京都品川区南品川5-3-20","lat":35.6113482,"lon":139.7412774},{"name":"大崎第一地域センター・区民集会所","province":"東京都","city":"品川区","address":"東京都品川区西五反田3-6-3","lat":35.6279721,"lon":139.7164476},{"name":"大井第一地域センター","province":"東京都","city":"品川区","address":"東京都品川区南大井1-12-6","lat":35.5963292,"lon":139.7375406},{"name":"大井第二地域センター・区民集会所","province":"東京都","city":"品川区","address":"東京都品川区大井2-27-20","lat":35.6040785,"lon":139.7304557},{"name":"大井第三地域センター・区民集会所","province":"東京都","city":"品川区","address":"東京都品川区西大井4-1-8","lat":35.5976934,"lon":139.7211039},{"name":"荏原第一地域センター・区民集会所","province":"東京都","city":"品川区","address":"東京都品川区小山3-22-3","lat":35.6192605,"lon":139.7057503},{"name":"荏原第二地域センター・区民集会所","province":"東京都","city":"品川区","address":"東京都品川区荏原6-17-12","lat":35.6110694,"lon":139.7043829},{"name":"荏原第三地域センター・区民集会所","province":"東京都","city":"品川区","address":"東京都品川区平塚1-13-18","lat":35.6133434,"lon":139.7153629},{"name":"荏原第四地域センター・区民集会所","province":"東京都","city":"品川区","address":"東京都品川区中延5-3-12","lat":35.6038249,"lon":139.7084941},{"name":"八潮地域センター・区民集会所","province":"東京都","city":"品川区","address":"東京都品川区八潮5-10-27","lat":35.6001681,"lon":139.7514663},{"name":"東大井区民集会所","province":"東京都","city":"品川区","address":"東京都品川区東大井2-16-12","lat":35.6005168,"lon":139.7415771},{"name":"防災センター","province":"東京都","city":"品川区","address":"東京都品川区広町2-1-36","lat":35.6096778,"lon":139.7302715},{"name":"大崎第二地域センター・区民集会所","province":"東京都","city":"品川区","address":"東京都品川区大崎2-9-4","lat":35.616649,"lon":139.7279883},{"name":"荏原第五地域センター・区民集会所","province":"東京都","city":"品川区","address":"東京都品川区二葉1-1-2","lat":35.6081773,"lon":139.7256994}]}