{"keyword":"食堂","data":[{"name":"クロモンこども食堂","province":"東京都","city":"品川区","address":"東京都品川区北品川1丁目","lat":35.62126015,"lon":139.74102346},{"name":"となんこども食堂","province":"東京都","city":"品川区","address":"東京都品川区南品川6丁目6-7","lat":35.61190568,"lon":139.74000445},{"name":"ぬくもりこども食堂","province":"東京都","city":"品川区","address":"東京都品川区大井3丁目3-4","lat":35.60366747,"lon":139.73137485},{"name":"子ども食堂　ふたば","province":"東京都","city":"品川区","address":"東京都品川区二葉4丁目21-4","lat":35.60211999,"lon":139.71715936},{"name":"宿題外来","province":"東京都","city":"品川区","address":"東京都品川区豊町4丁目18-21","lat":35.6060696,"lon":139.72034785},{"name":"子どもゆめ食堂　だんらん","province":"東京都","city":"品川区","address":"東京都品川区西大井2丁目5-21","lat":35.59925377,"lon":139.72186462},{"name":"東五反田食堂","province":"東京都","city":"品川区","address":"東京都品川区東五反田4丁目11-6","lat":35.63025033,"lon":139.7259855},{"name":"こども食堂　ビストロ　ウッフ","province":"東京都","city":"品川区","address":"東京都品川区中延6丁目3-14","lat":35.60282261,"lon":139.71285692},{"name":"こども食堂　あかゆ","province":"東京都","city":"品川区","address":"東京都品川区小山4丁目1-6","lat":35.61980112,"lon":139.70267398},{"name":"福栄みらい塾","province":"東京都","city":"品川区","address":"東京都品川区東品川3丁目1-8","lat":35.61714416,"lon":139.74681759},{"name":"オリーブの樹","province":"東京都","city":"品川区","address":"東京都品川区東大井2丁目23-3","lat":35.59841841,"lon":139.73834677},{"name":"こども食堂ｗａｉｗａｉ","province":"東京都","city":"品川区","address":"東京都品川区中延4丁目4-1","lat":35.60627499,"lon":139.71137083},{"name":"なるとキッチン子ども食堂","province":"東京都","city":"品川区","address":"東京都品川区西五反田2丁目26-4","lat":35.62501749,"lon":139.72051671},{"name":"トントンみんなの子ども食堂","province":"東京都","city":"品川区","address":"東京都品川区二葉3丁目3-5","lat":35.60270607,"lon":139.7193786},{"name":"子ども食堂ぬまフェス！！","province":"東京都","city":"品川区","address":"東京都品川区中延4丁目19-9","lat":35.60410021,"lon":139.71021266},{"name":"てしおこども食堂","province":"東京都","city":"品川区","address":"東京都品川区小山6丁目5-10","lat":35.61436284,"lon":139.69860784},{"name":"スタジオMINAMI子ども食堂部","province":"東京都","city":"品川区","address":"東京都品川区中延1丁目10-19","lat":35.61261594,"lon":139.71049018},{"name":"旗の台ひかりっ子食堂","province":"東京都","city":"品川区","address":"東京都品川区旗の台6丁目22-24","lat":35.6064554,"lon":139.70109675},{"name":"みつばちマーヤこども食堂","province":"東京都","city":"品川区","address":"東京都品川区荏原7丁目6-9","lat":35.61176317,"lon":139.70035222},{"name":"ComidasTKD子ども食堂","province":"東京都","city":"品川区","address":"東京都品川区大崎3丁目10-16","lat":35.61955433,"lon":139.72441656},{"name":"あーちゃんの子ども食堂","province":"東京都","city":"品川区","address":"東京都品川区西品川2丁目5-10","lat":35.61407448,"lon":139.72737761},{"name":"歌の力子ども食堂","province":"東京都","city":"品川区","address":"東京都品川区大井2丁目27-15","lat":35.60430903,"lon":139.73049434},{"name":"クラブ・ターニー","province":"東京都","city":"品川区","address":"東京都品川区大崎1丁目2-2","lat":35.6222763,"lon":139.72729122},{"name":"しなちる子ども食堂","province":"東京都","city":"品川区","address":"東京都品川区南大井1丁目1-18","lat":35.59796846,"lon":139.7380857},{"name":"ゆたか子ども食堂","province":"東京都","city":"品川区","address":"東京都品川区豊町4丁目10-9","lat":35.60663072,"lon":139.72331982},{"name":"はたのだい子ども食堂","province":"東京都","city":"品川区","address":"東京都品川区旗の台3丁目2-9","lat":35.60506117,"lon":139.70685182},{"name":"かもめこども食堂","province":"東京都","city":"品川区","address":"東京都品川区東品川1丁目29-6","lat":35.62039365,"lon":139.74314554},{"name":"レガーメ子ども食堂","province":"東京都","city":"品川区","address":"東京都品川区戸越6丁目5-5","lat":35.60886922,"lon":139.71633144},{"name":"西大井ひかり食堂","province":"東京都","city":"品川区","address":"東京都品川区西大井2丁目4-4","lat":35.59995094,"lon":139.72248399},{"name":"まるごはんこども食堂","province":"東京都","city":"品川区","address":"東京都品川区西五反田4丁目31-23","lat":35.62708381,"lon":139.71379224},{"name":"かみしながわ食堂","province":"東京都","city":"品川区","address":"東京都品川区南品川4丁目15-11","lat":35.61284999,"lon":139.73917393},{"name":"しーしーきっちん子ども食堂","province":"東京都","city":"品川区","address":"東京都品川区南品川2丁目9-2","lat":35.61445823,"lon":139.74218752},{"name":"こどもダイニングほかげ","province":"東京都","city":"品川区","address":"東京都品川区中延6丁目1-21","lat":35.60320031,"lon":139.71023213},{"name":"子ども食堂ひよこ","province":"東京都","city":"品川区","address":"東京都品川区八潮5丁目10-27","lat":35.60015206,"lon":139.7512541}]}