{"keyword":"館","data":[{"name":"北品川児童センター","province":"東京都","city":"品川区","address":"品川区北品川2-7-21","lat":35.618822,"lon":139.743946},{"name":"東品川児童センター","province":"東京都","city":"品川区","address":"品川区東品川1-34-9","lat":35.619127,"lon":139.74604},{"name":"南品川児童センター","province":"東京都","city":"品川区","address":"品川区南品川4-5-28","lat":35.613483,"lon":139.738688},{"name":"東大井児童センター","province":"東京都","city":"品川区","address":"品川区東大井1-22-16","lat":35.603493,"lon":139.741357},{"name":"南大井児童センター","province":"東京都","city":"品川区","address":"品川区南大井3-7-13","lat":35.591827,"lon":139.7343},{"name":"水神児童センター","province":"東京都","city":"品川区","address":"品川区南大井5-13-19","lat":35.595455,"lon":139.733933},{"name":"一本橋児童センター","province":"東京都","city":"品川区","address":"品川区大井2-25-1","lat":35.604651,"lon":139.729633},{"name":"大井倉田児童センター","province":"東京都","city":"品川区","address":"品川区大井4-11-34","lat":35.602204,"lon":139.733664},{"name":"滝王子児童センター","province":"東京都","city":"品川区","address":"品川区大井5-19-14","lat":35.598199,"lon":139.728978},{"name":"伊藤児童センター","province":"東京都","city":"品川区","address":"品川区西大井6-13-1","lat":35.600701,"lon":139.717582},{"name":"冨士見台児童センター","province":"東京都","city":"品川区","address":"品川区西大井6-1-8","lat":35.60132,"lon":139.71424},{"name":"小関児童センター","province":"東京都","city":"品川区","address":"品川区北品川5-8-15","lat":35.620171,"lon":139.732449},{"name":"東五反田児童センター","province":"東京都","city":"品川区","address":"品川区東五反田5-24-1","lat":35.627981,"lon":139.7233},{"name":"三ツ木児童センター","province":"東京都","city":"品川区","address":"品川区西品川2-6-13","lat":35.614005,"lon":139.726217},{"name":"大原児童センター","province":"東京都","city":"品川区","address":"品川区戸越6-16-1","lat":35.607347,"lon":139.715412},{"name":"南ゆたか児童センター","province":"東京都","city":"品川区","address":"品川区豊町4-17-21","lat":35.606492,"lon":139.720881},{"name":"ゆたか児童センター","province":"東京都","city":"品川区","address":"品川区豊町1-18-15","lat":35.611533,"lon":139.722706},{"name":"平塚児童センター","province":"東京都","city":"品川区","address":"品川区平塚2-2-3","lat":35.61879,"lon":139.717409},{"name":"東中延児童センター","province":"東京都","city":"品川区","address":"品川区東中延2-5-10","lat":35.607805,"lon":139.713807},{"name":"中延児童センター","province":"東京都","city":"品川区","address":"品川区西中延1-6-16","lat":35.612419,"lon":139.708496},{"name":"西中延児童センター","province":"東京都","city":"品川区","address":"品川区西中延3-8-5","lat":35.60733,"lon":139.708102},{"name":"後地児童センター","province":"東京都","city":"品川区","address":"品川区小山2-9-19","lat":35.620629,"lon":139.709198},{"name":"中原児童センター","province":"東京都","city":"品川区","address":"品川区小山1-4-1","lat":35.622093,"lon":139.712604},{"name":"旗の台児童センター","province":"東京都","city":"品川区","address":"品川区旗の台5-19-5","lat":35.603767,"lon":139.700416},{"name":"北品川児童センター","province":"東京都","city":"品川区","address":"品川区北品川2-7-21","lat":35.61884,"lon":139.74411},{"name":"東品川児童センター","province":"東京都","city":"品川区","address":"品川区東品川1-34-9","lat":35.61913,"lon":139.74596},{"name":"南品川児童センター","province":"東京都","city":"品川区","address":"品川区南品川4-5-28","lat":35.6139,"lon":139.73991},{"name":"東大井児童センター","province":"東京都","city":"品川区","address":"品川区東大井1-22-16","lat":35.60352,"lon":139.74173},{"name":"南大井児童センター","province":"東京都","city":"品川区","address":"品川区南大井3-7-13","lat":35.59172,"lon":139.7343},{"name":"水神児童センター","province":"東京都","city":"品川区","address":"品川区南大井5-13-19","lat":35.59551,"lon":139.73419},{"name":"一本橋児童センター","province":"東京都","city":"品川区","address":"品川区大井2-25-1","lat":35.60458,"lon":139.72977},{"name":"大井倉田児童センター","province":"東京都","city":"品川区","address":"品川区大井4-11-34","lat":35.60184,"lon":139.73378},{"name":"滝王子児童センター","province":"東京都","city":"品川区","address":"品川区大井5-19-14","lat":35.59817,"lon":139.72887},{"name":"伊藤児童センター","province":"東京都","city":"品川区","address":"品川区西大井6-13-1","lat":35.59996,"lon":139.71771},{"name":"冨士見台児童センター","province":"東京都","city":"品川区","address":"品川区西大井6-1-8","lat":35.60092,"lon":139.71378},{"name":"小関児童センター","province":"東京都","city":"品川区","address":"品川区北品川5-8-15","lat":35.61963,"lon":139.73285},{"name":"東五反田児童センター","province":"東京都","city":"品川区","address":"品川区東五反田5-24-1","lat":35.62775,"lon":139.72345},{"name":"三ツ木児童センター","province":"東京都","city":"品川区","address":"品川区西品川2-6-13","lat":35.61399,"lon":139.72658},{"name":"大原児童センター","province":"東京都","city":"品川区","address":"品川区戸越6-16-1","lat":35.60715,"lon":139.7155},{"name":"ゆたか児童センター","province":"東京都","city":"品川区","address":"品川区豊町1-18-15","lat":35.61148,"lon":139.72275},{"name":"南ゆたか児童センター","province":"東京都","city":"品川区","address":"品川区豊町4-17-21","lat":35.60647,"lon":139.72116},{"name":"平塚児童センター","province":"東京都","city":"品川区","address":"品川区平塚2-2-3","lat":35.61859,"lon":139.71733},{"name":"東中延児童センター","province":"東京都","city":"品川区","address":"品川区東中延2-5-10","lat":35.60784,"lon":139.71361},{"name":"中延児童センター","province":"東京都","city":"品川区","address":"品川区西中延1-6-16","lat":35.61238,"lon":139.70831},{"name":"西中延児童センター","province":"東京都","city":"品川区","address":"品川区西中延3-8-5","lat":35.60726,"lon":139.70827},{"name":"中原児童センター","province":"東京都","city":"品川区","address":"品川区西五反田6-6-18","lat":35.62322,"lon":139.71755},{"name":"後地児童センター","province":"東京都","city":"品川区","address":"品川区小山2-9-19","lat":35.62122,"lon":139.7093},{"name":"旗の台児童センター","province":"東京都","city":"品川区","address":"品川区旗の台5-19-5","lat":35.60385,"lon":139.7003},{"name":"中原児童センター","province":"東京都","city":"品川区","address":"品川区小山1-4-1","lat":35.62147,"lon":139.71176},{"name":"東大井児童センター","province":"東京都","city":"品川区","address":"品川区東大井3-4-4","lat":35.60338,"lon":139.73846},{"name":"三ツ木児童センター","province":"東京都","city":"品川区","address":"品川区西品川2-6-13","lat":35.614,"lon":139.72658},{"name":"大原児童センター","province":"東京都","city":"品川区","address":"品川区戸越6-16-1","lat":35.60716,"lon":139.7155},{"name":"後地児童センター","province":"東京都","city":"品川区","address":"品川区小山2-9-19","lat":35.62122,"lon":139.70931},{"name":"＊?品川図書館","province":"東京都","city":"品川区","address":"品川区北品川2-32-3","lat":35.616874,"lon":139.7424},{"name":"＊?五反田図書館","province":"東京都","city":"品川区","address":"品川区西五反田6-5-1","lat":35.622538,"lon":139.716574},{"name":"＊?大崎図書館","province":"東京都","city":"品川区","address":"品川区大崎2-4-8","lat":35.618613,"lon":139.725768},{"name":"＊?南大井図書館","province":"東京都","city":"品川区","address":"品川区南大井3-7-13","lat":35.591688,"lon":139.734415},{"name":"＊?大井図書館","province":"東京都","city":"品川区","address":"品川区大井5-19-14","lat":35.598197,"lon":139.729048},{"name":"＊?源氏前図書館","province":"東京都","city":"品川区","address":"品川区中延4-14-17","lat":35.605537,"lon":139.709936},{"name":"＊?二葉図書館","province":"東京都","city":"品川区","address":"品川区二葉1-4-25","lat":35.607995,"lon":139.726706},{"name":"＊?荏原図書館","province":"東京都","city":"品川区","address":"品川区中延1-9-15","lat":35.612166,"lon":139.710676},{"name":"＊?ゆたか図書館","province":"東京都","city":"品川区","address":"品川区豊町1-17-7","lat":35.611585,"lon":139.722443},{"name":"＊?八潮図書館","province":"東京都","city":"品川区","address":"品川区八潮5-10-27","lat":35.600197,"lon":139.751451}]}