{"keyword":"駒込","data":[{"name":"品川第一地域センター","province":"東京都","city":"品川区","address":"品川区北品川3-11-16","lat":35.616673,"lon":139.740036},{"name":"台場小学校","province":"東京都","city":"品川区","address":"品川区東品川1-8-30","lat":35.620869,"lon":139.743667},{"name":"三木小学校","province":"東京都","city":"品川区","address":"品川区西品川3-16-28","lat":35.615256,"lon":139.726544},{"name":"大崎第一地域センター","province":"東京都","city":"品川区","address":"品川区西五反田3-6-3","lat":35.627795,"lon":139.716815},{"name":"第一日野小学校","province":"東京都","city":"品川区","address":"品川区西五反田6-5-32","lat":35.622228,"lon":139.716127},{"name":"日野学園","province":"東京都","city":"品川区","address":"品川区東五反田2-11-1","lat":35.62454,"lon":139.72831},{"name":"第三日野小学校","province":"東京都","city":"品川区","address":"品川区上大崎1-19-19","lat":35.632789,"lon":139.723939},{"name":"後地小学校","province":"東京都","city":"品川区","address":"品川区小山2-4-6","lat":35.621519,"lon":139.708452},{"name":"小山小学校","province":"東京都","city":"品川区","address":"品川区小山5-10-6","lat":35.616018,"lon":139.70329},{"name":"大原小学校","province":"東京都","city":"品川区","address":"品川区戸越6-17-3","lat":35.607167,"lon":139.716467},{"name":"大井第一小学校","province":"東京都","city":"品川区","address":"品川区大井6-1-32","lat":35.598644,"lon":139.730919},{"name":"伊藤学園","province":"東京都","city":"品川区","address":"品川区大井5-1-37","lat":35.599873,"lon":139.726009},{"name":"鈴ケ森小学校","province":"東京都","city":"品川区","address":"品川区南大井4-16-2","lat":35.594487,"lon":139.735286},{"name":"大井第二地域センター","province":"東京都","city":"品川区","address":"品川区大井2-27-20","lat":35.604027,"lon":139.730464},{"name":"浅間台小学校","province":"東京都","city":"品川区","address":"品川区南品川6-8-8","lat":35.611462,"lon":139.736584},{"name":"大井第三地域センター","province":"東京都","city":"品川区","address":"品川区西大井4-1-8","lat":35.597669,"lon":139.72108},{"name":"京陽小学校","province":"東京都","city":"品川区","address":"品川区平塚2-19-20","lat":35.330742,"lon":139.337875},{"name":"城南第二小学校","province":"東京都","city":"品川区","address":"品川区東品川3-4-5","lat":35.615644,"lon":139.746083},{"name":"立会小学校","province":"東京都","city":"品川区","address":"品川区東大井4-15-9","lat":35.604432,"lon":139.740166},{"name":"旗台小学校","province":"東京都","city":"品川区","address":"品川区旗の台4-7-11","lat":35.603162,"lon":139.703765},{"name":"豊葉の杜学園","province":"東京都","city":"品川区","address":"品川区二葉1-3-40","lat":35.607037,"lon":139.72556},{"name":"延山小学校","province":"東京都","city":"品川区","address":"品川区西中延2-17-5","lat":35.608779,"lon":139.707882},{"name":"宮前小学校","province":"東京都","city":"品川区","address":"品川区戸越4-5-10","lat":35.611768,"lon":139.718319},{"name":"品川区役所","province":"東京都","city":"品川区","address":"品川区広町2-1-36","lat":35.609181,"lon":139.730167},{"name":"品川区清掃事務所","province":"東京都","city":"品川区","address":"品川区大崎1-14-1","lat":35.618345,"lon":139.733502},{"name":"芳水小学校","province":"東京都","city":"品川区","address":"品川区大崎3-12-22","lat":35.61857,"lon":139.724154},{"name":"伊藤小学校","province":"東京都","city":"品川区","address":"品川区西大井5-6-8","lat":35.598691,"lon":139.717367},{"name":"源氏前小学校","province":"東京都","city":"品川区","address":"品川区中延6-2-18","lat":35.603165,"lon":139.712064},{"name":"小山台小学校","province":"東京都","city":"品川区","address":"品川区小山台1-18-24","lat":35.62276,"lon":139.703466},{"name":"品川区役所","province":"東京都","city":"品川区","address":"東京都品川区広町2-1-36","lat":35.6093959,"lon":139.7301459},{"name":"品川第一地域センター・区民集会所","province":"東京都","city":"品川区","address":"東京都品川区北品川3-11-16","lat":35.6166735,"lon":139.739995},{"name":"品川第二地域センター・区民集会所","province":"東京都","city":"品川区","address":"東京都品川区南品川5-3-20","lat":35.6113482,"lon":139.7412774},{"name":"大崎第一地域センター・区民集会所","province":"東京都","city":"品川区","address":"東京都品川区西五反田3-6-3","lat":35.6279721,"lon":139.7164476},{"name":"大井第一地域センター","province":"東京都","city":"品川区","address":"東京都品川区南大井1-12-6","lat":35.5963292,"lon":139.7375406},{"name":"大井第二地域センター・区民集会所","province":"東京都","city":"品川区","address":"東京都品川区大井2-27-20","lat":35.6040785,"lon":139.7304557},{"name":"大井第三地域センター・区民集会所","province":"東京都","city":"品川区","address":"東京都品川区西大井4-1-8","lat":35.5976934,"lon":139.7211039},{"name":"荏原第一地域センター・区民集会所","province":"東京都","city":"品川区","address":"東京都品川区小山3-22-3","lat":35.6192605,"lon":139.7057503},{"name":"荏原第二地域センター・区民集会所","province":"東京都","city":"品川区","address":"東京都品川区荏原6-17-12","lat":35.6110694,"lon":139.7043829},{"name":"荏原第三地域センター・区民集会所","province":"東京都","city":"品川区","address":"東京都品川区平塚1-13-18","lat":35.6133434,"lon":139.7153629},{"name":"荏原第四地域センター・区民集会所","province":"東京都","city":"品川区","address":"東京都品川区中延5-3-12","lat":35.6038249,"lon":139.7084941},{"name":"八潮地域センター・区民集会所","province":"東京都","city":"品川区","address":"東京都品川区八潮5-10-27","lat":35.6001681,"lon":139.7514663},{"name":"東大井区民集会所","province":"東京都","city":"品川区","address":"東京都品川区東大井2-16-12","lat":35.6005168,"lon":139.7415771},{"name":"防災センター","province":"東京都","city":"品川区","address":"東京都品川区広町2-1-36","lat":35.6096778,"lon":139.7302715},{"name":"大崎第二地域センター・区民集会所","province":"東京都","city":"品川区","address":"東京都品川区大崎2-9-4","lat":35.616649,"lon":139.7279883},{"name":"荏原第五地域センター・区民集会所","province":"東京都","city":"品川区","address":"東京都品川区二葉1-1-2","lat":35.6081773,"lon":139.7256994},{"name":"大井コンテナふ頭","province":"東京都","city":"品川区","address":"東京都品川区八潮2丁目","lat":35.59506725,"lon":139.76759209},{"name":"大井ふ頭中央海浜公園","province":"東京都","city":"品川区","address":"東京都品川区八潮4丁目","lat":35.59273644,"lon":139.75297102},{"name":"東海橋","province":"東京都","city":"品川区","address":"東京都品川区北品川3丁目","lat":35.61868541,"lon":139.73912927},{"name":"勝島１丁目","province":"東京都","city":"品川区","address":"東京都品川区勝島","lat":35.5980771,"lon":139.74558239},{"name":"品川ふ頭","province":"東京都","city":"品川区","address":"東京都品川区東品川5丁目","lat":35.62216053,"lon":139.75607776},{"name":"品川区本庁舎","province":"東京都","city":"品川区","address":"品川区広町2-1-36","lat":35.608837,"lon":139.730242},{"name":"品川ふ頭","province":"東京都","city":"品川区","address":"東京都品川区東品川5丁目","lat":35.62216053,"lon":139.75607776},{"name":"品川自動車営業所","province":"東京都","city":"品川区","address":"東京都品川区北品川1丁目5-12","lat":35.62329323,"lon":139.74073729},{"name":"品川第一地域センター","province":"東京都","city":"品川区","address":"品川区北品川3-11-16","lat":35.616673,"lon":139.740036},{"name":"台場小学校","province":"東京都","city":"品川区","address":"品川区東品川1-8-30","lat":35.620869,"lon":139.743667},{"name":"三木小学校","province":"東京都","city":"品川区","address":"品川区西品川3-16-28","lat":35.615256,"lon":139.726544},{"name":"大崎第一地域センター","province":"東京都","city":"品川区","address":"品川区西五反田3-6-3","lat":35.627795,"lon":139.716815},{"name":"第一日野小学校","province":"東京都","city":"品川区","address":"品川区西五反田6-5-32","lat":35.622228,"lon":139.716127},{"name":"日野学園","province":"東京都","city":"品川区","address":"品川区東五反田2-11-1","lat":35.62454,"lon":139.72831},{"name":"第三日野小学校","province":"東京都","city":"品川区","address":"品川区上大崎1-19-19","lat":35.632789,"lon":139.723939},{"name":"後地小学校","province":"東京都","city":"品川区","address":"品川区小山2-4-6","lat":35.621519,"lon":139.708452},{"name":"小山小学校","province":"東京都","city":"品川区","address":"品川区小山5-10-6","lat":35.616018,"lon":139.70329},{"name":"大原小学校","province":"東京都","city":"品川区","address":"品川区戸越6-17-3","lat":35.607167,"lon":139.716467},{"name":"大井第一小学校","province":"東京都","city":"品川区","address":"品川区大井6-1-32","lat":35.598644,"lon":139.730919},{"name":"伊藤学園","province":"東京都","city":"品川区","address":"品川区大井5-1-37","lat":35.599873,"lon":139.726009},{"name":"鈴ケ森小学校","province":"東京都","city":"品川区","address":"品川区南大井4-16-2","lat":35.594487,"lon":139.735286},{"name":"大井第二地域センター","province":"東京都","city":"品川区","address":"品川区大井2-27-20","lat":35.604027,"lon":139.730464},{"name":"浅間台小学校","province":"東京都","city":"品川区","address":"品川区南品川6-8-8","lat":35.611462,"lon":139.736584},{"name":"大井第三地域センター","province":"東京都","city":"品川区","address":"品川区西大井4-1-8","lat":35.597669,"lon":139.72108},{"name":"京陽小学校","province":"東京都","city":"品川区","address":"品川区平塚2-19-20","lat":35.330742,"lon":139.337875},{"name":"城南第二小学校","province":"東京都","city":"品川区","address":"品川区東品川3-4-5","lat":35.615644,"lon":139.746083},{"name":"立会小学校","province":"東京都","city":"品川区","address":"品川区東大井4-15-9","lat":35.604432,"lon":139.740166},{"name":"旗台小学校","province":"東京都","city":"品川区","address":"品川区旗の台4-7-11","lat":35.603162,"lon":139.703765},{"name":"豊葉の杜学園","province":"東京都","city":"品川区","address":"品川区二葉1-3-40","lat":35.607037,"lon":139.72556},{"name":"延山小学校","province":"東京都","city":"品川区","address":"品川区西中延2-17-5","lat":35.608779,"lon":139.707882},{"name":"宮前小学校","province":"東京都","city":"品川区","address":"品川区戸越4-5-10","lat":35.611768,"lon":139.718319},{"name":"品川区役所","province":"東京都","city":"品川区","address":"品川区広町2-1-36","lat":35.609181,"lon":139.730167},{"name":"品川区清掃事務所","province":"東京都","city":"品川区","address":"品川区大崎1-14-1","lat":35.618345,"lon":139.733502},{"name":"芳水小学校","province":"東京都","city":"品川区","address":"品川区大崎3-12-22","lat":35.61857,"lon":139.724154},{"name":"伊藤小学校","province":"東京都","city":"品川区","address":"品川区西大井5-6-8","lat":35.598691,"lon":139.717367},{"name":"源氏前小学校","province":"東京都","city":"品川区","address":"品川区中延6-2-18","lat":35.603165,"lon":139.712064},{"name":"小山台小学校","province":"東京都","city":"品川区","address":"品川区小山台1-18-24","lat":35.62276,"lon":139.703466},{"name":"大井コンテナふ頭","province":"東京都","city":"品川区","address":"東京都品川区八潮2丁目","lat":35.59506725,"lon":139.76759209},{"name":"大井ふ頭中央海浜公園","province":"東京都","city":"品川区","address":"東京都品川区八潮4丁目","lat":35.59273644,"lon":139.75297102},{"name":"東海橋","province":"東京都","city":"品川区","address":"東京都品川区北品川3丁目","lat":35.61868541,"lon":139.73912927},{"name":"勝島１丁目","province":"東京都","city":"品川区","address":"東京都品川区勝島","lat":35.5980771,"lon":139.74558239},{"name":"品川ふ頭","province":"東京都","city":"品川区","address":"東京都品川区東品川5丁目","lat":35.62216053,"lon":139.75607776},{"name":"品川区本庁舎","province":"東京都","city":"品川区","address":"品川区広町2-1-36","lat":35.608837,"lon":139.730242},{"name":"品川ふ頭","province":"東京都","city":"品川区","address":"東京都品川区東品川5丁目","lat":35.62216053,"lon":139.75607776},{"name":"品川自動車営業所","province":"東京都","city":"品川区","address":"東京都品川区北品川1丁目5-12","lat":35.62329323,"lon":139.74073729},{"name":"品川第一地域センター","province":"東京都","city":"品川区","address":"品川区北品川3-11-16","lat":35.616673,"lon":139.740036},{"name":"台場小学校","province":"東京都","city":"品川区","address":"品川区東品川1-8-30","lat":35.620869,"lon":139.743667},{"name":"三木小学校","province":"東京都","city":"品川区","address":"品川区西品川3-16-28","lat":35.615256,"lon":139.726544},{"name":"大崎第一地域センター","province":"東京都","city":"品川区","address":"品川区西五反田3-6-3","lat":35.627795,"lon":139.716815},{"name":"第一日野小学校","province":"東京都","city":"品川区","address":"品川区西五反田6-5-32","lat":35.622228,"lon":139.716127},{"name":"日野学園","province":"東京都","city":"品川区","address":"品川区東五反田2-11-1","lat":35.62454,"lon":139.72831},{"name":"第三日野小学校","province":"東京都","city":"品川区","address":"品川区上大崎1-19-19","lat":35.632789,"lon":139.723939},{"name":"後地小学校","province":"東京都","city":"品川区","address":"品川区小山2-4-6","lat":35.621519,"lon":139.708452},{"name":"小山小学校","province":"東京都","city":"品川区","address":"品川区小山5-10-6","lat":35.616018,"lon":139.70329},{"name":"大原小学校","province":"東京都","city":"品川区","address":"品川区戸越6-17-3","lat":35.607167,"lon":139.716467},{"name":"大井第一小学校","province":"東京都","city":"品川区","address":"品川区大井6-1-32","lat":35.598644,"lon":139.730919},{"name":"伊藤学園","province":"東京都","city":"品川区","address":"品川区大井5-1-37","lat":35.599873,"lon":139.726009},{"name":"鈴ケ森小学校","province":"東京都","city":"品川区","address":"品川区南大井4-16-2","lat":35.594487,"lon":139.735286},{"name":"大井第二地域センター","province":"東京都","city":"品川区","address":"品川区大井2-27-20","lat":35.604027,"lon":139.730464},{"name":"浅間台小学校","province":"東京都","city":"品川区","address":"品川区南品川6-8-8","lat":35.611462,"lon":139.736584},{"name":"大井第三地域センター","province":"東京都","city":"品川区","address":"品川区西大井4-1-8","lat":35.597669,"lon":139.72108},{"name":"京陽小学校","province":"東京都","city":"品川区","address":"品川区平塚2-19-20","lat":35.330742,"lon":139.337875},{"name":"城南第二小学校","province":"東京都","city":"品川区","address":"品川区東品川3-4-5","lat":35.615644,"lon":139.746083},{"name":"立会小学校","province":"東京都","city":"品川区","address":"品川区東大井4-15-9","lat":35.604432,"lon":139.740166},{"name":"旗台小学校","province":"東京都","city":"品川区","address":"品川区旗の台4-7-11","lat":35.603162,"lon":139.703765},{"name":"豊葉の杜学園","province":"東京都","city":"品川区","address":"品川区二葉1-3-40","lat":35.607037,"lon":139.72556},{"name":"延山小学校","province":"東京都","city":"品川区","address":"品川区西中延2-17-5","lat":35.608779,"lon":139.707882},{"name":"宮前小学校","province":"東京都","city":"品川区","address":"品川区戸越4-5-10","lat":35.611768,"lon":139.718319},{"name":"品川区役所","province":"東京都","city":"品川区","address":"品川区広町2-1-36","lat":35.609181,"lon":139.730167},{"name":"品川区清掃事務所","province":"東京都","city":"品川区","address":"品川区大崎1-14-1","lat":35.618345,"lon":139.733502},{"name":"芳水小学校","province":"東京都","city":"品川区","address":"品川区大崎3-12-22","lat":35.61857,"lon":139.724154},{"name":"伊藤小学校","province":"東京都","city":"品川区","address":"品川区西大井5-6-8","lat":35.598691,"lon":139.717367},{"name":"源氏前小学校","province":"東京都","city":"品川区","address":"品川区中延6-2-18","lat":35.603165,"lon":139.712064},{"name":"小山台小学校","province":"東京都","city":"品川区","address":"品川区小山台1-18-24","lat":35.62276,"lon":139.703466},{"name":"大井コンテナふ頭","province":"東京都","city":"品川区","address":"東京都品川区八潮2丁目","lat":35.59506725,"lon":139.76759209},{"name":"大井ふ頭中央海浜公園","province":"東京都","city":"品川区","address":"東京都品川区八潮4丁目","lat":35.59273644,"lon":139.75297102},{"name":"東海橋","province":"東京都","city":"品川区","address":"東京都品川区北品川3丁目","lat":35.61868541,"lon":139.73912927},{"name":"勝島１丁目","province":"東京都","city":"品川区","address":"東京都品川区勝島","lat":35.5980771,"lon":139.74558239},{"name":"品川ふ頭","province":"東京都","city":"品川区","address":"東京都品川区東品川5丁目","lat":35.62216053,"lon":139.75607776},{"name":"品川区本庁舎","province":"東京都","city":"品川区","address":"品川区広町2-1-36","lat":35.608837,"lon":139.730242},{"name":"品川ふ頭","province":"東京都","city":"品川区","address":"東京都品川区東品川5丁目","lat":35.62216053,"lon":139.75607776},{"name":"品川自動車営業所","province":"東京都","city":"品川区","address":"東京都品川区北品川1丁目5-12","lat":35.62329323,"lon":139.74073729},{"name":"品川第一地域センター","province":"東京都","city":"品川区","address":"品川区北品川3-11-16","lat":35.616673,"lon":139.740036},{"name":"台場小学校","province":"東京都","city":"品川区","address":"品川区東品川1-8-30","lat":35.620869,"lon":139.743667},{"name":"三木小学校","province":"東京都","city":"品川区","address":"品川区西品川3-16-28","lat":35.615256,"lon":139.726544},{"name":"大崎第一地域センター","province":"東京都","city":"品川区","address":"品川区西五反田3-6-3","lat":35.627795,"lon":139.716815},{"name":"第一日野小学校","province":"東京都","city":"品川区","address":"品川区西五反田6-5-32","lat":35.622228,"lon":139.716127},{"name":"日野学園","province":"東京都","city":"品川区","address":"品川区東五反田2-11-1","lat":35.62454,"lon":139.72831},{"name":"第三日野小学校","province":"東京都","city":"品川区","address":"品川区上大崎1-19-19","lat":35.632789,"lon":139.723939},{"name":"後地小学校","province":"東京都","city":"品川区","address":"品川区小山2-4-6","lat":35.621519,"lon":139.708452},{"name":"小山小学校","province":"東京都","city":"品川区","address":"品川区小山5-10-6","lat":35.616018,"lon":139.70329},{"name":"大原小学校","province":"東京都","city":"品川区","address":"品川区戸越6-17-3","lat":35.607167,"lon":139.716467},{"name":"大井第一小学校","province":"東京都","city":"品川区","address":"品川区大井6-1-32","lat":35.598644,"lon":139.730919},{"name":"伊藤学園","province":"東京都","city":"品川区","address":"品川区大井5-1-37","lat":35.599873,"lon":139.726009},{"name":"鈴ケ森小学校","province":"東京都","city":"品川区","address":"品川区南大井4-16-2","lat":35.594487,"lon":139.735286},{"name":"大井第二地域センター","province":"東京都","city":"品川区","address":"品川区大井2-27-20","lat":35.604027,"lon":139.730464},{"name":"浅間台小学校","province":"東京都","city":"品川区","address":"品川区南品川6-8-8","lat":35.611462,"lon":139.736584},{"name":"大井第三地域センター","province":"東京都","city":"品川区","address":"品川区西大井4-1-8","lat":35.597669,"lon":139.72108},{"name":"京陽小学校","province":"東京都","city":"品川区","address":"品川区平塚2-19-20","lat":35.330742,"lon":139.337875},{"name":"城南第二小学校","province":"東京都","city":"品川区","address":"品川区東品川3-4-5","lat":35.615644,"lon":139.746083},{"name":"立会小学校","province":"東京都","city":"品川区","address":"品川区東大井4-15-9","lat":35.604432,"lon":139.740166},{"name":"旗台小学校","province":"東京都","city":"品川区","address":"品川区旗の台4-7-11","lat":35.603162,"lon":139.703765},{"name":"豊葉の杜学園","province":"東京都","city":"品川区","address":"品川区二葉1-3-40","lat":35.607037,"lon":139.72556},{"name":"延山小学校","province":"東京都","city":"品川区","address":"品川区西中延2-17-5","lat":35.608779,"lon":139.707882},{"name":"宮前小学校","province":"東京都","city":"品川区","address":"品川区戸越4-5-10","lat":35.611768,"lon":139.718319},{"name":"品川区役所","province":"東京都","city":"品川区","address":"品川区広町2-1-36","lat":35.609181,"lon":139.730167},{"name":"品川区清掃事務所","province":"東京都","city":"品川区","address":"品川区大崎1-14-1","lat":35.618345,"lon":139.733502},{"name":"芳水小学校","province":"東京都","city":"品川区","address":"品川区大崎3-12-22","lat":35.61857,"lon":139.724154},{"name":"伊藤小学校","province":"東京都","city":"品川区","address":"品川区西大井5-6-8","lat":35.598691,"lon":139.717367},{"name":"源氏前小学校","province":"東京都","city":"品川区","address":"品川区中延6-2-18","lat":35.603165,"lon":139.712064},{"name":"小山台小学校","province":"東京都","city":"品川区","address":"品川区小山台1-18-24","lat":35.62276,"lon":139.703466},{"name":"大井コンテナふ頭","province":"東京都","city":"品川区","address":"東京都品川区八潮2丁目","lat":35.59506725,"lon":139.76759209},{"name":"大井ふ頭中央海浜公園","province":"東京都","city":"品川区","address":"東京都品川区八潮4丁目","lat":35.59273644,"lon":139.75297102},{"name":"東海橋","province":"東京都","city":"品川区","address":"東京都品川区北品川3丁目","lat":35.61868541,"lon":139.73912927},{"name":"勝島１丁目","province":"東京都","city":"品川区","address":"東京都品川区勝島","lat":35.5980771,"lon":139.74558239},{"name":"品川ふ頭","province":"東京都","city":"品川区","address":"東京都品川区東品川5丁目","lat":35.62216053,"lon":139.75607776},{"name":"品川区本庁舎","province":"東京都","city":"品川区","address":"品川区広町2-1-36","lat":35.608837,"lon":139.730242},{"name":"品川ふ頭","province":"東京都","city":"品川区","address":"東京都品川区東品川5丁目","lat":35.62216053,"lon":139.75607776},{"name":"品川自動車営業所","province":"東京都","city":"品川区","address":"東京都品川区北品川1丁目5-12","lat":35.62329323,"lon":139.74073729},{"name":"品川第一地域センター","province":"東京都","city":"品川区","address":"品川区北品川3-11-16","lat":35.616673,"lon":139.740036},{"name":"台場小学校","province":"東京都","city":"品川区","address":"品川区東品川1-8-30","lat":35.620869,"lon":139.743667},{"name":"三木小学校","province":"東京都","city":"品川区","address":"品川区西品川3-16-28","lat":35.615256,"lon":139.726544},{"name":"大崎第一地域センター","province":"東京都","city":"品川区","address":"品川区西五反田3-6-3","lat":35.627795,"lon":139.716815},{"name":"第一日野小学校","province":"東京都","city":"品川区","address":"品川区西五反田6-5-32","lat":35.622228,"lon":139.716127},{"name":"日野学園","province":"東京都","city":"品川区","address":"品川区東五反田2-11-1","lat":35.62454,"lon":139.72831},{"name":"第三日野小学校","province":"東京都","city":"品川区","address":"品川区上大崎1-19-19","lat":35.632789,"lon":139.723939},{"name":"後地小学校","province":"東京都","city":"品川区","address":"品川区小山2-4-6","lat":35.621519,"lon":139.708452},{"name":"小山小学校","province":"東京都","city":"品川区","address":"品川区小山5-10-6","lat":35.616018,"lon":139.70329},{"name":"大原小学校","province":"東京都","city":"品川区","address":"品川区戸越6-17-3","lat":35.607167,"lon":139.716467},{"name":"大井第一小学校","province":"東京都","city":"品川区","address":"品川区大井6-1-32","lat":35.598644,"lon":139.730919},{"name":"伊藤学園","province":"東京都","city":"品川区","address":"品川区大井5-1-37","lat":35.599873,"lon":139.726009},{"name":"鈴ケ森小学校","province":"東京都","city":"品川区","address":"品川区南大井4-16-2","lat":35.594487,"lon":139.735286},{"name":"大井第二地域センター","province":"東京都","city":"品川区","address":"品川区大井2-27-20","lat":35.604027,"lon":139.730464},{"name":"浅間台小学校","province":"東京都","city":"品川区","address":"品川区南品川6-8-8","lat":35.611462,"lon":139.736584},{"name":"大井第三地域センター","province":"東京都","city":"品川区","address":"品川区西大井4-1-8","lat":35.597669,"lon":139.72108},{"name":"京陽小学校","province":"東京都","city":"品川区","address":"品川区平塚2-19-20","lat":35.330742,"lon":139.337875},{"name":"城南第二小学校","province":"東京都","city":"品川区","address":"品川区東品川3-4-5","lat":35.615644,"lon":139.746083},{"name":"立会小学校","province":"東京都","city":"品川区","address":"品川区東大井4-15-9","lat":35.604432,"lon":139.740166},{"name":"旗台小学校","province":"東京都","city":"品川区","address":"品川区旗の台4-7-11","lat":35.603162,"lon":139.703765},{"name":"豊葉の杜学園","province":"東京都","city":"品川区","address":"品川区二葉1-3-40","lat":35.607037,"lon":139.72556},{"name":"延山小学校","province":"東京都","city":"品川区","address":"品川区西中延2-17-5","lat":35.608779,"lon":139.707882},{"name":"宮前小学校","province":"東京都","city":"品川区","address":"品川区戸越4-5-10","lat":35.611768,"lon":139.718319},{"name":"品川区役所","province":"東京都","city":"品川区","address":"品川区広町2-1-36","lat":35.609181,"lon":139.730167},{"name":"品川区清掃事務所","province":"東京都","city":"品川区","address":"品川区大崎1-14-1","lat":35.618345,"lon":139.733502},{"name":"芳水小学校","province":"東京都","city":"品川区","address":"品川区大崎3-12-22","lat":35.61857,"lon":139.724154},{"name":"伊藤小学校","province":"東京都","city":"品川区","address":"品川区西大井5-6-8","lat":35.598691,"lon":139.717367},{"name":"源氏前小学校","province":"東京都","city":"品川区","address":"品川区中延6-2-18","lat":35.603165,"lon":139.712064},{"name":"小山台小学校","province":"東京都","city":"品川区","address":"品川区小山台1-18-24","lat":35.62276,"lon":139.703466},{"name":"大井コンテナふ頭","province":"東京都","city":"品川区","address":"東京都品川区八潮2丁目","lat":35.59506725,"lon":139.76759209},{"name":"大井ふ頭中央海浜公園","province":"東京都","city":"品川区","address":"東京都品川区八潮4丁目","lat":35.59273644,"lon":139.75297102},{"name":"東海橋","province":"東京都","city":"品川区","address":"東京都品川区北品川3丁目","lat":35.61868541,"lon":139.73912927},{"name":"勝島１丁目","province":"東京都","city":"品川区","address":"東京都品川区勝島","lat":35.5980771,"lon":139.74558239},{"name":"品川ふ頭","province":"東京都","city":"品川区","address":"東京都品川区東品川5丁目","lat":35.62216053,"lon":139.75607776},{"name":"品川区本庁舎","province":"東京都","city":"品川区","address":"品川区広町2-1-36","lat":35.608837,"lon":139.730242},{"name":"品川ふ頭","province":"東京都","city":"品川区","address":"東京都品川区東品川5丁目","lat":35.62216053,"lon":139.75607776},{"name":"品川自動車営業所","province":"東京都","city":"品川区","address":"東京都品川区北品川1丁目5-12","lat":35.62329323,"lon":139.74073729},{"name":"品川第一地域センター","province":"東京都","city":"品川区","address":"品川区北品川3-11-16","lat":35.616673,"lon":139.740036},{"name":"台場小学校","province":"東京都","city":"品川区","address":"品川区東品川1-8-30","lat":35.620869,"lon":139.743667},{"name":"三木小学校","province":"東京都","city":"品川区","address":"品川区西品川3-16-28","lat":35.615256,"lon":139.726544},{"name":"大崎第一地域センター","province":"東京都","city":"品川区","address":"品川区西五反田3-6-3","lat":35.627795,"lon":139.716815},{"name":"第一日野小学校","province":"東京都","city":"品川区","address":"品川区西五反田6-5-32","lat":35.622228,"lon":139.716127},{"name":"日野学園","province":"東京都","city":"品川区","address":"品川区東五反田2-11-1","lat":35.62454,"lon":139.72831},{"name":"第三日野小学校","province":"東京都","city":"品川区","address":"品川区上大崎1-19-19","lat":35.632789,"lon":139.723939},{"name":"後地小学校","province":"東京都","city":"品川区","address":"品川区小山2-4-6","lat":35.621519,"lon":139.708452},{"name":"小山小学校","province":"東京都","city":"品川区","address":"品川区小山5-10-6","lat":35.616018,"lon":139.70329},{"name":"大原小学校","province":"東京都","city":"品川区","address":"品川区戸越6-17-3","lat":35.607167,"lon":139.716467},{"name":"大井第一小学校","province":"東京都","city":"品川区","address":"品川区大井6-1-32","lat":35.598644,"lon":139.730919},{"name":"伊藤学園","province":"東京都","city":"品川区","address":"品川区大井5-1-37","lat":35.599873,"lon":139.726009},{"name":"鈴ケ森小学校","province":"東京都","city":"品川区","address":"品川区南大井4-16-2","lat":35.594487,"lon":139.735286},{"name":"大井第二地域センター","province":"東京都","city":"品川区","address":"品川区大井2-27-20","lat":35.604027,"lon":139.730464},{"name":"浅間台小学校","province":"東京都","city":"品川区","address":"品川区南品川6-8-8","lat":35.611462,"lon":139.736584},{"name":"大井第三地域センター","province":"東京都","city":"品川区","address":"品川区西大井4-1-8","lat":35.597669,"lon":139.72108},{"name":"京陽小学校","province":"東京都","city":"品川区","address":"品川区平塚2-19-20","lat":35.330742,"lon":139.337875},{"name":"城南第二小学校","province":"東京都","city":"品川区","address":"品川区東品川3-4-5","lat":35.615644,"lon":139.746083},{"name":"立会小学校","province":"東京都","city":"品川区","address":"品川区東大井4-15-9","lat":35.604432,"lon":139.740166},{"name":"旗台小学校","province":"東京都","city":"品川区","address":"品川区旗の台4-7-11","lat":35.603162,"lon":139.703765},{"name":"豊葉の杜学園","province":"東京都","city":"品川区","address":"品川区二葉1-3-40","lat":35.607037,"lon":139.72556},{"name":"延山小学校","province":"東京都","city":"品川区","address":"品川区西中延2-17-5","lat":35.608779,"lon":139.707882},{"name":"宮前小学校","province":"東京都","city":"品川区","address":"品川区戸越4-5-10","lat":35.611768,"lon":139.718319},{"name":"品川区役所","province":"東京都","city":"品川区","address":"品川区広町2-1-36","lat":35.609181,"lon":139.730167},{"name":"品川区清掃事務所","province":"東京都","city":"品川区","address":"品川区大崎1-14-1","lat":35.618345,"lon":139.733502},{"name":"芳水小学校","province":"東京都","city":"品川区","address":"品川区大崎3-12-22","lat":35.61857,"lon":139.724154},{"name":"伊藤小学校","province":"東京都","city":"品川区","address":"品川区西大井5-6-8","lat":35.598691,"lon":139.717367},{"name":"源氏前小学校","province":"東京都","city":"品川区","address":"品川区中延6-2-18","lat":35.603165,"lon":139.712064},{"name":"小山台小学校","province":"東京都","city":"品川区","address":"品川区小山台1-18-24","lat":35.62276,"lon":139.703466},{"name":"大井コンテナふ頭","province":"東京都","city":"品川区","address":"東京都品川区八潮2丁目","lat":35.59506725,"lon":139.76759209},{"name":"大井ふ頭中央海浜公園","province":"東京都","city":"品川区","address":"東京都品川区八潮4丁目","lat":35.59273644,"lon":139.75297102},{"name":"東海橋","province":"東京都","city":"品川区","address":"東京都品川区北品川3丁目","lat":35.61868541,"lon":139.73912927},{"name":"勝島１丁目","province":"東京都","city":"品川区","address":"東京都品川区勝島","lat":35.5980771,"lon":139.74558239},{"name":"品川ふ頭","province":"東京都","city":"品川区","address":"東京都品川区東品川5丁目","lat":35.62216053,"lon":139.75607776},{"name":"品川区本庁舎","province":"東京都","city":"品川区","address":"品川区広町2-1-36","lat":35.608837,"lon":139.730242},{"name":"品川ふ頭","province":"東京都","city":"品川区","address":"東京都品川区東品川5丁目","lat":35.62216053,"lon":139.75607776},{"name":"品川自動車営業所","province":"東京都","city":"品川区","address":"東京都品川区北品川1丁目5-12","lat":35.62329323,"lon":139.74073729},{"name":"品川第一地域センター","province":"東京都","city":"品川区","address":"品川区北品川3-11-16","lat":35.616673,"lon":139.740036},{"name":"台場小学校","province":"東京都","city":"品川区","address":"品川区東品川1-8-30","lat":35.620869,"lon":139.743667},{"name":"三木小学校","province":"東京都","city":"品川区","address":"品川区西品川3-16-28","lat":35.615256,"lon":139.726544},{"name":"大崎第一地域センター","province":"東京都","city":"品川区","address":"品川区西五反田3-6-3","lat":35.627795,"lon":139.716815},{"name":"第一日野小学校","province":"東京都","city":"品川区","address":"品川区西五反田6-5-32","lat":35.622228,"lon":139.716127},{"name":"日野学園","province":"東京都","city":"品川区","address":"品川区東五反田2-11-1","lat":35.62454,"lon":139.72831},{"name":"第三日野小学校","province":"東京都","city":"品川区","address":"品川区上大崎1-19-19","lat":35.632789,"lon":139.723939},{"name":"後地小学校","province":"東京都","city":"品川区","address":"品川区小山2-4-6","lat":35.621519,"lon":139.708452},{"name":"小山小学校","province":"東京都","city":"品川区","address":"品川区小山5-10-6","lat":35.616018,"lon":139.70329},{"name":"大原小学校","province":"東京都","city":"品川区","address":"品川区戸越6-17-3","lat":35.607167,"lon":139.716467},{"name":"大井第一小学校","province":"東京都","city":"品川区","address":"品川区大井6-1-32","lat":35.598644,"lon":139.730919},{"name":"伊藤学園","province":"東京都","city":"品川区","address":"品川区大井5-1-37","lat":35.599873,"lon":139.726009},{"name":"鈴ケ森小学校","province":"東京都","city":"品川区","address":"品川区南大井4-16-2","lat":35.594487,"lon":139.735286},{"name":"大井第二地域センター","province":"東京都","city":"品川区","address":"品川区大井2-27-20","lat":35.604027,"lon":139.730464},{"name":"浅間台小学校","province":"東京都","city":"品川区","address":"品川区南品川6-8-8","lat":35.611462,"lon":139.736584},{"name":"大井第三地域センター","province":"東京都","city":"品川区","address":"品川区西大井4-1-8","lat":35.597669,"lon":139.72108},{"name":"京陽小学校","province":"東京都","city":"品川区","address":"品川区平塚2-19-20","lat":35.330742,"lon":139.337875},{"name":"城南第二小学校","province":"東京都","city":"品川区","address":"品川区東品川3-4-5","lat":35.615644,"lon":139.746083},{"name":"立会小学校","province":"東京都","city":"品川区","address":"品川区東大井4-15-9","lat":35.604432,"lon":139.740166},{"name":"旗台小学校","province":"東京都","city":"品川区","address":"品川区旗の台4-7-11","lat":35.603162,"lon":139.703765},{"name":"豊葉の杜学園","province":"東京都","city":"品川区","address":"品川区二葉1-3-40","lat":35.607037,"lon":139.72556},{"name":"延山小学校","province":"東京都","city":"品川区","address":"品川区西中延2-17-5","lat":35.608779,"lon":139.707882},{"name":"宮前小学校","province":"東京都","city":"品川区","address":"品川区戸越4-5-10","lat":35.611768,"lon":139.718319},{"name":"品川区役所","province":"東京都","city":"品川区","address":"品川区広町2-1-36","lat":35.609181,"lon":139.730167},{"name":"品川区清掃事務所","province":"東京都","city":"品川区","address":"品川区大崎1-14-1","lat":35.618345,"lon":139.733502},{"name":"芳水小学校","province":"東京都","city":"品川区","address":"品川区大崎3-12-22","lat":35.61857,"lon":139.724154},{"name":"伊藤小学校","province":"東京都","city":"品川区","address":"品川区西大井5-6-8","lat":35.598691,"lon":139.717367},{"name":"源氏前小学校","province":"東京都","city":"品川区","address":"品川区中延6-2-18","lat":35.603165,"lon":139.712064},{"name":"小山台小学校","province":"東京都","city":"品川区","address":"品川区小山台1-18-24","lat":35.62276,"lon":139.703466},{"name":"大井コンテナふ頭","province":"東京都","city":"品川区","address":"東京都品川区八潮2丁目","lat":35.59506725,"lon":139.76759209},{"name":"大井ふ頭中央海浜公園","province":"東京都","city":"品川区","address":"東京都品川区八潮4丁目","lat":35.59273644,"lon":139.75297102},{"name":"東海橋","province":"東京都","city":"品川区","address":"東京都品川区北品川3丁目","lat":35.61868541,"lon":139.73912927},{"name":"勝島１丁目","province":"東京都","city":"品川区","address":"東京都品川区勝島","lat":35.5980771,"lon":139.74558239},{"name":"品川ふ頭","province":"東京都","city":"品川区","address":"東京都品川区東品川5丁目","lat":35.62216053,"lon":139.75607776},{"name":"品川区本庁舎","province":"東京都","city":"品川区","address":"品川区広町2-1-36","lat":35.608837,"lon":139.730242},{"name":"品川ふ頭","province":"東京都","city":"品川区","address":"東京都品川区東品川5丁目","lat":35.62216053,"lon":139.75607776},{"name":"品川自動車営業所","province":"東京都","city":"品川区","address":"東京都品川区北品川1丁目5-12","lat":35.62329323,"lon":139.74073729},{"name":"品川第一地域センター","province":"東京都","city":"品川区","address":"品川区北品川3-11-16","lat":35.616673,"lon":139.740036},{"name":"台場小学校","province":"東京都","city":"品川区","address":"品川区東品川1-8-30","lat":35.620869,"lon":139.743667},{"name":"三木小学校","province":"東京都","city":"品川区","address":"品川区西品川3-16-28","lat":35.615256,"lon":139.726544},{"name":"大崎第一地域センター","province":"東京都","city":"品川区","address":"品川区西五反田3-6-3","lat":35.627795,"lon":139.716815},{"name":"第一日野小学校","province":"東京都","city":"品川区","address":"品川区西五反田6-5-32","lat":35.622228,"lon":139.716127},{"name":"日野学園","province":"東京都","city":"品川区","address":"品川区東五反田2-11-1","lat":35.62454,"lon":139.72831},{"name":"第三日野小学校","province":"東京都","city":"品川区","address":"品川区上大崎1-19-19","lat":35.632789,"lon":139.723939},{"name":"後地小学校","province":"東京都","city":"品川区","address":"品川区小山2-4-6","lat":35.621519,"lon":139.708452},{"name":"小山小学校","province":"東京都","city":"品川区","address":"品川区小山5-10-6","lat":35.616018,"lon":139.70329},{"name":"大原小学校","province":"東京都","city":"品川区","address":"品川区戸越6-17-3","lat":35.607167,"lon":139.716467},{"name":"大井第一小学校","province":"東京都","city":"品川区","address":"品川区大井6-1-32","lat":35.598644,"lon":139.730919},{"name":"伊藤学園","province":"東京都","city":"品川区","address":"品川区大井5-1-37","lat":35.599873,"lon":139.726009},{"name":"鈴ケ森小学校","province":"東京都","city":"品川区","address":"品川区南大井4-16-2","lat":35.594487,"lon":139.735286},{"name":"大井第二地域センター","province":"東京都","city":"品川区","address":"品川区大井2-27-20","lat":35.604027,"lon":139.730464},{"name":"浅間台小学校","province":"東京都","city":"品川区","address":"品川区南品川6-8-8","lat":35.611462,"lon":139.736584},{"name":"大井第三地域センター","province":"東京都","city":"品川区","address":"品川区西大井4-1-8","lat":35.597669,"lon":139.72108},{"name":"京陽小学校","province":"東京都","city":"品川区","address":"品川区平塚2-19-20","lat":35.330742,"lon":139.337875},{"name":"城南第二小学校","province":"東京都","city":"品川区","address":"品川区東品川3-4-5","lat":35.615644,"lon":139.746083},{"name":"立会小学校","province":"東京都","city":"品川区","address":"品川区東大井4-15-9","lat":35.604432,"lon":139.740166},{"name":"旗台小学校","province":"東京都","city":"品川区","address":"品川区旗の台4-7-11","lat":35.603162,"lon":139.703765},{"name":"豊葉の杜学園","province":"東京都","city":"品川区","address":"品川区二葉1-3-40","lat":35.607037,"lon":139.72556},{"name":"延山小学校","province":"東京都","city":"品川区","address":"品川区西中延2-17-5","lat":35.608779,"lon":139.707882},{"name":"宮前小学校","province":"東京都","city":"品川区","address":"品川区戸越4-5-10","lat":35.611768,"lon":139.718319},{"name":"品川区役所","province":"東京都","city":"品川区","address":"品川区広町2-1-36","lat":35.609181,"lon":139.730167},{"name":"品川区清掃事務所","province":"東京都","city":"品川区","address":"品川区大崎1-14-1","lat":35.618345,"lon":139.733502},{"name":"芳水小学校","province":"東京都","city":"品川区","address":"品川区大崎3-12-22","lat":35.61857,"lon":139.724154},{"name":"伊藤小学校","province":"東京都","city":"品川区","address":"品川区西大井5-6-8","lat":35.598691,"lon":139.717367},{"name":"源氏前小学校","province":"東京都","city":"品川区","address":"品川区中延6-2-18","lat":35.603165,"lon":139.712064},{"name":"小山台小学校","province":"東京都","city":"品川区","address":"品川区小山台1-18-24","lat":35.62276,"lon":139.703466},{"name":"大井コンテナふ頭","province":"東京都","city":"品川区","address":"東京都品川区八潮2丁目","lat":35.59506725,"lon":139.76759209},{"name":"大井ふ頭中央海浜公園","province":"東京都","city":"品川区","address":"東京都品川区八潮4丁目","lat":35.59273644,"lon":139.75297102},{"name":"東海橋","province":"東京都","city":"品川区","address":"東京都品川区北品川3丁目","lat":35.61868541,"lon":139.73912927},{"name":"勝島１丁目","province":"東京都","city":"品川区","address":"東京都品川区勝島","lat":35.5980771,"lon":139.74558239},{"name":"品川ふ頭","province":"東京都","city":"品川区","address":"東京都品川区東品川5丁目","lat":35.62216053,"lon":139.75607776},{"name":"品川区本庁舎","province":"東京都","city":"品川区","address":"品川区広町2-1-36","lat":35.608837,"lon":139.730242},{"name":"品川ふ頭","province":"東京都","city":"品川区","address":"東京都品川区東品川5丁目","lat":35.62216053,"lon":139.75607776},{"name":"品川自動車営業所","province":"東京都","city":"品川区","address":"東京都品川区北品川1丁目5-12","lat":35.62329323,"lon":139.74073729},{"name":"品川第一地域センター","province":"東京都","city":"品川区","address":"品川区北品川3-11-16","lat":35.616673,"lon":139.740036},{"name":"台場小学校","province":"東京都","city":"品川区","address":"品川区東品川1-8-30","lat":35.620869,"lon":139.743667},{"name":"三木小学校","province":"東京都","city":"品川区","address":"品川区西品川3-16-28","lat":35.615256,"lon":139.726544},{"name":"大崎第一地域センター","province":"東京都","city":"品川区","address":"品川区西五反田3-6-3","lat":35.627795,"lon":139.716815},{"name":"第一日野小学校","province":"東京都","city":"品川区","address":"品川区西五反田6-5-32","lat":35.622228,"lon":139.716127},{"name":"日野学園","province":"東京都","city":"品川区","address":"品川区東五反田2-11-1","lat":35.62454,"lon":139.72831},{"name":"第三日野小学校","province":"東京都","city":"品川区","address":"品川区上大崎1-19-19","lat":35.632789,"lon":139.723939},{"name":"後地小学校","province":"東京都","city":"品川区","address":"品川区小山2-4-6","lat":35.621519,"lon":139.708452},{"name":"小山小学校","province":"東京都","city":"品川区","address":"品川区小山5-10-6","lat":35.616018,"lon":139.70329},{"name":"大原小学校","province":"東京都","city":"品川区","address":"品川区戸越6-17-3","lat":35.607167,"lon":139.716467},{"name":"大井第一小学校","province":"東京都","city":"品川区","address":"品川区大井6-1-32","lat":35.598644,"lon":139.730919},{"name":"伊藤学園","province":"東京都","city":"品川区","address":"品川区大井5-1-37","lat":35.599873,"lon":139.726009},{"name":"鈴ケ森小学校","province":"東京都","city":"品川区","address":"品川区南大井4-16-2","lat":35.594487,"lon":139.735286},{"name":"大井第二地域センター","province":"東京都","city":"品川区","address":"品川区大井2-27-20","lat":35.604027,"lon":139.730464},{"name":"浅間台小学校","province":"東京都","city":"品川区","address":"品川区南品川6-8-8","lat":35.611462,"lon":139.736584},{"name":"大井第三地域センター","province":"東京都","city":"品川区","address":"品川区西大井4-1-8","lat":35.597669,"lon":139.72108},{"name":"京陽小学校","province":"東京都","city":"品川区","address":"品川区平塚2-19-20","lat":35.330742,"lon":139.337875},{"name":"城南第二小学校","province":"東京都","city":"品川区","address":"品川区東品川3-4-5","lat":35.615644,"lon":139.746083},{"name":"立会小学校","province":"東京都","city":"品川区","address":"品川区東大井4-15-9","lat":35.604432,"lon":139.740166},{"name":"旗台小学校","province":"東京都","city":"品川区","address":"品川区旗の台4-7-11","lat":35.603162,"lon":139.703765},{"name":"豊葉の杜学園","province":"東京都","city":"品川区","address":"品川区二葉1-3-40","lat":35.607037,"lon":139.72556},{"name":"延山小学校","province":"東京都","city":"品川区","address":"品川区西中延2-17-5","lat":35.608779,"lon":139.707882},{"name":"宮前小学校","province":"東京都","city":"品川区","address":"品川区戸越4-5-10","lat":35.611768,"lon":139.718319},{"name":"品川区役所","province":"東京都","city":"品川区","address":"品川区広町2-1-36","lat":35.609181,"lon":139.730167},{"name":"品川区清掃事務所","province":"東京都","city":"品川区","address":"品川区大崎1-14-1","lat":35.618345,"lon":139.733502},{"name":"芳水小学校","province":"東京都","city":"品川区","address":"品川区大崎3-12-22","lat":35.61857,"lon":139.724154},{"name":"伊藤小学校","province":"東京都","city":"品川区","address":"品川区西大井5-6-8","lat":35.598691,"lon":139.717367},{"name":"源氏前小学校","province":"東京都","city":"品川区","address":"品川区中延6-2-18","lat":35.603165,"lon":139.712064},{"name":"小山台小学校","province":"東京都","city":"品川区","address":"品川区小山台1-18-24","lat":35.62276,"lon":139.703466},{"name":"大井コンテナふ頭","province":"東京都","city":"品川区","address":"東京都品川区八潮2丁目","lat":35.59506725,"lon":139.76759209},{"name":"大井ふ頭中央海浜公園","province":"東京都","city":"品川区","address":"東京都品川区八潮4丁目","lat":35.59273644,"lon":139.75297102},{"name":"東海橋","province":"東京都","city":"品川区","address":"東京都品川区北品川3丁目","lat":35.61868541,"lon":139.73912927},{"name":"勝島１丁目","province":"東京都","city":"品川区","address":"東京都品川区勝島","lat":35.5980771,"lon":139.74558239},{"name":"品川ふ頭","province":"東京都","city":"品川区","address":"東京都品川区東品川5丁目","lat":35.62216053,"lon":139.75607776},{"name":"品川区本庁舎","province":"東京都","city":"品川区","address":"品川区広町2-1-36","lat":35.608837,"lon":139.730242},{"name":"品川ふ頭","province":"東京都","city":"品川区","address":"東京都品川区東品川5丁目","lat":35.62216053,"lon":139.75607776},{"name":"品川自動車営業所","province":"東京都","city":"品川区","address":"東京都品川区北品川1丁目5-12","lat":35.62329323,"lon":139.74073729},{"name":"品川第一地域センター","province":"東京都","city":"品川区","address":"品川区北品川3-11-16","lat":35.616673,"lon":139.740036},{"name":"台場小学校","province":"東京都","city":"品川区","address":"品川区東品川1-8-30","lat":35.620869,"lon":139.743667},{"name":"三木小学校","province":"東京都","city":"品川区","address":"品川区西品川3-16-28","lat":35.615256,"lon":139.726544},{"name":"大崎第一地域センター","province":"東京都","city":"品川区","address":"品川区西五反田3-6-3","lat":35.627795,"lon":139.716815},{"name":"第一日野小学校","province":"東京都","city":"品川区","address":"品川区西五反田6-5-32","lat":35.622228,"lon":139.716127},{"name":"日野学園","province":"東京都","city":"品川区","address":"品川区東五反田2-11-1","lat":35.62454,"lon":139.72831},{"name":"第三日野小学校","province":"東京都","city":"品川区","address":"品川区上大崎1-19-19","lat":35.632789,"lon":139.723939},{"name":"後地小学校","province":"東京都","city":"品川区","address":"品川区小山2-4-6","lat":35.621519,"lon":139.708452},{"name":"小山小学校","province":"東京都","city":"品川区","address":"品川区小山5-10-6","lat":35.616018,"lon":139.70329},{"name":"大原小学校","province":"東京都","city":"品川区","address":"品川区戸越6-17-3","lat":35.607167,"lon":139.716467},{"name":"大井第一小学校","province":"東京都","city":"品川区","address":"品川区大井6-1-32","lat":35.598644,"lon":139.730919},{"name":"伊藤学園","province":"東京都","city":"品川区","address":"品川区大井5-1-37","lat":35.599873,"lon":139.726009},{"name":"鈴ケ森小学校","province":"東京都","city":"品川区","address":"品川区南大井4-16-2","lat":35.594487,"lon":139.735286},{"name":"大井第二地域センター","province":"東京都","city":"品川区","address":"品川区大井2-27-20","lat":35.604027,"lon":139.730464},{"name":"浅間台小学校","province":"東京都","city":"品川区","address":"品川区南品川6-8-8","lat":35.611462,"lon":139.736584},{"name":"大井第三地域センター","province":"東京都","city":"品川区","address":"品川区西大井4-1-8","lat":35.597669,"lon":139.72108},{"name":"京陽小学校","province":"東京都","city":"品川区","address":"品川区平塚2-19-20","lat":35.330742,"lon":139.337875},{"name":"城南第二小学校","province":"東京都","city":"品川区","address":"品川区東品川3-4-5","lat":35.615644,"lon":139.746083},{"name":"立会小学校","province":"東京都","city":"品川区","address":"品川区東大井4-15-9","lat":35.604432,"lon":139.740166},{"name":"旗台小学校","province":"東京都","city":"品川区","address":"品川区旗の台4-7-11","lat":35.603162,"lon":139.703765},{"name":"豊葉の杜学園","province":"東京都","city":"品川区","address":"品川区二葉1-3-40","lat":35.607037,"lon":139.72556},{"name":"延山小学校","province":"東京都","city":"品川区","address":"品川区西中延2-17-5","lat":35.608779,"lon":139.707882},{"name":"宮前小学校","province":"東京都","city":"品川区","address":"品川区戸越4-5-10","lat":35.611768,"lon":139.718319},{"name":"品川区役所","province":"東京都","city":"品川区","address":"品川区広町2-1-36","lat":35.609181,"lon":139.730167},{"name":"品川区清掃事務所","province":"東京都","city":"品川区","address":"品川区大崎1-14-1","lat":35.618345,"lon":139.733502},{"name":"芳水小学校","province":"東京都","city":"品川区","address":"品川区大崎3-12-22","lat":35.61857,"lon":139.724154},{"name":"伊藤小学校","province":"東京都","city":"品川区","address":"品川区西大井5-6-8","lat":35.598691,"lon":139.717367},{"name":"源氏前小学校","province":"東京都","city":"品川区","address":"品川区中延6-2-18","lat":35.603165,"lon":139.712064},{"name":"小山台小学校","province":"東京都","city":"品川区","address":"品川区小山台1-18-24","lat":35.62276,"lon":139.703466},{"name":"大井コンテナふ頭","province":"東京都","city":"品川区","address":"東京都品川区八潮2丁目","lat":35.59506725,"lon":139.76759209},{"name":"品川ふ頭","province":"東京都","city":"品川区","address":"東京都品川区東品川5丁目","lat":35.62216053,"lon":139.75607776},{"name":"品川区本庁舎","province":"東京都","city":"品川区","address":"品川区広町2-1-36","lat":35.608837,"lon":139.730242},{"name":"品川ふ頭","province":"東京都","city":"品川区","address":"東京都品川区東品川5丁目","lat":35.62216053,"lon":139.75607776},{"name":"品川自動車営業所","province":"東京都","city":"品川区","address":"東京都品川区北品川1丁目5-12","lat":35.62329323,"lon":139.74073729},{"name":"品川第一地域センター","province":"東京都","city":"品川区","address":"品川区北品川3-11-16","lat":35.616673,"lon":139.740036},{"name":"台場小学校","province":"東京都","city":"品川区","address":"品川区東品川1-8-30","lat":35.620869,"lon":139.743667},{"name":"三木小学校","province":"東京都","city":"品川区","address":"品川区西品川3-16-28","lat":35.615256,"lon":139.726544},{"name":"大崎第一地域センター","province":"東京都","city":"品川区","address":"品川区西五反田3-6-3","lat":35.627795,"lon":139.716815},{"name":"第一日野小学校","province":"東京都","city":"品川区","address":"品川区西五反田6-5-32","lat":35.622228,"lon":139.716127},{"name":"日野学園","province":"東京都","city":"品川区","address":"品川区東五反田2-11-1","lat":35.62454,"lon":139.72831},{"name":"第三日野小学校","province":"東京都","city":"品川区","address":"品川区上大崎1-19-19","lat":35.632789,"lon":139.723939},{"name":"後地小学校","province":"東京都","city":"品川区","address":"品川区小山2-4-6","lat":35.621519,"lon":139.708452},{"name":"小山小学校","province":"東京都","city":"品川区","address":"品川区小山5-10-6","lat":35.616018,"lon":139.70329},{"name":"大原小学校","province":"東京都","city":"品川区","address":"品川区戸越6-17-3","lat":35.607167,"lon":139.716467},{"name":"大井第一小学校","province":"東京都","city":"品川区","address":"品川区大井6-1-32","lat":35.598644,"lon":139.730919},{"name":"伊藤学園","province":"東京都","city":"品川区","address":"品川区大井5-1-37","lat":35.599873,"lon":139.726009},{"name":"鈴ケ森小学校","province":"東京都","city":"品川区","address":"品川区南大井4-16-2","lat":35.594487,"lon":139.735286},{"name":"大井第二地域センター","province":"東京都","city":"品川区","address":"品川区大井2-27-20","lat":35.604027,"lon":139.730464},{"name":"浅間台小学校","province":"東京都","city":"品川区","address":"品川区南品川6-8-8","lat":35.611462,"lon":139.736584},{"name":"大井第三地域センター","province":"東京都","city":"品川区","address":"品川区西大井4-1-8","lat":35.597669,"lon":139.72108},{"name":"京陽小学校","province":"東京都","city":"品川区","address":"品川区平塚2-19-20","lat":35.330742,"lon":139.337875},{"name":"城南第二小学校","province":"東京都","city":"品川区","address":"品川区東品川3-4-5","lat":35.615644,"lon":139.746083},{"name":"立会小学校","province":"東京都","city":"品川区","address":"品川区東大井4-15-9","lat":35.604432,"lon":139.740166},{"name":"旗台小学校","province":"東京都","city":"品川区","address":"品川区旗の台4-7-11","lat":35.603162,"lon":139.703765},{"name":"豊葉の杜学園","province":"東京都","city":"品川区","address":"品川区二葉1-3-40","lat":35.607037,"lon":139.72556},{"name":"延山小学校","province":"東京都","city":"品川区","address":"品川区西中延2-17-5","lat":35.608779,"lon":139.707882},{"name":"宮前小学校","province":"東京都","city":"品川区","address":"品川区戸越4-5-10","lat":35.611768,"lon":139.718319},{"name":"品川区役所","province":"東京都","city":"品川区","address":"品川区広町2-1-36","lat":35.609181,"lon":139.730167},{"name":"品川区清掃事務所","province":"東京都","city":"品川区","address":"品川区大崎1-14-1","lat":35.618345,"lon":139.733502},{"name":"芳水小学校","province":"東京都","city":"品川区","address":"品川区大崎3-12-22","lat":35.61857,"lon":139.724154},{"name":"伊藤小学校","province":"東京都","city":"品川区","address":"品川区西大井5-6-8","lat":35.598691,"lon":139.717367},{"name":"源氏前小学校","province":"東京都","city":"品川区","address":"品川区中延6-2-18","lat":35.603165,"lon":139.712064},{"name":"小山台小学校","province":"東京都","city":"品川区","address":"品川区小山台1-18-24","lat":35.62276,"lon":139.703466},{"name":"大井コンテナふ頭","province":"東京都","city":"品川区","address":"東京都品川区八潮2丁目","lat":35.59506725,"lon":139.76759209},{"name":"品川ふ頭","province":"東京都","city":"品川区","address":"東京都品川区東品川5丁目","lat":35.62216053,"lon":139.75607776},{"name":"品川区本庁舎","province":"東京都","city":"品川区","address":"品川区広町2-1-36","lat":35.608837,"lon":139.730242},{"name":"品川ふ頭","province":"東京都","city":"品川区","address":"東京都品川区東品川5丁目","lat":35.62216053,"lon":139.75607776},{"name":"品川自動車営業所","province":"東京都","city":"品川区","address":"東京都品川区北品川1丁目5-12","lat":35.62329323,"lon":139.74073729},{"name":"品川第一地域センター","province":"東京都","city":"品川区","address":"品川区北品川3-11-16","lat":35.616673,"lon":139.740036},{"name":"台場小学校","province":"東京都","city":"品川区","address":"品川区東品川1-8-30","lat":35.620869,"lon":139.743667},{"name":"三木小学校","province":"東京都","city":"品川区","address":"品川区西品川3-16-28","lat":35.615256,"lon":139.726544},{"name":"大崎第一地域センター","province":"東京都","city":"品川区","address":"品川区西五反田3-6-3","lat":35.627795,"lon":139.716815},{"name":"第一日野小学校","province":"東京都","city":"品川区","address":"品川区西五反田6-5-32","lat":35.622228,"lon":139.716127},{"name":"日野学園","province":"東京都","city":"品川区","address":"品川区東五反田2-11-1","lat":35.62454,"lon":139.72831},{"name":"第三日野小学校","province":"東京都","city":"品川区","address":"品川区上大崎1-19-19","lat":35.632789,"lon":139.723939},{"name":"後地小学校","province":"東京都","city":"品川区","address":"品川区小山2-4-6","lat":35.621519,"lon":139.708452},{"name":"小山小学校","province":"東京都","city":"品川区","address":"品川区小山5-10-6","lat":35.616018,"lon":139.70329},{"name":"大原小学校","province":"東京都","city":"品川区","address":"品川区戸越6-17-3","lat":35.607167,"lon":139.716467},{"name":"大井第一小学校","province":"東京都","city":"品川区","address":"品川区大井6-1-32","lat":35.598644,"lon":139.730919},{"name":"伊藤学園","province":"東京都","city":"品川区","address":"品川区大井5-1-37","lat":35.599873,"lon":139.726009},{"name":"鈴ケ森小学校","province":"東京都","city":"品川区","address":"品川区南大井4-16-2","lat":35.594487,"lon":139.735286},{"name":"大井第二地域センター","province":"東京都","city":"品川区","address":"品川区大井2-27-20","lat":35.604027,"lon":139.730464},{"name":"浅間台小学校","province":"東京都","city":"品川区","address":"品川区南品川6-8-8","lat":35.611462,"lon":139.736584},{"name":"大井第三地域センター","province":"東京都","city":"品川区","address":"品川区西大井4-1-8","lat":35.597669,"lon":139.72108},{"name":"京陽小学校","province":"東京都","city":"品川区","address":"品川区平塚2-19-20","lat":35.330742,"lon":139.337875},{"name":"城南第二小学校","province":"東京都","city":"品川区","address":"品川区東品川3-4-5","lat":35.615644,"lon":139.746083},{"name":"立会小学校","province":"東京都","city":"品川区","address":"品川区東大井4-15-9","lat":35.604432,"lon":139.740166},{"name":"旗台小学校","province":"東京都","city":"品川区","address":"品川区旗の台4-7-11","lat":35.603162,"lon":139.703765},{"name":"豊葉の杜学園","province":"東京都","city":"品川区","address":"品川区二葉1-3-40","lat":35.607037,"lon":139.72556},{"name":"延山小学校","province":"東京都","city":"品川区","address":"品川区西中延2-17-5","lat":35.608779,"lon":139.707882},{"name":"宮前小学校","province":"東京都","city":"品川区","address":"品川区戸越4-5-10","lat":35.611768,"lon":139.718319},{"name":"品川区役所","province":"東京都","city":"品川区","address":"品川区広町2-1-36","lat":35.609181,"lon":139.730167},{"name":"品川区清掃事務所","province":"東京都","city":"品川区","address":"品川区大崎1-14-1","lat":35.618345,"lon":139.733502},{"name":"芳水小学校","province":"東京都","city":"品川区","address":"品川区大崎3-12-22","lat":35.61857,"lon":139.724154},{"name":"伊藤小学校","province":"東京都","city":"品川区","address":"品川区西大井5-6-8","lat":35.598691,"lon":139.717367},{"name":"源氏前小学校","province":"東京都","city":"品川区","address":"品川区中延6-2-18","lat":35.603165,"lon":139.712064},{"name":"小山台小学校","province":"東京都","city":"品川区","address":"品川区小山台1-18-24","lat":35.62276,"lon":139.703466},{"name":"大井コンテナふ頭","province":"東京都","city":"品川区","address":"東京都品川区八潮2丁目","lat":35.59506725,"lon":139.76759209},{"name":"品川ふ頭","province":"東京都","city":"品川区","address":"東京都品川区東品川5丁目","lat":35.62216053,"lon":139.75607776},{"name":"品川区本庁舎","province":"東京都","city":"品川区","address":"品川区広町2-1-36","lat":35.608837,"lon":139.730242},{"name":"品川自動車営業所","province":"東京都","city":"品川区","address":"東京都品川区北品川1丁目5-12","lat":35.62329323,"lon":139.74073729},{"name":"品川第一地域センター","province":"東京都","city":"品川区","address":"品川区北品川3-11-16","lat":35.616673,"lon":139.740036},{"name":"台場小学校","province":"東京都","city":"品川区","address":"品川区東品川1-8-30","lat":35.620869,"lon":139.743667},{"name":"三木小学校","province":"東京都","city":"品川区","address":"品川区西品川3-16-28","lat":35.615256,"lon":139.726544},{"name":"大崎第一地域センター","province":"東京都","city":"品川区","address":"品川区西五反田3-6-3","lat":35.627795,"lon":139.716815},{"name":"第一日野小学校","province":"東京都","city":"品川区","address":"品川区西五反田6-5-32","lat":35.622228,"lon":139.716127},{"name":"日野学園","province":"東京都","city":"品川区","address":"品川区東五反田2-11-1","lat":35.62454,"lon":139.72831},{"name":"第三日野小学校","province":"東京都","city":"品川区","address":"品川区上大崎1-19-19","lat":35.632789,"lon":139.723939},{"name":"後地小学校","province":"東京都","city":"品川区","address":"品川区小山2-4-6","lat":35.621519,"lon":139.708452},{"name":"小山小学校","province":"東京都","city":"品川区","address":"品川区小山5-10-6","lat":35.616018,"lon":139.70329},{"name":"大原小学校","province":"東京都","city":"品川区","address":"品川区戸越6-17-3","lat":35.607167,"lon":139.716467},{"name":"大井第一小学校","province":"東京都","city":"品川区","address":"品川区大井6-1-32","lat":35.598644,"lon":139.730919},{"name":"伊藤学園","province":"東京都","city":"品川区","address":"品川区大井5-1-37","lat":35.599873,"lon":139.726009},{"name":"鈴ケ森小学校","province":"東京都","city":"品川区","address":"品川区南大井4-16-2","lat":35.594487,"lon":139.735286},{"name":"大井第二地域センター","province":"東京都","city":"品川区","address":"品川区大井2-27-20","lat":35.604027,"lon":139.730464},{"name":"浅間台小学校","province":"東京都","city":"品川区","address":"品川区南品川6-8-8","lat":35.611462,"lon":139.736584},{"name":"大井第三地域センター","province":"東京都","city":"品川区","address":"品川区西大井4-1-8","lat":35.597669,"lon":139.72108},{"name":"京陽小学校","province":"東京都","city":"品川区","address":"品川区平塚2-19-20","lat":35.330742,"lon":139.337875},{"name":"城南第二小学校","province":"東京都","city":"品川区","address":"品川区東品川3-4-5","lat":35.615644,"lon":139.746083},{"name":"立会小学校","province":"東京都","city":"品川区","address":"品川区東大井4-15-9","lat":35.604432,"lon":139.740166},{"name":"旗台小学校","province":"東京都","city":"品川区","address":"品川区旗の台4-7-11","lat":35.603162,"lon":139.703765},{"name":"豊葉の杜学園","province":"東京都","city":"品川区","address":"品川区二葉1-3-40","lat":35.607037,"lon":139.72556},{"name":"延山小学校","province":"東京都","city":"品川区","address":"品川区西中延2-17-5","lat":35.608779,"lon":139.707882},{"name":"宮前小学校","province":"東京都","city":"品川区","address":"品川区戸越4-5-10","lat":35.611768,"lon":139.718319},{"name":"品川区役所","province":"東京都","city":"品川区","address":"品川区広町2-1-36","lat":35.609181,"lon":139.730167},{"name":"品川区清掃事務所","province":"東京都","city":"品川区","address":"品川区大崎1-14-1","lat":35.618345,"lon":139.733502},{"name":"芳水小学校","province":"東京都","city":"品川区","address":"品川区大崎3-12-22","lat":35.61857,"lon":139.724154},{"name":"伊藤小学校","province":"東京都","city":"品川区","address":"品川区西大井5-6-8","lat":35.598691,"lon":139.717367},{"name":"源氏前小学校","province":"東京都","city":"品川区","address":"品川区中延6-2-18","lat":35.603165,"lon":139.712064},{"name":"小山台小学校","province":"東京都","city":"品川区","address":"品川区小山台1-18-24","lat":35.62276,"lon":139.703466},{"name":"大井コンテナふ頭","province":"東京都","city":"品川区","address":"東京都品川区八潮2丁目","lat":35.59506725,"lon":139.76759209},{"name":"品川ふ頭","province":"東京都","city":"品川区","address":"東京都品川区東品川5丁目","lat":35.62216053,"lon":139.75607776},{"name":"品川区本庁舎","province":"東京都","city":"品川区","address":"品川区広町2-1-36","lat":35.608837,"lon":139.730242},{"name":"品川自動車営業所","province":"東京都","city":"品川区","address":"東京都品川区北品川1丁目5-12","lat":35.62329323,"lon":139.74073729},{"name":"品川第一地域センター","province":"東京都","city":"品川区","address":"品川区北品川3-11-16","lat":35.616673,"lon":139.740036},{"name":"台場小学校","province":"東京都","city":"品川区","address":"品川区東品川1-8-30","lat":35.620869,"lon":139.743667},{"name":"三木小学校","province":"東京都","city":"品川区","address":"品川区西品川3-16-28","lat":35.615256,"lon":139.726544},{"name":"大崎第一地域センター","province":"東京都","city":"品川区","address":"品川区西五反田3-6-3","lat":35.627795,"lon":139.716815},{"name":"第一日野小学校","province":"東京都","city":"品川区","address":"品川区西五反田6-5-32","lat":35.622228,"lon":139.716127},{"name":"日野学園","province":"東京都","city":"品川区","address":"品川区東五反田2-11-1","lat":35.62454,"lon":139.72831},{"name":"第三日野小学校","province":"東京都","city":"品川区","address":"品川区上大崎1-19-19","lat":35.632789,"lon":139.723939},{"name":"後地小学校","province":"東京都","city":"品川区","address":"品川区小山2-4-6","lat":35.621519,"lon":139.708452},{"name":"小山小学校","province":"東京都","city":"品川区","address":"品川区小山5-10-6","lat":35.616018,"lon":139.70329},{"name":"大原小学校","province":"東京都","city":"品川区","address":"品川区戸越6-17-3","lat":35.607167,"lon":139.716467},{"name":"大井第一小学校","province":"東京都","city":"品川区","address":"品川区大井6-1-32","lat":35.598644,"lon":139.730919},{"name":"伊藤学園","province":"東京都","city":"品川区","address":"品川区大井5-1-37","lat":35.599873,"lon":139.726009},{"name":"鈴ケ森小学校","province":"東京都","city":"品川区","address":"品川区南大井4-16-2","lat":35.594487,"lon":139.735286},{"name":"大井第二地域センター","province":"東京都","city":"品川区","address":"品川区大井2-27-20","lat":35.604027,"lon":139.730464},{"name":"浅間台小学校","province":"東京都","city":"品川区","address":"品川区南品川6-8-8","lat":35.611462,"lon":139.736584},{"name":"大井第三地域センター","province":"東京都","city":"品川区","address":"品川区西大井4-1-8","lat":35.597669,"lon":139.72108},{"name":"京陽小学校","province":"東京都","city":"品川区","address":"品川区平塚2-19-20","lat":35.330742,"lon":139.337875},{"name":"城南第二小学校","province":"東京都","city":"品川区","address":"品川区東品川3-4-5","lat":35.615644,"lon":139.746083},{"name":"立会小学校","province":"東京都","city":"品川区","address":"品川区東大井4-15-9","lat":35.604432,"lon":139.740166},{"name":"旗台小学校","province":"東京都","city":"品川区","address":"品川区旗の台4-7-11","lat":35.603162,"lon":139.703765},{"name":"豊葉の杜学園","province":"東京都","city":"品川区","address":"品川区二葉1-3-40","lat":35.607037,"lon":139.72556},{"name":"延山小学校","province":"東京都","city":"品川区","address":"品川区西中延2-17-5","lat":35.608779,"lon":139.707882},{"name":"宮前小学校","province":"東京都","city":"品川区","address":"品川区戸越4-5-10","lat":35.611768,"lon":139.718319},{"name":"品川区役所","province":"東京都","city":"品川区","address":"品川区広町2-1-36","lat":35.609181,"lon":139.730167},{"name":"品川区清掃事務所","province":"東京都","city":"品川区","address":"品川区大崎1-14-1","lat":35.618345,"lon":139.733502},{"name":"芳水小学校","province":"東京都","city":"品川区","address":"品川区大崎3-12-22","lat":35.61857,"lon":139.724154},{"name":"伊藤小学校","province":"東京都","city":"品川区","address":"品川区西大井5-6-8","lat":35.598691,"lon":139.717367},{"name":"源氏前小学校","province":"東京都","city":"品川区","address":"品川区中延6-2-18","lat":35.603165,"lon":139.712064},{"name":"小山台小学校","province":"東京都","city":"品川区","address":"品川区小山台1-18-24","lat":35.62276,"lon":139.703466},{"name":"大井コンテナふ頭","province":"東京都","city":"品川区","address":"東京都品川区八潮2丁目","lat":35.59506725,"lon":139.76759209},{"name":"品川ふ頭","province":"東京都","city":"品川区","address":"東京都品川区東品川5丁目","lat":35.62216053,"lon":139.75607776},{"name":"品川区本庁舎","province":"東京都","city":"品川区","address":"品川区広町2-1-36","lat":35.608837,"lon":139.730242},{"name":"品川自動車営業所","province":"東京都","city":"品川区","address":"東京都品川区北品川1丁目5-12","lat":35.62329323,"lon":139.74073729},{"name":"品川第一地域センター","province":"東京都","city":"品川区","address":"品川区北品川3-11-16","lat":35.616673,"lon":139.740036},{"name":"台場小学校","province":"東京都","city":"品川区","address":"品川区東品川1-8-30","lat":35.620869,"lon":139.743667},{"name":"三木小学校","province":"東京都","city":"品川区","address":"品川区西品川3-16-28","lat":35.615256,"lon":139.726544},{"name":"大崎第一地域センター","province":"東京都","city":"品川区","address":"品川区西五反田3-6-3","lat":35.627795,"lon":139.716815},{"name":"第一日野小学校","province":"東京都","city":"品川区","address":"品川区西五反田6-5-32","lat":35.622228,"lon":139.716127},{"name":"日野学園","province":"東京都","city":"品川区","address":"品川区東五反田2-11-1","lat":35.62454,"lon":139.72831},{"name":"第三日野小学校","province":"東京都","city":"品川区","address":"品川区上大崎1-19-19","lat":35.632789,"lon":139.723939},{"name":"後地小学校","province":"東京都","city":"品川区","address":"品川区小山2-4-6","lat":35.621519,"lon":139.708452},{"name":"小山小学校","province":"東京都","city":"品川区","address":"品川区小山5-10-6","lat":35.616018,"lon":139.70329},{"name":"大原小学校","province":"東京都","city":"品川区","address":"品川区戸越6-17-3","lat":35.607167,"lon":139.716467},{"name":"大井第一小学校","province":"東京都","city":"品川区","address":"品川区大井6-1-32","lat":35.598644,"lon":139.730919},{"name":"伊藤学園","province":"東京都","city":"品川区","address":"品川区大井5-1-37","lat":35.599873,"lon":139.726009},{"name":"鈴ケ森小学校","province":"東京都","city":"品川区","address":"品川区南大井4-16-2","lat":35.594487,"lon":139.735286},{"name":"大井第二地域センター","province":"東京都","city":"品川区","address":"品川区大井2-27-20","lat":35.604027,"lon":139.730464},{"name":"浅間台小学校","province":"東京都","city":"品川区","address":"品川区南品川6-8-8","lat":35.611462,"lon":139.736584},{"name":"大井第三地域センター","province":"東京都","city":"品川区","address":"品川区西大井4-1-8","lat":35.597669,"lon":139.72108},{"name":"京陽小学校","province":"東京都","city":"品川区","address":"品川区平塚2-19-20","lat":35.330742,"lon":139.337875},{"name":"城南第二小学校","province":"東京都","city":"品川区","address":"品川区東品川3-4-5","lat":35.615644,"lon":139.746083},{"name":"立会小学校","province":"東京都","city":"品川区","address":"品川区東大井4-15-9","lat":35.604432,"lon":139.740166},{"name":"旗台小学校","province":"東京都","city":"品川区","address":"品川区旗の台4-7-11","lat":35.603162,"lon":139.703765},{"name":"豊葉の杜学園","province":"東京都","city":"品川区","address":"品川区二葉1-3-40","lat":35.607037,"lon":139.72556},{"name":"延山小学校","province":"東京都","city":"品川区","address":"品川区西中延2-17-5","lat":35.608779,"lon":139.707882},{"name":"宮前小学校","province":"東京都","city":"品川区","address":"品川区戸越4-5-10","lat":35.611768,"lon":139.718319},{"name":"品川区役所","province":"東京都","city":"品川区","address":"品川区広町2-1-36","lat":35.609181,"lon":139.730167},{"name":"品川区清掃事務所","province":"東京都","city":"品川区","address":"品川区大崎1-14-1","lat":35.618345,"lon":139.733502},{"name":"芳水小学校","province":"東京都","city":"品川区","address":"品川区大崎3-12-22","lat":35.61857,"lon":139.724154},{"name":"伊藤小学校","province":"東京都","city":"品川区","address":"品川区西大井5-6-8","lat":35.598691,"lon":139.717367},{"name":"源氏前小学校","province":"東京都","city":"品川区","address":"品川区中延6-2-18","lat":35.603165,"lon":139.712064},{"name":"小山台小学校","province":"東京都","city":"品川区","address":"品川区小山台1-18-24","lat":35.62276,"lon":139.703466},{"name":"大井コンテナふ頭","province":"東京都","city":"品川区","address":"東京都品川区八潮2丁目","lat":35.59506725,"lon":139.76759209},{"name":"品川ふ頭","province":"東京都","city":"品川区","address":"東京都品川区東品川5丁目","lat":35.62216053,"lon":139.75607776},{"name":"品川区本庁舎","province":"東京都","city":"品川区","address":"品川区広町2-1-36","lat":35.608837,"lon":139.730242},{"name":"品川自動車営業所","province":"東京都","city":"品川区","address":"東京都品川区北品川1丁目5-12","lat":35.62329323,"lon":139.74073729},{"name":"品川第一地域センター","province":"東京都","city":"品川区","address":"品川区北品川3-11-16","lat":35.616673,"lon":139.740036},{"name":"台場小学校","province":"東京都","city":"品川区","address":"品川区東品川1-8-30","lat":35.620869,"lon":139.743667},{"name":"三木小学校","province":"東京都","city":"品川区","address":"品川区西品川3-16-28","lat":35.615256,"lon":139.726544},{"name":"大崎第一地域センター","province":"東京都","city":"品川区","address":"品川区西五反田3-6-3","lat":35.627795,"lon":139.716815},{"name":"第一日野小学校","province":"東京都","city":"品川区","address":"品川区西五反田6-5-32","lat":35.622228,"lon":139.716127},{"name":"日野学園","province":"東京都","city":"品川区","address":"品川区東五反田2-11-1","lat":35.62454,"lon":139.72831},{"name":"第三日野小学校","province":"東京都","city":"品川区","address":"品川区上大崎1-19-19","lat":35.632789,"lon":139.723939},{"name":"後地小学校","province":"東京都","city":"品川区","address":"品川区小山2-4-6","lat":35.621519,"lon":139.708452},{"name":"小山小学校","province":"東京都","city":"品川区","address":"品川区小山5-10-6","lat":35.616018,"lon":139.70329},{"name":"大原小学校","province":"東京都","city":"品川区","address":"品川区戸越6-17-3","lat":35.607167,"lon":139.716467},{"name":"大井第一小学校","province":"東京都","city":"品川区","address":"品川区大井6-1-32","lat":35.598644,"lon":139.730919},{"name":"伊藤学園","province":"東京都","city":"品川区","address":"品川区大井5-1-37","lat":35.599873,"lon":139.726009},{"name":"鈴ケ森小学校","province":"東京都","city":"品川区","address":"品川区南大井4-16-2","lat":35.594487,"lon":139.735286},{"name":"大井第二地域センター","province":"東京都","city":"品川区","address":"品川区大井2-27-20","lat":35.604027,"lon":139.730464},{"name":"浅間台小学校","province":"東京都","city":"品川区","address":"品川区南品川6-8-8","lat":35.611462,"lon":139.736584},{"name":"大井第三地域センター","province":"東京都","city":"品川区","address":"品川区西大井4-1-8","lat":35.597669,"lon":139.72108},{"name":"京陽小学校","province":"東京都","city":"品川区","address":"品川区平塚2-19-20","lat":35.330742,"lon":139.337875},{"name":"城南第二小学校","province":"東京都","city":"品川区","address":"品川区東品川3-4-5","lat":35.615644,"lon":139.746083},{"name":"立会小学校","province":"東京都","city":"品川区","address":"品川区東大井4-15-9","lat":35.604432,"lon":139.740166},{"name":"旗台小学校","province":"東京都","city":"品川区","address":"品川区旗の台4-7-11","lat":35.603162,"lon":139.703765},{"name":"豊葉の杜学園","province":"東京都","city":"品川区","address":"品川区二葉1-3-40","lat":35.607037,"lon":139.72556},{"name":"延山小学校","province":"東京都","city":"品川区","address":"品川区西中延2-17-5","lat":35.608779,"lon":139.707882},{"name":"宮前小学校","province":"東京都","city":"品川区","address":"品川区戸越4-5-10","lat":35.611768,"lon":139.718319},{"name":"品川区役所","province":"東京都","city":"品川区","address":"品川区広町2-1-36","lat":35.609181,"lon":139.730167},{"name":"品川区清掃事務所","province":"東京都","city":"品川区","address":"品川区大崎1-14-1","lat":35.618345,"lon":139.733502},{"name":"芳水小学校","province":"東京都","city":"品川区","address":"品川区大崎3-12-22","lat":35.61857,"lon":139.724154},{"name":"伊藤小学校","province":"東京都","city":"品川区","address":"品川区西大井5-6-8","lat":35.598691,"lon":139.717367},{"name":"源氏前小学校","province":"東京都","city":"品川区","address":"品川区中延6-2-18","lat":35.603165,"lon":139.712064},{"name":"小山台小学校","province":"東京都","city":"品川区","address":"品川区小山台1-18-24","lat":35.62276,"lon":139.703466},{"name":"大井コンテナふ頭","province":"東京都","city":"品川区","address":"東京都品川区八潮2丁目","lat":35.59506725,"lon":139.76759209},{"name":"品川ふ頭","province":"東京都","city":"品川区","address":"東京都品川区東品川5丁目","lat":35.62216053,"lon":139.75607776},{"name":"品川区本庁舎","province":"東京都","city":"品川区","address":"品川区広町2-1-36","lat":35.608837,"lon":139.730242},{"name":"品川自動車営業所","province":"東京都","city":"品川区","address":"東京都品川区北品川1丁目5-12","lat":35.62329323,"lon":139.74073729},{"name":"品川第一地域センター","province":"東京都","city":"品川区","address":"品川区北品川3-11-16","lat":35.616673,"lon":139.740036},{"name":"台場小学校","province":"東京都","city":"品川区","address":"品川区東品川1-8-30","lat":35.620869,"lon":139.743667},{"name":"三木小学校","province":"東京都","city":"品川区","address":"品川区西品川3-16-28","lat":35.615256,"lon":139.726544},{"name":"大崎第一地域センター","province":"東京都","city":"品川区","address":"品川区西五反田3-6-3","lat":35.627795,"lon":139.716815},{"name":"第一日野小学校","province":"東京都","city":"品川区","address":"品川区西五反田6-5-32","lat":35.622228,"lon":139.716127},{"name":"日野学園","province":"東京都","city":"品川区","address":"品川区東五反田2-11-1","lat":35.62454,"lon":139.72831},{"name":"第三日野小学校","province":"東京都","city":"品川区","address":"品川区上大崎1-19-19","lat":35.632789,"lon":139.723939},{"name":"後地小学校","province":"東京都","city":"品川区","address":"品川区小山2-4-6","lat":35.621519,"lon":139.708452},{"name":"小山小学校","province":"東京都","city":"品川区","address":"品川区小山5-10-6","lat":35.616018,"lon":139.70329},{"name":"大原小学校","province":"東京都","city":"品川区","address":"品川区戸越6-17-3","lat":35.607167,"lon":139.716467},{"name":"大井第一小学校","province":"東京都","city":"品川区","address":"品川区大井6-1-32","lat":35.598644,"lon":139.730919},{"name":"伊藤学園","province":"東京都","city":"品川区","address":"品川区大井5-1-37","lat":35.599873,"lon":139.726009},{"name":"鈴ケ森小学校","province":"東京都","city":"品川区","address":"品川区南大井4-16-2","lat":35.594487,"lon":139.735286},{"name":"大井第二地域センター","province":"東京都","city":"品川区","address":"品川区大井2-27-20","lat":35.604027,"lon":139.730464},{"name":"浅間台小学校","province":"東京都","city":"品川区","address":"品川区南品川6-8-8","lat":35.611462,"lon":139.736584},{"name":"大井第三地域センター","province":"東京都","city":"品川区","address":"品川区西大井4-1-8","lat":35.597669,"lon":139.72108},{"name":"京陽小学校","province":"東京都","city":"品川区","address":"品川区平塚2-19-20","lat":35.330742,"lon":139.337875},{"name":"城南第二小学校","province":"東京都","city":"品川区","address":"品川区東品川3-4-5","lat":35.615644,"lon":139.746083},{"name":"立会小学校","province":"東京都","city":"品川区","address":"品川区東大井4-15-9","lat":35.604432,"lon":139.740166},{"name":"旗台小学校","province":"東京都","city":"品川区","address":"品川区旗の台4-7-11","lat":35.603162,"lon":139.703765},{"name":"豊葉の杜学園","province":"東京都","city":"品川区","address":"品川区二葉1-3-40","lat":35.607037,"lon":139.72556},{"name":"延山小学校","province":"東京都","city":"品川区","address":"品川区西中延2-17-5","lat":35.608779,"lon":139.707882},{"name":"宮前小学校","province":"東京都","city":"品川区","address":"品川区戸越4-5-10","lat":35.611768,"lon":139.718319},{"name":"品川区役所","province":"東京都","city":"品川区","address":"品川区広町2-1-36","lat":35.609181,"lon":139.730167},{"name":"品川区清掃事務所","province":"東京都","city":"品川区","address":"品川区大崎1-14-1","lat":35.618345,"lon":139.733502},{"name":"芳水小学校","province":"東京都","city":"品川区","address":"品川区大崎3-12-22","lat":35.61857,"lon":139.724154},{"name":"伊藤小学校","province":"東京都","city":"品川区","address":"品川区西大井5-6-8","lat":35.598691,"lon":139.717367},{"name":"源氏前小学校","province":"東京都","city":"品川区","address":"品川区中延6-2-18","lat":35.603165,"lon":139.712064},{"name":"小山台小学校","province":"東京都","city":"品川区","address":"品川区小山台1-18-24","lat":35.62276,"lon":139.703466},{"name":"大井コンテナふ頭","province":"東京都","city":"品川区","address":"東京都品川区八潮2丁目","lat":35.59506725,"lon":139.76759209},{"name":"品川ふ頭","province":"東京都","city":"品川区","address":"東京都品川区東品川5丁目","lat":35.62216053,"lon":139.75607776},{"name":"品川区本庁舎","province":"東京都","city":"品川区","address":"品川区広町2-1-36","lat":35.608837,"lon":139.730242},{"name":"品川自動車営業所","province":"東京都","city":"品川区","address":"東京都品川区北品川1丁目5-12","lat":35.62329323,"lon":139.74073729},{"name":"品川第一地域センター","province":"東京都","city":"品川区","address":"品川区北品川3-11-16","lat":35.616673,"lon":139.740036},{"name":"台場小学校","province":"東京都","city":"品川区","address":"品川区東品川1-8-30","lat":35.620869,"lon":139.743667},{"name":"三木小学校","province":"東京都","city":"品川区","address":"品川区西品川3-16-28","lat":35.615256,"lon":139.726544},{"name":"大崎第一地域センター","province":"東京都","city":"品川区","address":"品川区西五反田3-6-3","lat":35.627795,"lon":139.716815},{"name":"第一日野小学校","province":"東京都","city":"品川区","address":"品川区西五反田6-5-32","lat":35.622228,"lon":139.716127},{"name":"日野学園","province":"東京都","city":"品川区","address":"品川区東五反田2-11-1","lat":35.62454,"lon":139.72831},{"name":"第三日野小学校","province":"東京都","city":"品川区","address":"品川区上大崎1-19-19","lat":35.632789,"lon":139.723939},{"name":"後地小学校","province":"東京都","city":"品川区","address":"品川区小山2-4-6","lat":35.621519,"lon":139.708452},{"name":"小山小学校","province":"東京都","city":"品川区","address":"品川区小山5-10-6","lat":35.616018,"lon":139.70329},{"name":"大原小学校","province":"東京都","city":"品川区","address":"品川区戸越6-17-3","lat":35.607167,"lon":139.716467},{"name":"大井第一小学校","province":"東京都","city":"品川区","address":"品川区大井6-1-32","lat":35.598644,"lon":139.730919},{"name":"伊藤学園","province":"東京都","city":"品川区","address":"品川区大井5-1-37","lat":35.599873,"lon":139.726009},{"name":"鈴ケ森小学校","province":"東京都","city":"品川区","address":"品川区南大井4-16-2","lat":35.594487,"lon":139.735286},{"name":"大井第二地域センター","province":"東京都","city":"品川区","address":"品川区大井2-27-20","lat":35.604027,"lon":139.730464},{"name":"浅間台小学校","province":"東京都","city":"品川区","address":"品川区南品川6-8-8","lat":35.611462,"lon":139.736584},{"name":"大井第三地域センター","province":"東京都","city":"品川区","address":"品川区西大井4-1-8","lat":35.597669,"lon":139.72108},{"name":"京陽小学校","province":"東京都","city":"品川区","address":"品川区平塚2-19-20","lat":35.330742,"lon":139.337875},{"name":"城南第二小学校","province":"東京都","city":"品川区","address":"品川区東品川3-4-5","lat":35.615644,"lon":139.746083},{"name":"立会小学校","province":"東京都","city":"品川区","address":"品川区東大井4-15-9","lat":35.604432,"lon":139.740166},{"name":"旗台小学校","province":"東京都","city":"品川区","address":"品川区旗の台4-7-11","lat":35.603162,"lon":139.703765},{"name":"豊葉の杜学園","province":"東京都","city":"品川区","address":"品川区二葉1-3-40","lat":35.607037,"lon":139.72556},{"name":"延山小学校","province":"東京都","city":"品川区","address":"品川区西中延2-17-5","lat":35.608779,"lon":139.707882},{"name":"宮前小学校","province":"東京都","city":"品川区","address":"品川区戸越4-5-10","lat":35.611768,"lon":139.718319},{"name":"品川区役所","province":"東京都","city":"品川区","address":"品川区広町2-1-36","lat":35.609181,"lon":139.730167},{"name":"品川区清掃事務所","province":"東京都","city":"品川区","address":"品川区大崎1-14-1","lat":35.618345,"lon":139.733502},{"name":"芳水小学校","province":"東京都","city":"品川区","address":"品川区大崎3-12-22","lat":35.61857,"lon":139.724154},{"name":"伊藤小学校","province":"東京都","city":"品川区","address":"品川区西大井5-6-8","lat":35.598691,"lon":139.717367},{"name":"源氏前小学校","province":"東京都","city":"品川区","address":"品川区中延6-2-18","lat":35.603165,"lon":139.712064},{"name":"小山台小学校","province":"東京都","city":"品川区","address":"品川区小山台1-18-24","lat":35.62276,"lon":139.703466},{"name":"大井コンテナふ頭","province":"東京都","city":"品川区","address":"東京都品川区八潮2丁目","lat":35.59506725,"lon":139.76759209},{"name":"品川ふ頭","province":"東京都","city":"品川区","address":"東京都品川区東品川5丁目","lat":35.62216053,"lon":139.75607776},{"name":"品川自動車営業所","province":"東京都","city":"品川区","address":"東京都品川区北品川1丁目5-12","lat":35.62329323,"lon":139.74073729},{"name":"品川第一地域センター","province":"東京都","city":"品川区","address":"品川区北品川3-11-16","lat":35.616673,"lon":139.740036},{"name":"台場小学校","province":"東京都","city":"品川区","address":"品川区東品川1-8-30","lat":35.620869,"lon":139.743667},{"name":"三木小学校","province":"東京都","city":"品川区","address":"品川区西品川3-16-28","lat":35.615256,"lon":139.726544},{"name":"大崎第一地域センター","province":"東京都","city":"品川区","address":"品川区西五反田3-6-3","lat":35.627795,"lon":139.716815},{"name":"第一日野小学校","province":"東京都","city":"品川区","address":"品川区西五反田6-5-32","lat":35.622228,"lon":139.716127},{"name":"日野学園","province":"東京都","city":"品川区","address":"品川区東五反田2-11-1","lat":35.62454,"lon":139.72831},{"name":"第三日野小学校","province":"東京都","city":"品川区","address":"品川区上大崎1-19-19","lat":35.632789,"lon":139.723939},{"name":"後地小学校","province":"東京都","city":"品川区","address":"品川区小山2-4-6","lat":35.621519,"lon":139.708452},{"name":"小山小学校","province":"東京都","city":"品川区","address":"品川区小山5-10-6","lat":35.616018,"lon":139.70329},{"name":"大原小学校","province":"東京都","city":"品川区","address":"品川区戸越6-17-3","lat":35.607167,"lon":139.716467},{"name":"大井第一小学校","province":"東京都","city":"品川区","address":"品川区大井6-1-32","lat":35.598644,"lon":139.730919},{"name":"伊藤学園","province":"東京都","city":"品川区","address":"品川区大井5-1-37","lat":35.599873,"lon":139.726009},{"name":"鈴ケ森小学校","province":"東京都","city":"品川区","address":"品川区南大井4-16-2","lat":35.594487,"lon":139.735286},{"name":"大井第二地域センター","province":"東京都","city":"品川区","address":"品川区大井2-27-20","lat":35.604027,"lon":139.730464},{"name":"浅間台小学校","province":"東京都","city":"品川区","address":"品川区南品川6-8-8","lat":35.611462,"lon":139.736584},{"name":"大井第三地域センター","province":"東京都","city":"品川区","address":"品川区西大井4-1-8","lat":35.597669,"lon":139.72108},{"name":"京陽小学校","province":"東京都","city":"品川区","address":"品川区平塚2-19-20","lat":35.330742,"lon":139.337875},{"name":"城南第二小学校","province":"東京都","city":"品川区","address":"品川区東品川3-4-5","lat":35.615644,"lon":139.746083},{"name":"立会小学校","province":"東京都","city":"品川区","address":"品川区東大井4-15-9","lat":35.604432,"lon":139.740166},{"name":"旗台小学校","province":"東京都","city":"品川区","address":"品川区旗の台4-7-11","lat":35.603162,"lon":139.703765},{"name":"豊葉の杜学園","province":"東京都","city":"品川区","address":"品川区二葉1-3-40","lat":35.607037,"lon":139.72556},{"name":"延山小学校","province":"東京都","city":"品川区","address":"品川区西中延2-17-5","lat":35.608779,"lon":139.707882},{"name":"宮前小学校","province":"東京都","city":"品川区","address":"品川区戸越4-5-10","lat":35.611768,"lon":139.718319},{"name":"品川区役所","province":"東京都","city":"品川区","address":"品川区広町2-1-36","lat":35.609181,"lon":139.730167},{"name":"品川区清掃事務所","province":"東京都","city":"品川区","address":"品川区大崎1-14-1","lat":35.618345,"lon":139.733502},{"name":"芳水小学校","province":"東京都","city":"品川区","address":"品川区大崎3-12-22","lat":35.61857,"lon":139.724154},{"name":"伊藤小学校","province":"東京都","city":"品川区","address":"品川区西大井5-6-8","lat":35.598691,"lon":139.717367},{"name":"源氏前小学校","province":"東京都","city":"品川区","address":"品川区中延6-2-18","lat":35.603165,"lon":139.712064},{"name":"小山台小学校","province":"東京都","city":"品川区","address":"品川区小山台1-18-24","lat":35.62276,"lon":139.703466},{"name":"大井コンテナふ頭","province":"東京都","city":"品川区","address":"東京都品川区八潮2丁目","lat":35.59506725,"lon":139.76759209},{"name":"品川ふ頭","province":"東京都","city":"品川区","address":"東京都品川区東品川5丁目","lat":35.62216053,"lon":139.75607776},{"name":"品川自動車営業所","province":"東京都","city":"品川区","address":"東京都品川区北品川1丁目5-12","lat":35.62329323,"lon":139.74073729},{"name":"品川第一地域センター","province":"東京都","city":"品川区","address":"品川区北品川3-11-16","lat":35.616673,"lon":139.740036},{"name":"台場小学校","province":"東京都","city":"品川区","address":"品川区東品川1-8-30","lat":35.620869,"lon":139.743667},{"name":"三木小学校","province":"東京都","city":"品川区","address":"品川区西品川3-16-28","lat":35.615256,"lon":139.726544},{"name":"大崎第一地域センター","province":"東京都","city":"品川区","address":"品川区西五反田3-6-3","lat":35.627795,"lon":139.716815},{"name":"第一日野小学校","province":"東京都","city":"品川区","address":"品川区西五反田6-5-32","lat":35.622228,"lon":139.716127},{"name":"日野学園","province":"東京都","city":"品川区","address":"品川区東五反田2-11-1","lat":35.62454,"lon":139.72831},{"name":"第三日野小学校","province":"東京都","city":"品川区","address":"品川区上大崎1-19-19","lat":35.632789,"lon":139.723939},{"name":"後地小学校","province":"東京都","city":"品川区","address":"品川区小山2-4-6","lat":35.621519,"lon":139.708452},{"name":"小山小学校","province":"東京都","city":"品川区","address":"品川区小山5-10-6","lat":35.616018,"lon":139.70329},{"name":"大原小学校","province":"東京都","city":"品川区","address":"品川区戸越6-17-3","lat":35.607167,"lon":139.716467},{"name":"大井第一小学校","province":"東京都","city":"品川区","address":"品川区大井6-1-32","lat":35.598644,"lon":139.730919},{"name":"伊藤学園","province":"東京都","city":"品川区","address":"品川区大井5-1-37","lat":35.599873,"lon":139.726009},{"name":"鈴ケ森小学校","province":"東京都","city":"品川区","address":"品川区南大井4-16-2","lat":35.594487,"lon":139.735286},{"name":"大井第二地域センター","province":"東京都","city":"品川区","address":"品川区大井2-27-20","lat":35.604027,"lon":139.730464},{"name":"浅間台小学校","province":"東京都","city":"品川区","address":"品川区南品川6-8-8","lat":35.611462,"lon":139.736584},{"name":"大井第三地域センター","province":"東京都","city":"品川区","address":"品川区西大井4-1-8","lat":35.597669,"lon":139.72108},{"name":"京陽小学校","province":"東京都","city":"品川区","address":"品川区平塚2-19-20","lat":35.330742,"lon":139.337875},{"name":"城南第二小学校","province":"東京都","city":"品川区","address":"品川区東品川3-4-5","lat":35.615644,"lon":139.746083},{"name":"立会小学校","province":"東京都","city":"品川区","address":"品川区東大井4-15-9","lat":35.604432,"lon":139.740166},{"name":"旗台小学校","province":"東京都","city":"品川区","address":"品川区旗の台4-7-11","lat":35.603162,"lon":139.703765},{"name":"豊葉の杜学園","province":"東京都","city":"品川区","address":"品川区二葉1-3-40","lat":35.607037,"lon":139.72556},{"name":"延山小学校","province":"東京都","city":"品川区","address":"品川区西中延2-17-5","lat":35.608779,"lon":139.707882},{"name":"宮前小学校","province":"東京都","city":"品川区","address":"品川区戸越4-5-10","lat":35.611768,"lon":139.718319},{"name":"品川区役所","province":"東京都","city":"品川区","address":"品川区広町2-1-36","lat":35.609181,"lon":139.730167},{"name":"品川区清掃事務所","province":"東京都","city":"品川区","address":"品川区大崎1-14-1","lat":35.618345,"lon":139.733502},{"name":"芳水小学校","province":"東京都","city":"品川区","address":"品川区大崎3-12-22","lat":35.61857,"lon":139.724154},{"name":"伊藤小学校","province":"東京都","city":"品川区","address":"品川区西大井5-6-8","lat":35.598691,"lon":139.717367},{"name":"源氏前小学校","province":"東京都","city":"品川区","address":"品川区中延6-2-18","lat":35.603165,"lon":139.712064},{"name":"小山台小学校","province":"東京都","city":"品川区","address":"品川区小山台1-18-24","lat":35.62276,"lon":139.703466},{"name":"大井コンテナふ頭","province":"東京都","city":"品川区","address":"東京都品川区八潮2丁目","lat":35.59506725,"lon":139.76759209},{"name":"品川ふ頭","province":"東京都","city":"品川区","address":"東京都品川区東品川5丁目","lat":35.62216053,"lon":139.75607776},{"name":"品川自動車営業所","province":"東京都","city":"品川区","address":"東京都品川区北品川1丁目5-12","lat":35.62329323,"lon":139.74073729},{"name":"品川第一地域センター","province":"東京都","city":"品川区","address":"品川区北品川3-11-16","lat":35.616673,"lon":139.740036},{"name":"台場小学校","province":"東京都","city":"品川区","address":"品川区東品川1-8-30","lat":35.620869,"lon":139.743667},{"name":"三木小学校","province":"東京都","city":"品川区","address":"品川区西品川3-16-28","lat":35.615256,"lon":139.726544},{"name":"大崎第一地域センター","province":"東京都","city":"品川区","address":"品川区西五反田3-6-3","lat":35.627795,"lon":139.716815},{"name":"第一日野小学校","province":"東京都","city":"品川区","address":"品川区西五反田6-5-32","lat":35.622228,"lon":139.716127},{"name":"日野学園","province":"東京都","city":"品川区","address":"品川区東五反田2-11-1","lat":35.62454,"lon":139.72831},{"name":"第三日野小学校","province":"東京都","city":"品川区","address":"品川区上大崎1-19-19","lat":35.632789,"lon":139.723939},{"name":"後地小学校","province":"東京都","city":"品川区","address":"品川区小山2-4-6","lat":35.621519,"lon":139.708452},{"name":"小山小学校","province":"東京都","city":"品川区","address":"品川区小山5-10-6","lat":35.616018,"lon":139.70329},{"name":"大原小学校","province":"東京都","city":"品川区","address":"品川区戸越6-17-3","lat":35.607167,"lon":139.716467},{"name":"大井第一小学校","province":"東京都","city":"品川区","address":"品川区大井6-1-32","lat":35.598644,"lon":139.730919},{"name":"伊藤学園","province":"東京都","city":"品川区","address":"品川区大井5-1-37","lat":35.599873,"lon":139.726009},{"name":"鈴ケ森小学校","province":"東京都","city":"品川区","address":"品川区南大井4-16-2","lat":35.594487,"lon":139.735286},{"name":"大井第二地域センター","province":"東京都","city":"品川区","address":"品川区大井2-27-20","lat":35.604027,"lon":139.730464},{"name":"浅間台小学校","province":"東京都","city":"品川区","address":"品川区南品川6-8-8","lat":35.611462,"lon":139.736584},{"name":"大井第三地域センター","province":"東京都","city":"品川区","address":"品川区西大井4-1-8","lat":35.597669,"lon":139.72108},{"name":"京陽小学校","province":"東京都","city":"品川区","address":"品川区平塚2-19-20","lat":35.330742,"lon":139.337875},{"name":"城南第二小学校","province":"東京都","city":"品川区","address":"品川区東品川3-4-5","lat":35.615644,"lon":139.746083},{"name":"立会小学校","province":"東京都","city":"品川区","address":"品川区東大井4-15-9","lat":35.604432,"lon":139.740166},{"name":"旗台小学校","province":"東京都","city":"品川区","address":"品川区旗の台4-7-11","lat":35.603162,"lon":139.703765},{"name":"豊葉の杜学園","province":"東京都","city":"品川区","address":"品川区二葉1-3-40","lat":35.607037,"lon":139.72556},{"name":"延山小学校","province":"東京都","city":"品川区","address":"品川区西中延2-17-5","lat":35.608779,"lon":139.707882},{"name":"宮前小学校","province":"東京都","city":"品川区","address":"品川区戸越4-5-10","lat":35.611768,"lon":139.718319},{"name":"品川区役所","province":"東京都","city":"品川区","address":"品川区広町2-1-36","lat":35.609181,"lon":139.730167},{"name":"品川区清掃事務所","province":"東京都","city":"品川区","address":"品川区大崎1-14-1","lat":35.618345,"lon":139.733502},{"name":"芳水小学校","province":"東京都","city":"品川区","address":"品川区大崎3-12-22","lat":35.61857,"lon":139.724154},{"name":"伊藤小学校","province":"東京都","city":"品川区","address":"品川区西大井5-6-8","lat":35.598691,"lon":139.717367},{"name":"源氏前小学校","province":"東京都","city":"品川区","address":"品川区中延6-2-18","lat":35.603165,"lon":139.712064},{"name":"小山台小学校","province":"東京都","city":"品川区","address":"品川区小山台1-18-24","lat":35.62276,"lon":139.703466},{"name":"大井コンテナふ頭","province":"東京都","city":"品川区","address":"東京都品川区八潮2丁目","lat":35.59506725,"lon":139.76759209},{"name":"品川ふ頭","province":"東京都","city":"品川区","address":"東京都品川区東品川5丁目","lat":35.62216053,"lon":139.75607776},{"name":"品川自動車営業所","province":"東京都","city":"品川区","address":"東京都品川区北品川1丁目5-12","lat":35.62329323,"lon":139.74073729},{"name":"品川第一地域センター","province":"東京都","city":"品川区","address":"品川区北品川3-11-16","lat":35.616673,"lon":139.740036},{"name":"台場小学校","province":"東京都","city":"品川区","address":"品川区東品川1-8-30","lat":35.620869,"lon":139.743667},{"name":"三木小学校","province":"東京都","city":"品川区","address":"品川区西品川3-16-28","lat":35.615256,"lon":139.726544},{"name":"大崎第一地域センター","province":"東京都","city":"品川区","address":"品川区西五反田3-6-3","lat":35.627795,"lon":139.716815},{"name":"第一日野小学校","province":"東京都","city":"品川区","address":"品川区西五反田6-5-32","lat":35.622228,"lon":139.716127},{"name":"日野学園","province":"東京都","city":"品川区","address":"品川区東五反田2-11-1","lat":35.62454,"lon":139.72831},{"name":"第三日野小学校","province":"東京都","city":"品川区","address":"品川区上大崎1-19-19","lat":35.632789,"lon":139.723939},{"name":"後地小学校","province":"東京都","city":"品川区","address":"品川区小山2-4-6","lat":35.621519,"lon":139.708452},{"name":"小山小学校","province":"東京都","city":"品川区","address":"品川区小山5-10-6","lat":35.616018,"lon":139.70329},{"name":"大原小学校","province":"東京都","city":"品川区","address":"品川区戸越6-17-3","lat":35.607167,"lon":139.716467},{"name":"大井第一小学校","province":"東京都","city":"品川区","address":"品川区大井6-1-32","lat":35.598644,"lon":139.730919},{"name":"伊藤学園","province":"東京都","city":"品川区","address":"品川区大井5-1-37","lat":35.599873,"lon":139.726009},{"name":"鈴ケ森小学校","province":"東京都","city":"品川区","address":"品川区南大井4-16-2","lat":35.594487,"lon":139.735286},{"name":"大井第二地域センター","province":"東京都","city":"品川区","address":"品川区大井2-27-20","lat":35.604027,"lon":139.730464},{"name":"浅間台小学校","province":"東京都","city":"品川区","address":"品川区南品川6-8-8","lat":35.611462,"lon":139.736584},{"name":"大井第三地域センター","province":"東京都","city":"品川区","address":"品川区西大井4-1-8","lat":35.597669,"lon":139.72108},{"name":"京陽小学校","province":"東京都","city":"品川区","address":"品川区平塚2-19-20","lat":35.330742,"lon":139.337875},{"name":"城南第二小学校","province":"東京都","city":"品川区","address":"品川区東品川3-4-5","lat":35.615644,"lon":139.746083},{"name":"立会小学校","province":"東京都","city":"品川区","address":"品川区東大井4-15-9","lat":35.604432,"lon":139.740166},{"name":"旗台小学校","province":"東京都","city":"品川区","address":"品川区旗の台4-7-11","lat":35.603162,"lon":139.703765},{"name":"豊葉の杜学園","province":"東京都","city":"品川区","address":"品川区二葉1-3-40","lat":35.607037,"lon":139.72556},{"name":"延山小学校","province":"東京都","city":"品川区","address":"品川区西中延2-17-5","lat":35.608779,"lon":139.707882},{"name":"宮前小学校","province":"東京都","city":"品川区","address":"品川区戸越4-5-10","lat":35.611768,"lon":139.718319},{"name":"品川区役所","province":"東京都","city":"品川区","address":"品川区広町2-1-36","lat":35.609181,"lon":139.730167},{"name":"品川区清掃事務所","province":"東京都","city":"品川区","address":"品川区大崎1-14-1","lat":35.618345,"lon":139.733502},{"name":"芳水小学校","province":"東京都","city":"品川区","address":"品川区大崎3-12-22","lat":35.61857,"lon":139.724154},{"name":"伊藤小学校","province":"東京都","city":"品川区","address":"品川区西大井5-6-8","lat":35.598691,"lon":139.717367},{"name":"源氏前小学校","province":"東京都","city":"品川区","address":"品川区中延6-2-18","lat":35.603165,"lon":139.712064},{"name":"小山台小学校","province":"東京都","city":"品川区","address":"品川区小山台1-18-24","lat":35.62276,"lon":139.703466},{"name":"大井コンテナふ頭","province":"東京都","city":"品川区","address":"東京都品川区八潮2丁目","lat":35.59506725,"lon":139.76759209},{"name":"品川ふ頭","province":"東京都","city":"品川区","address":"東京都品川区東品川5丁目","lat":35.62216053,"lon":139.75607776},{"name":"品川自動車営業所","province":"東京都","city":"品川区","address":"東京都品川区北品川1丁目5-12","lat":35.62329323,"lon":139.74073729},{"name":"品川第一地域センター","province":"東京都","city":"品川区","address":"品川区北品川3-11-16","lat":35.616673,"lon":139.740036},{"name":"台場小学校","province":"東京都","city":"品川区","address":"品川区東品川1-8-30","lat":35.620869,"lon":139.743667},{"name":"三木小学校","province":"東京都","city":"品川区","address":"品川区西品川3-16-28","lat":35.615256,"lon":139.726544},{"name":"大崎第一地域センター","province":"東京都","city":"品川区","address":"品川区西五反田3-6-3","lat":35.627795,"lon":139.716815},{"name":"第一日野小学校","province":"東京都","city":"品川区","address":"品川区西五反田6-5-32","lat":35.622228,"lon":139.716127},{"name":"日野学園","province":"東京都","city":"品川区","address":"品川区東五反田2-11-1","lat":35.62454,"lon":139.72831},{"name":"第三日野小学校","province":"東京都","city":"品川区","address":"品川区上大崎1-19-19","lat":35.632789,"lon":139.723939},{"name":"後地小学校","province":"東京都","city":"品川区","address":"品川区小山2-4-6","lat":35.621519,"lon":139.708452},{"name":"小山小学校","province":"東京都","city":"品川区","address":"品川区小山5-10-6","lat":35.616018,"lon":139.70329},{"name":"大原小学校","province":"東京都","city":"品川区","address":"品川区戸越6-17-3","lat":35.607167,"lon":139.716467},{"name":"大井第一小学校","province":"東京都","city":"品川区","address":"品川区大井6-1-32","lat":35.598644,"lon":139.730919},{"name":"伊藤学園","province":"東京都","city":"品川区","address":"品川区大井5-1-37","lat":35.599873,"lon":139.726009},{"name":"鈴ケ森小学校","province":"東京都","city":"品川区","address":"品川区南大井4-16-2","lat":35.594487,"lon":139.735286},{"name":"大井第二地域センター","province":"東京都","city":"品川区","address":"品川区大井2-27-20","lat":35.604027,"lon":139.730464},{"name":"浅間台小学校","province":"東京都","city":"品川区","address":"品川区南品川6-8-8","lat":35.611462,"lon":139.736584},{"name":"大井第三地域センター","province":"東京都","city":"品川区","address":"品川区西大井4-1-8","lat":35.597669,"lon":139.72108},{"name":"京陽小学校","province":"東京都","city":"品川区","address":"品川区平塚2-19-20","lat":35.330742,"lon":139.337875},{"name":"城南第二小学校","province":"東京都","city":"品川区","address":"品川区東品川3-4-5","lat":35.615644,"lon":139.746083},{"name":"立会小学校","province":"東京都","city":"品川区","address":"品川区東大井4-15-9","lat":35.604432,"lon":139.740166},{"name":"旗台小学校","province":"東京都","city":"品川区","address":"品川区旗の台4-7-11","lat":35.603162,"lon":139.703765},{"name":"豊葉の杜学園","province":"東京都","city":"品川区","address":"品川区二葉1-3-40","lat":35.607037,"lon":139.72556},{"name":"延山小学校","province":"東京都","city":"品川区","address":"品川区西中延2-17-5","lat":35.608779,"lon":139.707882},{"name":"宮前小学校","province":"東京都","city":"品川区","address":"品川区戸越4-5-10","lat":35.611768,"lon":139.718319},{"name":"品川区役所","province":"東京都","city":"品川区","address":"品川区広町2-1-36","lat":35.609181,"lon":139.730167},{"name":"品川区清掃事務所","province":"東京都","city":"品川区","address":"品川区大崎1-14-1","lat":35.618345,"lon":139.733502},{"name":"芳水小学校","province":"東京都","city":"品川区","address":"品川区大崎3-12-22","lat":35.61857,"lon":139.724154},{"name":"伊藤小学校","province":"東京都","city":"品川区","address":"品川区西大井5-6-8","lat":35.598691,"lon":139.717367},{"name":"源氏前小学校","province":"東京都","city":"品川区","address":"品川区中延6-2-18","lat":35.603165,"lon":139.712064},{"name":"小山台小学校","province":"東京都","city":"品川区","address":"品川区小山台1-18-24","lat":35.62276,"lon":139.703466},{"name":"大井コンテナふ頭","province":"東京都","city":"品川区","address":"東京都品川区八潮2丁目","lat":35.59506725,"lon":139.76759209},{"name":"品川ふ頭","province":"東京都","city":"品川区","address":"東京都品川区東品川5丁目","lat":35.62216053,"lon":139.75607776},{"name":"品川自動車営業所","province":"東京都","city":"品川区","address":"東京都品川区北品川1丁目5-12","lat":35.62329323,"lon":139.74073729},{"name":"品川第一地域センター","province":"東京都","city":"品川区","address":"品川区北品川3-11-16","lat":35.616673,"lon":139.740036},{"name":"台場小学校","province":"東京都","city":"品川区","address":"品川区東品川1-8-30","lat":35.620869,"lon":139.743667},{"name":"三木小学校","province":"東京都","city":"品川区","address":"品川区西品川3-16-28","lat":35.615256,"lon":139.726544},{"name":"大崎第一地域センター","province":"東京都","city":"品川区","address":"品川区西五反田3-6-3","lat":35.627795,"lon":139.716815},{"name":"第一日野小学校","province":"東京都","city":"品川区","address":"品川区西五反田6-5-32","lat":35.622228,"lon":139.716127},{"name":"日野学園","province":"東京都","city":"品川区","address":"品川区東五反田2-11-1","lat":35.62454,"lon":139.72831},{"name":"第三日野小学校","province":"東京都","city":"品川区","address":"品川区上大崎1-19-19","lat":35.632789,"lon":139.723939},{"name":"後地小学校","province":"東京都","city":"品川区","address":"品川区小山2-4-6","lat":35.621519,"lon":139.708452},{"name":"小山小学校","province":"東京都","city":"品川区","address":"品川区小山5-10-6","lat":35.616018,"lon":139.70329},{"name":"大原小学校","province":"東京都","city":"品川区","address":"品川区戸越6-17-3","lat":35.607167,"lon":139.716467},{"name":"大井第一小学校","province":"東京都","city":"品川区","address":"品川区大井6-1-32","lat":35.598644,"lon":139.730919},{"name":"伊藤学園","province":"東京都","city":"品川区","address":"品川区大井5-1-37","lat":35.599873,"lon":139.726009},{"name":"鈴ケ森小学校","province":"東京都","city":"品川区","address":"品川区南大井4-16-2","lat":35.594487,"lon":139.735286},{"name":"大井第二地域センター","province":"東京都","city":"品川区","address":"品川区大井2-27-20","lat":35.604027,"lon":139.730464},{"name":"浅間台小学校","province":"東京都","city":"品川区","address":"品川区南品川6-8-8","lat":35.611462,"lon":139.736584},{"name":"大井第三地域センター","province":"東京都","city":"品川区","address":"品川区西大井4-1-8","lat":35.597669,"lon":139.72108},{"name":"京陽小学校","province":"東京都","city":"品川区","address":"品川区平塚2-19-20","lat":35.330742,"lon":139.337875},{"name":"城南第二小学校","province":"東京都","city":"品川区","address":"品川区東品川3-4-5","lat":35.615644,"lon":139.746083},{"name":"立会小学校","province":"東京都","city":"品川区","address":"品川区東大井4-15-9","lat":35.604432,"lon":139.740166},{"name":"旗台小学校","province":"東京都","city":"品川区","address":"品川区旗の台4-7-11","lat":35.603162,"lon":139.703765},{"name":"豊葉の杜学園","province":"東京都","city":"品川区","address":"品川区二葉1-3-40","lat":35.607037,"lon":139.72556},{"name":"延山小学校","province":"東京都","city":"品川区","address":"品川区西中延2-17-5","lat":35.608779,"lon":139.707882},{"name":"宮前小学校","province":"東京都","city":"品川区","address":"品川区戸越4-5-10","lat":35.611768,"lon":139.718319},{"name":"品川区役所","province":"東京都","city":"品川区","address":"品川区広町2-1-36","lat":35.609181,"lon":139.730167},{"name":"品川区清掃事務所","province":"東京都","city":"品川区","address":"品川区大崎1-14-1","lat":35.618345,"lon":139.733502},{"name":"芳水小学校","province":"東京都","city":"品川区","address":"品川区大崎3-12-22","lat":35.61857,"lon":139.724154},{"name":"伊藤小学校","province":"東京都","city":"品川区","address":"品川区西大井5-6-8","lat":35.598691,"lon":139.717367},{"name":"源氏前小学校","province":"東京都","city":"品川区","address":"品川区中延6-2-18","lat":35.603165,"lon":139.712064},{"name":"小山台小学校","province":"東京都","city":"品川区","address":"品川区小山台1-18-24","lat":35.62276,"lon":139.703466},{"name":"大井コンテナふ頭","province":"東京都","city":"品川区","address":"東京都品川区八潮2丁目","lat":35.59506725,"lon":139.76759209},{"name":"品川ふ頭","province":"東京都","city":"品川区","address":"東京都品川区東品川5丁目","lat":35.62216053,"lon":139.75607776},{"name":"品川自動車営業所","province":"東京都","city":"品川区","address":"東京都品川区北品川1丁目5-12","lat":35.62329323,"lon":139.74073729},{"name":"品川第一地域センター","province":"東京都","city":"品川区","address":"品川区北品川3-11-16","lat":35.616673,"lon":139.740036},{"name":"台場小学校","province":"東京都","city":"品川区","address":"品川区東品川1-8-30","lat":35.620869,"lon":139.743667},{"name":"三木小学校","province":"東京都","city":"品川区","address":"品川区西品川3-16-28","lat":35.615256,"lon":139.726544},{"name":"大崎第一地域センター","province":"東京都","city":"品川区","address":"品川区西五反田3-6-3","lat":35.627795,"lon":139.716815},{"name":"第一日野小学校","province":"東京都","city":"品川区","address":"品川区西五反田6-5-32","lat":35.622228,"lon":139.716127},{"name":"日野学園","province":"東京都","city":"品川区","address":"品川区東五反田2-11-1","lat":35.62454,"lon":139.72831},{"name":"第三日野小学校","province":"東京都","city":"品川区","address":"品川区上大崎1-19-19","lat":35.632789,"lon":139.723939},{"name":"後地小学校","province":"東京都","city":"品川区","address":"品川区小山2-4-6","lat":35.621519,"lon":139.708452},{"name":"小山小学校","province":"東京都","city":"品川区","address":"品川区小山5-10-6","lat":35.616018,"lon":139.70329},{"name":"大原小学校","province":"東京都","city":"品川区","address":"品川区戸越6-17-3","lat":35.607167,"lon":139.716467},{"name":"大井第一小学校","province":"東京都","city":"品川区","address":"品川区大井6-1-32","lat":35.598644,"lon":139.730919},{"name":"伊藤学園","province":"東京都","city":"品川区","address":"品川区大井5-1-37","lat":35.599873,"lon":139.726009},{"name":"鈴ケ森小学校","province":"東京都","city":"品川区","address":"品川区南大井4-16-2","lat":35.594487,"lon":139.735286},{"name":"大井第二地域センター","province":"東京都","city":"品川区","address":"品川区大井2-27-20","lat":35.604027,"lon":139.730464},{"name":"浅間台小学校","province":"東京都","city":"品川区","address":"品川区南品川6-8-8","lat":35.611462,"lon":139.736584},{"name":"大井第三地域センター","province":"東京都","city":"品川区","address":"品川区西大井4-1-8","lat":35.597669,"lon":139.72108},{"name":"京陽小学校","province":"東京都","city":"品川区","address":"品川区平塚2-19-20","lat":35.330742,"lon":139.337875},{"name":"城南第二小学校","province":"東京都","city":"品川区","address":"品川区東品川3-4-5","lat":35.615644,"lon":139.746083},{"name":"立会小学校","province":"東京都","city":"品川区","address":"品川区東大井4-15-9","lat":35.604432,"lon":139.740166},{"name":"旗台小学校","province":"東京都","city":"品川区","address":"品川区旗の台4-7-11","lat":35.603162,"lon":139.703765},{"name":"豊葉の杜学園","province":"東京都","city":"品川区","address":"品川区二葉1-3-40","lat":35.607037,"lon":139.72556},{"name":"延山小学校","province":"東京都","city":"品川区","address":"品川区西中延2-17-5","lat":35.608779,"lon":139.707882},{"name":"宮前小学校","province":"東京都","city":"品川区","address":"品川区戸越4-5-10","lat":35.611768,"lon":139.718319},{"name":"品川区役所","province":"東京都","city":"品川区","address":"品川区広町2-1-36","lat":35.609181,"lon":139.730167},{"name":"品川区清掃事務所","province":"東京都","city":"品川区","address":"品川区大崎1-14-1","lat":35.618345,"lon":139.733502},{"name":"芳水小学校","province":"東京都","city":"品川区","address":"品川区大崎3-12-22","lat":35.61857,"lon":139.724154},{"name":"伊藤小学校","province":"東京都","city":"品川区","address":"品川区西大井5-6-8","lat":35.598691,"lon":139.717367},{"name":"源氏前小学校","province":"東京都","city":"品川区","address":"品川区中延6-2-18","lat":35.603165,"lon":139.712064},{"name":"小山台小学校","province":"東京都","city":"品川区","address":"品川区小山台1-18-24","lat":35.62276,"lon":139.703466},{"name":"大井コンテナふ頭","province":"東京都","city":"品川区","address":"東京都品川区八潮2丁目","lat":35.59506725,"lon":139.76759209},{"name":"品川ふ頭","province":"東京都","city":"品川区","address":"東京都品川区東品川5丁目","lat":35.62216053,"lon":139.75607776},{"name":"品川自動車営業所","province":"東京都","city":"品川区","address":"東京都品川区北品川1丁目5-12","lat":35.62329323,"lon":139.74073729},{"name":"品川第一地域センター","province":"東京都","city":"品川区","address":"品川区北品川3-11-16","lat":35.616673,"lon":139.740036},{"name":"台場小学校","province":"東京都","city":"品川区","address":"品川区東品川1-8-30","lat":35.620869,"lon":139.743667},{"name":"三木小学校","province":"東京都","city":"品川区","address":"品川区西品川3-16-28","lat":35.615256,"lon":139.726544},{"name":"大崎第一地域センター","province":"東京都","city":"品川区","address":"品川区西五反田3-6-3","lat":35.627795,"lon":139.716815},{"name":"第一日野小学校","province":"東京都","city":"品川区","address":"品川区西五反田6-5-32","lat":35.622228,"lon":139.716127},{"name":"日野学園","province":"東京都","city":"品川区","address":"品川区東五反田2-11-1","lat":35.62454,"lon":139.72831},{"name":"第三日野小学校","province":"東京都","city":"品川区","address":"品川区上大崎1-19-19","lat":35.632789,"lon":139.723939},{"name":"後地小学校","province":"東京都","city":"品川区","address":"品川区小山2-4-6","lat":35.621519,"lon":139.708452},{"name":"小山小学校","province":"東京都","city":"品川区","address":"品川区小山5-10-6","lat":35.616018,"lon":139.70329},{"name":"大原小学校","province":"東京都","city":"品川区","address":"品川区戸越6-17-3","lat":35.607167,"lon":139.716467},{"name":"大井第一小学校","province":"東京都","city":"品川区","address":"品川区大井6-1-32","lat":35.598644,"lon":139.730919},{"name":"伊藤学園","province":"東京都","city":"品川区","address":"品川区大井5-1-37","lat":35.599873,"lon":139.726009},{"name":"鈴ケ森小学校","province":"東京都","city":"品川区","address":"品川区南大井4-16-2","lat":35.594487,"lon":139.735286},{"name":"大井第二地域センター","province":"東京都","city":"品川区","address":"品川区大井2-27-20","lat":35.604027,"lon":139.730464},{"name":"浅間台小学校","province":"東京都","city":"品川区","address":"品川区南品川6-8-8","lat":35.611462,"lon":139.736584},{"name":"大井第三地域センター","province":"東京都","city":"品川区","address":"品川区西大井4-1-8","lat":35.597669,"lon":139.72108},{"name":"京陽小学校","province":"東京都","city":"品川区","address":"品川区平塚2-19-20","lat":35.330742,"lon":139.337875},{"name":"城南第二小学校","province":"東京都","city":"品川区","address":"品川区東品川3-4-5","lat":35.615644,"lon":139.746083},{"name":"立会小学校","province":"東京都","city":"品川区","address":"品川区東大井4-15-9","lat":35.604432,"lon":139.740166},{"name":"旗台小学校","province":"東京都","city":"品川区","address":"品川区旗の台4-7-11","lat":35.603162,"lon":139.703765},{"name":"豊葉の杜学園","province":"東京都","city":"品川区","address":"品川区二葉1-3-40","lat":35.607037,"lon":139.72556},{"name":"延山小学校","province":"東京都","city":"品川区","address":"品川区西中延2-17-5","lat":35.608779,"lon":139.707882},{"name":"宮前小学校","province":"東京都","city":"品川区","address":"品川区戸越4-5-10","lat":35.611768,"lon":139.718319},{"name":"品川区役所","province":"東京都","city":"品川区","address":"品川区広町2-1-36","lat":35.609181,"lon":139.730167},{"name":"品川区清掃事務所","province":"東京都","city":"品川区","address":"品川区大崎1-14-1","lat":35.618345,"lon":139.733502},{"name":"芳水小学校","province":"東京都","city":"品川区","address":"品川区大崎3-12-22","lat":35.61857,"lon":139.724154},{"name":"伊藤小学校","province":"東京都","city":"品川区","address":"品川区西大井5-6-8","lat":35.598691,"lon":139.717367},{"name":"源氏前小学校","province":"東京都","city":"品川区","address":"品川区中延6-2-18","lat":35.603165,"lon":139.712064},{"name":"小山台小学校","province":"東京都","city":"品川区","address":"品川区小山台1-18-24","lat":35.62276,"lon":139.703466},{"name":"大井コンテナふ頭","province":"東京都","city":"品川区","address":"東京都品川区八潮2丁目","lat":35.59506725,"lon":139.76759209},{"name":"品川ふ頭","province":"東京都","city":"品川区","address":"東京都品川区東品川5丁目","lat":35.62216053,"lon":139.75607776},{"name":"品川自動車営業所","province":"東京都","city":"品川区","address":"東京都品川区北品川1丁目5-12","lat":35.62329323,"lon":139.74073729},{"name":"品川第一地域センター","province":"東京都","city":"品川区","address":"品川区北品川3-11-16","lat":35.616673,"lon":139.740036},{"name":"台場小学校","province":"東京都","city":"品川区","address":"品川区東品川1-8-30","lat":35.620869,"lon":139.743667},{"name":"三木小学校","province":"東京都","city":"品川区","address":"品川区西品川3-16-28","lat":35.615256,"lon":139.726544},{"name":"大崎第一地域センター","province":"東京都","city":"品川区","address":"品川区西五反田3-6-3","lat":35.627795,"lon":139.716815},{"name":"第一日野小学校","province":"東京都","city":"品川区","address":"品川区西五反田6-5-32","lat":35.622228,"lon":139.716127},{"name":"日野学園","province":"東京都","city":"品川区","address":"品川区東五反田2-11-1","lat":35.62454,"lon":139.72831},{"name":"第三日野小学校","province":"東京都","city":"品川区","address":"品川区上大崎1-19-19","lat":35.632789,"lon":139.723939},{"name":"後地小学校","province":"東京都","city":"品川区","address":"品川区小山2-4-6","lat":35.621519,"lon":139.708452},{"name":"小山小学校","province":"東京都","city":"品川区","address":"品川区小山5-10-6","lat":35.616018,"lon":139.70329},{"name":"大原小学校","province":"東京都","city":"品川区","address":"品川区戸越6-17-3","lat":35.607167,"lon":139.716467},{"name":"大井第一小学校","province":"東京都","city":"品川区","address":"品川区大井6-1-32","lat":35.598644,"lon":139.730919},{"name":"伊藤学園","province":"東京都","city":"品川区","address":"品川区大井5-1-37","lat":35.599873,"lon":139.726009},{"name":"鈴ケ森小学校","province":"東京都","city":"品川区","address":"品川区南大井4-16-2","lat":35.594487,"lon":139.735286},{"name":"大井第二地域センター","province":"東京都","city":"品川区","address":"品川区大井2-27-20","lat":35.604027,"lon":139.730464},{"name":"浅間台小学校","province":"東京都","city":"品川区","address":"品川区南品川6-8-8","lat":35.611462,"lon":139.736584},{"name":"大井第三地域センター","province":"東京都","city":"品川区","address":"品川区西大井4-1-8","lat":35.597669,"lon":139.72108},{"name":"京陽小学校","province":"東京都","city":"品川区","address":"品川区平塚2-19-20","lat":35.330742,"lon":139.337875},{"name":"城南第二小学校","province":"東京都","city":"品川区","address":"品川区東品川3-4-5","lat":35.615644,"lon":139.746083},{"name":"立会小学校","province":"東京都","city":"品川区","address":"品川区東大井4-15-9","lat":35.604432,"lon":139.740166},{"name":"旗台小学校","province":"東京都","city":"品川区","address":"品川区旗の台4-7-11","lat":35.603162,"lon":139.703765},{"name":"豊葉の杜学園","province":"東京都","city":"品川区","address":"品川区二葉1-3-40","lat":35.607037,"lon":139.72556},{"name":"延山小学校","province":"東京都","city":"品川区","address":"品川区西中延2-17-5","lat":35.608779,"lon":139.707882},{"name":"宮前小学校","province":"東京都","city":"品川区","address":"品川区戸越4-5-10","lat":35.611768,"lon":139.718319},{"name":"品川区役所","province":"東京都","city":"品川区","address":"品川区広町2-1-36","lat":35.609181,"lon":139.730167},{"name":"品川区清掃事務所","province":"東京都","city":"品川区","address":"品川区大崎1-14-1","lat":35.618345,"lon":139.733502},{"name":"芳水小学校","province":"東京都","city":"品川区","address":"品川区大崎3-12-22","lat":35.61857,"lon":139.724154},{"name":"伊藤小学校","province":"東京都","city":"品川区","address":"品川区西大井5-6-8","lat":35.598691,"lon":139.717367},{"name":"源氏前小学校","province":"東京都","city":"品川区","address":"品川区中延6-2-18","lat":35.603165,"lon":139.712064},{"name":"小山台小学校","province":"東京都","city":"品川区","address":"品川区小山台1-18-24","lat":35.62276,"lon":139.703466},{"name":"大井コンテナふ頭","province":"東京都","city":"品川区","address":"東京都品川区八潮2丁目","lat":35.59506725,"lon":139.76759209},{"name":"品川ふ頭","province":"東京都","city":"品川区","address":"東京都品川区東品川5丁目","lat":35.62216053,"lon":139.75607776},{"name":"品川自動車営業所","province":"東京都","city":"品川区","address":"東京都品川区北品川1丁目5-12","lat":35.62329323,"lon":139.74073729},{"name":"品川第一地域センター","province":"東京都","city":"品川区","address":"品川区北品川3-11-16","lat":35.616673,"lon":139.740036},{"name":"台場小学校","province":"東京都","city":"品川区","address":"品川区東品川1-8-30","lat":35.620869,"lon":139.743667},{"name":"三木小学校","province":"東京都","city":"品川区","address":"品川区西品川3-16-28","lat":35.615256,"lon":139.726544},{"name":"大崎第一地域センター","province":"東京都","city":"品川区","address":"品川区西五反田3-6-3","lat":35.627795,"lon":139.716815},