{"keyword":"その他","data":[{"name":"＊?福島会館","province":"東京都","city":"昭島市","address":"昭島市福島町1-19-1","lat":35.696238,"lon":139.381918},{"name":"＊?玉川会館","province":"東京都","city":"昭島市","address":"昭島市玉川町3-10-15","lat":35.703704,"lon":139.382093},{"name":"＊?朝日会館","province":"東京都","city":"昭島市","address":"昭島市朝日町5-6-20","lat":35.705036,"lon":139.37283},{"name":"＊?堀向会館","province":"東京都","city":"昭島市","address":"昭島市美堀町2-6-11","lat":35.723033,"lon":139.363738},{"name":"＊?大神会館","province":"東京都","city":"昭島市","address":"昭島市大神町3-10-5","lat":35.700723,"lon":139.360759},{"name":"＊?昭和分館","province":"東京都","city":"昭島市","address":"昭島市松原町1-2-25","lat":35.712915,"lon":139.357675},{"name":"＊?緑分館","province":"東京都","city":"昭島市","address":"昭島市緑町4-13-26","lat":35.714198,"lon":139.34461},{"name":"＊?拝島会館","province":"東京都","city":"昭島市","address":"昭島市拝島町2-4-13","lat":35.707318,"lon":139.342086},{"name":"＊?やまのかみ会館","province":"東京都","city":"昭島市","address":"昭島市拝島町3-10-3","lat":35.711,"lon":139.335502},{"name":"＊?武蔵野会館","province":"東京都","city":"昭島市","address":"昭島市中神町1172-1","lat":35.711162,"lon":139.375787},{"name":"＊?富士見会館","province":"東京都","city":"昭島市","address":"昭島市中神町1282","lat":35.712306,"lon":139.382712}]}