{"keyword":"スモッグ","data":[{"name":"昭島市役所","province":"東京都","city":"昭島市","address":"東京都昭島市田中町1-17-1","lat":35.705706,"lon":139.353775},{"name":"昭島市保健福祉センター（あいぽっく）","province":"東京都","city":"昭島市","address":"東京都昭島市昭和町4-7-1","lat":35.71089,"lon":139.364088},{"name":"FOSTERホール（昭島市民会館）・公民館","province":"東京都","city":"昭島市","address":"東京都昭島市つつじが丘3-7-7","lat":35.713437,"lon":139.366187},{"name":"昭島市総合スポーツセンター","province":"東京都","city":"昭島市","address":"東京都昭島市東町5-13-1","lat":35.703334,"lon":139.38432},{"name":"玉川会館（東部出張所）","province":"東京都","city":"昭島市","address":"東京都昭島市玉川町3-10-15","lat":35.703703,"lon":139.382054},{"name":"朝日会館","province":"東京都","city":"昭島市","address":"東京都昭島市朝日町5-6-20","lat":35.705061,"lon":139.372835},{"name":"大神会館","province":"東京都","city":"昭島市","address":"東京都昭島市大神町3-10-5","lat":35.700742,"lon":139.360806},{"name":"拝島会館","province":"東京都","city":"昭島市","address":"東京都昭島市拝島町2-4-13","lat":35.707257,"lon":139.341968},{"name":"福島会館","province":"東京都","city":"昭島市","address":"東京都昭島市福島町1-19-1","lat":35.696753,"lon":139.381077},{"name":"昭和会館","province":"東京都","city":"昭島市","address":"東京都昭島市松原町1-2-25","lat":35.712896,"lon":139.357669},{"name":"緑会館","province":"東京都","city":"昭島市","address":"東京都昭島市緑町4-13-26","lat":35.714276,"lon":139.344637},{"name":"堀向会館","province":"東京都","city":"昭島市","address":"東京都昭島市美堀町2-6-11","lat":35.723174,"lon":139.363703},{"name":"富士見会館","province":"東京都","city":"昭島市","address":"東京都昭島市中神町1282","lat":35.712249,"lon":139.382554},{"name":"やまのかみ会館","province":"東京都","city":"昭島市","address":"東京都昭島市拝島町3-10-3","lat":35.710898,"lon":139.335471},{"name":"武蔵野会館","province":"東京都","city":"昭島市","address":"東京都昭島市中神町1172-1","lat":35.711183,"lon":139.375667},{"name":"松原町コミュニティセンター","province":"東京都","city":"昭島市","address":"東京都昭島市松原町1-3-10","lat":35.71206,"lon":139.356957},{"name":"児童センター「ぱれっと」","province":"東京都","city":"昭島市","address":"東京都昭島市つつじが丘2-3-21","lat":35.714301,"lon":139.367027},{"name":"勤労商工市民センター","province":"東京都","city":"昭島市","address":"東京都昭島市昭和町3-10-2","lat":35.707038,"lon":139.367005},{"name":"朝日町高齢者福祉センター","province":"東京都","city":"昭島市","address":"東京都昭島市朝日町4-5-9","lat":35.706258,"lon":139.37046},{"name":"松原町高齢者福祉センター","province":"東京都","city":"昭島市","address":"東京都昭島市松原町1-13-3","lat":35.714701,"lon":139.354453},{"name":"拝島町高齢者福祉センター","province":"東京都","city":"昭島市","address":"東京都昭島市拝島町3-10-4","lat":35.710487,"lon":139.335016},{"name":"青少年交流センター","province":"東京都","city":"昭島市","address":"東京都昭島市昭和町1-6-11","lat":35.711044,"lon":139.365627},{"name":"環境コミュニケーションセンター","province":"東京都","city":"昭島市","address":"東京都昭島市美堀町3-8-1","lat":35.723219,"lon":139.354547},{"name":"水道部","province":"東京都","city":"昭島市","address":"東京都昭島市朝日町4-23-28","lat":35.70873,"lon":139.370352},{"name":"アキシマエンシス（国際交流教養文化棟）","province":"東京都","city":"昭島市","address":"東京都昭島市つつじが丘3-3-15","lat":35.711714,"lon":139.36935},{"name":"アキシマエンシス（校舎棟）","province":"東京都","city":"昭島市","address":"東京都昭島市つつじが丘3-3-15","lat":35.712009,"lon":139.369303},{"name":"アキシマエンシス（体育館棟）","province":"東京都","city":"昭島市","address":"東京都昭島市つつじが丘3-3-15","lat":35.711743,"lon":139.368486},{"name":"東部配水場","province":"東京都","city":"昭島市","address":"東京都昭島市朝日町4丁目23-28","lat":35.70855468,"lon":139.37011036},{"name":"昭島市立大神公園・市立多摩川緑地くじら運動公園","province":"東京都","city":"昭島市","address":"東京都昭島市宮沢町3丁目17","lat":35.69509229,"lon":139.36457787},{"name":"昭和の森ゴルフコース（アウトコース７番）","province":"東京都","city":"昭島市","address":"東京都昭島市つつじが丘1丁目1-7","lat":35.72342513,"lon":139.3692435},{"name":"(株)大久保  多摩古紙センター昭島","province":"東京都","city":"昭島市","address":"昭島市武蔵野2-9-33","lat":35.72261,"lon":139.376877},{"name":"三弘紙業(株)  昭島営業所","province":"東京都","city":"昭島市","address":"昭島市松原町2-3-17","lat":35.713634,"lon":139.35289},{"name":"昭島市役所","province":"東京都","city":"昭島市","address":"東京都昭島市田中町1-17-1","lat":35.705706,"lon":139.353775},{"name":"昭島市保健福祉センター（あいぽっく）","province":"東京都","city":"昭島市","address":"東京都昭島市昭和町4-7-1","lat":35.71089,"lon":139.364088},{"name":"FOSTERホール（昭島市民会館）・公民館","province":"東京都","city":"昭島市","address":"東京都昭島市つつじが丘3-7-7","lat":35.713437,"lon":139.366187},{"name":"昭島市総合スポーツセンター","province":"東京都","city":"昭島市","address":"東京都昭島市東町5-13-1","lat":35.703334,"lon":139.38432},{"name":"玉川会館（東部出張所）","province":"東京都","city":"昭島市","address":"東京都昭島市玉川町3-10-15","lat":35.703703,"lon":139.382054},{"name":"朝日会館","province":"東京都","city":"昭島市","address":"東京都昭島市朝日町5-6-20","lat":35.705061,"lon":139.372835},{"name":"大神会館","province":"東京都","city":"昭島市","address":"東京都昭島市大神町3-10-5","lat":35.700742,"lon":139.360806},{"name":"拝島会館","province":"東京都","city":"昭島市","address":"東京都昭島市拝島町2-4-13","lat":35.707257,"lon":139.341968},{"name":"福島会館","province":"東京都","city":"昭島市","address":"東京都昭島市福島町1-19-1","lat":35.696753,"lon":139.381077},{"name":"昭和会館","province":"東京都","city":"昭島市","address":"東京都昭島市松原町1-2-25","lat":35.712896,"lon":139.357669},{"name":"緑会館","province":"東京都","city":"昭島市","address":"東京都昭島市緑町4-13-26","lat":35.714276,"lon":139.344637},{"name":"堀向会館","province":"東京都","city":"昭島市","address":"東京都昭島市美堀町2-6-11","lat":35.723174,"lon":139.363703},{"name":"富士見会館","province":"東京都","city":"昭島市","address":"東京都昭島市中神町1282","lat":35.712249,"lon":139.382554},{"name":"やまのかみ会館","province":"東京都","city":"昭島市","address":"東京都昭島市拝島町3-10-3","lat":35.710898,"lon":139.335471},{"name":"武蔵野会館","province":"東京都","city":"昭島市","address":"東京都昭島市中神町1172-1","lat":35.711183,"lon":139.375667},{"name":"松原町コミュニティセンター","province":"東京都","city":"昭島市","address":"東京都昭島市松原町1-3-10","lat":35.71206,"lon":139.356957},{"name":"児童センター「ぱれっと」","province":"東京都","city":"昭島市","address":"東京都昭島市つつじが丘2-3-21","lat":35.714301,"lon":139.367027},{"name":"勤労商工市民センター","province":"東京都","city":"昭島市","address":"東京都昭島市昭和町3-10-2","lat":35.707038,"lon":139.367005},{"name":"朝日町高齢者福祉センター","province":"東京都","city":"昭島市","address":"東京都昭島市朝日町4-5-9","lat":35.706258,"lon":139.37046},{"name":"松原町高齢者福祉センター","province":"東京都","city":"昭島市","address":"東京都昭島市松原町1-13-3","lat":35.714701,"lon":139.354453},{"name":"拝島町高齢者福祉センター","province":"東京都","city":"昭島市","address":"東京都昭島市拝島町3-10-4","lat":35.710487,"lon":139.335016},{"name":"青少年交流センター","province":"東京都","city":"昭島市","address":"東京都昭島市昭和町1-6-11","lat":35.711044,"lon":139.365627},{"name":"環境コミュニケーションセンター","province":"東京都","city":"昭島市","address":"東京都昭島市美堀町3-8-1","lat":35.723219,"lon":139.354547},{"name":"水道部","province":"東京都","city":"昭島市","address":"東京都昭島市朝日町4-23-28","lat":35.70873,"lon":139.370352},{"name":"アキシマエンシス（国際交流教養文化棟）","province":"東京都","city":"昭島市","address":"東京都昭島市つつじが丘3-3-15","lat":35.711714,"lon":139.36935},{"name":"アキシマエンシス（校舎棟）","province":"東京都","city":"昭島市","address":"東京都昭島市つつじが丘3-3-15","lat":35.712009,"lon":139.369303},{"name":"アキシマエンシス（体育館棟）","province":"東京都","city":"昭島市","address":"東京都昭島市つつじが丘3-3-15","lat":35.711743,"lon":139.368486},{"name":"(株)大久保  多摩古紙センター昭島","province":"東京都","city":"昭島市","address":"昭島市武蔵野2-9-33","lat":35.72261,"lon":139.376877},{"name":"三弘紙業(株)  昭島営業所","province":"東京都","city":"昭島市","address":"昭島市松原町2-3-17","lat":35.713634,"lon":139.35289},{"name":"昭島市役所","province":"東京都","city":"昭島市","address":"東京都昭島市田中町1-17-1","lat":35.705706,"lon":139.353775},{"name":"昭島市保健福祉センター（あいぽっく）","province":"東京都","city":"昭島市","address":"東京都昭島市昭和町4-7-1","lat":35.71089,"lon":139.364088},{"name":"FOSTERホール（昭島市民会館）・公民館","province":"東京都","city":"昭島市","address":"東京都昭島市つつじが丘3-7-7","lat":35.713437,"lon":139.366187},{"name":"昭島市総合スポーツセンター","province":"東京都","city":"昭島市","address":"東京都昭島市東町5-13-1","lat":35.703334,"lon":139.38432},{"name":"玉川会館（東部出張所）","province":"東京都","city":"昭島市","address":"東京都昭島市玉川町3-10-15","lat":35.703703,"lon":139.382054},{"name":"朝日会館","province":"東京都","city":"昭島市","address":"東京都昭島市朝日町5-6-20","lat":35.705061,"lon":139.372835},{"name":"大神会館","province":"東京都","city":"昭島市","address":"東京都昭島市大神町3-10-5","lat":35.700742,"lon":139.360806},{"name":"拝島会館","province":"東京都","city":"昭島市","address":"東京都昭島市拝島町2-4-13","lat":35.707257,"lon":139.341968},{"name":"福島会館","province":"東京都","city":"昭島市","address":"東京都昭島市福島町1-19-1","lat":35.696753,"lon":139.381077},{"name":"昭和会館","province":"東京都","city":"昭島市","address":"東京都昭島市松原町1-2-25","lat":35.712896,"lon":139.357669},{"name":"緑会館","province":"東京都","city":"昭島市","address":"東京都昭島市緑町4-13-26","lat":35.714276,"lon":139.344637},{"name":"堀向会館","province":"東京都","city":"昭島市","address":"東京都昭島市美堀町2-6-11","lat":35.723174,"lon":139.363703},{"name":"富士見会館","province":"東京都","city":"昭島市","address":"東京都昭島市中神町1282","lat":35.712249,"lon":139.382554},{"name":"やまのかみ会館","province":"東京都","city":"昭島市","address":"東京都昭島市拝島町3-10-3","lat":35.710898,"lon":139.335471},{"name":"武蔵野会館","province":"東京都","city":"昭島市","address":"東京都昭島市中神町1172-1","lat":35.711183,"lon":139.375667},{"name":"松原町コミュニティセンター","province":"東京都","city":"昭島市","address":"東京都昭島市松原町1-3-10","lat":35.71206,"lon":139.356957},{"name":"児童センター「ぱれっと」","province":"東京都","city":"昭島市","address":"東京都昭島市つつじが丘2-3-21","lat":35.714301,"lon":139.367027},{"name":"勤労商工市民センター","province":"東京都","city":"昭島市","address":"東京都昭島市昭和町3-10-2","lat":35.707038,"lon":139.367005},{"name":"朝日町高齢者福祉センター","province":"東京都","city":"昭島市","address":"東京都昭島市朝日町4-5-9","lat":35.706258,"lon":139.37046},{"name":"松原町高齢者福祉センター","province":"東京都","city":"昭島市","address":"東京都昭島市松原町1-13-3","lat":35.714701,"lon":139.354453},{"name":"拝島町高齢者福祉センター","province":"東京都","city":"昭島市","address":"東京都昭島市拝島町3-10-4","lat":35.710487,"lon":139.335016},{"name":"青少年交流センター","province":"東京都","city":"昭島市","address":"東京都昭島市昭和町1-6-11","lat":35.711044,"lon":139.365627},{"name":"環境コミュニケーションセンター","province":"東京都","city":"昭島市","address":"東京都昭島市美堀町3-8-1","lat":35.723219,"lon":139.354547},{"name":"水道部","province":"東京都","city":"昭島市","address":"東京都昭島市朝日町4-23-28","lat":35.70873,"lon":139.370352},{"name":"アキシマエンシス（国際交流教養文化棟）","province":"東京都","city":"昭島市","address":"東京都昭島市つつじが丘3-3-15","lat":35.711714,"lon":139.36935},{"name":"アキシマエンシス（校舎棟）","province":"東京都","city":"昭島市","address":"東京都昭島市つつじが丘3-3-15","lat":35.712009,"lon":139.369303},{"name":"アキシマエンシス（体育館棟）","province":"東京都","city":"昭島市","address":"東京都昭島市つつじが丘3-3-15","lat":35.711743,"lon":139.368486},{"name":"(株)大久保  多摩古紙センター昭島","province":"東京都","city":"昭島市","address":"昭島市武蔵野2-9-33","lat":35.72261,"lon":139.376877},{"name":"三弘紙業(株)  昭島営業所","province":"東京都","city":"昭島市","address":"昭島市松原町2-3-17","lat":35.713634,"lon":139.35289},{"name":"昭島市役所","province":"東京都","city":"昭島市","address":"東京都昭島市田中町1-17-1","lat":35.705706,"lon":139.353775},{"name":"昭島市保健福祉センター（あいぽっく）","province":"東京都","city":"昭島市","address":"東京都昭島市昭和町4-7-1","lat":35.71089,"lon":139.364088},{"name":"FOSTERホール（昭島市民会館）・公民館","province":"東京都","city":"昭島市","address":"東京都昭島市つつじが丘3-7-7","lat":35.713437,"lon":139.366187},{"name":"昭島市総合スポーツセンター","province":"東京都","city":"昭島市","address":"東京都昭島市東町5-13-1","lat":35.703334,"lon":139.38432},{"name":"玉川会館（東部出張所）","province":"東京都","city":"昭島市","address":"東京都昭島市玉川町3-10-15","lat":35.703703,"lon":139.382054},{"name":"朝日会館","province":"東京都","city":"昭島市","address":"東京都昭島市朝日町5-6-20","lat":35.705061,"lon":139.372835},{"name":"大神会館","province":"東京都","city":"昭島市","address":"東京都昭島市大神町3-10-5","lat":35.700742,"lon":139.360806},{"name":"拝島会館","province":"東京都","city":"昭島市","address":"東京都昭島市拝島町2-4-13","lat":35.707257,"lon":139.341968},{"name":"福島会館","province":"東京都","city":"昭島市","address":"東京都昭島市福島町1-19-1","lat":35.696753,"lon":139.381077},{"name":"昭和会館","province":"東京都","city":"昭島市","address":"東京都昭島市松原町1-2-25","lat":35.712896,"lon":139.357669},{"name":"緑会館","province":"東京都","city":"昭島市","address":"東京都昭島市緑町4-13-26","lat":35.714276,"lon":139.344637},{"name":"堀向会館","province":"東京都","city":"昭島市","address":"東京都昭島市美堀町2-6-11","lat":35.723174,"lon":139.363703},{"name":"富士見会館","province":"東京都","city":"昭島市","address":"東京都昭島市中神町1282","lat":35.712249,"lon":139.382554},{"name":"やまのかみ会館","province":"東京都","city":"昭島市","address":"東京都昭島市拝島町3-10-3","lat":35.710898,"lon":139.335471},{"name":"武蔵野会館","province":"東京都","city":"昭島市","address":"東京都昭島市中神町1172-1","lat":35.711183,"lon":139.375667},{"name":"松原町コミュニティセンター","province":"東京都","city":"昭島市","address":"東京都昭島市松原町1-3-10","lat":35.71206,"lon":139.356957},{"name":"児童センター「ぱれっと」","province":"東京都","city":"昭島市","address":"東京都昭島市つつじが丘2-3-21","lat":35.714301,"lon":139.367027},{"name":"勤労商工市民センター","province":"東京都","city":"昭島市","address":"東京都昭島市昭和町3-10-2","lat":35.707038,"lon":139.367005},{"name":"朝日町高齢者福祉センター","province":"東京都","city":"昭島市","address":"東京都昭島市朝日町4-5-9","lat":35.706258,"lon":139.37046},{"name":"松原町高齢者福祉センター","province":"東京都","city":"昭島市","address":"東京都昭島市松原町1-13-3","lat":35.714701,"lon":139.354453},{"name":"拝島町高齢者福祉センター","province":"東京都","city":"昭島市","address":"東京都昭島市拝島町3-10-4","lat":35.710487,"lon":139.335016},{"name":"青少年交流センター","province":"東京都","city":"昭島市","address":"東京都昭島市昭和町1-6-11","lat":35.711044,"lon":139.365627},{"name":"環境コミュニケーションセンター","province":"東京都","city":"昭島市","address":"東京都昭島市美堀町3-8-1","lat":35.723219,"lon":139.354547},{"name":"水道部","province":"東京都","city":"昭島市","address":"東京都昭島市朝日町4-23-28","lat":35.70873,"lon":139.370352},{"name":"アキシマエンシス（国際交流教養文化棟）","province":"東京都","city":"昭島市","address":"東京都昭島市つつじが丘3-3-15","lat":35.711714,"lon":139.36935},{"name":"アキシマエンシス（校舎棟）","province":"東京都","city":"昭島市","address":"東京都昭島市つつじが丘3-3-15","lat":35.712009,"lon":139.369303},{"name":"アキシマエンシス（体育館棟）","province":"東京都","city":"昭島市","address":"東京都昭島市つつじが丘3-3-15","lat":35.711743,"lon":139.368486},{"name":"(株)大久保  多摩古紙センター昭島","province":"東京都","city":"昭島市","address":"昭島市武蔵野2-9-33","lat":35.72261,"lon":139.376877},{"name":"三弘紙業(株)  昭島営業所","province":"東京都","city":"昭島市","address":"昭島市松原町2-3-17","lat":35.713634,"lon":139.35289},{"name":"昭島市役所","province":"東京都","city":"昭島市","address":"東京都昭島市田中町1-17-1","lat":35.705706,"lon":139.353775},{"name":"昭島市保健福祉センター（あいぽっく）","province":"東京都","city":"昭島市","address":"東京都昭島市昭和町4-7-1","lat":35.71089,"lon":139.364088},{"name":"FOSTERホール（昭島市民会館）・公民館","province":"東京都","city":"昭島市","address":"東京都昭島市つつじが丘3-7-7","lat":35.713437,"lon":139.366187},{"name":"昭島市総合スポーツセンター","province":"東京都","city":"昭島市","address":"東京都昭島市東町5-13-1","lat":35.703334,"lon":139.38432},{"name":"玉川会館（東部出張所）","province":"東京都","city":"昭島市","address":"東京都昭島市玉川町3-10-15","lat":35.703703,"lon":139.382054},{"name":"朝日会館","province":"東京都","city":"昭島市","address":"東京都昭島市朝日町5-6-20","lat":35.705061,"lon":139.372835},{"name":"大神会館","province":"東京都","city":"昭島市","address":"東京都昭島市大神町3-10-5","lat":35.700742,"lon":139.360806},{"name":"拝島会館","province":"東京都","city":"昭島市","address":"東京都昭島市拝島町2-4-13","lat":35.707257,"lon":139.341968},{"name":"福島会館","province":"東京都","city":"昭島市","address":"東京都昭島市福島町1-19-1","lat":35.696753,"lon":139.381077},{"name":"昭和会館","province":"東京都","city":"昭島市","address":"東京都昭島市松原町1-2-25","lat":35.712896,"lon":139.357669},{"name":"緑会館","province":"東京都","city":"昭島市","address":"東京都昭島市緑町4-13-26","lat":35.714276,"lon":139.344637},{"name":"堀向会館","province":"東京都","city":"昭島市","address":"東京都昭島市美堀町2-6-11","lat":35.723174,"lon":139.363703},{"name":"富士見会館","province":"東京都","city":"昭島市","address":"東京都昭島市中神町1282","lat":35.712249,"lon":139.382554},{"name":"やまのかみ会館","province":"東京都","city":"昭島市","address":"東京都昭島市拝島町3-10-3","lat":35.710898,"lon":139.335471},{"name":"武蔵野会館","province":"東京都","city":"昭島市","address":"東京都昭島市中神町1172-1","lat":35.711183,"lon":139.375667},{"name":"松原町コミュニティセンター","province":"東京都","city":"昭島市","address":"東京都昭島市松原町1-3-10","lat":35.71206,"lon":139.356957},{"name":"児童センター「ぱれっと」","province":"東京都","city":"昭島市","address":"東京都昭島市つつじが丘2-3-21","lat":35.714301,"lon":139.367027},{"name":"勤労商工市民センター","province":"東京都","city":"昭島市","address":"東京都昭島市昭和町3-10-2","lat":35.707038,"lon":139.367005},{"name":"朝日町高齢者福祉センター","province":"東京都","city":"昭島市","address":"東京都昭島市朝日町4-5-9","lat":35.706258,"lon":139.37046},{"name":"松原町高齢者福祉センター","province":"東京都","city":"昭島市","address":"東京都昭島市松原町1-13-3","lat":35.714701,"lon":139.354453},{"name":"拝島町高齢者福祉センター","province":"東京都","city":"昭島市","address":"東京都昭島市拝島町3-10-4","lat":35.710487,"lon":139.335016},{"name":"青少年交流センター","province":"東京都","city":"昭島市","address":"東京都昭島市昭和町1-6-11","lat":35.711044,"lon":139.365627},{"name":"環境コミュニケーションセンター","province":"東京都","city":"昭島市","address":"東京都昭島市美堀町3-8-1","lat":35.723219,"lon":139.354547},{"name":"水道部","province":"東京都","city":"昭島市","address":"東京都昭島市朝日町4-23-28","lat":35.70873,"lon":139.370352},{"name":"アキシマエンシス（国際交流教養文化棟）","province":"東京都","city":"昭島市","address":"東京都昭島市つつじが丘3-3-15","lat":35.711714,"lon":139.36935},{"name":"アキシマエンシス（校舎棟）","province":"東京都","city":"昭島市","address":"東京都昭島市つつじが丘3-3-15","lat":35.712009,"lon":139.369303},{"name":"アキシマエンシス（体育館棟）","province":"東京都","city":"昭島市","address":"東京都昭島市つつじが丘3-3-15","lat":35.711743,"lon":139.368486},{"name":"(株)大久保  多摩古紙センター昭島","province":"東京都","city":"昭島市","address":"昭島市武蔵野2-9-33","lat":35.72261,"lon":139.376877},{"name":"三弘紙業(株)  昭島営業所","province":"東京都","city":"昭島市","address":"昭島市松原町2-3-17","lat":35.713634,"lon":139.35289},{"name":"昭島市役所","province":"東京都","city":"昭島市","address":"東京都昭島市田中町1-17-1","lat":35.705706,"lon":139.353775},{"name":"昭島市保健福祉センター（あいぽっく）","province":"東京都","city":"昭島市","address":"東京都昭島市昭和町4-7-1","lat":35.71089,"lon":139.364088},{"name":"FOSTERホール（昭島市民会館）・公民館","province":"東京都","city":"昭島市","address":"東京都昭島市つつじが丘3-7-7","lat":35.713437,"lon":139.366187},{"name":"昭島市総合スポーツセンター","province":"東京都","city":"昭島市","address":"東京都昭島市東町5-13-1","lat":35.703334,"lon":139.38432},{"name":"玉川会館（東部出張所）","province":"東京都","city":"昭島市","address":"東京都昭島市玉川町3-10-15","lat":35.703703,"lon":139.382054},{"name":"朝日会館","province":"東京都","city":"昭島市","address":"東京都昭島市朝日町5-6-20","lat":35.705061,"lon":139.372835},{"name":"大神会館","province":"東京都","city":"昭島市","address":"東京都昭島市大神町3-10-5","lat":35.700742,"lon":139.360806},{"name":"拝島会館","province":"東京都","city":"昭島市","address":"東京都昭島市拝島町2-4-13","lat":35.707257,"lon":139.341968},{"name":"福島会館","province":"東京都","city":"昭島市","address":"東京都昭島市福島町1-19-1","lat":35.696753,"lon":139.381077},{"name":"昭和会館","province":"東京都","city":"昭島市","address":"東京都昭島市松原町1-2-25","lat":35.712896,"lon":139.357669},{"name":"緑会館","province":"東京都","city":"昭島市","address":"東京都昭島市緑町4-13-26","lat":35.714276,"lon":139.344637},{"name":"堀向会館","province":"東京都","city":"昭島市","address":"東京都昭島市美堀町2-6-11","lat":35.723174,"lon":139.363703},{"name":"富士見会館","province":"東京都","city":"昭島市","address":"東京都昭島市中神町1282","lat":35.712249,"lon":139.382554},{"name":"やまのかみ会館","province":"東京都","city":"昭島市","address":"東京都昭島市拝島町3-10-3","lat":35.710898,"lon":139.335471},{"name":"武蔵野会館","province":"東京都","city":"昭島市","address":"東京都昭島市中神町1172-1","lat":35.711183,"lon":139.375667},{"name":"松原町コミュニティセンター","province":"東京都","city":"昭島市","address":"東京都昭島市松原町1-3-10","lat":35.71206,"lon":139.356957},{"name":"児童センター「ぱれっと」","province":"東京都","city":"昭島市","address":"東京都昭島市つつじが丘2-3-21","lat":35.714301,"lon":139.367027},{"name":"勤労商工市民センター","province":"東京都","city":"昭島市","address":"東京都昭島市昭和町3-10-2","lat":35.707038,"lon":139.367005},{"name":"朝日町高齢者福祉センター","province":"東京都","city":"昭島市","address":"東京都昭島市朝日町4-5-9","lat":35.706258,"lon":139.37046},{"name":"松原町高齢者福祉センター","province":"東京都","city":"昭島市","address":"東京都昭島市松原町1-13-3","lat":35.714701,"lon":139.354453},{"name":"拝島町高齢者福祉センター","province":"東京都","city":"昭島市","address":"東京都昭島市拝島町3-10-4","lat":35.710487,"lon":139.335016},{"name":"青少年交流センター","province":"東京都","city":"昭島市","address":"東京都昭島市昭和町1-6-11","lat":35.711044,"lon":139.365627},{"name":"環境コミュニケーションセンター","province":"東京都","city":"昭島市","address":"東京都昭島市美堀町3-8-1","lat":35.723219,"lon":139.354547},{"name":"水道部","province":"東京都","city":"昭島市","address":"東京都昭島市朝日町4-23-28","lat":35.70873,"lon":139.370352},{"name":"アキシマエンシス（国際交流教養文化棟）","province":"東京都","city":"昭島市","address":"東京都昭島市つつじが丘3-3-15","lat":35.711714,"lon":139.36935},{"name":"アキシマエンシス（校舎棟）","province":"東京都","city":"昭島市","address":"東京都昭島市つつじが丘3-3-15","lat":35.712009,"lon":139.369303},{"name":"アキシマエンシス（体育館棟）","province":"東京都","city":"昭島市","address":"東京都昭島市つつじが丘3-3-15","lat":35.711743,"lon":139.368486},{"name":"(株)大久保  多摩古紙センター昭島","province":"東京都","city":"昭島市","address":"昭島市武蔵野2-9-33","lat":35.72261,"lon":139.376877},{"name":"三弘紙業(株)  昭島営業所","province":"東京都","city":"昭島市","address":"昭島市松原町2-3-17","lat":35.713634,"lon":139.35289},{"name":"昭島市役所","province":"東京都","city":"昭島市","address":"東京都昭島市田中町1-17-1","lat":35.705706,"lon":139.353775},{"name":"昭島市保健福祉センター（あいぽっく）","province":"東京都","city":"昭島市","address":"東京都昭島市昭和町4-7-1","lat":35.71089,"lon":139.364088},{"name":"FOSTERホール（昭島市民会館）・公民館","province":"東京都","city":"昭島市","address":"東京都昭島市つつじが丘3-7-7","lat":35.713437,"lon":139.366187},{"name":"昭島市総合スポーツセンター","province":"東京都","city":"昭島市","address":"東京都昭島市東町5-13-1","lat":35.703334,"lon":139.38432},{"name":"玉川会館（東部出張所）","province":"東京都","city":"昭島市","address":"東京都昭島市玉川町3-10-15","lat":35.703703,"lon":139.382054},{"name":"朝日会館","province":"東京都","city":"昭島市","address":"東京都昭島市朝日町5-6-20","lat":35.705061,"lon":139.372835},{"name":"大神会館","province":"東京都","city":"昭島市","address":"東京都昭島市大神町3-10-5","lat":35.700742,"lon":139.360806},{"name":"拝島会館","province":"東京都","city":"昭島市","address":"東京都昭島市拝島町2-4-13","lat":35.707257,"lon":139.341968},{"name":"福島会館","province":"東京都","city":"昭島市","address":"東京都昭島市福島町1-19-1","lat":35.696753,"lon":139.381077},{"name":"昭和会館","province":"東京都","city":"昭島市","address":"東京都昭島市松原町1-2-25","lat":35.712896,"lon":139.357669},{"name":"緑会館","province":"東京都","city":"昭島市","address":"東京都昭島市緑町4-13-26","lat":35.714276,"lon":139.344637},{"name":"堀向会館","province":"東京都","city":"昭島市","address":"東京都昭島市美堀町2-6-11","lat":35.723174,"lon":139.363703},{"name":"富士見会館","province":"東京都","city":"昭島市","address":"東京都昭島市中神町1282","lat":35.712249,"lon":139.382554},{"name":"やまのかみ会館","province":"東京都","city":"昭島市","address":"東京都昭島市拝島町3-10-3","lat":35.710898,"lon":139.335471},{"name":"武蔵野会館","province":"東京都","city":"昭島市","address":"東京都昭島市中神町1172-1","lat":35.711183,"lon":139.375667},{"name":"松原町コミュニティセンター","province":"東京都","city":"昭島市","address":"東京都昭島市松原町1-3-10","lat":35.71206,"lon":139.356957},{"name":"児童センター「ぱれっと」","province":"東京都","city":"昭島市","address":"東京都昭島市つつじが丘2-3-21","lat":35.714301,"lon":139.367027},{"name":"勤労商工市民センター","province":"東京都","city":"昭島市","address":"東京都昭島市昭和町3-10-2","lat":35.707038,"lon":139.367005},{"name":"朝日町高齢者福祉センター","province":"東京都","city":"昭島市","address":"東京都昭島市朝日町4-5-9","lat":35.706258,"lon":139.37046},{"name":"松原町高齢者福祉センター","province":"東京都","city":"昭島市","address":"東京都昭島市松原町1-13-3","lat":35.714701,"lon":139.354453},{"name":"拝島町高齢者福祉センター","province":"東京都","city":"昭島市","address":"東京都昭島市拝島町3-10-4","lat":35.710487,"lon":139.335016},{"name":"青少年交流センター","province":"東京都","city":"昭島市","address":"東京都昭島市昭和町1-6-11","lat":35.711044,"lon":139.365627},{"name":"環境コミュニケーションセンター","province":"東京都","city":"昭島市","address":"東京都昭島市美堀町3-8-1","lat":35.723219,"lon":139.354547},{"name":"水道部","province":"東京都","city":"昭島市","address":"東京都昭島市朝日町4-23-28","lat":35.70873,"lon":139.370352},{"name":"アキシマエンシス（国際交流教養文化棟）","province":"東京都","city":"昭島市","address":"東京都昭島市つつじが丘3-3-15","lat":35.711714,"lon":139.36935},{"name":"アキシマエンシス（校舎棟）","province":"東京都","city":"昭島市","address":"東京都昭島市つつじが丘3-3-15","lat":35.712009,"lon":139.369303},{"name":"アキシマエンシス（体育館棟）","province":"東京都","city":"昭島市","address":"東京都昭島市つつじが丘3-3-15","lat":35.711743,"lon":139.368486},{"name":"(株)大久保  多摩古紙センター昭島","province":"東京都","city":"昭島市","address":"昭島市武蔵野2-9-33","lat":35.72261,"lon":139.376877},{"name":"三弘紙業(株)  昭島営業所","province":"東京都","city":"昭島市","address":"昭島市松原町2-3-17","lat":35.713634,"lon":139.35289},{"name":"昭島市役所","province":"東京都","city":"昭島市","address":"東京都昭島市田中町1-17-1","lat":35.705706,"lon":139.353775},{"name":"昭島市保健福祉センター（あいぽっく）","province":"東京都","city":"昭島市","address":"東京都昭島市昭和町4-7-1","lat":35.71089,"lon":139.364088},{"name":"FOSTERホール（昭島市民会館）・公民館","province":"東京都","city":"昭島市","address":"東京都昭島市つつじが丘3-7-7","lat":35.713437,"lon":139.366187},{"name":"昭島市総合スポーツセンター","province":"東京都","city":"昭島市","address":"東京都昭島市東町5-13-1","lat":35.703334,"lon":139.38432},{"name":"玉川会館（東部出張所）","province":"東京都","city":"昭島市","address":"東京都昭島市玉川町3-10-15","lat":35.703703,"lon":139.382054},{"name":"朝日会館","province":"東京都","city":"昭島市","address":"東京都昭島市朝日町5-6-20","lat":35.705061,"lon":139.372835},{"name":"大神会館","province":"東京都","city":"昭島市","address":"東京都昭島市大神町3-10-5","lat":35.700742,"lon":139.360806},{"name":"拝島会館","province":"東京都","city":"昭島市","address":"東京都昭島市拝島町2-4-13","lat":35.707257,"lon":139.341968},{"name":"福島会館","province":"東京都","city":"昭島市","address":"東京都昭島市福島町1-19-1","lat":35.696753,"lon":139.381077},{"name":"昭和会館","province":"東京都","city":"昭島市","address":"東京都昭島市松原町1-2-25","lat":35.712896,"lon":139.357669},{"name":"緑会館","province":"東京都","city":"昭島市","address":"東京都昭島市緑町4-13-26","lat":35.714276,"lon":139.344637},{"name":"堀向会館","province":"東京都","city":"昭島市","address":"東京都昭島市美堀町2-6-11","lat":35.723174,"lon":139.363703},{"name":"富士見会館","province":"東京都","city":"昭島市","address":"東京都昭島市中神町1282","lat":35.712249,"lon":139.382554},{"name":"やまのかみ会館","province":"東京都","city":"昭島市","address":"東京都昭島市拝島町3-10-3","lat":35.710898,"lon":139.335471},{"name":"武蔵野会館","province":"東京都","city":"昭島市","address":"東京都昭島市中神町1172-1","lat":35.711183,"lon":139.375667},{"name":"松原町コミュニティセンター","province":"東京都","city":"昭島市","address":"東京都昭島市松原町1-3-10","lat":35.71206,"lon":139.356957},{"name":"児童センター「ぱれっと」","province":"東京都","city":"昭島市","address":"東京都昭島市つつじが丘2-3-21","lat":35.714301,"lon":139.367027},{"name":"勤労商工市民センター","province":"東京都","city":"昭島市","address":"東京都昭島市昭和町3-10-2","lat":35.707038,"lon":139.367005},{"name":"朝日町高齢者福祉センター","province":"東京都","city":"昭島市","address":"東京都昭島市朝日町4-5-9","lat":35.706258,"lon":139.37046},{"name":"松原町高齢者福祉センター","province":"東京都","city":"昭島市","address":"東京都昭島市松原町1-13-3","lat":35.714701,"lon":139.354453},{"name":"拝島町高齢者福祉センター","province":"東京都","city":"昭島市","address":"東京都昭島市拝島町3-10-4","lat":35.710487,"lon":139.335016},{"name":"青少年交流センター","province":"東京都","city":"昭島市","address":"東京都昭島市昭和町1-6-11","lat":35.711044,"lon":139.365627},{"name":"環境コミュニケーションセンター","province":"東京都","city":"昭島市","address":"東京都昭島市美堀町3-8-1","lat":35.723219,"lon":139.354547},{"name":"水道部","province":"東京都","city":"昭島市","address":"東京都昭島市朝日町4-23-28","lat":35.70873,"lon":139.370352},{"name":"アキシマエンシス（国際交流教養文化棟）","province":"東京都","city":"昭島市","address":"東京都昭島市つつじが丘3-3-15","lat":35.711714,"lon":139.36935},{"name":"アキシマエンシス（校舎棟）","province":"東京都","city":"昭島市","address":"東京都昭島市つつじが丘3-3-15","lat":35.712009,"lon":139.369303},{"name":"アキシマエンシス（体育館棟）","province":"東京都","city":"昭島市","address":"東京都昭島市つつじが丘3-3-15","lat":35.711743,"lon":139.368486},{"name":"(株)大久保  多摩古紙センター昭島","province":"東京都","city":"昭島市","address":"昭島市武蔵野2-9-33","lat":35.72261,"lon":139.376877},{"name":"三弘紙業(株)  昭島営業所","province":"東京都","city":"昭島市","address":"昭島市松原町2-3-17","lat":35.713634,"lon":139.35289},{"name":"昭島市役所","province":"東京都","city":"昭島市","address":"東京都昭島市田中町1-17-1","lat":35.705706,"lon":139.353775},{"name":"昭島市保健福祉センター（あいぽっく）","province":"東京都","city":"昭島市","address":"東京都昭島市昭和町4-7-1","lat":35.71089,"lon":139.364088},{"name":"FOSTERホール（昭島市民会館）・公民館","province":"東京都","city":"昭島市","address":"東京都昭島市つつじが丘3-7-7","lat":35.713437,"lon":139.366187},{"name":"昭島市総合スポーツセンター","province":"東京都","city":"昭島市","address":"東京都昭島市東町5-13-1","lat":35.703334,"lon":139.38432},{"name":"玉川会館（東部出張所）","province":"東京都","city":"昭島市","address":"東京都昭島市玉川町3-10-15","lat":35.703703,"lon":139.382054},{"name":"朝日会館","province":"東京都","city":"昭島市","address":"東京都昭島市朝日町5-6-20","lat":35.705061,"lon":139.372835},{"name":"大神会館","province":"東京都","city":"昭島市","address":"東京都昭島市大神町3-10-5","lat":35.700742,"lon":139.360806},{"name":"拝島会館","province":"東京都","city":"昭島市","address":"東京都昭島市拝島町2-4-13","lat":35.707257,"lon":139.341968},{"name":"福島会館","province":"東京都","city":"昭島市","address":"東京都昭島市福島町1-19-1","lat":35.696753,"lon":139.381077},{"name":"昭和会館","province":"東京都","city":"昭島市","address":"東京都昭島市松原町1-2-25","lat":35.712896,"lon":139.357669},{"name":"緑会館","province":"東京都","city":"昭島市","address":"東京都昭島市緑町4-13-26","lat":35.714276,"lon":139.344637},{"name":"堀向会館","province":"東京都","city":"昭島市","address":"東京都昭島市美堀町2-6-11","lat":35.723174,"lon":139.363703},{"name":"富士見会館","province":"東京都","city":"昭島市","address":"東京都昭島市中神町1282","lat":35.712249,"lon":139.382554},{"name":"やまのかみ会館","province":"東京都","city":"昭島市","address":"東京都昭島市拝島町3-10-3","lat":35.710898,"lon":139.335471},{"name":"武蔵野会館","province":"東京都","city":"昭島市","address":"東京都昭島市中神町1172-1","lat":35.711183,"lon":139.375667},{"name":"松原町コミュニティセンター","province":"東京都","city":"昭島市","address":"東京都昭島市松原町1-3-10","lat":35.71206,"lon":139.356957},{"name":"児童センター「ぱれっと」","province":"東京都","city":"昭島市","address":"東京都昭島市つつじが丘2-3-21","lat":35.714301,"lon":139.367027},{"name":"勤労商工市民センター","province":"東京都","city":"昭島市","address":"東京都昭島市昭和町3-10-2","lat":35.707038,"lon":139.367005},{"name":"朝日町高齢者福祉センター","province":"東京都","city":"昭島市","address":"東京都昭島市朝日町4-5-9","lat":35.706258,"lon":139.37046},{"name":"松原町高齢者福祉センター","province":"東京都","city":"昭島市","address":"東京都昭島市松原町1-13-3","lat":35.714701,"lon":139.354453},{"name":"拝島町高齢者福祉センター","province":"東京都","city":"昭島市","address":"東京都昭島市拝島町3-10-4","lat":35.710487,"lon":139.335016},{"name":"青少年交流センター","province":"東京都","city":"昭島市","address":"東京都昭島市昭和町1-6-11","lat":35.711044,"lon":139.365627},{"name":"環境コミュニケーションセンター","province":"東京都","city":"昭島市","address":"東京都昭島市美堀町3-8-1","lat":35.723219,"lon":139.354547},{"name":"水道部","province":"東京都","city":"昭島市","address":"東京都昭島市朝日町4-23-28","lat":35.70873,"lon":139.370352},{"name":"アキシマエンシス（国際交流教養文化棟）","province":"東京都","city":"昭島市","address":"東京都昭島市つつじが丘3-3-15","lat":35.711714,"lon":139.36935},{"name":"アキシマエンシス（校舎棟）","province":"東京都","city":"昭島市","address":"東京都昭島市つつじが丘3-3-15","lat":35.712009,"lon":139.369303},{"name":"アキシマエンシス（体育館棟）","province":"東京都","city":"昭島市","address":"東京都昭島市つつじが丘3-3-15","lat":35.711743,"lon":139.368486},{"name":"(株)大久保  多摩古紙センター昭島","province":"東京都","city":"昭島市","address":"昭島市武蔵野2-9-33","lat":35.72261,"lon":139.376877},{"name":"三弘紙業(株)  昭島営業所","province":"東京都","city":"昭島市","address":"昭島市松原町2-3-17","lat":35.713634,"lon":139.35289},{"name":"昭島市役所","province":"東京都","city":"昭島市","address":"東京都昭島市田中町1-17-1","lat":35.705706,"lon":139.353775},{"name":"昭島市保健福祉センター（あいぽっく）","province":"東京都","city":"昭島市","address":"東京都昭島市昭和町4-7-1","lat":35.71089,"lon":139.364088},{"name":"FOSTERホール（昭島市民会館）・公民館","province":"東京都","city":"昭島市","address":"東京都昭島市つつじが丘3-7-7","lat":35.713437,"lon":139.366187},{"name":"昭島市総合スポーツセンター","province":"東京都","city":"昭島市","address":"東京都昭島市東町5-13-1","lat":35.703334,"lon":139.38432},{"name":"玉川会館（東部出張所）","province":"東京都","city":"昭島市","address":"東京都昭島市玉川町3-10-15","lat":35.703703,"lon":139.382054},{"name":"朝日会館","province":"東京都","city":"昭島市","address":"東京都昭島市朝日町5-6-20","lat":35.705061,"lon":139.372835},{"name":"大神会館","province":"東京都","city":"昭島市","address":"東京都昭島市大神町3-10-5","lat":35.700742,"lon":139.360806},{"name":"拝島会館","province":"東京都","city":"昭島市","address":"東京都昭島市拝島町2-4-13","lat":35.707257,"lon":139.341968},{"name":"福島会館","province":"東京都","city":"昭島市","address":"東京都昭島市福島町1-19-1","lat":35.696753,"lon":139.381077},{"name":"昭和会館","province":"東京都","city":"昭島市","address":"東京都昭島市松原町1-2-25","lat":35.712896,"lon":139.357669},{"name":"緑会館","province":"東京都","city":"昭島市","address":"東京都昭島市緑町4-13-26","lat":35.714276,"lon":139.344637},{"name":"堀向会館","province":"東京都","city":"昭島市","address":"東京都昭島市美堀町2-6-11","lat":35.723174,"lon":139.363703},{"name":"富士見会館","province":"東京都","city":"昭島市","address":"東京都昭島市中神町1282","lat":35.712249,"lon":139.382554},{"name":"やまのかみ会館","province":"東京都","city":"昭島市","address":"東京都昭島市拝島町3-10-3","lat":35.710898,"lon":139.335471},{"name":"武蔵野会館","province":"東京都","city":"昭島市","address":"東京都昭島市中神町1172-1","lat":35.711183,"lon":139.375667},{"name":"松原町コミュニティセンター","province":"東京都","city":"昭島市","address":"東京都昭島市松原町1-3-10","lat":35.71206,"lon":139.356957},{"name":"児童センター「ぱれっと」","province":"東京都","city":"昭島市","address":"東京都昭島市つつじが丘2-3-21","lat":35.714301,"lon":139.367027},{"name":"勤労商工市民センター","province":"東京都","city":"昭島市","address":"東京都昭島市昭和町3-10-2","lat":35.707038,"lon":139.367005},{"name":"朝日町高齢者福祉センター","province":"東京都","city":"昭島市","address":"東京都昭島市朝日町4-5-9","lat":35.706258,"lon":139.37046},{"name":"松原町高齢者福祉センター","province":"東京都","city":"昭島市","address":"東京都昭島市松原町1-13-3","lat":35.714701,"lon":139.354453},{"name":"拝島町高齢者福祉センター","province":"東京都","city":"昭島市","address":"東京都昭島市拝島町3-10-4","lat":35.710487,"lon":139.335016},{"name":"青少年交流センター","province":"東京都","city":"昭島市","address":"東京都昭島市昭和町1-6-11","lat":35.711044,"lon":139.365627},{"name":"環境コミュニケーションセンター","province":"東京都","city":"昭島市","address":"東京都昭島市美堀町3-8-1","lat":35.723219,"lon":139.354547},{"name":"水道部","province":"東京都","city":"昭島市","address":"東京都昭島市朝日町4-23-28","lat":35.70873,"lon":139.370352},{"name":"アキシマエンシス（国際交流教養文化棟）","province":"東京都","city":"昭島市","address":"東京都昭島市つつじが丘3-3-15","lat":35.711714,"lon":139.36935},{"name":"アキシマエンシス（校舎棟）","province":"東京都","city":"昭島市","address":"東京都昭島市つつじが丘3-3-15","lat":35.712009,"lon":139.369303},{"name":"アキシマエンシス（体育館棟）","province":"東京都","city":"昭島市","address":"東京都昭島市つつじが丘3-3-15","lat":35.711743,"lon":139.368486},{"name":"(株)大久保  多摩古紙センター昭島","province":"東京都","city":"昭島市","address":"昭島市武蔵野2-9-33","lat":35.72261,"lon":139.376877},{"name":"三弘紙業(株)  昭島営業所","province":"東京都","city":"昭島市","address":"昭島市松原町2-3-17","lat":35.713634,"lon":139.35289},{"name":"昭島市役所","province":"東京都","city":"昭島市","address":"東京都昭島市田中町1-17-1","lat":35.705706,"lon":139.353775},{"name":"昭島市保健福祉センター（あいぽっく）","province":"東京都","city":"昭島市","address":"東京都昭島市昭和町4-7-1","lat":35.71089,"lon":139.364088},{"name":"FOSTERホール（昭島市民会館）・公民館","province":"東京都","city":"昭島市","address":"東京都昭島市つつじが丘3-7-7","lat":35.713437,"lon":139.366187},{"name":"昭島市総合スポーツセンター","province":"東京都","city":"昭島市","address":"東京都昭島市東町5-13-1","lat":35.703334,"lon":139.38432},{"name":"玉川会館（東部出張所）","province":"東京都","city":"昭島市","address":"東京都昭島市玉川町3-10-15","lat":35.703703,"lon":139.382054},{"name":"朝日会館","province":"東京都","city":"昭島市","address":"東京都昭島市朝日町5-6-20","lat":35.705061,"lon":139.372835},{"name":"大神会館","province":"東京都","city":"昭島市","address":"東京都昭島市大神町3-10-5","lat":35.700742,"lon":139.360806},{"name":"拝島会館","province":"東京都","city":"昭島市","address":"東京都昭島市拝島町2-4-13","lat":35.707257,"lon":139.341968},{"name":"福島会館","province":"東京都","city":"昭島市","address":"東京都昭島市福島町1-19-1","lat":35.696753,"lon":139.381077},{"name":"昭和会館","province":"東京都","city":"昭島市","address":"東京都昭島市松原町1-2-25","lat":35.712896,"lon":139.357669},{"name":"緑会館","province":"東京都","city":"昭島市","address":"東京都昭島市緑町4-13-26","lat":35.714276,"lon":139.344637},{"name":"堀向会館","province":"東京都","city":"昭島市","address":"東京都昭島市美堀町2-6-11","lat":35.723174,"lon":139.363703},{"name":"富士見会館","province":"東京都","city":"昭島市","address":"東京都昭島市中神町1282","lat":35.712249,"lon":139.382554},{"name":"やまのかみ会館","province":"東京都","city":"昭島市","address":"東京都昭島市拝島町3-10-3","lat":35.710898,"lon":139.335471},{"name":"武蔵野会館","province":"東京都","city":"昭島市","address":"東京都昭島市中神町1172-1","lat":35.711183,"lon":139.375667},{"name":"松原町コミュニティセンター","province":"東京都","city":"昭島市","address":"東京都昭島市松原町1-3-10","lat":35.71206,"lon":139.356957},{"name":"児童センター「ぱれっと」","province":"東京都","city":"昭島市","address":"東京都昭島市つつじが丘2-3-21","lat":35.714301,"lon":139.367027},{"name":"勤労商工市民センター","province":"東京都","city":"昭島市","address":"東京都昭島市昭和町3-10-2","lat":35.707038,"lon":139.367005},{"name":"朝日町高齢者福祉センター","province":"東京都","city":"昭島市","address":"東京都昭島市朝日町4-5-9","lat":35.706258,"lon":139.37046},{"name":"松原町高齢者福祉センター","province":"東京都","city":"昭島市","address":"東京都昭島市松原町1-13-3","lat":35.714701,"lon":139.354453},{"name":"拝島町高齢者福祉センター","province":"東京都","city":"昭島市","address":"東京都昭島市拝島町3-10-4","lat":35.710487,"lon":139.335016},{"name":"青少年交流センター","province":"東京都","city":"昭島市","address":"東京都昭島市昭和町1-6-11","lat":35.711044,"lon":139.365627},{"name":"環境コミュニケーションセンター","province":"東京都","city":"昭島市","address":"東京都昭島市美堀町3-8-1","lat":35.723219,"lon":139.354547},{"name":"水道部","province":"東京都","city":"昭島市","address":"東京都昭島市朝日町4-23-28","lat":35.70873,"lon":139.370352},{"name":"アキシマエンシス（国際交流教養文化棟）","province":"東京都","city":"昭島市","address":"東京都昭島市つつじが丘3-3-15","lat":35.711714,"lon":139.36935},{"name":"アキシマエンシス（校舎棟）","province":"東京都","city":"昭島市","address":"東京都昭島市つつじが丘3-3-15","lat":35.712009,"lon":139.369303},{"name":"アキシマエンシス（体育館棟）","province":"東京都","city":"昭島市","address":"東京都昭島市つつじが丘3-3-15","lat":35.711743,"lon":139.368486},{"name":"(株)大久保  多摩古紙センター昭島","province":"東京都","city":"昭島市","address":"昭島市武蔵野2-9-33","lat":35.72261,"lon":139.376877},{"name":"三弘紙業(株)  昭島営業所","province":"東京都","city":"昭島市","address":"昭島市松原町2-3-17","lat":35.713634,"lon":139.35289},{"name":"昭島市役所","province":"東京都","city":"昭島市","address":"東京都昭島市田中町1-17-1","lat":35.705706,"lon":139.353775},{"name":"昭島市保健福祉センター（あいぽっく）","province":"東京都","city":"昭島市","address":"東京都昭島市昭和町4-7-1","lat":35.71089,"lon":139.364088},{"name":"FOSTERホール（昭島市民会館）・公民館","province":"東京都","city":"昭島市","address":"東京都昭島市つつじが丘3-7-7","lat":35.713437,"lon":139.366187},{"name":"昭島市総合スポーツセンター","province":"東京都","city":"昭島市","address":"東京都昭島市東町5-13-1","lat":35.703334,"lon":139.38432},{"name":"玉川会館（東部出張所）","province":"東京都","city":"昭島市","address":"東京都昭島市玉川町3-10-15","lat":35.703703,"lon":139.382054},{"name":"朝日会館","province":"東京都","city":"昭島市","address":"東京都昭島市朝日町5-6-20","lat":35.705061,"lon":139.372835},{"name":"大神会館","province":"東京都","city":"昭島市","address":"東京都昭島市大神町3-10-5","lat":35.700742,"lon":139.360806},{"name":"拝島会館","province":"東京都","city":"昭島市","address":"東京都昭島市拝島町2-4-13","lat":35.707257,"lon":139.341968},{"name":"福島会館","province":"東京都","city":"昭島市","address":"東京都昭島市福島町1-19-1","lat":35.696753,"lon":139.381077},{"name":"昭和会館","province":"東京都","city":"昭島市","address":"東京都昭島市松原町1-2-25","lat":35.712896,"lon":139.357669},{"name":"緑会館","province":"東京都","city":"昭島市","address":"東京都昭島市緑町4-13-26","lat":35.714276,"lon":139.344637},{"name":"堀向会館","province":"東京都","city":"昭島市","address":"東京都昭島市美堀町2-6-11","lat":35.723174,"lon":139.363703},{"name":"富士見会館","province":"東京都","city":"昭島市","address":"東京都昭島市中神町1282","lat":35.712249,"lon":139.382554},{"name":"やまのかみ会館","province":"東京都","city":"昭島市","address":"東京都昭島市拝島町3-10-3","lat":35.710898,"lon":139.335471},{"name":"武蔵野会館","province":"東京都","city":"昭島市","address":"東京都昭島市中神町1172-1","lat":35.711183,"lon":139.375667},{"name":"松原町コミュニティセンター","province":"東京都","city":"昭島市","address":"東京都昭島市松原町1-3-10","lat":35.71206,"lon":139.356957},{"name":"児童センター「ぱれっと」","province":"東京都","city":"昭島市","address":"東京都昭島市つつじが丘2-3-21","lat":35.714301,"lon":139.367027},{"name":"勤労商工市民センター","province":"東京都","city":"昭島市","address":"東京都昭島市昭和町3-10-2","lat":35.707038,"lon":139.367005},{"name":"朝日町高齢者福祉センター","province":"東京都","city":"昭島市","address":"東京都昭島市朝日町4-5-9","lat":35.706258,"lon":139.37046},{"name":"松原町高齢者福祉センター","province":"東京都","city":"昭島市","address":"東京都昭島市松原町1-13-3","lat":35.714701,"lon":139.354453},{"name":"拝島町高齢者福祉センター","province":"東京都","city":"昭島市","address":"東京都昭島市拝島町3-10-4","lat":35.710487,"lon":139.335016},{"name":"青少年交流センター","province":"東京都","city":"昭島市","address":"東京都昭島市昭和町1-6-11","lat":35.711044,"lon":139.365627},{"name":"環境コミュニケーションセンター","province":"東京都","city":"昭島市","address":"東京都昭島市美堀町3-8-1","lat":35.723219,"lon":139.354547},{"name":"水道部","province":"東京都","city":"昭島市","address":"東京都昭島市朝日町4-23-28","lat":35.70873,"lon":139.370352},{"name":"アキシマエンシス（国際交流教養文化棟）","province":"東京都","city":"昭島市","address":"東京都昭島市つつじが丘3-3-15","lat":35.711714,"lon":139.36935},{"name":"アキシマエンシス（校舎棟）","province":"東京都","city":"昭島市","address":"東京都昭島市つつじが丘3-3-15","lat":35.712009,"lon":139.369303},{"name":"アキシマエンシス（体育館棟）","province":"東京都","city":"昭島市","address":"東京都昭島市つつじが丘3-3-15","lat":35.711743,"lon":139.368486},{"name":"(株)大久保  多摩古紙センター昭島","province":"東京都","city":"昭島市","address":"昭島市武蔵野2-9-33","lat":35.72261,"lon":139.376877},{"name":"三弘紙業(株)  昭島営業所","province":"東京都","city":"昭島市","address":"昭島市松原町2-3-17","lat":35.713634,"lon":139.35289},{"name":"昭島市役所","province":"東京都","city":"昭島市","address":"東京都昭島市田中町1-17-1","lat":35.705706,"lon":139.353775},{"name":"昭島市保健福祉センター（あいぽっく）","province":"東京都","city":"昭島市","address":"東京都昭島市昭和町4-7-1","lat":35.71089,"lon":139.364088},{"name":"FOSTERホール（昭島市民会館）・公民館","province":"東京都","city":"昭島市","address":"東京都昭島市つつじが丘3-7-7","lat":35.713437,"lon":139.366187},{"name":"昭島市総合スポーツセンター","province":"東京都","city":"昭島市","address":"東京都昭島市東町5-13-1","lat":35.703334,"lon":139.38432},{"name":"玉川会館（東部出張所）","province":"東京都","city":"昭島市","address":"東京都昭島市玉川町3-10-15","lat":35.703703,"lon":139.382054},{"name":"朝日会館","province":"東京都","city":"昭島市","address":"東京都昭島市朝日町5-6-20","lat":35.705061,"lon":139.372835},{"name":"大神会館","province":"東京都","city":"昭島市","address":"東京都昭島市大神町3-10-5","lat":35.700742,"lon":139.360806},{"name":"拝島会館","province":"東京都","city":"昭島市","address":"東京都昭島市拝島町2-4-13","lat":35.707257,"lon":139.341968},{"name":"福島会館","province":"東京都","city":"昭島市","address":"東京都昭島市福島町1-19-1","lat":35.696753,"lon":139.381077},{"name":"昭和会館","province":"東京都","city":"昭島市","address":"東京都昭島市松原町1-2-25","lat":35.712896,"lon":139.357669},{"name":"緑会館","province":"東京都","city":"昭島市","address":"東京都昭島市緑町4-13-26","lat":35.714276,"lon":139.344637},{"name":"堀向会館","province":"東京都","city":"昭島市","address":"東京都昭島市美堀町2-6-11","lat":35.723174,"lon":139.363703},{"name":"富士見会館","province":"東京都","city":"昭島市","address":"東京都昭島市中神町1282","lat":35.712249,"lon":139.382554},{"name":"やまのかみ会館","province":"東京都","city":"昭島市","address":"東京都昭島市拝島町3-10-3","lat":35.710898,"lon":139.335471},{"name":"武蔵野会館","province":"東京都","city":"昭島市","address":"東京都昭島市中神町1172-1","lat":35.711183,"lon":139.375667},{"name":"松原町コミュニティセンター","province":"東京都","city":"昭島市","address":"東京都昭島市松原町1-3-10","lat":35.71206,"lon":139.356957},{"name":"児童センター「ぱれっと」","province":"東京都","city":"昭島市","address":"東京都昭島市つつじが丘2-3-21","lat":35.714301,"lon":139.367027},{"name":"勤労商工市民センター","province":"東京都","city":"昭島市","address":"東京都昭島市昭和町3-10-2","lat":35.707038,"lon":139.367005},{"name":"朝日町高齢者福祉センター","province":"東京都","city":"昭島市","address":"東京都昭島市朝日町4-5-9","lat":35.706258,"lon":139.37046},{"name":"松原町高齢者福祉センター","province":"東京都","city":"昭島市","address":"東京都昭島市松原町1-13-3","lat":35.714701,"lon":139.354453},{"name":"拝島町高齢者福祉センター","province":"東京都","city":"昭島市","address":"東京都昭島市拝島町3-10-4","lat":35.710487,"lon":139.335016},{"name":"青少年交流センター","province":"東京都","city":"昭島市","address":"東京都昭島市昭和町1-6-11","lat":35.711044,"lon":139.365627},{"name":"環境コミュニケーションセンター","province":"東京都","city":"昭島市","address":"東京都昭島市美堀町3-8-1","lat":35.723219,"lon":139.354547},{"name":"水道部","province":"東京都","city":"昭島市","address":"東京都昭島市朝日町4-23-28","lat":35.70873,"lon":139.370352},{"name":"アキシマエンシス（国際交流教養文化棟）","province":"東京都","city":"昭島市","address":"東京都昭島市つつじが丘3-3-15","lat":35.711714,"lon":139.36935},{"name":"アキシマエンシス（校舎棟）","province":"東京都","city":"昭島市","address":"東京都昭島市つつじが丘3-3-15","lat":35.712009,"lon":139.369303},{"name":"アキシマエンシス（体育館棟）","province":"東京都","city":"昭島市","address":"東京都昭島市つつじが丘3-3-15","lat":35.711743,"lon":139.368486},{"name":"(株)大久保  多摩古紙センター昭島","province":"東京都","city":"昭島市","address":"昭島市武蔵野2-9-33","lat":35.72261,"lon":139.376877},{"name":"三弘紙業(株)  昭島営業所","province":"東京都","city":"昭島市","address":"昭島市松原町2-3-17","lat":35.713634,"lon":139.35289},{"name":"昭島市役所","province":"東京都","city":"昭島市","address":"東京都昭島市田中町1-17-1","lat":35.705706,"lon":139.353775},{"name":"昭島市保健福祉センター（あいぽっく）","province":"東京都","city":"昭島市","address":"東京都昭島市昭和町4-7-1","lat":35.71089,"lon":139.364088},{"name":"FOSTERホール（昭島市民会館）・公民館","province":"東京都","city":"昭島市","address":"東京都昭島市つつじが丘3-7-7","lat":35.713437,"lon":139.366187},{"name":"昭島市総合スポーツセンター","province":"東京都","city":"昭島市","address":"東京都昭島市東町5-13-1","lat":35.703334,"lon":139.38432},{"name":"玉川会館（東部出張所）","province":"東京都","city":"昭島市","address":"東京都昭島市玉川町3-10-15","lat":35.703703,"lon":139.382054},{"name":"朝日会館","province":"東京都","city":"昭島市","address":"東京都昭島市朝日町5-6-20","lat":35.705061,"lon":139.372835},{"name":"大神会館","province":"東京都","city":"昭島市","address":"東京都昭島市大神町3-10-5","lat":35.700742,"lon":139.360806},{"name":"拝島会館","province":"東京都","city":"昭島市","address":"東京都昭島市拝島町2-4-13","lat":35.707257,"lon":139.341968},{"name":"福島会館","province":"東京都","city":"昭島市","address":"東京都昭島市福島町1-19-1","lat":35.696753,"lon":139.381077},{"name":"昭和会館","province":"東京都","city":"昭島市","address":"東京都昭島市松原町1-2-25","lat":35.712896,"lon":139.357669},{"name":"緑会館","province":"東京都","city":"昭島市","address":"東京都昭島市緑町4-13-26","lat":35.714276,"lon":139.344637},{"name":"堀向会館","province":"東京都","city":"昭島市","address":"東京都昭島市美堀町2-6-11","lat":35.723174,"lon":139.363703},{"name":"富士見会館","province":"東京都","city":"昭島市","address":"東京都昭島市中神町1282","lat":35.712249,"lon":139.382554},{"name":"やまのかみ会館","province":"東京都","city":"昭島市","address":"東京都昭島市拝島町3-10-3","lat":35.710898,"lon":139.335471},{"name":"武蔵野会館","province":"東京都","city":"昭島市","address":"東京都昭島市中神町1172-1","lat":35.711183,"lon":139.375667},{"name":"松原町コミュニティセンター","province":"東京都","city":"昭島市","address":"東京都昭島市松原町1-3-10","lat":35.71206,"lon":139.356957},{"name":"児童センター「ぱれっと」","province":"東京都","city":"昭島市","address":"東京都昭島市つつじが丘2-3-21","lat":35.714301,"lon":139.367027},{"name":"勤労商工市民センター","province":"東京都","city":"昭島市","address":"東京都昭島市昭和町3-10-2","lat":35.707038,"lon":139.367005},{"name":"朝日町高齢者福祉センター","province":"東京都","city":"昭島市","address":"東京都昭島市朝日町4-5-9","lat":35.706258,"lon":139.37046},{"name":"松原町高齢者福祉センター","province":"東京都","city":"昭島市","address":"東京都昭島市松原町1-13-3","lat":35.714701,"lon":139.354453},{"name":"拝島町高齢者福祉センター","province":"東京都","city":"昭島市","address":"東京都昭島市拝島町3-10-4","lat":35.710487,"lon":139.335016},{"name":"青少年交流センター","province":"東京都","city":"昭島市","address":"東京都昭島市昭和町1-6-11","lat":35.711044,"lon":139.365627},{"name":"環境コミュニケーションセンター","province":"東京都","city":"昭島市","address":"東京都昭島市美堀町3-8-1","lat":35.723219,"lon":139.354547},{"name":"水道部","province":"東京都","city":"昭島市","address":"東京都昭島市朝日町4-23-28","lat":35.70873,"lon":139.370352},{"name":"アキシマエンシス（国際交流教養文化棟）","province":"東京都","city":"昭島市","address":"東京都昭島市つつじが丘3-3-15","lat":35.711714,"lon":139.36935},{"name":"アキシマエンシス（校舎棟）","province":"東京都","city":"昭島市","address":"東京都昭島市つつじが丘3-3-15","lat":35.712009,"lon":139.369303},{"name":"アキシマエンシス（体育館棟）","province":"東京都","city":"昭島市","address":"東京都昭島市つつじが丘3-3-15","lat":35.711743,"lon":139.368486},{"name":"(株)大久保  多摩古紙センター昭島","province":"東京都","city":"昭島市","address":"昭島市武蔵野2-9-33","lat":35.72261,"lon":139.376877},{"name":"三弘紙業(株)  昭島営業所","province":"東京都","city":"昭島市","address":"昭島市松原町2-3-17","lat":35.713634,"lon":139.35289},{"name":"昭島市役所","province":"東京都","city":"昭島市","address":"東京都昭島市田中町1-17-1","lat":35.705706,"lon":139.353775},{"name":"昭島市保健福祉センター（あいぽっく）","province":"東京都","city":"昭島市","address":"東京都昭島市昭和町4-7-1","lat":35.71089,"lon":139.364088},{"name":"FOSTERホール（昭島市民会館）・公民館","province":"東京都","city":"昭島市","address":"東京都昭島市つつじが丘3-7-7","lat":35.713437,"lon":139.366187},{"name":"昭島市総合スポーツセンター","province":"東京都","city":"昭島市","address":"東京都昭島市東町5-13-1","lat":35.703334,"lon":139.38432},{"name":"玉川会館（東部出張所）","province":"東京都","city":"昭島市","address":"東京都昭島市玉川町3-10-15","lat":35.703703,"lon":139.382054},{"name":"朝日会館","province":"東京都","city":"昭島市","address":"東京都昭島市朝日町5-6-20","lat":35.705061,"lon":139.372835},{"name":"大神会館","province":"東京都","city":"昭島市","address":"東京都昭島市大神町3-10-5","lat":35.700742,"lon":139.360806},{"name":"拝島会館","province":"東京都","city":"昭島市","address":"東京都昭島市拝島町2-4-13","lat":35.707257,"lon":139.341968},{"name":"福島会館","province":"東京都","city":"昭島市","address":"東京都昭島市福島町1-19-1","lat":35.696753,"lon":139.381077},{"name":"昭和会館","province":"東京都","city":"昭島市","address":"東京都昭島市松原町1-2-25","lat":35.712896,"lon":139.357669},{"name":"緑会館","province":"東京都","city":"昭島市","address":"東京都昭島市緑町4-13-26","lat":35.714276,"lon":139.344637},{"name":"堀向会館","province":"東京都","city":"昭島市","address":"東京都昭島市美堀町2-6-11","lat":35.723174,"lon":139.363703},{"name":"富士見会館","province":"東京都","city":"昭島市","address":"東京都昭島市中神町1282","lat":35.712249,"lon":139.382554},{"name":"やまのかみ会館","province":"東京都","city":"昭島市","address":"東京都昭島市拝島町3-10-3","lat":35.710898,"lon":139.335471},{"name":"武蔵野会館","province":"東京都","city":"昭島市","address":"東京都昭島市中神町1172-1","lat":35.711183,"lon":139.375667},{"name":"松原町コミュニティセンター","province":"東京都","city":"昭島市","address":"東京都昭島市松原町1-3-10","lat":35.71206,"lon":139.356957},{"name":"児童センター「ぱれっと」","province":"東京都","city":"昭島市","address":"東京都昭島市つつじが丘2-3-21","lat":35.714301,"lon":139.367027},{"name":"勤労商工市民センター","province":"東京都","city":"昭島市","address":"東京都昭島市昭和町3-10-2","lat":35.707038,"lon":139.367005},{"name":"朝日町高齢者福祉センター","province":"東京都","city":"昭島市","address":"東京都昭島市朝日町4-5-9","lat":35.706258,"lon":139.37046},{"name":"松原町高齢者福祉センター","province":"東京都","city":"昭島市","address":"東京都昭島市松原町1-13-3","lat":35.714701,"lon":139.354453},{"name":"拝島町高齢者福祉センター","province":"東京都","city":"昭島市","address":"東京都昭島市拝島町3-10-4","lat":35.710487,"lon":139.335016},{"name":"青少年交流センター","province":"東京都","city":"昭島市","address":"東京都昭島市昭和町1-6-11","lat":35.711044,"lon":139.365627},{"name":"環境コミュニケーションセンター","province":"東京都","city":"昭島市","address":"東京都昭島市美堀町3-8-1","lat":35.723219,"lon":139.354547},{"name":"水道部","province":"東京都","city":"昭島市","address":"東京都昭島市朝日町4-23-28","lat":35.70873,"lon":139.370352},{"name":"アキシマエンシス（国際交流教養文化棟）","province":"東京都","city":"昭島市","address":"東京都昭島市つつじが丘3-3-15","lat":35.711714,"lon":139.36935},{"name":"アキシマエンシス（校舎棟）","province":"東京都","city":"昭島市","address":"東京都昭島市つつじが丘3-3-15","lat":35.712009,"lon":139.369303},{"name":"アキシマエンシス（体育館棟）","province":"東京都","city":"昭島市","address":"東京都昭島市つつじが丘3-3-15","lat":35.711743,"lon":139.368486},{"name":"(株)大久保  多摩古紙センター昭島","province":"東京都","city":"昭島市","address":"昭島市武蔵野2-9-33","lat":35.72261,"lon":139.376877},{"name":"三弘紙業(株)  昭島営業所","province":"東京都","city":"昭島市","address":"昭島市松原町2-3-17","lat":35.713634,"lon":139.35289},{"name":"昭島市役所","province":"東京都","city":"昭島市","address":"東京都昭島市田中町1-17-1","lat":35.705706,"lon":139.353775},{"name":"昭島市保健福祉センター（あいぽっく）","province":"東京都","city":"昭島市","address":"東京都昭島市昭和町4-7-1","lat":35.71089,"lon":139.364088},{"name":"FOSTERホール（昭島市民会館）・公民館","province":"東京都","city":"昭島市","address":"東京都昭島市つつじが丘3-7-7","lat":35.713437,"lon":139.366187},{"name":"昭島市総合スポーツセンター","province":"東京都","city":"昭島市","address":"東京都昭島市東町5-13-1","lat":35.703334,"lon":139.38432},{"name":"玉川会館（東部出張所）","province":"東京都","city":"昭島市","address":"東京都昭島市玉川町3-10-15","lat":35.703703,"lon":139.382054},{"name":"朝日会館","province":"東京都","city":"昭島市","address":"東京都昭島市朝日町5-6-20","lat":35.705061,"lon":139.372835},{"name":"大神会館","province":"東京都","city":"昭島市","address":"東京都昭島市大神町3-10-5","lat":35.700742,"lon":139.360806},{"name":"拝島会館","province":"東京都","city":"昭島市","address":"東京都昭島市拝島町2-4-13","lat":35.707257,"lon":139.341968},{"name":"福島会館","province":"東京都","city":"昭島市","address":"東京都昭島市福島町1-19-1","lat":35.696753,"lon":139.381077},{"name":"昭和会館","province":"東京都","city":"昭島市","address":"東京都昭島市松原町1-2-25","lat":35.712896,"lon":139.357669},{"name":"緑会館","province":"東京都","city":"昭島市","address":"東京都昭島市緑町4-13-26","lat":35.714276,"lon":139.344637},{"name":"堀向会館","province":"東京都","city":"昭島市","address":"東京都昭島市美堀町2-6-11","lat":35.723174,"lon":139.363703},{"name":"富士見会館","province":"東京都","city":"昭島市","address":"東京都昭島市中神町1282","lat":35.712249,"lon":139.382554},{"name":"やまのかみ会館","province":"東京都","city":"昭島市","address":"東京都昭島市拝島町3-10-3","lat":35.710898,"lon":139.335471},{"name":"武蔵野会館","province":"東京都","city":"昭島市","address":"東京都昭島市中神町1172-1","lat":35.711183,"lon":139.375667},{"name":"松原町コミュニティセンター","province":"東京都","city":"昭島市","address":"東京都昭島市松原町1-3-10","lat":35.71206,"lon":139.356957},{"name":"児童センター「ぱれっと」","province":"東京都","city":"昭島市","address":"東京都昭島市つつじが丘2-3-21","lat":35.714301,"lon":139.367027},{"name":"勤労商工市民センター","province":"東京都","city":"昭島市","address":"東京都昭島市昭和町3-10-2","lat":35.707038,"lon":139.367005},{"name":"朝日町高齢者福祉センター","province":"東京都","city":"昭島市","address":"東京都昭島市朝日町4-5-9","lat":35.706258,"lon":139.37046},{"name":"松原町高齢者福祉センター","province":"東京都","city":"昭島市","address":"東京都昭島市松原町1-13-3","lat":35.714701,"lon":139.354453},{"name":"拝島町高齢者福祉センター","province":"東京都","city":"昭島市","address":"東京都昭島市拝島町3-10-4","lat":35.710487,"lon":139.335016},{"name":"青少年交流センター","province":"東京都","city":"昭島市","address":"東京都昭島市昭和町1-6-11","lat":35.711044,"lon":139.365627},{"name":"環境コミュニケーションセンター","province":"東京都","city":"昭島市","address":"東京都昭島市美堀町3-8-1","lat":35.723219,"lon":139.354547},{"name":"水道部","province":"東京都","city":"昭島市","address":"東京都昭島市朝日町4-23-28","lat":35.70873,"lon":139.370352},{"name":"アキシマエンシス（国際交流教養文化棟）","province":"東京都","city":"昭島市","address":"東京都昭島市つつじが丘3-3-15","lat":35.711714,"lon":139.36935},{"name":"アキシマエンシス（校舎棟）","province":"東京都","city":"昭島市","address":"東京都昭島市つつじが丘3-3-15","lat":35.712009,"lon":139.369303},{"name":"アキシマエンシス（体育館棟）","province":"東京都","city":"昭島市","address":"東京都昭島市つつじが丘3-3-15","lat":35.711743,"lon":139.368486},{"name":"(株)大久保  多摩古紙センター昭島","province":"東京都","city":"昭島市","address":"昭島市武蔵野2-9-33","lat":35.72261,"lon":139.376877},{"name":"三弘紙業(株)  昭島営業所","province":"東京都","city":"昭島市","address":"昭島市松原町2-3-17","lat":35.713634,"lon":139.35289},{"name":"昭島市役所","province":"東京都","city":"昭島市","address":"東京都昭島市田中町1-17-1","lat":35.705706,"lon":139.353775},{"name":"昭島市保健福祉センター（あいぽっく）","province":"東京都","city":"昭島市","address":"東京都昭島市昭和町4-7-1","lat":35.71089,"lon":139.364088},{"name":"FOSTERホール（昭島市民会館）・公民館","province":"東京都","city":"昭島市","address":"東京都昭島市つつじが丘3-7-7","lat":35.713437,"lon":139.366187},{"name":"昭島市総合スポーツセンター","province":"東京都","city":"昭島市","address":"東京都昭島市東町5-13-1","lat":35.703334,"lon":139.38432},{"name":"玉川会館（東部出張所）","province":"東京都","city":"昭島市","address":"東京都昭島市玉川町3-10-15","lat":35.703703,"lon":139.382054},{"name":"朝日会館","province":"東京都","city":"昭島市","address":"東京都昭島市朝日町5-6-20","lat":35.705061,"lon":139.372835},{"name":"大神会館","province":"東京都","city":"昭島市","address":"東京都昭島市大神町3-10-5","lat":35.700742,"lon":139.360806},{"name":"拝島会館","province":"東京都","city":"昭島市","address":"東京都昭島市拝島町2-4-13","lat":35.707257,"lon":139.341968},{"name":"福島会館","province":"東京都","city":"昭島市","address":"東京都昭島市福島町1-19-1","lat":35.696753,"lon":139.381077},{"name":"昭和会館","province":"東京都","city":"昭島市","address":"東京都昭島市松原町1-2-25","lat":35.712896,"lon":139.357669},{"name":"緑会館","province":"東京都","city":"昭島市","address":"東京都昭島市緑町4-13-26","lat":35.714276,"lon":139.344637},{"name":"堀向会館","province":"東京都","city":"昭島市","address":"東京都昭島市美堀町2-6-11","lat":35.723174,"lon":139.363703},{"name":"富士見会館","province":"東京都","city":"昭島市","address":"東京都昭島市中神町1282","lat":35.712249,"lon":139.382554},{"name":"やまのかみ会館","province":"東京都","city":"昭島市","address":"東京都昭島市拝島町3-10-3","lat":35.710898,"lon":139.335471},{"name":"武蔵野会館","province":"東京都","city":"昭島市","address":"東京都昭島市中神町1172-1","lat":35.711183,"lon":139.375667},{"name":"松原町コミュニティセンター","province":"東京都","city":"昭島市","address":"東京都昭島市松原町1-3-10","lat":35.71206,"lon":139.356957},{"name":"児童センター「ぱれっと」","province":"東京都","city":"昭島市","address":"東京都昭島市つつじが丘2-3-21","lat":35.714301,"lon":139.367027},{"name":"勤労商工市民センター","province":"東京都","city":"昭島市","address":"東京都昭島市昭和町3-10-2","lat":35.707038,"lon":139.367005},{"name":"朝日町高齢者福祉センター","province":"東京都","city":"昭島市","address":"東京都昭島市朝日町4-5-9","lat":35.706258,"lon":139.37046},{"name":"松原町高齢者福祉センター","province":"東京都","city":"昭島市","address":"東京都昭島市松原町1-13-3","lat":35.714701,"lon":139.354453},{"name":"拝島町高齢者福祉センター","province":"東京都","city":"昭島市","address":"東京都昭島市拝島町3-10-4","lat":35.710487,"lon":139.335016},{"name":"青少年交流センター","province":"東京都","city":"昭島市","address":"東京都昭島市昭和町1-6-11","lat":35.711044,"lon":139.365627},{"name":"環境コミュニケーションセンター","province":"東京都","city":"昭島市","address":"東京都昭島市美堀町3-8-1","lat":35.723219,"lon":139.354547},{"name":"水道部","province":"東京都","city":"昭島市","address":"東京都昭島市朝日町4-23-28","lat":35.70873,"lon":139.370352},{"name":"アキシマエンシス（国際交流教養文化棟）","province":"東京都","city":"昭島市","address":"東京都昭島市つつじが丘3-3-15","lat":35.711714,"lon":139.36935},{"name":"アキシマエンシス（校舎棟）","province":"東京都","city":"昭島市","address":"東京都昭島市つつじが丘3-3-15","lat":35.712009,"lon":139.369303},{"name":"アキシマエンシス（体育館棟）","province":"東京都","city":"昭島市","address":"東京都昭島市つつじが丘3-3-15","lat":35.711743,"lon":139.368486},{"name":"(株)大久保  多摩古紙センター昭島","province":"東京都","city":"昭島市","address":"昭島市武蔵野2-9-33","lat":35.72261,"lon":139.376877},{"name":"三弘紙業(株)  昭島営業所","province":"東京都","city":"昭島市","address":"昭島市松原町2-3-17","lat":35.713634,"lon":139.35289},{"name":"昭島市役所","province":"東京都","city":"昭島市","address":"東京都昭島市田中町1-17-1","lat":35.705706,"lon":139.353775},{"name":"昭島市保健福祉センター（あいぽっく）","province":"東京都","city":"昭島市","address":"東京都昭島市昭和町4-7-1","lat":35.71089,"lon":139.364088},{"name":"FOSTERホール（昭島市民会館）・公民館","province":"東京都","city":"昭島市","address":"東京都昭島市つつじが丘3-7-7","lat":35.713437,"lon":139.366187},{"name":"昭島市総合スポーツセンター","province":"東京都","city":"昭島市","address":"東京都昭島市東町5-13-1","lat":35.703334,"lon":139.38432},{"name":"玉川会館（東部出張所）","province":"東京都","city":"昭島市","address":"東京都昭島市玉川町3-10-15","lat":35.703703,"lon":139.382054},{"name":"朝日会館","province":"東京都","city":"昭島市","address":"東京都昭島市朝日町5-6-20","lat":35.705061,"lon":139.372835},{"name":"大神会館","province":"東京都","city":"昭島市","address":"東京都昭島市大神町3-10-5","lat":35.700742,"lon":139.360806},{"name":"拝島会館","province":"東京都","city":"昭島市","address":"東京都昭島市拝島町2-4-13","lat":35.707257,"lon":139.341968},{"name":"福島会館","province":"東京都","city":"昭島市","address":"東京都昭島市福島町1-19-1","lat":35.696753,"lon":139.381077},{"name":"昭和会館","province":"東京都","city":"昭島市","address":"東京都昭島市松原町1-2-25","lat":35.712896,"lon":139.357669},{"name":"緑会館","province":"東京都","city":"昭島市","address":"東京都昭島市緑町4-13-26","lat":35.714276,"lon":139.344637},{"name":"堀向会館","province":"東京都","city":"昭島市","address":"東京都昭島市美堀町2-6-11","lat":35.723174,"lon":139.363703},{"name":"富士見会館","province":"東京都","city":"昭島市","address":"東京都昭島市中神町1282","lat":35.712249,"lon":139.382554},{"name":"やまのかみ会館","province":"東京都","city":"昭島市","address":"東京都昭島市拝島町3-10-3","lat":35.710898,"lon":139.335471},{"name":"武蔵野会館","province":"東京都","city":"昭島市","address":"東京都昭島市中神町1172-1","lat":35.711183,"lon":139.375667},{"name":"松原町コミュニティセンター","province":"東京都","city":"昭島市","address":"東京都昭島市松原町1-3-10","lat":35.71206,"lon":139.356957},{"name":"児童センター「ぱれっと」","province":"東京都","city":"昭島市","address":"東京都昭島市つつじが丘2-3-21","lat":35.714301,"lon":139.367027},{"name":"勤労商工市民センター","province":"東京都","city":"昭島市","address":"東京都昭島市昭和町3-10-2","lat":35.707038,"lon":139.367005},{"name":"朝日町高齢者福祉センター","province":"東京都","city":"昭島市","address":"東京都昭島市朝日町4-5-9","lat":35.706258,"lon":139.37046},{"name":"松原町高齢者福祉センター","province":"東京都","city":"昭島市","address":"東京都昭島市松原町1-13-3","lat":35.714701,"lon":139.354453},{"name":"拝島町高齢者福祉センター","province":"東京都","city":"昭島市","address":"東京都昭島市拝島町3-10-4","lat":35.710487,"lon":139.335016},{"name":"青少年交流センター","province":"東京都","city":"昭島市","address":"東京都昭島市昭和町1-6-11","lat":35.711044,"lon":139.365627},{"name":"環境コミュニケーションセンター","province":"東京都","city":"昭島市","address":"東京都昭島市美堀町3-8-1","lat":35.723219,"lon":139.354547},{"name":"水道部","province":"東京都","city":"昭島市","address":"東京都昭島市朝日町4-23-28","lat":35.70873,"lon":139.370352},{"name":"アキシマエンシス（国際交流教養文化棟）","province":"東京都","city":"昭島市","address":"東京都昭島市つつじが丘3-3-15","lat":35.711714,"lon":139.36935},{"name":"アキシマエンシス（校舎棟）","province":"東京都","city":"昭島市","address":"東京都昭島市つつじが丘3-3-15","lat":35.712009,"lon":139.369303},{"name":"アキシマエンシス（体育館棟）","province":"東京都","city":"昭島市","address":"東京都昭島市つつじが丘3-3-15","lat":35.711743,"lon":139.368486},{"name":"(株)大久保  多摩古紙センター昭島","province":"東京都","city":"昭島市","address":"昭島市武蔵野2-9-33","lat":35.72261,"lon":139.376877},{"name":"三弘紙業(株)  昭島営業所","province":"東京都","city":"昭島市","address":"昭島市松原町2-3-17","lat":35.713634,"lon":139.35289},{"name":"昭島市役所","province":"東京都","city":"昭島市","address":"東京都昭島市田中町1-17-1","lat":35.705706,"lon":139.353775},{"name":"昭島市保健福祉センター（あいぽっく）","province":"東京都","city":"昭島市","address":"東京都昭島市昭和町4-7-1","lat":35.71089,"lon":139.364088},{"name":"FOSTERホール（昭島市民会館）・公民館","province":"東京都","city":"昭島市","address":"東京都昭島市つつじが丘3-7-7","lat":35.713437,"lon":139.366187},{"name":"昭島市総合スポーツセンター","province":"東京都","city":"昭島市","address":"東京都昭島市東町5-13-1","lat":35.703334,"lon":139.38432},{"name":"玉川会館（東部出張所）","province":"東京都","city":"昭島市","address":"東京都昭島市玉川町3-10-15","lat":35.703703,"lon":139.382054},{"name":"朝日会館","province":"東京都","city":"昭島市","address":"東京都昭島市朝日町5-6-20","lat":35.705061,"lon":139.372835},{"name":"大神会館","province":"東京都","city":"昭島市","address":"東京都昭島市大神町3-10-5","lat":35.700742,"lon":139.360806},{"name":"拝島会館","province":"東京都","city":"昭島市","address":"東京都昭島市拝島町2-4-13","lat":35.707257,"lon":139.341968},{"name":"福島会館","province":"東京都","city":"昭島市","address":"東京都昭島市福島町1-19-1","lat":35.696753,"lon":139.381077},{"name":"昭和会館","province":"東京都","city":"昭島市","address":"東京都昭島市松原町1-2-25","lat":35.712896,"lon":139.357669},{"name":"緑会館","province":"東京都","city":"昭島市","address":"東京都昭島市緑町4-13-26","lat":35.714276,"lon":139.344637},{"name":"堀向会館","province":"東京都","city":"昭島市","address":"東京都昭島市美堀町2-6-11","lat":35.723174,"lon":139.363703},{"name":"富士見会館","province":"東京都","city":"昭島市","address":"東京都昭島市中神町1282","lat":35.712249,"lon":139.382554},{"name":"やまのかみ会館","province":"東京都","city":"昭島市","address":"東京都昭島市拝島町3-10-3","lat":35.710898,"lon":139.335471},{"name":"武蔵野会館","province":"東京都","city":"昭島市","address":"東京都昭島市中神町1172-1","lat":35.711183,"lon":139.375667},{"name":"松原町コミュニティセンター","province":"東京都","city":"昭島市","address":"東京都昭島市松原町1-3-10","lat":35.71206,"lon":139.356957},{"name":"児童センター「ぱれっと」","province":"東京都","city":"昭島市","address":"東京都昭島市つつじが丘2-3-21","lat":35.714301,"lon":139.367027},{"name":"勤労商工市民センター","province":"東京都","city":"昭島市","address":"東京都昭島市昭和町3-10-2","lat":35.707038,"lon":139.367005},{"name":"朝日町高齢者福祉センター","province":"東京都","city":"昭島市","address":"東京都昭島市朝日町4-5-9","lat":35.706258,"lon":139.37046},{"name":"松原町高齢者福祉センター","province":"東京都","city":"昭島市","address":"東京都昭島市松原町1-13-3","lat":35.714701,"lon":139.354453},{"name":"拝島町高齢者福祉センター","province":"東京都","city":"昭島市","address":"東京都昭島市拝島町3-10-4","lat":35.710487,"lon":139.335016},{"name":"青少年交流センター","province":"東京都","city":"昭島市","address":"東京都昭島市昭和町1-6-11","lat":35.711044,"lon":139.365627},{"name":"環境コミュニケーションセンター","province":"東京都","city":"昭島市","address":"東京都昭島市美堀町3-8-1","lat":35.723219,"lon":139.354547},{"name":"水道部","province":"東京都","city":"昭島市","address":"東京都昭島市朝日町4-23-28","lat":35.70873,"lon":139.370352},{"name":"アキシマエンシス（国際交流教養文化棟）","province":"東京都","city":"昭島市","address":"東京都昭島市つつじが丘3-3-15","lat":35.711714,"lon":139.36935},{"name":"アキシマエンシス（校舎棟）","province":"東京都","city":"昭島市","address":"東京都昭島市つつじが丘3-3-15","lat":35.712009,"lon":139.369303},{"name":"アキシマエンシス（体育館棟）","province":"東京都","city":"昭島市","address":"東京都昭島市つつじが丘3-3-15","lat":35.711743,"lon":139.368486},{"name":"(株)大久保  多摩古紙センター昭島","province":"東京都","city":"昭島市","address":"昭島市武蔵野2-9-33","lat":35.72261,"lon":139.376877},{"name":"三弘紙業(株)  昭島営業所","province":"東京都","city":"昭島市","address":"昭島市松原町2-3-17","lat":35.713634,"lon":139.35289},{"name":"昭島市役所","province":"東京都","city":"昭島市","address":"東京都昭島市田中町1-17-1","lat":35.705706,"lon":139.353775},{"name":"昭島市保健福祉センター（あいぽっく）","province":"東京都","city":"昭島市","address":"東京都昭島市昭和町4-7-1","lat":35.71089,"lon":139.364088},{"name":"FOSTERホール（昭島市民会館）・公民館","province":"東京都","city":"昭島市","address":"東京都昭島市つつじが丘3-7-7","lat":35.713437,"lon":139.366187},{"name":"昭島市総合スポーツセンター","province":"東京都","city":"昭島市","address":"東京都昭島市東町5-13-1","lat":35.703334,"lon":139.38432},{"name":"玉川会館（東部出張所）","province":"東京都","city":"昭島市","address":"東京都昭島市玉川町3-10-15","lat":35.703703,"lon":139.382054},{"name":"朝日会館","province":"東京都","city":"昭島市","address":"東京都昭島市朝日町5-6-20","lat":35.705061,"lon":139.372835},{"name":"大神会館","province":"東京都","city":"昭島市","address":"東京都昭島市大神町3-10-5","lat":35.700742,"lon":139.360806},{"name":"拝島会館","province":"東京都","city":"昭島市","address":"東京都昭島市拝島町2-4-13","lat":35.707257,"lon":139.341968},{"name":"福島会館","province":"東京都","city":"昭島市","address":"東京都昭島市福島町1-19-1","lat":35.696753,"lon":139.381077},{"name":"昭和会館","province":"東京都","city":"昭島市","address":"東京都昭島市松原町1-2-25","lat":35.712896,"lon":139.357669},{"name":"緑会館","province":"東京都","city":"昭島市","address":"東京都昭島市緑町4-13-26","lat":35.714276,"lon":139.344637},{"name":"堀向会館","province":"東京都","city":"昭島市","address":"東京都昭島市美堀町2-6-11","lat":35.723174,"lon":139.363703},{"name":"富士見会館","province":"東京都","city":"昭島市","address":"東京都昭島市中神町1282","lat":35.712249,"lon":139.382554},{"name":"やまのかみ会館","province":"東京都","city":"昭島市","address":"東京都昭島市拝島町3-10-3","lat":35.710898,"lon":139.335471},{"name":"武蔵野会館","province":"東京都","city":"昭島市","address":"東京都昭島市中神町1172-1","lat":35.711183,"lon":139.375667},{"name":"松原町コミュニティセンター","province":"東京都","city":"昭島市","address":"東京都昭島市松原町1-3-10","lat":35.71206,"lon":139.356957},{"name":"児童センター「ぱれっと」","province":"東京都","city":"昭島市","address":"東京都昭島市つつじが丘2-3-21","lat":35.714301,"lon":139.367027},{"name":"勤労商工市民センター","province":"東京都","city":"昭島市","address":"東京都昭島市昭和町3-10-2","lat":35.707038,"lon":139.367005},{"name":"朝日町高齢者福祉センター","province":"東京都","city":"昭島市","address":"東京都昭島市朝日町4-5-9","lat":35.706258,"lon":139.37046},{"name":"松原町高齢者福祉センター","province":"東京都","city":"昭島市","address":"東京都昭島市松原町1-13-3","lat":35.714701,"lon":139.354453},{"name":"拝島町高齢者福祉センター","province":"東京都","city":"昭島市","address":"東京都昭島市拝島町3-10-4","lat":35.710487,"lon":139.335016},{"name":"青少年交流センター","province":"東京都","city":"昭島市","address":"東京都昭島市昭和町1-6-11","lat":35.711044,"lon":139.365627},{"name":"環境コミュニケーションセンター","province":"東京都","city":"昭島市","address":"東京都昭島市美堀町3-8-1","lat":35.723219,"lon":139.354547},{"name":"水道部","province":"東京都","city":"昭島市","address":"東京都昭島市朝日町4-23-28","lat":35.70873,"lon":139.370352},{"name":"アキシマエンシス（国際交流教養文化棟）","province":"東京都","city":"昭島市","address":"東京都昭島市つつじが丘3-3-15","lat":35.711714,"lon":139.36935},{"name":"アキシマエンシス（校舎棟）","province":"東京都","city":"昭島市","address":"東京都昭島市つつじが丘3-3-15","lat":35.712009,"lon":139.369303},{"name":"アキシマエンシス（体育館棟）","province":"東京都","city":"昭島市","address":"東京都昭島市つつじが丘3-3-15","lat":35.711743,"lon":139.368486},{"name":"(株)大久保  多摩古紙センター昭島","province":"東京都","city":"昭島市","address":"昭島市武蔵野2-9-33","lat":35.72261,"lon":139.376877},{"name":"三弘紙業(株)  昭島営業所","province":"東京都","city":"昭島市","address":"昭島市松原町2-3-17","lat":35.713634,"lon":139.35289},{"name":"昭島市役所","province":"東京都","city":"昭島市","address":"東京都昭島市田中町1-17-1","lat":35.705706,"lon":139.353775},{"name":"昭島市保健福祉センター（あいぽっく）","province":"東京都","city":"昭島市","address":"東京都昭島市昭和町4-7-1","lat":35.71089,"lon":139.364088},{"name":"FOSTERホール（昭島市民会館）・公民館","province":"東京都","city":"昭島市","address":"東京都昭島市つつじが丘3-7-7","lat":35.713437,"lon":139.366187},{"name":"昭島市総合スポーツセンター","province":"東京都","city":"昭島市","address":"東京都昭島市東町5-13-1","lat":35.703334,"lon":139.38432},{"name":"玉川会館（東部出張所）","province":"東京都","city":"昭島市","address":"東京都昭島市玉川町3-10-15","lat":35.703703,"lon":139.382054},{"name":"朝日会館","province":"東京都","city":"昭島市","address":"東京都昭島市朝日町5-6-20","lat":35.705061,"lon":139.372835},{"name":"大神会館","province":"東京都","city":"昭島市","address":"東京都昭島市大神町3-10-5","lat":35.700742,"lon":139.360806},{"name":"拝島会館","province":"東京都","city":"昭島市","address":"東京都昭島市拝島町2-4-13","lat":35.707257,"lon":139.341968},{"name":"福島会館","province":"東京都","city":"昭島市","address":"東京都昭島市福島町1-19-1","lat":35.696753,"lon":139.381077},{"name":"昭和会館","province":"東京都","city":"昭島市","address":"東京都昭島市松原町1-2-25","lat":35.712896,"lon":139.357669},{"name":"緑会館","province":"東京都","city":"昭島市","address":"東京都昭島市緑町4-13-26","lat":35.714276,"lon":139.344637},{"name":"堀向会館","province":"東京都","city":"昭島市","address":"東京都昭島市美堀町2-6-11","lat":35.723174,"lon":139.363703},{"name":"富士見会館","province":"東京都","city":"昭島市","address":"東京都昭島市中神町1282","lat":35.712249,"lon":139.382554},{"name":"やまのかみ会館","province":"東京都","city":"昭島市","address":"東京都昭島市拝島町3-10-3","lat":35.710898,"lon":139.335471},{"name":"武蔵野会館","province":"東京都","city":"昭島市","address":"東京都昭島市中神町1172-1","lat":35.711183,"lon":139.375667},{"name":"松原町コミュニティセンター","province":"東京都","city":"昭島市","address":"東京都昭島市松原町1-3-10","lat":35.71206,"lon":139.356957},{"name":"児童センター「ぱれっと」","province":"東京都","city":"昭島市","address":"東京都昭島市つつじが丘2-3-21","lat":35.714301,"lon":139.367027},{"name":"勤労商工市民センター","province":"東京都","city":"昭島市","address":"東京都昭島市昭和町3-10-2","lat":35.707038,"lon":139.367005},{"name":"朝日町高齢者福祉センター","province":"東京都","city":"昭島市","address":"東京都昭島市朝日町4-5-9","lat":35.706258,"lon":139.37046},{"name":"松原町高齢者福祉センター","province":"東京都","city":"昭島市","address":"東京都昭島市松原町1-13-3","lat":35.714701,"lon":139.354453},{"name":"拝島町高齢者福祉センター","province":"東京都","city":"昭島市","address":"東京都昭島市拝島町3-10-4","lat":35.710487,"lon":139.335016},{"name":"青少年交流センター","province":"東京都","city":"昭島市","address":"東京都昭島市昭和町1-6-11","lat":35.711044,"lon":139.365627},{"name":"環境コミュニケーションセンター","province":"東京都","city":"昭島市","address":"東京都昭島市美堀町3-8-1","lat":35.723219,"lon":139.354547},{"name":"水道部","province":"東京都","city":"昭島市","address":"東京都昭島市朝日町4-23-28","lat":35.70873,"lon":139.370352},{"name":"アキシマエンシス（国際交流教養文化棟）","province":"東京都","city":"昭島市","address":"東京都昭島市つつじが丘3-3-15","lat":35.711714,"lon":139.36935},{"name":"アキシマエンシス（校舎棟）","province":"東京都","city":"昭島市","address":"東京都昭島市つつじが丘3-3-15","lat":35.712009,"lon":139.369303},{"name":"アキシマエンシス（体育館棟）","province":"東京都","city":"昭島市","address":"東京都昭島市つつじが丘3-3-15","lat":35.711743,"lon":139.368486},{"name":"(株)大久保  多摩古紙センター昭島","province":"東京都","city":"昭島市","address":"昭島市武蔵野2-9-33","lat":35.72261,"lon":139.376877},{"name":"三弘紙業(株)  昭島営業所","province":"東京都","city":"昭島市","address":"昭島市松原町2-3-17","lat":35.713634,"lon":139.35289},{"name":"昭島市役所","province":"東京都","city":"昭島市","address":"東京都昭島市田中町1-17-1","lat":35.705706,"lon":139.353775},{"name":"昭島市保健福祉センター（あいぽっく）","province":"東京都","city":"昭島市","address":"東京都昭島市昭和町4-7-1","lat":35.71089,"lon":139.364088},{"name":"FOSTERホール（昭島市民会館）・公民館","province":"東京都","city":"昭島市","address":"東京都昭島市つつじが丘3-7-7","lat":35.713437,"lon":139.366187},{"name":"昭島市総合スポーツセンター","province":"東京都","city":"昭島市","address":"東京都昭島市東町5-13-1","lat":35.703334,"lon":139.38432},{"name":"玉川会館（東部出張所）","province":"東京都","city":"昭島市","address":"東京都昭島市玉川町3-10-15","lat":35.703703,"lon":139.382054},{"name":"朝日会館","province":"東京都","city":"昭島市","address":"東京都昭島市朝日町5-6-20","lat":35.705061,"lon":139.372835},{"name":"大神会館","province":"東京都","city":"昭島市","address":"東京都昭島市大神町3-10-5","lat":35.700742,"lon":139.360806},{"name":"拝島会館","province":"東京都","city":"昭島市","address":"東京都昭島市拝島町2-4-13","lat":35.707257,"lon":139.341968},{"name":"福島会館","province":"東京都","city":"昭島市","address":"東京都昭島市福島町1-19-1","lat":35.696753,"lon":139.381077},{"name":"昭和会館","province":"東京都","city":"昭島市","address":"東京都昭島市松原町1-2-25","lat":35.712896,"lon":139.357669},{"name":"緑会館","province":"東京都","city":"昭島市","address":"東京都昭島市緑町4-13-26","lat":35.714276,"lon":139.344637},{"name":"堀向会館","province":"東京都","city":"昭島市","address":"東京都昭島市美堀町2-6-11","lat":35.723174,"lon":139.363703},{"name":"富士見会館","province":"東京都","city":"昭島市","address":"東京都昭島市中神町1282","lat":35.712249,"lon":139.382554},{"name":"やまのかみ会館","province":"東京都","city":"昭島市","address":"東京都昭島市拝島町3-10-3","lat":35.710898,"lon":139.335471},{"name":"武蔵野会館","province":"東京都","city":"昭島市","address":"東京都昭島市中神町1172-1","lat":35.711183,"lon":139.375667},{"name":"松原町コミュニティセンター","province":"東京都","city":"昭島市","address":"東京都昭島市松原町1-3-10","lat":35.71206,"lon":139.356957},{"name":"児童センター「ぱれっと」","province":"東京都","city":"昭島市","address":"東京都昭島市つつじが丘2-3-21","lat":35.714301,"lon":139.367027},{"name":"勤労商工市民センター","province":"東京都","city":"昭島市","address":"東京都昭島市昭和町3-10-2","lat":35.707038,"lon":139.367005},{"name":"朝日町高齢者福祉センター","province":"東京都","city":"昭島市","address":"東京都昭島市朝日町4-5-9","lat":35.706258,"lon":139.37046},{"name":"松原町高齢者福祉センター","province":"東京都","city":"昭島市","address":"東京都昭島市松原町1-13-3","lat":35.714701,"lon":139.354453},{"name":"拝島町高齢者福祉センター","province":"東京都","city":"昭島市","address":"東京都昭島市拝島町3-10-4","lat":35.710487,"lon":139.335016},{"name":"青少年交流センター","province":"東京都","city":"昭島市","address":"東京都昭島市昭和町1-6-11","lat":35.711044,"lon":139.365627},{"name":"環境コミュニケーションセンター","province":"東京都","city":"昭島市","address":"東京都昭島市美堀町3-8-1","lat":35.723219,"lon":139.354547},{"name":"水道部","province":"東京都","city":"昭島市","address":"東京都昭島市朝日町4-23-28","lat":35.70873,"lon":139.370352},{"name":"アキシマエンシス（国際交流教養文化棟）","province":"東京都","city":"昭島市","address":"東京都昭島市つつじが丘3-3-15","lat":35.711714,"lon":139.36935},{"name":"アキシマエンシス（校舎棟）","province":"東京都","city":"昭島市","address":"東京都昭島市つつじが丘3-3-15","lat":35.712009,"lon":139.369303},{"name":"アキシマエンシス（体育館棟）","province":"東京都","city":"昭島市","address":"東京都昭島市つつじが丘3-3-15","lat":35.711743,"lon":139.368486},{"name":"(株)大久保  多摩古紙センター昭島","province":"東京都","city":"昭島市","address":"昭島市武蔵野2-9-33","lat":35.72261,"lon":139.376877},{"name":"三弘紙業(株)  昭島営業所","province":"東京都","city":"昭島市","address":"昭島市松原町2-3-17","lat":35.713634,"lon":139.35289},{"name":"昭島市役所","province":"東京都","city":"昭島市","address":"東京都昭島市田中町1-17-1","lat":35.705706,"lon":139.353775},{"name":"昭島市保健福祉センター（あいぽっく）","province":"東京都","city":"昭島市","address":"東京都昭島市昭和町4-7-1","lat":35.71089,"lon":139.364088},{"name":"FOSTERホール（昭島市民会館）・公民館","province":"東京都","city":"昭島市","address":"東京都昭島市つつじが丘3-7-7","lat":35.713437,"lon":139.366187},{"name":"昭島市総合スポーツセンター","province":"東京都","city":"昭島市","address":"東京都昭島市東町5-13-1","lat":35.703334,"lon":139.38432},{"name":"玉川会館（東部出張所）","province":"東京都","city":"昭島市","address":"東京都昭島市玉川町3-10-15","lat":35.703703,"lon":139.382054},{"name":"朝日会館","province":"東京都","city":"昭島市","address":"東京都昭島市朝日町5-6-20","lat":35.705061,"lon":139.372835},{"name":"大神会館","province":"東京都","city":"昭島市","address":"東京都昭島市大神町3-10-5","lat":35.700742,"lon":139.360806},{"name":"拝島会館","province":"東京都","city":"昭島市","address":"東京都昭島市拝島町2-4-13","lat":35.707257,"lon":139.341968},{"name":"福島会館","province":"東京都","city":"昭島市","address":"東京都昭島市福島町1-19-1","lat":35.696753,"lon":139.381077},{"name":"昭和会館","province":"東京都","city":"昭島市","address":"東京都昭島市松原町1-2-25","lat":35.712896,"lon":139.357669},{"name":"緑会館","province":"東京都","city":"昭島市","address":"東京都昭島市緑町4-13-26","lat":35.714276,"lon":139.344637},{"name":"堀向会館","province":"東京都","city":"昭島市","address":"東京都昭島市美堀町2-6-11","lat":35.723174,"lon":139.363703},{"name":"富士見会館","province":"東京都","city":"昭島市","address":"東京都昭島市中神町1282","lat":35.712249,"lon":139.382554},{"name":"やまのかみ会館","province":"東京都","city":"昭島市","address":"東京都昭島市拝島町3-10-3","lat":35.710898,"lon":139.335471},{"name":"武蔵野会館","province":"東京都","city":"昭島市","address":"東京都昭島市中神町1172-1","lat":35.711183,"lon":139.375667},{"name":"松原町コミュニティセンター","province":"東京都","city":"昭島市","address":"東京都昭島市松原町1-3-10","lat":35.71206,"lon":139.356957},{"name":"児童センター「ぱれっと」","province":"東京都","city":"昭島市","address":"東京都昭島市つつじが丘2-3-21","lat":35.714301,"lon":139.367027},{"name":"勤労商工市民センター","province":"東京都","city":"昭島市","address":"東京都昭島市昭和町3-10-2","lat":35.707038,"lon":139.367005},{"name":"朝日町高齢者福祉センター","province":"東京都","city":"昭島市","address":"東京都昭島市朝日町4-5-9","lat":35.706258,"lon":139.37046},{"name":"松原町高齢者福祉センター","province":"東京都","city":"昭島市","address":"東京都昭島市松原町1-13-3","lat":35.714701,"lon":139.354453},{"name":"拝島町高齢者福祉センター","province":"東京都","city":"昭島市","address":"東京都昭島市拝島町3-10-4","lat":35.710487,"lon":139.335016},{"name":"青少年交流センター","province":"東京都","city":"昭島市","address":"東京都昭島市昭和町1-6-11","lat":35.711044,"lon":139.365627},{"name":"環境コミュニケーションセンター","province":"東京都","city":"昭島市","address":"東京都昭島市美堀町3-8-1","lat":35.723219,"lon":139.354547},{"name":"水道部","province":"東京都","city":"昭島市","address":"東京都昭島市朝日町4-23-28","lat":35.70873,"lon":139.370352},{"name":"アキシマエンシス（国際交流教養文化棟）","province":"東京都","city":"昭島市","address":"東京都昭島市つつじが丘3-3-15","lat":35.711714,"lon":139.36935},{"name":"アキシマエンシス（校舎棟）","province":"東京都","city":"昭島市","address":"東京都昭島市つつじが丘3-3-15","lat":35.712009,"lon":139.369303},{"name":"アキシマエンシス（体育館棟）","province":"東京都","city":"昭島市","address":"東京都昭島市つつじが丘3-3-15","lat":35.711743,"lon":139.368486},{"name":"(株)大久保  多摩古紙センター昭島","province":"東京都","city":"昭島市","address":"昭島市武蔵野2-9-33","lat":35.72261,"lon":139.376877},{"name":"三弘紙業(株)  昭島営業所","province":"東京都","city":"昭島市","address":"昭島市松原町2-3-17","lat":35.713634,"lon":139.35289},{"name":"昭島市役所","province":"東京都","city":"昭島市","address":"東京都昭島市田中町1-17-1","lat":35.705706,"lon":139.353775},{"name":"昭島市保健福祉センター（あいぽっく）","province":"東京都","city":"昭島市","address":"東京都昭島市昭和町4-7-1","lat":35.71089,"lon":139.364088},{"name":"FOSTERホール（昭島市民会館）・公民館","province":"東京都","city":"昭島市","address":"東京都昭島市つつじが丘3-7-7","lat":35.713437,"lon":139.366187},{"name":"昭島市総合スポーツセンター","province":"東京都","city":"昭島市","address":"東京都昭島市東町5-13-1","lat":35.703334,"lon":139.38432},{"name":"玉川会館（東部出張所）","province":"東京都","city":"昭島市","address":"東京都昭島市玉川町3-10-15","lat":35.703703,"lon":139.382054},{"name":"朝日会館","province":"東京都","city":"昭島市","address":"東京都昭島市朝日町5-6-20","lat":35.705061,"lon":139.372835},{"name":"大神会館","province":"東京都","city":"昭島市","address":"東京都昭島市大神町3-10-5","lat":35.700742,"lon":139.360806},{"name":"拝島会館","province":"東京都","city":"昭島市","address":"東京都昭島市拝島町2-4-13","lat":35.707257,"lon":139.341968},{"name":"福島会館","province":"東京都","city":"昭島市","address":"東京都昭島市福島町1-19-1","lat":35.696753,"lon":139.381077},{"name":"昭和会館","province":"東京都","city":"昭島市","address":"東京都昭島市松原町1-2-25","lat":35.712896,"lon":139.357669},{"name":"緑会館","province":"東京都","city":"昭島市","address":"東京都昭島市緑町4-13-26","lat":35.714276,"lon":139.344637},{"name":"堀向会館","province":"東京都","city":"昭島市","address":"東京都昭島市美堀町2-6-11","lat":35.723174,"lon":139.363703},{"name":"富士見会館","province":"東京都","city":"昭島市","address":"東京都昭島市中神町1282","lat":35.712249,"lon":139.382554},{"name":"やまのかみ会館","province":"東京都","city":"昭島市","address":"東京都昭島市拝島町3-10-3","lat":35.710898,"lon":139.335471},{"name":"武蔵野会館","province":"東京都","city":"昭島市","address":"東京都昭島市中神町1172-1","lat":35.711183,"lon":139.375667},{"name":"松原町コミュニティセンター","province":"東京都","city":"昭島市","address":"東京都昭島市松原町1-3-10","lat":35.71206,"lon":139.356957},{"name":"児童センター「ぱれっと」","province":"東京都","city":"昭島市","address":"東京都昭島市つつじが丘2-3-21","lat":35.714301,"lon":139.367027},{"name":"勤労商工市民センター","province":"東京都","city":"昭島市","address":"東京都昭島市昭和町3-10-2","lat":35.707038,"lon":139.367005},{"name":"朝日町高齢者福祉センター","province":"東京都","city":"昭島市","address":"東京都昭島市朝日町4-5-9","lat":35.706258,"lon":139.37046},{"name":"松原町高齢者福祉センター","province":"東京都","city":"昭島市","address":"東京都昭島市松原町1-13-3","lat":35.714701,"lon":139.354453},{"name":"拝島町高齢者福祉センター","province":"東京都","city":"昭島市","address":"東京都昭島市拝島町3-10-4","lat":35.710487,"lon":139.335016},{"name":"青少年交流センター","province":"東京都","city":"昭島市","address":"東京都昭島市昭和町1-6-11","lat":35.711044,"lon":139.365627},{"name":"環境コミュニケーションセンター","province":"東京都","city":"昭島市","address":"東京都昭島市美堀町3-8-1","lat":35.723219,"lon":139.354547},{"name":"水道部","province":"東京都","city":"昭島市","address":"東京都昭島市朝日町4-23-28","lat":35.70873,"lon":139.370352},{"name":"アキシマエンシス（国際交流教養文化棟）","province":"東京都","city":"昭島市","address":"東京都昭島市つつじが丘3-3-15","lat":35.711714,"lon":139.36935},{"name":"アキシマエンシス（校舎棟）","province":"東京都","city":"昭島市","address":"東京都昭島市つつじが丘3-3-15","lat":35.712009,"lon":139.369303},{"name":"アキシマエンシス（体育館棟）","province":"東京都","city":"昭島市","address":"東京都昭島市つつじが丘3-3-15","lat":35.711743,"lon":139.368486},{"name":"(株)大久保  多摩古紙センター昭島","province":"東京都","city":"昭島市","address":"昭島市武蔵野2-9-33","lat":35.72261,"lon":139.376877},{"name":"三弘紙業(株)  昭島営業所","province":"東京都","city":"昭島市","address":"昭島市松原町2-3-17","lat":35.713634,"lon":139.35289},{"name":"昭島市役所","province":"東京都","city":"昭島市","address":"東京都昭島市田中町1-17-1","lat":35.705706,"lon":139.353775},{"name":"昭島市保健福祉センター（あいぽっく）","province":"東京都","city":"昭島市","address":"東京都昭島市昭和町4-7-1","lat":35.71089,"lon":139.364088},{"name":"FOSTERホール（昭島市民会館）・公民館","province":"東京都","city":"昭島市","address":"東京都昭島市つつじが丘3-7-7","lat":35.713437,"lon":139.366187},{"name":"昭島市総合スポーツセンター","province":"東京都","city":"昭島市","address":"東京都昭島市東町5-13-1","lat":35.703334,"lon":139.38432},{"name":"玉川会館（東部出張所）","province":"東京都","city":"昭島市","address":"東京都昭島市玉川町3-10-15","lat":35.703703,"lon":139.382054},{"name":"朝日会館","province":"東京都","city":"昭島市","address":"東京都昭島市朝日町5-6-20","lat":35.705061,"lon":139.372835},{"name":"大神会館","province":"東京都","city":"昭島市","address":"東京都昭島市大神町3-10-5","lat":35.700742,"lon":139.360806},{"name":"拝島会館","province":"東京都","city":"昭島市","address":"東京都昭島市拝島町2-4-13","lat":35.707257,"lon":139.341968},{"name":"福島会館","province":"東京都","city":"昭島市","address":"東京都昭島市福島町1-19-1","lat":35.696753,"lon":139.381077},{"name":"昭和会館","province":"東京都","city":"昭島市","address":"東京都昭島市松原町1-2-25","lat":35.712896,"lon":139.357669},{"name":"緑会館","province":"東京都","city":"昭島市","address":"東京都昭島市緑町4-13-26","lat":35.714276,"lon":139.344637},{"name":"堀向会館","province":"東京都","city":"昭島市","address":"東京都昭島市美堀町2-6-11","lat":35.723174,"lon":139.363703},{"name":"富士見会館","province":"東京都","city":"昭島市","address":"東京都昭島市中神町1282","lat":35.712249,"lon":139.382554},{"name":"やまのかみ会館","province":"東京都","city":"昭島市","address":"東京都昭島市拝島町3-10-3","lat":35.710898,"lon":139.335471},{"name":"武蔵野会館","province":"東京都","city":"昭島市","address":"東京都昭島市中神町1172-1","lat":35.711183,"lon":139.375667},{"name":"松原町コミュニティセンター","province":"東京都","city":"昭島市","address":"東京都昭島市松原町1-3-10","lat":35.71206,"lon":139.356957},{"name":"児童センター「ぱれっと」","province":"東京都","city":"昭島市","address":"東京都昭島市つつじが丘2-3-21","lat":35.714301,"lon":139.367027},{"name":"勤労商工市民センター","province":"東京都","city":"昭島市","address":"東京都昭島市昭和町3-10-2","lat":35.707038,"lon":139.367005},{"name":"朝日町高齢者福祉センター","province":"東京都","city":"昭島市","address":"東京都昭島市朝日町4-5-9","lat":35.706258,"lon":139.37046},{"name":"松原町高齢者福祉センター","province":"東京都","city":"昭島市","address":"東京都昭島市松原町1-13-3","lat":35.714701,"lon":139.354453},{"name":"拝島町高齢者福祉センター","province":"東京都","city":"昭島市","address":"東京都昭島市拝島町3-10-4","lat":35.710487,"lon":139.335016},{"name":"青少年交流センター","province":"東京都","city":"昭島市","address":"東京都昭島市昭和町1-6-11","lat":35.711044,"lon":139.365627},{"name":"環境コミュニケーションセンター","province":"東京都","city":"昭島市","address":"東京都昭島市美堀町3-8-1","lat":35.723219,"lon":139.354547},{"name":"水道部","province":"東京都","city":"昭島市","address":"東京都昭島市朝日町4-23-28","lat":35.70873,"lon":139.370352},{"name":"アキシマエンシス（国際交流教養文化棟）","province":"東京都","city":"昭島市","address":"東京都昭島市つつじが丘3-3-15","lat":35.711714,"lon":139.36935},{"name":"アキシマエンシス（校舎棟）","province":"東京都","city":"昭島市","address":"東京都昭島市つつじが丘3-3-15","lat":35.712009,"lon":139.369303},{"name":"アキシマエンシス（体育館棟）","province":"東京都","city":"昭島市","address":"東京都昭島市つつじが丘3-3-15","lat":35.711743,"lon":139.368486},{"name":"(株)大久保  多摩古紙センター昭島","province":"東京都","city":"昭島市","address":"昭島市武蔵野2-9-33","lat":35.72261,"lon":139.376877},{"name":"三弘紙業(株)  昭島営業所","province":"東京都","city":"昭島市","address":"昭島市松原町2-3-17","lat":35.713634,"lon":139.35289},{"name":"昭島市役所","province":"東京都","city":"昭島市","address":"東京都昭島市田中町1-17-1","lat":35.705706,"lon":139.353775},{"name":"昭島市保健福祉センター（あいぽっく）","province":"東京都","city":"昭島市","address":"東京都昭島市昭和町4-7-1","lat":35.71089,"lon":139.364088},{"name":"FOSTERホール（昭島市民会館）・公民館","province":"東京都","city":"昭島市","address":"東京都昭島市つつじが丘3-7-7","lat":35.713437,"lon":139.366187},{"name":"昭島市総合スポーツセンター","province":"東京都","city":"昭島市","address":"東京都昭島市東町5-13-1","lat":35.703334,"lon":139.38432},{"name":"玉川会館（東部出張所）","province":"東京都","city":"昭島市","address":"東京都昭島市玉川町3-10-15","lat":35.703703,"lon":139.382054},{"name":"朝日会館","province":"東京都","city":"昭島市","address":"東京都昭島市朝日町5-6-20","lat":35.705061,"lon":139.372835},{"name":"大神会館","province":"東京都","city":"昭島市","address":"東京都昭島市大神町3-10-5","lat":35.700742,"lon":139.360806},{"name":"拝島会館","province":"東京都","city":"昭島市","address":"東京都昭島市拝島町2-4-13","lat":35.707257,"lon":139.341968},{"name":"福島会館","province":"東京都","city":"昭島市","address":"東京都昭島市福島町1-19-1","lat":35.696753,"lon":139.381077},{"name":"昭和会館","province":"東京都","city":"昭島市","address":"東京都昭島市松原町1-2-25","lat":35.712896,"lon":139.357669},{"name":"緑会館","province":"東京都","city":"昭島市","address":"東京都昭島市緑町4-13-26","lat":35.714276,"lon":139.344637},{"name":"堀向会館","province":"東京都","city":"昭島市","address":"東京都昭島市美堀町2-6-11","lat":35.723174,"lon":139.363703},{"name":"富士見会館","province":"東京都","city":"昭島市","address":"東京都昭島市中神町1282","lat":35.712249,"lon":139.382554},{"name":"やまのかみ会館","province":"東京都","city":"昭島市","address":"東京都昭島市拝島町3-10-3","lat":35.710898,"lon":139.335471},{"name":"武蔵野会館","province":"東京都","city":"昭島市","address":"東京都昭島市中神町1172-1","lat":35.711183,"lon":139.375667},{"name":"松原町コミュニティセンター","province":"東京都","city":"昭島市","address":"東京都昭島市松原町1-3-10","lat":35.71206,"lon":139.356957},{"name":"児童センター「ぱれっと」","province":"東京都","city":"昭島市","address":"東京都昭島市つつじが丘2-3-21","lat":35.714301,"lon":139.367027},{"name":"勤労商工市民センター","province":"東京都","city":"昭島市","address":"東京都昭島市昭和町3-10-2","lat":35.707038,"lon":139.367005},{"name":"朝日町高齢者福祉センター","province":"東京都","city":"昭島市","address":"東京都昭島市朝日町4-5-9","lat":35.706258,"lon":139.37046},{"name":"松原町高齢者福祉センター","province":"東京都","city":"昭島市","address":"東京都昭島市松原町1-13-3","lat":35.714701,"lon":139.354453},{"name":"拝島町高齢者福祉センター","province":"東京都","city":"昭島市","address":"東京都昭島市拝島町3-10-4","lat":35.710487,"lon":139.335016},{"name":"青少年交流センター","province":"東京都","city":"昭島市","address":"東京都昭島市昭和町1-6-11","lat":35.711044,"lon":139.365627},{"name":"環境コミュニケーションセンター","province":"東京都","city":"昭島市","address":"東京都昭島市美堀町3-8-1","lat":35.723219,"lon":139.354547},{"name":"水道部","province":"東京都","city":"昭島市","address":"東京都昭島市朝日町4-23-28","lat":35.70873,"lon":139.370352},{"name":"アキシマエンシス（国際交流教養文化棟）","province":"東京都","city":"昭島市","address":"東京都昭島市つつじが丘3-3-15","lat":35.711714,"lon":139.36935},{"name":"アキシマエンシス（校舎棟）","province":"東京都","city":"昭島市","address":"東京都昭島市つつじが丘3-3-15","lat":35.712009,"lon":139.369303},{"name":"アキシマエンシス（体育館棟）","province":"東京都","city":"昭島市","address":"東京都昭島市つつじが丘3-3-15","lat":35.711743,"lon":139.368486},{"name":"(株)大久保  多摩古紙センター昭島","province":"東京都","city":"昭島市","address":"昭島市武蔵野2-9-33","lat":35.72261,"lon":139.376877},{"name":"三弘紙業(株)  昭島営業所","province":"東京都","city":"昭島市","address":"昭島市松原町2-3-17","lat":35.713634,"lon":139.35289},{"name":"昭島市役所","province":"東京都","city":"昭島市","address":"東京都昭島市田中町1-17-1","lat":35.705706,"lon":139.353775},{"name":"昭島市保健福祉センター（あいぽっく）","province":"東京都","city":"昭島市","address":"東京都昭島市昭和町4-7-1","lat":35.71089,"lon":139.364088},{"name":"FOSTERホール（昭島市民会館）・公民館","province":"東京都","city":"昭島市","address":"東京都昭島市つつじが丘3-7-7","lat":35.713437,"lon":139.366187},{"name":"昭島市総合スポーツセンター","province":"東京都","city":"昭島市","address":"東京都昭島市東町5-13-1","lat":35.703334,"lon":139.38432},{"name":"玉川会館（東部出張所）","province":"東京都","city":"昭島市","address":"東京都昭島市玉川町3-10-15","lat":35.703703,"lon":139.382054},{"name":"朝日会館","province":"東京都","city":"昭島市","address":"東京都昭島市朝日町5-6-20","lat":35.705061,"lon":139.372835},{"name":"大神会館","province":"東京都","city":"昭島市","address":"東京都昭島市大神町3-10-5","lat":35.700742,"lon":139.360806},{"name":"拝島会館","province":"東京都","city":"昭島市","address":"東京都昭島市拝島町2-4-13","lat":35.707257,"lon":139.341968},{"name":"福島会館","province":"東京都","city":"昭島市","address":"東京都昭島市福島町1-19-1","lat":35.696753,"lon":139.381077},{"name":"昭和会館","province":"東京都","city":"昭島市","address":"東京都昭島市松原町1-2-25","lat":35.712896,"lon":139.357669},{"name":"緑会館","province":"東京都","city":"昭島市","address":"東京都昭島市緑町4-13-26","lat":35.714276,"lon":139.344637},{"name":"堀向会館","province":"東京都","city":"昭島市","address":"東京都昭島市美堀町2-6-11","lat":35.723174,"lon":139.363703},{"name":"富士見会館","province":"東京都","city":"昭島市","address":"東京都昭島市中神町1282","lat":35.712249,"lon":139.382554},{"name":"やまのかみ会館","province":"東京都","city":"昭島市","address":"東京都昭島市拝島町3-10-3","lat":35.710898,"lon":139.335471},{"name":"武蔵野会館","province":"東京都","city":"昭島市","address":"東京都昭島市中神町1172-1","lat":35.711183,"lon":139.375667},{"name":"松原町コミュニティセンター","province":"東京都","city":"昭島市","address":"東京都昭島市松原町1-3-10","lat":35.71206,"lon":139.356957},{"name":"児童センター「ぱれっと」","province":"東京都","city":"昭島市","address":"東京都昭島市つつじが丘2-3-21","lat":35.714301,"lon":139.367027},{"name":"勤労商工市民センター","province":"東京都","city":"昭島市","address":"東京都昭島市昭和町3-10-2","lat":35.707038,"lon":139.367005},{"name":"朝日町高齢者福祉センター","province":"東京都","city":"昭島市","address":"東京都昭島市朝日町4-5-9","lat":35.706258,"lon":139.37046},{"name":"松原町高齢者福祉センター","province":"東京都","city":"昭島市","address":"東京都昭島市松原町1-13-3","lat":35.714701,"lon":139.354453},{"name":"拝島町高齢者福祉センター","province":"東京都","city":"昭島市","address":"東京都昭島市拝島町3-10-4","lat":35.710487,"lon":139.335016},{"name":"青少年交流センター","province":"東京都","city":"昭島市","address":"東京都昭島市昭和町1-6-11","lat":35.711044,"lon":139.365627},{"name":"環境コミュニケーションセンター","province":"東京都","city":"昭島市","address":"東京都昭島市美堀町3-8-1","lat":35.723219,"lon":139.354547},{"name":"水道部","province":"東京都","city":"昭島市","address":"東京都昭島市朝日町4-23-28","lat":35.70873,"lon":139.370352},{"name":"アキシマエンシス（国際交流教養文化棟）","province":"東京都","city":"昭島市","address":"東京都昭島市つつじが丘3-3-15","lat":35.711714,"lon":139.36935},{"name":"アキシマエンシス（校舎棟）","province":"東京都","city":"昭島市","address":"東京都昭島市つつじが丘3-3-15","lat":35.712009,"lon":139.369303},{"name":"アキシマエンシス（体育館棟）","province":"東京都","city":"昭島市","address":"東京都昭島市つつじが丘3-3-15","lat":35.711743,"lon":139.368486},{"name":"(株)大久保  多摩古紙センター昭島","province":"東京都","city":"昭島市","address":"昭島市武蔵野2-9-33","lat":35.72261,"lon":139.376877},{"name":"三弘紙業(株)  昭島営業所","province":"東京都","city":"昭島市","address":"昭島市松原町2-3-17","lat":35.713634,"lon":139.35289},{"name":"昭島市役所","province":"東京都","city":"昭島市","address":"東京都昭島市田中町1-17-1","lat":35.705706,"lon":139.353775},{"name":"昭島市保健福祉センター（あいぽっく）","province":"東京都","city":"昭島市","address":"東京都昭島市昭和町4-7-1","lat":35.71089,"lon":139.364088},{"name":"FOSTERホール（昭島市民会館）・公民館","province":"東京都","city":"昭島市","address":"東京都昭島市つつじが丘3-7-7","lat":35.713437,"lon":139.366187},{"name":"昭島市総合スポーツセンター","province":"東京都","city":"昭島市","address":"東京都昭島市東町5-13-1","lat":35.703334,"lon":139.38432},{"name":"玉川会館（東部出張所）","province":"東京都","city":"昭島市","address":"東京都昭島市玉川町3-10-15","lat":35.703703,"lon":139.382054},{"name":"朝日会館","province":"東京都","city":"昭島市","address":"東京都昭島市朝日町5-6-20","lat":35.705061,"lon":139.372835},{"name":"大神会館","province":"東京都","city":"昭島市","address":"東京都昭島市大神町3-10-5","lat":35.700742,"lon":139.360806},{"name":"拝島会館","province":"東京都","city":"昭島市","address":"東京都昭島市拝島町2-4-13","lat":35.707257,"lon":139.341968},{"name":"福島会館","province":"東京都","city":"昭島市","address":"東京都昭島市福島町1-19-1","lat":35.696753,"lon":139.381077},{"name":"昭和会館","province":"東京都","city":"昭島市","address":"東京都昭島市松原町1-2-25","lat":35.712896,"lon":139.357669},{"name":"緑会館","province":"東京都","city":"昭島市","address":"東京都昭島市緑町4-13-26","lat":35.714276,"lon":139.344637},{"name":"堀向会館","province":"東京都","city":"昭島市","address":"東京都昭島市美堀町2-6-11","lat":35.723174,"lon":139.363703},{"name":"富士見会館","province":"東京都","city":"昭島市","address":"東京都昭島市中神町1282","lat":35.712249,"lon":139.382554},{"name":"やまのかみ会館","province":"東京都","city":"昭島市","address":"東京都昭島市拝島町3-10-3","lat":35.710898,"lon":139.335471},{"name":"武蔵野会館","province":"東京都","city":"昭島市","address":"東京都昭島市中神町1172-1","lat":35.711183,"lon":139.375667},{"name":"松原町コミュニティセンター","province":"東京都","city":"昭島市","address":"東京都昭島市松原町1-3-10","lat":35.71206,"lon":139.356957},{"name":"児童センター「ぱれっと」","province":"東京都","city":"昭島市","address":"東京都昭島市つつじが丘2-3-21","lat":35.714301,"lon":139.367027},{"name":"勤労商工市民センター","province":"東京都","city":"昭島市","address":"東京都昭島市昭和町3-10-2","lat":35.707038,"lon":139.367005},{"name":"朝日町高齢者福祉センター","province":"東京都","city":"昭島市","address":"東京都昭島市朝日町4-5-9","lat":35.706258,"lon":139.37046},{"name":"松原町高齢者福祉センター","province":"東京都","city":"昭島市","address":"東京都昭島市松原町1-13-3","lat":35.714701,"lon":139.354453},{"name":"拝島町高齢者福祉センター","province":"東京都","city":"昭島市","address":"東京都昭島市拝島町3-10-4","lat":35.710487,"lon":139.335016},{"name":"青少年交流センター","province":"東京都","city":"昭島市","address":"東京都昭島市昭和町1-6-11","lat":35.711044,"lon":139.365627},{"name":"環境コミュニケーションセンター","province":"東京都","city":"昭島市","address":"東京都昭島市美堀町3-8-1","lat":35.723219,"lon":139.354547},{"name":"水道部","province":"東京都","city":"昭島市","address":"東京都昭島市朝日町4-23-28","lat":35.70873,"lon":139.370352},{"name":"アキシマエンシス（国際交流教養文化棟）","province":"東京都","city":"昭島市","address":"東京都昭島市つつじが丘3-3-15","lat":35.711714,"lon":139.36935},{"name":"アキシマエンシス（校舎棟）","province":"東京都","city":"昭島市","address":"東京都昭島市つつじが丘3-3-15","lat":35.712009,"lon":139.369303},{"name":"アキシマエンシス（体育館棟）","province":"東京都","city":"昭島市","address":"東京都昭島市つつじが丘3-3-15","lat":35.711743,"lon":139.368486},{"name":"(株)大久保  多摩古紙センター昭島","province":"東京都","city":"昭島市","address":"昭島市武蔵野2-9-33","lat":35.72261,"lon":139.376877},{"name":"三弘紙業(株)  昭島営業所","province":"東京都","city":"昭島市","address":"昭島市松原町2-3-17","lat":35.713634,"lon":139.35289},{"name":"昭島市役所","province":"東京都","city":"昭島市","address":"東京都昭島市田中町1-17-1","lat":35.705706,"lon":139.353775},{"name":"昭島市保健福祉センター（あいぽっく）","province":"東京都","city":"昭島市","address":"東京都昭島市昭和町4-7-1","lat":35.71089,"lon":139.364088},{"name":"FOSTERホール（昭島市民会館）・公民館","province":"東京都","city":"昭島市","address":"東京都昭島市つつじが丘3-7-7","lat":35.713437,"lon":139.366187},{"name":"昭島市総合スポーツセンター","province":"東京都","city":"昭島市","address":"東京都昭島市東町5-13-1","lat":35.703334,"lon":139.38432},{"name":"玉川会館（東部出張所）","province":"東京都","city":"昭島市","address":"東京都昭島市玉川町3-10-15","lat":35.703703,"lon":139.382054},{"name":"朝日会館","province":"東京都","city":"昭島市","address":"東京都昭島市朝日町5-6-20","lat":35.705061,"lon":139.372835},{"name":"大神会館","province":"東京都","city":"昭島市","address":"東京都昭島市大神町3-10-5","lat":35.700742,"lon":139.360806},{"name":"拝島会館","province":"東京都","city":"昭島市","address":"東京都昭島市拝島町2-4-13","lat":35.707257,"lon":139.341968},{"name":"福島会館","province":"東京都","city":"昭島市","address":"東京都昭島市福島町1-19-1","lat":35.696753,"lon":139.381077},{"name":"昭和会館","province":"東京都","city":"昭島市","address":"東京都昭島市松原町1-2-25","lat":35.712896,"lon":139.357669},{"name":"緑会館","province":"東京都","city":"昭島市","address":"東京都昭島市緑町4-13-26","lat":35.714276,"lon":139.344637},{"name":"堀向会館","province":"東京都","city":"昭島市","address":"東京都昭島市美堀町2-6-11","lat":35.723174,"lon":139.363703},{"name":"富士見会館","province":"東京都","city":"昭島市","address":"東京都昭島市中神町1282","lat":35.712249,"lon":139.382554},{"name":"やまのかみ会館","province":"東京都","city":"昭島市","address":"東京都昭島市拝島町3-10-3","lat":35.710898,"lon":139.335471},{"name":"武蔵野会館","province":"東京都","city":"昭島市","address":"東京都昭島市中神町1172-1","lat":35.711183,"lon":139.375667},{"name":"松原町コミュニティセンター","province":"東京都","city":"昭島市","address":"東京都昭島市松原町1-3-10","lat":35.71206,"lon":139.356957},{"name":"児童センター「ぱれっと」","province":"東京都","city":"昭島市","address":"東京都昭島市つつじが丘2-3-21","lat":35.714301,"lon":139.367027},{"name":"勤労商工市民センター","province":"東京都","city":"昭島市","address":"東京都昭島市昭和町3-10-2","lat":35.707038,"lon":139.367005},{"name":"朝日町高齢者福祉センター","province":"東京都","city":"昭島市","address":"東京都昭島市朝日町4-5-9","lat":35.706258,"lon":139.37046},{"name":"松原町高齢者福祉センター","province":"東京都","city":"昭島市","address":"東京都昭島市松原町1-13-3","lat":35.714701,"lon":139.354453},{"name":"拝島町高齢者福祉センター","province":"東京都","city":"昭島市","address":"東京都昭島市拝島町3-10-4","lat":35.710487,"lon":139.335016},{"name":"青少年交流センター","province":"東京都","city":"昭島市","address":"東京都昭島市昭和町1-6-11","lat":35.711044,"lon":139.365627},{"name":"環境コミュニケーションセンター","province":"東京都","city":"昭島市","address":"東京都昭島市美堀町3-8-1","lat":35.723219,"lon":139.354547},{"name":"水道部","province":"東京都","city":"昭島市","address":"東京都昭島市朝日町4-23-28","lat":35.70873,"lon":139.370352},{"name":"アキシマエンシス（国際交流教養文化棟）","province":"東京都","city":"昭島市","address":"東京都昭島市つつじが丘3-3-15","lat":35.711714,"lon":139.36935},{"name":"アキシマエンシス（校舎棟）","province":"東京都","city":"昭島市","address":"東京都昭島市つつじが丘3-3-15","lat":35.712009,"lon":139.369303},{"name":"アキシマエンシス（体育館棟）","province":"東京都","city":"昭島市","address":"東京都昭島市つつじが丘3-3-15","lat":35.711743,"lon":139.368486},{"name":"(株)大久保  多摩古紙センター昭島","province":"東京都","city":"昭島市","address":"昭島市武蔵野2-9-33","lat":35.72261,"lon":139.376877},{"name":"三弘紙業(株)  昭島営業所","province":"東京都","city":"昭島市","address":"昭島市松原町2-3-17","lat":35.713634,"lon":139.35289},{"name":"昭島市役所","province":"東京都","city":"昭島市","address":"東京都昭島市田中町1-17-1","lat":35.705706,"lon":139.353775},{"name":"昭島市保健福祉センター（あいぽっく）","province":"東京都","city":"昭島市","address":"東京都昭島市昭和町4-7-1","lat":35.71089,"lon":139.364088},{"name":"FOSTERホール（昭島市民会館）・公民館","province":"東京都","city":"昭島市","address":"東京都昭島市つつじが丘3-7-7","lat":35.713437,"lon":139.366187},{"name":"昭島市総合スポーツセンター","province":"東京都","city":"昭島市","address":"東京都昭島市東町5-13-1","lat":35.703334,"lon":139.38432},{"name":"玉川会館（東部出張所）","province":"東京都","city":"昭島市","address":"東京都昭島市玉川町3-10-15","lat":35.703703,"lon":139.382054},{"name":"朝日会館","province":"東京都","city":"昭島市","address":"東京都昭島市朝日町5-6-20","lat":35.705061,"lon":139.372835},{"name":"大神会館","province":"東京都","city":"昭島市","address":"東京都昭島市大神町3-10-5","lat":35.700742,"lon":139.360806},{"name":"拝島会館","province":"東京都","city":"昭島市","address":"東京都昭島市拝島町2-4-13","lat":35.707257,"lon":139.341968},{"name":"福島会館","province":"東京都","city":"昭島市","address":"東京都昭島市福島町1-19-1","lat":35.696753,"lon":139.381077},{"name":"昭和会館","province":"東京都","city":"昭島市","address":"東京都昭島市松原町1-2-25","lat":35.712896,"lon":139.357669},{"name":"緑会館","province":"東京都","city":"昭島市","address":"東京都昭島市緑町4-13-26","lat":35.714276,"lon":139.344637},{"name":"堀向会館","province":"東京都","city":"昭島市","address":"東京都昭島市美堀町2-6-11","lat":35.723174,"lon":139.363703},{"name":"富士見会館","province":"東京都","city":"昭島市","address":"東京都昭島市中神町1282","lat":35.712249,"lon":139.382554},{"name":"やまのかみ会館","province":"東京都","city":"昭島市","address":"東京都昭島市拝島町3-10-3","lat":35.710898,"lon":139.335471},{"name":"武蔵野会館","province":"東京都","city":"昭島市","address":"東京都昭島市中神町1172-1","lat":35.711183,"lon":139.375667},{"name":"松原町コミュニティセンター","province":"東京都","city":"昭島市","address":"東京都昭島市松原町1-3-10","lat":35.71206,"lon":139.356957},{"name":"児童センター「ぱれっと」","province":"東京都","city":"昭島市","address":"東京都昭島市つつじが丘2-3-21","lat":35.714301,"lon":139.367027},{"name":"勤労商工市民センター","province":"東京都","city":"昭島市","address":"東京都昭島市昭和町3-10-2","lat":35.707038,"lon":139.367005},{"name":"朝日町高齢者福祉センター","province":"東京都","city":"昭島市","address":"東京都昭島市朝日町4-5-9","lat":35.706258,"lon":139.37046},{"name":"松原町高齢者福祉センター","province":"東京都","city":"昭島市","address":"東京都昭島市松原町1-13-3","lat":35.714701,"lon":139.354453},{"name":"拝島町高齢者福祉センター","province":"東京都","city":"昭島市","address":"東京都昭島市拝島町3-10-4","lat":35.710487,"lon":139.335016},{"name":"青少年交流センター","province":"東京都","city":"昭島市","address":"東京都昭島市昭和町1-6-11","lat":35.711044,"lon":139.365627},{"name":"環境コミュニケーションセンター","province":"東京都","city":"昭島市","address":"東京都昭島市美堀町3-8-1","lat":35.723219,"lon":139.354547},{"name":"水道部","province":"東京都","city":"昭島市","address":"東京都昭島市朝日町4-23-28","lat":35.70873,"lon":139.370352},{"name":"アキシマエンシス（国際交流教養文化棟）","province":"東京都","city":"昭島市","address":"東京都昭島市つつじが丘3-3-15","lat":35.711714,"lon":139.36935},{"name":"アキシマエンシス（校舎棟）","province":"東京都","city":"昭島市","address":"東京都昭島市つつじが丘3-3-15","lat":35.712009,"lon":139.369303},{"name":"アキシマエンシス（体育館棟）","province":"東京都","city":"昭島市","address":"東京都昭島市つつじが丘3-3-15","lat":35.711743,"lon":139.368486},{"name":"(株)大久保  多摩古紙センター昭島","province":"東京都","city":"昭島市","address":"昭島市武蔵野2-9-33","lat":35.72261,"lon":139.376877},{"name":"三弘紙業(株)  昭島営業所","province":"東京都","city":"昭島市","address":"昭島市松原町2-3-17","lat":35.713634,"lon":139.35289},{"name":"昭島市役所","province":"東京都","city":"昭島市","address":"東京都昭島市田中町1-17-1","lat":35.705706,"lon":139.353775},{"name":"昭島市保健福祉センター（あいぽっく）","province":"東京都","city":"昭島市","address":"東京都昭島市昭和町4-7-1","lat":35.71089,"lon":139.364088},{"name":"FOSTERホール（昭島市民会館）・公民館","province":"東京都","city":"昭島市","address":"東京都昭島市つつじが丘3-7-7","lat":35.713437,"lon":139.366187},{"name":"昭島市総合スポーツセンター","province":"東京都","city":"昭島市","address":"東京都昭島市東町5-13-1","lat":35.703334,"lon":139.38432},{"name":"玉川会館（東部出張所）","province":"東京都","city":"昭島市","address":"東京都昭島市玉川町3-10-15","lat":35.703703,"lon":139.382054},{"name":"朝日会館","province":"東京都","city":"昭島市","address":"東京都昭島市朝日町5-6-20","lat":35.705061,"lon":139.372835},{"name":"大神会館","province":"東京都","city":"昭島市","address":"東京都昭島市大神町3-10-5","lat":35.700742,"lon":139.360806},{"name":"拝島会館","province":"東京都","city":"昭島市","address":"東京都昭島市拝島町2-4-13","lat":35.707257,"lon":139.341968},{"name":"福島会館","province":"東京都","city":"昭島市","address":"東京都昭島市福島町1-19-1","lat":35.696753,"lon":139.381077},{"name":"昭和会館","province":"東京都","city":"昭島市","address":"東京都昭島市松原町1-2-25","lat":35.712896,"lon":139.357669},{"name":"緑会館","province":"東京都","city":"昭島市","address":"東京都昭島市緑町4-13-26","lat":35.714276,"lon":139.344637},{"name":"堀向会館","province":"東京都","city":"昭島市","address":"東京都昭島市美堀町2-6-11","lat":35.723174,"lon":139.363703},{"name":"富士見会館","province":"東京都","city":"昭島市","address":"東京都昭島市中神町1282","lat":35.712249,"lon":139.382554},{"name":"やまのかみ会館","province":"東京都","city":"昭島市","address":"東京都昭島市拝島町3-10-3","lat":35.710898,"lon":139.335471},{"name":"武蔵野会館","province":"東京都","city":"昭島市","address":"東京都昭島市中神町1172-1","lat":35.711183,"lon":139.375667},{"name":"松原町コミュニティセンター","province":"東京都","city":"昭島市","address":"東京都昭島市松原町1-3-10","lat":35.71206,"lon":139.356957},{"name":"児童センター「ぱれっと」","province":"東京都","city":"昭島市","address":"東京都昭島市つつじが丘2-3-21","lat":35.714301,"lon":139.367027},{"name":"勤労商工市民センター","province":"東京都","city":"昭島市","address":"東京都昭島市昭和町3-10-2","lat":35.707038,"lon":139.367005},{"name":"朝日町高齢者福祉センター","province":"東京都","city":"昭島市","address":"東京都昭島市朝日町4-5-9","lat":35.706258,"lon":139.37046},{"name":"松原町高齢者福祉センター","province":"東京都","city":"昭島市","address":"東京都昭島市松原町1-13-3","lat":35.714701,"lon":139.354453},{"name":"拝島町高齢者福祉センター","province":"東京都","city":"昭島市","address":"東京都昭島市拝島町3-10-4","lat":35.710487,"lon":139.335016},{"name":"青少年交流センター","province":"東京都","city":"昭島市","address":"東京都昭島市昭和町1-6-11","lat":35.711044,"lon":139.365627},{"name":"環境コミュニケーションセンター","province":"東京都","city":"昭島市","address":"東京都昭島市美堀町3-8-1","lat":35.723219,"lon":139.354547},{"name":"水道部","province":"東京都","city":"昭島市","address":"東京都昭島市朝日町4-23-28","lat":35.70873,"lon":139.370352},{"name":"アキシマエンシス（国際交流教養文化棟）","province":"東京都","city":"昭島市","address":"東京都昭島市つつじが丘3-3-15","lat":35.711714,"lon":139.36935},{"name":"アキシマエンシス（校舎棟）","province":"東京都","city":"昭島市","address":"東京都昭島市つつじが丘3-3-15","lat":35.712009,"lon":139.369303},{"name":"アキシマエンシス（体育館棟）","province":"東京都","city":"昭島市","address":"東京都昭島市つつじが丘3-3-15","lat":35.711743,"lon":139.368486},{"name":"(株)大久保  多摩古紙センター昭島","province":"東京都","city":"昭島市","address":"昭島市武蔵野2-9-33","lat":35.72261,"lon":139.376877},{"name":"三弘紙業(株)  昭島営業所","province":"東京都","city":"昭島市","address":"昭島市松原町2-3-17","lat":35.713634,"lon":139.35289},{"name":"昭島市役所","province":"東京都","city":"昭島市","address":"東京都昭島市田中町1-17-1","lat":35.705706,"lon":139.353775},{"name":"昭島市保健福祉センター（あいぽっく）","province":"東京都","city":"昭島市","address":"東京都昭島市昭和町4-7-1","lat":35.71089,"lon":139.364088},{"name":"FOSTERホール（昭島市民会館）・公民館","province":"東京都","city":"昭島市","address":"東京都昭島市つつじが丘3-7-7","lat":35.713437,"lon":139.366187},{"name":"昭島市総合スポーツセンター","province":"東京都","city":"昭島市","address":"東京都昭島市東町5-13-1","lat":35.703334,"lon":139.38432},{"name":"玉川会館（東部出張所）","province":"東京都","city":"昭島市","address":"東京都昭島市玉川町3-10-15","lat":35.703703,"lon":139.382054},{"name":"朝日会館","province":"東京都","city":"昭島市","address":"東京都昭島市朝日町5-6-20","lat":35.705061,"lon":139.372835},{"name":"大神会館","province":"東京都","city":"昭島市","address":"東京都昭島市大神町3-10-5","lat":35.700742,"lon":139.360806},{"name":"拝島会館","province":"東京都","city":"昭島市","address":"東京都昭島市拝島町2-4-13","lat":35.707257,"lon":139.341968},{"name":"福島会館","province":"東京都","city":"昭島市","address":"東京都昭島市福島町1-19-1","lat":35.696753,"lon":139.381077},{"name":"昭和会館","province":"東京都","city":"昭島市","address":"東京都昭島市松原町1-2-25","lat":35.712896,"lon":139.357669},{"name":"緑会館","province":"東京都","city":"昭島市","address":"東京都昭島市緑町4-13-26","lat":35.714276,"lon":139.344637},{"name":"堀向会館","province":"東京都","city":"昭島市","address":"東京都昭島市美堀町2-6-11","lat":35.723174,"lon":139.363703},{"name":"富士見会館","province":"東京都","city":"昭島市","address":"東京都昭島市中神町1282","lat":35.712249,"lon":139.382554},{"name":"やまのかみ会館","province":"東京都","city":"昭島市","address":"東京都昭島市拝島町3-10-3","lat":35.710898,"lon":139.335471},{"name":"武蔵野会館","province":"東京都","city":"昭島市","address":"東京都昭島市中神町1172-1","lat":35.711183,"lon":139.375667},{"name":"松原町コミュニティセンター","province":"東京都","city":"昭島市","address":"東京都昭島市松原町1-3-10","lat":35.71206,"lon":139.356957},{"name":"児童センター「ぱれっと」","province":"東京都","city":"昭島市","address":"東京都昭島市つつじが丘2-3-21","lat":35.714301,"lon":139.367027},{"name":"勤労商工市民センター","province":"東京都","city":"昭島市","address":"東京都昭島市昭和町3-10-2","lat":35.707038,"lon":139.367005},{"name":"朝日町高齢者福祉センター","province":"東京都","city":"昭島市","address":"東京都昭島市朝日町4-5-9","lat":35.706258,"lon":139.37046},{"name":"松原町高齢者福祉センター","province":"東京都","city":"昭島市","address":"東京都昭島市松原町1-13-3","lat":35.714701,"lon":139.354453},{"name":"拝島町高齢者福祉センター","province":"東京都","city":"昭島市","address":"東京都昭島市拝島町3-10-4","lat":35.710487,"lon":139.335016},{"name":"青少年交流センター","province":"東京都","city":"昭島市","address":"東京都昭島市昭和町1-6-11","lat":35.711044,"lon":139.365627},{"name":"環境コミュニケーションセンター","province":"東京都","city":"昭島市","address":"東京都昭島市美堀町3-8-1","lat":35.723219,"lon":139.354547},{"name":"水道部","province":"東京都","city":"昭島市","address":"東京都昭島市朝日町4-23-28","lat":35.70873,"lon":139.370352},{"name":"アキシマエンシス（国際交流教養文化棟）","province":"東京都","city":"昭島市","address":"東京都昭島市つつじが丘3-3-15","lat":35.711714,"lon":139.36935},{"name":"アキシマエンシス（校舎棟）","province":"東京都","city":"昭島市","address":"東京都昭島市つつじが丘3-3-15","lat":35.712009,"lon":139.369303},{"name":"アキシマエンシス（体育館棟）","province":"東京都","city":"昭島市","address":"東京都昭島市つつじが丘3-3-15","lat":35.711743,"lon":139.368486},{"name":"(株)大久保  多摩古紙センター昭島","province":"東京都","city":"昭島市","address":"昭島市武蔵野2-9-33","lat":35.72261,"lon":139.376877},{"name":"三弘紙業(株)  昭島営業所","province":"東京都","city":"昭島市","address":"昭島市松原町2-3-17","lat":35.713634,"lon":139.35289},{"name":"昭島市役所","province":"東京都","city":"昭島市","address":"東京都昭島市田中町1-17-1","lat":35.705706,"lon":139.353775},{"name":"昭島市保健福祉センター（あいぽっく）","province":"東京都","city":"昭島市","address":"東京都昭島市昭和町4-7-1","lat":35.71089,"lon":139.364088},{"name":"FOSTERホール（昭島市民会館）・公民館","province":"東京都","city":"昭島市","address":"東京都昭島市つつじが丘3-7-7","lat":35.713437,"lon":139.366187},{"name":"昭島市総合スポーツセンター","province":"東京都","city":"昭島市","address":"東京都昭島市東町5-13-1","lat":35.703334,"lon":139.38432},{"name":"玉川会館（東部出張所）","province":"東京都","city":"昭島市","address":"東京都昭島市玉川町3-10-15","lat":35.703703,"lon":139.382054},{"name":"朝日会館","province":"東京都","city":"昭島市","address":"東京都昭島市朝日町5-6-20","lat":35.705061,"lon":139.372835},{"name":"大神会館","province":"東京都","city":"昭島市","address":"東京都昭島市大神町3-10-5","lat":35.700742,"lon":139.360806},{"name":"拝島会館","province":"東京都","city":"昭島市","address":"東京都昭島市拝島町2-4-13","lat":35.707257,"lon":139.341968},{"name":"福島会館","province":"東京都","city":"昭島市","address":"東京都昭島市福島町1-19-1","lat":35.696753,"lon":139.381077},{"name":"昭和会館","province":"東京都","city":"昭島市","address":"東京都昭島市松原町1-2-25","lat":35.712896,"lon":139.357669},{"name":"緑会館","province":"東京都","city":"昭島市","address":"東京都昭島市緑町4-13-26","lat":35.714276,"lon":139.344637},{"name":"堀向会館","province":"東京都","city":"昭島市","address":"東京都昭島市美堀町2-6-11","lat":35.723174,"lon":139.363703},{"name":"富士見会館","province":"東京都","city":"昭島市","address":"東京都昭島市中神町1282","lat":35.712249,"lon":139.382554},{"name":"やまのかみ会館","province":"東京都","city":"昭島市","address":"東京都昭島市拝島町3-10-3","lat":35.710898,"lon":139.335471},{"name":"武蔵野会館","province":"東京都","city":"昭島市","address":"東京都昭島市中神町1172-1","lat":35.711183,"lon":139.375667},{"name":"松原町コミュニティセンター","province":"東京都","city":"昭島市","address":"東京都昭島市松原町1-3-10","lat":35.71206,"lon":139.356957},{"name":"児童センター「ぱれっと」","province":"東京都","city":"昭島市","address":"東京都昭島市つつじが丘2-3-21","lat":35.714301,"lon":139.367027},{"name":"勤労商工市民センター","province":"東京都","city":"昭島市","address":"東京都昭島市昭和町3-10-2","lat":35.707038,"lon":139.367005},{"name":"朝日町高齢者福祉センター","province":"東京都","city":"昭島市","address":"東京都昭島市朝日町4-5-9","lat":35.706258,"lon":139.37046},{"name":"松原町高齢者福祉センター","province":"東京都","city":"昭島市","address":"東京都昭島市松原町1-13-3","lat":35.714701,"lon":139.354453},{"name":"拝島町高齢者福祉センター","province":"東京都","city":"昭島市","address":"東京都昭島市拝島町3-10-4","lat":35.710487,"lon":139.335016},{"name":"青少年交流センター","province":"東京都","city":"昭島市","address":"東京都昭島市昭和町1-6-11","lat":35.711044,"lon":139.365627},{"name":"環境コミュニケーションセンター","province":"東京都","city":"昭島市","address":"東京都昭島市美堀町3-8-1","lat":35.723219,"lon":139.354547},{"name":"水道部","province":"東京都","city":"昭島市","address":"東京都昭島市朝日町4-23-28","lat":35.70873,"lon":139.370352},{"name":"アキシマエンシス（国際交流教養文化棟）","province":"東京都","city":"昭島市","address":"東京都昭島市つつじが丘3-3-15","lat":35.711714,"lon":139.36935},{"name":"アキシマエンシス（校舎棟）","province":"東京都","city":"昭島市","address":"東京都昭島市つつじが丘3-3-15","lat":35.712009,"lon":139.369303},{"name":"アキシマエンシス（体育館棟）","province":"東京都","city":"昭島市","address":"東京都昭島市つつじが丘3-3-15","lat":35.711743,"lon":139.368486},{"name":"(株)大久保  多摩古紙センター昭島","province":"東京都","city":"昭島市","address":"昭島市武蔵野2-9-33","lat":35.72261,"lon":139.376877},{"name":"三弘紙業(株)  昭島営業所","province":"東京都","city":"昭島市","address":"昭島市松原町2-3-17","lat":35.713634,"lon":139.35289},{"name":"昭島市役所","province":"東京都","city":"昭島市","address":"東京都昭島市田中町1-17-1","lat":35.705706,"lon":139.353775},{"name":"昭島市保健福祉センター（あいぽっく）","province":"東京都","city":"昭島市","address":"東京都昭島市昭和町4-7-1","lat":35.71089,"lon":139.364088},{"name":"FOSTERホール（昭島市民会館）・公民館","province":"東京都","city":"昭島市","address":"東京都昭島市つつじが丘3-7-7","lat":35.713437,"lon":139.366187},{"name":"昭島市総合スポーツセンター","province":"東京都","city":"昭島市","address":"東京都昭島市東町5-13-1","lat":35.703334,"lon":139.38432},{"name":"玉川会館（東部出張所）","province":"東京都","city":"昭島市","address":"東京都昭島市玉川町3-10-15","lat":35.703703,"lon":139.382054},{"name":"朝日会館","province":"東京都","city":"昭島市","address":"東京都昭島市朝日町5-6-20","lat":35.705061,"lon":139.372835},{"name":"大神会館","province":"東京都","city":"昭島市","address":"東京都昭島市大神町3-10-5","lat":35.700742,"lon":139.360806},{"name":"拝島会館","province":"東京都","city":"昭島市","address":"東京都昭島市拝島町2-4-13","lat":35.707257,"lon":139.341968},{"name":"福島会館","province":"東京都","city":"昭島市","address":"東京都昭島市福島町1-19-1","lat":35.696753,"lon":139.381077},{"name":"昭和会館","province":"東京都","city":"昭島市","address":"東京都昭島市松原町1-2-25","lat":35.712896,"lon":139.357669},{"name":"緑会館","province":"東京都","city":"昭島市","address":"東京都昭島市緑町4-13-26","lat":35.714276,"lon":139.344637},{"name":"堀向会館","province":"東京都","city":"昭島市","address":"東京都昭島市美堀町2-6-11","lat":35.723174,"lon":139.363703},{"name":"富士見会館","province":"東京都","city":"昭島市","address":"東京都昭島市中神町1282","lat":35.712249,"lon":139.382554},{"name":"やまのかみ会館","province":"東京都","city":"昭島市","address":"東京都昭島市拝島町3-10-3","lat":35.710898,"lon":139.335471},{"name":"武蔵野会館","province":"東京都","city":"昭島市","address":"東京都昭島市中神町1172-1","lat":35.711183,"lon":139.375667},{"name":"松原町コミュニティセンター","province":"東京都","city":"昭島市","address":"東京都昭島市松原町1-3-10","lat":35.71206,"lon":139.356957},{"name":"児童センター「ぱれっと」","province":"東京都","city":"昭島市","address":"東京都昭島市つつじが丘2-3-21","lat":35.714301,"lon":139.367027},{"name":"勤労商工市民センター","province":"東京都","city":"昭島市","address":"東京都昭島市昭和町3-10-2","lat":35.707038,"lon":139.367005},{"name":"朝日町高齢者福祉センター","province":"東京都","city":"昭島市","address":"東京都昭島市朝日町4-5-9","lat":35.706258,"lon":139.37046},{"name":"松原町高齢者福祉センター","province":"東京都","city":"昭島市","address":"東京都昭島市松原町1-13-3","lat":35.714701,"lon":139.354453},{"name":"拝島町高齢者福祉センター","province":"東京都","city":"昭島市","address":"東京都昭島市拝島町3-10-4","lat":35.710487,"lon":139.335016},{"name":"青少年交流センター","province":"東京都","city":"昭島市","address":"東京都昭島市昭和町1-6-11","lat":35.711044,"lon":139.365627},{"name":"環境コミュニケーションセンター","province":"東京都","city":"昭島市","address":"東京都昭島市美堀町3-8-1","lat":35.723219,"lon":139.354547},{"name":"水道部","province":"東京都","city":"昭島市","address":"東京都昭島市朝日町4-23-28","lat":35.70873,"lon":139.370352},{"name":"アキシマエンシス（国際交流教養文化棟）","province":"東京都","city":"昭島市","address":"東京都昭島市つつじが丘3-3-15","lat":35.711714,"lon":139.36935},{"name":"アキシマエンシス（校舎棟）","province":"東京都","city":"昭島市","address":"東京都昭島市つつじが丘3-3-15","lat":35.712009,"lon":139.369303},{"name":"アキシマエンシス（体育館棟）","province":"東京都","city":"昭島市","address":"東京都昭島市つつじが丘3-3-15","lat":35.711743,"lon":139.368486},{"name":"(株)大久保  多摩古紙センター昭島","province":"東京都","city":"昭島市","address":"昭島市武蔵野2-9-33","lat":35.72261,"lon":139.376877},{"name":"三弘紙業(株)  昭島営業所","province":"東京都","city":"昭島市","address":"昭島市松原町2-3-17","lat":35.713634,"lon":139.35289},{"name":"昭島市役所","province":"東京都","city":"昭島市","address":"東京都昭島市田中町1-17-1","lat":35.705706,"lon":139.353775},{"name":"昭島市保健福祉センター（あいぽっく）","province":"東京都","city":"昭島市","address":"東京都昭島市昭和町4-7-1","lat":35.71089,"lon":139.364088},{"name":"FOSTERホール（昭島市民会館）・公民館","province":"東京都","city":"昭島市","address":"東京都昭島市つつじが丘3-7-7","lat":35.713437,"lon":139.366187},{"name":"昭島市総合スポーツセンター","province":"東京都","city":"昭島市","address":"東京都昭島市東町5-13-1","lat":35.703334,"lon":139.38432},{"name":"玉川会館（東部出張所）","province":"東京都","city":"昭島市","address":"東京都昭島市玉川町3-10-15","lat":35.703703,"lon":139.382054},{"name":"朝日会館","province":"東京都","city":"昭島市","address":"東京都昭島市朝日町5-6-20","lat":35.705061,"lon":139.372835},{"name":"大神会館","province":"東京都","city":"昭島市","address":"東京都昭島市大神町3-10-5","lat":35.700742,"lon":139.360806},{"name":"拝島会館","province":"東京都","city":"昭島市","address":"東京都昭島市拝島町2-4-13","lat":35.707257,"lon":139.341968},{"name":"福島会館","province":"東京都","city":"昭島市","address":"東京都昭島市福島町1-19-1","lat":35.696753,"lon":139.381077},{"name":"昭和会館","province":"東京都","city":"昭島市","address":"東京都昭島市松原町1-2-25","lat":35.712896,"lon":139.357669},{"name":"緑会館","province":"東京都","city":"昭島市","address":"東京都昭島市緑町4-13-26","lat":35.714276,"lon":139.344637},{"name":"堀向会館","province":"東京都","city":"昭島市","address":"東京都昭島市美堀町2-6-11","lat":35.723174,"lon":139.363703},{"name":"富士見会館","province":"東京都","city":"昭島市","address":"東京都昭島市中神町1282","lat":35.712249,"lon":139.382554},{"name":"やまのかみ会館","province":"東京都","city":"昭島市","address":"東京都昭島市拝島町3-10-3","lat":35.710898,"lon":139.335471},{"name":"武蔵野会館","province":"東京都","city":"昭島市","address":"東京都昭島市中神町1172-1","lat":35.711183,"lon":139.375667},{"name":"松原町コミュニティセンター","province":"東京都","city":"昭島市","address":"東京都昭島市松原町1-3-10","lat":35.71206,"lon":139.356957},{"name":"児童センター「ぱれっと」","province":"東京都","city":"昭島市","address":"東京都昭島市つつじが丘2-3-21","lat":35.714301,"lon":139.367027},{"name":"勤労商工市民センター","province":"東京都","city":"昭島市","address":"東京都昭島市昭和町3-10-2","lat":35.707038,"lon":139.367005},{"name":"朝日町高齢者福祉センター","province":"東京都","city":"昭島市","address":"東京都昭島市朝日町4-5-9","lat":35.706258,"lon":139.37046},{"name":"松原町高齢者福祉センター","province":"東京都","city":"昭島市","address":"東京都昭島市松原町1-13-3","lat":35.714701,"lon":139.354453},{"name":"拝島町高齢者福祉センター","province":"東京都","city":"昭島市","address":"東京都昭島市拝島町3-10-4","lat":35.710487,"lon":139.335016},{"name":"青少年交流センター","province":"東京都","city":"昭島市","address":"東京都昭島市昭和町1-6-11","lat":35.711044,"lon":139.365627},{"name":"環境コミュニケーションセンター","province":"東京都","city":"昭島市","address":"東京都昭島市美堀町3-8-1","lat":35.723219,"lon":139.354547},{"name":"水道部","province":"東京都","city":"昭島市","address":"東京都昭島市朝日町4-23-28","lat":35.70873,"lon":139.370352},{"name":"アキシマエンシス（国際交流教養文化棟）","province":"東京都","city":"昭島市","address":"東京都昭島市つつじが丘3-3-15","lat":35.711714,"lon":139.36935},{"name":"アキシマエンシス（校舎棟）","province":"東京都","city":"昭島市","address":"東京都昭島市つつじが丘3-3-15","lat":35.712009,"lon":139.369303},{"name":"アキシマエンシス（体育館棟）","province":"東京都","city":"昭島市","address":"東京都昭島市つつじが丘3-3-15","lat":35.711743,"lon":139.368486},{"name":"(株)大久保  多摩古紙センター昭島","province":"東京都","city":"昭島市","address":"昭島市武蔵野2-9-33","lat":35.72261,"lon":139.376877},{"name":"三弘紙業(株)  昭島営業所","province":"東京都","city":"昭島市","address":"昭島市松原町2-3-17","lat":35.713634,"lon":139.35289},{"name":"昭島市役所","province":"東京都","city":"昭島市","address":"東京都昭島市田中町1-17-1","lat":35.705706,"lon":139.353775},{"name":"昭島市保健福祉センター（あいぽっく）","province":"東京都","city":"昭島市","address":"東京都昭島市昭和町4-7-1","lat":35.71089,"lon":139.364088},{"name":"FOSTERホール（昭島市民会館）・公民館","province":"東京都","city":"昭島市","address":"東京都昭島市つつじが丘3-7-7","lat":35.713437,"lon":139.366187},{"name":"昭島市総合スポーツセンター","province":"東京都","city":"昭島市","address":"東京都昭島市東町5-13-1","lat":35.703334,"lon":139.38432},{"name":"玉川会館（東部出張所）","province":"東京都","city":"昭島市","address":"東京都昭島市玉川町3-10-15","lat":35.703703,"lon":139.382054},{"name":"朝日会館","province":"東京都","city":"昭島市","address":"東京都昭島市朝日町5-6-20","lat":35.705061,"lon":139.372835},{"name":"大神会館","province":"東京都","city":"昭島市","address":"東京都昭島市大神町3-10-5","lat":35.700742,"lon":139.360806},{"name":"拝島会館","province":"東京都","city":"昭島市","address":"東京都昭島市拝島町2-4-13","lat":35.707257,"lon":139.341968},{"name":"福島会館","province":"東京都","city":"昭島市","address":"東京都昭島市福島町1-19-1","lat":35.696753,"lon":139.381077},{"name":"昭和会館","province":"東京都","city":"昭島市","address":"東京都昭島市松原町1-2-25","lat":35.712896,"lon":139.357669},{"name":"緑会館","province":"東京都","city":"昭島市","address":"東京都昭島市緑町4-13-26","lat":35.714276,"lon":139.344637},{"name":"堀向会館","province":"東京都","city":"昭島市","address":"東京都昭島市美堀町2-6-11","lat":35.723174,"lon":139.363703},{"name":"富士見会館","province":"東京都","city":"昭島市","address":"東京都昭島市中神町1282","lat":35.712249,"lon":139.382554},{"name":"やまのかみ会館","province":"東京都","city":"昭島市","address":"東京都昭島市拝島町3-10-3","lat":35.710898,"lon":139.335471},{"name":"武蔵野会館","province":"東京都","city":"昭島市","address":"東京都昭島市中神町1172-1","lat":35.711183,"lon":139.375667},{"name":"松原町コミュニティセンター","province":"東京都","city":"昭島市","address":"東京都昭島市松原町1-3-10","lat":35.71206,"lon":139.356957},{"name":"児童センター「ぱれっと」","province":"東京都","city":"昭島市","address":"東京都昭島市つつじが丘2-3-21","lat":35.714301,"lon":139.367027},{"name":"勤労商工市民センター","province":"東京都","city":"昭島市","address":"東京都昭島市昭和町3-10-2","lat":35.707038,"lon":139.367005},{"name":"朝日町高齢者福祉センター","province":"東京都","city":"昭島市","address":"東京都昭島市朝日町4-5-9","lat":35.706258,"lon":139.37046},{"name":"松原町高齢者福祉センター","province":"東京都","city":"昭島市","address":"東京都昭島市松原町1-13-3","lat":35.714701,"lon":139.354453},{"name":"拝島町高齢者福祉センター","province":"東京都","city":"昭島市","address":"東京都昭島市拝島町3-10-4","lat":35.710487,"lon":139.335016},{"name":"青少年交流センター","province":"東京都","city":"昭島市","address":"東京都昭島市昭和町1-6-11","lat":35.711044,"lon":139.365627},{"name":"環境コミュニケーションセンター","province":"東京都","city":"昭島市","address":"東京都昭島市美堀町3-8-1","lat":35.723219,"lon":139.354547},{"name":"水道部","province":"東京都","city":"昭島市","address":"東京都昭島市朝日町4-23-28","lat":35.70873,"lon":139.370352},{"name":"アキシマエンシス（国際交流教養文化棟）","province":"東京都","city":"昭島市","address":"東京都昭島市つつじが丘3-3-15","lat":35.711714,"lon":139.36935},{"name":"アキシマエンシス（校舎棟）","province":"東京都","city":"昭島市","address":"東京都昭島市つつじが丘3-3-15","lat":35.712009,"lon":139.369303},{"name":"アキシマエンシス（体育館棟）","province":"東京都","city":"昭島市","address":"東京都昭島市つつじが丘3-3-15","lat":35.711743,"lon":139.368486},{"name":"(株)大久保  多摩古紙センター昭島","province":"東京都","city":"昭島市","address":"昭島市武蔵野2-9-33","lat":35.72261,"lon":139.376877},{"name":"三弘紙業(株)  昭島営業所","province":"東京都","city":"昭島市","address":"昭島市松原町2-3-17","lat":35.713634,"lon":139.35289},{"name":"昭島市役所","province":"東京都","city":"昭島市","address":"東京都昭島市田中町1-17-1","lat":35.705706,"lon":139.353775},{"name":"昭島市保健福祉センター（あいぽっく）","province":"東京都","city":"昭島市","address":"東京都昭島市昭和町4-7-1","lat":35.71089,"lon":139.364088},{"name":"FOSTERホール（昭島市民会館）・公民館","province":"東京都","city":"昭島市","address":"東京都昭島市つつじが丘3-7-7","lat":35.713437,"lon":139.366187},{"name":"昭島市総合スポーツセンター","province":"東京都","city":"昭島市","address":"東京都昭島市東町5-13-1","lat":35.703334,"lon":139.38432},{"name":"玉川会館（東部出張所）","province":"東京都","city":"昭島市","address":"東京都昭島市玉川町3-10-15","lat":35.703703,"lon":139.382054},{"name":"朝日会館","province":"東京都","city":"昭島市","address":"東京都昭島市朝日町5-6-20","lat":35.705061,"lon":139.372835},{"name":"大神会館","province":"東京都","city":"昭島市","address":"東京都昭島市大神町3-10-5","lat":35.700742,"lon":139.360806},{"name":"拝島会館","province":"東京都","city":"昭島市","address":"東京都昭島市拝島町2-4-13","lat":35.707257,"lon":139.341968},{"name":"福島会館","province":"東京都","city":"昭島市","address":"東京都昭島市福島町1-19-1","lat":35.696753,"lon":139.381077},{"name":"昭和会館","province":"東京都","city":"昭島市","address":"東京都昭島市松原町1-2-25","lat":35.712896,"lon":139.357669},{"name":"緑会館","province":"東京都","city":"昭島市","address":"東京都昭島市緑町4-13-26","lat":35.714276,"lon":139.344637},{"name":"堀向会館","province":"東京都","city":"昭島市","address":"東京都昭島市美堀町2-6-11","lat":35.723174,"lon":139.363703},{"name":"富士見会館","province":"東京都","city":"昭島市","address":"東京都昭島市中神町1282","lat":35.712249,"lon":139.382554},{"name":"やまのかみ会館","province":"東京都","city":"昭島市","address":"東京都昭島市拝島町3-10-3","lat":35.710898,"lon":139.335471},{"name":"武蔵野会館","province":"東京都","city":"昭島市","address":"東京都昭島市中神町1172-1","lat":35.711183,"lon":139.375667},{"name":"松原町コミュニティセンター","province":"東京都","city":"昭島市","address":"東京都昭島市松原町1-3-10","lat":35.71206,"lon":139.356957},{"name":"児童センター「ぱれっと」","province":"東京都","city":"昭島市","address":"東京都昭島市つつじが丘2-3-21","lat":35.714301,"lon":139.367027},{"name":"勤労商工市民センター","province":"東京都","city":"昭島市","address":"東京都昭島市昭和町3-10-2","lat":35.707038,"lon":139.367005},{"name":"朝日町高齢者福祉センター","province":"東京都","city":"昭島市","address":"東京都昭島市朝日町4-5-9","lat":35.706258,"lon":139.37046},{"name":"松原町高齢者福祉センター","province":"東京都","city":"昭島市","address":"東京都昭島市松原町1-13-3","lat":35.714701,"lon":139.354453},{"name":"拝島町高齢者福祉センター","province":"東京都","city":"昭島市","address":"東京都昭島市拝島町3-10-4","lat":35.710487,"lon":139.335016},{"name":"青少年交流センター","province":"東京都","city":"昭島市","address":"東京都昭島市昭和町1-6-11","lat":35.711044,"lon":139.365627},{"name":"環境コミュニケーションセンター","province":"東京都","city":"昭島市","address":"東京都昭島市美堀町3-8-1","lat":35.723219,"lon":139.354547},{"name":"水道部","province":"東京都","city":"昭島市","address":"東京都昭島市朝日町4-23-28","lat":35.70873,"lon":139.370352},{"name":"アキシマエンシス（国際交流教養文化棟）","province":"東京都","city":"昭島市","address":"東京都昭島市つつじが丘3-3-15","lat":35.711714,"lon":139.36935},{"name":"アキシマエンシス（校舎棟）","province":"東京都","city":"昭島市","address":"東京都昭島市つつじが丘3-3-15","lat":35.712009,"lon":139.369303},{"name":"アキシマエンシス（体育館棟）","province":"東京都","city":"昭島市","address":"東京都昭島市つつじが丘3-3-15","lat":35.711743,"lon":139.368486},{"name":"(株)大久保  多摩古紙センター昭島","province":"東京都","city":"昭島市","address":"昭島市武蔵野2-9-33","lat":35.72261,"lon":139.376877},{"name":"三弘紙業(株)  昭島営業所","province":"東京都","city":"昭島市","address":"昭島市松原町2-3-17","lat":35.713634,"lon":139.35289},{"name":"昭島市役所","province":"東京都","city":"昭島市","address":"東京都昭島市田中町1-17-1","lat":35.705706,"lon":139.353775},{"name":"昭島市保健福祉センター（あいぽっく）","province":"東京都","city":"昭島市","address":"東京都昭島市昭和町4-7-1","lat":35.71089,"lon":139.364088},{"name":"FOSTERホール（昭島市民会館）・公民館","province":"東京都","city":"昭島市","address":"東京都昭島市つつじが丘3-7-7","lat":35.713437,"lon":139.366187},{"name":"昭島市総合スポーツセンター","province":"東京都","city":"昭島市","address":"東京都昭島市東町5-13-1","lat":35.703334,"lon":139.38432},{"name":"玉川会館（東部出張所）","province":"東京都","city":"昭島市","address":"東京都昭島市玉川町3-10-15","lat":35.703703,"lon":139.382054},{"name":"朝日会館","province":"東京都","city":"昭島市","address":"東京都昭島市朝日町5-6-20","lat":35.705061,"lon":139.372835},{"name":"大神会館","province":"東京都","city":"昭島市","address":"東京都昭島市大神町3-10-5","lat":35.700742,"lon":139.360806},{"name":"拝島会館","province":"東京都","city":"昭島市","address":"東京都昭島市拝島町2-4-13","lat":35.707257,"lon":139.341968},{"name":"福島会館","province":"東京都","city":"昭島市","address":"東京都昭島市福島町1-19-1","lat":35.696753,"lon":139.381077},{"name":"昭和会館","province":"東京都","city":"昭島市","address":"東京都昭島市松原町1-2-25","lat":35.712896,"lon":139.357669},{"name":"緑会館","province":"東京都","city":"昭島市","address":"東京都昭島市緑町4-13-26","lat":35.714276,"lon":139.344637},{"name":"堀向会館","province":"東京都","city":"昭島市","address":"東京都昭島市美堀町2-6-11","lat":35.723174,"lon":139.363703},{"name":"富士見会館","province":"東京都","city":"昭島市","address":"東京都昭島市中神町1282","lat":35.712249,"lon":139.382554},{"name":"やまのかみ会館","province":"東京都","city":"昭島市","address":"東京都昭島市拝島町3-10-3","lat":35.710898,"lon":139.335471},{"name":"武蔵野会館","province":"東京都","city":"昭島市","address":"東京都昭島市中神町1172-1","lat":35.711183,"lon":139.375667},{"name":"松原町コミュニティセンター","province":"東京都","city":"昭島市","address":"東京都昭島市松原町1-3-10","lat":35.71206,"lon":139.356957},{"name":"児童センター「ぱれっと」","province":"東京都","city":"昭島市","address":"東京都昭島市つつじが丘2-3-21","lat":35.714301,"lon":139.367027},{"name":"勤労商工市民センター","province":"東京都","city":"昭島市","address":"東京都昭島市昭和町3-10-2","lat":35.707038,"lon":139.367005},{"name":"朝日町高齢者福祉センター","province":"東京都","city":"昭島市","address":"東京都昭島市朝日町4-5-9","lat":35.706258,"lon":139.37046},{"name":"松原町高齢者福祉センター","province":"東京都","city":"昭島市","address":"東京都昭島市松原町1-13-3","lat":35.714701,"lon":139.354453},{"name":"拝島町高齢者福祉センター","province":"東京都","city":"昭島市","address":"東京都昭島市拝島町3-10-4","lat":35.710487,"lon":139.335016},{"name":"青少年交流センター","province":"東京都","city":"昭島市","address":"東京都昭島市昭和町1-6-11","lat":35.711044,"lon":139.365627},{"name":"環境コミュニケーションセンター","province":"東京都","city":"昭島市","address":"東京都昭島市美堀町3-8-1","lat":35.723219,"lon":139.354547},{"name":"水道部","province":"東京都","city":"昭島市","address":"東京都昭島市朝日町4-23-28","lat":35.70873,"lon":139.370352},{"name":"アキシマエンシス（国際交流教養文化棟）","province":"東京都","city":"昭島市","address":"東京都昭島市つつじが丘3-3-15","lat":35.711714,"lon":139.36935},{"name":"アキシマエンシス（校舎棟）","province":"東京都","city":"昭島市","address":"東京都昭島市つつじが丘3-3-15","lat":35.712009,"lon":139.369303},{"name":"アキシマエンシス（体育館棟）","province":"東京都","city":"昭島市","address":"東京都昭島市つつじが丘3-3-15","lat":35.711743,"lon":139.368486},{"name":"(株)大久保  多摩古紙センター昭島","province":"東京都","city":"昭島市","address":"昭島市武蔵野2-9-33","lat":35.72261,"lon":139.376877},{"name":"三弘紙業(株)  昭島営業所","province":"東京都","city":"昭島市","address":"昭島市松原町2-3-17","lat":35.713634,"lon":139.35289},{"name":"昭島市役所","province":"東京都","city":"昭島市","address":"東京都昭島市田中町1-17-1","lat":35.705706,"lon":139.353775},{"name":"昭島市保健福祉センター（あいぽっく）","province":"東京都","city":"昭島市","address":"東京都昭島市昭和町4-7-1","lat":35.71089,"lon":139.364088},{"name":"FOSTERホール（昭島市民会館）・公民館","province":"東京都","city":"昭島市","address":"東京都昭島市つつじが丘3-7-7","lat":35.713437,"lon":139.366187},{"name":"昭島市総合スポーツセンター","province":"東京都","city":"昭島市","address":"東京都昭島市東町5-13-1","lat":35.703334,"lon":139.38432},{"name":"玉川会館（東部出張所）","province":"東京都","city":"昭島市","address":"東京都昭島市玉川町3-10-15","lat":35.703703,"lon":139.382054},{"name":"朝日会館","province":"東京都","city":"昭島市","address":"東京都昭島市朝日町5-6-20","lat":35.705061,"lon":139.372835},{"name":"大神会館","province":"東京都","city":"昭島市","address":"東京都昭島市大神町3-10-5","lat":35.700742,"lon":139.360806},{"name":"拝島会館","province":"東京都","city":"昭島市","address":"東京都昭島市拝島町2-4-13","lat":35.707257,"lon":139.341968},{"name":"福島会館","province":"東京都","city":"昭島市","address":"東京都昭島市福島町1-19-1","lat":35.696753,"lon":139.381077},{"name":"昭和会館","province":"東京都","city":"昭島市","address":"東京都昭島市松原町1-2-25","lat":35.712896,"lon":139.357669},{"name":"緑会館","province":"東京都","city":"昭島市","address":"東京都昭島市緑町4-13-26","lat":35.714276,"lon":139.344637},{"name":"堀向会館","province":"東京都","city":"昭島市","address":"東京都昭島市美堀町2-6-11","lat":35.723174,"lon":139.363703},{"name":"富士見会館","province":"東京都","city":"昭島市","address":"東京都昭島市中神町1282","lat":35.712249,"lon":139.382554},{"name":"やまのかみ会館","province":"東京都","city":"昭島市","address":"東京都昭島市拝島町3-10-3","lat":35.710898,"lon":139.335471},{"name":"武蔵野会館","province":"東京都","city":"昭島市","address":"東京都昭島市中神町1172-1","lat":35.711183,"lon":139.375667},{"name":"松原町コミュニティセンター","province":"東京都","city":"昭島市","address":"東京都昭島市松原町1-3-10","lat":35.71206,"lon":139.356957},{"name":"児童センター「ぱれっと」","province":"東京都","city":"昭島市","address":"東京都昭島市つつじが丘2-3-21","lat":35.714301,"lon":139.367027},{"name":"勤労商工市民センター","province":"東京都","city":"昭島市","address":"東京都昭島市昭和町3-10-2","lat":35.707038,"lon":139.367005},{"name":"朝日町高齢者福祉センター","province":"東京都","city":"昭島市","address":"東京都昭島市朝日町4-5-9","lat":35.706258,"lon":139.37046},{"name":"松原町高齢者福祉センター","province":"東京都","city":"昭島市","address":"東京都昭島市松原町1-13-3","lat":35.714701,"lon":139.354453},{"name":"拝島町高齢者福祉センター","province":"東京都","city":"昭島市","address":"東京都昭島市拝島町3-10-4","lat":35.710487,"lon":139.335016},{"name":"青少年交流センター","province":"東京都","city":"昭島市","address":"東京都昭島市昭和町1-6-11","lat":35.711044,"lon":139.365627},{"name":"環境コミュニケーションセンター","province":"東京都","city":"昭島市","address":"東京都昭島市美堀町3-8-1","lat":35.723219,"lon":139.354547},{"name":"水道部","province":"東京都","city":"昭島市","address":"東京都昭島市朝日町4-23-28","lat":35.70873,"lon":139.370352},{"name":"アキシマエンシス（国際交流教養文化棟）","province":"東京都","city":"昭島市","address":"東京都昭島市つつじが丘3-3-15","lat":35.711714,"lon":139.36935},{"name":"アキシマエンシス（校舎棟）","province":"東京都","city":"昭島市","address":"東京都昭島市つつじが丘3-3-15","lat":35.712009,"lon":139.369303},{"name":"アキシマエンシス（体育館棟）","province":"東京都","city":"昭島市","address":"東京都昭島市つつじが丘3-3-15","lat":35.711743,"lon":139.368486},{"name":"(株)大久保  多摩古紙センター昭島","province":"東京都","city":"昭島市","address":"昭島市武蔵野2-9-33","lat":35.72261,"lon":139.376877},{"name":"三弘紙業(株)  昭島営業所","province":"東京都","city":"昭島市","address":"昭島市松原町2-3-17","lat":35.713634,"lon":139.35289},{"name":"昭島市役所","province":"東京都","city":"昭島市","address":"東京都昭島市田中町1-17-1","lat":35.705706,"lon":139.353775},{"name":"昭島市保健福祉センター（あいぽっく）","province":"東京都","city":"昭島市","address":"東京都昭島市昭和町4-7-1","lat":35.71089,"lon":139.364088},{"name":"FOSTERホール（昭島市民会館）・公民館","province":"東京都","city":"昭島市","address":"東京都昭島市つつじが丘3-7-7","lat":35.713437,"lon":139.366187},{"name":"昭島市総合スポーツセンター","province":"東京都","city":"昭島市","address":"東京都昭島市東町5-13-1","lat":35.703334,"lon":139.38432},{"name":"玉川会館（東部出張所）","province":"東京都","city":"昭島市","address":"東京都昭島市玉川町3-10-15","lat":35.703703,"lon":139.382054},{"name":"朝日会館","province":"東京都","city":"昭島市","address":"東京都昭島市朝日町5-6-20","lat":35.705061,"lon":139.372835},{"name":"大神会館","province":"東京都","city":"昭島市","address":"東京都昭島市大神町3-10-5","lat":35.700742,"lon":139.360806},{"name":"拝島会館","province":"東京都","city":"昭島市","address":"東京都昭島市拝島町2-4-13","lat":35.707257,"lon":139.341968},{"name":"福島会館","province":"東京都","city":"昭島市","address":"東京都昭島市福島町1-19-1","lat":35.696753,"lon":139.381077},{"name":"昭和会館","province":"東京都","city":"昭島市","address":"東京都昭島市松原町1-2-25","lat":35.712896,"lon":139.357669},{"name":"緑会館","province":"東京都","city":"昭島市","address":"東京都昭島市緑町4-13-26","lat":35.714276,"lon":139.344637},{"name":"堀向会館","province":"東京都","city":"昭島市","address":"東京都昭島市美堀町2-6-11","lat":35.723174,"lon":139.363703},{"name":"富士見会館","province":"東京都","city":"昭島市","address":"東京都昭島市中神町1282","lat":35.712249,"lon":139.382554},{"name":"やまのかみ会館","province":"東京都","city":"昭島市","address":"東京都昭島市拝島町3-10-3","lat":35.710898,"lon":139.335471},{"name":"武蔵野会館","province":"東京都","city":"昭島市","address":"東京都昭島市中神町1172-1","lat":35.711183,"lon":139.375667},{"name":"松原町コミュニティセンター","province":"東京都","city":"昭島市","address":"東京都昭島市松原町1-3-10","lat":35.71206,"lon":139.356957},{"name":"児童センター「ぱれっと」","province":"東京都","city":"昭島市","address":"東京都昭島市つつじが丘2-3-21","lat":35.714301,"lon":139.367027},{"name":"勤労商工市民センター","province":"東京都","city":"昭島市","address":"東京都昭島市昭和町3-10-2","lat":35.707038,"lon":139.367005},{"name":"朝日町高齢者福祉センター","province":"東京都","city":"昭島市","address":"東京都昭島市朝日町4-5-9","lat":35.706258,"lon":139.37046},{"name":"松原町高齢者福祉センター","province":"東京都","city":"昭島市","address":"東京都昭島市松原町1-13-3","lat":35.714701,"lon":139.354453},{"name":"拝島町高齢者福祉センター","province":"東京都","city":"昭島市","address":"東京都昭島市拝島町3-10-4","lat":35.710487,"lon":139.335016},{"name":"青少年交流センター","province":"東京都","city":"昭島市","address":"東京都昭島市昭和町1-6-11","lat":35.711044,"lon":139.365627},{"name":"環境コミュニケーションセンター","province":"東京都","city":"昭島市","address":"東京都昭島市美堀町3-8-1","lat":35.723219,"lon":139.354547},{"name":"水道部","province":"東京都","city":"昭島市","address":"東京都昭島市朝日町4-23-28","lat":35.70873,"lon":139.370352},{"name":"アキシマエンシス（国際交流教養文化棟）","province":"東京都","city":"昭島市","address":"東京都昭島市つつじが丘3-3-15","lat":35.711714,"lon":139.36935},{"name":"アキシマエンシス（校舎棟）","province":"東京都","city":"昭島市","address":"東京都昭島市つつじが丘3-3-15","lat":35.712009,"lon":139.369303},{"name":"アキシマエンシス（体育館棟）","province":"東京都","city":"昭島市","address":"東京都昭島市つつじが丘3-3-15","lat":35.711743,"lon":139.368486},{"name":"(株)大久保  多摩古紙センター昭島","province":"東京都","city":"昭島市","address":"昭島市武蔵野2-9-33","lat":35.72261,"lon":139.376877},{"name":"三弘紙業(株)  昭島営業所","province":"東京都","city":"昭島市","address":"昭島市松原町2-3-17","lat":35.713634,"lon":139.35289},{"name":"昭島市役所","province":"東京都","city":"昭島市","address":"東京都昭島市田中町1-17-1","lat":35.705706,"lon":139.353775},{"name":"昭島市保健福祉センター（あいぽっく）","province":"東京都","city":"昭島市","address":"東京都昭島市昭和町4-7-1","lat":35.71089,"lon":139.364088},{"name":"FOSTERホール（昭島市民会館）・公民館","province":"東京都","city":"昭島市","address":"東京都昭島市つつじが丘3-7-7","lat":35.713437,"lon":139.366187},{"name":"昭島市総合スポーツセンター","province":"東京都","city":"昭島市","address":"東京都昭島市東町5-13-1","lat":35.703334,"lon":139.38432},{"name":"玉川会館（東部出張所）","province":"東京都","city":"昭島市","address":"東京都昭島市玉川町3-10-15","lat":35.703703,"lon":139.382054},{"name":"朝日会館","province":"東京都","city":"昭島市","address":"東京都昭島市朝日町5-6-20","lat":35.705061,"lon":139.372835},{"name":"大神会館","province":"東京都","city":"昭島市","address":"東京都昭島市大神町3-10-5","lat":35.700742,"lon":139.360806},{"name":"拝島会館","province":"東京都","city":"昭島市","address":"東京都昭島市拝島町2-4-13","lat":35.707257,"lon":139.341968},{"name":"福島会館","province":"東京都","city":"昭島市","address":"東京都昭島市福島町1-19-1","lat":35.696753,"lon":139.381077},{"name":"昭和会館","province":"東京都","city":"昭島市","address":"東京都昭島市松原町1-2-25","lat":35.712896,"lon":139.357669},{"name":"緑会館","province":"東京都","city":"昭島市","address":"東京都昭島市緑町4-13-26","lat":35.714276,"lon":139.344637},{"name":"堀向会館","province":"東京都","city":"昭島市","address":"東京都昭島市美堀町2-6-11","lat":35.723174,"lon":139.363703},{"name":"富士見会館","province":"東京都","city":"昭島市","address":"東京都昭島市中神町1282","lat":35.712249,"lon":139.382554},{"name":"やまのかみ会館","province":"東京都","city":"昭島市","address":"東京都昭島市拝島町3-10-3","lat":35.710898,"lon":139.335471},{"name":"武蔵野会館","province":"東京都","city":"昭島市","address":"東京都昭島市中神町1172-1","lat":35.711183,"lon":139.375667},{"name":"松原町コミュニティセンター","province":"東京都","city":"昭島市","address":"東京都昭島市松原町1-3-10","lat":35.71206,"lon":139.356957},{"name":"児童センター「ぱれっと」","province":"東京都","city":"昭島市","address":"東京都昭島市つつじが丘2-3-21","lat":35.714301,"lon":139.367027},{"name":"勤労商工市民センター","province":"東京都","city":"昭島市","address":"東京都昭島市昭和町3-10-2","lat":35.707038,"lon":139.367005},{"name":"朝日町高齢者福祉センター","province":"東京都","city":"昭島市","address":"東京都昭島市朝日町4-5-9","lat":35.706258,"lon":139.37046},{"name":"松原町高齢者福祉センター","province":"東京都","city":"昭島市","address":"東京都昭島市松原町1-13-3","lat":35.714701,"lon":139.354453},{"name":"拝島町高齢者福祉センター","province":"東京都","city":"昭島市","address":"東京都昭島市拝島町3-10-4","lat":35.710487,"lon":139.335016},{"name":"青少年交流センター","province":"東京都","city":"昭島市","address":"東京都昭島市昭和町1-6-11","lat":35.711044,"lon":139.365627},{"name":"環境コミュニケーションセンター","province":"東京都","city":"昭島市","address":"東京都昭島市美堀町3-8-1","lat":35.723219,"lon":139.354547},{"name":"水道部","province":"東京都","city":"昭島市","address":"東京都昭島市朝日町4-23-28","lat":35.70873,"lon":139.370352},{"name":"アキシマエンシス（国際交流教養文化棟）","province":"東京都","city":"昭島市","address":"東京都昭島市つつじが丘3-3-15","lat":35.711714,"lon":139.36935},{"name":"アキシマエンシス（校舎棟）","province":"東京都","city":"昭島市","address":"東京都昭島市つつじが丘3-3-15","lat":35.712009,"lon":139.369303},{"name":"アキシマエンシス（体育館棟）","province":"東京都","city":"昭島市","address":"東京都昭島市つつじが丘3-3-15","lat":35.711743,"lon":139.368486},{"name":"(株)大久保  多摩古紙センター昭島","province":"東京都","city":"昭島市","address":"昭島市武蔵野2-9-33","lat":35.72261,"lon":139.376877},{"name":"三弘紙業(株)  昭島営業所","province":"東京都","city":"昭島市","address":"昭島市松原町2-3-17","lat":35.713634,"lon":139.35289},{"name":"昭島市役所","province":"東京都","city":"昭島市","address":"東京都昭島市田中町1-17-1","lat":35.705706,"lon":139.353775},{"name":"昭島市保健福祉センター（あいぽっく）","province":"東京都","city":"昭島市","address":"東京都昭島市昭和町4-7-1","lat":35.71089,"lon":139.364088},{"name":"FOSTERホール（昭島市民会館）・公民館","province":"東京都","city":"昭島市","address":"東京都昭島市つつじが丘3-7-7","lat":35.713437,"lon":139.366187},{"name":"昭島市総合スポーツセンター","province":"東京都","city":"昭島市","address":"東京都昭島市東町5-13-1","lat":35.703334,"lon":139.38432},{"name":"玉川会館（東部出張所）","province":"東京都","city":"昭島市","address":"東京都昭島市玉川町3-10-15","lat":35.703703,"lon":139.382054},{"name":"朝日会館","province":"東京都","city":"昭島市","address":"東京都昭島市朝日町5-6-20","lat":35.705061,"lon":139.372835},{"name":"大神会館","province":"東京都","city":"昭島市","address":"東京都昭島市大神町3-10-5","lat":35.700742,"lon":139.360806},{"name":"拝島会館","province":"東京都","city":"昭島市","address":"東京都昭島市拝島町2-4-13","lat":35.707257,"lon":139.341968},{"name":"福島会館","province":"東京都","city":"昭島市","address":"東京都昭島市福島町1-19-1","lat":35.696753,"lon":139.381077},{"name":"昭和会館","province":"東京都","city":"昭島市","address":"東京都昭島市松原町1-2-25","lat":35.712896,"lon":139.357669},{"name":"緑会館","province":"東京都","city":"昭島市","address":"東京都昭島市緑町4-13-26","lat":35.714276,"lon":139.344637},{"name":"堀向会館","province":"東京都","city":"昭島市","address":"東京都昭島市美堀町2-6-11","lat":35.723174,"lon":139.363703},{"name":"富士見会館","province":"東京都","city":"昭島市","address":"東京都昭島市中神町1282","lat":35.712249,"lon":139.382554},{"name":"やまのかみ会館","province":"東京都","city":"昭島市","address":"東京都昭島市拝島町3-10-3","lat":35.710898,"lon":139.335471},{"name":"武蔵野会館","province":"東京都","city":"昭島市","address":"東京都昭島市中神町1172-1","lat":35.711183,"lon":139.375667},{"name":"松原町コミュニティセンター","province":"東京都","city":"昭島市","address":"東京都昭島市松原町1-3-10","lat":35.71206,"lon":139.356957},{"name":"児童センター「ぱれっと」","province":"東京都","city":"昭島市","address":"東京都昭島市つつじが丘2-3-21","lat":35.714301,"lon":139.367027},{"name":"勤労商工市民センター","province":"東京都","city":"昭島市","address":"東京都昭島市昭和町3-10-2","lat":35.707038,"lon":139.367005},{"name":"朝日町高齢者福祉センター","province":"東京都","city":"昭島市","address":"東京都昭島市朝日町4-5-9","lat":35.706258,"lon":139.37046},{"name":"松原町高齢者福祉センター","province":"東京都","city":"昭島市","address":"東京都昭島市松原町1-13-3","lat":35.714701,"lon":139.354453},{"name":"拝島町高齢者福祉センター","province":"東京都","city":"昭島市","address":"東京都昭島市拝島町3-10-4","lat":35.710487,"lon":139.335016},{"name":"青少年交流センター","province":"東京都","city":"昭島市","address":"東京都昭島市昭和町1-6-11","lat":35.711044,"lon":139.365627},{"name":"環境コミュニケーションセンター","province":"東京都","city":"昭島市","address":"東京都昭島市美堀町3-8-1","lat":35.723219,"lon":139.354547},{"name":"水道部","province":"東京都","city":"昭島市","address":"東京都昭島市朝日町4-23-28","lat":35.70873,"lon":139.370352},{"name":"アキシマエンシス（国際交流教養文化棟）","province":"東京都","city":"昭島市","address":"東京都昭島市つつじが丘3-3-15","lat":35.711714,"lon":139.36935},{"name":"アキシマエンシス（校舎棟）","province":"東京都","city":"昭島市","address":"東京都昭島市つつじが丘3-3-15","lat":35.712009,"lon":139.369303},{"name":"アキシマエンシス（体育館棟）","province":"東京都","city":"昭島市","address":"東京都昭島市つつじが丘3-3-15","lat":35.711743,"lon":139.368486},{"name":"(株)大久保  多摩古紙センター昭島","province":"東京都","city":"昭島市","address":"昭島市武蔵野2-9-33","lat":35.72261,"lon":139.376877},{"name":"三弘紙業(株)  昭島営業所","province":"東京都","city":"昭島市","address":"昭島市松原町2-3-17","lat":35.713634,"lon":139.35289},{"name":"昭島市役所","province":"東京都","city":"昭島市","address":"東京都昭島市田中町1-17-1","lat":35.705706,"lon":139.353775},{"name":"昭島市保健福祉センター（あいぽっく）","province":"東京都","city":"昭島市","address":"東京都昭島市昭和町4-7-1","lat":35.71089,"lon":139.364088},{"name":"FOSTERホール（昭島市民会館）・公民館","province":"東京都","city":"昭島市","address":"東京都昭島市つつじが丘3-7-7","lat":35.713437,"lon":139.366187},{"name":"昭島市総合スポーツセンター","province":"東京都","city":"昭島市","address":"東京都昭島市東町5-13-1","lat":35.703334,"lon":139.38432},{"name":"玉川会館（東部出張所）","province":"東京都","city":"昭島市","address":"東京都昭島市玉川町3-10-15","lat":35.703703,"lon":139.382054},{"name":"朝日会館","province":"東京都","city":"昭島市","address":"東京都昭島市朝日町5-6-20","lat":35.705061,"lon":139.372835},{"name":"大神会館","province":"東京都","city":"昭島市","address":"東京都昭島市大神町3-10-5","lat":35.700742,"lon":139.360806},{"name":"拝島会館","province":"東京都","city":"昭島市","address":"東京都昭島市拝島町2-4-13","lat":35.707257,"lon":139.341968},{"name":"福島会館","province":"東京都","city":"昭島市","address":"東京都昭島市福島町1-19-1","lat":35.696753,"lon":139.381077},{"name":"昭和会館","province":"東京都","city":"昭島市","address":"東京都昭島市松原町1-2-25","lat":35.712896,"lon":139.357669},{"name":"緑会館","province":"東京都","city":"昭島市","address":"東京都昭島市緑町4-13-26","lat":35.714276,"lon":139.344637},{"name":"堀向会館","province":"東京都","city":"昭島市","address":"東京都昭島市美堀町2-6-11","lat":35.723174,"lon":139.363703},{"name":"富士見会館","province":"東京都","city":"昭島市","address":"東京都昭島市中神町1282","lat":35.712249,"lon":139.382554},{"name":"やまのかみ会館","province":"東京都","city":"昭島市","address":"東京都昭島市拝島町3-10-3","lat":35.710898,"lon":139.335471},{"name":"武蔵野会館","province":"東京都","city":"昭島市","address":"東京都昭島市中神町1172-1","lat":35.711183,"lon":139.375667},{"name":"松原町コミュニティセンター","province":"東京都","city":"昭島市","address":"東京都昭島市松原町1-3-10","lat":35.71206,"lon":139.356957},{"name":"児童センター「ぱれっと」","province":"東京都","city":"昭島市","address":"東京都昭島市つつじが丘2-3-21","lat":35.714301,"lon":139.367027},{"name":"勤労商工市民センター","province":"東京都","city":"昭島市","address":"東京都昭島市昭和町3-10-2","lat":35.707038,"lon":139.367005},{"name":"朝日町高齢者福祉センター","province":"東京都","city":"昭島市","address":"東京都昭島市朝日町4-5-9","lat":35.706258,"lon":139.37046},{"name":"松原町高齢者福祉センター","province":"東京都","city":"昭島市","address":"東京都昭島市松原町1-13-3","lat":35.714701,"lon":139.354453},{"name":"拝島町高齢者福祉センター","province":"東京都","city":"昭島市","address":"東京都昭島市拝島町3-10-4","lat":35.710487,"lon":139.335016},{"name":"青少年交流センター","province":"東京都","city":"昭島市","address":"東京都昭島市昭和町1-6-11","lat":35.711044,"lon":139.365627},{"name":"環境コミュニケーションセンター","province":"東京都","city":"昭島市","address":"東京都昭島市美堀町3-8-1","lat":35.723219,"lon":139.354547},{"name":"水道部","province":"東京都","city":"昭島市","address":"東京都昭島市朝日町4-23-28","lat":35.70873,"lon":139.370352},{"name":"アキシマエンシス（国際交流教養文化棟）","province":"東京都","city":"昭島市","address":"東京都昭島市つつじが丘3-3-15","lat":35.711714,"lon":139.36935},{"name":"アキシマエンシス（校舎棟）","province":"東京都","city":"昭島市","address":"東京都昭島市つつじが丘3-3-15","lat":35.712009,"lon":139.369303},{"name":"アキシマエンシス（体育館棟）","province":"東京都","city":"昭島市","address":"東京都昭島市つつじが丘3-3-15","lat":35.711743,"lon":139.368486},{"name":"(株)大久保  多摩古紙センター昭島","province":"東京都","city":"昭島市","address":"昭島市武蔵野2-9-33","lat":35.72261,"lon":139.376877},{"name":"三弘紙業(株)  昭島営業所","province":"東京都","city":"昭島市","address":"昭島市松原町2-3-17","lat":35.713634,"lon":139.35289},{"name":"昭島市役所","province":"東京都","city":"昭島市","address":"東京都昭島市田中町1-17-1","lat":35.705706,"lon":139.353775},{"name":"昭島市保健福祉センター（あいぽっく）","province":"東京都","city":"昭島市","address":"東京都昭島市昭和町4-7-1","lat":35.71089,"lon":139.364088},{"name":"FOSTERホール（昭島市民会館）・公民館","province":"東京都","city":"昭島市","address":"東京都昭島市つつじが丘3-7-7","lat":35.713437,"lon":139.366187},{"name":"昭島市総合スポーツセンター","province":"東京都","city":"昭島市","address":"東京都昭島市東町5-13-1","lat":35.703334,"lon":139.38432},{"name":"玉川会館（東部出張所）","province":"東京都","city":"昭島市","address":"東京都昭島市玉川町3-10-15","lat":35.703703,"lon":139.382054},{"name":"朝日会館","province":"東京都","city":"昭島市","address":"東京都昭島市朝日町5-6-20","lat":35.705061,"lon":139.372835},{"name":"大神会館","province":"東京都","city":"昭島市","address":"東京都昭島市大神町3-10-5","lat":35.700742,"lon":139.360806},{"name":"拝島会館","province":"東京都","city":"昭島市","address":"東京都昭島市拝島町2-4-13","lat":35.707257,"lon":139.341968},{"name":"福島会館","province":"東京都","city":"昭島市","address":"東京都昭島市福島町1-19-1","lat":35.696753,"lon":139.381077},{"name":"昭和会館","province":"東京都","city":"昭島市","address":"東京都昭島市松原町1-2-25","lat":35.712896,"lon":139.357669},{"name":"緑会館","province":"東京都","city":"昭島市","address":"東京都昭島市緑町4-13-26","lat":35.714276,"lon":139.344637},{"name":"堀向会館","province":"東京都","city":"昭島市","address":"東京都昭島市美堀町2-6-11","lat":35.723174,"lon":139.363703},{"name":"富士見会館","province":"東京都","city":"昭島市","address":"東京都昭島市中神町1282","lat":35.712249,"lon":139.382554},{"name":"やまのかみ会館","province":"東京都","city":"昭島市","address":"東京都昭島市拝島町3-10-3","lat":35.710898,"lon":139.335471},{"name":"武蔵野会館","province":"東京都","city":"昭島市","address":"東京都昭島市中神町1172-1","lat":35.711183,"lon":139.375667},{"name":"松原町コミュニティセンター","province":"東京都","city":"昭島市","address":"東京都昭島市松原町1-3-10","lat":35.71206,"lon":139.356957},{"name":"児童センター「ぱれっと」","province":"東京都","city":"昭島市","address":"東京都昭島市つつじが丘2-3-21","lat":35.714301,"lon":139.367027},{"name":"勤労商工市民センター","province":"東京都","city":"昭島市","address":"東京都昭島市昭和町3-10-2","lat":35.707038,"lon":139.367005},{"name":"朝日町高齢者福祉センター","province":"東京都","city":"昭島市","address":"東京都昭島市朝日町4-5-9","lat":35.706258,"lon":139.37046},{"name":"松原町高齢者福祉センター","province":"東京都","city":"昭島市","address":"東京都昭島市松原町1-13-3","lat":35.714701,"lon":139.354453},{"name":"拝島町高齢者福祉センター","province":"東京都","city":"昭島市","address":"東京都昭島市拝島町3-10-4","lat":35.710487,"lon":139.335016},{"name":"青少年交流センター","province":"東京都","city":"昭島市","address":"東京都昭島市昭和町1-6-11","lat":35.711044,"lon":139.365627},{"name":"環境コミュニケーションセンター","province":"東京都","city":"昭島市","address":"東京都昭島市美堀町3-8-1","lat":35.723219,"lon":139.354547},{"name":"水道部","province":"東京都","city":"昭島市","address":"東京都昭島市朝日町4-23-28","lat":35.70873,"lon":139.370352},{"name":"アキシマエンシス（国際交流教養文化棟）","province":"東京都","city":"昭島市","address":"東京都昭島市つつじが丘3-3-15","lat":35.711714,"lon":139.36935},{"name":"アキシマエンシス（校舎棟）","province":"東京都","city":"昭島市","address":"東京都昭島市つつじが丘3-3-15","lat":35.712009,"lon":139.369303},{"name":"アキシマエンシス（体育館棟）","province":"東京都","city":"昭島市","address":"東京都昭島市つつじが丘3-3-15","lat":35.711743,"lon":139.368486},{"name":"(株)大久保  多摩古紙センター昭島","province":"東京都","city":"昭島市","address":"昭島市武蔵野2-9-33","lat":35.72261,"lon":139.376877},{"name":"三弘紙業(株)  昭島営業所","province":"東京都","city":"昭島市","address":"昭島市松原町2-3-17","lat":35.713634,"lon":139.35289},{"name":"昭島市役所","province":"東京都","city":"昭島市","address":"東京都昭島市田中町1-17-1","lat":35.705706,"lon":139.353775},{"name":"昭島市保健福祉センター（あいぽっく）","province":"東京都","city":"昭島市","address":"東京都昭島市昭和町4-7-1","lat":35.71089,"lon":139.364088},{"name":"FOSTERホール（昭島市民会館）・公民館","province":"東京都","city":"昭島市","address":"東京都昭島市つつじが丘3-7-7","lat":35.713437,"lon":139.366187},{"name":"昭島市総合スポーツセンター","province":"東京都","city":"昭島市","address":"東京都昭島市東町5-13-1","lat":35.703334,"lon":139.38432},{"name":"玉川会館（東部出張所）","province":"東京都","city":"昭島市","address":"東京都昭島市玉川町3-10-15","lat":35.703703,"lon":139.382054},{"name":"朝日会館","province":"東京都","city":"昭島市","address":"東京都昭島市朝日町5-6-20","lat":35.705061,"lon":139.372835},{"name":"大神会館","province":"東京都","city":"昭島市","address":"東京都昭島市大神町3-10-5","lat":35.700742,"lon":139.360806},{"name":"拝島会館","province":"東京都","city":"昭島市","address":"東京都昭島市拝島町2-4-13","lat":35.707257,"lon":139.341968},{"name":"福島会館","province":"東京都","city":"昭島市","address":"東京都昭島市福島町1-19-1","lat":35.696753,"lon":139.381077},{"name":"昭和会館","province":"東京都","city":"昭島市","address":"東京都昭島市松原町1-2-25","lat":35.712896,"lon":139.357669},{"name":"緑会館","province":"東京都","city":"昭島市","address":"東京都昭島市緑町4-13-26","lat":35.714276,"lon":139.344637},{"name":"堀向会館","province":"東京都","city":"昭島市","address":"東京都昭島市美堀町2-6-11","lat":35.723174,"lon":139.363703},{"name":"富士見会館","province":"東京都","city":"昭島市","address":"東京都昭島市中神町1282","lat":35.712249,"lon":139.382554},{"name":"やまのかみ会館","province":"東京都","city":"昭島市","address":"東京都昭島市拝島町3-10-3","lat":35.710898,"lon":139.335471},{"name":"武蔵野会館","province":"東京都","city":"昭島市","address":"東京都昭島市中神町1172-1","lat":35.711183,"lon":139.375667},{"name":"松原町コミュニティセンター","province":"東京都","city":"昭島市","address":"東京都昭島市松原町1-3-10","lat":35.71206,"lon":139.356957},{"name":"児童センター「ぱれっと」","province":"東京都","city":"昭島市","address":"東京都昭島市つつじが丘2-3-21","lat":35.714301,"lon":139.367027},{"name":"勤労商工市民センター","province":"東京都","city":"昭島市","address":"東京都昭島市昭和町3-10-2","lat":35.707038,"lon":139.367005},{"name":"朝日町高齢者福祉センター","province":"東京都","city":"昭島市","address":"東京都昭島市朝日町4-5-9","lat":35.706258,"lon":139.37046},{"name":"松原町高齢者福祉センター","province":"東京都","city":"昭島市","address":"東京都昭島市松原町1-13-3","lat":35.714701,"lon":139.354453},{"name":"拝島町高齢者福祉センター","province":"東京都","city":"昭島市","address":"東京都昭島市拝島町3-10-4","lat":35.710487,"lon":139.335016},{"name":"青少年交流センター","province":"東京都","city":"昭島市","address":"東京都昭島市昭和町1-6-11","lat":35.711044,"lon":139.365627},{"name":"環境コミュニケーションセンター","province":"東京都","city":"昭島市","address":"東京都昭島市美堀町3-8-1","lat":35.723219,"lon":139.354547},{"name":"水道部","province":"東京都","city":"昭島市","address":"東京都昭島市朝日町4-23-28","lat":35.70873,"lon":139.370352},{"name":"アキシマエンシス（国際交流教養文化棟）","province":"東京都","city":"昭島市","address":"東京都昭島市つつじが丘3-3-15","lat":35.711714,"lon":139.36935},{"name":"アキシマエンシス（校舎棟）","province":"東京都","city":"昭島市","address":"東京都昭島市つつじが丘3-3-15","lat":35.712009,"lon":139.369303},{"name":"アキシマエンシス（体育館棟）","province":"東京都","city":"昭島市","address":"東京都昭島市つつじが丘3-3-15","lat":35.711743,"lon":139.368486},{"name":"(株)大久保  多摩古紙センター昭島","province":"東京都","city":"昭島市","address":"昭島市武蔵野2-9-33","lat":35.72261,"lon":139.376877},{"name":"三弘紙業(株)  昭島営業所","province":"東京都","city":"昭島市","address":"昭島市松原町2-3-17","lat":35.713634,"lon":139.35289},{"name":"昭島市役所","province":"東京都","city":"昭島市","address":"東京都昭島市田中町1-17-1","lat":35.705706,"lon":139.353775},{"name":"昭島市保健福祉センター（あいぽっく）","province":"東京都","city":"昭島市","address":"東京都昭島市昭和町4-7-1","lat":35.71089,"lon":139.364088},{"name":"FOSTERホール（昭島市民会館）・公民館","province":"東京都","city":"昭島市","address":"東京都昭島市つつじが丘3-7-7","lat":35.713437,"lon":139.366187},{"name":"昭島市総合スポーツセンター","province":"東京都","city":"昭島市","address":"東京都昭島市東町5-13-1","lat":35.703334,"lon":139.38432},{"name":"玉川会館（東部出張所）","province":"東京都","city":"昭島市","address":"東京都昭島市玉川町3-10-15","lat":35.703703,"lon":139.382054},{"name":"朝日会館","province":"東京都","city":"昭島市","address":"東京都昭島市朝日町5-6-20","lat":35.705061,"lon":139.372835},{"name":"大神会館","province":"東京都","city":"昭島市","address":"東京都昭島市大神町3-10-5","lat":35.700742,"lon":139.360806},{"name":"拝島会館","province":"東京都","city":"昭島市","address":"東京都昭島市拝島町2-4-13","lat":35.707257,"lon":139.341968},{"name":"福島会館","province":"東京都","city":"昭島市","address":"東京都昭島市福島町1-19-1","lat":35.696753,"lon":139.381077},{"name":"昭和会館","province":"東京都","city":"昭島市","address":"東京都昭島市松原町1-2-25","lat":35.712896,"lon":139.357669},{"name":"緑会館","province":"東京都","city":"昭島市","address":"東京都昭島市緑町4-13-26","lat":35.714276,"lon":139.344637},{"name":"堀向会館","province":"東京都","city":"昭島市","address":"東京都昭島市美堀町2-6-11","lat":35.723174,"lon":139.363703},{"name":"富士見会館","province":"東京都","city":"昭島市","address":"東京都昭島市中神町1282","lat":35.712249,"lon":139.382554},{"name":"やまのかみ会館","province":"東京都","city":"昭島市","address":"東京都昭島市拝島町3-10-3","lat":35.710898,"lon":139.335471},{"name":"武蔵野会館","province":"東京都","city":"昭島市","address":"東京都昭島市中神町1172-1","lat":35.711183,"lon":139.375667},{"name":"松原町コミュニティセンター","province":"東京都","city":"昭島市","address":"東京都昭島市松原町1-3-10","lat":35.71206,"lon":139.356957},{"name":"児童センター「ぱれっと」","province":"東京都","city":"昭島市","address":"東京都昭島市つつじが丘2-3-21","lat":35.714301,"lon":139.367027},{"name":"勤労商工市民センター","province":"東京都","city":"昭島市","address":"東京都昭島市昭和町3-10-2","lat":35.707038,"lon":139.367005},{"name":"朝日町高齢者福祉センター","province":"東京都","city":"昭島市","address":"東京都昭島市朝日町4-5-9","lat":35.706258,"lon":139.37046},{"name":"松原町高齢者福祉センター","province":"東京都","city":"昭島市","address":"東京都昭島市松原町1-13-3","lat":35.714701,"lon":139.354453},{"name":"拝島町高齢者福祉センター","province":"東京都","city":"昭島市","address":"東京都昭島市拝島町3-10-4","lat":35.710487,"lon":139.335016},{"name":"青少年交流センター","province":"東京都","city":"昭島市","address":"東京都昭島市昭和町1-6-11","lat":35.711044,"lon":139.365627},{"name":"環境コミュニケーションセンター","province":"東京都","city":"昭島市","address":"東京都昭島市美堀町3-8-1","lat":35.723219,"lon":139.354547},{"name":"水道部","province":"東京都","city":"昭島市","address":"東京都昭島市朝日町4-23-28","lat":35.70873,"lon":139.370352},{"name":"アキシマエンシス（国際交流教養文化棟）","province":"東京都","city":"昭島市","address":"東京都昭島市つつじが丘3-3-15","lat":35.711714,"lon":139.36935},{"name":"アキシマエンシス（校舎棟）","province":"東京都","city":"昭島市","address":"東京都昭島市つつじが丘3-3-15","lat":35.712009,"lon":139.369303},{"name":"アキシマエンシス（体育館棟）","province":"東京都","city":"昭島市","address":"東京都昭島市つつじが丘3-3-15","lat":35.711743,"lon":139.368486},{"name":"(株)大久保  多摩古紙センター昭島","province":"東京都","city":"昭島市","address":"昭島市武蔵野2-9-33","lat":35.72261,"lon":139.376877},{"name":"三弘紙業(株)  昭島営業所","province":"東京都","city":"昭島市","address":"昭島市松原町2-3-17","lat":35.713634,"lon":139.35289}]}