{"keyword":"保育","data":[{"name":"よつぎ第四保育園","province":"東京都","city":"昭島市","address":"昭島市美堀町5-17-2","lat":35.720692,"lon":139.347484},{"name":"Ｎｉｃｏｔ拝島","province":"東京都","city":"昭島市","address":"昭島市美堀町5-21-1","lat":35.7188,"lon":139.345707},{"name":"拝島保育園","province":"東京都","city":"昭島市","address":"昭島市拝島町2-4-26","lat":35.707751,"lon":139.342227},{"name":"昭栄保育園","province":"東京都","city":"昭島市","address":"昭島市拝島町3-17-11","lat":35.713545,"lon":139.334819},{"name":"ゆりかご保育園","province":"東京都","city":"昭島市","address":"昭島市松原町2-9-2","lat":35.715481,"lon":139.351198},{"name":"松原保育園","province":"東京都","city":"昭島市","address":"昭島市松原町4-11-3","lat":35.719125,"lon":139.344382},{"name":"のぞみ保育園","province":"東京都","city":"昭島市","address":"昭島市松原町5-7-17","lat":35.717878,"lon":139.341662},{"name":"同援はいじま保育園","province":"東京都","city":"昭島市","address":"昭島市松原町5-2-25","lat":35.721083,"lon":139.341818},{"name":"なしのき保育園","province":"東京都","city":"昭島市","address":"昭島市上川原町1-23-1","lat":35.706149,"lon":139.361083},{"name":"あきみ保育園","province":"東京都","city":"昭島市","address":"昭島市上川原町1-10-18","lat":35.710102,"lon":139.361939},{"name":"つつじが丘保育園","province":"東京都","city":"昭島市","address":"昭島市つつじが丘3-6-23","lat":35.712274,"lon":139.366502},{"name":"昭島ゆりかご第二保育園","province":"東京都","city":"昭島市","address":"昭島市田中町3-5-20","lat":35.701891,"lon":139.350779},{"name":"上ノ原保育園","province":"東京都","city":"昭島市","address":"昭島市昭和町3-14-3","lat":35.708144,"lon":139.367158},{"name":"昭和郷保育園","province":"東京都","city":"昭島市","address":"昭島市中神町1260","lat":35.709385,"lon":139.382215},{"name":"昭和郷第二保育園","province":"東京都","city":"昭島市","address":"昭島市中神町1260","lat":35.709385,"lon":139.382215},{"name":"むさしの保育園","province":"東京都","city":"昭島市","address":"昭島市中神町1294-4","lat":35.713657,"lon":139.380523},{"name":"昭和保育園","province":"東京都","city":"昭島市","address":"昭島市宮沢町2-28-18","lat":35.700989,"lon":139.365536},{"name":"中神保育園","province":"東京都","city":"昭島市","address":"昭島市朝日町5-4-17","lat":35.70373,"lon":139.372935},{"name":"福島保育園","province":"東京都","city":"昭島市","address":"昭島市福島町1-18-8","lat":35.697192,"lon":139.381462},{"name":"多摩保育園","province":"東京都","city":"昭島市","address":"昭島市東町5-1-40","lat":35.702714,"lon":139.3886},{"name":"昭島ナオミ保育園","province":"東京都","city":"昭島市","address":"昭島市玉川町1-10-4","lat":35.705344,"lon":139.383209},{"name":"わかくさ保育園","province":"東京都","city":"昭島市","address":"昭島市玉川町5-15-26","lat":35.701886,"lon":139.374799}]}