{"keyword":"収蔵","data":[{"name":"西部配水場","province":"東京都","city":"昭島市","address":"東京都昭島市緑町2-17-16","lat":35.712165,"lon":139.347832},{"name":"東部配水場","province":"東京都","city":"昭島市","address":"東京都昭島市朝日町4-23","lat":35.708692,"lon":139.369836},{"name":"東部配水場","province":"東京都","city":"昭島市","address":"東京都昭島市朝日町4丁目23-28","lat":35.70855468,"lon":139.37011036},{"name":"昭島市立大神公園・市立多摩川緑地くじら運動公園","province":"東京都","city":"昭島市","address":"東京都昭島市宮沢町3丁目17","lat":35.69509229,"lon":139.36457787},{"name":"昭和の森ゴルフコース（アウトコース７番）","province":"東京都","city":"昭島市","address":"東京都昭島市つつじが丘1丁目1-7","lat":35.72342513,"lon":139.3692435},{"name":"＊?昭島市公民館","province":"東京都","city":"昭島市","address":"昭島市つつじが丘3-7-7","lat":35.713459,"lon":139.366171},{"name":"立川酸素（株）","province":"東京都","city":"昭島市","address":"昭島市福島町2-28-20","lat":35.69772,"lon":139.3792},{"name":"西部配水場","province":"東京都","city":"昭島市","address":"東京都昭島市緑町2-17-16","lat":35.712165,"lon":139.347832},{"name":"東部配水場","province":"東京都","city":"昭島市","address":"東京都昭島市朝日町4-23","lat":35.708692,"lon":139.369836},{"name":"東部配水場","province":"東京都","city":"昭島市","address":"東京都昭島市朝日町4丁目23-28","lat":35.70855468,"lon":139.37011036},{"name":"昭島市立大神公園・市立多摩川緑地くじら運動公園","province":"東京都","city":"昭島市","address":"東京都昭島市宮沢町3丁目17","lat":35.69509229,"lon":139.36457787},{"name":"昭和の森ゴルフコース（アウトコース７番）","province":"東京都","city":"昭島市","address":"東京都昭島市つつじが丘1丁目1-7","lat":35.72342513,"lon":139.3692435},{"name":"＊?昭島市公民館","province":"東京都","city":"昭島市","address":"昭島市つつじが丘3-7-7","lat":35.713459,"lon":139.366171},{"name":"立川酸素（株）","province":"東京都","city":"昭島市","address":"昭島市福島町2-28-20","lat":35.69772,"lon":139.3792},{"name":"西部配水場","province":"東京都","city":"昭島市","address":"東京都昭島市緑町2-17-16","lat":35.712165,"lon":139.347832},{"name":"東部配水場","province":"東京都","city":"昭島市","address":"東京都昭島市朝日町4-23","lat":35.708692,"lon":139.369836},{"name":"東部配水場","province":"東京都","city":"昭島市","address":"東京都昭島市朝日町4丁目23-28","lat":35.70855468,"lon":139.37011036},{"name":"昭島市立大神公園・市立多摩川緑地くじら運動公園","province":"東京都","city":"昭島市","address":"東京都昭島市宮沢町3丁目17","lat":35.69509229,"lon":139.36457787},{"name":"昭和の森ゴルフコース（アウトコース７番）","province":"東京都","city":"昭島市","address":"東京都昭島市つつじが丘1丁目1-7","lat":35.72342513,"lon":139.3692435},{"name":"＊?昭島市公民館","province":"東京都","city":"昭島市","address":"昭島市つつじが丘3-7-7","lat":35.713459,"lon":139.366171},{"name":"立川酸素（株）","province":"東京都","city":"昭島市","address":"昭島市福島町2-28-20","lat":35.69772,"lon":139.3792},{"name":"西部配水場","province":"東京都","city":"昭島市","address":"東京都昭島市緑町2-17-16","lat":35.712165,"lon":139.347832},{"name":"東部配水場","province":"東京都","city":"昭島市","address":"東京都昭島市朝日町4-23","lat":35.708692,"lon":139.369836},{"name":"昭島市立大神公園・市立多摩川緑地くじら運動公園","province":"東京都","city":"昭島市","address":"東京都昭島市宮沢町3丁目17","lat":35.69509229,"lon":139.36457787},{"name":"昭和の森ゴルフコース（アウトコース７番）","province":"東京都","city":"昭島市","address":"東京都昭島市つつじが丘1丁目1-7","lat":35.72342513,"lon":139.3692435},{"name":"＊?昭島市公民館","province":"東京都","city":"昭島市","address":"昭島市つつじが丘3-7-7","lat":35.713459,"lon":139.366171},{"name":"立川酸素（株）","province":"東京都","city":"昭島市","address":"昭島市福島町2-28-20","lat":35.69772,"lon":139.3792},{"name":"西部配水場","province":"東京都","city":"昭島市","address":"東京都昭島市緑町2-17-16","lat":35.712165,"lon":139.347832},{"name":"東部配水場","province":"東京都","city":"昭島市","address":"東京都昭島市朝日町4-23","lat":35.708692,"lon":139.369836},{"name":"＊?昭島市公民館","province":"東京都","city":"昭島市","address":"昭島市つつじが丘3-7-7","lat":35.713459,"lon":139.366171},{"name":"立川酸素（株）","province":"東京都","city":"昭島市","address":"昭島市福島町2-28-20","lat":35.69772,"lon":139.3792},{"name":"西部配水場","province":"東京都","city":"昭島市","address":"東京都昭島市緑町2-17-16","lat":35.712165,"lon":139.347832},{"name":"東部配水場","province":"東京都","city":"昭島市","address":"東京都昭島市朝日町4-23","lat":35.708692,"lon":139.369836},{"name":"＊?昭島市公民館","province":"東京都","city":"昭島市","address":"昭島市つつじが丘3-7-7","lat":35.713459,"lon":139.366171},{"name":"立川酸素（株）","province":"東京都","city":"昭島市","address":"昭島市福島町2-28-20","lat":35.69772,"lon":139.3792},{"name":"西部配水場","province":"東京都","city":"昭島市","address":"東京都昭島市緑町2-17-16","lat":35.712165,"lon":139.347832},{"name":"東部配水場","province":"東京都","city":"昭島市","address":"東京都昭島市朝日町4-23","lat":35.708692,"lon":139.369836},{"name":"＊?昭島市公民館","province":"東京都","city":"昭島市","address":"昭島市つつじが丘3-7-7","lat":35.713459,"lon":139.366171},{"name":"立川酸素（株）","province":"東京都","city":"昭島市","address":"昭島市福島町2-28-20","lat":35.69772,"lon":139.3792},{"name":"西部配水場","province":"東京都","city":"昭島市","address":"東京都昭島市緑町2-17-16","lat":35.712165,"lon":139.347832},{"name":"東部配水場","province":"東京都","city":"昭島市","address":"東京都昭島市朝日町4-23","lat":35.708692,"lon":139.369836},{"name":"＊?昭島市公民館","province":"東京都","city":"昭島市","address":"昭島市つつじが丘3-7-7","lat":35.713459,"lon":139.366171},{"name":"立川酸素（株）","province":"東京都","city":"昭島市","address":"昭島市福島町2-28-20","lat":35.69772,"lon":139.3792},{"name":"西部配水場","province":"東京都","city":"昭島市","address":"東京都昭島市緑町2-17-16","lat":35.712165,"lon":139.347832},{"name":"東部配水場","province":"東京都","city":"昭島市","address":"東京都昭島市朝日町4-23","lat":35.708692,"lon":139.369836},{"name":"＊?昭島市公民館","province":"東京都","city":"昭島市","address":"昭島市つつじが丘3-7-7","lat":35.713459,"lon":139.366171},{"name":"立川酸素（株）","province":"東京都","city":"昭島市","address":"昭島市福島町2-28-20","lat":35.69772,"lon":139.3792},{"name":"西部配水場","province":"東京都","city":"昭島市","address":"東京都昭島市緑町2-17-16","lat":35.712165,"lon":139.347832},{"name":"東部配水場","province":"東京都","city":"昭島市","address":"東京都昭島市朝日町4-23","lat":35.708692,"lon":139.369836},{"name":"＊?昭島市公民館","province":"東京都","city":"昭島市","address":"昭島市つつじが丘3-7-7","lat":35.713459,"lon":139.366171},{"name":"立川酸素（株）","province":"東京都","city":"昭島市","address":"昭島市福島町2-28-20","lat":35.69772,"lon":139.3792},{"name":"西部配水場","province":"東京都","city":"昭島市","address":"東京都昭島市緑町2-17-16","lat":35.712165,"lon":139.347832},{"name":"東部配水場","province":"東京都","city":"昭島市","address":"東京都昭島市朝日町4-23","lat":35.708692,"lon":139.369836},{"name":"＊?昭島市公民館","province":"東京都","city":"昭島市","address":"昭島市つつじが丘3-7-7","lat":35.713459,"lon":139.366171},{"name":"立川酸素（株）","province":"東京都","city":"昭島市","address":"昭島市福島町2-28-20","lat":35.69772,"lon":139.3792},{"name":"西部配水場","province":"東京都","city":"昭島市","address":"東京都昭島市緑町2-17-16","lat":35.712165,"lon":139.347832},{"name":"東部配水場","province":"東京都","city":"昭島市","address":"東京都昭島市朝日町4-23","lat":35.708692,"lon":139.369836},{"name":"＊?昭島市公民館","province":"東京都","city":"昭島市","address":"昭島市つつじが丘3-7-7","lat":35.713459,"lon":139.366171},{"name":"立川酸素（株）","province":"東京都","city":"昭島市","address":"昭島市福島町2-28-20","lat":35.69772,"lon":139.3792},{"name":"西部配水場","province":"東京都","city":"昭島市","address":"東京都昭島市緑町2-17-16","lat":35.712165,"lon":139.347832},{"name":"東部配水場","province":"東京都","city":"昭島市","address":"東京都昭島市朝日町4-23","lat":35.708692,"lon":139.369836},{"name":"＊?昭島市公民館","province":"東京都","city":"昭島市","address":"昭島市つつじが丘3-7-7","lat":35.713459,"lon":139.366171},{"name":"立川酸素（株）","province":"東京都","city":"昭島市","address":"昭島市福島町2-28-20","lat":35.69772,"lon":139.3792},{"name":"西部配水場","province":"東京都","city":"昭島市","address":"東京都昭島市緑町2-17-16","lat":35.712165,"lon":139.347832},{"name":"東部配水場","province":"東京都","city":"昭島市","address":"東京都昭島市朝日町4-23","lat":35.708692,"lon":139.369836},{"name":"＊?昭島市公民館","province":"東京都","city":"昭島市","address":"昭島市つつじが丘3-7-7","lat":35.713459,"lon":139.366171},{"name":"立川酸素（株）","province":"東京都","city":"昭島市","address":"昭島市福島町2-28-20","lat":35.69772,"lon":139.3792},{"name":"西部配水場","province":"東京都","city":"昭島市","address":"東京都昭島市緑町2-17-16","lat":35.712165,"lon":139.347832},{"name":"東部配水場","province":"東京都","city":"昭島市","address":"東京都昭島市朝日町4-23","lat":35.708692,"lon":139.369836},{"name":"＊?昭島市公民館","province":"東京都","city":"昭島市","address":"昭島市つつじが丘3-7-7","lat":35.713459,"lon":139.366171},{"name":"立川酸素（株）","province":"東京都","city":"昭島市","address":"昭島市福島町2-28-20","lat":35.69772,"lon":139.3792},{"name":"西部配水場","province":"東京都","city":"昭島市","address":"東京都昭島市緑町2-17-16","lat":35.712165,"lon":139.347832},{"name":"東部配水場","province":"東京都","city":"昭島市","address":"東京都昭島市朝日町4-23","lat":35.708692,"lon":139.369836},{"name":"＊?昭島市公民館","province":"東京都","city":"昭島市","address":"昭島市つつじが丘3-7-7","lat":35.713459,"lon":139.366171},{"name":"立川酸素（株）","province":"東京都","city":"昭島市","address":"昭島市福島町2-28-20","lat":35.69772,"lon":139.3792},{"name":"西部配水場","province":"東京都","city":"昭島市","address":"東京都昭島市緑町2-17-16","lat":35.712165,"lon":139.347832},{"name":"東部配水場","province":"東京都","city":"昭島市","address":"東京都昭島市朝日町4-23","lat":35.708692,"lon":139.369836},{"name":"＊?昭島市公民館","province":"東京都","city":"昭島市","address":"昭島市つつじが丘3-7-7","lat":35.713459,"lon":139.366171},{"name":"立川酸素（株）","province":"東京都","city":"昭島市","address":"昭島市福島町2-28-20","lat":35.69772,"lon":139.3792},{"name":"西部配水場","province":"東京都","city":"昭島市","address":"東京都昭島市緑町2-17-16","lat":35.712165,"lon":139.347832},{"name":"東部配水場","province":"東京都","city":"昭島市","address":"東京都昭島市朝日町4-23","lat":35.708692,"lon":139.369836},{"name":"＊?昭島市公民館","province":"東京都","city":"昭島市","address":"昭島市つつじが丘3-7-7","lat":35.713459,"lon":139.366171},{"name":"立川酸素（株）","province":"東京都","city":"昭島市","address":"昭島市福島町2-28-20","lat":35.69772,"lon":139.3792},{"name":"西部配水場","province":"東京都","city":"昭島市","address":"東京都昭島市緑町2-17-16","lat":35.712165,"lon":139.347832},{"name":"東部配水場","province":"東京都","city":"昭島市","address":"東京都昭島市朝日町4-23","lat":35.708692,"lon":139.369836},{"name":"＊?昭島市公民館","province":"東京都","city":"昭島市","address":"昭島市つつじが丘3-7-7","lat":35.713459,"lon":139.366171},{"name":"立川酸素（株）","province":"東京都","city":"昭島市","address":"昭島市福島町2-28-20","lat":35.69772,"lon":139.3792},{"name":"西部配水場","province":"東京都","city":"昭島市","address":"東京都昭島市緑町2-17-16","lat":35.712165,"lon":139.347832},{"name":"東部配水場","province":"東京都","city":"昭島市","address":"東京都昭島市朝日町4-23","lat":35.708692,"lon":139.369836},{"name":"＊?昭島市公民館","province":"東京都","city":"昭島市","address":"昭島市つつじが丘3-7-7","lat":35.713459,"lon":139.366171},{"name":"立川酸素（株）","province":"東京都","city":"昭島市","address":"昭島市福島町2-28-20","lat":35.69772,"lon":139.3792},{"name":"西部配水場","province":"東京都","city":"昭島市","address":"東京都昭島市緑町2-17-16","lat":35.712165,"lon":139.347832},{"name":"東部配水場","province":"東京都","city":"昭島市","address":"東京都昭島市朝日町4-23","lat":35.708692,"lon":139.369836},{"name":"＊?昭島市公民館","province":"東京都","city":"昭島市","address":"昭島市つつじが丘3-7-7","lat":35.713459,"lon":139.366171},{"name":"立川酸素（株）","province":"東京都","city":"昭島市","address":"昭島市福島町2-28-20","lat":35.69772,"lon":139.3792},{"name":"西部配水場","province":"東京都","city":"昭島市","address":"東京都昭島市緑町2-17-16","lat":35.712165,"lon":139.347832},{"name":"東部配水場","province":"東京都","city":"昭島市","address":"東京都昭島市朝日町4-23","lat":35.708692,"lon":139.369836},{"name":"＊?昭島市公民館","province":"東京都","city":"昭島市","address":"昭島市つつじが丘3-7-7","lat":35.713459,"lon":139.366171},{"name":"立川酸素（株）","province":"東京都","city":"昭島市","address":"昭島市福島町2-28-20","lat":35.69772,"lon":139.3792},{"name":"西部配水場","province":"東京都","city":"昭島市","address":"東京都昭島市緑町2-17-16","lat":35.712165,"lon":139.347832},{"name":"東部配水場","province":"東京都","city":"昭島市","address":"東京都昭島市朝日町4-23","lat":35.708692,"lon":139.369836},{"name":"＊?昭島市公民館","province":"東京都","city":"昭島市","address":"昭島市つつじが丘3-7-7","lat":35.713459,"lon":139.366171},{"name":"立川酸素（株）","province":"東京都","city":"昭島市","address":"昭島市福島町2-28-20","lat":35.69772,"lon":139.3792},{"name":"西部配水場","province":"東京都","city":"昭島市","address":"東京都昭島市緑町2-17-16","lat":35.712165,"lon":139.347832},{"name":"東部配水場","province":"東京都","city":"昭島市","address":"東京都昭島市朝日町4-23","lat":35.708692,"lon":139.369836},{"name":"＊?昭島市公民館","province":"東京都","city":"昭島市","address":"昭島市つつじが丘3-7-7","lat":35.713459,"lon":139.366171},{"name":"立川酸素（株）","province":"東京都","city":"昭島市","address":"昭島市福島町2-28-20","lat":35.69772,"lon":139.3792},{"name":"西部配水場","province":"東京都","city":"昭島市","address":"東京都昭島市緑町2-17-16","lat":35.712165,"lon":139.347832},{"name":"東部配水場","province":"東京都","city":"昭島市","address":"東京都昭島市朝日町4-23","lat":35.708692,"lon":139.369836},{"name":"＊?昭島市公民館","province":"東京都","city":"昭島市","address":"昭島市つつじが丘3-7-7","lat":35.713459,"lon":139.366171},{"name":"立川酸素（株）","province":"東京都","city":"昭島市","address":"昭島市福島町2-28-20","lat":35.69772,"lon":139.3792},{"name":"西部配水場","province":"東京都","city":"昭島市","address":"東京都昭島市緑町2-17-16","lat":35.712165,"lon":139.347832},{"name":"東部配水場","province":"東京都","city":"昭島市","address":"東京都昭島市朝日町4-23","lat":35.708692,"lon":139.369836},{"name":"＊?昭島市公民館","province":"東京都","city":"昭島市","address":"昭島市つつじが丘3-7-7","lat":35.713459,"lon":139.366171},{"name":"立川酸素（株）","province":"東京都","city":"昭島市","address":"昭島市福島町2-28-20","lat":35.69772,"lon":139.3792},{"name":"西部配水場","province":"東京都","city":"昭島市","address":"東京都昭島市緑町2-17-16","lat":35.712165,"lon":139.347832},{"name":"東部配水場","province":"東京都","city":"昭島市","address":"東京都昭島市朝日町4-23","lat":35.708692,"lon":139.369836},{"name":"＊?昭島市公民館","province":"東京都","city":"昭島市","address":"昭島市つつじが丘3-7-7","lat":35.713459,"lon":139.366171},{"name":"立川酸素（株）","province":"東京都","city":"昭島市","address":"昭島市福島町2-28-20","lat":35.69772,"lon":139.3792},{"name":"西部配水場","province":"東京都","city":"昭島市","address":"東京都昭島市緑町2-17-16","lat":35.712165,"lon":139.347832},{"name":"東部配水場","province":"東京都","city":"昭島市","address":"東京都昭島市朝日町4-23","lat":35.708692,"lon":139.369836},{"name":"＊?昭島市公民館","province":"東京都","city":"昭島市","address":"昭島市つつじが丘3-7-7","lat":35.713459,"lon":139.366171},{"name":"立川酸素（株）","province":"東京都","city":"昭島市","address":"昭島市福島町2-28-20","lat":35.69772,"lon":139.3792},{"name":"西部配水場","province":"東京都","city":"昭島市","address":"東京都昭島市緑町2-17-16","lat":35.712165,"lon":139.347832},{"name":"東部配水場","province":"東京都","city":"昭島市","address":"東京都昭島市朝日町4-23","lat":35.708692,"lon":139.369836},{"name":"＊?昭島市公民館","province":"東京都","city":"昭島市","address":"昭島市つつじが丘3-7-7","lat":35.713459,"lon":139.366171},{"name":"立川酸素（株）","province":"東京都","city":"昭島市","address":"昭島市福島町2-28-20","lat":35.69772,"lon":139.3792},{"name":"西部配水場","province":"東京都","city":"昭島市","address":"東京都昭島市緑町2-17-16","lat":35.712165,"lon":139.347832},{"name":"東部配水場","province":"東京都","city":"昭島市","address":"東京都昭島市朝日町4-23","lat":35.708692,"lon":139.369836},{"name":"＊?昭島市公民館","province":"東京都","city":"昭島市","address":"昭島市つつじが丘3-7-7","lat":35.713459,"lon":139.366171},{"name":"立川酸素（株）","province":"東京都","city":"昭島市","address":"昭島市福島町2-28-20","lat":35.69772,"lon":139.3792},{"name":"西部配水場","province":"東京都","city":"昭島市","address":"東京都昭島市緑町2-17-16","lat":35.712165,"lon":139.347832},{"name":"東部配水場","province":"東京都","city":"昭島市","address":"東京都昭島市朝日町4-23","lat":35.708692,"lon":139.369836},{"name":"＊?昭島市公民館","province":"東京都","city":"昭島市","address":"昭島市つつじが丘3-7-7","lat":35.713459,"lon":139.366171},{"name":"立川酸素（株）","province":"東京都","city":"昭島市","address":"昭島市福島町2-28-20","lat":35.69772,"lon":139.3792},{"name":"西部配水場","province":"東京都","city":"昭島市","address":"東京都昭島市緑町2-17-16","lat":35.712165,"lon":139.347832},{"name":"東部配水場","province":"東京都","city":"昭島市","address":"東京都昭島市朝日町4-23","lat":35.708692,"lon":139.369836},{"name":"＊?昭島市公民館","province":"東京都","city":"昭島市","address":"昭島市つつじが丘3-7-7","lat":35.713459,"lon":139.366171},{"name":"立川酸素（株）","province":"東京都","city":"昭島市","address":"昭島市福島町2-28-20","lat":35.69772,"lon":139.3792},{"name":"西部配水場","province":"東京都","city":"昭島市","address":"東京都昭島市緑町2-17-16","lat":35.712165,"lon":139.347832},{"name":"東部配水場","province":"東京都","city":"昭島市","address":"東京都昭島市朝日町4-23","lat":35.708692,"lon":139.369836},{"name":"＊?昭島市公民館","province":"東京都","city":"昭島市","address":"昭島市つつじが丘3-7-7","lat":35.713459,"lon":139.366171},{"name":"西部配水場","province":"東京都","city":"昭島市","address":"東京都昭島市緑町2-17-16","lat":35.712165,"lon":139.347832},{"name":"東部配水場","province":"東京都","city":"昭島市","address":"東京都昭島市朝日町4-23","lat":35.708692,"lon":139.369836},{"name":"＊?昭島市公民館","province":"東京都","city":"昭島市","address":"昭島市つつじが丘3-7-7","lat":35.713459,"lon":139.366171},{"name":"西部配水場","province":"東京都","city":"昭島市","address":"東京都昭島市緑町2-17-16","lat":35.712165,"lon":139.347832},{"name":"東部配水場","province":"東京都","city":"昭島市","address":"東京都昭島市朝日町4-23","lat":35.708692,"lon":139.369836},{"name":"＊?昭島市公民館","province":"東京都","city":"昭島市","address":"昭島市つつじが丘3-7-7","lat":35.713459,"lon":139.366171},{"name":"西部配水場","province":"東京都","city":"昭島市","address":"東京都昭島市緑町2-17-16","lat":35.712165,"lon":139.347832},{"name":"東部配水場","province":"東京都","city":"昭島市","address":"東京都昭島市朝日町4-23","lat":35.708692,"lon":139.369836},{"name":"＊?昭島市公民館","province":"東京都","city":"昭島市","address":"昭島市つつじが丘3-7-7","lat":35.713459,"lon":139.366171},{"name":"西部配水場","province":"東京都","city":"昭島市","address":"東京都昭島市緑町2-17-16","lat":35.712165,"lon":139.347832},{"name":"東部配水場","province":"東京都","city":"昭島市","address":"東京都昭島市朝日町4-23","lat":35.708692,"lon":139.369836},{"name":"＊?昭島市公民館","province":"東京都","city":"昭島市","address":"昭島市つつじが丘3-7-7","lat":35.713459,"lon":139.366171},{"name":"西部配水場","province":"東京都","city":"昭島市","address":"東京都昭島市緑町2-17-16","lat":35.712165,"lon":139.347832},{"name":"東部配水場","province":"東京都","city":"昭島市","address":"東京都昭島市朝日町4-23","lat":35.708692,"lon":139.369836},{"name":"＊?昭島市公民館","province":"東京都","city":"昭島市","address":"昭島市つつじが丘3-7-7","lat":35.713459,"lon":139.366171},{"name":"西部配水場","province":"東京都","city":"昭島市","address":"東京都昭島市緑町2-17-16","lat":35.712165,"lon":139.347832},{"name":"東部配水場","province":"東京都","city":"昭島市","address":"東京都昭島市朝日町4-23","lat":35.708692,"lon":139.369836},{"name":"＊?昭島市公民館","province":"東京都","city":"昭島市","address":"昭島市つつじが丘3-7-7","lat":35.713459,"lon":139.366171},{"name":"西部配水場","province":"東京都","city":"昭島市","address":"東京都昭島市緑町2-17-16","lat":35.712165,"lon":139.347832},{"name":"東部配水場","province":"東京都","city":"昭島市","address":"東京都昭島市朝日町4-23","lat":35.708692,"lon":139.369836},{"name":"＊?昭島市公民館","province":"東京都","city":"昭島市","address":"昭島市つつじが丘3-7-7","lat":35.713459,"lon":139.366171},{"name":"西部配水場","province":"東京都","city":"昭島市","address":"東京都昭島市緑町2-17-16","lat":35.712165,"lon":139.347832},{"name":"東部配水場","province":"東京都","city":"昭島市","address":"東京都昭島市朝日町4-23","lat":35.708692,"lon":139.369836},{"name":"＊?昭島市公民館","province":"東京都","city":"昭島市","address":"昭島市つつじが丘3-7-7","lat":35.713459,"lon":139.366171},{"name":"西部配水場","province":"東京都","city":"昭島市","address":"東京都昭島市緑町2-17-16","lat":35.712165,"lon":139.347832},{"name":"東部配水場","province":"東京都","city":"昭島市","address":"東京都昭島市朝日町4-23","lat":35.708692,"lon":139.369836},{"name":"＊?昭島市公民館","province":"東京都","city":"昭島市","address":"昭島市つつじが丘3-7-7","lat":35.713459,"lon":139.366171},{"name":"西部配水場","province":"東京都","city":"昭島市","address":"東京都昭島市緑町2-17-16","lat":35.712165,"lon":139.347832},{"name":"東部配水場","province":"東京都","city":"昭島市","address":"東京都昭島市朝日町4-23","lat":35.708692,"lon":139.369836},{"name":"＊?昭島市公民館","province":"東京都","city":"昭島市","address":"昭島市つつじが丘3-7-7","lat":35.713459,"lon":139.366171},{"name":"西部配水場","province":"東京都","city":"昭島市","address":"東京都昭島市緑町2-17-16","lat":35.712165,"lon":139.347832},{"name":"東部配水場","province":"東京都","city":"昭島市","address":"東京都昭島市朝日町4-23","lat":35.708692,"lon":139.369836},{"name":"＊?昭島市公民館","province":"東京都","city":"昭島市","address":"昭島市つつじが丘3-7-7","lat":35.713459,"lon":139.366171},{"name":"西部配水場","province":"東京都","city":"昭島市","address":"東京都昭島市緑町2-17-16","lat":35.712165,"lon":139.347832},{"name":"東部配水場","province":"東京都","city":"昭島市","address":"東京都昭島市朝日町4-23","lat":35.708692,"lon":139.369836},{"name":"＊?昭島市公民館","province":"東京都","city":"昭島市","address":"昭島市つつじが丘3-7-7","lat":35.713459,"lon":139.366171}]}