{"keyword":"戸数","data":[{"name":"昭島市役所","province":"東京都","city":"昭島市","address":"東京都昭島市田中町1-17-1","lat":35.705706,"lon":139.353775},{"name":"昭島市保健福祉センター（あいぽっく）","province":"東京都","city":"昭島市","address":"東京都昭島市昭和町4-7-1","lat":35.71089,"lon":139.364088},{"name":"FOSTERホール（昭島市民会館）・公民館","province":"東京都","city":"昭島市","address":"東京都昭島市つつじが丘3-7-7","lat":35.713437,"lon":139.366187},{"name":"昭島市総合スポーツセンター","province":"東京都","city":"昭島市","address":"東京都昭島市東町5-13-1","lat":35.703334,"lon":139.38432},{"name":"玉川会館（東部出張所）","province":"東京都","city":"昭島市","address":"東京都昭島市玉川町3-10-15","lat":35.703703,"lon":139.382054},{"name":"朝日会館","province":"東京都","city":"昭島市","address":"東京都昭島市朝日町5-6-20","lat":35.705061,"lon":139.372835},{"name":"大神会館","province":"東京都","city":"昭島市","address":"東京都昭島市大神町3-10-5","lat":35.700742,"lon":139.360806},{"name":"拝島会館","province":"東京都","city":"昭島市","address":"東京都昭島市拝島町2-4-13","lat":35.707257,"lon":139.341968},{"name":"福島会館","province":"東京都","city":"昭島市","address":"東京都昭島市福島町1-19-1","lat":35.696753,"lon":139.381077},{"name":"昭和会館","province":"東京都","city":"昭島市","address":"東京都昭島市松原町1-2-25","lat":35.712896,"lon":139.357669},{"name":"緑会館","province":"東京都","city":"昭島市","address":"東京都昭島市緑町4-13-26","lat":35.714276,"lon":139.344637},{"name":"堀向会館","province":"東京都","city":"昭島市","address":"東京都昭島市美堀町2-6-11","lat":35.723174,"lon":139.363703},{"name":"富士見会館","province":"東京都","city":"昭島市","address":"東京都昭島市中神町1282","lat":35.712249,"lon":139.382554},{"name":"やまのかみ会館","province":"東京都","city":"昭島市","address":"東京都昭島市拝島町3-10-3","lat":35.710898,"lon":139.335471},{"name":"武蔵野会館","province":"東京都","city":"昭島市","address":"東京都昭島市中神町1172-1","lat":35.711183,"lon":139.375667},{"name":"松原町コミュニティセンター","province":"東京都","city":"昭島市","address":"東京都昭島市松原町1-3-10","lat":35.71206,"lon":139.356957},{"name":"児童センター「ぱれっと」","province":"東京都","city":"昭島市","address":"東京都昭島市つつじが丘2-3-21","lat":35.714301,"lon":139.367027},{"name":"勤労商工市民センター","province":"東京都","city":"昭島市","address":"東京都昭島市昭和町3-10-2","lat":35.707038,"lon":139.367005},{"name":"朝日町高齢者福祉センター","province":"東京都","city":"昭島市","address":"東京都昭島市朝日町4-5-9","lat":35.706258,"lon":139.37046},{"name":"松原町高齢者福祉センター","province":"東京都","city":"昭島市","address":"東京都昭島市松原町1-13-3","lat":35.714701,"lon":139.354453},{"name":"拝島町高齢者福祉センター","province":"東京都","city":"昭島市","address":"東京都昭島市拝島町3-10-4","lat":35.710487,"lon":139.335016},{"name":"青少年交流センター","province":"東京都","city":"昭島市","address":"東京都昭島市昭和町1-6-11","lat":35.711044,"lon":139.365627},{"name":"環境コミュニケーションセンター","province":"東京都","city":"昭島市","address":"東京都昭島市美堀町3-8-1","lat":35.723219,"lon":139.354547},{"name":"水道部","province":"東京都","city":"昭島市","address":"東京都昭島市朝日町4-23-28","lat":35.70873,"lon":139.370352},{"name":"アキシマエンシス（国際交流教養文化棟）","province":"東京都","city":"昭島市","address":"東京都昭島市つつじが丘3-3-15","lat":35.711714,"lon":139.36935},{"name":"アキシマエンシス（校舎棟）","province":"東京都","city":"昭島市","address":"東京都昭島市つつじが丘3-3-15","lat":35.712009,"lon":139.369303},{"name":"アキシマエンシス（体育館棟）","province":"東京都","city":"昭島市","address":"東京都昭島市つつじが丘3-3-15","lat":35.711743,"lon":139.368486},{"name":"昭島市社会福祉協議会","province":"東京都","city":"昭島市","address":"昭島市昭和町4-7-1保健福祉センター2階","lat":35.710835,"lon":139.364125},{"name":"昭島市","province":"東京都","city":"昭島市","address":"昭島市田中町1-17-1","lat":35.7057553,"lon":139.3536094},{"name":"JA全農東京JA東京葬祭センター（源想園昭島葬儀会館）","province":"東京都","city":"昭島市","address":"東京都昭島市中神町3丁目1-1","lat":35.6966812,"lon":139.37542966},{"name":"株式会社セレモア（ガーデン会館昭島）","province":"東京都","city":"昭島市","address":"東京都昭島市玉川町2丁目4-12","lat":35.70655788,"lon":139.37958173},{"name":"株式会社ドリーミー","province":"東京都","city":"昭島市","address":"東京都昭島市田中町1丁目27-15","lat":35.7054492,"lon":139.35437846},{"name":"株式会社あさひセレモニー","province":"東京都","city":"昭島市","address":"東京都昭島市玉川町4丁目1-10","lat":35.70555248,"lon":139.38102051},{"name":"株式会社東京サービスセンター（セレモニーホール昭島）","province":"東京都","city":"昭島市","address":"東京都昭島市宮沢町1丁目7-2","lat":35.70616044,"lon":139.36649129},{"name":"株式会社村尾組（そうしんホール昭島）","province":"東京都","city":"昭島市","address":"東京都昭島市武蔵野3丁目5-1","lat":35.71971183,"lon":139.37585683},{"name":"株式会社結セレモニー（くじら葬祭）","province":"東京都","city":"昭島市","address":"東京都昭島市福島町3丁目23-28","lat":35.69637846,"lon":139.37589906},{"name":"そうしんホール昭島","province":"東京都","city":"昭島市","address":"東京都昭島市武蔵野3丁目5-1","lat":35.71971183,"lon":139.37585683},{"name":"株式会社おぼうさんどっとこむ","province":"東京都","city":"昭島市","address":"東京都昭島市中神町1135-47","lat":35.71175989,"lon":139.37259061},{"name":"JA東京葬祭センター","province":"東京都","city":"昭島市","address":"東京都昭島市中神町3丁目1-1","lat":35.6966812,"lon":139.37542966},{"name":"（株）おぼうさんどっとこむ","province":"東京都","city":"昭島市","address":"東京都昭島市中神町1135-47","lat":35.71175989,"lon":139.37259061},{"name":"昭島市社会福祉協議会","province":"東京都","city":"昭島市","address":"昭島市昭和町4-7-1昭島市保健福祉センター2階","lat":35.71101,"lon":139.36354},{"name":"介護福祉課","province":"東京都","city":"昭島市","address":"昭島市田中町1-17-1","lat":35.705971,"lon":139.354507},{"name":"東部地域包括支援センター竹口病院","province":"東京都","city":"昭島市","address":"昭島市玉川町2-4-8-103","lat":35.707176,"lon":139.378174},{"name":"西部地域包括支援センター愛全園","province":"東京都","city":"昭島市","address":"昭島市拝島町3-10-4","lat":35.710747,"lon":139.334442},{"name":"中部地域包括支援センターあいぽっく","province":"東京都","city":"昭島市","address":"昭島市昭和町4-7-1保健福祉センター2F","lat":35.711014,"lon":139.363541},{"name":"南部地域包括支援センター愛全園","province":"東京都","city":"昭島市","address":"昭島市田中町2-25-3","lat":35.704052,"lon":139.351166},{"name":"北部地域包括支援センターハピネス昭和の森","province":"東京都","city":"昭島市","address":"昭島市拝島町4036-14","lat":35.695915,"lon":139.339401},{"name":"昭島市消費生活相談室","province":"東京都","city":"昭島市","address":"昭島市田中町1-17-1","lat":35.705971,"lon":139.354507},{"name":"東部配水場","province":"東京都","city":"昭島市","address":"東京都昭島市朝日町4丁目23-28","lat":35.70855468,"lon":139.37011036},{"name":"昭島市立大神公園・市立多摩川緑地くじら運動公園","province":"東京都","city":"昭島市","address":"東京都昭島市宮沢町3丁目17","lat":35.69509229,"lon":139.36457787},{"name":"昭和の森ゴルフコース（アウトコース７番）","province":"東京都","city":"昭島市","address":"東京都昭島市つつじが丘1丁目1-7","lat":35.72342513,"lon":139.3692435},{"name":"昭島市選挙管理委員会","province":"東京都","city":"昭島市","address":"昭島市田中町1-17-1","lat":35.705811,"lon":139.353574},{"name":"多摩職業能力開発センター","province":"東京都","city":"昭島市","address":"東京都昭島市東町3丁目6-33","lat":35.69974508,"lon":139.39149757},{"name":"産業技術研究センター多摩テクノプラザ","province":"東京都","city":"昭島市","address":"東京都昭島市東町3丁目6-1","lat":35.69976454,"lon":139.39225862},{"name":"昭和高等学校","province":"東京都","city":"昭島市","address":"東京都昭島市東町2丁目3-21","lat":35.70384171,"lon":139.38706448},{"name":"拝島高等学校","province":"東京都","city":"昭島市","address":"東京都昭島市拝島町4丁目13-1","lat":35.70386031,"lon":139.34331551},{"name":"立川酸素（株）","province":"東京都","city":"昭島市","address":"昭島市福島町2-28-20","lat":35.69772,"lon":139.3792},{"name":"昭島市役所","province":"東京都","city":"昭島市","address":"東京都昭島市田中町1-17-1","lat":35.705706,"lon":139.353775},{"name":"昭島市保健福祉センター（あいぽっく）","province":"東京都","city":"昭島市","address":"東京都昭島市昭和町4-7-1","lat":35.71089,"lon":139.364088},{"name":"FOSTERホール（昭島市民会館）・公民館","province":"東京都","city":"昭島市","address":"東京都昭島市つつじが丘3-7-7","lat":35.713437,"lon":139.366187},{"name":"昭島市総合スポーツセンター","province":"東京都","city":"昭島市","address":"東京都昭島市東町5-13-1","lat":35.703334,"lon":139.38432},{"name":"玉川会館（東部出張所）","province":"東京都","city":"昭島市","address":"東京都昭島市玉川町3-10-15","lat":35.703703,"lon":139.382054},{"name":"朝日会館","province":"東京都","city":"昭島市","address":"東京都昭島市朝日町5-6-20","lat":35.705061,"lon":139.372835},{"name":"大神会館","province":"東京都","city":"昭島市","address":"東京都昭島市大神町3-10-5","lat":35.700742,"lon":139.360806},{"name":"拝島会館","province":"東京都","city":"昭島市","address":"東京都昭島市拝島町2-4-13","lat":35.707257,"lon":139.341968},{"name":"福島会館","province":"東京都","city":"昭島市","address":"東京都昭島市福島町1-19-1","lat":35.696753,"lon":139.381077},{"name":"昭和会館","province":"東京都","city":"昭島市","address":"東京都昭島市松原町1-2-25","lat":35.712896,"lon":139.357669},{"name":"緑会館","province":"東京都","city":"昭島市","address":"東京都昭島市緑町4-13-26","lat":35.714276,"lon":139.344637},{"name":"堀向会館","province":"東京都","city":"昭島市","address":"東京都昭島市美堀町2-6-11","lat":35.723174,"lon":139.363703},{"name":"富士見会館","province":"東京都","city":"昭島市","address":"東京都昭島市中神町1282","lat":35.712249,"lon":139.382554},{"name":"やまのかみ会館","province":"東京都","city":"昭島市","address":"東京都昭島市拝島町3-10-3","lat":35.710898,"lon":139.335471},{"name":"武蔵野会館","province":"東京都","city":"昭島市","address":"東京都昭島市中神町1172-1","lat":35.711183,"lon":139.375667},{"name":"松原町コミュニティセンター","province":"東京都","city":"昭島市","address":"東京都昭島市松原町1-3-10","lat":35.71206,"lon":139.356957},{"name":"児童センター「ぱれっと」","province":"東京都","city":"昭島市","address":"東京都昭島市つつじが丘2-3-21","lat":35.714301,"lon":139.367027},{"name":"勤労商工市民センター","province":"東京都","city":"昭島市","address":"東京都昭島市昭和町3-10-2","lat":35.707038,"lon":139.367005},{"name":"朝日町高齢者福祉センター","province":"東京都","city":"昭島市","address":"東京都昭島市朝日町4-5-9","lat":35.706258,"lon":139.37046},{"name":"松原町高齢者福祉センター","province":"東京都","city":"昭島市","address":"東京都昭島市松原町1-13-3","lat":35.714701,"lon":139.354453},{"name":"拝島町高齢者福祉センター","province":"東京都","city":"昭島市","address":"東京都昭島市拝島町3-10-4","lat":35.710487,"lon":139.335016},{"name":"青少年交流センター","province":"東京都","city":"昭島市","address":"東京都昭島市昭和町1-6-11","lat":35.711044,"lon":139.365627},{"name":"環境コミュニケーションセンター","province":"東京都","city":"昭島市","address":"東京都昭島市美堀町3-8-1","lat":35.723219,"lon":139.354547},{"name":"水道部","province":"東京都","city":"昭島市","address":"東京都昭島市朝日町4-23-28","lat":35.70873,"lon":139.370352},{"name":"アキシマエンシス（国際交流教養文化棟）","province":"東京都","city":"昭島市","address":"東京都昭島市つつじが丘3-3-15","lat":35.711714,"lon":139.36935},{"name":"アキシマエンシス（校舎棟）","province":"東京都","city":"昭島市","address":"東京都昭島市つつじが丘3-3-15","lat":35.712009,"lon":139.369303},{"name":"アキシマエンシス（体育館棟）","province":"東京都","city":"昭島市","address":"東京都昭島市つつじが丘3-3-15","lat":35.711743,"lon":139.368486},{"name":"昭島市社会福祉協議会","province":"東京都","city":"昭島市","address":"昭島市昭和町4-7-1保健福祉センター2階","lat":35.710835,"lon":139.364125},{"name":"昭島市社会福祉協議会","province":"東京都","city":"昭島市","address":"昭島市昭和町4-7-1昭島市保健福祉センター2階","lat":35.71101,"lon":139.36354},{"name":"介護福祉課","province":"東京都","city":"昭島市","address":"昭島市田中町1-17-1","lat":35.705971,"lon":139.354507},{"name":"東部地域包括支援センター竹口病院","province":"東京都","city":"昭島市","address":"昭島市玉川町2-4-8-103","lat":35.707176,"lon":139.378174},{"name":"西部地域包括支援センター愛全園","province":"東京都","city":"昭島市","address":"昭島市拝島町3-10-4","lat":35.710747,"lon":139.334442},{"name":"中部地域包括支援センターあいぽっく","province":"東京都","city":"昭島市","address":"昭島市昭和町4-7-1保健福祉センター2F","lat":35.711014,"lon":139.363541},{"name":"南部地域包括支援センター愛全園","province":"東京都","city":"昭島市","address":"昭島市田中町2-25-3","lat":35.704052,"lon":139.351166},{"name":"北部地域包括支援センターハピネス昭和の森","province":"東京都","city":"昭島市","address":"昭島市拝島町4036-14","lat":35.695915,"lon":139.339401},{"name":"昭島市消費生活相談室","province":"東京都","city":"昭島市","address":"昭島市田中町1-17-1","lat":35.705971,"lon":139.354507},{"name":"東部配水場","province":"東京都","city":"昭島市","address":"東京都昭島市朝日町4丁目23-28","lat":35.70855468,"lon":139.37011036},{"name":"昭島市立大神公園・市立多摩川緑地くじら運動公園","province":"東京都","city":"昭島市","address":"東京都昭島市宮沢町3丁目17","lat":35.69509229,"lon":139.36457787},{"name":"昭和の森ゴルフコース（アウトコース７番）","province":"東京都","city":"昭島市","address":"東京都昭島市つつじが丘1丁目1-7","lat":35.72342513,"lon":139.3692435},{"name":"多摩職業能力開発センター","province":"東京都","city":"昭島市","address":"東京都昭島市東町3丁目6-33","lat":35.69974508,"lon":139.39149757},{"name":"産業技術研究センター多摩テクノプラザ","province":"東京都","city":"昭島市","address":"東京都昭島市東町3丁目6-1","lat":35.69976454,"lon":139.39225862},{"name":"昭和高等学校","province":"東京都","city":"昭島市","address":"東京都昭島市東町2丁目3-21","lat":35.70384171,"lon":139.38706448},{"name":"拝島高等学校","province":"東京都","city":"昭島市","address":"東京都昭島市拝島町4丁目13-1","lat":35.70386031,"lon":139.34331551},{"name":"立川酸素（株）","province":"東京都","city":"昭島市","address":"昭島市福島町2-28-20","lat":35.69772,"lon":139.3792},{"name":"昭島市役所","province":"東京都","city":"昭島市","address":"東京都昭島市田中町1-17-1","lat":35.705706,"lon":139.353775},{"name":"昭島市保健福祉センター（あいぽっく）","province":"東京都","city":"昭島市","address":"東京都昭島市昭和町4-7-1","lat":35.71089,"lon":139.364088},{"name":"FOSTERホール（昭島市民会館）・公民館","province":"東京都","city":"昭島市","address":"東京都昭島市つつじが丘3-7-7","lat":35.713437,"lon":139.366187},{"name":"昭島市総合スポーツセンター","province":"東京都","city":"昭島市","address":"東京都昭島市東町5-13-1","lat":35.703334,"lon":139.38432},{"name":"玉川会館（東部出張所）","province":"東京都","city":"昭島市","address":"東京都昭島市玉川町3-10-15","lat":35.703703,"lon":139.382054},{"name":"朝日会館","province":"東京都","city":"昭島市","address":"東京都昭島市朝日町5-6-20","lat":35.705061,"lon":139.372835},{"name":"大神会館","province":"東京都","city":"昭島市","address":"東京都昭島市大神町3-10-5","lat":35.700742,"lon":139.360806},{"name":"拝島会館","province":"東京都","city":"昭島市","address":"東京都昭島市拝島町2-4-13","lat":35.707257,"lon":139.341968},{"name":"福島会館","province":"東京都","city":"昭島市","address":"東京都昭島市福島町1-19-1","lat":35.696753,"lon":139.381077},{"name":"昭和会館","province":"東京都","city":"昭島市","address":"東京都昭島市松原町1-2-25","lat":35.712896,"lon":139.357669},{"name":"緑会館","province":"東京都","city":"昭島市","address":"東京都昭島市緑町4-13-26","lat":35.714276,"lon":139.344637},{"name":"堀向会館","province":"東京都","city":"昭島市","address":"東京都昭島市美堀町2-6-11","lat":35.723174,"lon":139.363703},{"name":"富士見会館","province":"東京都","city":"昭島市","address":"東京都昭島市中神町1282","lat":35.712249,"lon":139.382554},{"name":"やまのかみ会館","province":"東京都","city":"昭島市","address":"東京都昭島市拝島町3-10-3","lat":35.710898,"lon":139.335471},{"name":"武蔵野会館","province":"東京都","city":"昭島市","address":"東京都昭島市中神町1172-1","lat":35.711183,"lon":139.375667},{"name":"松原町コミュニティセンター","province":"東京都","city":"昭島市","address":"東京都昭島市松原町1-3-10","lat":35.71206,"lon":139.356957},{"name":"児童センター「ぱれっと」","province":"東京都","city":"昭島市","address":"東京都昭島市つつじが丘2-3-21","lat":35.714301,"lon":139.367027},{"name":"勤労商工市民センター","province":"東京都","city":"昭島市","address":"東京都昭島市昭和町3-10-2","lat":35.707038,"lon":139.367005},{"name":"朝日町高齢者福祉センター","province":"東京都","city":"昭島市","address":"東京都昭島市朝日町4-5-9","lat":35.706258,"lon":139.37046},{"name":"松原町高齢者福祉センター","province":"東京都","city":"昭島市","address":"東京都昭島市松原町1-13-3","lat":35.714701,"lon":139.354453},{"name":"拝島町高齢者福祉センター","province":"東京都","city":"昭島市","address":"東京都昭島市拝島町3-10-4","lat":35.710487,"lon":139.335016},{"name":"青少年交流センター","province":"東京都","city":"昭島市","address":"東京都昭島市昭和町1-6-11","lat":35.711044,"lon":139.365627},{"name":"環境コミュニケーションセンター","province":"東京都","city":"昭島市","address":"東京都昭島市美堀町3-8-1","lat":35.723219,"lon":139.354547},{"name":"水道部","province":"東京都","city":"昭島市","address":"東京都昭島市朝日町4-23-28","lat":35.70873,"lon":139.370352},{"name":"アキシマエンシス（国際交流教養文化棟）","province":"東京都","city":"昭島市","address":"東京都昭島市つつじが丘3-3-15","lat":35.711714,"lon":139.36935},{"name":"アキシマエンシス（校舎棟）","province":"東京都","city":"昭島市","address":"東京都昭島市つつじが丘3-3-15","lat":35.712009,"lon":139.369303},{"name":"アキシマエンシス（体育館棟）","province":"東京都","city":"昭島市","address":"東京都昭島市つつじが丘3-3-15","lat":35.711743,"lon":139.368486},{"name":"介護福祉課","province":"東京都","city":"昭島市","address":"昭島市田中町1-17-1","lat":35.705971,"lon":139.354507},{"name":"東部地域包括支援センター竹口病院","province":"東京都","city":"昭島市","address":"昭島市玉川町2-4-8-103","lat":35.707176,"lon":139.378174},{"name":"西部地域包括支援センター愛全園","province":"東京都","city":"昭島市","address":"昭島市拝島町3-10-4","lat":35.710747,"lon":139.334442},{"name":"中部地域包括支援センターあいぽっく","province":"東京都","city":"昭島市","address":"昭島市昭和町4-7-1保健福祉センター2F","lat":35.711014,"lon":139.363541},{"name":"南部地域包括支援センター愛全園","province":"東京都","city":"昭島市","address":"昭島市田中町2-25-3","lat":35.704052,"lon":139.351166},{"name":"北部地域包括支援センターハピネス昭和の森","province":"東京都","city":"昭島市","address":"昭島市拝島町4036-14","lat":35.695915,"lon":139.339401},{"name":"昭島市消費生活相談室","province":"東京都","city":"昭島市","address":"昭島市田中町1-17-1","lat":35.705971,"lon":139.354507},{"name":"多摩職業能力開発センター","province":"東京都","city":"昭島市","address":"東京都昭島市東町3丁目6-33","lat":35.69974508,"lon":139.39149757},{"name":"産業技術研究センター多摩テクノプラザ","province":"東京都","city":"昭島市","address":"東京都昭島市東町3丁目6-1","lat":35.69976454,"lon":139.39225862},{"name":"昭和高等学校","province":"東京都","city":"昭島市","address":"東京都昭島市東町2丁目3-21","lat":35.70384171,"lon":139.38706448},{"name":"拝島高等学校","province":"東京都","city":"昭島市","address":"東京都昭島市拝島町4丁目13-1","lat":35.70386031,"lon":139.34331551},{"name":"昭島市役所","province":"東京都","city":"昭島市","address":"東京都昭島市田中町1-17-1","lat":35.705706,"lon":139.353775},{"name":"昭島市保健福祉センター（あいぽっく）","province":"東京都","city":"昭島市","address":"東京都昭島市昭和町4-7-1","lat":35.71089,"lon":139.364088},{"name":"FOSTERホール（昭島市民会館）・公民館","province":"東京都","city":"昭島市","address":"東京都昭島市つつじが丘3-7-7","lat":35.713437,"lon":139.366187},{"name":"昭島市総合スポーツセンター","province":"東京都","city":"昭島市","address":"東京都昭島市東町5-13-1","lat":35.703334,"lon":139.38432},{"name":"玉川会館（東部出張所）","province":"東京都","city":"昭島市","address":"東京都昭島市玉川町3-10-15","lat":35.703703,"lon":139.382054},{"name":"朝日会館","province":"東京都","city":"昭島市","address":"東京都昭島市朝日町5-6-20","lat":35.705061,"lon":139.372835},{"name":"大神会館","province":"東京都","city":"昭島市","address":"東京都昭島市大神町3-10-5","lat":35.700742,"lon":139.360806},{"name":"拝島会館","province":"東京都","city":"昭島市","address":"東京都昭島市拝島町2-4-13","lat":35.707257,"lon":139.341968},{"name":"福島会館","province":"東京都","city":"昭島市","address":"東京都昭島市福島町1-19-1","lat":35.696753,"lon":139.381077},{"name":"昭和会館","province":"東京都","city":"昭島市","address":"東京都昭島市松原町1-2-25","lat":35.712896,"lon":139.357669},{"name":"緑会館","province":"東京都","city":"昭島市","address":"東京都昭島市緑町4-13-26","lat":35.714276,"lon":139.344637},{"name":"堀向会館","province":"東京都","city":"昭島市","address":"東京都昭島市美堀町2-6-11","lat":35.723174,"lon":139.363703},{"name":"富士見会館","province":"東京都","city":"昭島市","address":"東京都昭島市中神町1282","lat":35.712249,"lon":139.382554},{"name":"やまのかみ会館","province":"東京都","city":"昭島市","address":"東京都昭島市拝島町3-10-3","lat":35.710898,"lon":139.335471},{"name":"武蔵野会館","province":"東京都","city":"昭島市","address":"東京都昭島市中神町1172-1","lat":35.711183,"lon":139.375667},{"name":"松原町コミュニティセンター","province":"東京都","city":"昭島市","address":"東京都昭島市松原町1-3-10","lat":35.71206,"lon":139.356957},{"name":"児童センター「ぱれっと」","province":"東京都","city":"昭島市","address":"東京都昭島市つつじが丘2-3-21","lat":35.714301,"lon":139.367027},{"name":"勤労商工市民センター","province":"東京都","city":"昭島市","address":"東京都昭島市昭和町3-10-2","lat":35.707038,"lon":139.367005},{"name":"朝日町高齢者福祉センター","province":"東京都","city":"昭島市","address":"東京都昭島市朝日町4-5-9","lat":35.706258,"lon":139.37046},{"name":"松原町高齢者福祉センター","province":"東京都","city":"昭島市","address":"東京都昭島市松原町1-13-3","lat":35.714701,"lon":139.354453},{"name":"拝島町高齢者福祉センター","province":"東京都","city":"昭島市","address":"東京都昭島市拝島町3-10-4","lat":35.710487,"lon":139.335016},{"name":"青少年交流センター","province":"東京都","city":"昭島市","address":"東京都昭島市昭和町1-6-11","lat":35.711044,"lon":139.365627},{"name":"環境コミュニケーションセンター","province":"東京都","city":"昭島市","address":"東京都昭島市美堀町3-8-1","lat":35.723219,"lon":139.354547},{"name":"水道部","province":"東京都","city":"昭島市","address":"東京都昭島市朝日町4-23-28","lat":35.70873,"lon":139.370352},{"name":"アキシマエンシス（国際交流教養文化棟）","province":"東京都","city":"昭島市","address":"東京都昭島市つつじが丘3-3-15","lat":35.711714,"lon":139.36935},{"name":"アキシマエンシス（校舎棟）","province":"東京都","city":"昭島市","address":"東京都昭島市つつじが丘3-3-15","lat":35.712009,"lon":139.369303},{"name":"アキシマエンシス（体育館棟）","province":"東京都","city":"昭島市","address":"東京都昭島市つつじが丘3-3-15","lat":35.711743,"lon":139.368486},{"name":"介護福祉課","province":"東京都","city":"昭島市","address":"昭島市田中町1-17-1","lat":35.705971,"lon":139.354507},{"name":"東部地域包括支援センター竹口病院","province":"東京都","city":"昭島市","address":"昭島市玉川町2-4-8-103","lat":35.707176,"lon":139.378174},{"name":"西部地域包括支援センター愛全園","province":"東京都","city":"昭島市","address":"昭島市拝島町3-10-4","lat":35.710747,"lon":139.334442},{"name":"中部地域包括支援センターあいぽっく","province":"東京都","city":"昭島市","address":"昭島市昭和町4-7-1保健福祉センター2F","lat":35.711014,"lon":139.363541},{"name":"南部地域包括支援センター愛全園","province":"東京都","city":"昭島市","address":"昭島市田中町2-25-3","lat":35.704052,"lon":139.351166},{"name":"北部地域包括支援センターハピネス昭和の森","province":"東京都","city":"昭島市","address":"昭島市拝島町4036-14","lat":35.695915,"lon":139.339401},{"name":"昭島市消費生活相談室","province":"東京都","city":"昭島市","address":"昭島市田中町1-17-1","lat":35.705971,"lon":139.354507},{"name":"多摩職業能力開発センター","province":"東京都","city":"昭島市","address":"東京都昭島市東町3丁目6-33","lat":35.69974508,"lon":139.39149757},{"name":"産業技術研究センター多摩テクノプラザ","province":"東京都","city":"昭島市","address":"東京都昭島市東町3丁目6-1","lat":35.69976454,"lon":139.39225862},{"name":"昭和高等学校","province":"東京都","city":"昭島市","address":"東京都昭島市東町2丁目3-21","lat":35.70384171,"lon":139.38706448},{"name":"拝島高等学校","province":"東京都","city":"昭島市","address":"東京都昭島市拝島町4丁目13-1","lat":35.70386031,"lon":139.34331551},{"name":"昭島市役所","province":"東京都","city":"昭島市","address":"東京都昭島市田中町1-17-1","lat":35.705706,"lon":139.353775},{"name":"昭島市保健福祉センター（あいぽっく）","province":"東京都","city":"昭島市","address":"東京都昭島市昭和町4-7-1","lat":35.71089,"lon":139.364088},{"name":"FOSTERホール（昭島市民会館）・公民館","province":"東京都","city":"昭島市","address":"東京都昭島市つつじが丘3-7-7","lat":35.713437,"lon":139.366187},{"name":"昭島市総合スポーツセンター","province":"東京都","city":"昭島市","address":"東京都昭島市東町5-13-1","lat":35.703334,"lon":139.38432},{"name":"玉川会館（東部出張所）","province":"東京都","city":"昭島市","address":"東京都昭島市玉川町3-10-15","lat":35.703703,"lon":139.382054},{"name":"朝日会館","province":"東京都","city":"昭島市","address":"東京都昭島市朝日町5-6-20","lat":35.705061,"lon":139.372835},{"name":"大神会館","province":"東京都","city":"昭島市","address":"東京都昭島市大神町3-10-5","lat":35.700742,"lon":139.360806},{"name":"拝島会館","province":"東京都","city":"昭島市","address":"東京都昭島市拝島町2-4-13","lat":35.707257,"lon":139.341968},{"name":"福島会館","province":"東京都","city":"昭島市","address":"東京都昭島市福島町1-19-1","lat":35.696753,"lon":139.381077},{"name":"昭和会館","province":"東京都","city":"昭島市","address":"東京都昭島市松原町1-2-25","lat":35.712896,"lon":139.357669},{"name":"緑会館","province":"東京都","city":"昭島市","address":"東京都昭島市緑町4-13-26","lat":35.714276,"lon":139.344637},{"name":"堀向会館","province":"東京都","city":"昭島市","address":"東京都昭島市美堀町2-6-11","lat":35.723174,"lon":139.363703},{"name":"富士見会館","province":"東京都","city":"昭島市","address":"東京都昭島市中神町1282","lat":35.712249,"lon":139.382554},{"name":"やまのかみ会館","province":"東京都","city":"昭島市","address":"東京都昭島市拝島町3-10-3","lat":35.710898,"lon":139.335471},{"name":"武蔵野会館","province":"東京都","city":"昭島市","address":"東京都昭島市中神町1172-1","lat":35.711183,"lon":139.375667},{"name":"松原町コミュニティセンター","province":"東京都","city":"昭島市","address":"東京都昭島市松原町1-3-10","lat":35.71206,"lon":139.356957},{"name":"児童センター「ぱれっと」","province":"東京都","city":"昭島市","address":"東京都昭島市つつじが丘2-3-21","lat":35.714301,"lon":139.367027},{"name":"勤労商工市民センター","province":"東京都","city":"昭島市","address":"東京都昭島市昭和町3-10-2","lat":35.707038,"lon":139.367005},{"name":"朝日町高齢者福祉センター","province":"東京都","city":"昭島市","address":"東京都昭島市朝日町4-5-9","lat":35.706258,"lon":139.37046},{"name":"松原町高齢者福祉センター","province":"東京都","city":"昭島市","address":"東京都昭島市松原町1-13-3","lat":35.714701,"lon":139.354453},{"name":"拝島町高齢者福祉センター","province":"東京都","city":"昭島市","address":"東京都昭島市拝島町3-10-4","lat":35.710487,"lon":139.335016},{"name":"青少年交流センター","province":"東京都","city":"昭島市","address":"東京都昭島市昭和町1-6-11","lat":35.711044,"lon":139.365627},{"name":"環境コミュニケーションセンター","province":"東京都","city":"昭島市","address":"東京都昭島市美堀町3-8-1","lat":35.723219,"lon":139.354547},{"name":"水道部","province":"東京都","city":"昭島市","address":"東京都昭島市朝日町4-23-28","lat":35.70873,"lon":139.370352},{"name":"アキシマエンシス（国際交流教養文化棟）","province":"東京都","city":"昭島市","address":"東京都昭島市つつじが丘3-3-15","lat":35.711714,"lon":139.36935},{"name":"アキシマエンシス（校舎棟）","province":"東京都","city":"昭島市","address":"東京都昭島市つつじが丘3-3-15","lat":35.712009,"lon":139.369303},{"name":"アキシマエンシス（体育館棟）","province":"東京都","city":"昭島市","address":"東京都昭島市つつじが丘3-3-15","lat":35.711743,"lon":139.368486},{"name":"介護福祉課","province":"東京都","city":"昭島市","address":"昭島市田中町1-17-1","lat":35.705971,"lon":139.354507},{"name":"東部地域包括支援センター竹口病院","province":"東京都","city":"昭島市","address":"昭島市玉川町2-4-8-103","lat":35.707176,"lon":139.378174},{"name":"西部地域包括支援センター愛全園","province":"東京都","city":"昭島市","address":"昭島市拝島町3-10-4","lat":35.710747,"lon":139.334442},{"name":"中部地域包括支援センターあいぽっく","province":"東京都","city":"昭島市","address":"昭島市昭和町4-7-1保健福祉センター2F","lat":35.711014,"lon":139.363541},{"name":"南部地域包括支援センター愛全園","province":"東京都","city":"昭島市","address":"昭島市田中町2-25-3","lat":35.704052,"lon":139.351166},{"name":"北部地域包括支援センターハピネス昭和の森","province":"東京都","city":"昭島市","address":"昭島市拝島町4036-14","lat":35.695915,"lon":139.339401},{"name":"昭島市消費生活相談室","province":"東京都","city":"昭島市","address":"昭島市田中町1-17-1","lat":35.705971,"lon":139.354507},{"name":"昭島市役所","province":"東京都","city":"昭島市","address":"東京都昭島市田中町1-17-1","lat":35.705706,"lon":139.353775},{"name":"昭島市保健福祉センター（あいぽっく）","province":"東京都","city":"昭島市","address":"東京都昭島市昭和町4-7-1","lat":35.71089,"lon":139.364088},{"name":"FOSTERホール（昭島市民会館）・公民館","province":"東京都","city":"昭島市","address":"東京都昭島市つつじが丘3-7-7","lat":35.713437,"lon":139.366187},{"name":"昭島市総合スポーツセンター","province":"東京都","city":"昭島市","address":"東京都昭島市東町5-13-1","lat":35.703334,"lon":139.38432},{"name":"玉川会館（東部出張所）","province":"東京都","city":"昭島市","address":"東京都昭島市玉川町3-10-15","lat":35.703703,"lon":139.382054},{"name":"朝日会館","province":"東京都","city":"昭島市","address":"東京都昭島市朝日町5-6-20","lat":35.705061,"lon":139.372835},{"name":"大神会館","province":"東京都","city":"昭島市","address":"東京都昭島市大神町3-10-5","lat":35.700742,"lon":139.360806},{"name":"拝島会館","province":"東京都","city":"昭島市","address":"東京都昭島市拝島町2-4-13","lat":35.707257,"lon":139.341968},{"name":"福島会館","province":"東京都","city":"昭島市","address":"東京都昭島市福島町1-19-1","lat":35.696753,"lon":139.381077},{"name":"昭和会館","province":"東京都","city":"昭島市","address":"東京都昭島市松原町1-2-25","lat":35.712896,"lon":139.357669},{"name":"緑会館","province":"東京都","city":"昭島市","address":"東京都昭島市緑町4-13-26","lat":35.714276,"lon":139.344637},{"name":"堀向会館","province":"東京都","city":"昭島市","address":"東京都昭島市美堀町2-6-11","lat":35.723174,"lon":139.363703},{"name":"富士見会館","province":"東京都","city":"昭島市","address":"東京都昭島市中神町1282","lat":35.712249,"lon":139.382554},{"name":"やまのかみ会館","province":"東京都","city":"昭島市","address":"東京都昭島市拝島町3-10-3","lat":35.710898,"lon":139.335471},{"name":"武蔵野会館","province":"東京都","city":"昭島市","address":"東京都昭島市中神町1172-1","lat":35.711183,"lon":139.375667},{"name":"松原町コミュニティセンター","province":"東京都","city":"昭島市","address":"東京都昭島市松原町1-3-10","lat":35.71206,"lon":139.356957},{"name":"児童センター「ぱれっと」","province":"東京都","city":"昭島市","address":"東京都昭島市つつじが丘2-3-21","lat":35.714301,"lon":139.367027},{"name":"勤労商工市民センター","province":"東京都","city":"昭島市","address":"東京都昭島市昭和町3-10-2","lat":35.707038,"lon":139.367005},{"name":"朝日町高齢者福祉センター","province":"東京都","city":"昭島市","address":"東京都昭島市朝日町4-5-9","lat":35.706258,"lon":139.37046},{"name":"松原町高齢者福祉センター","province":"東京都","city":"昭島市","address":"東京都昭島市松原町1-13-3","lat":35.714701,"lon":139.354453},{"name":"拝島町高齢者福祉センター","province":"東京都","city":"昭島市","address":"東京都昭島市拝島町3-10-4","lat":35.710487,"lon":139.335016},{"name":"青少年交流センター","province":"東京都","city":"昭島市","address":"東京都昭島市昭和町1-6-11","lat":35.711044,"lon":139.365627},{"name":"環境コミュニケーションセンター","province":"東京都","city":"昭島市","address":"東京都昭島市美堀町3-8-1","lat":35.723219,"lon":139.354547},{"name":"水道部","province":"東京都","city":"昭島市","address":"東京都昭島市朝日町4-23-28","lat":35.70873,"lon":139.370352},{"name":"アキシマエンシス（国際交流教養文化棟）","province":"東京都","city":"昭島市","address":"東京都昭島市つつじが丘3-3-15","lat":35.711714,"lon":139.36935},{"name":"アキシマエンシス（校舎棟）","province":"東京都","city":"昭島市","address":"東京都昭島市つつじが丘3-3-15","lat":35.712009,"lon":139.369303},{"name":"アキシマエンシス（体育館棟）","province":"東京都","city":"昭島市","address":"東京都昭島市つつじが丘3-3-15","lat":35.711743,"lon":139.368486},{"name":"介護福祉課","province":"東京都","city":"昭島市","address":"昭島市田中町1-17-1","lat":35.705971,"lon":139.354507},{"name":"東部地域包括支援センター竹口病院","province":"東京都","city":"昭島市","address":"昭島市玉川町2-4-8-103","lat":35.707176,"lon":139.378174},{"name":"西部地域包括支援センター愛全園","province":"東京都","city":"昭島市","address":"昭島市拝島町3-10-4","lat":35.710747,"lon":139.334442},{"name":"中部地域包括支援センターあいぽっく","province":"東京都","city":"昭島市","address":"昭島市昭和町4-7-1保健福祉センター2F","lat":35.711014,"lon":139.363541},{"name":"南部地域包括支援センター愛全園","province":"東京都","city":"昭島市","address":"昭島市田中町2-25-3","lat":35.704052,"lon":139.351166},{"name":"北部地域包括支援センターハピネス昭和の森","province":"東京都","city":"昭島市","address":"昭島市拝島町4036-14","lat":35.695915,"lon":139.339401},{"name":"昭島市消費生活相談室","province":"東京都","city":"昭島市","address":"昭島市田中町1-17-1","lat":35.705971,"lon":139.354507},{"name":"昭島市役所","province":"東京都","city":"昭島市","address":"東京都昭島市田中町1-17-1","lat":35.705706,"lon":139.353775},{"name":"昭島市保健福祉センター（あいぽっく）","province":"東京都","city":"昭島市","address":"東京都昭島市昭和町4-7-1","lat":35.71089,"lon":139.364088},{"name":"FOSTERホール（昭島市民会館）・公民館","province":"東京都","city":"昭島市","address":"東京都昭島市つつじが丘3-7-7","lat":35.713437,"lon":139.366187},{"name":"昭島市総合スポーツセンター","province":"東京都","city":"昭島市","address":"東京都昭島市東町5-13-1","lat":35.703334,"lon":139.38432},{"name":"玉川会館（東部出張所）","province":"東京都","city":"昭島市","address":"東京都昭島市玉川町3-10-15","lat":35.703703,"lon":139.382054},{"name":"朝日会館","province":"東京都","city":"昭島市","address":"東京都昭島市朝日町5-6-20","lat":35.705061,"lon":139.372835},{"name":"大神会館","province":"東京都","city":"昭島市","address":"東京都昭島市大神町3-10-5","lat":35.700742,"lon":139.360806},{"name":"拝島会館","province":"東京都","city":"昭島市","address":"東京都昭島市拝島町2-4-13","lat":35.707257,"lon":139.341968},{"name":"福島会館","province":"東京都","city":"昭島市","address":"東京都昭島市福島町1-19-1","lat":35.696753,"lon":139.381077},{"name":"昭和会館","province":"東京都","city":"昭島市","address":"東京都昭島市松原町1-2-25","lat":35.712896,"lon":139.357669},{"name":"緑会館","province":"東京都","city":"昭島市","address":"東京都昭島市緑町4-13-26","lat":35.714276,"lon":139.344637},{"name":"堀向会館","province":"東京都","city":"昭島市","address":"東京都昭島市美堀町2-6-11","lat":35.723174,"lon":139.363703},{"name":"富士見会館","province":"東京都","city":"昭島市","address":"東京都昭島市中神町1282","lat":35.712249,"lon":139.382554},{"name":"やまのかみ会館","province":"東京都","city":"昭島市","address":"東京都昭島市拝島町3-10-3","lat":35.710898,"lon":139.335471},{"name":"武蔵野会館","province":"東京都","city":"昭島市","address":"東京都昭島市中神町1172-1","lat":35.711183,"lon":139.375667},{"name":"松原町コミュニティセンター","province":"東京都","city":"昭島市","address":"東京都昭島市松原町1-3-10","lat":35.71206,"lon":139.356957},{"name":"児童センター「ぱれっと」","province":"東京都","city":"昭島市","address":"東京都昭島市つつじが丘2-3-21","lat":35.714301,"lon":139.367027},{"name":"勤労商工市民センター","province":"東京都","city":"昭島市","address":"東京都昭島市昭和町3-10-2","lat":35.707038,"lon":139.367005},{"name":"朝日町高齢者福祉センター","province":"東京都","city":"昭島市","address":"東京都昭島市朝日町4-5-9","lat":35.706258,"lon":139.37046},{"name":"松原町高齢者福祉センター","province":"東京都","city":"昭島市","address":"東京都昭島市松原町1-13-3","lat":35.714701,"lon":139.354453},{"name":"拝島町高齢者福祉センター","province":"東京都","city":"昭島市","address":"東京都昭島市拝島町3-10-4","lat":35.710487,"lon":139.335016},{"name":"青少年交流センター","province":"東京都","city":"昭島市","address":"東京都昭島市昭和町1-6-11","lat":35.711044,"lon":139.365627},{"name":"環境コミュニケーションセンター","province":"東京都","city":"昭島市","address":"東京都昭島市美堀町3-8-1","lat":35.723219,"lon":139.354547},{"name":"水道部","province":"東京都","city":"昭島市","address":"東京都昭島市朝日町4-23-28","lat":35.70873,"lon":139.370352},{"name":"アキシマエンシス（国際交流教養文化棟）","province":"東京都","city":"昭島市","address":"東京都昭島市つつじが丘3-3-15","lat":35.711714,"lon":139.36935},{"name":"アキシマエンシス（校舎棟）","province":"東京都","city":"昭島市","address":"東京都昭島市つつじが丘3-3-15","lat":35.712009,"lon":139.369303},{"name":"アキシマエンシス（体育館棟）","province":"東京都","city":"昭島市","address":"東京都昭島市つつじが丘3-3-15","lat":35.711743,"lon":139.368486},{"name":"介護福祉課","province":"東京都","city":"昭島市","address":"昭島市田中町1-17-1","lat":35.705971,"lon":139.354507},{"name":"東部地域包括支援センター竹口病院","province":"東京都","city":"昭島市","address":"昭島市玉川町2-4-8-103","lat":35.707176,"lon":139.378174},{"name":"西部地域包括支援センター愛全園","province":"東京都","city":"昭島市","address":"昭島市拝島町3-10-4","lat":35.710747,"lon":139.334442},{"name":"中部地域包括支援センターあいぽっく","province":"東京都","city":"昭島市","address":"昭島市昭和町4-7-1保健福祉センター2F","lat":35.711014,"lon":139.363541},{"name":"南部地域包括支援センター愛全園","province":"東京都","city":"昭島市","address":"昭島市田中町2-25-3","lat":35.704052,"lon":139.351166},{"name":"北部地域包括支援センターハピネス昭和の森","province":"東京都","city":"昭島市","address":"昭島市拝島町4036-14","lat":35.695915,"lon":139.339401},{"name":"昭島市消費生活相談室","province":"東京都","city":"昭島市","address":"昭島市田中町1-17-1","lat":35.705971,"lon":139.354507},{"name":"昭島市役所","province":"東京都","city":"昭島市","address":"東京都昭島市田中町1-17-1","lat":35.705706,"lon":139.353775},{"name":"昭島市保健福祉センター（あいぽっく）","province":"東京都","city":"昭島市","address":"東京都昭島市昭和町4-7-1","lat":35.71089,"lon":139.364088},{"name":"FOSTERホール（昭島市民会館）・公民館","province":"東京都","city":"昭島市","address":"東京都昭島市つつじが丘3-7-7","lat":35.713437,"lon":139.366187},{"name":"昭島市総合スポーツセンター","province":"東京都","city":"昭島市","address":"東京都昭島市東町5-13-1","lat":35.703334,"lon":139.38432},{"name":"玉川会館（東部出張所）","province":"東京都","city":"昭島市","address":"東京都昭島市玉川町3-10-15","lat":35.703703,"lon":139.382054},{"name":"朝日会館","province":"東京都","city":"昭島市","address":"東京都昭島市朝日町5-6-20","lat":35.705061,"lon":139.372835},{"name":"大神会館","province":"東京都","city":"昭島市","address":"東京都昭島市大神町3-10-5","lat":35.700742,"lon":139.360806},{"name":"拝島会館","province":"東京都","city":"昭島市","address":"東京都昭島市拝島町2-4-13","lat":35.707257,"lon":139.341968},{"name":"福島会館","province":"東京都","city":"昭島市","address":"東京都昭島市福島町1-19-1","lat":35.696753,"lon":139.381077},{"name":"昭和会館","province":"東京都","city":"昭島市","address":"東京都昭島市松原町1-2-25","lat":35.712896,"lon":139.357669},{"name":"緑会館","province":"東京都","city":"昭島市","address":"東京都昭島市緑町4-13-26","lat":35.714276,"lon":139.344637},{"name":"堀向会館","province":"東京都","city":"昭島市","address":"東京都昭島市美堀町2-6-11","lat":35.723174,"lon":139.363703},{"name":"富士見会館","province":"東京都","city":"昭島市","address":"東京都昭島市中神町1282","lat":35.712249,"lon":139.382554},{"name":"やまのかみ会館","province":"東京都","city":"昭島市","address":"東京都昭島市拝島町3-10-3","lat":35.710898,"lon":139.335471},{"name":"武蔵野会館","province":"東京都","city":"昭島市","address":"東京都昭島市中神町1172-1","lat":35.711183,"lon":139.375667},{"name":"松原町コミュニティセンター","province":"東京都","city":"昭島市","address":"東京都昭島市松原町1-3-10","lat":35.71206,"lon":139.356957},{"name":"児童センター「ぱれっと」","province":"東京都","city":"昭島市","address":"東京都昭島市つつじが丘2-3-21","lat":35.714301,"lon":139.367027},{"name":"勤労商工市民センター","province":"東京都","city":"昭島市","address":"東京都昭島市昭和町3-10-2","lat":35.707038,"lon":139.367005},{"name":"朝日町高齢者福祉センター","province":"東京都","city":"昭島市","address":"東京都昭島市朝日町4-5-9","lat":35.706258,"lon":139.37046},{"name":"松原町高齢者福祉センター","province":"東京都","city":"昭島市","address":"東京都昭島市松原町1-13-3","lat":35.714701,"lon":139.354453},{"name":"拝島町高齢者福祉センター","province":"東京都","city":"昭島市","address":"東京都昭島市拝島町3-10-4","lat":35.710487,"lon":139.335016},{"name":"青少年交流センター","province":"東京都","city":"昭島市","address":"東京都昭島市昭和町1-6-11","lat":35.711044,"lon":139.365627},{"name":"環境コミュニケーションセンター","province":"東京都","city":"昭島市","address":"東京都昭島市美堀町3-8-1","lat":35.723219,"lon":139.354547},{"name":"水道部","province":"東京都","city":"昭島市","address":"東京都昭島市朝日町4-23-28","lat":35.70873,"lon":139.370352},{"name":"アキシマエンシス（国際交流教養文化棟）","province":"東京都","city":"昭島市","address":"東京都昭島市つつじが丘3-3-15","lat":35.711714,"lon":139.36935},{"name":"アキシマエンシス（校舎棟）","province":"東京都","city":"昭島市","address":"東京都昭島市つつじが丘3-3-15","lat":35.712009,"lon":139.369303},{"name":"アキシマエンシス（体育館棟）","province":"東京都","city":"昭島市","address":"東京都昭島市つつじが丘3-3-15","lat":35.711743,"lon":139.368486},{"name":"介護福祉課","province":"東京都","city":"昭島市","address":"昭島市田中町1-17-1","lat":35.705971,"lon":139.354507},{"name":"東部地域包括支援センター竹口病院","province":"東京都","city":"昭島市","address":"昭島市玉川町2-4-8-103","lat":35.707176,"lon":139.378174},{"name":"西部地域包括支援センター愛全園","province":"東京都","city":"昭島市","address":"昭島市拝島町3-10-4","lat":35.710747,"lon":139.334442},{"name":"中部地域包括支援センターあいぽっく","province":"東京都","city":"昭島市","address":"昭島市昭和町4-7-1保健福祉センター2F","lat":35.711014,"lon":139.363541},{"name":"南部地域包括支援センター愛全園","province":"東京都","city":"昭島市","address":"昭島市田中町2-25-3","lat":35.704052,"lon":139.351166},{"name":"北部地域包括支援センターハピネス昭和の森","province":"東京都","city":"昭島市","address":"昭島市拝島町4036-14","lat":35.695915,"lon":139.339401},{"name":"昭島市消費生活相談室","province":"東京都","city":"昭島市","address":"昭島市田中町1-17-1","lat":35.705971,"lon":139.354507},{"name":"介護福祉課","province":"東京都","city":"昭島市","address":"昭島市田中町1-17-1","lat":35.705971,"lon":139.354507},{"name":"東部地域包括支援センター竹口病院","province":"東京都","city":"昭島市","address":"昭島市玉川町2-4-8-103","lat":35.707176,"lon":139.378174},{"name":"西部地域包括支援センター愛全園","province":"東京都","city":"昭島市","address":"昭島市拝島町3-10-4","lat":35.710747,"lon":139.334442},{"name":"中部地域包括支援センターあいぽっく","province":"東京都","city":"昭島市","address":"昭島市昭和町4-7-1保健福祉センター2F","lat":35.711014,"lon":139.363541},{"name":"南部地域包括支援センター愛全園","province":"東京都","city":"昭島市","address":"昭島市田中町2-25-3","lat":35.704052,"lon":139.351166},{"name":"北部地域包括支援センターハピネス昭和の森","province":"東京都","city":"昭島市","address":"昭島市拝島町4036-14","lat":35.695915,"lon":139.339401},{"name":"昭島市消費生活相談室","province":"東京都","city":"昭島市","address":"昭島市田中町1-17-1","lat":35.705971,"lon":139.354507},{"name":"介護福祉課","province":"東京都","city":"昭島市","address":"昭島市田中町1-17-1","lat":35.705971,"lon":139.354507},{"name":"東部地域包括支援センター竹口病院","province":"東京都","city":"昭島市","address":"昭島市玉川町2-4-8-103","lat":35.707176,"lon":139.378174},{"name":"西部地域包括支援センター愛全園","province":"東京都","city":"昭島市","address":"昭島市拝島町3-10-4","lat":35.710747,"lon":139.334442},{"name":"中部地域包括支援センターあいぽっく","province":"東京都","city":"昭島市","address":"昭島市昭和町4-7-1保健福祉センター2F","lat":35.711014,"lon":139.363541},{"name":"南部地域包括支援センター愛全園","province":"東京都","city":"昭島市","address":"昭島市田中町2-25-3","lat":35.704052,"lon":139.351166},{"name":"北部地域包括支援センターハピネス昭和の森","province":"東京都","city":"昭島市","address":"昭島市拝島町4036-14","lat":35.695915,"lon":139.339401},{"name":"昭島市消費生活相談室","province":"東京都","city":"昭島市","address":"昭島市田中町1-17-1","lat":35.705971,"lon":139.354507},{"name":"介護福祉課","province":"東京都","city":"昭島市","address":"昭島市田中町1-17-1","lat":35.705971,"lon":139.354507},{"name":"東部地域包括支援センター竹口病院","province":"東京都","city":"昭島市","address":"昭島市玉川町2-4-8-103","lat":35.707176,"lon":139.378174},{"name":"西部地域包括支援センター愛全園","province":"東京都","city":"昭島市","address":"昭島市拝島町3-10-4","lat":35.710747,"lon":139.334442},{"name":"中部地域包括支援センターあいぽっく","province":"東京都","city":"昭島市","address":"昭島市昭和町4-7-1保健福祉センター2F","lat":35.711014,"lon":139.363541},{"name":"南部地域包括支援センター愛全園","province":"東京都","city":"昭島市","address":"昭島市田中町2-25-3","lat":35.704052,"lon":139.351166},{"name":"北部地域包括支援センターハピネス昭和の森","province":"東京都","city":"昭島市","address":"昭島市拝島町4036-14","lat":35.695915,"lon":139.339401},{"name":"昭島市消費生活相談室","province":"東京都","city":"昭島市","address":"昭島市田中町1-17-1","lat":35.705971,"lon":139.354507},{"name":"介護福祉課","province":"東京都","city":"昭島市","address":"昭島市田中町1-17-1","lat":35.705971,"lon":139.354507},{"name":"東部地域包括支援センター竹口病院","province":"東京都","city":"昭島市","address":"昭島市玉川町2-4-8-103","lat":35.707176,"lon":139.378174},{"name":"西部地域包括支援センター愛全園","province":"東京都","city":"昭島市","address":"昭島市拝島町3-10-4","lat":35.710747,"lon":139.334442},{"name":"中部地域包括支援センターあいぽっく","province":"東京都","city":"昭島市","address":"昭島市昭和町4-7-1保健福祉センター2F","lat":35.711014,"lon":139.363541},{"name":"南部地域包括支援センター愛全園","province":"東京都","city":"昭島市","address":"昭島市田中町2-25-3","lat":35.704052,"lon":139.351166},{"name":"北部地域包括支援センターハピネス昭和の森","province":"東京都","city":"昭島市","address":"昭島市拝島町4036-14","lat":35.695915,"lon":139.339401},{"name":"昭島市消費生活相談室","province":"東京都","city":"昭島市","address":"昭島市田中町1-17-1","lat":35.705971,"lon":139.354507},{"name":"介護福祉課","province":"東京都","city":"昭島市","address":"昭島市田中町1-17-1","lat":35.705971,"lon":139.354507},{"name":"東部地域包括支援センター竹口病院","province":"東京都","city":"昭島市","address":"昭島市玉川町2-4-8-103","lat":35.707176,"lon":139.378174},{"name":"西部地域包括支援センター愛全園","province":"東京都","city":"昭島市","address":"昭島市拝島町3-10-4","lat":35.710747,"lon":139.334442},{"name":"中部地域包括支援センターあいぽっく","province":"東京都","city":"昭島市","address":"昭島市昭和町4-7-1保健福祉センター2F","lat":35.711014,"lon":139.363541},{"name":"南部地域包括支援センター愛全園","province":"東京都","city":"昭島市","address":"昭島市田中町2-25-3","lat":35.704052,"lon":139.351166},{"name":"北部地域包括支援センターハピネス昭和の森","province":"東京都","city":"昭島市","address":"昭島市拝島町4036-14","lat":35.695915,"lon":139.339401},{"name":"昭島市消費生活相談室","province":"東京都","city":"昭島市","address":"昭島市田中町1-17-1","lat":35.705971,"lon":139.354507},{"name":"介護福祉課","province":"東京都","city":"昭島市","address":"昭島市田中町1-17-1","lat":35.705971,"lon":139.354507},{"name":"東部地域包括支援センター竹口病院","province":"東京都","city":"昭島市","address":"昭島市玉川町2-4-8-103","lat":35.707176,"lon":139.378174},{"name":"西部地域包括支援センター愛全園","province":"東京都","city":"昭島市","address":"昭島市拝島町3-10-4","lat":35.710747,"lon":139.334442},{"name":"中部地域包括支援センターあいぽっく","province":"東京都","city":"昭島市","address":"昭島市昭和町4-7-1保健福祉センター2F","lat":35.711014,"lon":139.363541},{"name":"南部地域包括支援センター愛全園","province":"東京都","city":"昭島市","address":"昭島市田中町2-25-3","lat":35.704052,"lon":139.351166},{"name":"北部地域包括支援センターハピネス昭和の森","province":"東京都","city":"昭島市","address":"昭島市拝島町4036-14","lat":35.695915,"lon":139.339401},{"name":"昭島市消費生活相談室","province":"東京都","city":"昭島市","address":"昭島市田中町1-17-1","lat":35.705971,"lon":139.354507},{"name":"介護福祉課","province":"東京都","city":"昭島市","address":"昭島市田中町1-17-1","lat":35.705971,"lon":139.354507},{"name":"東部地域包括支援センター竹口病院","province":"東京都","city":"昭島市","address":"昭島市玉川町2-4-8-103","lat":35.707176,"lon":139.378174},{"name":"西部地域包括支援センター愛全園","province":"東京都","city":"昭島市","address":"昭島市拝島町3-10-4","lat":35.710747,"lon":139.334442},{"name":"中部地域包括支援センターあいぽっく","province":"東京都","city":"昭島市","address":"昭島市昭和町4-7-1保健福祉センター2F","lat":35.711014,"lon":139.363541},{"name":"南部地域包括支援センター愛全園","province":"東京都","city":"昭島市","address":"昭島市田中町2-25-3","lat":35.704052,"lon":139.351166},{"name":"北部地域包括支援センターハピネス昭和の森","province":"東京都","city":"昭島市","address":"昭島市拝島町4036-14","lat":35.695915,"lon":139.339401},{"name":"昭島市消費生活相談室","province":"東京都","city":"昭島市","address":"昭島市田中町1-17-1","lat":35.705971,"lon":139.354507},{"name":"介護福祉課","province":"東京都","city":"昭島市","address":"昭島市田中町1-17-1","lat":35.705971,"lon":139.354507},{"name":"東部地域包括支援センター竹口病院","province":"東京都","city":"昭島市","address":"昭島市玉川町2-4-8-103","lat":35.707176,"lon":139.378174},{"name":"西部地域包括支援センター愛全園","province":"東京都","city":"昭島市","address":"昭島市拝島町3-10-4","lat":35.710747,"lon":139.334442},{"name":"中部地域包括支援センターあいぽっく","province":"東京都","city":"昭島市","address":"昭島市昭和町4-7-1保健福祉センター2F","lat":35.711014,"lon":139.363541},{"name":"南部地域包括支援センター愛全園","province":"東京都","city":"昭島市","address":"昭島市田中町2-25-3","lat":35.704052,"lon":139.351166},{"name":"北部地域包括支援センターハピネス昭和の森","province":"東京都","city":"昭島市","address":"昭島市拝島町4036-14","lat":35.695915,"lon":139.339401},{"name":"昭島市消費生活相談室","province":"東京都","city":"昭島市","address":"昭島市田中町1-17-1","lat":35.705971,"lon":139.354507},{"name":"介護福祉課","province":"東京都","city":"昭島市","address":"昭島市田中町1-17-1","lat":35.705971,"lon":139.354507},{"name":"東部地域包括支援センター竹口病院","province":"東京都","city":"昭島市","address":"昭島市玉川町2-4-8-103","lat":35.707176,"lon":139.378174},{"name":"西部地域包括支援センター愛全園","province":"東京都","city":"昭島市","address":"昭島市拝島町3-10-4","lat":35.710747,"lon":139.334442},{"name":"中部地域包括支援センターあいぽっく","province":"東京都","city":"昭島市","address":"昭島市昭和町4-7-1保健福祉センター2F","lat":35.711014,"lon":139.363541},{"name":"南部地域包括支援センター愛全園","province":"東京都","city":"昭島市","address":"昭島市田中町2-25-3","lat":35.704052,"lon":139.351166},{"name":"北部地域包括支援センターハピネス昭和の森","province":"東京都","city":"昭島市","address":"昭島市拝島町4036-14","lat":35.695915,"lon":139.339401},{"name":"昭島市消費生活相談室","province":"東京都","city":"昭島市","address":"昭島市田中町1-17-1","lat":35.705971,"lon":139.354507},{"name":"介護福祉課","province":"東京都","city":"昭島市","address":"昭島市田中町1-17-1","lat":35.705971,"lon":139.354507},{"name":"東部地域包括支援センター竹口病院","province":"東京都","city":"昭島市","address":"昭島市玉川町2-4-8-103","lat":35.707176,"lon":139.378174},{"name":"西部地域包括支援センター愛全園","province":"東京都","city":"昭島市","address":"昭島市拝島町3-10-4","lat":35.710747,"lon":139.334442},{"name":"中部地域包括支援センターあいぽっく","province":"東京都","city":"昭島市","address":"昭島市昭和町4-7-1保健福祉センター2F","lat":35.711014,"lon":139.363541},{"name":"南部地域包括支援センター愛全園","province":"東京都","city":"昭島市","address":"昭島市田中町2-25-3","lat":35.704052,"lon":139.351166},{"name":"北部地域包括支援センターハピネス昭和の森","province":"東京都","city":"昭島市","address":"昭島市拝島町4036-14","lat":35.695915,"lon":139.339401},{"name":"昭島市消費生活相談室","province":"東京都","city":"昭島市","address":"昭島市田中町1-17-1","lat":35.705971,"lon":139.354507},{"name":"介護福祉課","province":"東京都","city":"昭島市","address":"昭島市田中町1-17-1","lat":35.705971,"lon":139.354507},{"name":"東部地域包括支援センター竹口病院","province":"東京都","city":"昭島市","address":"昭島市玉川町2-4-8-103","lat":35.707176,"lon":139.378174},{"name":"西部地域包括支援センター愛全園","province":"東京都","city":"昭島市","address":"昭島市拝島町3-10-4","lat":35.710747,"lon":139.334442},{"name":"中部地域包括支援センターあいぽっく","province":"東京都","city":"昭島市","address":"昭島市昭和町4-7-1保健福祉センター2F","lat":35.711014,"lon":139.363541},{"name":"南部地域包括支援センター愛全園","province":"東京都","city":"昭島市","address":"昭島市田中町2-25-3","lat":35.704052,"lon":139.351166},{"name":"北部地域包括支援センターハピネス昭和の森","province":"東京都","city":"昭島市","address":"昭島市拝島町4036-14","lat":35.695915,"lon":139.339401},{"name":"昭島市消費生活相談室","province":"東京都","city":"昭島市","address":"昭島市田中町1-17-1","lat":35.705971,"lon":139.354507},{"name":"介護福祉課","province":"東京都","city":"昭島市","address":"昭島市田中町1-17-1","lat":35.705971,"lon":139.354507},{"name":"東部地域包括支援センター竹口病院","province":"東京都","city":"昭島市","address":"昭島市玉川町2-4-8-103","lat":35.707176,"lon":139.378174},{"name":"西部地域包括支援センター愛全園","province":"東京都","city":"昭島市","address":"昭島市拝島町3-10-4","lat":35.710747,"lon":139.334442},{"name":"中部地域包括支援センターあいぽっく","province":"東京都","city":"昭島市","address":"昭島市昭和町4-7-1保健福祉センター2F","lat":35.711014,"lon":139.363541},{"name":"南部地域包括支援センター愛全園","province":"東京都","city":"昭島市","address":"昭島市田中町2-25-3","lat":35.704052,"lon":139.351166},{"name":"北部地域包括支援センターハピネス昭和の森","province":"東京都","city":"昭島市","address":"昭島市拝島町4036-14","lat":35.695915,"lon":139.339401},{"name":"昭島市消費生活相談室","province":"東京都","city":"昭島市","address":"昭島市田中町1-17-1","lat":35.705971,"lon":139.354507},{"name":"介護福祉課","province":"東京都","city":"昭島市","address":"昭島市田中町1-17-1","lat":35.705971,"lon":139.354507},{"name":"東部地域包括支援センター竹口病院","province":"東京都","city":"昭島市","address":"昭島市玉川町2-4-8-103","lat":35.707176,"lon":139.378174},{"name":"西部地域包括支援センター愛全園","province":"東京都","city":"昭島市","address":"昭島市拝島町3-10-4","lat":35.710747,"lon":139.334442},{"name":"中部地域包括支援センターあいぽっく","province":"東京都","city":"昭島市","address":"昭島市昭和町4-7-1保健福祉センター2F","lat":35.711014,"lon":139.363541},{"name":"南部地域包括支援センター愛全園","province":"東京都","city":"昭島市","address":"昭島市田中町2-25-3","lat":35.704052,"lon":139.351166},{"name":"北部地域包括支援センターハピネス昭和の森","province":"東京都","city":"昭島市","address":"昭島市拝島町4036-14","lat":35.695915,"lon":139.339401},{"name":"昭島市消費生活相談室","province":"東京都","city":"昭島市","address":"昭島市田中町1-17-1","lat":35.705971,"lon":139.354507}]}