{"keyword":"月間","data":[{"name":"キッズサポートてんとうむし","province":"東京都","city":"昭島市","address":"昭島市上川原町3-8-22","lat":35.708302,"lon":139.35957},{"name":"特定非営利活動法人昭島ひよこ教室","province":"東京都","city":"昭島市","address":"昭島市昭和町4-7-1","lat":35.710835,"lon":139.364125},{"name":"放課後等デイサービス　つむぐ　中神第２教室","province":"東京都","city":"昭島市","address":"昭島市中神町1228-20ミリューヴィラージュ106","lat":35.708858,"lon":139.37794},{"name":"放課後等デイサービス　つむぐ　中神教室","province":"東京都","city":"昭島市","address":"昭島市朝日町3-18-9大正第4ビル1階","lat":35.708124,"lon":139.373024},{"name":"脳を育てる運動療育センター　ピースマイル　中神教室","province":"東京都","city":"昭島市","address":"昭島市朝日町1-4-3SKビル2階B","lat":35.70806,"lon":139.375643},{"name":"ドリームボックス中神","province":"東京都","city":"昭島市","address":"昭島市玉川町2-4-11ヴェルシャトウ1階","lat":35.706738,"lon":139.378887},{"name":"昭島市子ども家庭支援センター","province":"東京都","city":"昭島市","address":"昭島市田中町1-17-1昭島市役所3階","lat":35.705755,"lon":139.353609},{"name":"昭島市子ども家庭支援センター","province":"東京都","city":"昭島市","address":"昭島市つつじが丘3-3-15アキシマエンシス校舎棟1階","lat":35.71172,"lon":139.36919},{"name":"昭島市子ども家庭支援センター","province":"東京都","city":"昭島市","address":"昭島市つつじが丘3-3-15アキシマエンシス校舎棟1階","lat":35.711993,"lon":139.36948},{"name":"昭島市子ども家庭支援センター","province":"東京都","city":"昭島市","address":"昭島市つつじが丘3-3-15アキシマエンシス校舎棟1階","lat":35.71412,"lon":139.36948},{"name":"中神駅入口","province":"東京都","city":"昭島市","address":"東京都昭島市朝日町3丁目6-1","lat":35.70723827,"lon":139.37555433},{"name":"拝島郵便局前","province":"東京都","city":"昭島市","address":"東京都昭島市拝島町2丁目8-11","lat":35.70826805,"lon":139.34027673},{"name":"昭島文化地区","province":"東京都","city":"昭島市","address":"東京都昭島市中神町1157","lat":35.71204326,"lon":139.37613747},{"name":"昭島市民図書館前","province":"東京都","city":"昭島市","address":"東京都昭島市東町2丁目6-33","lat":35.70546647,"lon":139.3851868},{"name":"昭島昭和町四丁目","province":"東京都","city":"昭島市","address":"東京都昭島市昭和町4丁目7-19","lat":35.71119312,"lon":139.36371919},{"name":"馬頭観音前","province":"東京都","city":"昭島市","address":"東京都昭島市朝日町3丁目1","lat":35.70625228,"lon":139.3758932},{"name":"昭島駅南口","province":"東京都","city":"昭島市","address":"東京都昭島市昭和町2丁目4","lat":35.71301785,"lon":139.36052498},{"name":"昭島駅北口","province":"東京都","city":"昭島市","address":"東京都昭島市田中町584-14","lat":35.7152176,"lon":139.36123598},{"name":"昭島市民会館西第二","province":"東京都","city":"昭島市","address":"東京都昭島市田中町562","lat":35.71341783,"lon":139.3620804},{"name":"昭島市役所中央第一","province":"東京都","city":"昭島市","address":"東京都昭島市田中町1丁目27","lat":35.70512424,"lon":139.3544729},{"name":"昭島十二神社南","province":"東京都","city":"昭島市","address":"東京都昭島市玉川町5丁目6","lat":35.7032999,"lon":139.37779867},{"name":"東部配水場","province":"東京都","city":"昭島市","address":"東京都昭島市朝日町4丁目23-28","lat":35.70855468,"lon":139.37011036},{"name":"昭島市立大神公園・市立多摩川緑地くじら運動公園","province":"東京都","city":"昭島市","address":"東京都昭島市宮沢町3丁目17","lat":35.69509229,"lon":139.36457787},{"name":"昭和の森ゴルフコース（アウトコース７番）","province":"東京都","city":"昭島市","address":"東京都昭島市つつじが丘1丁目1-7","lat":35.72342513,"lon":139.3692435},{"name":"昭島市保健福祉センター","province":"東京都","city":"昭島市","address":"東京都昭島市昭和町4丁目7-1","lat":35.71083484,"lon":139.36412472},{"name":"多摩職業能力開発センター","province":"東京都","city":"昭島市","address":"東京都昭島市東町3丁目6-33","lat":35.69974508,"lon":139.39149757},{"name":"産業技術研究センター多摩テクノプラザ","province":"東京都","city":"昭島市","address":"東京都昭島市東町3丁目6-1","lat":35.69976454,"lon":139.39225862},{"name":"昭和高等学校","province":"東京都","city":"昭島市","address":"東京都昭島市東町2丁目3-21","lat":35.70384171,"lon":139.38706448},{"name":"拝島高等学校","province":"東京都","city":"昭島市","address":"東京都昭島市拝島町4丁目13-1","lat":35.70386031,"lon":139.34331551},{"name":"昭島市本庁舎","province":"東京都","city":"昭島市","address":"東京都昭島市田中町1丁目17-1","lat":35.70573804,"lon":139.35361463},{"name":"昭島市総合スポーツセンター","province":"東京都","city":"昭島市","address":"東京都昭島市東町5丁目13-1","lat":35.70343335,"lon":139.38437583},{"name":"昭島市本庁舎","province":"東京都","city":"昭島市","address":"昭島市田中町1-17-1","lat":35.705755,"lon":139.353609},{"name":"昭島警察署","province":"東京都","city":"昭島市","address":"昭島市上川原町1-1-1","lat":35.70894,"lon":139.3637},{"name":"昭島消防署","province":"東京都","city":"昭島市","address":"昭島市松原町1-14-1","lat":35.71423,"lon":139.3543},{"name":"立川酸素（株）","province":"東京都","city":"昭島市","address":"昭島市福島町2-28-20","lat":35.69772,"lon":139.3792},{"name":"昭島市清掃センター","province":"東京都","city":"昭島市","address":"昭島市田中町4-3-14","lat":35.69368,"lon":139.3479},{"name":"※昭島市本庁舎","province":"東京都","city":"昭島市","address":"東京都昭島市田中町1丁目17-1","lat":35.70573804,"lon":139.35361463},{"name":"キッズサポートてんとうむし","province":"東京都","city":"昭島市","address":"昭島市上川原町3-8-22","lat":35.708302,"lon":139.35957},{"name":"特定非営利活動法人昭島ひよこ教室","province":"東京都","city":"昭島市","address":"昭島市昭和町4-7-1","lat":35.710835,"lon":139.364125},{"name":"放課後等デイサービス　つむぐ　中神第２教室","province":"東京都","city":"昭島市","address":"昭島市中神町1228-20ミリューヴィラージュ106","lat":35.708858,"lon":139.37794},{"name":"放課後等デイサービス　つむぐ　中神教室","province":"東京都","city":"昭島市","address":"昭島市朝日町3-18-9大正第4ビル1階","lat":35.708124,"lon":139.373024},{"name":"脳を育てる運動療育センター　ピースマイル　中神教室","province":"東京都","city":"昭島市","address":"昭島市朝日町1-4-3SKビル2階B","lat":35.70806,"lon":139.375643},{"name":"ドリームボックス中神","province":"東京都","city":"昭島市","address":"昭島市玉川町2-4-11ヴェルシャトウ1階","lat":35.706738,"lon":139.378887},{"name":"昭島市子ども家庭支援センター","province":"東京都","city":"昭島市","address":"昭島市田中町1-17-1昭島市役所3階","lat":35.705755,"lon":139.353609},{"name":"昭島市子ども家庭支援センター","province":"東京都","city":"昭島市","address":"昭島市つつじが丘3-3-15アキシマエンシス校舎棟1階","lat":35.71172,"lon":139.36919},{"name":"昭島市子ども家庭支援センター","province":"東京都","city":"昭島市","address":"昭島市つつじが丘3-3-15アキシマエンシス校舎棟1階","lat":35.711993,"lon":139.36948},{"name":"昭島市子ども家庭支援センター","province":"東京都","city":"昭島市","address":"昭島市つつじが丘3-3-15アキシマエンシス校舎棟1階","lat":35.71412,"lon":139.36948},{"name":"中神駅入口","province":"東京都","city":"昭島市","address":"東京都昭島市朝日町3丁目6-1","lat":35.70723827,"lon":139.37555433},{"name":"拝島郵便局前","province":"東京都","city":"昭島市","address":"東京都昭島市拝島町2丁目8-11","lat":35.70826805,"lon":139.34027673},{"name":"昭島文化地区","province":"東京都","city":"昭島市","address":"東京都昭島市中神町1157","lat":35.71204326,"lon":139.37613747},{"name":"昭島市民図書館前","province":"東京都","city":"昭島市","address":"東京都昭島市東町2丁目6-33","lat":35.70546647,"lon":139.3851868},{"name":"昭島昭和町四丁目","province":"東京都","city":"昭島市","address":"東京都昭島市昭和町4丁目7-19","lat":35.71119312,"lon":139.36371919},{"name":"馬頭観音前","province":"東京都","city":"昭島市","address":"東京都昭島市朝日町3丁目1","lat":35.70625228,"lon":139.3758932},{"name":"昭島駅南口","province":"東京都","city":"昭島市","address":"東京都昭島市昭和町2丁目4","lat":35.71301785,"lon":139.36052498},{"name":"昭島駅北口","province":"東京都","city":"昭島市","address":"東京都昭島市田中町584-14","lat":35.7152176,"lon":139.36123598},{"name":"昭島市民会館西第二","province":"東京都","city":"昭島市","address":"東京都昭島市田中町562","lat":35.71341783,"lon":139.3620804},{"name":"昭島市役所中央第一","province":"東京都","city":"昭島市","address":"東京都昭島市田中町1丁目27","lat":35.70512424,"lon":139.3544729},{"name":"昭島十二神社南","province":"東京都","city":"昭島市","address":"東京都昭島市玉川町5丁目6","lat":35.7032999,"lon":139.37779867},{"name":"東部配水場","province":"東京都","city":"昭島市","address":"東京都昭島市朝日町4丁目23-28","lat":35.70855468,"lon":139.37011036},{"name":"昭島市立大神公園・市立多摩川緑地くじら運動公園","province":"東京都","city":"昭島市","address":"東京都昭島市宮沢町3丁目17","lat":35.69509229,"lon":139.36457787},{"name":"昭和の森ゴルフコース（アウトコース７番）","province":"東京都","city":"昭島市","address":"東京都昭島市つつじが丘1丁目1-7","lat":35.72342513,"lon":139.3692435},{"name":"多摩職業能力開発センター","province":"東京都","city":"昭島市","address":"東京都昭島市東町3丁目6-33","lat":35.69974508,"lon":139.39149757},{"name":"産業技術研究センター多摩テクノプラザ","province":"東京都","city":"昭島市","address":"東京都昭島市東町3丁目6-1","lat":35.69976454,"lon":139.39225862},{"name":"昭和高等学校","province":"東京都","city":"昭島市","address":"東京都昭島市東町2丁目3-21","lat":35.70384171,"lon":139.38706448},{"name":"拝島高等学校","province":"東京都","city":"昭島市","address":"東京都昭島市拝島町4丁目13-1","lat":35.70386031,"lon":139.34331551},{"name":"キッズサポートてんとうむし","province":"東京都","city":"昭島市","address":"昭島市上川原町3-8-22","lat":35.708302,"lon":139.35957},{"name":"特定非営利活動法人昭島ひよこ教室","province":"東京都","city":"昭島市","address":"昭島市昭和町4-7-1","lat":35.710835,"lon":139.364125},{"name":"放課後等デイサービス　つむぐ　中神第２教室","province":"東京都","city":"昭島市","address":"昭島市中神町1228-20ミリューヴィラージュ106","lat":35.708858,"lon":139.37794},{"name":"放課後等デイサービス　つむぐ　中神教室","province":"東京都","city":"昭島市","address":"昭島市朝日町3-18-9大正第4ビル1階","lat":35.708124,"lon":139.373024},{"name":"脳を育てる運動療育センター　ピースマイル　中神教室","province":"東京都","city":"昭島市","address":"昭島市朝日町1-4-3SKビル2階B","lat":35.70806,"lon":139.375643},{"name":"ドリームボックス中神","province":"東京都","city":"昭島市","address":"昭島市玉川町2-4-11ヴェルシャトウ1階","lat":35.706738,"lon":139.378887},{"name":"昭島市子ども家庭支援センター","province":"東京都","city":"昭島市","address":"昭島市田中町1-17-1昭島市役所3階","lat":35.705755,"lon":139.353609},{"name":"昭島市子ども家庭支援センター","province":"東京都","city":"昭島市","address":"昭島市つつじが丘3-3-15アキシマエンシス校舎棟1階","lat":35.71172,"lon":139.36919},{"name":"昭島市子ども家庭支援センター","province":"東京都","city":"昭島市","address":"昭島市つつじが丘3-3-15アキシマエンシス校舎棟1階","lat":35.711993,"lon":139.36948},{"name":"昭島市子ども家庭支援センター","province":"東京都","city":"昭島市","address":"昭島市つつじが丘3-3-15アキシマエンシス校舎棟1階","lat":35.71412,"lon":139.36948},{"name":"中神駅入口","province":"東京都","city":"昭島市","address":"東京都昭島市朝日町3丁目6-1","lat":35.70723827,"lon":139.37555433},{"name":"拝島郵便局前","province":"東京都","city":"昭島市","address":"東京都昭島市拝島町2丁目8-11","lat":35.70826805,"lon":139.34027673},{"name":"昭島文化地区","province":"東京都","city":"昭島市","address":"東京都昭島市中神町1157","lat":35.71204326,"lon":139.37613747},{"name":"昭島市民図書館前","province":"東京都","city":"昭島市","address":"東京都昭島市東町2丁目6-33","lat":35.70546647,"lon":139.3851868},{"name":"昭島昭和町四丁目","province":"東京都","city":"昭島市","address":"東京都昭島市昭和町4丁目7-19","lat":35.71119312,"lon":139.36371919},{"name":"馬頭観音前","province":"東京都","city":"昭島市","address":"東京都昭島市朝日町3丁目1","lat":35.70625228,"lon":139.3758932},{"name":"昭島駅南口","province":"東京都","city":"昭島市","address":"東京都昭島市昭和町2丁目4","lat":35.71301785,"lon":139.36052498},{"name":"昭島駅北口","province":"東京都","city":"昭島市","address":"東京都昭島市田中町584-14","lat":35.7152176,"lon":139.36123598},{"name":"昭島市民会館西第二","province":"東京都","city":"昭島市","address":"東京都昭島市田中町562","lat":35.71341783,"lon":139.3620804},{"name":"昭島市役所中央第一","province":"東京都","city":"昭島市","address":"東京都昭島市田中町1丁目27","lat":35.70512424,"lon":139.3544729},{"name":"昭島十二神社南","province":"東京都","city":"昭島市","address":"東京都昭島市玉川町5丁目6","lat":35.7032999,"lon":139.37779867},{"name":"東部配水場","province":"東京都","city":"昭島市","address":"東京都昭島市朝日町4丁目23-28","lat":35.70855468,"lon":139.37011036},{"name":"昭島市立大神公園・市立多摩川緑地くじら運動公園","province":"東京都","city":"昭島市","address":"東京都昭島市宮沢町3丁目17","lat":35.69509229,"lon":139.36457787},{"name":"昭和の森ゴルフコース（アウトコース７番）","province":"東京都","city":"昭島市","address":"東京都昭島市つつじが丘1丁目1-7","lat":35.72342513,"lon":139.3692435},{"name":"多摩職業能力開発センター","province":"東京都","city":"昭島市","address":"東京都昭島市東町3丁目6-33","lat":35.69974508,"lon":139.39149757},{"name":"産業技術研究センター多摩テクノプラザ","province":"東京都","city":"昭島市","address":"東京都昭島市東町3丁目6-1","lat":35.69976454,"lon":139.39225862},{"name":"昭和高等学校","province":"東京都","city":"昭島市","address":"東京都昭島市東町2丁目3-21","lat":35.70384171,"lon":139.38706448},{"name":"拝島高等学校","province":"東京都","city":"昭島市","address":"東京都昭島市拝島町4丁目13-1","lat":35.70386031,"lon":139.34331551},{"name":"キッズサポートてんとうむし","province":"東京都","city":"昭島市","address":"昭島市上川原町3-8-22","lat":35.708302,"lon":139.35957},{"name":"特定非営利活動法人昭島ひよこ教室","province":"東京都","city":"昭島市","address":"昭島市昭和町4-7-1","lat":35.710835,"lon":139.364125},{"name":"放課後等デイサービス　つむぐ　中神第２教室","province":"東京都","city":"昭島市","address":"昭島市中神町1228-20ミリューヴィラージュ106","lat":35.708858,"lon":139.37794},{"name":"放課後等デイサービス　つむぐ　中神教室","province":"東京都","city":"昭島市","address":"昭島市朝日町3-18-9大正第4ビル1階","lat":35.708124,"lon":139.373024},{"name":"脳を育てる運動療育センター　ピースマイル　中神教室","province":"東京都","city":"昭島市","address":"昭島市朝日町1-4-3SKビル2階B","lat":35.70806,"lon":139.375643},{"name":"ドリームボックス中神","province":"東京都","city":"昭島市","address":"昭島市玉川町2-4-11ヴェルシャトウ1階","lat":35.706738,"lon":139.378887},{"name":"昭島市子ども家庭支援センター","province":"東京都","city":"昭島市","address":"昭島市田中町1-17-1昭島市役所3階","lat":35.705755,"lon":139.353609},{"name":"昭島市子ども家庭支援センター","province":"東京都","city":"昭島市","address":"昭島市つつじが丘3-3-15アキシマエンシス校舎棟1階","lat":35.71172,"lon":139.36919},{"name":"昭島市子ども家庭支援センター","province":"東京都","city":"昭島市","address":"昭島市つつじが丘3-3-15アキシマエンシス校舎棟1階","lat":35.711993,"lon":139.36948},{"name":"昭島市子ども家庭支援センター","province":"東京都","city":"昭島市","address":"昭島市つつじが丘3-3-15アキシマエンシス校舎棟1階","lat":35.71412,"lon":139.36948},{"name":"昭島市立大神公園・市立多摩川緑地くじら運動公園","province":"東京都","city":"昭島市","address":"東京都昭島市宮沢町3丁目17","lat":35.69509229,"lon":139.36457787},{"name":"昭和の森ゴルフコース（アウトコース７番）","province":"東京都","city":"昭島市","address":"東京都昭島市つつじが丘1丁目1-7","lat":35.72342513,"lon":139.3692435},{"name":"多摩職業能力開発センター","province":"東京都","city":"昭島市","address":"東京都昭島市東町3丁目6-33","lat":35.69974508,"lon":139.39149757},{"name":"産業技術研究センター多摩テクノプラザ","province":"東京都","city":"昭島市","address":"東京都昭島市東町3丁目6-1","lat":35.69976454,"lon":139.39225862},{"name":"昭和高等学校","province":"東京都","city":"昭島市","address":"東京都昭島市東町2丁目3-21","lat":35.70384171,"lon":139.38706448},{"name":"拝島高等学校","province":"東京都","city":"昭島市","address":"東京都昭島市拝島町4丁目13-1","lat":35.70386031,"lon":139.34331551},{"name":"キッズサポートてんとうむし","province":"東京都","city":"昭島市","address":"昭島市上川原町3-8-22","lat":35.708302,"lon":139.35957},{"name":"特定非営利活動法人昭島ひよこ教室","province":"東京都","city":"昭島市","address":"昭島市昭和町4-7-1","lat":35.710835,"lon":139.364125},{"name":"放課後等デイサービス　つむぐ　中神第２教室","province":"東京都","city":"昭島市","address":"昭島市中神町1228-20ミリューヴィラージュ106","lat":35.708858,"lon":139.37794},{"name":"放課後等デイサービス　つむぐ　中神教室","province":"東京都","city":"昭島市","address":"昭島市朝日町3-18-9大正第4ビル1階","lat":35.708124,"lon":139.373024},{"name":"脳を育てる運動療育センター　ピースマイル　中神教室","province":"東京都","city":"昭島市","address":"昭島市朝日町1-4-3SKビル2階B","lat":35.70806,"lon":139.375643},{"name":"ドリームボックス中神","province":"東京都","city":"昭島市","address":"昭島市玉川町2-4-11ヴェルシャトウ1階","lat":35.706738,"lon":139.378887},{"name":"昭島市子ども家庭支援センター","province":"東京都","city":"昭島市","address":"昭島市田中町1-17-1昭島市役所3階","lat":35.705755,"lon":139.353609},{"name":"昭島市子ども家庭支援センター","province":"東京都","city":"昭島市","address":"昭島市つつじが丘3-3-15アキシマエンシス校舎棟1階","lat":35.71172,"lon":139.36919},{"name":"昭島市子ども家庭支援センター","province":"東京都","city":"昭島市","address":"昭島市つつじが丘3-3-15アキシマエンシス校舎棟1階","lat":35.711993,"lon":139.36948},{"name":"昭島市子ども家庭支援センター","province":"東京都","city":"昭島市","address":"昭島市つつじが丘3-3-15アキシマエンシス校舎棟1階","lat":35.71412,"lon":139.36948},{"name":"多摩職業能力開発センター","province":"東京都","city":"昭島市","address":"東京都昭島市東町3丁目6-33","lat":35.69974508,"lon":139.39149757},{"name":"産業技術研究センター多摩テクノプラザ","province":"東京都","city":"昭島市","address":"東京都昭島市東町3丁目6-1","lat":35.69976454,"lon":139.39225862},{"name":"昭和高等学校","province":"東京都","city":"昭島市","address":"東京都昭島市東町2丁目3-21","lat":35.70384171,"lon":139.38706448},{"name":"拝島高等学校","province":"東京都","city":"昭島市","address":"東京都昭島市拝島町4丁目13-1","lat":35.70386031,"lon":139.34331551},{"name":"キッズサポートてんとうむし","province":"東京都","city":"昭島市","address":"昭島市上川原町3-8-22","lat":35.708302,"lon":139.35957},{"name":"特定非営利活動法人昭島ひよこ教室","province":"東京都","city":"昭島市","address":"昭島市昭和町4-7-1","lat":35.710835,"lon":139.364125},{"name":"放課後等デイサービス　つむぐ　中神第２教室","province":"東京都","city":"昭島市","address":"昭島市中神町1228-20ミリューヴィラージュ106","lat":35.708858,"lon":139.37794},{"name":"放課後等デイサービス　つむぐ　中神教室","province":"東京都","city":"昭島市","address":"昭島市朝日町3-18-9大正第4ビル1階","lat":35.708124,"lon":139.373024},{"name":"脳を育てる運動療育センター　ピースマイル　中神教室","province":"東京都","city":"昭島市","address":"昭島市朝日町1-4-3SKビル2階B","lat":35.70806,"lon":139.375643},{"name":"ドリームボックス中神","province":"東京都","city":"昭島市","address":"昭島市玉川町2-4-11ヴェルシャトウ1階","lat":35.706738,"lon":139.378887},{"name":"昭島市子ども家庭支援センター","province":"東京都","city":"昭島市","address":"昭島市田中町1-17-1昭島市役所3階","lat":35.705755,"lon":139.353609},{"name":"昭島市子ども家庭支援センター","province":"東京都","city":"昭島市","address":"昭島市つつじが丘3-3-15アキシマエンシス校舎棟1階","lat":35.71172,"lon":139.36919},{"name":"昭島市子ども家庭支援センター","province":"東京都","city":"昭島市","address":"昭島市つつじが丘3-3-15アキシマエンシス校舎棟1階","lat":35.711993,"lon":139.36948},{"name":"昭島市子ども家庭支援センター","province":"東京都","city":"昭島市","address":"昭島市つつじが丘3-3-15アキシマエンシス校舎棟1階","lat":35.71412,"lon":139.36948},{"name":"多摩職業能力開発センター","province":"東京都","city":"昭島市","address":"東京都昭島市東町3丁目6-33","lat":35.69974508,"lon":139.39149757},{"name":"産業技術研究センター多摩テクノプラザ","province":"東京都","city":"昭島市","address":"東京都昭島市東町3丁目6-1","lat":35.69976454,"lon":139.39225862},{"name":"昭和高等学校","province":"東京都","city":"昭島市","address":"東京都昭島市東町2丁目3-21","lat":35.70384171,"lon":139.38706448},{"name":"拝島高等学校","province":"東京都","city":"昭島市","address":"東京都昭島市拝島町4丁目13-1","lat":35.70386031,"lon":139.34331551},{"name":"キッズサポートてんとうむし","province":"東京都","city":"昭島市","address":"昭島市上川原町3-8-22","lat":35.708302,"lon":139.35957},{"name":"特定非営利活動法人昭島ひよこ教室","province":"東京都","city":"昭島市","address":"昭島市昭和町4-7-1","lat":35.710835,"lon":139.364125},{"name":"放課後等デイサービス　つむぐ　中神第２教室","province":"東京都","city":"昭島市","address":"昭島市中神町1228-20ミリューヴィラージュ106","lat":35.708858,"lon":139.37794},{"name":"放課後等デイサービス　つむぐ　中神教室","province":"東京都","city":"昭島市","address":"昭島市朝日町3-18-9大正第4ビル1階","lat":35.708124,"lon":139.373024},{"name":"脳を育てる運動療育センター　ピースマイル　中神教室","province":"東京都","city":"昭島市","address":"昭島市朝日町1-4-3SKビル2階B","lat":35.70806,"lon":139.375643},{"name":"ドリームボックス中神","province":"東京都","city":"昭島市","address":"昭島市玉川町2-4-11ヴェルシャトウ1階","lat":35.706738,"lon":139.378887},{"name":"昭島市子ども家庭支援センター","province":"東京都","city":"昭島市","address":"昭島市田中町1-17-1昭島市役所3階","lat":35.705755,"lon":139.353609},{"name":"昭島市子ども家庭支援センター","province":"東京都","city":"昭島市","address":"昭島市つつじが丘3-3-15アキシマエンシス校舎棟1階","lat":35.71172,"lon":139.36919},{"name":"昭島市子ども家庭支援センター","province":"東京都","city":"昭島市","address":"昭島市つつじが丘3-3-15アキシマエンシス校舎棟1階","lat":35.711993,"lon":139.36948},{"name":"昭島市子ども家庭支援センター","province":"東京都","city":"昭島市","address":"昭島市つつじが丘3-3-15アキシマエンシス校舎棟1階","lat":35.71412,"lon":139.36948},{"name":"多摩職業能力開発センター","province":"東京都","city":"昭島市","address":"東京都昭島市東町3丁目6-33","lat":35.69974508,"lon":139.39149757},{"name":"産業技術研究センター多摩テクノプラザ","province":"東京都","city":"昭島市","address":"東京都昭島市東町3丁目6-1","lat":35.69976454,"lon":139.39225862},{"name":"昭和高等学校","province":"東京都","city":"昭島市","address":"東京都昭島市東町2丁目3-21","lat":35.70384171,"lon":139.38706448},{"name":"拝島高等学校","province":"東京都","city":"昭島市","address":"東京都昭島市拝島町4丁目13-1","lat":35.70386031,"lon":139.34331551},{"name":"キッズサポートてんとうむし","province":"東京都","city":"昭島市","address":"昭島市上川原町3-8-22","lat":35.708302,"lon":139.35957},{"name":"特定非営利活動法人昭島ひよこ教室","province":"東京都","city":"昭島市","address":"昭島市昭和町4-7-1","lat":35.710835,"lon":139.364125},{"name":"放課後等デイサービス　つむぐ　中神第２教室","province":"東京都","city":"昭島市","address":"昭島市中神町1228-20ミリューヴィラージュ106","lat":35.708858,"lon":139.37794},{"name":"放課後等デイサービス　つむぐ　中神教室","province":"東京都","city":"昭島市","address":"昭島市朝日町3-18-9大正第4ビル1階","lat":35.708124,"lon":139.373024},{"name":"脳を育てる運動療育センター　ピースマイル　中神教室","province":"東京都","city":"昭島市","address":"昭島市朝日町1-4-3SKビル2階B","lat":35.70806,"lon":139.375643},{"name":"ドリームボックス中神","province":"東京都","city":"昭島市","address":"昭島市玉川町2-4-11ヴェルシャトウ1階","lat":35.706738,"lon":139.378887},{"name":"昭島市子ども家庭支援センター","province":"東京都","city":"昭島市","address":"昭島市田中町1-17-1昭島市役所3階","lat":35.705755,"lon":139.353609},{"name":"昭島市子ども家庭支援センター","province":"東京都","city":"昭島市","address":"昭島市つつじが丘3-3-15アキシマエンシス校舎棟1階","lat":35.71172,"lon":139.36919},{"name":"昭島市子ども家庭支援センター","province":"東京都","city":"昭島市","address":"昭島市つつじが丘3-3-15アキシマエンシス校舎棟1階","lat":35.711993,"lon":139.36948},{"name":"昭島市子ども家庭支援センター","province":"東京都","city":"昭島市","address":"昭島市つつじが丘3-3-15アキシマエンシス校舎棟1階","lat":35.71412,"lon":139.36948},{"name":"多摩職業能力開発センター","province":"東京都","city":"昭島市","address":"東京都昭島市東町3丁目6-33","lat":35.69974508,"lon":139.39149757},{"name":"産業技術研究センター多摩テクノプラザ","province":"東京都","city":"昭島市","address":"東京都昭島市東町3丁目6-1","lat":35.69976454,"lon":139.39225862},{"name":"昭和高等学校","province":"東京都","city":"昭島市","address":"東京都昭島市東町2丁目3-21","lat":35.70384171,"lon":139.38706448},{"name":"拝島高等学校","province":"東京都","city":"昭島市","address":"東京都昭島市拝島町4丁目13-1","lat":35.70386031,"lon":139.34331551},{"name":"キッズサポートてんとうむし","province":"東京都","city":"昭島市","address":"昭島市上川原町3-8-22","lat":35.708302,"lon":139.35957},{"name":"特定非営利活動法人昭島ひよこ教室","province":"東京都","city":"昭島市","address":"昭島市昭和町4-7-1","lat":35.710835,"lon":139.364125},{"name":"放課後等デイサービス　つむぐ　中神第２教室","province":"東京都","city":"昭島市","address":"昭島市中神町1228-20ミリューヴィラージュ106","lat":35.708858,"lon":139.37794},{"name":"放課後等デイサービス　つむぐ　中神教室","province":"東京都","city":"昭島市","address":"昭島市朝日町3-18-9大正第4ビル1階","lat":35.708124,"lon":139.373024},{"name":"脳を育てる運動療育センター　ピースマイル　中神教室","province":"東京都","city":"昭島市","address":"昭島市朝日町1-4-3SKビル2階B","lat":35.70806,"lon":139.375643},{"name":"ドリームボックス中神","province":"東京都","city":"昭島市","address":"昭島市玉川町2-4-11ヴェルシャトウ1階","lat":35.706738,"lon":139.378887},{"name":"昭島市子ども家庭支援センター","province":"東京都","city":"昭島市","address":"昭島市田中町1-17-1昭島市役所3階","lat":35.705755,"lon":139.353609},{"name":"昭島市子ども家庭支援センター","province":"東京都","city":"昭島市","address":"昭島市つつじが丘3-3-15アキシマエンシス校舎棟1階","lat":35.71172,"lon":139.36919},{"name":"昭島市子ども家庭支援センター","province":"東京都","city":"昭島市","address":"昭島市つつじが丘3-3-15アキシマエンシス校舎棟1階","lat":35.711993,"lon":139.36948},{"name":"昭島市子ども家庭支援センター","province":"東京都","city":"昭島市","address":"昭島市つつじが丘3-3-15アキシマエンシス校舎棟1階","lat":35.71412,"lon":139.36948},{"name":"多摩職業能力開発センター","province":"東京都","city":"昭島市","address":"東京都昭島市東町3丁目6-33","lat":35.69974508,"lon":139.39149757},{"name":"産業技術研究センター多摩テクノプラザ","province":"東京都","city":"昭島市","address":"東京都昭島市東町3丁目6-1","lat":35.69976454,"lon":139.39225862},{"name":"昭和高等学校","province":"東京都","city":"昭島市","address":"東京都昭島市東町2丁目3-21","lat":35.70384171,"lon":139.38706448},{"name":"拝島高等学校","province":"東京都","city":"昭島市","address":"東京都昭島市拝島町4丁目13-1","lat":35.70386031,"lon":139.34331551},{"name":"キッズサポートてんとうむし","province":"東京都","city":"昭島市","address":"昭島市上川原町3-8-22","lat":35.708302,"lon":139.35957},{"name":"特定非営利活動法人昭島ひよこ教室","province":"東京都","city":"昭島市","address":"昭島市昭和町4-7-1","lat":35.710835,"lon":139.364125},{"name":"放課後等デイサービス　つむぐ　中神第２教室","province":"東京都","city":"昭島市","address":"昭島市中神町1228-20ミリューヴィラージュ106","lat":35.708858,"lon":139.37794},{"name":"放課後等デイサービス　つむぐ　中神教室","province":"東京都","city":"昭島市","address":"昭島市朝日町3-18-9大正第4ビル1階","lat":35.708124,"lon":139.373024},{"name":"脳を育てる運動療育センター　ピースマイル　中神教室","province":"東京都","city":"昭島市","address":"昭島市朝日町1-4-3SKビル2階B","lat":35.70806,"lon":139.375643},{"name":"ドリームボックス中神","province":"東京都","city":"昭島市","address":"昭島市玉川町2-4-11ヴェルシャトウ1階","lat":35.706738,"lon":139.378887},{"name":"昭島市子ども家庭支援センター","province":"東京都","city":"昭島市","address":"昭島市田中町1-17-1昭島市役所3階","lat":35.705755,"lon":139.353609},{"name":"昭島市子ども家庭支援センター","province":"東京都","city":"昭島市","address":"昭島市つつじが丘3-3-15アキシマエンシス校舎棟1階","lat":35.71172,"lon":139.36919},{"name":"昭島市子ども家庭支援センター","province":"東京都","city":"昭島市","address":"昭島市つつじが丘3-3-15アキシマエンシス校舎棟1階","lat":35.711993,"lon":139.36948},{"name":"昭島市子ども家庭支援センター","province":"東京都","city":"昭島市","address":"昭島市つつじが丘3-3-15アキシマエンシス校舎棟1階","lat":35.71412,"lon":139.36948},{"name":"多摩職業能力開発センター","province":"東京都","city":"昭島市","address":"東京都昭島市東町3丁目6-33","lat":35.69974508,"lon":139.39149757},{"name":"産業技術研究センター多摩テクノプラザ","province":"東京都","city":"昭島市","address":"東京都昭島市東町3丁目6-1","lat":35.69976454,"lon":139.39225862},{"name":"昭和高等学校","province":"東京都","city":"昭島市","address":"東京都昭島市東町2丁目3-21","lat":35.70384171,"lon":139.38706448},{"name":"拝島高等学校","province":"東京都","city":"昭島市","address":"東京都昭島市拝島町4丁目13-1","lat":35.70386031,"lon":139.34331551},{"name":"キッズサポートてんとうむし","province":"東京都","city":"昭島市","address":"昭島市上川原町3-8-22","lat":35.708302,"lon":139.35957},{"name":"特定非営利活動法人昭島ひよこ教室","province":"東京都","city":"昭島市","address":"昭島市昭和町4-7-1","lat":35.710835,"lon":139.364125},{"name":"放課後等デイサービス　つむぐ　中神第２教室","province":"東京都","city":"昭島市","address":"昭島市中神町1228-20ミリューヴィラージュ106","lat":35.708858,"lon":139.37794},{"name":"放課後等デイサービス　つむぐ　中神教室","province":"東京都","city":"昭島市","address":"昭島市朝日町3-18-9大正第4ビル1階","lat":35.708124,"lon":139.373024},{"name":"脳を育てる運動療育センター　ピースマイル　中神教室","province":"東京都","city":"昭島市","address":"昭島市朝日町1-4-3SKビル2階B","lat":35.70806,"lon":139.375643},{"name":"ドリームボックス中神","province":"東京都","city":"昭島市","address":"昭島市玉川町2-4-11ヴェルシャトウ1階","lat":35.706738,"lon":139.378887},{"name":"昭島市子ども家庭支援センター","province":"東京都","city":"昭島市","address":"昭島市田中町1-17-1昭島市役所3階","lat":35.705755,"lon":139.353609},{"name":"昭島市子ども家庭支援センター","province":"東京都","city":"昭島市","address":"昭島市つつじが丘3-3-15アキシマエンシス校舎棟1階","lat":35.71172,"lon":139.36919},{"name":"昭島市子ども家庭支援センター","province":"東京都","city":"昭島市","address":"昭島市つつじが丘3-3-15アキシマエンシス校舎棟1階","lat":35.711993,"lon":139.36948},{"name":"昭島市子ども家庭支援センター","province":"東京都","city":"昭島市","address":"昭島市つつじが丘3-3-15アキシマエンシス校舎棟1階","lat":35.71412,"lon":139.36948},{"name":"多摩職業能力開発センター","province":"東京都","city":"昭島市","address":"東京都昭島市東町3丁目6-33","lat":35.69974508,"lon":139.39149757},{"name":"産業技術研究センター多摩テクノプラザ","province":"東京都","city":"昭島市","address":"東京都昭島市東町3丁目6-1","lat":35.69976454,"lon":139.39225862},{"name":"昭和高等学校","province":"東京都","city":"昭島市","address":"東京都昭島市東町2丁目3-21","lat":35.70384171,"lon":139.38706448},{"name":"拝島高等学校","province":"東京都","city":"昭島市","address":"東京都昭島市拝島町4丁目13-1","lat":35.70386031,"lon":139.34331551},{"name":"キッズサポートてんとうむし","province":"東京都","city":"昭島市","address":"昭島市上川原町3-8-22","lat":35.708302,"lon":139.35957},{"name":"特定非営利活動法人昭島ひよこ教室","province":"東京都","city":"昭島市","address":"昭島市昭和町4-7-1","lat":35.710835,"lon":139.364125},{"name":"放課後等デイサービス　つむぐ　中神第２教室","province":"東京都","city":"昭島市","address":"昭島市中神町1228-20ミリューヴィラージュ106","lat":35.708858,"lon":139.37794},{"name":"放課後等デイサービス　つむぐ　中神教室","province":"東京都","city":"昭島市","address":"昭島市朝日町3-18-9大正第4ビル1階","lat":35.708124,"lon":139.373024},{"name":"脳を育てる運動療育センター　ピースマイル　中神教室","province":"東京都","city":"昭島市","address":"昭島市朝日町1-4-3SKビル2階B","lat":35.70806,"lon":139.375643},{"name":"ドリームボックス中神","province":"東京都","city":"昭島市","address":"昭島市玉川町2-4-11ヴェルシャトウ1階","lat":35.706738,"lon":139.378887},{"name":"昭島市子ども家庭支援センター","province":"東京都","city":"昭島市","address":"昭島市田中町1-17-1昭島市役所3階","lat":35.705755,"lon":139.353609},{"name":"昭島市子ども家庭支援センター","province":"東京都","city":"昭島市","address":"昭島市つつじが丘3-3-15アキシマエンシス校舎棟1階","lat":35.71172,"lon":139.36919},{"name":"昭島市子ども家庭支援センター","province":"東京都","city":"昭島市","address":"昭島市つつじが丘3-3-15アキシマエンシス校舎棟1階","lat":35.711993,"lon":139.36948},{"name":"昭島市子ども家庭支援センター","province":"東京都","city":"昭島市","address":"昭島市つつじが丘3-3-15アキシマエンシス校舎棟1階","lat":35.71412,"lon":139.36948},{"name":"多摩職業能力開発センター","province":"東京都","city":"昭島市","address":"東京都昭島市東町3丁目6-33","lat":35.69974508,"lon":139.39149757},{"name":"産業技術研究センター多摩テクノプラザ","province":"東京都","city":"昭島市","address":"東京都昭島市東町3丁目6-1","lat":35.69976454,"lon":139.39225862},{"name":"昭和高等学校","province":"東京都","city":"昭島市","address":"東京都昭島市東町2丁目3-21","lat":35.70384171,"lon":139.38706448},{"name":"拝島高等学校","province":"東京都","city":"昭島市","address":"東京都昭島市拝島町4丁目13-1","lat":35.70386031,"lon":139.34331551},{"name":"キッズサポートてんとうむし","province":"東京都","city":"昭島市","address":"昭島市上川原町3-8-22","lat":35.708302,"lon":139.35957},{"name":"特定非営利活動法人昭島ひよこ教室","province":"東京都","city":"昭島市","address":"昭島市昭和町4-7-1","lat":35.710835,"lon":139.364125},{"name":"放課後等デイサービス　つむぐ　中神第２教室","province":"東京都","city":"昭島市","address":"昭島市中神町1228-20ミリューヴィラージュ106","lat":35.708858,"lon":139.37794},{"name":"放課後等デイサービス　つむぐ　中神教室","province":"東京都","city":"昭島市","address":"昭島市朝日町3-18-9大正第4ビル1階","lat":35.708124,"lon":139.373024},{"name":"脳を育てる運動療育センター　ピースマイル　中神教室","province":"東京都","city":"昭島市","address":"昭島市朝日町1-4-3SKビル2階B","lat":35.70806,"lon":139.375643},{"name":"ドリームボックス中神","province":"東京都","city":"昭島市","address":"昭島市玉川町2-4-11ヴェルシャトウ1階","lat":35.706738,"lon":139.378887},{"name":"昭島市子ども家庭支援センター","province":"東京都","city":"昭島市","address":"昭島市田中町1-17-1昭島市役所3階","lat":35.705755,"lon":139.353609},{"name":"昭島市子ども家庭支援センター","province":"東京都","city":"昭島市","address":"昭島市つつじが丘3-3-15アキシマエンシス校舎棟1階","lat":35.71172,"lon":139.36919},{"name":"昭島市子ども家庭支援センター","province":"東京都","city":"昭島市","address":"昭島市つつじが丘3-3-15アキシマエンシス校舎棟1階","lat":35.711993,"lon":139.36948},{"name":"昭島市子ども家庭支援センター","province":"東京都","city":"昭島市","address":"昭島市つつじが丘3-3-15アキシマエンシス校舎棟1階","lat":35.71412,"lon":139.36948},{"name":"多摩職業能力開発センター","province":"東京都","city":"昭島市","address":"東京都昭島市東町3丁目6-33","lat":35.69974508,"lon":139.39149757},{"name":"産業技術研究センター多摩テクノプラザ","province":"東京都","city":"昭島市","address":"東京都昭島市東町3丁目6-1","lat":35.69976454,"lon":139.39225862},{"name":"昭和高等学校","province":"東京都","city":"昭島市","address":"東京都昭島市東町2丁目3-21","lat":35.70384171,"lon":139.38706448},{"name":"拝島高等学校","province":"東京都","city":"昭島市","address":"東京都昭島市拝島町4丁目13-1","lat":35.70386031,"lon":139.34331551},{"name":"キッズサポートてんとうむし","province":"東京都","city":"昭島市","address":"昭島市上川原町3-8-22","lat":35.708302,"lon":139.35957},{"name":"特定非営利活動法人昭島ひよこ教室","province":"東京都","city":"昭島市","address":"昭島市昭和町4-7-1","lat":35.710835,"lon":139.364125},{"name":"放課後等デイサービス　つむぐ　中神第２教室","province":"東京都","city":"昭島市","address":"昭島市中神町1228-20ミリューヴィラージュ106","lat":35.708858,"lon":139.37794},{"name":"放課後等デイサービス　つむぐ　中神教室","province":"東京都","city":"昭島市","address":"昭島市朝日町3-18-9大正第4ビル1階","lat":35.708124,"lon":139.373024},{"name":"脳を育てる運動療育センター　ピースマイル　中神教室","province":"東京都","city":"昭島市","address":"昭島市朝日町1-4-3SKビル2階B","lat":35.70806,"lon":139.375643},{"name":"ドリームボックス中神","province":"東京都","city":"昭島市","address":"昭島市玉川町2-4-11ヴェルシャトウ1階","lat":35.706738,"lon":139.378887},{"name":"昭島市子ども家庭支援センター","province":"東京都","city":"昭島市","address":"昭島市田中町1-17-1昭島市役所3階","lat":35.705755,"lon":139.353609},{"name":"昭島市子ども家庭支援センター","province":"東京都","city":"昭島市","address":"昭島市つつじが丘3-3-15アキシマエンシス校舎棟1階","lat":35.71172,"lon":139.36919},{"name":"昭島市子ども家庭支援センター","province":"東京都","city":"昭島市","address":"昭島市つつじが丘3-3-15アキシマエンシス校舎棟1階","lat":35.711993,"lon":139.36948},{"name":"昭島市子ども家庭支援センター","province":"東京都","city":"昭島市","address":"昭島市つつじが丘3-3-15アキシマエンシス校舎棟1階","lat":35.71412,"lon":139.36948},{"name":"多摩職業能力開発センター","province":"東京都","city":"昭島市","address":"東京都昭島市東町3丁目6-33","lat":35.69974508,"lon":139.39149757},{"name":"産業技術研究センター多摩テクノプラザ","province":"東京都","city":"昭島市","address":"東京都昭島市東町3丁目6-1","lat":35.69976454,"lon":139.39225862},{"name":"昭和高等学校","province":"東京都","city":"昭島市","address":"東京都昭島市東町2丁目3-21","lat":35.70384171,"lon":139.38706448},{"name":"拝島高等学校","province":"東京都","city":"昭島市","address":"東京都昭島市拝島町4丁目13-1","lat":35.70386031,"lon":139.34331551},{"name":"キッズサポートてんとうむし","province":"東京都","city":"昭島市","address":"昭島市上川原町3-8-22","lat":35.708302,"lon":139.35957},{"name":"特定非営利活動法人昭島ひよこ教室","province":"東京都","city":"昭島市","address":"昭島市昭和町4-7-1","lat":35.710835,"lon":139.364125},{"name":"放課後等デイサービス　つむぐ　中神第２教室","province":"東京都","city":"昭島市","address":"昭島市中神町1228-20ミリューヴィラージュ106","lat":35.708858,"lon":139.37794},{"name":"放課後等デイサービス　つむぐ　中神教室","province":"東京都","city":"昭島市","address":"昭島市朝日町3-18-9大正第4ビル1階","lat":35.708124,"lon":139.373024},{"name":"脳を育てる運動療育センター　ピースマイル　中神教室","province":"東京都","city":"昭島市","address":"昭島市朝日町1-4-3SKビル2階B","lat":35.70806,"lon":139.375643},{"name":"ドリームボックス中神","province":"東京都","city":"昭島市","address":"昭島市玉川町2-4-11ヴェルシャトウ1階","lat":35.706738,"lon":139.378887},{"name":"昭島市子ども家庭支援センター","province":"東京都","city":"昭島市","address":"昭島市田中町1-17-1昭島市役所3階","lat":35.705755,"lon":139.353609},{"name":"昭島市子ども家庭支援センター","province":"東京都","city":"昭島市","address":"昭島市つつじが丘3-3-15アキシマエンシス校舎棟1階","lat":35.71172,"lon":139.36919},{"name":"昭島市子ども家庭支援センター","province":"東京都","city":"昭島市","address":"昭島市つつじが丘3-3-15アキシマエンシス校舎棟1階","lat":35.711993,"lon":139.36948},{"name":"昭島市子ども家庭支援センター","province":"東京都","city":"昭島市","address":"昭島市つつじが丘3-3-15アキシマエンシス校舎棟1階","lat":35.71412,"lon":139.36948},{"name":"多摩職業能力開発センター","province":"東京都","city":"昭島市","address":"東京都昭島市東町3丁目6-33","lat":35.69974508,"lon":139.39149757},{"name":"産業技術研究センター多摩テクノプラザ","province":"東京都","city":"昭島市","address":"東京都昭島市東町3丁目6-1","lat":35.69976454,"lon":139.39225862},{"name":"昭和高等学校","province":"東京都","city":"昭島市","address":"東京都昭島市東町2丁目3-21","lat":35.70384171,"lon":139.38706448},{"name":"拝島高等学校","province":"東京都","city":"昭島市","address":"東京都昭島市拝島町4丁目13-1","lat":35.70386031,"lon":139.34331551},{"name":"キッズサポートてんとうむし","province":"東京都","city":"昭島市","address":"昭島市上川原町3-8-22","lat":35.708302,"lon":139.35957},{"name":"特定非営利活動法人昭島ひよこ教室","province":"東京都","city":"昭島市","address":"昭島市昭和町4-7-1","lat":35.710835,"lon":139.364125},{"name":"放課後等デイサービス　つむぐ　中神第２教室","province":"東京都","city":"昭島市","address":"昭島市中神町1228-20ミリューヴィラージュ106","lat":35.708858,"lon":139.37794},{"name":"放課後等デイサービス　つむぐ　中神教室","province":"東京都","city":"昭島市","address":"昭島市朝日町3-18-9大正第4ビル1階","lat":35.708124,"lon":139.373024},{"name":"脳を育てる運動療育センター　ピースマイル　中神教室","province":"東京都","city":"昭島市","address":"昭島市朝日町1-4-3SKビル2階B","lat":35.70806,"lon":139.375643},{"name":"ドリームボックス中神","province":"東京都","city":"昭島市","address":"昭島市玉川町2-4-11ヴェルシャトウ1階","lat":35.706738,"lon":139.378887},{"name":"昭島市子ども家庭支援センター","province":"東京都","city":"昭島市","address":"昭島市田中町1-17-1昭島市役所3階","lat":35.705755,"lon":139.353609},{"name":"昭島市子ども家庭支援センター","province":"東京都","city":"昭島市","address":"昭島市つつじが丘3-3-15アキシマエンシス校舎棟1階","lat":35.71172,"lon":139.36919},{"name":"昭島市子ども家庭支援センター","province":"東京都","city":"昭島市","address":"昭島市つつじが丘3-3-15アキシマエンシス校舎棟1階","lat":35.711993,"lon":139.36948},{"name":"昭島市子ども家庭支援センター","province":"東京都","city":"昭島市","address":"昭島市つつじが丘3-3-15アキシマエンシス校舎棟1階","lat":35.71412,"lon":139.36948},{"name":"多摩職業能力開発センター","province":"東京都","city":"昭島市","address":"東京都昭島市東町3丁目6-33","lat":35.69974508,"lon":139.39149757},{"name":"産業技術研究センター多摩テクノプラザ","province":"東京都","city":"昭島市","address":"東京都昭島市東町3丁目6-1","lat":35.69976454,"lon":139.39225862},{"name":"昭和高等学校","province":"東京都","city":"昭島市","address":"東京都昭島市東町2丁目3-21","lat":35.70384171,"lon":139.38706448},{"name":"拝島高等学校","province":"東京都","city":"昭島市","address":"東京都昭島市拝島町4丁目13-1","lat":35.70386031,"lon":139.34331551},{"name":"キッズサポートてんとうむし","province":"東京都","city":"昭島市","address":"昭島市上川原町3-8-22","lat":35.708302,"lon":139.35957},{"name":"特定非営利活動法人昭島ひよこ教室","province":"東京都","city":"昭島市","address":"昭島市昭和町4-7-1","lat":35.710835,"lon":139.364125},{"name":"放課後等デイサービス　つむぐ　中神第２教室","province":"東京都","city":"昭島市","address":"昭島市中神町1228-20ミリューヴィラージュ106","lat":35.708858,"lon":139.37794},{"name":"放課後等デイサービス　つむぐ　中神教室","province":"東京都","city":"昭島市","address":"昭島市朝日町3-18-9大正第4ビル1階","lat":35.708124,"lon":139.373024},{"name":"脳を育てる運動療育センター　ピースマイル　中神教室","province":"東京都","city":"昭島市","address":"昭島市朝日町1-4-3SKビル2階B","lat":35.70806,"lon":139.375643},{"name":"ドリームボックス中神","province":"東京都","city":"昭島市","address":"昭島市玉川町2-4-11ヴェルシャトウ1階","lat":35.706738,"lon":139.378887},{"name":"昭島市子ども家庭支援センター","province":"東京都","city":"昭島市","address":"昭島市田中町1-17-1昭島市役所3階","lat":35.705755,"lon":139.353609},{"name":"昭島市子ども家庭支援センター","province":"東京都","city":"昭島市","address":"昭島市つつじが丘3-3-15アキシマエンシス校舎棟1階","lat":35.71172,"lon":139.36919},{"name":"昭島市子ども家庭支援センター","province":"東京都","city":"昭島市","address":"昭島市つつじが丘3-3-15アキシマエンシス校舎棟1階","lat":35.711993,"lon":139.36948},{"name":"昭島市子ども家庭支援センター","province":"東京都","city":"昭島市","address":"昭島市つつじが丘3-3-15アキシマエンシス校舎棟1階","lat":35.71412,"lon":139.36948},{"name":"多摩職業能力開発センター","province":"東京都","city":"昭島市","address":"東京都昭島市東町3丁目6-33","lat":35.69974508,"lon":139.39149757},{"name":"産業技術研究センター多摩テクノプラザ","province":"東京都","city":"昭島市","address":"東京都昭島市東町3丁目6-1","lat":35.69976454,"lon":139.39225862},{"name":"昭和高等学校","province":"東京都","city":"昭島市","address":"東京都昭島市東町2丁目3-21","lat":35.70384171,"lon":139.38706448},{"name":"拝島高等学校","province":"東京都","city":"昭島市","address":"東京都昭島市拝島町4丁目13-1","lat":35.70386031,"lon":139.34331551},{"name":"キッズサポートてんとうむし","province":"東京都","city":"昭島市","address":"昭島市上川原町3-8-22","lat":35.708302,"lon":139.35957},{"name":"特定非営利活動法人昭島ひよこ教室","province":"東京都","city":"昭島市","address":"昭島市昭和町4-7-1","lat":35.710835,"lon":139.364125},{"name":"放課後等デイサービス　つむぐ　中神第２教室","province":"東京都","city":"昭島市","address":"昭島市中神町1228-20ミリューヴィラージュ106","lat":35.708858,"lon":139.37794},{"name":"放課後等デイサービス　つむぐ　中神教室","province":"東京都","city":"昭島市","address":"昭島市朝日町3-18-9大正第4ビル1階","lat":35.708124,"lon":139.373024},{"name":"脳を育てる運動療育センター　ピースマイル　中神教室","province":"東京都","city":"昭島市","address":"昭島市朝日町1-4-3SKビル2階B","lat":35.70806,"lon":139.375643},{"name":"ドリームボックス中神","province":"東京都","city":"昭島市","address":"昭島市玉川町2-4-11ヴェルシャトウ1階","lat":35.706738,"lon":139.378887},{"name":"昭島市子ども家庭支援センター","province":"東京都","city":"昭島市","address":"昭島市田中町1-17-1昭島市役所3階","lat":35.705755,"lon":139.353609},{"name":"昭島市子ども家庭支援センター","province":"東京都","city":"昭島市","address":"昭島市つつじが丘3-3-15アキシマエンシス校舎棟1階","lat":35.71172,"lon":139.36919},{"name":"昭島市子ども家庭支援センター","province":"東京都","city":"昭島市","address":"昭島市つつじが丘3-3-15アキシマエンシス校舎棟1階","lat":35.711993,"lon":139.36948},{"name":"昭島市子ども家庭支援センター","province":"東京都","city":"昭島市","address":"昭島市つつじが丘3-3-15アキシマエンシス校舎棟1階","lat":35.71412,"lon":139.36948},{"name":"多摩職業能力開発センター","province":"東京都","city":"昭島市","address":"東京都昭島市東町3丁目6-33","lat":35.69974508,"lon":139.39149757},{"name":"産業技術研究センター多摩テクノプラザ","province":"東京都","city":"昭島市","address":"東京都昭島市東町3丁目6-1","lat":35.69976454,"lon":139.39225862},{"name":"昭和高等学校","province":"東京都","city":"昭島市","address":"東京都昭島市東町2丁目3-21","lat":35.70384171,"lon":139.38706448},{"name":"拝島高等学校","province":"東京都","city":"昭島市","address":"東京都昭島市拝島町4丁目13-1","lat":35.70386031,"lon":139.34331551},{"name":"キッズサポートてんとうむし","province":"東京都","city":"昭島市","address":"昭島市上川原町3-8-22","lat":35.708302,"lon":139.35957},{"name":"特定非営利活動法人昭島ひよこ教室","province":"東京都","city":"昭島市","address":"昭島市昭和町4-7-1","lat":35.710835,"lon":139.364125},{"name":"放課後等デイサービス　つむぐ　中神第２教室","province":"東京都","city":"昭島市","address":"昭島市中神町1228-20ミリューヴィラージュ106","lat":35.708858,"lon":139.37794},{"name":"放課後等デイサービス　つむぐ　中神教室","province":"東京都","city":"昭島市","address":"昭島市朝日町3-18-9大正第4ビル1階","lat":35.708124,"lon":139.373024},{"name":"脳を育てる運動療育センター　ピースマイル　中神教室","province":"東京都","city":"昭島市","address":"昭島市朝日町1-4-3SKビル2階B","lat":35.70806,"lon":139.375643},{"name":"ドリームボックス中神","province":"東京都","city":"昭島市","address":"昭島市玉川町2-4-11ヴェルシャトウ1階","lat":35.706738,"lon":139.378887},{"name":"昭島市子ども家庭支援センター","province":"東京都","city":"昭島市","address":"昭島市田中町1-17-1昭島市役所3階","lat":35.705755,"lon":139.353609},{"name":"昭島市子ども家庭支援センター","province":"東京都","city":"昭島市","address":"昭島市つつじが丘3-3-15アキシマエンシス校舎棟1階","lat":35.71172,"lon":139.36919},{"name":"昭島市子ども家庭支援センター","province":"東京都","city":"昭島市","address":"昭島市つつじが丘3-3-15アキシマエンシス校舎棟1階","lat":35.711993,"lon":139.36948},{"name":"昭島市子ども家庭支援センター","province":"東京都","city":"昭島市","address":"昭島市つつじが丘3-3-15アキシマエンシス校舎棟1階","lat":35.71412,"lon":139.36948},{"name":"キッズサポートてんとうむし","province":"東京都","city":"昭島市","address":"昭島市上川原町3-8-22","lat":35.708302,"lon":139.35957},{"name":"特定非営利活動法人昭島ひよこ教室","province":"東京都","city":"昭島市","address":"昭島市昭和町4-7-1","lat":35.710835,"lon":139.364125},{"name":"放課後等デイサービス　つむぐ　中神第２教室","province":"東京都","city":"昭島市","address":"昭島市中神町1228-20ミリューヴィラージュ106","lat":35.708858,"lon":139.37794},{"name":"放課後等デイサービス　つむぐ　中神教室","province":"東京都","city":"昭島市","address":"昭島市朝日町3-18-9大正第4ビル1階","lat":35.708124,"lon":139.373024},{"name":"脳を育てる運動療育センター　ピースマイル　中神教室","province":"東京都","city":"昭島市","address":"昭島市朝日町1-4-3SKビル2階B","lat":35.70806,"lon":139.375643},{"name":"ドリームボックス中神","province":"東京都","city":"昭島市","address":"昭島市玉川町2-4-11ヴェルシャトウ1階","lat":35.706738,"lon":139.378887},{"name":"昭島市子ども家庭支援センター","province":"東京都","city":"昭島市","address":"昭島市田中町1-17-1昭島市役所3階","lat":35.705755,"lon":139.353609},{"name":"昭島市子ども家庭支援センター","province":"東京都","city":"昭島市","address":"昭島市つつじが丘3-3-15アキシマエンシス校舎棟1階","lat":35.71172,"lon":139.36919},{"name":"昭島市子ども家庭支援センター","province":"東京都","city":"昭島市","address":"昭島市つつじが丘3-3-15アキシマエンシス校舎棟1階","lat":35.711993,"lon":139.36948},{"name":"昭島市子ども家庭支援センター","province":"東京都","city":"昭島市","address":"昭島市つつじが丘3-3-15アキシマエンシス校舎棟1階","lat":35.71412,"lon":139.36948},{"name":"キッズサポートてんとうむし","province":"東京都","city":"昭島市","address":"昭島市上川原町3-8-22","lat":35.708302,"lon":139.35957},{"name":"特定非営利活動法人昭島ひよこ教室","province":"東京都","city":"昭島市","address":"昭島市昭和町4-7-1","lat":35.710835,"lon":139.364125},{"name":"放課後等デイサービス　つむぐ　中神第２教室","province":"東京都","city":"昭島市","address":"昭島市中神町1228-20ミリューヴィラージュ106","lat":35.708858,"lon":139.37794},{"name":"放課後等デイサービス　つむぐ　中神教室","province":"東京都","city":"昭島市","address":"昭島市朝日町3-18-9大正第4ビル1階","lat":35.708124,"lon":139.373024},{"name":"脳を育てる運動療育センター　ピースマイル　中神教室","province":"東京都","city":"昭島市","address":"昭島市朝日町1-4-3SKビル2階B","lat":35.70806,"lon":139.375643},{"name":"ドリームボックス中神","province":"東京都","city":"昭島市","address":"昭島市玉川町2-4-11ヴェルシャトウ1階","lat":35.706738,"lon":139.378887},{"name":"昭島市子ども家庭支援センター","province":"東京都","city":"昭島市","address":"昭島市田中町1-17-1昭島市役所3階","lat":35.705755,"lon":139.353609},{"name":"昭島市子ども家庭支援センター","province":"東京都","city":"昭島市","address":"昭島市つつじが丘3-3-15アキシマエンシス校舎棟1階","lat":35.71172,"lon":139.36919},{"name":"昭島市子ども家庭支援センター","province":"東京都","city":"昭島市","address":"昭島市つつじが丘3-3-15アキシマエンシス校舎棟1階","lat":35.711993,"lon":139.36948},{"name":"昭島市子ども家庭支援センター","province":"東京都","city":"昭島市","address":"昭島市つつじが丘3-3-15アキシマエンシス校舎棟1階","lat":35.71412,"lon":139.36948},{"name":"キッズサポートてんとうむし","province":"東京都","city":"昭島市","address":"昭島市上川原町3-8-22","lat":35.708302,"lon":139.35957},{"name":"特定非営利活動法人昭島ひよこ教室","province":"東京都","city":"昭島市","address":"昭島市昭和町4-7-1","lat":35.710835,"lon":139.364125},{"name":"放課後等デイサービス　つむぐ　中神第２教室","province":"東京都","city":"昭島市","address":"昭島市中神町1228-20ミリューヴィラージュ106","lat":35.708858,"lon":139.37794},{"name":"放課後等デイサービス　つむぐ　中神教室","province":"東京都","city":"昭島市","address":"昭島市朝日町3-18-9大正第4ビル1階","lat":35.708124,"lon":139.373024},{"name":"脳を育てる運動療育センター　ピースマイル　中神教室","province":"東京都","city":"昭島市","address":"昭島市朝日町1-4-3SKビル2階B","lat":35.70806,"lon":139.375643},{"name":"ドリームボックス中神","province":"東京都","city":"昭島市","address":"昭島市玉川町2-4-11ヴェルシャトウ1階","lat":35.706738,"lon":139.378887},{"name":"昭島市子ども家庭支援センター","province":"東京都","city":"昭島市","address":"昭島市田中町1-17-1昭島市役所3階","lat":35.705755,"lon":139.353609},{"name":"昭島市子ども家庭支援センター","province":"東京都","city":"昭島市","address":"昭島市つつじが丘3-3-15アキシマエンシス校舎棟1階","lat":35.71172,"lon":139.36919},{"name":"昭島市子ども家庭支援センター","province":"東京都","city":"昭島市","address":"昭島市つつじが丘3-3-15アキシマエンシス校舎棟1階","lat":35.711993,"lon":139.36948},{"name":"昭島市子ども家庭支援センター","province":"東京都","city":"昭島市","address":"昭島市つつじが丘3-3-15アキシマエンシス校舎棟1階","lat":35.71412,"lon":139.36948},{"name":"キッズサポートてんとうむし","province":"東京都","city":"昭島市","address":"昭島市上川原町3-8-22","lat":35.708302,"lon":139.35957},{"name":"特定非営利活動法人昭島ひよこ教室","province":"東京都","city":"昭島市","address":"昭島市昭和町4-7-1","lat":35.710835,"lon":139.364125},{"name":"放課後等デイサービス　つむぐ　中神第２教室","province":"東京都","city":"昭島市","address":"昭島市中神町1228-20ミリューヴィラージュ106","lat":35.708858,"lon":139.37794},{"name":"放課後等デイサービス　つむぐ　中神教室","province":"東京都","city":"昭島市","address":"昭島市朝日町3-18-9大正第4ビル1階","lat":35.708124,"lon":139.373024},{"name":"脳を育てる運動療育センター　ピースマイル　中神教室","province":"東京都","city":"昭島市","address":"昭島市朝日町1-4-3SKビル2階B","lat":35.70806,"lon":139.375643},{"name":"ドリームボックス中神","province":"東京都","city":"昭島市","address":"昭島市玉川町2-4-11ヴェルシャトウ1階","lat":35.706738,"lon":139.378887},{"name":"昭島市子ども家庭支援センター","province":"東京都","city":"昭島市","address":"昭島市田中町1-17-1昭島市役所3階","lat":35.705755,"lon":139.353609},{"name":"昭島市子ども家庭支援センター","province":"東京都","city":"昭島市","address":"昭島市つつじが丘3-3-15アキシマエンシス校舎棟1階","lat":35.71172,"lon":139.36919},{"name":"昭島市子ども家庭支援センター","province":"東京都","city":"昭島市","address":"昭島市つつじが丘3-3-15アキシマエンシス校舎棟1階","lat":35.711993,"lon":139.36948},{"name":"昭島市子ども家庭支援センター","province":"東京都","city":"昭島市","address":"昭島市つつじが丘3-3-15アキシマエンシス校舎棟1階","lat":35.71412,"lon":139.36948},{"name":"キッズサポートてんとうむし","province":"東京都","city":"昭島市","address":"昭島市上川原町3-8-22","lat":35.708302,"lon":139.35957},{"name":"特定非営利活動法人昭島ひよこ教室","province":"東京都","city":"昭島市","address":"昭島市昭和町4-7-1","lat":35.710835,"lon":139.364125},{"name":"放課後等デイサービス　つむぐ　中神第２教室","province":"東京都","city":"昭島市","address":"昭島市中神町1228-20ミリューヴィラージュ106","lat":35.708858,"lon":139.37794},{"name":"放課後等デイサービス　つむぐ　中神教室","province":"東京都","city":"昭島市","address":"昭島市朝日町3-18-9大正第4ビル1階","lat":35.708124,"lon":139.373024},{"name":"脳を育てる運動療育センター　ピースマイル　中神教室","province":"東京都","city":"昭島市","address":"昭島市朝日町1-4-3SKビル2階B","lat":35.70806,"lon":139.375643},{"name":"ドリームボックス中神","province":"東京都","city":"昭島市","address":"昭島市玉川町2-4-11ヴェルシャトウ1階","lat":35.706738,"lon":139.378887},{"name":"昭島市子ども家庭支援センター","province":"東京都","city":"昭島市","address":"昭島市田中町1-17-1昭島市役所3階","lat":35.705755,"lon":139.353609},{"name":"昭島市子ども家庭支援センター","province":"東京都","city":"昭島市","address":"昭島市つつじが丘3-3-15アキシマエンシス校舎棟1階","lat":35.71172,"lon":139.36919},{"name":"昭島市子ども家庭支援センター","province":"東京都","city":"昭島市","address":"昭島市つつじが丘3-3-15アキシマエンシス校舎棟1階","lat":35.711993,"lon":139.36948},{"name":"昭島市子ども家庭支援センター","province":"東京都","city":"昭島市","address":"昭島市つつじが丘3-3-15アキシマエンシス校舎棟1階","lat":35.71412,"lon":139.36948},{"name":"キッズサポートてんとうむし","province":"東京都","city":"昭島市","address":"昭島市上川原町3-8-22","lat":35.708302,"lon":139.35957},{"name":"特定非営利活動法人昭島ひよこ教室","province":"東京都","city":"昭島市","address":"昭島市昭和町4-7-1","lat":35.710835,"lon":139.364125},{"name":"放課後等デイサービス　つむぐ　中神第２教室","province":"東京都","city":"昭島市","address":"昭島市中神町1228-20ミリューヴィラージュ106","lat":35.708858,"lon":139.37794},{"name":"放課後等デイサービス　つむぐ　中神教室","province":"東京都","city":"昭島市","address":"昭島市朝日町3-18-9大正第4ビル1階","lat":35.708124,"lon":139.373024},{"name":"脳を育てる運動療育センター　ピースマイル　中神教室","province":"東京都","city":"昭島市","address":"昭島市朝日町1-4-3SKビル2階B","lat":35.70806,"lon":139.375643},{"name":"ドリームボックス中神","province":"東京都","city":"昭島市","address":"昭島市玉川町2-4-11ヴェルシャトウ1階","lat":35.706738,"lon":139.378887},{"name":"昭島市子ども家庭支援センター","province":"東京都","city":"昭島市","address":"昭島市田中町1-17-1昭島市役所3階","lat":35.705755,"lon":139.353609},{"name":"昭島市子ども家庭支援センター","province":"東京都","city":"昭島市","address":"昭島市つつじが丘3-3-15アキシマエンシス校舎棟1階","lat":35.71172,"lon":139.36919},{"name":"昭島市子ども家庭支援センター","province":"東京都","city":"昭島市","address":"昭島市つつじが丘3-3-15アキシマエンシス校舎棟1階","lat":35.711993,"lon":139.36948},{"name":"昭島市子ども家庭支援センター","province":"東京都","city":"昭島市","address":"昭島市つつじが丘3-3-15アキシマエンシス校舎棟1階","lat":35.71412,"lon":139.36948},{"name":"キッズサポートてんとうむし","province":"東京都","city":"昭島市","address":"昭島市上川原町3-8-22","lat":35.708302,"lon":139.35957},{"name":"特定非営利活動法人昭島ひよこ教室","province":"東京都","city":"昭島市","address":"昭島市昭和町4-7-1","lat":35.710835,"lon":139.364125},{"name":"放課後等デイサービス　つむぐ　中神第２教室","province":"東京都","city":"昭島市","address":"昭島市中神町1228-20ミリューヴィラージュ106","lat":35.708858,"lon":139.37794},{"name":"放課後等デイサービス　つむぐ　中神教室","province":"東京都","city":"昭島市","address":"昭島市朝日町3-18-9大正第4ビル1階","lat":35.708124,"lon":139.373024},{"name":"脳を育てる運動療育センター　ピースマイル　中神教室","province":"東京都","city":"昭島市","address":"昭島市朝日町1-4-3SKビル2階B","lat":35.70806,"lon":139.375643},{"name":"ドリームボックス中神","province":"東京都","city":"昭島市","address":"昭島市玉川町2-4-11ヴェルシャトウ1階","lat":35.706738,"lon":139.378887},{"name":"昭島市子ども家庭支援センター","province":"東京都","city":"昭島市","address":"昭島市田中町1-17-1昭島市役所3階","lat":35.705755,"lon":139.353609},{"name":"昭島市子ども家庭支援センター","province":"東京都","city":"昭島市","address":"昭島市つつじが丘3-3-15アキシマエンシス校舎棟1階","lat":35.71172,"lon":139.36919},{"name":"昭島市子ども家庭支援センター","province":"東京都","city":"昭島市","address":"昭島市つつじが丘3-3-15アキシマエンシス校舎棟1階","lat":35.711993,"lon":139.36948},{"name":"昭島市子ども家庭支援センター","province":"東京都","city":"昭島市","address":"昭島市つつじが丘3-3-15アキシマエンシス校舎棟1階","lat":35.71412,"lon":139.36948},{"name":"キッズサポートてんとうむし","province":"東京都","city":"昭島市","address":"昭島市上川原町3-8-22","lat":35.708302,"lon":139.35957},{"name":"特定非営利活動法人昭島ひよこ教室","province":"東京都","city":"昭島市","address":"昭島市昭和町4-7-1","lat":35.710835,"lon":139.364125},{"name":"放課後等デイサービス　つむぐ　中神第２教室","province":"東京都","city":"昭島市","address":"昭島市中神町1228-20ミリューヴィラージュ106","lat":35.708858,"lon":139.37794},{"name":"放課後等デイサービス　つむぐ　中神教室","province":"東京都","city":"昭島市","address":"昭島市朝日町3-18-9大正第4ビル1階","lat":35.708124,"lon":139.373024},{"name":"脳を育てる運動療育センター　ピースマイル　中神教室","province":"東京都","city":"昭島市","address":"昭島市朝日町1-4-3SKビル2階B","lat":35.70806,"lon":139.375643},{"name":"ドリームボックス中神","province":"東京都","city":"昭島市","address":"昭島市玉川町2-4-11ヴェルシャトウ1階","lat":35.706738,"lon":139.378887},{"name":"昭島市子ども家庭支援センター","province":"東京都","city":"昭島市","address":"昭島市田中町1-17-1昭島市役所3階","lat":35.705755,"lon":139.353609},{"name":"昭島市子ども家庭支援センター","province":"東京都","city":"昭島市","address":"昭島市つつじが丘3-3-15アキシマエンシス校舎棟1階","lat":35.71172,"lon":139.36919},{"name":"昭島市子ども家庭支援センター","province":"東京都","city":"昭島市","address":"昭島市つつじが丘3-3-15アキシマエンシス校舎棟1階","lat":35.711993,"lon":139.36948},{"name":"昭島市子ども家庭支援センター","province":"東京都","city":"昭島市","address":"昭島市つつじが丘3-3-15アキシマエンシス校舎棟1階","lat":35.71412,"lon":139.36948},{"name":"キッズサポートてんとうむし","province":"東京都","city":"昭島市","address":"昭島市上川原町3-8-22","lat":35.708302,"lon":139.35957},{"name":"特定非営利活動法人昭島ひよこ教室","province":"東京都","city":"昭島市","address":"昭島市昭和町4-7-1","lat":35.710835,"lon":139.364125},{"name":"放課後等デイサービス　つむぐ　中神第２教室","province":"東京都","city":"昭島市","address":"昭島市中神町1228-20ミリューヴィラージュ106","lat":35.708858,"lon":139.37794},{"name":"放課後等デイサービス　つむぐ　中神教室","province":"東京都","city":"昭島市","address":"昭島市朝日町3-18-9大正第4ビル1階","lat":35.708124,"lon":139.373024},{"name":"脳を育てる運動療育センター　ピースマイル　中神教室","province":"東京都","city":"昭島市","address":"昭島市朝日町1-4-3SKビル2階B","lat":35.70806,"lon":139.375643},{"name":"ドリームボックス中神","province":"東京都","city":"昭島市","address":"昭島市玉川町2-4-11ヴェルシャトウ1階","lat":35.706738,"lon":139.378887},{"name":"昭島市子ども家庭支援センター","province":"東京都","city":"昭島市","address":"昭島市田中町1-17-1昭島市役所3階","lat":35.705755,"lon":139.353609},{"name":"昭島市子ども家庭支援センター","province":"東京都","city":"昭島市","address":"昭島市つつじが丘3-3-15アキシマエンシス校舎棟1階","lat":35.71172,"lon":139.36919},{"name":"昭島市子ども家庭支援センター","province":"東京都","city":"昭島市","address":"昭島市つつじが丘3-3-15アキシマエンシス校舎棟1階","lat":35.711993,"lon":139.36948},{"name":"昭島市子ども家庭支援センター","province":"東京都","city":"昭島市","address":"昭島市つつじが丘3-3-15アキシマエンシス校舎棟1階","lat":35.71412,"lon":139.36948},{"name":"キッズサポートてんとうむし","province":"東京都","city":"昭島市","address":"昭島市上川原町3-8-22","lat":35.708302,"lon":139.35957},{"name":"特定非営利活動法人昭島ひよこ教室","province":"東京都","city":"昭島市","address":"昭島市昭和町4-7-1","lat":35.710835,"lon":139.364125},{"name":"放課後等デイサービス　つむぐ　中神第２教室","province":"東京都","city":"昭島市","address":"昭島市中神町1228-20ミリューヴィラージュ106","lat":35.708858,"lon":139.37794},{"name":"放課後等デイサービス　つむぐ　中神教室","province":"東京都","city":"昭島市","address":"昭島市朝日町3-18-9大正第4ビル1階","lat":35.708124,"lon":139.373024},{"name":"脳を育てる運動療育センター　ピースマイル　中神教室","province":"東京都","city":"昭島市","address":"昭島市朝日町1-4-3SKビル2階B","lat":35.70806,"lon":139.375643},{"name":"ドリームボックス中神","province":"東京都","city":"昭島市","address":"昭島市玉川町2-4-11ヴェルシャトウ1階","lat":35.706738,"lon":139.378887},{"name":"昭島市子ども家庭支援センター","province":"東京都","city":"昭島市","address":"昭島市田中町1-17-1昭島市役所3階","lat":35.705755,"lon":139.353609},{"name":"昭島市子ども家庭支援センター","province":"東京都","city":"昭島市","address":"昭島市つつじが丘3-3-15アキシマエンシス校舎棟1階","lat":35.71172,"lon":139.36919},{"name":"昭島市子ども家庭支援センター","province":"東京都","city":"昭島市","address":"昭島市つつじが丘3-3-15アキシマエンシス校舎棟1階","lat":35.711993,"lon":139.36948},{"name":"昭島市子ども家庭支援センター","province":"東京都","city":"昭島市","address":"昭島市つつじが丘3-3-15アキシマエンシス校舎棟1階","lat":35.71412,"lon":139.36948},{"name":"キッズサポートてんとうむし","province":"東京都","city":"昭島市","address":"昭島市上川原町3-8-22","lat":35.708302,"lon":139.35957},{"name":"特定非営利活動法人昭島ひよこ教室","province":"東京都","city":"昭島市","address":"昭島市昭和町4-7-1","lat":35.710835,"lon":139.364125},{"name":"放課後等デイサービス　つむぐ　中神第２教室","province":"東京都","city":"昭島市","address":"昭島市中神町1228-20ミリューヴィラージュ106","lat":35.708858,"lon":139.37794},{"name":"放課後等デイサービス　つむぐ　中神教室","province":"東京都","city":"昭島市","address":"昭島市朝日町3-18-9大正第4ビル1階","lat":35.708124,"lon":139.373024},{"name":"脳を育てる運動療育センター　ピースマイル　中神教室","province":"東京都","city":"昭島市","address":"昭島市朝日町1-4-3SKビル2階B","lat":35.70806,"lon":139.375643},{"name":"ドリームボックス中神","province":"東京都","city":"昭島市","address":"昭島市玉川町2-4-11ヴェルシャトウ1階","lat":35.706738,"lon":139.378887},{"name":"昭島市子ども家庭支援センター","province":"東京都","city":"昭島市","address":"昭島市田中町1-17-1昭島市役所3階","lat":35.705755,"lon":139.353609},{"name":"昭島市子ども家庭支援センター","province":"東京都","city":"昭島市","address":"昭島市つつじが丘3-3-15アキシマエンシス校舎棟1階","lat":35.71172,"lon":139.36919},{"name":"昭島市子ども家庭支援センター","province":"東京都","city":"昭島市","address":"昭島市つつじが丘3-3-15アキシマエンシス校舎棟1階","lat":35.711993,"lon":139.36948},{"name":"昭島市子ども家庭支援センター","province":"東京都","city":"昭島市","address":"昭島市つつじが丘3-3-15アキシマエンシス校舎棟1階","lat":35.71412,"lon":139.36948},{"name":"キッズサポートてんとうむし","province":"東京都","city":"昭島市","address":"昭島市上川原町3-8-22","lat":35.708302,"lon":139.35957},{"name":"特定非営利活動法人昭島ひよこ教室","province":"東京都","city":"昭島市","address":"昭島市昭和町4-7-1","lat":35.710835,"lon":139.364125},{"name":"放課後等デイサービス　つむぐ　中神第２教室","province":"東京都","city":"昭島市","address":"昭島市中神町1228-20ミリューヴィラージュ106","lat":35.708858,"lon":139.37794},{"name":"放課後等デイサービス　つむぐ　中神教室","province":"東京都","city":"昭島市","address":"昭島市朝日町3-18-9大正第4ビル1階","lat":35.708124,"lon":139.373024},{"name":"脳を育てる運動療育センター　ピースマイル　中神教室","province":"東京都","city":"昭島市","address":"昭島市朝日町1-4-3SKビル2階B","lat":35.70806,"lon":139.375643},{"name":"ドリームボックス中神","province":"東京都","city":"昭島市","address":"昭島市玉川町2-4-11ヴェルシャトウ1階","lat":35.706738,"lon":139.378887},{"name":"昭島市子ども家庭支援センター","province":"東京都","city":"昭島市","address":"昭島市田中町1-17-1昭島市役所3階","lat":35.705755,"lon":139.353609},{"name":"昭島市子ども家庭支援センター","province":"東京都","city":"昭島市","address":"昭島市つつじが丘3-3-15アキシマエンシス校舎棟1階","lat":35.71172,"lon":139.36919},{"name":"昭島市子ども家庭支援センター","province":"東京都","city":"昭島市","address":"昭島市つつじが丘3-3-15アキシマエンシス校舎棟1階","lat":35.711993,"lon":139.36948},{"name":"昭島市子ども家庭支援センター","province":"東京都","city":"昭島市","address":"昭島市つつじが丘3-3-15アキシマエンシス校舎棟1階","lat":35.71412,"lon":139.36948},{"name":"キッズサポートてんとうむし","province":"東京都","city":"昭島市","address":"昭島市上川原町3-8-22","lat":35.708302,"lon":139.35957},{"name":"特定非営利活動法人昭島ひよこ教室","province":"東京都","city":"昭島市","address":"昭島市昭和町4-7-1","lat":35.710835,"lon":139.364125},{"name":"放課後等デイサービス　つむぐ　中神第２教室","province":"東京都","city":"昭島市","address":"昭島市中神町1228-20ミリューヴィラージュ106","lat":35.708858,"lon":139.37794},{"name":"放課後等デイサービス　つむぐ　中神教室","province":"東京都","city":"昭島市","address":"昭島市朝日町3-18-9大正第4ビル1階","lat":35.708124,"lon":139.373024},{"name":"脳を育てる運動療育センター　ピースマイル　中神教室","province":"東京都","city":"昭島市","address":"昭島市朝日町1-4-3SKビル2階B","lat":35.70806,"lon":139.375643},{"name":"ドリームボックス中神","province":"東京都","city":"昭島市","address":"昭島市玉川町2-4-11ヴェルシャトウ1階","lat":35.706738,"lon":139.378887},{"name":"昭島市子ども家庭支援センター","province":"東京都","city":"昭島市","address":"昭島市田中町1-17-1昭島市役所3階","lat":35.705755,"lon":139.353609},{"name":"昭島市子ども家庭支援センター","province":"東京都","city":"昭島市","address":"昭島市つつじが丘3-3-15アキシマエンシス校舎棟1階","lat":35.71172,"lon":139.36919},{"name":"昭島市子ども家庭支援センター","province":"東京都","city":"昭島市","address":"昭島市つつじが丘3-3-15アキシマエンシス校舎棟1階","lat":35.711993,"lon":139.36948},{"name":"昭島市子ども家庭支援センター","province":"東京都","city":"昭島市","address":"昭島市つつじが丘3-3-15アキシマエンシス校舎棟1階","lat":35.71412,"lon":139.36948},{"name":"キッズサポートてんとうむし","province":"東京都","city":"昭島市","address":"昭島市上川原町3-8-22","lat":35.708302,"lon":139.35957},{"name":"特定非営利活動法人昭島ひよこ教室","province":"東京都","city":"昭島市","address":"昭島市昭和町4-7-1","lat":35.710835,"lon":139.364125},{"name":"放課後等デイサービス　つむぐ　中神第２教室","province":"東京都","city":"昭島市","address":"昭島市中神町1228-20ミリューヴィラージュ106","lat":35.708858,"lon":139.37794},{"name":"放課後等デイサービス　つむぐ　中神教室","province":"東京都","city":"昭島市","address":"昭島市朝日町3-18-9大正第4ビル1階","lat":35.708124,"lon":139.373024},{"name":"脳を育てる運動療育センター　ピースマイル　中神教室","province":"東京都","city":"昭島市","address":"昭島市朝日町1-4-3SKビル2階B","lat":35.70806,"lon":139.375643},{"name":"ドリームボックス中神","province":"東京都","city":"昭島市","address":"昭島市玉川町2-4-11ヴェルシャトウ1階","lat":35.706738,"lon":139.378887},{"name":"昭島市子ども家庭支援センター","province":"東京都","city":"昭島市","address":"昭島市田中町1-17-1昭島市役所3階","lat":35.705755,"lon":139.353609},{"name":"昭島市子ども家庭支援センター","province":"東京都","city":"昭島市","address":"昭島市つつじが丘3-3-15アキシマエンシス校舎棟1階","lat":35.71172,"lon":139.36919},{"name":"昭島市子ども家庭支援センター","province":"東京都","city":"昭島市","address":"昭島市つつじが丘3-3-15アキシマエンシス校舎棟1階","lat":35.711993,"lon":139.36948},{"name":"昭島市子ども家庭支援センター","province":"東京都","city":"昭島市","address":"昭島市つつじが丘3-3-15アキシマエンシス校舎棟1階","lat":35.71412,"lon":139.36948},{"name":"キッズサポートてんとうむし","province":"東京都","city":"昭島市","address":"昭島市上川原町3-8-22","lat":35.708302,"lon":139.35957},{"name":"特定非営利活動法人昭島ひよこ教室","province":"東京都","city":"昭島市","address":"昭島市昭和町4-7-1","lat":35.710835,"lon":139.364125},{"name":"放課後等デイサービス　つむぐ　中神第２教室","province":"東京都","city":"昭島市","address":"昭島市中神町1228-20ミリューヴィラージュ106","lat":35.708858,"lon":139.37794},{"name":"放課後等デイサービス　つむぐ　中神教室","province":"東京都","city":"昭島市","address":"昭島市朝日町3-18-9大正第4ビル1階","lat":35.708124,"lon":139.373024},{"name":"脳を育てる運動療育センター　ピースマイル　中神教室","province":"東京都","city":"昭島市","address":"昭島市朝日町1-4-3SKビル2階B","lat":35.70806,"lon":139.375643},{"name":"ドリームボックス中神","province":"東京都","city":"昭島市","address":"昭島市玉川町2-4-11ヴェルシャトウ1階","lat":35.706738,"lon":139.378887},{"name":"昭島市子ども家庭支援センター","province":"東京都","city":"昭島市","address":"昭島市田中町1-17-1昭島市役所3階","lat":35.705755,"lon":139.353609},{"name":"昭島市子ども家庭支援センター","province":"東京都","city":"昭島市","address":"昭島市つつじが丘3-3-15アキシマエンシス校舎棟1階","lat":35.71172,"lon":139.36919},{"name":"昭島市子ども家庭支援センター","province":"東京都","city":"昭島市","address":"昭島市つつじが丘3-3-15アキシマエンシス校舎棟1階","lat":35.711993,"lon":139.36948},{"name":"昭島市子ども家庭支援センター","province":"東京都","city":"昭島市","address":"昭島市つつじが丘3-3-15アキシマエンシス校舎棟1階","lat":35.71412,"lon":139.36948},{"name":"キッズサポートてんとうむし","province":"東京都","city":"昭島市","address":"昭島市上川原町3-8-22","lat":35.708302,"lon":139.35957},{"name":"特定非営利活動法人昭島ひよこ教室","province":"東京都","city":"昭島市","address":"昭島市昭和町4-7-1","lat":35.710835,"lon":139.364125},{"name":"放課後等デイサービス　つむぐ　中神第２教室","province":"東京都","city":"昭島市","address":"昭島市中神町1228-20ミリューヴィラージュ106","lat":35.708858,"lon":139.37794},{"name":"放課後等デイサービス　つむぐ　中神教室","province":"東京都","city":"昭島市","address":"昭島市朝日町3-18-9大正第4ビル1階","lat":35.708124,"lon":139.373024},{"name":"脳を育てる運動療育センター　ピースマイル　中神教室","province":"東京都","city":"昭島市","address":"昭島市朝日町1-4-3SKビル2階B","lat":35.70806,"lon":139.375643},{"name":"ドリームボックス中神","province":"東京都","city":"昭島市","address":"昭島市玉川町2-4-11ヴェルシャトウ1階","lat":35.706738,"lon":139.378887},{"name":"昭島市子ども家庭支援センター","province":"東京都","city":"昭島市","address":"昭島市田中町1-17-1昭島市役所3階","lat":35.705755,"lon":139.353609},{"name":"昭島市子ども家庭支援センター","province":"東京都","city":"昭島市","address":"昭島市つつじが丘3-3-15アキシマエンシス校舎棟1階","lat":35.71172,"lon":139.36919},{"name":"昭島市子ども家庭支援センター","province":"東京都","city":"昭島市","address":"昭島市つつじが丘3-3-15アキシマエンシス校舎棟1階","lat":35.711993,"lon":139.36948},{"name":"昭島市子ども家庭支援センター","province":"東京都","city":"昭島市","address":"昭島市つつじが丘3-3-15アキシマエンシス校舎棟1階","lat":35.71412,"lon":139.36948},{"name":"キッズサポートてんとうむし","province":"東京都","city":"昭島市","address":"昭島市上川原町3-8-22","lat":35.708302,"lon":139.35957},{"name":"特定非営利活動法人昭島ひよこ教室","province":"東京都","city":"昭島市","address":"昭島市昭和町4-7-1","lat":35.710835,"lon":139.364125},{"name":"放課後等デイサービス　つむぐ　中神第２教室","province":"東京都","city":"昭島市","address":"昭島市中神町1228-20ミリューヴィラージュ106","lat":35.708858,"lon":139.37794},{"name":"放課後等デイサービス　つむぐ　中神教室","province":"東京都","city":"昭島市","address":"昭島市朝日町3-18-9大正第4ビル1階","lat":35.708124,"lon":139.373024},{"name":"脳を育てる運動療育センター　ピースマイル　中神教室","province":"東京都","city":"昭島市","address":"昭島市朝日町1-4-3SKビル2階B","lat":35.70806,"lon":139.375643},{"name":"ドリームボックス中神","province":"東京都","city":"昭島市","address":"昭島市玉川町2-4-11ヴェルシャトウ1階","lat":35.706738,"lon":139.378887},{"name":"昭島市子ども家庭支援センター","province":"東京都","city":"昭島市","address":"昭島市田中町1-17-1昭島市役所3階","lat":35.705755,"lon":139.353609},{"name":"昭島市子ども家庭支援センター","province":"東京都","city":"昭島市","address":"昭島市つつじが丘3-3-15アキシマエンシス校舎棟1階","lat":35.71172,"lon":139.36919},{"name":"昭島市子ども家庭支援センター","province":"東京都","city":"昭島市","address":"昭島市つつじが丘3-3-15アキシマエンシス校舎棟1階","lat":35.711993,"lon":139.36948},{"name":"昭島市子ども家庭支援センター","province":"東京都","city":"昭島市","address":"昭島市つつじが丘3-3-15アキシマエンシス校舎棟1階","lat":35.71412,"lon":139.36948},{"name":"キッズサポートてんとうむし","province":"東京都","city":"昭島市","address":"昭島市上川原町3-8-22","lat":35.708302,"lon":139.35957},{"name":"特定非営利活動法人昭島ひよこ教室","province":"東京都","city":"昭島市","address":"昭島市昭和町4-7-1","lat":35.710835,"lon":139.364125},{"name":"放課後等デイサービス　つむぐ　中神第２教室","province":"東京都","city":"昭島市","address":"昭島市中神町1228-20ミリューヴィラージュ106","lat":35.708858,"lon":139.37794},{"name":"放課後等デイサービス　つむぐ　中神教室","province":"東京都","city":"昭島市","address":"昭島市朝日町3-18-9大正第4ビル1階","lat":35.708124,"lon":139.373024},{"name":"脳を育てる運動療育センター　ピースマイル　中神教室","province":"東京都","city":"昭島市","address":"昭島市朝日町1-4-3SKビル2階B","lat":35.70806,"lon":139.375643},{"name":"ドリームボックス中神","province":"東京都","city":"昭島市","address":"昭島市玉川町2-4-11ヴェルシャトウ1階","lat":35.706738,"lon":139.378887},{"name":"昭島市子ども家庭支援センター","province":"東京都","city":"昭島市","address":"昭島市田中町1-17-1昭島市役所3階","lat":35.705755,"lon":139.353609},{"name":"昭島市子ども家庭支援センター","province":"東京都","city":"昭島市","address":"昭島市つつじが丘3-3-15アキシマエンシス校舎棟1階","lat":35.71172,"lon":139.36919},{"name":"昭島市子ども家庭支援センター","province":"東京都","city":"昭島市","address":"昭島市つつじが丘3-3-15アキシマエンシス校舎棟1階","lat":35.711993,"lon":139.36948},{"name":"昭島市子ども家庭支援センター","province":"東京都","city":"昭島市","address":"昭島市つつじが丘3-3-15アキシマエンシス校舎棟1階","lat":35.71412,"lon":139.36948},{"name":"キッズサポートてんとうむし","province":"東京都","city":"昭島市","address":"昭島市上川原町3-8-22","lat":35.708302,"lon":139.35957},{"name":"特定非営利活動法人昭島ひよこ教室","province":"東京都","city":"昭島市","address":"昭島市昭和町4-7-1","lat":35.710835,"lon":139.364125},{"name":"放課後等デイサービス　つむぐ　中神第２教室","province":"東京都","city":"昭島市","address":"昭島市中神町1228-20ミリューヴィラージュ106","lat":35.708858,"lon":139.37794},{"name":"放課後等デイサービス　つむぐ　中神教室","province":"東京都","city":"昭島市","address":"昭島市朝日町3-18-9大正第4ビル1階","lat":35.708124,"lon":139.373024},{"name":"脳を育てる運動療育センター　ピースマイル　中神教室","province":"東京都","city":"昭島市","address":"昭島市朝日町1-4-3SKビル2階B","lat":35.70806,"lon":139.375643},{"name":"ドリームボックス中神","province":"東京都","city":"昭島市","address":"昭島市玉川町2-4-11ヴェルシャトウ1階","lat":35.706738,"lon":139.378887},{"name":"昭島市子ども家庭支援センター","province":"東京都","city":"昭島市","address":"昭島市田中町1-17-1昭島市役所3階","lat":35.705755,"lon":139.353609},{"name":"昭島市子ども家庭支援センター","province":"東京都","city":"昭島市","address":"昭島市つつじが丘3-3-15アキシマエンシス校舎棟1階","lat":35.71172,"lon":139.36919},{"name":"昭島市子ども家庭支援センター","province":"東京都","city":"昭島市","address":"昭島市つつじが丘3-3-15アキシマエンシス校舎棟1階","lat":35.711993,"lon":139.36948},{"name":"昭島市子ども家庭支援センター","province":"東京都","city":"昭島市","address":"昭島市つつじが丘3-3-15アキシマエンシス校舎棟1階","lat":35.71412,"lon":139.36948},{"name":"キッズサポートてんとうむし","province":"東京都","city":"昭島市","address":"昭島市上川原町3-8-22","lat":35.708302,"lon":139.35957},{"name":"特定非営利活動法人昭島ひよこ教室","province":"東京都","city":"昭島市","address":"昭島市昭和町4-7-1","lat":35.710835,"lon":139.364125},{"name":"放課後等デイサービス　つむぐ　中神第２教室","province":"東京都","city":"昭島市","address":"昭島市中神町1228-20ミリューヴィラージュ106","lat":35.708858,"lon":139.37794},{"name":"放課後等デイサービス　つむぐ　中神教室","province":"東京都","city":"昭島市","address":"昭島市朝日町3-18-9大正第4ビル1階","lat":35.708124,"lon":139.373024},{"name":"脳を育てる運動療育センター　ピースマイル　中神教室","province":"東京都","city":"昭島市","address":"昭島市朝日町1-4-3SKビル2階B","lat":35.70806,"lon":139.375643},{"name":"ドリームボックス中神","province":"東京都","city":"昭島市","address":"昭島市玉川町2-4-11ヴェルシャトウ1階","lat":35.706738,"lon":139.378887},{"name":"昭島市子ども家庭支援センター","province":"東京都","city":"昭島市","address":"昭島市田中町1-17-1昭島市役所3階","lat":35.705755,"lon":139.353609},{"name":"昭島市子ども家庭支援センター","province":"東京都","city":"昭島市","address":"昭島市つつじが丘3-3-15アキシマエンシス校舎棟1階","lat":35.71172,"lon":139.36919},{"name":"昭島市子ども家庭支援センター","province":"東京都","city":"昭島市","address":"昭島市つつじが丘3-3-15アキシマエンシス校舎棟1階","lat":35.711993,"lon":139.36948},{"name":"昭島市子ども家庭支援センター","province":"東京都","city":"昭島市","address":"昭島市つつじが丘3-3-15アキシマエンシス校舎棟1階","lat":35.71412,"lon":139.36948},{"name":"キッズサポートてんとうむし","province":"東京都","city":"昭島市","address":"昭島市上川原町3-8-22","lat":35.708302,"lon":139.35957},{"name":"特定非営利活動法人昭島ひよこ教室","province":"東京都","city":"昭島市","address":"昭島市昭和町4-7-1","lat":35.710835,"lon":139.364125},{"name":"放課後等デイサービス　つむぐ　中神第２教室","province":"東京都","city":"昭島市","address":"昭島市中神町1228-20ミリューヴィラージュ106","lat":35.708858,"lon":139.37794},{"name":"放課後等デイサービス　つむぐ　中神教室","province":"東京都","city":"昭島市","address":"昭島市朝日町3-18-9大正第4ビル1階","lat":35.708124,"lon":139.373024},{"name":"脳を育てる運動療育センター　ピースマイル　中神教室","province":"東京都","city":"昭島市","address":"昭島市朝日町1-4-3SKビル2階B","lat":35.70806,"lon":139.375643},{"name":"ドリームボックス中神","province":"東京都","city":"昭島市","address":"昭島市玉川町2-4-11ヴェルシャトウ1階","lat":35.706738,"lon":139.378887},{"name":"昭島市子ども家庭支援センター","province":"東京都","city":"昭島市","address":"昭島市田中町1-17-1昭島市役所3階","lat":35.705755,"lon":139.353609},{"name":"昭島市子ども家庭支援センター","province":"東京都","city":"昭島市","address":"昭島市つつじが丘3-3-15アキシマエンシス校舎棟1階","lat":35.71172,"lon":139.36919},{"name":"昭島市子ども家庭支援センター","province":"東京都","city":"昭島市","address":"昭島市つつじが丘3-3-15アキシマエンシス校舎棟1階","lat":35.711993,"lon":139.36948},{"name":"昭島市子ども家庭支援センター","province":"東京都","city":"昭島市","address":"昭島市つつじが丘3-3-15アキシマエンシス校舎棟1階","lat":35.71412,"lon":139.36948},{"name":"キッズサポートてんとうむし","province":"東京都","city":"昭島市","address":"昭島市上川原町3-8-22","lat":35.708302,"lon":139.35957},{"name":"特定非営利活動法人昭島ひよこ教室","province":"東京都","city":"昭島市","address":"昭島市昭和町4-7-1","lat":35.710835,"lon":139.364125},{"name":"放課後等デイサービス　つむぐ　中神第２教室","province":"東京都","city":"昭島市","address":"昭島市中神町1228-20ミリューヴィラージュ106","lat":35.708858,"lon":139.37794},{"name":"放課後等デイサービス　つむぐ　中神教室","province":"東京都","city":"昭島市","address":"昭島市朝日町3-18-9大正第4ビル1階","lat":35.708124,"lon":139.373024},{"name":"脳を育てる運動療育センター　ピースマイル　中神教室","province":"東京都","city":"昭島市","address":"昭島市朝日町1-4-3SKビル2階B","lat":35.70806,"lon":139.375643},{"name":"ドリームボックス中神","province":"東京都","city":"昭島市","address":"昭島市玉川町2-4-11ヴェルシャトウ1階","lat":35.706738,"lon":139.378887},{"name":"昭島市子ども家庭支援センター","province":"東京都","city":"昭島市","address":"昭島市田中町1-17-1昭島市役所3階","lat":35.705755,"lon":139.353609},{"name":"昭島市子ども家庭支援センター","province":"東京都","city":"昭島市","address":"昭島市つつじが丘3-3-15アキシマエンシス校舎棟1階","lat":35.71172,"lon":139.36919},{"name":"昭島市子ども家庭支援センター","province":"東京都","city":"昭島市","address":"昭島市つつじが丘3-3-15アキシマエンシス校舎棟1階","lat":35.711993,"lon":139.36948},{"name":"昭島市子ども家庭支援センター","province":"東京都","city":"昭島市","address":"昭島市つつじが丘3-3-15アキシマエンシス校舎棟1階","lat":35.71412,"lon":139.36948},{"name":"キッズサポートてんとうむし","province":"東京都","city":"昭島市","address":"昭島市上川原町3-8-22","lat":35.708302,"lon":139.35957},{"name":"特定非営利活動法人昭島ひよこ教室","province":"東京都","city":"昭島市","address":"昭島市昭和町4-7-1","lat":35.710835,"lon":139.364125},{"name":"放課後等デイサービス　つむぐ　中神第２教室","province":"東京都","city":"昭島市","address":"昭島市中神町1228-20ミリューヴィラージュ106","lat":35.708858,"lon":139.37794},{"name":"放課後等デイサービス　つむぐ　中神教室","province":"東京都","city":"昭島市","address":"昭島市朝日町3-18-9大正第4ビル1階","lat":35.708124,"lon":139.373024},{"name":"脳を育てる運動療育センター　ピースマイル　中神教室","province":"東京都","city":"昭島市","address":"昭島市朝日町1-4-3SKビル2階B","lat":35.70806,"lon":139.375643},{"name":"ドリームボックス中神","province":"東京都","city":"昭島市","address":"昭島市玉川町2-4-11ヴェルシャトウ1階","lat":35.706738,"lon":139.378887},{"name":"昭島市子ども家庭支援センター","province":"東京都","city":"昭島市","address":"昭島市田中町1-17-1昭島市役所3階","lat":35.705755,"lon":139.353609},{"name":"昭島市子ども家庭支援センター","province":"東京都","city":"昭島市","address":"昭島市つつじが丘3-3-15アキシマエンシス校舎棟1階","lat":35.71172,"lon":139.36919},{"name":"昭島市子ども家庭支援センター","province":"東京都","city":"昭島市","address":"昭島市つつじが丘3-3-15アキシマエンシス校舎棟1階","lat":35.711993,"lon":139.36948},{"name":"昭島市子ども家庭支援センター","province":"東京都","city":"昭島市","address":"昭島市つつじが丘3-3-15アキシマエンシス校舎棟1階","lat":35.71412,"lon":139.36948},{"name":"キッズサポートてんとうむし","province":"東京都","city":"昭島市","address":"昭島市上川原町3-8-22","lat":35.708302,"lon":139.35957},{"name":"特定非営利活動法人昭島ひよこ教室","province":"東京都","city":"昭島市","address":"昭島市昭和町4-7-1","lat":35.710835,"lon":139.364125},{"name":"放課後等デイサービス　つむぐ　中神第２教室","province":"東京都","city":"昭島市","address":"昭島市中神町1228-20ミリューヴィラージュ106","lat":35.708858,"lon":139.37794},{"name":"放課後等デイサービス　つむぐ　中神教室","province":"東京都","city":"昭島市","address":"昭島市朝日町3-18-9大正第4ビル1階","lat":35.708124,"lon":139.373024},{"name":"脳を育てる運動療育センター　ピースマイル　中神教室","province":"東京都","city":"昭島市","address":"昭島市朝日町1-4-3SKビル2階B","lat":35.70806,"lon":139.375643},{"name":"ドリームボックス中神","province":"東京都","city":"昭島市","address":"昭島市玉川町2-4-11ヴェルシャトウ1階","lat":35.706738,"lon":139.378887},{"name":"昭島市子ども家庭支援センター","province":"東京都","city":"昭島市","address":"昭島市田中町1-17-1昭島市役所3階","lat":35.705755,"lon":139.353609},{"name":"昭島市子ども家庭支援センター","province":"東京都","city":"昭島市","address":"昭島市つつじが丘3-3-15アキシマエンシス校舎棟1階","lat":35.71172,"lon":139.36919},{"name":"昭島市子ども家庭支援センター","province":"東京都","city":"昭島市","address":"昭島市つつじが丘3-3-15アキシマエンシス校舎棟1階","lat":35.711993,"lon":139.36948},{"name":"昭島市子ども家庭支援センター","province":"東京都","city":"昭島市","address":"昭島市つつじが丘3-3-15アキシマエンシス校舎棟1階","lat":35.71412,"lon":139.36948},{"name":"キッズサポートてんとうむし","province":"東京都","city":"昭島市","address":"昭島市上川原町3-8-22","lat":35.708302,"lon":139.35957},{"name":"特定非営利活動法人昭島ひよこ教室","province":"東京都","city":"昭島市","address":"昭島市昭和町4-7-1","lat":35.710835,"lon":139.364125},{"name":"放課後等デイサービス　つむぐ　中神第２教室","province":"東京都","city":"昭島市","address":"昭島市中神町1228-20ミリューヴィラージュ106","lat":35.708858,"lon":139.37794},{"name":"放課後等デイサービス　つむぐ　中神教室","province":"東京都","city":"昭島市","address":"昭島市朝日町3-18-9大正第4ビル1階","lat":35.708124,"lon":139.373024},{"name":"脳を育てる運動療育センター　ピースマイル　中神教室","province":"東京都","city":"昭島市","address":"昭島市朝日町1-4-3SKビル2階B","lat":35.70806,"lon":139.375643},{"name":"ドリームボックス中神","province":"東京都","city":"昭島市","address":"昭島市玉川町2-4-11ヴェルシャトウ1階","lat":35.706738,"lon":139.378887},{"name":"昭島市子ども家庭支援センター","province":"東京都","city":"昭島市","address":"昭島市田中町1-17-1昭島市役所3階","lat":35.705755,"lon":139.353609},{"name":"昭島市子ども家庭支援センター","province":"東京都","city":"昭島市","address":"昭島市つつじが丘3-3-15アキシマエンシス校舎棟1階","lat":35.71172,"lon":139.36919},{"name":"昭島市子ども家庭支援センター","province":"東京都","city":"昭島市","address":"昭島市つつじが丘3-3-15アキシマエンシス校舎棟1階","lat":35.711993,"lon":139.36948},{"name":"昭島市子ども家庭支援センター","province":"東京都","city":"昭島市","address":"昭島市つつじが丘3-3-15アキシマエンシス校舎棟1階","lat":35.71412,"lon":139.36948},{"name":"キッズサポートてんとうむし","province":"東京都","city":"昭島市","address":"昭島市上川原町3-8-22","lat":35.708302,"lon":139.35957},{"name":"特定非営利活動法人昭島ひよこ教室","province":"東京都","city":"昭島市","address":"昭島市昭和町4-7-1","lat":35.710835,"lon":139.364125},{"name":"放課後等デイサービス　つむぐ　中神第２教室","province":"東京都","city":"昭島市","address":"昭島市中神町1228-20ミリューヴィラージュ106","lat":35.708858,"lon":139.37794},{"name":"放課後等デイサービス　つむぐ　中神教室","province":"東京都","city":"昭島市","address":"昭島市朝日町3-18-9大正第4ビル1階","lat":35.708124,"lon":139.373024},{"name":"脳を育てる運動療育センター　ピースマイル　中神教室","province":"東京都","city":"昭島市","address":"昭島市朝日町1-4-3SKビル2階B","lat":35.70806,"lon":139.375643},{"name":"ドリームボックス中神","province":"東京都","city":"昭島市","address":"昭島市玉川町2-4-11ヴェルシャトウ1階","lat":35.706738,"lon":139.378887},{"name":"昭島市子ども家庭支援センター","province":"東京都","city":"昭島市","address":"昭島市田中町1-17-1昭島市役所3階","lat":35.705755,"lon":139.353609},{"name":"昭島市子ども家庭支援センター","province":"東京都","city":"昭島市","address":"昭島市つつじが丘3-3-15アキシマエンシス校舎棟1階","lat":35.71172,"lon":139.36919},{"name":"昭島市子ども家庭支援センター","province":"東京都","city":"昭島市","address":"昭島市つつじが丘3-3-15アキシマエンシス校舎棟1階","lat":35.711993,"lon":139.36948},{"name":"昭島市子ども家庭支援センター","province":"東京都","city":"昭島市","address":"昭島市つつじが丘3-3-15アキシマエンシス校舎棟1階","lat":35.71412,"lon":139.36948},{"name":"キッズサポートてんとうむし","province":"東京都","city":"昭島市","address":"昭島市上川原町3-8-22","lat":35.708302,"lon":139.35957},{"name":"特定非営利活動法人昭島ひよこ教室","province":"東京都","city":"昭島市","address":"昭島市昭和町4-7-1","lat":35.710835,"lon":139.364125},{"name":"放課後等デイサービス　つむぐ　中神第２教室","province":"東京都","city":"昭島市","address":"昭島市中神町1228-20ミリューヴィラージュ106","lat":35.708858,"lon":139.37794},{"name":"放課後等デイサービス　つむぐ　中神教室","province":"東京都","city":"昭島市","address":"昭島市朝日町3-18-9大正第4ビル1階","lat":35.708124,"lon":139.373024},{"name":"脳を育てる運動療育センター　ピースマイル　中神教室","province":"東京都","city":"昭島市","address":"昭島市朝日町1-4-3SKビル2階B","lat":35.70806,"lon":139.375643},{"name":"ドリームボックス中神","province":"東京都","city":"昭島市","address":"昭島市玉川町2-4-11ヴェルシャトウ1階","lat":35.706738,"lon":139.378887},{"name":"昭島市子ども家庭支援センター","province":"東京都","city":"昭島市","address":"昭島市田中町1-17-1昭島市役所3階","lat":35.705755,"lon":139.353609},{"name":"昭島市子ども家庭支援センター","province":"東京都","city":"昭島市","address":"昭島市つつじが丘3-3-15アキシマエンシス校舎棟1階","lat":35.71172,"lon":139.36919},{"name":"昭島市子ども家庭支援センター","province":"東京都","city":"昭島市","address":"昭島市つつじが丘3-3-15アキシマエンシス校舎棟1階","lat":35.711993,"lon":139.36948},{"name":"昭島市子ども家庭支援センター","province":"東京都","city":"昭島市","address":"昭島市つつじが丘3-3-15アキシマエンシス校舎棟1階","lat":35.71412,"lon":139.36948},{"name":"キッズサポートてんとうむし","province":"東京都","city":"昭島市","address":"昭島市上川原町3-8-22","lat":35.708302,"lon":139.35957},{"name":"特定非営利活動法人昭島ひよこ教室","province":"東京都","city":"昭島市","address":"昭島市昭和町4-7-1","lat":35.710835,"lon":139.364125},{"name":"放課後等デイサービス　つむぐ　中神第２教室","province":"東京都","city":"昭島市","address":"昭島市中神町1228-20ミリューヴィラージュ106","lat":35.708858,"lon":139.37794},{"name":"放課後等デイサービス　つむぐ　中神教室","province":"東京都","city":"昭島市","address":"昭島市朝日町3-18-9大正第4ビル1階","lat":35.708124,"lon":139.373024},{"name":"脳を育てる運動療育センター　ピースマイル　中神教室","province":"東京都","city":"昭島市","address":"昭島市朝日町1-4-3SKビル2階B","lat":35.70806,"lon":139.375643},{"name":"ドリームボックス中神","province":"東京都","city":"昭島市","address":"昭島市玉川町2-4-11ヴェルシャトウ1階","lat":35.706738,"lon":139.378887},{"name":"昭島市子ども家庭支援センター","province":"東京都","city":"昭島市","address":"昭島市田中町1-17-1昭島市役所3階","lat":35.705755,"lon":139.353609},{"name":"昭島市子ども家庭支援センター","province":"東京都","city":"昭島市","address":"昭島市つつじが丘3-3-15アキシマエンシス校舎棟1階","lat":35.71172,"lon":139.36919},{"name":"昭島市子ども家庭支援センター","province":"東京都","city":"昭島市","address":"昭島市つつじが丘3-3-15アキシマエンシス校舎棟1階","lat":35.711993,"lon":139.36948},{"name":"昭島市子ども家庭支援センター","province":"東京都","city":"昭島市","address":"昭島市つつじが丘3-3-15アキシマエンシス校舎棟1階","lat":35.71412,"lon":139.36948},{"name":"キッズサポートてんとうむし","province":"東京都","city":"昭島市","address":"昭島市上川原町3-8-22","lat":35.708302,"lon":139.35957},{"name":"特定非営利活動法人昭島ひよこ教室","province":"東京都","city":"昭島市","address":"昭島市昭和町4-7-1","lat":35.710835,"lon":139.364125},{"name":"放課後等デイサービス　つむぐ　中神第２教室","province":"東京都","city":"昭島市","address":"昭島市中神町1228-20ミリューヴィラージュ106","lat":35.708858,"lon":139.37794},{"name":"放課後等デイサービス　つむぐ　中神教室","province":"東京都","city":"昭島市","address":"昭島市朝日町3-18-9大正第4ビル1階","lat":35.708124,"lon":139.373024},{"name":"脳を育てる運動療育センター　ピースマイル　中神教室","province":"東京都","city":"昭島市","address":"昭島市朝日町1-4-3SKビル2階B","lat":35.70806,"lon":139.375643},{"name":"ドリームボックス中神","province":"東京都","city":"昭島市","address":"昭島市玉川町2-4-11ヴェルシャトウ1階","lat":35.706738,"lon":139.378887},{"name":"昭島市子ども家庭支援センター","province":"東京都","city":"昭島市","address":"昭島市田中町1-17-1昭島市役所3階","lat":35.705755,"lon":139.353609},{"name":"昭島市子ども家庭支援センター","province":"東京都","city":"昭島市","address":"昭島市つつじが丘3-3-15アキシマエンシス校舎棟1階","lat":35.71172,"lon":139.36919},{"name":"昭島市子ども家庭支援センター","province":"東京都","city":"昭島市","address":"昭島市つつじが丘3-3-15アキシマエンシス校舎棟1階","lat":35.711993,"lon":139.36948},{"name":"昭島市子ども家庭支援センター","province":"東京都","city":"昭島市","address":"昭島市つつじが丘3-3-15アキシマエンシス校舎棟1階","lat":35.71412,"lon":139.36948},{"name":"キッズサポートてんとうむし","province":"東京都","city":"昭島市","address":"昭島市上川原町3-8-22","lat":35.708302,"lon":139.35957},{"name":"特定非営利活動法人昭島ひよこ教室","province":"東京都","city":"昭島市","address":"昭島市昭和町4-7-1","lat":35.710835,"lon":139.364125},{"name":"放課後等デイサービス　つむぐ　中神第２教室","province":"東京都","city":"昭島市","address":"昭島市中神町1228-20ミリューヴィラージュ106","lat":35.708858,"lon":139.37794},{"name":"放課後等デイサービス　つむぐ　中神教室","province":"東京都","city":"昭島市","address":"昭島市朝日町3-18-9大正第4ビル1階","lat":35.708124,"lon":139.373024},{"name":"脳を育てる運動療育センター　ピースマイル　中神教室","province":"東京都","city":"昭島市","address":"昭島市朝日町1-4-3SKビル2階B","lat":35.70806,"lon":139.375643},{"name":"ドリームボックス中神","province":"東京都","city":"昭島市","address":"昭島市玉川町2-4-11ヴェルシャトウ1階","lat":35.706738,"lon":139.378887},{"name":"昭島市子ども家庭支援センター","province":"東京都","city":"昭島市","address":"昭島市田中町1-17-1昭島市役所3階","lat":35.705755,"lon":139.353609},{"name":"昭島市子ども家庭支援センター","province":"東京都","city":"昭島市","address":"昭島市つつじが丘3-3-15アキシマエンシス校舎棟1階","lat":35.71172,"lon":139.36919},{"name":"昭島市子ども家庭支援センター","province":"東京都","city":"昭島市","address":"昭島市つつじが丘3-3-15アキシマエンシス校舎棟1階","lat":35.711993,"lon":139.36948},{"name":"昭島市子ども家庭支援センター","province":"東京都","city":"昭島市","address":"昭島市つつじが丘3-3-15アキシマエンシス校舎棟1階","lat":35.71412,"lon":139.36948},{"name":"キッズサポートてんとうむし","province":"東京都","city":"昭島市","address":"昭島市上川原町3-8-22","lat":35.708302,"lon":139.35957},{"name":"特定非営利活動法人昭島ひよこ教室","province":"東京都","city":"昭島市","address":"昭島市昭和町4-7-1","lat":35.710835,"lon":139.364125},{"name":"放課後等デイサービス　つむぐ　中神第２教室","province":"東京都","city":"昭島市","address":"昭島市中神町1228-20ミリューヴィラージュ106","lat":35.708858,"lon":139.37794},{"name":"放課後等デイサービス　つむぐ　中神教室","province":"東京都","city":"昭島市","address":"昭島市朝日町3-18-9大正第4ビル1階","lat":35.708124,"lon":139.373024},{"name":"脳を育てる運動療育センター　ピースマイル　中神教室","province":"東京都","city":"昭島市","address":"昭島市朝日町1-4-3SKビル2階B","lat":35.70806,"lon":139.375643},{"name":"ドリームボックス中神","province":"東京都","city":"昭島市","address":"昭島市玉川町2-4-11ヴェルシャトウ1階","lat":35.706738,"lon":139.378887},{"name":"昭島市子ども家庭支援センター","province":"東京都","city":"昭島市","address":"昭島市田中町1-17-1昭島市役所3階","lat":35.705755,"lon":139.353609},{"name":"昭島市子ども家庭支援センター","province":"東京都","city":"昭島市","address":"昭島市つつじが丘3-3-15アキシマエンシス校舎棟1階","lat":35.71172,"lon":139.36919},{"name":"昭島市子ども家庭支援センター","province":"東京都","city":"昭島市","address":"昭島市つつじが丘3-3-15アキシマエンシス校舎棟1階","lat":35.711993,"lon":139.36948},{"name":"昭島市子ども家庭支援センター","province":"東京都","city":"昭島市","address":"昭島市つつじが丘3-3-15アキシマエンシス校舎棟1階","lat":35.71412,"lon":139.36948}]}