{"keyword":"朝","data":[{"name":"JA全農東京JA東京葬祭センター（源想園昭島葬儀会館）","province":"東京都","city":"昭島市","address":"東京都昭島市中神町3丁目1-1","lat":35.6966812,"lon":139.37542966},{"name":"株式会社セレモア（ガーデン会館昭島）","province":"東京都","city":"昭島市","address":"東京都昭島市玉川町2丁目4-12","lat":35.70655788,"lon":139.37958173},{"name":"株式会社ドリーミー","province":"東京都","city":"昭島市","address":"東京都昭島市田中町1丁目27-15","lat":35.7054492,"lon":139.35437846},{"name":"株式会社あさひセレモニー","province":"東京都","city":"昭島市","address":"東京都昭島市玉川町4丁目1-10","lat":35.70555248,"lon":139.38102051},{"name":"株式会社東京サービスセンター（セレモニーホール昭島）","province":"東京都","city":"昭島市","address":"東京都昭島市宮沢町1丁目7-2","lat":35.70616044,"lon":139.36649129},{"name":"株式会社村尾組（そうしんホール昭島）","province":"東京都","city":"昭島市","address":"東京都昭島市武蔵野3丁目5-1","lat":35.71971183,"lon":139.37585683},{"name":"株式会社結セレモニー（くじら葬祭）","province":"東京都","city":"昭島市","address":"東京都昭島市福島町3丁目23-28","lat":35.69637846,"lon":139.37589906},{"name":"あきしまこどもクッキング","province":"東京都","city":"昭島市","address":"東京都昭島市つつじが丘3丁目7-7","lat":35.71352901,"lon":139.36620781},{"name":"たまりば☆ぬくぬく","province":"東京都","city":"昭島市","address":"東京都昭島市松原町1丁目3-10","lat":35.71211512,"lon":139.35702252},{"name":"あおぞらみんな食堂","province":"東京都","city":"昭島市","address":"東京都昭島市郷地町2丁目20-24","lat":35.69716746,"lon":139.3854093},{"name":"あのねの会あのね食堂","province":"東京都","city":"昭島市","address":"東京都昭島市宮沢町512-13","lat":35.71400132,"lon":139.37351825},{"name":"子ども料理ひろば","province":"東京都","city":"昭島市","address":"東京都昭島市玉川町5丁目13-13","lat":35.7030138,"lon":139.37706542},{"name":"昭島子ども食堂みほりん広場","province":"東京都","city":"昭島市","address":"東京都昭島市拝島町3926-11","lat":35.72095295,"lon":139.35638069},{"name":"そうしんホール昭島","province":"東京都","city":"昭島市","address":"東京都昭島市武蔵野3丁目5-1","lat":35.71971183,"lon":139.37585683},{"name":"株式会社おぼうさんどっとこむ","province":"東京都","city":"昭島市","address":"東京都昭島市中神町1135-47","lat":35.71175989,"lon":139.37259061},{"name":"JA東京葬祭センター","province":"東京都","city":"昭島市","address":"東京都昭島市中神町3丁目1-1","lat":35.6966812,"lon":139.37542966},{"name":"（株）おぼうさんどっとこむ","province":"東京都","city":"昭島市","address":"東京都昭島市中神町1135-47","lat":35.71175989,"lon":139.37259061},{"name":"中神駅入口","province":"東京都","city":"昭島市","address":"東京都昭島市朝日町3丁目6-1","lat":35.70723827,"lon":139.37555433},{"name":"拝島郵便局前","province":"東京都","city":"昭島市","address":"東京都昭島市拝島町2丁目8-11","lat":35.70826805,"lon":139.34027673},{"name":"昭島文化地区","province":"東京都","city":"昭島市","address":"東京都昭島市中神町1157","lat":35.71204326,"lon":139.37613747},{"name":"昭島市民図書館前","province":"東京都","city":"昭島市","address":"東京都昭島市東町2丁目6-33","lat":35.70546647,"lon":139.3851868},{"name":"昭島昭和町四丁目","province":"東京都","city":"昭島市","address":"東京都昭島市昭和町4丁目7-19","lat":35.71119312,"lon":139.36371919},{"name":"馬頭観音前","province":"東京都","city":"昭島市","address":"東京都昭島市朝日町3丁目1","lat":35.70625228,"lon":139.3758932},{"name":"昭島駅南口","province":"東京都","city":"昭島市","address":"東京都昭島市昭和町2丁目4","lat":35.71301785,"lon":139.36052498},{"name":"昭島駅北口","province":"東京都","city":"昭島市","address":"東京都昭島市田中町584-14","lat":35.7152176,"lon":139.36123598},{"name":"昭島市民会館西第二","province":"東京都","city":"昭島市","address":"東京都昭島市田中町562","lat":35.71341783,"lon":139.3620804},{"name":"昭島市役所中央第一","province":"東京都","city":"昭島市","address":"東京都昭島市田中町1丁目27","lat":35.70512424,"lon":139.3544729},{"name":"昭島十二神社南","province":"東京都","city":"昭島市","address":"東京都昭島市玉川町5丁目6","lat":35.7032999,"lon":139.37779867},{"name":"東部配水場","province":"東京都","city":"昭島市","address":"東京都昭島市朝日町4丁目23-28","lat":35.70855468,"lon":139.37011036},{"name":"昭島市公民館","province":"東京都","city":"昭島市","address":"昭島市つつじが丘3-7-7","lat":35.713268,"lon":139.365662},{"name":"青少年交流センター","province":"東京都","city":"昭島市","address":"昭島市昭和町1-6-11","lat":35.711323,"lon":139.365646},{"name":"市民図書館","province":"東京都","city":"昭島市","address":"昭島市東町2-6-33","lat":35.704556,"lon":139.386047},{"name":"昭島市民図書館つつじが丘分室","province":"東京都","city":"昭島市","address":"昭島市つつじが丘3-1-30","lat":35.714115,"lon":139.369476},{"name":"昭島市民図書館やまのかみ分室","province":"東京都","city":"昭島市","address":"昭島市拝島町3-10-3","lat":35.710747,"lon":139.334442},{"name":"昭島市民図書館昭和分館","province":"東京都","city":"昭島市","address":"昭島市松原町1-2-25","lat":35.713104,"lon":139.357727},{"name":"昭島市民図書館緑分館","province":"東京都","city":"昭島市","address":"昭島市緑町4-13-26","lat":35.713974,"lon":139.343887},{"name":"やまのかみ会館","province":"東京都","city":"昭島市","address":"昭島市拝島町3-10-3","lat":35.710747,"lon":139.334442},{"name":"玉川会館","province":"東京都","city":"昭島市","address":"昭島市玉川町3-10-15","lat":35.70372,"lon":139.382126},{"name":"昭和分館","province":"東京都","city":"昭島市","address":"昭島市松原町1-2-25","lat":35.713104,"lon":139.357727},{"name":"大神会館","province":"東京都","city":"昭島市","address":"昭島市大神町3-10-5","lat":35.700539,"lon":139.360779},{"name":"朝日会館","province":"東京都","city":"昭島市","address":"昭島市朝日町5-6-20","lat":35.704994,"lon":139.372787},{"name":"拝島会館","province":"東京都","city":"昭島市","address":"昭島市拝島町2-4-13","lat":35.707211,"lon":139.342468},{"name":"富士見会館","province":"東京都","city":"昭島市","address":"昭島市中神町1282","lat":35.710323,"lon":139.382996},{"name":"武蔵野会館","province":"東京都","city":"昭島市","address":"昭島市中神町1172-1","lat":35.711452,"lon":139.375153},{"name":"福島会館","province":"東京都","city":"昭島市","address":"昭島市福島町1-19-1","lat":35.696285,"lon":139.380478},{"name":"堀向会館","province":"東京都","city":"昭島市","address":"昭島市美堀町2-6-11","lat":35.723099,"lon":139.363647},{"name":"緑会館","province":"東京都","city":"昭島市","address":"昭島市緑町4-13-26","lat":35.713974,"lon":139.343887},{"name":"JA全農東京JA東京葬祭センター（源想園昭島葬儀会館）","province":"東京都","city":"昭島市","address":"東京都昭島市中神町3丁目1-1","lat":35.6966812,"lon":139.37542966},{"name":"株式会社セレモア（ガーデン会館昭島）","province":"東京都","city":"昭島市","address":"東京都昭島市玉川町2丁目4-12","lat":35.70655788,"lon":139.37958173},{"name":"株式会社ドリーミー","province":"東京都","city":"昭島市","address":"東京都昭島市田中町1丁目27-15","lat":35.7054492,"lon":139.35437846},{"name":"株式会社あさひセレモニー","province":"東京都","city":"昭島市","address":"東京都昭島市玉川町4丁目1-10","lat":35.70555248,"lon":139.38102051},{"name":"株式会社東京サービスセンター（セレモニーホール昭島）","province":"東京都","city":"昭島市","address":"東京都昭島市宮沢町1丁目7-2","lat":35.70616044,"lon":139.36649129},{"name":"株式会社村尾組（そうしんホール昭島）","province":"東京都","city":"昭島市","address":"東京都昭島市武蔵野3丁目5-1","lat":35.71971183,"lon":139.37585683},{"name":"株式会社結セレモニー（くじら葬祭）","province":"東京都","city":"昭島市","address":"東京都昭島市福島町3丁目23-28","lat":35.69637846,"lon":139.37589906},{"name":"あきしまこどもクッキング","province":"東京都","city":"昭島市","address":"東京都昭島市つつじが丘3丁目7-7","lat":35.71352901,"lon":139.36620781},{"name":"たまりば☆ぬくぬく","province":"東京都","city":"昭島市","address":"東京都昭島市松原町1丁目3-10","lat":35.71211512,"lon":139.35702252},{"name":"あおぞらみんな食堂","province":"東京都","city":"昭島市","address":"東京都昭島市郷地町2丁目20-24","lat":35.69716746,"lon":139.3854093},{"name":"あのねの会あのね食堂","province":"東京都","city":"昭島市","address":"東京都昭島市宮沢町512-13","lat":35.71400132,"lon":139.37351825},{"name":"子ども料理ひろば","province":"東京都","city":"昭島市","address":"東京都昭島市玉川町5丁目13-13","lat":35.7030138,"lon":139.37706542},{"name":"昭島子ども食堂みほりん広場","province":"東京都","city":"昭島市","address":"東京都昭島市拝島町3926-11","lat":35.72095295,"lon":139.35638069},{"name":"そうしんホール昭島","province":"東京都","city":"昭島市","address":"東京都昭島市武蔵野3丁目5-1","lat":35.71971183,"lon":139.37585683},{"name":"株式会社おぼうさんどっとこむ","province":"東京都","city":"昭島市","address":"東京都昭島市中神町1135-47","lat":35.71175989,"lon":139.37259061},{"name":"JA東京葬祭センター","province":"東京都","city":"昭島市","address":"東京都昭島市中神町3丁目1-1","lat":35.6966812,"lon":139.37542966},{"name":"（株）おぼうさんどっとこむ","province":"東京都","city":"昭島市","address":"東京都昭島市中神町1135-47","lat":35.71175989,"lon":139.37259061},{"name":"中神駅入口","province":"東京都","city":"昭島市","address":"東京都昭島市朝日町3丁目6-1","lat":35.70723827,"lon":139.37555433},{"name":"拝島郵便局前","province":"東京都","city":"昭島市","address":"東京都昭島市拝島町2丁目8-11","lat":35.70826805,"lon":139.34027673},{"name":"昭島文化地区","province":"東京都","city":"昭島市","address":"東京都昭島市中神町1157","lat":35.71204326,"lon":139.37613747},{"name":"昭島市民図書館前","province":"東京都","city":"昭島市","address":"東京都昭島市東町2丁目6-33","lat":35.70546647,"lon":139.3851868},{"name":"昭島昭和町四丁目","province":"東京都","city":"昭島市","address":"東京都昭島市昭和町4丁目7-19","lat":35.71119312,"lon":139.36371919},{"name":"馬頭観音前","province":"東京都","city":"昭島市","address":"東京都昭島市朝日町3丁目1","lat":35.70625228,"lon":139.3758932},{"name":"昭島駅南口","province":"東京都","city":"昭島市","address":"東京都昭島市昭和町2丁目4","lat":35.71301785,"lon":139.36052498},{"name":"昭島駅北口","province":"東京都","city":"昭島市","address":"東京都昭島市田中町584-14","lat":35.7152176,"lon":139.36123598},{"name":"昭島市民会館西第二","province":"東京都","city":"昭島市","address":"東京都昭島市田中町562","lat":35.71341783,"lon":139.3620804},{"name":"昭島市役所中央第一","province":"東京都","city":"昭島市","address":"東京都昭島市田中町1丁目27","lat":35.70512424,"lon":139.3544729},{"name":"昭島十二神社南","province":"東京都","city":"昭島市","address":"東京都昭島市玉川町5丁目6","lat":35.7032999,"lon":139.37779867},{"name":"東部配水場","province":"東京都","city":"昭島市","address":"東京都昭島市朝日町4丁目23-28","lat":35.70855468,"lon":139.37011036},{"name":"昭島市公民館","province":"東京都","city":"昭島市","address":"昭島市つつじが丘3-7-7","lat":35.713268,"lon":139.365662},{"name":"青少年交流センター","province":"東京都","city":"昭島市","address":"昭島市昭和町1-6-11","lat":35.711323,"lon":139.365646},{"name":"市民図書館","province":"東京都","city":"昭島市","address":"昭島市東町2-6-33","lat":35.704556,"lon":139.386047},{"name":"昭島市民図書館つつじが丘分室","province":"東京都","city":"昭島市","address":"昭島市つつじが丘3-1-30","lat":35.714115,"lon":139.369476},{"name":"昭島市民図書館やまのかみ分室","province":"東京都","city":"昭島市","address":"昭島市拝島町3-10-3","lat":35.710747,"lon":139.334442},{"name":"昭島市民図書館昭和分館","province":"東京都","city":"昭島市","address":"昭島市松原町1-2-25","lat":35.713104,"lon":139.357727},{"name":"昭島市民図書館緑分館","province":"東京都","city":"昭島市","address":"昭島市緑町4-13-26","lat":35.713974,"lon":139.343887},{"name":"やまのかみ会館","province":"東京都","city":"昭島市","address":"昭島市拝島町3-10-3","lat":35.710747,"lon":139.334442},{"name":"玉川会館","province":"東京都","city":"昭島市","address":"昭島市玉川町3-10-15","lat":35.70372,"lon":139.382126},{"name":"昭和分館","province":"東京都","city":"昭島市","address":"昭島市松原町1-2-25","lat":35.713104,"lon":139.357727},{"name":"大神会館","province":"東京都","city":"昭島市","address":"昭島市大神町3-10-5","lat":35.700539,"lon":139.360779},{"name":"朝日会館","province":"東京都","city":"昭島市","address":"昭島市朝日町5-6-20","lat":35.704994,"lon":139.372787},{"name":"拝島会館","province":"東京都","city":"昭島市","address":"昭島市拝島町2-4-13","lat":35.707211,"lon":139.342468},{"name":"富士見会館","province":"東京都","city":"昭島市","address":"昭島市中神町1282","lat":35.710323,"lon":139.382996},{"name":"武蔵野会館","province":"東京都","city":"昭島市","address":"昭島市中神町1172-1","lat":35.711452,"lon":139.375153},{"name":"福島会館","province":"東京都","city":"昭島市","address":"昭島市福島町1-19-1","lat":35.696285,"lon":139.380478},{"name":"堀向会館","province":"東京都","city":"昭島市","address":"昭島市美堀町2-6-11","lat":35.723099,"lon":139.363647},{"name":"緑会館","province":"東京都","city":"昭島市","address":"昭島市緑町4-13-26","lat":35.713974,"lon":139.343887},{"name":"JA全農東京JA東京葬祭センター（源想園昭島葬儀会館）","province":"東京都","city":"昭島市","address":"東京都昭島市中神町3丁目1-1","lat":35.6966812,"lon":139.37542966},{"name":"株式会社セレモア（ガーデン会館昭島）","province":"東京都","city":"昭島市","address":"東京都昭島市玉川町2丁目4-12","lat":35.70655788,"lon":139.37958173},{"name":"株式会社ドリーミー","province":"東京都","city":"昭島市","address":"東京都昭島市田中町1丁目27-15","lat":35.7054492,"lon":139.35437846},{"name":"株式会社あさひセレモニー","province":"東京都","city":"昭島市","address":"東京都昭島市玉川町4丁目1-10","lat":35.70555248,"lon":139.38102051},{"name":"株式会社東京サービスセンター（セレモニーホール昭島）","province":"東京都","city":"昭島市","address":"東京都昭島市宮沢町1丁目7-2","lat":35.70616044,"lon":139.36649129},{"name":"株式会社村尾組（そうしんホール昭島）","province":"東京都","city":"昭島市","address":"東京都昭島市武蔵野3丁目5-1","lat":35.71971183,"lon":139.37585683},{"name":"株式会社結セレモニー（くじら葬祭）","province":"東京都","city":"昭島市","address":"東京都昭島市福島町3丁目23-28","lat":35.69637846,"lon":139.37589906},{"name":"あきしまこどもクッキング","province":"東京都","city":"昭島市","address":"東京都昭島市つつじが丘3丁目7-7","lat":35.71352901,"lon":139.36620781},{"name":"たまりば☆ぬくぬく","province":"東京都","city":"昭島市","address":"東京都昭島市松原町1丁目3-10","lat":35.71211512,"lon":139.35702252},{"name":"あおぞらみんな食堂","province":"東京都","city":"昭島市","address":"東京都昭島市郷地町2丁目20-24","lat":35.69716746,"lon":139.3854093},{"name":"あのねの会あのね食堂","province":"東京都","city":"昭島市","address":"東京都昭島市宮沢町512-13","lat":35.71400132,"lon":139.37351825},{"name":"子ども料理ひろば","province":"東京都","city":"昭島市","address":"東京都昭島市玉川町5丁目13-13","lat":35.7030138,"lon":139.37706542},{"name":"昭島子ども食堂みほりん広場","province":"東京都","city":"昭島市","address":"東京都昭島市拝島町3926-11","lat":35.72095295,"lon":139.35638069},{"name":"そうしんホール昭島","province":"東京都","city":"昭島市","address":"東京都昭島市武蔵野3丁目5-1","lat":35.71971183,"lon":139.37585683},{"name":"株式会社おぼうさんどっとこむ","province":"東京都","city":"昭島市","address":"東京都昭島市中神町1135-47","lat":35.71175989,"lon":139.37259061},{"name":"JA東京葬祭センター","province":"東京都","city":"昭島市","address":"東京都昭島市中神町3丁目1-1","lat":35.6966812,"lon":139.37542966},{"name":"（株）おぼうさんどっとこむ","province":"東京都","city":"昭島市","address":"東京都昭島市中神町1135-47","lat":35.71175989,"lon":139.37259061},{"name":"中神駅入口","province":"東京都","city":"昭島市","address":"東京都昭島市朝日町3丁目6-1","lat":35.70723827,"lon":139.37555433},{"name":"拝島郵便局前","province":"東京都","city":"昭島市","address":"東京都昭島市拝島町2丁目8-11","lat":35.70826805,"lon":139.34027673},{"name":"昭島文化地区","province":"東京都","city":"昭島市","address":"東京都昭島市中神町1157","lat":35.71204326,"lon":139.37613747},{"name":"昭島市民図書館前","province":"東京都","city":"昭島市","address":"東京都昭島市東町2丁目6-33","lat":35.70546647,"lon":139.3851868},{"name":"昭島昭和町四丁目","province":"東京都","city":"昭島市","address":"東京都昭島市昭和町4丁目7-19","lat":35.71119312,"lon":139.36371919},{"name":"馬頭観音前","province":"東京都","city":"昭島市","address":"東京都昭島市朝日町3丁目1","lat":35.70625228,"lon":139.3758932},{"name":"昭島駅南口","province":"東京都","city":"昭島市","address":"東京都昭島市昭和町2丁目4","lat":35.71301785,"lon":139.36052498},{"name":"昭島駅北口","province":"東京都","city":"昭島市","address":"東京都昭島市田中町584-14","lat":35.7152176,"lon":139.36123598},{"name":"昭島市民会館西第二","province":"東京都","city":"昭島市","address":"東京都昭島市田中町562","lat":35.71341783,"lon":139.3620804},{"name":"昭島市役所中央第一","province":"東京都","city":"昭島市","address":"東京都昭島市田中町1丁目27","lat":35.70512424,"lon":139.3544729},{"name":"昭島十二神社南","province":"東京都","city":"昭島市","address":"東京都昭島市玉川町5丁目6","lat":35.7032999,"lon":139.37779867},{"name":"東部配水場","province":"東京都","city":"昭島市","address":"東京都昭島市朝日町4丁目23-28","lat":35.70855468,"lon":139.37011036},{"name":"昭島市公民館","province":"東京都","city":"昭島市","address":"昭島市つつじが丘3-7-7","lat":35.713268,"lon":139.365662},{"name":"青少年交流センター","province":"東京都","city":"昭島市","address":"昭島市昭和町1-6-11","lat":35.711323,"lon":139.365646},{"name":"市民図書館","province":"東京都","city":"昭島市","address":"昭島市東町2-6-33","lat":35.704556,"lon":139.386047},{"name":"昭島市民図書館つつじが丘分室","province":"東京都","city":"昭島市","address":"昭島市つつじが丘3-1-30","lat":35.714115,"lon":139.369476},{"name":"昭島市民図書館やまのかみ分室","province":"東京都","city":"昭島市","address":"昭島市拝島町3-10-3","lat":35.710747,"lon":139.334442},{"name":"昭島市民図書館昭和分館","province":"東京都","city":"昭島市","address":"昭島市松原町1-2-25","lat":35.713104,"lon":139.357727},{"name":"昭島市民図書館緑分館","province":"東京都","city":"昭島市","address":"昭島市緑町4-13-26","lat":35.713974,"lon":139.343887},{"name":"やまのかみ会館","province":"東京都","city":"昭島市","address":"昭島市拝島町3-10-3","lat":35.710747,"lon":139.334442},{"name":"玉川会館","province":"東京都","city":"昭島市","address":"昭島市玉川町3-10-15","lat":35.70372,"lon":139.382126},{"name":"昭和分館","province":"東京都","city":"昭島市","address":"昭島市松原町1-2-25","lat":35.713104,"lon":139.357727},{"name":"大神会館","province":"東京都","city":"昭島市","address":"昭島市大神町3-10-5","lat":35.700539,"lon":139.360779},{"name":"朝日会館","province":"東京都","city":"昭島市","address":"昭島市朝日町5-6-20","lat":35.704994,"lon":139.372787},{"name":"拝島会館","province":"東京都","city":"昭島市","address":"昭島市拝島町2-4-13","lat":35.707211,"lon":139.342468},{"name":"富士見会館","province":"東京都","city":"昭島市","address":"昭島市中神町1282","lat":35.710323,"lon":139.382996},{"name":"武蔵野会館","province":"東京都","city":"昭島市","address":"昭島市中神町1172-1","lat":35.711452,"lon":139.375153},{"name":"福島会館","province":"東京都","city":"昭島市","address":"昭島市福島町1-19-1","lat":35.696285,"lon":139.380478},{"name":"堀向会館","province":"東京都","city":"昭島市","address":"昭島市美堀町2-6-11","lat":35.723099,"lon":139.363647},{"name":"緑会館","province":"東京都","city":"昭島市","address":"昭島市緑町4-13-26","lat":35.713974,"lon":139.343887},{"name":"JA全農東京JA東京葬祭センター（源想園昭島葬儀会館）","province":"東京都","city":"昭島市","address":"東京都昭島市中神町3丁目1-1","lat":35.6966812,"lon":139.37542966},{"name":"株式会社セレモア（ガーデン会館昭島）","province":"東京都","city":"昭島市","address":"東京都昭島市玉川町2丁目4-12","lat":35.70655788,"lon":139.37958173},{"name":"株式会社ドリーミー","province":"東京都","city":"昭島市","address":"東京都昭島市田中町1丁目27-15","lat":35.7054492,"lon":139.35437846},{"name":"株式会社あさひセレモニー","province":"東京都","city":"昭島市","address":"東京都昭島市玉川町4丁目1-10","lat":35.70555248,"lon":139.38102051},{"name":"株式会社東京サービスセンター（セレモニーホール昭島）","province":"東京都","city":"昭島市","address":"東京都昭島市宮沢町1丁目7-2","lat":35.70616044,"lon":139.36649129},{"name":"株式会社村尾組（そうしんホール昭島）","province":"東京都","city":"昭島市","address":"東京都昭島市武蔵野3丁目5-1","lat":35.71971183,"lon":139.37585683},{"name":"株式会社結セレモニー（くじら葬祭）","province":"東京都","city":"昭島市","address":"東京都昭島市福島町3丁目23-28","lat":35.69637846,"lon":139.37589906},{"name":"あきしまこどもクッキング","province":"東京都","city":"昭島市","address":"東京都昭島市つつじが丘3丁目7-7","lat":35.71352901,"lon":139.36620781},{"name":"たまりば☆ぬくぬく","province":"東京都","city":"昭島市","address":"東京都昭島市松原町1丁目3-10","lat":35.71211512,"lon":139.35702252},{"name":"あおぞらみんな食堂","province":"東京都","city":"昭島市","address":"東京都昭島市郷地町2丁目20-24","lat":35.69716746,"lon":139.3854093},{"name":"あのねの会あのね食堂","province":"東京都","city":"昭島市","address":"東京都昭島市宮沢町512-13","lat":35.71400132,"lon":139.37351825},{"name":"子ども料理ひろば","province":"東京都","city":"昭島市","address":"東京都昭島市玉川町5丁目13-13","lat":35.7030138,"lon":139.37706542},{"name":"昭島子ども食堂みほりん広場","province":"東京都","city":"昭島市","address":"東京都昭島市拝島町3926-11","lat":35.72095295,"lon":139.35638069},{"name":"そうしんホール昭島","province":"東京都","city":"昭島市","address":"東京都昭島市武蔵野3丁目5-1","lat":35.71971183,"lon":139.37585683},{"name":"株式会社おぼうさんどっとこむ","province":"東京都","city":"昭島市","address":"東京都昭島市中神町1135-47","lat":35.71175989,"lon":139.37259061},{"name":"JA東京葬祭センター","province":"東京都","city":"昭島市","address":"東京都昭島市中神町3丁目1-1","lat":35.6966812,"lon":139.37542966},{"name":"（株）おぼうさんどっとこむ","province":"東京都","city":"昭島市","address":"東京都昭島市中神町1135-47","lat":35.71175989,"lon":139.37259061},{"name":"中神駅入口","province":"東京都","city":"昭島市","address":"東京都昭島市朝日町3丁目6-1","lat":35.70723827,"lon":139.37555433},{"name":"拝島郵便局前","province":"東京都","city":"昭島市","address":"東京都昭島市拝島町2丁目8-11","lat":35.70826805,"lon":139.34027673},{"name":"昭島文化地区","province":"東京都","city":"昭島市","address":"東京都昭島市中神町1157","lat":35.71204326,"lon":139.37613747},{"name":"昭島市民図書館前","province":"東京都","city":"昭島市","address":"東京都昭島市東町2丁目6-33","lat":35.70546647,"lon":139.3851868},{"name":"昭島昭和町四丁目","province":"東京都","city":"昭島市","address":"東京都昭島市昭和町4丁目7-19","lat":35.71119312,"lon":139.36371919},{"name":"馬頭観音前","province":"東京都","city":"昭島市","address":"東京都昭島市朝日町3丁目1","lat":35.70625228,"lon":139.3758932},{"name":"昭島駅南口","province":"東京都","city":"昭島市","address":"東京都昭島市昭和町2丁目4","lat":35.71301785,"lon":139.36052498},{"name":"昭島駅北口","province":"東京都","city":"昭島市","address":"東京都昭島市田中町584-14","lat":35.7152176,"lon":139.36123598},{"name":"昭島市民会館西第二","province":"東京都","city":"昭島市","address":"東京都昭島市田中町562","lat":35.71341783,"lon":139.3620804},{"name":"昭島市役所中央第一","province":"東京都","city":"昭島市","address":"東京都昭島市田中町1丁目27","lat":35.70512424,"lon":139.3544729},{"name":"昭島十二神社南","province":"東京都","city":"昭島市","address":"東京都昭島市玉川町5丁目6","lat":35.7032999,"lon":139.37779867},{"name":"東部配水場","province":"東京都","city":"昭島市","address":"東京都昭島市朝日町4丁目23-28","lat":35.70855468,"lon":139.37011036},{"name":"昭島市公民館","province":"東京都","city":"昭島市","address":"昭島市つつじが丘3-7-7","lat":35.713268,"lon":139.365662},{"name":"青少年交流センター","province":"東京都","city":"昭島市","address":"昭島市昭和町1-6-11","lat":35.711323,"lon":139.365646},{"name":"市民図書館","province":"東京都","city":"昭島市","address":"昭島市東町2-6-33","lat":35.704556,"lon":139.386047},{"name":"昭島市民図書館つつじが丘分室","province":"東京都","city":"昭島市","address":"昭島市つつじが丘3-1-30","lat":35.714115,"lon":139.369476},{"name":"昭島市民図書館やまのかみ分室","province":"東京都","city":"昭島市","address":"昭島市拝島町3-10-3","lat":35.710747,"lon":139.334442},{"name":"昭島市民図書館昭和分館","province":"東京都","city":"昭島市","address":"昭島市松原町1-2-25","lat":35.713104,"lon":139.357727},{"name":"昭島市民図書館緑分館","province":"東京都","city":"昭島市","address":"昭島市緑町4-13-26","lat":35.713974,"lon":139.343887},{"name":"やまのかみ会館","province":"東京都","city":"昭島市","address":"昭島市拝島町3-10-3","lat":35.710747,"lon":139.334442},{"name":"玉川会館","province":"東京都","city":"昭島市","address":"昭島市玉川町3-10-15","lat":35.70372,"lon":139.382126},{"name":"昭和分館","province":"東京都","city":"昭島市","address":"昭島市松原町1-2-25","lat":35.713104,"lon":139.357727},{"name":"大神会館","province":"東京都","city":"昭島市","address":"昭島市大神町3-10-5","lat":35.700539,"lon":139.360779},{"name":"朝日会館","province":"東京都","city":"昭島市","address":"昭島市朝日町5-6-20","lat":35.704994,"lon":139.372787},{"name":"拝島会館","province":"東京都","city":"昭島市","address":"昭島市拝島町2-4-13","lat":35.707211,"lon":139.342468},{"name":"富士見会館","province":"東京都","city":"昭島市","address":"昭島市中神町1282","lat":35.710323,"lon":139.382996},{"name":"武蔵野会館","province":"東京都","city":"昭島市","address":"昭島市中神町1172-1","lat":35.711452,"lon":139.375153},{"name":"福島会館","province":"東京都","city":"昭島市","address":"昭島市福島町1-19-1","lat":35.696285,"lon":139.380478},{"name":"堀向会館","province":"東京都","city":"昭島市","address":"昭島市美堀町2-6-11","lat":35.723099,"lon":139.363647},{"name":"緑会館","province":"東京都","city":"昭島市","address":"昭島市緑町4-13-26","lat":35.713974,"lon":139.343887},{"name":"JA全農東京JA東京葬祭センター（源想園昭島葬儀会館）","province":"東京都","city":"昭島市","address":"東京都昭島市中神町3丁目1-1","lat":35.6966812,"lon":139.37542966},{"name":"株式会社セレモア（ガーデン会館昭島）","province":"東京都","city":"昭島市","address":"東京都昭島市玉川町2丁目4-12","lat":35.70655788,"lon":139.37958173},{"name":"株式会社ドリーミー","province":"東京都","city":"昭島市","address":"東京都昭島市田中町1丁目27-15","lat":35.7054492,"lon":139.35437846},{"name":"株式会社あさひセレモニー","province":"東京都","city":"昭島市","address":"東京都昭島市玉川町4丁目1-10","lat":35.70555248,"lon":139.38102051},{"name":"株式会社東京サービスセンター（セレモニーホール昭島）","province":"東京都","city":"昭島市","address":"東京都昭島市宮沢町1丁目7-2","lat":35.70616044,"lon":139.36649129},{"name":"株式会社村尾組（そうしんホール昭島）","province":"東京都","city":"昭島市","address":"東京都昭島市武蔵野3丁目5-1","lat":35.71971183,"lon":139.37585683},{"name":"株式会社結セレモニー（くじら葬祭）","province":"東京都","city":"昭島市","address":"東京都昭島市福島町3丁目23-28","lat":35.69637846,"lon":139.37589906},{"name":"あきしまこどもクッキング","province":"東京都","city":"昭島市","address":"東京都昭島市つつじが丘3丁目7-7","lat":35.71352901,"lon":139.36620781},{"name":"たまりば☆ぬくぬく","province":"東京都","city":"昭島市","address":"東京都昭島市松原町1丁目3-10","lat":35.71211512,"lon":139.35702252},{"name":"あおぞらみんな食堂","province":"東京都","city":"昭島市","address":"東京都昭島市郷地町2丁目20-24","lat":35.69716746,"lon":139.3854093},{"name":"あのねの会あのね食堂","province":"東京都","city":"昭島市","address":"東京都昭島市宮沢町512-13","lat":35.71400132,"lon":139.37351825},{"name":"子ども料理ひろば","province":"東京都","city":"昭島市","address":"東京都昭島市玉川町5丁目13-13","lat":35.7030138,"lon":139.37706542},{"name":"昭島子ども食堂みほりん広場","province":"東京都","city":"昭島市","address":"東京都昭島市拝島町3926-11","lat":35.72095295,"lon":139.35638069},{"name":"そうしんホール昭島","province":"東京都","city":"昭島市","address":"東京都昭島市武蔵野3丁目5-1","lat":35.71971183,"lon":139.37585683},{"name":"株式会社おぼうさんどっとこむ","province":"東京都","city":"昭島市","address":"東京都昭島市中神町1135-47","lat":35.71175989,"lon":139.37259061},{"name":"JA東京葬祭センター","province":"東京都","city":"昭島市","address":"東京都昭島市中神町3丁目1-1","lat":35.6966812,"lon":139.37542966},{"name":"（株）おぼうさんどっとこむ","province":"東京都","city":"昭島市","address":"東京都昭島市中神町1135-47","lat":35.71175989,"lon":139.37259061},{"name":"中神駅入口","province":"東京都","city":"昭島市","address":"東京都昭島市朝日町3丁目6-1","lat":35.70723827,"lon":139.37555433},{"name":"拝島郵便局前","province":"東京都","city":"昭島市","address":"東京都昭島市拝島町2丁目8-11","lat":35.70826805,"lon":139.34027673},{"name":"昭島文化地区","province":"東京都","city":"昭島市","address":"東京都昭島市中神町1157","lat":35.71204326,"lon":139.37613747},{"name":"昭島市民図書館前","province":"東京都","city":"昭島市","address":"東京都昭島市東町2丁目6-33","lat":35.70546647,"lon":139.3851868},{"name":"昭島昭和町四丁目","province":"東京都","city":"昭島市","address":"東京都昭島市昭和町4丁目7-19","lat":35.71119312,"lon":139.36371919},{"name":"馬頭観音前","province":"東京都","city":"昭島市","address":"東京都昭島市朝日町3丁目1","lat":35.70625228,"lon":139.3758932},{"name":"昭島駅南口","province":"東京都","city":"昭島市","address":"東京都昭島市昭和町2丁目4","lat":35.71301785,"lon":139.36052498},{"name":"昭島駅北口","province":"東京都","city":"昭島市","address":"東京都昭島市田中町584-14","lat":35.7152176,"lon":139.36123598},{"name":"昭島市民会館西第二","province":"東京都","city":"昭島市","address":"東京都昭島市田中町562","lat":35.71341783,"lon":139.3620804},{"name":"昭島市役所中央第一","province":"東京都","city":"昭島市","address":"東京都昭島市田中町1丁目27","lat":35.70512424,"lon":139.3544729},{"name":"昭島十二神社南","province":"東京都","city":"昭島市","address":"東京都昭島市玉川町5丁目6","lat":35.7032999,"lon":139.37779867},{"name":"東部配水場","province":"東京都","city":"昭島市","address":"東京都昭島市朝日町4丁目23-28","lat":35.70855468,"lon":139.37011036},{"name":"昭島市公民館","province":"東京都","city":"昭島市","address":"昭島市つつじが丘3-7-7","lat":35.713268,"lon":139.365662},{"name":"青少年交流センター","province":"東京都","city":"昭島市","address":"昭島市昭和町1-6-11","lat":35.711323,"lon":139.365646},{"name":"市民図書館","province":"東京都","city":"昭島市","address":"昭島市東町2-6-33","lat":35.704556,"lon":139.386047},{"name":"昭島市民図書館つつじが丘分室","province":"東京都","city":"昭島市","address":"昭島市つつじが丘3-1-30","lat":35.714115,"lon":139.369476},{"name":"昭島市民図書館やまのかみ分室","province":"東京都","city":"昭島市","address":"昭島市拝島町3-10-3","lat":35.710747,"lon":139.334442},{"name":"昭島市民図書館昭和分館","province":"東京都","city":"昭島市","address":"昭島市松原町1-2-25","lat":35.713104,"lon":139.357727},{"name":"昭島市民図書館緑分館","province":"東京都","city":"昭島市","address":"昭島市緑町4-13-26","lat":35.713974,"lon":139.343887},{"name":"やまのかみ会館","province":"東京都","city":"昭島市","address":"昭島市拝島町3-10-3","lat":35.710747,"lon":139.334442},{"name":"玉川会館","province":"東京都","city":"昭島市","address":"昭島市玉川町3-10-15","lat":35.70372,"lon":139.382126},{"name":"昭和分館","province":"東京都","city":"昭島市","address":"昭島市松原町1-2-25","lat":35.713104,"lon":139.357727},{"name":"大神会館","province":"東京都","city":"昭島市","address":"昭島市大神町3-10-5","lat":35.700539,"lon":139.360779},{"name":"朝日会館","province":"東京都","city":"昭島市","address":"昭島市朝日町5-6-20","lat":35.704994,"lon":139.372787},{"name":"拝島会館","province":"東京都","city":"昭島市","address":"昭島市拝島町2-4-13","lat":35.707211,"lon":139.342468},{"name":"富士見会館","province":"東京都","city":"昭島市","address":"昭島市中神町1282","lat":35.710323,"lon":139.382996},{"name":"武蔵野会館","province":"東京都","city":"昭島市","address":"昭島市中神町1172-1","lat":35.711452,"lon":139.375153},{"name":"福島会館","province":"東京都","city":"昭島市","address":"昭島市福島町1-19-1","lat":35.696285,"lon":139.380478},{"name":"堀向会館","province":"東京都","city":"昭島市","address":"昭島市美堀町2-6-11","lat":35.723099,"lon":139.363647},{"name":"緑会館","province":"東京都","city":"昭島市","address":"昭島市緑町4-13-26","lat":35.713974,"lon":139.343887},{"name":"JA全農東京JA東京葬祭センター（源想園昭島葬儀会館）","province":"東京都","city":"昭島市","address":"東京都昭島市中神町3丁目1-1","lat":35.6966812,"lon":139.37542966},{"name":"株式会社セレモア（ガーデン会館昭島）","province":"東京都","city":"昭島市","address":"東京都昭島市玉川町2丁目4-12","lat":35.70655788,"lon":139.37958173},{"name":"株式会社ドリーミー","province":"東京都","city":"昭島市","address":"東京都昭島市田中町1丁目27-15","lat":35.7054492,"lon":139.35437846},{"name":"株式会社あさひセレモニー","province":"東京都","city":"昭島市","address":"東京都昭島市玉川町4丁目1-10","lat":35.70555248,"lon":139.38102051},{"name":"株式会社東京サービスセンター（セレモニーホール昭島）","province":"東京都","city":"昭島市","address":"東京都昭島市宮沢町1丁目7-2","lat":35.70616044,"lon":139.36649129},{"name":"株式会社村尾組（そうしんホール昭島）","province":"東京都","city":"昭島市","address":"東京都昭島市武蔵野3丁目5-1","lat":35.71971183,"lon":139.37585683},{"name":"株式会社結セレモニー（くじら葬祭）","province":"東京都","city":"昭島市","address":"東京都昭島市福島町3丁目23-28","lat":35.69637846,"lon":139.37589906},{"name":"あきしまこどもクッキング","province":"東京都","city":"昭島市","address":"東京都昭島市つつじが丘3丁目7-7","lat":35.71352901,"lon":139.36620781},{"name":"たまりば☆ぬくぬく","province":"東京都","city":"昭島市","address":"東京都昭島市松原町1丁目3-10","lat":35.71211512,"lon":139.35702252},{"name":"あおぞらみんな食堂","province":"東京都","city":"昭島市","address":"東京都昭島市郷地町2丁目20-24","lat":35.69716746,"lon":139.3854093},{"name":"あのねの会あのね食堂","province":"東京都","city":"昭島市","address":"東京都昭島市宮沢町512-13","lat":35.71400132,"lon":139.37351825},{"name":"子ども料理ひろば","province":"東京都","city":"昭島市","address":"東京都昭島市玉川町5丁目13-13","lat":35.7030138,"lon":139.37706542},{"name":"昭島子ども食堂みほりん広場","province":"東京都","city":"昭島市","address":"東京都昭島市拝島町3926-11","lat":35.72095295,"lon":139.35638069},{"name":"そうしんホール昭島","province":"東京都","city":"昭島市","address":"東京都昭島市武蔵野3丁目5-1","lat":35.71971183,"lon":139.37585683},{"name":"株式会社おぼうさんどっとこむ","province":"東京都","city":"昭島市","address":"東京都昭島市中神町1135-47","lat":35.71175989,"lon":139.37259061},{"name":"JA東京葬祭センター","province":"東京都","city":"昭島市","address":"東京都昭島市中神町3丁目1-1","lat":35.6966812,"lon":139.37542966},{"name":"（株）おぼうさんどっとこむ","province":"東京都","city":"昭島市","address":"東京都昭島市中神町1135-47","lat":35.71175989,"lon":139.37259061},{"name":"中神駅入口","province":"東京都","city":"昭島市","address":"東京都昭島市朝日町3丁目6-1","lat":35.70723827,"lon":139.37555433},{"name":"拝島郵便局前","province":"東京都","city":"昭島市","address":"東京都昭島市拝島町2丁目8-11","lat":35.70826805,"lon":139.34027673},{"name":"昭島文化地区","province":"東京都","city":"昭島市","address":"東京都昭島市中神町1157","lat":35.71204326,"lon":139.37613747},{"name":"昭島市民図書館前","province":"東京都","city":"昭島市","address":"東京都昭島市東町2丁目6-33","lat":35.70546647,"lon":139.3851868},{"name":"昭島昭和町四丁目","province":"東京都","city":"昭島市","address":"東京都昭島市昭和町4丁目7-19","lat":35.71119312,"lon":139.36371919},{"name":"馬頭観音前","province":"東京都","city":"昭島市","address":"東京都昭島市朝日町3丁目1","lat":35.70625228,"lon":139.3758932},{"name":"昭島駅南口","province":"東京都","city":"昭島市","address":"東京都昭島市昭和町2丁目4","lat":35.71301785,"lon":139.36052498},{"name":"昭島駅北口","province":"東京都","city":"昭島市","address":"東京都昭島市田中町584-14","lat":35.7152176,"lon":139.36123598},{"name":"昭島市民会館西第二","province":"東京都","city":"昭島市","address":"東京都昭島市田中町562","lat":35.71341783,"lon":139.3620804},{"name":"昭島市役所中央第一","province":"東京都","city":"昭島市","address":"東京都昭島市田中町1丁目27","lat":35.70512424,"lon":139.3544729},{"name":"昭島十二神社南","province":"東京都","city":"昭島市","address":"東京都昭島市玉川町5丁目6","lat":35.7032999,"lon":139.37779867},{"name":"東部配水場","province":"東京都","city":"昭島市","address":"東京都昭島市朝日町4丁目23-28","lat":35.70855468,"lon":139.37011036},{"name":"昭島市公民館","province":"東京都","city":"昭島市","address":"昭島市つつじが丘3-7-7","lat":35.713268,"lon":139.365662},{"name":"青少年交流センター","province":"東京都","city":"昭島市","address":"昭島市昭和町1-6-11","lat":35.711323,"lon":139.365646},{"name":"市民図書館","province":"東京都","city":"昭島市","address":"昭島市東町2-6-33","lat":35.704556,"lon":139.386047},{"name":"昭島市民図書館つつじが丘分室","province":"東京都","city":"昭島市","address":"昭島市つつじが丘3-1-30","lat":35.714115,"lon":139.369476},{"name":"昭島市民図書館やまのかみ分室","province":"東京都","city":"昭島市","address":"昭島市拝島町3-10-3","lat":35.710747,"lon":139.334442},{"name":"昭島市民図書館昭和分館","province":"東京都","city":"昭島市","address":"昭島市松原町1-2-25","lat":35.713104,"lon":139.357727},{"name":"昭島市民図書館緑分館","province":"東京都","city":"昭島市","address":"昭島市緑町4-13-26","lat":35.713974,"lon":139.343887},{"name":"やまのかみ会館","province":"東京都","city":"昭島市","address":"昭島市拝島町3-10-3","lat":35.710747,"lon":139.334442},{"name":"玉川会館","province":"東京都","city":"昭島市","address":"昭島市玉川町3-10-15","lat":35.70372,"lon":139.382126},{"name":"昭和分館","province":"東京都","city":"昭島市","address":"昭島市松原町1-2-25","lat":35.713104,"lon":139.357727},{"name":"大神会館","province":"東京都","city":"昭島市","address":"昭島市大神町3-10-5","lat":35.700539,"lon":139.360779},{"name":"朝日会館","province":"東京都","city":"昭島市","address":"昭島市朝日町5-6-20","lat":35.704994,"lon":139.372787},{"name":"拝島会館","province":"東京都","city":"昭島市","address":"昭島市拝島町2-4-13","lat":35.707211,"lon":139.342468},{"name":"富士見会館","province":"東京都","city":"昭島市","address":"昭島市中神町1282","lat":35.710323,"lon":139.382996},{"name":"武蔵野会館","province":"東京都","city":"昭島市","address":"昭島市中神町1172-1","lat":35.711452,"lon":139.375153},{"name":"福島会館","province":"東京都","city":"昭島市","address":"昭島市福島町1-19-1","lat":35.696285,"lon":139.380478},{"name":"堀向会館","province":"東京都","city":"昭島市","address":"昭島市美堀町2-6-11","lat":35.723099,"lon":139.363647},{"name":"緑会館","province":"東京都","city":"昭島市","address":"昭島市緑町4-13-26","lat":35.713974,"lon":139.343887},{"name":"JA全農東京JA東京葬祭センター（源想園昭島葬儀会館）","province":"東京都","city":"昭島市","address":"東京都昭島市中神町3丁目1-1","lat":35.6966812,"lon":139.37542966},{"name":"株式会社セレモア（ガーデン会館昭島）","province":"東京都","city":"昭島市","address":"東京都昭島市玉川町2丁目4-12","lat":35.70655788,"lon":139.37958173},{"name":"株式会社ドリーミー","province":"東京都","city":"昭島市","address":"東京都昭島市田中町1丁目27-15","lat":35.7054492,"lon":139.35437846},{"name":"株式会社あさひセレモニー","province":"東京都","city":"昭島市","address":"東京都昭島市玉川町4丁目1-10","lat":35.70555248,"lon":139.38102051},{"name":"株式会社東京サービスセンター（セレモニーホール昭島）","province":"東京都","city":"昭島市","address":"東京都昭島市宮沢町1丁目7-2","lat":35.70616044,"lon":139.36649129},{"name":"株式会社村尾組（そうしんホール昭島）","province":"東京都","city":"昭島市","address":"東京都昭島市武蔵野3丁目5-1","lat":35.71971183,"lon":139.37585683},{"name":"株式会社結セレモニー（くじら葬祭）","province":"東京都","city":"昭島市","address":"東京都昭島市福島町3丁目23-28","lat":35.69637846,"lon":139.37589906},{"name":"あきしまこどもクッキング","province":"東京都","city":"昭島市","address":"東京都昭島市つつじが丘3丁目7-7","lat":35.71352901,"lon":139.36620781},{"name":"たまりば☆ぬくぬく","province":"東京都","city":"昭島市","address":"東京都昭島市松原町1丁目3-10","lat":35.71211512,"lon":139.35702252},{"name":"あおぞらみんな食堂","province":"東京都","city":"昭島市","address":"東京都昭島市郷地町2丁目20-24","lat":35.69716746,"lon":139.3854093},{"name":"あのねの会あのね食堂","province":"東京都","city":"昭島市","address":"東京都昭島市宮沢町512-13","lat":35.71400132,"lon":139.37351825},{"name":"子ども料理ひろば","province":"東京都","city":"昭島市","address":"東京都昭島市玉川町5丁目13-13","lat":35.7030138,"lon":139.37706542},{"name":"昭島子ども食堂みほりん広場","province":"東京都","city":"昭島市","address":"東京都昭島市拝島町3926-11","lat":35.72095295,"lon":139.35638069},{"name":"そうしんホール昭島","province":"東京都","city":"昭島市","address":"東京都昭島市武蔵野3丁目5-1","lat":35.71971183,"lon":139.37585683},{"name":"株式会社おぼうさんどっとこむ","province":"東京都","city":"昭島市","address":"東京都昭島市中神町1135-47","lat":35.71175989,"lon":139.37259061},{"name":"JA東京葬祭センター","province":"東京都","city":"昭島市","address":"東京都昭島市中神町3丁目1-1","lat":35.6966812,"lon":139.37542966},{"name":"（株）おぼうさんどっとこむ","province":"東京都","city":"昭島市","address":"東京都昭島市中神町1135-47","lat":35.71175989,"lon":139.37259061},{"name":"中神駅入口","province":"東京都","city":"昭島市","address":"東京都昭島市朝日町3丁目6-1","lat":35.70723827,"lon":139.37555433},{"name":"拝島郵便局前","province":"東京都","city":"昭島市","address":"東京都昭島市拝島町2丁目8-11","lat":35.70826805,"lon":139.34027673},{"name":"昭島文化地区","province":"東京都","city":"昭島市","address":"東京都昭島市中神町1157","lat":35.71204326,"lon":139.37613747},{"name":"昭島市民図書館前","province":"東京都","city":"昭島市","address":"東京都昭島市東町2丁目6-33","lat":35.70546647,"lon":139.3851868},{"name":"昭島昭和町四丁目","province":"東京都","city":"昭島市","address":"東京都昭島市昭和町4丁目7-19","lat":35.71119312,"lon":139.36371919},{"name":"馬頭観音前","province":"東京都","city":"昭島市","address":"東京都昭島市朝日町3丁目1","lat":35.70625228,"lon":139.3758932},{"name":"昭島駅南口","province":"東京都","city":"昭島市","address":"東京都昭島市昭和町2丁目4","lat":35.71301785,"lon":139.36052498},{"name":"昭島駅北口","province":"東京都","city":"昭島市","address":"東京都昭島市田中町584-14","lat":35.7152176,"lon":139.36123598},{"name":"昭島市民会館西第二","province":"東京都","city":"昭島市","address":"東京都昭島市田中町562","lat":35.71341783,"lon":139.3620804},{"name":"昭島市役所中央第一","province":"東京都","city":"昭島市","address":"東京都昭島市田中町1丁目27","lat":35.70512424,"lon":139.3544729},{"name":"昭島十二神社南","province":"東京都","city":"昭島市","address":"東京都昭島市玉川町5丁目6","lat":35.7032999,"lon":139.37779867},{"name":"東部配水場","province":"東京都","city":"昭島市","address":"東京都昭島市朝日町4丁目23-28","lat":35.70855468,"lon":139.37011036},{"name":"昭島市公民館","province":"東京都","city":"昭島市","address":"昭島市つつじが丘3-7-7","lat":35.713268,"lon":139.365662},{"name":"青少年交流センター","province":"東京都","city":"昭島市","address":"昭島市昭和町1-6-11","lat":35.711323,"lon":139.365646},{"name":"市民図書館","province":"東京都","city":"昭島市","address":"昭島市東町2-6-33","lat":35.704556,"lon":139.386047},{"name":"昭島市民図書館つつじが丘分室","province":"東京都","city":"昭島市","address":"昭島市つつじが丘3-1-30","lat":35.714115,"lon":139.369476},{"name":"昭島市民図書館やまのかみ分室","province":"東京都","city":"昭島市","address":"昭島市拝島町3-10-3","lat":35.710747,"lon":139.334442},{"name":"昭島市民図書館昭和分館","province":"東京都","city":"昭島市","address":"昭島市松原町1-2-25","lat":35.713104,"lon":139.357727},{"name":"昭島市民図書館緑分館","province":"東京都","city":"昭島市","address":"昭島市緑町4-13-26","lat":35.713974,"lon":139.343887},{"name":"やまのかみ会館","province":"東京都","city":"昭島市","address":"昭島市拝島町3-10-3","lat":35.710747,"lon":139.334442},{"name":"玉川会館","province":"東京都","city":"昭島市","address":"昭島市玉川町3-10-15","lat":35.70372,"lon":139.382126},{"name":"昭和分館","province":"東京都","city":"昭島市","address":"昭島市松原町1-2-25","lat":35.713104,"lon":139.357727},{"name":"大神会館","province":"東京都","city":"昭島市","address":"昭島市大神町3-10-5","lat":35.700539,"lon":139.360779},{"name":"朝日会館","province":"東京都","city":"昭島市","address":"昭島市朝日町5-6-20","lat":35.704994,"lon":139.372787},{"name":"拝島会館","province":"東京都","city":"昭島市","address":"昭島市拝島町2-4-13","lat":35.707211,"lon":139.342468},{"name":"富士見会館","province":"東京都","city":"昭島市","address":"昭島市中神町1282","lat":35.710323,"lon":139.382996},{"name":"武蔵野会館","province":"東京都","city":"昭島市","address":"昭島市中神町1172-1","lat":35.711452,"lon":139.375153},{"name":"福島会館","province":"東京都","city":"昭島市","address":"昭島市福島町1-19-1","lat":35.696285,"lon":139.380478},{"name":"堀向会館","province":"東京都","city":"昭島市","address":"昭島市美堀町2-6-11","lat":35.723099,"lon":139.363647},{"name":"緑会館","province":"東京都","city":"昭島市","address":"昭島市緑町4-13-26","lat":35.713974,"lon":139.343887},{"name":"JA全農東京JA東京葬祭センター（源想園昭島葬儀会館）","province":"東京都","city":"昭島市","address":"東京都昭島市中神町3丁目1-1","lat":35.6966812,"lon":139.37542966},{"name":"株式会社セレモア（ガーデン会館昭島）","province":"東京都","city":"昭島市","address":"東京都昭島市玉川町2丁目4-12","lat":35.70655788,"lon":139.37958173},{"name":"株式会社ドリーミー","province":"東京都","city":"昭島市","address":"東京都昭島市田中町1丁目27-15","lat":35.7054492,"lon":139.35437846},{"name":"株式会社あさひセレモニー","province":"東京都","city":"昭島市","address":"東京都昭島市玉川町4丁目1-10","lat":35.70555248,"lon":139.38102051},{"name":"株式会社東京サービスセンター（セレモニーホール昭島）","province":"東京都","city":"昭島市","address":"東京都昭島市宮沢町1丁目7-2","lat":35.70616044,"lon":139.36649129},{"name":"株式会社村尾組（そうしんホール昭島）","province":"東京都","city":"昭島市","address":"東京都昭島市武蔵野3丁目5-1","lat":35.71971183,"lon":139.37585683},{"name":"株式会社結セレモニー（くじら葬祭）","province":"東京都","city":"昭島市","address":"東京都昭島市福島町3丁目23-28","lat":35.69637846,"lon":139.37589906},{"name":"あきしまこどもクッキング","province":"東京都","city":"昭島市","address":"東京都昭島市つつじが丘3丁目7-7","lat":35.71352901,"lon":139.36620781},{"name":"たまりば☆ぬくぬく","province":"東京都","city":"昭島市","address":"東京都昭島市松原町1丁目3-10","lat":35.71211512,"lon":139.35702252},{"name":"あおぞらみんな食堂","province":"東京都","city":"昭島市","address":"東京都昭島市郷地町2丁目20-24","lat":35.69716746,"lon":139.3854093},{"name":"あのねの会あのね食堂","province":"東京都","city":"昭島市","address":"東京都昭島市宮沢町512-13","lat":35.71400132,"lon":139.37351825},{"name":"子ども料理ひろば","province":"東京都","city":"昭島市","address":"東京都昭島市玉川町5丁目13-13","lat":35.7030138,"lon":139.37706542},{"name":"昭島子ども食堂みほりん広場","province":"東京都","city":"昭島市","address":"東京都昭島市拝島町3926-11","lat":35.72095295,"lon":139.35638069},{"name":"そうしんホール昭島","province":"東京都","city":"昭島市","address":"東京都昭島市武蔵野3丁目5-1","lat":35.71971183,"lon":139.37585683},{"name":"株式会社おぼうさんどっとこむ","province":"東京都","city":"昭島市","address":"東京都昭島市中神町1135-47","lat":35.71175989,"lon":139.37259061},{"name":"JA東京葬祭センター","province":"東京都","city":"昭島市","address":"東京都昭島市中神町3丁目1-1","lat":35.6966812,"lon":139.37542966},{"name":"（株）おぼうさんどっとこむ","province":"東京都","city":"昭島市","address":"東京都昭島市中神町1135-47","lat":35.71175989,"lon":139.37259061},{"name":"中神駅入口","province":"東京都","city":"昭島市","address":"東京都昭島市朝日町3丁目6-1","lat":35.70723827,"lon":139.37555433},{"name":"拝島郵便局前","province":"東京都","city":"昭島市","address":"東京都昭島市拝島町2丁目8-11","lat":35.70826805,"lon":139.34027673},{"name":"昭島文化地区","province":"東京都","city":"昭島市","address":"東京都昭島市中神町1157","lat":35.71204326,"lon":139.37613747},{"name":"昭島市民図書館前","province":"東京都","city":"昭島市","address":"東京都昭島市東町2丁目6-33","lat":35.70546647,"lon":139.3851868},{"name":"昭島昭和町四丁目","province":"東京都","city":"昭島市","address":"東京都昭島市昭和町4丁目7-19","lat":35.71119312,"lon":139.36371919},{"name":"馬頭観音前","province":"東京都","city":"昭島市","address":"東京都昭島市朝日町3丁目1","lat":35.70625228,"lon":139.3758932},{"name":"昭島駅南口","province":"東京都","city":"昭島市","address":"東京都昭島市昭和町2丁目4","lat":35.71301785,"lon":139.36052498},{"name":"昭島駅北口","province":"東京都","city":"昭島市","address":"東京都昭島市田中町584-14","lat":35.7152176,"lon":139.36123598},{"name":"昭島市民会館西第二","province":"東京都","city":"昭島市","address":"東京都昭島市田中町562","lat":35.71341783,"lon":139.3620804},{"name":"昭島市役所中央第一","province":"東京都","city":"昭島市","address":"東京都昭島市田中町1丁目27","lat":35.70512424,"lon":139.3544729},{"name":"昭島十二神社南","province":"東京都","city":"昭島市","address":"東京都昭島市玉川町5丁目6","lat":35.7032999,"lon":139.37779867},{"name":"東部配水場","province":"東京都","city":"昭島市","address":"東京都昭島市朝日町4丁目23-28","lat":35.70855468,"lon":139.37011036},{"name":"昭島市公民館","province":"東京都","city":"昭島市","address":"昭島市つつじが丘3-7-7","lat":35.713268,"lon":139.365662},{"name":"青少年交流センター","province":"東京都","city":"昭島市","address":"昭島市昭和町1-6-11","lat":35.711323,"lon":139.365646},{"name":"市民図書館","province":"東京都","city":"昭島市","address":"昭島市東町2-6-33","lat":35.704556,"lon":139.386047},{"name":"昭島市民図書館つつじが丘分室","province":"東京都","city":"昭島市","address":"昭島市つつじが丘3-1-30","lat":35.714115,"lon":139.369476},{"name":"昭島市民図書館やまのかみ分室","province":"東京都","city":"昭島市","address":"昭島市拝島町3-10-3","lat":35.710747,"lon":139.334442},{"name":"昭島市民図書館昭和分館","province":"東京都","city":"昭島市","address":"昭島市松原町1-2-25","lat":35.713104,"lon":139.357727},{"name":"昭島市民図書館緑分館","province":"東京都","city":"昭島市","address":"昭島市緑町4-13-26","lat":35.713974,"lon":139.343887},{"name":"やまのかみ会館","province":"東京都","city":"昭島市","address":"昭島市拝島町3-10-3","lat":35.710747,"lon":139.334442},{"name":"玉川会館","province":"東京都","city":"昭島市","address":"昭島市玉川町3-10-15","lat":35.70372,"lon":139.382126},{"name":"昭和分館","province":"東京都","city":"昭島市","address":"昭島市松原町1-2-25","lat":35.713104,"lon":139.357727},{"name":"大神会館","province":"東京都","city":"昭島市","address":"昭島市大神町3-10-5","lat":35.700539,"lon":139.360779},{"name":"朝日会館","province":"東京都","city":"昭島市","address":"昭島市朝日町5-6-20","lat":35.704994,"lon":139.372787},{"name":"拝島会館","province":"東京都","city":"昭島市","address":"昭島市拝島町2-4-13","lat":35.707211,"lon":139.342468},{"name":"富士見会館","province":"東京都","city":"昭島市","address":"昭島市中神町1282","lat":35.710323,"lon":139.382996},{"name":"武蔵野会館","province":"東京都","city":"昭島市","address":"昭島市中神町1172-1","lat":35.711452,"lon":139.375153},{"name":"福島会館","province":"東京都","city":"昭島市","address":"昭島市福島町1-19-1","lat":35.696285,"lon":139.380478},{"name":"堀向会館","province":"東京都","city":"昭島市","address":"昭島市美堀町2-6-11","lat":35.723099,"lon":139.363647},{"name":"緑会館","province":"東京都","city":"昭島市","address":"昭島市緑町4-13-26","lat":35.713974,"lon":139.343887},{"name":"JA全農東京JA東京葬祭センター（源想園昭島葬儀会館）","province":"東京都","city":"昭島市","address":"東京都昭島市中神町3丁目1-1","lat":35.6966812,"lon":139.37542966},{"name":"株式会社セレモア（ガーデン会館昭島）","province":"東京都","city":"昭島市","address":"東京都昭島市玉川町2丁目4-12","lat":35.70655788,"lon":139.37958173},{"name":"株式会社ドリーミー","province":"東京都","city":"昭島市","address":"東京都昭島市田中町1丁目27-15","lat":35.7054492,"lon":139.35437846},{"name":"株式会社あさひセレモニー","province":"東京都","city":"昭島市","address":"東京都昭島市玉川町4丁目1-10","lat":35.70555248,"lon":139.38102051},{"name":"株式会社東京サービスセンター（セレモニーホール昭島）","province":"東京都","city":"昭島市","address":"東京都昭島市宮沢町1丁目7-2","lat":35.70616044,"lon":139.36649129},{"name":"株式会社村尾組（そうしんホール昭島）","province":"東京都","city":"昭島市","address":"東京都昭島市武蔵野3丁目5-1","lat":35.71971183,"lon":139.37585683},{"name":"株式会社結セレモニー（くじら葬祭）","province":"東京都","city":"昭島市","address":"東京都昭島市福島町3丁目23-28","lat":35.69637846,"lon":139.37589906},{"name":"あきしまこどもクッキング","province":"東京都","city":"昭島市","address":"東京都昭島市つつじが丘3丁目7-7","lat":35.71352901,"lon":139.36620781},{"name":"たまりば☆ぬくぬく","province":"東京都","city":"昭島市","address":"東京都昭島市松原町1丁目3-10","lat":35.71211512,"lon":139.35702252},{"name":"あおぞらみんな食堂","province":"東京都","city":"昭島市","address":"東京都昭島市郷地町2丁目20-24","lat":35.69716746,"lon":139.3854093},{"name":"あのねの会あのね食堂","province":"東京都","city":"昭島市","address":"東京都昭島市宮沢町512-13","lat":35.71400132,"lon":139.37351825},{"name":"子ども料理ひろば","province":"東京都","city":"昭島市","address":"東京都昭島市玉川町5丁目13-13","lat":35.7030138,"lon":139.37706542},{"name":"昭島子ども食堂みほりん広場","province":"東京都","city":"昭島市","address":"東京都昭島市拝島町3926-11","lat":35.72095295,"lon":139.35638069},{"name":"そうしんホール昭島","province":"東京都","city":"昭島市","address":"東京都昭島市武蔵野3丁目5-1","lat":35.71971183,"lon":139.37585683},{"name":"株式会社おぼうさんどっとこむ","province":"東京都","city":"昭島市","address":"東京都昭島市中神町1135-47","lat":35.71175989,"lon":139.37259061},{"name":"JA東京葬祭センター","province":"東京都","city":"昭島市","address":"東京都昭島市中神町3丁目1-1","lat":35.6966812,"lon":139.37542966},{"name":"（株）おぼうさんどっとこむ","province":"東京都","city":"昭島市","address":"東京都昭島市中神町1135-47","lat":35.71175989,"lon":139.37259061},{"name":"中神駅入口","province":"東京都","city":"昭島市","address":"東京都昭島市朝日町3丁目6-1","lat":35.70723827,"lon":139.37555433},{"name":"拝島郵便局前","province":"東京都","city":"昭島市","address":"東京都昭島市拝島町2丁目8-11","lat":35.70826805,"lon":139.34027673},{"name":"昭島文化地区","province":"東京都","city":"昭島市","address":"東京都昭島市中神町1157","lat":35.71204326,"lon":139.37613747},{"name":"昭島市民図書館前","province":"東京都","city":"昭島市","address":"東京都昭島市東町2丁目6-33","lat":35.70546647,"lon":139.3851868},{"name":"昭島昭和町四丁目","province":"東京都","city":"昭島市","address":"東京都昭島市昭和町4丁目7-19","lat":35.71119312,"lon":139.36371919},{"name":"馬頭観音前","province":"東京都","city":"昭島市","address":"東京都昭島市朝日町3丁目1","lat":35.70625228,"lon":139.3758932},{"name":"昭島駅南口","province":"東京都","city":"昭島市","address":"東京都昭島市昭和町2丁目4","lat":35.71301785,"lon":139.36052498},{"name":"昭島駅北口","province":"東京都","city":"昭島市","address":"東京都昭島市田中町584-14","lat":35.7152176,"lon":139.36123598},{"name":"昭島市民会館西第二","province":"東京都","city":"昭島市","address":"東京都昭島市田中町562","lat":35.71341783,"lon":139.3620804},{"name":"昭島市役所中央第一","province":"東京都","city":"昭島市","address":"東京都昭島市田中町1丁目27","lat":35.70512424,"lon":139.3544729},{"name":"昭島十二神社南","province":"東京都","city":"昭島市","address":"東京都昭島市玉川町5丁目6","lat":35.7032999,"lon":139.37779867},{"name":"東部配水場","province":"東京都","city":"昭島市","address":"東京都昭島市朝日町4丁目23-28","lat":35.70855468,"lon":139.37011036},{"name":"昭島市公民館","province":"東京都","city":"昭島市","address":"昭島市つつじが丘3-7-7","lat":35.713268,"lon":139.365662},{"name":"青少年交流センター","province":"東京都","city":"昭島市","address":"昭島市昭和町1-6-11","lat":35.711323,"lon":139.365646},{"name":"市民図書館","province":"東京都","city":"昭島市","address":"昭島市東町2-6-33","lat":35.704556,"lon":139.386047},{"name":"昭島市民図書館つつじが丘分室","province":"東京都","city":"昭島市","address":"昭島市つつじが丘3-1-30","lat":35.714115,"lon":139.369476},{"name":"昭島市民図書館やまのかみ分室","province":"東京都","city":"昭島市","address":"昭島市拝島町3-10-3","lat":35.710747,"lon":139.334442},{"name":"昭島市民図書館昭和分館","province":"東京都","city":"昭島市","address":"昭島市松原町1-2-25","lat":35.713104,"lon":139.357727},{"name":"昭島市民図書館緑分館","province":"東京都","city":"昭島市","address":"昭島市緑町4-13-26","lat":35.713974,"lon":139.343887},{"name":"やまのかみ会館","province":"東京都","city":"昭島市","address":"昭島市拝島町3-10-3","lat":35.710747,"lon":139.334442},{"name":"玉川会館","province":"東京都","city":"昭島市","address":"昭島市玉川町3-10-15","lat":35.70372,"lon":139.382126},{"name":"昭和分館","province":"東京都","city":"昭島市","address":"昭島市松原町1-2-25","lat":35.713104,"lon":139.357727},{"name":"大神会館","province":"東京都","city":"昭島市","address":"昭島市大神町3-10-5","lat":35.700539,"lon":139.360779},{"name":"朝日会館","province":"東京都","city":"昭島市","address":"昭島市朝日町5-6-20","lat":35.704994,"lon":139.372787},{"name":"拝島会館","province":"東京都","city":"昭島市","address":"昭島市拝島町2-4-13","lat":35.707211,"lon":139.342468},{"name":"富士見会館","province":"東京都","city":"昭島市","address":"昭島市中神町1282","lat":35.710323,"lon":139.382996},{"name":"武蔵野会館","province":"東京都","city":"昭島市","address":"昭島市中神町1172-1","lat":35.711452,"lon":139.375153},{"name":"福島会館","province":"東京都","city":"昭島市","address":"昭島市福島町1-19-1","lat":35.696285,"lon":139.380478},{"name":"堀向会館","province":"東京都","city":"昭島市","address":"昭島市美堀町2-6-11","lat":35.723099,"lon":139.363647},{"name":"緑会館","province":"東京都","city":"昭島市","address":"昭島市緑町4-13-26","lat":35.713974,"lon":139.343887},{"name":"JA全農東京JA東京葬祭センター（源想園昭島葬儀会館）","province":"東京都","city":"昭島市","address":"東京都昭島市中神町3丁目1-1","lat":35.6966812,"lon":139.37542966},{"name":"株式会社セレモア（ガーデン会館昭島）","province":"東京都","city":"昭島市","address":"東京都昭島市玉川町2丁目4-12","lat":35.70655788,"lon":139.37958173},{"name":"株式会社ドリーミー","province":"東京都","city":"昭島市","address":"東京都昭島市田中町1丁目27-15","lat":35.7054492,"lon":139.35437846},{"name":"株式会社あさひセレモニー","province":"東京都","city":"昭島市","address":"東京都昭島市玉川町4丁目1-10","lat":35.70555248,"lon":139.38102051},{"name":"株式会社東京サービスセンター（セレモニーホール昭島）","province":"東京都","city":"昭島市","address":"東京都昭島市宮沢町1丁目7-2","lat":35.70616044,"lon":139.36649129},{"name":"株式会社村尾組（そうしんホール昭島）","province":"東京都","city":"昭島市","address":"東京都昭島市武蔵野3丁目5-1","lat":35.71971183,"lon":139.37585683},{"name":"株式会社結セレモニー（くじら葬祭）","province":"東京都","city":"昭島市","address":"東京都昭島市福島町3丁目23-28","lat":35.69637846,"lon":139.37589906},{"name":"あきしまこどもクッキング","province":"東京都","city":"昭島市","address":"東京都昭島市つつじが丘3丁目7-7","lat":35.71352901,"lon":139.36620781},{"name":"たまりば☆ぬくぬく","province":"東京都","city":"昭島市","address":"東京都昭島市松原町1丁目3-10","lat":35.71211512,"lon":139.35702252},{"name":"あおぞらみんな食堂","province":"東京都","city":"昭島市","address":"東京都昭島市郷地町2丁目20-24","lat":35.69716746,"lon":139.3854093},{"name":"あのねの会あのね食堂","province":"東京都","city":"昭島市","address":"東京都昭島市宮沢町512-13","lat":35.71400132,"lon":139.37351825},{"name":"子ども料理ひろば","province":"東京都","city":"昭島市","address":"東京都昭島市玉川町5丁目13-13","lat":35.7030138,"lon":139.37706542},{"name":"昭島子ども食堂みほりん広場","province":"東京都","city":"昭島市","address":"東京都昭島市拝島町3926-11","lat":35.72095295,"lon":139.35638069},{"name":"そうしんホール昭島","province":"東京都","city":"昭島市","address":"東京都昭島市武蔵野3丁目5-1","lat":35.71971183,"lon":139.37585683},{"name":"株式会社おぼうさんどっとこむ","province":"東京都","city":"昭島市","address":"東京都昭島市中神町1135-47","lat":35.71175989,"lon":139.37259061},{"name":"JA東京葬祭センター","province":"東京都","city":"昭島市","address":"東京都昭島市中神町3丁目1-1","lat":35.6966812,"lon":139.37542966},{"name":"（株）おぼうさんどっとこむ","province":"東京都","city":"昭島市","address":"東京都昭島市中神町1135-47","lat":35.71175989,"lon":139.37259061},{"name":"昭島市公民館","province":"東京都","city":"昭島市","address":"昭島市つつじが丘3-7-7","lat":35.713268,"lon":139.365662},{"name":"青少年交流センター","province":"東京都","city":"昭島市","address":"昭島市昭和町1-6-11","lat":35.711323,"lon":139.365646},{"name":"市民図書館","province":"東京都","city":"昭島市","address":"昭島市東町2-6-33","lat":35.704556,"lon":139.386047},{"name":"昭島市民図書館つつじが丘分室","province":"東京都","city":"昭島市","address":"昭島市つつじが丘3-1-30","lat":35.714115,"lon":139.369476},{"name":"昭島市民図書館やまのかみ分室","province":"東京都","city":"昭島市","address":"昭島市拝島町3-10-3","lat":35.710747,"lon":139.334442},{"name":"昭島市民図書館昭和分館","province":"東京都","city":"昭島市","address":"昭島市松原町1-2-25","lat":35.713104,"lon":139.357727},{"name":"昭島市民図書館緑分館","province":"東京都","city":"昭島市","address":"昭島市緑町4-13-26","lat":35.713974,"lon":139.343887},{"name":"やまのかみ会館","province":"東京都","city":"昭島市","address":"昭島市拝島町3-10-3","lat":35.710747,"lon":139.334442},{"name":"玉川会館","province":"東京都","city":"昭島市","address":"昭島市玉川町3-10-15","lat":35.70372,"lon":139.382126},{"name":"昭和分館","province":"東京都","city":"昭島市","address":"昭島市松原町1-2-25","lat":35.713104,"lon":139.357727},{"name":"大神会館","province":"東京都","city":"昭島市","address":"昭島市大神町3-10-5","lat":35.700539,"lon":139.360779},{"name":"朝日会館","province":"東京都","city":"昭島市","address":"昭島市朝日町5-6-20","lat":35.704994,"lon":139.372787},{"name":"拝島会館","province":"東京都","city":"昭島市","address":"昭島市拝島町2-4-13","lat":35.707211,"lon":139.342468},{"name":"富士見会館","province":"東京都","city":"昭島市","address":"昭島市中神町1282","lat":35.710323,"lon":139.382996},{"name":"武蔵野会館","province":"東京都","city":"昭島市","address":"昭島市中神町1172-1","lat":35.711452,"lon":139.375153},{"name":"福島会館","province":"東京都","city":"昭島市","address":"昭島市福島町1-19-1","lat":35.696285,"lon":139.380478},{"name":"堀向会館","province":"東京都","city":"昭島市","address":"昭島市美堀町2-6-11","lat":35.723099,"lon":139.363647},{"name":"緑会館","province":"東京都","city":"昭島市","address":"昭島市緑町4-13-26","lat":35.713974,"lon":139.343887},{"name":"JA全農東京JA東京葬祭センター（源想園昭島葬儀会館）","province":"東京都","city":"昭島市","address":"東京都昭島市中神町3丁目1-1","lat":35.6966812,"lon":139.37542966},{"name":"株式会社セレモア（ガーデン会館昭島）","province":"東京都","city":"昭島市","address":"東京都昭島市玉川町2丁目4-12","lat":35.70655788,"lon":139.37958173},{"name":"株式会社ドリーミー","province":"東京都","city":"昭島市","address":"東京都昭島市田中町1丁目27-15","lat":35.7054492,"lon":139.35437846},{"name":"株式会社あさひセレモニー","province":"東京都","city":"昭島市","address":"東京都昭島市玉川町4丁目1-10","lat":35.70555248,"lon":139.38102051},{"name":"株式会社東京サービスセンター（セレモニーホール昭島）","province":"東京都","city":"昭島市","address":"東京都昭島市宮沢町1丁目7-2","lat":35.70616044,"lon":139.36649129},{"name":"株式会社村尾組（そうしんホール昭島）","province":"東京都","city":"昭島市","address":"東京都昭島市武蔵野3丁目5-1","lat":35.71971183,"lon":139.37585683},{"name":"株式会社結セレモニー（くじら葬祭）","province":"東京都","city":"昭島市","address":"東京都昭島市福島町3丁目23-28","lat":35.69637846,"lon":139.37589906},{"name":"あきしまこどもクッキング","province":"東京都","city":"昭島市","address":"東京都昭島市つつじが丘3丁目7-7","lat":35.71352901,"lon":139.36620781},{"name":"たまりば☆ぬくぬく","province":"東京都","city":"昭島市","address":"東京都昭島市松原町1丁目3-10","lat":35.71211512,"lon":139.35702252},{"name":"あおぞらみんな食堂","province":"東京都","city":"昭島市","address":"東京都昭島市郷地町2丁目20-24","lat":35.69716746,"lon":139.3854093},{"name":"あのねの会あのね食堂","province":"東京都","city":"昭島市","address":"東京都昭島市宮沢町512-13","lat":35.71400132,"lon":139.37351825},{"name":"子ども料理ひろば","province":"東京都","city":"昭島市","address":"東京都昭島市玉川町5丁目13-13","lat":35.7030138,"lon":139.37706542},{"name":"昭島子ども食堂みほりん広場","province":"東京都","city":"昭島市","address":"東京都昭島市拝島町3926-11","lat":35.72095295,"lon":139.35638069},{"name":"そうしんホール昭島","province":"東京都","city":"昭島市","address":"東京都昭島市武蔵野3丁目5-1","lat":35.71971183,"lon":139.37585683},{"name":"株式会社おぼうさんどっとこむ","province":"東京都","city":"昭島市","address":"東京都昭島市中神町1135-47","lat":35.71175989,"lon":139.37259061},{"name":"JA東京葬祭センター","province":"東京都","city":"昭島市","address":"東京都昭島市中神町3丁目1-1","lat":35.6966812,"lon":139.37542966},{"name":"（株）おぼうさんどっとこむ","province":"東京都","city":"昭島市","address":"東京都昭島市中神町1135-47","lat":35.71175989,"lon":139.37259061},{"name":"昭島市公民館","province":"東京都","city":"昭島市","address":"昭島市つつじが丘3-7-7","lat":35.713268,"lon":139.365662},{"name":"青少年交流センター","province":"東京都","city":"昭島市","address":"昭島市昭和町1-6-11","lat":35.711323,"lon":139.365646},{"name":"市民図書館","province":"東京都","city":"昭島市","address":"昭島市東町2-6-33","lat":35.704556,"lon":139.386047},{"name":"昭島市民図書館つつじが丘分室","province":"東京都","city":"昭島市","address":"昭島市つつじが丘3-1-30","lat":35.714115,"lon":139.369476},{"name":"昭島市民図書館やまのかみ分室","province":"東京都","city":"昭島市","address":"昭島市拝島町3-10-3","lat":35.710747,"lon":139.334442},{"name":"昭島市民図書館昭和分館","province":"東京都","city":"昭島市","address":"昭島市松原町1-2-25","lat":35.713104,"lon":139.357727},{"name":"昭島市民図書館緑分館","province":"東京都","city":"昭島市","address":"昭島市緑町4-13-26","lat":35.713974,"lon":139.343887},{"name":"やまのかみ会館","province":"東京都","city":"昭島市","address":"昭島市拝島町3-10-3","lat":35.710747,"lon":139.334442},{"name":"玉川会館","province":"東京都","city":"昭島市","address":"昭島市玉川町3-10-15","lat":35.70372,"lon":139.382126},{"name":"昭和分館","province":"東京都","city":"昭島市","address":"昭島市松原町1-2-25","lat":35.713104,"lon":139.357727},{"name":"大神会館","province":"東京都","city":"昭島市","address":"昭島市大神町3-10-5","lat":35.700539,"lon":139.360779},{"name":"朝日会館","province":"東京都","city":"昭島市","address":"昭島市朝日町5-6-20","lat":35.704994,"lon":139.372787},{"name":"拝島会館","province":"東京都","city":"昭島市","address":"昭島市拝島町2-4-13","lat":35.707211,"lon":139.342468},{"name":"富士見会館","province":"東京都","city":"昭島市","address":"昭島市中神町1282","lat":35.710323,"lon":139.382996},{"name":"武蔵野会館","province":"東京都","city":"昭島市","address":"昭島市中神町1172-1","lat":35.711452,"lon":139.375153},{"name":"福島会館","province":"東京都","city":"昭島市","address":"昭島市福島町1-19-1","lat":35.696285,"lon":139.380478},{"name":"堀向会館","province":"東京都","city":"昭島市","address":"昭島市美堀町2-6-11","lat":35.723099,"lon":139.363647},{"name":"緑会館","province":"東京都","city":"昭島市","address":"昭島市緑町4-13-26","lat":35.713974,"lon":139.343887},{"name":"JA全農東京JA東京葬祭センター（源想園昭島葬儀会館）","province":"東京都","city":"昭島市","address":"東京都昭島市中神町3丁目1-1","lat":35.6966812,"lon":139.37542966},{"name":"株式会社セレモア（ガーデン会館昭島）","province":"東京都","city":"昭島市","address":"東京都昭島市玉川町2丁目4-12","lat":35.70655788,"lon":139.37958173},{"name":"株式会社ドリーミー","province":"東京都","city":"昭島市","address":"東京都昭島市田中町1丁目27-15","lat":35.7054492,"lon":139.35437846},{"name":"株式会社あさひセレモニー","province":"東京都","city":"昭島市","address":"東京都昭島市玉川町4丁目1-10","lat":35.70555248,"lon":139.38102051},{"name":"株式会社東京サービスセンター（セレモニーホール昭島）","province":"東京都","city":"昭島市","address":"東京都昭島市宮沢町1丁目7-2","lat":35.70616044,"lon":139.36649129},{"name":"株式会社村尾組（そうしんホール昭島）","province":"東京都","city":"昭島市","address":"東京都昭島市武蔵野3丁目5-1","lat":35.71971183,"lon":139.37585683},{"name":"株式会社結セレモニー（くじら葬祭）","province":"東京都","city":"昭島市","address":"東京都昭島市福島町3丁目23-28","lat":35.69637846,"lon":139.37589906},{"name":"あきしまこどもクッキング","province":"東京都","city":"昭島市","address":"東京都昭島市つつじが丘3丁目7-7","lat":35.71352901,"lon":139.36620781},{"name":"たまりば☆ぬくぬく","province":"東京都","city":"昭島市","address":"東京都昭島市松原町1丁目3-10","lat":35.71211512,"lon":139.35702252},{"name":"あおぞらみんな食堂","province":"東京都","city":"昭島市","address":"東京都昭島市郷地町2丁目20-24","lat":35.69716746,"lon":139.3854093},{"name":"あのねの会あのね食堂","province":"東京都","city":"昭島市","address":"東京都昭島市宮沢町512-13","lat":35.71400132,"lon":139.37351825},{"name":"子ども料理ひろば","province":"東京都","city":"昭島市","address":"東京都昭島市玉川町5丁目13-13","lat":35.7030138,"lon":139.37706542},{"name":"昭島子ども食堂みほりん広場","province":"東京都","city":"昭島市","address":"東京都昭島市拝島町3926-11","lat":35.72095295,"lon":139.35638069},{"name":"そうしんホール昭島","province":"東京都","city":"昭島市","address":"東京都昭島市武蔵野3丁目5-1","lat":35.71971183,"lon":139.37585683},{"name":"株式会社おぼうさんどっとこむ","province":"東京都","city":"昭島市","address":"東京都昭島市中神町1135-47","lat":35.71175989,"lon":139.37259061},{"name":"JA東京葬祭センター","province":"東京都","city":"昭島市","address":"東京都昭島市中神町3丁目1-1","lat":35.6966812,"lon":139.37542966},{"name":"（株）おぼうさんどっとこむ","province":"東京都","city":"昭島市","address":"東京都昭島市中神町1135-47","lat":35.71175989,"lon":139.37259061},{"name":"昭島市公民館","province":"東京都","city":"昭島市","address":"昭島市つつじが丘3-7-7","lat":35.713268,"lon":139.365662},{"name":"青少年交流センター","province":"東京都","city":"昭島市","address":"昭島市昭和町1-6-11","lat":35.711323,"lon":139.365646},{"name":"市民図書館","province":"東京都","city":"昭島市","address":"昭島市東町2-6-33","lat":35.704556,"lon":139.386047},{"name":"昭島市民図書館つつじが丘分室","province":"東京都","city":"昭島市","address":"昭島市つつじが丘3-1-30","lat":35.714115,"lon":139.369476},{"name":"昭島市民図書館やまのかみ分室","province":"東京都","city":"昭島市","address":"昭島市拝島町3-10-3","lat":35.710747,"lon":139.334442},{"name":"昭島市民図書館昭和分館","province":"東京都","city":"昭島市","address":"昭島市松原町1-2-25","lat":35.713104,"lon":139.357727},{"name":"昭島市民図書館緑分館","province":"東京都","city":"昭島市","address":"昭島市緑町4-13-26","lat":35.713974,"lon":139.343887},{"name":"やまのかみ会館","province":"東京都","city":"昭島市","address":"昭島市拝島町3-10-3","lat":35.710747,"lon":139.334442},{"name":"玉川会館","province":"東京都","city":"昭島市","address":"昭島市玉川町3-10-15","lat":35.70372,"lon":139.382126},{"name":"昭和分館","province":"東京都","city":"昭島市","address":"昭島市松原町1-2-25","lat":35.713104,"lon":139.357727},{"name":"大神会館","province":"東京都","city":"昭島市","address":"昭島市大神町3-10-5","lat":35.700539,"lon":139.360779},{"name":"朝日会館","province":"東京都","city":"昭島市","address":"昭島市朝日町5-6-20","lat":35.704994,"lon":139.372787},{"name":"拝島会館","province":"東京都","city":"昭島市","address":"昭島市拝島町2-4-13","lat":35.707211,"lon":139.342468},{"name":"富士見会館","province":"東京都","city":"昭島市","address":"昭島市中神町1282","lat":35.710323,"lon":139.382996},{"name":"武蔵野会館","province":"東京都","city":"昭島市","address":"昭島市中神町1172-1","lat":35.711452,"lon":139.375153},{"name":"福島会館","province":"東京都","city":"昭島市","address":"昭島市福島町1-19-1","lat":35.696285,"lon":139.380478},{"name":"堀向会館","province":"東京都","city":"昭島市","address":"昭島市美堀町2-6-11","lat":35.723099,"lon":139.363647},{"name":"緑会館","province":"東京都","city":"昭島市","address":"昭島市緑町4-13-26","lat":35.713974,"lon":139.343887},{"name":"JA全農東京JA東京葬祭センター（源想園昭島葬儀会館）","province":"東京都","city":"昭島市","address":"東京都昭島市中神町3丁目1-1","lat":35.6966812,"lon":139.37542966},{"name":"株式会社セレモア（ガーデン会館昭島）","province":"東京都","city":"昭島市","address":"東京都昭島市玉川町2丁目4-12","lat":35.70655788,"lon":139.37958173},{"name":"株式会社ドリーミー","province":"東京都","city":"昭島市","address":"東京都昭島市田中町1丁目27-15","lat":35.7054492,"lon":139.35437846},{"name":"株式会社あさひセレモニー","province":"東京都","city":"昭島市","address":"東京都昭島市玉川町4丁目1-10","lat":35.70555248,"lon":139.38102051},{"name":"株式会社東京サービスセンター（セレモニーホール昭島）","province":"東京都","city":"昭島市","address":"東京都昭島市宮沢町1丁目7-2","lat":35.70616044,"lon":139.36649129},{"name":"株式会社村尾組（そうしんホール昭島）","province":"東京都","city":"昭島市","address":"東京都昭島市武蔵野3丁目5-1","lat":35.71971183,"lon":139.37585683},{"name":"株式会社結セレモニー（くじら葬祭）","province":"東京都","city":"昭島市","address":"東京都昭島市福島町3丁目23-28","lat":35.69637846,"lon":139.37589906},{"name":"あきしまこどもクッキング","province":"東京都","city":"昭島市","address":"東京都昭島市つつじが丘3丁目7-7","lat":35.71352901,"lon":139.36620781},{"name":"たまりば☆ぬくぬく","province":"東京都","city":"昭島市","address":"東京都昭島市松原町1丁目3-10","lat":35.71211512,"lon":139.35702252},{"name":"あおぞらみんな食堂","province":"東京都","city":"昭島市","address":"東京都昭島市郷地町2丁目20-24","lat":35.69716746,"lon":139.3854093},{"name":"あのねの会あのね食堂","province":"東京都","city":"昭島市","address":"東京都昭島市宮沢町512-13","lat":35.71400132,"lon":139.37351825},{"name":"子ども料理ひろば","province":"東京都","city":"昭島市","address":"東京都昭島市玉川町5丁目13-13","lat":35.7030138,"lon":139.37706542},{"name":"昭島子ども食堂みほりん広場","province":"東京都","city":"昭島市","address":"東京都昭島市拝島町3926-11","lat":35.72095295,"lon":139.35638069},{"name":"そうしんホール昭島","province":"東京都","city":"昭島市","address":"東京都昭島市武蔵野3丁目5-1","lat":35.71971183,"lon":139.37585683},{"name":"株式会社おぼうさんどっとこむ","province":"東京都","city":"昭島市","address":"東京都昭島市中神町1135-47","lat":35.71175989,"lon":139.37259061},{"name":"JA東京葬祭センター","province":"東京都","city":"昭島市","address":"東京都昭島市中神町3丁目1-1","lat":35.6966812,"lon":139.37542966},{"name":"（株）おぼうさんどっとこむ","province":"東京都","city":"昭島市","address":"東京都昭島市中神町1135-47","lat":35.71175989,"lon":139.37259061},{"name":"昭島市公民館","province":"東京都","city":"昭島市","address":"昭島市つつじが丘3-7-7","lat":35.713268,"lon":139.365662},{"name":"青少年交流センター","province":"東京都","city":"昭島市","address":"昭島市昭和町1-6-11","lat":35.711323,"lon":139.365646},{"name":"市民図書館","province":"東京都","city":"昭島市","address":"昭島市東町2-6-33","lat":35.704556,"lon":139.386047},{"name":"昭島市民図書館つつじが丘分室","province":"東京都","city":"昭島市","address":"昭島市つつじが丘3-1-30","lat":35.714115,"lon":139.369476},{"name":"昭島市民図書館やまのかみ分室","province":"東京都","city":"昭島市","address":"昭島市拝島町3-10-3","lat":35.710747,"lon":139.334442},{"name":"昭島市民図書館昭和分館","province":"東京都","city":"昭島市","address":"昭島市松原町1-2-25","lat":35.713104,"lon":139.357727},{"name":"昭島市民図書館緑分館","province":"東京都","city":"昭島市","address":"昭島市緑町4-13-26","lat":35.713974,"lon":139.343887},{"name":"やまのかみ会館","province":"東京都","city":"昭島市","address":"昭島市拝島町3-10-3","lat":35.710747,"lon":139.334442},{"name":"玉川会館","province":"東京都","city":"昭島市","address":"昭島市玉川町3-10-15","lat":35.70372,"lon":139.382126},{"name":"昭和分館","province":"東京都","city":"昭島市","address":"昭島市松原町1-2-25","lat":35.713104,"lon":139.357727},{"name":"大神会館","province":"東京都","city":"昭島市","address":"昭島市大神町3-10-5","lat":35.700539,"lon":139.360779},{"name":"朝日会館","province":"東京都","city":"昭島市","address":"昭島市朝日町5-6-20","lat":35.704994,"lon":139.372787},{"name":"拝島会館","province":"東京都","city":"昭島市","address":"昭島市拝島町2-4-13","lat":35.707211,"lon":139.342468},{"name":"富士見会館","province":"東京都","city":"昭島市","address":"昭島市中神町1282","lat":35.710323,"lon":139.382996},{"name":"武蔵野会館","province":"東京都","city":"昭島市","address":"昭島市中神町1172-1","lat":35.711452,"lon":139.375153},{"name":"福島会館","province":"東京都","city":"昭島市","address":"昭島市福島町1-19-1","lat":35.696285,"lon":139.380478},{"name":"堀向会館","province":"東京都","city":"昭島市","address":"昭島市美堀町2-6-11","lat":35.723099,"lon":139.363647},{"name":"緑会館","province":"東京都","city":"昭島市","address":"昭島市緑町4-13-26","lat":35.713974,"lon":139.343887},{"name":"JA全農東京JA東京葬祭センター（源想園昭島葬儀会館）","province":"東京都","city":"昭島市","address":"東京都昭島市中神町3丁目1-1","lat":35.6966812,"lon":139.37542966},{"name":"株式会社セレモア（ガーデン会館昭島）","province":"東京都","city":"昭島市","address":"東京都昭島市玉川町2丁目4-12","lat":35.70655788,"lon":139.37958173},{"name":"株式会社ドリーミー","province":"東京都","city":"昭島市","address":"東京都昭島市田中町1丁目27-15","lat":35.7054492,"lon":139.35437846},{"name":"株式会社あさひセレモニー","province":"東京都","city":"昭島市","address":"東京都昭島市玉川町4丁目1-10","lat":35.70555248,"lon":139.38102051},{"name":"株式会社東京サービスセンター（セレモニーホール昭島）","province":"東京都","city":"昭島市","address":"東京都昭島市宮沢町1丁目7-2","lat":35.70616044,"lon":139.36649129},{"name":"株式会社村尾組（そうしんホール昭島）","province":"東京都","city":"昭島市","address":"東京都昭島市武蔵野3丁目5-1","lat":35.71971183,"lon":139.37585683},{"name":"株式会社結セレモニー（くじら葬祭）","province":"東京都","city":"昭島市","address":"東京都昭島市福島町3丁目23-28","lat":35.69637846,"lon":139.37589906},{"name":"あきしまこどもクッキング","province":"東京都","city":"昭島市","address":"東京都昭島市つつじが丘3丁目7-7","lat":35.71352901,"lon":139.36620781},{"name":"たまりば☆ぬくぬく","province":"東京都","city":"昭島市","address":"東京都昭島市松原町1丁目3-10","lat":35.71211512,"lon":139.35702252},{"name":"あおぞらみんな食堂","province":"東京都","city":"昭島市","address":"東京都昭島市郷地町2丁目20-24","lat":35.69716746,"lon":139.3854093},{"name":"あのねの会あのね食堂","province":"東京都","city":"昭島市","address":"東京都昭島市宮沢町512-13","lat":35.71400132,"lon":139.37351825},{"name":"子ども料理ひろば","province":"東京都","city":"昭島市","address":"東京都昭島市玉川町5丁目13-13","lat":35.7030138,"lon":139.37706542},{"name":"昭島子ども食堂みほりん広場","province":"東京都","city":"昭島市","address":"東京都昭島市拝島町3926-11","lat":35.72095295,"lon":139.35638069},{"name":"そうしんホール昭島","province":"東京都","city":"昭島市","address":"東京都昭島市武蔵野3丁目5-1","lat":35.71971183,"lon":139.37585683},{"name":"株式会社おぼうさんどっとこむ","province":"東京都","city":"昭島市","address":"東京都昭島市中神町1135-47","lat":35.71175989,"lon":139.37259061},{"name":"JA東京葬祭センター","province":"東京都","city":"昭島市","address":"東京都昭島市中神町3丁目1-1","lat":35.6966812,"lon":139.37542966},{"name":"（株）おぼうさんどっとこむ","province":"東京都","city":"昭島市","address":"東京都昭島市中神町1135-47","lat":35.71175989,"lon":139.37259061},{"name":"昭島市公民館","province":"東京都","city":"昭島市","address":"昭島市つつじが丘3-7-7","lat":35.713268,"lon":139.365662},{"name":"青少年交流センター","province":"東京都","city":"昭島市","address":"昭島市昭和町1-6-11","lat":35.711323,"lon":139.365646},{"name":"市民図書館","province":"東京都","city":"昭島市","address":"昭島市東町2-6-33","lat":35.704556,"lon":139.386047},{"name":"昭島市民図書館つつじが丘分室","province":"東京都","city":"昭島市","address":"昭島市つつじが丘3-1-30","lat":35.714115,"lon":139.369476},{"name":"昭島市民図書館やまのかみ分室","province":"東京都","city":"昭島市","address":"昭島市拝島町3-10-3","lat":35.710747,"lon":139.334442},{"name":"昭島市民図書館昭和分館","province":"東京都","city":"昭島市","address":"昭島市松原町1-2-25","lat":35.713104,"lon":139.357727},{"name":"昭島市民図書館緑分館","province":"東京都","city":"昭島市","address":"昭島市緑町4-13-26","lat":35.713974,"lon":139.343887},{"name":"やまのかみ会館","province":"東京都","city":"昭島市","address":"昭島市拝島町3-10-3","lat":35.710747,"lon":139.334442},{"name":"玉川会館","province":"東京都","city":"昭島市","address":"昭島市玉川町3-10-15","lat":35.70372,"lon":139.382126},{"name":"昭和分館","province":"東京都","city":"昭島市","address":"昭島市松原町1-2-25","lat":35.713104,"lon":139.357727},{"name":"大神会館","province":"東京都","city":"昭島市","address":"昭島市大神町3-10-5","lat":35.700539,"lon":139.360779},{"name":"朝日会館","province":"東京都","city":"昭島市","address":"昭島市朝日町5-6-20","lat":35.704994,"lon":139.372787},{"name":"拝島会館","province":"東京都","city":"昭島市","address":"昭島市拝島町2-4-13","lat":35.707211,"lon":139.342468},{"name":"富士見会館","province":"東京都","city":"昭島市","address":"昭島市中神町1282","lat":35.710323,"lon":139.382996},{"name":"武蔵野会館","province":"東京都","city":"昭島市","address":"昭島市中神町1172-1","lat":35.711452,"lon":139.375153},{"name":"福島会館","province":"東京都","city":"昭島市","address":"昭島市福島町1-19-1","lat":35.696285,"lon":139.380478},{"name":"堀向会館","province":"東京都","city":"昭島市","address":"昭島市美堀町2-6-11","lat":35.723099,"lon":139.363647},{"name":"緑会館","province":"東京都","city":"昭島市","address":"昭島市緑町4-13-26","lat":35.713974,"lon":139.343887},{"name":"JA全農東京JA東京葬祭センター（源想園昭島葬儀会館）","province":"東京都","city":"昭島市","address":"東京都昭島市中神町3丁目1-1","lat":35.6966812,"lon":139.37542966},{"name":"株式会社セレモア（ガーデン会館昭島）","province":"東京都","city":"昭島市","address":"東京都昭島市玉川町2丁目4-12","lat":35.70655788,"lon":139.37958173},{"name":"株式会社ドリーミー","province":"東京都","city":"昭島市","address":"東京都昭島市田中町1丁目27-15","lat":35.7054492,"lon":139.35437846},{"name":"株式会社あさひセレモニー","province":"東京都","city":"昭島市","address":"東京都昭島市玉川町4丁目1-10","lat":35.70555248,"lon":139.38102051},{"name":"株式会社東京サービスセンター（セレモニーホール昭島）","province":"東京都","city":"昭島市","address":"東京都昭島市宮沢町1丁目7-2","lat":35.70616044,"lon":139.36649129},{"name":"株式会社村尾組（そうしんホール昭島）","province":"東京都","city":"昭島市","address":"東京都昭島市武蔵野3丁目5-1","lat":35.71971183,"lon":139.37585683},{"name":"株式会社結セレモニー（くじら葬祭）","province":"東京都","city":"昭島市","address":"東京都昭島市福島町3丁目23-28","lat":35.69637846,"lon":139.37589906},{"name":"あきしまこどもクッキング","province":"東京都","city":"昭島市","address":"東京都昭島市つつじが丘3丁目7-7","lat":35.71352901,"lon":139.36620781},{"name":"たまりば☆ぬくぬく","province":"東京都","city":"昭島市","address":"東京都昭島市松原町1丁目3-10","lat":35.71211512,"lon":139.35702252},{"name":"あおぞらみんな食堂","province":"東京都","city":"昭島市","address":"東京都昭島市郷地町2丁目20-24","lat":35.69716746,"lon":139.3854093},{"name":"あのねの会あのね食堂","province":"東京都","city":"昭島市","address":"東京都昭島市宮沢町512-13","lat":35.71400132,"lon":139.37351825},{"name":"子ども料理ひろば","province":"東京都","city":"昭島市","address":"東京都昭島市玉川町5丁目13-13","lat":35.7030138,"lon":139.37706542},{"name":"昭島子ども食堂みほりん広場","province":"東京都","city":"昭島市","address":"東京都昭島市拝島町3926-11","lat":35.72095295,"lon":139.35638069},{"name":"そうしんホール昭島","province":"東京都","city":"昭島市","address":"東京都昭島市武蔵野3丁目5-1","lat":35.71971183,"lon":139.37585683},{"name":"株式会社おぼうさんどっとこむ","province":"東京都","city":"昭島市","address":"東京都昭島市中神町1135-47","lat":35.71175989,"lon":139.37259061},{"name":"JA東京葬祭センター","province":"東京都","city":"昭島市","address":"東京都昭島市中神町3丁目1-1","lat":35.6966812,"lon":139.37542966},{"name":"（株）おぼうさんどっとこむ","province":"東京都","city":"昭島市","address":"東京都昭島市中神町1135-47","lat":35.71175989,"lon":139.37259061},{"name":"昭島市公民館","province":"東京都","city":"昭島市","address":"昭島市つつじが丘3-7-7","lat":35.713268,"lon":139.365662},{"name":"青少年交流センター","province":"東京都","city":"昭島市","address":"昭島市昭和町1-6-11","lat":35.711323,"lon":139.365646},{"name":"市民図書館","province":"東京都","city":"昭島市","address":"昭島市東町2-6-33","lat":35.704556,"lon":139.386047},{"name":"昭島市民図書館つつじが丘分室","province":"東京都","city":"昭島市","address":"昭島市つつじが丘3-1-30","lat":35.714115,"lon":139.369476},{"name":"昭島市民図書館やまのかみ分室","province":"東京都","city":"昭島市","address":"昭島市拝島町3-10-3","lat":35.710747,"lon":139.334442},{"name":"昭島市民図書館昭和分館","province":"東京都","city":"昭島市","address":"昭島市松原町1-2-25","lat":35.713104,"lon":139.357727},{"name":"昭島市民図書館緑分館","province":"東京都","city":"昭島市","address":"昭島市緑町4-13-26","lat":35.713974,"lon":139.343887},{"name":"やまのかみ会館","province":"東京都","city":"昭島市","address":"昭島市拝島町3-10-3","lat":35.710747,"lon":139.334442},{"name":"玉川会館","province":"東京都","city":"昭島市","address":"昭島市玉川町3-10-15","lat":35.70372,"lon":139.382126},{"name":"昭和分館","province":"東京都","city":"昭島市","address":"昭島市松原町1-2-25","lat":35.713104,"lon":139.357727},{"name":"大神会館","province":"東京都","city":"昭島市","address":"昭島市大神町3-10-5","lat":35.700539,"lon":139.360779},{"name":"朝日会館","province":"東京都","city":"昭島市","address":"昭島市朝日町5-6-20","lat":35.704994,"lon":139.372787},{"name":"拝島会館","province":"東京都","city":"昭島市","address":"昭島市拝島町2-4-13","lat":35.707211,"lon":139.342468},{"name":"富士見会館","province":"東京都","city":"昭島市","address":"昭島市中神町1282","lat":35.710323,"lon":139.382996},{"name":"武蔵野会館","province":"東京都","city":"昭島市","address":"昭島市中神町1172-1","lat":35.711452,"lon":139.375153},{"name":"福島会館","province":"東京都","city":"昭島市","address":"昭島市福島町1-19-1","lat":35.696285,"lon":139.380478},{"name":"堀向会館","province":"東京都","city":"昭島市","address":"昭島市美堀町2-6-11","lat":35.723099,"lon":139.363647},{"name":"緑会館","province":"東京都","city":"昭島市","address":"昭島市緑町4-13-26","lat":35.713974,"lon":139.343887},{"name":"JA全農東京JA東京葬祭センター（源想園昭島葬儀会館）","province":"東京都","city":"昭島市","address":"東京都昭島市中神町3丁目1-1","lat":35.6966812,"lon":139.37542966},{"name":"株式会社セレモア（ガーデン会館昭島）","province":"東京都","city":"昭島市","address":"東京都昭島市玉川町2丁目4-12","lat":35.70655788,"lon":139.37958173},{"name":"株式会社ドリーミー","province":"東京都","city":"昭島市","address":"東京都昭島市田中町1丁目27-15","lat":35.7054492,"lon":139.35437846},{"name":"株式会社あさひセレモニー","province":"東京都","city":"昭島市","address":"東京都昭島市玉川町4丁目1-10","lat":35.70555248,"lon":139.38102051},{"name":"株式会社東京サービスセンター（セレモニーホール昭島）","province":"東京都","city":"昭島市","address":"東京都昭島市宮沢町1丁目7-2","lat":35.70616044,"lon":139.36649129},{"name":"株式会社村尾組（そうしんホール昭島）","province":"東京都","city":"昭島市","address":"東京都昭島市武蔵野3丁目5-1","lat":35.71971183,"lon":139.37585683},{"name":"株式会社結セレモニー（くじら葬祭）","province":"東京都","city":"昭島市","address":"東京都昭島市福島町3丁目23-28","lat":35.69637846,"lon":139.37589906},{"name":"あきしまこどもクッキング","province":"東京都","city":"昭島市","address":"東京都昭島市つつじが丘3丁目7-7","lat":35.71352901,"lon":139.36620781},{"name":"たまりば☆ぬくぬく","province":"東京都","city":"昭島市","address":"東京都昭島市松原町1丁目3-10","lat":35.71211512,"lon":139.35702252},{"name":"あおぞらみんな食堂","province":"東京都","city":"昭島市","address":"東京都昭島市郷地町2丁目20-24","lat":35.69716746,"lon":139.3854093},{"name":"あのねの会あのね食堂","province":"東京都","city":"昭島市","address":"東京都昭島市宮沢町512-13","lat":35.71400132,"lon":139.37351825},{"name":"子ども料理ひろば","province":"東京都","city":"昭島市","address":"東京都昭島市玉川町5丁目13-13","lat":35.7030138,"lon":139.37706542},{"name":"昭島子ども食堂みほりん広場","province":"東京都","city":"昭島市","address":"東京都昭島市拝島町3926-11","lat":35.72095295,"lon":139.35638069},{"name":"そうしんホール昭島","province":"東京都","city":"昭島市","address":"東京都昭島市武蔵野3丁目5-1","lat":35.71971183,"lon":139.37585683},{"name":"株式会社おぼうさんどっとこむ","province":"東京都","city":"昭島市","address":"東京都昭島市中神町1135-47","lat":35.71175989,"lon":139.37259061},{"name":"JA東京葬祭センター","province":"東京都","city":"昭島市","address":"東京都昭島市中神町3丁目1-1","lat":35.6966812,"lon":139.37542966},{"name":"（株）おぼうさんどっとこむ","province":"東京都","city":"昭島市","address":"東京都昭島市中神町1135-47","lat":35.71175989,"lon":139.37259061},{"name":"昭島市公民館","province":"東京都","city":"昭島市","address":"昭島市つつじが丘3-7-7","lat":35.713268,"lon":139.365662},{"name":"青少年交流センター","province":"東京都","city":"昭島市","address":"昭島市昭和町1-6-11","lat":35.711323,"lon":139.365646},{"name":"市民図書館","province":"東京都","city":"昭島市","address":"昭島市東町2-6-33","lat":35.704556,"lon":139.386047},{"name":"昭島市民図書館つつじが丘分室","province":"東京都","city":"昭島市","address":"昭島市つつじが丘3-1-30","lat":35.714115,"lon":139.369476},{"name":"昭島市民図書館やまのかみ分室","province":"東京都","city":"昭島市","address":"昭島市拝島町3-10-3","lat":35.710747,"lon":139.334442},{"name":"昭島市民図書館昭和分館","province":"東京都","city":"昭島市","address":"昭島市松原町1-2-25","lat":35.713104,"lon":139.357727},{"name":"昭島市民図書館緑分館","province":"東京都","city":"昭島市","address":"昭島市緑町4-13-26","lat":35.713974,"lon":139.343887},{"name":"やまのかみ会館","province":"東京都","city":"昭島市","address":"昭島市拝島町3-10-3","lat":35.710747,"lon":139.334442},{"name":"玉川会館","province":"東京都","city":"昭島市","address":"昭島市玉川町3-10-15","lat":35.70372,"lon":139.382126},{"name":"昭和分館","province":"東京都","city":"昭島市","address":"昭島市松原町1-2-25","lat":35.713104,"lon":139.357727},{"name":"大神会館","province":"東京都","city":"昭島市","address":"昭島市大神町3-10-5","lat":35.700539,"lon":139.360779},{"name":"朝日会館","province":"東京都","city":"昭島市","address":"昭島市朝日町5-6-20","lat":35.704994,"lon":139.372787},{"name":"拝島会館","province":"東京都","city":"昭島市","address":"昭島市拝島町2-4-13","lat":35.707211,"lon":139.342468},{"name":"富士見会館","province":"東京都","city":"昭島市","address":"昭島市中神町1282","lat":35.710323,"lon":139.382996},{"name":"武蔵野会館","province":"東京都","city":"昭島市","address":"昭島市中神町1172-1","lat":35.711452,"lon":139.375153},{"name":"福島会館","province":"東京都","city":"昭島市","address":"昭島市福島町1-19-1","lat":35.696285,"lon":139.380478},{"name":"堀向会館","province":"東京都","city":"昭島市","address":"昭島市美堀町2-6-11","lat":35.723099,"lon":139.363647},{"name":"緑会館","province":"東京都","city":"昭島市","address":"昭島市緑町4-13-26","lat":35.713974,"lon":139.343887},{"name":"JA全農東京JA東京葬祭センター（源想園昭島葬儀会館）","province":"東京都","city":"昭島市","address":"東京都昭島市中神町3丁目1-1","lat":35.6966812,"lon":139.37542966},{"name":"株式会社セレモア（ガーデン会館昭島）","province":"東京都","city":"昭島市","address":"東京都昭島市玉川町2丁目4-12","lat":35.70655788,"lon":139.37958173},{"name":"株式会社ドリーミー","province":"東京都","city":"昭島市","address":"東京都昭島市田中町1丁目27-15","lat":35.7054492,"lon":139.35437846},{"name":"株式会社あさひセレモニー","province":"東京都","city":"昭島市","address":"東京都昭島市玉川町4丁目1-10","lat":35.70555248,"lon":139.38102051},{"name":"株式会社東京サービスセンター（セレモニーホール昭島）","province":"東京都","city":"昭島市","address":"東京都昭島市宮沢町1丁目7-2","lat":35.70616044,"lon":139.36649129},{"name":"株式会社村尾組（そうしんホール昭島）","province":"東京都","city":"昭島市","address":"東京都昭島市武蔵野3丁目5-1","lat":35.71971183,"lon":139.37585683},{"name":"株式会社結セレモニー（くじら葬祭）","province":"東京都","city":"昭島市","address":"東京都昭島市福島町3丁目23-28","lat":35.69637846,"lon":139.37589906},{"name":"あきしまこどもクッキング","province":"東京都","city":"昭島市","address":"東京都昭島市つつじが丘3丁目7-7","lat":35.71352901,"lon":139.36620781},{"name":"たまりば☆ぬくぬく","province":"東京都","city":"昭島市","address":"東京都昭島市松原町1丁目3-10","lat":35.71211512,"lon":139.35702252},{"name":"あおぞらみんな食堂","province":"東京都","city":"昭島市","address":"東京都昭島市郷地町2丁目20-24","lat":35.69716746,"lon":139.3854093},{"name":"あのねの会あのね食堂","province":"東京都","city":"昭島市","address":"東京都昭島市宮沢町512-13","lat":35.71400132,"lon":139.37351825},{"name":"子ども料理ひろば","province":"東京都","city":"昭島市","address":"東京都昭島市玉川町5丁目13-13","lat":35.7030138,"lon":139.37706542},{"name":"昭島子ども食堂みほりん広場","province":"東京都","city":"昭島市","address":"東京都昭島市拝島町3926-11","lat":35.72095295,"lon":139.35638069},{"name":"そうしんホール昭島","province":"東京都","city":"昭島市","address":"東京都昭島市武蔵野3丁目5-1","lat":35.71971183,"lon":139.37585683},{"name":"株式会社おぼうさんどっとこむ","province":"東京都","city":"昭島市","address":"東京都昭島市中神町1135-47","lat":35.71175989,"lon":139.37259061},{"name":"JA東京葬祭センター","province":"東京都","city":"昭島市","address":"東京都昭島市中神町3丁目1-1","lat":35.6966812,"lon":139.37542966},{"name":"（株）おぼうさんどっとこむ","province":"東京都","city":"昭島市","address":"東京都昭島市中神町1135-47","lat":35.71175989,"lon":139.37259061},{"name":"昭島市公民館","province":"東京都","city":"昭島市","address":"昭島市つつじが丘3-7-7","lat":35.713268,"lon":139.365662},{"name":"青少年交流センター","province":"東京都","city":"昭島市","address":"昭島市昭和町1-6-11","lat":35.711323,"lon":139.365646},{"name":"市民図書館","province":"東京都","city":"昭島市","address":"昭島市東町2-6-33","lat":35.704556,"lon":139.386047},{"name":"昭島市民図書館つつじが丘分室","province":"東京都","city":"昭島市","address":"昭島市つつじが丘3-1-30","lat":35.714115,"lon":139.369476},{"name":"昭島市民図書館やまのかみ分室","province":"東京都","city":"昭島市","address":"昭島市拝島町3-10-3","lat":35.710747,"lon":139.334442},{"name":"昭島市民図書館昭和分館","province":"東京都","city":"昭島市","address":"昭島市松原町1-2-25","lat":35.713104,"lon":139.357727},{"name":"昭島市民図書館緑分館","province":"東京都","city":"昭島市","address":"昭島市緑町4-13-26","lat":35.713974,"lon":139.343887},{"name":"やまのかみ会館","province":"東京都","city":"昭島市","address":"昭島市拝島町3-10-3","lat":35.710747,"lon":139.334442},{"name":"玉川会館","province":"東京都","city":"昭島市","address":"昭島市玉川町3-10-15","lat":35.70372,"lon":139.382126},{"name":"昭和分館","province":"東京都","city":"昭島市","address":"昭島市松原町1-2-25","lat":35.713104,"lon":139.357727},{"name":"大神会館","province":"東京都","city":"昭島市","address":"昭島市大神町3-10-5","lat":35.700539,"lon":139.360779},{"name":"朝日会館","province":"東京都","city":"昭島市","address":"昭島市朝日町5-6-20","lat":35.704994,"lon":139.372787},{"name":"拝島会館","province":"東京都","city":"昭島市","address":"昭島市拝島町2-4-13","lat":35.707211,"lon":139.342468},{"name":"富士見会館","province":"東京都","city":"昭島市","address":"昭島市中神町1282","lat":35.710323,"lon":139.382996},{"name":"武蔵野会館","province":"東京都","city":"昭島市","address":"昭島市中神町1172-1","lat":35.711452,"lon":139.375153},{"name":"福島会館","province":"東京都","city":"昭島市","address":"昭島市福島町1-19-1","lat":35.696285,"lon":139.380478},{"name":"堀向会館","province":"東京都","city":"昭島市","address":"昭島市美堀町2-6-11","lat":35.723099,"lon":139.363647},{"name":"緑会館","province":"東京都","city":"昭島市","address":"昭島市緑町4-13-26","lat":35.713974,"lon":139.343887},{"name":"JA全農東京JA東京葬祭センター（源想園昭島葬儀会館）","province":"東京都","city":"昭島市","address":"東京都昭島市中神町3丁目1-1","lat":35.6966812,"lon":139.37542966},{"name":"株式会社セレモア（ガーデン会館昭島）","province":"東京都","city":"昭島市","address":"東京都昭島市玉川町2丁目4-12","lat":35.70655788,"lon":139.37958173},{"name":"株式会社ドリーミー","province":"東京都","city":"昭島市","address":"東京都昭島市田中町1丁目27-15","lat":35.7054492,"lon":139.35437846},{"name":"株式会社あさひセレモニー","province":"東京都","city":"昭島市","address":"東京都昭島市玉川町4丁目1-10","lat":35.70555248,"lon":139.38102051},{"name":"株式会社東京サービスセンター（セレモニーホール昭島）","province":"東京都","city":"昭島市","address":"東京都昭島市宮沢町1丁目7-2","lat":35.70616044,"lon":139.36649129},{"name":"株式会社村尾組（そうしんホール昭島）","province":"東京都","city":"昭島市","address":"東京都昭島市武蔵野3丁目5-1","lat":35.71971183,"lon":139.37585683},{"name":"株式会社結セレモニー（くじら葬祭）","province":"東京都","city":"昭島市","address":"東京都昭島市福島町3丁目23-28","lat":35.69637846,"lon":139.37589906},{"name":"あきしまこどもクッキング","province":"東京都","city":"昭島市","address":"東京都昭島市つつじが丘3丁目7-7","lat":35.71352901,"lon":139.36620781},{"name":"たまりば☆ぬくぬく","province":"東京都","city":"昭島市","address":"東京都昭島市松原町1丁目3-10","lat":35.71211512,"lon":139.35702252},{"name":"あおぞらみんな食堂","province":"東京都","city":"昭島市","address":"東京都昭島市郷地町2丁目20-24","lat":35.69716746,"lon":139.3854093},{"name":"あのねの会あのね食堂","province":"東京都","city":"昭島市","address":"東京都昭島市宮沢町512-13","lat":35.71400132,"lon":139.37351825},{"name":"子ども料理ひろば","province":"東京都","city":"昭島市","address":"東京都昭島市玉川町5丁目13-13","lat":35.7030138,"lon":139.37706542},{"name":"昭島子ども食堂みほりん広場","province":"東京都","city":"昭島市","address":"東京都昭島市拝島町3926-11","lat":35.72095295,"lon":139.35638069},{"name":"そうしんホール昭島","province":"東京都","city":"昭島市","address":"東京都昭島市武蔵野3丁目5-1","lat":35.71971183,"lon":139.37585683},{"name":"株式会社おぼうさんどっとこむ","province":"東京都","city":"昭島市","address":"東京都昭島市中神町1135-47","lat":35.71175989,"lon":139.37259061},{"name":"JA東京葬祭センター","province":"東京都","city":"昭島市","address":"東京都昭島市中神町3丁目1-1","lat":35.6966812,"lon":139.37542966},{"name":"（株）おぼうさんどっとこむ","province":"東京都","city":"昭島市","address":"東京都昭島市中神町1135-47","lat":35.71175989,"lon":139.37259061},{"name":"昭島市公民館","province":"東京都","city":"昭島市","address":"昭島市つつじが丘3-7-7","lat":35.713268,"lon":139.365662},{"name":"青少年交流センター","province":"東京都","city":"昭島市","address":"昭島市昭和町1-6-11","lat":35.711323,"lon":139.365646},{"name":"市民図書館","province":"東京都","city":"昭島市","address":"昭島市東町2-6-33","lat":35.704556,"lon":139.386047},{"name":"昭島市民図書館つつじが丘分室","province":"東京都","city":"昭島市","address":"昭島市つつじが丘3-1-30","lat":35.714115,"lon":139.369476},{"name":"昭島市民図書館やまのかみ分室","province":"東京都","city":"昭島市","address":"昭島市拝島町3-10-3","lat":35.710747,"lon":139.334442},{"name":"昭島市民図書館昭和分館","province":"東京都","city":"昭島市","address":"昭島市松原町1-2-25","lat":35.713104,"lon":139.357727},{"name":"昭島市民図書館緑分館","province":"東京都","city":"昭島市","address":"昭島市緑町4-13-26","lat":35.713974,"lon":139.343887},{"name":"やまのかみ会館","province":"東京都","city":"昭島市","address":"昭島市拝島町3-10-3","lat":35.710747,"lon":139.334442},{"name":"玉川会館","province":"東京都","city":"昭島市","address":"昭島市玉川町3-10-15","lat":35.70372,"lon":139.382126},{"name":"昭和分館","province":"東京都","city":"昭島市","address":"昭島市松原町1-2-25","lat":35.713104,"lon":139.357727},{"name":"大神会館","province":"東京都","city":"昭島市","address":"昭島市大神町3-10-5","lat":35.700539,"lon":139.360779},{"name":"朝日会館","province":"東京都","city":"昭島市","address":"昭島市朝日町5-6-20","lat":35.704994,"lon":139.372787},{"name":"拝島会館","province":"東京都","city":"昭島市","address":"昭島市拝島町2-4-13","lat":35.707211,"lon":139.342468},{"name":"富士見会館","province":"東京都","city":"昭島市","address":"昭島市中神町1282","lat":35.710323,"lon":139.382996},{"name":"武蔵野会館","province":"東京都","city":"昭島市","address":"昭島市中神町1172-1","lat":35.711452,"lon":139.375153},{"name":"福島会館","province":"東京都","city":"昭島市","address":"昭島市福島町1-19-1","lat":35.696285,"lon":139.380478},{"name":"堀向会館","province":"東京都","city":"昭島市","address":"昭島市美堀町2-6-11","lat":35.723099,"lon":139.363647},{"name":"緑会館","province":"東京都","city":"昭島市","address":"昭島市緑町4-13-26","lat":35.713974,"lon":139.343887},{"name":"JA全農東京JA東京葬祭センター（源想園昭島葬儀会館）","province":"東京都","city":"昭島市","address":"東京都昭島市中神町3丁目1-1","lat":35.6966812,"lon":139.37542966},{"name":"株式会社セレモア（ガーデン会館昭島）","province":"東京都","city":"昭島市","address":"東京都昭島市玉川町2丁目4-12","lat":35.70655788,"lon":139.37958173},{"name":"株式会社ドリーミー","province":"東京都","city":"昭島市","address":"東京都昭島市田中町1丁目27-15","lat":35.7054492,"lon":139.35437846},{"name":"株式会社あさひセレモニー","province":"東京都","city":"昭島市","address":"東京都昭島市玉川町4丁目1-10","lat":35.70555248,"lon":139.38102051},{"name":"株式会社東京サービスセンター（セレモニーホール昭島）","province":"東京都","city":"昭島市","address":"東京都昭島市宮沢町1丁目7-2","lat":35.70616044,"lon":139.36649129},{"name":"株式会社村尾組（そうしんホール昭島）","province":"東京都","city":"昭島市","address":"東京都昭島市武蔵野3丁目5-1","lat":35.71971183,"lon":139.37585683},{"name":"株式会社結セレモニー（くじら葬祭）","province":"東京都","city":"昭島市","address":"東京都昭島市福島町3丁目23-28","lat":35.69637846,"lon":139.37589906},{"name":"あきしまこどもクッキング","province":"東京都","city":"昭島市","address":"東京都昭島市つつじが丘3丁目7-7","lat":35.71352901,"lon":139.36620781},{"name":"たまりば☆ぬくぬく","province":"東京都","city":"昭島市","address":"東京都昭島市松原町1丁目3-10","lat":35.71211512,"lon":139.35702252},{"name":"あおぞらみんな食堂","province":"東京都","city":"昭島市","address":"東京都昭島市郷地町2丁目20-24","lat":35.69716746,"lon":139.3854093},{"name":"あのねの会あのね食堂","province":"東京都","city":"昭島市","address":"東京都昭島市宮沢町512-13","lat":35.71400132,"lon":139.37351825},{"name":"子ども料理ひろば","province":"東京都","city":"昭島市","address":"東京都昭島市玉川町5丁目13-13","lat":35.7030138,"lon":139.37706542},{"name":"昭島子ども食堂みほりん広場","province":"東京都","city":"昭島市","address":"東京都昭島市拝島町3926-11","lat":35.72095295,"lon":139.35638069},{"name":"そうしんホール昭島","province":"東京都","city":"昭島市","address":"東京都昭島市武蔵野3丁目5-1","lat":35.71971183,"lon":139.37585683},{"name":"株式会社おぼうさんどっとこむ","province":"東京都","city":"昭島市","address":"東京都昭島市中神町1135-47","lat":35.71175989,"lon":139.37259061},{"name":"JA東京葬祭センター","province":"東京都","city":"昭島市","address":"東京都昭島市中神町3丁目1-1","lat":35.6966812,"lon":139.37542966},{"name":"（株）おぼうさんどっとこむ","province":"東京都","city":"昭島市","address":"東京都昭島市中神町1135-47","lat":35.71175989,"lon":139.37259061},{"name":"昭島市公民館","province":"東京都","city":"昭島市","address":"昭島市つつじが丘3-7-7","lat":35.713268,"lon":139.365662},{"name":"青少年交流センター","province":"東京都","city":"昭島市","address":"昭島市昭和町1-6-11","lat":35.711323,"lon":139.365646},{"name":"市民図書館","province":"東京都","city":"昭島市","address":"昭島市東町2-6-33","lat":35.704556,"lon":139.386047},{"name":"昭島市民図書館つつじが丘分室","province":"東京都","city":"昭島市","address":"昭島市つつじが丘3-1-30","lat":35.714115,"lon":139.369476},{"name":"昭島市民図書館やまのかみ分室","province":"東京都","city":"昭島市","address":"昭島市拝島町3-10-3","lat":35.710747,"lon":139.334442},{"name":"昭島市民図書館昭和分館","province":"東京都","city":"昭島市","address":"昭島市松原町1-2-25","lat":35.713104,"lon":139.357727},{"name":"昭島市民図書館緑分館","province":"東京都","city":"昭島市","address":"昭島市緑町4-13-26","lat":35.713974,"lon":139.343887},{"name":"やまのかみ会館","province":"東京都","city":"昭島市","address":"昭島市拝島町3-10-3","lat":35.710747,"lon":139.334442},{"name":"玉川会館","province":"東京都","city":"昭島市","address":"昭島市玉川町3-10-15","lat":35.70372,"lon":139.382126},{"name":"昭和分館","province":"東京都","city":"昭島市","address":"昭島市松原町1-2-25","lat":35.713104,"lon":139.357727},{"name":"大神会館","province":"東京都","city":"昭島市","address":"昭島市大神町3-10-5","lat":35.700539,"lon":139.360779},{"name":"朝日会館","province":"東京都","city":"昭島市","address":"昭島市朝日町5-6-20","lat":35.704994,"lon":139.372787},{"name":"拝島会館","province":"東京都","city":"昭島市","address":"昭島市拝島町2-4-13","lat":35.707211,"lon":139.342468},{"name":"富士見会館","province":"東京都","city":"昭島市","address":"昭島市中神町1282","lat":35.710323,"lon":139.382996},{"name":"武蔵野会館","province":"東京都","city":"昭島市","address":"昭島市中神町1172-1","lat":35.711452,"lon":139.375153},{"name":"福島会館","province":"東京都","city":"昭島市","address":"昭島市福島町1-19-1","lat":35.696285,"lon":139.380478},{"name":"堀向会館","province":"東京都","city":"昭島市","address":"昭島市美堀町2-6-11","lat":35.723099,"lon":139.363647},{"name":"緑会館","province":"東京都","city":"昭島市","address":"昭島市緑町4-13-26","lat":35.713974,"lon":139.343887},{"name":"JA全農東京JA東京葬祭センター（源想園昭島葬儀会館）","province":"東京都","city":"昭島市","address":"東京都昭島市中神町3丁目1-1","lat":35.6966812,"lon":139.37542966},{"name":"株式会社セレモア（ガーデン会館昭島）","province":"東京都","city":"昭島市","address":"東京都昭島市玉川町2丁目4-12","lat":35.70655788,"lon":139.37958173},{"name":"株式会社ドリーミー","province":"東京都","city":"昭島市","address":"東京都昭島市田中町1丁目27-15","lat":35.7054492,"lon":139.35437846},{"name":"株式会社あさひセレモニー","province":"東京都","city":"昭島市","address":"東京都昭島市玉川町4丁目1-10","lat":35.70555248,"lon":139.38102051},{"name":"株式会社東京サービスセンター（セレモニーホール昭島）","province":"東京都","city":"昭島市","address":"東京都昭島市宮沢町1丁目7-2","lat":35.70616044,"lon":139.36649129},{"name":"株式会社村尾組（そうしんホール昭島）","province":"東京都","city":"昭島市","address":"東京都昭島市武蔵野3丁目5-1","lat":35.71971183,"lon":139.37585683},{"name":"株式会社結セレモニー（くじら葬祭）","province":"東京都","city":"昭島市","address":"東京都昭島市福島町3丁目23-28","lat":35.69637846,"lon":139.37589906},{"name":"あきしまこどもクッキング","province":"東京都","city":"昭島市","address":"東京都昭島市つつじが丘3丁目7-7","lat":35.71352901,"lon":139.36620781},{"name":"たまりば☆ぬくぬく","province":"東京都","city":"昭島市","address":"東京都昭島市松原町1丁目3-10","lat":35.71211512,"lon":139.35702252},{"name":"あおぞらみんな食堂","province":"東京都","city":"昭島市","address":"東京都昭島市郷地町2丁目20-24","lat":35.69716746,"lon":139.3854093},{"name":"あのねの会あのね食堂","province":"東京都","city":"昭島市","address":"東京都昭島市宮沢町512-13","lat":35.71400132,"lon":139.37351825},{"name":"子ども料理ひろば","province":"東京都","city":"昭島市","address":"東京都昭島市玉川町5丁目13-13","lat":35.7030138,"lon":139.37706542},{"name":"昭島子ども食堂みほりん広場","province":"東京都","city":"昭島市","address":"東京都昭島市拝島町3926-11","lat":35.72095295,"lon":139.35638069},{"name":"そうしんホール昭島","province":"東京都","city":"昭島市","address":"東京都昭島市武蔵野3丁目5-1","lat":35.71971183,"lon":139.37585683},{"name":"株式会社おぼうさんどっとこむ","province":"東京都","city":"昭島市","address":"東京都昭島市中神町1135-47","lat":35.71175989,"lon":139.37259061},{"name":"JA東京葬祭センター","province":"東京都","city":"昭島市","address":"東京都昭島市中神町3丁目1-1","lat":35.6966812,"lon":139.37542966},{"name":"（株）おぼうさんどっとこむ","province":"東京都","city":"昭島市","address":"東京都昭島市中神町1135-47","lat":35.71175989,"lon":139.37259061},{"name":"昭島市公民館","province":"東京都","city":"昭島市","address":"昭島市つつじが丘3-7-7","lat":35.713268,"lon":139.365662},{"name":"青少年交流センター","province":"東京都","city":"昭島市","address":"昭島市昭和町1-6-11","lat":35.711323,"lon":139.365646},{"name":"市民図書館","province":"東京都","city":"昭島市","address":"昭島市東町2-6-33","lat":35.704556,"lon":139.386047},{"name":"昭島市民図書館つつじが丘分室","province":"東京都","city":"昭島市","address":"昭島市つつじが丘3-1-30","lat":35.714115,"lon":139.369476},{"name":"昭島市民図書館やまのかみ分室","province":"東京都","city":"昭島市","address":"昭島市拝島町3-10-3","lat":35.710747,"lon":139.334442},{"name":"昭島市民図書館昭和分館","province":"東京都","city":"昭島市","address":"昭島市松原町1-2-25","lat":35.713104,"lon":139.357727},{"name":"昭島市民図書館緑分館","province":"東京都","city":"昭島市","address":"昭島市緑町4-13-26","lat":35.713974,"lon":139.343887},{"name":"やまのかみ会館","province":"東京都","city":"昭島市","address":"昭島市拝島町3-10-3","lat":35.710747,"lon":139.334442},{"name":"玉川会館","province":"東京都","city":"昭島市","address":"昭島市玉川町3-10-15","lat":35.70372,"lon":139.382126},{"name":"昭和分館","province":"東京都","city":"昭島市","address":"昭島市松原町1-2-25","lat":35.713104,"lon":139.357727},{"name":"大神会館","province":"東京都","city":"昭島市","address":"昭島市大神町3-10-5","lat":35.700539,"lon":139.360779},{"name":"朝日会館","province":"東京都","city":"昭島市","address":"昭島市朝日町5-6-20","lat":35.704994,"lon":139.372787},{"name":"拝島会館","province":"東京都","city":"昭島市","address":"昭島市拝島町2-4-13","lat":35.707211,"lon":139.342468},{"name":"富士見会館","province":"東京都","city":"昭島市","address":"昭島市中神町1282","lat":35.710323,"lon":139.382996},{"name":"武蔵野会館","province":"東京都","city":"昭島市","address":"昭島市中神町1172-1","lat":35.711452,"lon":139.375153},{"name":"福島会館","province":"東京都","city":"昭島市","address":"昭島市福島町1-19-1","lat":35.696285,"lon":139.380478},{"name":"堀向会館","province":"東京都","city":"昭島市","address":"昭島市美堀町2-6-11","lat":35.723099,"lon":139.363647},{"name":"緑会館","province":"東京都","city":"昭島市","address":"昭島市緑町4-13-26","lat":35.713974,"lon":139.343887},{"name":"JA全農東京JA東京葬祭センター（源想園昭島葬儀会館）","province":"東京都","city":"昭島市","address":"東京都昭島市中神町3丁目1-1","lat":35.6966812,"lon":139.37542966},{"name":"株式会社セレモア（ガーデン会館昭島）","province":"東京都","city":"昭島市","address":"東京都昭島市玉川町2丁目4-12","lat":35.70655788,"lon":139.37958173},{"name":"株式会社ドリーミー","province":"東京都","city":"昭島市","address":"東京都昭島市田中町1丁目27-15","lat":35.7054492,"lon":139.35437846},{"name":"株式会社あさひセレモニー","province":"東京都","city":"昭島市","address":"東京都昭島市玉川町4丁目1-10","lat":35.70555248,"lon":139.38102051},{"name":"株式会社東京サービスセンター（セレモニーホール昭島）","province":"東京都","city":"昭島市","address":"東京都昭島市宮沢町1丁目7-2","lat":35.70616044,"lon":139.36649129},{"name":"株式会社村尾組（そうしんホール昭島）","province":"東京都","city":"昭島市","address":"東京都昭島市武蔵野3丁目5-1","lat":35.71971183,"lon":139.37585683},{"name":"株式会社結セレモニー（くじら葬祭）","province":"東京都","city":"昭島市","address":"東京都昭島市福島町3丁目23-28","lat":35.69637846,"lon":139.37589906},{"name":"あきしまこどもクッキング","province":"東京都","city":"昭島市","address":"東京都昭島市つつじが丘3丁目7-7","lat":35.71352901,"lon":139.36620781},{"name":"たまりば☆ぬくぬく","province":"東京都","city":"昭島市","address":"東京都昭島市松原町1丁目3-10","lat":35.71211512,"lon":139.35702252},{"name":"あおぞらみんな食堂","province":"東京都","city":"昭島市","address":"東京都昭島市郷地町2丁目20-24","lat":35.69716746,"lon":139.3854093},{"name":"あのねの会あのね食堂","province":"東京都","city":"昭島市","address":"東京都昭島市宮沢町512-13","lat":35.71400132,"lon":139.37351825},{"name":"子ども料理ひろば","province":"東京都","city":"昭島市","address":"東京都昭島市玉川町5丁目13-13","lat":35.7030138,"lon":139.37706542},{"name":"昭島子ども食堂みほりん広場","province":"東京都","city":"昭島市","address":"東京都昭島市拝島町3926-11","lat":35.72095295,"lon":139.35638069},{"name":"そうしんホール昭島","province":"東京都","city":"昭島市","address":"東京都昭島市武蔵野3丁目5-1","lat":35.71971183,"lon":139.37585683},{"name":"株式会社おぼうさんどっとこむ","province":"東京都","city":"昭島市","address":"東京都昭島市中神町1135-47","lat":35.71175989,"lon":139.37259061},{"name":"JA東京葬祭センター","province":"東京都","city":"昭島市","address":"東京都昭島市中神町3丁目1-1","lat":35.6966812,"lon":139.37542966},{"name":"（株）おぼうさんどっとこむ","province":"東京都","city":"昭島市","address":"東京都昭島市中神町1135-47","lat":35.71175989,"lon":139.37259061},{"name":"昭島市公民館","province":"東京都","city":"昭島市","address":"昭島市つつじが丘3-7-7","lat":35.713268,"lon":139.365662},{"name":"青少年交流センター","province":"東京都","city":"昭島市","address":"昭島市昭和町1-6-11","lat":35.711323,"lon":139.365646},{"name":"市民図書館","province":"東京都","city":"昭島市","address":"昭島市東町2-6-33","lat":35.704556,"lon":139.386047},{"name":"昭島市民図書館つつじが丘分室","province":"東京都","city":"昭島市","address":"昭島市つつじが丘3-1-30","lat":35.714115,"lon":139.369476},{"name":"昭島市民図書館やまのかみ分室","province":"東京都","city":"昭島市","address":"昭島市拝島町3-10-3","lat":35.710747,"lon":139.334442},{"name":"昭島市民図書館昭和分館","province":"東京都","city":"昭島市","address":"昭島市松原町1-2-25","lat":35.713104,"lon":139.357727},{"name":"昭島市民図書館緑分館","province":"東京都","city":"昭島市","address":"昭島市緑町4-13-26","lat":35.713974,"lon":139.343887},{"name":"やまのかみ会館","province":"東京都","city":"昭島市","address":"昭島市拝島町3-10-3","lat":35.710747,"lon":139.334442},{"name":"玉川会館","province":"東京都","city":"昭島市","address":"昭島市玉川町3-10-15","lat":35.70372,"lon":139.382126},{"name":"昭和分館","province":"東京都","city":"昭島市","address":"昭島市松原町1-2-25","lat":35.713104,"lon":139.357727},{"name":"大神会館","province":"東京都","city":"昭島市","address":"昭島市大神町3-10-5","lat":35.700539,"lon":139.360779},{"name":"朝日会館","province":"東京都","city":"昭島市","address":"昭島市朝日町5-6-20","lat":35.704994,"lon":139.372787},{"name":"拝島会館","province":"東京都","city":"昭島市","address":"昭島市拝島町2-4-13","lat":35.707211,"lon":139.342468},{"name":"富士見会館","province":"東京都","city":"昭島市","address":"昭島市中神町1282","lat":35.710323,"lon":139.382996},{"name":"武蔵野会館","province":"東京都","city":"昭島市","address":"昭島市中神町1172-1","lat":35.711452,"lon":139.375153},{"name":"福島会館","province":"東京都","city":"昭島市","address":"昭島市福島町1-19-1","lat":35.696285,"lon":139.380478},{"name":"堀向会館","province":"東京都","city":"昭島市","address":"昭島市美堀町2-6-11","lat":35.723099,"lon":139.363647},{"name":"緑会館","province":"東京都","city":"昭島市","address":"昭島市緑町4-13-26","lat":35.713974,"lon":139.343887},{"name":"JA全農東京JA東京葬祭センター（源想園昭島葬儀会館）","province":"東京都","city":"昭島市","address":"東京都昭島市中神町3丁目1-1","lat":35.6966812,"lon":139.37542966},{"name":"株式会社セレモア（ガーデン会館昭島）","province":"東京都","city":"昭島市","address":"東京都昭島市玉川町2丁目4-12","lat":35.70655788,"lon":139.37958173},{"name":"株式会社ドリーミー","province":"東京都","city":"昭島市","address":"東京都昭島市田中町1丁目27-15","lat":35.7054492,"lon":139.35437846},{"name":"株式会社あさひセレモニー","province":"東京都","city":"昭島市","address":"東京都昭島市玉川町4丁目1-10","lat":35.70555248,"lon":139.38102051},{"name":"株式会社東京サービスセンター（セレモニーホール昭島）","province":"東京都","city":"昭島市","address":"東京都昭島市宮沢町1丁目7-2","lat":35.70616044,"lon":139.36649129},{"name":"株式会社村尾組（そうしんホール昭島）","province":"東京都","city":"昭島市","address":"東京都昭島市武蔵野3丁目5-1","lat":35.71971183,"lon":139.37585683},{"name":"株式会社結セレモニー（くじら葬祭）","province":"東京都","city":"昭島市","address":"東京都昭島市福島町3丁目23-28","lat":35.69637846,"lon":139.37589906},{"name":"あきしまこどもクッキング","province":"東京都","city":"昭島市","address":"東京都昭島市つつじが丘3丁目7-7","lat":35.71352901,"lon":139.36620781},{"name":"たまりば☆ぬくぬく","province":"東京都","city":"昭島市","address":"東京都昭島市松原町1丁目3-10","lat":35.71211512,"lon":139.35702252},{"name":"あおぞらみんな食堂","province":"東京都","city":"昭島市","address":"東京都昭島市郷地町2丁目20-24","lat":35.69716746,"lon":139.3854093},{"name":"あのねの会あのね食堂","province":"東京都","city":"昭島市","address":"東京都昭島市宮沢町512-13","lat":35.71400132,"lon":139.37351825},{"name":"子ども料理ひろば","province":"東京都","city":"昭島市","address":"東京都昭島市玉川町5丁目13-13","lat":35.7030138,"lon":139.37706542},{"name":"昭島子ども食堂みほりん広場","province":"東京都","city":"昭島市","address":"東京都昭島市拝島町3926-11","lat":35.72095295,"lon":139.35638069},{"name":"そうしんホール昭島","province":"東京都","city":"昭島市","address":"東京都昭島市武蔵野3丁目5-1","lat":35.71971183,"lon":139.37585683},{"name":"株式会社おぼうさんどっとこむ","province":"東京都","city":"昭島市","address":"東京都昭島市中神町1135-47","lat":35.71175989,"lon":139.37259061},{"name":"JA東京葬祭センター","province":"東京都","city":"昭島市","address":"東京都昭島市中神町3丁目1-1","lat":35.6966812,"lon":139.37542966},{"name":"（株）おぼうさんどっとこむ","province":"東京都","city":"昭島市","address":"東京都昭島市中神町1135-47","lat":35.71175989,"lon":139.37259061},{"name":"昭島市公民館","province":"東京都","city":"昭島市","address":"昭島市つつじが丘3-7-7","lat":35.713268,"lon":139.365662},{"name":"青少年交流センター","province":"東京都","city":"昭島市","address":"昭島市昭和町1-6-11","lat":35.711323,"lon":139.365646},{"name":"市民図書館","province":"東京都","city":"昭島市","address":"昭島市東町2-6-33","lat":35.704556,"lon":139.386047},{"name":"昭島市民図書館つつじが丘分室","province":"東京都","city":"昭島市","address":"昭島市つつじが丘3-1-30","lat":35.714115,"lon":139.369476},{"name":"昭島市民図書館やまのかみ分室","province":"東京都","city":"昭島市","address":"昭島市拝島町3-10-3","lat":35.710747,"lon":139.334442},{"name":"昭島市民図書館昭和分館","province":"東京都","city":"昭島市","address":"昭島市松原町1-2-25","lat":35.713104,"lon":139.357727},{"name":"昭島市民図書館緑分館","province":"東京都","city":"昭島市","address":"昭島市緑町4-13-26","lat":35.713974,"lon":139.343887},{"name":"やまのかみ会館","province":"東京都","city":"昭島市","address":"昭島市拝島町3-10-3","lat":35.710747,"lon":139.334442},{"name":"玉川会館","province":"東京都","city":"昭島市","address":"昭島市玉川町3-10-15","lat":35.70372,"lon":139.382126},{"name":"昭和分館","province":"東京都","city":"昭島市","address":"昭島市松原町1-2-25","lat":35.713104,"lon":139.357727},{"name":"大神会館","province":"東京都","city":"昭島市","address":"昭島市大神町3-10-5","lat":35.700539,"lon":139.360779},{"name":"朝日会館","province":"東京都","city":"昭島市","address":"昭島市朝日町5-6-20","lat":35.704994,"lon":139.372787},{"name":"拝島会館","province":"東京都","city":"昭島市","address":"昭島市拝島町2-4-13","lat":35.707211,"lon":139.342468},{"name":"富士見会館","province":"東京都","city":"昭島市","address":"昭島市中神町1282","lat":35.710323,"lon":139.382996},{"name":"武蔵野会館","province":"東京都","city":"昭島市","address":"昭島市中神町1172-1","lat":35.711452,"lon":139.375153},{"name":"福島会館","province":"東京都","city":"昭島市","address":"昭島市福島町1-19-1","lat":35.696285,"lon":139.380478},{"name":"堀向会館","province":"東京都","city":"昭島市","address":"昭島市美堀町2-6-11","lat":35.723099,"lon":139.363647},{"name":"緑会館","province":"東京都","city":"昭島市","address":"昭島市緑町4-13-26","lat":35.713974,"lon":139.343887},{"name":"JA全農東京JA東京葬祭センター（源想園昭島葬儀会館）","province":"東京都","city":"昭島市","address":"東京都昭島市中神町3丁目1-1","lat":35.6966812,"lon":139.37542966},{"name":"株式会社セレモア（ガーデン会館昭島）","province":"東京都","city":"昭島市","address":"東京都昭島市玉川町2丁目4-12","lat":35.70655788,"lon":139.37958173},{"name":"株式会社ドリーミー","province":"東京都","city":"昭島市","address":"東京都昭島市田中町1丁目27-15","lat":35.7054492,"lon":139.35437846},{"name":"株式会社あさひセレモニー","province":"東京都","city":"昭島市","address":"東京都昭島市玉川町4丁目1-10","lat":35.70555248,"lon":139.38102051},{"name":"株式会社東京サービスセンター（セレモニーホール昭島）","province":"東京都","city":"昭島市","address":"東京都昭島市宮沢町1丁目7-2","lat":35.70616044,"lon":139.36649129},{"name":"株式会社村尾組（そうしんホール昭島）","province":"東京都","city":"昭島市","address":"東京都昭島市武蔵野3丁目5-1","lat":35.71971183,"lon":139.37585683},{"name":"株式会社結セレモニー（くじら葬祭）","province":"東京都","city":"昭島市","address":"東京都昭島市福島町3丁目23-28","lat":35.69637846,"lon":139.37589906},{"name":"あきしまこどもクッキング","province":"東京都","city":"昭島市","address":"東京都昭島市つつじが丘3丁目7-7","lat":35.71352901,"lon":139.36620781},{"name":"たまりば☆ぬくぬく","province":"東京都","city":"昭島市","address":"東京都昭島市松原町1丁目3-10","lat":35.71211512,"lon":139.35702252},{"name":"あおぞらみんな食堂","province":"東京都","city":"昭島市","address":"東京都昭島市郷地町2丁目20-24","lat":35.69716746,"lon":139.3854093},{"name":"あのねの会あのね食堂","province":"東京都","city":"昭島市","address":"東京都昭島市宮沢町512-13","lat":35.71400132,"lon":139.37351825},{"name":"子ども料理ひろば","province":"東京都","city":"昭島市","address":"東京都昭島市玉川町5丁目13-13","lat":35.7030138,"lon":139.37706542},{"name":"昭島子ども食堂みほりん広場","province":"東京都","city":"昭島市","address":"東京都昭島市拝島町3926-11","lat":35.72095295,"lon":139.35638069},{"name":"そうしんホール昭島","province":"東京都","city":"昭島市","address":"東京都昭島市武蔵野3丁目5-1","lat":35.71971183,"lon":139.37585683},{"name":"株式会社おぼうさんどっとこむ","province":"東京都","city":"昭島市","address":"東京都昭島市中神町1135-47","lat":35.71175989,"lon":139.37259061},{"name":"JA東京葬祭センター","province":"東京都","city":"昭島市","address":"東京都昭島市中神町3丁目1-1","lat":35.6966812,"lon":139.37542966},{"name":"（株）おぼうさんどっとこむ","province":"東京都","city":"昭島市","address":"東京都昭島市中神町1135-47","lat":35.71175989,"lon":139.37259061},{"name":"昭島市公民館","province":"東京都","city":"昭島市","address":"昭島市つつじが丘3-7-7","lat":35.713268,"lon":139.365662},{"name":"青少年交流センター","province":"東京都","city":"昭島市","address":"昭島市昭和町1-6-11","lat":35.711323,"lon":139.365646},{"name":"市民図書館","province":"東京都","city":"昭島市","address":"昭島市東町2-6-33","lat":35.704556,"lon":139.386047},{"name":"昭島市民図書館つつじが丘分室","province":"東京都","city":"昭島市","address":"昭島市つつじが丘3-1-30","lat":35.714115,"lon":139.369476},{"name":"昭島市民図書館やまのかみ分室","province":"東京都","city":"昭島市","address":"昭島市拝島町3-10-3","lat":35.710747,"lon":139.334442},{"name":"昭島市民図書館昭和分館","province":"東京都","city":"昭島市","address":"昭島市松原町1-2-25","lat":35.713104,"lon":139.357727},{"name":"昭島市民図書館緑分館","province":"東京都","city":"昭島市","address":"昭島市緑町4-13-26","lat":35.713974,"lon":139.343887},{"name":"やまのかみ会館","province":"東京都","city":"昭島市","address":"昭島市拝島町3-10-3","lat":35.710747,"lon":139.334442},{"name":"玉川会館","province":"東京都","city":"昭島市","address":"昭島市玉川町3-10-15","lat":35.70372,"lon":139.382126},{"name":"昭和分館","province":"東京都","city":"昭島市","address":"昭島市松原町1-2-25","lat":35.713104,"lon":139.357727},{"name":"大神会館","province":"東京都","city":"昭島市","address":"昭島市大神町3-10-5","lat":35.700539,"lon":139.360779},{"name":"朝日会館","province":"東京都","city":"昭島市","address":"昭島市朝日町5-6-20","lat":35.704994,"lon":139.372787},{"name":"拝島会館","province":"東京都","city":"昭島市","address":"昭島市拝島町2-4-13","lat":35.707211,"lon":139.342468},{"name":"富士見会館","province":"東京都","city":"昭島市","address":"昭島市中神町1282","lat":35.710323,"lon":139.382996},{"name":"武蔵野会館","province":"東京都","city":"昭島市","address":"昭島市中神町1172-1","lat":35.711452,"lon":139.375153},{"name":"福島会館","province":"東京都","city":"昭島市","address":"昭島市福島町1-19-1","lat":35.696285,"lon":139.380478},{"name":"堀向会館","province":"東京都","city":"昭島市","address":"昭島市美堀町2-6-11","lat":35.723099,"lon":139.363647},{"name":"緑会館","province":"東京都","city":"昭島市","address":"昭島市緑町4-13-26","lat":35.713974,"lon":139.343887},{"name":"JA全農東京JA東京葬祭センター（源想園昭島葬儀会館）","province":"東京都","city":"昭島市","address":"東京都昭島市中神町3丁目1-1","lat":35.6966812,"lon":139.37542966},{"name":"株式会社セレモア（ガーデン会館昭島）","province":"東京都","city":"昭島市","address":"東京都昭島市玉川町2丁目4-12","lat":35.70655788,"lon":139.37958173},{"name":"株式会社ドリーミー","province":"東京都","city":"昭島市","address":"東京都昭島市田中町1丁目27-15","lat":35.7054492,"lon":139.35437846},{"name":"株式会社あさひセレモニー","province":"東京都","city":"昭島市","address":"東京都昭島市玉川町4丁目1-10","lat":35.70555248,"lon":139.38102051},{"name":"株式会社東京サービスセンター（セレモニーホール昭島）","province":"東京都","city":"昭島市","address":"東京都昭島市宮沢町1丁目7-2","lat":35.70616044,"lon":139.36649129},{"name":"株式会社村尾組（そうしんホール昭島）","province":"東京都","city":"昭島市","address":"東京都昭島市武蔵野3丁目5-1","lat":35.71971183,"lon":139.37585683},{"name":"株式会社結セレモニー（くじら葬祭）","province":"東京都","city":"昭島市","address":"東京都昭島市福島町3丁目23-28","lat":35.69637846,"lon":139.37589906},{"name":"あきしまこどもクッキング","province":"東京都","city":"昭島市","address":"東京都昭島市つつじが丘3丁目7-7","lat":35.71352901,"lon":139.36620781},{"name":"たまりば☆ぬくぬく","province":"東京都","city":"昭島市","address":"東京都昭島市松原町1丁目3-10","lat":35.71211512,"lon":139.35702252},{"name":"あおぞらみんな食堂","province":"東京都","city":"昭島市","address":"東京都昭島市郷地町2丁目20-24","lat":35.69716746,"lon":139.3854093},{"name":"あのねの会あのね食堂","province":"東京都","city":"昭島市","address":"東京都昭島市宮沢町512-13","lat":35.71400132,"lon":139.37351825},{"name":"子ども料理ひろば","province":"東京都","city":"昭島市","address":"東京都昭島市玉川町5丁目13-13","lat":35.7030138,"lon":139.37706542},{"name":"昭島子ども食堂みほりん広場","province":"東京都","city":"昭島市","address":"東京都昭島市拝島町3926-11","lat":35.72095295,"lon":139.35638069},{"name":"そうしんホール昭島","province":"東京都","city":"昭島市","address":"東京都昭島市武蔵野3丁目5-1","lat":35.71971183,"lon":139.37585683},{"name":"株式会社おぼうさんどっとこむ","province":"東京都","city":"昭島市","address":"東京都昭島市中神町1135-47","lat":35.71175989,"lon":139.37259061},{"name":"JA東京葬祭センター","province":"東京都","city":"昭島市","address":"東京都昭島市中神町3丁目1-1","lat":35.6966812,"lon":139.37542966},{"name":"（株）おぼうさんどっとこむ","province":"東京都","city":"昭島市","address":"東京都昭島市中神町1135-47","lat":35.71175989,"lon":139.37259061},{"name":"昭島市公民館","province":"東京都","city":"昭島市","address":"昭島市つつじが丘3-7-7","lat":35.713268,"lon":139.365662},{"name":"青少年交流センター","province":"東京都","city":"昭島市","address":"昭島市昭和町1-6-11","lat":35.711323,"lon":139.365646},{"name":"市民図書館","province":"東京都","city":"昭島市","address":"昭島市東町2-6-33","lat":35.704556,"lon":139.386047},{"name":"昭島市民図書館つつじが丘分室","province":"東京都","city":"昭島市","address":"昭島市つつじが丘3-1-30","lat":35.714115,"lon":139.369476},{"name":"昭島市民図書館やまのかみ分室","province":"東京都","city":"昭島市","address":"昭島市拝島町3-10-3","lat":35.710747,"lon":139.334442},{"name":"昭島市民図書館昭和分館","province":"東京都","city":"昭島市","address":"昭島市松原町1-2-25","lat":35.713104,"lon":139.357727},{"name":"昭島市民図書館緑分館","province":"東京都","city":"昭島市","address":"昭島市緑町4-13-26","lat":35.713974,"lon":139.343887},{"name":"やまのかみ会館","province":"東京都","city":"昭島市","address":"昭島市拝島町3-10-3","lat":35.710747,"lon":139.334442},{"name":"玉川会館","province":"東京都","city":"昭島市","address":"昭島市玉川町3-10-15","lat":35.70372,"lon":139.382126},{"name":"昭和分館","province":"東京都","city":"昭島市","address":"昭島市松原町1-2-25","lat":35.713104,"lon":139.357727},{"name":"大神会館","province":"東京都","city":"昭島市","address":"昭島市大神町3-10-5","lat":35.700539,"lon":139.360779},{"name":"朝日会館","province":"東京都","city":"昭島市","address":"昭島市朝日町5-6-20","lat":35.704994,"lon":139.372787},{"name":"拝島会館","province":"東京都","city":"昭島市","address":"昭島市拝島町2-4-13","lat":35.707211,"lon":139.342468},{"name":"富士見会館","province":"東京都","city":"昭島市","address":"昭島市中神町1282","lat":35.710323,"lon":139.382996},{"name":"武蔵野会館","province":"東京都","city":"昭島市","address":"昭島市中神町1172-1","lat":35.711452,"lon":139.375153},{"name":"福島会館","province":"東京都","city":"昭島市","address":"昭島市福島町1-19-1","lat":35.696285,"lon":139.380478},{"name":"堀向会館","province":"東京都","city":"昭島市","address":"昭島市美堀町2-6-11","lat":35.723099,"lon":139.363647},{"name":"緑会館","province":"東京都","city":"昭島市","address":"昭島市緑町4-13-26","lat":35.713974,"lon":139.343887},{"name":"JA全農東京JA東京葬祭センター（源想園昭島葬儀会館）","province":"東京都","city":"昭島市","address":"東京都昭島市中神町3丁目1-1","lat":35.6966812,"lon":139.37542966},{"name":"株式会社セレモア（ガーデン会館昭島）","province":"東京都","city":"昭島市","address":"東京都昭島市玉川町2丁目4-12","lat":35.70655788,"lon":139.37958173},{"name":"株式会社ドリーミー","province":"東京都","city":"昭島市","address":"東京都昭島市田中町1丁目27-15","lat":35.7054492,"lon":139.35437846},{"name":"株式会社あさひセレモニー","province":"東京都","city":"昭島市","address":"東京都昭島市玉川町4丁目1-10","lat":35.70555248,"lon":139.38102051},{"name":"株式会社東京サービスセンター（セレモニーホール昭島）","province":"東京都","city":"昭島市","address":"東京都昭島市宮沢町1丁目7-2","lat":35.70616044,"lon":139.36649129},{"name":"株式会社村尾組（そうしんホール昭島）","province":"東京都","city":"昭島市","address":"東京都昭島市武蔵野3丁目5-1","lat":35.71971183,"lon":139.37585683},{"name":"株式会社結セレモニー（くじら葬祭）","province":"東京都","city":"昭島市","address":"東京都昭島市福島町3丁目23-28","lat":35.69637846,"lon":139.37589906},{"name":"あきしまこどもクッキング","province":"東京都","city":"昭島市","address":"東京都昭島市つつじが丘3丁目7-7","lat":35.71352901,"lon":139.36620781},{"name":"たまりば☆ぬくぬく","province":"東京都","city":"昭島市","address":"東京都昭島市松原町1丁目3-10","lat":35.71211512,"lon":139.35702252},{"name":"あおぞらみんな食堂","province":"東京都","city":"昭島市","address":"東京都昭島市郷地町2丁目20-24","lat":35.69716746,"lon":139.3854093},{"name":"あのねの会あのね食堂","province":"東京都","city":"昭島市","address":"東京都昭島市宮沢町512-13","lat":35.71400132,"lon":139.37351825},{"name":"子ども料理ひろば","province":"東京都","city":"昭島市","address":"東京都昭島市玉川町5丁目13-13","lat":35.7030138,"lon":139.37706542},{"name":"昭島子ども食堂みほりん広場","province":"東京都","city":"昭島市","address":"東京都昭島市拝島町3926-11","lat":35.72095295,"lon":139.35638069},{"name":"そうしんホール昭島","province":"東京都","city":"昭島市","address":"東京都昭島市武蔵野3丁目5-1","lat":35.71971183,"lon":139.37585683},{"name":"株式会社おぼうさんどっとこむ","province":"東京都","city":"昭島市","address":"東京都昭島市中神町1135-47","lat":35.71175989,"lon":139.37259061},{"name":"JA東京葬祭センター","province":"東京都","city":"昭島市","address":"東京都昭島市中神町3丁目1-1","lat":35.6966812,"lon":139.37542966},{"name":"（株）おぼうさんどっとこむ","province":"東京都","city":"昭島市","address":"東京都昭島市中神町1135-47","lat":35.71175989,"lon":139.37259061},{"name":"昭島市公民館","province":"東京都","city":"昭島市","address":"昭島市つつじが丘3-7-7","lat":35.713268,"lon":139.365662},{"name":"青少年交流センター","province":"東京都","city":"昭島市","address":"昭島市昭和町1-6-11","lat":35.711323,"lon":139.365646},{"name":"市民図書館","province":"東京都","city":"昭島市","address":"昭島市東町2-6-33","lat":35.704556,"lon":139.386047},{"name":"昭島市民図書館つつじが丘分室","province":"東京都","city":"昭島市","address":"昭島市つつじが丘3-1-30","lat":35.714115,"lon":139.369476},{"name":"昭島市民図書館やまのかみ分室","province":"東京都","city":"昭島市","address":"昭島市拝島町3-10-3","lat":35.710747,"lon":139.334442},{"name":"昭島市民図書館昭和分館","province":"東京都","city":"昭島市","address":"昭島市松原町1-2-25","lat":35.713104,"lon":139.357727},{"name":"昭島市民図書館緑分館","province":"東京都","city":"昭島市","address":"昭島市緑町4-13-26","lat":35.713974,"lon":139.343887},{"name":"やまのかみ会館","province":"東京都","city":"昭島市","address":"昭島市拝島町3-10-3","lat":35.710747,"lon":139.334442},{"name":"玉川会館","province":"東京都","city":"昭島市","address":"昭島市玉川町3-10-15","lat":35.70372,"lon":139.382126},{"name":"昭和分館","province":"東京都","city":"昭島市","address":"昭島市松原町1-2-25","lat":35.713104,"lon":139.357727},{"name":"大神会館","province":"東京都","city":"昭島市","address":"昭島市大神町3-10-5","lat":35.700539,"lon":139.360779},{"name":"朝日会館","province":"東京都","city":"昭島市","address":"昭島市朝日町5-6-20","lat":35.704994,"lon":139.372787},{"name":"拝島会館","province":"東京都","city":"昭島市","address":"昭島市拝島町2-4-13","lat":35.707211,"lon":139.342468},{"name":"富士見会館","province":"東京都","city":"昭島市","address":"昭島市中神町1282","lat":35.710323,"lon":139.382996},{"name":"武蔵野会館","province":"東京都","city":"昭島市","address":"昭島市中神町1172-1","lat":35.711452,"lon":139.375153},{"name":"福島会館","province":"東京都","city":"昭島市","address":"昭島市福島町1-19-1","lat":35.696285,"lon":139.380478},{"name":"堀向会館","province":"東京都","city":"昭島市","address":"昭島市美堀町2-6-11","lat":35.723099,"lon":139.363647},{"name":"緑会館","province":"東京都","city":"昭島市","address":"昭島市緑町4-13-26","lat":35.713974,"lon":139.343887},{"name":"JA全農東京JA東京葬祭センター（源想園昭島葬儀会館）","province":"東京都","city":"昭島市","address":"東京都昭島市中神町3丁目1-1","lat":35.6966812,"lon":139.37542966},{"name":"株式会社セレモア（ガーデン会館昭島）","province":"東京都","city":"昭島市","address":"東京都昭島市玉川町2丁目4-12","lat":35.70655788,"lon":139.37958173},{"name":"株式会社ドリーミー","province":"東京都","city":"昭島市","address":"東京都昭島市田中町1丁目27-15","lat":35.7054492,"lon":139.35437846},{"name":"株式会社あさひセレモニー","province":"東京都","city":"昭島市","address":"東京都昭島市玉川町4丁目1-10","lat":35.70555248,"lon":139.38102051},{"name":"株式会社東京サービスセンター（セレモニーホール昭島）","province":"東京都","city":"昭島市","address":"東京都昭島市宮沢町1丁目7-2","lat":35.70616044,"lon":139.36649129},{"name":"株式会社村尾組（そうしんホール昭島）","province":"東京都","city":"昭島市","address":"東京都昭島市武蔵野3丁目5-1","lat":35.71971183,"lon":139.37585683},{"name":"株式会社結セレモニー（くじら葬祭）","province":"東京都","city":"昭島市","address":"東京都昭島市福島町3丁目23-28","lat":35.69637846,"lon":139.37589906},{"name":"あきしまこどもクッキング","province":"東京都","city":"昭島市","address":"東京都昭島市つつじが丘3丁目7-7","lat":35.71352901,"lon":139.36620781},{"name":"たまりば☆ぬくぬく","province":"東京都","city":"昭島市","address":"東京都昭島市松原町1丁目3-10","lat":35.71211512,"lon":139.35702252},{"name":"あおぞらみんな食堂","province":"東京都","city":"昭島市","address":"東京都昭島市郷地町2丁目20-24","lat":35.69716746,"lon":139.3854093},{"name":"あのねの会あのね食堂","province":"東京都","city":"昭島市","address":"東京都昭島市宮沢町512-13","lat":35.71400132,"lon":139.37351825},{"name":"子ども料理ひろば","province":"東京都","city":"昭島市","address":"東京都昭島市玉川町5丁目13-13","lat":35.7030138,"lon":139.37706542},{"name":"昭島子ども食堂みほりん広場","province":"東京都","city":"昭島市","address":"東京都昭島市拝島町3926-11","lat":35.72095295,"lon":139.35638069},{"name":"そうしんホール昭島","province":"東京都","city":"昭島市","address":"東京都昭島市武蔵野3丁目5-1","lat":35.71971183,"lon":139.37585683},{"name":"株式会社おぼうさんどっとこむ","province":"東京都","city":"昭島市","address":"東京都昭島市中神町1135-47","lat":35.71175989,"lon":139.37259061},{"name":"JA東京葬祭センター","province":"東京都","city":"昭島市","address":"東京都昭島市中神町3丁目1-1","lat":35.6966812,"lon":139.37542966},{"name":"（株）おぼうさんどっとこむ","province":"東京都","city":"昭島市","address":"東京都昭島市中神町1135-47","lat":35.71175989,"lon":139.37259061},{"name":"昭島市公民館","province":"東京都","city":"昭島市","address":"昭島市つつじが丘3-7-7","lat":35.713268,"lon":139.365662},{"name":"青少年交流センター","province":"東京都","city":"昭島市","address":"昭島市昭和町1-6-11","lat":35.711323,"lon":139.365646},{"name":"市民図書館","province":"東京都","city":"昭島市","address":"昭島市東町2-6-33","lat":35.704556,"lon":139.386047},{"name":"昭島市民図書館つつじが丘分室","province":"東京都","city":"昭島市","address":"昭島市つつじが丘3-1-30","lat":35.714115,"lon":139.369476},{"name":"昭島市民図書館やまのかみ分室","province":"東京都","city":"昭島市","address":"昭島市拝島町3-10-3","lat":35.710747,"lon":139.334442},{"name":"昭島市民図書館昭和分館","province":"東京都","city":"昭島市","address":"昭島市松原町1-2-25","lat":35.713104,"lon":139.357727},{"name":"昭島市民図書館緑分館","province":"東京都","city":"昭島市","address":"昭島市緑町4-13-26","lat":35.713974,"lon":139.343887},{"name":"やまのかみ会館","province":"東京都","city":"昭島市","address":"昭島市拝島町3-10-3","lat":35.710747,"lon":139.334442},{"name":"玉川会館","province":"東京都","city":"昭島市","address":"昭島市玉川町3-10-15","lat":35.70372,"lon":139.382126},{"name":"昭和分館","province":"東京都","city":"昭島市","address":"昭島市松原町1-2-25","lat":35.713104,"lon":139.357727},{"name":"大神会館","province":"東京都","city":"昭島市","address":"昭島市大神町3-10-5","lat":35.700539,"lon":139.360779},{"name":"朝日会館","province":"東京都","city":"昭島市","address":"昭島市朝日町5-6-20","lat":35.704994,"lon":139.372787},{"name":"拝島会館","province":"東京都","city":"昭島市","address":"昭島市拝島町2-4-13","lat":35.707211,"lon":139.342468},{"name":"富士見会館","province":"東京都","city":"昭島市","address":"昭島市中神町1282","lat":35.710323,"lon":139.382996},{"name":"武蔵野会館","province":"東京都","city":"昭島市","address":"昭島市中神町1172-1","lat":35.711452,"lon":139.375153},{"name":"福島会館","province":"東京都","city":"昭島市","address":"昭島市福島町1-19-1","lat":35.696285,"lon":139.380478},{"name":"堀向会館","province":"東京都","city":"昭島市","address":"昭島市美堀町2-6-11","lat":35.723099,"lon":139.363647},{"name":"緑会館","province":"東京都","city":"昭島市","address":"昭島市緑町4-13-26","lat":35.713974,"lon":139.343887},{"name":"JA全農東京JA東京葬祭センター（源想園昭島葬儀会館）","province":"東京都","city":"昭島市","address":"東京都昭島市中神町3丁目1-1","lat":35.6966812,"lon":139.37542966},{"name":"株式会社セレモア（ガーデン会館昭島）","province":"東京都","city":"昭島市","address":"東京都昭島市玉川町2丁目4-12","lat":35.70655788,"lon":139.37958173},{"name":"株式会社ドリーミー","province":"東京都","city":"昭島市","address":"東京都昭島市田中町1丁目27-15","lat":35.7054492,"lon":139.35437846},{"name":"株式会社あさひセレモニー","province":"東京都","city":"昭島市","address":"東京都昭島市玉川町4丁目1-10","lat":35.70555248,"lon":139.38102051},{"name":"株式会社東京サービスセンター（セレモニーホール昭島）","province":"東京都","city":"昭島市","address":"東京都昭島市宮沢町1丁目7-2","lat":35.70616044,"lon":139.36649129},{"name":"株式会社村尾組（そうしんホール昭島）","province":"東京都","city":"昭島市","address":"東京都昭島市武蔵野3丁目5-1","lat":35.71971183,"lon":139.37585683},{"name":"株式会社結セレモニー（くじら葬祭）","province":"東京都","city":"昭島市","address":"東京都昭島市福島町3丁目23-28","lat":35.69637846,"lon":139.37589906},{"name":"あきしまこどもクッキング","province":"東京都","city":"昭島市","address":"東京都昭島市つつじが丘3丁目7-7","lat":35.71352901,"lon":139.36620781},{"name":"たまりば☆ぬくぬく","province":"東京都","city":"昭島市","address":"東京都昭島市松原町1丁目3-10","lat":35.71211512,"lon":139.35702252},{"name":"あおぞらみんな食堂","province":"東京都","city":"昭島市","address":"東京都昭島市郷地町2丁目20-24","lat":35.69716746,"lon":139.3854093},{"name":"あのねの会あのね食堂","province":"東京都","city":"昭島市","address":"東京都昭島市宮沢町512-13","lat":35.71400132,"lon":139.37351825},{"name":"子ども料理ひろば","province":"東京都","city":"昭島市","address":"東京都昭島市玉川町5丁目13-13","lat":35.7030138,"lon":139.37706542},{"name":"昭島子ども食堂みほりん広場","province":"東京都","city":"昭島市","address":"東京都昭島市拝島町3926-11","lat":35.72095295,"lon":139.35638069},{"name":"そうしんホール昭島","province":"東京都","city":"昭島市","address":"東京都昭島市武蔵野3丁目5-1","lat":35.71971183,"lon":139.37585683},{"name":"株式会社おぼうさんどっとこむ","province":"東京都","city":"昭島市","address":"東京都昭島市中神町1135-47","lat":35.71175989,"lon":139.37259061},{"name":"JA東京葬祭センター","province":"東京都","city":"昭島市","address":"東京都昭島市中神町3丁目1-1","lat":35.6966812,"lon":139.37542966},{"name":"（株）おぼうさんどっとこむ","province":"東京都","city":"昭島市","address":"東京都昭島市中神町1135-47","lat":35.71175989,"lon":139.37259061},{"name":"昭島市公民館","province":"東京都","city":"昭島市","address":"昭島市つつじが丘3-7-7","lat":35.713268,"lon":139.365662},{"name":"青少年交流センター","province":"東京都","city":"昭島市","address":"昭島市昭和町1-6-11","lat":35.711323,"lon":139.365646},{"name":"市民図書館","province":"東京都","city":"昭島市","address":"昭島市東町2-6-33","lat":35.704556,"lon":139.386047},{"name":"昭島市民図書館つつじが丘分室","province":"東京都","city":"昭島市","address":"昭島市つつじが丘3-1-30","lat":35.714115,"lon":139.369476},{"name":"昭島市民図書館やまのかみ分室","province":"東京都","city":"昭島市","address":"昭島市拝島町3-10-3","lat":35.710747,"lon":139.334442},{"name":"昭島市民図書館昭和分館","province":"東京都","city":"昭島市","address":"昭島市松原町1-2-25","lat":35.713104,"lon":139.357727},{"name":"昭島市民図書館緑分館","province":"東京都","city":"昭島市","address":"昭島市緑町4-13-26","lat":35.713974,"lon":139.343887},{"name":"やまのかみ会館","province":"東京都","city":"昭島市","address":"昭島市拝島町3-10-3","lat":35.710747,"lon":139.334442},{"name":"玉川会館","province":"東京都","city":"昭島市","address":"昭島市玉川町3-10-15","lat":35.70372,"lon":139.382126},{"name":"昭和分館","province":"東京都","city":"昭島市","address":"昭島市松原町1-2-25","lat":35.713104,"lon":139.357727},{"name":"大神会館","province":"東京都","city":"昭島市","address":"昭島市大神町3-10-5","lat":35.700539,"lon":139.360779},{"name":"朝日会館","province":"東京都","city":"昭島市","address":"昭島市朝日町5-6-20","lat":35.704994,"lon":139.372787},{"name":"拝島会館","province":"東京都","city":"昭島市","address":"昭島市拝島町2-4-13","lat":35.707211,"lon":139.342468},{"name":"富士見会館","province":"東京都","city":"昭島市","address":"昭島市中神町1282","lat":35.710323,"lon":139.382996},{"name":"武蔵野会館","province":"東京都","city":"昭島市","address":"昭島市中神町1172-1","lat":35.711452,"lon":139.375153},{"name":"福島会館","province":"東京都","city":"昭島市","address":"昭島市福島町1-19-1","lat":35.696285,"lon":139.380478},{"name":"堀向会館","province":"東京都","city":"昭島市","address":"昭島市美堀町2-6-11","lat":35.723099,"lon":139.363647},{"name":"緑会館","province":"東京都","city":"昭島市","address":"昭島市緑町4-13-26","lat":35.713974,"lon":139.343887},{"name":"JA全農東京JA東京葬祭センター（源想園昭島葬儀会館）","province":"東京都","city":"昭島市","address":"東京都昭島市中神町3丁目1-1","lat":35.6966812,"lon":139.37542966},{"name":"株式会社セレモア（ガーデン会館昭島）","province":"東京都","city":"昭島市","address":"東京都昭島市玉川町2丁目4-12","lat":35.70655788,"lon":139.37958173},{"name":"株式会社ドリーミー","province":"東京都","city":"昭島市","address":"東京都昭島市田中町1丁目27-15","lat":35.7054492,"lon":139.35437846},{"name":"株式会社あさひセレモニー","province":"東京都","city":"昭島市","address":"東京都昭島市玉川町4丁目1-10","lat":35.70555248,"lon":139.38102051},{"name":"株式会社東京サービスセンター（セレモニーホール昭島）","province":"東京都","city":"昭島市","address":"東京都昭島市宮沢町1丁目7-2","lat":35.70616044,"lon":139.36649129},{"name":"株式会社村尾組（そうしんホール昭島）","province":"東京都","city":"昭島市","address":"東京都昭島市武蔵野3丁目5-1","lat":35.71971183,"lon":139.37585683},{"name":"株式会社結セレモニー（くじら葬祭）","province":"東京都","city":"昭島市","address":"東京都昭島市福島町3丁目23-28","lat":35.69637846,"lon":139.37589906},{"name":"あきしまこどもクッキング","province":"東京都","city":"昭島市","address":"東京都昭島市つつじが丘3丁目7-7","lat":35.71352901,"lon":139.36620781},{"name":"たまりば☆ぬくぬく","province":"東京都","city":"昭島市","address":"東京都昭島市松原町1丁目3-10","lat":35.71211512,"lon":139.35702252},{"name":"あおぞらみんな食堂","province":"東京都","city":"昭島市","address":"東京都昭島市郷地町2丁目20-24","lat":35.69716746,"lon":139.3854093},{"name":"あのねの会あのね食堂","province":"東京都","city":"昭島市","address":"東京都昭島市宮沢町512-13","lat":35.71400132,"lon":139.37351825},{"name":"子ども料理ひろば","province":"東京都","city":"昭島市","address":"東京都昭島市玉川町5丁目13-13","lat":35.7030138,"lon":139.37706542},{"name":"昭島子ども食堂みほりん広場","province":"東京都","city":"昭島市","address":"東京都昭島市拝島町3926-11","lat":35.72095295,"lon":139.35638069},{"name":"そうしんホール昭島","province":"東京都","city":"昭島市","address":"東京都昭島市武蔵野3丁目5-1","lat":35.71971183,"lon":139.37585683},{"name":"株式会社おぼうさんどっとこむ","province":"東京都","city":"昭島市","address":"東京都昭島市中神町1135-47","lat":35.71175989,"lon":139.37259061},{"name":"JA東京葬祭センター","province":"東京都","city":"昭島市","address":"東京都昭島市中神町3丁目1-1","lat":35.6966812,"lon":139.37542966},{"name":"（株）おぼうさんどっとこむ","province":"東京都","city":"昭島市","address":"東京都昭島市中神町1135-47","lat":35.71175989,"lon":139.37259061},{"name":"昭島市公民館","province":"東京都","city":"昭島市","address":"昭島市つつじが丘3-7-7","lat":35.713268,"lon":139.365662},{"name":"青少年交流センター","province":"東京都","city":"昭島市","address":"昭島市昭和町1-6-11","lat":35.711323,"lon":139.365646},{"name":"市民図書館","province":"東京都","city":"昭島市","address":"昭島市東町2-6-33","lat":35.704556,"lon":139.386047},{"name":"昭島市民図書館つつじが丘分室","province":"東京都","city":"昭島市","address":"昭島市つつじが丘3-1-30","lat":35.714115,"lon":139.369476},{"name":"昭島市民図書館やまのかみ分室","province":"東京都","city":"昭島市","address":"昭島市拝島町3-10-3","lat":35.710747,"lon":139.334442},{"name":"昭島市民図書館昭和分館","province":"東京都","city":"昭島市","address":"昭島市松原町1-2-25","lat":35.713104,"lon":139.357727},{"name":"昭島市民図書館緑分館","province":"東京都","city":"昭島市","address":"昭島市緑町4-13-26","lat":35.713974,"lon":139.343887},{"name":"やまのかみ会館","province":"東京都","city":"昭島市","address":"昭島市拝島町3-10-3","lat":35.710747,"lon":139.334442},{"name":"玉川会館","province":"東京都","city":"昭島市","address":"昭島市玉川町3-10-15","lat":35.70372,"lon":139.382126},{"name":"昭和分館","province":"東京都","city":"昭島市","address":"昭島市松原町1-2-25","lat":35.713104,"lon":139.357727},{"name":"大神会館","province":"東京都","city":"昭島市","address":"昭島市大神町3-10-5","lat":35.700539,"lon":139.360779},{"name":"朝日会館","province":"東京都","city":"昭島市","address":"昭島市朝日町5-6-20","lat":35.704994,"lon":139.372787},{"name":"拝島会館","province":"東京都","city":"昭島市","address":"昭島市拝島町2-4-13","lat":35.707211,"lon":139.342468},{"name":"富士見会館","province":"東京都","city":"昭島市","address":"昭島市中神町1282","lat":35.710323,"lon":139.382996},{"name":"武蔵野会館","province":"東京都","city":"昭島市","address":"昭島市中神町1172-1","lat":35.711452,"lon":139.375153},{"name":"福島会館","province":"東京都","city":"昭島市","address":"昭島市福島町1-19-1","lat":35.696285,"lon":139.380478},{"name":"堀向会館","province":"東京都","city":"昭島市","address":"昭島市美堀町2-6-11","lat":35.723099,"lon":139.363647},{"name":"緑会館","province":"東京都","city":"昭島市","address":"昭島市緑町4-13-26","lat":35.713974,"lon":139.343887},{"name":"JA全農東京JA東京葬祭センター（源想園昭島葬儀会館）","province":"東京都","city":"昭島市","address":"東京都昭島市中神町3丁目1-1","lat":35.6966812,"lon":139.37542966},{"name":"株式会社セレモア（ガーデン会館昭島）","province":"東京都","city":"昭島市","address":"東京都昭島市玉川町2丁目4-12","lat":35.70655788,"lon":139.37958173},{"name":"株式会社ドリーミー","province":"東京都","city":"昭島市","address":"東京都昭島市田中町1丁目27-15","lat":35.7054492,"lon":139.35437846},{"name":"株式会社あさひセレモニー","province":"東京都","city":"昭島市","address":"東京都昭島市玉川町4丁目1-10","lat":35.70555248,"lon":139.38102051},{"name":"株式会社東京サービスセンター（セレモニーホール昭島）","province":"東京都","city":"昭島市","address":"東京都昭島市宮沢町1丁目7-2","lat":35.70616044,"lon":139.36649129},{"name":"株式会社村尾組（そうしんホール昭島）","province":"東京都","city":"昭島市","address":"東京都昭島市武蔵野3丁目5-1","lat":35.71971183,"lon":139.37585683},{"name":"株式会社結セレモニー（くじら葬祭）","province":"東京都","city":"昭島市","address":"東京都昭島市福島町3丁目23-28","lat":35.69637846,"lon":139.37589906},{"name":"あきしまこどもクッキング","province":"東京都","city":"昭島市","address":"東京都昭島市つつじが丘3丁目7-7","lat":35.71352901,"lon":139.36620781},{"name":"たまりば☆ぬくぬく","province":"東京都","city":"昭島市","address":"東京都昭島市松原町1丁目3-10","lat":35.71211512,"lon":139.35702252},{"name":"あおぞらみんな食堂","province":"東京都","city":"昭島市","address":"東京都昭島市郷地町2丁目20-24","lat":35.69716746,"lon":139.3854093},{"name":"あのねの会あのね食堂","province":"東京都","city":"昭島市","address":"東京都昭島市宮沢町512-13","lat":35.71400132,"lon":139.37351825},{"name":"子ども料理ひろば","province":"東京都","city":"昭島市","address":"東京都昭島市玉川町5丁目13-13","lat":35.7030138,"lon":139.37706542},{"name":"昭島子ども食堂みほりん広場","province":"東京都","city":"昭島市","address":"東京都昭島市拝島町3926-11","lat":35.72095295,"lon":139.35638069},{"name":"そうしんホール昭島","province":"東京都","city":"昭島市","address":"東京都昭島市武蔵野3丁目5-1","lat":35.71971183,"lon":139.37585683},{"name":"株式会社おぼうさんどっとこむ","province":"東京都","city":"昭島市","address":"東京都昭島市中神町1135-47","lat":35.71175989,"lon":139.37259061},{"name":"JA東京葬祭センター","province":"東京都","city":"昭島市","address":"東京都昭島市中神町3丁目1-1","lat":35.6966812,"lon":139.37542966},{"name":"（株）おぼうさんどっとこむ","province":"東京都","city":"昭島市","address":"東京都昭島市中神町1135-47","lat":35.71175989,"lon":139.37259061},{"name":"昭島市公民館","province":"東京都","city":"昭島市","address":"昭島市つつじが丘3-7-7","lat":35.713268,"lon":139.365662},{"name":"青少年交流センター","province":"東京都","city":"昭島市","address":"昭島市昭和町1-6-11","lat":35.711323,"lon":139.365646},{"name":"市民図書館","province":"東京都","city":"昭島市","address":"昭島市東町2-6-33","lat":35.704556,"lon":139.386047},{"name":"昭島市民図書館つつじが丘分室","province":"東京都","city":"昭島市","address":"昭島市つつじが丘3-1-30","lat":35.714115,"lon":139.369476},{"name":"昭島市民図書館やまのかみ分室","province":"東京都","city":"昭島市","address":"昭島市拝島町3-10-3","lat":35.710747,"lon":139.334442},{"name":"昭島市民図書館昭和分館","province":"東京都","city":"昭島市","address":"昭島市松原町1-2-25","lat":35.713104,"lon":139.357727},{"name":"昭島市民図書館緑分館","province":"東京都","city":"昭島市","address":"昭島市緑町4-13-26","lat":35.713974,"lon":139.343887},{"name":"やまのかみ会館","province":"東京都","city":"昭島市","address":"昭島市拝島町3-10-3","lat":35.710747,"lon":139.334442},{"name":"玉川会館","province":"東京都","city":"昭島市","address":"昭島市玉川町3-10-15","lat":35.70372,"lon":139.382126},{"name":"昭和分館","province":"東京都","city":"昭島市","address":"昭島市松原町1-2-25","lat":35.713104,"lon":139.357727},{"name":"大神会館","province":"東京都","city":"昭島市","address":"昭島市大神町3-10-5","lat":35.700539,"lon":139.360779},{"name":"朝日会館","province":"東京都","city":"昭島市","address":"昭島市朝日町5-6-20","lat":35.704994,"lon":139.372787},{"name":"拝島会館","province":"東京都","city":"昭島市","address":"昭島市拝島町2-4-13","lat":35.707211,"lon":139.342468},{"name":"富士見会館","province":"東京都","city":"昭島市","address":"昭島市中神町1282","lat":35.710323,"lon":139.382996},{"name":"武蔵野会館","province":"東京都","city":"昭島市","address":"昭島市中神町1172-1","lat":35.711452,"lon":139.375153},{"name":"福島会館","province":"東京都","city":"昭島市","address":"昭島市福島町1-19-1","lat":35.696285,"lon":139.380478},{"name":"堀向会館","province":"東京都","city":"昭島市","address":"昭島市美堀町2-6-11","lat":35.723099,"lon":139.363647},{"name":"緑会館","province":"東京都","city":"昭島市","address":"昭島市緑町4-13-26","lat":35.713974,"lon":139.343887},{"name":"JA全農東京JA東京葬祭センター（源想園昭島葬儀会館）","province":"東京都","city":"昭島市","address":"東京都昭島市中神町3丁目1-1","lat":35.6966812,"lon":139.37542966},{"name":"株式会社セレモア（ガーデン会館昭島）","province":"東京都","city":"昭島市","address":"東京都昭島市玉川町2丁目4-12","lat":35.70655788,"lon":139.37958173},{"name":"株式会社ドリーミー","province":"東京都","city":"昭島市","address":"東京都昭島市田中町1丁目27-15","lat":35.7054492,"lon":139.35437846},{"name":"株式会社あさひセレモニー","province":"東京都","city":"昭島市","address":"東京都昭島市玉川町4丁目1-10","lat":35.70555248,"lon":139.38102051},{"name":"株式会社東京サービスセンター（セレモニーホール昭島）","province":"東京都","city":"昭島市","address":"東京都昭島市宮沢町1丁目7-2","lat":35.70616044,"lon":139.36649129},{"name":"株式会社村尾組（そうしんホール昭島）","province":"東京都","city":"昭島市","address":"東京都昭島市武蔵野3丁目5-1","lat":35.71971183,"lon":139.37585683},{"name":"株式会社結セレモニー（くじら葬祭）","province":"東京都","city":"昭島市","address":"東京都昭島市福島町3丁目23-28","lat":35.69637846,"lon":139.37589906},{"name":"あきしまこどもクッキング","province":"東京都","city":"昭島市","address":"東京都昭島市つつじが丘3丁目7-7","lat":35.71352901,"lon":139.36620781},{"name":"たまりば☆ぬくぬく","province":"東京都","city":"昭島市","address":"東京都昭島市松原町1丁目3-10","lat":35.71211512,"lon":139.35702252},{"name":"あおぞらみんな食堂","province":"東京都","city":"昭島市","address":"東京都昭島市郷地町2丁目20-24","lat":35.69716746,"lon":139.3854093},{"name":"あのねの会あのね食堂","province":"東京都","city":"昭島市","address":"東京都昭島市宮沢町512-13","lat":35.71400132,"lon":139.37351825},{"name":"子ども料理ひろば","province":"東京都","city":"昭島市","address":"東京都昭島市玉川町5丁目13-13","lat":35.7030138,"lon":139.37706542},{"name":"昭島子ども食堂みほりん広場","province":"東京都","city":"昭島市","address":"東京都昭島市拝島町3926-11","lat":35.72095295,"lon":139.35638069},{"name":"そうしんホール昭島","province":"東京都","city":"昭島市","address":"東京都昭島市武蔵野3丁目5-1","lat":35.71971183,"lon":139.37585683},{"name":"株式会社おぼうさんどっとこむ","province":"東京都","city":"昭島市","address":"東京都昭島市中神町1135-47","lat":35.71175989,"lon":139.37259061},{"name":"JA東京葬祭センター","province":"東京都","city":"昭島市","address":"東京都昭島市中神町3丁目1-1","lat":35.6966812,"lon":139.37542966},{"name":"（株）おぼうさんどっとこむ","province":"東京都","city":"昭島市","address":"東京都昭島市中神町1135-47","lat":35.71175989,"lon":139.37259061},{"name":"昭島市公民館","province":"東京都","city":"昭島市","address":"昭島市つつじが丘3-7-7","lat":35.713268,"lon":139.365662},{"name":"青少年交流センター","province":"東京都","city":"昭島市","address":"昭島市昭和町1-6-11","lat":35.711323,"lon":139.365646},{"name":"市民図書館","province":"東京都","city":"昭島市","address":"昭島市東町2-6-33","lat":35.704556,"lon":139.386047},{"name":"昭島市民図書館つつじが丘分室","province":"東京都","city":"昭島市","address":"昭島市つつじが丘3-1-30","lat":35.714115,"lon":139.369476},{"name":"昭島市民図書館やまのかみ分室","province":"東京都","city":"昭島市","address":"昭島市拝島町3-10-3","lat":35.710747,"lon":139.334442},{"name":"昭島市民図書館昭和分館","province":"東京都","city":"昭島市","address":"昭島市松原町1-2-25","lat":35.713104,"lon":139.357727},{"name":"昭島市民図書館緑分館","province":"東京都","city":"昭島市","address":"昭島市緑町4-13-26","lat":35.713974,"lon":139.343887},{"name":"やまのかみ会館","province":"東京都","city":"昭島市","address":"昭島市拝島町3-10-3","lat":35.710747,"lon":139.334442},{"name":"玉川会館","province":"東京都","city":"昭島市","address":"昭島市玉川町3-10-15","lat":35.70372,"lon":139.382126},{"name":"昭和分館","province":"東京都","city":"昭島市","address":"昭島市松原町1-2-25","lat":35.713104,"lon":139.357727},{"name":"大神会館","province":"東京都","city":"昭島市","address":"昭島市大神町3-10-5","lat":35.700539,"lon":139.360779},{"name":"朝日会館","province":"東京都","city":"昭島市","address":"昭島市朝日町5-6-20","lat":35.704994,"lon":139.372787},{"name":"拝島会館","province":"東京都","city":"昭島市","address":"昭島市拝島町2-4-13","lat":35.707211,"lon":139.342468},{"name":"富士見会館","province":"東京都","city":"昭島市","address":"昭島市中神町1282","lat":35.710323,"lon":139.382996},{"name":"武蔵野会館","province":"東京都","city":"昭島市","address":"昭島市中神町1172-1","lat":35.711452,"lon":139.375153},{"name":"福島会館","province":"東京都","city":"昭島市","address":"昭島市福島町1-19-1","lat":35.696285,"lon":139.380478},{"name":"堀向会館","province":"東京都","city":"昭島市","address":"昭島市美堀町2-6-11","lat":35.723099,"lon":139.363647},{"name":"緑会館","province":"東京都","city":"昭島市","address":"昭島市緑町4-13-26","lat":35.713974,"lon":139.343887},{"name":"JA全農東京JA東京葬祭センター（源想園昭島葬儀会館）","province":"東京都","city":"昭島市","address":"東京都昭島市中神町3丁目1-1","lat":35.6966812,"lon":139.37542966},{"name":"株式会社セレモア（ガーデン会館昭島）","province":"東京都","city":"昭島市","address":"東京都昭島市玉川町2丁目4-12","lat":35.70655788,"lon":139.37958173},{"name":"株式会社ドリーミー","province":"東京都","city":"昭島市","address":"東京都昭島市田中町1丁目27-15","lat":35.7054492,"lon":139.35437846},{"name":"株式会社あさひセレモニー","province":"東京都","city":"昭島市","address":"東京都昭島市玉川町4丁目1-10","lat":35.70555248,"lon":139.38102051},{"name":"株式会社東京サービスセンター（セレモニーホール昭島）","province":"東京都","city":"昭島市","address":"東京都昭島市宮沢町1丁目7-2","lat":35.70616044,"lon":139.36649129},{"name":"株式会社村尾組（そうしんホール昭島）","province":"東京都","city":"昭島市","address":"東京都昭島市武蔵野3丁目5-1","lat":35.71971183,"lon":139.37585683},{"name":"株式会社結セレモニー（くじら葬祭）","province":"東京都","city":"昭島市","address":"東京都昭島市福島町3丁目23-28","lat":35.69637846,"lon":139.37589906},{"name":"あきしまこどもクッキング","province":"東京都","city":"昭島市","address":"東京都昭島市つつじが丘3丁目7-7","lat":35.71352901,"lon":139.36620781},{"name":"たまりば☆ぬくぬく","province":"東京都","city":"昭島市","address":"東京都昭島市松原町1丁目3-10","lat":35.71211512,"lon":139.35702252},{"name":"あおぞらみんな食堂","province":"東京都","city":"昭島市","address":"東京都昭島市郷地町2丁目20-24","lat":35.69716746,"lon":139.3854093},{"name":"あのねの会あのね食堂","province":"東京都","city":"昭島市","address":"東京都昭島市宮沢町512-13","lat":35.71400132,"lon":139.37351825},{"name":"子ども料理ひろば","province":"東京都","city":"昭島市","address":"東京都昭島市玉川町5丁目13-13","lat":35.7030138,"lon":139.37706542},{"name":"昭島子ども食堂みほりん広場","province":"東京都","city":"昭島市","address":"東京都昭島市拝島町3926-11","lat":35.72095295,"lon":139.35638069},{"name":"そうしんホール昭島","province":"東京都","city":"昭島市","address":"東京都昭島市武蔵野3丁目5-1","lat":35.71971183,"lon":139.37585683},{"name":"株式会社おぼうさんどっとこむ","province":"東京都","city":"昭島市","address":"東京都昭島市中神町1135-47","lat":35.71175989,"lon":139.37259061},{"name":"JA東京葬祭センター","province":"東京都","city":"昭島市","address":"東京都昭島市中神町3丁目1-1","lat":35.6966812,"lon":139.37542966},{"name":"（株）おぼうさんどっとこむ","province":"東京都","city":"昭島市","address":"東京都昭島市中神町1135-47","lat":35.71175989,"lon":139.37259061},{"name":"昭島市公民館","province":"東京都","city":"昭島市","address":"昭島市つつじが丘3-7-7","lat":35.713268,"lon":139.365662},{"name":"青少年交流センター","province":"東京都","city":"昭島市","address":"昭島市昭和町1-6-11","lat":35.711323,"lon":139.365646},{"name":"市民図書館","province":"東京都","city":"昭島市","address":"昭島市東町2-6-33","lat":35.704556,"lon":139.386047},{"name":"昭島市民図書館つつじが丘分室","province":"東京都","city":"昭島市","address":"昭島市つつじが丘3-1-30","lat":35.714115,"lon":139.369476},{"name":"昭島市民図書館やまのかみ分室","province":"東京都","city":"昭島市","address":"昭島市拝島町3-10-3","lat":35.710747,"lon":139.334442},{"name":"昭島市民図書館昭和分館","province":"東京都","city":"昭島市","address":"昭島市松原町1-2-25","lat":35.713104,"lon":139.357727},{"name":"昭島市民図書館緑分館","province":"東京都","city":"昭島市","address":"昭島市緑町4-13-26","lat":35.713974,"lon":139.343887},{"name":"やまのかみ会館","province":"東京都","city":"昭島市","address":"昭島市拝島町3-10-3","lat":35.710747,"lon":139.334442},{"name":"玉川会館","province":"東京都","city":"昭島市","address":"昭島市玉川町3-10-15","lat":35.70372,"lon":139.382126},{"name":"昭和分館","province":"東京都","city":"昭島市","address":"昭島市松原町1-2-25","lat":35.713104,"lon":139.357727},{"name":"大神会館","province":"東京都","city":"昭島市","address":"昭島市大神町3-10-5","lat":35.700539,"lon":139.360779},{"name":"朝日会館","province":"東京都","city":"昭島市","address":"昭島市朝日町5-6-20","lat":35.704994,"lon":139.372787},{"name":"拝島会館","province":"東京都","city":"昭島市","address":"昭島市拝島町2-4-13","lat":35.707211,"lon":139.342468},{"name":"富士見会館","province":"東京都","city":"昭島市","address":"昭島市中神町1282","lat":35.710323,"lon":139.382996},{"name":"武蔵野会館","province":"東京都","city":"昭島市","address":"昭島市中神町1172-1","lat":35.711452,"lon":139.375153},{"name":"福島会館","province":"東京都","city":"昭島市","address":"昭島市福島町1-19-1","lat":35.696285,"lon":139.380478},{"name":"堀向会館","province":"東京都","city":"昭島市","address":"昭島市美堀町2-6-11","lat":35.723099,"lon":139.363647},{"name":"緑会館","province":"東京都","city":"昭島市","address":"昭島市緑町4-13-26","lat":35.713974,"lon":139.343887},{"name":"JA全農東京JA東京葬祭センター（源想園昭島葬儀会館）","province":"東京都","city":"昭島市","address":"東京都昭島市中神町3丁目1-1","lat":35.6966812,"lon":139.37542966},{"name":"株式会社セレモア（ガーデン会館昭島）","province":"東京都","city":"昭島市","address":"東京都昭島市玉川町2丁目4-12","lat":35.70655788,"lon":139.37958173},{"name":"株式会社ドリーミー","province":"東京都","city":"昭島市","address":"東京都昭島市田中町1丁目27-15","lat":35.7054492,"lon":139.35437846},{"name":"株式会社あさひセレモニー","province":"東京都","city":"昭島市","address":"東京都昭島市玉川町4丁目1-10","lat":35.70555248,"lon":139.38102051},{"name":"株式会社東京サービスセンター（セレモニーホール昭島）","province":"東京都","city":"昭島市","address":"東京都昭島市宮沢町1丁目7-2","lat":35.70616044,"lon":139.36649129},{"name":"株式会社村尾組（そうしんホール昭島）","province":"東京都","city":"昭島市","address":"東京都昭島市武蔵野3丁目5-1","lat":35.71971183,"lon":139.37585683},{"name":"株式会社結セレモニー（くじら葬祭）","province":"東京都","city":"昭島市","address":"東京都昭島市福島町3丁目23-28","lat":35.69637846,"lon":139.37589906},{"name":"あきしまこどもクッキング","province":"東京都","city":"昭島市","address":"東京都昭島市つつじが丘3丁目7-7","lat":35.71352901,"lon":139.36620781},{"name":"たまりば☆ぬくぬく","province":"東京都","city":"昭島市","address":"東京都昭島市松原町1丁目3-10","lat":35.71211512,"lon":139.35702252},{"name":"あおぞらみんな食堂","province":"東京都","city":"昭島市","address":"東京都昭島市郷地町2丁目20-24","lat":35.69716746,"lon":139.3854093},{"name":"あのねの会あのね食堂","province":"東京都","city":"昭島市","address":"東京都昭島市宮沢町512-13","lat":35.71400132,"lon":139.37351825},{"name":"子ども料理ひろば","province":"東京都","city":"昭島市","address":"東京都昭島市玉川町5丁目13-13","lat":35.7030138,"lon":139.37706542},{"name":"昭島子ども食堂みほりん広場","province":"東京都","city":"昭島市","address":"東京都昭島市拝島町3926-11","lat":35.72095295,"lon":139.35638069},{"name":"そうしんホール昭島","province":"東京都","city":"昭島市","address":"東京都昭島市武蔵野3丁目5-1","lat":35.71971183,"lon":139.37585683},{"name":"株式会社おぼうさんどっとこむ","province":"東京都","city":"昭島市","address":"東京都昭島市中神町1135-47","lat":35.71175989,"lon":139.37259061},{"name":"JA東京葬祭センター","province":"東京都","city":"昭島市","address":"東京都昭島市中神町3丁目1-1","lat":35.6966812,"lon":139.37542966},{"name":"（株）おぼうさんどっとこむ","province":"東京都","city":"昭島市","address":"東京都昭島市中神町1135-47","lat":35.71175989,"lon":139.37259061},{"name":"昭島市公民館","province":"東京都","city":"昭島市","address":"昭島市つつじが丘3-7-7","lat":35.713268,"lon":139.365662},{"name":"青少年交流センター","province":"東京都","city":"昭島市","address":"昭島市昭和町1-6-11","lat":35.711323,"lon":139.365646},{"name":"市民図書館","province":"東京都","city":"昭島市","address":"昭島市東町2-6-33","lat":35.704556,"lon":139.386047},{"name":"昭島市民図書館つつじが丘分室","province":"東京都","city":"昭島市","address":"昭島市つつじが丘3-1-30","lat":35.714115,"lon":139.369476},{"name":"昭島市民図書館やまのかみ分室","province":"東京都","city":"昭島市","address":"昭島市拝島町3-10-3","lat":35.710747,"lon":139.334442},{"name":"昭島市民図書館昭和分館","province":"東京都","city":"昭島市","address":"昭島市松原町1-2-25","lat":35.713104,"lon":139.357727},{"name":"昭島市民図書館緑分館","province":"東京都","city":"昭島市","address":"昭島市緑町4-13-26","lat":35.713974,"lon":139.343887},{"name":"やまのかみ会館","province":"東京都","city":"昭島市","address":"昭島市拝島町3-10-3","lat":35.710747,"lon":139.334442},{"name":"玉川会館","province":"東京都","city":"昭島市","address":"昭島市玉川町3-10-15","lat":35.70372,"lon":139.382126},{"name":"昭和分館","province":"東京都","city":"昭島市","address":"昭島市松原町1-2-25","lat":35.713104,"lon":139.357727},{"name":"大神会館","province":"東京都","city":"昭島市","address":"昭島市大神町3-10-5","lat":35.700539,"lon":139.360779},{"name":"朝日会館","province":"東京都","city":"昭島市","address":"昭島市朝日町5-6-20","lat":35.704994,"lon":139.372787},{"name":"拝島会館","province":"東京都","city":"昭島市","address":"昭島市拝島町2-4-13","lat":35.707211,"lon":139.342468},{"name":"富士見会館","province":"東京都","city":"昭島市","address":"昭島市中神町1282","lat":35.710323,"lon":139.382996},{"name":"武蔵野会館","province":"東京都","city":"昭島市","address":"昭島市中神町1172-1","lat":35.711452,"lon":139.375153},{"name":"福島会館","province":"東京都","city":"昭島市","address":"昭島市福島町1-19-1","lat":35.696285,"lon":139.380478},{"name":"堀向会館","province":"東京都","city":"昭島市","address":"昭島市美堀町2-6-11","lat":35.723099,"lon":139.363647},{"name":"緑会館","province":"東京都","city":"昭島市","address":"昭島市緑町4-13-26","lat":35.713974,"lon":139.343887},{"name":"JA全農東京JA東京葬祭センター（源想園昭島葬儀会館）","province":"東京都","city":"昭島市","address":"東京都昭島市中神町3丁目1-1","lat":35.6966812,"lon":139.37542966},{"name":"株式会社セレモア（ガーデン会館昭島）","province":"東京都","city":"昭島市","address":"東京都昭島市玉川町2丁目4-12","lat":35.70655788,"lon":139.37958173},{"name":"株式会社ドリーミー","province":"東京都","city":"昭島市","address":"東京都昭島市田中町1丁目27-15","lat":35.7054492,"lon":139.35437846},{"name":"株式会社あさひセレモニー","province":"東京都","city":"昭島市","address":"東京都昭島市玉川町4丁目1-10","lat":35.70555248,"lon":139.38102051},{"name":"株式会社東京サービスセンター（セレモニーホール昭島）","province":"東京都","city":"昭島市","address":"東京都昭島市宮沢町1丁目7-2","lat":35.70616044,"lon":139.36649129},{"name":"株式会社村尾組（そうしんホール昭島）","province":"東京都","city":"昭島市","address":"東京都昭島市武蔵野3丁目5-1","lat":35.71971183,"lon":139.37585683},{"name":"株式会社結セレモニー（くじら葬祭）","province":"東京都","city":"昭島市","address":"東京都昭島市福島町3丁目23-28","lat":35.69637846,"lon":139.37589906},{"name":"あきしまこどもクッキング","province":"東京都","city":"昭島市","address":"東京都昭島市つつじが丘3丁目7-7","lat":35.71352901,"lon":139.36620781},{"name":"たまりば☆ぬくぬく","province":"東京都","city":"昭島市","address":"東京都昭島市松原町1丁目3-10","lat":35.71211512,"lon":139.35702252},{"name":"あおぞらみんな食堂","province":"東京都","city":"昭島市","address":"東京都昭島市郷地町2丁目20-24","lat":35.69716746,"lon":139.3854093},{"name":"あのねの会あのね食堂","province":"東京都","city":"昭島市","address":"東京都昭島市宮沢町512-13","lat":35.71400132,"lon":139.37351825},{"name":"子ども料理ひろば","province":"東京都","city":"昭島市","address":"東京都昭島市玉川町5丁目13-13","lat":35.7030138,"lon":139.37706542},{"name":"昭島子ども食堂みほりん広場","province":"東京都","city":"昭島市","address":"東京都昭島市拝島町3926-11","lat":35.72095295,"lon":139.35638069},{"name":"そうしんホール昭島","province":"東京都","city":"昭島市","address":"東京都昭島市武蔵野3丁目5-1","lat":35.71971183,"lon":139.37585683},{"name":"株式会社おぼうさんどっとこむ","province":"東京都","city":"昭島市","address":"東京都昭島市中神町1135-47","lat":35.71175989,"lon":139.37259061},{"name":"JA東京葬祭センター","province":"東京都","city":"昭島市","address":"東京都昭島市中神町3丁目1-1","lat":35.6966812,"lon":139.37542966},{"name":"（株）おぼうさんどっとこむ","province":"東京都","city":"昭島市","address":"東京都昭島市中神町1135-47","lat":35.71175989,"lon":139.37259061},{"name":"昭島市公民館","province":"東京都","city":"昭島市","address":"昭島市つつじが丘3-7-7","lat":35.713268,"lon":139.365662},{"name":"青少年交流センター","province":"東京都","city":"昭島市","address":"昭島市昭和町1-6-11","lat":35.711323,"lon":139.365646},{"name":"市民図書館","province":"東京都","city":"昭島市","address":"昭島市東町2-6-33","lat":35.704556,"lon":139.386047},{"name":"昭島市民図書館つつじが丘分室","province":"東京都","city":"昭島市","address":"昭島市つつじが丘3-1-30","lat":35.714115,"lon":139.369476},{"name":"昭島市民図書館やまのかみ分室","province":"東京都","city":"昭島市","address":"昭島市拝島町3-10-3","lat":35.710747,"lon":139.334442},{"name":"昭島市民図書館昭和分館","province":"東京都","city":"昭島市","address":"昭島市松原町1-2-25","lat":35.713104,"lon":139.357727},{"name":"昭島市民図書館緑分館","province":"東京都","city":"昭島市","address":"昭島市緑町4-13-26","lat":35.713974,"lon":139.343887},{"name":"やまのかみ会館","province":"東京都","city":"昭島市","address":"昭島市拝島町3-10-3","lat":35.710747,"lon":139.334442},{"name":"玉川会館","province":"東京都","city":"昭島市","address":"昭島市玉川町3-10-15","lat":35.70372,"lon":139.382126},{"name":"昭和分館","province":"東京都","city":"昭島市","address":"昭島市松原町1-2-25","lat":35.713104,"lon":139.357727},{"name":"大神会館","province":"東京都","city":"昭島市","address":"昭島市大神町3-10-5","lat":35.700539,"lon":139.360779},{"name":"朝日会館","province":"東京都","city":"昭島市","address":"昭島市朝日町5-6-20","lat":35.704994,"lon":139.372787},{"name":"拝島会館","province":"東京都","city":"昭島市","address":"昭島市拝島町2-4-13","lat":35.707211,"lon":139.342468},{"name":"富士見会館","province":"東京都","city":"昭島市","address":"昭島市中神町1282","lat":35.710323,"lon":139.382996},{"name":"武蔵野会館","province":"東京都","city":"昭島市","address":"昭島市中神町1172-1","lat":35.711452,"lon":139.375153},{"name":"福島会館","province":"東京都","city":"昭島市","address":"昭島市福島町1-19-1","lat":35.696285,"lon":139.380478},{"name":"堀向会館","province":"東京都","city":"昭島市","address":"昭島市美堀町2-6-11","lat":35.723099,"lon":139.363647},{"name":"緑会館","province":"東京都","city":"昭島市","address":"昭島市緑町4-13-26","lat":35.713974,"lon":139.343887},{"name":"JA全農東京JA東京葬祭センター（源想園昭島葬儀会館）","province":"東京都","city":"昭島市","address":"東京都昭島市中神町3丁目1-1","lat":35.6966812,"lon":139.37542966},{"name":"株式会社セレモア（ガーデン会館昭島）","province":"東京都","city":"昭島市","address":"東京都昭島市玉川町2丁目4-12","lat":35.70655788,"lon":139.37958173},{"name":"株式会社ドリーミー","province":"東京都","city":"昭島市","address":"東京都昭島市田中町1丁目27-15","lat":35.7054492,"lon":139.35437846},{"name":"株式会社あさひセレモニー","province":"東京都","city":"昭島市","address":"東京都昭島市玉川町4丁目1-10","lat":35.70555248,"lon":139.38102051},{"name":"株式会社東京サービスセンター（セレモニーホール昭島）","province":"東京都","city":"昭島市","address":"東京都昭島市宮沢町1丁目7-2","lat":35.70616044,"lon":139.36649129},{"name":"株式会社村尾組（そうしんホール昭島）","province":"東京都","city":"昭島市","address":"東京都昭島市武蔵野3丁目5-1","lat":35.71971183,"lon":139.37585683},{"name":"株式会社結セレモニー（くじら葬祭）","province":"東京都","city":"昭島市","address":"東京都昭島市福島町3丁目23-28","lat":35.69637846,"lon":139.37589906},{"name":"あきしまこどもクッキング","province":"東京都","city":"昭島市","address":"東京都昭島市つつじが丘3丁目7-7","lat":35.71352901,"lon":139.36620781},{"name":"たまりば☆ぬくぬく","province":"東京都","city":"昭島市","address":"東京都昭島市松原町1丁目3-10","lat":35.71211512,"lon":139.35702252},{"name":"あおぞらみんな食堂","province":"東京都","city":"昭島市","address":"東京都昭島市郷地町2丁目20-24","lat":35.69716746,"lon":139.3854093},{"name":"あのねの会あのね食堂","province":"東京都","city":"昭島市","address":"東京都昭島市宮沢町512-13","lat":35.71400132,"lon":139.37351825},{"name":"子ども料理ひろば","province":"東京都","city":"昭島市","address":"東京都昭島市玉川町5丁目13-13","lat":35.7030138,"lon":139.37706542},{"name":"昭島子ども食堂みほりん広場","province":"東京都","city":"昭島市","address":"東京都昭島市拝島町3926-11","lat":35.72095295,"lon":139.35638069},{"name":"そうしんホール昭島","province":"東京都","city":"昭島市","address":"東京都昭島市武蔵野3丁目5-1","lat":35.71971183,"lon":139.37585683},{"name":"株式会社おぼうさんどっとこむ","province":"東京都","city":"昭島市","address":"東京都昭島市中神町1135-47","lat":35.71175989,"lon":139.37259061},{"name":"JA東京葬祭センター","province":"東京都","city":"昭島市","address":"東京都昭島市中神町3丁目1-1","lat":35.6966812,"lon":139.37542966},{"name":"（株）おぼうさんどっとこむ","province":"東京都","city":"昭島市","address":"東京都昭島市中神町1135-47","lat":35.71175989,"lon":139.37259061},{"name":"昭島市公民館","province":"東京都","city":"昭島市","address":"昭島市つつじが丘3-7-7","lat":35.713268,"lon":139.365662},{"name":"青少年交流センター","province":"東京都","city":"昭島市","address":"昭島市昭和町1-6-11","lat":35.711323,"lon":139.365646},{"name":"市民図書館","province":"東京都","city":"昭島市","address":"昭島市東町2-6-33","lat":35.704556,"lon":139.386047},{"name":"昭島市民図書館つつじが丘分室","province":"東京都","city":"昭島市","address":"昭島市つつじが丘3-1-30","lat":35.714115,"lon":139.369476},{"name":"昭島市民図書館やまのかみ分室","province":"東京都","city":"昭島市","address":"昭島市拝島町3-10-3","lat":35.710747,"lon":139.334442},{"name":"昭島市民図書館昭和分館","province":"東京都","city":"昭島市","address":"昭島市松原町1-2-25","lat":35.713104,"lon":139.357727},{"name":"昭島市民図書館緑分館","province":"東京都","city":"昭島市","address":"昭島市緑町4-13-26","lat":35.713974,"lon":139.343887},{"name":"やまのかみ会館","province":"東京都","city":"昭島市","address":"昭島市拝島町3-10-3","lat":35.710747,"lon":139.334442},{"name":"玉川会館","province":"東京都","city":"昭島市","address":"昭島市玉川町3-10-15","lat":35.70372,"lon":139.382126},{"name":"昭和分館","province":"東京都","city":"昭島市","address":"昭島市松原町1-2-25","lat":35.713104,"lon":139.357727},{"name":"大神会館","province":"東京都","city":"昭島市","address":"昭島市大神町3-10-5","lat":35.700539,"lon":139.360779},{"name":"朝日会館","province":"東京都","city":"昭島市","address":"昭島市朝日町5-6-20","lat":35.704994,"lon":139.372787},{"name":"拝島会館","province":"東京都","city":"昭島市","address":"昭島市拝島町2-4-13","lat":35.707211,"lon":139.342468},{"name":"富士見会館","province":"東京都","city":"昭島市","address":"昭島市中神町1282","lat":35.710323,"lon":139.382996},{"name":"武蔵野会館","province":"東京都","city":"昭島市","address":"昭島市中神町1172-1","lat":35.711452,"lon":139.375153},{"name":"福島会館","province":"東京都","city":"昭島市","address":"昭島市福島町1-19-1","lat":35.696285,"lon":139.380478},{"name":"堀向会館","province":"東京都","city":"昭島市","address":"昭島市美堀町2-6-11","lat":35.723099,"lon":139.363647},{"name":"緑会館","province":"東京都","city":"昭島市","address":"昭島市緑町4-13-26","lat":35.713974,"lon":139.343887},{"name":"JA全農東京JA東京葬祭センター（源想園昭島葬儀会館）","province":"東京都","city":"昭島市","address":"東京都昭島市中神町3丁目1-1","lat":35.6966812,"lon":139.37542966},{"name":"株式会社セレモア（ガーデン会館昭島）","province":"東京都","city":"昭島市","address":"東京都昭島市玉川町2丁目4-12","lat":35.70655788,"lon":139.37958173},{"name":"株式会社ドリーミー","province":"東京都","city":"昭島市","address":"東京都昭島市田中町1丁目27-15","lat":35.7054492,"lon":139.35437846},{"name":"株式会社あさひセレモニー","province":"東京都","city":"昭島市","address":"東京都昭島市玉川町4丁目1-10","lat":35.70555248,"lon":139.38102051},{"name":"株式会社東京サービスセンター（セレモニーホール昭島）","province":"東京都","city":"昭島市","address":"東京都昭島市宮沢町1丁目7-2","lat":35.70616044,"lon":139.36649129},{"name":"株式会社村尾組（そうしんホール昭島）","province":"東京都","city":"昭島市","address":"東京都昭島市武蔵野3丁目5-1","lat":35.71971183,"lon":139.37585683},{"name":"株式会社結セレモニー（くじら葬祭）","province":"東京都","city":"昭島市","address":"東京都昭島市福島町3丁目23-28","lat":35.69637846,"lon":139.37589906},{"name":"あきしまこどもクッキング","province":"東京都","city":"昭島市","address":"東京都昭島市つつじが丘3丁目7-7","lat":35.71352901,"lon":139.36620781},{"name":"たまりば☆ぬくぬく","province":"東京都","city":"昭島市","address":"東京都昭島市松原町1丁目3-10","lat":35.71211512,"lon":139.35702252},{"name":"あおぞらみんな食堂","province":"東京都","city":"昭島市","address":"東京都昭島市郷地町2丁目20-24","lat":35.69716746,"lon":139.3854093},{"name":"あのねの会あのね食堂","province":"東京都","city":"昭島市","address":"東京都昭島市宮沢町512-13","lat":35.71400132,"lon":139.37351825},{"name":"子ども料理ひろば","province":"東京都","city":"昭島市","address":"東京都昭島市玉川町5丁目13-13","lat":35.7030138,"lon":139.37706542},{"name":"昭島子ども食堂みほりん広場","province":"東京都","city":"昭島市","address":"東京都昭島市拝島町3926-11","lat":35.72095295,"lon":139.35638069},{"name":"そうしんホール昭島","province":"東京都","city":"昭島市","address":"東京都昭島市武蔵野3丁目5-1","lat":35.71971183,"lon":139.37585683},{"name":"株式会社おぼうさんどっとこむ","province":"東京都","city":"昭島市","address":"東京都昭島市中神町1135-47","lat":35.71175989,"lon":139.37259061},{"name":"JA東京葬祭センター","province":"東京都","city":"昭島市","address":"東京都昭島市中神町3丁目1-1","lat":35.6966812,"lon":139.37542966},{"name":"（株）おぼうさんどっとこむ","province":"東京都","city":"昭島市","address":"東京都昭島市中神町1135-47","lat":35.71175989,"lon":139.37259061},{"name":"昭島市公民館","province":"東京都","city":"昭島市","address":"昭島市つつじが丘3-7-7","lat":35.713268,"lon":139.365662},{"name":"青少年交流センター","province":"東京都","city":"昭島市","address":"昭島市昭和町1-6-11","lat":35.711323,"lon":139.365646},{"name":"市民図書館","province":"東京都","city":"昭島市","address":"昭島市東町2-6-33","lat":35.704556,"lon":139.386047},{"name":"昭島市民図書館つつじが丘分室","province":"東京都","city":"昭島市","address":"昭島市つつじが丘3-1-30","lat":35.714115,"lon":139.369476},{"name":"昭島市民図書館やまのかみ分室","province":"東京都","city":"昭島市","address":"昭島市拝島町3-10-3","lat":35.710747,"lon":139.334442},{"name":"昭島市民図書館昭和分館","province":"東京都","city":"昭島市","address":"昭島市松原町1-2-25","lat":35.713104,"lon":139.357727},{"name":"昭島市民図書館緑分館","province":"東京都","city":"昭島市","address":"昭島市緑町4-13-26","lat":35.713974,"lon":139.343887},{"name":"やまのかみ会館","province":"東京都","city":"昭島市","address":"昭島市拝島町3-10-3","lat":35.710747,"lon":139.334442},{"name":"玉川会館","province":"東京都","city":"昭島市","address":"昭島市玉川町3-10-15","lat":35.70372,"lon":139.382126},{"name":"昭和分館","province":"東京都","city":"昭島市","address":"昭島市松原町1-2-25","lat":35.713104,"lon":139.357727},{"name":"大神会館","province":"東京都","city":"昭島市","address":"昭島市大神町3-10-5","lat":35.700539,"lon":139.360779},{"name":"朝日会館","province":"東京都","city":"昭島市","address":"昭島市朝日町5-6-20","lat":35.704994,"lon":139.372787},{"name":"拝島会館","province":"東京都","city":"昭島市","address":"昭島市拝島町2-4-13","lat":35.707211,"lon":139.342468},{"name":"富士見会館","province":"東京都","city":"昭島市","address":"昭島市中神町1282","lat":35.710323,"lon":139.382996},{"name":"武蔵野会館","province":"東京都","city":"昭島市","address":"昭島市中神町1172-1","lat":35.711452,"lon":139.375153},{"name":"福島会館","province":"東京都","city":"昭島市","address":"昭島市福島町1-19-1","lat":35.696285,"lon":139.380478},{"name":"堀向会館","province":"東京都","city":"昭島市","address":"昭島市美堀町2-6-11","lat":35.723099,"lon":139.363647},{"name":"緑会館","province":"東京都","city":"昭島市","address":"昭島市緑町4-13-26","lat":35.713974,"lon":139.343887},{"name":"JA全農東京JA東京葬祭センター（源想園昭島葬儀会館）","province":"東京都","city":"昭島市","address":"東京都昭島市中神町3丁目1-1","lat":35.6966812,"lon":139.37542966},{"name":"株式会社セレモア（ガーデン会館昭島）","province":"東京都","city":"昭島市","address":"東京都昭島市玉川町2丁目4-12","lat":35.70655788,"lon":139.37958173},{"name":"株式会社ドリーミー","province":"東京都","city":"昭島市","address":"東京都昭島市田中町1丁目27-15","lat":35.7054492,"lon":139.35437846},{"name":"株式会社あさひセレモニー","province":"東京都","city":"昭島市","address":"東京都昭島市玉川町4丁目1-10","lat":35.70555248,"lon":139.38102051},{"name":"株式会社東京サービスセンター（セレモニーホール昭島）","province":"東京都","city":"昭島市","address":"東京都昭島市宮沢町1丁目7-2","lat":35.70616044,"lon":139.36649129},{"name":"株式会社村尾組（そうしんホール昭島）","province":"東京都","city":"昭島市","address":"東京都昭島市武蔵野3丁目5-1","lat":35.71971183,"lon":139.37585683},{"name":"株式会社結セレモニー（くじら葬祭）","province":"東京都","city":"昭島市","address":"東京都昭島市福島町3丁目23-28","lat":35.69637846,"lon":139.37589906},{"name":"あきしまこどもクッキング","province":"東京都","city":"昭島市","address":"東京都昭島市つつじが丘3丁目7-7","lat":35.71352901,"lon":139.36620781},{"name":"たまりば☆ぬくぬく","province":"東京都","city":"昭島市","address":"東京都昭島市松原町1丁目3-10","lat":35.71211512,"lon":139.35702252},{"name":"あおぞらみんな食堂","province":"東京都","city":"昭島市","address":"東京都昭島市郷地町2丁目20-24","lat":35.69716746,"lon":139.3854093},{"name":"あのねの会あのね食堂","province":"東京都","city":"昭島市","address":"東京都昭島市宮沢町512-13","lat":35.71400132,"lon":139.37351825},{"name":"子ども料理ひろば","province":"東京都","city":"昭島市","address":"東京都昭島市玉川町5丁目13-13","lat":35.7030138,"lon":139.37706542},{"name":"昭島子ども食堂みほりん広場","province":"東京都","city":"昭島市","address":"東京都昭島市拝島町3926-11","lat":35.72095295,"lon":139.35638069},{"name":"そうしんホール昭島","province":"東京都","city":"昭島市","address":"東京都昭島市武蔵野3丁目5-1","lat":35.71971183,"lon":139.37585683},{"name":"株式会社おぼうさんどっとこむ","province":"東京都","city":"昭島市","address":"東京都昭島市中神町1135-47","lat":35.71175989,"lon":139.37259061},{"name":"JA東京葬祭センター","province":"東京都","city":"昭島市","address":"東京都昭島市中神町3丁目1-1","lat":35.6966812,"lon":139.37542966},{"name":"（株）おぼうさんどっとこむ","province":"東京都","city":"昭島市","address":"東京都昭島市中神町1135-47","lat":35.71175989,"lon":139.37259061},{"name":"昭島市公民館","province":"東京都","city":"昭島市","address":"昭島市つつじが丘3-7-7","lat":35.713268,"lon":139.365662},{"name":"青少年交流センター","province":"東京都","city":"昭島市","address":"昭島市昭和町1-6-11","lat":35.711323,"lon":139.365646},{"name":"市民図書館","province":"東京都","city":"昭島市","address":"昭島市東町2-6-33","lat":35.704556,"lon":139.386047},{"name":"昭島市民図書館つつじが丘分室","province":"東京都","city":"昭島市","address":"昭島市つつじが丘3-1-30","lat":35.714115,"lon":139.369476},{"name":"昭島市民図書館やまのかみ分室","province":"東京都","city":"昭島市","address":"昭島市拝島町3-10-3","lat":35.710747,"lon":139.334442},{"name":"昭島市民図書館昭和分館","province":"東京都","city":"昭島市","address":"昭島市松原町1-2-25","lat":35.713104,"lon":139.357727},{"name":"昭島市民図書館緑分館","province":"東京都","city":"昭島市","address":"昭島市緑町4-13-26","lat":35.713974,"lon":139.343887},{"name":"やまのかみ会館","province":"東京都","city":"昭島市","address":"昭島市拝島町3-10-3","lat":35.710747,"lon":139.334442},{"name":"玉川会館","province":"東京都","city":"昭島市","address":"昭島市玉川町3-10-15","lat":35.70372,"lon":139.382126},{"name":"昭和分館","province":"東京都","city":"昭島市","address":"昭島市松原町1-2-25","lat":35.713104,"lon":139.357727},{"name":"大神会館","province":"東京都","city":"昭島市","address":"昭島市大神町3-10-5","lat":35.700539,"lon":139.360779},{"name":"朝日会館","province":"東京都","city":"昭島市","address":"昭島市朝日町5-6-20","lat":35.704994,"lon":139.372787},{"name":"拝島会館","province":"東京都","city":"昭島市","address":"昭島市拝島町2-4-13","lat":35.707211,"lon":139.342468},{"name":"富士見会館","province":"東京都","city":"昭島市","address":"昭島市中神町1282","lat":35.710323,"lon":139.382996},{"name":"武蔵野会館","province":"東京都","city":"昭島市","address":"昭島市中神町1172-1","lat":35.711452,"lon":139.375153},{"name":"福島会館","province":"東京都","city":"昭島市","address":"昭島市福島町1-19-1","lat":35.696285,"lon":139.380478},{"name":"堀向会館","province":"東京都","city":"昭島市","address":"昭島市美堀町2-6-11","lat":35.723099,"lon":139.363647},{"name":"緑会館","province":"東京都","city":"昭島市","address":"昭島市緑町4-13-26","lat":35.713974,"lon":139.343887},{"name":"JA全農東京JA東京葬祭センター（源想園昭島葬儀会館）","province":"東京都","city":"昭島市","address":"東京都昭島市中神町3丁目1-1","lat":35.6966812,"lon":139.37542966},{"name":"株式会社セレモア（ガーデン会館昭島）","province":"東京都","city":"昭島市","address":"東京都昭島市玉川町2丁目4-12","lat":35.70655788,"lon":139.37958173},{"name":"株式会社ドリーミー","province":"東京都","city":"昭島市","address":"東京都昭島市田中町1丁目27-15","lat":35.7054492,"lon":139.35437846},{"name":"株式会社あさひセレモニー","province":"東京都","city":"昭島市","address":"東京都昭島市玉川町4丁目1-10","lat":35.70555248,"lon":139.38102051},{"name":"株式会社東京サービスセンター（セレモニーホール昭島）","province":"東京都","city":"昭島市","address":"東京都昭島市宮沢町1丁目7-2","lat":35.70616044,"lon":139.36649129},{"name":"株式会社村尾組（そうしんホール昭島）","province":"東京都","city":"昭島市","address":"東京都昭島市武蔵野3丁目5-1","lat":35.71971183,"lon":139.37585683},{"name":"株式会社結セレモニー（くじら葬祭）","province":"東京都","city":"昭島市","address":"東京都昭島市福島町3丁目23-28","lat":35.69637846,"lon":139.37589906},{"name":"あきしまこどもクッキング","province":"東京都","city":"昭島市","address":"東京都昭島市つつじが丘3丁目7-7","lat":35.71352901,"lon":139.36620781},{"name":"たまりば☆ぬくぬく","province":"東京都","city":"昭島市","address":"東京都昭島市松原町1丁目3-10","lat":35.71211512,"lon":139.35702252},{"name":"あおぞらみんな食堂","province":"東京都","city":"昭島市","address":"東京都昭島市郷地町2丁目20-24","lat":35.69716746,"lon":139.3854093},{"name":"あのねの会あのね食堂","province":"東京都","city":"昭島市","address":"東京都昭島市宮沢町512-13","lat":35.71400132,"lon":139.37351825},{"name":"子ども料理ひろば","province":"東京都","city":"昭島市","address":"東京都昭島市玉川町5丁目13-13","lat":35.7030138,"lon":139.37706542},{"name":"昭島子ども食堂みほりん広場","province":"東京都","city":"昭島市","address":"東京都昭島市拝島町3926-11","lat":35.72095295,"lon":139.35638069},{"name":"そうしんホール昭島","province":"東京都","city":"昭島市","address":"東京都昭島市武蔵野3丁目5-1","lat":35.71971183,"lon":139.37585683},{"name":"株式会社おぼうさんどっとこむ","province":"東京都","city":"昭島市","address":"東京都昭島市中神町1135-47","lat":35.71175989,"lon":139.37259061},{"name":"JA東京葬祭センター","province":"東京都","city":"昭島市","address":"東京都昭島市中神町3丁目1-1","lat":35.6966812,"lon":139.37542966},{"name":"（株）おぼうさんどっとこむ","province":"東京都","city":"昭島市","address":"東京都昭島市中神町1135-47","lat":35.71175989,"lon":139.37259061},{"name":"昭島市公民館","province":"東京都","city":"昭島市","address":"昭島市つつじが丘3-7-7","lat":35.713268,"lon":139.365662},{"name":"青少年交流センター","province":"東京都","city":"昭島市","address":"昭島市昭和町1-6-11","lat":35.711323,"lon":139.365646},{"name":"市民図書館","province":"東京都","city":"昭島市","address":"昭島市東町2-6-33","lat":35.704556,"lon":139.386047},{"name":"昭島市民図書館つつじが丘分室","province":"東京都","city":"昭島市","address":"昭島市つつじが丘3-1-30","lat":35.714115,"lon":139.369476},{"name":"昭島市民図書館やまのかみ分室","province":"東京都","city":"昭島市","address":"昭島市拝島町3-10-3","lat":35.710747,"lon":139.334442},{"name":"昭島市民図書館昭和分館","province":"東京都","city":"昭島市","address":"昭島市松原町1-2-25","lat":35.713104,"lon":139.357727},{"name":"昭島市民図書館緑分館","province":"東京都","city":"昭島市","address":"昭島市緑町4-13-26","lat":35.713974,"lon":139.343887},{"name":"やまのかみ会館","province":"東京都","city":"昭島市","address":"昭島市拝島町3-10-3","lat":35.710747,"lon":139.334442},{"name":"玉川会館","province":"東京都","city":"昭島市","address":"昭島市玉川町3-10-15","lat":35.70372,"lon":139.382126},{"name":"昭和分館","province":"東京都","city":"昭島市","address":"昭島市松原町1-2-25","lat":35.713104,"lon":139.357727},{"name":"大神会館","province":"東京都","city":"昭島市","address":"昭島市大神町3-10-5","lat":35.700539,"lon":139.360779},{"name":"朝日会館","province":"東京都","city":"昭島市","address":"昭島市朝日町5-6-20","lat":35.704994,"lon":139.372787},{"name":"拝島会館","province":"東京都","city":"昭島市","address":"昭島市拝島町2-4-13","lat":35.707211,"lon":139.342468},{"name":"富士見会館","province":"東京都","city":"昭島市","address":"昭島市中神町1282","lat":35.710323,"lon":139.382996},{"name":"武蔵野会館","province":"東京都","city":"昭島市","address":"昭島市中神町1172-1","lat":35.711452,"lon":139.375153},{"name":"福島会館","province":"東京都","city":"昭島市","address":"昭島市福島町1-19-1","lat":35.696285,"lon":139.380478},{"name":"堀向会館","province":"東京都","city":"昭島市","address":"昭島市美堀町2-6-11","lat":35.723099,"lon":139.363647},{"name":"緑会館","province":"東京都","city":"昭島市","address":"昭島市緑町4-13-26","lat":35.713974,"lon":139.343887},{"name":"JA全農東京JA東京葬祭センター（源想園昭島葬儀会館）","province":"東京都","city":"昭島市","address":"東京都昭島市中神町3丁目1-1","lat":35.6966812,"lon":139.37542966},{"name":"株式会社セレモア（ガーデン会館昭島）","province":"東京都","city":"昭島市","address":"東京都昭島市玉川町2丁目4-12","lat":35.70655788,"lon":139.37958173},{"name":"株式会社ドリーミー","province":"東京都","city":"昭島市","address":"東京都昭島市田中町1丁目27-15","lat":35.7054492,"lon":139.35437846},{"name":"株式会社あさひセレモニー","province":"東京都","city":"昭島市","address":"東京都昭島市玉川町4丁目1-10","lat":35.70555248,"lon":139.38102051},{"name":"株式会社東京サービスセンター（セレモニーホール昭島）","province":"東京都","city":"昭島市","address":"東京都昭島市宮沢町1丁目7-2","lat":35.70616044,"lon":139.36649129},{"name":"株式会社村尾組（そうしんホール昭島）","province":"東京都","city":"昭島市","address":"東京都昭島市武蔵野3丁目5-1","lat":35.71971183,"lon":139.37585683},{"name":"株式会社結セレモニー（くじら葬祭）","province":"東京都","city":"昭島市","address":"東京都昭島市福島町3丁目23-28","lat":35.69637846,"lon":139.37589906},{"name":"あきしまこどもクッキング","province":"東京都","city":"昭島市","address":"東京都昭島市つつじが丘3丁目7-7","lat":35.71352901,"lon":139.36620781},{"name":"たまりば☆ぬくぬく","province":"東京都","city":"昭島市","address":"東京都昭島市松原町1丁目3-10","lat":35.71211512,"lon":139.35702252},{"name":"あおぞらみんな食堂","province":"東京都","city":"昭島市","address":"東京都昭島市郷地町2丁目20-24","lat":35.69716746,"lon":139.3854093},{"name":"あのねの会あのね食堂","province":"東京都","city":"昭島市","address":"東京都昭島市宮沢町512-13","lat":35.71400132,"lon":139.37351825},{"name":"子ども料理ひろば","province":"東京都","city":"昭島市","address":"東京都昭島市玉川町5丁目13-13","lat":35.7030138,"lon":139.37706542},{"name":"昭島子ども食堂みほりん広場","province":"東京都","city":"昭島市","address":"東京都昭島市拝島町3926-11","lat":35.72095295,"lon":139.35638069},{"name":"そうしんホール昭島","province":"東京都","city":"昭島市","address":"東京都昭島市武蔵野3丁目5-1","lat":35.71971183,"lon":139.37585683},{"name":"株式会社おぼうさんどっとこむ","province":"東京都","city":"昭島市","address":"東京都昭島市中神町1135-47","lat":35.71175989,"lon":139.37259061},{"name":"JA東京葬祭センター","province":"東京都","city":"昭島市","address":"東京都昭島市中神町3丁目1-1","lat":35.6966812,"lon":139.37542966},{"name":"（株）おぼうさんどっとこむ","province":"東京都","city":"昭島市","address":"東京都昭島市中神町1135-47","lat":35.71175989,"lon":139.37259061},{"name":"昭島市公民館","province":"東京都","city":"昭島市","address":"昭島市つつじが丘3-7-7","lat":35.713268,"lon":139.365662},{"name":"青少年交流センター","province":"東京都","city":"昭島市","address":"昭島市昭和町1-6-11","lat":35.711323,"lon":139.365646},{"name":"市民図書館","province":"東京都","city":"昭島市","address":"昭島市東町2-6-33","lat":35.704556,"lon":139.386047},{"name":"昭島市民図書館つつじが丘分室","province":"東京都","city":"昭島市","address":"昭島市つつじが丘3-1-30","lat":35.714115,"lon":139.369476},{"name":"昭島市民図書館やまのかみ分室","province":"東京都","city":"昭島市","address":"昭島市拝島町3-10-3","lat":35.710747,"lon":139.334442},{"name":"昭島市民図書館昭和分館","province":"東京都","city":"昭島市","address":"昭島市松原町1-2-25","lat":35.713104,"lon":139.357727},{"name":"昭島市民図書館緑分館","province":"東京都","city":"昭島市","address":"昭島市緑町4-13-26","lat":35.713974,"lon":139.343887},{"name":"やまのかみ会館","province":"東京都","city":"昭島市","address":"昭島市拝島町3-10-3","lat":35.710747,"lon":139.334442},{"name":"玉川会館","province":"東京都","city":"昭島市","address":"昭島市玉川町3-10-15","lat":35.70372,"lon":139.382126},{"name":"昭和分館","province":"東京都","city":"昭島市","address":"昭島市松原町1-2-25","lat":35.713104,"lon":139.357727},{"name":"大神会館","province":"東京都","city":"昭島市","address":"昭島市大神町3-10-5","lat":35.700539,"lon":139.360779},{"name":"朝日会館","province":"東京都","city":"昭島市","address":"昭島市朝日町5-6-20","lat":35.704994,"lon":139.372787},{"name":"拝島会館","province":"東京都","city":"昭島市","address":"昭島市拝島町2-4-13","lat":35.707211,"lon":139.342468},{"name":"富士見会館","province":"東京都","city":"昭島市","address":"昭島市中神町1282","lat":35.710323,"lon":139.382996},{"name":"武蔵野会館","province":"東京都","city":"昭島市","address":"昭島市中神町1172-1","lat":35.711452,"lon":139.375153},{"name":"福島会館","province":"東京都","city":"昭島市","address":"昭島市福島町1-19-1","lat":35.696285,"lon":139.380478},{"name":"堀向会館","province":"東京都","city":"昭島市","address":"昭島市美堀町2-6-11","lat":35.723099,"lon":139.363647},{"name":"緑会館","province":"東京都","city":"昭島市","address":"昭島市緑町4-13-26","lat":35.713974,"lon":139.343887},{"name":"JA全農東京JA東京葬祭センター（源想園昭島葬儀会館）","province":"東京都","city":"昭島市","address":"東京都昭島市中神町3丁目1-1","lat":35.6966812,"lon":139.37542966},{"name":"株式会社セレモア（ガーデン会館昭島）","province":"東京都","city":"昭島市","address":"東京都昭島市玉川町2丁目4-12","lat":35.70655788,"lon":139.37958173},{"name":"株式会社ドリーミー","province":"東京都","city":"昭島市","address":"東京都昭島市田中町1丁目27-15","lat":35.7054492,"lon":139.35437846},{"name":"株式会社あさひセレモニー","province":"東京都","city":"昭島市","address":"東京都昭島市玉川町4丁目1-10","lat":35.70555248,"lon":139.38102051},{"name":"株式会社東京サービスセンター（セレモニーホール昭島）","province":"東京都","city":"昭島市","address":"東京都昭島市宮沢町1丁目7-2","lat":35.70616044,"lon":139.36649129},{"name":"株式会社村尾組（そうしんホール昭島）","province":"東京都","city":"昭島市","address":"東京都昭島市武蔵野3丁目5-1","lat":35.71971183,"lon":139.37585683},{"name":"株式会社結セレモニー（くじら葬祭）","province":"東京都","city":"昭島市","address":"東京都昭島市福島町3丁目23-28","lat":35.69637846,"lon":139.37589906},{"name":"あきしまこどもクッキング","province":"東京都","city":"昭島市","address":"東京都昭島市つつじが丘3丁目7-7","lat":35.71352901,"lon":139.36620781},{"name":"たまりば☆ぬくぬく","province":"東京都","city":"昭島市","address":"東京都昭島市松原町1丁目3-10","lat":35.71211512,"lon":139.35702252},{"name":"あおぞらみんな食堂","province":"東京都","city":"昭島市","address":"東京都昭島市郷地町2丁目20-24","lat":35.69716746,"lon":139.3854093},{"name":"あのねの会あのね食堂","province":"東京都","city":"昭島市","address":"東京都昭島市宮沢町512-13","lat":35.71400132,"lon":139.37351825},{"name":"子ども料理ひろば","province":"東京都","city":"昭島市","address":"東京都昭島市玉川町5丁目13-13","lat":35.7030138,"lon":139.37706542},{"name":"昭島子ども食堂みほりん広場","province":"東京都","city":"昭島市","address":"東京都昭島市拝島町3926-11","lat":35.72095295,"lon":139.35638069},{"name":"そうしんホール昭島","province":"東京都","city":"昭島市","address":"東京都昭島市武蔵野3丁目5-1","lat":35.71971183,"lon":139.37585683},{"name":"株式会社おぼうさんどっとこむ","province":"東京都","city":"昭島市","address":"東京都昭島市中神町1135-47","lat":35.71175989,"lon":139.37259061},{"name":"JA東京葬祭センター","province":"東京都","city":"昭島市","address":"東京都昭島市中神町3丁目1-1","lat":35.6966812,"lon":139.37542966},{"name":"（株）おぼうさんどっとこむ","province":"東京都","city":"昭島市","address":"東京都昭島市中神町1135-47","lat":35.71175989,"lon":139.37259061},{"name":"昭島市公民館","province":"東京都","city":"昭島市","address":"昭島市つつじが丘3-7-7","lat":35.713268,"lon":139.365662},{"name":"青少年交流センター","province":"東京都","city":"昭島市","address":"昭島市昭和町1-6-11","lat":35.711323,"lon":139.365646},{"name":"市民図書館","province":"東京都","city":"昭島市","address":"昭島市東町2-6-33","lat":35.704556,"lon":139.386047},{"name":"昭島市民図書館つつじが丘分室","province":"東京都","city":"昭島市","address":"昭島市つつじが丘3-1-30","lat":35.714115,"lon":139.369476},{"name":"昭島市民図書館やまのかみ分室","province":"東京都","city":"昭島市","address":"昭島市拝島町3-10-3","lat":35.710747,"lon":139.334442},{"name":"昭島市民図書館昭和分館","province":"東京都","city":"昭島市","address":"昭島市松原町1-2-25","lat":35.713104,"lon":139.357727},{"name":"昭島市民図書館緑分館","province":"東京都","city":"昭島市","address":"昭島市緑町4-13-26","lat":35.713974,"lon":139.343887},{"name":"やまのかみ会館","province":"東京都","city":"昭島市","address":"昭島市拝島町3-10-3","lat":35.710747,"lon":139.334442},{"name":"玉川会館","province":"東京都","city":"昭島市","address":"昭島市玉川町3-10-15","lat":35.70372,"lon":139.382126},{"name":"昭和分館","province":"東京都","city":"昭島市","address":"昭島市松原町1-2-25","lat":35.713104,"lon":139.357727},{"name":"大神会館","province":"東京都","city":"昭島市","address":"昭島市大神町3-10-5","lat":35.700539,"lon":139.360779},{"name":"朝日会館","province":"東京都","city":"昭島市","address":"昭島市朝日町5-6-20","lat":35.704994,"lon":139.372787},{"name":"拝島会館","province":"東京都","city":"昭島市","address":"昭島市拝島町2-4-13","lat":35.707211,"lon":139.342468},{"name":"富士見会館","province":"東京都","city":"昭島市","address":"昭島市中神町1282","lat":35.710323,"lon":139.382996},{"name":"武蔵野会館","province":"東京都","city":"昭島市","address":"昭島市中神町1172-1","lat":35.711452,"lon":139.375153},{"name":"福島会館","province":"東京都","city":"昭島市","address":"昭島市福島町1-19-1","lat":35.696285,"lon":139.380478},{"name":"堀向会館","province":"東京都","city":"昭島市","address":"昭島市美堀町2-6-11","lat":35.723099,"lon":139.363647},{"name":"緑会館","province":"東京都","city":"昭島市","address":"昭島市緑町4-13-26","lat":35.713974,"lon":139.343887},{"name":"JA全農東京JA東京葬祭センター（源想園昭島葬儀会館）","province":"東京都","city":"昭島市","address":"東京都昭島市中神町3丁目1-1","lat":35.6966812,"lon":139.37542966},{"name":"株式会社セレモア（ガーデン会館昭島）","province":"東京都","city":"昭島市","address":"東京都昭島市玉川町2丁目4-12","lat":35.70655788,"lon":139.37958173},{"name":"株式会社ドリーミー","province":"東京都","city":"昭島市","address":"東京都昭島市田中町1丁目27-15","lat":35.7054492,"lon":139.35437846},{"name":"株式会社あさひセレモニー","province":"東京都","city":"昭島市","address":"東京都昭島市玉川町4丁目1-10","lat":35.70555248,"lon":139.38102051},{"name":"株式会社東京サービスセンター（セレモニーホール昭島）","province":"東京都","city":"昭島市","address":"東京都昭島市宮沢町1丁目7-2","lat":35.70616044,"lon":139.36649129},{"name":"株式会社村尾組（そうしんホール昭島）","province":"東京都","city":"昭島市","address":"東京都昭島市武蔵野3丁目5-1","lat":35.71971183,"lon":139.37585683},{"name":"株式会社結セレモニー（くじら葬祭）","province":"東京都","city":"昭島市","address":"東京都昭島市福島町3丁目23-28","lat":35.69637846,"lon":139.37589906},{"name":"あきしまこどもクッキング","province":"東京都","city":"昭島市","address":"東京都昭島市つつじが丘3丁目7-7","lat":35.71352901,"lon":139.36620781},{"name":"たまりば☆ぬくぬく","province":"東京都","city":"昭島市","address":"東京都昭島市松原町1丁目3-10","lat":35.71211512,"lon":139.35702252},{"name":"あおぞらみんな食堂","province":"東京都","city":"昭島市","address":"東京都昭島市郷地町2丁目20-24","lat":35.69716746,"lon":139.3854093},{"name":"あのねの会あのね食堂","province":"東京都","city":"昭島市","address":"東京都昭島市宮沢町512-13","lat":35.71400132,"lon":139.37351825},{"name":"子ども料理ひろば","province":"東京都","city":"昭島市","address":"東京都昭島市玉川町5丁目13-13","lat":35.7030138,"lon":139.37706542},{"name":"昭島子ども食堂みほりん広場","province":"東京都","city":"昭島市","address":"東京都昭島市拝島町3926-11","lat":35.72095295,"lon":139.35638069},{"name":"そうしんホール昭島","province":"東京都","city":"昭島市","address":"東京都昭島市武蔵野3丁目5-1","lat":35.71971183,"lon":139.37585683},{"name":"株式会社おぼうさんどっとこむ","province":"東京都","city":"昭島市","address":"東京都昭島市中神町1135-47","lat":35.71175989,"lon":139.37259061},{"name":"JA東京葬祭センター","province":"東京都","city":"昭島市","address":"東京都昭島市中神町3丁目1-1","lat":35.6966812,"lon":139.37542966},{"name":"（株）おぼうさんどっとこむ","province":"東京都","city":"昭島市","address":"東京都昭島市中神町1135-47","lat":35.71175989,"lon":139.37259061},{"name":"昭島市公民館","province":"東京都","city":"昭島市","address":"昭島市つつじが丘3-7-7","lat":35.713268,"lon":139.365662},{"name":"青少年交流センター","province":"東京都","city":"昭島市","address":"昭島市昭和町1-6-11","lat":35.711323,"lon":139.365646},{"name":"市民図書館","province":"東京都","city":"昭島市","address":"昭島市東町2-6-33","lat":35.704556,"lon":139.386047},{"name":"昭島市民図書館つつじが丘分室","province":"東京都","city":"昭島市","address":"昭島市つつじが丘3-1-30","lat":35.714115,"lon":139.369476},{"name":"昭島市民図書館やまのかみ分室","province":"東京都","city":"昭島市","address":"昭島市拝島町3-10-3","lat":35.710747,"lon":139.334442},{"name":"昭島市民図書館昭和分館","province":"東京都","city":"昭島市","address":"昭島市松原町1-2-25","lat":35.713104,"lon":139.357727},{"name":"昭島市民図書館緑分館","province":"東京都","city":"昭島市","address":"昭島市緑町4-13-26","lat":35.713974,"lon":139.343887},{"name":"やまのかみ会館","province":"東京都","city":"昭島市","address":"昭島市拝島町3-10-3","lat":35.710747,"lon":139.334442},{"name":"玉川会館","province":"東京都","city":"昭島市","address":"昭島市玉川町3-10-15","lat":35.70372,"lon":139.382126},{"name":"昭和分館","province":"東京都","city":"昭島市","address":"昭島市松原町1-2-25","lat":35.713104,"lon":139.357727},{"name":"大神会館","province":"東京都","city":"昭島市","address":"昭島市大神町3-10-5","lat":35.700539,"lon":139.360779},{"name":"朝日会館","province":"東京都","city":"昭島市","address":"昭島市朝日町5-6-20","lat":35.704994,"lon":139.372787},{"name":"拝島会館","province":"東京都","city":"昭島市","address":"昭島市拝島町2-4-13","lat":35.707211,"lon":139.342468},{"name":"富士見会館","province":"東京都","city":"昭島市","address":"昭島市中神町1282","lat":35.710323,"lon":139.382996},{"name":"武蔵野会館","province":"東京都","city":"昭島市","address":"昭島市中神町1172-1","lat":35.711452,"lon":139.375153},{"name":"福島会館","province":"東京都","city":"昭島市","address":"昭島市福島町1-19-1","lat":35.696285,"lon":139.380478},{"name":"堀向会館","province":"東京都","city":"昭島市","address":"昭島市美堀町2-6-11","lat":35.723099,"lon":139.363647},{"name":"緑会館","province":"東京都","city":"昭島市","address":"昭島市緑町4-13-26","lat":35.713974,"lon":139.343887},{"name":"JA全農東京JA東京葬祭センター（源想園昭島葬儀会館）","province":"東京都","city":"昭島市","address":"東京都昭島市中神町3丁目1-1","lat":35.6966812,"lon":139.37542966},{"name":"株式会社セレモア（ガーデン会館昭島）","province":"東京都","city":"昭島市","address":"東京都昭島市玉川町2丁目4-12","lat":35.70655788,"lon":139.37958173},{"name":"株式会社ドリーミー","province":"東京都","city":"昭島市","address":"東京都昭島市田中町1丁目27-15","lat":35.7054492,"lon":139.35437846},{"name":"株式会社あさひセレモニー","province":"東京都","city":"昭島市","address":"東京都昭島市玉川町4丁目1-10","lat":35.70555248,"lon":139.38102051},{"name":"株式会社東京サービスセンター（セレモニーホール昭島）","province":"東京都","city":"昭島市","address":"東京都昭島市宮沢町1丁目7-2","lat":35.70616044,"lon":139.36649129},{"name":"株式会社村尾組（そうしんホール昭島）","province":"東京都","city":"昭島市","address":"東京都昭島市武蔵野3丁目5-1","lat":35.71971183,"lon":139.37585683},{"name":"株式会社結セレモニー（くじら葬祭）","province":"東京都","city":"昭島市","address":"東京都昭島市福島町3丁目23-28","lat":35.69637846,"lon":139.37589906},{"name":"あきしまこどもクッキング","province":"東京都","city":"昭島市","address":"東京都昭島市つつじが丘3丁目7-7","lat":35.71352901,"lon":139.36620781},{"name":"たまりば☆ぬくぬく","province":"東京都","city":"昭島市","address":"東京都昭島市松原町1丁目3-10","lat":35.71211512,"lon":139.35702252},{"name":"あおぞらみんな食堂","province":"東京都","city":"昭島市","address":"東京都昭島市郷地町2丁目20-24","lat":35.69716746,"lon":139.3854093},{"name":"あのねの会あのね食堂","province":"東京都","city":"昭島市","address":"東京都昭島市宮沢町512-13","lat":35.71400132,"lon":139.37351825},{"name":"子ども料理ひろば","province":"東京都","city":"昭島市","address":"東京都昭島市玉川町5丁目13-13","lat":35.7030138,"lon":139.37706542},{"name":"昭島子ども食堂みほりん広場","province":"東京都","city":"昭島市","address":"東京都昭島市拝島町3926-11","lat":35.72095295,"lon":139.35638069},{"name":"そうしんホール昭島","province":"東京都","city":"昭島市","address":"東京都昭島市武蔵野3丁目5-1","lat":35.71971183,"lon":139.37585683},{"name":"株式会社おぼうさんどっとこむ","province":"東京都","city":"昭島市","address":"東京都昭島市中神町1135-47","lat":35.71175989,"lon":139.37259061},{"name":"JA東京葬祭センター","province":"東京都","city":"昭島市","address":"東京都昭島市中神町3丁目1-1","lat":35.6966812,"lon":139.37542966},{"name":"（株）おぼうさんどっとこむ","province":"東京都","city":"昭島市","address":"東京都昭島市中神町1135-47","lat":35.71175989,"lon":139.37259061},{"name":"昭島市公民館","province":"東京都","city":"昭島市","address":"昭島市つつじが丘3-7-7","lat":35.713268,"lon":139.365662},{"name":"青少年交流センター","province":"東京都","city":"昭島市","address":"昭島市昭和町1-6-11","lat":35.711323,"lon":139.365646},{"name":"市民図書館","province":"東京都","city":"昭島市","address":"昭島市東町2-6-33","lat":35.704556,"lon":139.386047},{"name":"昭島市民図書館つつじが丘分室","province":"東京都","city":"昭島市","address":"昭島市つつじが丘3-1-30","lat":35.714115,"lon":139.369476},{"name":"昭島市民図書館やまのかみ分室","province":"東京都","city":"昭島市","address":"昭島市拝島町3-10-3","lat":35.710747,"lon":139.334442},{"name":"昭島市民図書館昭和分館","province":"東京都","city":"昭島市","address":"昭島市松原町1-2-25","lat":35.713104,"lon":139.357727},{"name":"昭島市民図書館緑分館","province":"東京都","city":"昭島市","address":"昭島市緑町4-13-26","lat":35.713974,"lon":139.343887},{"name":"やまのかみ会館","province":"東京都","city":"昭島市","address":"昭島市拝島町3-10-3","lat":35.710747,"lon":139.334442},{"name":"玉川会館","province":"東京都","city":"昭島市","address":"昭島市玉川町3-10-15","lat":35.70372,"lon":139.382126},{"name":"昭和分館","province":"東京都","city":"昭島市","address":"昭島市松原町1-2-25","lat":35.713104,"lon":139.357727},{"name":"大神会館","province":"東京都","city":"昭島市","address":"昭島市大神町3-10-5","lat":35.700539,"lon":139.360779},{"name":"朝日会館","province":"東京都","city":"昭島市","address":"昭島市朝日町5-6-20","lat":35.704994,"lon":139.372787},{"name":"拝島会館","province":"東京都","city":"昭島市","address":"昭島市拝島町2-4-13","lat":35.707211,"lon":139.342468},{"name":"富士見会館","province":"東京都","city":"昭島市","address":"昭島市中神町1282","lat":35.710323,"lon":139.382996},{"name":"武蔵野会館","province":"東京都","city":"昭島市","address":"昭島市中神町1172-1","lat":35.711452,"lon":139.375153},{"name":"福島会館","province":"東京都","city":"昭島市","address":"昭島市福島町1-19-1","lat":35.696285,"lon":139.380478},{"name":"堀向会館","province":"東京都","city":"昭島市","address":"昭島市美堀町2-6-11","lat":35.723099,"lon":139.363647},{"name":"緑会館","province":"東京都","city":"昭島市","address":"昭島市緑町4-13-26","lat":35.713974,"lon":139.343887},{"name":"JA全農東京JA東京葬祭センター（源想園昭島葬儀会館）","province":"東京都","city":"昭島市","address":"東京都昭島市中神町3丁目1-1","lat":35.6966812,"lon":139.37542966},{"name":"株式会社セレモア（ガーデン会館昭島）","province":"東京都","city":"昭島市","address":"東京都昭島市玉川町2丁目4-12","lat":35.70655788,"lon":139.37958173},{"name":"株式会社ドリーミー","province":"東京都","city":"昭島市","address":"東京都昭島市田中町1丁目27-15","lat":35.7054492,"lon":139.35437846},{"name":"株式会社あさひセレモニー","province":"東京都","city":"昭島市","address":"東京都昭島市玉川町4丁目1-10","lat":35.70555248,"lon":139.38102051},{"name":"株式会社東京サービスセンター（セレモニーホール昭島）","province":"東京都","city":"昭島市","address":"東京都昭島市宮沢町1丁目7-2","lat":35.70616044,"lon":139.36649129},{"name":"株式会社村尾組（そうしんホール昭島）","province":"東京都","city":"昭島市","address":"東京都昭島市武蔵野3丁目5-1","lat":35.71971183,"lon":139.37585683},{"name":"株式会社結セレモニー（くじら葬祭）","province":"東京都","city":"昭島市","address":"東京都昭島市福島町3丁目23-28","lat":35.69637846,"lon":139.37589906},{"name":"あきしまこどもクッキング","province":"東京都","city":"昭島市","address":"東京都昭島市つつじが丘3丁目7-7","lat":35.71352901,"lon":139.36620781},{"name":"たまりば☆ぬくぬく","province":"東京都","city":"昭島市","address":"東京都昭島市松原町1丁目3-10","lat":35.71211512,"lon":139.35702252},{"name":"あおぞらみんな食堂","province":"東京都","city":"昭島市","address":"東京都昭島市郷地町2丁目20-24","lat":35.69716746,"lon":139.3854093},{"name":"あのねの会あのね食堂","province":"東京都","city":"昭島市","address":"東京都昭島市宮沢町512-13","lat":35.71400132,"lon":139.37351825},{"name":"子ども料理ひろば","province":"東京都","city":"昭島市","address":"東京都昭島市玉川町5丁目13-13","lat":35.7030138,"lon":139.37706542},{"name":"昭島子ども食堂みほりん広場","province":"東京都","city":"昭島市","address":"東京都昭島市拝島町3926-11","lat":35.72095295,"lon":139.35638069},{"name":"そうしんホール昭島","province":"東京都","city":"昭島市","address":"東京都昭島市武蔵野3丁目5-1","lat":35.71971183,"lon":139.37585683},{"name":"株式会社おぼうさんどっとこむ","province":"東京都","city":"昭島市","address":"東京都昭島市中神町1135-47","lat":35.71175989,"lon":139.37259061},{"name":"JA東京葬祭センター","province":"東京都","city":"昭島市","address":"東京都昭島市中神町3丁目1-1","lat":35.6966812,"lon":139.37542966},{"name":"（株）おぼうさんどっとこむ","province":"東京都","city":"昭島市","address":"東京都昭島市中神町1135-47","lat":35.71175989,"lon":139.37259061},{"name":"昭島市公民館","province":"東京都","city":"昭島市","address":"昭島市つつじが丘3-7-7","lat":35.713268,"lon":139.365662},{"name":"青少年交流センター","province":"東京都","city":"昭島市","address":"昭島市昭和町1-6-11","lat":35.711323,"lon":139.365646},{"name":"市民図書館","province":"東京都","city":"昭島市","address":"昭島市東町2-6-33","lat":35.704556,"lon":139.386047},{"name":"昭島市民図書館つつじが丘分室","province":"東京都","city":"昭島市","address":"昭島市つつじが丘3-1-30","lat":35.714115,"lon":139.369476},{"name":"昭島市民図書館やまのかみ分室","province":"東京都","city":"昭島市","address":"昭島市拝島町3-10-3","lat":35.710747,"lon":139.334442},{"name":"昭島市民図書館昭和分館","province":"東京都","city":"昭島市","address":"昭島市松原町1-2-25","lat":35.713104,"lon":139.357727},{"name":"昭島市民図書館緑分館","province":"東京都","city":"昭島市","address":"昭島市緑町4-13-26","lat":35.713974,"lon":139.343887},{"name":"やまのかみ会館","province":"東京都","city":"昭島市","address":"昭島市拝島町3-10-3","lat":35.710747,"lon":139.334442},{"name":"玉川会館","province":"東京都","city":"昭島市","address":"昭島市玉川町3-10-15","lat":35.70372,"lon":139.382126},{"name":"昭和分館","province":"東京都","city":"昭島市","address":"昭島市松原町1-2-25","lat":35.713104,"lon":139.357727},{"name":"大神会館","province":"東京都","city":"昭島市","address":"昭島市大神町3-10-5","lat":35.700539,"lon":139.360779},{"name":"朝日会館","province":"東京都","city":"昭島市","address":"昭島市朝日町5-6-20","lat":35.704994,"lon":139.372787},{"name":"拝島会館","province":"東京都","city":"昭島市","address":"昭島市拝島町2-4-13","lat":35.707211,"lon":139.342468},{"name":"富士見会館","province":"東京都","city":"昭島市","address":"昭島市中神町1282","lat":35.710323,"lon":139.382996},{"name":"武蔵野会館","province":"東京都","city":"昭島市","address":"昭島市中神町1172-1","lat":35.711452,"lon":139.375153},{"name":"福島会館","province":"東京都","city":"昭島市","address":"昭島市福島町1-19-1","lat":35.696285,"lon":139.380478},{"name":"堀向会館","province":"東京都","city":"昭島市","address":"昭島市美堀町2-6-11","lat":35.723099,"lon":139.363647},{"name":"緑会館","province":"東京都","city":"昭島市","address":"昭島市緑町4-13-26","lat":35.713974,"lon":139.343887}]}