{"keyword":"構築","data":[{"name":"中神駅入口","province":"東京都","city":"昭島市","address":"東京都昭島市朝日町3丁目6-1","lat":35.70723827,"lon":139.37555433},{"name":"拝島郵便局前","province":"東京都","city":"昭島市","address":"東京都昭島市拝島町2丁目8-11","lat":35.70826805,"lon":139.34027673},{"name":"昭島文化地区","province":"東京都","city":"昭島市","address":"東京都昭島市中神町1157","lat":35.71204326,"lon":139.37613747},{"name":"昭島市民図書館前","province":"東京都","city":"昭島市","address":"東京都昭島市東町2丁目6-33","lat":35.70546647,"lon":139.3851868},{"name":"昭島昭和町四丁目","province":"東京都","city":"昭島市","address":"東京都昭島市昭和町4丁目7-19","lat":35.71119312,"lon":139.36371919},{"name":"馬頭観音前","province":"東京都","city":"昭島市","address":"東京都昭島市朝日町3丁目1","lat":35.70625228,"lon":139.3758932},{"name":"昭島駅南口","province":"東京都","city":"昭島市","address":"東京都昭島市昭和町2丁目4","lat":35.71301785,"lon":139.36052498},{"name":"昭島駅北口","province":"東京都","city":"昭島市","address":"東京都昭島市田中町584-14","lat":35.7152176,"lon":139.36123598},{"name":"昭島市民会館西第二","province":"東京都","city":"昭島市","address":"東京都昭島市田中町562","lat":35.71341783,"lon":139.3620804},{"name":"昭島市役所中央第一","province":"東京都","city":"昭島市","address":"東京都昭島市田中町1丁目27","lat":35.70512424,"lon":139.3544729},{"name":"昭島十二神社南","province":"東京都","city":"昭島市","address":"東京都昭島市玉川町5丁目6","lat":35.7032999,"lon":139.37779867},{"name":"東部配水場","province":"東京都","city":"昭島市","address":"東京都昭島市朝日町4丁目23-28","lat":35.70855468,"lon":139.37011036},{"name":"昭島市保健福祉センター","province":"東京都","city":"昭島市","address":"東京都昭島市昭和町4丁目7-1","lat":35.71083484,"lon":139.36412472},{"name":"昭島警察署","province":"東京都","city":"昭島市","address":"昭島市上川原町1-1-1","lat":35.70894,"lon":139.3637},{"name":"昭島消防署","province":"東京都","city":"昭島市","address":"昭島市松原町1-14-1","lat":35.71423,"lon":139.3543},{"name":"立川酸素（株）","province":"東京都","city":"昭島市","address":"昭島市福島町2-28-20","lat":35.69772,"lon":139.3792},{"name":"昭島市清掃センター","province":"東京都","city":"昭島市","address":"昭島市田中町4-3-14","lat":35.69368,"lon":139.3479},{"name":"中神駅入口","province":"東京都","city":"昭島市","address":"東京都昭島市朝日町3丁目6-1","lat":35.70723827,"lon":139.37555433},{"name":"拝島郵便局前","province":"東京都","city":"昭島市","address":"東京都昭島市拝島町2丁目8-11","lat":35.70826805,"lon":139.34027673},{"name":"昭島文化地区","province":"東京都","city":"昭島市","address":"東京都昭島市中神町1157","lat":35.71204326,"lon":139.37613747},{"name":"昭島市民図書館前","province":"東京都","city":"昭島市","address":"東京都昭島市東町2丁目6-33","lat":35.70546647,"lon":139.3851868},{"name":"昭島昭和町四丁目","province":"東京都","city":"昭島市","address":"東京都昭島市昭和町4丁目7-19","lat":35.71119312,"lon":139.36371919},{"name":"馬頭観音前","province":"東京都","city":"昭島市","address":"東京都昭島市朝日町3丁目1","lat":35.70625228,"lon":139.3758932},{"name":"昭島駅南口","province":"東京都","city":"昭島市","address":"東京都昭島市昭和町2丁目4","lat":35.71301785,"lon":139.36052498},{"name":"昭島駅北口","province":"東京都","city":"昭島市","address":"東京都昭島市田中町584-14","lat":35.7152176,"lon":139.36123598},{"name":"昭島市民会館西第二","province":"東京都","city":"昭島市","address":"東京都昭島市田中町562","lat":35.71341783,"lon":139.3620804},{"name":"昭島市役所中央第一","province":"東京都","city":"昭島市","address":"東京都昭島市田中町1丁目27","lat":35.70512424,"lon":139.3544729},{"name":"昭島十二神社南","province":"東京都","city":"昭島市","address":"東京都昭島市玉川町5丁目6","lat":35.7032999,"lon":139.37779867},{"name":"東部配水場","province":"東京都","city":"昭島市","address":"東京都昭島市朝日町4丁目23-28","lat":35.70855468,"lon":139.37011036},{"name":"昭島市保健福祉センター","province":"東京都","city":"昭島市","address":"東京都昭島市昭和町4丁目7-1","lat":35.71083484,"lon":139.36412472},{"name":"昭島警察署","province":"東京都","city":"昭島市","address":"昭島市上川原町1-1-1","lat":35.70894,"lon":139.3637},{"name":"昭島消防署","province":"東京都","city":"昭島市","address":"昭島市松原町1-14-1","lat":35.71423,"lon":139.3543},{"name":"立川酸素（株）","province":"東京都","city":"昭島市","address":"昭島市福島町2-28-20","lat":35.69772,"lon":139.3792},{"name":"中神駅入口","province":"東京都","city":"昭島市","address":"東京都昭島市朝日町3丁目6-1","lat":35.70723827,"lon":139.37555433},{"name":"拝島郵便局前","province":"東京都","city":"昭島市","address":"東京都昭島市拝島町2丁目8-11","lat":35.70826805,"lon":139.34027673},{"name":"昭島文化地区","province":"東京都","city":"昭島市","address":"東京都昭島市中神町1157","lat":35.71204326,"lon":139.37613747},{"name":"昭島市民図書館前","province":"東京都","city":"昭島市","address":"東京都昭島市東町2丁目6-33","lat":35.70546647,"lon":139.3851868},{"name":"昭島昭和町四丁目","province":"東京都","city":"昭島市","address":"東京都昭島市昭和町4丁目7-19","lat":35.71119312,"lon":139.36371919},{"name":"馬頭観音前","province":"東京都","city":"昭島市","address":"東京都昭島市朝日町3丁目1","lat":35.70625228,"lon":139.3758932},{"name":"昭島駅南口","province":"東京都","city":"昭島市","address":"東京都昭島市昭和町2丁目4","lat":35.71301785,"lon":139.36052498},{"name":"昭島駅北口","province":"東京都","city":"昭島市","address":"東京都昭島市田中町584-14","lat":35.7152176,"lon":139.36123598},{"name":"昭島市民会館西第二","province":"東京都","city":"昭島市","address":"東京都昭島市田中町562","lat":35.71341783,"lon":139.3620804},{"name":"昭島市役所中央第一","province":"東京都","city":"昭島市","address":"東京都昭島市田中町1丁目27","lat":35.70512424,"lon":139.3544729},{"name":"昭島十二神社南","province":"東京都","city":"昭島市","address":"東京都昭島市玉川町5丁目6","lat":35.7032999,"lon":139.37779867},{"name":"東部配水場","province":"東京都","city":"昭島市","address":"東京都昭島市朝日町4丁目23-28","lat":35.70855468,"lon":139.37011036},{"name":"昭島市保健福祉センター","province":"東京都","city":"昭島市","address":"東京都昭島市昭和町4丁目7-1","lat":35.71083484,"lon":139.36412472},{"name":"昭島警察署","province":"東京都","city":"昭島市","address":"昭島市上川原町1-1-1","lat":35.70894,"lon":139.3637},{"name":"昭島消防署","province":"東京都","city":"昭島市","address":"昭島市松原町1-14-1","lat":35.71423,"lon":139.3543},{"name":"立川酸素（株）","province":"東京都","city":"昭島市","address":"昭島市福島町2-28-20","lat":35.69772,"lon":139.3792},{"name":"中神駅入口","province":"東京都","city":"昭島市","address":"東京都昭島市朝日町3丁目6-1","lat":35.70723827,"lon":139.37555433},{"name":"拝島郵便局前","province":"東京都","city":"昭島市","address":"東京都昭島市拝島町2丁目8-11","lat":35.70826805,"lon":139.34027673},{"name":"昭島文化地区","province":"東京都","city":"昭島市","address":"東京都昭島市中神町1157","lat":35.71204326,"lon":139.37613747},{"name":"昭島市民図書館前","province":"東京都","city":"昭島市","address":"東京都昭島市東町2丁目6-33","lat":35.70546647,"lon":139.3851868},{"name":"昭島昭和町四丁目","province":"東京都","city":"昭島市","address":"東京都昭島市昭和町4丁目7-19","lat":35.71119312,"lon":139.36371919},{"name":"馬頭観音前","province":"東京都","city":"昭島市","address":"東京都昭島市朝日町3丁目1","lat":35.70625228,"lon":139.3758932},{"name":"昭島駅南口","province":"東京都","city":"昭島市","address":"東京都昭島市昭和町2丁目4","lat":35.71301785,"lon":139.36052498},{"name":"昭島駅北口","province":"東京都","city":"昭島市","address":"東京都昭島市田中町584-14","lat":35.7152176,"lon":139.36123598},{"name":"昭島市民会館西第二","province":"東京都","city":"昭島市","address":"東京都昭島市田中町562","lat":35.71341783,"lon":139.3620804},{"name":"昭島市役所中央第一","province":"東京都","city":"昭島市","address":"東京都昭島市田中町1丁目27","lat":35.70512424,"lon":139.3544729},{"name":"昭島十二神社南","province":"東京都","city":"昭島市","address":"東京都昭島市玉川町5丁目6","lat":35.7032999,"lon":139.37779867},{"name":"東部配水場","province":"東京都","city":"昭島市","address":"東京都昭島市朝日町4丁目23-28","lat":35.70855468,"lon":139.37011036},{"name":"昭島市保健福祉センター","province":"東京都","city":"昭島市","address":"東京都昭島市昭和町4丁目7-1","lat":35.71083484,"lon":139.36412472},{"name":"昭島警察署","province":"東京都","city":"昭島市","address":"昭島市上川原町1-1-1","lat":35.70894,"lon":139.3637},{"name":"昭島消防署","province":"東京都","city":"昭島市","address":"昭島市松原町1-14-1","lat":35.71423,"lon":139.3543},{"name":"立川酸素（株）","province":"東京都","city":"昭島市","address":"昭島市福島町2-28-20","lat":35.69772,"lon":139.3792},{"name":"中神駅入口","province":"東京都","city":"昭島市","address":"東京都昭島市朝日町3丁目6-1","lat":35.70723827,"lon":139.37555433},{"name":"拝島郵便局前","province":"東京都","city":"昭島市","address":"東京都昭島市拝島町2丁目8-11","lat":35.70826805,"lon":139.34027673},{"name":"昭島文化地区","province":"東京都","city":"昭島市","address":"東京都昭島市中神町1157","lat":35.71204326,"lon":139.37613747},{"name":"昭島市民図書館前","province":"東京都","city":"昭島市","address":"東京都昭島市東町2丁目6-33","lat":35.70546647,"lon":139.3851868},{"name":"昭島昭和町四丁目","province":"東京都","city":"昭島市","address":"東京都昭島市昭和町4丁目7-19","lat":35.71119312,"lon":139.36371919},{"name":"馬頭観音前","province":"東京都","city":"昭島市","address":"東京都昭島市朝日町3丁目1","lat":35.70625228,"lon":139.3758932},{"name":"昭島駅南口","province":"東京都","city":"昭島市","address":"東京都昭島市昭和町2丁目4","lat":35.71301785,"lon":139.36052498},{"name":"昭島駅北口","province":"東京都","city":"昭島市","address":"東京都昭島市田中町584-14","lat":35.7152176,"lon":139.36123598},{"name":"昭島市民会館西第二","province":"東京都","city":"昭島市","address":"東京都昭島市田中町562","lat":35.71341783,"lon":139.3620804},{"name":"昭島市役所中央第一","province":"東京都","city":"昭島市","address":"東京都昭島市田中町1丁目27","lat":35.70512424,"lon":139.3544729},{"name":"昭島十二神社南","province":"東京都","city":"昭島市","address":"東京都昭島市玉川町5丁目6","lat":35.7032999,"lon":139.37779867},{"name":"東部配水場","province":"東京都","city":"昭島市","address":"東京都昭島市朝日町4丁目23-28","lat":35.70855468,"lon":139.37011036},{"name":"昭島市保健福祉センター","province":"東京都","city":"昭島市","address":"東京都昭島市昭和町4丁目7-1","lat":35.71083484,"lon":139.36412472},{"name":"昭島警察署","province":"東京都","city":"昭島市","address":"昭島市上川原町1-1-1","lat":35.70894,"lon":139.3637},{"name":"昭島消防署","province":"東京都","city":"昭島市","address":"昭島市松原町1-14-1","lat":35.71423,"lon":139.3543},{"name":"立川酸素（株）","province":"東京都","city":"昭島市","address":"昭島市福島町2-28-20","lat":35.69772,"lon":139.3792},{"name":"中神駅入口","province":"東京都","city":"昭島市","address":"東京都昭島市朝日町3丁目6-1","lat":35.70723827,"lon":139.37555433},{"name":"拝島郵便局前","province":"東京都","city":"昭島市","address":"東京都昭島市拝島町2丁目8-11","lat":35.70826805,"lon":139.34027673},{"name":"昭島文化地区","province":"東京都","city":"昭島市","address":"東京都昭島市中神町1157","lat":35.71204326,"lon":139.37613747},{"name":"昭島市民図書館前","province":"東京都","city":"昭島市","address":"東京都昭島市東町2丁目6-33","lat":35.70546647,"lon":139.3851868},{"name":"昭島昭和町四丁目","province":"東京都","city":"昭島市","address":"東京都昭島市昭和町4丁目7-19","lat":35.71119312,"lon":139.36371919},{"name":"馬頭観音前","province":"東京都","city":"昭島市","address":"東京都昭島市朝日町3丁目1","lat":35.70625228,"lon":139.3758932},{"name":"昭島駅南口","province":"東京都","city":"昭島市","address":"東京都昭島市昭和町2丁目4","lat":35.71301785,"lon":139.36052498},{"name":"昭島駅北口","province":"東京都","city":"昭島市","address":"東京都昭島市田中町584-14","lat":35.7152176,"lon":139.36123598},{"name":"昭島市民会館西第二","province":"東京都","city":"昭島市","address":"東京都昭島市田中町562","lat":35.71341783,"lon":139.3620804},{"name":"昭島市役所中央第一","province":"東京都","city":"昭島市","address":"東京都昭島市田中町1丁目27","lat":35.70512424,"lon":139.3544729},{"name":"昭島十二神社南","province":"東京都","city":"昭島市","address":"東京都昭島市玉川町5丁目6","lat":35.7032999,"lon":139.37779867},{"name":"東部配水場","province":"東京都","city":"昭島市","address":"東京都昭島市朝日町4丁目23-28","lat":35.70855468,"lon":139.37011036},{"name":"昭島市保健福祉センター","province":"東京都","city":"昭島市","address":"東京都昭島市昭和町4丁目7-1","lat":35.71083484,"lon":139.36412472},{"name":"昭島警察署","province":"東京都","city":"昭島市","address":"昭島市上川原町1-1-1","lat":35.70894,"lon":139.3637},{"name":"昭島消防署","province":"東京都","city":"昭島市","address":"昭島市松原町1-14-1","lat":35.71423,"lon":139.3543},{"name":"立川酸素（株）","province":"東京都","city":"昭島市","address":"昭島市福島町2-28-20","lat":35.69772,"lon":139.3792},{"name":"中神駅入口","province":"東京都","city":"昭島市","address":"東京都昭島市朝日町3丁目6-1","lat":35.70723827,"lon":139.37555433},{"name":"拝島郵便局前","province":"東京都","city":"昭島市","address":"東京都昭島市拝島町2丁目8-11","lat":35.70826805,"lon":139.34027673},{"name":"昭島文化地区","province":"東京都","city":"昭島市","address":"東京都昭島市中神町1157","lat":35.71204326,"lon":139.37613747},{"name":"昭島市民図書館前","province":"東京都","city":"昭島市","address":"東京都昭島市東町2丁目6-33","lat":35.70546647,"lon":139.3851868},{"name":"昭島昭和町四丁目","province":"東京都","city":"昭島市","address":"東京都昭島市昭和町4丁目7-19","lat":35.71119312,"lon":139.36371919},{"name":"馬頭観音前","province":"東京都","city":"昭島市","address":"東京都昭島市朝日町3丁目1","lat":35.70625228,"lon":139.3758932},{"name":"昭島駅南口","province":"東京都","city":"昭島市","address":"東京都昭島市昭和町2丁目4","lat":35.71301785,"lon":139.36052498},{"name":"昭島駅北口","province":"東京都","city":"昭島市","address":"東京都昭島市田中町584-14","lat":35.7152176,"lon":139.36123598},{"name":"昭島市民会館西第二","province":"東京都","city":"昭島市","address":"東京都昭島市田中町562","lat":35.71341783,"lon":139.3620804},{"name":"昭島市役所中央第一","province":"東京都","city":"昭島市","address":"東京都昭島市田中町1丁目27","lat":35.70512424,"lon":139.3544729},{"name":"昭島十二神社南","province":"東京都","city":"昭島市","address":"東京都昭島市玉川町5丁目6","lat":35.7032999,"lon":139.37779867},{"name":"東部配水場","province":"東京都","city":"昭島市","address":"東京都昭島市朝日町4丁目23-28","lat":35.70855468,"lon":139.37011036},{"name":"昭島市保健福祉センター","province":"東京都","city":"昭島市","address":"東京都昭島市昭和町4丁目7-1","lat":35.71083484,"lon":139.36412472},{"name":"昭島警察署","province":"東京都","city":"昭島市","address":"昭島市上川原町1-1-1","lat":35.70894,"lon":139.3637},{"name":"昭島消防署","province":"東京都","city":"昭島市","address":"昭島市松原町1-14-1","lat":35.71423,"lon":139.3543},{"name":"立川酸素（株）","province":"東京都","city":"昭島市","address":"昭島市福島町2-28-20","lat":35.69772,"lon":139.3792},{"name":"中神駅入口","province":"東京都","city":"昭島市","address":"東京都昭島市朝日町3丁目6-1","lat":35.70723827,"lon":139.37555433},{"name":"拝島郵便局前","province":"東京都","city":"昭島市","address":"東京都昭島市拝島町2丁目8-11","lat":35.70826805,"lon":139.34027673},{"name":"昭島文化地区","province":"東京都","city":"昭島市","address":"東京都昭島市中神町1157","lat":35.71204326,"lon":139.37613747},{"name":"昭島市民図書館前","province":"東京都","city":"昭島市","address":"東京都昭島市東町2丁目6-33","lat":35.70546647,"lon":139.3851868},{"name":"昭島昭和町四丁目","province":"東京都","city":"昭島市","address":"東京都昭島市昭和町4丁目7-19","lat":35.71119312,"lon":139.36371919},{"name":"馬頭観音前","province":"東京都","city":"昭島市","address":"東京都昭島市朝日町3丁目1","lat":35.70625228,"lon":139.3758932},{"name":"昭島駅南口","province":"東京都","city":"昭島市","address":"東京都昭島市昭和町2丁目4","lat":35.71301785,"lon":139.36052498},{"name":"昭島駅北口","province":"東京都","city":"昭島市","address":"東京都昭島市田中町584-14","lat":35.7152176,"lon":139.36123598},{"name":"昭島市民会館西第二","province":"東京都","city":"昭島市","address":"東京都昭島市田中町562","lat":35.71341783,"lon":139.3620804},{"name":"昭島市役所中央第一","province":"東京都","city":"昭島市","address":"東京都昭島市田中町1丁目27","lat":35.70512424,"lon":139.3544729},{"name":"昭島十二神社南","province":"東京都","city":"昭島市","address":"東京都昭島市玉川町5丁目6","lat":35.7032999,"lon":139.37779867},{"name":"東部配水場","province":"東京都","city":"昭島市","address":"東京都昭島市朝日町4丁目23-28","lat":35.70855468,"lon":139.37011036},{"name":"昭島市保健福祉センター","province":"東京都","city":"昭島市","address":"東京都昭島市昭和町4丁目7-1","lat":35.71083484,"lon":139.36412472},{"name":"昭島警察署","province":"東京都","city":"昭島市","address":"昭島市上川原町1-1-1","lat":35.70894,"lon":139.3637},{"name":"昭島消防署","province":"東京都","city":"昭島市","address":"昭島市松原町1-14-1","lat":35.71423,"lon":139.3543},{"name":"立川酸素（株）","province":"東京都","city":"昭島市","address":"昭島市福島町2-28-20","lat":35.69772,"lon":139.3792},{"name":"中神駅入口","province":"東京都","city":"昭島市","address":"東京都昭島市朝日町3丁目6-1","lat":35.70723827,"lon":139.37555433},{"name":"拝島郵便局前","province":"東京都","city":"昭島市","address":"東京都昭島市拝島町2丁目8-11","lat":35.70826805,"lon":139.34027673},{"name":"昭島文化地区","province":"東京都","city":"昭島市","address":"東京都昭島市中神町1157","lat":35.71204326,"lon":139.37613747},{"name":"昭島市民図書館前","province":"東京都","city":"昭島市","address":"東京都昭島市東町2丁目6-33","lat":35.70546647,"lon":139.3851868},{"name":"昭島昭和町四丁目","province":"東京都","city":"昭島市","address":"東京都昭島市昭和町4丁目7-19","lat":35.71119312,"lon":139.36371919},{"name":"馬頭観音前","province":"東京都","city":"昭島市","address":"東京都昭島市朝日町3丁目1","lat":35.70625228,"lon":139.3758932},{"name":"昭島駅南口","province":"東京都","city":"昭島市","address":"東京都昭島市昭和町2丁目4","lat":35.71301785,"lon":139.36052498},{"name":"昭島駅北口","province":"東京都","city":"昭島市","address":"東京都昭島市田中町584-14","lat":35.7152176,"lon":139.36123598},{"name":"昭島市民会館西第二","province":"東京都","city":"昭島市","address":"東京都昭島市田中町562","lat":35.71341783,"lon":139.3620804},{"name":"昭島市役所中央第一","province":"東京都","city":"昭島市","address":"東京都昭島市田中町1丁目27","lat":35.70512424,"lon":139.3544729},{"name":"昭島十二神社南","province":"東京都","city":"昭島市","address":"東京都昭島市玉川町5丁目6","lat":35.7032999,"lon":139.37779867},{"name":"東部配水場","province":"東京都","city":"昭島市","address":"東京都昭島市朝日町4丁目23-28","lat":35.70855468,"lon":139.37011036},{"name":"昭島市保健福祉センター","province":"東京都","city":"昭島市","address":"東京都昭島市昭和町4丁目7-1","lat":35.71083484,"lon":139.36412472},{"name":"昭島警察署","province":"東京都","city":"昭島市","address":"昭島市上川原町1-1-1","lat":35.70894,"lon":139.3637},{"name":"昭島消防署","province":"東京都","city":"昭島市","address":"昭島市松原町1-14-1","lat":35.71423,"lon":139.3543},{"name":"立川酸素（株）","province":"東京都","city":"昭島市","address":"昭島市福島町2-28-20","lat":35.69772,"lon":139.3792},{"name":"中神駅入口","province":"東京都","city":"昭島市","address":"東京都昭島市朝日町3丁目6-1","lat":35.70723827,"lon":139.37555433},{"name":"拝島郵便局前","province":"東京都","city":"昭島市","address":"東京都昭島市拝島町2丁目8-11","lat":35.70826805,"lon":139.34027673},{"name":"昭島文化地区","province":"東京都","city":"昭島市","address":"東京都昭島市中神町1157","lat":35.71204326,"lon":139.37613747},{"name":"昭島市民図書館前","province":"東京都","city":"昭島市","address":"東京都昭島市東町2丁目6-33","lat":35.70546647,"lon":139.3851868},{"name":"昭島昭和町四丁目","province":"東京都","city":"昭島市","address":"東京都昭島市昭和町4丁目7-19","lat":35.71119312,"lon":139.36371919},{"name":"馬頭観音前","province":"東京都","city":"昭島市","address":"東京都昭島市朝日町3丁目1","lat":35.70625228,"lon":139.3758932},{"name":"昭島駅南口","province":"東京都","city":"昭島市","address":"東京都昭島市昭和町2丁目4","lat":35.71301785,"lon":139.36052498},{"name":"昭島駅北口","province":"東京都","city":"昭島市","address":"東京都昭島市田中町584-14","lat":35.7152176,"lon":139.36123598},{"name":"昭島市民会館西第二","province":"東京都","city":"昭島市","address":"東京都昭島市田中町562","lat":35.71341783,"lon":139.3620804},{"name":"昭島市役所中央第一","province":"東京都","city":"昭島市","address":"東京都昭島市田中町1丁目27","lat":35.70512424,"lon":139.3544729},{"name":"昭島十二神社南","province":"東京都","city":"昭島市","address":"東京都昭島市玉川町5丁目6","lat":35.7032999,"lon":139.37779867},{"name":"東部配水場","province":"東京都","city":"昭島市","address":"東京都昭島市朝日町4丁目23-28","lat":35.70855468,"lon":139.37011036},{"name":"昭島市保健福祉センター","province":"東京都","city":"昭島市","address":"東京都昭島市昭和町4丁目7-1","lat":35.71083484,"lon":139.36412472},{"name":"昭島警察署","province":"東京都","city":"昭島市","address":"昭島市上川原町1-1-1","lat":35.70894,"lon":139.3637},{"name":"昭島消防署","province":"東京都","city":"昭島市","address":"昭島市松原町1-14-1","lat":35.71423,"lon":139.3543},{"name":"立川酸素（株）","province":"東京都","city":"昭島市","address":"昭島市福島町2-28-20","lat":35.69772,"lon":139.3792},{"name":"中神駅入口","province":"東京都","city":"昭島市","address":"東京都昭島市朝日町3丁目6-1","lat":35.70723827,"lon":139.37555433},{"name":"拝島郵便局前","province":"東京都","city":"昭島市","address":"東京都昭島市拝島町2丁目8-11","lat":35.70826805,"lon":139.34027673},{"name":"昭島文化地区","province":"東京都","city":"昭島市","address":"東京都昭島市中神町1157","lat":35.71204326,"lon":139.37613747},{"name":"昭島市民図書館前","province":"東京都","city":"昭島市","address":"東京都昭島市東町2丁目6-33","lat":35.70546647,"lon":139.3851868},{"name":"昭島昭和町四丁目","province":"東京都","city":"昭島市","address":"東京都昭島市昭和町4丁目7-19","lat":35.71119312,"lon":139.36371919},{"name":"馬頭観音前","province":"東京都","city":"昭島市","address":"東京都昭島市朝日町3丁目1","lat":35.70625228,"lon":139.3758932},{"name":"昭島駅南口","province":"東京都","city":"昭島市","address":"東京都昭島市昭和町2丁目4","lat":35.71301785,"lon":139.36052498},{"name":"昭島駅北口","province":"東京都","city":"昭島市","address":"東京都昭島市田中町584-14","lat":35.7152176,"lon":139.36123598},{"name":"昭島市民会館西第二","province":"東京都","city":"昭島市","address":"東京都昭島市田中町562","lat":35.71341783,"lon":139.3620804},{"name":"昭島市役所中央第一","province":"東京都","city":"昭島市","address":"東京都昭島市田中町1丁目27","lat":35.70512424,"lon":139.3544729},{"name":"昭島十二神社南","province":"東京都","city":"昭島市","address":"東京都昭島市玉川町5丁目6","lat":35.7032999,"lon":139.37779867},{"name":"東部配水場","province":"東京都","city":"昭島市","address":"東京都昭島市朝日町4丁目23-28","lat":35.70855468,"lon":139.37011036},{"name":"昭島市保健福祉センター","province":"東京都","city":"昭島市","address":"東京都昭島市昭和町4丁目7-1","lat":35.71083484,"lon":139.36412472},{"name":"昭島警察署","province":"東京都","city":"昭島市","address":"昭島市上川原町1-1-1","lat":35.70894,"lon":139.3637},{"name":"昭島消防署","province":"東京都","city":"昭島市","address":"昭島市松原町1-14-1","lat":35.71423,"lon":139.3543},{"name":"立川酸素（株）","province":"東京都","city":"昭島市","address":"昭島市福島町2-28-20","lat":35.69772,"lon":139.3792},{"name":"中神駅入口","province":"東京都","city":"昭島市","address":"東京都昭島市朝日町3丁目6-1","lat":35.70723827,"lon":139.37555433},{"name":"拝島郵便局前","province":"東京都","city":"昭島市","address":"東京都昭島市拝島町2丁目8-11","lat":35.70826805,"lon":139.34027673},{"name":"昭島文化地区","province":"東京都","city":"昭島市","address":"東京都昭島市中神町1157","lat":35.71204326,"lon":139.37613747},{"name":"昭島市民図書館前","province":"東京都","city":"昭島市","address":"東京都昭島市東町2丁目6-33","lat":35.70546647,"lon":139.3851868},{"name":"昭島昭和町四丁目","province":"東京都","city":"昭島市","address":"東京都昭島市昭和町4丁目7-19","lat":35.71119312,"lon":139.36371919},{"name":"馬頭観音前","province":"東京都","city":"昭島市","address":"東京都昭島市朝日町3丁目1","lat":35.70625228,"lon":139.3758932},{"name":"昭島駅南口","province":"東京都","city":"昭島市","address":"東京都昭島市昭和町2丁目4","lat":35.71301785,"lon":139.36052498},{"name":"昭島駅北口","province":"東京都","city":"昭島市","address":"東京都昭島市田中町584-14","lat":35.7152176,"lon":139.36123598},{"name":"昭島市民会館西第二","province":"東京都","city":"昭島市","address":"東京都昭島市田中町562","lat":35.71341783,"lon":139.3620804},{"name":"昭島市役所中央第一","province":"東京都","city":"昭島市","address":"東京都昭島市田中町1丁目27","lat":35.70512424,"lon":139.3544729},{"name":"昭島十二神社南","province":"東京都","city":"昭島市","address":"東京都昭島市玉川町5丁目6","lat":35.7032999,"lon":139.37779867},{"name":"東部配水場","province":"東京都","city":"昭島市","address":"東京都昭島市朝日町4丁目23-28","lat":35.70855468,"lon":139.37011036},{"name":"昭島市保健福祉センター","province":"東京都","city":"昭島市","address":"東京都昭島市昭和町4丁目7-1","lat":35.71083484,"lon":139.36412472},{"name":"昭島警察署","province":"東京都","city":"昭島市","address":"昭島市上川原町1-1-1","lat":35.70894,"lon":139.3637},{"name":"昭島消防署","province":"東京都","city":"昭島市","address":"昭島市松原町1-14-1","lat":35.71423,"lon":139.3543},{"name":"立川酸素（株）","province":"東京都","city":"昭島市","address":"昭島市福島町2-28-20","lat":35.69772,"lon":139.3792},{"name":"中神駅入口","province":"東京都","city":"昭島市","address":"東京都昭島市朝日町3丁目6-1","lat":35.70723827,"lon":139.37555433},{"name":"拝島郵便局前","province":"東京都","city":"昭島市","address":"東京都昭島市拝島町2丁目8-11","lat":35.70826805,"lon":139.34027673},{"name":"昭島文化地区","province":"東京都","city":"昭島市","address":"東京都昭島市中神町1157","lat":35.71204326,"lon":139.37613747},{"name":"昭島市民図書館前","province":"東京都","city":"昭島市","address":"東京都昭島市東町2丁目6-33","lat":35.70546647,"lon":139.3851868},{"name":"昭島昭和町四丁目","province":"東京都","city":"昭島市","address":"東京都昭島市昭和町4丁目7-19","lat":35.71119312,"lon":139.36371919},{"name":"馬頭観音前","province":"東京都","city":"昭島市","address":"東京都昭島市朝日町3丁目1","lat":35.70625228,"lon":139.3758932},{"name":"昭島駅南口","province":"東京都","city":"昭島市","address":"東京都昭島市昭和町2丁目4","lat":35.71301785,"lon":139.36052498},{"name":"昭島駅北口","province":"東京都","city":"昭島市","address":"東京都昭島市田中町584-14","lat":35.7152176,"lon":139.36123598},{"name":"昭島市民会館西第二","province":"東京都","city":"昭島市","address":"東京都昭島市田中町562","lat":35.71341783,"lon":139.3620804},{"name":"昭島市役所中央第一","province":"東京都","city":"昭島市","address":"東京都昭島市田中町1丁目27","lat":35.70512424,"lon":139.3544729},{"name":"昭島十二神社南","province":"東京都","city":"昭島市","address":"東京都昭島市玉川町5丁目6","lat":35.7032999,"lon":139.37779867},{"name":"東部配水場","province":"東京都","city":"昭島市","address":"東京都昭島市朝日町4丁目23-28","lat":35.70855468,"lon":139.37011036},{"name":"昭島市保健福祉センター","province":"東京都","city":"昭島市","address":"東京都昭島市昭和町4丁目7-1","lat":35.71083484,"lon":139.36412472},{"name":"昭島警察署","province":"東京都","city":"昭島市","address":"昭島市上川原町1-1-1","lat":35.70894,"lon":139.3637},{"name":"昭島消防署","province":"東京都","city":"昭島市","address":"昭島市松原町1-14-1","lat":35.71423,"lon":139.3543},{"name":"立川酸素（株）","province":"東京都","city":"昭島市","address":"昭島市福島町2-28-20","lat":35.69772,"lon":139.3792}]}