{"keyword":"男女","data":[{"name":"昭島市役所","province":"東京都","city":"昭島市","address":"東京都昭島市田中町1-17-1","lat":35.705706,"lon":139.353775},{"name":"昭島市保健福祉センター（あいぽっく）","province":"東京都","city":"昭島市","address":"東京都昭島市昭和町4-7-1","lat":35.71089,"lon":139.364088},{"name":"FOSTERホール（昭島市民会館）・公民館","province":"東京都","city":"昭島市","address":"東京都昭島市つつじが丘3-7-7","lat":35.713437,"lon":139.366187},{"name":"昭島市総合スポーツセンター","province":"東京都","city":"昭島市","address":"東京都昭島市東町5-13-1","lat":35.703334,"lon":139.38432},{"name":"玉川会館（東部出張所）","province":"東京都","city":"昭島市","address":"東京都昭島市玉川町3-10-15","lat":35.703703,"lon":139.382054},{"name":"朝日会館","province":"東京都","city":"昭島市","address":"東京都昭島市朝日町5-6-20","lat":35.705061,"lon":139.372835},{"name":"大神会館","province":"東京都","city":"昭島市","address":"東京都昭島市大神町3-10-5","lat":35.700742,"lon":139.360806},{"name":"拝島会館","province":"東京都","city":"昭島市","address":"東京都昭島市拝島町2-4-13","lat":35.707257,"lon":139.341968},{"name":"福島会館","province":"東京都","city":"昭島市","address":"東京都昭島市福島町1-19-1","lat":35.696753,"lon":139.381077},{"name":"昭和会館","province":"東京都","city":"昭島市","address":"東京都昭島市松原町1-2-25","lat":35.712896,"lon":139.357669},{"name":"緑会館","province":"東京都","city":"昭島市","address":"東京都昭島市緑町4-13-26","lat":35.714276,"lon":139.344637},{"name":"堀向会館","province":"東京都","city":"昭島市","address":"東京都昭島市美堀町2-6-11","lat":35.723174,"lon":139.363703},{"name":"富士見会館","province":"東京都","city":"昭島市","address":"東京都昭島市中神町1282","lat":35.712249,"lon":139.382554},{"name":"やまのかみ会館","province":"東京都","city":"昭島市","address":"東京都昭島市拝島町3-10-3","lat":35.710898,"lon":139.335471},{"name":"武蔵野会館","province":"東京都","city":"昭島市","address":"東京都昭島市中神町1172-1","lat":35.711183,"lon":139.375667},{"name":"松原町コミュニティセンター","province":"東京都","city":"昭島市","address":"東京都昭島市松原町1-3-10","lat":35.71206,"lon":139.356957},{"name":"児童センター「ぱれっと」","province":"東京都","city":"昭島市","address":"東京都昭島市つつじが丘2-3-21","lat":35.714301,"lon":139.367027},{"name":"勤労商工市民センター","province":"東京都","city":"昭島市","address":"東京都昭島市昭和町3-10-2","lat":35.707038,"lon":139.367005},{"name":"朝日町高齢者福祉センター","province":"東京都","city":"昭島市","address":"東京都昭島市朝日町4-5-9","lat":35.706258,"lon":139.37046},{"name":"松原町高齢者福祉センター","province":"東京都","city":"昭島市","address":"東京都昭島市松原町1-13-3","lat":35.714701,"lon":139.354453},{"name":"拝島町高齢者福祉センター","province":"東京都","city":"昭島市","address":"東京都昭島市拝島町3-10-4","lat":35.710487,"lon":139.335016},{"name":"青少年交流センター","province":"東京都","city":"昭島市","address":"東京都昭島市昭和町1-6-11","lat":35.711044,"lon":139.365627},{"name":"環境コミュニケーションセンター","province":"東京都","city":"昭島市","address":"東京都昭島市美堀町3-8-1","lat":35.723219,"lon":139.354547},{"name":"水道部","province":"東京都","city":"昭島市","address":"東京都昭島市朝日町4-23-28","lat":35.70873,"lon":139.370352},{"name":"アキシマエンシス（国際交流教養文化棟）","province":"東京都","city":"昭島市","address":"東京都昭島市つつじが丘3-3-15","lat":35.711714,"lon":139.36935},{"name":"アキシマエンシス（校舎棟）","province":"東京都","city":"昭島市","address":"東京都昭島市つつじが丘3-3-15","lat":35.712009,"lon":139.369303},{"name":"アキシマエンシス（体育館棟）","province":"東京都","city":"昭島市","address":"東京都昭島市つつじが丘3-3-15","lat":35.711743,"lon":139.368486},{"name":"よつぎ第四保育園","province":"東京都","city":"昭島市","address":"昭島市美堀町5-17-2","lat":35.720692,"lon":139.347484},{"name":"Ｎｉｃｏｔ拝島","province":"東京都","city":"昭島市","address":"昭島市美堀町5-21-1","lat":35.7188,"lon":139.345707},{"name":"拝島保育園","province":"東京都","city":"昭島市","address":"昭島市拝島町2-4-26","lat":35.707751,"lon":139.342227},{"name":"昭栄保育園","province":"東京都","city":"昭島市","address":"昭島市拝島町3-17-11","lat":35.713545,"lon":139.334819},{"name":"ゆりかご保育園","province":"東京都","city":"昭島市","address":"昭島市松原町2-9-2","lat":35.715481,"lon":139.351198},{"name":"松原保育園","province":"東京都","city":"昭島市","address":"昭島市松原町4-11-3","lat":35.719125,"lon":139.344382},{"name":"のぞみ保育園","province":"東京都","city":"昭島市","address":"昭島市松原町5-7-17","lat":35.717878,"lon":139.341662},{"name":"同援はいじま保育園","province":"東京都","city":"昭島市","address":"昭島市松原町5-2-25","lat":35.721083,"lon":139.341818},{"name":"なしのき保育園","province":"東京都","city":"昭島市","address":"昭島市上川原町1-23-1","lat":35.706149,"lon":139.361083},{"name":"あきみ保育園","province":"東京都","city":"昭島市","address":"昭島市上川原町1-10-18","lat":35.710102,"lon":139.361939},{"name":"つつじが丘保育園","province":"東京都","city":"昭島市","address":"昭島市つつじが丘3-6-23","lat":35.712274,"lon":139.366502},{"name":"昭島ゆりかご第二保育園","province":"東京都","city":"昭島市","address":"昭島市田中町3-5-20","lat":35.701891,"lon":139.350779},{"name":"上ノ原保育園","province":"東京都","city":"昭島市","address":"昭島市昭和町3-14-3","lat":35.708144,"lon":139.367158},{"name":"昭和郷保育園","province":"東京都","city":"昭島市","address":"昭島市中神町1260","lat":35.709385,"lon":139.382215},{"name":"昭和郷第二保育園","province":"東京都","city":"昭島市","address":"昭島市中神町1260","lat":35.709385,"lon":139.382215},{"name":"むさしの保育園","province":"東京都","city":"昭島市","address":"昭島市中神町1294-4","lat":35.713657,"lon":139.380523},{"name":"昭和保育園","province":"東京都","city":"昭島市","address":"昭島市宮沢町2-28-18","lat":35.700989,"lon":139.365536},{"name":"中神保育園","province":"東京都","city":"昭島市","address":"昭島市朝日町5-4-17","lat":35.70373,"lon":139.372935},{"name":"福島保育園","province":"東京都","city":"昭島市","address":"昭島市福島町1-18-8","lat":35.697192,"lon":139.381462},{"name":"多摩保育園","province":"東京都","city":"昭島市","address":"昭島市東町5-1-40","lat":35.702714,"lon":139.3886},{"name":"昭島ナオミ保育園","province":"東京都","city":"昭島市","address":"昭島市玉川町1-10-4","lat":35.705344,"lon":139.383209},{"name":"わかくさ保育園","province":"東京都","city":"昭島市","address":"昭島市玉川町5-15-26","lat":35.701886,"lon":139.374799},{"name":"キッズサポートてんとうむし","province":"東京都","city":"昭島市","address":"昭島市上川原町3-8-22","lat":35.708302,"lon":139.35957},{"name":"特定非営利活動法人昭島ひよこ教室","province":"東京都","city":"昭島市","address":"昭島市昭和町4-7-1","lat":35.710835,"lon":139.364125},{"name":"放課後等デイサービス　つむぐ　中神第２教室","province":"東京都","city":"昭島市","address":"昭島市中神町1228-20ミリューヴィラージュ106","lat":35.708858,"lon":139.37794},{"name":"放課後等デイサービス　つむぐ　中神教室","province":"東京都","city":"昭島市","address":"昭島市朝日町3-18-9大正第4ビル1階","lat":35.708124,"lon":139.373024},{"name":"脳を育てる運動療育センター　ピースマイル　中神教室","province":"東京都","city":"昭島市","address":"昭島市朝日町1-4-3SKビル2階B","lat":35.70806,"lon":139.375643},{"name":"ドリームボックス中神","province":"東京都","city":"昭島市","address":"昭島市玉川町2-4-11ヴェルシャトウ1階","lat":35.706738,"lon":139.378887},{"name":"昭島病院","province":"東京都","city":"昭島市","address":"昭島市中神町1260","lat":35.709385,"lon":139.382215},{"name":"昭島市保健福祉センター「あいぽっく」","province":"東京都","city":"昭島市","address":"昭島市昭和町4-7-1","lat":35.710835,"lon":139.364125},{"name":"東京都立多摩職業能力開発センター","province":"東京都","city":"昭島市","address":"東京都昭島市東町3丁目6-33","lat":35.699853,"lon":139.391648},{"name":"昭島消防署　昭和出張所","province":"東京都","city":"昭島市","address":"東京都昭島市もくせいの杜1丁目5-50","lat":35.704565,"lon":139.390765},{"name":"昭島市役所本庁舎","province":"東京都","city":"昭島市","address":"東京都昭島市田中町1丁目17-1","lat":35.705557,"lon":139.353714},{"name":"松原町コミュニティセンター","province":"東京都","city":"昭島市","address":"東京都昭島市松原町1丁目3-10","lat":35.712133,"lon":139.356987},{"name":"福島会館","province":"東京都","city":"昭島市","address":"東京都昭島市福島町1丁目19-1","lat":35.696739,"lon":139.381077},{"name":"玉川会館","province":"東京都","city":"昭島市","address":"東京都昭島市玉川町3丁目10-15","lat":35.703705,"lon":139.382079},{"name":"朝日会館","province":"東京都","city":"昭島市","address":"東京都昭島市朝日町5丁目6-20","lat":35.705033,"lon":139.372827},{"name":"堀向会館","province":"東京都","city":"昭島市","address":"東京都昭島市美堀町2丁目6-11","lat":35.723191,"lon":139.363738},{"name":"大神会館","province":"東京都","city":"昭島市","address":"東京都昭島市大神町3丁目10-5","lat":35.70074,"lon":139.360768},{"name":"昭和会館","province":"東京都","city":"昭島市","address":"東京都昭島市松原町1丁目2-25","lat":35.712913,"lon":139.357637},{"name":"緑会館","province":"東京都","city":"昭島市","address":"東京都昭島市緑町4丁目13-26","lat":35.714186,"lon":139.344595},{"name":"拝島会館","province":"東京都","city":"昭島市","address":"東京都昭島市拝島町2丁目4-13","lat":35.707333,"lon":139.342068},{"name":"武蔵野会館","province":"東京都","city":"昭島市","address":"東京都昭島市中神町1172-1","lat":35.711158,"lon":139.375798},{"name":"富士見会館","province":"東京都","city":"昭島市","address":"東京都昭島市中神町1282","lat":35.712311,"lon":139.382705},{"name":"やまのかみ会館","province":"東京都","city":"昭島市","address":"東京都昭島市拝島町3丁目10-3","lat":35.710871,"lon":139.335342},{"name":"KOTORIホール（昭島市民会館）","province":"東京都","city":"昭島市","address":"東京都昭島市つつじが丘3丁目7-7","lat":35.713346,"lon":139.365963},{"name":"KOTORIホール（昭島市民会館）","province":"東京都","city":"昭島市","address":"東京都昭島市つつじが丘3丁目7-7","lat":35.713759,"lon":139.366043},{"name":"KOTORIホール（昭島市民会館）","province":"東京都","city":"昭島市","address":"東京都昭島市つつじが丘3丁目7-7","lat":35.71335,"lon":139.366315},{"name":"昭島市立昭和公園","province":"東京都","city":"昭島市","address":"東京都昭島市東町5丁目2","lat":35.703172,"lon":139.387017},{"name":"昭島市立昭和公園","province":"東京都","city":"昭島市","address":"東京都昭島市東町5丁目11","lat":35.702166,"lon":139.386114},{"name":"昭島市立八清公園","province":"東京都","city":"昭島市","address":"東京都昭島市玉川町3丁目11","lat":35.703167,"lon":139.382511},{"name":"昭島市立中神公園","province":"東京都","city":"昭島市","address":"東京都昭島市朝日町3丁目10","lat":35.706837,"lon":139.373669},{"name":"昭島市立拝島公園","province":"東京都","city":"昭島市","address":"東京都昭島市拝島町1丁目10","lat":35.70534,"lon":139.346424},{"name":"昭島市立林ノ上公園","province":"東京都","city":"昭島市","address":"東京都昭島市緑町4丁目16","lat":35.71526,"lon":139.34379},{"name":"昭島市立田中町住宅第一公園","province":"東京都","city":"昭島市","address":"東京都昭島市田中町3丁目5","lat":35.702587,"lon":139.351484},{"name":"昭島市立上水南第一公園","province":"東京都","city":"昭島市","address":"東京都昭島市美堀町5丁目17","lat":35.720145,"lon":139.34771},{"name":"昭島市立つつじが丘公園","province":"東京都","city":"昭島市","address":"東京都昭島市つつじが丘3丁目1","lat":35.713897,"lon":139.370645},{"name":"昭島市立市民会館公園","province":"東京都","city":"昭島市","address":"東京都昭島市つつじが丘3丁目7","lat":35.712723,"lon":139.365531},{"name":"昭島市立北文化公園","province":"東京都","city":"昭島市","address":"東京都昭島市宮沢町","lat":35.715889,"lon":139.375554},{"name":"昭島市立日ノ出台公園","province":"東京都","city":"昭島市","address":"東京都昭島市武蔵野2丁目10","lat":35.722773,"lon":139.375171},{"name":"昭島市立美ノ宮公園","province":"東京都","city":"昭島市","address":"東京都昭島市武蔵野2丁目4","lat":35.720249,"lon":139.379718},{"name":"昭島市立朝日町いこい公園","province":"東京都","city":"昭島市","address":"東京都昭島市朝日町4丁目5","lat":35.706096,"lon":139.371041},{"name":"昭島市立上ノ台公園","province":"東京都","city":"昭島市","address":"東京都昭島市大神町2丁目4","lat":35.705747,"lon":139.356021},{"name":"昭島市立みほり広場","province":"東京都","city":"昭島市","address":"東京都昭島市美堀町3丁目3","lat":35.724444,"lon":139.35678},{"name":"昭島市立上水公園","province":"東京都","city":"昭島市","address":"東京都昭島市拝島町","lat":35.721162,"lon":139.356625},{"name":"昭島市立下林公園","province":"東京都","city":"昭島市","address":"東京都昭島市緑町2丁目13","lat":35.710009,"lon":139.346889},{"name":"昭島市立美堀町四丁目公園","province":"東京都","city":"昭島市","address":"東京都昭島市美堀町4丁目19","lat":35.716658,"lon":139.353487},{"name":"昭島市立清泉公園","province":"東京都","city":"昭島市","address":"東京都昭島市宮沢町1丁目10","lat":35.706528,"lon":139.36323},{"name":"昭島市立稲荷公園","province":"東京都","city":"昭島市","address":"東京都昭島市昭和町4丁目8","lat":35.71104,"lon":139.362702},{"name":"昭島市立緑ヶ丘公園","province":"東京都","city":"昭島市","address":"東京都昭島市緑町1丁目21","lat":35.712837,"lon":139.350802},{"name":"昭島市立やまのかみ公園","province":"東京都","city":"昭島市","address":"東京都昭島市拝島町3丁目10","lat":35.71131,"lon":139.334523},{"name":"昭島市立なごみ公園","province":"東京都","city":"昭島市","address":"東京都昭島市拝島町3丁目7","lat":35.710823,"lon":139.336517},{"name":"昭島市立美堀町一丁目かけはし公園","province":"東京都","city":"昭島市","address":"東京都昭島市美堀町1丁目4","lat":35.725105,"lon":139.367951},{"name":"昭島市立中神町二丁目児童遊園","province":"東京都","city":"昭島市","address":"東京都昭島市中神町2丁目26","lat":35.699261,"lon":139.372759},{"name":"昭島市立大神町四丁目児童遊園","province":"東京都","city":"昭島市","address":"東京都昭島市大神町4丁目25","lat":35.697285,"lon":139.359175},{"name":"昭島市立松原町三丁目児童遊園","province":"東京都","city":"昭島市","address":"東京都昭島市松原町3丁目11","lat":35.71754,"lon":139.344956},{"name":"昭島市立松原町児童遊園","province":"東京都","city":"昭島市","address":"東京都昭島市松原町5丁目9","lat":35.717171,"lon":139.341011},{"name":"昭島市立拝島町四丁目南児童遊園","province":"東京都","city":"昭島市","address":"東京都昭島市拝島町4丁目10","lat":35.700104,"lon":139.347126},{"name":"昭島市立宮沢文化児童遊園","province":"東京都","city":"昭島市","address":"東京都昭島市宮沢町","lat":35.714866,"lon":139.373732},{"name":"昭島市立松原町一丁目中児童遊園","province":"東京都","city":"昭島市","address":"東京都昭島市松原町1丁目1","lat":35.714846,"lon":139.355392},{"name":"昭島市立小荷田児童遊園","province":"東京都","city":"昭島市","address":"東京都昭島市緑町5丁目4","lat":35.71441,"lon":139.34168},{"name":"昭島市立むさしの公園","province":"東京都","city":"昭島市","address":"東京都昭島市もくせいの杜2丁目2","lat":35.718983,"lon":139.386215},{"name":"昭島市立美堀町一丁目ほほえみ公園","province":"東京都","city":"昭島市","address":"東京都昭島市美堀町1丁目2","lat":35.724487,"lon":139.369252},{"name":"昭島市エコ・パーク","province":"東京都","city":"昭島市","address":"東京都昭島市美堀町3丁目16","lat":35.722904,"lon":139.35286},{"name":"昭島市エコ・パーク","province":"東京都","city":"昭島市","address":"東京都昭島市美堀町3丁目16","lat":35.721793,"lon":139.353191},{"name":"昭島市エコ・パーク","province":"東京都","city":"昭島市","address":"東京都昭島市美堀町3丁目8","lat":35.723418,"lon":139.353865},{"name":"昭島市立東ノ岡児童遊園","province":"東京都","city":"昭島市","address":"東京都昭島市宮沢町2丁目14","lat":35.702875,"lon":139.36195},{"name":"昭島市立拝島天神社児童遊園","province":"東京都","city":"昭島市","address":"東京都昭島市拝島町2丁目14","lat":35.70971,"lon":139.33913},{"name":"東中神駅自由通路北口トイレ","province":"東京都","city":"昭島市","address":"東京都昭島市玉川町1丁目7-1","lat":35.706275,"lon":139.384991},{"name":"東中神駅自由通路南口トイレ","province":"東京都","city":"昭島市","address":"東京都昭島市玉川町1丁目7-1","lat":35.706305,"lon":139.384204},{"name":"昭島駅前公衆便所","province":"東京都","city":"昭島市","address":"東京都昭島市昭和町2丁目","lat":35.713688,"lon":139.360263},{"name":"中神駅北口公衆便所","province":"東京都","city":"昭島市","address":"東京都昭島市朝日町1丁目1-9","lat":35.709175,"lon":139.375931},{"name":"拝島駅自由通路南口トイレ","province":"東京都","city":"昭島市","address":"東京都昭島市松原町4丁目14-4","lat":35.720836,"lon":139.343427},{"name":"拝島駅自由通路北口トイレ","province":"東京都","city":"昭島市","address":"東京都昭島市美堀町5丁目21-2","lat":35.721426,"lon":139.344351},{"name":"市民プール東側便所","province":"東京都","city":"昭島市","address":"東京都昭島市宮沢町3丁目16","lat":35.695559,"lon":139.373859},{"name":"昭島市民球場","province":"東京都","city":"昭島市","address":"東京都昭島市東町5丁目12","lat":35.703476,"lon":139.385255},{"name":"昭島市民球場","province":"東京都","city":"昭島市","address":"東京都昭島市東町5丁目12","lat":35.703703,"lon":139.385786},{"name":"総合スポーツセンター","province":"東京都","city":"昭島市","address":"東京都昭島市東町5丁目13-1","lat":35.703565,"lon":139.384422},{"name":"みほり体育館","province":"東京都","city":"昭島市","address":"東京都昭島市美堀町4丁目20-1","lat":35.716241,"lon":139.35324},{"name":"昭島市保健福祉センター","province":"東京都","city":"昭島市","address":"東京都昭島市昭和町4丁目7-1","lat":35.710619,"lon":139.364048},{"name":"昭島市保健福祉センター","province":"東京都","city":"昭島市","address":"東京都昭島市昭和町4丁目7-1","lat":35.710679,"lon":139.364108},{"name":"昭島市児童センター","province":"東京都","city":"昭島市","address":"東京都昭島市つつじが丘2丁目3-21","lat":35.714245,"lon":139.367072},{"name":"青少年交流センター","province":"東京都","city":"昭島市","address":"東京都昭島市昭和町1丁目6-11","lat":35.71099,"lon":139.365552},{"name":"松原町高齢者福祉センター","province":"東京都","city":"昭島市","address":"東京都昭島市松原町1丁目13-3","lat":35.714682,"lon":139.354553},{"name":"朝日町高齢者福祉センター","province":"東京都","city":"昭島市","address":"東京都昭島市朝日町4丁目5-9","lat":35.706173,"lon":139.370715},{"name":"拝島町高齢者福祉センター","province":"東京都","city":"昭島市","address":"東京都昭島市拝島町3丁目10-4","lat":35.710627,"lon":139.335232},{"name":"昭島市環境コミュニケーションセンター","province":"東京都","city":"昭島市","address":"東京都昭島市美堀町3丁目8-1","lat":35.723451,"lon":139.354949},{"name":"昭島市環境コミュニケーションセンター","province":"東京都","city":"昭島市","address":"東京都昭島市美堀町3丁目8-1","lat":35.723401,"lon":139.354688},{"name":"昭島市勤労商工市民センター","province":"東京都","city":"昭島市","address":"東京都昭島市昭和町3丁目10-2","lat":35.707077,"lon":139.36719},{"name":"昭島市勤労商工市民センター","province":"東京都","city":"昭島市","address":"東京都昭島市昭和町3丁目10-2","lat":35.707091,"lon":139.367165},{"name":"くじら運動公園管理棟","province":"東京都","city":"昭島市","address":"東京都昭島市宮沢町3丁目14","lat":35.696818,"lon":139.363294},{"name":"教育福祉総合センター（アキシマエンシス）","province":"東京都","city":"昭島市","address":"東京都昭島市つつじが丘3丁目3-15","lat":35.711788,"lon":139.369025},{"name":"教育福祉総合センター（アキシマエンシス）","province":"東京都","city":"昭島市","address":"東京都昭島市つつじが丘3丁目3-15","lat":35.711424,"lon":139.369539},{"name":"教育福祉総合センター（アキシマエンシス）","province":"東京都","city":"昭島市","address":"東京都昭島市つつじが丘3丁目3-15","lat":35.71171,"lon":139.369169},{"name":"教育福祉総合センター（アキシマエンシス）","province":"東京都","city":"昭島市","address":"東京都昭島市つつじが丘3丁目3","lat":35.712046,"lon":139.369516},{"name":"教育福祉総合センター（アキシマエンシス）","province":"東京都","city":"昭島市","address":"東京都昭島市つつじが丘3丁目3-15","lat":35.712135,"lon":139.368964},{"name":"教育福祉総合センター（アキシマエンシス）","province":"東京都","city":"昭島市","address":"東京都昭島市つつじが丘3丁目3","lat":35.711663,"lon":139.36854},{"name":"市民図書館","province":"東京都","city":"昭島市","address":"東京都昭島市つつじが丘3丁目3-15","lat":35.71168206,"lon":139.36932424},{"name":"昭和分館","province":"東京都","city":"昭島市","address":"東京都昭島市松原町1丁目2-25","lat":35.71254841,"lon":139.3577419},{"name":"緑分館","province":"東京都","city":"昭島市","address":"東京都昭島市緑町4丁目13-26","lat":35.71423686,"lon":139.34460401},{"name":"やまのかみ分室","province":"東京都","city":"昭島市","address":"東京都昭島市拝島町3丁目10-3","lat":35.71094542,"lon":139.33552702},{"name":"玉川会館内臨時窓口","province":"東京都","city":"昭島市","address":"東京都昭島市玉川町3丁目10-15","lat":35.70373326,"lon":139.38208436},{"name":"あきしまこどもクッキング","province":"東京都","city":"昭島市","address":"東京都昭島市つつじが丘3丁目7-7","lat":35.71352901,"lon":139.36620781},{"name":"たまりば☆ぬくぬく","province":"東京都","city":"昭島市","address":"東京都昭島市松原町1丁目3-10","lat":35.71211512,"lon":139.35702252},{"name":"あおぞらみんな食堂","province":"東京都","city":"昭島市","address":"東京都昭島市郷地町2丁目20-24","lat":35.69716746,"lon":139.3854093},{"name":"あのねの会あのね食堂","province":"東京都","city":"昭島市","address":"東京都昭島市宮沢町512-13","lat":35.71400132,"lon":139.37351825},{"name":"子ども料理ひろば","province":"東京都","city":"昭島市","address":"東京都昭島市玉川町5丁目13-13","lat":35.7030138,"lon":139.37706542},{"name":"昭島子ども食堂みほりん広場","province":"東京都","city":"昭島市","address":"東京都昭島市拝島町3926-11","lat":35.72095295,"lon":139.35638069},{"name":"西部配水場","province":"東京都","city":"昭島市","address":"東京都昭島市緑町2-17-16","lat":35.712165,"lon":139.347832},{"name":"東部配水場","province":"東京都","city":"昭島市","address":"東京都昭島市朝日町4-23","lat":35.708692,"lon":139.369836},{"name":"よつぎ第四保育園","province":"東京都","city":"昭島市","address":"昭島市美堀町5-17-2","lat":35.72046,"lon":139.3476},{"name":"Ｎｉｃｏｔ拝島","province":"東京都","city":"昭島市","address":"昭島市美堀町5-21-1","lat":35.71996,"lon":139.34502},{"name":"拝島保育園","province":"東京都","city":"昭島市","address":"昭島市拝島町2-4-26","lat":35.70721,"lon":139.34247},{"name":"昭栄保育園","province":"東京都","city":"昭島市","address":"昭島市拝島町3-17-11","lat":35.7131,"lon":139.33485},{"name":"ゆりかご保育園","province":"東京都","city":"昭島市","address":"昭島市松原町2-9-2","lat":35.7154,"lon":139.35161},{"name":"松原保育園","province":"東京都","city":"昭島市","address":"昭島市松原町4-11-3","lat":35.71975,"lon":139.34407},{"name":"同援はいじま保育園","province":"東京都","city":"昭島市","address":"昭島市松原町5-2-25","lat":35.72091,"lon":139.34192},{"name":"あきみ保育園","province":"東京都","city":"昭島市","address":"昭島市上川原町1-10-18","lat":35.70998,"lon":139.36188},{"name":"公私連携型保育所なしのき保育園","province":"東京都","city":"昭島市","address":"昭島市上川原町1-23-1","lat":35.70635,"lon":139.36125},{"name":"つつじが丘保育園","province":"東京都","city":"昭島市","address":"昭島市つつじが丘3-6-23","lat":35.71279,"lon":139.36673},{"name":"昭島ゆりかご第二保育園","province":"東京都","city":"昭島市","address":"昭島市田中町3-5-20","lat":35.70073,"lon":139.34903},{"name":"上ノ原保育園","province":"東京都","city":"昭島市","address":"昭島市昭和町3-14-3","lat":35.70827,"lon":139.36714},{"name":"昭和郷保育園","province":"東京都","city":"昭島市","address":"昭島市中神町1260","lat":35.70815,"lon":139.38135},{"name":"昭和郷第二保育園","province":"東京都","city":"昭島市","address":"昭島市中神町1260","lat":35.70815,"lon":139.38135},{"name":"むさしの保育園","province":"東京都","city":"昭島市","address":"昭島市中神町1294-4","lat":35.71384,"lon":139.38138},{"name":"昭和保育園","province":"東京都","city":"昭島市","address":"昭島市宮沢町2-28-18","lat":35.70082,"lon":139.36589},{"name":"中神保育園","province":"東京都","city":"昭島市","address":"昭島市朝日町5-4-17","lat":35.7035,"lon":139.37344},{"name":"福島保育園","province":"東京都","city":"昭島市","address":"昭島市福島町1-18-8","lat":35.69737,"lon":139.38211},{"name":"多摩保育園","province":"東京都","city":"昭島市","address":"昭島市東町5-1-40","lat":35.70266,"lon":139.38844},{"name":"わかくさ保育園","province":"東京都","city":"昭島市","address":"昭島市玉川町5-15-26","lat":35.70153,"lon":139.37488},{"name":"双葉園","province":"東京都","city":"昭島市","address":"昭島市中神町1260","lat":35.70815,"lon":139.38135},{"name":"昭島荘","province":"東京都","city":"昭島市","address":"昭島市中神町1260","lat":35.70815,"lon":139.38135},{"name":"昭島病院","province":"東京都","city":"昭島市","address":"昭島市中神町1260","lat":35.70815,"lon":139.38135},{"name":"昭島市","province":"東京都","city":"昭島市","address":"昭島市田中町1-17-1","lat":35.70588,"lon":139.35355},{"name":"中神駅北口第二自転車等駐車場","province":"東京都","city":"昭島市","address":"東京都昭島市中神町1245-10","lat":35.7100491,"lon":139.37825398},{"name":"昭島駅北口第二自転車等駐車場","province":"東京都","city":"昭島市","address":"東京都昭島市田中町562-1","lat":35.71421497,"lon":139.36248868},{"name":"昭島駅南口立体自転車等駐車場","province":"東京都","city":"昭島市","address":"東京都昭島市昭和町2丁目1-4","lat":35.71283181,"lon":139.362947},{"name":"東中神駅公団西側自転車等駐車場","province":"東京都","city":"昭島市","address":"東京都昭島市玉川町1丁目7-3","lat":35.70659962,"lon":139.38320083},{"name":"拝島駅南口地下自転車等駐車場","province":"東京都","city":"昭島市","address":"東京都昭島市松原町4丁目12-19","lat":35.71991669,"lon":139.34292342},{"name":"東中神駅北口第二自転車等駐車場","province":"東京都","city":"昭島市","address":"東京都昭島市福島町905-6","lat":35.7066163,"lon":139.38390354},{"name":"東中神駅西側自転車等駐車場","province":"東京都","city":"昭島市","address":"東京都昭島市玉川町1丁目7-2","lat":35.70613301,"lon":139.38364524},{"name":"介護福祉課","province":"東京都","city":"昭島市","address":"昭島市田中町1-17-1","lat":35.705971,"lon":139.354507},{"name":"東部地域包括支援センター竹口病院","province":"東京都","city":"昭島市","address":"昭島市玉川町2-4-8-103","lat":35.707176,"lon":139.378174},{"name":"西部地域包括支援センター愛全園","province":"東京都","city":"昭島市","address":"昭島市拝島町3-10-4","lat":35.710747,"lon":139.334442},{"name":"中部地域包括支援センターあいぽっく","province":"東京都","city":"昭島市","address":"昭島市昭和町4-7-1保健福祉センター2F","lat":35.711014,"lon":139.363541},{"name":"南部地域包括支援センター愛全園","province":"東京都","city":"昭島市","address":"昭島市田中町2-25-3","lat":35.704052,"lon":139.351166},{"name":"北部地域包括支援センターハピネス昭和の森","province":"東京都","city":"昭島市","address":"昭島市拝島町4036-14","lat":35.695915,"lon":139.339401},{"name":"昭島市消費生活相談室","province":"東京都","city":"昭島市","address":"昭島市田中町1-17-1","lat":35.705971,"lon":139.354507},{"name":"昭島荘","province":"東京都","city":"昭島市","address":"昭島市中神町1260","lat":35.709385,"lon":139.382215},{"name":"ぷーやんあしながくらぶ２号館","province":"東京都","city":"昭島市","address":"東京都昭島市美堀町4丁目9-8","lat":35.72032517,"lon":139.35261711},{"name":"社会福祉法人ゆいのもり福祉協会ゆいのもり田中町","province":"東京都","city":"昭島市","address":"東京都昭島市田中町1丁目19-4","lat":35.70655463,"lon":139.35467563},{"name":"社会福祉法人ゆいのもり福祉協会食工房ゆいのもり","province":"東京都","city":"昭島市","address":"東京都昭島市上川原町1丁目9-15","lat":35.70960718,"lon":139.36273876},{"name":"社会福祉法人あすはの会みしょう","province":"東京都","city":"昭島市","address":"東京都昭島市昭和町4丁目7-1","lat":35.71083484,"lon":139.36412472},{"name":"社会福祉法人きょうされんリサイクル洗びんセンター","province":"東京都","city":"昭島市","address":"東京都昭島市武蔵野3丁目2-19","lat":35.7181065,"lon":139.37771223},{"name":"一般社団法人未来ネットワークＨＩＫＡＲＩ","province":"東京都","city":"昭島市","address":"東京都昭島市緑町5丁目1-6","lat":35.71558943,"lon":139.34255135},{"name":"一般社団法人未来ネットワークＭＩＲＡＩ","province":"東京都","city":"昭島市","address":"東京都昭島市朝日町1丁目9-7","lat":35.70811591,"lon":139.3739739},{"name":"のぞみ保育園","province":"東京都","city":"昭島市","address":"昭島市松原町5-7-17","lat":35.71848,"lon":139.34224},{"name":"昭島ナオミ保育園","province":"東京都","city":"昭島市","address":"昭島市玉川町1-10-4","lat":35.70533,"lon":139.38281},{"name":"双葉園","province":"東京都","city":"昭島市","address":"昭島市中神町1260","lat":35.709385,"lon":139.382215},{"name":"昭島病院","province":"東京都","city":"昭島市","address":"昭島市中神町1260","lat":35.70919,"lon":139.38268},{"name":"昭和保育園","province":"東京都","city":"昭島市","address":"昭島市宮沢町2-28-18","lat":35.70083,"lon":139.36589},{"name":"中神駅入口","province":"東京都","city":"昭島市","address":"東京都昭島市朝日町3丁目6-1","lat":35.70723827,"lon":139.37555433},{"name":"拝島郵便局前","province":"東京都","city":"昭島市","address":"東京都昭島市拝島町2丁目8-11","lat":35.70826805,"lon":139.34027673},{"name":"昭島文化地区","province":"東京都","city":"昭島市","address":"東京都昭島市中神町1157","lat":35.71204326,"lon":139.37613747},{"name":"昭島市民図書館前","province":"東京都","city":"昭島市","address":"東京都昭島市東町2丁目6-33","lat":35.70546647,"lon":139.3851868},{"name":"昭島昭和町四丁目","province":"東京都","city":"昭島市","address":"東京都昭島市昭和町4丁目7-19","lat":35.71119312,"lon":139.36371919},{"name":"馬頭観音前","province":"東京都","city":"昭島市","address":"東京都昭島市朝日町3丁目1","lat":35.70625228,"lon":139.3758932},{"name":"昭島駅南口","province":"東京都","city":"昭島市","address":"東京都昭島市昭和町2丁目4","lat":35.71301785,"lon":139.36052498},{"name":"昭島駅北口","province":"東京都","city":"昭島市","address":"東京都昭島市田中町584-14","lat":35.7152176,"lon":139.36123598},{"name":"昭島市民会館西第二","province":"東京都","city":"昭島市","address":"東京都昭島市田中町562","lat":35.71341783,"lon":139.3620804},{"name":"昭島市役所中央第一","province":"東京都","city":"昭島市","address":"東京都昭島市田中町1丁目27","lat":35.70512424,"lon":139.3544729},{"name":"昭島十二神社南","province":"東京都","city":"昭島市","address":"東京都昭島市玉川町5丁目6","lat":35.7032999,"lon":139.37779867},{"name":"東部配水場","province":"東京都","city":"昭島市","address":"東京都昭島市朝日町4丁目23-28","lat":35.70855468,"lon":139.37011036},{"name":"昭島市立大神公園・市立多摩川緑地くじら運動公園","province":"東京都","city":"昭島市","address":"東京都昭島市宮沢町3丁目17","lat":35.69509229,"lon":139.36457787},{"name":"昭和の森ゴルフコース（アウトコース７番）","province":"東京都","city":"昭島市","address":"東京都昭島市つつじが丘1丁目1-7","lat":35.72342513,"lon":139.3692435},{"name":"＊?青少年交流センター","province":"東京都","city":"昭島市","address":"昭島市昭和町1-6-11","lat":35.710986,"lon":139.365562},{"name":"＊?福島会館","province":"東京都","city":"昭島市","address":"昭島市福島町1-19-1","lat":35.696238,"lon":139.381918},{"name":"＊?玉川会館","province":"東京都","city":"昭島市","address":"昭島市玉川町3-10-15","lat":35.703704,"lon":139.382093},{"name":"＊?朝日会館","province":"東京都","city":"昭島市","address":"昭島市朝日町5-6-20","lat":35.705036,"lon":139.37283},{"name":"＊?堀向会館","province":"東京都","city":"昭島市","address":"昭島市美堀町2-6-11","lat":35.723033,"lon":139.363738},{"name":"＊?大神会館","province":"東京都","city":"昭島市","address":"昭島市大神町3-10-5","lat":35.700723,"lon":139.360759},{"name":"＊?昭和分館","province":"東京都","city":"昭島市","address":"昭島市松原町1-2-25","lat":35.712915,"lon":139.357675},{"name":"＊?緑分館","province":"東京都","city":"昭島市","address":"昭島市緑町4-13-26","lat":35.714198,"lon":139.34461},{"name":"＊?拝島会館","province":"東京都","city":"昭島市","address":"昭島市拝島町2-4-13","lat":35.707318,"lon":139.342086},{"name":"＊?やまのかみ会館","province":"東京都","city":"昭島市","address":"昭島市拝島町3-10-3","lat":35.711,"lon":139.335502},{"name":"＊?武蔵野会館","province":"東京都","city":"昭島市","address":"昭島市中神町1172-1","lat":35.711162,"lon":139.375787},{"name":"＊?富士見会館","province":"東京都","city":"昭島市","address":"昭島市中神町1282","lat":35.712306,"lon":139.382712},{"name":"(株)大久保  多摩古紙センター昭島","province":"東京都","city":"昭島市","address":"昭島市武蔵野2-9-33","lat":35.72261,"lon":139.376877},{"name":"三弘紙業(株)  昭島営業所","province":"東京都","city":"昭島市","address":"昭島市松原町2-3-17","lat":35.713634,"lon":139.35289},{"name":"昭島市清掃センター","province":"東京都","city":"昭島市","address":"東京都昭島市田中町4丁目3","lat":35.69331,"lon":139.348755},{"name":"昭島市","province":"東京都","city":"昭島市","address":"昭島市田中町1-17-1","lat":35.705755,"lon":139.353609},{"name":"昭島市保健福祉センター","province":"東京都","city":"昭島市","address":"東京都昭島市昭和町4丁目7-1","lat":35.71083484,"lon":139.36412472},{"name":"多摩職業能力開発センター","province":"東京都","city":"昭島市","address":"東京都昭島市東町3丁目6-33","lat":35.69974508,"lon":139.39149757},{"name":"産業技術研究センター多摩テクノプラザ","province":"東京都","city":"昭島市","address":"東京都昭島市東町3丁目6-1","lat":35.69976454,"lon":139.39225862},{"name":"昭和高等学校","province":"東京都","city":"昭島市","address":"東京都昭島市東町2丁目3-21","lat":35.70384171,"lon":139.38706448},{"name":"拝島高等学校","province":"東京都","city":"昭島市","address":"東京都昭島市拝島町4丁目13-1","lat":35.70386031,"lon":139.34331551},{"name":"昭島市本庁舎","province":"東京都","city":"昭島市","address":"東京都昭島市田中町1丁目17-1","lat":35.70573804,"lon":139.35361463},{"name":"昭島市総合スポーツセンター","province":"東京都","city":"昭島市","address":"東京都昭島市東町5丁目13-1","lat":35.70343335,"lon":139.38437583},{"name":"昭島市本庁舎","province":"東京都","city":"昭島市","address":"昭島市田中町1-17-1","lat":35.705755,"lon":139.353609},{"name":"昭島警察署","province":"東京都","city":"昭島市","address":"昭島市上川原町1-1-1","lat":35.70894,"lon":139.3637},{"name":"昭島消防署","province":"東京都","city":"昭島市","address":"昭島市松原町1-14-1","lat":35.71423,"lon":139.3543},{"name":"立川酸素（株）","province":"東京都","city":"昭島市","address":"昭島市福島町2-28-20","lat":35.69772,"lon":139.3792},{"name":"昭島市清掃センター","province":"東京都","city":"昭島市","address":"昭島市田中町4-3-14","lat":35.69368,"lon":139.3479},{"name":"※昭島市本庁舎","province":"東京都","city":"昭島市","address":"東京都昭島市田中町1丁目17-1","lat":35.70573804,"lon":139.35361463},{"name":"昭島市役所","province":"東京都","city":"昭島市","address":"東京都昭島市田中町1-17-1","lat":35.705706,"lon":139.353775},{"name":"昭島市保健福祉センター（あいぽっく）","province":"東京都","city":"昭島市","address":"東京都昭島市昭和町4-7-1","lat":35.71089,"lon":139.364088},{"name":"FOSTERホール（昭島市民会館）・公民館","province":"東京都","city":"昭島市","address":"東京都昭島市つつじが丘3-7-7","lat":35.713437,"lon":139.366187},{"name":"昭島市総合スポーツセンター","province":"東京都","city":"昭島市","address":"東京都昭島市東町5-13-1","lat":35.703334,"lon":139.38432},{"name":"玉川会館（東部出張所）","province":"東京都","city":"昭島市","address":"東京都昭島市玉川町3-10-15","lat":35.703703,"lon":139.382054},{"name":"朝日会館","province":"東京都","city":"昭島市","address":"東京都昭島市朝日町5-6-20","lat":35.705061,"lon":139.372835},{"name":"大神会館","province":"東京都","city":"昭島市","address":"東京都昭島市大神町3-10-5","lat":35.700742,"lon":139.360806},{"name":"拝島会館","province":"東京都","city":"昭島市","address":"東京都昭島市拝島町2-4-13","lat":35.707257,"lon":139.341968},{"name":"福島会館","province":"東京都","city":"昭島市","address":"東京都昭島市福島町1-19-1","lat":35.696753,"lon":139.381077},{"name":"昭和会館","province":"東京都","city":"昭島市","address":"東京都昭島市松原町1-2-25","lat":35.712896,"lon":139.357669},{"name":"緑会館","province":"東京都","city":"昭島市","address":"東京都昭島市緑町4-13-26","lat":35.714276,"lon":139.344637},{"name":"堀向会館","province":"東京都","city":"昭島市","address":"東京都昭島市美堀町2-6-11","lat":35.723174,"lon":139.363703},{"name":"富士見会館","province":"東京都","city":"昭島市","address":"東京都昭島市中神町1282","lat":35.712249,"lon":139.382554},{"name":"やまのかみ会館","province":"東京都","city":"昭島市","address":"東京都昭島市拝島町3-10-3","lat":35.710898,"lon":139.335471},{"name":"武蔵野会館","province":"東京都","city":"昭島市","address":"東京都昭島市中神町1172-1","lat":35.711183,"lon":139.375667},{"name":"松原町コミュニティセンター","province":"東京都","city":"昭島市","address":"東京都昭島市松原町1-3-10","lat":35.71206,"lon":139.356957},{"name":"児童センター「ぱれっと」","province":"東京都","city":"昭島市","address":"東京都昭島市つつじが丘2-3-21","lat":35.714301,"lon":139.367027},{"name":"勤労商工市民センター","province":"東京都","city":"昭島市","address":"東京都昭島市昭和町3-10-2","lat":35.707038,"lon":139.367005},{"name":"朝日町高齢者福祉センター","province":"東京都","city":"昭島市","address":"東京都昭島市朝日町4-5-9","lat":35.706258,"lon":139.37046},{"name":"松原町高齢者福祉センター","province":"東京都","city":"昭島市","address":"東京都昭島市松原町1-13-3","lat":35.714701,"lon":139.354453},{"name":"拝島町高齢者福祉センター","province":"東京都","city":"昭島市","address":"東京都昭島市拝島町3-10-4","lat":35.710487,"lon":139.335016},{"name":"青少年交流センター","province":"東京都","city":"昭島市","address":"東京都昭島市昭和町1-6-11","lat":35.711044,"lon":139.365627},{"name":"環境コミュニケーションセンター","province":"東京都","city":"昭島市","address":"東京都昭島市美堀町3-8-1","lat":35.723219,"lon":139.354547},{"name":"水道部","province":"東京都","city":"昭島市","address":"東京都昭島市朝日町4-23-28","lat":35.70873,"lon":139.370352},{"name":"アキシマエンシス（国際交流教養文化棟）","province":"東京都","city":"昭島市","address":"東京都昭島市つつじが丘3-3-15","lat":35.711714,"lon":139.36935},{"name":"アキシマエンシス（校舎棟）","province":"東京都","city":"昭島市","address":"東京都昭島市つつじが丘3-3-15","lat":35.712009,"lon":139.369303},{"name":"アキシマエンシス（体育館棟）","province":"東京都","city":"昭島市","address":"東京都昭島市つつじが丘3-3-15","lat":35.711743,"lon":139.368486},{"name":"キッズサポートてんとうむし","province":"東京都","city":"昭島市","address":"昭島市上川原町3-8-22","lat":35.708302,"lon":139.35957},{"name":"特定非営利活動法人昭島ひよこ教室","province":"東京都","city":"昭島市","address":"昭島市昭和町4-7-1","lat":35.710835,"lon":139.364125},{"name":"放課後等デイサービス　つむぐ　中神第２教室","province":"東京都","city":"昭島市","address":"昭島市中神町1228-20ミリューヴィラージュ106","lat":35.708858,"lon":139.37794},{"name":"放課後等デイサービス　つむぐ　中神教室","province":"東京都","city":"昭島市","address":"昭島市朝日町3-18-9大正第4ビル1階","lat":35.708124,"lon":139.373024},{"name":"脳を育てる運動療育センター　ピースマイル　中神教室","province":"東京都","city":"昭島市","address":"昭島市朝日町1-4-3SKビル2階B","lat":35.70806,"lon":139.375643},{"name":"ドリームボックス中神","province":"東京都","city":"昭島市","address":"昭島市玉川町2-4-11ヴェルシャトウ1階","lat":35.706738,"lon":139.378887},{"name":"昭島病院","province":"東京都","city":"昭島市","address":"昭島市中神町1260","lat":35.709385,"lon":139.382215},{"name":"市民図書館","province":"東京都","city":"昭島市","address":"東京都昭島市つつじが丘3丁目3-15","lat":35.71168206,"lon":139.36932424},{"name":"昭和分館","province":"東京都","city":"昭島市","address":"東京都昭島市松原町1丁目2-25","lat":35.71254841,"lon":139.3577419},{"name":"緑分館","province":"東京都","city":"昭島市","address":"東京都昭島市緑町4丁目13-26","lat":35.71423686,"lon":139.34460401},{"name":"やまのかみ分室","province":"東京都","city":"昭島市","address":"東京都昭島市拝島町3丁目10-3","lat":35.71094542,"lon":139.33552702},{"name":"玉川会館内臨時窓口","province":"東京都","city":"昭島市","address":"東京都昭島市玉川町3丁目10-15","lat":35.70373326,"lon":139.38208436},{"name":"あきしまこどもクッキング","province":"東京都","city":"昭島市","address":"東京都昭島市つつじが丘3丁目7-7","lat":35.71352901,"lon":139.36620781},{"name":"たまりば☆ぬくぬく","province":"東京都","city":"昭島市","address":"東京都昭島市松原町1丁目3-10","lat":35.71211512,"lon":139.35702252},{"name":"あおぞらみんな食堂","province":"東京都","city":"昭島市","address":"東京都昭島市郷地町2丁目20-24","lat":35.69716746,"lon":139.3854093},{"name":"あのねの会あのね食堂","province":"東京都","city":"昭島市","address":"東京都昭島市宮沢町512-13","lat":35.71400132,"lon":139.37351825},{"name":"子ども料理ひろば","province":"東京都","city":"昭島市","address":"東京都昭島市玉川町5丁目13-13","lat":35.7030138,"lon":139.37706542},{"name":"昭島子ども食堂みほりん広場","province":"東京都","city":"昭島市","address":"東京都昭島市拝島町3926-11","lat":35.72095295,"lon":139.35638069},{"name":"西部配水場","province":"東京都","city":"昭島市","address":"東京都昭島市緑町2-17-16","lat":35.712165,"lon":139.347832},{"name":"東部配水場","province":"東京都","city":"昭島市","address":"東京都昭島市朝日町4-23","lat":35.708692,"lon":139.369836},{"name":"双葉園","province":"東京都","city":"昭島市","address":"昭島市中神町1260","lat":35.70815,"lon":139.38135},{"name":"昭島荘","province":"東京都","city":"昭島市","address":"昭島市中神町1260","lat":35.70815,"lon":139.38135},{"name":"昭島市","province":"東京都","city":"昭島市","address":"昭島市田中町1-17-1","lat":35.70588,"lon":139.35355},{"name":"中神駅北口第二自転車等駐車場","province":"東京都","city":"昭島市","address":"東京都昭島市中神町1245-10","lat":35.7100491,"lon":139.37825398},{"name":"昭島駅北口第二自転車等駐車場","province":"東京都","city":"昭島市","address":"東京都昭島市田中町562-1","lat":35.71421497,"lon":139.36248868},{"name":"昭島駅南口立体自転車等駐車場","province":"東京都","city":"昭島市","address":"東京都昭島市昭和町2丁目1-4","lat":35.71283181,"lon":139.362947},{"name":"東中神駅公団西側自転車等駐車場","province":"東京都","city":"昭島市","address":"東京都昭島市玉川町1丁目7-3","lat":35.70659962,"lon":139.38320083},{"name":"拝島駅南口地下自転車等駐車場","province":"東京都","city":"昭島市","address":"東京都昭島市松原町4丁目12-19","lat":35.71991669,"lon":139.34292342},{"name":"東中神駅北口第二自転車等駐車場","province":"東京都","city":"昭島市","address":"東京都昭島市福島町905-6","lat":35.7066163,"lon":139.38390354},{"name":"東中神駅西側自転車等駐車場","province":"東京都","city":"昭島市","address":"東京都昭島市玉川町1丁目7-2","lat":35.70613301,"lon":139.38364524},{"name":"介護福祉課","province":"東京都","city":"昭島市","address":"昭島市田中町1-17-1","lat":35.705971,"lon":139.354507},{"name":"東部地域包括支援センター竹口病院","province":"東京都","city":"昭島市","address":"昭島市玉川町2-4-8-103","lat":35.707176,"lon":139.378174},{"name":"西部地域包括支援センター愛全園","province":"東京都","city":"昭島市","address":"昭島市拝島町3-10-4","lat":35.710747,"lon":139.334442},{"name":"中部地域包括支援センターあいぽっく","province":"東京都","city":"昭島市","address":"昭島市昭和町4-7-1保健福祉センター2F","lat":35.711014,"lon":139.363541},{"name":"南部地域包括支援センター愛全園","province":"東京都","city":"昭島市","address":"昭島市田中町2-25-3","lat":35.704052,"lon":139.351166},{"name":"北部地域包括支援センターハピネス昭和の森","province":"東京都","city":"昭島市","address":"昭島市拝島町4036-14","lat":35.695915,"lon":139.339401},{"name":"昭島市消費生活相談室","province":"東京都","city":"昭島市","address":"昭島市田中町1-17-1","lat":35.705971,"lon":139.354507},{"name":"双葉園","province":"東京都","city":"昭島市","address":"昭島市中神町1260","lat":35.709385,"lon":139.382215},{"name":"中神駅入口","province":"東京都","city":"昭島市","address":"東京都昭島市朝日町3丁目6-1","lat":35.70723827,"lon":139.37555433},{"name":"拝島郵便局前","province":"東京都","city":"昭島市","address":"東京都昭島市拝島町2丁目8-11","lat":35.70826805,"lon":139.34027673},{"name":"昭島文化地区","province":"東京都","city":"昭島市","address":"東京都昭島市中神町1157","lat":35.71204326,"lon":139.37613747},{"name":"昭島市民図書館前","province":"東京都","city":"昭島市","address":"東京都昭島市東町2丁目6-33","lat":35.70546647,"lon":139.3851868},{"name":"昭島昭和町四丁目","province":"東京都","city":"昭島市","address":"東京都昭島市昭和町4丁目7-19","lat":35.71119312,"lon":139.36371919},{"name":"馬頭観音前","province":"東京都","city":"昭島市","address":"東京都昭島市朝日町3丁目1","lat":35.70625228,"lon":139.3758932},{"name":"昭島駅南口","province":"東京都","city":"昭島市","address":"東京都昭島市昭和町2丁目4","lat":35.71301785,"lon":139.36052498},{"name":"昭島駅北口","province":"東京都","city":"昭島市","address":"東京都昭島市田中町584-14","lat":35.7152176,"lon":139.36123598},{"name":"昭島市民会館西第二","province":"東京都","city":"昭島市","address":"東京都昭島市田中町562","lat":35.71341783,"lon":139.3620804},{"name":"昭島市役所中央第一","province":"東京都","city":"昭島市","address":"東京都昭島市田中町1丁目27","lat":35.70512424,"lon":139.3544729},{"name":"昭島十二神社南","province":"東京都","city":"昭島市","address":"東京都昭島市玉川町5丁目6","lat":35.7032999,"lon":139.37779867},{"name":"＊?青少年交流センター","province":"東京都","city":"昭島市","address":"昭島市昭和町1-6-11","lat":35.710986,"lon":139.365562},{"name":"＊?福島会館","province":"東京都","city":"昭島市","address":"昭島市福島町1-19-1","lat":35.696238,"lon":139.381918},{"name":"＊?玉川会館","province":"東京都","city":"昭島市","address":"昭島市玉川町3-10-15","lat":35.703704,"lon":139.382093},{"name":"＊?朝日会館","province":"東京都","city":"昭島市","address":"昭島市朝日町5-6-20","lat":35.705036,"lon":139.37283},{"name":"＊?堀向会館","province":"東京都","city":"昭島市","address":"昭島市美堀町2-6-11","lat":35.723033,"lon":139.363738},{"name":"＊?大神会館","province":"東京都","city":"昭島市","address":"昭島市大神町3-10-5","lat":35.700723,"lon":139.360759},{"name":"＊?昭和分館","province":"東京都","city":"昭島市","address":"昭島市松原町1-2-25","lat":35.712915,"lon":139.357675},{"name":"＊?緑分館","province":"東京都","city":"昭島市","address":"昭島市緑町4-13-26","lat":35.714198,"lon":139.34461},{"name":"＊?拝島会館","province":"東京都","city":"昭島市","address":"昭島市拝島町2-4-13","lat":35.707318,"lon":139.342086},{"name":"＊?やまのかみ会館","province":"東京都","city":"昭島市","address":"昭島市拝島町3-10-3","lat":35.711,"lon":139.335502},{"name":"＊?武蔵野会館","province":"東京都","city":"昭島市","address":"昭島市中神町1172-1","lat":35.711162,"lon":139.375787},{"name":"＊?富士見会館","province":"東京都","city":"昭島市","address":"昭島市中神町1282","lat":35.712306,"lon":139.382712},{"name":"(株)大久保  多摩古紙センター昭島","province":"東京都","city":"昭島市","address":"昭島市武蔵野2-9-33","lat":35.72261,"lon":139.376877},{"name":"三弘紙業(株)  昭島営業所","province":"東京都","city":"昭島市","address":"昭島市松原町2-3-17","lat":35.713634,"lon":139.35289},{"name":"昭島市清掃センター","province":"東京都","city":"昭島市","address":"東京都昭島市田中町4丁目3","lat":35.69331,"lon":139.348755},{"name":"昭島市","province":"東京都","city":"昭島市","address":"昭島市田中町1-17-1","lat":35.705755,"lon":139.353609},{"name":"昭島警察署","province":"東京都","city":"昭島市","address":"昭島市上川原町1-1-1","lat":35.70894,"lon":139.3637},{"name":"昭島消防署","province":"東京都","city":"昭島市","address":"昭島市松原町1-14-1","lat":35.71423,"lon":139.3543},{"name":"立川酸素（株）","province":"東京都","city":"昭島市","address":"昭島市福島町2-28-20","lat":35.69772,"lon":139.3792},{"name":"昭島市清掃センター","province":"東京都","city":"昭島市","address":"昭島市田中町4-3-14","lat":35.69368,"lon":139.3479},{"name":"昭島市役所","province":"東京都","city":"昭島市","address":"東京都昭島市田中町1-17-1","lat":35.705706,"lon":139.353775},{"name":"昭島市保健福祉センター（あいぽっく）","province":"東京都","city":"昭島市","address":"東京都昭島市昭和町4-7-1","lat":35.71089,"lon":139.364088},{"name":"FOSTERホール（昭島市民会館）・公民館","province":"東京都","city":"昭島市","address":"東京都昭島市つつじが丘3-7-7","lat":35.713437,"lon":139.366187},{"name":"昭島市総合スポーツセンター","province":"東京都","city":"昭島市","address":"東京都昭島市東町5-13-1","lat":35.703334,"lon":139.38432},{"name":"玉川会館（東部出張所）","province":"東京都","city":"昭島市","address":"東京都昭島市玉川町3-10-15","lat":35.703703,"lon":139.382054},{"name":"朝日会館","province":"東京都","city":"昭島市","address":"東京都昭島市朝日町5-6-20","lat":35.705061,"lon":139.372835},{"name":"大神会館","province":"東京都","city":"昭島市","address":"東京都昭島市大神町3-10-5","lat":35.700742,"lon":139.360806},{"name":"拝島会館","province":"東京都","city":"昭島市","address":"東京都昭島市拝島町2-4-13","lat":35.707257,"lon":139.341968},{"name":"福島会館","province":"東京都","city":"昭島市","address":"東京都昭島市福島町1-19-1","lat":35.696753,"lon":139.381077},{"name":"昭和会館","province":"東京都","city":"昭島市","address":"東京都昭島市松原町1-2-25","lat":35.712896,"lon":139.357669},{"name":"緑会館","province":"東京都","city":"昭島市","address":"東京都昭島市緑町4-13-26","lat":35.714276,"lon":139.344637},{"name":"堀向会館","province":"東京都","city":"昭島市","address":"東京都昭島市美堀町2-6-11","lat":35.723174,"lon":139.363703},{"name":"富士見会館","province":"東京都","city":"昭島市","address":"東京都昭島市中神町1282","lat":35.712249,"lon":139.382554},{"name":"やまのかみ会館","province":"東京都","city":"昭島市","address":"東京都昭島市拝島町3-10-3","lat":35.710898,"lon":139.335471},{"name":"武蔵野会館","province":"東京都","city":"昭島市","address":"東京都昭島市中神町1172-1","lat":35.711183,"lon":139.375667},{"name":"松原町コミュニティセンター","province":"東京都","city":"昭島市","address":"東京都昭島市松原町1-3-10","lat":35.71206,"lon":139.356957},{"name":"児童センター「ぱれっと」","province":"東京都","city":"昭島市","address":"東京都昭島市つつじが丘2-3-21","lat":35.714301,"lon":139.367027},{"name":"勤労商工市民センター","province":"東京都","city":"昭島市","address":"東京都昭島市昭和町3-10-2","lat":35.707038,"lon":139.367005},{"name":"朝日町高齢者福祉センター","province":"東京都","city":"昭島市","address":"東京都昭島市朝日町4-5-9","lat":35.706258,"lon":139.37046},{"name":"松原町高齢者福祉センター","province":"東京都","city":"昭島市","address":"東京都昭島市松原町1-13-3","lat":35.714701,"lon":139.354453},{"name":"拝島町高齢者福祉センター","province":"東京都","city":"昭島市","address":"東京都昭島市拝島町3-10-4","lat":35.710487,"lon":139.335016},{"name":"青少年交流センター","province":"東京都","city":"昭島市","address":"東京都昭島市昭和町1-6-11","lat":35.711044,"lon":139.365627},{"name":"環境コミュニケーションセンター","province":"東京都","city":"昭島市","address":"東京都昭島市美堀町3-8-1","lat":35.723219,"lon":139.354547},{"name":"水道部","province":"東京都","city":"昭島市","address":"東京都昭島市朝日町4-23-28","lat":35.70873,"lon":139.370352},{"name":"アキシマエンシス（国際交流教養文化棟）","province":"東京都","city":"昭島市","address":"東京都昭島市つつじが丘3-3-15","lat":35.711714,"lon":139.36935},{"name":"アキシマエンシス（校舎棟）","province":"東京都","city":"昭島市","address":"東京都昭島市つつじが丘3-3-15","lat":35.712009,"lon":139.369303},{"name":"アキシマエンシス（体育館棟）","province":"東京都","city":"昭島市","address":"東京都昭島市つつじが丘3-3-15","lat":35.711743,"lon":139.368486},{"name":"キッズサポートてんとうむし","province":"東京都","city":"昭島市","address":"昭島市上川原町3-8-22","lat":35.708302,"lon":139.35957},{"name":"特定非営利活動法人昭島ひよこ教室","province":"東京都","city":"昭島市","address":"昭島市昭和町4-7-1","lat":35.710835,"lon":139.364125},{"name":"放課後等デイサービス　つむぐ　中神第２教室","province":"東京都","city":"昭島市","address":"昭島市中神町1228-20ミリューヴィラージュ106","lat":35.708858,"lon":139.37794},{"name":"放課後等デイサービス　つむぐ　中神教室","province":"東京都","city":"昭島市","address":"昭島市朝日町3-18-9大正第4ビル1階","lat":35.708124,"lon":139.373024},{"name":"脳を育てる運動療育センター　ピースマイル　中神教室","province":"東京都","city":"昭島市","address":"昭島市朝日町1-4-3SKビル2階B","lat":35.70806,"lon":139.375643},{"name":"ドリームボックス中神","province":"東京都","city":"昭島市","address":"昭島市玉川町2-4-11ヴェルシャトウ1階","lat":35.706738,"lon":139.378887},{"name":"昭島病院","province":"東京都","city":"昭島市","address":"昭島市中神町1260","lat":35.709385,"lon":139.382215},{"name":"市民図書館","province":"東京都","city":"昭島市","address":"東京都昭島市つつじが丘3丁目3-15","lat":35.71168206,"lon":139.36932424},{"name":"昭和分館","province":"東京都","city":"昭島市","address":"東京都昭島市松原町1丁目2-25","lat":35.71254841,"lon":139.3577419},{"name":"緑分館","province":"東京都","city":"昭島市","address":"東京都昭島市緑町4丁目13-26","lat":35.71423686,"lon":139.34460401},{"name":"やまのかみ分室","province":"東京都","city":"昭島市","address":"東京都昭島市拝島町3丁目10-3","lat":35.71094542,"lon":139.33552702},{"name":"玉川会館内臨時窓口","province":"東京都","city":"昭島市","address":"東京都昭島市玉川町3丁目10-15","lat":35.70373326,"lon":139.38208436},{"name":"あきしまこどもクッキング","province":"東京都","city":"昭島市","address":"東京都昭島市つつじが丘3丁目7-7","lat":35.71352901,"lon":139.36620781},{"name":"たまりば☆ぬくぬく","province":"東京都","city":"昭島市","address":"東京都昭島市松原町1丁目3-10","lat":35.71211512,"lon":139.35702252},{"name":"あおぞらみんな食堂","province":"東京都","city":"昭島市","address":"東京都昭島市郷地町2丁目20-24","lat":35.69716746,"lon":139.3854093},{"name":"あのねの会あのね食堂","province":"東京都","city":"昭島市","address":"東京都昭島市宮沢町512-13","lat":35.71400132,"lon":139.37351825},{"name":"子ども料理ひろば","province":"東京都","city":"昭島市","address":"東京都昭島市玉川町5丁目13-13","lat":35.7030138,"lon":139.37706542},{"name":"昭島子ども食堂みほりん広場","province":"東京都","city":"昭島市","address":"東京都昭島市拝島町3926-11","lat":35.72095295,"lon":139.35638069},{"name":"西部配水場","province":"東京都","city":"昭島市","address":"東京都昭島市緑町2-17-16","lat":35.712165,"lon":139.347832},{"name":"東部配水場","province":"東京都","city":"昭島市","address":"東京都昭島市朝日町4-23","lat":35.708692,"lon":139.369836},{"name":"昭島荘","province":"東京都","city":"昭島市","address":"昭島市中神町1260","lat":35.70815,"lon":139.38135},{"name":"中神駅北口第二自転車等駐車場","province":"東京都","city":"昭島市","address":"東京都昭島市中神町1245-10","lat":35.7100491,"lon":139.37825398},{"name":"昭島駅北口第二自転車等駐車場","province":"東京都","city":"昭島市","address":"東京都昭島市田中町562-1","lat":35.71421497,"lon":139.36248868},{"name":"昭島駅南口立体自転車等駐車場","province":"東京都","city":"昭島市","address":"東京都昭島市昭和町2丁目1-4","lat":35.71283181,"lon":139.362947},{"name":"東中神駅公団西側自転車等駐車場","province":"東京都","city":"昭島市","address":"東京都昭島市玉川町1丁目7-3","lat":35.70659962,"lon":139.38320083},{"name":"拝島駅南口地下自転車等駐車場","province":"東京都","city":"昭島市","address":"東京都昭島市松原町4丁目12-19","lat":35.71991669,"lon":139.34292342},{"name":"東中神駅北口第二自転車等駐車場","province":"東京都","city":"昭島市","address":"東京都昭島市福島町905-6","lat":35.7066163,"lon":139.38390354},{"name":"東中神駅西側自転車等駐車場","province":"東京都","city":"昭島市","address":"東京都昭島市玉川町1丁目7-2","lat":35.70613301,"lon":139.38364524},{"name":"介護福祉課","province":"東京都","city":"昭島市","address":"昭島市田中町1-17-1","lat":35.705971,"lon":139.354507},{"name":"東部地域包括支援センター竹口病院","province":"東京都","city":"昭島市","address":"昭島市玉川町2-4-8-103","lat":35.707176,"lon":139.378174},{"name":"西部地域包括支援センター愛全園","province":"東京都","city":"昭島市","address":"昭島市拝島町3-10-4","lat":35.710747,"lon":139.334442},{"name":"中部地域包括支援センターあいぽっく","province":"東京都","city":"昭島市","address":"昭島市昭和町4-7-1保健福祉センター2F","lat":35.711014,"lon":139.363541},{"name":"南部地域包括支援センター愛全園","province":"東京都","city":"昭島市","address":"昭島市田中町2-25-3","lat":35.704052,"lon":139.351166},{"name":"北部地域包括支援センターハピネス昭和の森","province":"東京都","city":"昭島市","address":"昭島市拝島町4036-14","lat":35.695915,"lon":139.339401},{"name":"昭島市消費生活相談室","province":"東京都","city":"昭島市","address":"昭島市田中町1-17-1","lat":35.705971,"lon":139.354507},{"name":"中神駅入口","province":"東京都","city":"昭島市","address":"東京都昭島市朝日町3丁目6-1","lat":35.70723827,"lon":139.37555433},{"name":"拝島郵便局前","province":"東京都","city":"昭島市","address":"東京都昭島市拝島町2丁目8-11","lat":35.70826805,"lon":139.34027673},{"name":"昭島文化地区","province":"東京都","city":"昭島市","address":"東京都昭島市中神町1157","lat":35.71204326,"lon":139.37613747},{"name":"昭島市民図書館前","province":"東京都","city":"昭島市","address":"東京都昭島市東町2丁目6-33","lat":35.70546647,"lon":139.3851868},{"name":"昭島昭和町四丁目","province":"東京都","city":"昭島市","address":"東京都昭島市昭和町4丁目7-19","lat":35.71119312,"lon":139.36371919},{"name":"馬頭観音前","province":"東京都","city":"昭島市","address":"東京都昭島市朝日町3丁目1","lat":35.70625228,"lon":139.3758932},{"name":"昭島駅南口","province":"東京都","city":"昭島市","address":"東京都昭島市昭和町2丁目4","lat":35.71301785,"lon":139.36052498},{"name":"昭島駅北口","province":"東京都","city":"昭島市","address":"東京都昭島市田中町584-14","lat":35.7152176,"lon":139.36123598},{"name":"昭島市民会館西第二","province":"東京都","city":"昭島市","address":"東京都昭島市田中町562","lat":35.71341783,"lon":139.3620804},{"name":"昭島市役所中央第一","province":"東京都","city":"昭島市","address":"東京都昭島市田中町1丁目27","lat":35.70512424,"lon":139.3544729},{"name":"昭島十二神社南","province":"東京都","city":"昭島市","address":"東京都昭島市玉川町5丁目6","lat":35.7032999,"lon":139.37779867},{"name":"＊?青少年交流センター","province":"東京都","city":"昭島市","address":"昭島市昭和町1-6-11","lat":35.710986,"lon":139.365562},{"name":"＊?福島会館","province":"東京都","city":"昭島市","address":"昭島市福島町1-19-1","lat":35.696238,"lon":139.381918},{"name":"＊?玉川会館","province":"東京都","city":"昭島市","address":"昭島市玉川町3-10-15","lat":35.703704,"lon":139.382093},{"name":"＊?朝日会館","province":"東京都","city":"昭島市","address":"昭島市朝日町5-6-20","lat":35.705036,"lon":139.37283},{"name":"＊?堀向会館","province":"東京都","city":"昭島市","address":"昭島市美堀町2-6-11","lat":35.723033,"lon":139.363738},{"name":"＊?大神会館","province":"東京都","city":"昭島市","address":"昭島市大神町3-10-5","lat":35.700723,"lon":139.360759},{"name":"＊?昭和分館","province":"東京都","city":"昭島市","address":"昭島市松原町1-2-25","lat":35.712915,"lon":139.357675},{"name":"＊?緑分館","province":"東京都","city":"昭島市","address":"昭島市緑町4-13-26","lat":35.714198,"lon":139.34461},{"name":"＊?拝島会館","province":"東京都","city":"昭島市","address":"昭島市拝島町2-4-13","lat":35.707318,"lon":139.342086},{"name":"＊?やまのかみ会館","province":"東京都","city":"昭島市","address":"昭島市拝島町3-10-3","lat":35.711,"lon":139.335502},{"name":"＊?武蔵野会館","province":"東京都","city":"昭島市","address":"昭島市中神町1172-1","lat":35.711162,"lon":139.375787},{"name":"＊?富士見会館","province":"東京都","city":"昭島市","address":"昭島市中神町1282","lat":35.712306,"lon":139.382712},{"name":"(株)大久保  多摩古紙センター昭島","province":"東京都","city":"昭島市","address":"昭島市武蔵野2-9-33","lat":35.72261,"lon":139.376877},{"name":"三弘紙業(株)  昭島営業所","province":"東京都","city":"昭島市","address":"昭島市松原町2-3-17","lat":35.713634,"lon":139.35289},{"name":"昭島市清掃センター","province":"東京都","city":"昭島市","address":"東京都昭島市田中町4丁目3","lat":35.69331,"lon":139.348755},{"name":"キッズサポートてんとうむし","province":"東京都","city":"昭島市","address":"昭島市上川原町3-8-22","lat":35.708302,"lon":139.35957},{"name":"特定非営利活動法人昭島ひよこ教室","province":"東京都","city":"昭島市","address":"昭島市昭和町4-7-1","lat":35.710835,"lon":139.364125},{"name":"放課後等デイサービス　つむぐ　中神第２教室","province":"東京都","city":"昭島市","address":"昭島市中神町1228-20ミリューヴィラージュ106","lat":35.708858,"lon":139.37794},{"name":"放課後等デイサービス　つむぐ　中神教室","province":"東京都","city":"昭島市","address":"昭島市朝日町3-18-9大正第4ビル1階","lat":35.708124,"lon":139.373024},{"name":"脳を育てる運動療育センター　ピースマイル　中神教室","province":"東京都","city":"昭島市","address":"昭島市朝日町1-4-3SKビル2階B","lat":35.70806,"lon":139.375643},{"name":"ドリームボックス中神","province":"東京都","city":"昭島市","address":"昭島市玉川町2-4-11ヴェルシャトウ1階","lat":35.706738,"lon":139.378887},{"name":"昭島病院","province":"東京都","city":"昭島市","address":"昭島市中神町1260","lat":35.709385,"lon":139.382215},{"name":"市民図書館","province":"東京都","city":"昭島市","address":"東京都昭島市つつじが丘3丁目3-15","lat":35.71168206,"lon":139.36932424},{"name":"昭和分館","province":"東京都","city":"昭島市","address":"東京都昭島市松原町1丁目2-25","lat":35.71254841,"lon":139.3577419},{"name":"緑分館","province":"東京都","city":"昭島市","address":"東京都昭島市緑町4丁目13-26","lat":35.71423686,"lon":139.34460401},{"name":"やまのかみ分室","province":"東京都","city":"昭島市","address":"東京都昭島市拝島町3丁目10-3","lat":35.71094542,"lon":139.33552702},{"name":"玉川会館内臨時窓口","province":"東京都","city":"昭島市","address":"東京都昭島市玉川町3丁目10-15","lat":35.70373326,"lon":139.38208436},{"name":"あきしまこどもクッキング","province":"東京都","city":"昭島市","address":"東京都昭島市つつじが丘3丁目7-7","lat":35.71352901,"lon":139.36620781},{"name":"たまりば☆ぬくぬく","province":"東京都","city":"昭島市","address":"東京都昭島市松原町1丁目3-10","lat":35.71211512,"lon":139.35702252},{"name":"あおぞらみんな食堂","province":"東京都","city":"昭島市","address":"東京都昭島市郷地町2丁目20-24","lat":35.69716746,"lon":139.3854093},{"name":"あのねの会あのね食堂","province":"東京都","city":"昭島市","address":"東京都昭島市宮沢町512-13","lat":35.71400132,"lon":139.37351825},{"name":"子ども料理ひろば","province":"東京都","city":"昭島市","address":"東京都昭島市玉川町5丁目13-13","lat":35.7030138,"lon":139.37706542},{"name":"昭島子ども食堂みほりん広場","province":"東京都","city":"昭島市","address":"東京都昭島市拝島町3926-11","lat":35.72095295,"lon":139.35638069},{"name":"西部配水場","province":"東京都","city":"昭島市","address":"東京都昭島市緑町2-17-16","lat":35.712165,"lon":139.347832},{"name":"東部配水場","province":"東京都","city":"昭島市","address":"東京都昭島市朝日町4-23","lat":35.708692,"lon":139.369836},{"name":"昭島荘","province":"東京都","city":"昭島市","address":"昭島市中神町1260","lat":35.70815,"lon":139.38135},{"name":"中神駅北口第二自転車等駐車場","province":"東京都","city":"昭島市","address":"東京都昭島市中神町1245-10","lat":35.7100491,"lon":139.37825398},{"name":"昭島駅北口第二自転車等駐車場","province":"東京都","city":"昭島市","address":"東京都昭島市田中町562-1","lat":35.71421497,"lon":139.36248868},{"name":"昭島駅南口立体自転車等駐車場","province":"東京都","city":"昭島市","address":"東京都昭島市昭和町2丁目1-4","lat":35.71283181,"lon":139.362947},{"name":"東中神駅公団西側自転車等駐車場","province":"東京都","city":"昭島市","address":"東京都昭島市玉川町1丁目7-3","lat":35.70659962,"lon":139.38320083},{"name":"拝島駅南口地下自転車等駐車場","province":"東京都","city":"昭島市","address":"東京都昭島市松原町4丁目12-19","lat":35.71991669,"lon":139.34292342},{"name":"東中神駅北口第二自転車等駐車場","province":"東京都","city":"昭島市","address":"東京都昭島市福島町905-6","lat":35.7066163,"lon":139.38390354},{"name":"東中神駅西側自転車等駐車場","province":"東京都","city":"昭島市","address":"東京都昭島市玉川町1丁目7-2","lat":35.70613301,"lon":139.38364524},{"name":"中神駅入口","province":"東京都","city":"昭島市","address":"東京都昭島市朝日町3丁目6-1","lat":35.70723827,"lon":139.37555433},{"name":"拝島郵便局前","province":"東京都","city":"昭島市","address":"東京都昭島市拝島町2丁目8-11","lat":35.70826805,"lon":139.34027673},{"name":"昭島文化地区","province":"東京都","city":"昭島市","address":"東京都昭島市中神町1157","lat":35.71204326,"lon":139.37613747},{"name":"昭島市民図書館前","province":"東京都","city":"昭島市","address":"東京都昭島市東町2丁目6-33","lat":35.70546647,"lon":139.3851868},{"name":"昭島昭和町四丁目","province":"東京都","city":"昭島市","address":"東京都昭島市昭和町4丁目7-19","lat":35.71119312,"lon":139.36371919},{"name":"馬頭観音前","province":"東京都","city":"昭島市","address":"東京都昭島市朝日町3丁目1","lat":35.70625228,"lon":139.3758932},{"name":"昭島駅南口","province":"東京都","city":"昭島市","address":"東京都昭島市昭和町2丁目4","lat":35.71301785,"lon":139.36052498},{"name":"昭島駅北口","province":"東京都","city":"昭島市","address":"東京都昭島市田中町584-14","lat":35.7152176,"lon":139.36123598},{"name":"昭島市民会館西第二","province":"東京都","city":"昭島市","address":"東京都昭島市田中町562","lat":35.71341783,"lon":139.3620804},{"name":"昭島市役所中央第一","province":"東京都","city":"昭島市","address":"東京都昭島市田中町1丁目27","lat":35.70512424,"lon":139.3544729},{"name":"昭島十二神社南","province":"東京都","city":"昭島市","address":"東京都昭島市玉川町5丁目6","lat":35.7032999,"lon":139.37779867},{"name":"＊?青少年交流センター","province":"東京都","city":"昭島市","address":"昭島市昭和町1-6-11","lat":35.710986,"lon":139.365562},{"name":"＊?福島会館","province":"東京都","city":"昭島市","address":"昭島市福島町1-19-1","lat":35.696238,"lon":139.381918},{"name":"＊?玉川会館","province":"東京都","city":"昭島市","address":"昭島市玉川町3-10-15","lat":35.703704,"lon":139.382093},{"name":"＊?朝日会館","province":"東京都","city":"昭島市","address":"昭島市朝日町5-6-20","lat":35.705036,"lon":139.37283},{"name":"＊?堀向会館","province":"東京都","city":"昭島市","address":"昭島市美堀町2-6-11","lat":35.723033,"lon":139.363738},{"name":"＊?大神会館","province":"東京都","city":"昭島市","address":"昭島市大神町3-10-5","lat":35.700723,"lon":139.360759},{"name":"＊?昭和分館","province":"東京都","city":"昭島市","address":"昭島市松原町1-2-25","lat":35.712915,"lon":139.357675},{"name":"＊?緑分館","province":"東京都","city":"昭島市","address":"昭島市緑町4-13-26","lat":35.714198,"lon":139.34461},{"name":"＊?拝島会館","province":"東京都","city":"昭島市","address":"昭島市拝島町2-4-13","lat":35.707318,"lon":139.342086},{"name":"＊?やまのかみ会館","province":"東京都","city":"昭島市","address":"昭島市拝島町3-10-3","lat":35.711,"lon":139.335502},{"name":"＊?武蔵野会館","province":"東京都","city":"昭島市","address":"昭島市中神町1172-1","lat":35.711162,"lon":139.375787},{"name":"＊?富士見会館","province":"東京都","city":"昭島市","address":"昭島市中神町1282","lat":35.712306,"lon":139.382712},{"name":"(株)大久保  多摩古紙センター昭島","province":"東京都","city":"昭島市","address":"昭島市武蔵野2-9-33","lat":35.72261,"lon":139.376877},{"name":"三弘紙業(株)  昭島営業所","province":"東京都","city":"昭島市","address":"昭島市松原町2-3-17","lat":35.713634,"lon":139.35289},{"name":"昭島市清掃センター","province":"東京都","city":"昭島市","address":"東京都昭島市田中町4丁目3","lat":35.69331,"lon":139.348755},{"name":"キッズサポートてんとうむし","province":"東京都","city":"昭島市","address":"昭島市上川原町3-8-22","lat":35.708302,"lon":139.35957},{"name":"特定非営利活動法人昭島ひよこ教室","province":"東京都","city":"昭島市","address":"昭島市昭和町4-7-1","lat":35.710835,"lon":139.364125},{"name":"放課後等デイサービス　つむぐ　中神第２教室","province":"東京都","city":"昭島市","address":"昭島市中神町1228-20ミリューヴィラージュ106","lat":35.708858,"lon":139.37794},{"name":"放課後等デイサービス　つむぐ　中神教室","province":"東京都","city":"昭島市","address":"昭島市朝日町3-18-9大正第4ビル1階","lat":35.708124,"lon":139.373024},{"name":"脳を育てる運動療育センター　ピースマイル　中神教室","province":"東京都","city":"昭島市","address":"昭島市朝日町1-4-3SKビル2階B","lat":35.70806,"lon":139.375643},{"name":"ドリームボックス中神","province":"東京都","city":"昭島市","address":"昭島市玉川町2-4-11ヴェルシャトウ1階","lat":35.706738,"lon":139.378887},{"name":"昭島病院","province":"東京都","city":"昭島市","address":"昭島市中神町1260","lat":35.709385,"lon":139.382215},{"name":"市民図書館","province":"東京都","city":"昭島市","address":"東京都昭島市つつじが丘3丁目3-15","lat":35.71168206,"lon":139.36932424},{"name":"昭和分館","province":"東京都","city":"昭島市","address":"東京都昭島市松原町1丁目2-25","lat":35.71254841,"lon":139.3577419},{"name":"緑分館","province":"東京都","city":"昭島市","address":"東京都昭島市緑町4丁目13-26","lat":35.71423686,"lon":139.34460401},{"name":"やまのかみ分室","province":"東京都","city":"昭島市","address":"東京都昭島市拝島町3丁目10-3","lat":35.71094542,"lon":139.33552702},{"name":"玉川会館内臨時窓口","province":"東京都","city":"昭島市","address":"東京都昭島市玉川町3丁目10-15","lat":35.70373326,"lon":139.38208436},{"name":"あきしまこどもクッキング","province":"東京都","city":"昭島市","address":"東京都昭島市つつじが丘3丁目7-7","lat":35.71352901,"lon":139.36620781},{"name":"たまりば☆ぬくぬく","province":"東京都","city":"昭島市","address":"東京都昭島市松原町1丁目3-10","lat":35.71211512,"lon":139.35702252},{"name":"あおぞらみんな食堂","province":"東京都","city":"昭島市","address":"東京都昭島市郷地町2丁目20-24","lat":35.69716746,"lon":139.3854093},{"name":"あのねの会あのね食堂","province":"東京都","city":"昭島市","address":"東京都昭島市宮沢町512-13","lat":35.71400132,"lon":139.37351825},{"name":"子ども料理ひろば","province":"東京都","city":"昭島市","address":"東京都昭島市玉川町5丁目13-13","lat":35.7030138,"lon":139.37706542},{"name":"昭島子ども食堂みほりん広場","province":"東京都","city":"昭島市","address":"東京都昭島市拝島町3926-11","lat":35.72095295,"lon":139.35638069},{"name":"西部配水場","province":"東京都","city":"昭島市","address":"東京都昭島市緑町2-17-16","lat":35.712165,"lon":139.347832},{"name":"東部配水場","province":"東京都","city":"昭島市","address":"東京都昭島市朝日町4-23","lat":35.708692,"lon":139.369836},{"name":"昭島荘","province":"東京都","city":"昭島市","address":"昭島市中神町1260","lat":35.70815,"lon":139.38135},{"name":"中神駅北口第二自転車等駐車場","province":"東京都","city":"昭島市","address":"東京都昭島市中神町1245-10","lat":35.7100491,"lon":139.37825398},{"name":"昭島駅北口第二自転車等駐車場","province":"東京都","city":"昭島市","address":"東京都昭島市田中町562-1","lat":35.71421497,"lon":139.36248868},{"name":"昭島駅南口立体自転車等駐車場","province":"東京都","city":"昭島市","address":"東京都昭島市昭和町2丁目1-4","lat":35.71283181,"lon":139.362947},{"name":"東中神駅公団西側自転車等駐車場","province":"東京都","city":"昭島市","address":"東京都昭島市玉川町1丁目7-3","lat":35.70659962,"lon":139.38320083},{"name":"拝島駅南口地下自転車等駐車場","province":"東京都","city":"昭島市","address":"東京都昭島市松原町4丁目12-19","lat":35.71991669,"lon":139.34292342},{"name":"東中神駅北口第二自転車等駐車場","province":"東京都","city":"昭島市","address":"東京都昭島市福島町905-6","lat":35.7066163,"lon":139.38390354},{"name":"東中神駅西側自転車等駐車場","province":"東京都","city":"昭島市","address":"東京都昭島市玉川町1丁目7-2","lat":35.70613301,"lon":139.38364524},{"name":"中神駅入口","province":"東京都","city":"昭島市","address":"東京都昭島市朝日町3丁目6-1","lat":35.70723827,"lon":139.37555433},{"name":"拝島郵便局前","province":"東京都","city":"昭島市","address":"東京都昭島市拝島町2丁目8-11","lat":35.70826805,"lon":139.34027673},{"name":"昭島文化地区","province":"東京都","city":"昭島市","address":"東京都昭島市中神町1157","lat":35.71204326,"lon":139.37613747},{"name":"昭島市民図書館前","province":"東京都","city":"昭島市","address":"東京都昭島市東町2丁目6-33","lat":35.70546647,"lon":139.3851868},{"name":"昭島昭和町四丁目","province":"東京都","city":"昭島市","address":"東京都昭島市昭和町4丁目7-19","lat":35.71119312,"lon":139.36371919},{"name":"馬頭観音前","province":"東京都","city":"昭島市","address":"東京都昭島市朝日町3丁目1","lat":35.70625228,"lon":139.3758932},{"name":"昭島駅南口","province":"東京都","city":"昭島市","address":"東京都昭島市昭和町2丁目4","lat":35.71301785,"lon":139.36052498},{"name":"昭島駅北口","province":"東京都","city":"昭島市","address":"東京都昭島市田中町584-14","lat":35.7152176,"lon":139.36123598},{"name":"昭島市民会館西第二","province":"東京都","city":"昭島市","address":"東京都昭島市田中町562","lat":35.71341783,"lon":139.3620804},{"name":"昭島市役所中央第一","province":"東京都","city":"昭島市","address":"東京都昭島市田中町1丁目27","lat":35.70512424,"lon":139.3544729},{"name":"昭島十二神社南","province":"東京都","city":"昭島市","address":"東京都昭島市玉川町5丁目6","lat":35.7032999,"lon":139.37779867},{"name":"＊?青少年交流センター","province":"東京都","city":"昭島市","address":"昭島市昭和町1-6-11","lat":35.710986,"lon":139.365562},{"name":"＊?福島会館","province":"東京都","city":"昭島市","address":"昭島市福島町1-19-1","lat":35.696238,"lon":139.381918},{"name":"＊?玉川会館","province":"東京都","city":"昭島市","address":"昭島市玉川町3-10-15","lat":35.703704,"lon":139.382093},{"name":"＊?朝日会館","province":"東京都","city":"昭島市","address":"昭島市朝日町5-6-20","lat":35.705036,"lon":139.37283},{"name":"＊?堀向会館","province":"東京都","city":"昭島市","address":"昭島市美堀町2-6-11","lat":35.723033,"lon":139.363738},{"name":"＊?大神会館","province":"東京都","city":"昭島市","address":"昭島市大神町3-10-5","lat":35.700723,"lon":139.360759},{"name":"＊?昭和分館","province":"東京都","city":"昭島市","address":"昭島市松原町1-2-25","lat":35.712915,"lon":139.357675},{"name":"＊?緑分館","province":"東京都","city":"昭島市","address":"昭島市緑町4-13-26","lat":35.714198,"lon":139.34461},{"name":"＊?拝島会館","province":"東京都","city":"昭島市","address":"昭島市拝島町2-4-13","lat":35.707318,"lon":139.342086},{"name":"＊?やまのかみ会館","province":"東京都","city":"昭島市","address":"昭島市拝島町3-10-3","lat":35.711,"lon":139.335502},{"name":"＊?武蔵野会館","province":"東京都","city":"昭島市","address":"昭島市中神町1172-1","lat":35.711162,"lon":139.375787},{"name":"＊?富士見会館","province":"東京都","city":"昭島市","address":"昭島市中神町1282","lat":35.712306,"lon":139.382712},{"name":"昭島市清掃センター","province":"東京都","city":"昭島市","address":"東京都昭島市田中町4丁目3","lat":35.69331,"lon":139.348755},{"name":"キッズサポートてんとうむし","province":"東京都","city":"昭島市","address":"昭島市上川原町3-8-22","lat":35.708302,"lon":139.35957},{"name":"特定非営利活動法人昭島ひよこ教室","province":"東京都","city":"昭島市","address":"昭島市昭和町4-7-1","lat":35.710835,"lon":139.364125},{"name":"放課後等デイサービス　つむぐ　中神第２教室","province":"東京都","city":"昭島市","address":"昭島市中神町1228-20ミリューヴィラージュ106","lat":35.708858,"lon":139.37794},{"name":"放課後等デイサービス　つむぐ　中神教室","province":"東京都","city":"昭島市","address":"昭島市朝日町3-18-9大正第4ビル1階","lat":35.708124,"lon":139.373024},{"name":"脳を育てる運動療育センター　ピースマイル　中神教室","province":"東京都","city":"昭島市","address":"昭島市朝日町1-4-3SKビル2階B","lat":35.70806,"lon":139.375643},{"name":"ドリームボックス中神","province":"東京都","city":"昭島市","address":"昭島市玉川町2-4-11ヴェルシャトウ1階","lat":35.706738,"lon":139.378887},{"name":"昭島病院","province":"東京都","city":"昭島市","address":"昭島市中神町1260","lat":35.709385,"lon":139.382215},{"name":"あきしまこどもクッキング","province":"東京都","city":"昭島市","address":"東京都昭島市つつじが丘3丁目7-7","lat":35.71352901,"lon":139.36620781},{"name":"たまりば☆ぬくぬく","province":"東京都","city":"昭島市","address":"東京都昭島市松原町1丁目3-10","lat":35.71211512,"lon":139.35702252},{"name":"あおぞらみんな食堂","province":"東京都","city":"昭島市","address":"東京都昭島市郷地町2丁目20-24","lat":35.69716746,"lon":139.3854093},{"name":"あのねの会あのね食堂","province":"東京都","city":"昭島市","address":"東京都昭島市宮沢町512-13","lat":35.71400132,"lon":139.37351825},{"name":"子ども料理ひろば","province":"東京都","city":"昭島市","address":"東京都昭島市玉川町5丁目13-13","lat":35.7030138,"lon":139.37706542},{"name":"昭島子ども食堂みほりん広場","province":"東京都","city":"昭島市","address":"東京都昭島市拝島町3926-11","lat":35.72095295,"lon":139.35638069},{"name":"西部配水場","province":"東京都","city":"昭島市","address":"東京都昭島市緑町2-17-16","lat":35.712165,"lon":139.347832},{"name":"東部配水場","province":"東京都","city":"昭島市","address":"東京都昭島市朝日町4-23","lat":35.708692,"lon":139.369836},{"name":"昭島荘","province":"東京都","city":"昭島市","address":"昭島市中神町1260","lat":35.70815,"lon":139.38135},{"name":"中神駅北口第二自転車等駐車場","province":"東京都","city":"昭島市","address":"東京都昭島市中神町1245-10","lat":35.7100491,"lon":139.37825398},{"name":"昭島駅北口第二自転車等駐車場","province":"東京都","city":"昭島市","address":"東京都昭島市田中町562-1","lat":35.71421497,"lon":139.36248868},{"name":"昭島駅南口立体自転車等駐車場","province":"東京都","city":"昭島市","address":"東京都昭島市昭和町2丁目1-4","lat":35.71283181,"lon":139.362947},{"name":"東中神駅公団西側自転車等駐車場","province":"東京都","city":"昭島市","address":"東京都昭島市玉川町1丁目7-3","lat":35.70659962,"lon":139.38320083},{"name":"拝島駅南口地下自転車等駐車場","province":"東京都","city":"昭島市","address":"東京都昭島市松原町4丁目12-19","lat":35.71991669,"lon":139.34292342},{"name":"東中神駅北口第二自転車等駐車場","province":"東京都","city":"昭島市","address":"東京都昭島市福島町905-6","lat":35.7066163,"lon":139.38390354},{"name":"東中神駅西側自転車等駐車場","province":"東京都","city":"昭島市","address":"東京都昭島市玉川町1丁目7-2","lat":35.70613301,"lon":139.38364524},{"name":"中神駅入口","province":"東京都","city":"昭島市","address":"東京都昭島市朝日町3丁目6-1","lat":35.70723827,"lon":139.37555433},{"name":"拝島郵便局前","province":"東京都","city":"昭島市","address":"東京都昭島市拝島町2丁目8-11","lat":35.70826805,"lon":139.34027673},{"name":"昭島文化地区","province":"東京都","city":"昭島市","address":"東京都昭島市中神町1157","lat":35.71204326,"lon":139.37613747},{"name":"昭島市民図書館前","province":"東京都","city":"昭島市","address":"東京都昭島市東町2丁目6-33","lat":35.70546647,"lon":139.3851868},{"name":"昭島昭和町四丁目","province":"東京都","city":"昭島市","address":"東京都昭島市昭和町4丁目7-19","lat":35.71119312,"lon":139.36371919},{"name":"馬頭観音前","province":"東京都","city":"昭島市","address":"東京都昭島市朝日町3丁目1","lat":35.70625228,"lon":139.3758932},{"name":"昭島駅南口","province":"東京都","city":"昭島市","address":"東京都昭島市昭和町2丁目4","lat":35.71301785,"lon":139.36052498},{"name":"昭島駅北口","province":"東京都","city":"昭島市","address":"東京都昭島市田中町584-14","lat":35.7152176,"lon":139.36123598},{"name":"昭島市民会館西第二","province":"東京都","city":"昭島市","address":"東京都昭島市田中町562","lat":35.71341783,"lon":139.3620804},{"name":"昭島市役所中央第一","province":"東京都","city":"昭島市","address":"東京都昭島市田中町1丁目27","lat":35.70512424,"lon":139.3544729},{"name":"昭島十二神社南","province":"東京都","city":"昭島市","address":"東京都昭島市玉川町5丁目6","lat":35.7032999,"lon":139.37779867},{"name":"＊?青少年交流センター","province":"東京都","city":"昭島市","address":"昭島市昭和町1-6-11","lat":35.710986,"lon":139.365562},{"name":"＊?福島会館","province":"東京都","city":"昭島市","address":"昭島市福島町1-19-1","lat":35.696238,"lon":139.381918},{"name":"＊?玉川会館","province":"東京都","city":"昭島市","address":"昭島市玉川町3-10-15","lat":35.703704,"lon":139.382093},{"name":"＊?朝日会館","province":"東京都","city":"昭島市","address":"昭島市朝日町5-6-20","lat":35.705036,"lon":139.37283},{"name":"＊?堀向会館","province":"東京都","city":"昭島市","address":"昭島市美堀町2-6-11","lat":35.723033,"lon":139.363738},{"name":"＊?大神会館","province":"東京都","city":"昭島市","address":"昭島市大神町3-10-5","lat":35.700723,"lon":139.360759},{"name":"＊?昭和分館","province":"東京都","city":"昭島市","address":"昭島市松原町1-2-25","lat":35.712915,"lon":139.357675},{"name":"＊?緑分館","province":"東京都","city":"昭島市","address":"昭島市緑町4-13-26","lat":35.714198,"lon":139.34461},{"name":"＊?拝島会館","province":"東京都","city":"昭島市","address":"昭島市拝島町2-4-13","lat":35.707318,"lon":139.342086},{"name":"＊?やまのかみ会館","province":"東京都","city":"昭島市","address":"昭島市拝島町3-10-3","lat":35.711,"lon":139.335502},{"name":"＊?武蔵野会館","province":"東京都","city":"昭島市","address":"昭島市中神町1172-1","lat":35.711162,"lon":139.375787},{"name":"＊?富士見会館","province":"東京都","city":"昭島市","address":"昭島市中神町1282","lat":35.712306,"lon":139.382712},{"name":"昭島市清掃センター","province":"東京都","city":"昭島市","address":"東京都昭島市田中町4丁目3","lat":35.69331,"lon":139.348755},{"name":"キッズサポートてんとうむし","province":"東京都","city":"昭島市","address":"昭島市上川原町3-8-22","lat":35.708302,"lon":139.35957},{"name":"特定非営利活動法人昭島ひよこ教室","province":"東京都","city":"昭島市","address":"昭島市昭和町4-7-1","lat":35.710835,"lon":139.364125},{"name":"放課後等デイサービス　つむぐ　中神第２教室","province":"東京都","city":"昭島市","address":"昭島市中神町1228-20ミリューヴィラージュ106","lat":35.708858,"lon":139.37794},{"name":"放課後等デイサービス　つむぐ　中神教室","province":"東京都","city":"昭島市","address":"昭島市朝日町3-18-9大正第4ビル1階","lat":35.708124,"lon":139.373024},{"name":"脳を育てる運動療育センター　ピースマイル　中神教室","province":"東京都","city":"昭島市","address":"昭島市朝日町1-4-3SKビル2階B","lat":35.70806,"lon":139.375643},{"name":"ドリームボックス中神","province":"東京都","city":"昭島市","address":"昭島市玉川町2-4-11ヴェルシャトウ1階","lat":35.706738,"lon":139.378887},{"name":"昭島病院","province":"東京都","city":"昭島市","address":"昭島市中神町1260","lat":35.709385,"lon":139.382215},{"name":"西部配水場","province":"東京都","city":"昭島市","address":"東京都昭島市緑町2-17-16","lat":35.712165,"lon":139.347832},{"name":"東部配水場","province":"東京都","city":"昭島市","address":"東京都昭島市朝日町4-23","lat":35.708692,"lon":139.369836},{"name":"昭島荘","province":"東京都","city":"昭島市","address":"昭島市中神町1260","lat":35.70815,"lon":139.38135},{"name":"中神駅北口第二自転車等駐車場","province":"東京都","city":"昭島市","address":"東京都昭島市中神町1245-10","lat":35.7100491,"lon":139.37825398},{"name":"昭島駅北口第二自転車等駐車場","province":"東京都","city":"昭島市","address":"東京都昭島市田中町562-1","lat":35.71421497,"lon":139.36248868},{"name":"昭島駅南口立体自転車等駐車場","province":"東京都","city":"昭島市","address":"東京都昭島市昭和町2丁目1-4","lat":35.71283181,"lon":139.362947},{"name":"東中神駅公団西側自転車等駐車場","province":"東京都","city":"昭島市","address":"東京都昭島市玉川町1丁目7-3","lat":35.70659962,"lon":139.38320083},{"name":"拝島駅南口地下自転車等駐車場","province":"東京都","city":"昭島市","address":"東京都昭島市松原町4丁目12-19","lat":35.71991669,"lon":139.34292342},{"name":"東中神駅北口第二自転車等駐車場","province":"東京都","city":"昭島市","address":"東京都昭島市福島町905-6","lat":35.7066163,"lon":139.38390354},{"name":"東中神駅西側自転車等駐車場","province":"東京都","city":"昭島市","address":"東京都昭島市玉川町1丁目7-2","lat":35.70613301,"lon":139.38364524},{"name":"中神駅入口","province":"東京都","city":"昭島市","address":"東京都昭島市朝日町3丁目6-1","lat":35.70723827,"lon":139.37555433},{"name":"拝島郵便局前","province":"東京都","city":"昭島市","address":"東京都昭島市拝島町2丁目8-11","lat":35.70826805,"lon":139.34027673},{"name":"昭島文化地区","province":"東京都","city":"昭島市","address":"東京都昭島市中神町1157","lat":35.71204326,"lon":139.37613747},{"name":"昭島市民図書館前","province":"東京都","city":"昭島市","address":"東京都昭島市東町2丁目6-33","lat":35.70546647,"lon":139.3851868},{"name":"昭島昭和町四丁目","province":"東京都","city":"昭島市","address":"東京都昭島市昭和町4丁目7-19","lat":35.71119312,"lon":139.36371919},{"name":"馬頭観音前","province":"東京都","city":"昭島市","address":"東京都昭島市朝日町3丁目1","lat":35.70625228,"lon":139.3758932},{"name":"昭島駅南口","province":"東京都","city":"昭島市","address":"東京都昭島市昭和町2丁目4","lat":35.71301785,"lon":139.36052498},{"name":"昭島駅北口","province":"東京都","city":"昭島市","address":"東京都昭島市田中町584-14","lat":35.7152176,"lon":139.36123598},{"name":"昭島市民会館西第二","province":"東京都","city":"昭島市","address":"東京都昭島市田中町562","lat":35.71341783,"lon":139.3620804},{"name":"昭島市役所中央第一","province":"東京都","city":"昭島市","address":"東京都昭島市田中町1丁目27","lat":35.70512424,"lon":139.3544729},{"name":"昭島十二神社南","province":"東京都","city":"昭島市","address":"東京都昭島市玉川町5丁目6","lat":35.7032999,"lon":139.37779867},{"name":"＊?青少年交流センター","province":"東京都","city":"昭島市","address":"昭島市昭和町1-6-11","lat":35.710986,"lon":139.365562},{"name":"昭島市清掃センター","province":"東京都","city":"昭島市","address":"東京都昭島市田中町4丁目3","lat":35.69331,"lon":139.348755},{"name":"昭島病院","province":"東京都","city":"昭島市","address":"昭島市中神町1260","lat":35.709385,"lon":139.382215},{"name":"西部配水場","province":"東京都","city":"昭島市","address":"東京都昭島市緑町2-17-16","lat":35.712165,"lon":139.347832},{"name":"東部配水場","province":"東京都","city":"昭島市","address":"東京都昭島市朝日町4-23","lat":35.708692,"lon":139.369836},{"name":"昭島荘","province":"東京都","city":"昭島市","address":"昭島市中神町1260","lat":35.70815,"lon":139.38135},{"name":"中神駅北口第二自転車等駐車場","province":"東京都","city":"昭島市","address":"東京都昭島市中神町1245-10","lat":35.7100491,"lon":139.37825398},{"name":"昭島駅北口第二自転車等駐車場","province":"東京都","city":"昭島市","address":"東京都昭島市田中町562-1","lat":35.71421497,"lon":139.36248868},{"name":"昭島駅南口立体自転車等駐車場","province":"東京都","city":"昭島市","address":"東京都昭島市昭和町2丁目1-4","lat":35.71283181,"lon":139.362947},{"name":"東中神駅公団西側自転車等駐車場","province":"東京都","city":"昭島市","address":"東京都昭島市玉川町1丁目7-3","lat":35.70659962,"lon":139.38320083},{"name":"拝島駅南口地下自転車等駐車場","province":"東京都","city":"昭島市","address":"東京都昭島市松原町4丁目12-19","lat":35.71991669,"lon":139.34292342},{"name":"東中神駅北口第二自転車等駐車場","province":"東京都","city":"昭島市","address":"東京都昭島市福島町905-6","lat":35.7066163,"lon":139.38390354},{"name":"東中神駅西側自転車等駐車場","province":"東京都","city":"昭島市","address":"東京都昭島市玉川町1丁目7-2","lat":35.70613301,"lon":139.38364524},{"name":"＊?青少年交流センター","province":"東京都","city":"昭島市","address":"昭島市昭和町1-6-11","lat":35.710986,"lon":139.365562},{"name":"昭島市清掃センター","province":"東京都","city":"昭島市","address":"東京都昭島市田中町4丁目3","lat":35.69331,"lon":139.348755},{"name":"昭島病院","province":"東京都","city":"昭島市","address":"昭島市中神町1260","lat":35.709385,"lon":139.382215},{"name":"西部配水場","province":"東京都","city":"昭島市","address":"東京都昭島市緑町2-17-16","lat":35.712165,"lon":139.347832},{"name":"東部配水場","province":"東京都","city":"昭島市","address":"東京都昭島市朝日町4-23","lat":35.708692,"lon":139.369836},{"name":"昭島荘","province":"東京都","city":"昭島市","address":"昭島市中神町1260","lat":35.70815,"lon":139.38135},{"name":"中神駅北口第二自転車等駐車場","province":"東京都","city":"昭島市","address":"東京都昭島市中神町1245-10","lat":35.7100491,"lon":139.37825398},{"name":"昭島駅北口第二自転車等駐車場","province":"東京都","city":"昭島市","address":"東京都昭島市田中町562-1","lat":35.71421497,"lon":139.36248868},{"name":"昭島駅南口立体自転車等駐車場","province":"東京都","city":"昭島市","address":"東京都昭島市昭和町2丁目1-4","lat":35.71283181,"lon":139.362947},{"name":"東中神駅公団西側自転車等駐車場","province":"東京都","city":"昭島市","address":"東京都昭島市玉川町1丁目7-3","lat":35.70659962,"lon":139.38320083},{"name":"拝島駅南口地下自転車等駐車場","province":"東京都","city":"昭島市","address":"東京都昭島市松原町4丁目12-19","lat":35.71991669,"lon":139.34292342},{"name":"東中神駅北口第二自転車等駐車場","province":"東京都","city":"昭島市","address":"東京都昭島市福島町905-6","lat":35.7066163,"lon":139.38390354},{"name":"東中神駅西側自転車等駐車場","province":"東京都","city":"昭島市","address":"東京都昭島市玉川町1丁目7-2","lat":35.70613301,"lon":139.38364524},{"name":"＊?青少年交流センター","province":"東京都","city":"昭島市","address":"昭島市昭和町1-6-11","lat":35.710986,"lon":139.365562},{"name":"昭島市清掃センター","province":"東京都","city":"昭島市","address":"東京都昭島市田中町4丁目3","lat":35.69331,"lon":139.348755},{"name":"西部配水場","province":"東京都","city":"昭島市","address":"東京都昭島市緑町2-17-16","lat":35.712165,"lon":139.347832},{"name":"東部配水場","province":"東京都","city":"昭島市","address":"東京都昭島市朝日町4-23","lat":35.708692,"lon":139.369836},{"name":"中神駅北口第二自転車等駐車場","province":"東京都","city":"昭島市","address":"東京都昭島市中神町1245-10","lat":35.7100491,"lon":139.37825398},{"name":"昭島駅北口第二自転車等駐車場","province":"東京都","city":"昭島市","address":"東京都昭島市田中町562-1","lat":35.71421497,"lon":139.36248868},{"name":"昭島駅南口立体自転車等駐車場","province":"東京都","city":"昭島市","address":"東京都昭島市昭和町2丁目1-4","lat":35.71283181,"lon":139.362947},{"name":"東中神駅公団西側自転車等駐車場","province":"東京都","city":"昭島市","address":"東京都昭島市玉川町1丁目7-3","lat":35.70659962,"lon":139.38320083},{"name":"拝島駅南口地下自転車等駐車場","province":"東京都","city":"昭島市","address":"東京都昭島市松原町4丁目12-19","lat":35.71991669,"lon":139.34292342},{"name":"東中神駅北口第二自転車等駐車場","province":"東京都","city":"昭島市","address":"東京都昭島市福島町905-6","lat":35.7066163,"lon":139.38390354},{"name":"東中神駅西側自転車等駐車場","province":"東京都","city":"昭島市","address":"東京都昭島市玉川町1丁目7-2","lat":35.70613301,"lon":139.38364524},{"name":"＊?青少年交流センター","province":"東京都","city":"昭島市","address":"昭島市昭和町1-6-11","lat":35.710986,"lon":139.365562},{"name":"昭島市清掃センター","province":"東京都","city":"昭島市","address":"東京都昭島市田中町4丁目3","lat":35.69331,"lon":139.348755},{"name":"＊?青少年交流センター","province":"東京都","city":"昭島市","address":"昭島市昭和町1-6-11","lat":35.710986,"lon":139.365562},{"name":"昭島市清掃センター","province":"東京都","city":"昭島市","address":"東京都昭島市田中町4丁目3","lat":35.69331,"lon":139.348755},{"name":"＊?青少年交流センター","province":"東京都","city":"昭島市","address":"昭島市昭和町1-6-11","lat":35.710986,"lon":139.365562},{"name":"昭島市清掃センター","province":"東京都","city":"昭島市","address":"東京都昭島市田中町4丁目3","lat":35.69331,"lon":139.348755},{"name":"＊?青少年交流センター","province":"東京都","city":"昭島市","address":"昭島市昭和町1-6-11","lat":35.710986,"lon":139.365562},{"name":"昭島市清掃センター","province":"東京都","city":"昭島市","address":"東京都昭島市田中町4丁目3","lat":35.69331,"lon":139.348755},{"name":"昭島市清掃センター","province":"東京都","city":"昭島市","address":"東京都昭島市田中町4丁目3","lat":35.69331,"lon":139.348755},{"name":"昭島市清掃センター","province":"東京都","city":"昭島市","address":"東京都昭島市田中町4丁目3","lat":35.69331,"lon":139.348755},{"name":"昭島市清掃センター","province":"東京都","city":"昭島市","address":"東京都昭島市田中町4丁目3","lat":35.69331,"lon":139.348755},{"name":"昭島市清掃センター","province":"東京都","city":"昭島市","address":"東京都昭島市田中町4丁目3","lat":35.69331,"lon":139.348755},{"name":"昭島市清掃センター","province":"東京都","city":"昭島市","address":"東京都昭島市田中町4丁目3","lat":35.69331,"lon":139.348755},{"name":"昭島市清掃センター","province":"東京都","city":"昭島市","address":"東京都昭島市田中町4丁目3","lat":35.69331,"lon":139.348755},{"name":"昭島市清掃センター","province":"東京都","city":"昭島市","address":"東京都昭島市田中町4丁目3","lat":35.69331,"lon":139.348755},{"name":"昭島市清掃センター","province":"東京都","city":"昭島市","address":"東京都昭島市田中町4丁目3","lat":35.69331,"lon":139.348755},{"name":"昭島市清掃センター","province":"東京都","city":"昭島市","address":"東京都昭島市田中町4丁目3","lat":35.69331,"lon":139.348755},{"name":"昭島市清掃センター","province":"東京都","city":"昭島市","address":"東京都昭島市田中町4丁目3","lat":35.69331,"lon":139.348755},{"name":"昭島市清掃センター","province":"東京都","city":"昭島市","address":"東京都昭島市田中町4丁目3","lat":35.69331,"lon":139.348755},{"name":"昭島市清掃センター","province":"東京都","city":"昭島市","address":"東京都昭島市田中町4丁目3","lat":35.69331,"lon":139.348755},{"name":"昭島市清掃センター","province":"東京都","city":"昭島市","address":"東京都昭島市田中町4丁目3","lat":35.69331,"lon":139.348755},{"name":"昭島市清掃センター","province":"東京都","city":"昭島市","address":"東京都昭島市田中町4丁目3","lat":35.69331,"lon":139.348755},{"name":"昭島市清掃センター","province":"東京都","city":"昭島市","address":"東京都昭島市田中町4丁目3","lat":35.69331,"lon":139.348755},{"name":"昭島市清掃センター","province":"東京都","city":"昭島市","address":"東京都昭島市田中町4丁目3","lat":35.69331,"lon":139.348755},{"name":"昭島市清掃センター","province":"東京都","city":"昭島市","address":"東京都昭島市田中町4丁目3","lat":35.69331,"lon":139.348755},{"name":"昭島市清掃センター","province":"東京都","city":"昭島市","address":"東京都昭島市田中町4丁目3","lat":35.69331,"lon":139.348755},{"name":"昭島市清掃センター","province":"東京都","city":"昭島市","address":"東京都昭島市田中町4丁目3","lat":35.69331,"lon":139.348755},{"name":"昭島市清掃センター","province":"東京都","city":"昭島市","address":"東京都昭島市田中町4丁目3","lat":35.69331,"lon":139.348755},{"name":"昭島市清掃センター","province":"東京都","city":"昭島市","address":"東京都昭島市田中町4丁目3","lat":35.69331,"lon":139.348755},{"name":"昭島市清掃センター","province":"東京都","city":"昭島市","address":"東京都昭島市田中町4丁目3","lat":35.69331,"lon":139.348755},{"name":"昭島市清掃センター","province":"東京都","city":"昭島市","address":"東京都昭島市田中町4丁目3","lat":35.69331,"lon":139.348755}]}