{"keyword":"葬儀","data":[{"name":"JA全農東京JA東京葬祭センター（源想園昭島葬儀会館）","province":"東京都","city":"昭島市","address":"東京都昭島市中神町3丁目1-1","lat":35.6966812,"lon":139.37542966},{"name":"株式会社セレモア（ガーデン会館昭島）","province":"東京都","city":"昭島市","address":"東京都昭島市玉川町2丁目4-12","lat":35.70655788,"lon":139.37958173},{"name":"株式会社ドリーミー","province":"東京都","city":"昭島市","address":"東京都昭島市田中町1丁目27-15","lat":35.7054492,"lon":139.35437846},{"name":"株式会社あさひセレモニー","province":"東京都","city":"昭島市","address":"東京都昭島市玉川町4丁目1-10","lat":35.70555248,"lon":139.38102051},{"name":"株式会社東京サービスセンター（セレモニーホール昭島）","province":"東京都","city":"昭島市","address":"東京都昭島市宮沢町1丁目7-2","lat":35.70616044,"lon":139.36649129},{"name":"株式会社村尾組（そうしんホール昭島）","province":"東京都","city":"昭島市","address":"東京都昭島市武蔵野3丁目5-1","lat":35.71971183,"lon":139.37585683},{"name":"株式会社結セレモニー（くじら葬祭）","province":"東京都","city":"昭島市","address":"東京都昭島市福島町3丁目23-28","lat":35.69637846,"lon":139.37589906},{"name":"そうしんホール昭島","province":"東京都","city":"昭島市","address":"東京都昭島市武蔵野3丁目5-1","lat":35.71971183,"lon":139.37585683},{"name":"株式会社おぼうさんどっとこむ","province":"東京都","city":"昭島市","address":"東京都昭島市中神町1135-47","lat":35.71175989,"lon":139.37259061},{"name":"JA東京葬祭センター","province":"東京都","city":"昭島市","address":"東京都昭島市中神町3丁目1-1","lat":35.6966812,"lon":139.37542966},{"name":"（株）おぼうさんどっとこむ","province":"東京都","city":"昭島市","address":"東京都昭島市中神町1135-47","lat":35.71175989,"lon":139.37259061}]}