{"keyword":"週","data":[{"name":"昭島市児童センター","province":"東京都","city":"昭島市","address":"昭島市つつじが丘2-3-21","lat":35.714246,"lon":139.367011},{"name":"昭島市社会福祉協議会","province":"東京都","city":"昭島市","address":"昭島市昭和町4-7-1保健福祉センター2階","lat":35.710835,"lon":139.364125},{"name":"市民図書館","province":"東京都","city":"昭島市","address":"東京都昭島市つつじが丘3丁目3-15","lat":35.71168206,"lon":139.36932424},{"name":"昭和分館","province":"東京都","city":"昭島市","address":"東京都昭島市松原町1丁目2-25","lat":35.71254841,"lon":139.3577419},{"name":"緑分館","province":"東京都","city":"昭島市","address":"東京都昭島市緑町4丁目13-26","lat":35.71423686,"lon":139.34460401},{"name":"やまのかみ分室","province":"東京都","city":"昭島市","address":"東京都昭島市拝島町3丁目10-3","lat":35.71094542,"lon":139.33552702},{"name":"玉川会館内臨時窓口","province":"東京都","city":"昭島市","address":"東京都昭島市玉川町3丁目10-15","lat":35.70373326,"lon":139.38208436},{"name":"昭島市児童センター","province":"東京都","city":"昭島市","address":"昭島市つつじが丘2-3-21","lat":35.71416,"lon":139.36705},{"name":"昭島市社会福祉協議会","province":"東京都","city":"昭島市","address":"昭島市昭和町4-7-1昭島市保健福祉センター2階","lat":35.71101,"lon":139.36354},{"name":"昭島市児童センター","province":"東京都","city":"昭島市","address":"昭島市つつじが丘2-3-21","lat":35.71417,"lon":139.36705},{"name":"昭島市児童センター","province":"東京都","city":"昭島市","address":"昭島市つつじが丘2-3-21","lat":35.71263,"lon":139.36771},{"name":"東部配水場","province":"東京都","city":"昭島市","address":"東京都昭島市朝日町4丁目23-28","lat":35.70855468,"lon":139.37011036},{"name":"昭島市立大神公園・市立多摩川緑地くじら運動公園","province":"東京都","city":"昭島市","address":"東京都昭島市宮沢町3丁目17","lat":35.69509229,"lon":139.36457787},{"name":"昭和の森ゴルフコース（アウトコース７番）","province":"東京都","city":"昭島市","address":"東京都昭島市つつじが丘1丁目1-7","lat":35.72342513,"lon":139.3692435},{"name":"＊?昭島市公民館","province":"東京都","city":"昭島市","address":"昭島市つつじが丘3-7-7","lat":35.713459,"lon":139.366171},{"name":"＊?市民図書館","province":"東京都","city":"昭島市","address":"昭島市東町2-6-33","lat":35.705301,"lon":139.38519},{"name":"＊?昭島市民図書館昭和分館","province":"東京都","city":"昭島市","address":"昭島市松原町1-2-25","lat":35.712915,"lon":139.357675},{"name":"＊?昭島市民図書館緑分館","province":"東京都","city":"昭島市","address":"昭島市緑町4-13-26","lat":35.714198,"lon":139.34461},{"name":"＊?昭島市民図書館つつじが丘分室","province":"東京都","city":"昭島市","address":"昭島市つつじが丘3-1-30","lat":35.714331,"lon":139.370987},{"name":"＊?昭島市民図書館やまのかみ分室","province":"東京都","city":"昭島市","address":"昭島市拝島町3-10-3","lat":35.711009,"lon":139.335511},{"name":"昭島市保健福祉センター","province":"東京都","city":"昭島市","address":"東京都昭島市昭和町4丁目7-1","lat":35.71083484,"lon":139.36412472},{"name":"昭島市本庁舎","province":"東京都","city":"昭島市","address":"昭島市田中町1-17-1","lat":35.705755,"lon":139.353609},{"name":"昭島警察署","province":"東京都","city":"昭島市","address":"昭島市上川原町1-1-1","lat":35.70894,"lon":139.3637},{"name":"昭島消防署","province":"東京都","city":"昭島市","address":"昭島市松原町1-14-1","lat":35.71423,"lon":139.3543},{"name":"立川酸素（株）","province":"東京都","city":"昭島市","address":"昭島市福島町2-28-20","lat":35.69772,"lon":139.3792},{"name":"昭島市清掃センター","province":"東京都","city":"昭島市","address":"昭島市田中町4-3-14","lat":35.69368,"lon":139.3479},{"name":"※昭島市本庁舎","province":"東京都","city":"昭島市","address":"東京都昭島市田中町1丁目17-1","lat":35.70573804,"lon":139.35361463},{"name":"昭島市児童センター","province":"東京都","city":"昭島市","address":"昭島市つつじが丘2-3-21","lat":35.714246,"lon":139.367011},{"name":"昭島市社会福祉協議会","province":"東京都","city":"昭島市","address":"昭島市昭和町4-7-1保健福祉センター2階","lat":35.710835,"lon":139.364125},{"name":"市民図書館","province":"東京都","city":"昭島市","address":"東京都昭島市つつじが丘3丁目3-15","lat":35.71168206,"lon":139.36932424},{"name":"昭和分館","province":"東京都","city":"昭島市","address":"東京都昭島市松原町1丁目2-25","lat":35.71254841,"lon":139.3577419},{"name":"緑分館","province":"東京都","city":"昭島市","address":"東京都昭島市緑町4丁目13-26","lat":35.71423686,"lon":139.34460401},{"name":"やまのかみ分室","province":"東京都","city":"昭島市","address":"東京都昭島市拝島町3丁目10-3","lat":35.71094542,"lon":139.33552702},{"name":"玉川会館内臨時窓口","province":"東京都","city":"昭島市","address":"東京都昭島市玉川町3丁目10-15","lat":35.70373326,"lon":139.38208436},{"name":"昭島市児童センター","province":"東京都","city":"昭島市","address":"昭島市つつじが丘2-3-21","lat":35.71416,"lon":139.36705},{"name":"昭島市社会福祉協議会","province":"東京都","city":"昭島市","address":"昭島市昭和町4-7-1昭島市保健福祉センター2階","lat":35.71101,"lon":139.36354},{"name":"昭島市児童センター","province":"東京都","city":"昭島市","address":"昭島市つつじが丘2-3-21","lat":35.71417,"lon":139.36705},{"name":"昭島市児童センター","province":"東京都","city":"昭島市","address":"昭島市つつじが丘2-3-21","lat":35.71263,"lon":139.36771},{"name":"東部配水場","province":"東京都","city":"昭島市","address":"東京都昭島市朝日町4丁目23-28","lat":35.70855468,"lon":139.37011036},{"name":"＊?昭島市公民館","province":"東京都","city":"昭島市","address":"昭島市つつじが丘3-7-7","lat":35.713459,"lon":139.366171},{"name":"＊?市民図書館","province":"東京都","city":"昭島市","address":"昭島市東町2-6-33","lat":35.705301,"lon":139.38519},{"name":"＊?昭島市民図書館昭和分館","province":"東京都","city":"昭島市","address":"昭島市松原町1-2-25","lat":35.712915,"lon":139.357675},{"name":"＊?昭島市民図書館緑分館","province":"東京都","city":"昭島市","address":"昭島市緑町4-13-26","lat":35.714198,"lon":139.34461},{"name":"＊?昭島市民図書館つつじが丘分室","province":"東京都","city":"昭島市","address":"昭島市つつじが丘3-1-30","lat":35.714331,"lon":139.370987},{"name":"＊?昭島市民図書館やまのかみ分室","province":"東京都","city":"昭島市","address":"昭島市拝島町3-10-3","lat":35.711009,"lon":139.335511},{"name":"昭島市保健福祉センター","province":"東京都","city":"昭島市","address":"東京都昭島市昭和町4丁目7-1","lat":35.71083484,"lon":139.36412472},{"name":"昭島市本庁舎","province":"東京都","city":"昭島市","address":"昭島市田中町1-17-1","lat":35.705755,"lon":139.353609},{"name":"昭島警察署","province":"東京都","city":"昭島市","address":"昭島市上川原町1-1-1","lat":35.70894,"lon":139.3637},{"name":"昭島消防署","province":"東京都","city":"昭島市","address":"昭島市松原町1-14-1","lat":35.71423,"lon":139.3543},{"name":"昭島市清掃センター","province":"東京都","city":"昭島市","address":"昭島市田中町4-3-14","lat":35.69368,"lon":139.3479},{"name":"昭島市児童センター","province":"東京都","city":"昭島市","address":"昭島市つつじが丘2-3-21","lat":35.714246,"lon":139.367011},{"name":"昭島市社会福祉協議会","province":"東京都","city":"昭島市","address":"昭島市昭和町4-7-1保健福祉センター2階","lat":35.710835,"lon":139.364125},{"name":"市民図書館","province":"東京都","city":"昭島市","address":"東京都昭島市つつじが丘3丁目3-15","lat":35.71168206,"lon":139.36932424},{"name":"昭和分館","province":"東京都","city":"昭島市","address":"東京都昭島市松原町1丁目2-25","lat":35.71254841,"lon":139.3577419},{"name":"緑分館","province":"東京都","city":"昭島市","address":"東京都昭島市緑町4丁目13-26","lat":35.71423686,"lon":139.34460401},{"name":"やまのかみ分室","province":"東京都","city":"昭島市","address":"東京都昭島市拝島町3丁目10-3","lat":35.71094542,"lon":139.33552702},{"name":"玉川会館内臨時窓口","province":"東京都","city":"昭島市","address":"東京都昭島市玉川町3丁目10-15","lat":35.70373326,"lon":139.38208436},{"name":"昭島市児童センター","province":"東京都","city":"昭島市","address":"昭島市つつじが丘2-3-21","lat":35.71416,"lon":139.36705},{"name":"昭島市社会福祉協議会","province":"東京都","city":"昭島市","address":"昭島市昭和町4-7-1昭島市保健福祉センター2階","lat":35.71101,"lon":139.36354},{"name":"昭島市児童センター","province":"東京都","city":"昭島市","address":"昭島市つつじが丘2-3-21","lat":35.71417,"lon":139.36705},{"name":"昭島市児童センター","province":"東京都","city":"昭島市","address":"昭島市つつじが丘2-3-21","lat":35.71263,"lon":139.36771},{"name":"＊?昭島市公民館","province":"東京都","city":"昭島市","address":"昭島市つつじが丘3-7-7","lat":35.713459,"lon":139.366171},{"name":"＊?市民図書館","province":"東京都","city":"昭島市","address":"昭島市東町2-6-33","lat":35.705301,"lon":139.38519},{"name":"＊?昭島市民図書館昭和分館","province":"東京都","city":"昭島市","address":"昭島市松原町1-2-25","lat":35.712915,"lon":139.357675},{"name":"＊?昭島市民図書館緑分館","province":"東京都","city":"昭島市","address":"昭島市緑町4-13-26","lat":35.714198,"lon":139.34461},{"name":"＊?昭島市民図書館つつじが丘分室","province":"東京都","city":"昭島市","address":"昭島市つつじが丘3-1-30","lat":35.714331,"lon":139.370987},{"name":"＊?昭島市民図書館やまのかみ分室","province":"東京都","city":"昭島市","address":"昭島市拝島町3-10-3","lat":35.711009,"lon":139.335511},{"name":"昭島市児童センター","province":"東京都","city":"昭島市","address":"昭島市つつじが丘2-3-21","lat":35.714246,"lon":139.367011},{"name":"昭島市社会福祉協議会","province":"東京都","city":"昭島市","address":"昭島市昭和町4-7-1保健福祉センター2階","lat":35.710835,"lon":139.364125},{"name":"市民図書館","province":"東京都","city":"昭島市","address":"東京都昭島市つつじが丘3丁目3-15","lat":35.71168206,"lon":139.36932424},{"name":"昭和分館","province":"東京都","city":"昭島市","address":"東京都昭島市松原町1丁目2-25","lat":35.71254841,"lon":139.3577419},{"name":"緑分館","province":"東京都","city":"昭島市","address":"東京都昭島市緑町4丁目13-26","lat":35.71423686,"lon":139.34460401},{"name":"やまのかみ分室","province":"東京都","city":"昭島市","address":"東京都昭島市拝島町3丁目10-3","lat":35.71094542,"lon":139.33552702},{"name":"玉川会館内臨時窓口","province":"東京都","city":"昭島市","address":"東京都昭島市玉川町3丁目10-15","lat":35.70373326,"lon":139.38208436},{"name":"昭島市児童センター","province":"東京都","city":"昭島市","address":"昭島市つつじが丘2-3-21","lat":35.71416,"lon":139.36705},{"name":"昭島市社会福祉協議会","province":"東京都","city":"昭島市","address":"昭島市昭和町4-7-1昭島市保健福祉センター2階","lat":35.71101,"lon":139.36354},{"name":"昭島市児童センター","province":"東京都","city":"昭島市","address":"昭島市つつじが丘2-3-21","lat":35.71417,"lon":139.36705},{"name":"昭島市児童センター","province":"東京都","city":"昭島市","address":"昭島市つつじが丘2-3-21","lat":35.71263,"lon":139.36771},{"name":"＊?昭島市公民館","province":"東京都","city":"昭島市","address":"昭島市つつじが丘3-7-7","lat":35.713459,"lon":139.366171},{"name":"＊?市民図書館","province":"東京都","city":"昭島市","address":"昭島市東町2-6-33","lat":35.705301,"lon":139.38519},{"name":"＊?昭島市民図書館昭和分館","province":"東京都","city":"昭島市","address":"昭島市松原町1-2-25","lat":35.712915,"lon":139.357675},{"name":"＊?昭島市民図書館緑分館","province":"東京都","city":"昭島市","address":"昭島市緑町4-13-26","lat":35.714198,"lon":139.34461},{"name":"＊?昭島市民図書館つつじが丘分室","province":"東京都","city":"昭島市","address":"昭島市つつじが丘3-1-30","lat":35.714331,"lon":139.370987},{"name":"＊?昭島市民図書館やまのかみ分室","province":"東京都","city":"昭島市","address":"昭島市拝島町3-10-3","lat":35.711009,"lon":139.335511},{"name":"昭島市児童センター","province":"東京都","city":"昭島市","address":"昭島市つつじが丘2-3-21","lat":35.714246,"lon":139.367011},{"name":"市民図書館","province":"東京都","city":"昭島市","address":"東京都昭島市つつじが丘3丁目3-15","lat":35.71168206,"lon":139.36932424},{"name":"昭和分館","province":"東京都","city":"昭島市","address":"東京都昭島市松原町1丁目2-25","lat":35.71254841,"lon":139.3577419},{"name":"緑分館","province":"東京都","city":"昭島市","address":"東京都昭島市緑町4丁目13-26","lat":35.71423686,"lon":139.34460401},{"name":"やまのかみ分室","province":"東京都","city":"昭島市","address":"東京都昭島市拝島町3丁目10-3","lat":35.71094542,"lon":139.33552702},{"name":"玉川会館内臨時窓口","province":"東京都","city":"昭島市","address":"東京都昭島市玉川町3丁目10-15","lat":35.70373326,"lon":139.38208436},{"name":"昭島市児童センター","province":"東京都","city":"昭島市","address":"昭島市つつじが丘2-3-21","lat":35.71416,"lon":139.36705},{"name":"昭島市児童センター","province":"東京都","city":"昭島市","address":"昭島市つつじが丘2-3-21","lat":35.71417,"lon":139.36705},{"name":"昭島市児童センター","province":"東京都","city":"昭島市","address":"昭島市つつじが丘2-3-21","lat":35.71263,"lon":139.36771},{"name":"＊?昭島市公民館","province":"東京都","city":"昭島市","address":"昭島市つつじが丘3-7-7","lat":35.713459,"lon":139.366171},{"name":"＊?市民図書館","province":"東京都","city":"昭島市","address":"昭島市東町2-6-33","lat":35.705301,"lon":139.38519},{"name":"＊?昭島市民図書館昭和分館","province":"東京都","city":"昭島市","address":"昭島市松原町1-2-25","lat":35.712915,"lon":139.357675},{"name":"＊?昭島市民図書館緑分館","province":"東京都","city":"昭島市","address":"昭島市緑町4-13-26","lat":35.714198,"lon":139.34461},{"name":"＊?昭島市民図書館つつじが丘分室","province":"東京都","city":"昭島市","address":"昭島市つつじが丘3-1-30","lat":35.714331,"lon":139.370987},{"name":"＊?昭島市民図書館やまのかみ分室","province":"東京都","city":"昭島市","address":"昭島市拝島町3-10-3","lat":35.711009,"lon":139.335511},{"name":"昭島市児童センター","province":"東京都","city":"昭島市","address":"昭島市つつじが丘2-3-21","lat":35.714246,"lon":139.367011},{"name":"市民図書館","province":"東京都","city":"昭島市","address":"東京都昭島市つつじが丘3丁目3-15","lat":35.71168206,"lon":139.36932424},{"name":"昭和分館","province":"東京都","city":"昭島市","address":"東京都昭島市松原町1丁目2-25","lat":35.71254841,"lon":139.3577419},{"name":"緑分館","province":"東京都","city":"昭島市","address":"東京都昭島市緑町4丁目13-26","lat":35.71423686,"lon":139.34460401},{"name":"やまのかみ分室","province":"東京都","city":"昭島市","address":"東京都昭島市拝島町3丁目10-3","lat":35.71094542,"lon":139.33552702},{"name":"玉川会館内臨時窓口","province":"東京都","city":"昭島市","address":"東京都昭島市玉川町3丁目10-15","lat":35.70373326,"lon":139.38208436},{"name":"昭島市児童センター","province":"東京都","city":"昭島市","address":"昭島市つつじが丘2-3-21","lat":35.71416,"lon":139.36705},{"name":"昭島市児童センター","province":"東京都","city":"昭島市","address":"昭島市つつじが丘2-3-21","lat":35.71417,"lon":139.36705},{"name":"昭島市児童センター","province":"東京都","city":"昭島市","address":"昭島市つつじが丘2-3-21","lat":35.71263,"lon":139.36771},{"name":"＊?昭島市公民館","province":"東京都","city":"昭島市","address":"昭島市つつじが丘3-7-7","lat":35.713459,"lon":139.366171},{"name":"＊?市民図書館","province":"東京都","city":"昭島市","address":"昭島市東町2-6-33","lat":35.705301,"lon":139.38519},{"name":"＊?昭島市民図書館昭和分館","province":"東京都","city":"昭島市","address":"昭島市松原町1-2-25","lat":35.712915,"lon":139.357675},{"name":"＊?昭島市民図書館緑分館","province":"東京都","city":"昭島市","address":"昭島市緑町4-13-26","lat":35.714198,"lon":139.34461},{"name":"＊?昭島市民図書館つつじが丘分室","province":"東京都","city":"昭島市","address":"昭島市つつじが丘3-1-30","lat":35.714331,"lon":139.370987},{"name":"＊?昭島市民図書館やまのかみ分室","province":"東京都","city":"昭島市","address":"昭島市拝島町3-10-3","lat":35.711009,"lon":139.335511},{"name":"昭島市児童センター","province":"東京都","city":"昭島市","address":"昭島市つつじが丘2-3-21","lat":35.714246,"lon":139.367011},{"name":"市民図書館","province":"東京都","city":"昭島市","address":"東京都昭島市つつじが丘3丁目3-15","lat":35.71168206,"lon":139.36932424},{"name":"昭和分館","province":"東京都","city":"昭島市","address":"東京都昭島市松原町1丁目2-25","lat":35.71254841,"lon":139.3577419},{"name":"緑分館","province":"東京都","city":"昭島市","address":"東京都昭島市緑町4丁目13-26","lat":35.71423686,"lon":139.34460401},{"name":"やまのかみ分室","province":"東京都","city":"昭島市","address":"東京都昭島市拝島町3丁目10-3","lat":35.71094542,"lon":139.33552702},{"name":"玉川会館内臨時窓口","province":"東京都","city":"昭島市","address":"東京都昭島市玉川町3丁目10-15","lat":35.70373326,"lon":139.38208436},{"name":"昭島市児童センター","province":"東京都","city":"昭島市","address":"昭島市つつじが丘2-3-21","lat":35.71416,"lon":139.36705},{"name":"昭島市児童センター","province":"東京都","city":"昭島市","address":"昭島市つつじが丘2-3-21","lat":35.71417,"lon":139.36705},{"name":"昭島市児童センター","province":"東京都","city":"昭島市","address":"昭島市つつじが丘2-3-21","lat":35.71263,"lon":139.36771},{"name":"＊?昭島市公民館","province":"東京都","city":"昭島市","address":"昭島市つつじが丘3-7-7","lat":35.713459,"lon":139.366171},{"name":"＊?市民図書館","province":"東京都","city":"昭島市","address":"昭島市東町2-6-33","lat":35.705301,"lon":139.38519},{"name":"＊?昭島市民図書館昭和分館","province":"東京都","city":"昭島市","address":"昭島市松原町1-2-25","lat":35.712915,"lon":139.357675},{"name":"＊?昭島市民図書館緑分館","province":"東京都","city":"昭島市","address":"昭島市緑町4-13-26","lat":35.714198,"lon":139.34461},{"name":"＊?昭島市民図書館つつじが丘分室","province":"東京都","city":"昭島市","address":"昭島市つつじが丘3-1-30","lat":35.714331,"lon":139.370987},{"name":"＊?昭島市民図書館やまのかみ分室","province":"東京都","city":"昭島市","address":"昭島市拝島町3-10-3","lat":35.711009,"lon":139.335511},{"name":"昭島市児童センター","province":"東京都","city":"昭島市","address":"昭島市つつじが丘2-3-21","lat":35.714246,"lon":139.367011},{"name":"市民図書館","province":"東京都","city":"昭島市","address":"東京都昭島市つつじが丘3丁目3-15","lat":35.71168206,"lon":139.36932424},{"name":"昭和分館","province":"東京都","city":"昭島市","address":"東京都昭島市松原町1丁目2-25","lat":35.71254841,"lon":139.3577419},{"name":"緑分館","province":"東京都","city":"昭島市","address":"東京都昭島市緑町4丁目13-26","lat":35.71423686,"lon":139.34460401},{"name":"やまのかみ分室","province":"東京都","city":"昭島市","address":"東京都昭島市拝島町3丁目10-3","lat":35.71094542,"lon":139.33552702},{"name":"玉川会館内臨時窓口","province":"東京都","city":"昭島市","address":"東京都昭島市玉川町3丁目10-15","lat":35.70373326,"lon":139.38208436},{"name":"昭島市児童センター","province":"東京都","city":"昭島市","address":"昭島市つつじが丘2-3-21","lat":35.71416,"lon":139.36705},{"name":"昭島市児童センター","province":"東京都","city":"昭島市","address":"昭島市つつじが丘2-3-21","lat":35.71417,"lon":139.36705},{"name":"昭島市児童センター","province":"東京都","city":"昭島市","address":"昭島市つつじが丘2-3-21","lat":35.71263,"lon":139.36771},{"name":"＊?市民図書館","province":"東京都","city":"昭島市","address":"昭島市東町2-6-33","lat":35.705301,"lon":139.38519},{"name":"＊?昭島市民図書館昭和分館","province":"東京都","city":"昭島市","address":"昭島市松原町1-2-25","lat":35.712915,"lon":139.357675},{"name":"＊?昭島市民図書館緑分館","province":"東京都","city":"昭島市","address":"昭島市緑町4-13-26","lat":35.714198,"lon":139.34461},{"name":"＊?昭島市民図書館つつじが丘分室","province":"東京都","city":"昭島市","address":"昭島市つつじが丘3-1-30","lat":35.714331,"lon":139.370987},{"name":"＊?昭島市民図書館やまのかみ分室","province":"東京都","city":"昭島市","address":"昭島市拝島町3-10-3","lat":35.711009,"lon":139.335511},{"name":"昭島市児童センター","province":"東京都","city":"昭島市","address":"昭島市つつじが丘2-3-21","lat":35.714246,"lon":139.367011},{"name":"市民図書館","province":"東京都","city":"昭島市","address":"東京都昭島市つつじが丘3丁目3-15","lat":35.71168206,"lon":139.36932424},{"name":"昭和分館","province":"東京都","city":"昭島市","address":"東京都昭島市松原町1丁目2-25","lat":35.71254841,"lon":139.3577419},{"name":"緑分館","province":"東京都","city":"昭島市","address":"東京都昭島市緑町4丁目13-26","lat":35.71423686,"lon":139.34460401},{"name":"やまのかみ分室","province":"東京都","city":"昭島市","address":"東京都昭島市拝島町3丁目10-3","lat":35.71094542,"lon":139.33552702},{"name":"玉川会館内臨時窓口","province":"東京都","city":"昭島市","address":"東京都昭島市玉川町3丁目10-15","lat":35.70373326,"lon":139.38208436},{"name":"昭島市児童センター","province":"東京都","city":"昭島市","address":"昭島市つつじが丘2-3-21","lat":35.71416,"lon":139.36705},{"name":"昭島市児童センター","province":"東京都","city":"昭島市","address":"昭島市つつじが丘2-3-21","lat":35.71417,"lon":139.36705},{"name":"昭島市児童センター","province":"東京都","city":"昭島市","address":"昭島市つつじが丘2-3-21","lat":35.71263,"lon":139.36771},{"name":"＊?市民図書館","province":"東京都","city":"昭島市","address":"昭島市東町2-6-33","lat":35.705301,"lon":139.38519},{"name":"＊?昭島市民図書館昭和分館","province":"東京都","city":"昭島市","address":"昭島市松原町1-2-25","lat":35.712915,"lon":139.357675},{"name":"＊?昭島市民図書館緑分館","province":"東京都","city":"昭島市","address":"昭島市緑町4-13-26","lat":35.714198,"lon":139.34461},{"name":"＊?昭島市民図書館つつじが丘分室","province":"東京都","city":"昭島市","address":"昭島市つつじが丘3-1-30","lat":35.714331,"lon":139.370987},{"name":"＊?昭島市民図書館やまのかみ分室","province":"東京都","city":"昭島市","address":"昭島市拝島町3-10-3","lat":35.711009,"lon":139.335511},{"name":"昭島市児童センター","province":"東京都","city":"昭島市","address":"昭島市つつじが丘2-3-21","lat":35.714246,"lon":139.367011},{"name":"市民図書館","province":"東京都","city":"昭島市","address":"東京都昭島市つつじが丘3丁目3-15","lat":35.71168206,"lon":139.36932424},{"name":"昭和分館","province":"東京都","city":"昭島市","address":"東京都昭島市松原町1丁目2-25","lat":35.71254841,"lon":139.3577419},{"name":"緑分館","province":"東京都","city":"昭島市","address":"東京都昭島市緑町4丁目13-26","lat":35.71423686,"lon":139.34460401},{"name":"やまのかみ分室","province":"東京都","city":"昭島市","address":"東京都昭島市拝島町3丁目10-3","lat":35.71094542,"lon":139.33552702},{"name":"玉川会館内臨時窓口","province":"東京都","city":"昭島市","address":"東京都昭島市玉川町3丁目10-15","lat":35.70373326,"lon":139.38208436},{"name":"昭島市児童センター","province":"東京都","city":"昭島市","address":"昭島市つつじが丘2-3-21","lat":35.71416,"lon":139.36705},{"name":"昭島市児童センター","province":"東京都","city":"昭島市","address":"昭島市つつじが丘2-3-21","lat":35.71417,"lon":139.36705},{"name":"昭島市児童センター","province":"東京都","city":"昭島市","address":"昭島市つつじが丘2-3-21","lat":35.71263,"lon":139.36771},{"name":"＊?市民図書館","province":"東京都","city":"昭島市","address":"昭島市東町2-6-33","lat":35.705301,"lon":139.38519},{"name":"＊?昭島市民図書館昭和分館","province":"東京都","city":"昭島市","address":"昭島市松原町1-2-25","lat":35.712915,"lon":139.357675},{"name":"＊?昭島市民図書館緑分館","province":"東京都","city":"昭島市","address":"昭島市緑町4-13-26","lat":35.714198,"lon":139.34461},{"name":"＊?昭島市民図書館つつじが丘分室","province":"東京都","city":"昭島市","address":"昭島市つつじが丘3-1-30","lat":35.714331,"lon":139.370987},{"name":"＊?昭島市民図書館やまのかみ分室","province":"東京都","city":"昭島市","address":"昭島市拝島町3-10-3","lat":35.711009,"lon":139.335511},{"name":"昭島市児童センター","province":"東京都","city":"昭島市","address":"昭島市つつじが丘2-3-21","lat":35.714246,"lon":139.367011},{"name":"市民図書館","province":"東京都","city":"昭島市","address":"東京都昭島市つつじが丘3丁目3-15","lat":35.71168206,"lon":139.36932424},{"name":"昭和分館","province":"東京都","city":"昭島市","address":"東京都昭島市松原町1丁目2-25","lat":35.71254841,"lon":139.3577419},{"name":"緑分館","province":"東京都","city":"昭島市","address":"東京都昭島市緑町4丁目13-26","lat":35.71423686,"lon":139.34460401},{"name":"やまのかみ分室","province":"東京都","city":"昭島市","address":"東京都昭島市拝島町3丁目10-3","lat":35.71094542,"lon":139.33552702},{"name":"玉川会館内臨時窓口","province":"東京都","city":"昭島市","address":"東京都昭島市玉川町3丁目10-15","lat":35.70373326,"lon":139.38208436},{"name":"昭島市児童センター","province":"東京都","city":"昭島市","address":"昭島市つつじが丘2-3-21","lat":35.71416,"lon":139.36705},{"name":"昭島市児童センター","province":"東京都","city":"昭島市","address":"昭島市つつじが丘2-3-21","lat":35.71417,"lon":139.36705},{"name":"昭島市児童センター","province":"東京都","city":"昭島市","address":"昭島市つつじが丘2-3-21","lat":35.71263,"lon":139.36771},{"name":"＊?市民図書館","province":"東京都","city":"昭島市","address":"昭島市東町2-6-33","lat":35.705301,"lon":139.38519},{"name":"＊?昭島市民図書館昭和分館","province":"東京都","city":"昭島市","address":"昭島市松原町1-2-25","lat":35.712915,"lon":139.357675},{"name":"＊?昭島市民図書館緑分館","province":"東京都","city":"昭島市","address":"昭島市緑町4-13-26","lat":35.714198,"lon":139.34461},{"name":"＊?昭島市民図書館つつじが丘分室","province":"東京都","city":"昭島市","address":"昭島市つつじが丘3-1-30","lat":35.714331,"lon":139.370987},{"name":"＊?昭島市民図書館やまのかみ分室","province":"東京都","city":"昭島市","address":"昭島市拝島町3-10-3","lat":35.711009,"lon":139.335511},{"name":"昭島市児童センター","province":"東京都","city":"昭島市","address":"昭島市つつじが丘2-3-21","lat":35.714246,"lon":139.367011},{"name":"市民図書館","province":"東京都","city":"昭島市","address":"東京都昭島市つつじが丘3丁目3-15","lat":35.71168206,"lon":139.36932424},{"name":"昭和分館","province":"東京都","city":"昭島市","address":"東京都昭島市松原町1丁目2-25","lat":35.71254841,"lon":139.3577419},{"name":"緑分館","province":"東京都","city":"昭島市","address":"東京都昭島市緑町4丁目13-26","lat":35.71423686,"lon":139.34460401},{"name":"やまのかみ分室","province":"東京都","city":"昭島市","address":"東京都昭島市拝島町3丁目10-3","lat":35.71094542,"lon":139.33552702},{"name":"玉川会館内臨時窓口","province":"東京都","city":"昭島市","address":"東京都昭島市玉川町3丁目10-15","lat":35.70373326,"lon":139.38208436},{"name":"昭島市児童センター","province":"東京都","city":"昭島市","address":"昭島市つつじが丘2-3-21","lat":35.71416,"lon":139.36705},{"name":"昭島市児童センター","province":"東京都","city":"昭島市","address":"昭島市つつじが丘2-3-21","lat":35.71417,"lon":139.36705},{"name":"昭島市児童センター","province":"東京都","city":"昭島市","address":"昭島市つつじが丘2-3-21","lat":35.71263,"lon":139.36771},{"name":"＊?市民図書館","province":"東京都","city":"昭島市","address":"昭島市東町2-6-33","lat":35.705301,"lon":139.38519},{"name":"＊?昭島市民図書館昭和分館","province":"東京都","city":"昭島市","address":"昭島市松原町1-2-25","lat":35.712915,"lon":139.357675},{"name":"＊?昭島市民図書館緑分館","province":"東京都","city":"昭島市","address":"昭島市緑町4-13-26","lat":35.714198,"lon":139.34461},{"name":"＊?昭島市民図書館つつじが丘分室","province":"東京都","city":"昭島市","address":"昭島市つつじが丘3-1-30","lat":35.714331,"lon":139.370987},{"name":"＊?昭島市民図書館やまのかみ分室","province":"東京都","city":"昭島市","address":"昭島市拝島町3-10-3","lat":35.711009,"lon":139.335511},{"name":"昭島市児童センター","province":"東京都","city":"昭島市","address":"昭島市つつじが丘2-3-21","lat":35.714246,"lon":139.367011},{"name":"市民図書館","province":"東京都","city":"昭島市","address":"東京都昭島市つつじが丘3丁目3-15","lat":35.71168206,"lon":139.36932424},{"name":"昭和分館","province":"東京都","city":"昭島市","address":"東京都昭島市松原町1丁目2-25","lat":35.71254841,"lon":139.3577419},{"name":"緑分館","province":"東京都","city":"昭島市","address":"東京都昭島市緑町4丁目13-26","lat":35.71423686,"lon":139.34460401},{"name":"やまのかみ分室","province":"東京都","city":"昭島市","address":"東京都昭島市拝島町3丁目10-3","lat":35.71094542,"lon":139.33552702},{"name":"玉川会館内臨時窓口","province":"東京都","city":"昭島市","address":"東京都昭島市玉川町3丁目10-15","lat":35.70373326,"lon":139.38208436},{"name":"昭島市児童センター","province":"東京都","city":"昭島市","address":"昭島市つつじが丘2-3-21","lat":35.71416,"lon":139.36705},{"name":"昭島市児童センター","province":"東京都","city":"昭島市","address":"昭島市つつじが丘2-3-21","lat":35.71417,"lon":139.36705},{"name":"昭島市児童センター","province":"東京都","city":"昭島市","address":"昭島市つつじが丘2-3-21","lat":35.71263,"lon":139.36771},{"name":"＊?市民図書館","province":"東京都","city":"昭島市","address":"昭島市東町2-6-33","lat":35.705301,"lon":139.38519},{"name":"＊?昭島市民図書館昭和分館","province":"東京都","city":"昭島市","address":"昭島市松原町1-2-25","lat":35.712915,"lon":139.357675},{"name":"＊?昭島市民図書館緑分館","province":"東京都","city":"昭島市","address":"昭島市緑町4-13-26","lat":35.714198,"lon":139.34461},{"name":"＊?昭島市民図書館つつじが丘分室","province":"東京都","city":"昭島市","address":"昭島市つつじが丘3-1-30","lat":35.714331,"lon":139.370987},{"name":"＊?昭島市民図書館やまのかみ分室","province":"東京都","city":"昭島市","address":"昭島市拝島町3-10-3","lat":35.711009,"lon":139.335511},{"name":"昭島市児童センター","province":"東京都","city":"昭島市","address":"昭島市つつじが丘2-3-21","lat":35.714246,"lon":139.367011},{"name":"市民図書館","province":"東京都","city":"昭島市","address":"東京都昭島市つつじが丘3丁目3-15","lat":35.71168206,"lon":139.36932424},{"name":"昭和分館","province":"東京都","city":"昭島市","address":"東京都昭島市松原町1丁目2-25","lat":35.71254841,"lon":139.3577419},{"name":"緑分館","province":"東京都","city":"昭島市","address":"東京都昭島市緑町4丁目13-26","lat":35.71423686,"lon":139.34460401},{"name":"やまのかみ分室","province":"東京都","city":"昭島市","address":"東京都昭島市拝島町3丁目10-3","lat":35.71094542,"lon":139.33552702},{"name":"玉川会館内臨時窓口","province":"東京都","city":"昭島市","address":"東京都昭島市玉川町3丁目10-15","lat":35.70373326,"lon":139.38208436},{"name":"昭島市児童センター","province":"東京都","city":"昭島市","address":"昭島市つつじが丘2-3-21","lat":35.71416,"lon":139.36705},{"name":"昭島市児童センター","province":"東京都","city":"昭島市","address":"昭島市つつじが丘2-3-21","lat":35.71417,"lon":139.36705},{"name":"昭島市児童センター","province":"東京都","city":"昭島市","address":"昭島市つつじが丘2-3-21","lat":35.71263,"lon":139.36771},{"name":"＊?市民図書館","province":"東京都","city":"昭島市","address":"昭島市東町2-6-33","lat":35.705301,"lon":139.38519},{"name":"＊?昭島市民図書館昭和分館","province":"東京都","city":"昭島市","address":"昭島市松原町1-2-25","lat":35.712915,"lon":139.357675},{"name":"＊?昭島市民図書館緑分館","province":"東京都","city":"昭島市","address":"昭島市緑町4-13-26","lat":35.714198,"lon":139.34461},{"name":"＊?昭島市民図書館つつじが丘分室","province":"東京都","city":"昭島市","address":"昭島市つつじが丘3-1-30","lat":35.714331,"lon":139.370987},{"name":"＊?昭島市民図書館やまのかみ分室","province":"東京都","city":"昭島市","address":"昭島市拝島町3-10-3","lat":35.711009,"lon":139.335511},{"name":"昭島市児童センター","province":"東京都","city":"昭島市","address":"昭島市つつじが丘2-3-21","lat":35.714246,"lon":139.367011},{"name":"市民図書館","province":"東京都","city":"昭島市","address":"東京都昭島市つつじが丘3丁目3-15","lat":35.71168206,"lon":139.36932424},{"name":"昭和分館","province":"東京都","city":"昭島市","address":"東京都昭島市松原町1丁目2-25","lat":35.71254841,"lon":139.3577419},{"name":"緑分館","province":"東京都","city":"昭島市","address":"東京都昭島市緑町4丁目13-26","lat":35.71423686,"lon":139.34460401},{"name":"やまのかみ分室","province":"東京都","city":"昭島市","address":"東京都昭島市拝島町3丁目10-3","lat":35.71094542,"lon":139.33552702},{"name":"玉川会館内臨時窓口","province":"東京都","city":"昭島市","address":"東京都昭島市玉川町3丁目10-15","lat":35.70373326,"lon":139.38208436},{"name":"昭島市児童センター","province":"東京都","city":"昭島市","address":"昭島市つつじが丘2-3-21","lat":35.71416,"lon":139.36705},{"name":"昭島市児童センター","province":"東京都","city":"昭島市","address":"昭島市つつじが丘2-3-21","lat":35.71417,"lon":139.36705},{"name":"昭島市児童センター","province":"東京都","city":"昭島市","address":"昭島市つつじが丘2-3-21","lat":35.71263,"lon":139.36771},{"name":"＊?市民図書館","province":"東京都","city":"昭島市","address":"昭島市東町2-6-33","lat":35.705301,"lon":139.38519},{"name":"＊?昭島市民図書館昭和分館","province":"東京都","city":"昭島市","address":"昭島市松原町1-2-25","lat":35.712915,"lon":139.357675},{"name":"＊?昭島市民図書館緑分館","province":"東京都","city":"昭島市","address":"昭島市緑町4-13-26","lat":35.714198,"lon":139.34461},{"name":"＊?昭島市民図書館つつじが丘分室","province":"東京都","city":"昭島市","address":"昭島市つつじが丘3-1-30","lat":35.714331,"lon":139.370987},{"name":"＊?昭島市民図書館やまのかみ分室","province":"東京都","city":"昭島市","address":"昭島市拝島町3-10-3","lat":35.711009,"lon":139.335511},{"name":"昭島市児童センター","province":"東京都","city":"昭島市","address":"昭島市つつじが丘2-3-21","lat":35.714246,"lon":139.367011},{"name":"市民図書館","province":"東京都","city":"昭島市","address":"東京都昭島市つつじが丘3丁目3-15","lat":35.71168206,"lon":139.36932424},{"name":"昭和分館","province":"東京都","city":"昭島市","address":"東京都昭島市松原町1丁目2-25","lat":35.71254841,"lon":139.3577419},{"name":"緑分館","province":"東京都","city":"昭島市","address":"東京都昭島市緑町4丁目13-26","lat":35.71423686,"lon":139.34460401},{"name":"やまのかみ分室","province":"東京都","city":"昭島市","address":"東京都昭島市拝島町3丁目10-3","lat":35.71094542,"lon":139.33552702},{"name":"玉川会館内臨時窓口","province":"東京都","city":"昭島市","address":"東京都昭島市玉川町3丁目10-15","lat":35.70373326,"lon":139.38208436},{"name":"昭島市児童センター","province":"東京都","city":"昭島市","address":"昭島市つつじが丘2-3-21","lat":35.71416,"lon":139.36705},{"name":"昭島市児童センター","province":"東京都","city":"昭島市","address":"昭島市つつじが丘2-3-21","lat":35.71417,"lon":139.36705},{"name":"昭島市児童センター","province":"東京都","city":"昭島市","address":"昭島市つつじが丘2-3-21","lat":35.71263,"lon":139.36771},{"name":"＊?市民図書館","province":"東京都","city":"昭島市","address":"昭島市東町2-6-33","lat":35.705301,"lon":139.38519},{"name":"＊?昭島市民図書館昭和分館","province":"東京都","city":"昭島市","address":"昭島市松原町1-2-25","lat":35.712915,"lon":139.357675},{"name":"＊?昭島市民図書館緑分館","province":"東京都","city":"昭島市","address":"昭島市緑町4-13-26","lat":35.714198,"lon":139.34461},{"name":"＊?昭島市民図書館つつじが丘分室","province":"東京都","city":"昭島市","address":"昭島市つつじが丘3-1-30","lat":35.714331,"lon":139.370987},{"name":"＊?昭島市民図書館やまのかみ分室","province":"東京都","city":"昭島市","address":"昭島市拝島町3-10-3","lat":35.711009,"lon":139.335511},{"name":"昭島市児童センター","province":"東京都","city":"昭島市","address":"昭島市つつじが丘2-3-21","lat":35.714246,"lon":139.367011},{"name":"市民図書館","province":"東京都","city":"昭島市","address":"東京都昭島市つつじが丘3丁目3-15","lat":35.71168206,"lon":139.36932424},{"name":"昭和分館","province":"東京都","city":"昭島市","address":"東京都昭島市松原町1丁目2-25","lat":35.71254841,"lon":139.3577419},{"name":"緑分館","province":"東京都","city":"昭島市","address":"東京都昭島市緑町4丁目13-26","lat":35.71423686,"lon":139.34460401},{"name":"やまのかみ分室","province":"東京都","city":"昭島市","address":"東京都昭島市拝島町3丁目10-3","lat":35.71094542,"lon":139.33552702},{"name":"玉川会館内臨時窓口","province":"東京都","city":"昭島市","address":"東京都昭島市玉川町3丁目10-15","lat":35.70373326,"lon":139.38208436},{"name":"昭島市児童センター","province":"東京都","city":"昭島市","address":"昭島市つつじが丘2-3-21","lat":35.71416,"lon":139.36705},{"name":"昭島市児童センター","province":"東京都","city":"昭島市","address":"昭島市つつじが丘2-3-21","lat":35.71417,"lon":139.36705},{"name":"昭島市児童センター","province":"東京都","city":"昭島市","address":"昭島市つつじが丘2-3-21","lat":35.71263,"lon":139.36771},{"name":"＊?市民図書館","province":"東京都","city":"昭島市","address":"昭島市東町2-6-33","lat":35.705301,"lon":139.38519},{"name":"＊?昭島市民図書館昭和分館","province":"東京都","city":"昭島市","address":"昭島市松原町1-2-25","lat":35.712915,"lon":139.357675},{"name":"＊?昭島市民図書館緑分館","province":"東京都","city":"昭島市","address":"昭島市緑町4-13-26","lat":35.714198,"lon":139.34461},{"name":"＊?昭島市民図書館つつじが丘分室","province":"東京都","city":"昭島市","address":"昭島市つつじが丘3-1-30","lat":35.714331,"lon":139.370987},{"name":"＊?昭島市民図書館やまのかみ分室","province":"東京都","city":"昭島市","address":"昭島市拝島町3-10-3","lat":35.711009,"lon":139.335511},{"name":"昭島市児童センター","province":"東京都","city":"昭島市","address":"昭島市つつじが丘2-3-21","lat":35.714246,"lon":139.367011},{"name":"市民図書館","province":"東京都","city":"昭島市","address":"東京都昭島市つつじが丘3丁目3-15","lat":35.71168206,"lon":139.36932424},{"name":"昭和分館","province":"東京都","city":"昭島市","address":"東京都昭島市松原町1丁目2-25","lat":35.71254841,"lon":139.3577419},{"name":"緑分館","province":"東京都","city":"昭島市","address":"東京都昭島市緑町4丁目13-26","lat":35.71423686,"lon":139.34460401},{"name":"やまのかみ分室","province":"東京都","city":"昭島市","address":"東京都昭島市拝島町3丁目10-3","lat":35.71094542,"lon":139.33552702},{"name":"玉川会館内臨時窓口","province":"東京都","city":"昭島市","address":"東京都昭島市玉川町3丁目10-15","lat":35.70373326,"lon":139.38208436},{"name":"昭島市児童センター","province":"東京都","city":"昭島市","address":"昭島市つつじが丘2-3-21","lat":35.71416,"lon":139.36705},{"name":"昭島市児童センター","province":"東京都","city":"昭島市","address":"昭島市つつじが丘2-3-21","lat":35.71417,"lon":139.36705},{"name":"昭島市児童センター","province":"東京都","city":"昭島市","address":"昭島市つつじが丘2-3-21","lat":35.71263,"lon":139.36771},{"name":"＊?市民図書館","province":"東京都","city":"昭島市","address":"昭島市東町2-6-33","lat":35.705301,"lon":139.38519},{"name":"＊?昭島市民図書館昭和分館","province":"東京都","city":"昭島市","address":"昭島市松原町1-2-25","lat":35.712915,"lon":139.357675},{"name":"＊?昭島市民図書館緑分館","province":"東京都","city":"昭島市","address":"昭島市緑町4-13-26","lat":35.714198,"lon":139.34461},{"name":"＊?昭島市民図書館つつじが丘分室","province":"東京都","city":"昭島市","address":"昭島市つつじが丘3-1-30","lat":35.714331,"lon":139.370987},{"name":"＊?昭島市民図書館やまのかみ分室","province":"東京都","city":"昭島市","address":"昭島市拝島町3-10-3","lat":35.711009,"lon":139.335511},{"name":"昭島市児童センター","province":"東京都","city":"昭島市","address":"昭島市つつじが丘2-3-21","lat":35.714246,"lon":139.367011},{"name":"市民図書館","province":"東京都","city":"昭島市","address":"東京都昭島市つつじが丘3丁目3-15","lat":35.71168206,"lon":139.36932424},{"name":"昭和分館","province":"東京都","city":"昭島市","address":"東京都昭島市松原町1丁目2-25","lat":35.71254841,"lon":139.3577419},{"name":"緑分館","province":"東京都","city":"昭島市","address":"東京都昭島市緑町4丁目13-26","lat":35.71423686,"lon":139.34460401},{"name":"やまのかみ分室","province":"東京都","city":"昭島市","address":"東京都昭島市拝島町3丁目10-3","lat":35.71094542,"lon":139.33552702},{"name":"玉川会館内臨時窓口","province":"東京都","city":"昭島市","address":"東京都昭島市玉川町3丁目10-15","lat":35.70373326,"lon":139.38208436},{"name":"昭島市児童センター","province":"東京都","city":"昭島市","address":"昭島市つつじが丘2-3-21","lat":35.71416,"lon":139.36705},{"name":"昭島市児童センター","province":"東京都","city":"昭島市","address":"昭島市つつじが丘2-3-21","lat":35.71417,"lon":139.36705},{"name":"昭島市児童センター","province":"東京都","city":"昭島市","address":"昭島市つつじが丘2-3-21","lat":35.71263,"lon":139.36771},{"name":"＊?市民図書館","province":"東京都","city":"昭島市","address":"昭島市東町2-6-33","lat":35.705301,"lon":139.38519},{"name":"＊?昭島市民図書館昭和分館","province":"東京都","city":"昭島市","address":"昭島市松原町1-2-25","lat":35.712915,"lon":139.357675},{"name":"＊?昭島市民図書館緑分館","province":"東京都","city":"昭島市","address":"昭島市緑町4-13-26","lat":35.714198,"lon":139.34461},{"name":"＊?昭島市民図書館つつじが丘分室","province":"東京都","city":"昭島市","address":"昭島市つつじが丘3-1-30","lat":35.714331,"lon":139.370987},{"name":"＊?昭島市民図書館やまのかみ分室","province":"東京都","city":"昭島市","address":"昭島市拝島町3-10-3","lat":35.711009,"lon":139.335511},{"name":"昭島市児童センター","province":"東京都","city":"昭島市","address":"昭島市つつじが丘2-3-21","lat":35.714246,"lon":139.367011},{"name":"市民図書館","province":"東京都","city":"昭島市","address":"東京都昭島市つつじが丘3丁目3-15","lat":35.71168206,"lon":139.36932424},{"name":"昭和分館","province":"東京都","city":"昭島市","address":"東京都昭島市松原町1丁目2-25","lat":35.71254841,"lon":139.3577419},{"name":"緑分館","province":"東京都","city":"昭島市","address":"東京都昭島市緑町4丁目13-26","lat":35.71423686,"lon":139.34460401},{"name":"やまのかみ分室","province":"東京都","city":"昭島市","address":"東京都昭島市拝島町3丁目10-3","lat":35.71094542,"lon":139.33552702},{"name":"玉川会館内臨時窓口","province":"東京都","city":"昭島市","address":"東京都昭島市玉川町3丁目10-15","lat":35.70373326,"lon":139.38208436},{"name":"昭島市児童センター","province":"東京都","city":"昭島市","address":"昭島市つつじが丘2-3-21","lat":35.71416,"lon":139.36705},{"name":"昭島市児童センター","province":"東京都","city":"昭島市","address":"昭島市つつじが丘2-3-21","lat":35.71417,"lon":139.36705},{"name":"昭島市児童センター","province":"東京都","city":"昭島市","address":"昭島市つつじが丘2-3-21","lat":35.71263,"lon":139.36771},{"name":"＊?市民図書館","province":"東京都","city":"昭島市","address":"昭島市東町2-6-33","lat":35.705301,"lon":139.38519},{"name":"＊?昭島市民図書館昭和分館","province":"東京都","city":"昭島市","address":"昭島市松原町1-2-25","lat":35.712915,"lon":139.357675},{"name":"＊?昭島市民図書館緑分館","province":"東京都","city":"昭島市","address":"昭島市緑町4-13-26","lat":35.714198,"lon":139.34461},{"name":"＊?昭島市民図書館つつじが丘分室","province":"東京都","city":"昭島市","address":"昭島市つつじが丘3-1-30","lat":35.714331,"lon":139.370987},{"name":"＊?昭島市民図書館やまのかみ分室","province":"東京都","city":"昭島市","address":"昭島市拝島町3-10-3","lat":35.711009,"lon":139.335511},{"name":"昭島市児童センター","province":"東京都","city":"昭島市","address":"昭島市つつじが丘2-3-21","lat":35.714246,"lon":139.367011},{"name":"市民図書館","province":"東京都","city":"昭島市","address":"東京都昭島市つつじが丘3丁目3-15","lat":35.71168206,"lon":139.36932424},{"name":"昭和分館","province":"東京都","city":"昭島市","address":"東京都昭島市松原町1丁目2-25","lat":35.71254841,"lon":139.3577419},{"name":"緑分館","province":"東京都","city":"昭島市","address":"東京都昭島市緑町4丁目13-26","lat":35.71423686,"lon":139.34460401},{"name":"やまのかみ分室","province":"東京都","city":"昭島市","address":"東京都昭島市拝島町3丁目10-3","lat":35.71094542,"lon":139.33552702},{"name":"玉川会館内臨時窓口","province":"東京都","city":"昭島市","address":"東京都昭島市玉川町3丁目10-15","lat":35.70373326,"lon":139.38208436},{"name":"昭島市児童センター","province":"東京都","city":"昭島市","address":"昭島市つつじが丘2-3-21","lat":35.71416,"lon":139.36705},{"name":"昭島市児童センター","province":"東京都","city":"昭島市","address":"昭島市つつじが丘2-3-21","lat":35.71417,"lon":139.36705},{"name":"昭島市児童センター","province":"東京都","city":"昭島市","address":"昭島市つつじが丘2-3-21","lat":35.71263,"lon":139.36771},{"name":"＊?市民図書館","province":"東京都","city":"昭島市","address":"昭島市東町2-6-33","lat":35.705301,"lon":139.38519},{"name":"＊?昭島市民図書館昭和分館","province":"東京都","city":"昭島市","address":"昭島市松原町1-2-25","lat":35.712915,"lon":139.357675},{"name":"＊?昭島市民図書館緑分館","province":"東京都","city":"昭島市","address":"昭島市緑町4-13-26","lat":35.714198,"lon":139.34461},{"name":"＊?昭島市民図書館つつじが丘分室","province":"東京都","city":"昭島市","address":"昭島市つつじが丘3-1-30","lat":35.714331,"lon":139.370987},{"name":"＊?昭島市民図書館やまのかみ分室","province":"東京都","city":"昭島市","address":"昭島市拝島町3-10-3","lat":35.711009,"lon":139.335511},{"name":"昭島市児童センター","province":"東京都","city":"昭島市","address":"昭島市つつじが丘2-3-21","lat":35.714246,"lon":139.367011},{"name":"市民図書館","province":"東京都","city":"昭島市","address":"東京都昭島市つつじが丘3丁目3-15","lat":35.71168206,"lon":139.36932424},{"name":"昭和分館","province":"東京都","city":"昭島市","address":"東京都昭島市松原町1丁目2-25","lat":35.71254841,"lon":139.3577419},{"name":"緑分館","province":"東京都","city":"昭島市","address":"東京都昭島市緑町4丁目13-26","lat":35.71423686,"lon":139.34460401},{"name":"やまのかみ分室","province":"東京都","city":"昭島市","address":"東京都昭島市拝島町3丁目10-3","lat":35.71094542,"lon":139.33552702},{"name":"玉川会館内臨時窓口","province":"東京都","city":"昭島市","address":"東京都昭島市玉川町3丁目10-15","lat":35.70373326,"lon":139.38208436},{"name":"昭島市児童センター","province":"東京都","city":"昭島市","address":"昭島市つつじが丘2-3-21","lat":35.71416,"lon":139.36705},{"name":"昭島市児童センター","province":"東京都","city":"昭島市","address":"昭島市つつじが丘2-3-21","lat":35.71417,"lon":139.36705},{"name":"昭島市児童センター","province":"東京都","city":"昭島市","address":"昭島市つつじが丘2-3-21","lat":35.71263,"lon":139.36771},{"name":"＊?市民図書館","province":"東京都","city":"昭島市","address":"昭島市東町2-6-33","lat":35.705301,"lon":139.38519},{"name":"＊?昭島市民図書館昭和分館","province":"東京都","city":"昭島市","address":"昭島市松原町1-2-25","lat":35.712915,"lon":139.357675},{"name":"＊?昭島市民図書館緑分館","province":"東京都","city":"昭島市","address":"昭島市緑町4-13-26","lat":35.714198,"lon":139.34461},{"name":"＊?昭島市民図書館つつじが丘分室","province":"東京都","city":"昭島市","address":"昭島市つつじが丘3-1-30","lat":35.714331,"lon":139.370987},{"name":"＊?昭島市民図書館やまのかみ分室","province":"東京都","city":"昭島市","address":"昭島市拝島町3-10-3","lat":35.711009,"lon":139.335511},{"name":"昭島市児童センター","province":"東京都","city":"昭島市","address":"昭島市つつじが丘2-3-21","lat":35.714246,"lon":139.367011},{"name":"市民図書館","province":"東京都","city":"昭島市","address":"東京都昭島市つつじが丘3丁目3-15","lat":35.71168206,"lon":139.36932424},{"name":"昭和分館","province":"東京都","city":"昭島市","address":"東京都昭島市松原町1丁目2-25","lat":35.71254841,"lon":139.3577419},{"name":"緑分館","province":"東京都","city":"昭島市","address":"東京都昭島市緑町4丁目13-26","lat":35.71423686,"lon":139.34460401},{"name":"やまのかみ分室","province":"東京都","city":"昭島市","address":"東京都昭島市拝島町3丁目10-3","lat":35.71094542,"lon":139.33552702},{"name":"玉川会館内臨時窓口","province":"東京都","city":"昭島市","address":"東京都昭島市玉川町3丁目10-15","lat":35.70373326,"lon":139.38208436},{"name":"昭島市児童センター","province":"東京都","city":"昭島市","address":"昭島市つつじが丘2-3-21","lat":35.71416,"lon":139.36705},{"name":"昭島市児童センター","province":"東京都","city":"昭島市","address":"昭島市つつじが丘2-3-21","lat":35.71417,"lon":139.36705},{"name":"昭島市児童センター","province":"東京都","city":"昭島市","address":"昭島市つつじが丘2-3-21","lat":35.71263,"lon":139.36771},{"name":"＊?市民図書館","province":"東京都","city":"昭島市","address":"昭島市東町2-6-33","lat":35.705301,"lon":139.38519},{"name":"＊?昭島市民図書館昭和分館","province":"東京都","city":"昭島市","address":"昭島市松原町1-2-25","lat":35.712915,"lon":139.357675},{"name":"＊?昭島市民図書館緑分館","province":"東京都","city":"昭島市","address":"昭島市緑町4-13-26","lat":35.714198,"lon":139.34461},{"name":"＊?昭島市民図書館つつじが丘分室","province":"東京都","city":"昭島市","address":"昭島市つつじが丘3-1-30","lat":35.714331,"lon":139.370987},{"name":"＊?昭島市民図書館やまのかみ分室","province":"東京都","city":"昭島市","address":"昭島市拝島町3-10-3","lat":35.711009,"lon":139.335511},{"name":"昭島市児童センター","province":"東京都","city":"昭島市","address":"昭島市つつじが丘2-3-21","lat":35.714246,"lon":139.367011},{"name":"市民図書館","province":"東京都","city":"昭島市","address":"東京都昭島市つつじが丘3丁目3-15","lat":35.71168206,"lon":139.36932424},{"name":"昭和分館","province":"東京都","city":"昭島市","address":"東京都昭島市松原町1丁目2-25","lat":35.71254841,"lon":139.3577419},{"name":"緑分館","province":"東京都","city":"昭島市","address":"東京都昭島市緑町4丁目13-26","lat":35.71423686,"lon":139.34460401},{"name":"やまのかみ分室","province":"東京都","city":"昭島市","address":"東京都昭島市拝島町3丁目10-3","lat":35.71094542,"lon":139.33552702},{"name":"玉川会館内臨時窓口","province":"東京都","city":"昭島市","address":"東京都昭島市玉川町3丁目10-15","lat":35.70373326,"lon":139.38208436},{"name":"昭島市児童センター","province":"東京都","city":"昭島市","address":"昭島市つつじが丘2-3-21","lat":35.71416,"lon":139.36705},{"name":"昭島市児童センター","province":"東京都","city":"昭島市","address":"昭島市つつじが丘2-3-21","lat":35.71417,"lon":139.36705},{"name":"昭島市児童センター","province":"東京都","city":"昭島市","address":"昭島市つつじが丘2-3-21","lat":35.71263,"lon":139.36771},{"name":"＊?市民図書館","province":"東京都","city":"昭島市","address":"昭島市東町2-6-33","lat":35.705301,"lon":139.38519},{"name":"＊?昭島市民図書館昭和分館","province":"東京都","city":"昭島市","address":"昭島市松原町1-2-25","lat":35.712915,"lon":139.357675},{"name":"＊?昭島市民図書館緑分館","province":"東京都","city":"昭島市","address":"昭島市緑町4-13-26","lat":35.714198,"lon":139.34461},{"name":"＊?昭島市民図書館つつじが丘分室","province":"東京都","city":"昭島市","address":"昭島市つつじが丘3-1-30","lat":35.714331,"lon":139.370987},{"name":"＊?昭島市民図書館やまのかみ分室","province":"東京都","city":"昭島市","address":"昭島市拝島町3-10-3","lat":35.711009,"lon":139.335511},{"name":"昭島市児童センター","province":"東京都","city":"昭島市","address":"昭島市つつじが丘2-3-21","lat":35.714246,"lon":139.367011},{"name":"市民図書館","province":"東京都","city":"昭島市","address":"東京都昭島市つつじが丘3丁目3-15","lat":35.71168206,"lon":139.36932424},{"name":"昭和分館","province":"東京都","city":"昭島市","address":"東京都昭島市松原町1丁目2-25","lat":35.71254841,"lon":139.3577419},{"name":"緑分館","province":"東京都","city":"昭島市","address":"東京都昭島市緑町4丁目13-26","lat":35.71423686,"lon":139.34460401},{"name":"やまのかみ分室","province":"東京都","city":"昭島市","address":"東京都昭島市拝島町3丁目10-3","lat":35.71094542,"lon":139.33552702},{"name":"玉川会館内臨時窓口","province":"東京都","city":"昭島市","address":"東京都昭島市玉川町3丁目10-15","lat":35.70373326,"lon":139.38208436},{"name":"昭島市児童センター","province":"東京都","city":"昭島市","address":"昭島市つつじが丘2-3-21","lat":35.71416,"lon":139.36705},{"name":"昭島市児童センター","province":"東京都","city":"昭島市","address":"昭島市つつじが丘2-3-21","lat":35.71417,"lon":139.36705},{"name":"昭島市児童センター","province":"東京都","city":"昭島市","address":"昭島市つつじが丘2-3-21","lat":35.71263,"lon":139.36771},{"name":"＊?市民図書館","province":"東京都","city":"昭島市","address":"昭島市東町2-6-33","lat":35.705301,"lon":139.38519},{"name":"＊?昭島市民図書館昭和分館","province":"東京都","city":"昭島市","address":"昭島市松原町1-2-25","lat":35.712915,"lon":139.357675},{"name":"＊?昭島市民図書館緑分館","province":"東京都","city":"昭島市","address":"昭島市緑町4-13-26","lat":35.714198,"lon":139.34461},{"name":"＊?昭島市民図書館つつじが丘分室","province":"東京都","city":"昭島市","address":"昭島市つつじが丘3-1-30","lat":35.714331,"lon":139.370987},{"name":"＊?昭島市民図書館やまのかみ分室","province":"東京都","city":"昭島市","address":"昭島市拝島町3-10-3","lat":35.711009,"lon":139.335511},{"name":"昭島市児童センター","province":"東京都","city":"昭島市","address":"昭島市つつじが丘2-3-21","lat":35.714246,"lon":139.367011},{"name":"市民図書館","province":"東京都","city":"昭島市","address":"東京都昭島市つつじが丘3丁目3-15","lat":35.71168206,"lon":139.36932424},{"name":"昭和分館","province":"東京都","city":"昭島市","address":"東京都昭島市松原町1丁目2-25","lat":35.71254841,"lon":139.3577419},{"name":"緑分館","province":"東京都","city":"昭島市","address":"東京都昭島市緑町4丁目13-26","lat":35.71423686,"lon":139.34460401},{"name":"やまのかみ分室","province":"東京都","city":"昭島市","address":"東京都昭島市拝島町3丁目10-3","lat":35.71094542,"lon":139.33552702},{"name":"玉川会館内臨時窓口","province":"東京都","city":"昭島市","address":"東京都昭島市玉川町3丁目10-15","lat":35.70373326,"lon":139.38208436},{"name":"昭島市児童センター","province":"東京都","city":"昭島市","address":"昭島市つつじが丘2-3-21","lat":35.71416,"lon":139.36705},{"name":"昭島市児童センター","province":"東京都","city":"昭島市","address":"昭島市つつじが丘2-3-21","lat":35.71417,"lon":139.36705},{"name":"昭島市児童センター","province":"東京都","city":"昭島市","address":"昭島市つつじが丘2-3-21","lat":35.71263,"lon":139.36771},{"name":"＊?市民図書館","province":"東京都","city":"昭島市","address":"昭島市東町2-6-33","lat":35.705301,"lon":139.38519},{"name":"＊?昭島市民図書館昭和分館","province":"東京都","city":"昭島市","address":"昭島市松原町1-2-25","lat":35.712915,"lon":139.357675},{"name":"＊?昭島市民図書館緑分館","province":"東京都","city":"昭島市","address":"昭島市緑町4-13-26","lat":35.714198,"lon":139.34461},{"name":"＊?昭島市民図書館つつじが丘分室","province":"東京都","city":"昭島市","address":"昭島市つつじが丘3-1-30","lat":35.714331,"lon":139.370987},{"name":"＊?昭島市民図書館やまのかみ分室","province":"東京都","city":"昭島市","address":"昭島市拝島町3-10-3","lat":35.711009,"lon":139.335511},{"name":"昭島市児童センター","province":"東京都","city":"昭島市","address":"昭島市つつじが丘2-3-21","lat":35.714246,"lon":139.367011},{"name":"市民図書館","province":"東京都","city":"昭島市","address":"東京都昭島市つつじが丘3丁目3-15","lat":35.71168206,"lon":139.36932424},{"name":"昭和分館","province":"東京都","city":"昭島市","address":"東京都昭島市松原町1丁目2-25","lat":35.71254841,"lon":139.3577419},{"name":"緑分館","province":"東京都","city":"昭島市","address":"東京都昭島市緑町4丁目13-26","lat":35.71423686,"lon":139.34460401},{"name":"やまのかみ分室","province":"東京都","city":"昭島市","address":"東京都昭島市拝島町3丁目10-3","lat":35.71094542,"lon":139.33552702},{"name":"玉川会館内臨時窓口","province":"東京都","city":"昭島市","address":"東京都昭島市玉川町3丁目10-15","lat":35.70373326,"lon":139.38208436},{"name":"昭島市児童センター","province":"東京都","city":"昭島市","address":"昭島市つつじが丘2-3-21","lat":35.71416,"lon":139.36705},{"name":"昭島市児童センター","province":"東京都","city":"昭島市","address":"昭島市つつじが丘2-3-21","lat":35.71417,"lon":139.36705},{"name":"昭島市児童センター","province":"東京都","city":"昭島市","address":"昭島市つつじが丘2-3-21","lat":35.71263,"lon":139.36771},{"name":"＊?市民図書館","province":"東京都","city":"昭島市","address":"昭島市東町2-6-33","lat":35.705301,"lon":139.38519},{"name":"＊?昭島市民図書館昭和分館","province":"東京都","city":"昭島市","address":"昭島市松原町1-2-25","lat":35.712915,"lon":139.357675},{"name":"＊?昭島市民図書館緑分館","province":"東京都","city":"昭島市","address":"昭島市緑町4-13-26","lat":35.714198,"lon":139.34461},{"name":"＊?昭島市民図書館つつじが丘分室","province":"東京都","city":"昭島市","address":"昭島市つつじが丘3-1-30","lat":35.714331,"lon":139.370987},{"name":"＊?昭島市民図書館やまのかみ分室","province":"東京都","city":"昭島市","address":"昭島市拝島町3-10-3","lat":35.711009,"lon":139.335511},{"name":"昭島市児童センター","province":"東京都","city":"昭島市","address":"昭島市つつじが丘2-3-21","lat":35.714246,"lon":139.367011},{"name":"市民図書館","province":"東京都","city":"昭島市","address":"東京都昭島市つつじが丘3丁目3-15","lat":35.71168206,"lon":139.36932424},{"name":"昭和分館","province":"東京都","city":"昭島市","address":"東京都昭島市松原町1丁目2-25","lat":35.71254841,"lon":139.3577419},{"name":"緑分館","province":"東京都","city":"昭島市","address":"東京都昭島市緑町4丁目13-26","lat":35.71423686,"lon":139.34460401},{"name":"やまのかみ分室","province":"東京都","city":"昭島市","address":"東京都昭島市拝島町3丁目10-3","lat":35.71094542,"lon":139.33552702},{"name":"玉川会館内臨時窓口","province":"東京都","city":"昭島市","address":"東京都昭島市玉川町3丁目10-15","lat":35.70373326,"lon":139.38208436},{"name":"昭島市児童センター","province":"東京都","city":"昭島市","address":"昭島市つつじが丘2-3-21","lat":35.71416,"lon":139.36705},{"name":"昭島市児童センター","province":"東京都","city":"昭島市","address":"昭島市つつじが丘2-3-21","lat":35.71417,"lon":139.36705},{"name":"昭島市児童センター","province":"東京都","city":"昭島市","address":"昭島市つつじが丘2-3-21","lat":35.71263,"lon":139.36771},{"name":"＊?市民図書館","province":"東京都","city":"昭島市","address":"昭島市東町2-6-33","lat":35.705301,"lon":139.38519},{"name":"＊?昭島市民図書館昭和分館","province":"東京都","city":"昭島市","address":"昭島市松原町1-2-25","lat":35.712915,"lon":139.357675},{"name":"＊?昭島市民図書館緑分館","province":"東京都","city":"昭島市","address":"昭島市緑町4-13-26","lat":35.714198,"lon":139.34461},{"name":"＊?昭島市民図書館つつじが丘分室","province":"東京都","city":"昭島市","address":"昭島市つつじが丘3-1-30","lat":35.714331,"lon":139.370987},{"name":"＊?昭島市民図書館やまのかみ分室","province":"東京都","city":"昭島市","address":"昭島市拝島町3-10-3","lat":35.711009,"lon":139.335511},{"name":"昭島市児童センター","province":"東京都","city":"昭島市","address":"昭島市つつじが丘2-3-21","lat":35.714246,"lon":139.367011},{"name":"市民図書館","province":"東京都","city":"昭島市","address":"東京都昭島市つつじが丘3丁目3-15","lat":35.71168206,"lon":139.36932424},{"name":"昭和分館","province":"東京都","city":"昭島市","address":"東京都昭島市松原町1丁目2-25","lat":35.71254841,"lon":139.3577419},{"name":"緑分館","province":"東京都","city":"昭島市","address":"東京都昭島市緑町4丁目13-26","lat":35.71423686,"lon":139.34460401},{"name":"やまのかみ分室","province":"東京都","city":"昭島市","address":"東京都昭島市拝島町3丁目10-3","lat":35.71094542,"lon":139.33552702},{"name":"玉川会館内臨時窓口","province":"東京都","city":"昭島市","address":"東京都昭島市玉川町3丁目10-15","lat":35.70373326,"lon":139.38208436},{"name":"昭島市児童センター","province":"東京都","city":"昭島市","address":"昭島市つつじが丘2-3-21","lat":35.71416,"lon":139.36705},{"name":"昭島市児童センター","province":"東京都","city":"昭島市","address":"昭島市つつじが丘2-3-21","lat":35.71417,"lon":139.36705},{"name":"昭島市児童センター","province":"東京都","city":"昭島市","address":"昭島市つつじが丘2-3-21","lat":35.71263,"lon":139.36771},{"name":"＊?市民図書館","province":"東京都","city":"昭島市","address":"昭島市東町2-6-33","lat":35.705301,"lon":139.38519},{"name":"＊?昭島市民図書館昭和分館","province":"東京都","city":"昭島市","address":"昭島市松原町1-2-25","lat":35.712915,"lon":139.357675},{"name":"＊?昭島市民図書館緑分館","province":"東京都","city":"昭島市","address":"昭島市緑町4-13-26","lat":35.714198,"lon":139.34461},{"name":"＊?昭島市民図書館つつじが丘分室","province":"東京都","city":"昭島市","address":"昭島市つつじが丘3-1-30","lat":35.714331,"lon":139.370987},{"name":"＊?昭島市民図書館やまのかみ分室","province":"東京都","city":"昭島市","address":"昭島市拝島町3-10-3","lat":35.711009,"lon":139.335511},{"name":"昭島市児童センター","province":"東京都","city":"昭島市","address":"昭島市つつじが丘2-3-21","lat":35.714246,"lon":139.367011},{"name":"市民図書館","province":"東京都","city":"昭島市","address":"東京都昭島市つつじが丘3丁目3-15","lat":35.71168206,"lon":139.36932424},{"name":"昭和分館","province":"東京都","city":"昭島市","address":"東京都昭島市松原町1丁目2-25","lat":35.71254841,"lon":139.3577419},{"name":"緑分館","province":"東京都","city":"昭島市","address":"東京都昭島市緑町4丁目13-26","lat":35.71423686,"lon":139.34460401},{"name":"やまのかみ分室","province":"東京都","city":"昭島市","address":"東京都昭島市拝島町3丁目10-3","lat":35.71094542,"lon":139.33552702},{"name":"玉川会館内臨時窓口","province":"東京都","city":"昭島市","address":"東京都昭島市玉川町3丁目10-15","lat":35.70373326,"lon":139.38208436},{"name":"昭島市児童センター","province":"東京都","city":"昭島市","address":"昭島市つつじが丘2-3-21","lat":35.71416,"lon":139.36705},{"name":"昭島市児童センター","province":"東京都","city":"昭島市","address":"昭島市つつじが丘2-3-21","lat":35.71417,"lon":139.36705},{"name":"昭島市児童センター","province":"東京都","city":"昭島市","address":"昭島市つつじが丘2-3-21","lat":35.71263,"lon":139.36771},{"name":"＊?市民図書館","province":"東京都","city":"昭島市","address":"昭島市東町2-6-33","lat":35.705301,"lon":139.38519},{"name":"＊?昭島市民図書館昭和分館","province":"東京都","city":"昭島市","address":"昭島市松原町1-2-25","lat":35.712915,"lon":139.357675},{"name":"＊?昭島市民図書館緑分館","province":"東京都","city":"昭島市","address":"昭島市緑町4-13-26","lat":35.714198,"lon":139.34461},{"name":"＊?昭島市民図書館つつじが丘分室","province":"東京都","city":"昭島市","address":"昭島市つつじが丘3-1-30","lat":35.714331,"lon":139.370987},{"name":"＊?昭島市民図書館やまのかみ分室","province":"東京都","city":"昭島市","address":"昭島市拝島町3-10-3","lat":35.711009,"lon":139.335511},{"name":"昭島市児童センター","province":"東京都","city":"昭島市","address":"昭島市つつじが丘2-3-21","lat":35.714246,"lon":139.367011},{"name":"市民図書館","province":"東京都","city":"昭島市","address":"東京都昭島市つつじが丘3丁目3-15","lat":35.71168206,"lon":139.36932424},{"name":"昭和分館","province":"東京都","city":"昭島市","address":"東京都昭島市松原町1丁目2-25","lat":35.71254841,"lon":139.3577419},{"name":"緑分館","province":"東京都","city":"昭島市","address":"東京都昭島市緑町4丁目13-26","lat":35.71423686,"lon":139.34460401},{"name":"やまのかみ分室","province":"東京都","city":"昭島市","address":"東京都昭島市拝島町3丁目10-3","lat":35.71094542,"lon":139.33552702},{"name":"玉川会館内臨時窓口","province":"東京都","city":"昭島市","address":"東京都昭島市玉川町3丁目10-15","lat":35.70373326,"lon":139.38208436},{"name":"昭島市児童センター","province":"東京都","city":"昭島市","address":"昭島市つつじが丘2-3-21","lat":35.71416,"lon":139.36705},{"name":"昭島市児童センター","province":"東京都","city":"昭島市","address":"昭島市つつじが丘2-3-21","lat":35.71417,"lon":139.36705},{"name":"昭島市児童センター","province":"東京都","city":"昭島市","address":"昭島市つつじが丘2-3-21","lat":35.71263,"lon":139.36771},{"name":"＊?市民図書館","province":"東京都","city":"昭島市","address":"昭島市東町2-6-33","lat":35.705301,"lon":139.38519},{"name":"＊?昭島市民図書館昭和分館","province":"東京都","city":"昭島市","address":"昭島市松原町1-2-25","lat":35.712915,"lon":139.357675},{"name":"＊?昭島市民図書館緑分館","province":"東京都","city":"昭島市","address":"昭島市緑町4-13-26","lat":35.714198,"lon":139.34461},{"name":"＊?昭島市民図書館つつじが丘分室","province":"東京都","city":"昭島市","address":"昭島市つつじが丘3-1-30","lat":35.714331,"lon":139.370987},{"name":"＊?昭島市民図書館やまのかみ分室","province":"東京都","city":"昭島市","address":"昭島市拝島町3-10-3","lat":35.711009,"lon":139.335511},{"name":"昭島市児童センター","province":"東京都","city":"昭島市","address":"昭島市つつじが丘2-3-21","lat":35.714246,"lon":139.367011},{"name":"市民図書館","province":"東京都","city":"昭島市","address":"東京都昭島市つつじが丘3丁目3-15","lat":35.71168206,"lon":139.36932424},{"name":"昭和分館","province":"東京都","city":"昭島市","address":"東京都昭島市松原町1丁目2-25","lat":35.71254841,"lon":139.3577419},{"name":"緑分館","province":"東京都","city":"昭島市","address":"東京都昭島市緑町4丁目13-26","lat":35.71423686,"lon":139.34460401},{"name":"やまのかみ分室","province":"東京都","city":"昭島市","address":"東京都昭島市拝島町3丁目10-3","lat":35.71094542,"lon":139.33552702},{"name":"玉川会館内臨時窓口","province":"東京都","city":"昭島市","address":"東京都昭島市玉川町3丁目10-15","lat":35.70373326,"lon":139.38208436},{"name":"昭島市児童センター","province":"東京都","city":"昭島市","address":"昭島市つつじが丘2-3-21","lat":35.71416,"lon":139.36705},{"name":"昭島市児童センター","province":"東京都","city":"昭島市","address":"昭島市つつじが丘2-3-21","lat":35.71417,"lon":139.36705},{"name":"昭島市児童センター","province":"東京都","city":"昭島市","address":"昭島市つつじが丘2-3-21","lat":35.71263,"lon":139.36771},{"name":"＊?市民図書館","province":"東京都","city":"昭島市","address":"昭島市東町2-6-33","lat":35.705301,"lon":139.38519},{"name":"＊?昭島市民図書館昭和分館","province":"東京都","city":"昭島市","address":"昭島市松原町1-2-25","lat":35.712915,"lon":139.357675},{"name":"＊?昭島市民図書館緑分館","province":"東京都","city":"昭島市","address":"昭島市緑町4-13-26","lat":35.714198,"lon":139.34461},{"name":"＊?昭島市民図書館つつじが丘分室","province":"東京都","city":"昭島市","address":"昭島市つつじが丘3-1-30","lat":35.714331,"lon":139.370987},{"name":"＊?昭島市民図書館やまのかみ分室","province":"東京都","city":"昭島市","address":"昭島市拝島町3-10-3","lat":35.711009,"lon":139.335511},{"name":"昭島市児童センター","province":"東京都","city":"昭島市","address":"昭島市つつじが丘2-3-21","lat":35.714246,"lon":139.367011},{"name":"市民図書館","province":"東京都","city":"昭島市","address":"東京都昭島市つつじが丘3丁目3-15","lat":35.71168206,"lon":139.36932424},{"name":"昭和分館","province":"東京都","city":"昭島市","address":"東京都昭島市松原町1丁目2-25","lat":35.71254841,"lon":139.3577419},{"name":"緑分館","province":"東京都","city":"昭島市","address":"東京都昭島市緑町4丁目13-26","lat":35.71423686,"lon":139.34460401},{"name":"やまのかみ分室","province":"東京都","city":"昭島市","address":"東京都昭島市拝島町3丁目10-3","lat":35.71094542,"lon":139.33552702},{"name":"玉川会館内臨時窓口","province":"東京都","city":"昭島市","address":"東京都昭島市玉川町3丁目10-15","lat":35.70373326,"lon":139.38208436},{"name":"昭島市児童センター","province":"東京都","city":"昭島市","address":"昭島市つつじが丘2-3-21","lat":35.71416,"lon":139.36705},{"name":"昭島市児童センター","province":"東京都","city":"昭島市","address":"昭島市つつじが丘2-3-21","lat":35.71417,"lon":139.36705},{"name":"昭島市児童センター","province":"東京都","city":"昭島市","address":"昭島市つつじが丘2-3-21","lat":35.71263,"lon":139.36771},{"name":"＊?市民図書館","province":"東京都","city":"昭島市","address":"昭島市東町2-6-33","lat":35.705301,"lon":139.38519},{"name":"＊?昭島市民図書館昭和分館","province":"東京都","city":"昭島市","address":"昭島市松原町1-2-25","lat":35.712915,"lon":139.357675},{"name":"＊?昭島市民図書館緑分館","province":"東京都","city":"昭島市","address":"昭島市緑町4-13-26","lat":35.714198,"lon":139.34461},{"name":"＊?昭島市民図書館つつじが丘分室","province":"東京都","city":"昭島市","address":"昭島市つつじが丘3-1-30","lat":35.714331,"lon":139.370987},{"name":"＊?昭島市民図書館やまのかみ分室","province":"東京都","city":"昭島市","address":"昭島市拝島町3-10-3","lat":35.711009,"lon":139.335511},{"name":"昭島市児童センター","province":"東京都","city":"昭島市","address":"昭島市つつじが丘2-3-21","lat":35.714246,"lon":139.367011},{"name":"市民図書館","province":"東京都","city":"昭島市","address":"東京都昭島市つつじが丘3丁目3-15","lat":35.71168206,"lon":139.36932424},{"name":"昭和分館","province":"東京都","city":"昭島市","address":"東京都昭島市松原町1丁目2-25","lat":35.71254841,"lon":139.3577419},{"name":"緑分館","province":"東京都","city":"昭島市","address":"東京都昭島市緑町4丁目13-26","lat":35.71423686,"lon":139.34460401},{"name":"やまのかみ分室","province":"東京都","city":"昭島市","address":"東京都昭島市拝島町3丁目10-3","lat":35.71094542,"lon":139.33552702},{"name":"玉川会館内臨時窓口","province":"東京都","city":"昭島市","address":"東京都昭島市玉川町3丁目10-15","lat":35.70373326,"lon":139.38208436},{"name":"昭島市児童センター","province":"東京都","city":"昭島市","address":"昭島市つつじが丘2-3-21","lat":35.71416,"lon":139.36705},{"name":"昭島市児童センター","province":"東京都","city":"昭島市","address":"昭島市つつじが丘2-3-21","lat":35.71417,"lon":139.36705},{"name":"昭島市児童センター","province":"東京都","city":"昭島市","address":"昭島市つつじが丘2-3-21","lat":35.71263,"lon":139.36771},{"name":"＊?市民図書館","province":"東京都","city":"昭島市","address":"昭島市東町2-6-33","lat":35.705301,"lon":139.38519},{"name":"＊?昭島市民図書館昭和分館","province":"東京都","city":"昭島市","address":"昭島市松原町1-2-25","lat":35.712915,"lon":139.357675},{"name":"＊?昭島市民図書館緑分館","province":"東京都","city":"昭島市","address":"昭島市緑町4-13-26","lat":35.714198,"lon":139.34461},{"name":"＊?昭島市民図書館つつじが丘分室","province":"東京都","city":"昭島市","address":"昭島市つつじが丘3-1-30","lat":35.714331,"lon":139.370987},{"name":"＊?昭島市民図書館やまのかみ分室","province":"東京都","city":"昭島市","address":"昭島市拝島町3-10-3","lat":35.711009,"lon":139.335511},{"name":"昭島市児童センター","province":"東京都","city":"昭島市","address":"昭島市つつじが丘2-3-21","lat":35.714246,"lon":139.367011},{"name":"市民図書館","province":"東京都","city":"昭島市","address":"東京都昭島市つつじが丘3丁目3-15","lat":35.71168206,"lon":139.36932424},{"name":"昭和分館","province":"東京都","city":"昭島市","address":"東京都昭島市松原町1丁目2-25","lat":35.71254841,"lon":139.3577419},{"name":"緑分館","province":"東京都","city":"昭島市","address":"東京都昭島市緑町4丁目13-26","lat":35.71423686,"lon":139.34460401},{"name":"やまのかみ分室","province":"東京都","city":"昭島市","address":"東京都昭島市拝島町3丁目10-3","lat":35.71094542,"lon":139.33552702},{"name":"玉川会館内臨時窓口","province":"東京都","city":"昭島市","address":"東京都昭島市玉川町3丁目10-15","lat":35.70373326,"lon":139.38208436},{"name":"昭島市児童センター","province":"東京都","city":"昭島市","address":"昭島市つつじが丘2-3-21","lat":35.71416,"lon":139.36705},{"name":"昭島市児童センター","province":"東京都","city":"昭島市","address":"昭島市つつじが丘2-3-21","lat":35.71417,"lon":139.36705},{"name":"昭島市児童センター","province":"東京都","city":"昭島市","address":"昭島市つつじが丘2-3-21","lat":35.71263,"lon":139.36771},{"name":"＊?市民図書館","province":"東京都","city":"昭島市","address":"昭島市東町2-6-33","lat":35.705301,"lon":139.38519},{"name":"＊?昭島市民図書館昭和分館","province":"東京都","city":"昭島市","address":"昭島市松原町1-2-25","lat":35.712915,"lon":139.357675},{"name":"＊?昭島市民図書館緑分館","province":"東京都","city":"昭島市","address":"昭島市緑町4-13-26","lat":35.714198,"lon":139.34461},{"name":"＊?昭島市民図書館つつじが丘分室","province":"東京都","city":"昭島市","address":"昭島市つつじが丘3-1-30","lat":35.714331,"lon":139.370987},{"name":"＊?昭島市民図書館やまのかみ分室","province":"東京都","city":"昭島市","address":"昭島市拝島町3-10-3","lat":35.711009,"lon":139.335511},{"name":"昭島市児童センター","province":"東京都","city":"昭島市","address":"昭島市つつじが丘2-3-21","lat":35.714246,"lon":139.367011},{"name":"市民図書館","province":"東京都","city":"昭島市","address":"東京都昭島市つつじが丘3丁目3-15","lat":35.71168206,"lon":139.36932424},{"name":"昭和分館","province":"東京都","city":"昭島市","address":"東京都昭島市松原町1丁目2-25","lat":35.71254841,"lon":139.3577419},{"name":"緑分館","province":"東京都","city":"昭島市","address":"東京都昭島市緑町4丁目13-26","lat":35.71423686,"lon":139.34460401},{"name":"やまのかみ分室","province":"東京都","city":"昭島市","address":"東京都昭島市拝島町3丁目10-3","lat":35.71094542,"lon":139.33552702},{"name":"玉川会館内臨時窓口","province":"東京都","city":"昭島市","address":"東京都昭島市玉川町3丁目10-15","lat":35.70373326,"lon":139.38208436},{"name":"昭島市児童センター","province":"東京都","city":"昭島市","address":"昭島市つつじが丘2-3-21","lat":35.71416,"lon":139.36705},{"name":"昭島市児童センター","province":"東京都","city":"昭島市","address":"昭島市つつじが丘2-3-21","lat":35.71417,"lon":139.36705},{"name":"昭島市児童センター","province":"東京都","city":"昭島市","address":"昭島市つつじが丘2-3-21","lat":35.71263,"lon":139.36771},{"name":"＊?市民図書館","province":"東京都","city":"昭島市","address":"昭島市東町2-6-33","lat":35.705301,"lon":139.38519},{"name":"＊?昭島市民図書館昭和分館","province":"東京都","city":"昭島市","address":"昭島市松原町1-2-25","lat":35.712915,"lon":139.357675},{"name":"＊?昭島市民図書館緑分館","province":"東京都","city":"昭島市","address":"昭島市緑町4-13-26","lat":35.714198,"lon":139.34461},{"name":"＊?昭島市民図書館つつじが丘分室","province":"東京都","city":"昭島市","address":"昭島市つつじが丘3-1-30","lat":35.714331,"lon":139.370987},{"name":"＊?昭島市民図書館やまのかみ分室","province":"東京都","city":"昭島市","address":"昭島市拝島町3-10-3","lat":35.711009,"lon":139.335511},{"name":"昭島市児童センター","province":"東京都","city":"昭島市","address":"昭島市つつじが丘2-3-21","lat":35.714246,"lon":139.367011},{"name":"市民図書館","province":"東京都","city":"昭島市","address":"東京都昭島市つつじが丘3丁目3-15","lat":35.71168206,"lon":139.36932424},{"name":"昭和分館","province":"東京都","city":"昭島市","address":"東京都昭島市松原町1丁目2-25","lat":35.71254841,"lon":139.3577419},{"name":"緑分館","province":"東京都","city":"昭島市","address":"東京都昭島市緑町4丁目13-26","lat":35.71423686,"lon":139.34460401},{"name":"やまのかみ分室","province":"東京都","city":"昭島市","address":"東京都昭島市拝島町3丁目10-3","lat":35.71094542,"lon":139.33552702},{"name":"玉川会館内臨時窓口","province":"東京都","city":"昭島市","address":"東京都昭島市玉川町3丁目10-15","lat":35.70373326,"lon":139.38208436},{"name":"昭島市児童センター","province":"東京都","city":"昭島市","address":"昭島市つつじが丘2-3-21","lat":35.71416,"lon":139.36705},{"name":"昭島市児童センター","province":"東京都","city":"昭島市","address":"昭島市つつじが丘2-3-21","lat":35.71417,"lon":139.36705},{"name":"昭島市児童センター","province":"東京都","city":"昭島市","address":"昭島市つつじが丘2-3-21","lat":35.71263,"lon":139.36771},{"name":"＊?市民図書館","province":"東京都","city":"昭島市","address":"昭島市東町2-6-33","lat":35.705301,"lon":139.38519},{"name":"＊?昭島市民図書館昭和分館","province":"東京都","city":"昭島市","address":"昭島市松原町1-2-25","lat":35.712915,"lon":139.357675},{"name":"＊?昭島市民図書館緑分館","province":"東京都","city":"昭島市","address":"昭島市緑町4-13-26","lat":35.714198,"lon":139.34461},{"name":"＊?昭島市民図書館つつじが丘分室","province":"東京都","city":"昭島市","address":"昭島市つつじが丘3-1-30","lat":35.714331,"lon":139.370987},{"name":"＊?昭島市民図書館やまのかみ分室","province":"東京都","city":"昭島市","address":"昭島市拝島町3-10-3","lat":35.711009,"lon":139.335511},{"name":"昭島市児童センター","province":"東京都","city":"昭島市","address":"昭島市つつじが丘2-3-21","lat":35.714246,"lon":139.367011},{"name":"市民図書館","province":"東京都","city":"昭島市","address":"東京都昭島市つつじが丘3丁目3-15","lat":35.71168206,"lon":139.36932424},{"name":"昭和分館","province":"東京都","city":"昭島市","address":"東京都昭島市松原町1丁目2-25","lat":35.71254841,"lon":139.3577419},{"name":"緑分館","province":"東京都","city":"昭島市","address":"東京都昭島市緑町4丁目13-26","lat":35.71423686,"lon":139.34460401},{"name":"やまのかみ分室","province":"東京都","city":"昭島市","address":"東京都昭島市拝島町3丁目10-3","lat":35.71094542,"lon":139.33552702},{"name":"玉川会館内臨時窓口","province":"東京都","city":"昭島市","address":"東京都昭島市玉川町3丁目10-15","lat":35.70373326,"lon":139.38208436},{"name":"昭島市児童センター","province":"東京都","city":"昭島市","address":"昭島市つつじが丘2-3-21","lat":35.71416,"lon":139.36705},{"name":"昭島市児童センター","province":"東京都","city":"昭島市","address":"昭島市つつじが丘2-3-21","lat":35.71417,"lon":139.36705},{"name":"昭島市児童センター","province":"東京都","city":"昭島市","address":"昭島市つつじが丘2-3-21","lat":35.71263,"lon":139.36771},{"name":"＊?市民図書館","province":"東京都","city":"昭島市","address":"昭島市東町2-6-33","lat":35.705301,"lon":139.38519},{"name":"＊?昭島市民図書館昭和分館","province":"東京都","city":"昭島市","address":"昭島市松原町1-2-25","lat":35.712915,"lon":139.357675},{"name":"＊?昭島市民図書館緑分館","province":"東京都","city":"昭島市","address":"昭島市緑町4-13-26","lat":35.714198,"lon":139.34461},{"name":"＊?昭島市民図書館つつじが丘分室","province":"東京都","city":"昭島市","address":"昭島市つつじが丘3-1-30","lat":35.714331,"lon":139.370987},{"name":"＊?昭島市民図書館やまのかみ分室","province":"東京都","city":"昭島市","address":"昭島市拝島町3-10-3","lat":35.711009,"lon":139.335511},{"name":"昭島市児童センター","province":"東京都","city":"昭島市","address":"昭島市つつじが丘2-3-21","lat":35.714246,"lon":139.367011},{"name":"市民図書館","province":"東京都","city":"昭島市","address":"東京都昭島市つつじが丘3丁目3-15","lat":35.71168206,"lon":139.36932424},{"name":"昭和分館","province":"東京都","city":"昭島市","address":"東京都昭島市松原町1丁目2-25","lat":35.71254841,"lon":139.3577419},{"name":"緑分館","province":"東京都","city":"昭島市","address":"東京都昭島市緑町4丁目13-26","lat":35.71423686,"lon":139.34460401},{"name":"やまのかみ分室","province":"東京都","city":"昭島市","address":"東京都昭島市拝島町3丁目10-3","lat":35.71094542,"lon":139.33552702},{"name":"玉川会館内臨時窓口","province":"東京都","city":"昭島市","address":"東京都昭島市玉川町3丁目10-15","lat":35.70373326,"lon":139.38208436},{"name":"昭島市児童センター","province":"東京都","city":"昭島市","address":"昭島市つつじが丘2-3-21","lat":35.71416,"lon":139.36705},{"name":"昭島市児童センター","province":"東京都","city":"昭島市","address":"昭島市つつじが丘2-3-21","lat":35.71417,"lon":139.36705},{"name":"昭島市児童センター","province":"東京都","city":"昭島市","address":"昭島市つつじが丘2-3-21","lat":35.71263,"lon":139.36771},{"name":"＊?市民図書館","province":"東京都","city":"昭島市","address":"昭島市東町2-6-33","lat":35.705301,"lon":139.38519},{"name":"＊?昭島市民図書館昭和分館","province":"東京都","city":"昭島市","address":"昭島市松原町1-2-25","lat":35.712915,"lon":139.357675},{"name":"＊?昭島市民図書館緑分館","province":"東京都","city":"昭島市","address":"昭島市緑町4-13-26","lat":35.714198,"lon":139.34461},{"name":"＊?昭島市民図書館つつじが丘分室","province":"東京都","city":"昭島市","address":"昭島市つつじが丘3-1-30","lat":35.714331,"lon":139.370987},{"name":"＊?昭島市民図書館やまのかみ分室","province":"東京都","city":"昭島市","address":"昭島市拝島町3-10-3","lat":35.711009,"lon":139.335511},{"name":"昭島市児童センター","province":"東京都","city":"昭島市","address":"昭島市つつじが丘2-3-21","lat":35.714246,"lon":139.367011},{"name":"市民図書館","province":"東京都","city":"昭島市","address":"東京都昭島市つつじが丘3丁目3-15","lat":35.71168206,"lon":139.36932424},{"name":"昭和分館","province":"東京都","city":"昭島市","address":"東京都昭島市松原町1丁目2-25","lat":35.71254841,"lon":139.3577419},{"name":"緑分館","province":"東京都","city":"昭島市","address":"東京都昭島市緑町4丁目13-26","lat":35.71423686,"lon":139.34460401},{"name":"やまのかみ分室","province":"東京都","city":"昭島市","address":"東京都昭島市拝島町3丁目10-3","lat":35.71094542,"lon":139.33552702},{"name":"玉川会館内臨時窓口","province":"東京都","city":"昭島市","address":"東京都昭島市玉川町3丁目10-15","lat":35.70373326,"lon":139.38208436},{"name":"昭島市児童センター","province":"東京都","city":"昭島市","address":"昭島市つつじが丘2-3-21","lat":35.71416,"lon":139.36705},{"name":"昭島市児童センター","province":"東京都","city":"昭島市","address":"昭島市つつじが丘2-3-21","lat":35.71417,"lon":139.36705},{"name":"昭島市児童センター","province":"東京都","city":"昭島市","address":"昭島市つつじが丘2-3-21","lat":35.71263,"lon":139.36771},{"name":"＊?市民図書館","province":"東京都","city":"昭島市","address":"昭島市東町2-6-33","lat":35.705301,"lon":139.38519},{"name":"＊?昭島市民図書館昭和分館","province":"東京都","city":"昭島市","address":"昭島市松原町1-2-25","lat":35.712915,"lon":139.357675},{"name":"＊?昭島市民図書館緑分館","province":"東京都","city":"昭島市","address":"昭島市緑町4-13-26","lat":35.714198,"lon":139.34461},{"name":"＊?昭島市民図書館つつじが丘分室","province":"東京都","city":"昭島市","address":"昭島市つつじが丘3-1-30","lat":35.714331,"lon":139.370987},{"name":"＊?昭島市民図書館やまのかみ分室","province":"東京都","city":"昭島市","address":"昭島市拝島町3-10-3","lat":35.711009,"lon":139.335511},{"name":"昭島市児童センター","province":"東京都","city":"昭島市","address":"昭島市つつじが丘2-3-21","lat":35.714246,"lon":139.367011},{"name":"市民図書館","province":"東京都","city":"昭島市","address":"東京都昭島市つつじが丘3丁目3-15","lat":35.71168206,"lon":139.36932424},{"name":"昭和分館","province":"東京都","city":"昭島市","address":"東京都昭島市松原町1丁目2-25","lat":35.71254841,"lon":139.3577419},{"name":"緑分館","province":"東京都","city":"昭島市","address":"東京都昭島市緑町4丁目13-26","lat":35.71423686,"lon":139.34460401},{"name":"やまのかみ分室","province":"東京都","city":"昭島市","address":"東京都昭島市拝島町3丁目10-3","lat":35.71094542,"lon":139.33552702},{"name":"玉川会館内臨時窓口","province":"東京都","city":"昭島市","address":"東京都昭島市玉川町3丁目10-15","lat":35.70373326,"lon":139.38208436},{"name":"昭島市児童センター","province":"東京都","city":"昭島市","address":"昭島市つつじが丘2-3-21","lat":35.71416,"lon":139.36705},{"name":"昭島市児童センター","province":"東京都","city":"昭島市","address":"昭島市つつじが丘2-3-21","lat":35.71417,"lon":139.36705},{"name":"昭島市児童センター","province":"東京都","city":"昭島市","address":"昭島市つつじが丘2-3-21","lat":35.71263,"lon":139.36771},{"name":"＊?市民図書館","province":"東京都","city":"昭島市","address":"昭島市東町2-6-33","lat":35.705301,"lon":139.38519},{"name":"＊?昭島市民図書館昭和分館","province":"東京都","city":"昭島市","address":"昭島市松原町1-2-25","lat":35.712915,"lon":139.357675},{"name":"＊?昭島市民図書館緑分館","province":"東京都","city":"昭島市","address":"昭島市緑町4-13-26","lat":35.714198,"lon":139.34461},{"name":"＊?昭島市民図書館つつじが丘分室","province":"東京都","city":"昭島市","address":"昭島市つつじが丘3-1-30","lat":35.714331,"lon":139.370987},{"name":"＊?昭島市民図書館やまのかみ分室","province":"東京都","city":"昭島市","address":"昭島市拝島町3-10-3","lat":35.711009,"lon":139.335511},{"name":"昭島市児童センター","province":"東京都","city":"昭島市","address":"昭島市つつじが丘2-3-21","lat":35.714246,"lon":139.367011},{"name":"市民図書館","province":"東京都","city":"昭島市","address":"東京都昭島市つつじが丘3丁目3-15","lat":35.71168206,"lon":139.36932424},{"name":"昭和分館","province":"東京都","city":"昭島市","address":"東京都昭島市松原町1丁目2-25","lat":35.71254841,"lon":139.3577419},{"name":"緑分館","province":"東京都","city":"昭島市","address":"東京都昭島市緑町4丁目13-26","lat":35.71423686,"lon":139.34460401},{"name":"やまのかみ分室","province":"東京都","city":"昭島市","address":"東京都昭島市拝島町3丁目10-3","lat":35.71094542,"lon":139.33552702},{"name":"玉川会館内臨時窓口","province":"東京都","city":"昭島市","address":"東京都昭島市玉川町3丁目10-15","lat":35.70373326,"lon":139.38208436},{"name":"昭島市児童センター","province":"東京都","city":"昭島市","address":"昭島市つつじが丘2-3-21","lat":35.71416,"lon":139.36705},{"name":"昭島市児童センター","province":"東京都","city":"昭島市","address":"昭島市つつじが丘2-3-21","lat":35.71417,"lon":139.36705},{"name":"昭島市児童センター","province":"東京都","city":"昭島市","address":"昭島市つつじが丘2-3-21","lat":35.71263,"lon":139.36771},{"name":"＊?市民図書館","province":"東京都","city":"昭島市","address":"昭島市東町2-6-33","lat":35.705301,"lon":139.38519},{"name":"＊?昭島市民図書館昭和分館","province":"東京都","city":"昭島市","address":"昭島市松原町1-2-25","lat":35.712915,"lon":139.357675},{"name":"＊?昭島市民図書館緑分館","province":"東京都","city":"昭島市","address":"昭島市緑町4-13-26","lat":35.714198,"lon":139.34461},{"name":"＊?昭島市民図書館つつじが丘分室","province":"東京都","city":"昭島市","address":"昭島市つつじが丘3-1-30","lat":35.714331,"lon":139.370987},{"name":"＊?昭島市民図書館やまのかみ分室","province":"東京都","city":"昭島市","address":"昭島市拝島町3-10-3","lat":35.711009,"lon":139.335511},{"name":"昭島市児童センター","province":"東京都","city":"昭島市","address":"昭島市つつじが丘2-3-21","lat":35.714246,"lon":139.367011},{"name":"市民図書館","province":"東京都","city":"昭島市","address":"東京都昭島市つつじが丘3丁目3-15","lat":35.71168206,"lon":139.36932424},{"name":"昭和分館","province":"東京都","city":"昭島市","address":"東京都昭島市松原町1丁目2-25","lat":35.71254841,"lon":139.3577419},{"name":"緑分館","province":"東京都","city":"昭島市","address":"東京都昭島市緑町4丁目13-26","lat":35.71423686,"lon":139.34460401},{"name":"やまのかみ分室","province":"東京都","city":"昭島市","address":"東京都昭島市拝島町3丁目10-3","lat":35.71094542,"lon":139.33552702},{"name":"玉川会館内臨時窓口","province":"東京都","city":"昭島市","address":"東京都昭島市玉川町3丁目10-15","lat":35.70373326,"lon":139.38208436},{"name":"昭島市児童センター","province":"東京都","city":"昭島市","address":"昭島市つつじが丘2-3-21","lat":35.71416,"lon":139.36705},{"name":"昭島市児童センター","province":"東京都","city":"昭島市","address":"昭島市つつじが丘2-3-21","lat":35.71417,"lon":139.36705},{"name":"昭島市児童センター","province":"東京都","city":"昭島市","address":"昭島市つつじが丘2-3-21","lat":35.71263,"lon":139.36771},{"name":"＊?市民図書館","province":"東京都","city":"昭島市","address":"昭島市東町2-6-33","lat":35.705301,"lon":139.38519},{"name":"＊?昭島市民図書館昭和分館","province":"東京都","city":"昭島市","address":"昭島市松原町1-2-25","lat":35.712915,"lon":139.357675},{"name":"＊?昭島市民図書館緑分館","province":"東京都","city":"昭島市","address":"昭島市緑町4-13-26","lat":35.714198,"lon":139.34461},{"name":"＊?昭島市民図書館つつじが丘分室","province":"東京都","city":"昭島市","address":"昭島市つつじが丘3-1-30","lat":35.714331,"lon":139.370987},{"name":"＊?昭島市民図書館やまのかみ分室","province":"東京都","city":"昭島市","address":"昭島市拝島町3-10-3","lat":35.711009,"lon":139.335511},{"name":"昭島市児童センター","province":"東京都","city":"昭島市","address":"昭島市つつじが丘2-3-21","lat":35.714246,"lon":139.367011},{"name":"市民図書館","province":"東京都","city":"昭島市","address":"東京都昭島市つつじが丘3丁目3-15","lat":35.71168206,"lon":139.36932424},{"name":"昭和分館","province":"東京都","city":"昭島市","address":"東京都昭島市松原町1丁目2-25","lat":35.71254841,"lon":139.3577419},{"name":"緑分館","province":"東京都","city":"昭島市","address":"東京都昭島市緑町4丁目13-26","lat":35.71423686,"lon":139.34460401},{"name":"やまのかみ分室","province":"東京都","city":"昭島市","address":"東京都昭島市拝島町3丁目10-3","lat":35.71094542,"lon":139.33552702},{"name":"玉川会館内臨時窓口","province":"東京都","city":"昭島市","address":"東京都昭島市玉川町3丁目10-15","lat":35.70373326,"lon":139.38208436},{"name":"昭島市児童センター","province":"東京都","city":"昭島市","address":"昭島市つつじが丘2-3-21","lat":35.71416,"lon":139.36705},{"name":"昭島市児童センター","province":"東京都","city":"昭島市","address":"昭島市つつじが丘2-3-21","lat":35.71417,"lon":139.36705},{"name":"昭島市児童センター","province":"東京都","city":"昭島市","address":"昭島市つつじが丘2-3-21","lat":35.71263,"lon":139.36771},{"name":"＊?市民図書館","province":"東京都","city":"昭島市","address":"昭島市東町2-6-33","lat":35.705301,"lon":139.38519},{"name":"＊?昭島市民図書館昭和分館","province":"東京都","city":"昭島市","address":"昭島市松原町1-2-25","lat":35.712915,"lon":139.357675},{"name":"＊?昭島市民図書館緑分館","province":"東京都","city":"昭島市","address":"昭島市緑町4-13-26","lat":35.714198,"lon":139.34461},{"name":"＊?昭島市民図書館つつじが丘分室","province":"東京都","city":"昭島市","address":"昭島市つつじが丘3-1-30","lat":35.714331,"lon":139.370987},{"name":"＊?昭島市民図書館やまのかみ分室","province":"東京都","city":"昭島市","address":"昭島市拝島町3-10-3","lat":35.711009,"lon":139.335511},{"name":"昭島市児童センター","province":"東京都","city":"昭島市","address":"昭島市つつじが丘2-3-21","lat":35.714246,"lon":139.367011},{"name":"市民図書館","province":"東京都","city":"昭島市","address":"東京都昭島市つつじが丘3丁目3-15","lat":35.71168206,"lon":139.36932424},{"name":"昭和分館","province":"東京都","city":"昭島市","address":"東京都昭島市松原町1丁目2-25","lat":35.71254841,"lon":139.3577419},{"name":"緑分館","province":"東京都","city":"昭島市","address":"東京都昭島市緑町4丁目13-26","lat":35.71423686,"lon":139.34460401},{"name":"やまのかみ分室","province":"東京都","city":"昭島市","address":"東京都昭島市拝島町3丁目10-3","lat":35.71094542,"lon":139.33552702},{"name":"玉川会館内臨時窓口","province":"東京都","city":"昭島市","address":"東京都昭島市玉川町3丁目10-15","lat":35.70373326,"lon":139.38208436},{"name":"昭島市児童センター","province":"東京都","city":"昭島市","address":"昭島市つつじが丘2-3-21","lat":35.71416,"lon":139.36705},{"name":"昭島市児童センター","province":"東京都","city":"昭島市","address":"昭島市つつじが丘2-3-21","lat":35.71417,"lon":139.36705},{"name":"昭島市児童センター","province":"東京都","city":"昭島市","address":"昭島市つつじが丘2-3-21","lat":35.71263,"lon":139.36771},{"name":"＊?市民図書館","province":"東京都","city":"昭島市","address":"昭島市東町2-6-33","lat":35.705301,"lon":139.38519},{"name":"＊?昭島市民図書館昭和分館","province":"東京都","city":"昭島市","address":"昭島市松原町1-2-25","lat":35.712915,"lon":139.357675},{"name":"＊?昭島市民図書館緑分館","province":"東京都","city":"昭島市","address":"昭島市緑町4-13-26","lat":35.714198,"lon":139.34461},{"name":"＊?昭島市民図書館つつじが丘分室","province":"東京都","city":"昭島市","address":"昭島市つつじが丘3-1-30","lat":35.714331,"lon":139.370987},{"name":"＊?昭島市民図書館やまのかみ分室","province":"東京都","city":"昭島市","address":"昭島市拝島町3-10-3","lat":35.711009,"lon":139.335511},{"name":"昭島市児童センター","province":"東京都","city":"昭島市","address":"昭島市つつじが丘2-3-21","lat":35.714246,"lon":139.367011},{"name":"市民図書館","province":"東京都","city":"昭島市","address":"東京都昭島市つつじが丘3丁目3-15","lat":35.71168206,"lon":139.36932424},{"name":"昭和分館","province":"東京都","city":"昭島市","address":"東京都昭島市松原町1丁目2-25","lat":35.71254841,"lon":139.3577419},{"name":"緑分館","province":"東京都","city":"昭島市","address":"東京都昭島市緑町4丁目13-26","lat":35.71423686,"lon":139.34460401},{"name":"やまのかみ分室","province":"東京都","city":"昭島市","address":"東京都昭島市拝島町3丁目10-3","lat":35.71094542,"lon":139.33552702},{"name":"玉川会館内臨時窓口","province":"東京都","city":"昭島市","address":"東京都昭島市玉川町3丁目10-15","lat":35.70373326,"lon":139.38208436},{"name":"昭島市児童センター","province":"東京都","city":"昭島市","address":"昭島市つつじが丘2-3-21","lat":35.71416,"lon":139.36705},{"name":"昭島市児童センター","province":"東京都","city":"昭島市","address":"昭島市つつじが丘2-3-21","lat":35.71417,"lon":139.36705},{"name":"昭島市児童センター","province":"東京都","city":"昭島市","address":"昭島市つつじが丘2-3-21","lat":35.71263,"lon":139.36771},{"name":"＊?市民図書館","province":"東京都","city":"昭島市","address":"昭島市東町2-6-33","lat":35.705301,"lon":139.38519},{"name":"＊?昭島市民図書館昭和分館","province":"東京都","city":"昭島市","address":"昭島市松原町1-2-25","lat":35.712915,"lon":139.357675},{"name":"＊?昭島市民図書館緑分館","province":"東京都","city":"昭島市","address":"昭島市緑町4-13-26","lat":35.714198,"lon":139.34461},{"name":"＊?昭島市民図書館つつじが丘分室","province":"東京都","city":"昭島市","address":"昭島市つつじが丘3-1-30","lat":35.714331,"lon":139.370987},{"name":"＊?昭島市民図書館やまのかみ分室","province":"東京都","city":"昭島市","address":"昭島市拝島町3-10-3","lat":35.711009,"lon":139.335511},{"name":"昭島市児童センター","province":"東京都","city":"昭島市","address":"昭島市つつじが丘2-3-21","lat":35.714246,"lon":139.367011},{"name":"市民図書館","province":"東京都","city":"昭島市","address":"東京都昭島市つつじが丘3丁目3-15","lat":35.71168206,"lon":139.36932424},{"name":"昭和分館","province":"東京都","city":"昭島市","address":"東京都昭島市松原町1丁目2-25","lat":35.71254841,"lon":139.3577419},{"name":"緑分館","province":"東京都","city":"昭島市","address":"東京都昭島市緑町4丁目13-26","lat":35.71423686,"lon":139.34460401},{"name":"やまのかみ分室","province":"東京都","city":"昭島市","address":"東京都昭島市拝島町3丁目10-3","lat":35.71094542,"lon":139.33552702},{"name":"玉川会館内臨時窓口","province":"東京都","city":"昭島市","address":"東京都昭島市玉川町3丁目10-15","lat":35.70373326,"lon":139.38208436},{"name":"昭島市児童センター","province":"東京都","city":"昭島市","address":"昭島市つつじが丘2-3-21","lat":35.71416,"lon":139.36705},{"name":"昭島市児童センター","province":"東京都","city":"昭島市","address":"昭島市つつじが丘2-3-21","lat":35.71417,"lon":139.36705},{"name":"昭島市児童センター","province":"東京都","city":"昭島市","address":"昭島市つつじが丘2-3-21","lat":35.71263,"lon":139.36771},{"name":"＊?市民図書館","province":"東京都","city":"昭島市","address":"昭島市東町2-6-33","lat":35.705301,"lon":139.38519},{"name":"＊?昭島市民図書館昭和分館","province":"東京都","city":"昭島市","address":"昭島市松原町1-2-25","lat":35.712915,"lon":139.357675},{"name":"＊?昭島市民図書館緑分館","province":"東京都","city":"昭島市","address":"昭島市緑町4-13-26","lat":35.714198,"lon":139.34461},{"name":"＊?昭島市民図書館つつじが丘分室","province":"東京都","city":"昭島市","address":"昭島市つつじが丘3-1-30","lat":35.714331,"lon":139.370987},{"name":"＊?昭島市民図書館やまのかみ分室","province":"東京都","city":"昭島市","address":"昭島市拝島町3-10-3","lat":35.711009,"lon":139.335511},{"name":"昭島市児童センター","province":"東京都","city":"昭島市","address":"昭島市つつじが丘2-3-21","lat":35.714246,"lon":139.367011},{"name":"市民図書館","province":"東京都","city":"昭島市","address":"東京都昭島市つつじが丘3丁目3-15","lat":35.71168206,"lon":139.36932424},{"name":"昭和分館","province":"東京都","city":"昭島市","address":"東京都昭島市松原町1丁目2-25","lat":35.71254841,"lon":139.3577419},{"name":"緑分館","province":"東京都","city":"昭島市","address":"東京都昭島市緑町4丁目13-26","lat":35.71423686,"lon":139.34460401},{"name":"やまのかみ分室","province":"東京都","city":"昭島市","address":"東京都昭島市拝島町3丁目10-3","lat":35.71094542,"lon":139.33552702},{"name":"玉川会館内臨時窓口","province":"東京都","city":"昭島市","address":"東京都昭島市玉川町3丁目10-15","lat":35.70373326,"lon":139.38208436},{"name":"昭島市児童センター","province":"東京都","city":"昭島市","address":"昭島市つつじが丘2-3-21","lat":35.71416,"lon":139.36705},{"name":"昭島市児童センター","province":"東京都","city":"昭島市","address":"昭島市つつじが丘2-3-21","lat":35.71417,"lon":139.36705},{"name":"昭島市児童センター","province":"東京都","city":"昭島市","address":"昭島市つつじが丘2-3-21","lat":35.71263,"lon":139.36771},{"name":"＊?市民図書館","province":"東京都","city":"昭島市","address":"昭島市東町2-6-33","lat":35.705301,"lon":139.38519},{"name":"＊?昭島市民図書館昭和分館","province":"東京都","city":"昭島市","address":"昭島市松原町1-2-25","lat":35.712915,"lon":139.357675},{"name":"＊?昭島市民図書館緑分館","province":"東京都","city":"昭島市","address":"昭島市緑町4-13-26","lat":35.714198,"lon":139.34461},{"name":"＊?昭島市民図書館つつじが丘分室","province":"東京都","city":"昭島市","address":"昭島市つつじが丘3-1-30","lat":35.714331,"lon":139.370987},{"name":"＊?昭島市民図書館やまのかみ分室","province":"東京都","city":"昭島市","address":"昭島市拝島町3-10-3","lat":35.711009,"lon":139.335511},{"name":"昭島市児童センター","province":"東京都","city":"昭島市","address":"昭島市つつじが丘2-3-21","lat":35.714246,"lon":139.367011},{"name":"市民図書館","province":"東京都","city":"昭島市","address":"東京都昭島市つつじが丘3丁目3-15","lat":35.71168206,"lon":139.36932424},{"name":"昭和分館","province":"東京都","city":"昭島市","address":"東京都昭島市松原町1丁目2-25","lat":35.71254841,"lon":139.3577419},{"name":"緑分館","province":"東京都","city":"昭島市","address":"東京都昭島市緑町4丁目13-26","lat":35.71423686,"lon":139.34460401},{"name":"やまのかみ分室","province":"東京都","city":"昭島市","address":"東京都昭島市拝島町3丁目10-3","lat":35.71094542,"lon":139.33552702},{"name":"玉川会館内臨時窓口","province":"東京都","city":"昭島市","address":"東京都昭島市玉川町3丁目10-15","lat":35.70373326,"lon":139.38208436},{"name":"昭島市児童センター","province":"東京都","city":"昭島市","address":"昭島市つつじが丘2-3-21","lat":35.71416,"lon":139.36705},{"name":"昭島市児童センター","province":"東京都","city":"昭島市","address":"昭島市つつじが丘2-3-21","lat":35.71417,"lon":139.36705},{"name":"昭島市児童センター","province":"東京都","city":"昭島市","address":"昭島市つつじが丘2-3-21","lat":35.71263,"lon":139.36771},{"name":"＊?市民図書館","province":"東京都","city":"昭島市","address":"昭島市東町2-6-33","lat":35.705301,"lon":139.38519},{"name":"＊?昭島市民図書館昭和分館","province":"東京都","city":"昭島市","address":"昭島市松原町1-2-25","lat":35.712915,"lon":139.357675},{"name":"＊?昭島市民図書館緑分館","province":"東京都","city":"昭島市","address":"昭島市緑町4-13-26","lat":35.714198,"lon":139.34461},{"name":"＊?昭島市民図書館つつじが丘分室","province":"東京都","city":"昭島市","address":"昭島市つつじが丘3-1-30","lat":35.714331,"lon":139.370987},{"name":"＊?昭島市民図書館やまのかみ分室","province":"東京都","city":"昭島市","address":"昭島市拝島町3-10-3","lat":35.711009,"lon":139.335511},{"name":"昭島市児童センター","province":"東京都","city":"昭島市","address":"昭島市つつじが丘2-3-21","lat":35.714246,"lon":139.367011},{"name":"市民図書館","province":"東京都","city":"昭島市","address":"東京都昭島市つつじが丘3丁目3-15","lat":35.71168206,"lon":139.36932424},{"name":"昭和分館","province":"東京都","city":"昭島市","address":"東京都昭島市松原町1丁目2-25","lat":35.71254841,"lon":139.3577419},{"name":"緑分館","province":"東京都","city":"昭島市","address":"東京都昭島市緑町4丁目13-26","lat":35.71423686,"lon":139.34460401},{"name":"やまのかみ分室","province":"東京都","city":"昭島市","address":"東京都昭島市拝島町3丁目10-3","lat":35.71094542,"lon":139.33552702},{"name":"玉川会館内臨時窓口","province":"東京都","city":"昭島市","address":"東京都昭島市玉川町3丁目10-15","lat":35.70373326,"lon":139.38208436},{"name":"昭島市児童センター","province":"東京都","city":"昭島市","address":"昭島市つつじが丘2-3-21","lat":35.71416,"lon":139.36705},{"name":"昭島市児童センター","province":"東京都","city":"昭島市","address":"昭島市つつじが丘2-3-21","lat":35.71417,"lon":139.36705},{"name":"昭島市児童センター","province":"東京都","city":"昭島市","address":"昭島市つつじが丘2-3-21","lat":35.71263,"lon":139.36771},{"name":"＊?市民図書館","province":"東京都","city":"昭島市","address":"昭島市東町2-6-33","lat":35.705301,"lon":139.38519},{"name":"＊?昭島市民図書館昭和分館","province":"東京都","city":"昭島市","address":"昭島市松原町1-2-25","lat":35.712915,"lon":139.357675},{"name":"＊?昭島市民図書館緑分館","province":"東京都","city":"昭島市","address":"昭島市緑町4-13-26","lat":35.714198,"lon":139.34461},{"name":"＊?昭島市民図書館つつじが丘分室","province":"東京都","city":"昭島市","address":"昭島市つつじが丘3-1-30","lat":35.714331,"lon":139.370987},{"name":"＊?昭島市民図書館やまのかみ分室","province":"東京都","city":"昭島市","address":"昭島市拝島町3-10-3","lat":35.711009,"lon":139.335511},{"name":"昭島市児童センター","province":"東京都","city":"昭島市","address":"昭島市つつじが丘2-3-21","lat":35.714246,"lon":139.367011},{"name":"市民図書館","province":"東京都","city":"昭島市","address":"東京都昭島市つつじが丘3丁目3-15","lat":35.71168206,"lon":139.36932424},{"name":"昭和分館","province":"東京都","city":"昭島市","address":"東京都昭島市松原町1丁目2-25","lat":35.71254841,"lon":139.3577419},{"name":"緑分館","province":"東京都","city":"昭島市","address":"東京都昭島市緑町4丁目13-26","lat":35.71423686,"lon":139.34460401},{"name":"やまのかみ分室","province":"東京都","city":"昭島市","address":"東京都昭島市拝島町3丁目10-3","lat":35.71094542,"lon":139.33552702},{"name":"玉川会館内臨時窓口","province":"東京都","city":"昭島市","address":"東京都昭島市玉川町3丁目10-15","lat":35.70373326,"lon":139.38208436},{"name":"昭島市児童センター","province":"東京都","city":"昭島市","address":"昭島市つつじが丘2-3-21","lat":35.71416,"lon":139.36705},{"name":"昭島市児童センター","province":"東京都","city":"昭島市","address":"昭島市つつじが丘2-3-21","lat":35.71417,"lon":139.36705},{"name":"昭島市児童センター","province":"東京都","city":"昭島市","address":"昭島市つつじが丘2-3-21","lat":35.71263,"lon":139.36771},{"name":"＊?市民図書館","province":"東京都","city":"昭島市","address":"昭島市東町2-6-33","lat":35.705301,"lon":139.38519},{"name":"＊?昭島市民図書館昭和分館","province":"東京都","city":"昭島市","address":"昭島市松原町1-2-25","lat":35.712915,"lon":139.357675},{"name":"＊?昭島市民図書館緑分館","province":"東京都","city":"昭島市","address":"昭島市緑町4-13-26","lat":35.714198,"lon":139.34461},{"name":"＊?昭島市民図書館つつじが丘分室","province":"東京都","city":"昭島市","address":"昭島市つつじが丘3-1-30","lat":35.714331,"lon":139.370987},{"name":"＊?昭島市民図書館やまのかみ分室","province":"東京都","city":"昭島市","address":"昭島市拝島町3-10-3","lat":35.711009,"lon":139.335511},{"name":"昭島市児童センター","province":"東京都","city":"昭島市","address":"昭島市つつじが丘2-3-21","lat":35.714246,"lon":139.367011},{"name":"市民図書館","province":"東京都","city":"昭島市","address":"東京都昭島市つつじが丘3丁目3-15","lat":35.71168206,"lon":139.36932424},{"name":"昭和分館","province":"東京都","city":"昭島市","address":"東京都昭島市松原町1丁目2-25","lat":35.71254841,"lon":139.3577419},{"name":"緑分館","province":"東京都","city":"昭島市","address":"東京都昭島市緑町4丁目13-26","lat":35.71423686,"lon":139.34460401},{"name":"やまのかみ分室","province":"東京都","city":"昭島市","address":"東京都昭島市拝島町3丁目10-3","lat":35.71094542,"lon":139.33552702},{"name":"玉川会館内臨時窓口","province":"東京都","city":"昭島市","address":"東京都昭島市玉川町3丁目10-15","lat":35.70373326,"lon":139.38208436},{"name":"昭島市児童センター","province":"東京都","city":"昭島市","address":"昭島市つつじが丘2-3-21","lat":35.71416,"lon":139.36705},{"name":"昭島市児童センター","province":"東京都","city":"昭島市","address":"昭島市つつじが丘2-3-21","lat":35.71417,"lon":139.36705},{"name":"昭島市児童センター","province":"東京都","city":"昭島市","address":"昭島市つつじが丘2-3-21","lat":35.71263,"lon":139.36771},{"name":"＊?市民図書館","province":"東京都","city":"昭島市","address":"昭島市東町2-6-33","lat":35.705301,"lon":139.38519},{"name":"＊?昭島市民図書館昭和分館","province":"東京都","city":"昭島市","address":"昭島市松原町1-2-25","lat":35.712915,"lon":139.357675},{"name":"＊?昭島市民図書館緑分館","province":"東京都","city":"昭島市","address":"昭島市緑町4-13-26","lat":35.714198,"lon":139.34461},{"name":"＊?昭島市民図書館つつじが丘分室","province":"東京都","city":"昭島市","address":"昭島市つつじが丘3-1-30","lat":35.714331,"lon":139.370987},{"name":"＊?昭島市民図書館やまのかみ分室","province":"東京都","city":"昭島市","address":"昭島市拝島町3-10-3","lat":35.711009,"lon":139.335511}]}