{"keyword":"音響","data":[{"name":"中神駅入口","province":"東京都","city":"昭島市","address":"東京都昭島市朝日町3丁目6-1","lat":35.70723827,"lon":139.37555433},{"name":"拝島郵便局前","province":"東京都","city":"昭島市","address":"東京都昭島市拝島町2丁目8-11","lat":35.70826805,"lon":139.34027673},{"name":"昭島文化地区","province":"東京都","city":"昭島市","address":"東京都昭島市中神町1157","lat":35.71204326,"lon":139.37613747},{"name":"昭島市民図書館前","province":"東京都","city":"昭島市","address":"東京都昭島市東町2丁目6-33","lat":35.70546647,"lon":139.3851868},{"name":"昭島昭和町四丁目","province":"東京都","city":"昭島市","address":"東京都昭島市昭和町4丁目7-19","lat":35.71119312,"lon":139.36371919},{"name":"馬頭観音前","province":"東京都","city":"昭島市","address":"東京都昭島市朝日町3丁目1","lat":35.70625228,"lon":139.3758932},{"name":"昭島駅南口","province":"東京都","city":"昭島市","address":"東京都昭島市昭和町2丁目4","lat":35.71301785,"lon":139.36052498},{"name":"昭島駅北口","province":"東京都","city":"昭島市","address":"東京都昭島市田中町584-14","lat":35.7152176,"lon":139.36123598},{"name":"昭島市民会館西第二","province":"東京都","city":"昭島市","address":"東京都昭島市田中町562","lat":35.71341783,"lon":139.3620804},{"name":"昭島市役所中央第一","province":"東京都","city":"昭島市","address":"東京都昭島市田中町1丁目27","lat":35.70512424,"lon":139.3544729},{"name":"昭島十二神社南","province":"東京都","city":"昭島市","address":"東京都昭島市玉川町5丁目6","lat":35.7032999,"lon":139.37779867}]}