{"keyword":"食堂","data":[{"name":"あきしまこどもクッキング","province":"東京都","city":"昭島市","address":"東京都昭島市つつじが丘3丁目7-7","lat":35.71352901,"lon":139.36620781},{"name":"たまりば☆ぬくぬく","province":"東京都","city":"昭島市","address":"東京都昭島市松原町1丁目3-10","lat":35.71211512,"lon":139.35702252},{"name":"あおぞらみんな食堂","province":"東京都","city":"昭島市","address":"東京都昭島市郷地町2丁目20-24","lat":35.69716746,"lon":139.3854093},{"name":"あのねの会あのね食堂","province":"東京都","city":"昭島市","address":"東京都昭島市宮沢町512-13","lat":35.71400132,"lon":139.37351825},{"name":"子ども料理ひろば","province":"東京都","city":"昭島市","address":"東京都昭島市玉川町5丁目13-13","lat":35.7030138,"lon":139.37706542},{"name":"昭島子ども食堂みほりん広場","province":"東京都","city":"昭島市","address":"東京都昭島市拝島町3926-11","lat":35.72095295,"lon":139.35638069}]}