{"keyword":"館","data":[{"name":"昭島市児童センター","province":"東京都","city":"昭島市","address":"昭島市つつじが丘2-3-21","lat":35.714246,"lon":139.367011},{"name":"市民図書館","province":"東京都","city":"昭島市","address":"東京都昭島市つつじが丘3丁目3-15","lat":35.71168206,"lon":139.36932424},{"name":"昭和分館","province":"東京都","city":"昭島市","address":"東京都昭島市松原町1丁目2-25","lat":35.71254841,"lon":139.3577419},{"name":"緑分館","province":"東京都","city":"昭島市","address":"東京都昭島市緑町4丁目13-26","lat":35.71423686,"lon":139.34460401},{"name":"やまのかみ分室","province":"東京都","city":"昭島市","address":"東京都昭島市拝島町3丁目10-3","lat":35.71094542,"lon":139.33552702},{"name":"玉川会館内臨時窓口","province":"東京都","city":"昭島市","address":"東京都昭島市玉川町3丁目10-15","lat":35.70373326,"lon":139.38208436},{"name":"昭島市児童センター","province":"東京都","city":"昭島市","address":"昭島市つつじが丘2-3-21","lat":35.71416,"lon":139.36705},{"name":"昭島市児童センター","province":"東京都","city":"昭島市","address":"昭島市つつじが丘2-3-21","lat":35.71417,"lon":139.36705},{"name":"昭島市児童センター","province":"東京都","city":"昭島市","address":"昭島市つつじが丘2-3-21","lat":35.71263,"lon":139.36771},{"name":"＊?市民図書館","province":"東京都","city":"昭島市","address":"昭島市東町2-6-33","lat":35.705301,"lon":139.38519},{"name":"＊?昭島市民図書館昭和分館","province":"東京都","city":"昭島市","address":"昭島市松原町1-2-25","lat":35.712915,"lon":139.357675},{"name":"＊?昭島市民図書館緑分館","province":"東京都","city":"昭島市","address":"昭島市緑町4-13-26","lat":35.714198,"lon":139.34461},{"name":"＊?昭島市民図書館つつじが丘分室","province":"東京都","city":"昭島市","address":"昭島市つつじが丘3-1-30","lat":35.714331,"lon":139.370987},{"name":"＊?昭島市民図書館やまのかみ分室","province":"東京都","city":"昭島市","address":"昭島市拝島町3-10-3","lat":35.711009,"lon":139.335511}]}