区市町村通番,所管地域,名称,ヨミガナ,電話番号,ＦＡＸ番号,郵便番号,住所,緯度,経度,座標系,対応時間帯,特記事項,施設種別／地域包括支援センター,施設種別／ブランチ・サブセンター,施設種別／在宅介護支援センター,施設種別／その他相談窓口,相談内容／高齢者の異変,相談内容／消費者被害のおそれ
1,上の原、金山町、神宝町、氷川台、大門町、小山、東本町、新川町、浅間町,東部地域包括支援センター,ﾄｳﾌﾞﾁｲｷﾎｳｶﾂｼｴﾝｾﾝﾀｰ,042-473-9996,042-470-8024,203-0011,東久留米市大門町2-10-5 東部地域センター内,35.765045,139.54039,JGD2011,〔平日〕9時～19時／〔土曜日〕9時～17時,高齢者の相談窓口,,〇,,,〇,〇
2,上の原、金山町、神宝町、氷川台、大門町、小山、東本町、新川町、浅間町,東部地域包括支援センター本部,ﾄｳﾌﾞﾁｲｷﾎｳｶﾂｼｴﾝｾﾝﾀｰﾎﾝﾌﾞ,042-428-7788,042-429-1300,203-0004,東久留米市氷川台2-6-6 社会福祉法人マザアス内,35.767776,139.532547,JGD2011,〔平日〕9時～19時／〔土曜日〕9時～17時,高齢者の相談窓口,〇,,,,〇,〇
3,本町、幸町、中央町、南沢、学園町、ひばりが丘団地、南町、前沢1～3丁目,中部地域包括支援センター,ﾁｭｳﾌﾞﾁｲｷﾎｳｶﾂｼｴﾝｾﾝﾀｰ,042-470-8186,042-470-8188,203-0052,東久留米市幸町1-19-5 幸町1丁目アパート5号棟1階 幸町デイサービスセンター内,35.761196,139.523743,JGD2011,〔平日〕9時～19時／〔土曜日〕9時～17時,高齢者の相談窓口,,〇,,,〇,〇
4,本町、幸町、中央町、南沢、学園町、ひばりが丘団地、南町、前沢1～3丁目,中部地域包括支援センター本部,ﾁｭｳﾌﾞﾁｲｷﾎｳｶﾂｼｴﾝｾﾝﾀｰﾎﾝﾌﾞ,042-451-5121,042-451-5123,203-0023,東久留米市南沢5-18-36 特別養護老人ホームシャローム東久留米内,35.743187,139.52681,JGD2011,〔平日〕9時～19時／〔土曜日〕9時～17時,高齢者の相談窓口,〇,,,,〇,〇
5,前沢4・5丁目、滝山、野火止、八幡町、柳窪、弥生、下里,西部地域包括支援センター,ｾｲﾌﾞﾁｲｷﾎｳｶﾂｼｴﾝｾﾝﾀｰ,042-472-0661,042-472-8560,203-0043,東久留米市下里4-2-50 特別養護老人ホームけんちの里内,35.752701,139.494797,JGD2011,〔平日〕9時～19時／〔土曜日〕9時～17時,高齢者の相談窓口,〇,,,,〇,〇
6,市内全域,東久留米市在宅介護支援センター,ﾋｶﾞｼｸﾙﾒｼｻﾞｲﾀｸｶｲｺﾞｼｴﾝｾﾝﾀｰ,042-479-0800,042-479-0801,203-0052,東久留米市幸町3-11-10 介護老人保健施設ケア東久留米内,35.757965,139.521652,JGD2011,月曜日～土曜日9時～17時30分,高齢者の相談窓口,,,〇,,〇,〇
7,市内全域,東久留米市役所福祉保健部介護福祉課,ﾋｶﾞｼｸﾙﾒｼﾔｸｼｮﾌｸｼﾎｹﾝﾌﾞｶｲｺﾞﾌｸｼｶ,042-470-7777／内線2501/2502,042-470-7808,203-8555,東久留米市本町3-3-1,35.758629,139.529709,JGD2011,月曜日～金曜日8時30分～17時15分,高齢者の相談窓口,,,,〇,〇,
