{"keyword":"伐採","data":[{"name":"広尾病院","province":"東京都","city":"渋谷区","address":"東京都渋谷区恵比寿2丁目34-10","lat":35.64707054,"lon":139.72073544},{"name":"大久保病院","province":"東京都","city":"新宿区","address":"東京都新宿区歌舞伎町2丁目44-1","lat":35.69691177,"lon":139.70156297},{"name":"大塚病院","province":"東京都","city":"豊島区","address":"東京都豊島区南大塚2丁目8-1","lat":35.72526774,"lon":139.73230087},{"name":"駒込病院","province":"東京都","city":"文京区","address":"東京都文京区本駒込3丁目18-22","lat":35.72994856,"lon":139.75609048},{"name":"豊島病院","province":"東京都","city":"板橋区","address":"東京都板橋区栄町33-1","lat":35.75269994,"lon":139.70097739},{"name":"荏原病院","province":"東京都","city":"大田区","address":"東京都大田区東雪谷4丁目5-10","lat":35.59460659,"lon":139.69367561},{"name":"墨東病院","province":"東京都","city":"墨田区","address":"東京都墨田区江東橋4丁目23-15","lat":35.69530033,"lon":139.81879578},{"name":"多摩総合医療センター","province":"東京都","city":"府中市","address":"東京都府中市武蔵台2丁目8-29","lat":35.69188402,"lon":139.46098088},{"name":"多摩北部医療センター","province":"東京都","city":"東村山市","address":"東京都東村山市青葉町1丁目7-1","lat":35.76043805,"lon":139.49094217},{"name":"東部地域病院","province":"東京都","city":"葛飾区","address":"東京都葛飾区亀有5丁目14-1","lat":35.7662352,"lon":139.84445332},{"name":"多摩南部地域病院","province":"東京都","city":"多摩市","address":"東京都多摩市中沢2丁目1-2","lat":35.622938,"lon":139.41525124},{"name":"神経病院（外来診療は多摩総合医療センター及び小児総合医療センター）","province":"東京都","city":"府中市","address":"東京都府中市武蔵台2丁目6-1","lat":35.69054806,"lon":139.46112259},{"name":"小児総合医療センター","province":"東京都","city":"府中市","address":"東京都府中市武蔵台2丁目8-29","lat":35.69188402,"lon":139.46098088},{"name":"松沢病院","province":"東京都","city":"世田谷区","address":"東京都世田谷区上北沢2丁目1-1","lat":35.66712968,"lon":139.61960719},{"name":"がん検診センター","province":"東京都","city":"府中市","address":"東京都府中市武蔵台2丁目9-2","lat":35.6920563,"lon":139.4641806},{"name":"佐々総合病院","province":"東京都","city":"西東京市","address":"東京都西東京市田無町四丁目24-15","lat":35.72952,"lon":139.53861},{"name":"薫風会 山田病院","province":"東京都","city":"西東京市","address":"東京都西東京市南町三丁目4-10","lat":35.726623,"lon":139.541452},{"name":"田無病院","province":"東京都","city":"西東京市","address":"東京都西東京市緑町三丁目6-1","lat":35.741113,"lon":139.540811},{"name":"西東京中央総合病院","province":"東京都","city":"西東京市","address":"東京都西東京市芝久保町二丁目4-19","lat":35.726603,"lon":139.531123},{"name":"保谷厚生病院","province":"東京都","city":"西東京市","address":"東京都西東京市栄町一丁目17-18","lat":35.748596,"lon":139.557324},{"name":"公立昭和病院","province":"東京都","city":"西東京市","address":"東京都西東京市小平市天神町二丁目450","lat":35.725515,"lon":139.538146},{"name":"武蔵野徳洲会病院","province":"東京都","city":"西東京市","address":"東京都西東京市向台町三丁目5-48","lat":35.717425,"lon":139.533491},{"name":"やまもと眼科","province":"東京都","city":"西東京市","address":"東京都西東京市田無町二丁目1-1アスタ3階","lat":35.728216,"lon":139.54071},{"name":"西東京めぐみクリニック","province":"東京都","city":"西東京市","address":"東京都西東京市田無町二丁目9-13丸嘉ビル2階","lat":35.728794,"lon":139.541032},{"name":"あおぞら田無クリニック","province":"東京都","city":"西東京市","address":"東京都西東京市田無町二丁目9-13丸嘉ビル3階","lat":35.728794,"lon":139.541032},{"name":"メル眼科クリニック","province":"東京都","city":"西東京市","address":"東京都西東京市田無町二丁目11-7オークビル田無1階","lat":35.728319,"lon":139.541341},{"name":"たなし中村眼科クリニック","province":"東京都","city":"西東京市","address":"東京都西東京市田無町三丁目1-13ラ・ベルドゥーレ田無102","lat":35.729627,"lon":139.540669},{"name":"ゆい在宅クリニック","province":"東京都","city":"西東京市","address":"東京都西東京市田無町三丁目3-2グランドソレイユTanashi601","lat":35.730763,"lon":139.540376},{"name":"西東京あゆみクリニック（休診中）","province":"東京都","city":"西東京市","address":"東京都西東京市田無町三丁目3-14ベルビュー田無201","lat":35.731621,"lon":139.541231},{"name":"指田医院","province":"東京都","city":"西東京市","address":"東京都西東京市田無町四丁目2-11","lat":35.727796,"lon":139.539231},{"name":"笠井医院","province":"東京都","city":"西東京市","address":"東京都西東京市田無町四丁目11-7カーサエストゥペンダ101","lat":35.726931,"lon":139.533064},{"name":"三尾整形外科","province":"東京都","city":"西東京市","address":"東京都西東京市田無町四丁目21-1第一光ビル1階","lat":35.729568,"lon":139.538109},{"name":"田無メンタルクリニック","province":"東京都","city":"西東京市","address":"東京都西東京市田無町四丁目23-4クリーンヒルズKHビル2階","lat":35.729127,"lon":139.538166},{"name":"湯川ウイメンズクリニック","province":"東京都","city":"西東京市","address":"東京都西東京市田無町四丁目26-9JSビル2階","lat":35.728564,"lon":139.538825},{"name":"久保眼科医院","province":"東京都","city":"西東京市","address":"東京都西東京市田無町四丁目27-10","lat":35.72843,"lon":139.539425},{"name":"田無皮フ科コンタニクリニック","province":"東京都","city":"西東京市","address":"東京都西東京市田無町四丁目28-13おんべビル2-3階","lat":35.729059,"lon":139.539697},{"name":"けやき在宅診療所","province":"東京都","city":"西東京市","address":"東京都西東京市田無町四丁目28-14田無第2マーブルビル5階","lat":35.728855,"lon":139.539571},{"name":"耳鼻咽喉科ヒロクリニック","province":"東京都","city":"西東京市","address":"東京都西東京市田無町四丁目29-8丸保ビル4階","lat":35.72942,"lon":139.53964},{"name":"しげみつファミリークリニック","province":"東京都","city":"西東京市","address":"東京都西東京市田無町五丁目4-13ハママンション第二1階","lat":35.730649,"lon":139.535806},{"name":"グレースホームケアクリニック多摩","province":"東京都","city":"西東京市","address":"東京都西東京市田無町五丁目9-1","lat":35.730842,"lon":139.539684},{"name":"田村医院","province":"東京都","city":"西東京市","address":"東京都西東京市田無町七丁目3-17","lat":35.731148,"lon":139.531968},{"name":"やまぐち内科眼科クリニック","province":"東京都","city":"西東京市","address":"東京都西東京市田無町七丁目16-30","lat":35.731175,"lon":139.534132},{"name":"ひらつか内科クリニック","province":"東京都","city":"西東京市","address":"東京都西東京市南町二丁目1-14新倉ビル1階","lat":35.725634,"lon":139.545627},{"name":"坂上医院","province":"東京都","city":"西東京市","address":"東京都西東京市南町三丁目17-8","lat":35.724026,"lon":139.543493},{"name":"畑中医院","province":"東京都","city":"西東京市","address":"東京都西東京市南町三丁目22-8","lat":35.725142,"lon":139.542486},{"name":"すがひろ内科クリニック","province":"東京都","city":"西東京市","address":"東京都西東京市南町四丁目3-2サウスタウンビル2階","lat":35.727062,"lon":139.540266},{"name":"田無ペインクリニック内科","province":"東京都","city":"西東京市","address":"東京都西東京市南町四丁目9-1","lat":35.724994,"lon":139.539973},{"name":"永田外科胃腸内科","province":"東京都","city":"西東京市","address":"東京都西東京市南町四丁目12-6","lat":35.723372,"lon":139.541804},{"name":"田無循環器クリニック","province":"東京都","city":"西東京市","address":"東京都西東京市南町五丁目1-8田無クリニックモール1階","lat":35.726285,"lon":139.537033},{"name":"田無耳鼻咽喉科クリニック","province":"東京都","city":"西東京市","address":"東京都西東京市南町五丁目1-8田無クリニックモール2階","lat":35.726285,"lon":139.537033},{"name":"田無スキンクリニック","province":"東京都","city":"西東京市","address":"東京都西東京市南町五丁目1-8田無クリニックモール2階","lat":35.726285,"lon":139.537033},{"name":"田無南口クリニック","province":"東京都","city":"西東京市","address":"東京都西東京市南町五丁目1-15","lat":35.726469,"lon":139.536079},{"name":"整形外科高橋クリニック","province":"東京都","city":"西東京市","address":"東京都西東京市南町五丁目3-12","lat":35.726436,"lon":139.537566},{"name":"西尾内科クリニック","province":"東京都","city":"西東京市","address":"東京都西東京市南町五丁目5-13田無丸八ビル1階","lat":35.726931,"lon":139.538608},{"name":"西東京わたらせクリニック","province":"東京都","city":"西東京市","address":"東京都西東京市南町五丁目5-13田無丸八ビル2階","lat":35.726931,"lon":139.538608},{"name":"すくすくkidsクリニック","province":"東京都","city":"西東京市","address":"東京都西東京市南町五丁目9-17","lat":35.723598,"lon":139.538583},{"name":"こみち内科クリニック","province":"東京都","city":"西東京市","address":"東京都西東京市南町六丁目9-19","lat":35.725253,"lon":139.531302},{"name":"六角地蔵整形外科クリニック","province":"東京都","city":"西東京市","address":"東京都西東京市西原町五丁目1-8西原クリニックビル1階","lat":35.737453,"lon":139.534891},{"name":"小野内科循環器科クリニック","province":"東京都","city":"西東京市","address":"東京都西東京市西原町五丁目1-8西原クリニックビル2階","lat":35.737453,"lon":139.534891},{"name":"すぎはらこどもクリニック","province":"東京都","city":"西東京市","address":"東京都西東京市西原町五丁目1-17","lat":35.737255,"lon":139.535283},{"name":"石田クリニック","province":"東京都","city":"西東京市","address":"東京都西東京市谷戸町一丁目23-13","lat":35.743953,"lon":139.543594},{"name":"たなか内科・リウマチ科クリニック","province":"東京都","city":"西東京市","address":"東京都西東京市谷戸町二丁目1-41ひばりが丘南メディカルスクエア1階","lat":35.743193,"lon":139.537246},{"name":"ひばりクリニック","province":"東京都","city":"西東京市","address":"東京都西東京市谷戸町二丁目1-41ひばりが丘南メディカルスクエア1階","lat":35.743193,"lon":139.537246},{"name":"ひばりが丘やまね小児科アレルギー科","province":"東京都","city":"西東京市","address":"東京都西東京市谷戸町二丁目1-41ひばりが丘南メディカルスクエア1階","lat":35.743193,"lon":139.537246},{"name":"ひばりヶ丘クリニック","province":"東京都","city":"西東京市","address":"東京都西東京市谷戸町二丁目15-11高野ビル1階","lat":35.749268,"lon":139.54322},{"name":"ひばり中村眼科","province":"東京都","city":"西東京市","address":"東京都西東京市谷戸町三丁目9-4","lat":35.744854,"lon":139.543234},{"name":"ひばりこどもクリニック","province":"東京都","city":"西東京市","address":"東京都西東京市谷戸町三丁目11-9長谷川ビル1階","lat":35.746769,"lon":139.54321},{"name":"はるクリニック","province":"東京都","city":"西東京市","address":"東京都西東京市谷戸町三丁目23-1K・flat1階","lat":35.748507,"lon":139.543316},{"name":"ひろクリニック","province":"東京都","city":"西東京市","address":"東京都西東京市谷戸町三丁目26-7","lat":35.749434,"lon":139.543892},{"name":"桑原皮フ科クリニック","province":"東京都","city":"西東京市","address":"東京都西東京市谷戸町三丁目28-16パークシティひばりが丘1階","lat":35.749964,"lon":139.544656},{"name":"中沢耳鼻咽喉科","province":"東京都","city":"西東京市","address":"東京都西東京市谷戸町三丁目28-16パークシティひばりが丘1階","lat":35.749964,"lon":139.544656},{"name":"山下眼科","province":"東京都","city":"西東京市","address":"東京都西東京市谷戸町三丁目28-16パークシティひばりが丘2階","lat":35.749964,"lon":139.544656},{"name":"酒枝医院","province":"東京都","city":"西東京市","address":"東京都西東京市北原町二丁目1-38","lat":35.733978,"lon":139.543822},{"name":"なかやま内科循環器クリニック","province":"東京都","city":"西東京市","address":"東京都西東京市向台町一丁目19-14ノーブルハイツ向台1階","lat":35.72046,"lon":139.543116},{"name":"野田医院","province":"東京都","city":"西東京市","address":"東京都西東京市向台町三丁目6-10","lat":35.719206,"lon":139.53683},{"name":"ひがき医院","province":"東京都","city":"西東京市","address":"東京都西東京市芝久保町一丁目11-10","lat":35.72529,"lon":139.527923},{"name":"南しばくぼ診療所","province":"東京都","city":"西東京市","address":"東京都西東京市芝久保町二丁目22-36","lat":35.725933,"lon":139.521262},{"name":"たなしこどもクリニック","province":"東京都","city":"西東京市","address":"東京都西東京市芝久保町三丁目4-30ケルン田無1階","lat":35.729602,"lon":139.526425},{"name":"ますだ内科クリニック","province":"東京都","city":"西東京市","address":"東京都西東京市芝久保町三丁目6-26","lat":35.729759,"lon":139.523258},{"name":"がんぼクリニック","province":"東京都","city":"西東京市","address":"東京都西東京市芝久保町三丁目30-16","lat":35.72969,"lon":139.51726},{"name":"芝久保内科小児科クリニック","province":"東京都","city":"西東京市","address":"東京都西東京市芝久保町四丁目12-45","lat":35.730432,"lon":139.5225},{"name":"武蔵野ファミリークリニック","province":"東京都","city":"西東京市","address":"東京都西東京市新町一丁目2-20","lat":35.716354,"lon":139.547336},{"name":"柳橋診療所","province":"東京都","city":"西東京市","address":"東京都西東京市新町一丁目11-25","lat":35.716895,"lon":139.543844},{"name":"伊藤皮膚科形成外科クリニック","province":"東京都","city":"西東京市","address":"東京都西東京市新町二丁目5-15","lat":35.713783,"lon":139.542352},{"name":"丸山眼科クリニック","province":"東京都","city":"西東京市","address":"東京都西東京市新町二丁目5-15","lat":35.713783,"lon":139.542352},{"name":"ひらたあや整形外科クリニック","province":"東京都","city":"西東京市","address":"東京都西東京市新町二丁目5-35","lat":35.714577,"lon":139.543672},{"name":"大野医院","province":"東京都","city":"西東京市","address":"東京都西東京市柳沢一丁目4-26","lat":35.726597,"lon":139.554443},{"name":"池田クリニック","province":"東京都","city":"西東京市","address":"東京都西東京市柳沢二丁目3-13都営柳沢2丁目アパート110","lat":35.72256,"lon":139.556213},{"name":"川村クリニック","province":"東京都","city":"西東京市","address":"東京都西東京市柳沢六丁目1-1HBビル2階","lat":35.728476,"lon":139.552607},{"name":"やぎさわ内科・脳神経内科","province":"東京都","city":"西東京市","address":"東京都西東京市柳沢六丁目6-3トキビル202","lat":35.726165,"lon":139.552157},{"name":"ごとう内科","province":"東京都","city":"西東京市","address":"東京都西東京市東伏見二丁目1-6","lat":35.728633,"lon":139.561223},{"name":"兼子耳鼻咽喉科医院","province":"東京都","city":"西東京市","address":"東京都西東京市東伏見二丁目4-1","lat":35.728536,"lon":139.563257},{"name":"東伏見皮フ科クリニック","province":"東京都","city":"西東京市","address":"東京都西東京市東伏見三丁目2-2サン東伏見1階","lat":35.727683,"lon":139.565209},{"name":"武村医院","province":"東京都","city":"西東京市","address":"東京都西東京市東伏見五丁目9-14","lat":35.722402,"lon":139.558876},{"name":"武村クリニック","province":"東京都","city":"西東京市","address":"東京都西東京市東伏見五丁目9-14","lat":35.722402,"lon":139.558876},{"name":"石川クリニック","province":"東京都","city":"西東京市","address":"東京都西東京市保谷町二丁目6-1","lat":35.73109,"lon":139.554759},{"name":"たかはし医院","province":"東京都","city":"西東京市","address":"東京都西東京市保谷町三丁目11-25","lat":35.729093,"lon":139.552981},{"name":"安部医院","province":"東京都","city":"西東京市","address":"東京都西東京市保谷町三丁目24-2","lat":35.729291,"lon":139.552058},{"name":"やぎさわ循環器クリニック","province":"東京都","city":"西東京市","address":"東京都西東京市保谷町四丁目5-6野口ビル1階","lat":35.728694,"lon":139.549896},{"name":"柳沢中西眼科","province":"東京都","city":"西東京市","address":"東京都西東京市保谷町四丁目6-9","lat":35.728765,"lon":139.549318},{"name":"西東京眼科クリニック","province":"東京都","city":"西東京市","address":"東京都西東京市保谷町六丁目14-14","lat":35.732089,"lon":139.550704},{"name":"馬場医院","province":"東京都","city":"西東京市","address":"東京都西東京市保谷町六丁目15-2","lat":35.732948,"lon":139.55247},{"name":"下田内科クリニック","province":"東京都","city":"西東京市","address":"東京都西東京市富士町一丁目13-1","lat":35.732817,"lon":139.560369},{"name":"東伏見眼科医院","province":"東京都","city":"西東京市","address":"東京都西東京市富士町四丁目4-15","lat":35.730522,"lon":139.565649},{"name":"富士クリニック","province":"東京都","city":"西東京市","address":"東京都西東京市富士町四丁目6-9","lat":35.730181,"lon":139.566715},{"name":"千賀整形外科","province":"東京都","city":"西東京市","address":"東京都西東京市富士町四丁目13-25シーリン東伏見2階","lat":35.729287,"lon":139.565793},{"name":"東伏見整形外科","province":"東京都","city":"西東京市","address":"東京都西東京市富士町四丁目18-10ケイメイビル1階","lat":35.729052,"lon":139.564024},{"name":"久内医院","province":"東京都","city":"西東京市","address":"東京都西東京市中町二丁目1-17","lat":35.742583,"lon":139.559702},{"name":"仁徳クリニック","province":"東京都","city":"西東京市","address":"東京都西東京市中町四丁目7-9","lat":35.736741,"lon":139.565676},{"name":"YYキッズクリニック","province":"東京都","city":"西東京市","address":"東京都西東京市東町一丁目1-22エリシオン1階","lat":35.742473,"lon":139.56271},{"name":"みわハートクリニック","province":"東京都","city":"西東京市","address":"東京都西東京市東町二丁目14-12パラツィーナ保谷101","lat":35.746733,"lon":139.56347},{"name":"東町耳鼻咽喉科","province":"東京都","city":"西東京市","address":"東京都西東京市東町三丁目9-6-1階","lat":35.747037,"lon":139.563918},{"name":"BIG TREE. 練馬クリニック","province":"東京都","city":"西東京市","address":"東京都西東京市東町三丁目13-19ソレイユ保谷2階","lat":35.74775,"lon":139.566205},{"name":"保谷整形外科","province":"東京都","city":"西東京市","address":"東京都西東京市東町三丁目14-19保谷光風レジデンス1階","lat":35.74802,"lon":139.568844},{"name":"保谷駅前つだ眼科","province":"東京都","city":"西東京市","address":"東京都西東京市東町三丁目14-24保谷駅南口メディカルモール1階","lat":35.747901,"lon":139.568508},{"name":"保谷メンタルクリニック","province":"東京都","city":"西東京市","address":"東京都西東京市東町三丁目14-24保谷駅南口メディカルモール2階","lat":35.747901,"lon":139.568508},{"name":"保谷駅前下山内科糖尿病内科クリニック","province":"東京都","city":"西東京市","address":"東京都西東京市東町三丁目14-24保谷駅南口メディカルモール2階","lat":35.747901,"lon":139.568508},{"name":"廣川クリニック","province":"東京都","city":"西東京市","address":"東京都西東京市東町四丁目8-28JUN西東京市101","lat":35.743532,"lon":139.565815},{"name":"田村クリニック","province":"東京都","city":"西東京市","address":"東京都西東京市東町四丁目13-23メープルヴィレッジ1階","lat":35.745839,"lon":139.566287},{"name":"まつばらホームクリニック","province":"東京都","city":"西東京市","address":"東京都西東京市東町四丁目14-18かえでビル2階B","lat":35.74642,"lon":139.56641},{"name":"増田医院","province":"東京都","city":"西東京市","address":"東京都西東京市東町五丁目1-11","lat":35.740534,"lon":139.566864},{"name":"つくしこどもクリニック","province":"東京都","city":"西東京市","address":"東京都西東京市東町六丁目6-10西東京メディカルモール","lat":35.73932,"lon":139.565715},{"name":"はやし内科クリニック","province":"東京都","city":"西東京市","address":"東京都西東京市東町六丁目6-10西東京メディカルモールB区分","lat":35.73932,"lon":139.565715},{"name":"つながわ整形外科・ペインクリニック","province":"東京都","city":"西東京市","address":"東京都西東京市東町六丁目6-10西東京メディカルモール","lat":35.73932,"lon":139.565715},{"name":"知念医院","province":"東京都","city":"西東京市","address":"東京都西東京市泉町一丁目11-14上宿ビル1階","lat":35.738883,"lon":139.547055},{"name":"武蔵野総合クリニックいずみ","province":"東京都","city":"西東京市","address":"東京都西東京市泉町三丁目6-9","lat":35.741337,"lon":139.553261},{"name":"中山皮膚科医院","province":"東京都","city":"西東京市","address":"東京都西東京市泉町四丁目4-28","lat":35.743527,"lon":139.553461},{"name":"なかじょう内科","province":"東京都","city":"西東京市","address":"東京都西東京市住吉町三丁目9-8ひばりヶ丘メディカルプラザ2階","lat":35.750776,"lon":139.545203},{"name":"いのうえ整形外科","province":"東京都","city":"西東京市","address":"東京都西東京市住吉町三丁目9-8ひばりヶ丘メディカルプラザ3階","lat":35.750776,"lon":139.545203},{"name":"てらむら眼科","province":"東京都","city":"西東京市","address":"東京都西東京市住吉町三丁目9-8ひばりヶ丘メディカルプラザ4階","lat":35.750776,"lon":139.545203},{"name":"ともまさ泌尿器科・皮フ科","province":"東京都","city":"西東京市","address":"東京都西東京市住吉町三丁目9-8ひばりヶ丘メディカルプラザ5階","lat":35.750776,"lon":139.545203},{"name":"竹内内科クリニック","province":"東京都","city":"西東京市","address":"東京都西東京市住吉町四丁目16-4","lat":35.74772,"lon":139.552504},{"name":"保谷内科呼吸器科クリニック","province":"東京都","city":"西東京市","address":"東京都西東京市住吉町六丁目1-26","lat":35.743521,"lon":139.551806},{"name":"北山クリニック","province":"東京都","city":"西東京市","address":"東京都西東京市ひばりが丘一丁目4-3ケイアイビル2階","lat":35.750142,"lon":139.54339},{"name":"中山耳鼻咽喉科","province":"東京都","city":"西東京市","address":"東京都西東京市ひばりが丘二丁目11-20","lat":35.748085,"lon":139.539463},{"name":"ひばりが丘てらむらクリニック","province":"東京都","city":"西東京市","address":"東京都西東京市ひばりが丘三丁目3-16","lat":35.743416,"lon":139.535661},{"name":"石川ひばり耳鼻咽喉科","province":"東京都","city":"西東京市","address":"東京都西東京市ひばりが丘北三丁目3-14第2並木ビル2階","lat":35.751949,"lon":139.545161},{"name":"わかさクリニックひばりが丘","province":"東京都","city":"西東京市","address":"東京都西東京市ひばりが丘北三丁目3-14モンマビル3階","lat":35.751949,"lon":139.545161},{"name":"中島クリニック","province":"東京都","city":"西東京市","address":"東京都西東京市ひばりが丘北三丁目3-22エトワールビル2階","lat":35.752322,"lon":139.545466},{"name":"ひばりヶ丘北口駅前クリニック","province":"東京都","city":"西東京市","address":"東京都西東京市ひばりが丘北三丁目3-30エクレールひばり1階","lat":35.752102,"lon":139.546104},{"name":"ホームクリニックえにし ひばりが丘","province":"東京都","city":"西東京市","address":"東京都西東京市ひばりが丘北三丁目3-30エクレールひばり2階","lat":35.752102,"lon":139.546104},{"name":"ノーブルビルクリニック","province":"東京都","city":"西東京市","address":"東京都西東京市ひばりが丘北三丁目5-13","lat":35.753245,"lon":139.546586},{"name":"ひばりが丘北整形外科","province":"東京都","city":"西東京市","address":"東京都西東京市ひばりが丘北三丁目6-27","lat":35.753193,"lon":139.548058},{"name":"田中クリニック","province":"東京都","city":"西東京市","address":"東京都西東京市ひばりが丘北三丁目6-31アッセンブルひばりが丘2階","lat":35.753131,"lon":139.547445},{"name":"こせき眼科","province":"東京都","city":"西東京市","address":"東京都西東京市ひばりが丘北四丁目3-29西村ビル3階","lat":35.75257,"lon":139.544988},{"name":"藤原医院","province":"東京都","city":"西東京市","address":"東京都西東京市ひばりが丘北四丁目8-4","lat":35.753662,"lon":139.545863},{"name":"黒目川診療所西東京","province":"東京都","city":"西東京市","address":"東京都西東京市栄町2丁目1-28JUNさかえ202","lat":35.751896,"lon":139.554791},{"name":"保谷北町かなざわファミリークリニック","province":"東京都","city":"西東京市","address":"東京都西東京市北町一丁目6-1レッツビルディング2階","lat":35.753085,"lon":139.559289},{"name":"保谷伊藤眼科","province":"東京都","city":"西東京市","address":"東京都西東京市北町一丁目6-1レッツビルディング3階","lat":35.753085,"lon":139.559289},{"name":"宇佐美整形外科医院","province":"東京都","city":"西東京市","address":"東京都西東京市下保谷四丁目2-19","lat":35.749812,"lon":139.56527},{"name":"さいとう小児科内科クリニック","province":"東京都","city":"西東京市","address":"東京都西東京市下保谷四丁目2-21","lat":35.749531,"lon":139.565443},{"name":"みわ内科クリニック","province":"東京都","city":"西東京市","address":"東京都西東京市下保谷四丁目12-2メゾン泉1階","lat":35.749604,"lon":139.567177},{"name":"医療法人社団Sol西東京かとう整形外科","province":"東京都","city":"西東京市","address":"東京都西東京市下保谷四丁目12-21リベルタ・ヴィラ1階","lat":35.75015,"lon":139.567751},{"name":"桑原内科クリニック","province":"東京都","city":"西東京市","address":"東京都西東京市下保谷四丁目13-23保谷Stメディカルビル2階","lat":35.749094,"lon":139.567494},{"name":"こまつ皮フ科クリニック","province":"東京都","city":"西東京市","address":"東京都西東京市下保谷四丁目13-23保谷Stメディカルビル3階","lat":35.749094,"lon":139.567494},{"name":"東京都三宅支庁／総務課","province":"東京都","city":"","address":"東京都三宅島三宅村伊豆642","lat":34.117651,"lon":139.508487},{"name":"東京都三宅支庁／産業課","province":"東京都","city":"","address":"東京都三宅島三宅村伊豆642","lat":34.117651,"lon":139.508487},{"name":"東京都三宅支庁／土木港湾課","province":"東京都","city":"","address":"東京都三宅島三宅村伊豆642","lat":34.117651,"lon":139.508487},{"name":"東京都三宅島港湾空港／管理事務所","province":"東京都","city":"","address":"東京都三宅島三宅村坪田1378","lat":34.071718,"lon":139.558434},{"name":"東京都島しょ保健所／三宅出張所","province":"東京都","city":"","address":"東京都三宅島三宅村伊豆1004","lat":34.118182,"lon":139.504096},{"name":"東京都教育庁／三宅出張所","province":"東京都","city":"","address":"東京都三宅島三宅村伊豆642","lat":34.117651,"lon":139.508487},{"name":"東京都島しょ農林水産総合センター／三宅事業所","province":"東京都","city":"","address":"東京都三宅島三宅村坪田4357","lat":34.07652,"lon":139.553588},{"name":"東京都立三宅高等学校","province":"東京都","city":"","address":"東京都三宅島三宅村坪田4586","lat":34.058837,"lon":139.537831},{"name":"東京都島部海区漁業／調整委員会三宅分室","province":"東京都","city":"","address":"東京都三宅島三宅村伊豆642","lat":34.117651,"lon":139.508487},{"name":"警視庁三宅島警察署","province":"東京都","city":"","address":"東京都三宅島三宅村伊豆640","lat":34.119266,"lon":139.518026},{"name":"警視庁御蔵島警察署","province":"東京都","city":"御蔵島村","address":"東京都御蔵島村","lat":33.897366,"lon":139.596116},{"name":"三宅村役場／臨時庁舎","province":"東京都","city":"","address":"東京都三宅島三宅村阿古497","lat":34.075779,"lon":139.479747},{"name":"神着出張所（神着老人福祉館）","province":"東京都","city":"","address":"東京都三宅島三宅村神着197","lat":34.120475,"lon":139.522023},{"name":"伊豆出張所（伊豆老人福祉館）","province":"東京都","city":"","address":"東京都三宅島三宅村伊豆1054","lat":34.114243,"lon":139.501023},{"name":"伊ヶ谷出張所（三宅村コミュニティセンター）","province":"東京都","city":"","address":"東京都三宅島三宅村伊ヶ谷330","lat":34.100081,"lon":139.49092},{"name":"坪田出張所（三宅村文化会館）","province":"東京都","city":"","address":"東京都三宅島三宅村坪田3050","lat":34.05992,"lon":139.544956},{"name":"御蔵島村役場","province":"東京都","city":"御蔵島村","address":"東京都御蔵島村","lat":33.897366,"lon":139.596116},{"name":"東京法務局","province":"東京都","city":"千代田区","address":"東京都千代田区九段南1-1-15/九段第2合同庁舎内","lat":35.693728,"lon":139.754478},{"name":"火山監視・情報センター／三宅島火山防災連絡事務所","province":"東京都","city":"","address":"東京都三宅島三宅村阿古497/(三宅村役場臨時庁舎内)","lat":34.075779,"lon":139.479747},{"name":"下田海上保安部交通課／（旧三宅島航路標識事務所）","province":"静岡県","city":"下田市","address":"静岡県下田市3-18-23","lat":34.669832,"lon":138.948805},{"name":"三宅島郵便局","province":"東京都","city":"","address":"東京都三宅島三宅村神着222","lat":34.117874,"lon":139.539621},{"name":"坪田郵便局","province":"東京都","city":"","address":"東京都三宅島三宅村坪田3050","lat":34.059875,"lon":139.54484},{"name":"三宅島阿古郵便局","province":"東京都","city":"","address":"東京都三宅島三宅村阿古700-6","lat":34.064613,"lon":139.482895},{"name":"三宅島伊豆郵便局","province":"東京都","city":"","address":"東京都三宅島三宅村伊豆1054","lat":34.117651,"lon":139.508487},{"name":"三宅島伊ヶ谷郵便局","province":"東京都","city":"","address":"東京都三宅島三宅村伊ヶ谷432","lat":34.097358,"lon":139.493689},{"name":"御蔵島郵便局","province":"東京都","city":"御蔵島村","address":"東京都御蔵島村","lat":33.897366,"lon":139.596116},{"name":"ＮＴＴ東日本－東京","province":"東京都","city":"","address":"東京都三宅島三宅村伊豆627-2","lat":34.117648,"lon":139.508488},{"name":"三宅島農業振興会","province":"東京都","city":"","address":"東京都三宅島三宅村坪田3036-5","lat":34.117849,"lon":139.539632},{"name":"御蔵島村農業協同組合","province":"東京都","city":"御蔵島村","address":"東京都御蔵島村","lat":33.897366,"lon":139.596116},{"name":"三宅島漁業協同組合","province":"東京都","city":"","address":"東京都三宅島三宅村阿古680","lat":34.065889,"lon":139.484644},{"name":"御蔵島村漁業協同組合","province":"東京都","city":"御蔵島村","address":"東京都御蔵島村","lat":33.897366,"lon":139.596116},{"name":"東京電力パワーグリッド株式会社／東京総支社島嶼業務センター／三宅島事務所","province":"東京都","city":"","address":"東京都三宅島三宅村伊豆991","lat":34.117648,"lon":139.508488},{"name":"七島信用組合／三宅島支店","province":"東京都","city":"","address":"東京都三宅島三宅村神着239-1","lat":34.121215,"lon":139.526667},{"name":"東海汽船株式会社／錆ケ浜待合所","province":"東京都","city":"","address":"東京都三宅島三宅村阿古672-3","lat":34.068204,"lon":139.480746},{"name":"新中央航空株式会社三宅島営業所","province":"東京都","city":"","address":"東京都三宅島三宅村坪田1378(三宅島空港内)","lat":34.072136,"lon":139.558401},{"name":"東京愛らんどシャトル三宅島空港内ヘリカウンター","province":"東京都","city":"","address":"東京都三宅島三宅村坪田1378(三宅島空港内)","lat":34.072136,"lon":139.558401},{"name":"三宅島観光協会","province":"東京都","city":"","address":"東京都三宅島三宅村阿古672-3","lat":34.068204,"lon":139.480746},{"name":"御蔵島観光協会（みくらしま観光案内所）","province":"東京都","city":"御蔵島村","address":"東京都御蔵島村","lat":33.897366,"lon":139.596116},{"name":"三宅村商工会／臨時事務所","province":"東京都","city":"","address":"東京都三宅島三宅村神着894","lat":34.117874,"lon":139.539621},{"name":"三宅村シルバー人材センター","province":"東京都","city":"","address":"東京都三宅島三宅村坪田3007","lat":34.070173,"lon":139.554458},{"name":"三宅島あじさいの里","province":"東京都","city":"","address":"東京都三宅島三宅村阿古807-1","lat":34.058455,"lon":139.481113},{"name":"三宅島社会福祉協議会","province":"東京都","city":"","address":"東京都三宅島三宅村坪田3053(三宅村社会福祉会館内)","lat":34.059794,"lon":139.545456},{"name":"ＮＴＴ東日本[sanitize]東京","province":"東京都","city":"","address":"東京都三宅島三宅村伊豆627[sanitize]2","lat":34.117648,"lon":139.508488},{"name":"東京都三宅支庁総務課","province":"東京都","city":"三宅村","address":"東京都三宅村伊豆642","lat":34.11866657,"lon":139.51731695},{"name":"東京都三宅支庁産業課","province":"東京都","city":"三宅村","address":"東京都三宅村伊豆642","lat":34.11866657,"lon":139.51731695},{"name":"東京都三宅支庁土木港湾課","province":"東京都","city":"三宅村","address":"東京都三宅村伊豆642","lat":34.11866657,"lon":139.51731695},{"name":"東京都三宅島空港管理事務所","province":"東京都","city":"三宅村","address":"東京都三宅村坪田1378","lat":34.07199247,"lon":139.55850383},{"name":"東京都島しょ保健所三宅出張所","province":"東京都","city":"三宅村","address":"東京都三宅村伊豆1004","lat":34.11763858,"lon":139.50389598},{"name":"東京都教育庁三宅出張所","province":"東京都","city":"三宅村","address":"東京都三宅村伊豆642","lat":34.11866657,"lon":139.51731695},{"name":"東京都島しょ農林水産総合センター三宅事業所","province":"東京都","city":"三宅村","address":"東京都三宅村坪田4357","lat":34.05625753,"lon":139.53406243},{"name":"東京都家畜保健衛生所三宅支所","province":"東京都","city":"三宅村","address":"東京都三宅村坪田4357","lat":34.05625753,"lon":139.53406243},{"name":"東京都立三宅高等学校","province":"東京都","city":"三宅村","address":"東京都三宅村坪田4586","lat":34.0588101,"lon":139.53781195},{"name":"東京都島部海区漁業調整委員会三宅分室","province":"東京都","city":"三宅村","address":"東京都三宅村伊豆642","lat":34.11866657,"lon":139.51731695},{"name":"警視庁三宅島警察署","province":"東京都","city":"三宅村","address":"東京都三宅村伊豆640","lat":34.1191971,"lon":139.51826684},{"name":"三宅勤労福祉会館","province":"東京都","city":"三宅村","address":"東京都三宅村神着1062","lat":34.12083365,"lon":139.53890937},{"name":"御蔵島村役場","province":"東京都","city":"御蔵島村","address":"東京都御蔵島村","lat":33.89736534,"lon":139.59611904},{"name":"東京法務局三宅島出張所","province":"東京都","city":"三宅村","address":"東京都三宅村神着240","lat":34.12126933,"lon":139.5263938},{"name":"下田海上保安部航行援助センター（旧三宅島航路標識事務所）","province":"静岡県","city":"下田市","address":"静岡県下田市三丁目18-23","lat":34.66981503,"lon":138.94880986},{"name":"三宅島郵便局","province":"東京都","city":"三宅村","address":"東京都三宅村神着222","lat":34.12142761,"lon":139.52502448},{"name":"三宅島阿古郵便局","province":"東京都","city":"三宅村","address":"東京都三宅村阿古700-6","lat":34.06458034,"lon":139.48294973},{"name":"三宅島伊豆郵便局","province":"東京都","city":"三宅村","address":"東京都三宅村伊豆1016","lat":34.11660532,"lon":139.50228229},{"name":"三宅島伊ヶ谷郵便局","province":"東京都","city":"三宅村","address":"東京都三宅村伊ヶ谷432","lat":34.10030423,"lon":139.49261997},{"name":"御蔵島郵便局","province":"東京都","city":"御蔵島村","address":"東京都御蔵島村","lat":33.89736534,"lon":139.59611904},{"name":"東京島しょ農業協同組合三宅島支店","province":"東京都","city":"三宅村","address":"東京都三宅村神着313-1","lat":34.12021379,"lon":139.52294415},{"name":"御蔵島村農業協同組合","province":"東京都","city":"御蔵島村","address":"東京都御蔵島村","lat":33.89736534,"lon":139.59611904},{"name":"三宅村森林組合","province":"東京都","city":"三宅村","address":"東京都三宅村阿古497","lat":34.07594562,"lon":139.47916639},{"name":"三宅島漁業協同組合","province":"東京都","city":"三宅村","address":"東京都三宅村阿古680","lat":34.06866594,"lon":139.48114144},{"name":"御蔵島村漁業協同組合","province":"東京都","city":"御蔵島村","address":"東京都御蔵島村","lat":33.89736534,"lon":139.59611904},{"name":"東京電力株式会社東京支店三宅島事務所","province":"東京都","city":"三宅村","address":"東京都三宅村伊豆991","lat":34.11883848,"lon":139.50542357},{"name":"株式会社みずほ銀行東京中央支店三宅島出張所","province":"東京都","city":"三宅村","address":"東京都三宅村伊豆642","lat":34.11866657,"lon":139.51731695},{"name":"七島信用組合三宅島支店","province":"東京都","city":"三宅村","address":"東京都三宅村神着239-1","lat":34.12122491,"lon":139.52664656},{"name":"東海汽船株式会社三宅島支店","province":"東京都","city":"三宅村","address":"東京都三宅村阿古672-3","lat":34.06829375,"lon":139.48046651},{"name":"三宅島観光協会","province":"東京都","city":"三宅村","address":"東京都三宅村坪田1362","lat":34.07718075,"lon":139.55781755},{"name":"三宅村シルバー人材センター","province":"東京都","city":"三宅村","address":"東京都三宅村坪田3050","lat":34.05983793,"lon":139.54508898},{"name":"三宅島社会福祉協議会","province":"東京都","city":"三宅村","address":"東京都三宅村阿古497","lat":34.07594562,"lon":139.47916639},{"name":"東京上野税務署","province":"","city":"","address":"池之端1丁目2番22号上野合同庁舎","lat":35.70962441,"lon":139.7686653},{"name":"浅草税務署","province":"","city":"","address":"蔵前2丁目8番12号","lat":35.70302561,"lon":139.7924045},{"name":"台東都税事務所","province":"","city":"","address":"雷門1丁目6番1号","lat":35.70986492,"lon":139.7921639},{"name":"日本堤消防署","province":"","city":"","address":"千束4丁目1番1号","lat":35.7233337,"lon":139.7981124},{"name":"上野警察署","province":"","city":"","address":"東上野4丁目2番4号","lat":35.71229446,"lon":139.7792946},{"name":"浅草警察署","province":"","city":"","address":"浅草4丁目47番11号","lat":35.71890426,"lon":139.7980128},{"name":"蔵前警察署","province":"","city":"","address":"蔵前1丁目3番24号","lat":35.7011058,"lon":139.7900249},{"name":"上野消防署","province":"","city":"","address":"東上野5丁目2番9号","lat":35.71205452,"lon":139.7810845},{"name":"浅草消防署","province":"","city":"","address":"駒形1丁目5番8号","lat":35.70750518,"lon":139.793974},{"name":"浅草公証役場","province":"","city":"","address":"雷門2丁目4番8号あいおい損保台東ビル2F","lat":35.70928503,"lon":139.7958337},{"name":"東京法務局台東出張所（登記所）","province":"","city":"","address":"台東1丁目26番2号","lat":35.70161548,"lon":139.7771953},{"name":"上野公証役場","province":"","city":"","address":"東上野1丁目7番2号富田ビル","lat":35.70736495,"lon":139.7797049},{"name":"警視庁第六方面本部","province":"東京都","city":"台東区","address":"台東区東浅草2丁目27番12号","lat":35.72453376,"lon":139.7978665},{"name":"下谷警察署","province":"","city":"","address":"下谷3丁目15番9号","lat":35.72585568,"lon":139.7879967},{"name":"駿河台日本大学病院","province":"東京都","city":"千代田区","address":"東京都千代田区神田駿河台1丁目8-13","lat":35.69821877,"lon":139.76340494},{"name":"三井記念病院","province":"東京都","city":"千代田区","address":"東京都千代田区神田和泉町1","lat":35.69901632,"lon":139.77742103},{"name":"聖路加国際病院","province":"東京都","city":"中央区","address":"東京都中央区明石町9-1","lat":35.66741137,"lon":139.77705481},{"name":"東京都済生会中央病院","province":"東京都","city":"港区","address":"東京都港区三田1丁目4-17","lat":35.65404529,"lon":139.74356645},{"name":"東京慈恵会医科大学附属病院","province":"東京都","city":"港区","address":"東京都港区西新橋3丁目19-18","lat":35.6636611,"lon":139.75126545},{"name":"北里大学北里研究所病院","province":"東京都","city":"港区","address":"東京都港区白金5丁目9-1","lat":35.64559303,"lon":139.72544895},{"name":"日本医科大学付属病院","province":"東京都","city":"文京区","address":"東京都文京区千駄木1丁目1-5","lat":35.72107737,"lon":139.75886828},{"name":"都立駒込病院","province":"東京都","city":"文京区","address":"東京都文京区本駒込3丁目18-22","lat":35.72994856,"lon":139.75609048},{"name":"順天堂大学医学部附属順天堂医院","province":"東京都","city":"文京区","address":"東京都文京区本郷3丁目1-3","lat":35.70250161,"lon":139.76261313},{"name":"東京医科歯科大学医学部附属病院","province":"東京都","city":"文京区","address":"東京都文京区湯島1丁目5-45","lat":35.70099629,"lon":139.76491864},{"name":"東京大学医学部付属病院","province":"東京都","city":"文京区","address":"東京都文京区本郷7丁目3-1","lat":35.71203394,"lon":139.76277932},{"name":"永寿総合病院","province":"東京都","city":"台東区","address":"東京都台東区東上野2丁目23-16","lat":35.7097486,"lon":139.77962864},{"name":"昭和大学病院","province":"東京都","city":"品川区","address":"東京都品川区旗の台1丁目5-8","lat":35.60849688,"lon":139.70353258},{"name":"ＮＴＴ東日本関東病院","province":"東京都","city":"品川区","address":"東京都品川区東五反田5丁目9-22","lat":35.63091968,"lon":139.72494947},{"name":"東邦大学医療センター大森病院","province":"東京都","city":"大田区","address":"東京都大田区大森西6丁目11-1","lat":35.56903533,"lon":139.72396297},{"name":"大森赤十字病院","province":"東京都","city":"大田区","address":"東京都大田区中央4丁目30-1","lat":35.5787979,"lon":139.71718252},{"name":"東京都保健医療公社荏原病院","province":"東京都","city":"大田区","address":"東京都大田区東雪谷4丁目5-10","lat":35.59460659,"lon":139.69367561},{"name":"独立行政法人国立病院機構東京医療センター","province":"東京都","city":"目黒区","address":"東京都目黒区東が丘2丁目5-1","lat":35.62656333,"lon":139.66598239},{"name":"一般社団法人至誠会第二病院","province":"東京都","city":"世田谷区","address":"東京都世田谷区上祖師谷5丁目19-1","lat":35.65629949,"lon":139.59144587},{"name":"公立学校共済組合関東中央病院","province":"東京都","city":"世田谷区","address":"東京都世田谷区上用賀6丁目25-1","lat":35.63726677,"lon":139.62627992},{"name":"東京都立松沢病院","province":"東京都","city":"世田谷区","address":"東京都世田谷区上北沢2丁目1-1","lat":35.66712968,"lon":139.61960719},{"name":"東京都立広尾病院","province":"東京都","city":"渋谷区","address":"東京都渋谷区恵比寿2丁目34-10","lat":35.64707054,"lon":139.72073544},{"name":"日本赤十字社医療センター","province":"東京都","city":"渋谷区","address":"東京都渋谷区広尾4丁目1-22","lat":35.65443909,"lon":139.71794375},{"name":"東京医科大学病院","province":"東京都","city":"新宿区","address":"東京都新宿区西新宿6丁目7-1","lat":35.69402018,"lon":139.69221112},{"name":"慶応義塾大学病院","province":"東京都","city":"新宿区","address":"東京都新宿区信濃町35","lat":35.68258045,"lon":139.7181676},{"name":"東京女子医科大学病院","province":"東京都","city":"新宿区","address":"東京都新宿区河田町8-1","lat":35.69807045,"lon":139.72011683},{"name":"東京都保健医療公社大久保病院","province":"東京都","city":"新宿区","address":"東京都新宿区歌舞伎町2丁目44-1","lat":35.69691177,"lon":139.70156297},{"name":"国立国際医療研究センター病院","province":"東京都","city":"新宿区","address":"東京都新宿区戸山1丁目21-1","lat":35.70174214,"lon":139.71530878},{"name":"社会保険中央総合病院","province":"東京都","city":"新宿区","address":"東京都新宿区百人町3丁目22-1","lat":35.70470248,"lon":139.69904899},{"name":"立正佼成会附属佼成病院","province":"東京都","city":"中野区","address":"東京都中野区弥生町5丁目25-15","lat":35.69047273,"lon":139.66806618},{"name":"東京医療生活協同組合中野総合病院","province":"東京都","city":"中野区","address":"東京都中野区中央4丁目59-16","lat":35.70255736,"lon":139.66706576},{"name":"東京警察病院","province":"東京都","city":"中野区","address":"東京都中野区中野4丁目22-1","lat":35.70920915,"lon":139.65931337},{"name":"医療法人財団荻窪病院","province":"東京都","city":"杉並区","address":"東京都杉並区今川3丁目1-24","lat":35.71524321,"lon":139.607323},{"name":"東京都立大塚病院","province":"東京都","city":"豊島区","address":"東京都豊島区南大塚2丁目8-1","lat":35.72526774,"lon":139.73230087},{"name":"東京北医療センター","province":"東京都","city":"北区","address":"東京都北区赤羽台4丁目17-56","lat":35.78387391,"lon":139.71141424},{"name":"日本大学医学部附属板橋病院","province":"東京都","city":"板橋区","address":"東京都板橋区大谷口上町30-1","lat":35.74958888,"lon":139.69154496},{"name":"帝京大学医学部附属病院","province":"東京都","city":"板橋区","address":"東京都板橋区加賀2丁目11-1","lat":35.75922729,"lon":139.71498704},{"name":"東京都健康長寿医療センター","province":"東京都","city":"板橋区","address":"東京都板橋区栄町35-2","lat":35.75087794,"lon":139.70167185},{"name":"東京都保健医療公社豊島病院","province":"東京都","city":"板橋区","address":"東京都板橋区栄町33-1","lat":35.75269994,"lon":139.70097739},{"name":"練馬光が丘病院","province":"東京都","city":"練馬区","address":"東京都練馬区光が丘2丁目11-1","lat":35.76218581,"lon":139.63026637},{"name":"順天堂大学医学部附属練馬病院","province":"東京都","city":"練馬区","address":"東京都練馬区高野台3丁目1-10","lat":35.74213487,"lon":139.61499623},{"name":"東京女子医科大学東医療センター","province":"東京都","city":"荒川区","address":"東京都荒川区西尾久2丁目1-10","lat":35.74831628,"lon":139.7653279},{"name":"医療法人社団成和会西新井病院","province":"東京都","city":"足立区","address":"東京都足立区西新井本町5丁目7-14","lat":35.77566892,"lon":139.78197215},{"name":"苑田第一病院","province":"東京都","city":"足立区","address":"東京都足立区竹の塚4丁目1-12","lat":35.79351749,"lon":139.80198649},{"name":"博慈会記念総合病院","province":"東京都","city":"足立区","address":"東京都足立区鹿浜5丁目11-1","lat":35.78496118,"lon":139.74944417},{"name":"東京慈恵会医科大学葛飾医療センター","province":"東京都","city":"葛飾区","address":"東京都葛飾区青戸6丁目41-2","lat":35.75182053,"lon":139.85865266},{"name":"東京都保健医療公社東部地域病院","province":"東京都","city":"葛飾区","address":"東京都葛飾区亀有5丁目14-1","lat":35.7662352,"lon":139.84445332},{"name":"東京都立墨東病院","province":"東京都","city":"墨田区","address":"東京都墨田区江東橋4丁目23-15","lat":35.69530033,"lon":139.81879578},{"name":"白鬚橋病院","province":"東京都","city":"墨田区","address":"東京都墨田区東向島4丁目2-10","lat":35.72795443,"lon":139.81372652},{"name":"江東病院","province":"東京都","city":"江東区","address":"東京都江東区大島6丁目8-5","lat":35.69029344,"lon":139.83408508},{"name":"あそか病院","province":"東京都","city":"江東区","address":"東京都江東区住吉1丁目18-1","lat":35.68985944,"lon":139.81186088},{"name":"順天堂大学医学部附属順天堂江東高齢者医療センター","province":"東京都","city":"江東区","address":"東京都江東区新砂3丁目3-20","lat":35.66528245,"lon":139.8334721},{"name":"がん研究会有明病院","province":"東京都","city":"江東区","address":"東京都江東区有明3丁目8-31","lat":35.63434076,"lon":139.7949906},{"name":"東京臨海病院","province":"東京都","city":"江戸川区","address":"東京都江戸川区臨海町1丁目4-2","lat":35.65210677,"lon":139.85363487},{"name":"江戸川病院","province":"東京都","city":"江戸川区","address":"東京都江戸川区東小岩2丁目24-18","lat":35.72860723,"lon":139.89289248},{"name":"青梅市立総合病院","province":"東京都","city":"青梅市","address":"東京都青梅市東青梅4丁目16-5","lat":35.78202441,"lon":139.28118194},{"name":"公立阿伎留医療センター","province":"東京都","city":"あきる野市","address":"東京都あきる野市引田78-1","lat":35.73181875,"lon":139.27214005},{"name":"公立福生病院","province":"東京都","city":"福生市","address":"東京都福生市加美平1丁目6-1","lat":35.74701301,"lon":139.3266987},{"name":"東京医科大学八王子医療センター","province":"東京都","city":"八王子市","address":"東京都八王子市館町1163","lat":35.63195929,"lon":139.28900889},{"name":"東海大学八王子病院","province":"東京都","city":"八王子市","address":"東京都八王子市石川町1838","lat":35.67377242,"lon":139.35707362},{"name":"日本医科大学多摩永山病院","province":"東京都","city":"多摩市","address":"東京都多摩市永山1丁目7-1","lat":35.63113783,"lon":139.44665098},{"name":"東京都保健医療公社多摩南部地域病院","province":"東京都","city":"多摩市","address":"東京都多摩市中沢2丁目1-2","lat":35.622938,"lon":139.41525124},{"name":"稲城市立病院","province":"東京都","city":"稲城市","address":"東京都稲城市大丸1171","lat":35.64687587,"lon":139.48586645},{"name":"町田市民病院","province":"東京都","city":"町田市","address":"東京都町田市旭町2丁目15-41","lat":35.55694609,"lon":139.43883454},{"name":"日野市立病院","province":"東京都","city":"日野市","address":"東京都日野市多摩平4丁目3-1","lat":35.66706526,"lon":139.37837205},{"name":"国立病院機構災害医療センター","province":"東京都","city":"立川市","address":"東京都立川市緑町3256","lat":35.70745023,"lon":139.4092319},{"name":"東大和病院","province":"東京都","city":"東大和市","address":"東京都東大和市南街1丁目13-12","lat":35.74141631,"lon":139.43168419},{"name":"武蔵野赤十字病院","province":"東京都","city":"武蔵野市","address":"東京都武蔵野市境南町1丁目26-1","lat":35.69687727,"lon":139.54853159},{"name":"東京都立多摩・小児総合医療センター","province":"東京都","city":"府中市","address":"東京都府中市武蔵台2丁目8-29","lat":35.69188402,"lon":139.46098088},{"name":"杏林大学医学部付属病院","province":"東京都","city":"三鷹市","address":"東京都三鷹市新川6丁目20-2","lat":35.67747976,"lon":139.56650561},{"name":"公立昭和病院","province":"東京都","city":"小平市","address":"東京都小平市花小金井8丁目1-1","lat":35.7313167,"lon":139.50336445},{"name":"佐々総合病院","province":"東京都","city":"西東京市","address":"東京都西東京市田無町4丁目24-15","lat":35.72967884,"lon":139.53871701},{"name":"東京都保健医療公社多摩北部医療センター","province":"東京都","city":"東村山市","address":"東京都東村山市青葉町1丁目7-1","lat":35.76043805,"lon":139.49094217},{"name":"国立病院機構東京病院","province":"東京都","city":"清瀬市","address":"東京都清瀬市竹丘3丁目1-1","lat":35.76696263,"lon":139.5045714},{"name":"大島町役場","province":"東京都","city":"大島町","address":"大島町元町1-1-14","lat":34.750153,"lon":139.355511},{"name":"東京都大島支庁","province":"東京都","city":"大島町","address":"大島町元町字オンダシ222-1","lat":34.757486,"lon":139.357651},{"name":"東京都大島支庁総務課","province":"東京都","city":"大島町","address":"大島町元町字オンダシ222-1","lat":34.757486,"lon":139.357651},{"name":"東京都大島支庁総務課（福祉担当）","province":"東京都","city":"大島町","address":"大島町元町字オンダシ222-1","lat":34.757486,"lon":139.357651},{"name":"東京都大島支庁産業課","province":"東京都","city":"大島町","address":"大島町元町字オンダシ222-1","lat":34.757486,"lon":139.357651},{"name":"東京都大島支庁土木課","province":"東京都","city":"大島町","address":"大島町元町字オンダシ222-1","lat":34.757486,"lon":139.357651},{"name":"東京都大島支庁港湾課","province":"東京都","city":"大島町","address":"大島町元町字オンダシ222-1","lat":34.757486,"lon":139.357651},{"name":"東京都大島支庁大島港湾空港管理事務所","province":"東京都","city":"大島町","address":"大島町元町字北の山270","lat":34.782519,"lon":139.363327},{"name":"東京都大島支庁大島公園事務所","province":"東京都","city":"大島町","address":"大島町泉津字福重2","lat":34.761133,"lon":139.43446},{"name":"東京都教育庁大島出張所","province":"東京都","city":"大島町","address":"大島町元町字オンダシ222-1","lat":34.757485,"lon":139.35765},{"name":"東京都島しょ保健所大島出張所","province":"東京都","city":"大島町","address":"大島町元町字馬の背275-4","lat":34.756842,"lon":139.358126},{"name":"島しょ農林水産総合センター大島事業所（水産）","province":"東京都","city":"大島町","address":"大島町波浮港18","lat":34.684806,"lon":139.437424},{"name":"島しょ農林水産総合センター大島事業所（農業）","province":"東京都","city":"大島町","address":"大島町元町小清水273-1","lat":34.758549,"lon":139.361164},{"name":"東京都立大島高等学校","province":"東京都","city":"大島町","address":"大島町元町字八重の水127","lat":34.765449,"lon":139.359906},{"name":"東京都立大島海洋国際高等学校","province":"東京都","city":"大島町","address":"大島町差木地字下原996","lat":34.681949,"lon":139.432619},{"name":"東京都海区漁業調整委員会大島分室","province":"東京都","city":"大島町","address":"大島町元町字オンダシ222-1","lat":34.757485,"lon":139.35765},{"name":"警視庁大島警察署","province":"東京都","city":"大島町","address":"大島町元町1-15-6","lat":34.752784,"lon":139.354974},{"name":"東京都栽培漁業センター","province":"東京都","city":"大島町","address":"大島町元町字和泉99-5","lat":34.769048,"lon":139.352981},{"name":"伊豆大島簡易裁判所","province":"東京都","city":"大島町","address":"大島町元町字家の上445-10","lat":34.749828,"lon":139.363783},{"name":"伊豆大島区検察庁","province":"東京都","city":"大島町","address":"大島町元町字家の上445-9","lat":34.749811,"lon":139.363192},{"name":"東京大学地震研究所　伊豆大島火山観測所","province":"東京都","city":"大島町","address":"大島町元町字黒まま346","lat":34.75428,"lon":139.362597},{"name":"気象庁　伊豆大島火山防災連絡事務所","province":"東京都","city":"大島町","address":"大島町元町1-1-14(大島町役場内)","lat":34.750255,"lon":139.355384},{"name":"東京航空地方気象台　大島航空気象観測所","province":"東京都","city":"大島町","address":"大島町元町字北の山270-1(大島空港内)","lat":34.783191,"lon":139.363547},{"name":"東京航空局大島空港出張所","province":"東京都","city":"大島町","address":"大島町元町字北の山270-1","lat":34.783191,"lon":139.363547},{"name":"利島村役場","province":"","city":"","address":"利島村248","lat":34.5293639,"lon":139.282585},{"name":"警視庁大島警察署利島村駐在所","province":"","city":"","address":"利島村315","lat":34.529539,"lon":139.283903},{"name":"新島村役場","province":"東京都","city":"新島村","address":"新島村本村1-1-1","lat":34.377094,"lon":139.257058},{"name":"式根島支所","province":"東京都","city":"新島村","address":"新島村式根島255-1","lat":34.529539,"lon":139.283903},{"name":"東京都大島支庁新島出張所","province":"東京都","city":"新島村","address":"新島村本村6-4-24","lat":34.373721,"lon":139.256622},{"name":"新島港湾空港管理事務所","province":"東京都","city":"新島村","address":"新島村字川原","lat":34.37036,"lon":139.269356},{"name":"東京都島しょ保健所大島出張所新島支所","province":"東京都","city":"新島村","address":"新島村本村6-4-24","lat":34.373721,"lon":139.256622},{"name":"東京都立新島高等学校","province":"東京都","city":"新島村","address":"新島村本村4-10-1","lat":34.369086,"lon":139.25827},{"name":"警視庁新島警察署","province":"東京都","city":"新島村","address":"新島村本村3-13-4","lat":34.372224,"lon":139.259511},{"name":"新島簡易裁判所","province":"東京都","city":"新島村","address":"新島村本村3-2-2","lat":34.376787,"lon":139.257702},{"name":"新島区検察庁","province":"東京都","city":"大島町","address":"大島町元町字家の上445-9","lat":34.749811,"lon":139.363192},{"name":"防衛装備庁航空装備研究所新島支所","province":"東京都","city":"新島村","address":"新島村字水尻","lat":34.363931,"lon":139.255265},{"name":"神津島村役場","province":"東京都","city":"神津島村","address":"神津島村904","lat":34.205533,"lon":139.134455},{"name":"東京都大島支庁神津島出張所","province":"東京都","city":"神津島村","address":"神津島村1204","lat":34.203272,"lon":139.134233},{"name":"神津島港湾空港管理事務所","province":"東京都","city":"神津島村","address":"神津島村字金長","lat":34.190248,"lon":139.134466},{"name":"東京都島しょ保健所大島出張所神津島支所","province":"東京都","city":"神津島村","address":"神津島村1088","lat":34.204734,"lon":139.136476},{"name":"東京都立神津高等学校","province":"東京都","city":"神津島村","address":"神津島村1620","lat":34.202348,"lon":139.134443},{"name":"北里研究所病院","province":"東京都","city":"港区","address":"東京都港区白金5丁目9-1","lat":35.64559303,"lon":139.72544895},{"name":"東京医科歯科大学医学部付属病院","province":"東京都","city":"文京区","address":"東京都文京区湯島1丁目5-45","lat":35.70099629,"lon":139.76491864},{"name":"荏原病院","province":"東京都","city":"大田区","address":"東京都大田区東雪谷4丁目5-10","lat":35.59460659,"lon":139.69367561},{"name":"都立広尾病院","province":"東京都","city":"渋谷区","address":"東京都渋谷区恵比寿2丁目34-10","lat":35.64707054,"lon":139.72073544},{"name":"至誠会第二病院","province":"東京都","city":"世田谷区","address":"東京都世田谷区上祖師谷5丁目19-1","lat":35.65629949,"lon":139.59144587},{"name":"国立病院機構東京医療センター","province":"東京都","city":"目黒区","address":"東京都目黒区東が丘2丁目5-1","lat":35.62656333,"lon":139.66598239},{"name":"都立松沢病院","province":"東京都","city":"世田谷区","address":"東京都世田谷区上北沢2丁目1-1","lat":35.66712968,"lon":139.61960719},{"name":"荻窪病院","province":"東京都","city":"杉並区","address":"東京都杉並区今川3丁目1-24","lat":35.71524321,"lon":139.607323},{"name":"立正佼成会付属佼成病院","province":"東京都","city":"中野区","address":"東京都中野区弥生町5丁目25-15","lat":35.69047273,"lon":139.66806618},{"name":"大久保病院","province":"東京都","city":"新宿区","address":"東京都新宿区歌舞伎町2丁目44-1","lat":35.69691177,"lon":139.70156297},{"name":"国立国際医療センター","province":"東京都","city":"新宿区","address":"東京都新宿区戸山1丁目21-1","lat":35.70174214,"lon":139.71530878},{"name":"日本大学医学部附属練馬光が丘病院","province":"東京都","city":"練馬区","address":"東京都練馬区光が丘2丁目11-1","lat":35.76218581,"lon":139.63026637},{"name":"都立大塚病院","province":"東京都","city":"豊島区","address":"東京都豊島区南大塚2丁目8-1","lat":35.72526774,"lon":139.73230087},{"name":"都立豊島病院","province":"東京都","city":"板橋区","address":"東京都板橋区栄町33-1","lat":35.75269994,"lon":139.70097739},{"name":"西新井病院","province":"東京都","city":"足立区","address":"東京都足立区西新井本町5丁目7-14","lat":35.77566892,"lon":139.78197215},{"name":"東京慈恵会医科大学附属青戸病院","province":"東京都","city":"葛飾区","address":"東京都葛飾区青戸6丁目41-2","lat":35.75182053,"lon":139.85865266},{"name":"東部地域病院","province":"東京都","city":"葛飾区","address":"東京都葛飾区亀有5丁目14-1","lat":35.7662352,"lon":139.84445332},{"name":"都立墨東病院","province":"東京都","city":"墨田区","address":"東京都墨田区江東橋4丁目23-15","lat":35.69530033,"lon":139.81879578},{"name":"東海大学医学部付属八王子病院","province":"東京都","city":"八王子市","address":"東京都八王子市石川町1838","lat":35.67377242,"lon":139.35707362},{"name":"多摩南部地域病院","province":"東京都","city":"多摩市","address":"東京都多摩市中沢2丁目1-2","lat":35.622938,"lon":139.41525124},{"name":"都立府中病院","province":"東京都","city":"府中市","address":"東京都府中市武蔵台2丁目9-2","lat":35.6920563,"lon":139.4641806},{"name":"都立清瀬小児病院","province":"東京都","city":"清瀬市","address":"東京都清瀬市梅園1丁目3-1","lat":35.77061503,"lon":139.50738775},{"name":"多摩北部医療センター","province":"東京都","city":"東村山市","address":"東京都東村山市青葉町1丁目7-1","lat":35.76043805,"lon":139.49094217},{"name":"環境省伊豆諸島自然保護官事務所","province":"東京都","city":"大島町","address":"大島町元町字家の上445-9","lat":34.749811,"lon":139.363192},{"name":"島しょ農林水産総合センター大島事業所新島分室","province":"東京都","city":"新島村","address":"新島村本村6-4-24","lat":34.373721,"lon":139.256622},{"name":"皇居前広場","province":"東京都","city":"千代田区","address":"東京都千代田区皇居外苑1","lat":35.67806805,"lon":139.7588226},{"name":"都立日比谷公園（第二花壇）","province":"東京都","city":"千代田区","address":"東京都千代田区日比谷公園1","lat":35.67461838,"lon":139.75677845},{"name":"上智大学運動場","province":"東京都","city":"千代田区","address":"東京都千代田区紀尾井町5","lat":35.6830057,"lon":139.73098034},{"name":"北の丸公園第２駐車場","province":"東京都","city":"千代田区","address":"東京都千代田区北の丸公園2","lat":35.6932523,"lon":139.75056715},{"name":"北の丸公園第３駐車場","province":"東京都","city":"千代田区","address":"東京都千代田区北の丸公園1-1","lat":35.69242736,"lon":139.74948116},{"name":"中央区立月島運動場","province":"東京都","city":"中央区","address":"東京都中央区晴海1丁目3-29","lat":35.65907089,"lon":139.78637652},{"name":"中央区立豊海運動公園","province":"東京都","city":"中央区","address":"東京都中央区豊海町3-19","lat":35.65321559,"lon":139.77225293},{"name":"都立芝公園グラウンド","province":"東京都","city":"港区","address":"東京都港区芝公園1丁目","lat":35.65760623,"lon":139.75195171},{"name":"港区立麻布運動場・野球場","province":"東京都","city":"港区","address":"東京都港区南麻布5丁目6-33","lat":35.65242008,"lon":139.72772071},{"name":"聖心女子学院グラウンド","province":"東京都","city":"港区","address":"東京都港区白金4丁目11-1","lat":35.64241563,"lon":139.72635453},{"name":"国立大学法人東京海洋大学グラウンド","province":"東京都","city":"港区","address":"東京都港区港南4丁目5-7","lat":35.6269708,"lon":139.74764492},{"name":"迎賓館ヘリポート","province":"東京都","city":"港区","address":"東京都港区元赤坂2丁目","lat":35.67849212,"lon":139.72208963},{"name":"明治神宮外苑軟式野球場","province":"東京都","city":"新宿区","address":"東京都新宿区霞ヶ丘町1-1","lat":35.67880032,"lon":139.71766225},{"name":"都立落合中央公園野球場","province":"東京都","city":"新宿区","address":"東京都新宿区上落合1丁目2","lat":35.71287916,"lon":139.69289364},{"name":"新宿区立西戸山公園野球場","province":"東京都","city":"新宿区","address":"東京都新宿区百人町4丁目1","lat":35.70748833,"lon":139.70088483},{"name":"東京都庁第一本庁舎","province":"東京都","city":"新宿区","address":"東京都新宿区西新宿2丁目8-1","lat":35.68918461,"lon":139.69164748},{"name":"国立国際医療研究センターヘリポート","province":"東京都","city":"新宿区","address":"東京都新宿区戸山1丁目21-1","lat":35.70174214,"lon":139.71530878},{"name":"東京大学御殿下グラウンド","province":"東京都","city":"文京区","address":"東京都文京区本郷7丁目3-1","lat":35.71203394,"lon":139.76277932},{"name":"東京大学医学部附属病院ヘリポート","province":"東京都","city":"文京区","address":"東京都文京区本郷7丁目3-1","lat":35.71203394,"lon":139.76277932},{"name":"東京大学農学部グラウンド","province":"東京都","city":"文京区","address":"東京都文京区弥生1丁目1","lat":35.71893042,"lon":139.76032934},{"name":"順天堂大学医学部附属順天堂医院ヘリポート","province":"東京都","city":"文京区","address":"東京都文京区本郷3丁目1-3","lat":35.70250161,"lon":139.76261313},{"name":"東京医科歯科大学医学部附属病院ヘリポート","province":"東京都","city":"文京区","address":"東京都文京区湯島1丁目5-45","lat":35.70099629,"lon":139.76491864},{"name":"目白台運動公園","province":"東京都","city":"文京区","address":"東京都文京区目白台1丁目20-2","lat":35.71545467,"lon":139.72151883},{"name":"文京シビックセンター","province":"東京都","city":"文京区","address":"東京都文京区春日1丁目16-21","lat":35.70794517,"lon":139.75242748},{"name":"台東区立リバーサイドスポーツセンター少年野球場","province":"東京都","city":"台東区","address":"東京都台東区浅草7丁目1-22","lat":35.71665987,"lon":139.8037681},{"name":"永寿総合病院ヘリポート","province":"東京都","city":"台東区","address":"東京都台東区東上野2丁目23-16","lat":35.7097486,"lon":139.77962864},{"name":"都立上野恩賜公園正岡子規記念球場","province":"東京都","city":"台東区","address":"東京都台東区上野公園","lat":35.7181228,"lon":139.77786167},{"name":"都立墨東病院ヘリポート","province":"東京都","city":"墨田区","address":"東京都墨田区江東橋4丁目23-15","lat":35.69530033,"lon":139.81879578},{"name":"墨田区立東墨田運動場","province":"東京都","city":"墨田区","address":"東京都墨田区東墨田1丁目10","lat":35.71647687,"lon":139.83195391},{"name":"墨田区立新平井橋公園","province":"東京都","city":"墨田区","address":"東京都墨田区東墨田1丁目6-2","lat":35.71565486,"lon":139.83040693},{"name":"白鬚東地区（東白鬚公園）","province":"東京都","city":"墨田区","address":"東京都墨田区堤通2丁目","lat":35.73410354,"lon":139.81657811},{"name":"都立木場公園多目的広場","province":"東京都","city":"江東区","address":"東京都江東区平野4丁目6-1","lat":35.67676666,"lon":139.80756394},{"name":"江東区立若洲公園多目的広場","province":"東京都","city":"江東区","address":"東京都江東区若洲3丁目2-1","lat":35.61872983,"lon":139.83362144},{"name":"新砂運動場","province":"東京都","city":"江東区","address":"東京都江東区新砂3丁目9-1","lat":35.65732785,"lon":139.83512778},{"name":"都立亀戸中央公園多目的球技広場","province":"東京都","city":"江東区","address":"東京都江東区亀戸9丁目37","lat":35.70004774,"lon":139.83837624},{"name":"あそか病院ヘリポート","province":"東京都","city":"江東区","address":"東京都江東区住吉1丁目18-1","lat":35.68985944,"lon":139.81186088},{"name":"都立夢の島陸上競技場","province":"東京都","city":"江東区","address":"東京都江東区夢の島3丁目","lat":35.65190061,"lon":139.83152826},{"name":"東京海洋大学越中島キャンパス第２グラウンド","province":"東京都","city":"江東区","address":"東京都江東区越中島2丁目1-6","lat":35.66726738,"lon":139.79215102},{"name":"有明の丘防災拠点","province":"東京都","city":"江東区","address":"東京都江東区有明","lat":35.63803447,"lon":139.78857145},{"name":"都立猿江恩賜公園","province":"東京都","city":"江東区","address":"東京都江東区住吉2丁目","lat":35.6890929,"lon":139.81465768},{"name":"がん研究会有明病院ヘリポート","province":"東京都","city":"江東区","address":"東京都江東区有明3丁目8-31","lat":35.63434076,"lon":139.7949906},{"name":"江東区立潮見運動公園","province":"東京都","city":"江東区","address":"東京都江東区潮見1丁目","lat":35.65755231,"lon":139.81360185},{"name":"都立有明テニスの森公園","province":"東京都","city":"江東区","address":"東京都江東区有明2丁目","lat":35.64007061,"lon":139.79611521},{"name":"都立シンボルプロムナード公園","province":"東京都","city":"江東区","address":"東京都江東区青海1丁目","lat":35.62481633,"lon":139.77819791},{"name":"都立大島小松川公園少年運動場","province":"東京都","city":"江東区","address":"東京都江東区大島9丁目9","lat":35.68959623,"lon":139.84689815},{"name":"都立大井埠頭中央海浜公園陸上競技場","province":"東京都","city":"品川区","address":"東京都品川区八潮4丁目1-19","lat":35.59255032,"lon":139.75229052},{"name":"品川区立天王州公園","province":"東京都","city":"品川区","address":"東京都品川区東品川2丁目5-42","lat":35.62054383,"lon":139.74927004},{"name":"品川区立鮫洲運動公園","province":"東京都","city":"品川区","address":"東京都品川区東大井1丁目4-11","lat":35.60589551,"lon":139.74500986},{"name":"品川区立八潮公園多目的広場","province":"東京都","city":"品川区","address":"東京都品川区八潮5丁目11-16","lat":35.60033269,"lon":139.75372891},{"name":"林試の森公園","province":"東京都","city":"品川区","address":"東京都品川区小山台2丁目","lat":35.62477825,"lon":139.69861029},{"name":"都立桜修館中等教育学校","province":"東京都","city":"目黒区","address":"東京都目黒区八雲1丁目1-2","lat":35.62118352,"lon":139.67099324},{"name":"目黒区立碑文谷公園（旧第一勧業銀行グラウンド）","province":"東京都","city":"目黒区","address":"東京都目黒区碑文谷6丁目12-43","lat":35.62721368,"lon":139.68206437},{"name":"東京大学陸上競技場","province":"東京都","city":"目黒区","address":"東京都目黒区駒場3丁目8-1","lat":35.65931564,"lon":139.68524362},{"name":"駒沢オリンピック公園陸上競技場","province":"東京都","city":"目黒区","address":"東京都目黒区東が丘2丁目","lat":35.6300629,"lon":139.66396858},{"name":"大田区立平和島公園運動場","province":"東京都","city":"大田区","address":"東京都大田区平和島4丁目2-2","lat":35.58184851,"lon":139.74213343},{"name":"都立大井埠頭中央海浜公園第２球技場","province":"東京都","city":"大田区","address":"東京都大田区東海1丁目4","lat":35.58593444,"lon":139.74992159},{"name":"京浜島防災広場運動場","province":"東京都","city":"大田区","address":"東京都大田区京浜島2丁目10","lat":35.57091777,"lon":139.7634161},{"name":"丸子橋野球場","province":"東京都","city":"大田区","address":"東京都大田区田園調布本町31","lat":35.58310843,"lon":139.67183161},{"name":"多摩川緑地サッカー場","province":"東京都","city":"大田区","address":"東京都大田区田園調布5丁目54","lat":35.59239824,"lon":139.65872368},{"name":"多摩川緑地野球場（西六郷４丁目）","province":"東京都","city":"大田区","address":"東京都大田区西六郷4丁目33","lat":35.54406986,"lon":139.70286408},{"name":"ガス橋緑地少年サッカー場（下丸子３丁目）","province":"東京都","city":"大田区","address":"東京都大田区下丸子3丁目30","lat":35.5668806,"lon":139.68245956},{"name":"ガス橋緑地少年野球場（下丸子２丁目）","province":"東京都","city":"大田区","address":"東京都大田区下丸子2丁目13","lat":35.56350616,"lon":139.684143},{"name":"東京都保健医療公社荏原病院ヘリポート","province":"東京都","city":"大田区","address":"東京都大田区東雪谷4丁目5-10","lat":35.59460659,"lon":139.69367561},{"name":"東京ガスグラウンド","province":"東京都","city":"大田区","address":"東京都大田区大森東3丁目28-1","lat":35.57249131,"lon":139.7398702},{"name":"多摩川緑地広場硬式野球場Ａ面（旧巨人軍グラウンド）","province":"東京都","city":"大田区","address":"東京都大田区田園調布4丁目44","lat":35.59210389,"lon":139.66145123},{"name":"多摩川大師橋緑地野球場","province":"東京都","city":"大田区","address":"東京都大田区本羽田2丁目14","lat":35.54584467,"lon":139.73048361},{"name":"区民広場（西六郷三丁目）","province":"東京都","city":"大田区","address":"東京都大田区西六郷3丁目13","lat":35.54625004,"lon":139.70335835},{"name":"大田スタジアム","province":"東京都","city":"大田区","address":"東京都大田区東海1丁目2-10","lat":35.58843701,"lon":139.75284626},{"name":"六郷橋緑地野球場","province":"東京都","city":"大田区","address":"東京都大田区東六郷3丁目","lat":35.54202554,"lon":139.71164099},{"name":"多摩川田園調布緑地サッカー場","province":"東京都","city":"大田区","address":"東京都大田区田園調布4丁目","lat":35.59272877,"lon":139.66135396},{"name":"大田区立東調布公園","province":"東京都","city":"大田区","address":"東京都大田区南雪谷5丁目13-1","lat":35.58826574,"lon":139.68930418},{"name":"多摩川大橋緑地","province":"東京都","city":"大田区","address":"東京都大田区矢口3丁目","lat":35.56021468,"lon":139.69576395},{"name":"世田谷公園軟式野球場","province":"東京都","city":"世田谷区","address":"東京都世田谷区池尻1丁目5","lat":35.64370344,"lon":139.68164445},{"name":"駒沢大学祖師谷グラウンド","province":"東京都","city":"世田谷区","address":"東京都世田谷区上祖師谷2丁目8","lat":35.6578273,"lon":139.59866744},{"name":"都立砧公園","province":"東京都","city":"世田谷区","address":"東京都世田谷区砧公園1-1","lat":35.6291067,"lon":139.62140025},{"name":"都立祖師谷公園少年運動場","province":"東京都","city":"世田谷区","address":"東京都世田谷区上祖師谷3丁目22-19","lat":35.65691076,"lon":139.59935631},{"name":"二子玉川緑地運動場","province":"東京都","city":"世田谷区","address":"東京都世田谷区鎌田1丁目","lat":35.617339,"lon":139.61637665},{"name":"世田谷区立小泉公園","province":"東京都","city":"世田谷区","address":"東京都世田谷区駒沢2丁目42","lat":35.63735914,"lon":139.65608295},{"name":"世田谷区立赤松公園","province":"東京都","city":"世田谷区","address":"東京都世田谷区赤堤4丁目10","lat":35.66157812,"lon":139.64139726},{"name":"日本体育大学グラウンド","province":"東京都","city":"世田谷区","address":"東京都世田谷区深沢7丁目1","lat":35.62202455,"lon":139.64835067},{"name":"東京農業大学野球場","province":"東京都","city":"世田谷区","address":"東京都世田谷区桜丘1丁目1","lat":35.64010265,"lon":139.63202372},{"name":"成城学園グラウンド","province":"東京都","city":"世田谷区","address":"東京都世田谷区成城6丁目1","lat":35.64426794,"lon":139.60143164},{"name":"駒澤大学玉川校舎グラウンド","province":"東京都","city":"世田谷区","address":"東京都世田谷区宇奈根1丁目1-2","lat":35.61725287,"lon":139.6089136},{"name":"日本大学グラウンド","province":"東京都","city":"世田谷区","address":"東京都世田谷区桜上水3丁目25-40","lat":35.66200011,"lon":139.63425617},{"name":"日本女子体育大学グラウンド","province":"東京都","city":"世田谷区","address":"東京都世田谷区北烏山8丁目19-1","lat":35.67728871,"lon":139.59020359},{"name":"都立代々木公園競技場（織田フィールド）","province":"東京都","city":"渋谷区","address":"東京都渋谷区神南2丁目3-1","lat":35.66632898,"lon":139.69484253},{"name":"渋谷区立スポーツセンター","province":"東京都","city":"渋谷区","address":"東京都渋谷区西原1丁目40-18","lat":35.67556369,"lon":139.68096562},{"name":"都立広尾病院ヘリポート","province":"東京都","city":"渋谷区","address":"東京都渋谷区恵比寿2丁目34-10","lat":35.64707054,"lon":139.72073544},{"name":"日本赤十字社医療センターヘリポート","province":"東京都","city":"渋谷区","address":"東京都渋谷区広尾4丁目1-22","lat":35.65443909,"lon":139.71794375},{"name":"東京大学教育学部附属中等教育学校校庭","province":"東京都","city":"中野区","address":"東京都中野区南台1丁目15","lat":35.68530682,"lon":139.67376032},{"name":"都立武蔵丘高等学校校庭","province":"東京都","city":"中野区","address":"東京都中野区上鷺宮2丁目14-1","lat":35.72899512,"lon":139.63095098},{"name":"東京警察病院ヘリポート","province":"東京都","city":"中野区","address":"東京都中野区中野4丁目22-1","lat":35.70920915,"lon":139.65931337},{"name":"都立和田掘公園陸上競技場","province":"東京都","city":"杉並区","address":"東京都杉並区大宮1丁目6","lat":35.68397002,"lon":139.64332973},{"name":"済美山運動場広場","province":"東京都","city":"杉並区","address":"東京都杉並区堀ノ内1丁目15","lat":35.68507832,"lon":139.64686271},{"name":"ＮＨＫ旧富士見ヶ丘運動場","province":"東京都","city":"杉並区","address":"東京都杉並区久我山2丁目2-1","lat":35.68135258,"lon":139.60559113},{"name":"杉並区立柏の宮公園","province":"東京都","city":"杉並区","address":"東京都杉並区浜田山2丁目5-1","lat":35.67749532,"lon":139.62648411},{"name":"杉並区立井草森公園","province":"東京都","city":"杉並区","address":"東京都杉並区下井草4丁目12-14","lat":35.71990697,"lon":139.62165216},{"name":"豊島区立総合体育場一帯","province":"東京都","city":"豊島区","address":"東京都豊島区東池袋4丁目","lat":35.72638951,"lon":139.72040461},{"name":"学習院大学グラウンド","province":"東京都","city":"豊島区","address":"東京都豊島区目白","lat":35.7210371,"lon":139.71148892},{"name":"北区立中央公園野球場","province":"東京都","city":"北区","address":"東京都北区十条台1丁目2-1","lat":35.75320885,"lon":139.72756124},{"name":"北区立十条富士見中学校校庭","province":"東京都","city":"北区","address":"東京都北区十条台1丁目9-33","lat":35.75717496,"lon":139.72321144},{"name":"荒川下流岩淵場外","province":"東京都","city":"北区","address":"東京都北区志茂4丁目19-1","lat":35.78343288,"lon":139.73218195},{"name":"北区立北運動公園","province":"東京都","city":"北区","address":"東京都北区神谷2丁目47-6","lat":35.77383973,"lon":139.72797147},{"name":"北区立赤羽スポーツの森公園","province":"東京都","city":"北区","address":"東京都北区赤羽西5丁目2","lat":35.77326984,"lon":139.71003689},{"name":"北区立赤羽自然観察公園","province":"東京都","city":"北区","address":"東京都北区赤羽西5丁目2-34","lat":35.77431419,"lon":139.71157561},{"name":"新河岸東公園・浮間子どもスポーツ広場","province":"東京都","city":"北区","address":"東京都北区浮間4丁目27-1","lat":35.78904234,"lon":139.69236003},{"name":"豊島五丁目遊び場","province":"東京都","city":"北区","address":"東京都北区豊島5丁目6-1","lat":35.76470834,"lon":139.75516113},{"name":"国立西が丘サッカー場","province":"東京都","city":"北区","address":"東京都北区西が丘3丁目15","lat":35.76766219,"lon":139.70831224},{"name":"東尾久運動場多目的広場","province":"東京都","city":"荒川区","address":"東京都荒川区東尾久6丁目46","lat":35.74849157,"lon":139.77175799},{"name":"都立尾久の原公園多目的広場第二サッカーグラウンド","province":"東京都","city":"荒川区","address":"東京都荒川区東尾久7丁目1-1","lat":35.75213275,"lon":139.77513791},{"name":"都立汐入公園多目的広場","province":"東京都","city":"荒川区","address":"東京都荒川区南千住8丁目13","lat":35.73642518,"lon":139.81024806},{"name":"荒川区立南千住野球場","province":"東京都","city":"荒川区","address":"東京都荒川区南千住6丁目45","lat":35.73607733,"lon":139.79205464},{"name":"都立城北中央公園陸上競技場","province":"東京都","city":"板橋区","address":"東京都板橋区桜川1丁目4","lat":35.75681526,"lon":139.67436275},{"name":"板橋区立城北公園野球場","province":"東京都","city":"板橋区","address":"東京都板橋区坂下2丁目19-1","lat":35.78357064,"lon":139.68153885},{"name":"板橋区立東板橋公園グラウンド","province":"東京都","city":"板橋区","address":"東京都板橋区板橋3丁目50-1","lat":35.75398895,"lon":139.71224304},{"name":"荒川戸田橋緑地草地広場","province":"東京都","city":"板橋区","address":"東京都板橋区新河岸1丁目15","lat":35.79670152,"lon":139.66723994},{"name":"荒川戸田橋緑地野球場","province":"東京都","city":"板橋区","address":"東京都板橋区舟渡3丁目","lat":35.79449154,"lon":139.6825884},{"name":"板橋区立小豆沢公園","province":"東京都","city":"板橋区","address":"東京都板橋区小豆沢3丁目8","lat":35.77860211,"lon":139.69505179},{"name":"都立赤塚公園野球場","province":"東京都","city":"板橋区","address":"東京都板橋区高島平3丁目1","lat":35.78522804,"lon":139.65529951},{"name":"帝京大学医学部附属病院ヘリポート","province":"東京都","city":"板橋区","address":"東京都板橋区加賀2丁目11-1","lat":35.75922729,"lon":139.71498704},{"name":"東京都保健医療公社豊島病院ヘリポート","province":"東京都","city":"板橋区","address":"東京都板橋区栄町33-1","lat":35.75269994,"lon":139.70097739},{"name":"板橋区役所屋上","province":"東京都","city":"板橋区","address":"東京都板橋区板橋2丁目66-1","lat":35.75091701,"lon":139.70919342},{"name":"都立城北中央公園野球場","province":"東京都","city":"練馬区","address":"東京都練馬区氷川台1丁目6","lat":35.75399329,"lon":139.67112982},{"name":"都立城北中央公園陸上競技場","province":"東京都","city":"練馬区","address":"東京都練馬区氷川台1丁目3-1","lat":35.75657914,"lon":139.67298788},{"name":"練馬区立練馬総合運動場","province":"東京都","city":"練馬区","address":"東京都練馬区練馬2丁目29-10","lat":35.74518829,"lon":139.65316237},{"name":"都立光が丘公園陸上競技場","province":"東京都","city":"練馬区","address":"東京都練馬区光が丘4丁目1","lat":35.76779071,"lon":139.62921623},{"name":"都立石神井公園内Ｂ地区野球場","province":"東京都","city":"練馬区","address":"東京都練馬区石神井台1丁目26-1","lat":35.73900692,"lon":139.59757011},{"name":"都立大泉中央公園陸上競技場","province":"東京都","city":"練馬区","address":"東京都練馬区大泉学園町9丁目4-3","lat":35.77467193,"lon":139.59766904},{"name":"高野台運動場","province":"東京都","city":"練馬区","address":"東京都練馬区高野台3丁目8-8","lat":35.74368462,"lon":139.61252972},{"name":"練馬区役所屋上","province":"東京都","city":"練馬区","address":"東京都練馬区豊玉北6丁目12-1","lat":35.73558101,"lon":139.65167678},{"name":"豊島園","province":"東京都","city":"練馬区","address":"東京都練馬区向山3丁目25-1","lat":35.74410496,"lon":139.64799896},{"name":"練馬区立松の風公園（旧日銀運動場）","province":"東京都","city":"練馬区","address":"東京都練馬区石神井台1丁目33","lat":35.73939292,"lon":139.59470088},{"name":"足立区立千住新橋グラウンド（虹の広場）","province":"東京都","city":"足立区","address":"東京都足立区千住5丁目22","lat":35.75549987,"lon":139.8057852},{"name":"荒川西新井橋緑地グラウンド","province":"東京都","city":"足立区","address":"東京都足立区梅田3丁目5","lat":35.76227094,"lon":139.79617997},{"name":"都立東綾瀬公園東側野球場","province":"東京都","city":"足立区","address":"東京都足立区東綾瀬3丁目4","lat":35.77023453,"lon":139.83256528},{"name":"都立東綾瀬公園西側野球場","province":"東京都","city":"足立区","address":"東京都足立区綾瀬6丁目37","lat":35.77132878,"lon":139.82859614},{"name":"足立区立谷中公園野球場","province":"東京都","city":"足立区","address":"東京都足立区谷中2丁目23-36","lat":35.77618936,"lon":139.83499544},{"name":"足立区立平野運動場","province":"東京都","city":"足立区","address":"東京都足立区平野2丁目12-1","lat":35.78418247,"lon":139.80431995},{"name":"都立舎人公園管理事務所空地","province":"東京都","city":"足立区","address":"東京都足立区舎人公園","lat":35.79704103,"lon":139.76834198},{"name":"都立舎人公園陸上競技場","province":"東京都","city":"足立区","address":"東京都足立区舎人公園","lat":35.79704103,"lon":139.76834198},{"name":"都立舎人公園野球場","province":"東京都","city":"足立区","address":"東京都足立区舎人公園","lat":35.79704103,"lon":139.76834198},{"name":"足立区立保木間公園","province":"東京都","city":"足立区","address":"東京都足立区竹の塚","lat":35.79213976,"lon":139.79757301},{"name":"総合スポーツセンター","province":"東京都","city":"足立区","address":"東京都足立区東保木間","lat":35.79359268,"lon":139.81228565},{"name":"葛飾区立総合スポーツセンター陸上競技場","province":"東京都","city":"葛飾区","address":"東京都葛飾区奥戸7丁目17-1","lat":35.73772504,"lon":139.86210297},{"name":"都立水元公園駐車場","province":"東京都","city":"葛飾区","address":"東京都葛飾区水元公園4","lat":35.79240643,"lon":139.86812312},{"name":"都立水元公園多目的広場","province":"東京都","city":"葛飾区","address":"東京都葛飾区東金町8丁目31","lat":35.78263806,"lon":139.88528344},{"name":"葛飾区立柴又公園（矢切の渡し）","province":"東京都","city":"葛飾区","address":"東京都葛飾区柴又7丁目","lat":35.75767798,"lon":139.87675403},{"name":"新四つ木橋地区東岸","province":"東京都","city":"葛飾区","address":"東京都葛飾区東四つ木3丁目","lat":35.73102085,"lon":139.83684505},{"name":"葛飾区立奥戸運動場","province":"東京都","city":"葛飾区","address":"東京都葛飾区高砂1丁目","lat":35.74382707,"lon":139.86149721},{"name":"葛飾区立新小岩公園","province":"東京都","city":"葛飾区","address":"東京都葛飾区西新小岩1丁目1-3","lat":35.71611839,"lon":139.85476607},{"name":"都立葛西臨海公園第２駐車場","province":"東京都","city":"江戸川区","address":"東京都江戸川区臨海町6丁目2","lat":35.64164166,"lon":139.86520384},{"name":"都立葛西臨海公園多目的広場","province":"東京都","city":"江戸川区","address":"東京都江戸川区臨海町6丁目2","lat":35.64164166,"lon":139.86520384},{"name":"都立葛西海浜公園人口なぎさ","province":"東京都","city":"江戸川区","address":"東京都江戸川区臨海町6丁目","lat":35.6462852,"lon":139.85139641},{"name":"都立大島小松川公園（自由の広場）","province":"東京都","city":"江戸川区","address":"東京都江戸川区小松川1丁目7","lat":35.69216816,"lon":139.85200056},{"name":"江戸川区臨海球技場第二","province":"東京都","city":"江戸川区","address":"東京都江戸川区臨海町6丁目1","lat":35.64490485,"lon":139.85315466},{"name":"江戸川区球場","province":"東京都","city":"江戸川区","address":"東京都江戸川区北小岩4丁目38","lat":35.73930002,"lon":139.89605594},{"name":"江戸川区立篠崎緑地１９号地・１０号地","province":"東京都","city":"江戸川区","address":"東京都江戸川区篠崎町1丁目26","lat":35.70838102,"lon":139.90561435},{"name":"都立篠崎公園野球場（第２面）","province":"東京都","city":"江戸川区","address":"東京都江戸川区上篠崎1丁目25","lat":35.7146518,"lon":139.89798133},{"name":"区営河川敷広場","province":"東京都","city":"江戸川区","address":"東京都江戸川区上篠崎1丁目","lat":35.71365485,"lon":139.90170055},{"name":"区営河川敷グラウンド","province":"東京都","city":"江戸川区","address":"東京都江戸川区上篠崎3丁目","lat":35.71301614,"lon":139.8983508},{"name":"鹿骨スポーツ広場","province":"東京都","city":"江戸川区","address":"東京都江戸川区上篠崎4丁目5","lat":35.70850907,"lon":139.8962289},{"name":"北小岩４丁目グラウンド","province":"東京都","city":"江戸川区","address":"東京都江戸川区北小岩4丁目","lat":35.73853903,"lon":139.8951338},{"name":"清川河川敷広場","province":"東京都","city":"八王子市","address":"東京都八王子市清川町19","lat":35.67043837,"lon":139.31111937},{"name":"滝が原運動場","province":"東京都","city":"八王子市","address":"東京都八王子市高月町2401","lat":35.70420999,"lon":139.32938606},{"name":"八王子市立由木中学校校庭","province":"東京都","city":"八王子市","address":"東京都八王子市下柚木2丁目34-2","lat":35.62702284,"lon":139.38510899},{"name":"西寺方グラウンド野球場","province":"東京都","city":"八王子市","address":"東京都八王子市西寺方町626","lat":35.68011387,"lon":139.27269728},{"name":"拓殖大学グラウンド","province":"東京都","city":"八王子市","address":"東京都八王子市館町815-1","lat":35.62907928,"lon":139.27986556},{"name":"共立女子学園グラウンド","province":"東京都","city":"八王子市","address":"東京都八王子市元八王子町1丁目710","lat":35.66072221,"lon":139.28961323},{"name":"東海大学八王子病院へリポート","province":"東京都","city":"八王子市","address":"東京都八王子市石川町1838","lat":35.67377242,"lon":139.35707362},{"name":"元横山２号河川敷広場","province":"東京都","city":"八王子市","address":"東京都八王子市田町4","lat":35.66624502,"lon":139.33558406},{"name":"八王子市立富士森公園陸上競技場","province":"東京都","city":"八王子市","address":"東京都八王子市台町2丁目2","lat":35.65092139,"lon":139.3227357},{"name":"八王子市立大塚公園運動場","province":"東京都","city":"八王子市","address":"東京都八王子市松が谷66","lat":35.63167023,"lon":139.41335657},{"name":"東京医科大学八王子医療センターへリポート","province":"東京都","city":"八王子市","address":"東京都八王子市館町1163","lat":35.63195929,"lon":139.28900889},{"name":"首都大学東京南大沢キャンパスグラウンド","province":"東京都","city":"八王子市","address":"東京都八王子市南大沢1丁目1","lat":35.61654608,"lon":139.37719898},{"name":"国立病院機構災害医療センターヘリポート","province":"東京都","city":"立川市","address":"東京都立川市緑町3256","lat":35.70745023,"lon":139.4092319},{"name":"武蔵野陸上競技場","province":"東京都","city":"武蔵野市","address":"東京都武蔵野市吉祥寺北町5丁目11-20","lat":35.71788638,"lon":139.56758731},{"name":"都立武蔵野中央公園","province":"東京都","city":"武蔵野市","address":"東京都武蔵野市八幡町2丁目4-22","lat":35.718175,"lon":139.55645772},{"name":"武蔵野赤十字病院ヘリポート","province":"東京都","city":"武蔵野市","address":"東京都武蔵野市境南町1丁目26-1","lat":35.69687727,"lon":139.54853159},{"name":"三鷹市立第一中学校校庭","province":"東京都","city":"三鷹市","address":"東京都三鷹市下連雀9丁目10-1","lat":35.68538706,"lon":139.55970316},{"name":"三鷹市立大沢第二グラウンドサッカー場","province":"東京都","city":"三鷹市","address":"東京都三鷹市大沢5丁目21","lat":35.67102985,"lon":139.53154793},{"name":"杏林大学医学部付属病院ヘリポート","province":"東京都","city":"三鷹市","address":"東京都三鷹市新川6丁目20-2","lat":35.67747976,"lon":139.56650561},{"name":"立正佼成会青梅練成道場グラウンド","province":"東京都","city":"青梅市","address":"東京都青梅市小曾木2丁目450","lat":35.81221561,"lon":139.29602679},{"name":"明星大学青梅キャンパスグラウンド","province":"東京都","city":"青梅市","address":"東京都青梅市長淵2丁目590","lat":35.77275567,"lon":139.26727244},{"name":"青梅市市民球技場野球場","province":"東京都","city":"青梅市","address":"東京都青梅市河辺町1丁目872-1","lat":35.77784173,"lon":139.28723709},{"name":"青梅市立総合病院ヘリポート","province":"東京都","city":"青梅市","address":"東京都青梅市東青梅4丁目16-5","lat":35.78202441,"lon":139.28118194},{"name":"青梅市立第六小学校校庭","province":"東京都","city":"青梅市","address":"東京都青梅市二俣尾3丁目903-1","lat":35.80159313,"lon":139.2168608},{"name":"都立武蔵野の森公園朝日サッカー場","province":"東京都","city":"府中市","address":"東京都府中市朝日町3丁目","lat":35.6664691,"lon":139.5212629},{"name":"東京競馬場・日吉体育館駐車場","province":"東京都","city":"府中市","address":"東京都府中市八幡町3丁目11","lat":35.66652097,"lon":139.49086538},{"name":"東京競馬場","province":"東京都","city":"府中市","address":"東京都府中市日吉町1","lat":35.66537655,"lon":139.48689909},{"name":"稲城大橋河川敷","province":"東京都","city":"府中市","address":"東京都府中市押立町5丁目","lat":35.65279891,"lon":139.51860288},{"name":"関戸橋河川敷","province":"東京都","city":"府中市","address":"東京都府中市住吉町2丁目","lat":35.65711565,"lon":139.45856007},{"name":"府中市陸上競技場","province":"東京都","city":"府中市","address":"東京都府中市寿町2丁目20","lat":35.67664722,"lon":139.47528856},{"name":"都立多摩・小児総合医療センターヘリポート","province":"東京都","city":"府中市","address":"東京都府中市武蔵台2丁目8-29","lat":35.69188402,"lon":139.46098088},{"name":"郷土の森公園（是政緑地）","province":"東京都","city":"府中市","address":"東京都府中市是政6丁目","lat":35.656008,"lon":139.48189143},{"name":"都立府中の森公園サッカー場","province":"東京都","city":"府中市","address":"東京都府中市浅間町1丁目","lat":35.6770059,"lon":139.49241491},{"name":"昭島市立大神公園・市立多摩川緑地くじら運動公園","province":"東京都","city":"昭島市","address":"東京都昭島市宮沢町3丁目17","lat":35.69509229,"lon":139.36457787},{"name":"昭和の森ゴルフコース（アウトコース７番）","province":"東京都","city":"昭島市","address":"東京都昭島市つつじが丘1丁目1-7","lat":35.72342513,"lon":139.3692435},{"name":"調布市立調布市民野球場","province":"東京都","city":"調布市","address":"東京都調布市染地2丁目43-1","lat":35.64025186,"lon":139.54681004},{"name":"調布市立調布中学校校庭","province":"東京都","city":"調布市","address":"東京都調布市富士見町4丁目17-1","lat":35.66535009,"lon":139.53516172},{"name":"調布市立第八中学校校庭","province":"東京都","city":"調布市","address":"東京都調布市仙川町2丁目15-2","lat":35.66445108,"lon":139.58169365},{"name":"調布市立第四中学校校庭","province":"東京都","city":"調布市","address":"東京都調布市若葉町3丁目15-1","lat":35.65392455,"lon":139.58283002},{"name":"調布市立第三中学校校庭","province":"東京都","city":"調布市","address":"東京都調布市染地3丁目2-7","lat":35.6414069,"lon":139.55643366},{"name":"調布市立神代中学校校庭","province":"東京都","city":"調布市","address":"東京都調布市佐須町5丁目26-1","lat":35.66162316,"lon":139.5616816},{"name":"調布市立布田小学校校庭","province":"東京都","city":"調布市","address":"東京都調布市染地1丁目1-85","lat":35.64330667,"lon":139.54542083},{"name":"調布市立第三小学校校庭","province":"東京都","city":"調布市","address":"東京都調布市上石原2丁目19-13","lat":35.65473491,"lon":139.52783806},{"name":"調布市立北ノ台小学校校庭","province":"東京都","city":"調布市","address":"東京都調布市深大寺北町2丁目41-1","lat":35.67543247,"lon":139.55284301},{"name":"神代植物公園","province":"東京都","city":"調布市","address":"東京都調布市深大寺元町5丁目","lat":35.66837758,"lon":139.54571333},{"name":"大町スポーツ施設大運動場","province":"東京都","city":"調布市","address":"東京都調布市菊野台3丁目27-40","lat":35.65252451,"lon":139.5724838},{"name":"町田市立町田市民球場","province":"東京都","city":"町田市","address":"東京都町田市旭町3丁目20-60","lat":35.55634896,"lon":139.44662554},{"name":"町田市鶴見川クリーンセンター","province":"東京都","city":"町田市","address":"東京都町田市三輪緑山1丁目1","lat":35.56975115,"lon":139.48945637},{"name":"日本大学第三高等学校運動場","province":"東京都","city":"町田市","address":"東京都町田市図師町11-2375","lat":35.59196136,"lon":139.41930483},{"name":"法政大学プレイグラウンド","province":"東京都","city":"町田市","address":"東京都町田市相原町4342","lat":35.61340443,"lon":139.29763694},{"name":"町田市立野津田公園陸上競技場","province":"東京都","city":"町田市","address":"東京都町田市野津田町2035","lat":35.59190908,"lon":139.43862536},{"name":"日向山公園野球場（藤の台球場）","province":"東京都","city":"町田市","address":"東京都町田市本町田3486","lat":35.56881998,"lon":139.44800563},{"name":"町田市立町田中央公園","province":"東京都","city":"町田市","address":"東京都町田市旭町3丁目20-60","lat":35.55634896,"lon":139.44662554},{"name":"町田市立リサイクルセンター","province":"東京都","city":"町田市","address":"東京都町田市下小山田町3160","lat":35.58679242,"lon":139.41140293},{"name":"都立小金井公園","province":"東京都","city":"小金井市","address":"東京都小金井市関野町1丁目","lat":35.71343867,"lon":139.51977227},{"name":"丸井小金井総合グラウンド","province":"東京都","city":"小平市","address":"東京都小平市花小金井8丁目25-1","lat":35.73125838,"lon":139.50415049},{"name":"千代田区花小金井グラウンド","province":"東京都","city":"小平市","address":"東京都小平市花小金井南町3丁目2","lat":35.72044891,"lon":139.51886641},{"name":"小平市立中央公園グラウンド","province":"東京都","city":"小平市","address":"東京都小平市津田町1丁目1","lat":35.72249436,"lon":139.46201018},{"name":"東光寺グラウンド","province":"東京都","city":"日野市","address":"東京都日野市栄町5丁目5","lat":35.68608814,"lon":139.38274327},{"name":"浅川スポーツ広場","province":"東京都","city":"日野市","address":"東京都日野市万願寺5丁目3","lat":35.66786596,"lon":139.41298862},{"name":"豊田児童グラウンド","province":"東京都","city":"日野市","address":"東京都日野市豊田1丁目3","lat":35.65792487,"lon":139.38949084},{"name":"多摩川総合グラウンド","province":"東京都","city":"日野市","address":"東京都日野市万願寺1丁目1-2","lat":35.67381832,"lon":139.42369866},{"name":"杉野女子大学日野キャンパス","province":"東京都","city":"日野市","address":"東京都日野市百草1006","lat":35.64705754,"lon":139.42177197},{"name":"市民の森スポーツ公園","province":"東京都","city":"日野市","address":"東京都日野市日野本町7丁目12","lat":35.67999207,"lon":139.4022724},{"name":"日野市立多摩平第一公園","province":"東京都","city":"日野市","address":"東京都日野市多摩平4丁目2","lat":35.66661255,"lon":139.37938586},{"name":"平山台健康・市民支援センター","province":"東京都","city":"日野市","address":"東京都日野市平山2丁目1-1","lat":35.64097677,"lon":139.38713883},{"name":"万願寺中央公園グラウンド","province":"東京都","city":"日野市","address":"東京都日野市万願寺4丁目20-11","lat":35.67042683,"lon":139.41514947},{"name":"東村山市立東村山運動公園","province":"東京都","city":"東村山市","address":"東京都東村山市恩多町1丁目51-1","lat":35.75413874,"lon":139.48959805},{"name":"経済産業研究所グラウンド","province":"東京都","city":"東村山市","address":"東京都東村山市富士見町5丁目4-36","lat":35.74688305,"lon":139.45748178},{"name":"都立東村山中央公園","province":"東京都","city":"東村山市","address":"東京都東村山市富士見町5丁目","lat":35.74535555,"lon":139.46071488},{"name":"国分寺市立窪東公園","province":"東京都","city":"国分寺市","address":"東京都国分寺市東戸倉2丁目19","lat":35.71561748,"lon":139.46532404},{"name":"一橋大学グラウンド","province":"東京都","city":"国立市","address":"東京都国立市中2丁目1","lat":35.69427214,"lon":139.44260462},{"name":"福生市立多摩川緑地福生南公園","province":"東京都","city":"福生市","address":"東京都福生市南田園1丁目1-1","lat":35.71975535,"lon":139.33089655},{"name":"加美平野球場","province":"東京都","city":"福生市","address":"東京都福生市加美平1丁目21","lat":35.75075425,"lon":139.3271652},{"name":"狛江市立多摩川緑地公園グラウンド","province":"東京都","city":"狛江市","address":"東京都狛江市猪方4丁目","lat":35.62390138,"lon":139.57723281},{"name":"防衛省共済組合狛江スポーツセンター","province":"東京都","city":"狛江市","address":"東京都狛江市元和泉2丁目30","lat":35.63228871,"lon":139.5684829},{"name":"都立東大和南公園","province":"東京都","city":"東大和市","address":"東京都東大和市桜が丘2丁目106-2","lat":35.73352264,"lon":139.42463515},{"name":"東大和市立第６小学校校庭","province":"東京都","city":"東大和市","address":"東京都東大和市仲原1丁目5-1","lat":35.74447733,"lon":139.44344144},{"name":"東京都共済組合清瀬運動場","province":"東京都","city":"清瀬市","address":"東京都清瀬市竹丘3丁目10-5","lat":35.76460172,"lon":139.5013023},{"name":"東久留米市立滝山公園","province":"東京都","city":"東久留米市","address":"東京都東久留米市滝山2丁目4","lat":35.74556523,"lon":139.51002988},{"name":"柳泉園組合グラウンド","province":"東京都","city":"東久留米市","address":"東京都東久留米市下里4丁目3-10","lat":35.75475824,"lon":139.49449483},{"name":"東京経済大学運動場","province":"東京都","city":"武蔵村山市","address":"東京都武蔵村山市学園5丁目22-1","lat":35.74428181,"lon":139.39444868},{"name":"多摩市立多摩市東公園陸上競技場","province":"東京都","city":"多摩市","address":"東京都多摩市諏訪4丁目9","lat":35.62459204,"lon":139.46102787},{"name":"多摩市立関戸公園グラウンド","province":"東京都","city":"多摩市","address":"東京都多摩市関戸3丁目5","lat":35.65016368,"lon":139.45949912},{"name":"宝野公園","province":"東京都","city":"多摩市","address":"東京都多摩市落合5丁目5","lat":35.61428925,"lon":139.42303984},{"name":"稲城市立中央公園総合グラウンド","province":"東京都","city":"稲城市","address":"東京都稲城市長峰1丁目1","lat":35.63011248,"lon":139.48798717},{"name":"稲城市立南山グラウンド","province":"東京都","city":"稲城市","address":"東京都稲城市東長沼2406-1","lat":35.63525992,"lon":139.50477484},{"name":"学校法人菅生学園初等学校校庭","province":"東京都","city":"あきる野市","address":"東京都あきる野市菅生1468","lat":35.7561553,"lon":139.28712116},{"name":"市民運動場","province":"東京都","city":"あきる野市","address":"東京都あきる野市二宮683","lat":35.73040042,"lon":139.30224009},{"name":"あきる野市立小和田グラウンド","province":"東京都","city":"あきる野市","address":"東京都あきる野市小和田8","lat":35.72234618,"lon":139.22531468},{"name":"富士通株式会社あきる野テクノロジーセンター駐車場","province":"東京都","city":"あきる野市","address":"東京都あきる野市渕上50","lat":35.73065782,"lon":139.27354552},{"name":"五日市カントリー","province":"東京都","city":"あきる野市","address":"東京都あきる野市網代745","lat":35.71640895,"lon":139.25022007},{"name":"立川国際カントリー","province":"東京都","city":"あきる野市","address":"東京都あきる野市草花2390","lat":35.75056749,"lon":139.30485031},{"name":"都立秋留台公園陸上競技場","province":"東京都","city":"あきる野市","address":"東京都あきる野市二宮","lat":35.72746496,"lon":139.31077004},{"name":"向台運動場","province":"東京都","city":"西東京市","address":"東京都西東京市向台町5丁目4-44","lat":35.72149068,"lon":139.52844608},{"name":"西東京市立文理台公園","province":"東京都","city":"西東京市","address":"東京都西東京市東町1丁目4","lat":35.74431377,"lon":139.56142287},{"name":"石畑公園","province":"東京都","city":"西多摩郡瑞穂町","address":"東京都西多摩郡瑞穂町石畑（大字）","lat":35.76716696,"lon":139.35720097},{"name":"瑞穂ビューパーク競技場","province":"東京都","city":"西多摩郡瑞穂町","address":"東京都西多摩郡瑞穂町箱根ケ崎（大字）2475","lat":35.77460487,"lon":139.35533972},{"name":"町営第２グラウンド","province":"東京都","city":"西多摩郡瑞穂町","address":"東京都西多摩郡瑞穂町箱根ケ崎西松原33-1","lat":35.77001618,"lon":139.33711925},{"name":"亜細亜大学日の出グラウンド","province":"東京都","city":"西多摩郡日の出町","address":"東京都西多摩郡日の出町平井（大字）1466","lat":35.73682361,"lon":139.26896791},{"name":"谷戸沢グラウンド","province":"東京都","city":"西多摩郡日の出町","address":"東京都西多摩郡日の出町平井（大字）3141","lat":35.75159946,"lon":139.25658506},{"name":"やすらぎの里（原則特異災害のみ）","province":"東京都","city":"西多摩郡檜原村","address":"東京都西多摩郡檜原村三都郷2717","lat":35.7353041,"lon":139.14364675},{"name":"檜原総合グラウンド","province":"東京都","city":"西多摩郡檜原村","address":"東京都西多摩郡檜原村三都郷","lat":35.74083426,"lon":139.13527251},{"name":"登計原山林広場運動公園","province":"東京都","city":"西多摩郡奥多摩町","address":"東京都西多摩郡奥多摩町氷川940","lat":35.80334886,"lon":139.09433293},{"name":"小河内ダム緊急離着陸場","province":"東京都","city":"西多摩郡奥多摩町","address":"東京都西多摩郡奥多摩町原5","lat":35.79240913,"lon":139.04891347},{"name":"町立古里小学校校庭","province":"東京都","city":"西多摩郡奥多摩町","address":"東京都西多摩郡奥多摩町小丹波75","lat":35.81497705,"lon":139.15089924},{"name":"差木地ヘリコプター臨時着陸広場","province":"長崎県","city":"西海市","address":"長崎県西海市大島町","lat":33.0361211,"lon":129.6191306},{"name":"トウシキヘリコプター臨時着陸広","province":"長崎県","city":"西海市","address":"長崎県西海市大島町","lat":33.0361211,"lon":129.6191306},{"name":"利島臨時ヘリポート","province":"東京都","city":"","address":"東京都利島村","lat":34.52913806,"lon":139.28194827},{"name":"式根島臨時ヘリポート","province":"東京都","city":"新島村","address":"東京都新島村式根島","lat":34.32432977,"lon":139.21927444},{"name":"神津島臨時ヘリポート","province":"東京都","city":"神津島村","address":"東京都神津島村","lat":34.20526867,"lon":139.13425768},{"name":"御蔵島臨時ヘリポート","province":"東京都","city":"御蔵島村","address":"東京都御蔵島村","lat":33.89736534,"lon":139.59611904},{"name":"冨士中学校","province":"東京都","city":"八丈町","address":"東京都八丈町","lat":33.11274212,"lon":139.78906712},{"name":"冨士野球場","province":"東京都","city":"八丈町","address":"東京都八丈町","lat":33.11274212,"lon":139.78906712},{"name":"大賀郷中学校","province":"東京都","city":"八丈町","address":"東京都八丈町","lat":33.11274212,"lon":139.78906712},{"name":"三原中学校","province":"東京都","city":"八丈町","address":"東京都八丈町","lat":33.11274212,"lon":139.78906712},{"name":"末吉中学校","province":"東京都","city":"八丈町","address":"東京都八丈町","lat":33.11274212,"lon":139.78906712},{"name":"樫立小学校","province":"東京都","city":"八丈町","address":"東京都八丈町","lat":33.11274212,"lon":139.78906712},{"name":"青ヶ島臨時ヘリポート","province":"東京都","city":"青ヶ島村","address":"東京都青ヶ島村","lat":32.4664592,"lon":139.76331416},{"name":"母島臨時ヘリポート","province":"東京都","city":"小笠原村","address":"東京都小笠原村","lat":27.09435777,"lon":142.19190714},{"name":"第二庁舎（防災センター）","province":"東京都","city":"品川区","address":"東京都品川区広町2丁目1-36","lat":35.60881128,"lon":139.73028866},{"name":"品川学園（義務教育学校）","province":"東京都","city":"品川区","address":"東京都品川区北品川3丁目9-30","lat":35.61808545,"lon":139.73813771},{"name":"品川区北品川3-11-22","province":"愛知県","city":"稲沢市","address":"愛知県稲沢市高御堂10丁目","lat":35.24652433,"lon":136.79882196},{"name":"御殿山小学校","province":"東京都","city":"品川区","address":"東京都品川区北品川5丁目2-6","lat":35.62325687,"lon":139.7322991},{"name":"城南小学校","province":"東京都","city":"品川区","address":"東京都品川区南品川2丁目8-21","lat":35.61243628,"lon":139.74327917},{"name":"品川区立障害児者総合支援施設","province":"東京都","city":"品川区","address":"東京都品川区南品川3丁目7-7","lat":35.60719533,"lon":139.74482093},{"name":"台場小学校","province":"東京都","city":"品川区","address":"東京都品川区東品川1丁目8-30","lat":35.62095193,"lon":139.74360659},{"name":"東品川高齢者施設（福栄会）","province":"東京都","city":"品川区","address":"東京都品川区東品川3丁目1-8","lat":35.61714416,"lon":139.74681759},{"name":"ファミーユ下神明","province":"東京都","city":"品川区","address":"東京都品川区西品川1丁目20-16","lat":35.61014164,"lon":139.72910815},{"name":"しながわ中央公園（管理棟）","province":"東京都","city":"品川区","address":"東京都品川区西品川1丁目27-14","lat":35.60922229,"lon":139.72882487},{"name":"中小企業センター","province":"東京都","city":"品川区","address":"東京都品川区西品川1丁目28-3","lat":35.60930836,"lon":139.72772495},{"name":"芳水小学校","province":"東京都","city":"品川区","address":"東京都品川区大崎3丁目12-22","lat":35.61922938,"lon":139.72504708},{"name":"第三日野小学校（北棟・南棟）","province":"東京都","city":"品川区","address":"東京都品川区上大崎1丁目19-19","lat":35.6328,"lon":139.72381895},{"name":"上大崎特別養護老人ホーム","province":"東京都","city":"品川区","address":"東京都品川区上大崎3丁目10-7","lat":35.63317209,"lon":139.71838332},{"name":"品川区東五反田2-11-1","province":"愛知県","city":"稲沢市","address":"愛知県稲沢市高御堂10丁目","lat":35.24652433,"lon":136.79882196},{"name":"品川区西五反田3-6-6","province":"愛知県","city":"稲沢市","address":"愛知県稲沢市高御堂10丁目","lat":35.24652433,"lon":136.79882196},{"name":"ファミーユ西五反田（東館）","province":"東京都","city":"品川区","address":"東京都品川区西五反田3丁目6-38","lat":35.62737829,"lon":139.71807797},{"name":"大井三丁目高齢者憩いの場","province":"東京都","city":"品川区","address":"東京都品川区大井3丁目17-16","lat":35.60200376,"lon":139.73054998},{"name":"伊藤学園（義務教育学校）","province":"東京都","city":"品川区","address":"東京都品川区大井5丁目1-37","lat":35.60002607,"lon":139.72608094},{"name":"大井認知症高齢者グループホーム","province":"東京都","city":"品川区","address":"東京都品川区大井6丁目20-5","lat":35.59451859,"lon":139.73041417},{"name":"浜川中学校","province":"東京都","city":"品川区","address":"東京都品川区東大井3丁目18-34","lat":35.60019873,"lon":139.73794395},{"name":"大井林町高齢者複合施設","province":"東京都","city":"品川区","address":"東京都品川区東大井4丁目9-1","lat":35.60534262,"lon":139.74026579},{"name":"立会小学校","province":"東京都","city":"品川区","address":"東京都品川区東大井4丁目15-9","lat":35.60446772,"lon":139.74019083},{"name":"総合区民会館（きゅりあん）","province":"東京都","city":"品川区","address":"東京都品川区東大井5丁目18-1","lat":35.60615069,"lon":139.73588831},{"name":"冨士見台中学校","province":"東京都","city":"品川区","address":"東京都品川区西大井5丁目5-14","lat":35.59855372,"lon":139.71526242},{"name":"伊藤小学校","province":"東京都","city":"品川区","address":"東京都品川区西大井5丁目6-8","lat":35.59875374,"lon":139.71727891},{"name":"浜川小学校","province":"東京都","city":"品川区","address":"東京都品川区南大井4丁目3-27","lat":35.59816556,"lon":139.73587474},{"name":"品川区南大井5-19-1","province":"愛知県","city":"稲沢市","address":"愛知県稲沢市高御堂10丁目","lat":35.24652433,"lon":136.79882196},{"name":"品川区荏原2-9-6","province":"愛知県","city":"稲沢市","address":"愛知県稲沢市高御堂10丁目","lat":35.24652433,"lon":136.79882196},{"name":"スクエア荏原","province":"東京都","city":"品川区","address":"東京都品川区荏原4丁目5-28","lat":35.61532948,"lon":139.70754869},{"name":"武蔵小山創業支援センター","province":"東京都","city":"品川区","address":"東京都品川区小山3丁目27-5","lat":35.61975392,"lon":139.70336836},{"name":"小山小学校","province":"東京都","city":"品川区","address":"東京都品川区小山5丁目10-6","lat":35.61600158,"lon":139.70324905},{"name":"荏原第六中学校","province":"東京都","city":"品川区","address":"東京都品川区小山5丁目20-19","lat":35.61636261,"lon":139.69987711},{"name":"品川区戸越1-15-23","province":"愛知県","city":"稲沢市","address":"愛知県稲沢市高御堂10丁目","lat":35.24652433,"lon":136.79882196},{"name":"大原小学校","province":"東京都","city":"品川区","address":"東京都品川区戸越6丁目17-3","lat":35.60732217,"lon":139.71599819},{"name":"品川区西中延1-2-8","province":"愛知県","city":"稲沢市","address":"愛知県稲沢市高御堂10丁目","lat":35.24652433,"lon":136.79882196},{"name":"第二延山小学校","province":"東京都","city":"品川区","address":"東京都品川区旗の台1丁目6-1","lat":35.61011893,"lon":139.70361308},{"name":"旗台小学校","province":"東京都","city":"品川区","address":"東京都品川区旗の台4丁目7-11","lat":35.60335298,"lon":139.70419377},{"name":"荏原第五中学校","province":"東京都","city":"品川区","address":"東京都品川区旗の台5丁目11-13","lat":35.60315575,"lon":139.70210231},{"name":"荏原第三地域センター","province":"東京都","city":"品川区","address":"東京都品川区平塚1丁目13-18","lat":35.61339371,"lon":139.71541195},{"name":"平塚高齢者多世代交流支援施設","province":"東京都","city":"品川区","address":"東京都品川区平塚2丁目10-20","lat":35.61690441,"lon":139.71395365},{"name":"豊葉の杜学園（義務教育学校）","province":"東京都","city":"品川区","address":"東京都品川区二葉1丁目3-40","lat":35.60733629,"lon":139.72556962},{"name":"杜松高齢者施設","province":"東京都","city":"品川区","address":"東京都品川区豊町4丁目24-15","lat":35.60627797,"lon":139.72308096},{"name":"資源化センター","province":"東京都","city":"品川区","address":"東京都品川区八潮1丁目4-1","lat":35.60946205,"lon":139.75402291},{"name":"こみゅにてぃぷらざ八潮","province":"東京都","city":"品川区","address":"東京都品川区八潮5丁目9-11","lat":35.59808293,"lon":139.75241801},{"name":"日光しながわ光林荘","province":"栃木県","city":"日光市","address":"栃木県日光市細尾町676-1","lat":36.73011072,"lon":139.55532605},{"name":"品川荘","province":"静岡県","city":"伊東市","address":"静岡県伊東市広野1丁目3-17","lat":34.96279801,"lon":139.09145618},{"name":"都立シンボルプロムナード公園","province":"東京都","city":"江東区","address":"東京都江東区青海1丁目","lat":35.62481633,"lon":139.77819791},{"name":"荒川下流岩淵場外","province":"東京都","city":"北区","address":"東京都北区志茂4丁目19-1","lat":35.78343288,"lon":139.73218195},{"name":"御蔵島観光資料館（郷土資料館）","province":"東京都","city":"御蔵島村","address":"御蔵島村おうし屋敷","lat":33.864521,"lon":139.587952},{"name":"三宅村青年館","province":"東京都","city":"三宅村","address":"三宅村阿古700-4","lat":34.060471,"lon":139.482101},{"name":"三宅村立図書館","province":"東京都","city":"三宅村","address":"三宅村阿古497","lat":34.076126,"lon":139.479889},{"name":"三宅島郷土資料館","province":"東京都","city":"三宅村","address":"三宅村阿古497","lat":34.076126,"lon":139.479889},{"name":"三宅村文化会館","province":"東京都","city":"三宅村","address":"三宅村坪田3050","lat":34.058949,"lon":139.548233},{"name":"三宅村コミュニティセンター","province":"東京都","city":"三宅村","address":"三宅村伊ヶ谷330","lat":34.099834,"lon":139.491226},{"name":"品川都税事務所","province":"東京都","city":"品川区","address":"東京都品川区広町2-1-36","lat":35.6089834,"lon":139.7302954},{"name":"鮫洲運転免許試験場","province":"東京都","city":"品川区","address":"東京都品川区東大井1-12-5","lat":35.6033213,"lon":139.7464659},{"name":"品川児童相談所","province":"東京都","city":"品川区","address":"東京都品川区北品川3-7-21","lat":35.6175581,"lon":139.7404569},{"name":"品川警察署","province":"東京都","city":"品川区","address":"東京都品川区東品川3-14-32","lat":35.6139521,"lon":139.7454043},{"name":"大崎警察署","province":"東京都","city":"品川区","address":"東京都品川区大崎4-2-10","lat":35.6217304,"lon":139.7241517},{"name":"大井警察署","province":"東京都","city":"品川区","address":"東京都品川区大井5-10-2","lat":35.5987968,"lon":139.7298873},{"name":"荏原警察署","province":"東京都","city":"品川区","address":"東京都品川区荏原6-19-10","lat":35.6120733,"lon":139.7061891},{"name":"東京水上警察署","province":"東京都","city":"品川区","address":"東京都品川区港区港南5-8-36","lat":35.6323499,"lon":139.7550883},{"name":"品川消防署","province":"東京都","city":"品川区","address":"東京都品川区北品川3-7-31","lat":35.6171422,"lon":139.7398073},{"name":"品川消防署東品川出張所","province":"東京都","city":"品川区","address":"東京都品川区東品川3-25-11","lat":35.6128705,"lon":139.7473344},{"name":"品川消防署大崎出張所","province":"東京都","city":"品川区","address":"東京都品川区大崎2-8-27","lat":35.6133836,"lon":139.731659},{"name":"品川消防署五反田出張所","province":"東京都","city":"品川区","address":"東京都品川区西五反田7-25-14","lat":35.6200165,"lon":139.7187382},{"name":"大井消防署","province":"東京都","city":"品川区","address":"東京都品川区東大井3-6-12","lat":35.6034742,"lon":139.7401437},{"name":"大井消防署滝王子出張所","province":"東京都","city":"品川区","address":"東京都品川区大井5-17-9","lat":35.5983307,"lon":139.7281165},{"name":"大井消防署八潮出張所","province":"東京都","city":"品川区","address":"東京都品川区八潮5-8-3","lat":35.5971201,"lon":139.7515991},{"name":"荏原消防署","province":"東京都","city":"品川区","address":"東京都品川区平塚3-16-20","lat":35.6148569,"lon":139.7105344},{"name":"荏原消防署戸越出張所","province":"東京都","city":"品川区","address":"東京都品川区戸越5-20-15","lat":35.6083098,"lon":139.7187484},{"name":"荏原消防署小山出張所","province":"東京都","city":"品川区","address":"東京都品川区小山5-12-11","lat":35.6160664,"lon":139.7022552},{"name":"荏原消防署旗の台出張所","province":"東京都","city":"品川区","address":"東京都品川区旗の台6-24-11","lat":35.60578,"lon":139.7000222},{"name":"品川税務署","province":"東京都","city":"品川区","address":"東京都品川区港区高輪3-13-22","lat":35.6296746,"lon":139.734836},{"name":"荏原税務署","province":"東京都","city":"品川区","address":"東京都品川区中延1-1-5","lat":35.613837,"lon":139.7097508},{"name":"品川自動車税事務所","province":"東京都","city":"品川区","address":"東京都品川区東大井1-12-18","lat":35.60493,"lon":139.7473986},{"name":"関東運輸局東京陸運支局","province":"東京都","city":"品川区","address":"東京都品川区東大井1-12-17","lat":35.6046993,"lon":139.7469919},{"name":"品川郵便局","province":"東京都","city":"品川区","address":"東京都品川区東大井5-23-34","lat":35.6050717,"lon":139.7361881},{"name":"大崎郵便局","province":"東京都","city":"品川区","address":"東京都品川区西五反田2-32-7","lat":35.6252595,"lon":139.7189457},{"name":"荏原郵便局","province":"東京都","city":"品川区","address":"東京都品川区西中延1-7-23","lat":35.612713,"lon":139.7073544},{"name":"水道局品川営業所","province":"東京都","city":"品川区","address":"東京都品川区西中延1-9-10","lat":35.6116016,"lon":139.7078304},{"name":"下水道局南部下水道事務所品川出張所","province":"東京都","city":"品川区","address":"東京都品川区西品川1-8-1","lat":35.6129282,"lon":139.7301521},{"name":"品川年金事務所","province":"東京都","city":"品川区","address":"東京都品川区大崎5-1-5高徳ビル","lat":35.6236396,"lon":139.7248636},{"name":"品川労働基準監督署","province":"東京都","city":"品川区","address":"東京都品川区東五反田2-6-17","lat":35.6296077,"lon":139.7190353},{"name":"東京法務局品川出張所（登記所）","province":"東京都","city":"品川区","address":"東京都品川区広町2-1-36品川区総合庁舎","lat":35.6090951,"lon":139.7302296},{"name":"五反田公証役場","province":"東京都","city":"品川区","address":"東京都品川区東五反田5-27-6","lat":35.6270162,"lon":139.7234544},{"name":"目黒公証役場","province":"東京都","city":"品川区","address":"東京都品川区上大崎2-17-5","lat":35.6355392,"lon":139.7150243},{"name":"大森公証役場","province":"東京都","city":"品川区","address":"東京都品川区南大井6-12-12","lat":35.5871233,"lon":139.7301537},{"name":"五反田駅","province":"東京都","city":"品川区","address":"東京都品川区東五反田1丁目26-2","lat":35.6260453,"lon":139.7235869},{"name":"大崎駅","province":"東京都","city":"品川区","address":"東京都品川区大崎1丁目21-4","lat":35.6190999,"lon":139.7285802},{"name":"大井町駅","province":"東京都","city":"品川区","address":"東京都品川区大井1丁目2-12","lat":35.607536,"lon":139.7349666},{"name":"西大井町駅","province":"東京都","city":"品川区","address":"東京都品川区西大井1丁目3-2","lat":35.601478,"lon":139.721434},{"name":"不動前駅","province":"東京都","city":"品川区","address":"東京都品川区西五反田5丁目12-1","lat":35.6254279,"lon":139.7132457},{"name":"武蔵小山駅","province":"東京都","city":"品川区","address":"東京都品川区小山3丁目4-8","lat":35.6206461,"lon":139.7047325},{"name":"大崎広小路駅","province":"東京都","city":"品川区","address":"東京都品川区大崎4丁目1-1","lat":35.6224256,"lon":139.722493},{"name":"荏原中延駅","province":"東京都","city":"品川区","address":"東京都品川区中延2丁目8-1","lat":35.6098891,"lon":139.7119465},{"name":"旗の台駅","province":"東京都","city":"品川区","address":"東京都品川区旗の台2丁目13-1","lat":35.604834,"lon":139.7027961},{"name":"下神明駅","province":"東京都","city":"品川区","address":"東京都品川区西品川1丁目29-6","lat":35.6087526,"lon":139.7264653},{"name":"戸越公園駅","province":"東京都","city":"品川区","address":"東京都品川区戸越5丁目10-15","lat":35.6089987,"lon":139.7184968},{"name":"東急中延駅","province":"東京都","city":"品川区","address":"東京都品川区東中延2丁目9-12","lat":35.6057842,"lon":139.7126428},{"name":"北品川駅","province":"東京都","city":"品川区","address":"東京都品川区北品川1丁目1-4","lat":35.6225433,"lon":139.7392315},{"name":"新馬場駅","province":"東京都","city":"品川区","address":"東京都品川区北品川2丁目18-1","lat":35.6170364,"lon":139.7414247},{"name":"青物横丁駅","province":"東京都","city":"品川区","address":"東京都品川区南品川3丁目1-20","lat":35.6090709,"lon":139.7431279},{"name":"鮫洲駅","province":"東京都","city":"品川区","address":"東京都品川区東大井1丁目2-20","lat":35.6051498,"lon":139.7424961},{"name":"立会川駅","province":"東京都","city":"品川区","address":"東京都品川区東大井2丁目23-1","lat":35.5986501,"lon":139.7389746},{"name":"大森海岸駅","province":"東京都","city":"品川区","address":"東京都品川区南大井3丁目32-1","lat":35.5874923,"lon":139.7352991},{"name":"戸越駅","province":"東京都","city":"品川区","address":"東京都品川区戸越3丁目4-17","lat":35.6143511,"lon":139.716256},{"name":"都営中延駅","province":"東京都","city":"品川区","address":"東京都品川区東中延2丁目9-12","lat":35.6055999,"lon":139.7135855},{"name":"天王洲アイル駅（りんかい線）","province":"東京都","city":"品川区","address":"東京都品川区東品川2-5-8","lat":35.6216148,"lon":139.7508566},{"name":"品川シーサイド駅","province":"東京都","city":"品川区","address":"東京都品川区東品川4丁目12","lat":35.6103127,"lon":139.7498309},{"name":"大井競馬場前駅","province":"東京都","city":"品川区","address":"東京都品川区勝島2丁目2","lat":35.5949348,"lon":139.7471756},{"name":"品川駅","province":"東京都","city":"港区","address":"東京都港区港南2丁目","lat":35.6287472,"lon":139.7393921},{"name":"荏原町駅","province":"東京都","city":"品川区","address":"東京都品川区中延5-2-1","lat":35.6039899,"lon":139.7076062},{"name":"西小山駅","province":"東京都","city":"品川区","address":"東京都品川区小山6-3-9","lat":35.6158275,"lon":139.6989315},{"name":"戸越銀座駅","province":"東京都","city":"品川区","address":"東京都品川区平塚2-16-1","lat":35.6158834,"lon":139.7148438},{"name":"都営浅草線五反田駅「定期券販売所」","province":"東京都","city":"品川区","address":"東京都品川区東五反田1-26-2","lat":35.626418,"lon":139.7236661},{"name":"五反田駅(東急)","province":"東京都","city":"品川区","address":"東京都品川区東五反田2-1-1","lat":35.625404,"lon":139.7242969},{"name":"目黒駅(東急)","province":"東京都","city":"品川区","address":"東京都品川区上大崎4-2-1","lat":35.633395,"lon":139.715439},{"name":"洗足駅(目黒区)(東急)","province":"東京都","city":"目黒区","address":"東京都目黒区洗足2-21-1","lat":35.60995,"lon":139.694},{"name":"大井町駅(ＪＲ)","province":"東京都","city":"品川区","address":"東京都品川区大井1-2-12","lat":35.606221,"lon":139.734833},{"name":"目黒駅(ＪＲ)","province":"東京都","city":"品川区","address":"東京都品川区上大崎2-16-9","lat":35.634114,"lon":139.715767},{"name":"都営バス「品川自動車営業所」","province":"東京都","city":"品川区","address":"東京都品川区北品川1-5-12","lat":35.623274,"lon":139.740748},{"name":"都営バス「品川自動車営業所目黒支所」","province":"東京都","city":"品川区","address":"東京都品川区上大崎3-1-2","lat":35.632837,"lon":139.716783},{"name":"東急バス「荏原営業所」","province":"東京都","city":"品川区","address":"東京都品川区二葉4-27-1","lat":35.602427,"lon":139.713326},{"name":"西大井駅(JR横須賀線)","province":"東京都","city":"品川区","address":"東京都品川区","lat":35.602127,"lon":139.7219446},{"name":"大森駅(JR京浜東北線)","province":"東京都","city":"品川区","address":"東京都品川区","lat":35.5889869,"lon":139.7281534},{"name":"天王洲アイル駅（東京モノレール）","province":"東京都","city":"品川区","address":"東京都品川区東品川2-3-8","lat":35.6231178,"lon":139.7503428},{"name":"大井警察署八潮団地交番","province":"東京都","city":"品川区","address":"東京都品川区八潮5-5-5","lat":35.5988304,"lon":139.7508339},{"name":"宝田橋","province":"東京都","city":"千代田区","address":"東京都千代田区九段南1丁目2-1","lat":35.69407451,"lon":139.75364744},{"name":"月島ふ頭","province":"東京都","city":"中央区","address":"東京都中央区豊海町","lat":35.65314056,"lon":139.77090583},{"name":"常盤橋","province":"東京都","city":"中央区","address":"東京都中央区日本橋本石町2丁目1","lat":35.6869841,"lon":139.77150202},{"name":"平井橋","province":"東京都","city":"墨田区","address":"東京都墨田区立花3丁目","lat":35.70741364,"lon":139.83414302},{"name":"新砂緊急用船着場","province":"東京都","city":"江東区","address":"東京都江東区新砂3丁目","lat":35.66420213,"lon":139.83834118},{"name":"有明客船ターミナル","province":"東京都","city":"江東区","address":"東京都江東区有明3丁目","lat":35.63159354,"lon":139.78818561},{"name":"青海客船ターミナル","province":"東京都","city":"江東区","address":"東京都江東区青海2丁目","lat":35.61733141,"lon":139.78018715},{"name":"黒船橋乗船場","province":"東京都","city":"江東区","address":"東京都江東区門前仲町1丁目1","lat":35.67178636,"lon":139.79273166},{"name":"木場六丁目乗船場","province":"東京都","city":"江東区","address":"東京都江東区木場6丁目","lat":35.66762602,"lon":139.80679399},{"name":"亀戸中央公園乗船場","province":"東京都","city":"江東区","address":"東京都江東区亀戸8丁目","lat":35.7006893,"lon":139.8333461},{"name":"豊洲三丁目乗船場","province":"東京都","city":"江東区","address":"東京都江東区豊洲3丁目","lat":35.66003768,"lon":139.79466194},{"name":"旧中川川の駅スロープ","province":"東京都","city":"江東区","address":"東京都江東区大島9丁目","lat":35.69317076,"lon":139.84506485},{"name":"大井ふ頭中央海浜公園","province":"東京都","city":"品川区","address":"東京都品川区八潮4丁目","lat":35.59273644,"lon":139.75297102},{"name":"東海橋","province":"東京都","city":"品川区","address":"東京都品川区北品川3丁目","lat":35.61868541,"lon":139.73912927},{"name":"勝島１丁目","province":"東京都","city":"品川区","address":"東京都品川区勝島","lat":35.5980771,"lon":139.74558239},{"name":"多摩川二丁目緊急用船着場","province":"東京都","city":"大田区","address":"東京都大田区多摩川2丁目","lat":35.55788986,"lon":139.70234382},{"name":"東京都漁連水産物流通センター","province":"東京都","city":"大田区","address":"東京都大田区京浜島3丁目","lat":35.57325911,"lon":139.76385757},{"name":"大森ふるさとの浜辺公園","province":"東京都","city":"大田区","address":"東京都大田区平和の森公園2-2","lat":35.57713528,"lon":139.74270588},{"name":"羽田２、３丁目","province":"東京都","city":"大田区","address":"東京都大田区羽田5丁目23","lat":35.54810939,"lon":139.74881591},{"name":"東糀谷六丁目","province":"東京都","city":"大田区","address":"東京都大田区東糀谷6丁目","lat":35.55887451,"lon":139.75037338},{"name":"羽田空港天空橋","province":"東京都","city":"大田区","address":"東京都大田区羽田空港1丁目","lat":35.55478658,"lon":139.75528179},{"name":"岩淵緊急用船着場","province":"東京都","city":"北区","address":"東京都北区志茂5丁目","lat":35.78393271,"lon":139.72875445},{"name":"岩淵","province":"東京都","city":"北区","address":"東京都北区志茂5丁目","lat":35.78393271,"lon":139.72875445},{"name":"豊島","province":"東京都","city":"北区","address":"東京都北区豊島5丁目","lat":35.76601912,"lon":139.74959212},{"name":"北赤羽","province":"東京都","city":"北区","address":"東京都北区浮間1丁目","lat":35.78863696,"lon":139.70479799},{"name":"白鬚西","province":"東京都","city":"荒川区","address":"東京都荒川区南千住8丁目","lat":35.7377776,"lon":139.80756749},{"name":"小豆沢","province":"東京都","city":"板橋区","address":"東京都板橋区小豆沢4丁目","lat":35.77909659,"lon":139.69991806},{"name":"新田緊急用船着場","province":"東京都","city":"足立区","address":"東京都足立区新田3丁目","lat":35.77048507,"lon":139.74322027},{"name":"足立緊急用船着場","province":"東京都","city":"足立区","address":"東京都足立区足立2丁目","lat":35.76116864,"lon":139.80978165},{"name":"堀切緊急用船着場","province":"東京都","city":"葛飾区","address":"東京都葛飾区堀切1丁目12","lat":35.74083039,"lon":139.82605121},{"name":"柴又緊急用船着場","province":"東京都","city":"葛飾区","address":"東京都葛飾区柴又7丁目19","lat":35.75861667,"lon":139.88019269},{"name":"東立石緑地公園船着場","province":"東京都","city":"葛飾区","address":"東京都葛飾区東立石4丁目","lat":35.73627764,"lon":139.84912363},{"name":"新小岩防災船着場","province":"東京都","city":"葛飾区","address":"東京都葛飾区西新小岩1丁目1","lat":35.71611838,"lon":139.85394669},{"name":"青戸六丁目広場付近護岸","province":"東京都","city":"葛飾区","address":"東京都葛飾区青戸6丁目40","lat":35.75167333,"lon":139.85904985},{"name":"東京東部漁協荒天時避難繋船場","province":"東京都","city":"葛飾区","address":"東京都葛飾区奥戸7丁目20","lat":35.73899155,"lon":139.86218069},{"name":"第五建築事務所上平井橋係留所","province":"東京都","city":"葛飾区","address":"東京都葛飾区東四つ木1丁目1","lat":35.72488194,"lon":139.84146404},{"name":"ミヨシ油脂（株）専用荷揚げ場","province":"東京都","city":"葛飾区","address":"東京都葛飾区堀切4丁目66","lat":35.74979264,"lon":139.8225506},{"name":"上篠崎","province":"東京都","city":"江戸川区","address":"東京都江戸川区上篠崎2丁目27","lat":35.71283558,"lon":139.90618361},{"name":"葛西臨海公園","province":"東京都","city":"江戸川区","address":"東京都江戸川区臨海町6丁目","lat":35.6462852,"lon":139.85139641},{"name":"一之江橋","province":"東京都","city":"江戸川区","address":"東京都江戸川区新堀1丁目1","lat":35.70258678,"lon":139.88574945},{"name":"小松川","province":"東京都","city":"江戸川区","address":"東京都江戸川区小松川1丁目","lat":35.68984346,"lon":139.84946741},{"name":"新今井橋","province":"東京都","city":"江戸川区","address":"東京都江戸川区江戸川4丁目","lat":35.68234427,"lon":139.88820301},{"name":"平井","province":"東京都","city":"江戸川区","address":"東京都江戸川区平井6丁目71","lat":35.71365739,"lon":139.84385591},{"name":"なぎさ公園","province":"東京都","city":"江戸川区","address":"東京都江戸川区南葛西7丁目3","lat":35.64875249,"lon":139.88177994},{"name":"今井交通公園","province":"東京都","city":"江戸川区","address":"東京都江戸川区中葛西4丁目9","lat":35.66799142,"lon":139.86705815},{"name":"スポーツランド","province":"東京都","city":"江戸川区","address":"東京都江戸川区東篠崎1丁目8","lat":35.69783207,"lon":139.91731117},{"name":"ポニーランド","province":"東京都","city":"江戸川区","address":"東京都江戸川区南篠崎町3丁目23","lat":35.69480527,"lon":139.90019585},{"name":"篠崎公園","province":"東京都","city":"江戸川区","address":"東京都江戸川区上篠崎1丁目25","lat":35.7146518,"lon":139.89798133},{"name":"小岩菖蒲園","province":"東京都","city":"江戸川区","address":"東京都江戸川区北小岩4丁目37","lat":35.73856957,"lon":139.89622538},{"name":"墨田区保健所","province":"東京都","city":"墨田区","address":"墨田区吾妻橋一丁目23番20号墨田区役所内","lat":35.710722,"lon":139.801497},{"name":"向島保健センター","province":"東京都","city":"墨田区","address":"墨田区東向島五丁目16番2号","lat":35.725863,"lon":139.821147},{"name":"本所保健センター","province":"東京都","city":"墨田区","address":"墨田区東駒形一丁目6番4号","lat":35.705436,"lon":139.798058},{"name":"墨田区休日応急診療所","province":"東京都","city":"墨田区","address":"墨田区向島三丁目36番7号すみだ福祉保健センター内","lat":35.713317,"lon":139.810828},{"name":"すみだ平日夜間救急こどもクリニック","province":"東京都","city":"墨田区","address":"墨田区横網二丁目1番11号同愛記念病院1階救急外来内","lat":35.699784,"lon":139.794502},{"name":"東京都立墨東病院","province":"東京都","city":"墨田区","address":"墨田区江東橋四丁目23番15号","lat":35.694673,"lon":139.818436},{"name":"社会福祉法人賛育会 賛育会病院","province":"東京都","city":"墨田区","address":"墨田区太平三丁目20番2号","lat":35.702404,"lon":139.814125},{"name":"同愛記念病院","province":"東京都","city":"墨田区","address":"墨田区横網二丁目1番11号","lat":35.699812,"lon":139.794349},{"name":"医療法人財団正明会 山田記念病院","province":"東京都","city":"墨田区","address":"墨田区石原二丁目20番1号","lat":35.700995,"lon":139.800764},{"name":"医療法人伯鳳会 東京曳舟病院","province":"東京都","city":"墨田区","address":"墨田区東向島二丁目27番1号","lat":35.717706,"lon":139.817028},{"name":"医療法人社団隆靖会 墨田中央病院","province":"東京都","city":"墨田区","address":"墨田区京島三丁目67番1号","lat":35.713006,"lon":139.826341},{"name":"東京都済生会 向島病院","province":"東京都","city":"墨田区","address":"墨田区八広一丁目5番10号","lat":35.720624,"lon":139.822283},{"name":"医療法人社団仁寿会 中村病院","province":"東京都","city":"墨田区","address":"墨田区八広二丁目1番1号","lat":35.717419,"lon":139.823686},{"name":"東京都リハビリテーション病院","province":"東京都","city":"墨田区","address":"墨田区堤通二丁目14番1号","lat":35.735863,"lon":139.815807},{"name":"湘南メディカル記念病院","province":"東京都","city":"墨田区","address":"墨田区両国二丁目21番1号","lat":35.695552,"lon":139.792458},{"name":"医療法人社団 中林病院","province":"東京都","city":"墨田区","address":"墨田区東向島三丁目29番9号","lat":35.723617,"lon":139.814957},{"name":"医療法人社団敬智会 梶原病院","province":"東京都","city":"墨田区","address":"墨田区墨田三丁目31番12号","lat":35.732322,"lon":139.820372},