{"keyword":"私立","data":[{"name":"墨田みどり保育園","province":"東京都","city":"墨田区","address":"墨田区亀沢三丁目7番11号","lat":35.696426,"lon":139.803397},{"name":"墨田みどり保育園分園","province":"東京都","city":"墨田区","address":"墨田区亀沢三丁目6番1号","lat":35.696436,"lon":139.803934},{"name":"ほがらか保育園","province":"東京都","city":"墨田区","address":"墨田区墨田四丁目30番14号","lat":35.733755,"lon":139.823314},{"name":"光の園保育学校","province":"東京都","city":"墨田区","address":"墨田区東駒形四丁目6番2号","lat":35.706026,"lon":139.805354},{"name":"光の園保育学校外手分園","province":"東京都","city":"墨田区","address":"墨田区本所二丁目1番16号","lat":35.702306,"lon":139.800454},{"name":"厚生館保育園","province":"東京都","city":"墨田区","address":"墨田区立花五丁目21番3号","lat":35.712068,"lon":139.830661},{"name":"共愛館保育園","province":"東京都","city":"墨田区","address":"墨田区押上三丁目53番6号","lat":35.712323,"lon":139.819938},{"name":"菊川保育園","province":"東京都","city":"墨田区","address":"墨田区江東橋五丁目3番3号","lat":35.6892,"lon":139.810936},{"name":"興望館保育園","province":"東京都","city":"墨田区","address":"墨田区京島一丁目11番6号","lat":35.71508,"lon":139.817446},{"name":"さゆり保育園","province":"東京都","city":"墨田区","address":"墨田区東向島六丁目7番8号","lat":35.721627,"lon":139.820564},{"name":"木ノ下保育園","province":"東京都","city":"墨田区","address":"墨田区墨田四丁目60番13号","lat":35.730555,"lon":139.826173},{"name":"杉の子学園保育所","province":"東京都","city":"墨田区","address":"墨田区東向島二丁目13番6号","lat":35.717361,"lon":139.816328},{"name":"ナースリー保育園","province":"東京都","city":"墨田区","address":"墨田区東向島六丁目15番5号","lat":35.722003,"lon":139.821324},{"name":"ナースリー保育園分園","province":"東京都","city":"墨田区","address":"墨田区東向島六丁目16番10号","lat":35.721904,"lon":139.821032},{"name":"育正保育園","province":"東京都","city":"墨田区","address":"墨田区東駒形一丁目3番15号","lat":35.706925,"lon":139.797929},{"name":"こひつじ保育園","province":"東京都","city":"墨田区","address":"墨田区緑二丁目23番3号","lat":35.695793,"lon":139.801334},{"name":"わらべみどり保育園向島分園","province":"東京都","city":"墨田区","address":"墨田区向島四丁目2番14号","lat":35.716258,"lon":139.811078},{"name":"本所たから保育園","province":"東京都","city":"墨田区","address":"墨田区東駒形四丁目4番7号","lat":35.705695,"lon":139.805072},{"name":"すみだ中和こころ保育園","province":"東京都","city":"墨田区","address":"墨田区菊川一丁目18番5号","lat":35.6901403,"lon":139.8021863},{"name":"両国・なかよし保育園","province":"東京都","city":"墨田区","address":"墨田区両国一丁目10番7号","lat":35.693968,"lon":139.790818},{"name":"小梅保育園","province":"東京都","city":"墨田区","address":"墨田区向島三丁目42番1号","lat":35.71232,"lon":139.810082},{"name":"すみだ川のほとりに笑顔咲くほいくえん","province":"東京都","city":"墨田区","address":"墨田区立川二丁目12番16号","lat":35.691702,"lon":139.801},{"name":"まなびの森保育園錦糸町","province":"東京都","city":"墨田区","address":"墨田区太平二丁目4番4号","lat":35.699972,"lon":139.813048},{"name":"グローバルキッズ押上園","province":"東京都","city":"墨田区","address":"墨田区押上二丁目19番2号","lat":35.713574,"lon":139.813301},{"name":"両国すきっぷ保育園","province":"東京都","city":"墨田区","address":"墨田区両国四丁目25番9号","lat":35.693898,"lon":139.796265},{"name":"のびのび保育園キッズ館","province":"東京都","city":"墨田区","address":"墨田区千歳三丁目8番13号","lat":35.69011,"lon":139.796711},{"name":"のびのび保育園ジュニア館","province":"東京都","city":"墨田区","address":"墨田区千歳二丁目9番8号","lat":35.691378,"lon":139.795705},{"name":"すこやか錦糸保育園","province":"東京都","city":"墨田区","address":"墨田区錦糸三丁目7番1号","lat":35.698603,"lon":139.813635},{"name":"あい・あい保育園錦糸町園","province":"東京都","city":"墨田区","address":"墨田区亀沢四丁目5番4号","lat":35.696687,"lon":139.808455},{"name":"うぃず東駒形保育園","province":"東京都","city":"墨田区","address":"墨田区東駒形二丁目9番9号","lat":35.706269,"lon":139.80065},{"name":"ベネッセ 菊川北保育園","province":"東京都","city":"墨田区","address":"墨田区立川四丁目10番9号","lat":35.691634,"lon":139.806824},{"name":"小学館アカデミーひきふね駅前保育園","province":"東京都","city":"墨田区","address":"墨田区京島一丁目1番1-314号","lat":35.71655,"lon":139.817084},{"name":"チェリッシュあおぞらほいくえん","province":"東京都","city":"墨田区","address":"墨田区緑四丁目38番1号","lat":35.695958,"lon":139.806466},{"name":"アスク両国保育園","province":"東京都","city":"墨田区","address":"墨田区石原二丁目7番3号","lat":35.699772,"lon":139.801453},{"name":"向島ひまわり保育園","province":"東京都","city":"墨田区","address":"墨田区向島三丁目22番8号","lat":35.713319,"lon":139.809049},{"name":"じょうえん曳舟保育園","province":"東京都","city":"墨田区","address":"墨田区京島一丁目6番6号107・108号室","lat":35.716446,"lon":139.818365},{"name":"オウトピア保育園","province":"東京都","city":"墨田区","address":"墨田区緑二丁目5番12号3F","lat":35.692839,"lon":139.801249},{"name":"そらまめ保育園すみだ横川","province":"東京都","city":"墨田区","address":"墨田区横川一丁目1番10号すみだパークプレイス3F","lat":35.702697,"lon":139.809024},{"name":"ひらがなのツリーほいくえん","province":"東京都","city":"墨田区","address":"墨田区業平三丁目9番2号","lat":35.707757,"lon":139.812811},{"name":"キッズガーデン墨田八広","province":"東京都","city":"墨田区","address":"墨田区八広二丁目54番9号","lat":35.713919,"lon":139.8279},{"name":"日生曳舟駅前保育園ひびき","province":"東京都","city":"墨田区","address":"墨田区東向島二丁目42番5号","lat":35.72077,"lon":139.81817},{"name":"石原ここわ保育園","province":"東京都","city":"墨田区","address":"墨田区石原三丁目5番7号","lat":35.69976,"lon":139.804844},{"name":"まなびの森保育園曳舟","province":"東京都","city":"墨田区","address":"墨田区京島一丁目44番17号","lat":35.718997,"lon":139.820741},{"name":"わらべ向島保育園","province":"東京都","city":"墨田区","address":"墨田区向島三丁目19番5号","lat":35.714569,"lon":139.810616},{"name":"うれしい保育園八広","province":"東京都","city":"墨田区","address":"墨田区八広四丁目33番9号","lat":35.723388,"lon":139.828813},{"name":"にじいろ保育園向島","province":"東京都","city":"墨田区","address":"墨田区向島五丁目13番18号","lat":35.719209,"lon":139.810659},{"name":"興望館保育園","province":"東京都","city":"墨田区","address":"東京都墨田区京島1丁目11-6","lat":35.71520533,"lon":139.81777785},{"name":"光の園保育学校","province":"東京都","city":"墨田区","address":"東京都墨田区東駒形4丁目6-2","lat":35.70603813,"lon":139.80532114},{"name":"光の園保育学校外手分園","province":"東京都","city":"墨田区","address":"東京都墨田区本所2丁目1-16","lat":35.7025968,"lon":139.80059167},{"name":"菊川保育園","province":"東京都","city":"墨田区","address":"東京都墨田区江東橋5丁目3-3","lat":35.68902622,"lon":139.81084997},{"name":"墨田みどり保育園","province":"東京都","city":"墨田区","address":"東京都墨田区亀沢3丁目7-11","lat":35.69640585,"lon":139.80343943},{"name":"厚生館保育園","province":"東京都","city":"墨田区","address":"東京都墨田区立花5丁目21-3","lat":35.71206631,"lon":139.83064315},{"name":"ほがらか保育園","province":"東京都","city":"墨田区","address":"東京都墨田区墨田4丁目30-14","lat":35.73365933,"lon":139.8232911},{"name":"幼保連携型認定こども園共愛館保育園","province":"東京都","city":"墨田区","address":"東京都墨田区押上3丁目53-6","lat":35.7123113,"lon":139.82021083},{"name":"杉の子学園保育所","province":"東京都","city":"墨田区","address":"東京都墨田区東向島2丁目13-6","lat":35.71733293,"lon":139.81619762},{"name":"ナースリー保育園","province":"東京都","city":"墨田区","address":"東京都墨田区東向島6丁目15-5","lat":35.72198837,"lon":139.8213027},{"name":"ナースリー保育園分園","province":"東京都","city":"墨田区","address":"東京都墨田区東向島6丁目16-10","lat":35.72199392,"lon":139.8209111},{"name":"育正保育園","province":"東京都","city":"墨田区","address":"東京都墨田区東駒形1丁目3-15","lat":35.70697971,"lon":139.79797756},{"name":"こひつじ保育園","province":"東京都","city":"墨田区","address":"東京都墨田区緑2丁目23-3","lat":35.69580317,"lon":139.80131759},{"name":"わらべみどり保育園","province":"広島県","city":"広島市佐伯区","address":"広島県広島市佐伯区美鈴が丘緑3丁目12-2","lat":34.39218411,"lon":132.37485256},{"name":"わらべみどり保育園向島分園","province":"東京都","city":"墨田区","address":"東京都墨田区向島4丁目2-14","lat":35.71616594,"lon":139.81116193},{"name":"本所たから保育園","province":"東京都","city":"墨田区","address":"東京都墨田区東駒形4丁目4-7","lat":35.70569371,"lon":139.80508511},{"name":"すみだ中和こころ保育園","province":"石川県","city":"金沢市","address":"石川県金沢市菊川1丁目18-5","lat":36.55173167,"lon":136.66289371},{"name":"両国・なかよし保育園","province":"東京都","city":"墨田区","address":"東京都墨田区両国1丁目10-7","lat":35.69396722,"lon":139.79081847},{"name":"小梅保育園","province":"東京都","city":"墨田区","address":"東京都墨田区向島3丁目42-10","lat":35.71225728,"lon":139.80999477},{"name":"すみだ川のほとりに笑顔咲くほいくえん","province":"東京都","city":"墨田区","address":"東京都墨田区立川2丁目12-16","lat":35.69169818,"lon":139.80100155},{"name":"まなびの森保育園錦糸町","province":"東京都","city":"墨田区","address":"東京都墨田区太平2丁目4-4","lat":35.69997474,"lon":139.81307117},{"name":"グローバルキッズ押上園","province":"東京都","city":"墨田区","address":"東京都墨田区押上2丁目19-20","lat":35.71343827,"lon":139.8133947},{"name":"両国すきっぷ保育園","province":"東京都","city":"墨田区","address":"東京都墨田区両国4丁目25-9","lat":35.69388958,"lon":139.79625187},{"name":"のびのび保育園","province":"新潟県","city":"長岡市","address":"新潟県長岡市千歳3丁目8-13","lat":37.438943,"lon":138.84669159},{"name":"すこやか錦糸保育園","province":"東京都","city":"墨田区","address":"東京都墨田区錦糸3丁目7-1","lat":35.6985888,"lon":139.81361847},{"name":"あい・あい保育園錦糸町園","province":"東京都","city":"墨田区","address":"東京都墨田区亀沢4丁目5-4","lat":35.69680575,"lon":139.80842481},{"name":"うぃず東駒形保育園","province":"東京都","city":"墨田区","address":"東京都墨田区東駒形2丁目9-9","lat":35.70627145,"lon":139.80061896},{"name":"ベネッセ 菊川北保育園","province":"東京都","city":"墨田区","address":"東京都墨田区立川4丁目10-9","lat":35.69162589,"lon":139.80680886}]}