{"keyword":"一覧","data":[{"name":"千代田合同庁舎（水道局千代田営業所）","province":"東京都","city":"千代田区","address":"東京都千代田区内神田2丁目1-12","lat":35.689081,"lon":139.76828274},{"name":"内幸町駅（都営三田線）","province":"東京都","city":"千代田区","address":"東京都千代田区内幸町2丁目2-3","lat":35.67037711,"lon":139.75435659},{"name":"岩本町駅（都営新宿線）","province":"東京都","city":"千代田区","address":"東京都千代田区神田岩本町1","lat":35.69606101,"lon":139.77481567},{"name":"小川町駅（都営新宿線）","province":"東京都","city":"千代田区","address":"東京都千代田区神田小川町1丁目6","lat":35.69523862,"lon":139.76614104},{"name":"神保町駅（都営三田線）","province":"東京都","city":"千代田区","address":"東京都千代田区神田神保町2丁目1","lat":35.69562723,"lon":139.75779427},{"name":"神保町駅（都営新宿線）","province":"東京都","city":"千代田区","address":"東京都千代田区神田神保町2丁目7","lat":35.69563273,"lon":139.75592497},{"name":"千代田区役所本庁舎","province":"東京都","city":"千代田区","address":"東京都千代田区九段南1丁目2-1","lat":35.69407451,"lon":139.75364744},{"name":"大手町駅（都営三田線）","province":"東京都","city":"千代田区","address":"東京都千代田区丸の内1丁目3-1","lat":35.6840814,"lon":139.76328874},{"name":"東京国際フォーラム","province":"東京都","city":"千代田区","address":"東京都千代田区丸の内3丁目5-1","lat":35.67694607,"lon":139.7635028},{"name":"日比谷駅（都営三田線）","province":"東京都","city":"千代田区","address":"東京都千代田区有楽町1丁目13-1","lat":35.67591278,"lon":139.76074196},{"name":"複合施設中央区保健所\"","province":"東京都","city":"中央区","address":"東京都中央区明石町12-1","lat":35.66657812,"lon":139.77679376},{"name":"宝町駅（都営浅草線）","province":"東京都","city":"中央区","address":"東京都中央区京橋2丁目13-11","lat":35.67561312,"lon":139.77248543},{"name":"東銀座駅（都営浅草線）","province":"東京都","city":"中央区","address":"東京都中央区銀座4丁目10-10","lat":35.67006636,"lon":139.76691664},{"name":"築地市場駅（都営大江戸線）","province":"東京都","city":"中央区","address":"東京都中央区築地5丁目1-2","lat":35.6653252,"lon":139.76662799},{"name":"月島スポーツプラザ","province":"東京都","city":"中央区","address":"東京都中央区月島1丁目9-2","lat":35.66515624,"lon":139.78299884},{"name":"月島図書館","province":"東京都","city":"中央区","address":"東京都中央区月島4丁目1-1","lat":35.66204544,"lon":139.78211847},{"name":"日本橋駅（都営浅草線）","province":"東京都","city":"中央区","address":"東京都中央区日本橋1丁目13-1","lat":35.68221529,"lon":139.77554072},{"name":"複合施設（日本橋図書館）\"","province":"東京都","city":"中央区","address":"東京都中央区日本橋人形町1丁目1-17","lat":35.68469854,"lon":139.78139615},{"name":"人形町駅（都営浅草線）","province":"東京都","city":"中央区","address":"東京都中央区日本橋人形町3丁目7-13","lat":35.68632617,"lon":139.78191571},{"name":"総合スポーツセンター","province":"東京都","city":"中央区","address":"東京都中央区日本橋浜町2丁目59-1","lat":35.68785406,"lon":139.78937729},{"name":"浜町駅（都営新宿線）","province":"東京都","city":"中央区","address":"東京都中央区日本橋浜町2丁目59-3","lat":35.68874832,"lon":139.78755762},{"name":"馬喰横山駅（都営新宿線）","province":"東京都","city":"中央区","address":"東京都中央区日本橋横山町4-13","lat":35.69192002,"lon":139.78272122},{"name":"東日本橋駅（都営浅草線）","province":"東京都","city":"中央区","address":"東京都中央区東日本橋3丁目11-8","lat":35.69231449,"lon":139.78467121},{"name":"赤坂図書館","province":"東京都","city":"港区","address":"東京都港区南青山1丁目3-3","lat":35.67151795,"lon":139.72528963},{"name":"六本木駅（都営大江戸線）","province":"東京都","city":"港区","address":"東京都港区赤坂9丁目7-39","lat":35.66469937,"lon":139.73077692},{"name":"麻布十番駅（都営大江戸線）","province":"東京都","city":"港区","address":"東京都港区麻布十番1丁目4-6","lat":35.65701141,"lon":139.73505877},{"name":"芝浦中央公園運動場","province":"東京都","city":"港区","address":"東京都港区港南1丁目4-1","lat":35.6345032,"lon":139.74641974},{"name":"港南図書館","province":"東京都","city":"港区","address":"東京都港区港南3丁目3-17","lat":35.63295626,"lon":139.74956398},{"name":"（郷土資料館）\"","province":"東京都","city":"港区","address":"東京都港区芝5丁目28-4","lat":35.64695446,"lon":139.74543875},{"name":"港勤労福祉会館","province":"東京都","city":"港区","address":"東京都港区芝5丁目18-2","lat":35.64827938,"lon":139.74831901},{"name":"港区スポーツセンター","province":"東京都","city":"港区","address":"東京都港区芝浦1丁目16-1","lat":35.6465852,"lon":139.75137714},{"name":"港区役所庁舎","province":"東京都","city":"港区","address":"東京都港区芝公園1丁目5-25","lat":35.65806727,"lon":139.75154062},{"name":"みなと図書館","province":"東京都","city":"港区","address":"東京都港区芝公園3丁目2-25","lat":35.65989482,"lon":139.75012402},{"name":"芝給水所公園運動場","province":"東京都","city":"港区","address":"東京都港区芝公園3丁目6-7","lat":35.66128065,"lon":139.74511884},{"name":"高輪台駅（都営浅草線）","province":"東京都","city":"港区","address":"東京都港区白金台2丁目26-7","lat":35.63204745,"lon":139.73042949},{"name":"新橋駅（都営浅草線）","province":"東京都","city":"港区","address":"東京都港区新橋2丁目21-1","lat":35.66556387,"lon":139.75903971},{"name":"泉岳寺駅（都営浅草線）","province":"東京都","city":"港区","address":"東京都港区高輪2丁目16-34","lat":35.63792756,"lon":139.73904522},{"name":"港区子どもふれあいルーム","province":"東京都","city":"港区","address":"東京都港区西麻布2丁目13-3","lat":35.66090238,"lon":139.72272084},{"name":"御成門駅（都営三田線）","province":"東京都","city":"港区","address":"東京都港区西新橋3丁目24-6","lat":35.66139191,"lon":139.75129053},{"name":"大門駅（都営浅草線）","province":"東京都","city":"港区","address":"東京都港区浜松町1丁目27-12","lat":35.65699803,"lon":139.75499314},{"name":"神明いきいきプラザ","province":"東京都","city":"港区","address":"東京都港区浜松町1丁目6-7","lat":35.65882013,"lon":139.75754287},{"name":"赤羽橋駅（都営大江戸線）","province":"東京都","city":"港区","address":"東京都港区東麻布1丁目28-13","lat":35.65530903,"lon":139.74347752},{"name":"汐留駅（都営大江戸線）","province":"東京都","city":"港区","address":"東京都港区東新橋1丁目9-1","lat":35.66309753,"lon":139.76125074},{"name":"青山運動場","province":"東京都","city":"港区","address":"東京都港区南青山2丁目21-12","lat":35.66895143,"lon":139.718582},{"name":"青山生涯学習館","province":"東京都","city":"港区","address":"東京都港区南青山4丁目19-7","lat":35.66413247,"lon":139.71713788},{"name":"都立中央図書館","province":"東京都","city":"港区","address":"東京都港区南麻布5丁目7-13","lat":35.65211452,"lon":139.72637084},{"name":"麻布運動場","province":"東京都","city":"港区","address":"東京都港区南麻布5丁目6-33","lat":35.65242008,"lon":139.72772071},{"name":"麻布図書館","province":"東京都","city":"港区","address":"東京都港区六本木5丁目12-24","lat":35.65757804,"lon":139.73579757},{"name":"新宿三丁目駅（都営新宿線）","province":"東京都","city":"新宿区","address":"東京都新宿区新宿3丁目3-2","lat":35.69064037,"lon":139.70584338},{"name":"新宿区役所第二分庁舎","province":"東京都","city":"新宿区","address":"東京都新宿区新宿5丁目18-21","lat":35.69390388,"lon":139.70567105},{"name":"新宿区役所第二分庁舎分館","province":"東京都","city":"新宿区","address":"東京都新宿区新宿5丁目18-21","lat":35.69390388,"lon":139.70567105},{"name":"東新宿駅（都営大江戸線）","province":"東京都","city":"新宿区","address":"東京都新宿区新宿7丁目27-3","lat":35.69815902,"lon":139.70807067},{"name":"国立競技場駅（都営大江戸線）","province":"東京都","city":"新宿区","address":"東京都新宿区霞ヶ丘町10-3","lat":35.67961682,"lon":139.71432917},{"name":"新宿区役所本庁舎","province":"東京都","city":"新宿区","address":"東京都新宿区歌舞伎町1丁目4-1","lat":35.69387605,"lon":139.70351568},{"name":"若松河田駅（都営大江戸線）","province":"東京都","city":"新宿区","address":"東京都新宿区河田町10-10","lat":35.69832868,"lon":139.7175115},{"name":"曙橋駅（都営新宿線）","province":"東京都","city":"新宿区","address":"東京都新宿区住吉町7-1","lat":35.69258502,"lon":139.7232251},{"name":"牛込神楽坂駅（都営大江戸線）","province":"東京都","city":"新宿区","address":"東京都新宿区箪笥町15","lat":35.70058163,"lon":139.73415715},{"name":"（水道局新宿営業所）\"","province":"東京都","city":"新宿区","address":"東京都新宿区内藤町87","lat":35.68761592,"lon":139.71443996},{"name":"落合南長崎駅（都営大江戸線）","province":"東京都","city":"新宿区","address":"東京都新宿区西落合3丁目1-18","lat":35.72283888,"lon":139.68360513},{"name":"新宿西口駅（都営大江戸線）","province":"東京都","city":"新宿区","address":"東京都新宿区西新宿1丁目3-17","lat":35.69337599,"lon":139.6986578},{"name":"東京都庁第１本庁舎","province":"東京都","city":"新宿区","address":"東京都新宿区西新宿2丁目8-1","lat":35.68918461,"lon":139.69164748},{"name":"都議会議事堂","province":"東京都","city":"新宿区","address":"東京都新宿区西新宿2丁目8-1","lat":35.68918461,"lon":139.69164748},{"name":"東京都庁第２本庁舎","province":"東京都","city":"新宿区","address":"東京都新宿区西新宿2丁目8-1","lat":35.68918461,"lon":139.69164748},{"name":"都庁前駅（都営大江戸線）","province":"東京都","city":"新宿区","address":"東京都新宿区西新宿2丁目8-1","lat":35.68918461,"lon":139.69164748},{"name":"西新宿五丁目駅（都営大江戸線）","province":"東京都","city":"新宿区","address":"東京都新宿区西新宿5丁目25-9","lat":35.69012599,"lon":139.68446196},{"name":"牛込柳町駅（都営大江戸線）","province":"東京都","city":"新宿区","address":"東京都新宿区市谷砂土原町1丁目2-32","lat":35.6944879,"lon":139.73566003},{"name":"消防防災資料センター","province":"東京都","city":"新宿区","address":"東京都新宿区四谷3丁目10","lat":35.68812154,"lon":139.7196617},{"name":"スポーツセンター","province":"東京都","city":"文京区","address":"東京都文京区大塚3丁目29-2","lat":35.72054062,"lon":139.73641181},{"name":"大塚公園集会所","province":"東京都","city":"文京区","address":"東京都文京区大塚4丁目49-2","lat":35.7238068,"lon":139.73236759},{"name":"礫川地域活動センター","province":"東京都","city":"文京区","address":"東京都文京区小石川2丁目18-18","lat":35.71195301,"lon":139.75033306},{"name":"飯田橋駅（都営大江戸線）","province":"東京都","city":"文京区","address":"東京都文京区後楽1丁目9-5","lat":35.70352608,"lon":139.74679479},{"name":"千石駅（都営三田線）","province":"東京都","city":"文京区","address":"東京都文京区千石1丁目29-13","lat":35.72720398,"lon":139.74532192},{"name":"本郷図書館","province":"東京都","city":"文京区","address":"東京都文京区千駄木3丁目2-6","lat":35.72559094,"lon":139.76150415},{"name":"水道局文京営業所","province":"東京都","city":"文京区","address":"東京都文京区西片2丁目16-23","lat":35.71792755,"lon":139.75523251},{"name":"白山駅（都営三田線）","province":"東京都","city":"文京区","address":"東京都文京区白山5丁目36-10","lat":35.7205244,"lon":139.75170217},{"name":"本郷三丁目駅（都営大江戸線）","province":"東京都","city":"文京区","address":"東京都文京区本郷2丁目40-8","lat":35.70723157,"lon":139.76009357},{"name":"東京都水道歴史館","province":"東京都","city":"文京区","address":"東京都文京区本郷2丁目7-1","lat":35.70302926,"lon":139.76043822},{"name":"真砂中央図書館","province":"東京都","city":"文京区","address":"東京都文京区本郷4丁目8-15","lat":35.70853967,"lon":139.75698262},{"name":"文京区男女平等センター","province":"東京都","city":"文京区","address":"東京都文京区本郷4丁目8-3","lat":35.70867022,"lon":139.75750757},{"name":"区民センター","province":"東京都","city":"文京区","address":"東京都文京区本郷4丁目15-14","lat":35.70879235,"lon":139.75417729},{"name":"総合体育館","province":"東京都","city":"文京区","address":"東京都文京区本郷7丁目1-2","lat":35.7082899,"lon":139.76316837},{"name":"駒込地域活動センター","province":"東京都","city":"文京区","address":"東京都文京区本駒込3丁目22-4","lat":35.72864855,"lon":139.75237135},{"name":"文京区勤労福祉会館","province":"東京都","city":"文京区","address":"東京都文京区本駒込4丁目35-15","lat":35.73346756,"lon":139.75514043},{"name":"向丘地域活動センター","province":"東京都","city":"文京区","address":"東京都文京区向丘1丁目20-8","lat":35.71722493,"lon":139.75762122},{"name":"大原地域活動センター","province":"東京都","city":"文京区","address":"東京都文京区千石1丁目4-3","lat":35.72449035,"lon":139.7433805},{"name":"不忍通りふれあい館","province":"東京都","city":"文京区","address":"東京都文京区根津2丁目20-7","lat":35.71920834,"lon":139.76417635},{"name":"上野御徒町駅（都営大江戸線）","province":"東京都","city":"台東区","address":"東京都台東区上野5丁目26-6","lat":35.70721541,"lon":139.77509567},{"name":"台東都税事務所","province":"東京都","city":"台東区","address":"東京都台東区雷門1丁目6-1","lat":35.70985714,"lon":139.79215555},{"name":"蔵前駅（都営浅草線）","province":"東京都","city":"台東区","address":"東京都台東区蔵前2丁目3-1","lat":35.70213568,"lon":139.79006478},{"name":"浅草駅（都営浅草線）","province":"東京都","city":"台東区","address":"東京都台東区駒形1丁目12-14","lat":35.70852399,"lon":139.79564708},{"name":"蔵前駅（都営大江戸線）","province":"東京都","city":"台東区","address":"東京都台東区寿3丁目3-10","lat":35.7058381,"lon":139.79236982},{"name":"新御徒町駅（都営大江戸線）","province":"東京都","city":"台東区","address":"東京都台東区元浅草1丁目5-2","lat":35.70718227,"lon":139.78276755},{"name":"浅草橋駅（都営浅草線）","province":"東京都","city":"台東区","address":"東京都台東区浅草橋1丁目18-11","lat":35.69743616,"lon":139.78591817},{"name":"浅草文化観光センター","province":"東京都","city":"台東区","address":"東京都台東区雷門2丁目18-9","lat":35.71065434,"lon":139.796519},{"name":"恩賜上野動物園","province":"東京都","city":"台東区","address":"東京都台東区上野公園9-83","lat":35.71713655,"lon":139.76989833},{"name":"菊川駅（都営新宿線）","province":"東京都","city":"墨田区","address":"東京都墨田区菊川3丁目16-2","lat":35.68862631,"lon":139.80618979},{"name":"水道局墨田営業所","province":"東京都","city":"墨田区","address":"東京都墨田区千歳2丁目2-11","lat":35.69048726,"lon":139.79568024},{"name":"両国駅（都営大江戸線）","province":"東京都","city":"墨田区","address":"東京都墨田区横網1丁目4-29","lat":35.69681975,"lon":139.79727631},{"name":"小松橋出張所・区民館","province":"東京都","city":"江東区","address":"東京都江東区扇橋2丁目1-5","lat":35.68268265,"lon":139.81426327},{"name":"西大島駅（都営新宿線）","province":"東京都","city":"江東区","address":"東京都江東区大島2丁目41-19","lat":35.68957086,"lon":139.82608639},{"name":"大島駅（都営新宿線）","province":"東京都","city":"江東区","address":"東京都江東区大島5丁目10-8","lat":35.68957128,"lon":139.83418234},{"name":"東大島駅（都営新宿線）","province":"東京都","city":"江東区","address":"東京都江東区大島9丁目3-14","lat":35.69035447,"lon":139.8459843},{"name":"江東区亀戸野球場庭球場","province":"東京都","city":"江東区","address":"東京都江東区亀戸2丁目6-50","lat":35.70101603,"lon":139.82130935},{"name":"亀戸児童館","province":"東京都","city":"江東区","address":"東京都江東区亀戸2丁目1-19","lat":35.69775268,"lon":139.82168985},{"name":"亀戸第三児童館","province":"東京都","city":"江東区","address":"東京都江東区亀戸7丁目39-9","lat":35.69696205,"lon":139.83934008},{"name":"砂町出張所・区民館","province":"東京都","city":"江東区","address":"東京都江東区北砂4丁目7-3","lat":35.6774475,"lon":139.82846128},{"name":"塩浜児童館","province":"東京都","city":"江東区","address":"東京都江東区塩浜2丁目5-20","lat":35.66193219,"lon":139.80538308},{"name":"江東区潮見野球場庭球場","province":"東京都","city":"江東区","address":"東京都江東区潮見1丁目1-1","lat":35.65595241,"lon":139.81019942},{"name":"江東区環境学習情報館","province":"東京都","city":"江東区","address":"東京都江東区潮見1丁目29-7","lat":35.65500255,"lon":139.81189375},{"name":"清澄白河駅（都営大江戸線）","province":"東京都","city":"江東区","address":"東京都江東区白河1丁目7-14","lat":35.68297984,"lon":139.79884385},{"name":"水道局東部第一支所","province":"東京都","city":"江東区","address":"東京都江東区新砂1丁目7-2","lat":35.66893735,"lon":139.82446175},{"name":"住吉駅（都営新宿線）","province":"東京都","city":"江東区","address":"東京都江東区住吉2丁目23-12","lat":35.6893151,"lon":139.816088},{"name":"江東区健康センター","province":"東京都","city":"江東区","address":"東京都江東区東陽2丁目1-1","lat":35.66574028,"lon":139.8142155},{"name":"江東区保健所","province":"東京都","city":"江東区","address":"東京都江東区東陽2丁目1-1","lat":35.66574028,"lon":139.8142155},{"name":"高齢者総合福祉センター","province":"東京都","city":"江東区","address":"東京都江東区東陽6丁目2-17","lat":35.67472808,"lon":139.81249092},{"name":"江東区役所","province":"東京都","city":"江東区","address":"東京都江東区東陽4丁目11-28","lat":35.67279228,"lon":139.81722917},{"name":"江東区豊住庭球場","province":"東京都","city":"江東区","address":"東京都江東区東陽6丁目1-13","lat":35.67426422,"lon":139.8106911},{"name":"富岡出張所・区民館","province":"東京都","city":"江東区","address":"東京都江東区富岡1丁目16-12","lat":35.67177263,"lon":139.79860634},{"name":"江東区東砂庭球場","province":"東京都","city":"江東区","address":"東京都江東区東砂1丁目2-13","lat":35.68378029,"lon":139.83969885},{"name":"東砂第二児童館","province":"東京都","city":"江東区","address":"東京都江東区東砂2丁目13-13","lat":35.68598836,"lon":139.84160696},{"name":"南砂児童館","province":"東京都","city":"江東区","address":"東京都江東区南砂2丁目3-17","lat":35.67106762,"lon":139.82318409},{"name":"森下駅（都営新宿線）","province":"東京都","city":"江東区","address":"東京都江東区森下1丁目13-10","lat":35.68826538,"lon":139.79788049},{"name":"森下駅（都営大江戸線）","province":"東京都","city":"江東区","address":"東京都江東区森下2丁目17-17","lat":35.68759046,"lon":139.79861655},{"name":"江東区夢の島野球場","province":"東京都","city":"江東区","address":"東京都江東区夢の島1丁目1-1","lat":35.65021449,"lon":139.82336789},{"name":"江東区夢の島競技場","province":"東京都","city":"江東区","address":"東京都江東区夢の島1丁目1-2","lat":35.64749534,"lon":139.82264582},{"name":"夢の島熱帯植物館","province":"東京都","city":"江東区","address":"東京都江東区夢の島2丁目1-2","lat":35.65130896,"lon":139.82932013},{"name":"東京ビッグサイト","province":"東京都","city":"江東区","address":"東京都江東区有明3丁目11-1","lat":35.62996069,"lon":139.79388808},{"name":"荏原区民センター","province":"東京都","city":"品川区","address":"東京都品川区荏原5丁目6-5","lat":35.61452119,"lon":139.70215197},{"name":"一本橋児童センター","province":"東京都","city":"品川区","address":"東京都品川区大井2丁目25-1","lat":35.60473672,"lon":139.72948051},{"name":"大井倉田児童センター","province":"東京都","city":"品川区","address":"東京都品川区大井4丁目11-34","lat":35.60221774,"lon":139.73370528},{"name":"滝王子児童センター","province":"東京都","city":"品川区","address":"東京都品川区大井5丁目19-14","lat":35.59819863,"lon":139.72897802},{"name":"大井図書館","province":"東京都","city":"品川区","address":"東京都品川区大井5丁目19-14","lat":35.59819863,"lon":139.72897802},{"name":"大崎図書館分館","province":"東京都","city":"品川区","address":"東京都品川区大崎3丁目12-22","lat":35.61922938,"lon":139.72504708},{"name":"品川図書館","province":"東京都","city":"品川区","address":"東京都品川区北品川2丁目32-3","lat":35.61686349,"lon":139.7424013},{"name":"北品川児童センター","province":"東京都","city":"品川区","address":"東京都品川区北品川2丁目7-21","lat":35.61882165,"lon":139.74394554},{"name":"大崎図書館","province":"東京都","city":"品川区","address":"東京都品川区北品川5丁目2-1","lat":35.62324296,"lon":139.73171026},{"name":"小関児童センター","province":"東京都","city":"品川区","address":"東京都品川区北品川5丁目8-15","lat":35.62010726,"lon":139.73244088},{"name":"中原児童センター","province":"東京都","city":"品川区","address":"東京都品川区小山1丁目4-1","lat":35.62207326,"lon":139.71277582},{"name":"後地児童センター","province":"東京都","city":"品川区","address":"東京都品川区小山2丁目9-19","lat":35.62062891,"lon":139.70919839},{"name":"戸越駅（都営浅草線）","province":"東京都","city":"品川区","address":"東京都品川区戸越3丁目4-17","lat":35.61396034,"lon":139.71639796},{"name":"大原児童センター","province":"東京都","city":"品川区","address":"東京都品川区戸越6丁目16-1","lat":35.60736937,"lon":139.71538157},{"name":"ゆたか図書館","province":"東京都","city":"品川区","address":"東京都品川区豊町1丁目17-7","lat":35.61159126,"lon":139.72236141},{"name":"荏原文化センター","province":"東京都","city":"品川区","address":"東京都品川区中延1丁目9-15","lat":35.6121521,"lon":139.71059573},{"name":"源氏前図書館","province":"東京都","city":"品川区","address":"東京都品川区中延4丁目14-17","lat":35.60550838,"lon":139.70997653},{"name":"伊藤児童センター","province":"東京都","city":"品川区","address":"東京都品川区西大井6丁目13-1","lat":35.60070073,"lon":139.71758159},{"name":"冨士見台児童センター","province":"東京都","city":"品川区","address":"東京都品川区西大井6丁目1-8","lat":35.60132004,"lon":139.71424019},{"name":"五反田図書館","province":"東京都","city":"品川区","address":"東京都品川区西五反田6丁目5-1","lat":35.62252882,"lon":139.71650881},{"name":"三ツ木児童センター","province":"東京都","city":"品川区","address":"東京都品川区西品川2丁目6-13","lat":35.614005,"lon":139.72621658},{"name":"中延児童センター","province":"東京都","city":"品川区","address":"東京都品川区西中延1丁目6-16","lat":35.61241871,"lon":139.70849591},{"name":"水道局品川営業所","province":"東京都","city":"品川区","address":"東京都品川区西中延1丁目9-10","lat":35.61157991,"lon":139.70782933},{"name":"西中延児童センター","province":"東京都","city":"品川区","address":"東京都品川区西中延3丁目8-5","lat":35.60733038,"lon":139.70810165},{"name":"旗の台児童センター","province":"東京都","city":"品川区","address":"東京都品川区旗の台5丁目19-5","lat":35.60376678,"lon":139.70041633},{"name":"旗の台文化センター","province":"東京都","city":"品川区","address":"東京都品川区旗の台5丁目19-5","lat":35.60376678,"lon":139.70041633},{"name":"東大井児童センター","province":"東京都","city":"品川区","address":"東京都品川区東大井1丁目22-16","lat":35.60349289,"lon":139.74135467},{"name":"五反田駅（都営浅草線）","province":"東京都","city":"品川区","address":"東京都品川区東五反田1丁目26-2","lat":35.62643961,"lon":139.72358862},{"name":"総合体育館","province":"東京都","city":"品川区","address":"東京都品川区東五反田2丁目11-2","lat":35.62417888,"lon":139.7282633},{"name":"東五反田児童センター","province":"東京都","city":"品川区","address":"東京都品川区東五反田5丁目24-1","lat":35.62797832,"lon":139.72339691},{"name":"東品川児童センター","province":"東京都","city":"品川区","address":"東京都品川区東品川1丁目34-9","lat":35.61912722,"lon":139.7460398},{"name":"東中延児童センター","province":"東京都","city":"品川区","address":"東京都品川区東中延2丁目5-10","lat":35.60783319,"lon":139.71383447},{"name":"平塚児童センター","province":"東京都","city":"品川区","address":"東京都品川区平塚2丁目2-3","lat":35.61879037,"lon":139.71740885},{"name":"二葉図書館","province":"東京都","city":"品川区","address":"東京都品川区二葉1丁目4-25","lat":35.60800569,"lon":139.72668618},{"name":"水神児童センター","province":"東京都","city":"品川区","address":"東京都品川区南大井5丁目13-19","lat":35.59548249,"lon":139.73399442},{"name":"南品川児童センター","province":"東京都","city":"品川区","address":"東京都品川区南品川4丁目5-28","lat":35.61348323,"lon":139.73868783},{"name":"八潮児童センター","province":"東京都","city":"品川区","address":"東京都品川区八潮5丁目10-27","lat":35.60015206,"lon":139.7512541},{"name":"ゆたか児童センター","province":"東京都","city":"品川区","address":"東京都品川区豊町1丁目18-15","lat":35.61155516,"lon":139.72275305},{"name":"戸越体育館","province":"東京都","city":"品川区","address":"東京都品川区豊町2丁目1-17","lat":35.61083852,"lon":139.72058936},{"name":"南ゆたか児童センター","province":"東京都","city":"品川区","address":"東京都品川区豊町4丁目17-21","lat":35.60650845,"lon":139.72092279},{"name":"八潮図書館","province":"東京都","city":"品川区","address":"東京都品川区八潮5丁目10-27","lat":35.60015206,"lon":139.7512541},{"name":"五本木小学校屋内プール","province":"東京都","city":"目黒区","address":"東京都目黒区五本木2丁目24-3","lat":35.63440465,"lon":139.68779979},{"name":"目黒区総合庁舎","province":"東京都","city":"目黒区","address":"東京都目黒区上目黒2丁目19-15","lat":35.64110969,"lon":139.69847649},{"name":"中央町さくらプラザ","province":"東京都","city":"目黒区","address":"東京都目黒区中央町2丁目4-18","lat":35.6318745,"lon":139.69222728},{"name":"水道局目黒営業所","province":"東京都","city":"目黒区","address":"東京都目黒区中町2丁目43-18","lat":35.63298271,"lon":139.69238835},{"name":"中目黒スクエア","province":"東京都","city":"目黒区","address":"東京都目黒区中目黒2丁目10-13","lat":35.64045153,"lon":139.70302891},{"name":"東山児童館","province":"東京都","city":"目黒区","address":"東京都目黒区東山3丁目24-2","lat":35.64793915,"lon":139.68540789},{"name":"東山社会教育館","province":"東京都","city":"目黒区","address":"東京都目黒区東山3丁目24-2","lat":35.64793915,"lon":139.68540789},{"name":"東京都写真美術館","province":"東京都","city":"目黒区","address":"東京都目黒区三田1丁目13-3","lat":35.6416016,"lon":139.71330855},{"name":"碑小学校屋内プール","province":"東京都","city":"目黒区","address":"東京都目黒区碑文谷1丁目18-14","lat":35.61931205,"lon":139.69064446},{"name":"碑文谷体育館","province":"東京都","city":"目黒区","address":"東京都目黒区碑文谷6丁目12-43","lat":35.62721368,"lon":139.68206437},{"name":"緑が丘文化会館","province":"東京都","city":"目黒区","address":"東京都目黒区緑が丘2丁目14-23","lat":35.60935165,"lon":139.67327682},{"name":"緑が丘文化会館別館","province":"東京都","city":"目黒区","address":"東京都目黒区緑が丘2丁目7-20","lat":35.60943778,"lon":139.6743184},{"name":"目黒区民センター社会教育館","province":"東京都","city":"目黒区","address":"東京都目黒区目黒2丁目4-36","lat":35.6354522,"lon":139.7078592},{"name":"目黒区民センター体育館","province":"東京都","city":"目黒区","address":"東京都目黒区目黒2丁目4-36","lat":35.6354522,"lon":139.7078592},{"name":"目黒本町社会教育館","province":"東京都","city":"目黒区","address":"東京都目黒区目黒本町2丁目1-20","lat":35.62522258,"lon":139.69522445},{"name":"中央体育館","province":"東京都","city":"目黒区","address":"東京都目黒区目黒本町5丁目22-8","lat":35.61895117,"lon":139.69900211},{"name":"石川町文化センター","province":"東京都","city":"大田区","address":"東京都大田区石川町1丁目3-8","lat":35.60212224,"lon":139.68297911},{"name":"大森東特別出張所","province":"東京都","city":"大田区","address":"東京都大田区大森南4丁目9-1","lat":35.56688413,"lon":139.74589247},{"name":"大森スポーツセンター","province":"東京都","city":"大田区","address":"東京都大田区大森本町2丁目2-5","lat":35.58092617,"lon":139.73739209},{"name":"大田区役所本庁舎","province":"東京都","city":"大田区","address":"東京都大田区蒲田5丁目13-14","lat":35.56143339,"lon":139.71606685},{"name":"馬込駅（都営浅草線）","province":"東京都","city":"大田区","address":"東京都大田区北馬込2丁目31-9","lat":35.59700105,"lon":139.71169332},{"name":"久が原特別出張所","province":"東京都","city":"大田区","address":"東京都大田区久が原4丁目12-10","lat":35.58016138,"lon":139.69404032},{"name":"新井宿特別出張所","province":"東京都","city":"大田区","address":"東京都大田区中央1丁目21-6","lat":35.57975895,"lon":139.71961004},{"name":"嶺町文化センター","province":"東京都","city":"大田区","address":"東京都大田区田園調布本町7-1","lat":35.58786589,"lon":139.67735279},{"name":"大田市場","province":"東京都","city":"大田区","address":"東京都大田区東海3丁目2-1","lat":35.57897751,"lon":139.75888254},{"name":"糀谷文化センター","province":"東京都","city":"大田区","address":"東京都大田区西糀谷2丁目14-5","lat":35.55904852,"lon":139.73630458},{"name":"西馬込駅（都営浅草線）","province":"東京都","city":"大田区","address":"東京都大田区西馬込2丁目1-6","lat":35.58745207,"lon":139.7060914},{"name":"萩中公園水泳場","province":"東京都","city":"大田区","address":"東京都大田区萩中3丁目26-46","lat":35.55006655,"lon":139.73638297},{"name":"大田区総合体育館","province":"東京都","city":"大田区","address":"東京都大田区東蒲田1丁目11-1","lat":35.56468885,"lon":139.72792128},{"name":"平和島公園水泳場","province":"東京都","city":"大田区","address":"東京都大田区平和島4丁目2-2","lat":35.58184851,"lon":139.74213343},{"name":"鵜の木特別出張所","province":"東京都","city":"大田区","address":"東京都大田区南久が原2丁目30-5","lat":35.57494855,"lon":139.68516964},{"name":"東調布公園水泳場","province":"東京都","city":"大田区","address":"東京都大田区南雪谷5丁目13-1","lat":35.58826574,"lon":139.68930418},{"name":"総合運動場温水プール","province":"東京都","city":"世田谷区","address":"東京都世田谷区大蔵4丁目6-1","lat":35.63043134,"lon":139.61231215},{"name":"総合運動場体育館","province":"東京都","city":"世田谷区","address":"東京都世田谷区大蔵4丁目6-1","lat":35.63043134,"lon":139.61231215},{"name":"総合運動場陸上競技場","province":"東京都","city":"世田谷区","address":"東京都世田谷区大蔵4丁目6-1","lat":35.63043134,"lon":139.61231215},{"name":"大蔵第二運動場","province":"東京都","city":"世田谷区","address":"東京都世田谷区大蔵4丁目7-1","lat":35.63181451,"lon":139.61467017},{"name":"岡本地区会館","province":"東京都","city":"世田谷区","address":"東京都世田谷区岡本1丁目25-4","lat":35.62505172,"lon":139.61945905},{"name":"尾山台地域体育館","province":"東京都","city":"世田谷区","address":"東京都世田谷区尾山台3丁目19-3","lat":35.60503766,"lon":139.65415078},{"name":"粕谷区民センター","province":"東京都","city":"世田谷区","address":"東京都世田谷区粕谷4丁目13-6","lat":35.66310744,"lon":139.60516398},{"name":"鎌田区民センター","province":"東京都","city":"世田谷区","address":"東京都世田谷区鎌田3丁目35-1","lat":35.6223354,"lon":139.61339878},{"name":"上北沢地区会館","province":"東京都","city":"世田谷区","address":"東京都世田谷区上北沢2丁目1-3","lat":35.66322465,"lon":139.62249041},{"name":"上北沢区民センター","province":"東京都","city":"世田谷区","address":"東京都世田谷区上北沢3丁目8-9","lat":35.66744371,"lon":139.6254845},{"name":"砧野球場・サッカー場","province":"東京都","city":"世田谷区","address":"東京都世田谷区喜多見1丁目12-2","lat":35.62092151,"lon":139.59606169},{"name":"桜丘区民センター別館","province":"東京都","city":"世田谷区","address":"東京都世田谷区桜丘2丁目22-1","lat":35.64587389,"lon":139.62372425},{"name":"桜丘区民センター","province":"東京都","city":"世田谷区","address":"東京都世田谷区桜丘5丁目14-1","lat":35.64479619,"lon":139.62218555},{"name":"下馬図書館","province":"東京都","city":"世田谷区","address":"東京都世田谷区下馬2丁目32-1","lat":35.64148967,"lon":139.67627275},{"name":"砧図書館","province":"東京都","city":"世田谷区","address":"東京都世田谷区祖師谷3丁目10-4","lat":35.64229329,"lon":139.60405376},{"name":"水道局世田谷営業所","province":"東京都","city":"世田谷区","address":"東京都世田谷区太子堂1丁目13-13","lat":35.64320884,"lon":139.67319518},{"name":"玉川台区民センター","province":"東京都","city":"世田谷区","address":"東京都世田谷区玉川台1丁目6-15","lat":35.62293547,"lon":139.6330188},{"name":"千歳台地区会館","province":"東京都","city":"世田谷区","address":"東京都世田谷区千歳台3丁目31-9","lat":35.65364762,"lon":139.61165547},{"name":"弦巻区民センター","province":"東京都","city":"世田谷区","address":"東京都世田谷区弦巻1丁目26-11","lat":35.63695907,"lon":139.65182773},{"name":"中央図書館","province":"東京都","city":"世田谷区","address":"東京都世田谷区弦巻3丁目16-8","lat":35.63774213,"lon":139.64433663},{"name":"教育会館","province":"東京都","city":"世田谷区","address":"東京都世田谷区弦巻3丁目16-8","lat":35.63774213,"lon":139.64433663},{"name":"希望丘地域体育館","province":"東京都","city":"世田谷区","address":"東京都世田谷区船橋6丁目25-1","lat":35.6589584,"lon":139.62072125},{"name":"千歳温水プール","province":"東京都","city":"世田谷区","address":"東京都世田谷区船橋7丁目9-1","lat":35.65916935,"lon":139.61641324},{"name":"世田谷文学館","province":"東京都","city":"世田谷区","address":"東京都世田谷区南烏山1丁目10-10","lat":35.6670821,"lon":139.60893022},{"name":"烏山図書館","province":"東京都","city":"世田谷区","address":"東京都世田谷区南烏山6丁目2-19","lat":35.66886497,"lon":139.60059192},{"name":"烏山総合支所","province":"東京都","city":"世田谷区","address":"東京都世田谷区南烏山6丁目22-14","lat":35.66980644,"lon":139.59797266},{"name":"宮坂区民センター","province":"東京都","city":"世田谷区","address":"東京都世田谷区宮坂1丁目24-6","lat":35.64785482,"lon":139.64479739},{"name":"経堂図書館","province":"東京都","city":"世田谷区","address":"東京都世田谷区宮坂3丁目1-30","lat":35.65153752,"lon":139.63784509},{"name":"砧公園","province":"東京都","city":"世田谷区","address":"東京都世田谷区砧公園1-1","lat":35.6291067,"lon":139.62140025},{"name":"富ヶ谷図書館","province":"東京都","city":"渋谷区","address":"東京都渋谷区上原1丁目46-2","lat":35.66850076,"lon":139.68712923},{"name":"上原社会教育館","province":"東京都","city":"渋谷区","address":"東京都渋谷区上原3丁目13-8","lat":35.66649521,"lon":139.67853283},{"name":"渋谷区役所","province":"東京都","city":"渋谷区","address":"東京都渋谷区宇田川町1-1","lat":35.66395376,"lon":139.69807679},{"name":"恵比寿社会教育館","province":"東京都","city":"渋谷区","address":"東京都渋谷区恵比寿2丁目27-18","lat":35.64530128,"lon":139.7196134},{"name":"長谷戸社会教育館","province":"東京都","city":"渋谷区","address":"東京都渋谷区恵比寿西1丁目23-4","lat":35.64716751,"lon":139.70657563},{"name":"笹塚こども図書館","province":"東京都","city":"渋谷区","address":"東京都渋谷区笹塚3丁目3-1","lat":35.67870195,"lon":139.6697526},{"name":"美竹の丘・しぶや","province":"東京都","city":"渋谷区","address":"東京都渋谷区渋谷1丁目18-9","lat":35.66183525,"lon":139.70455298},{"name":"中央図書館","province":"東京都","city":"渋谷区","address":"東京都渋谷区神宮前1丁目4-1","lat":35.67234689,"lon":139.70568495},{"name":"ケアコミュニティー・原宿の丘","province":"東京都","city":"渋谷区","address":"東京都渋谷区神宮前3丁目12-8","lat":35.66989841,"lon":139.71114095},{"name":"千駄ヶ谷社会教育館","province":"東京都","city":"渋谷区","address":"東京都渋谷区千駄ヶ谷1丁目6-5","lat":35.67810855,"lon":139.70992962},{"name":"東京体育館","province":"東京都","city":"渋谷区","address":"東京都渋谷区千駄ヶ谷1丁目17-1","lat":35.67985008,"lon":139.712496},{"name":"総合ケアコミュニティ・せせらぎ","province":"東京都","city":"渋谷区","address":"東京都渋谷区西原1丁目40-10","lat":35.67531374,"lon":139.68189331},{"name":"西原図書館","province":"東京都","city":"渋谷区","address":"東京都渋谷区西原2丁目28-9","lat":35.67493868,"lon":139.67767704},{"name":"初台青年館","province":"東京都","city":"渋谷区","address":"東京都渋谷区初台1丁目33-10","lat":35.67960221,"lon":139.68485123},{"name":"幡ヶ谷社会教育館（一時使用休止中）","province":"東京都","city":"渋谷区","address":"東京都渋谷区幡ヶ谷2丁目50-2","lat":35.6799242,"lon":139.677288},{"name":"渋谷図書館","province":"東京都","city":"渋谷区","address":"東京都渋谷区東1丁目6-6","lat":35.65630543,"lon":139.7098944},{"name":"リフレッシュ氷川","province":"東京都","city":"渋谷区","address":"東京都渋谷区東1丁目26-23","lat":35.65489165,"lon":139.70737802},{"name":"ひがし健康プラザ","province":"東京都","city":"渋谷区","address":"東京都渋谷区東3丁目14-13","lat":35.65087548,"lon":139.7097391},{"name":"臨川みんなの図書館","province":"東京都","city":"渋谷区","address":"東京都渋谷区広尾1丁目9-17","lat":35.64900913,"lon":139.71626634},{"name":"本町図書館","province":"東京都","city":"渋谷区","address":"東京都渋谷区本町1丁目33-5","lat":35.68073811,"lon":139.68165702},{"name":"地域交流センター　二軒家","province":"東京都","city":"渋谷区","address":"東京都渋谷区本町3丁目35-4","lat":35.68923433,"lon":139.68117896},{"name":"児童青少年センター","province":"東京都","city":"渋谷区","address":"東京都渋谷区本町6丁目6-2","lat":35.68210179,"lon":139.67953493},{"name":"新宿駅（都営大江戸線）","province":"東京都","city":"渋谷区","address":"東京都渋谷区代々木2丁目1-1","lat":35.68688783,"lon":139.69832198},{"name":"東京観光情報センターバスタ新宿","province":"東京都","city":"渋谷区","address":"東京都渋谷区千駄ヶ谷5丁目24-55","lat":35.6886377,"lon":139.70138553},{"name":"みずの塔ふれあいの家","province":"東京都","city":"中野区","address":"東京都中野区江古田1丁目9-24","lat":35.72549107,"lon":139.67353923},{"name":"新江古田駅（都営大江戸線）","province":"東京都","city":"中野区","address":"東京都中野区江原町2丁目29-13","lat":35.73223468,"lon":139.67090305},{"name":"鷺宮スポーツ・コミュニティプラザ","province":"東京都","city":"中野区","address":"東京都中野区白鷺3丁目1-13","lat":35.72245986,"lon":139.63643139},{"name":"中野坂上駅（都営大江戸線）","province":"東京都","city":"中野区","address":"東京都中野区中央2丁目2-28","lat":35.69789448,"lon":139.68269791},{"name":"水道局中野営業所","province":"東京都","city":"中野区","address":"東京都中野区中野1丁目5-7","lat":35.70178555,"lon":139.67754543},{"name":"城山ふれあいの家","province":"東京都","city":"中野区","address":"東京都中野区中野1丁目20-4","lat":35.70402138,"lon":139.6769065},{"name":"中野区役所","province":"東京都","city":"中野区","address":"東京都中野区中野4丁目8-1","lat":35.70733449,"lon":139.6637464},{"name":"中野区社会福祉会館","province":"東京都","city":"中野区","address":"東京都中野区中野5丁目68-7","lat":35.7092621,"lon":139.66519619},{"name":"東中野駅（都営大江戸線）","province":"東京都","city":"中野区","address":"東京都中野区東中野3丁目8-16","lat":35.70706288,"lon":139.68277253},{"name":"南部スポーツ・コミュニティプラザ","province":"東京都","city":"中野区","address":"東京都中野区弥生町5丁目11-26","lat":35.68814802,"lon":139.66844124},{"name":"中野区立総合体育館","province":"東京都","city":"中野区","address":"東京都中野区新井3丁目37-78","lat":35.71578907,"lon":139.66305166},{"name":"東部区民活動センター","province":"東京都","city":"中野区","address":"東京都中野区中央2丁目18-21","lat":35.70036364,"lon":139.68245616},{"name":"桃園区民活動センター","province":"東京都","city":"中野区","address":"東京都中野区中央4丁目57-1","lat":35.70228518,"lon":139.66731575},{"name":"上高田区民活動センター","province":"東京都","city":"中野区","address":"東京都中野区上高田2丁目11-1","lat":35.7115565,"lon":139.67252324},{"name":"新井区民活動センター","province":"東京都","city":"中野区","address":"東京都中野区新井3丁目11-4","lat":35.71425593,"lon":139.66355168},{"name":"江古田区民活動センター","province":"東京都","city":"中野区","address":"東京都中野区江原町2丁目3-15","lat":35.72881004,"lon":139.66969774},{"name":"野方区民活動センター","province":"東京都","city":"中野区","address":"東京都中野区野方5丁目3-1","lat":35.71834687,"lon":139.65344403},{"name":"鍋横区民活動センター","province":"東京都","city":"中野区","address":"東京都中野区本町5丁目47-13","lat":35.69361679,"lon":139.66800771},{"name":"鷺宮区民活動センター","province":"東京都","city":"中野区","address":"東京都中野区鷺宮3丁目22-5","lat":35.72344039,"lon":139.63977273},{"name":"上鷺宮区民活動センター","province":"東京都","city":"中野区","address":"東京都中野区上鷺宮3丁目7-6","lat":35.73188371,"lon":139.63213966},{"name":"中野区産業振興センター","province":"東京都","city":"中野区","address":"東京都中野区中野2丁目13-14","lat":35.70430441,"lon":139.66810726},{"name":"阿佐谷図書館","province":"東京都","city":"杉並区","address":"東京都杉並区阿佐谷北3丁目36-14","lat":35.71167207,"lon":139.63323771},{"name":"阿佐谷地域区民センター","province":"東京都","city":"杉並区","address":"東京都杉並区阿佐谷北1丁目1-1","lat":35.70536466,"lon":139.64131788},{"name":"水道局和泉合同庁舎","province":"東京都","city":"杉並区","address":"東京都杉並区和泉3丁目8-10","lat":35.67532945,"lon":139.64612422},{"name":"今川図書館","province":"東京都","city":"杉並区","address":"東京都杉並区今川4丁目12-10","lat":35.71557075,"lon":139.5999347},{"name":"高円寺地域区民センター","province":"東京都","city":"杉並区","address":"東京都杉並区梅里1丁目22-32","lat":35.69705486,"lon":139.6538866},{"name":"永福PA上り","province":"東京都","city":"杉並区","address":"東京都杉並区永福1丁目5","lat":35.66823017,"lon":139.64248864},{"name":"荻窪地域区民センター","province":"東京都","city":"杉並区","address":"東京都杉並区荻窪2丁目34-20","lat":35.69852873,"lon":139.61902},{"name":"中央図書館","province":"東京都","city":"杉並区","address":"東京都杉並区荻窪3丁目40-23","lat":35.70185634,"lon":139.62677758},{"name":"荻窪体育館","province":"東京都","city":"杉並区","address":"東京都杉並区荻窪3丁目47-2","lat":35.70265069,"lon":139.62693586},{"name":"柿木図書館","province":"東京都","city":"杉並区","address":"東京都杉並区上井草1丁目6-13","lat":35.72025111,"lon":139.61211405},{"name":"上井草スポーツセンター","province":"東京都","city":"杉並区","address":"東京都杉並区上井草3丁目34-1","lat":35.72411984,"lon":139.60178143},{"name":"久我山会館","province":"東京都","city":"杉並区","address":"東京都杉並区久我山3丁目23-20","lat":35.68661291,"lon":139.59955808},{"name":"高円寺図書館","province":"東京都","city":"杉並区","address":"東京都杉並区高円寺南2丁目36-25","lat":35.70038225,"lon":139.65411699},{"name":"高円寺体育館","province":"東京都","city":"杉並区","address":"東京都杉並区高円寺南2丁目36-31","lat":35.69969344,"lon":139.65411702},{"name":"妙正寺体育館","province":"東京都","city":"杉並区","address":"東京都杉並区清水3丁目20-12","lat":35.71840702,"lon":139.61769145},{"name":"下井草図書館","province":"東京都","city":"杉並区","address":"東京都杉並区下井草3丁目26-5","lat":35.72091524,"lon":139.62327975},{"name":"井草地域区民センター","province":"東京都","city":"杉並区","address":"東京都杉並区下井草5丁目7-22","lat":35.72072896,"lon":139.61652477},{"name":"ウェルファーム杉並","province":"東京都","city":"杉並区","address":"東京都杉並区天沼3丁目19-16","lat":35.71011356,"lon":139.62080827},{"name":"高井戸図書館","province":"東京都","city":"杉並区","address":"東京都杉並区高井戸東1丁目28-1","lat":35.6816225,"lon":139.62287591},{"name":"高井戸地域区民センター","province":"東京都","city":"杉並区","address":"東京都杉並区高井戸東3丁目7-5","lat":35.68363319,"lon":139.61658187},{"name":"成田図書館","province":"東京都","city":"杉並区","address":"東京都杉並区成田東3丁目28-5","lat":35.6950713,"lon":139.63742423},{"name":"西荻図書館","province":"東京都","city":"杉並区","address":"東京都杉並区西荻北2丁目33-9","lat":35.70785511,"lon":139.60597619},{"name":"方南図書館","province":"東京都","city":"杉並区","address":"東京都杉並区方南1丁目51-2","lat":35.67904337,"lon":139.66003956},{"name":"西荻地域区民センター","province":"東京都","city":"杉並区","address":"東京都杉並区桃井4丁目3-2","lat":35.7126017,"lon":139.60218464},{"name":"松ノ木運動場","province":"東京都","city":"杉並区","address":"東京都杉並区松ノ木1丁目3-22","lat":35.68561423,"lon":139.64200202},{"name":"南荻窪図書館","province":"東京都","city":"杉並区","address":"東京都杉並区南荻窪1丁目10-2","lat":35.6950068,"lon":139.61445661},{"name":"大宮前体育館","province":"東京都","city":"杉並区","address":"東京都杉並区南荻窪2丁目1-1","lat":35.69688425,"lon":139.61046517},{"name":"宮前図書館","province":"東京都","city":"杉並区","address":"東京都杉並区宮前5丁目5-27","lat":35.69323714,"lon":139.59900787},{"name":"杉並第十小温水プール","province":"東京都","city":"杉並区","address":"東京都杉並区和田3丁目55-49","lat":35.69674945,"lon":139.65745574},{"name":"永福図書館","province":"東京都","city":"杉並区","address":"東京都杉並区永福3丁目51-17","lat":35.67845941,"lon":139.63804426},{"name":"巣鴨駅（都営三田線）","province":"東京都","city":"豊島区","address":"東京都豊島区巣鴨3丁目27-7","lat":35.73330306,"lon":139.7382445},{"name":"東京芸術劇場","province":"東京都","city":"豊島区","address":"東京都豊島区西池袋1丁目8-1","lat":35.72964715,"lon":139.70794721},{"name":"豊島区役所本庁舎","province":"東京都","city":"豊島区","address":"東京都豊島区南池袋2丁目45-19","lat":35.72596448,"lon":139.71741877},{"name":"豊島区立駒込図書館","province":"東京都","city":"豊島区","address":"東京都豊島区駒込2丁目2-2","lat":35.73718619,"lon":139.74734915},{"name":"豊島区立目白図書館","province":"東京都","city":"豊島区","address":"東京都豊島区目白4丁目31-8","lat":35.72577787,"lon":139.69887593},{"name":"豊島区立上池袋図書館","province":"東京都","city":"豊島区","address":"東京都豊島区上池袋2丁目45-15","lat":35.73863248,"lon":139.71699051},{"name":"豊島区立巣鴨図書館","province":"東京都","city":"豊島区","address":"東京都豊島区巣鴨3丁目8-2","lat":35.73395562,"lon":139.73310879},{"name":"北区役所第一庁舎","province":"東京都","city":"北区","address":"東京都北区王子本町1丁目15-22","lat":35.75280347,"lon":139.73349965},{"name":"北区役所第二庁舎","province":"東京都","city":"北区","address":"東京都北区王子本町1丁目2-11","lat":35.75267852,"lon":139.73490788},{"name":"総合スポーツセンター\"","province":"東京都","city":"北区","address":"東京都北区十条台1丁目2-2","lat":35.75376426,"lon":139.72398652},{"name":"十条台小学校温水プール","province":"東京都","city":"北区","address":"東京都北区中十条1丁目5-6","lat":35.75867219,"lon":139.73040246},{"name":"北都税事務所","province":"東京都","city":"北区","address":"東京都北区中十条1丁目7-8","lat":35.75822221,"lon":139.72918591},{"name":"ゆいの森あらかわ","province":"東京都","city":"荒川区","address":"東京都荒川区荒川2丁目50-1","lat":35.73940488,"lon":139.78369159},{"name":"町屋文化センター","province":"東京都","city":"荒川区","address":"東京都荒川区荒川7丁目20-1","lat":35.74205423,"lon":139.78193575},{"name":"荒川さつき会館","province":"東京都","city":"荒川区","address":"東京都荒川区荒川8丁目16-13","lat":35.73943817,"lon":139.78713008},{"name":"男女平等推進センター","province":"東京都","city":"荒川区","address":"東京都荒川区東尾久5丁目9-3","lat":35.74825536,"lon":139.7689221},{"name":"日暮里図書館","province":"東京都","city":"荒川区","address":"東京都荒川区東日暮里6丁目38-4","lat":35.73114395,"lon":139.77493664},{"name":"水道局東部第二支所","province":"東京都","city":"荒川区","address":"東京都荒川区南千住6丁目40-1","lat":35.73861033,"lon":139.79291549},{"name":"南千住図書館","province":"東京都","city":"荒川区","address":"東京都荒川区南千住6丁目63-1","lat":35.73746592,"lon":139.79541521},{"name":"東京都立大学　荒川キャンパス","province":"東京都","city":"荒川区","address":"東京都荒川区東尾久7丁目2-10","lat":35.74998303,"lon":139.77211339},{"name":"赤塚体育館","province":"東京都","city":"板橋区","address":"東京都板橋区赤塚5丁目6-1","lat":35.77789538,"lon":139.64176755},{"name":"赤塚図書館","province":"東京都","city":"板橋区","address":"東京都板橋区赤塚6丁目38-1","lat":35.77877313,"lon":139.64490059},{"name":"志村図書館","province":"東京都","city":"板橋区","address":"東京都板橋区小豆沢1丁目8-1","lat":35.77328346,"lon":139.69995437},{"name":"小豆沢体育館","province":"東京都","city":"板橋区","address":"東京都板橋区小豆沢3丁目1-1","lat":35.7791632,"lon":139.69744603},{"name":"清水図書館","province":"東京都","city":"板橋区","address":"東京都板橋区泉町16-16","lat":35.7664205,"lon":139.70206557},{"name":"中央図書館","province":"東京都","city":"板橋区","address":"東京都板橋区常盤台4丁目3-1","lat":35.76294248,"lon":139.6815507},{"name":"西台図書館","province":"東京都","city":"板橋区","address":"東京都板橋区西台3丁目13-2","lat":35.77393531,"lon":139.66879034},{"name":"新板橋駅（都営三田線）","province":"東京都","city":"板橋区","address":"東京都板橋区板橋1丁目53-17","lat":35.74850645,"lon":139.72072868},{"name":"板橋区役所前駅（都営三田線）","province":"東京都","city":"板橋区","address":"東京都板橋区板橋2丁目66-17","lat":35.7513864,"lon":139.70957948},{"name":"東板橋図書館","province":"東京都","city":"板橋区","address":"東京都板橋区加賀1丁目10-15","lat":35.75440843,"lon":139.7157483},{"name":"植村記念加賀スポーツセンター","province":"東京都","city":"板橋区","address":"東京都板橋区加賀1丁目10-5","lat":35.7538085,"lon":139.71563721},{"name":"上板橋体育館","province":"東京都","city":"板橋区","address":"東京都板橋区桜川1丁目3-1","lat":35.75706804,"lon":139.67558762},{"name":"志村坂上駅（都営三田線）","province":"東京都","city":"板橋区","address":"東京都板橋区志村1丁目14-13","lat":35.77614686,"lon":139.69468802},{"name":"志村三丁目駅（都営三田線）","province":"東京都","city":"板橋区","address":"東京都板橋区志村3丁目23-1","lat":35.77748817,"lon":139.68616365},{"name":"西高島平駅（都営三田線）","province":"東京都","city":"板橋区","address":"東京都板橋区高島平6丁目1","lat":35.79145471,"lon":139.64786668},{"name":"新高島平駅（都営三田線）","province":"東京都","city":"板橋区","address":"東京都板橋区高島平7丁目1","lat":35.79028557,"lon":139.65394675},{"name":"高島平駅（都営三田線）","province":"東京都","city":"板橋区","address":"東京都板橋区高島平8丁目2-1","lat":35.7888276,"lon":139.66119894},{"name":"高島平温水プール","province":"東京都","city":"板橋区","address":"東京都板橋区高島平8丁目28-1","lat":35.79143562,"lon":139.66440971},{"name":"西台駅（都営三田線）","province":"東京都","city":"板橋区","address":"東京都板橋区高島平9丁目1-1","lat":35.78810293,"lon":139.66886214},{"name":"仲町地域センター","province":"東京都","city":"板橋区","address":"東京都板橋区仲町20-5","lat":35.75119443,"lon":139.69631951},{"name":"本蓮沼駅（都営三田線）","province":"東京都","city":"板橋区","address":"東京都板橋区蓮沼町19-8","lat":35.7686397,"lon":139.7029043},{"name":"蓮根駅（都営三田線）","province":"東京都","city":"板橋区","address":"東京都板橋区蓮根2丁目31-30","lat":35.78423714,"lon":139.67905295},{"name":"氷川図書館","province":"東京都","city":"板橋区","address":"東京都板橋区氷川町28-9","lat":35.75313609,"lon":139.70482704},{"name":"水道局板橋営業所","province":"東京都","city":"板橋区","address":"東京都板橋区氷川町3-6","lat":35.7516891,"lon":139.70741577},{"name":"板橋本町駅（都営三田線）","province":"東京都","city":"板橋区","address":"東京都板橋区大和町17-1","lat":35.76157119,"lon":139.70515164},{"name":"大泉学園町体育館","province":"東京都","city":"練馬区","address":"東京都練馬区大泉学園町5丁目14-24","lat":35.76540067,"lon":139.58420642},{"name":"大泉学園地区区民館","province":"東京都","city":"練馬区","address":"東京都練馬区大泉学園町8丁目9-5","lat":35.77279698,"lon":139.59284455},{"name":"大泉運動場","province":"東京都","city":"練馬区","address":"東京都練馬区大泉町5丁目24-12","lat":35.76228191,"lon":139.59328623},{"name":"上石神井体育館","province":"東京都","city":"練馬区","address":"東京都練馬区上石神井1丁目32-37","lat":35.72260019,"lon":139.58736879},{"name":"下石神井地区区民館","province":"東京都","city":"練馬区","address":"東京都練馬区下石神井6丁目8-15","lat":35.73372991,"lon":139.60357257},{"name":"石神井松の風文化公園","province":"東京都","city":"練馬区","address":"東京都練馬区石神井台1丁目33-44","lat":35.73937624,"lon":139.59410371},{"name":"関区民センター","province":"東京都","city":"練馬区","address":"東京都練馬区関町北1丁目7-2","lat":35.72448864,"lon":139.57766396},{"name":"北大泉地区区民館","province":"東京都","city":"練馬区","address":"東京都練馬区大泉町2丁目41-26","lat":35.764718,"lon":139.60412971},{"name":"田柄地区区民館","province":"東京都","city":"練馬区","address":"東京都練馬区田柄3丁目28-13","lat":35.76216932,"lon":139.63724633},{"name":"土支田庭球場","province":"東京都","city":"練馬区","address":"東京都練馬区土支田4丁目31-24","lat":35.76949282,"lon":139.61505077},{"name":"豊玉北地区区民館","province":"東京都","city":"練馬区","address":"東京都練馬区豊玉北3丁目7-9","lat":35.73262326,"lon":139.66137886},{"name":"はつらつセンター豊玉","province":"東京都","city":"練馬区","address":"東京都練馬区豊玉中3丁目3-12","lat":35.73209539,"lon":139.65530162},{"name":"中村南スポーツ交流センター","province":"東京都","city":"練馬区","address":"東京都練馬区中村南1丁目2-32","lat":35.72948994,"lon":139.64865507},{"name":"練馬総合運動場公園","province":"東京都","city":"練馬区","address":"東京都練馬区練馬2丁目29-10","lat":35.74518829,"lon":139.65316237},{"name":"東大泉地区区民館","province":"東京都","city":"練馬区","address":"東京都練馬区東大泉3丁目53-1","lat":35.75606592,"lon":139.58786184},{"name":"光が丘体育館","province":"東京都","city":"練馬区","address":"東京都練馬区光が丘4丁目1-4","lat":35.76393561,"lon":139.6300802},{"name":"氷川台地区区民館","province":"東京都","city":"練馬区","address":"東京都練馬区氷川台2丁目16-14","lat":35.75693173,"lon":139.66723005},{"name":"富士見台地区区民館","province":"東京都","city":"練馬区","address":"東京都練馬区富士見台3丁目10-1","lat":35.73867719,"lon":139.62433446},{"name":"平和台体育館","province":"東京都","city":"練馬区","address":"東京都練馬区平和台2丁目12-5","lat":35.75943406,"lon":139.66149436},{"name":"三原台温水プール","province":"東京都","city":"練馬区","address":"東京都練馬区三原台2丁目11-29","lat":35.75723567,"lon":139.60647417},{"name":"西大泉地区区民館","province":"東京都","city":"練馬区","address":"東京都練馬区西大泉5丁目3-32","lat":35.76005936,"lon":139.57250204},{"name":"早宮地区区民館","province":"東京都","city":"練馬区","address":"東京都練馬区早宮4丁目14-5","lat":35.75078206,"lon":139.65126507},{"name":"南大泉地区区民館","province":"東京都","city":"練馬区","address":"東京都練馬区南大泉2丁目19-26","lat":35.73912293,"lon":139.57049175},{"name":"旭丘地域集会所","province":"東京都","city":"練馬区","address":"東京都練馬区旭丘1丁目58-10","lat":35.73483448,"lon":139.67410266},{"name":"旭町北地区区民館","province":"東京都","city":"練馬区","address":"東京都練馬区旭町2丁目30-16","lat":35.77326229,"lon":139.62879383},{"name":"旭町地域集会所","province":"東京都","city":"練馬区","address":"東京都練馬区旭町3丁目11-6","lat":35.7741371,"lon":139.62500245},{"name":"大泉図書館","province":"東京都","city":"練馬区","address":"東京都練馬区大泉学園町2丁目21-17","lat":35.76062093,"lon":139.58712007},{"name":"大泉北地域集会所","province":"東京都","city":"練馬区","address":"東京都練馬区大泉学園町4丁目21-1","lat":35.7656063,"lon":139.58846717},{"name":"大泉学園町地域集会所","province":"東京都","city":"練馬区","address":"東京都練馬区大泉学園町6丁目20-36","lat":35.77138851,"lon":139.58317326},{"name":"稲荷山図書館","province":"東京都","city":"練馬区","address":"東京都練馬区大泉町1丁目3-18","lat":35.76531255,"lon":139.609257},{"name":"中里郷土の森緑地","province":"東京都","city":"練馬区","address":"東京都練馬区大泉町1丁目51-2","lat":35.76918408,"lon":139.60412404},{"name":"大泉町地域集会所","province":"東京都","city":"練馬区","address":"東京都練馬区大泉町4丁目35-17","lat":35.76384284,"lon":139.59575269},{"name":"上石神井南地域集会所","province":"東京都","city":"練馬区","address":"東京都練馬区上石神井1丁目6-16","lat":35.7252278,"lon":139.5924766},{"name":"上石神井北地域集会所","province":"東京都","city":"練馬区","address":"東京都練馬区上石神井2丁目36-18","lat":35.72916624,"lon":139.59237091},{"name":"北町地区区民館","province":"東京都","city":"練馬区","address":"東京都練馬区北町2丁目26-1","lat":35.76762472,"lon":139.66038859},{"name":"北町地域集会所","province":"東京都","city":"練馬区","address":"東京都練馬区北町8丁目28-10","lat":35.76771895,"lon":139.6496534},{"name":"向山地域集会所","province":"東京都","city":"練馬区","address":"東京都練馬区向山4丁目21-12","lat":35.74357422,"lon":139.63859699},{"name":"小竹図書館","province":"東京都","city":"練馬区","address":"東京都練馬区小竹町2丁目43-1","lat":35.74191428,"lon":139.67599106},{"name":"石神井図書館","province":"東京都","city":"練馬区","address":"東京都練馬区石神井台1丁目16-31","lat":35.73642114,"lon":139.59938396},{"name":"石神井台みどり地域集会所","province":"東京都","city":"練馬区","address":"東京都練馬区石神井台2丁目13-6","lat":35.73653206,"lon":139.59204011},{"name":"石神井台敬老館","province":"東京都","city":"練馬区","address":"東京都練馬区石神井台2丁目18-13","lat":35.73568211,"lon":139.58978476},{"name":"石神井台地域集会所","province":"東京都","city":"練馬区","address":"東京都練馬区石神井台4丁目5-14","lat":35.73173802,"lon":139.58576856},{"name":"石神井公園区民交流センター","province":"東京都","city":"練馬区","address":"東京都練馬区石神井町2丁目14-1","lat":35.74426498,"lon":139.60766067},{"name":"男女共同参画センターえーる","province":"東京都","city":"練馬区","address":"東京都練馬区石神井町8丁目1-10","lat":35.74533691,"lon":139.60169447},{"name":"関町北地区区民館","province":"東京都","city":"練馬区","address":"東京都練馬区関町北4丁目12-21","lat":35.72976582,"lon":139.57710268},{"name":"関町図書館","province":"東京都","city":"練馬区","address":"東京都練馬区関町南3丁目11-2","lat":35.72091132,"lon":139.58041665},{"name":"関町地域集会所","province":"東京都","city":"練馬区","address":"東京都練馬区関町南4丁目22-1","lat":35.72145821,"lon":139.56762327},{"name":"高野台地域集会所","province":"東京都","city":"練馬区","address":"東京都練馬区高野台3丁目28-11","lat":35.74565383,"lon":139.61183804},{"name":"?松地区区民館","province":"東京都","city":"練馬区","address":"東京都練馬区高松3丁目24-27","lat":35.75003149,"lon":139.62539228},{"name":"旭町南地区区民館","province":"東京都","city":"練馬区","address":"東京都練馬区高松5丁目23-15","lat":35.76283005,"lon":139.62505289},{"name":"立野地区区民館","province":"東京都","city":"練馬区","address":"東京都練馬区立野町15-42","lat":35.71857274,"lon":139.58251101},{"name":"土支田地域集会所","province":"東京都","city":"練馬区","address":"東京都練馬区土支田2丁目40-21","lat":35.76429055,"lon":139.61163459},{"name":"練馬駅（都営大江戸線）","province":"東京都","city":"練馬区","address":"東京都練馬区豊玉北5丁目17-12","lat":35.73726702,"lon":139.65513475},{"name":"練馬区役所西庁舎","province":"東京都","city":"練馬区","address":"東京都練馬区豊玉北6丁目12-1","lat":35.73558101,"lon":139.65167678},{"name":"練馬区役所東庁舎","province":"東京都","city":"練馬区","address":"東京都練馬区豊玉北6丁目12-1","lat":35.73558101,"lon":139.65167678},{"name":"練馬区役所本庁舎","province":"東京都","city":"練馬区","address":"東京都練馬区豊玉北6丁目12-1","lat":35.73558101,"lon":139.65167678},{"name":"（生涯学習センター併設）\"","province":"東京都","city":"練馬区","address":"東京都練馬区豊玉北6丁目8-1","lat":35.73431449,"lon":139.65183793},{"name":"豊玉地域集会所","province":"東京都","city":"練馬区","address":"東京都練馬区豊玉中4丁目13-6","lat":35.73263686,"lon":139.65058533},{"name":"水道局練馬営業所","province":"東京都","city":"練馬区","address":"東京都練馬区中村北1丁目9-4","lat":35.73485321,"lon":139.64772993},{"name":"中村地域集会所","province":"東京都","city":"練馬区","address":"東京都練馬区中村南2丁目23-12","lat":35.72979254,"lon":139.64273888},{"name":"貫井図書館","province":"東京都","city":"練馬区","address":"東京都練馬区貫井1丁目36-16","lat":35.73705267,"lon":139.63611967},{"name":"サンライフ練馬","province":"東京都","city":"練馬区","address":"東京都練馬区貫井1丁目36-18","lat":35.73738041,"lon":139.63602245},{"name":"豊島園駅（都営大江戸線）","province":"東京都","city":"練馬区","address":"東京都練馬区練馬4丁目14-17","lat":35.74155804,"lon":139.64886843},{"name":"早宮地域集会所","province":"東京都","city":"練馬区","address":"東京都練馬区早宮1丁目44-19","lat":35.7541985,"lon":139.65883927},{"name":"春日町リサイクルセンター","province":"東京都","city":"練馬区","address":"東京都練馬区春日町2丁目14-16","lat":35.75604526,"lon":139.64786791},{"name":"練馬春日町駅（都営大江戸線）","province":"東京都","city":"練馬区","address":"東京都練馬区春日町3丁目29-25","lat":35.7511373,"lon":139.64056041},{"name":"春日町青少年館","province":"東京都","city":"練馬区","address":"東京都練馬区春日町4丁目16-9","lat":35.75259543,"lon":139.63927992},{"name":"春日町南地区区民館","province":"東京都","city":"練馬区","address":"東京都練馬区春日町5丁目20-25","lat":35.74768486,"lon":139.63850794},{"name":"東大泉中央地域集会所","province":"東京都","city":"練馬区","address":"東京都練馬区東大泉3丁目18-9","lat":35.7516164,"lon":139.58673988},{"name":"勤労福祉会館","province":"東京都","city":"練馬区","address":"東京都練馬区東大泉5丁目40-36","lat":35.74816403,"lon":139.58766773},{"name":"東大泉地域集会所","province":"東京都","city":"練馬区","address":"東京都練馬区東大泉7丁目27-51","lat":35.74349769,"lon":139.58039352},{"name":"光が丘駅（都営大江戸線）","province":"東京都","city":"練馬区","address":"東京都練馬区光が丘2丁目9-5","lat":35.75922223,"lon":139.62943323},{"name":"光が丘区民センター","province":"東京都","city":"練馬区","address":"東京都練馬区光が丘2丁目9-6","lat":35.75941388,"lon":139.62976375},{"name":"光が丘地区区民館","province":"東京都","city":"練馬区","address":"東京都練馬区光が丘3丁目9-4","lat":35.75795283,"lon":139.62555027},{"name":"光が丘図書館","province":"東京都","city":"練馬区","address":"東京都練馬区光が丘4丁目1-5","lat":35.76307459,"lon":139.63001635},{"name":"平和台図書館","province":"東京都","city":"練馬区","address":"東京都練馬区平和台1丁目36-17","lat":35.76006185,"lon":139.66473292},{"name":"南大泉青少年館","province":"東京都","city":"練馬区","address":"東京都練馬区南大泉1丁目44-7","lat":35.74335034,"lon":139.57486067},{"name":"南大泉図書館","province":"東京都","city":"練馬区","address":"東京都練馬区南大泉1丁目44-7","lat":35.74335034,"lon":139.57486067},{"name":"こどもと本のひろば","province":"東京都","city":"練馬区","address":"東京都練馬区南大泉3丁目17-20","lat":35.74163374,"lon":139.56997502},{"name":"南田中地域集会所","province":"東京都","city":"練馬区","address":"東京都練馬区南田中2丁目18-36","lat":35.7332276,"lon":139.6168492},{"name":"南田中図書館","province":"東京都","city":"練馬区","address":"東京都練馬区南田中5丁目15-22","lat":35.7377658,"lon":139.61109952},{"name":"三原台敬老館","province":"東京都","city":"練馬区","address":"東京都練馬区三原台2丁目11-29","lat":35.75723567,"lon":139.60647417},{"name":"三原台地域集会所","province":"東京都","city":"練馬区","address":"東京都練馬区三原台3丁目13-17","lat":35.75393032,"lon":139.59938599},{"name":"谷原地域集会所","province":"東京都","city":"練馬区","address":"東京都練馬区谷原5丁目6-7","lat":35.75138654,"lon":139.61296272},{"name":"関町リサイクルセンター","province":"東京都","city":"練馬区","address":"東京都練馬区関町北1丁目7-14","lat":35.72494693,"lon":139.57795558},{"name":"豊玉リサイクルセンター","province":"東京都","city":"練馬区","address":"東京都練馬区豊玉上2丁目22-15","lat":35.73706161,"lon":139.66013989},{"name":"大泉リサイクルセンター","province":"東京都","city":"練馬区","address":"東京都練馬区大泉学園町1丁目34-10","lat":35.7630762,"lon":139.59079198},{"name":"練馬区立美術館","province":"東京都","city":"練馬区","address":"東京都練馬区貫井1丁目36-16","lat":35.73705267,"lon":139.63611967},{"name":"練馬文化センター（令和６年４月30日まで休館予定）","province":"東京都","city":"練馬区","address":"東京都練馬区練馬1丁目17-37","lat":35.73908621,"lon":139.65348203},{"name":"石神井公園ふるさと文化館","province":"東京都","city":"練馬区","address":"東京都練馬区石神井町5丁目12-16","lat":35.73751547,"lon":139.59949778},{"name":"桜台地域集会所","province":"東京都","city":"練馬区","address":"東京都練馬区桜台1丁目22-9","lat":35.73911156,"lon":139.66664756},{"name":"春日町地域集会所","province":"東京都","city":"練馬区","address":"東京都練馬区春日町5丁目30-1","lat":35.75060678,"lon":139.63944386},{"name":"桜台地区区民館","province":"東京都","city":"練馬区","address":"東京都練馬区桜台3丁目39-17","lat":35.74591625,"lon":139.66321147},{"name":"足立区役所本庁舎","province":"東京都","city":"足立区","address":"東京都足立区中央本町1丁目17-1","lat":35.77489463,"lon":139.80457862},{"name":"伊興地域学習センター","province":"東京都","city":"足立区","address":"東京都足立区伊興2丁目4-22","lat":35.79120877,"lon":139.78099941},{"name":"梅田地域学習センター","province":"東京都","city":"足立区","address":"東京都足立区梅田7丁目33-1","lat":35.7706172,"lon":139.79830157},{"name":"江北地域学習センター","province":"東京都","city":"足立区","address":"東京都足立区江北3丁目39-4","lat":35.77591271,"lon":139.76014907},{"name":"興本体育館","province":"東京都","city":"足立区","address":"東京都足立区興野1丁目17-7","lat":35.76858366,"lon":139.78323345},{"name":"興本地域学習センター","province":"東京都","city":"足立区","address":"東京都足立区興野1丁目18-38","lat":35.76832532,"lon":139.78227799},{"name":"ギャラクシティ","province":"東京都","city":"足立区","address":"東京都足立区栗原1丁目3-1","lat":35.7799159,"lon":139.7903796},{"name":"都市農業公園（一時使用休止中）","province":"東京都","city":"足立区","address":"東京都足立区鹿浜2丁目44-1","lat":35.78243356,"lon":139.7446697},{"name":"佐野地域学習センター","province":"東京都","city":"足立区","address":"東京都足立区佐野2丁目43-5","lat":35.78817114,"lon":139.84024191},{"name":"竹の塚地域学習センター","province":"東京都","city":"足立区","address":"東京都足立区竹の塚2丁目25-17","lat":35.79263961,"lon":139.79461767},{"name":"水道局足立営業所","province":"東京都","city":"足立区","address":"東京都足立区中央本町3丁目8-2","lat":35.7721478,"lon":139.80782292},{"name":"中央本町地域学習センター（一時使用休止中）","province":"東京都","city":"足立区","address":"東京都足立区中央本町3丁目15-1","lat":35.7722645,"lon":139.80973108},{"name":"舎人地域学習センター","province":"東京都","city":"足立区","address":"東京都足立区舎人1丁目3-26","lat":35.80600115,"lon":139.7731607},{"name":"新田地域学習センター","province":"東京都","city":"足立区","address":"東京都足立区新田2丁目2-2","lat":35.77156533,"lon":139.73827622},{"name":"花畑地域学習センター","province":"東京都","city":"足立区","address":"東京都足立区花畑4丁目16-8","lat":35.80290549,"lon":139.80751908},{"name":"生物園","province":"東京都","city":"足立区","address":"東京都足立区保木間2丁目17-1","lat":35.79245385,"lon":139.8072361},{"name":"保塚地域学習センター","province":"東京都","city":"足立区","address":"東京都足立区保塚町7-16","lat":35.78686847,"lon":139.81597167},{"name":"鹿浜地域学習センター","province":"東京都","city":"足立区","address":"東京都足立区鹿浜6丁目8-1","lat":35.78397277,"lon":139.75817115},{"name":"足立区生涯学習センター","province":"東京都","city":"足立区","address":"東京都足立区千住5丁目13-5","lat":35.75654132,"lon":139.80267428},{"name":"東和地域学習センター","province":"東京都","city":"足立区","address":"東京都足立区東和3丁目12-9","lat":35.77112337,"lon":139.83951467},{"name":"青戸地区センター","province":"東京都","city":"葛飾区","address":"東京都葛飾区青戸5丁目20-6","lat":35.75015679,"lon":139.854317},{"name":"青戸中央憩い交流館","province":"東京都","city":"葛飾区","address":"東京都葛飾区青戸6丁目16-12","lat":35.75305926,"lon":139.85712496},{"name":"テクノプラザかつしか（葛飾区地域産業振興会館）","province":"東京都","city":"葛飾区","address":"東京都葛飾区青戸7丁目2-1","lat":35.75232874,"lon":139.85253928},{"name":"西奥戸憩い交流館","province":"東京都","city":"葛飾区","address":"東京都葛飾区奥戸1丁目12-1","lat":35.72859527,"lon":139.85405422},{"name":"奥戸総合スポーツセンター体育館","province":"東京都","city":"葛飾区","address":"東京都葛飾区奥戸7丁目17-1","lat":35.73772504,"lon":139.86210297},{"name":"お花茶屋図書館","province":"東京都","city":"葛飾区","address":"東京都葛飾区お花茶屋2丁目1-15","lat":35.75119269,"lon":139.83869897},{"name":"亀有学び交流館","province":"東京都","city":"葛飾区","address":"東京都葛飾区お花茶屋3丁目5-6","lat":35.75648368,"lon":139.84306772},{"name":"末広憩い交流館","province":"東京都","city":"葛飾区","address":"東京都葛飾区金町5丁目4-1","lat":35.76596582,"lon":139.86635724},{"name":"鎌倉図書館","province":"東京都","city":"葛飾区","address":"東京都葛飾区鎌倉2丁目4-5","lat":35.74524093,"lon":139.8753711},{"name":"鎌倉憩い交流館","province":"東京都","city":"葛飾区","address":"東京都葛飾区鎌倉2丁目6-20","lat":35.74530482,"lon":139.87452393},{"name":"亀有図書館","province":"東京都","city":"葛飾区","address":"東京都葛飾区亀有1丁目17-5","lat":35.75911949,"lon":139.84602845},{"name":"中央図書館","province":"東京都","city":"葛飾区","address":"東京都葛飾区金町6丁目2-1","lat":35.76781825,"lon":139.87126244},{"name":"小菅憩い交流館","province":"東京都","city":"葛飾区","address":"東京都葛飾区小菅3丁目6-1","lat":35.75480297,"lon":139.82407777},{"name":"こすげ地区図書館","province":"東京都","city":"葛飾区","address":"東京都葛飾区小菅3丁目8-22","lat":35.75382256,"lon":139.82480832},{"name":"柴又学び交流館","province":"東京都","city":"葛飾区","address":"東京都葛飾区柴又5丁目33-8","lat":35.75367296,"lon":139.88188158},{"name":"新小岩地区センター","province":"東京都","city":"葛飾区","address":"東京都葛飾区新小岩2丁目17-1","lat":35.7163325,"lon":139.8617432},{"name":"新宿憩い交流館","province":"東京都","city":"葛飾区","address":"東京都葛飾区新宿1丁目5-6","lat":35.75908077,"lon":139.85894123},{"name":"奥戸総合スポーツセンター温水プール館","province":"東京都","city":"葛飾区","address":"東京都葛飾区高砂1丁目2-1","lat":35.74105524,"lon":139.86366937},{"name":"高砂地区センター","province":"東京都","city":"葛飾区","address":"東京都葛飾区高砂3丁目1-39","lat":35.74596025,"lon":139.86832714},{"name":"四つ木地区センター","province":"東京都","city":"葛飾区","address":"東京都葛飾区宝町1丁目1-22","lat":35.74012489,"lon":139.83716655},{"name":"宝町憩い交流館","province":"東京都","city":"葛飾区","address":"東京都葛飾区宝町2丁目38-19","lat":35.7477293,"lon":139.83719657},{"name":"立石図書館","province":"東京都","city":"葛飾区","address":"東京都葛飾区立石1丁目9-1","lat":35.73721368,"lon":139.84567116},{"name":"ウィメンズパル","province":"東京都","city":"葛飾区","address":"東京都葛飾区立石5丁目27-1","lat":35.74569892,"lon":139.84610128},{"name":"シニア活動支援センター","province":"東京都","city":"葛飾区","address":"東京都葛飾区立石6丁目38-11","lat":35.74387419,"lon":139.85437559},{"name":"水道局葛飾営業所","province":"東京都","city":"葛飾区","address":"東京都葛飾区立石8丁目17-4","lat":35.74129945,"lon":139.85343413},{"name":"中道憩い交流館","province":"東京都","city":"葛飾区","address":"東京都葛飾区西亀有1丁目2-7","lat":35.75676969,"lon":139.83702936},{"name":"砂原憩い交流館","province":"東京都","city":"葛飾区","address":"東京都葛飾区西亀有3丁目12-1","lat":35.76248283,"lon":139.83819565},{"name":"たつみ憩い交流館","province":"東京都","city":"葛飾区","address":"東京都葛飾区西新小岩2丁目1-4","lat":35.71815437,"lon":139.85442984},{"name":"西水元地区図書館","province":"東京都","city":"葛飾区","address":"東京都葛飾区西水元2丁目2-8","lat":35.78494379,"lon":139.84906078},{"name":"東金町憩い交流館","province":"東京都","city":"葛飾区","address":"東京都葛飾区東金町5丁目22-18","lat":35.7793248,"lon":139.87804785},{"name":"上小松図書館","province":"東京都","city":"葛飾区","address":"東京都葛飾区東新小岩3丁目12-1","lat":35.72297089,"lon":139.8619316},{"name":"新小岩北地区センター","province":"東京都","city":"葛飾区","address":"東京都葛飾区東新小岩6丁目21-1","lat":35.72426786,"lon":139.85866795},{"name":"東立石地区センター","province":"東京都","city":"葛飾区","address":"東京都葛飾区東立石2丁目15-7","lat":35.73410011,"lon":139.84755724},{"name":"水元図書館","province":"東京都","city":"葛飾区","address":"東京都葛飾区東水元1丁目7-3","lat":35.77884728,"lon":139.8675263},{"name":"東四つ木地区センター","province":"東京都","city":"葛飾区","address":"東京都葛飾区東四つ木1丁目20-4","lat":35.72894304,"lon":139.84065022},{"name":"堀切憩い交流館","province":"東京都","city":"葛飾区","address":"東京都葛飾区堀切1丁目23-6","lat":35.7404527,"lon":139.82935639},{"name":"堀切地区センター","province":"東京都","city":"葛飾区","address":"東京都葛飾区堀切3丁目8-5","lat":35.74724597,"lon":139.82808645},{"name":"水元総合スポーツセンター","province":"東京都","city":"葛飾区","address":"東京都葛飾区水元1丁目23-1","lat":35.78181641,"lon":139.85867681},{"name":"水元憩い交流館","province":"東京都","city":"葛飾区","address":"東京都葛飾区水元4丁目6-15","lat":35.78816825,"lon":139.86057098},{"name":"水元学び交流館","province":"東京都","city":"葛飾区","address":"東京都葛飾区南水元2丁目13-1","lat":35.77966116,"lon":139.85567153},{"name":"一之江コミュニティ会館","province":"東京都","city":"江戸川区","address":"東京都江戸川区一之江2丁目6-15","lat":35.69474283,"lon":139.88315283},{"name":"共育プラザ一之江","province":"東京都","city":"江戸川区","address":"東京都江戸川区一之江3丁目13-7","lat":35.68976836,"lon":139.88425574},{"name":"コミュニティプラザ一之江","province":"東京都","city":"江戸川区","address":"東京都江戸川区一之江7丁目35-22","lat":35.68614337,"lon":139.88165895},{"name":"一之江駅（都営新宿線）","province":"東京都","city":"江戸川区","address":"東京都江戸川区一之江8丁目14-1","lat":35.68602407,"lon":139.88303104},{"name":"共育プラザ葛西","province":"東京都","city":"江戸川区","address":"東京都江戸川区宇喜田町175","lat":35.67286832,"lon":139.8612113},{"name":"東部図書館","province":"東京都","city":"江戸川区","address":"東京都江戸川区松江2丁目35-6","lat":35.7006549,"lon":139.87437839},{"name":"江戸川コミュニティ会館","province":"東京都","city":"江戸川区","address":"東京都江戸川区江戸川2丁目8","lat":35.68601977,"lon":139.89940473},{"name":"葛西図書館","province":"東京都","city":"江戸川区","address":"東京都江戸川区江戸川6丁目24-1","lat":35.67554899,"lon":139.87083259},{"name":"二之江コミュニティ会館","province":"東京都","city":"江戸川区","address":"東京都江戸川区江戸川6丁目46","lat":35.67694408,"lon":139.88081775},{"name":"上一色コミュニティセンター","province":"東京都","city":"江戸川区","address":"東京都江戸川区上一色2丁目6-10","lat":35.7255906,"lon":139.87251651},{"name":"篠崎コミュニティ会館","province":"東京都","city":"江戸川区","address":"東京都江戸川区上篠崎4丁目21-8","lat":35.70807572,"lon":139.90125356},{"name":"北葛西コミュニティ会館","province":"東京都","city":"江戸川区","address":"東京都江戸川区北葛西2丁目11-39","lat":35.67311814,"lon":139.85718663},{"name":"小岩アーバンプラザ","province":"東京都","city":"江戸川区","address":"東京都江戸川区北小岩1丁目17-1","lat":35.73561727,"lon":139.8926729},{"name":"北小岩コミュニティ会館","province":"東京都","city":"江戸川区","address":"東京都江戸川区北小岩6丁目35-17","lat":35.74219131,"lon":139.88691483},{"name":"小松川さくらホール","province":"東京都","city":"江戸川区","address":"東京都江戸川区小松川3丁目6-3","lat":35.69662582,"lon":139.84888403},{"name":"鹿骨区民館","province":"東京都","city":"江戸川区","address":"東京都江戸川区鹿骨1丁目54-2","lat":35.70951096,"lon":139.88986829},{"name":"篠崎文化プラザ","province":"東京都","city":"江戸川区","address":"東京都江戸川区篠崎町7丁目20-19","lat":35.70537076,"lon":139.90281744},{"name":"篠崎駅（都営新宿線）","province":"東京都","city":"江戸川区","address":"東京都江戸川区篠崎町7丁目27-1","lat":35.70605388,"lon":139.90360347},{"name":"清新町コミュニティ会館","province":"東京都","city":"江戸川区","address":"東京都江戸川区清新町1丁目2-2","lat":35.65887822,"lon":139.85598997},{"name":"江戸川校\"","province":"東京都","city":"江戸川区","address":"東京都江戸川区中央2丁目31-27","lat":35.70692643,"lon":139.87508919},{"name":"中央図書館","province":"東京都","city":"江戸川区","address":"東京都江戸川区中央3丁目1-3","lat":35.71058648,"lon":139.86976474},{"name":"総合文化センター","province":"東京都","city":"江戸川区","address":"東京都江戸川区中央4丁目14-1","lat":35.71108906,"lon":139.86826216},{"name":"葛西区民館","province":"東京都","city":"江戸川区","address":"東京都江戸川区中葛西3丁目10-1","lat":35.66592511,"lon":139.86958022},{"name":"新田コミュニティ会館","province":"東京都","city":"江戸川区","address":"東京都江戸川区中葛西7丁目17-1","lat":35.65465964,"lon":139.86643095},{"name":"スポーツセンター","province":"東京都","city":"江戸川区","address":"東京都江戸川区西葛西4丁目2-20","lat":35.66800789,"lon":139.86256411},{"name":"西葛西図書館","province":"東京都","city":"江戸川区","address":"東京都江戸川区西葛西5丁目10-47","lat":35.66485273,"lon":139.86291418},{"name":"江戸川区球場","province":"東京都","city":"江戸川区","address":"東京都江戸川区西葛西7丁目2-1","lat":35.66233062,"lon":139.85749805},{"name":"西小岩コミュニティ会館","province":"東京都","city":"江戸川区","address":"東京都江戸川区西小岩4丁目3-22","lat":35.73726431,"lon":139.88014042},{"name":"瑞江コミュニティ会館","province":"東京都","city":"江戸川区","address":"東京都江戸川区西瑞江3丁目18-1","lat":35.68678309,"lon":139.89103591},{"name":"長島桑川コミュニティ会館","province":"東京都","city":"江戸川区","address":"東京都江戸川区東葛西5丁目31-18","lat":35.66596165,"lon":139.8779156},{"name":"東葛西コミュニティ会館","province":"東京都","city":"江戸川区","address":"東京都江戸川区東葛西8丁目22-1","lat":35.6548379,"lon":139.87969652},{"name":"小岩図書館","province":"東京都","city":"江戸川区","address":"東京都江戸川区東小岩3丁目6-9","lat":35.73129292,"lon":139.89051482},{"name":"スポーツランド","province":"東京都","city":"江戸川区","address":"東京都江戸川区東篠崎1丁目8-1","lat":35.69837367,"lon":139.91694728},{"name":"東部区民館","province":"東京都","city":"江戸川区","address":"東京都江戸川区東瑞江1丁目17-1","lat":35.68995839,"lon":139.89951006},{"name":"小松川図書館","province":"東京都","city":"江戸川区","address":"東京都江戸川区平井1丁目11-26","lat":35.70149175,"lon":139.85097835},{"name":"小松川区民館","province":"東京都","city":"江戸川区","address":"東京都江戸川区平井4丁目1-1","lat":35.70281664,"lon":139.8480812},{"name":"平井コミュニティ会館","province":"東京都","city":"江戸川区","address":"東京都江戸川区平井4丁目18-10","lat":35.70554971,"lon":139.84796997},{"name":"中平井コミュニティ会館","province":"東京都","city":"江戸川区","address":"東京都江戸川区平井7丁目1-6","lat":35.71184094,"lon":139.83971187},{"name":"共育プラザ平井","province":"東京都","city":"江戸川区","address":"東京都江戸川区平井7丁目21-6","lat":35.71459347,"lon":139.84013389},{"name":"船堀コミュニティ会館","province":"東京都","city":"江戸川区","address":"東京都江戸川区船堀1丁目3-1","lat":35.68623051,"lon":139.86225534},{"name":"船堀駅（都営新宿線）","province":"東京都","city":"江戸川区","address":"東京都江戸川区船堀3丁目6-1","lat":35.68367542,"lon":139.8642413},{"name":"タワーホール船堀","province":"東京都","city":"江戸川区","address":"東京都江戸川区船堀4丁目1-1","lat":35.68437538,"lon":139.86496067},{"name":"新川さくら館","province":"東京都","city":"江戸川区","address":"東京都江戸川区船堀7丁目15-12","lat":35.67544893,"lon":139.86925773},{"name":"松江区民プラザ","province":"東京都","city":"江戸川区","address":"東京都江戸川区松江2丁目1-10","lat":35.69693823,"lon":139.87107344},{"name":"水道局江戸川営業所","province":"東京都","city":"江戸川区","address":"東京都江戸川区松江5丁目4-12","lat":35.68771672,"lon":139.86624657},{"name":"松江コミュニティ会館","province":"東京都","city":"江戸川区","address":"東京都江戸川区松江7丁目5-12","lat":35.69120855,"lon":139.8729124},{"name":"グリーンパレス","province":"東京都","city":"江戸川区","address":"東京都江戸川区松島1丁目38-1","lat":35.70574763,"lon":139.86622663},{"name":"総合体育館","province":"東京都","city":"江戸川区","address":"東京都江戸川区松本1丁目35-1","lat":35.71738346,"lon":139.87633873},{"name":"瑞江駅（都営新宿線）","province":"東京都","city":"江戸川区","address":"東京都江戸川区瑞江2丁目2-1","lat":35.69319986,"lon":139.89785444},{"name":"東部フレンドホール","province":"東京都","city":"江戸川区","address":"東京都江戸川区瑞江2丁目5-7","lat":35.69401926,"lon":139.8976433},{"name":"南葛西会館","province":"東京都","city":"江戸川区","address":"東京都江戸川区南葛西6丁目8-9","lat":35.64673028,"lon":139.87602772},{"name":"南小岩コミュニティ会館","province":"東京都","city":"江戸川区","address":"東京都江戸川区南小岩7丁目17-10","lat":35.73052355,"lon":139.88192939},{"name":"臨海町コミュニティ会館","province":"東京都","city":"江戸川区","address":"東京都江戸川区臨海町2丁目2-9","lat":35.65293462,"lon":139.86000655},{"name":"（クリエイトホール）\"","province":"東京都","city":"八王子市","address":"東京都八王子市東町5-6","lat":35.65857655,"lon":139.33998949},{"name":"石川市民センター","province":"東京都","city":"八王子市","address":"東京都八王子市石川町438","lat":35.68029124,"lon":139.36442002},{"name":"南大谷子ども・若者育成支援センター","province":"東京都","city":"八王子市","address":"東京都八王子市大谷町46-1","lat":35.66933398,"lon":139.35371573},{"name":"大横保健福祉センター","province":"東京都","city":"八王子市","address":"東京都八王子市大横町11-35","lat":35.66431726,"lon":139.32781535},{"name":"（八王子市こども科学館）\"","province":"東京都","city":"八王子市","address":"東京都八王子市大横町9-13","lat":35.66484498,"lon":139.327807},{"name":"大和田市民センター","province":"東京都","city":"八王子市","address":"東京都八王子市大和田町5丁目9-1","lat":35.66315131,"lon":139.35201885},{"name":"由木東市民センター","province":"東京都","city":"八王子市","address":"東京都八王子市鹿島111-1","lat":35.63421459,"lon":139.42155025},{"name":"松が谷子ども・若者育成支援センター鹿島分館","province":"東京都","city":"八王子市","address":"東京都八王子市鹿島2","lat":35.63301763,"lon":139.42671097},{"name":"加住市民センター","province":"東京都","city":"八王子市","address":"東京都八王子市加住町1丁目338","lat":35.69957151,"lon":139.32391723},{"name":"由井市民センター","province":"東京都","city":"八王子市","address":"東京都八王子市片倉町702-1","lat":35.64135632,"lon":139.34020396},{"name":"元八王子市民センター","province":"東京都","city":"八王子市","address":"東京都八王子市上壱分方町747-1","lat":35.68312511,"lon":139.28624597},{"name":"夕やけ小やけふれあいの里","province":"東京都","city":"八王子市","address":"東京都八王子市上恩方町2030","lat":35.66959833,"lon":139.2164327},{"name":"川口市民センター","province":"東京都","city":"八王子市","address":"東京都八王子市川口町3838","lat":35.68672505,"lon":139.29877535},{"name":"生涯学習センター川口分館","province":"東京都","city":"八王子市","address":"東京都八王子市川口町3838","lat":35.68672505,"lon":139.29877535},{"name":"川口子ども・若者育成支援センター","province":"東京都","city":"八王子市","address":"東京都八王子市川口町3974","lat":35.69268206,"lon":139.28217097},{"name":"北野事務所","province":"東京都","city":"八王子市","address":"東京都八王子市北野町549-5","lat":35.64602276,"lon":139.35309986},{"name":"北野子ども・若者育成支援センター","province":"東京都","city":"八王子市","address":"東京都八王子市北野町549-9","lat":35.64644771,"lon":139.35307485},{"name":"横山南市民センター","province":"東京都","city":"八王子市","address":"東京都八王子市椚田町137-3","lat":35.63377589,"lon":139.31052351},{"name":"由木子ども・若者育成支援センター","province":"東京都","city":"八王子市","address":"東京都八王子市越野692-1","lat":35.62934754,"lon":139.38438672},{"name":"子安市民センター","province":"東京都","city":"八王子市","address":"東京都八王子市子安町2丁目6-1","lat":35.65072757,"lon":139.34465045},{"name":"富士森体育館分館","province":"東京都","city":"八王子市","address":"東京都八王子市散田町2丁目37-1","lat":35.64897985,"lon":139.31924162},{"name":"由木中央市民センター","province":"東京都","city":"八王子市","address":"東京都八王子市下柚木2丁目10-6","lat":35.62696168,"lon":139.38275641},{"name":"富士森体育館","province":"東京都","city":"八王子市","address":"東京都八王子市台町2丁目3-7","lat":35.65041589,"lon":139.32258573},{"name":"台町市民センター","province":"東京都","city":"八王子市","address":"東京都八王子市台町3丁目20-1","lat":35.65504863,"lon":139.32010522},{"name":"元八王子子ども・若者育成支援センター","province":"東京都","city":"八王子市","address":"東京都八王子市大楽寺町508-3","lat":35.67178785,"lon":139.29656223},{"name":"浅川市民センター","province":"東京都","city":"八王子市","address":"東京都八王子市高尾町1652-1","lat":35.64360737,"lon":139.27689276},{"name":"戸吹湯ったり館","province":"東京都","city":"八王子市","address":"東京都八王子市戸吹町1798","lat":35.70214799,"lon":139.2944612},{"name":"中野子ども・若者育成支援センター","province":"東京都","city":"八王子市","address":"東京都八王子市中野山王3丁目6-27","lat":35.67456883,"lon":139.32535966},{"name":"中野市民センター","province":"東京都","city":"八王子市","address":"東京都八王子市中野町2726-7","lat":35.68171508,"lon":139.31857111},{"name":"八王子市甲の原体育館","province":"東京都","city":"八王子市","address":"東京都八王子市中野町2726-8","lat":35.68122345,"lon":139.31826282},{"name":"中郷子ども・若者育成支援センター長房分館","province":"東京都","city":"八王子市","address":"東京都八王子市長房町341","lat":35.65669511,"lon":139.29757937},{"name":"長房市民センター","province":"東京都","city":"八王子市","address":"東京都八王子市長房町506-2","lat":35.65040686,"lon":139.29530197},{"name":"中郷子ども・若者育成支援センター","province":"東京都","city":"八王子市","address":"東京都八王子市長房町891-2","lat":35.65348969,"lon":139.29069392},{"name":"恩方市民センター","province":"東京都","city":"八王子市","address":"東京都八王子市西寺方町260-4","lat":35.67396725,"lon":139.26872285},{"name":"エスフォルタアリーナ八王子","province":"東京都","city":"八王子市","address":"東京都八王子市狭間町1453-1","lat":35.63985811,"lon":139.29251929},{"name":"浅川子ども・若者育成支援センター","province":"東京都","city":"八王子市","address":"東京都八王子市初沢町1323","lat":35.63924134,"lon":139.28183972},{"name":"東浅川保健福祉センター","province":"東京都","city":"八王子市","address":"東京都八王子市東浅川町551-1","lat":35.64523516,"lon":139.29196356},{"name":"松が谷子ども・若者育成支援センター","province":"東京都","city":"八王子市","address":"東京都八王子市松が谷13","lat":35.6293483,"lon":139.41393162},{"name":"東京都立大学　南大沢キャンパス図書館","province":"東京都","city":"八王子市","address":"東京都八王子市南大沢1丁目1","lat":35.61654608,"lon":139.37719898},{"name":"生涯学習センター南大沢分館","province":"東京都","city":"八王子市","address":"東京都八王子市南大沢2丁目27","lat":35.61194113,"lon":139.37926012},{"name":"南大沢市民センター","province":"東京都","city":"八王子市","address":"東京都八王子市南大沢2丁目27","lat":35.61194113,"lon":139.37926012},{"name":"南大沢文化会館","province":"東京都","city":"八王子市","address":"東京都八王子市南大沢2丁目27","lat":35.61194113,"lon":139.37926012},{"name":"ガレリア・ユギ（イトーヨーカドー南大沢店）","province":"東京都","city":"八王子市","address":"東京都八王子市南大沢2丁目28-1","lat":35.61321042,"lon":139.37930729},{"name":"八王子市役所","province":"東京都","city":"八王子市","address":"東京都八王子市元本郷町3丁目24-1","lat":35.66650282,"lon":139.3160274},{"name":"館ヶ丘子ども・若者育成支援センター","province":"東京都","city":"八王子市","address":"東京都八王子市館町1097-57","lat":35.62823496,"lon":139.2877148},{"name":"北野環境学習センター（あったかホール）","province":"東京都","city":"八王子市","address":"東京都八王子市北野町596-3","lat":35.65532723,"lon":139.35342175},{"name":"東京都立大学　南大沢キャンパス","province":"東京都","city":"八王子市","address":"東京都八王子市南大沢1丁目1","lat":35.61654608,"lon":139.37719898},{"name":"立川市総合福祉センター","province":"東京都","city":"立川市","address":"東京都立川市富士見町2丁目36-47","lat":35.70118685,"lon":139.4018633},{"name":"水道局多摩水道立川庁舎","province":"東京都","city":"立川市","address":"東京都立川市緑町6-7","lat":35.70858351,"lon":139.41213163},{"name":"若葉図書館","province":"東京都","city":"立川市","address":"東京都立川市若葉町3丁目34-1","lat":35.72021344,"lon":139.43921515},{"name":"西部図書館","province":"東京都","city":"三鷹市","address":"東京都三鷹市大沢2丁目6-47","lat":35.68096491,"lon":139.53580002},{"name":"芸術文化センター","province":"東京都","city":"三鷹市","address":"東京都三鷹市上連雀6丁目12-14","lat":35.69288347,"lon":139.55831695},{"name":"上連雀分庁舎","province":"東京都","city":"三鷹市","address":"東京都三鷹市上連雀8丁目3-10","lat":35.68484541,"lon":139.5577978},{"name":"三鷹図書館","province":"東京都","city":"三鷹市","address":"東京都三鷹市上連雀8丁目3-3","lat":35.68524815,"lon":139.55810887},{"name":"三鷹駅前図書館","province":"東京都","city":"三鷹市","address":"東京都三鷹市下連雀3丁目13-10","lat":35.69958836,"lon":139.56312736},{"name":"南部図書館","province":"東京都","city":"三鷹市","address":"東京都三鷹市新川5丁目14-16","lat":35.67524951,"lon":139.5685694},{"name":"三鷹市教育センター","province":"東京都","city":"三鷹市","address":"東京都三鷹市下連雀9丁目11-7","lat":35.68428441,"lon":139.56000595},{"name":"公会堂","province":"東京都","city":"三鷹市","address":"東京都三鷹市野崎1丁目1-1","lat":35.68351227,"lon":139.55959768},{"name":"公会堂さんさん館","province":"東京都","city":"三鷹市","address":"東京都三鷹市野崎1丁目1-1","lat":35.68351227,"lon":139.55959768},{"name":"三鷹市役所本庁舎","province":"東京都","city":"三鷹市","address":"東京都三鷹市野崎1丁目1-1","lat":35.68351227,"lon":139.55959768},{"name":"三鷹市役所第二庁舎","province":"東京都","city":"三鷹市","address":"東京都三鷹市野崎1丁目1-1","lat":35.68351227,"lon":139.55959768},{"name":"三鷹市役所第三庁舎","province":"東京都","city":"三鷹市","address":"東京都三鷹市野崎1丁目1-1","lat":35.68351227,"lon":139.55959768},{"name":"東部図書館","province":"東京都","city":"三鷹市","address":"東京都三鷹市牟礼5丁目8-16","lat":35.68269613,"lon":139.57895156},{"name":"三鷹ネットワーク大学","province":"東京都","city":"三鷹市","address":"東京都三鷹市下連雀3丁目24-3","lat":35.70182698,"lon":139.56212181},{"name":"朝日体育館","province":"東京都","city":"府中市","address":"東京都府中市朝日町2丁目10","lat":35.67403187,"lon":139.51608799},{"name":"府中市美術館","province":"東京都","city":"府中市","address":"東京都府中市浅間町1丁目3","lat":35.67765858,"lon":139.49128998},{"name":"生涯学習センター","province":"東京都","city":"府中市","address":"東京都府中市浅間町1丁目7","lat":35.67845582,"lon":139.49642285},{"name":"栄町体育館","province":"東京都","city":"府中市","address":"東京都府中市栄町1丁目1","lat":35.68799049,"lon":139.48122374},{"name":"押立体育館","province":"東京都","city":"府中市","address":"東京都府中市押立町1丁目37","lat":35.6594975,"lon":139.51183059},{"name":"押立文化センター","province":"東京都","city":"府中市","address":"東京都府中市押立町5丁目4","lat":35.6535432,"lon":139.51813618},{"name":"四谷文化センター","province":"東京都","city":"府中市","address":"東京都府中市四谷2丁目75","lat":35.66544493,"lon":139.44515819},{"name":"片町文化センター","province":"東京都","city":"府中市","address":"東京都府中市片町2丁目17","lat":35.67065053,"lon":139.46938092},{"name":"府中駅北第２庁舎","province":"東京都","city":"府中市","address":"東京都府中市寿町1丁目5","lat":35.67358376,"lon":139.47844675},{"name":"水道局府中サービスステーション","province":"東京都","city":"府中市","address":"東京都府中市寿町3丁目4-6","lat":35.67366976,"lon":139.47448595},{"name":"是政文化センター","province":"東京都","city":"府中市","address":"東京都府中市是政2丁目20","lat":35.66095232,"lon":139.49570406},{"name":"白糸台体育館","province":"東京都","city":"府中市","address":"東京都府中市白糸台1丁目50","lat":35.67090696,"lon":139.50735546},{"name":"白糸台文化センター","province":"東京都","city":"府中市","address":"東京都府中市白糸台1丁目60","lat":35.66700463,"lon":139.50618625},{"name":"新町文化センター","province":"東京都","city":"府中市","address":"東京都府中市新町1丁目66-38","lat":35.68699081,"lon":139.48998971},{"name":"住吉文化センター","province":"東京都","city":"府中市","address":"東京都府中市住吉町1丁目61","lat":35.66017924,"lon":139.46041535},{"name":"女性センター","province":"東京都","city":"府中市","address":"東京都府中市住吉町1丁目84-1","lat":35.66029029,"lon":139.45842663},{"name":"西府文化センター","province":"東京都","city":"府中市","address":"東京都府中市西府町1丁目60","lat":35.67096688,"lon":139.45644591},{"name":"ルミエール府中","province":"東京都","city":"府中市","address":"東京都府中市府中町2丁目24","lat":35.67636691,"lon":139.48406007},{"name":"中央文化センター","province":"東京都","city":"府中市","address":"東京都府中市府中町2丁目25","lat":35.67577528,"lon":139.48285464},{"name":"保健センター","province":"東京都","city":"府中市","address":"東京都府中市府中町2丁目25","lat":35.67577528,"lon":139.48285464},{"name":"本宿体育館","province":"東京都","city":"府中市","address":"東京都府中市本宿町4丁目23","lat":35.67941044,"lon":139.45993975},{"name":"府中市郷土の森博物館","province":"東京都","city":"府中市","address":"東京都府中市南町6丁目32","lat":35.65652993,"lon":139.47301715},{"name":"府中市本庁舎","province":"東京都","city":"府中市","address":"東京都府中市宮西町2丁目24","lat":35.66907035,"lon":139.47727755},{"name":"市民活動センタープラッツ","province":"東京都","city":"府中市","address":"東京都府中市宮町1丁目100","lat":35.67197841,"lon":139.47949673},{"name":"府中市ふるさと府中歴史館","province":"東京都","city":"府中市","address":"東京都府中市宮町3丁目1","lat":35.66815661,"lon":139.47911076},{"name":"武蔵台文化センター","province":"東京都","city":"府中市","address":"東京都府中市武蔵台2丁目2","lat":35.68866772,"lon":139.46109766},{"name":"紅葉丘文化センター","province":"東京都","city":"府中市","address":"東京都府中市紅葉丘2丁目1-5","lat":35.6772174,"lon":139.50927453},{"name":"総合体育館","province":"東京都","city":"府中市","address":"東京都府中市矢崎町5丁目5","lat":35.65587176,"lon":139.4762058},{"name":"四谷体育館","province":"東京都","city":"府中市","address":"東京都府中市四谷5丁目6","lat":35.66426439,"lon":139.44148355},{"name":"調布市郷土博物館","province":"東京都","city":"調布市","address":"東京都調布市小島町3丁目26-2","lat":35.64689761,"lon":139.53619082},{"name":"調布市民西調布体育館","province":"東京都","city":"調布市","address":"東京都調布市上石原2丁目4-1","lat":35.65753445,"lon":139.5274851},{"name":"北部公民館","province":"東京都","city":"調布市","address":"東京都調布市柴崎2丁目5-18","lat":35.66157875,"lon":139.56272874},{"name":"神代植物公園","province":"東京都","city":"調布市","address":"東京都調布市深大寺北町1丁目4-6","lat":35.67326872,"lon":139.547663},{"name":"調布市総合体育館","province":"東京都","city":"調布市","address":"東京都調布市深大寺北町2丁目1-65","lat":35.67244946,"lon":139.55178487},{"name":"図書館深大寺分館","province":"東京都","city":"調布市","address":"東京都調布市深大寺北町5丁目17-3","lat":35.6780988,"lon":139.55037926},{"name":"神代植物公園","province":"東京都","city":"調布市","address":"東京都調布市深大寺元町5丁目31-10","lat":35.67232991,"lon":139.54589097},{"name":"神代出張所","province":"東京都","city":"調布市","address":"東京都調布市西つつじケ丘3丁目19-1","lat":35.65785165,"lon":139.57107542},{"name":"武蔵野の森総合スポーツプラザ","province":"東京都","city":"調布市","address":"東京都調布市西町290-11","lat":35.66494159,"lon":139.52389608},{"name":"調布市東部公民館","province":"東京都","city":"調布市","address":"東京都調布市若葉町1丁目29-21","lat":35.65819627,"lon":139.58298542},{"name":"サン町田旭体育館","province":"東京都","city":"町田市","address":"東京都町田市旭町3丁目20-60","lat":35.55634896,"lon":139.44662554},{"name":"鶴川市民センター","province":"東京都","city":"町田市","address":"東京都町田市大蔵町1981-4","lat":35.58888611,"lon":139.46739571},{"name":"小山市民センター","province":"東京都","city":"町田市","address":"東京都町田市小山町2507-1","lat":35.59715385,"lon":139.36896715},{"name":"南市民センター","province":"東京都","city":"町田市","address":"東京都町田市金森4丁目5-6","lat":35.5237481,"lon":139.4667696},{"name":"木曽森野コミュニティセンター","province":"東京都","city":"町田市","address":"東京都町田市木曽東1丁目2","lat":35.55656271,"lon":139.43028811},{"name":"水道局町田サービスステーション","province":"東京都","city":"町田市","address":"東京都町田市木曽東1丁目4-1","lat":35.55778481,"lon":139.43023252},{"name":"相原中央公園管理棟","province":"東京都","city":"町田市","address":"東京都町田市相原町2018","lat":35.60930444,"lon":139.31964321},{"name":"町田市立室内プール","province":"東京都","city":"町田市","address":"東京都町田市図師町199-1","lat":35.58627029,"lon":139.41303335},{"name":"忠生市民センター","province":"東京都","city":"町田市","address":"東京都町田市忠生3丁目14-2","lat":35.57836563,"lon":139.41603053},{"name":"つくし野コミュニティセンター","province":"東京都","city":"町田市","address":"東京都町田市つくし野2丁目26-5","lat":35.52716937,"lon":139.48469949},{"name":"町田GIONスタジアム","province":"東京都","city":"町田市","address":"東京都町田市野津田町2035","lat":35.59190908,"lon":139.43862536},{"name":"成瀬コミュニティセンター","province":"東京都","city":"町田市","address":"東京都町田市西成瀬2丁目49-1","lat":35.54352677,"lon":139.47274369},{"name":"町田市立鶴川駅前図書館","province":"東京都","city":"町田市","address":"東京都町田市能ヶ谷1丁目2-1","lat":35.58281289,"lon":139.47887319},{"name":"町田市立中央図書館","province":"東京都","city":"町田市","address":"東京都町田市原町田3丁目2-9","lat":35.54050622,"lon":139.45036188},{"name":"町田市民フォーラム","province":"東京都","city":"町田市","address":"東京都町田市原町田4丁目9-8","lat":35.54180052,"lon":139.44984799},{"name":"町田市健康福祉会館","province":"東京都","city":"町田市","address":"東京都町田市原町田5丁目8-21","lat":35.54609452,"lon":139.45002283},{"name":"なるせ駅前市民センター","province":"東京都","city":"町田市","address":"東京都町田市南成瀬1丁目2-5","lat":35.53680532,"lon":139.47301332},{"name":"町田市立総合体育館","province":"東京都","city":"町田市","address":"東京都町田市南成瀬5丁目12","lat":35.53652562,"lon":139.47901873},{"name":"成瀬クリーンセンター","province":"東京都","city":"町田市","address":"東京都町田市南成瀬8丁目1-1","lat":35.53524587,"lon":139.48370755},{"name":"三輪コミュニティセンター","province":"東京都","city":"町田市","address":"東京都町田市三輪緑山4丁目14-4","lat":35.57715408,"lon":139.4936368},{"name":"町田市庁舎","province":"東京都","city":"町田市","address":"東京都町田市森野2丁目2-22","lat":35.54666373,"lon":139.43864046},{"name":"町田市民ホール","province":"東京都","city":"町田市","address":"東京都町田市森野2丁目2-36","lat":35.54702482,"lon":139.43975979},{"name":"木曽山崎コミュニティセンター","province":"東京都","city":"町田市","address":"東京都町田市山崎町2160-4","lat":35.56853928,"lon":139.43666498},{"name":"小金井市総合体育館","province":"東京都","city":"小金井市","address":"東京都小金井市関野町1丁目13-1","lat":35.7142719,"lon":139.51990554},{"name":"栗山公園健康運動センター","province":"東京都","city":"小金井市","address":"東京都小金井市中町2丁目21-1","lat":35.69786265,"lon":139.52130058},{"name":"公民館貫井北分館","province":"東京都","city":"小金井市","address":"東京都小金井市貫井北町1丁目11-12","lat":35.7023476,"lon":139.49763845},{"name":"小金井 宮地楽器ホール","province":"東京都","city":"小金井市","address":"東京都小金井市本町6丁目14-45","lat":35.7001731,"lon":139.50662947},{"name":"前原町西之台会館","province":"東京都","city":"小金井市","address":"東京都小金井市前原町3丁目8-1","lat":35.69391528,"lon":139.49958585},{"name":"小平市立大沼図書館・公民館","province":"東京都","city":"小平市","address":"東京都小平市大沼町7丁目1-17","lat":35.73549383,"lon":139.49711482},{"name":"大沼地域センター","province":"東京都","city":"小平市","address":"東京都小平市大沼町2丁目17-33","lat":35.74152364,"lon":139.49448146},{"name":"小平市西部市民センター","province":"東京都","city":"小平市","address":"東京都小平市小川西町4丁目10-13","lat":35.73514287,"lon":139.46176801},{"name":"小川西町地域センター","province":"東京都","city":"小平市","address":"東京都小平市小川西町5丁目4-17","lat":35.73524268,"lon":139.45597407},{"name":"小川東町地域センター","province":"東京都","city":"小平市","address":"東京都小平市小川東町1805","lat":35.73520169,"lon":139.47807488},{"name":"小川東第二地域センター","province":"東京都","city":"小平市","address":"東京都小平市小川東町5丁目9-1","lat":35.73259615,"lon":139.4685564},{"name":"学園西町地域センター","province":"東京都","city":"小平市","address":"東京都小平市学園西町2丁目12-22","lat":35.72270583,"lon":139.4756423},{"name":"健康センター","province":"東京都","city":"小平市","address":"東京都小平市学園東町1丁目19-12","lat":35.72699983,"lon":139.47754474},{"name":"学園東町地域センター","province":"東京都","city":"小平市","address":"東京都小平市学園東町2丁目16-11","lat":35.72580291,"lon":139.4835387},{"name":"喜平地域センター","province":"東京都","city":"小平市","address":"東京都小平市喜平町1丁目10-9","lat":35.71612914,"lon":139.48851087},{"name":"喜平図書館","province":"東京都","city":"小平市","address":"東京都小平市喜平町3丁目3-18","lat":35.71731796,"lon":139.49086896},{"name":"小平市立小川公民館","province":"東京都","city":"小平市","address":"東京都小平市小川町1丁目1012-6","lat":35.72536062,"lon":139.45931308},{"name":"小川町一丁目地域センター","province":"東京都","city":"小平市","address":"東京都小平市小川町1丁目3045","lat":35.72933204,"lon":139.44813337},{"name":"小平市立上宿公民館","province":"東京都","city":"小平市","address":"東京都小平市小川町1丁目308","lat":35.73162888,"lon":139.44385031},{"name":"上宿図書館","province":"東京都","city":"小平市","address":"東京都小平市小川町1丁目345","lat":35.73025947,"lon":139.43915078},{"name":"小川町二丁目地域センター","province":"東京都","city":"小平市","address":"東京都小平市小川町2丁目1154","lat":35.72773834,"lon":139.46729283},{"name":"小平市中央公民館","province":"東京都","city":"小平市","address":"東京都小平市小川町2丁目1325","lat":35.72776638,"lon":139.47652812},{"name":"中央図書館","province":"東京都","city":"小平市","address":"東京都小平市小川町2丁目1325","lat":35.72776638,"lon":139.47652812},{"name":"御幸地域センター","province":"東京都","city":"小平市","address":"東京都小平市御幸町58","lat":35.71441858,"lon":139.50126542},{"name":"上水新町地域センター","province":"東京都","city":"小平市","address":"東京都小平市上水新町1丁目14-18","lat":35.72534338,"lon":139.43885382},{"name":"上水本町地域センター","province":"東京都","city":"小平市","address":"東京都小平市上水本町3丁目11-11","lat":35.71745906,"lon":139.47036797},{"name":"小平市立上水南公民館","province":"東京都","city":"小平市","address":"東京都小平市上水南町1丁目27-1","lat":35.71308768,"lon":139.48370586},{"name":"鈴木地域センター","province":"東京都","city":"小平市","address":"東京都小平市鈴木町1丁目400","lat":35.72084005,"lon":139.50078182},{"name":"小平市立鈴木公民館","province":"東京都","city":"小平市","address":"東京都小平市鈴木町2丁目772","lat":35.72158181,"lon":139.50726457},{"name":"小平市民総合体育館","province":"東京都","city":"小平市","address":"東京都小平市津田町1丁目1-1","lat":35.72261103,"lon":139.46257124},{"name":"天神地域センター","province":"東京都","city":"小平市","address":"東京都小平市天神町4丁目3-1","lat":35.72818354,"lon":139.49668741},{"name":"中島地域センター","province":"東京都","city":"小平市","address":"東京都小平市中島町26-9","lat":35.72983162,"lon":139.43429289},{"name":"なかまちテラス","province":"東京都","city":"小平市","address":"東京都小平市仲町145","lat":35.73089403,"lon":139.48487726},{"name":"小平市東部市民センター","province":"東京都","city":"小平市","address":"東京都小平市花小金井1丁目8-1","lat":35.72796735,"lon":139.51405254},{"name":"花小金井北地域センター","province":"東京都","city":"小平市","address":"東京都小平市花小金井3丁目10-1","lat":35.73451666,"lon":139.51785185},{"name":"小平市立花小金井北公民館","province":"東京都","city":"小平市","address":"東京都小平市花小金井5丁目41-3","lat":35.73433596,"lon":139.51011647},{"name":"小平市立花小金井南公民館","province":"東京都","city":"小平市","address":"東京都小平市花小金井南町2丁目12-6","lat":35.72433172,"lon":139.51603866},{"name":"花小金井南地域センター","province":"東京都","city":"小平市","address":"東京都小平市花小金井南町3丁目3-17","lat":35.72218481,"lon":139.51861356},{"name":"美園地域センター","province":"東京都","city":"小平市","address":"東京都小平市美園町1丁目19-2","lat":35.73457707,"lon":139.48949056},{"name":"東京都立大学　日野キャンパス","province":"東京都","city":"日野市","address":"東京都日野市旭が丘6丁目6","lat":35.66122125,"lon":139.36573439},{"name":"水道局日野サービスステーション","province":"東京都","city":"日野市","address":"東京都日野市多摩平2丁目7-2","lat":35.66503502,"lon":139.38261897},{"name":"日野市役所","province":"東京都","city":"日野市","address":"東京都日野市神明1丁目12-1","lat":35.67050411,"lon":139.39551218},{"name":"生活・保健センター","province":"東京都","city":"日野市","address":"東京都日野市日野本町1丁目6-2","lat":35.67588416,"lon":139.40011995},{"name":"クリーンセンター","province":"東京都","city":"日野市","address":"東京都日野市石田1丁目210-2","lat":35.66643878,"lon":139.42849016},{"name":"カワセミハウス","province":"東京都","city":"日野市","address":"東京都日野市東豊田3丁目26-1","lat":35.66347136,"lon":139.38474662},{"name":"日野図書館","province":"東京都","city":"日野市","address":"東京都日野市日野本町7丁目5-14","lat":35.67876715,"lon":139.39951434},{"name":"中央公民館","province":"東京都","city":"日野市","address":"東京都日野市日野本町7丁目5-23","lat":35.67950318,"lon":139.4000976},{"name":"日野市発達教育・支援センター","province":"東京都","city":"日野市","address":"東京都日野市旭が丘2丁目42-8","lat":35.66301554,"lon":139.36873964},{"name":"ひの社会教育センター","province":"東京都","city":"日野市","address":"東京都日野市多摩平3丁目1-13","lat":35.66509601,"lon":139.37637505},{"name":"湯沢福祉センター","province":"東京都","city":"日野市","address":"東京都日野市程久保873","lat":35.65185126,"lon":139.41604727},{"name":"七生公会堂","province":"東京都","city":"日野市","address":"東京都日野市三沢3丁目50-1","lat":35.65813659,"lon":139.41400276},{"name":"秋津公民館","province":"東京都","city":"東村山市","address":"東京都東村山市秋津町2丁目17-10","lat":35.77112559,"lon":139.48661728},{"name":"秋津図書館","province":"東京都","city":"東村山市","address":"東京都東村山市秋津町2丁目17-10","lat":35.77112559,"lon":139.48661728},{"name":"秋津児童館","province":"東京都","city":"東村山市","address":"東京都東村山市秋津町3丁目51-25","lat":35.77335302,"lon":139.48347305},{"name":"栄町児童館","province":"東京都","city":"東村山市","address":"東京都東村山市栄町3丁目14-1","lat":35.74693898,"lon":139.46912795},{"name":"北山児童館","province":"東京都","city":"東村山市","address":"東京都東村山市野口町3丁目26-2","lat":35.76507807,"lon":139.45336478},{"name":"八国山たいけんの里","province":"東京都","city":"東村山市","address":"東京都東村山市野口町3丁目48-1","lat":35.76618631,"lon":139.45410912},{"name":"萩山公民館","province":"東京都","city":"東村山市","address":"東京都東村山市萩山町2丁目13-1","lat":35.74155931,"lon":139.478669},{"name":"富士見図書館","province":"東京都","city":"東村山市","address":"東京都東村山市富士見町1丁目7-35","lat":35.74400017,"lon":139.46128433},{"name":"富士見公民館","province":"東京都","city":"東村山市","address":"東京都東村山市富士見町5丁目4-51","lat":35.74666658,"lon":139.46283131},{"name":"中央図書館","province":"東京都","city":"東村山市","address":"東京都東村山市本町1丁目1-10","lat":35.75524913,"lon":139.46820547},{"name":"東村山市役所本庁舎","province":"東京都","city":"東村山市","address":"東京都東村山市本町1丁目2-3","lat":35.75462421,"lon":139.46848323},{"name":"中央公民館","province":"東京都","city":"東村山市","address":"東京都東村山市本町2丁目33-2","lat":35.75983747,"lon":139.46685541},{"name":"美住リサイクルショップ","province":"東京都","city":"東村山市","address":"東京都東村山市美住町2丁目11-32","lat":35.75701262,"lon":139.46183653},{"name":"廻田公民館","province":"東京都","city":"東村山市","address":"東京都東村山市廻田町4丁目19-1","lat":35.75953701,"lon":139.45215675},{"name":"都立多摩図書館","province":"東京都","city":"国分寺市","address":"東京都国分寺市泉町2丁目2-26","lat":35.69808074,"lon":139.46987155},{"name":"恋ケ窪図書館","province":"東京都","city":"国分寺市","address":"東京都国分寺市西恋ヶ窪4丁目12-8","lat":35.70775448,"lon":139.46427167},{"name":"もとまち図書館","province":"東京都","city":"国分寺市","address":"東京都国分寺市東元町2丁目3-13","lat":35.69222617,"lon":139.48334562},{"name":"本多公民館","province":"東京都","city":"国分寺市","address":"東京都国分寺市本多1丁目7-1","lat":35.70540519,"lon":139.48242849},{"name":"光公民館","province":"東京都","city":"国分寺市","address":"東京都国分寺市光町3丁目13-19","lat":35.70781783,"lon":139.44319021},{"name":"並木公民館","province":"東京都","city":"国分寺市","address":"東京都国分寺市並木町2丁目12-3","lat":35.71585325,"lon":139.45321402},{"name":"スポーツセンター\"","province":"東京都","city":"国立市","address":"東京都国立市富士見台2丁目1-1","lat":35.68666756,"lon":139.44659622},{"name":"くにたち中央図書館","province":"東京都","city":"国立市","address":"東京都国立市富士見台2丁目34","lat":35.68558704,"lon":139.44378816},{"name":"くにたち福祉会館","province":"東京都","city":"国立市","address":"東京都国立市富士見台2丁目38-5","lat":35.68744796,"lon":139.44467136},{"name":"国立市役所本庁舎","province":"東京都","city":"国立市","address":"東京都国立市富士見台2丁目47-1","lat":35.68391215,"lon":139.44136621},{"name":"くにたち市民芸術小ホール","province":"東京都","city":"国立市","address":"東京都国立市富士見台2丁目48-1","lat":35.68502867,"lon":139.44038015},{"name":"くにたち市民総合体育館","province":"東京都","city":"国立市","address":"東京都国立市富士見台2丁目48-1","lat":35.68502867,"lon":139.44038015},{"name":"国立市公民館","province":"東京都","city":"国立市","address":"東京都国立市中1丁目15-1","lat":35.69689686,"lon":139.44336835},{"name":"中央体育館","province":"東京都","city":"福生市","address":"東京都福生市北田園2丁目9-1","lat":35.73451441,"lon":139.32237447},{"name":"わかぎり会館・図書館","province":"東京都","city":"福生市","address":"東京都福生市福生（大字）1280-1","lat":35.74619349,"lon":139.32083528},{"name":"白梅会館","province":"東京都","city":"福生市","address":"東京都福生市熊川（大字）559-1","lat":35.7240883,"lon":139.33774313},{"name":"中央図書館","province":"東京都","city":"福生市","address":"東京都福生市熊川（大字）850-1","lat":35.73186235,"lon":139.3376679},{"name":"わかたけ会館・図書館","province":"東京都","city":"福生市","address":"東京都福生市熊川（大字）199-1","lat":35.7181112,"lon":139.33499907},{"name":"福生市役所庁舎","province":"東京都","city":"福生市","address":"東京都福生市本町5","lat":35.73848071,"lon":139.32691568},{"name":"福祉センター","province":"東京都","city":"福生市","address":"東京都福生市南田園2丁目13-1","lat":35.72748498,"lon":139.33227121},{"name":"武蔵野台図書館・児童館","province":"東京都","city":"福生市","address":"東京都福生市武蔵野台1丁目12-2","lat":35.74680769,"lon":139.33394539},{"name":"松林会館","province":"東京都","city":"福生市","address":"東京都福生市武蔵野台1丁目15-1","lat":35.74648547,"lon":139.33246496},{"name":"狛江市役所","province":"東京都","city":"狛江市","address":"東京都狛江市和泉本町1丁目1-5","lat":35.63491314,"lon":139.57873418},{"name":"上和泉地域センター","province":"東京都","city":"狛江市","address":"東京都狛江市和泉本町4丁目7-51","lat":35.64522822,"lon":139.5679874},{"name":"南部地域センター","province":"東京都","city":"狛江市","address":"東京都狛江市猪方4丁目11-1","lat":35.6233737,"lon":139.57983535},{"name":"岩戸地域センター","province":"東京都","city":"狛江市","address":"東京都狛江市岩戸南2丁目2-5","lat":35.63215548,"lon":139.58610878},{"name":"野川地域センター","province":"東京都","city":"狛江市","address":"東京都狛江市西野川1丁目6-9","lat":35.64608091,"lon":139.57550046},{"name":"水道局東大和サービスステーション","province":"東京都","city":"東大和市","address":"東京都東大和市上北台3丁目447","lat":35.74157152,"lon":139.41579944},{"name":"清原市民センター","province":"東京都","city":"東大和市","address":"東京都東大和市清原4丁目1-16","lat":35.7407973,"lon":139.44713296},{"name":"東大和市民体育館","province":"東京都","city":"東大和市","address":"東京都東大和市桜が丘2丁目167-13","lat":35.73666109,"lon":139.42152414},{"name":"東大和市役所","province":"東京都","city":"東大和市","address":"東京都東大和市中央3丁目930","lat":35.74471306,"lon":139.42703715},{"name":"東大和市立郷土博物館","province":"東京都","city":"東大和市","address":"東京都東大和市奈良橋1丁目260-2","lat":35.7551312,"lon":139.42296495},{"name":"東大和市民会館ハミングホール","province":"東京都","city":"東大和市","address":"東京都東大和市向原6丁目1","lat":35.7385306,"lon":139.43434801},{"name":"清瀬市立中央図書館","province":"東京都","city":"清瀬市","address":"東京都清瀬市梅園1丁目1-21","lat":35.77335368,"lon":139.51144289},{"name":"清瀬市郷土博物館","province":"東京都","city":"清瀬市","address":"東京都清瀬市上清戸2丁目6-41","lat":35.77974756,"lon":139.52105859},{"name":"清瀬市立市民体育館","province":"東京都","city":"清瀬市","address":"東京都清瀬市下宿2丁目524-1","lat":35.79763995,"lon":139.53343242},{"name":"清瀬市立児童センター","province":"東京都","city":"清瀬市","address":"東京都清瀬市中清戸3丁目235-5","lat":35.77641211,"lon":139.53064926},{"name":"清瀬市役所","province":"東京都","city":"清瀬市","address":"東京都清瀬市中里5丁目842","lat":35.78608019,"lon":139.52608035},{"name":"野塩地域市民センター","province":"東京都","city":"清瀬市","address":"東京都清瀬市野塩1丁目322-2","lat":35.77918046,"lon":139.49942443},{"name":"清瀬市消費生活センター","province":"東京都","city":"清瀬市","address":"東京都清瀬市元町1丁目4-17","lat":35.7745482,"lon":139.520617},{"name":"東部地域センター","province":"東京都","city":"東久留米市","address":"東京都東久留米市大門町2丁目10-5","lat":35.76484698,"lon":139.54070162},{"name":"東久留米市スポーツセンター","province":"東京都","city":"東久留米市","address":"東京都東久留米市大門町2丁目14-37","lat":35.76225846,"lon":139.54430143},{"name":"西武地域センター","province":"東京都","city":"東久留米市","address":"東京都東久留米市滝山4丁目1-10","lat":35.7448624,"lon":139.50443041},{"name":"わくわく健康プラザ","province":"東京都","city":"東久留米市","address":"東京都東久留米市滝山4丁目3-14","lat":35.74228769,"lon":139.5044833},{"name":"サービスステーション\"","province":"東京都","city":"東久留米市","address":"東京都東久留米市滝山6丁目1-1","lat":35.74739829,"lon":139.50739394},{"name":"中央図書館","province":"東京都","city":"東久留米市","address":"東京都東久留米市中央町2丁目6-23","lat":35.75549771,"lon":139.5222451},{"name":"南部地域センター","province":"東京都","city":"東久留米市","address":"東京都東久留米市ひばりが丘団地185","lat":35.74651843,"lon":139.53424441},{"name":"東久留米市役所庁舎","province":"東京都","city":"東久留米市","address":"東京都東久留米市本町3丁目1-1","lat":35.75866697,"lon":139.53103313},{"name":"武蔵村山市役所本庁舎","province":"東京都","city":"武蔵村山市","address":"東京都武蔵村山市本町1丁目1-1","lat":35.7548304,"lon":139.38737668},{"name":"武蔵村山市民総合センター","province":"東京都","city":"武蔵村山市","address":"東京都武蔵村山市学園4丁目5-1","lat":35.74627625,"lon":139.40299776},{"name":"（水道局多摩サービスステーション）\"","province":"東京都","city":"多摩市","address":"東京都多摩市山王下1丁目17","lat":35.62549327,"lon":139.41652881},{"name":"多摩市立総合体育館","province":"東京都","city":"多摩市","address":"東京都多摩市東寺方588-1","lat":35.64352219,"lon":139.43621809},{"name":"（アクアブルー多摩）\"","province":"東京都","city":"多摩市","address":"東京都多摩市南野3丁目15-2","lat":35.61233371,"lon":139.41351294},{"name":"稲城中央公園総合体育館","province":"東京都","city":"稲城市","address":"東京都稲城市長峰1丁目1","lat":35.63011248,"lon":139.48798717},{"name":"稲城長峰ヴェルディフィールド","province":"東京都","city":"稲城市","address":"東京都稲城市長峰3丁目10-1","lat":35.63155313,"lon":139.47746259},{"name":"稲城市福祉センター","province":"東京都","city":"稲城市","address":"東京都稲城市百村7","lat":35.63960873,"lon":139.49986077},{"name":"あきる野市役所本庁舎","province":"東京都","city":"あきる野市","address":"東京都あきる野市二宮350","lat":35.72920304,"lon":139.29349922},{"name":"総合支援センター（フレンドリー）\"","province":"東京都","city":"西東京市","address":"東京都西東京市田無町4丁目17-14","lat":35.72936492,"lon":139.53555618},{"name":"田無総合福祉センター","province":"東京都","city":"西東京市","address":"東京都西東京市田無町5丁目5-12","lat":35.73181186,"lon":139.5361949},{"name":"西東京市スポーツセンター","province":"東京都","city":"西東京市","address":"東京都西東京市中町1丁目5-1","lat":35.74129184,"lon":139.55895096},{"name":"保谷保健福祉総合センター\"","province":"東京都","city":"西東京市","address":"東京都西東京市中町1丁目5-1","lat":35.74129184,"lon":139.55895096},{"name":"田無庁舎","province":"東京都","city":"西東京市","address":"東京都西東京市南町5丁目6-13","lat":35.72567651,"lon":139.53795616},{"name":"・文化交流センター\"","province":"東京都","city":"西東京市","address":"東京都西東京市南町5丁目6-5","lat":35.72560151,"lon":139.53753676},{"name":"西東京市総合体育館","province":"東京都","city":"西東京市","address":"東京都西東京市向台町5丁目4-20","lat":35.72003256,"lon":139.5299627},{"name":"瑞穂町保健センター","province":"東京都","city":"西多摩郡瑞穂町","address":"東京都西多摩郡瑞穂町石畑（大字）1970","lat":35.77368001,"lon":139.35665631},{"name":"瑞穂町子ども家庭支援センター","province":"東京都","city":"西多摩郡瑞穂町","address":"東京都西多摩郡瑞穂町石畑（大字）1972","lat":35.77350503,"lon":139.35633134},{"name":"中央体育館","province":"東京都","city":"西多摩郡瑞穂町","address":"東京都西多摩郡瑞穂町石畑（大字）1989-1","lat":35.77281068,"lon":139.35702854},{"name":"教育委員会","province":"東京都","city":"西多摩郡日の出町","address":"東京都西多摩郡日の出町平井（大字）2780","lat":35.74211436,"lon":139.25740482},{"name":"奥多摩水と緑のふれあい館","province":"東京都","city":"西多摩郡奥多摩町","address":"東京都西多摩郡奥多摩町原5","lat":35.79240913,"lon":139.04891347}]}