{"keyword":"中核","data":[{"name":"八王子市保健所","province":"東京都","city":"八王子市","address":"東京都八王子市明神町3丁目19-2","lat":35.65675182,"lon":139.34245322},{"name":"八王子市大横保健福祉センター","province":"東京都","city":"八王子市","address":"東京都八王子市大横町11-35","lat":35.66431726,"lon":139.32781535},{"name":"八王子市東浅川保健福祉センター","province":"東京都","city":"八王子市","address":"東京都八王子市東浅川町551-1","lat":35.64523516,"lon":139.29196356},{"name":"八王子市南大沢保健福祉センター","province":"東京都","city":"八王子市","address":"東京都八王子市南大沢2丁目27","lat":35.61194113,"lon":139.37926012},{"name":"町田市保健所","province":"東京都","city":"町田市","address":"東京都町田市森野2丁目2-22","lat":35.54666373,"lon":139.43864046},{"name":"町田市保健所中町庁舎","province":"東京都","city":"町田市","address":"東京都町田市中町2丁目13-3","lat":35.55124111,"lon":139.44367596},{"name":"町田市健康福祉会館","province":"東京都","city":"町田市","address":"東京都町田市原町田5丁目8-21","lat":35.54609452,"lon":139.45002283},{"name":"町田市忠生保健センター","province":"東京都","city":"町田市","address":"東京都町田市忠生3丁目14-2","lat":35.57836563,"lon":139.41603053},{"name":"町田市鶴川保健センター","province":"東京都","city":"町田市","address":"東京都町田市大蔵町1981-4","lat":35.58888611,"lon":139.46739571},{"name":"八王子市保健所","province":"東京都","city":"八王子市","address":"八王子市旭町13-18","lat":35.65695,"lon":139.34128},{"name":"八王子市南大沢保健福祉センター","province":"東京都","city":"八王子市","address":"八王子市南大沢2-27フレスコ南大沢公共施設棟1階","lat":35.611881,"lon":139.379471},{"name":"八王子市大横保健福祉センター","province":"東京都","city":"八王子市","address":"八王子市大横町11-35","lat":35.66379,"lon":139.329}]}