{"keyword":"ショップ","data":[{"name":"羽子板の鴻月","province":"東京都","city":"墨田区","address":"墨田区向島五丁目43番25号","lat":35.719107,"lon":139.812307},{"name":"塚田工房","province":"東京都","city":"墨田区","address":"墨田区向島二丁目11番7号","lat":35.715962,"lon":139.809533},{"name":"江戸木箸 大黒屋","province":"東京都","city":"墨田区","address":"墨田区東向島二丁目4番8号","lat":35.717513,"lon":139.814615},{"name":"向島めうがや","province":"東京都","city":"墨田区","address":"墨田区向島五丁目27番16号","lat":35.716287,"lon":139.809448},{"name":"江戸小紋染 大松染工場","province":"東京都","city":"墨田区","address":"墨田区八広二丁目27番10号","lat":35.717538,"lon":139.825997},{"name":"片岡屏風店","province":"東京都","city":"墨田区","address":"墨田区向島一丁目31番6号","lat":35.710437,"lon":139.807704},{"name":"ヒズファクトリー","province":"東京都","city":"墨田区","address":"墨田区吾妻橋一丁目16番5号","lat":35.709138,"lon":139.800541},{"name":"Stadt Weide（シュタット ヴァイテ）","province":"東京都","city":"墨田区","address":"墨田区横川四丁目8番21号","lat":35.704578,"lon":139.81499},{"name":"アトリエ創藝館","province":"東京都","city":"墨田区","address":"墨田区横川三丁目8番2号","lat":35.703811,"lon":139.813041},{"name":"すみだ江戸切子館","province":"東京都","city":"墨田区","address":"墨田区太平二丁目10番9号","lat":35.701266,"lon":139.813036},{"name":"東あられ本鋪両国本店","province":"東京都","city":"墨田区","address":"墨田区亀沢二丁目15番10号","lat":35.697329,"lon":139.800902},{"name":"磯貝べっ甲専門店","province":"東京都","city":"墨田区","address":"墨田区横網二丁目5番5号","lat":35.700634,"lon":139.795693},{"name":"むさしや豊山","province":"東京都","city":"墨田区","address":"墨田区石原一丁目28番3号","lat":35.70066,"lon":139.79737},{"name":"大関鞄工房","province":"東京都","city":"墨田区","address":"墨田区緑二丁目13番5号","lat":35.694473,"lon":139.800686},{"name":"おみねらたん","province":"東京都","city":"墨田区","address":"墨田区押上二丁目10番15号","lat":35.711274,"lon":139.812143},{"name":"硝子企画舎","province":"東京都","city":"墨田区","address":"墨田区押上三丁目6番1号","lat":35.713568,"lon":139.816975},{"name":"かざり工芸三浦","province":"東京都","city":"墨田区","address":"墨田区東駒形三丁目22番7号","lat":35.707865,"lon":139.802976}]}