{"keyword":"し尿","data":[{"name":"奥多摩町子ども家庭支援センター","province":"東京都","city":"西多摩郡奥多摩町","address":"奥多摩町小丹波108番地","lat":35.815299,"lon":139.149302},{"name":"奥多摩町保健福祉センター","province":"東京都","city":"西多摩郡奥多摩町","address":"西多摩郡奥多摩町氷川1111","lat":35.800485,"lon":139.088556},{"name":"鋸山","province":"東京都","city":"西多摩郡奥多摩町","address":"東京都西多摩郡奥多摩町氷川","lat":35.778825,"lon":139.102727},{"name":"山のふるさと村","province":"東京都","city":"西多摩郡奥多摩町","address":"東京都西多摩郡奥多摩町川野1740","lat":35.766268,"lon":139.023641},{"name":"山のふるさと村ビジターセンター","province":"東京都","city":"西多摩郡奥多摩町","address":"東京都西多摩郡奥多摩町川野1740","lat":35.766743,"lon":139.022978},{"name":"大麦代園地","province":"東京都","city":"西多摩郡奥多摩町","address":"東京都西多摩郡奥多摩町原","lat":35.790067,"lon":139.043052},{"name":"鳩ノ巣園地","province":"東京都","city":"西多摩郡奥多摩町","address":"東京都西多摩郡奥多摩町棚澤","lat":35.813453,"lon":139.127301},{"name":"峰谷駐車場","province":"東京都","city":"西多摩郡奥多摩町","address":"東京都西多摩郡奥多摩町留浦","lat":35.780043,"lon":139.01599},{"name":"奥多摩都民の森","province":"東京都","city":"西多摩郡奥多摩町","address":"東京都西多摩郡奥多摩町境654","lat":35.787448,"lon":139.076857},{"name":"奥多摩ビジターセンター","province":"東京都","city":"西多摩郡奥多摩町","address":"東京都西多摩郡奥多摩町氷川171-1","lat":35.808425,"lon":139.097618},{"name":"留浦駐車場","province":"東京都","city":"西多摩郡奥多摩町","address":"東京都西多摩郡奥多摩町留浦","lat":35.778116,"lon":138.989773},{"name":"奥多摩　水と緑のふれあい館","province":"東京都","city":"西多摩郡奥多摩町","address":"東京都西多摩郡奥多摩町原5","lat":35.792875,"lon":139.048288},{"name":"奥多摩消防署","province":"東京都","city":"西多摩郡奥多摩町","address":"東京都西多摩郡奥多摩町氷川952","lat":35.804249,"lon":139.092617},{"name":"奥多摩町役場","province":"東京都","city":"西多摩郡奥多摩町","address":"東京都西多摩郡奥多摩町氷川215-6","lat":35.809522,"lon":139.096229},{"name":"奥多摩町保健福祉センター","province":"東京都","city":"西多摩郡奥多摩町","address":"東京都西多摩郡奥多摩町氷川1111","lat":35.800332,"lon":139.088697},{"name":"奥多摩町子ども家庭支援センター","province":"東京都","city":"西多摩郡奥多摩町","address":"東京都西多摩郡奥多摩町小丹波108","lat":35.815316,"lon":139.149358},{"name":"奥多摩町福祉会館","province":"東京都","city":"西多摩郡奥多摩町","address":"東京都西多摩郡奥多摩町氷川199","lat":35.808679,"lon":139.097299},{"name":"奥多摩町障害者地域活動支援センター","province":"東京都","city":"西多摩郡奥多摩町","address":"東京都西多摩郡奥多摩町棚澤","lat":35.816905,"lon":139.128695},{"name":"奥多摩文化会館","province":"東京都","city":"西多摩郡奥多摩町","address":"東京都西多摩郡奥多摩町小丹波82","lat":35.815396,"lon":139.149975},{"name":"大丹波釣場観光トイレ","province":"東京都","city":"西多摩郡奥多摩町","address":"東京都西多摩郡奥多摩町大丹波","lat":35.827115,"lon":139.164613},{"name":"丹三郎直売所観光トイレ","province":"東京都","city":"西多摩郡奥多摩町","address":"東京都西多摩郡奥多摩町梅澤","lat":35.808174,"lon":139.162667},{"name":"古里駅前観光トイレ","province":"東京都","city":"西多摩郡奥多摩町","address":"東京都西多摩郡奥多摩町小丹波","lat":35.816179,"lon":139.15217},{"name":"鳩ノ巣駅観光トイレ","province":"東京都","city":"西多摩郡奥多摩町","address":"東京都西多摩郡奥多摩町棚澤","lat":35.814884,"lon":139.128595},{"name":"鳩ノ巣駐車場観光トイレ","province":"東京都","city":"西多摩郡奥多摩町","address":"東京都西多摩郡奥多摩町棚澤","lat":35.815021,"lon":139.127954},{"name":"氷川駐車場観光トイレ","province":"東京都","city":"西多摩郡奥多摩町","address":"東京都西多摩郡奥多摩町氷川","lat":35.80686,"lon":139.098749},{"name":"奥多摩駅前観光トイレ","province":"東京都","city":"西多摩郡奥多摩町","address":"東京都西多摩郡奥多摩町氷川","lat":35.809066,"lon":139.09695},{"name":"日原売店横観光トイレ","province":"東京都","city":"西多摩郡奥多摩町","address":"東京都西多摩郡奥多摩町日原","lat":35.851188,"lon":139.0402},{"name":"白丸魚道観光トイレ","province":"東京都","city":"西多摩郡奥多摩町","address":"東京都西多摩郡奥多摩町白丸","lat":35.811431,"lon":139.123391},{"name":"大沢駐車場観光トイレ","province":"東京都","city":"西多摩郡奥多摩町","address":"東京都西多摩郡奥多摩町氷川","lat":35.824431,"lon":139.076691},{"name":"奥多摩町保健福祉センター","province":"東京都","city":"西多摩郡奥多摩町","address":"東京都西多摩郡奥多摩町氷川1111","lat":35.80056794,"lon":139.0886364},{"name":"奥多摩町保健福祉センター","province":"東京都","city":"西多摩郡奥多摩町","address":"西多摩郡奥多摩町氷川1111","lat":35.8236,"lon":139.09344},{"name":"奥多摩町子ども家庭支援センター","province":"東京都","city":"西多摩郡奥多摩町","address":"奥多摩町小丹波108番地","lat":35.81846,"lon":139.1485},{"name":"奥多摩町保健福祉センター","province":"東京都","city":"西多摩郡奥多摩町","address":"西多摩郡奥多摩町氷川1111","lat":35.82361,"lon":139.09345},{"name":"奥多摩町選挙管理委員会","province":"東京都","city":"西多摩郡奥多摩町","address":"西多摩郡奥多摩町氷川215-6","lat":35.809523,"lon":139.096235},{"name":"奥多摩町子ども家庭支援センター","province":"東京都","city":"西多摩郡奥多摩町","address":"奥多摩町小丹波108番地","lat":35.815299,"lon":139.149302},{"name":"奥多摩町保健福祉センター","province":"東京都","city":"西多摩郡奥多摩町","address":"西多摩郡奥多摩町氷川1111","lat":35.800485,"lon":139.088556},{"name":"鋸山","province":"東京都","city":"西多摩郡奥多摩町","address":"東京都西多摩郡奥多摩町氷川","lat":35.778825,"lon":139.102727},{"name":"山のふるさと村","province":"東京都","city":"西多摩郡奥多摩町","address":"東京都西多摩郡奥多摩町川野1740","lat":35.766268,"lon":139.023641},{"name":"山のふるさと村ビジターセンター","province":"東京都","city":"西多摩郡奥多摩町","address":"東京都西多摩郡奥多摩町川野1740","lat":35.766743,"lon":139.022978},{"name":"大麦代園地","province":"東京都","city":"西多摩郡奥多摩町","address":"東京都西多摩郡奥多摩町原","lat":35.790067,"lon":139.043052},{"name":"鳩ノ巣園地","province":"東京都","city":"西多摩郡奥多摩町","address":"東京都西多摩郡奥多摩町棚澤","lat":35.813453,"lon":139.127301},{"name":"峰谷駐車場","province":"東京都","city":"西多摩郡奥多摩町","address":"東京都西多摩郡奥多摩町留浦","lat":35.780043,"lon":139.01599},{"name":"奥多摩都民の森","province":"東京都","city":"西多摩郡奥多摩町","address":"東京都西多摩郡奥多摩町境654","lat":35.787448,"lon":139.076857},{"name":"奥多摩ビジターセンター","province":"東京都","city":"西多摩郡奥多摩町","address":"東京都西多摩郡奥多摩町氷川171-1","lat":35.808425,"lon":139.097618},{"name":"留浦駐車場","province":"東京都","city":"西多摩郡奥多摩町","address":"東京都西多摩郡奥多摩町留浦","lat":35.778116,"lon":138.989773},{"name":"奥多摩　水と緑のふれあい館","province":"東京都","city":"西多摩郡奥多摩町","address":"東京都西多摩郡奥多摩町原5","lat":35.792875,"lon":139.048288},{"name":"奥多摩消防署","province":"東京都","city":"西多摩郡奥多摩町","address":"東京都西多摩郡奥多摩町氷川952","lat":35.804249,"lon":139.092617},{"name":"奥多摩町役場","province":"東京都","city":"西多摩郡奥多摩町","address":"東京都西多摩郡奥多摩町氷川215-6","lat":35.809522,"lon":139.096229},{"name":"奥多摩町保健福祉センター","province":"東京都","city":"西多摩郡奥多摩町","address":"東京都西多摩郡奥多摩町氷川1111","lat":35.800332,"lon":139.088697},{"name":"奥多摩町子ども家庭支援センター","province":"東京都","city":"西多摩郡奥多摩町","address":"東京都西多摩郡奥多摩町小丹波108","lat":35.815316,"lon":139.149358},{"name":"奥多摩町福祉会館","province":"東京都","city":"西多摩郡奥多摩町","address":"東京都西多摩郡奥多摩町氷川199","lat":35.808679,"lon":139.097299},{"name":"奥多摩町障害者地域活動支援センター","province":"東京都","city":"西多摩郡奥多摩町","address":"東京都西多摩郡奥多摩町棚澤","lat":35.816905,"lon":139.128695},{"name":"奥多摩文化会館","province":"東京都","city":"西多摩郡奥多摩町","address":"東京都西多摩郡奥多摩町小丹波82","lat":35.815396,"lon":139.149975},{"name":"大丹波釣場観光トイレ","province":"東京都","city":"西多摩郡奥多摩町","address":"東京都西多摩郡奥多摩町大丹波","lat":35.827115,"lon":139.164613},{"name":"丹三郎直売所観光トイレ","province":"東京都","city":"西多摩郡奥多摩町","address":"東京都西多摩郡奥多摩町梅澤","lat":35.808174,"lon":139.162667},{"name":"古里駅前観光トイレ","province":"東京都","city":"西多摩郡奥多摩町","address":"東京都西多摩郡奥多摩町小丹波","lat":35.816179,"lon":139.15217},{"name":"鳩ノ巣駅観光トイレ","province":"東京都","city":"西多摩郡奥多摩町","address":"東京都西多摩郡奥多摩町棚澤","lat":35.814884,"lon":139.128595},{"name":"鳩ノ巣駐車場観光トイレ","province":"東京都","city":"西多摩郡奥多摩町","address":"東京都西多摩郡奥多摩町棚澤","lat":35.815021,"lon":139.127954},{"name":"氷川駐車場観光トイレ","province":"東京都","city":"西多摩郡奥多摩町","address":"東京都西多摩郡奥多摩町氷川","lat":35.80686,"lon":139.098749},{"name":"奥多摩駅前観光トイレ","province":"東京都","city":"西多摩郡奥多摩町","address":"東京都西多摩郡奥多摩町氷川","lat":35.809066,"lon":139.09695},{"name":"日原売店横観光トイレ","province":"東京都","city":"西多摩郡奥多摩町","address":"東京都西多摩郡奥多摩町日原","lat":35.851188,"lon":139.0402},{"name":"白丸魚道観光トイレ","province":"東京都","city":"西多摩郡奥多摩町","address":"東京都西多摩郡奥多摩町白丸","lat":35.811431,"lon":139.123391},{"name":"大沢駐車場観光トイレ","province":"東京都","city":"西多摩郡奥多摩町","address":"東京都西多摩郡奥多摩町氷川","lat":35.824431,"lon":139.076691},{"name":"奥多摩町保健福祉センター","province":"東京都","city":"西多摩郡奥多摩町","address":"東京都西多摩郡奥多摩町氷川1111","lat":35.80056794,"lon":139.0886364},{"name":"奥多摩町保健福祉センター","province":"東京都","city":"西多摩郡奥多摩町","address":"西多摩郡奥多摩町氷川1111","lat":35.8236,"lon":139.09344},{"name":"奥多摩町子ども家庭支援センター","province":"東京都","city":"西多摩郡奥多摩町","address":"奥多摩町小丹波108番地","lat":35.81846,"lon":139.1485},{"name":"奥多摩町保健福祉センター","province":"東京都","city":"西多摩郡奥多摩町","address":"西多摩郡奥多摩町氷川1111","lat":35.82361,"lon":139.09345},{"name":"奥多摩町選挙管理委員会","province":"東京都","city":"西多摩郡奥多摩町","address":"西多摩郡奥多摩町氷川215-6","lat":35.809523,"lon":139.096235},{"name":"奥多摩町子ども家庭支援センター","province":"東京都","city":"西多摩郡奥多摩町","address":"奥多摩町小丹波108番地","lat":35.815299,"lon":139.149302},{"name":"奥多摩町保健福祉センター","province":"東京都","city":"西多摩郡奥多摩町","address":"西多摩郡奥多摩町氷川1111","lat":35.800485,"lon":139.088556},{"name":"奥多摩町保健福祉センター","province":"東京都","city":"西多摩郡奥多摩町","address":"東京都西多摩郡奥多摩町氷川1111","lat":35.80056794,"lon":139.0886364},{"name":"奥多摩町保健福祉センター","province":"東京都","city":"西多摩郡奥多摩町","address":"西多摩郡奥多摩町氷川1111","lat":35.8236,"lon":139.09344},{"name":"奥多摩町子ども家庭支援センター","province":"東京都","city":"西多摩郡奥多摩町","address":"奥多摩町小丹波108番地","lat":35.81846,"lon":139.1485},{"name":"奥多摩町保健福祉センター","province":"東京都","city":"西多摩郡奥多摩町","address":"西多摩郡奥多摩町氷川1111","lat":35.82361,"lon":139.09345},{"name":"奥多摩町選挙管理委員会","province":"東京都","city":"西多摩郡奥多摩町","address":"西多摩郡奥多摩町氷川215-6","lat":35.809523,"lon":139.096235},{"name":"奥多摩町保健福祉センター","province":"東京都","city":"西多摩郡奥多摩町","address":"西多摩郡奥多摩町氷川1111","lat":35.800485,"lon":139.088556},{"name":"奥多摩町保健福祉センター","province":"東京都","city":"西多摩郡奥多摩町","address":"東京都西多摩郡奥多摩町氷川1111","lat":35.80056794,"lon":139.0886364},{"name":"奥多摩町保健福祉センター","province":"東京都","city":"西多摩郡奥多摩町","address":"西多摩郡奥多摩町氷川1111","lat":35.8236,"lon":139.09344},{"name":"奥多摩町保健福祉センター","province":"東京都","city":"西多摩郡奥多摩町","address":"西多摩郡奥多摩町氷川1111","lat":35.82361,"lon":139.09345},{"name":"奥多摩町選挙管理委員会","province":"東京都","city":"西多摩郡奥多摩町","address":"西多摩郡奥多摩町氷川215-6","lat":35.809523,"lon":139.096235},{"name":"奥多摩町保健福祉センター","province":"東京都","city":"西多摩郡奥多摩町","address":"西多摩郡奥多摩町氷川1111","lat":35.800485,"lon":139.088556},{"name":"奥多摩町保健福祉センター","province":"東京都","city":"西多摩郡奥多摩町","address":"東京都西多摩郡奥多摩町氷川1111","lat":35.80056794,"lon":139.0886364},{"name":"奥多摩町保健福祉センター","province":"東京都","city":"西多摩郡奥多摩町","address":"西多摩郡奥多摩町氷川1111","lat":35.8236,"lon":139.09344},{"name":"奥多摩町保健福祉センター","province":"東京都","city":"西多摩郡奥多摩町","address":"西多摩郡奥多摩町氷川1111","lat":35.82361,"lon":139.09345},{"name":"奥多摩町選挙管理委員会","province":"東京都","city":"西多摩郡奥多摩町","address":"西多摩郡奥多摩町氷川215-6","lat":35.809523,"lon":139.096235},{"name":"奥多摩町保健福祉センター","province":"東京都","city":"西多摩郡奥多摩町","address":"西多摩郡奥多摩町氷川1111","lat":35.800485,"lon":139.088556},{"name":"奥多摩町保健福祉センター","province":"東京都","city":"西多摩郡奥多摩町","address":"東京都西多摩郡奥多摩町氷川1111","lat":35.80056794,"lon":139.0886364},{"name":"奥多摩町保健福祉センター","province":"東京都","city":"西多摩郡奥多摩町","address":"西多摩郡奥多摩町氷川1111","lat":35.8236,"lon":139.09344},{"name":"奥多摩町保健福祉センター","province":"東京都","city":"西多摩郡奥多摩町","address":"西多摩郡奥多摩町氷川1111","lat":35.82361,"lon":139.09345},{"name":"奥多摩町選挙管理委員会","province":"東京都","city":"西多摩郡奥多摩町","address":"西多摩郡奥多摩町氷川215-6","lat":35.809523,"lon":139.096235},{"name":"奥多摩町保健福祉センター","province":"東京都","city":"西多摩郡奥多摩町","address":"西多摩郡奥多摩町氷川1111","lat":35.800485,"lon":139.088556},{"name":"奥多摩町保健福祉センター","province":"東京都","city":"西多摩郡奥多摩町","address":"東京都西多摩郡奥多摩町氷川1111","lat":35.80056794,"lon":139.0886364},{"name":"奥多摩町保健福祉センター","province":"東京都","city":"西多摩郡奥多摩町","address":"西多摩郡奥多摩町氷川1111","lat":35.8236,"lon":139.09344},{"name":"奥多摩町保健福祉センター","province":"東京都","city":"西多摩郡奥多摩町","address":"西多摩郡奥多摩町氷川1111","lat":35.82361,"lon":139.09345},{"name":"奥多摩町選挙管理委員会","province":"東京都","city":"西多摩郡奥多摩町","address":"西多摩郡奥多摩町氷川215-6","lat":35.809523,"lon":139.096235},{"name":"奥多摩町保健福祉センター","province":"東京都","city":"西多摩郡奥多摩町","address":"西多摩郡奥多摩町氷川1111","lat":35.800485,"lon":139.088556},{"name":"奥多摩町保健福祉センター","province":"東京都","city":"西多摩郡奥多摩町","address":"東京都西多摩郡奥多摩町氷川1111","lat":35.80056794,"lon":139.0886364},{"name":"奥多摩町保健福祉センター","province":"東京都","city":"西多摩郡奥多摩町","address":"西多摩郡奥多摩町氷川1111","lat":35.8236,"lon":139.09344},{"name":"奥多摩町保健福祉センター","province":"東京都","city":"西多摩郡奥多摩町","address":"西多摩郡奥多摩町氷川1111","lat":35.82361,"lon":139.09345},{"name":"奥多摩町選挙管理委員会","province":"東京都","city":"西多摩郡奥多摩町","address":"西多摩郡奥多摩町氷川215-6","lat":35.809523,"lon":139.096235},{"name":"奥多摩町保健福祉センター","province":"東京都","city":"西多摩郡奥多摩町","address":"西多摩郡奥多摩町氷川1111","lat":35.800485,"lon":139.088556},{"name":"奥多摩町保健福祉センター","province":"東京都","city":"西多摩郡奥多摩町","address":"東京都西多摩郡奥多摩町氷川1111","lat":35.80056794,"lon":139.0886364},{"name":"奥多摩町保健福祉センター","province":"東京都","city":"西多摩郡奥多摩町","address":"西多摩郡奥多摩町氷川1111","lat":35.8236,"lon":139.09344},{"name":"奥多摩町保健福祉センター","province":"東京都","city":"西多摩郡奥多摩町","address":"西多摩郡奥多摩町氷川1111","lat":35.82361,"lon":139.09345},{"name":"奥多摩町選挙管理委員会","province":"東京都","city":"西多摩郡奥多摩町","address":"西多摩郡奥多摩町氷川215-6","lat":35.809523,"lon":139.096235},{"name":"奥多摩町保健福祉センター","province":"東京都","city":"西多摩郡奥多摩町","address":"西多摩郡奥多摩町氷川1111","lat":35.800485,"lon":139.088556},{"name":"奥多摩町保健福祉センター","province":"東京都","city":"西多摩郡奥多摩町","address":"東京都西多摩郡奥多摩町氷川1111","lat":35.80056794,"lon":139.0886364},{"name":"奥多摩町保健福祉センター","province":"東京都","city":"西多摩郡奥多摩町","address":"西多摩郡奥多摩町氷川1111","lat":35.8236,"lon":139.09344},{"name":"奥多摩町保健福祉センター","province":"東京都","city":"西多摩郡奥多摩町","address":"西多摩郡奥多摩町氷川1111","lat":35.82361,"lon":139.09345},{"name":"奥多摩町選挙管理委員会","province":"東京都","city":"西多摩郡奥多摩町","address":"西多摩郡奥多摩町氷川215-6","lat":35.809523,"lon":139.096235},{"name":"奥多摩町保健福祉センター","province":"東京都","city":"西多摩郡奥多摩町","address":"西多摩郡奥多摩町氷川1111","lat":35.800485,"lon":139.088556},{"name":"奥多摩町保健福祉センター","province":"東京都","city":"西多摩郡奥多摩町","address":"東京都西多摩郡奥多摩町氷川1111","lat":35.80056794,"lon":139.0886364},{"name":"奥多摩町保健福祉センター","province":"東京都","city":"西多摩郡奥多摩町","address":"西多摩郡奥多摩町氷川1111","lat":35.8236,"lon":139.09344},{"name":"奥多摩町保健福祉センター","province":"東京都","city":"西多摩郡奥多摩町","address":"西多摩郡奥多摩町氷川1111","lat":35.82361,"lon":139.09345},{"name":"奥多摩町選挙管理委員会","province":"東京都","city":"西多摩郡奥多摩町","address":"西多摩郡奥多摩町氷川215-6","lat":35.809523,"lon":139.096235},{"name":"奥多摩町保健福祉センター","province":"東京都","city":"西多摩郡奥多摩町","address":"西多摩郡奥多摩町氷川1111","lat":35.800485,"lon":139.088556},{"name":"奥多摩町保健福祉センター","province":"東京都","city":"西多摩郡奥多摩町","address":"東京都西多摩郡奥多摩町氷川1111","lat":35.80056794,"lon":139.0886364},{"name":"奥多摩町保健福祉センター","province":"東京都","city":"西多摩郡奥多摩町","address":"西多摩郡奥多摩町氷川1111","lat":35.8236,"lon":139.09344},{"name":"奥多摩町保健福祉センター","province":"東京都","city":"西多摩郡奥多摩町","address":"西多摩郡奥多摩町氷川1111","lat":35.82361,"lon":139.09345},{"name":"奥多摩町選挙管理委員会","province":"東京都","city":"西多摩郡奥多摩町","address":"西多摩郡奥多摩町氷川215-6","lat":35.809523,"lon":139.096235},{"name":"奥多摩町保健福祉センター","province":"東京都","city":"西多摩郡奥多摩町","address":"西多摩郡奥多摩町氷川1111","lat":35.800485,"lon":139.088556},{"name":"奥多摩町保健福祉センター","province":"東京都","city":"西多摩郡奥多摩町","address":"東京都西多摩郡奥多摩町氷川1111","lat":35.80056794,"lon":139.0886364},{"name":"奥多摩町保健福祉センター","province":"東京都","city":"西多摩郡奥多摩町","address":"西多摩郡奥多摩町氷川1111","lat":35.8236,"lon":139.09344},{"name":"奥多摩町保健福祉センター","province":"東京都","city":"西多摩郡奥多摩町","address":"西多摩郡奥多摩町氷川1111","lat":35.82361,"lon":139.09345},{"name":"奥多摩町選挙管理委員会","province":"東京都","city":"西多摩郡奥多摩町","address":"西多摩郡奥多摩町氷川215-6","lat":35.809523,"lon":139.096235},{"name":"奥多摩町保健福祉センター","province":"東京都","city":"西多摩郡奥多摩町","address":"西多摩郡奥多摩町氷川1111","lat":35.800485,"lon":139.088556},{"name":"奥多摩町保健福祉センター","province":"東京都","city":"西多摩郡奥多摩町","address":"東京都西多摩郡奥多摩町氷川1111","lat":35.80056794,"lon":139.0886364},{"name":"奥多摩町保健福祉センター","province":"東京都","city":"西多摩郡奥多摩町","address":"西多摩郡奥多摩町氷川1111","lat":35.8236,"lon":139.09344},{"name":"奥多摩町保健福祉センター","province":"東京都","city":"西多摩郡奥多摩町","address":"西多摩郡奥多摩町氷川1111","lat":35.82361,"lon":139.09345},{"name":"奥多摩町選挙管理委員会","province":"東京都","city":"西多摩郡奥多摩町","address":"西多摩郡奥多摩町氷川215-6","lat":35.809523,"lon":139.096235},{"name":"奥多摩町保健福祉センター","province":"東京都","city":"西多摩郡奥多摩町","address":"西多摩郡奥多摩町氷川1111","lat":35.800485,"lon":139.088556},{"name":"奥多摩町保健福祉センター","province":"東京都","city":"西多摩郡奥多摩町","address":"東京都西多摩郡奥多摩町氷川1111","lat":35.80056794,"lon":139.0886364},{"name":"奥多摩町保健福祉センター","province":"東京都","city":"西多摩郡奥多摩町","address":"西多摩郡奥多摩町氷川1111","lat":35.8236,"lon":139.09344},{"name":"奥多摩町保健福祉センター","province":"東京都","city":"西多摩郡奥多摩町","address":"西多摩郡奥多摩町氷川1111","lat":35.82361,"lon":139.09345},{"name":"奥多摩町選挙管理委員会","province":"東京都","city":"西多摩郡奥多摩町","address":"西多摩郡奥多摩町氷川215-6","lat":35.809523,"lon":139.096235},{"name":"奥多摩町保健福祉センター","province":"東京都","city":"西多摩郡奥多摩町","address":"西多摩郡奥多摩町氷川1111","lat":35.800485,"lon":139.088556},{"name":"奥多摩町保健福祉センター","province":"東京都","city":"西多摩郡奥多摩町","address":"東京都西多摩郡奥多摩町氷川1111","lat":35.80056794,"lon":139.0886364},{"name":"奥多摩町保健福祉センター","province":"東京都","city":"西多摩郡奥多摩町","address":"西多摩郡奥多摩町氷川1111","lat":35.8236,"lon":139.09344},{"name":"奥多摩町保健福祉センター","province":"東京都","city":"西多摩郡奥多摩町","address":"西多摩郡奥多摩町氷川1111","lat":35.82361,"lon":139.09345},{"name":"奥多摩町選挙管理委員会","province":"東京都","city":"西多摩郡奥多摩町","address":"西多摩郡奥多摩町氷川215-6","lat":35.809523,"lon":139.096235},{"name":"奥多摩町保健福祉センター","province":"東京都","city":"西多摩郡奥多摩町","address":"西多摩郡奥多摩町氷川1111","lat":35.800485,"lon":139.088556},{"name":"奥多摩町保健福祉センター","province":"東京都","city":"西多摩郡奥多摩町","address":"東京都西多摩郡奥多摩町氷川1111","lat":35.80056794,"lon":139.0886364},{"name":"奥多摩町保健福祉センター","province":"東京都","city":"西多摩郡奥多摩町","address":"西多摩郡奥多摩町氷川1111","lat":35.8236,"lon":139.09344},{"name":"奥多摩町保健福祉センター","province":"東京都","city":"西多摩郡奥多摩町","address":"西多摩郡奥多摩町氷川1111","lat":35.82361,"lon":139.09345},{"name":"奥多摩町選挙管理委員会","province":"東京都","city":"西多摩郡奥多摩町","address":"西多摩郡奥多摩町氷川215-6","lat":35.809523,"lon":139.096235},{"name":"奥多摩町保健福祉センター","province":"東京都","city":"西多摩郡奥多摩町","address":"西多摩郡奥多摩町氷川1111","lat":35.800485,"lon":139.088556},{"name":"奥多摩町保健福祉センター","province":"東京都","city":"西多摩郡奥多摩町","address":"東京都西多摩郡奥多摩町氷川1111","lat":35.80056794,"lon":139.0886364},{"name":"奥多摩町保健福祉センター","province":"東京都","city":"西多摩郡奥多摩町","address":"西多摩郡奥多摩町氷川1111","lat":35.8236,"lon":139.09344},{"name":"奥多摩町保健福祉センター","province":"東京都","city":"西多摩郡奥多摩町","address":"西多摩郡奥多摩町氷川1111","lat":35.82361,"lon":139.09345},{"name":"奥多摩町選挙管理委員会","province":"東京都","city":"西多摩郡奥多摩町","address":"西多摩郡奥多摩町氷川215-6","lat":35.809523,"lon":139.096235},{"name":"奥多摩町保健福祉センター","province":"東京都","city":"西多摩郡奥多摩町","address":"西多摩郡奥多摩町氷川1111","lat":35.800485,"lon":139.088556},{"name":"奥多摩町保健福祉センター","province":"東京都","city":"西多摩郡奥多摩町","address":"東京都西多摩郡奥多摩町氷川1111","lat":35.80056794,"lon":139.0886364},{"name":"奥多摩町保健福祉センター","province":"東京都","city":"西多摩郡奥多摩町","address":"西多摩郡奥多摩町氷川1111","lat":35.8236,"lon":139.09344},{"name":"奥多摩町保健福祉センター","province":"東京都","city":"西多摩郡奥多摩町","address":"西多摩郡奥多摩町氷川1111","lat":35.82361,"lon":139.09345},{"name":"奥多摩町選挙管理委員会","province":"東京都","city":"西多摩郡奥多摩町","address":"西多摩郡奥多摩町氷川215-6","lat":35.809523,"lon":139.096235},{"name":"奥多摩町保健福祉センター","province":"東京都","city":"西多摩郡奥多摩町","address":"西多摩郡奥多摩町氷川1111","lat":35.800485,"lon":139.088556},{"name":"奥多摩町保健福祉センター","province":"東京都","city":"西多摩郡奥多摩町","address":"東京都西多摩郡奥多摩町氷川1111","lat":35.80056794,"lon":139.0886364},{"name":"奥多摩町保健福祉センター","province":"東京都","city":"西多摩郡奥多摩町","address":"西多摩郡奥多摩町氷川1111","lat":35.8236,"lon":139.09344},{"name":"奥多摩町保健福祉センター","province":"東京都","city":"西多摩郡奥多摩町","address":"西多摩郡奥多摩町氷川1111","lat":35.82361,"lon":139.09345},{"name":"奥多摩町選挙管理委員会","province":"東京都","city":"西多摩郡奥多摩町","address":"西多摩郡奥多摩町氷川215-6","lat":35.809523,"lon":139.096235},{"name":"奥多摩町保健福祉センター","province":"東京都","city":"西多摩郡奥多摩町","address":"西多摩郡奥多摩町氷川1111","lat":35.800485,"lon":139.088556},{"name":"奥多摩町保健福祉センター","province":"東京都","city":"西多摩郡奥多摩町","address":"東京都西多摩郡奥多摩町氷川1111","lat":35.80056794,"lon":139.0886364},{"name":"奥多摩町保健福祉センター","province":"東京都","city":"西多摩郡奥多摩町","address":"西多摩郡奥多摩町氷川1111","lat":35.8236,"lon":139.09344},{"name":"奥多摩町保健福祉センター","province":"東京都","city":"西多摩郡奥多摩町","address":"西多摩郡奥多摩町氷川1111","lat":35.82361,"lon":139.09345},{"name":"奥多摩町選挙管理委員会","province":"東京都","city":"西多摩郡奥多摩町","address":"西多摩郡奥多摩町氷川215-6","lat":35.809523,"lon":139.096235},{"name":"奥多摩町保健福祉センター","province":"東京都","city":"西多摩郡奥多摩町","address":"西多摩郡奥多摩町氷川1111","lat":35.800485,"lon":139.088556},{"name":"奥多摩町保健福祉センター","province":"東京都","city":"西多摩郡奥多摩町","address":"東京都西多摩郡奥多摩町氷川1111","lat":35.80056794,"lon":139.0886364},{"name":"奥多摩町保健福祉センター","province":"東京都","city":"西多摩郡奥多摩町","address":"西多摩郡奥多摩町氷川1111","lat":35.8236,"lon":139.09344},{"name":"奥多摩町保健福祉センター","province":"東京都","city":"西多摩郡奥多摩町","address":"西多摩郡奥多摩町氷川1111","lat":35.82361,"lon":139.09345},{"name":"奥多摩町選挙管理委員会","province":"東京都","city":"西多摩郡奥多摩町","address":"西多摩郡奥多摩町氷川215-6","lat":35.809523,"lon":139.096235},{"name":"奥多摩町保健福祉センター","province":"東京都","city":"西多摩郡奥多摩町","address":"西多摩郡奥多摩町氷川1111","lat":35.800485,"lon":139.088556},{"name":"奥多摩町保健福祉センター","province":"東京都","city":"西多摩郡奥多摩町","address":"東京都西多摩郡奥多摩町氷川1111","lat":35.80056794,"lon":139.0886364},{"name":"奥多摩町保健福祉センター","province":"東京都","city":"西多摩郡奥多摩町","address":"西多摩郡奥多摩町氷川1111","lat":35.8236,"lon":139.09344},{"name":"奥多摩町保健福祉センター","province":"東京都","city":"西多摩郡奥多摩町","address":"西多摩郡奥多摩町氷川1111","lat":35.82361,"lon":139.09345},{"name":"奥多摩町選挙管理委員会","province":"東京都","city":"西多摩郡奥多摩町","address":"西多摩郡奥多摩町氷川215-6","lat":35.809523,"lon":139.096235},{"name":"奥多摩町保健福祉センター","province":"東京都","city":"西多摩郡奥多摩町","address":"西多摩郡奥多摩町氷川1111","lat":35.800485,"lon":139.088556},{"name":"奥多摩町保健福祉センター","province":"東京都","city":"西多摩郡奥多摩町","address":"東京都西多摩郡奥多摩町氷川1111","lat":35.80056794,"lon":139.0886364},{"name":"奥多摩町保健福祉センター","province":"東京都","city":"西多摩郡奥多摩町","address":"西多摩郡奥多摩町氷川1111","lat":35.8236,"lon":139.09344},{"name":"奥多摩町保健福祉センター","province":"東京都","city":"西多摩郡奥多摩町","address":"西多摩郡奥多摩町氷川1111","lat":35.82361,"lon":139.09345},{"name":"奥多摩町選挙管理委員会","province":"東京都","city":"西多摩郡奥多摩町","address":"西多摩郡奥多摩町氷川215-6","lat":35.809523,"lon":139.096235},{"name":"奥多摩町保健福祉センター","province":"東京都","city":"西多摩郡奥多摩町","address":"西多摩郡奥多摩町氷川1111","lat":35.800485,"lon":139.088556},{"name":"奥多摩町保健福祉センター","province":"東京都","city":"西多摩郡奥多摩町","address":"東京都西多摩郡奥多摩町氷川1111","lat":35.80056794,"lon":139.0886364},{"name":"奥多摩町保健福祉センター","province":"東京都","city":"西多摩郡奥多摩町","address":"西多摩郡奥多摩町氷川1111","lat":35.8236,"lon":139.09344},{"name":"奥多摩町保健福祉センター","province":"東京都","city":"西多摩郡奥多摩町","address":"西多摩郡奥多摩町氷川1111","lat":35.82361,"lon":139.09345},{"name":"奥多摩町選挙管理委員会","province":"東京都","city":"西多摩郡奥多摩町","address":"西多摩郡奥多摩町氷川215-6","lat":35.809523,"lon":139.096235},{"name":"奥多摩町保健福祉センター","province":"東京都","city":"西多摩郡奥多摩町","address":"西多摩郡奥多摩町氷川1111","lat":35.800485,"lon":139.088556},{"name":"奥多摩町保健福祉センター","province":"東京都","city":"西多摩郡奥多摩町","address":"東京都西多摩郡奥多摩町氷川1111","lat":35.80056794,"lon":139.0886364},{"name":"奥多摩町保健福祉センター","province":"東京都","city":"西多摩郡奥多摩町","address":"西多摩郡奥多摩町氷川1111","lat":35.8236,"lon":139.09344},{"name":"奥多摩町保健福祉センター","province":"東京都","city":"西多摩郡奥多摩町","address":"西多摩郡奥多摩町氷川1111","lat":35.82361,"lon":139.09345},{"name":"奥多摩町選挙管理委員会","province":"東京都","city":"西多摩郡奥多摩町","address":"西多摩郡奥多摩町氷川215-6","lat":35.809523,"lon":139.096235},{"name":"奥多摩町保健福祉センター","province":"東京都","city":"西多摩郡奥多摩町","address":"西多摩郡奥多摩町氷川1111","lat":35.800485,"lon":139.088556},{"name":"奥多摩町保健福祉センター","province":"東京都","city":"西多摩郡奥多摩町","address":"東京都西多摩郡奥多摩町氷川1111","lat":35.80056794,"lon":139.0886364},{"name":"奥多摩町保健福祉センター","province":"東京都","city":"西多摩郡奥多摩町","address":"西多摩郡奥多摩町氷川1111","lat":35.8236,"lon":139.09344},{"name":"奥多摩町保健福祉センター","province":"東京都","city":"西多摩郡奥多摩町","address":"西多摩郡奥多摩町氷川1111","lat":35.82361,"lon":139.09345},{"name":"奥多摩町選挙管理委員会","province":"東京都","city":"西多摩郡奥多摩町","address":"西多摩郡奥多摩町氷川215-6","lat":35.809523,"lon":139.096235},{"name":"奥多摩町保健福祉センター","province":"東京都","city":"西多摩郡奥多摩町","address":"西多摩郡奥多摩町氷川1111","lat":35.800485,"lon":139.088556},{"name":"奥多摩町保健福祉センター","province":"東京都","city":"西多摩郡奥多摩町","address":"東京都西多摩郡奥多摩町氷川1111","lat":35.80056794,"lon":139.0886364},{"name":"奥多摩町保健福祉センター","province":"東京都","city":"西多摩郡奥多摩町","address":"西多摩郡奥多摩町氷川1111","lat":35.8236,"lon":139.09344},{"name":"奥多摩町保健福祉センター","province":"東京都","city":"西多摩郡奥多摩町","address":"西多摩郡奥多摩町氷川1111","lat":35.82361,"lon":139.09345},{"name":"奥多摩町選挙管理委員会","province":"東京都","city":"西多摩郡奥多摩町","address":"西多摩郡奥多摩町氷川215-6","lat":35.809523,"lon":139.096235},{"name":"奥多摩町保健福祉センター","province":"東京都","city":"西多摩郡奥多摩町","address":"西多摩郡奥多摩町氷川1111","lat":35.800485,"lon":139.088556},{"name":"奥多摩町保健福祉センター","province":"東京都","city":"西多摩郡奥多摩町","address":"東京都西多摩郡奥多摩町氷川1111","lat":35.80056794,"lon":139.0886364},{"name":"奥多摩町保健福祉センター","province":"東京都","city":"西多摩郡奥多摩町","address":"西多摩郡奥多摩町氷川1111","lat":35.8236,"lon":139.09344},{"name":"奥多摩町保健福祉センター","province":"東京都","city":"西多摩郡奥多摩町","address":"西多摩郡奥多摩町氷川1111","lat":35.82361,"lon":139.09345},{"name":"奥多摩町選挙管理委員会","province":"東京都","city":"西多摩郡奥多摩町","address":"西多摩郡奥多摩町氷川215-6","lat":35.809523,"lon":139.096235},{"name":"奥多摩町保健福祉センター","province":"東京都","city":"西多摩郡奥多摩町","address":"西多摩郡奥多摩町氷川1111","lat":35.800485,"lon":139.088556},{"name":"奥多摩町保健福祉センター","province":"東京都","city":"西多摩郡奥多摩町","address":"東京都西多摩郡奥多摩町氷川1111","lat":35.80056794,"lon":139.0886364},{"name":"奥多摩町保健福祉センター","province":"東京都","city":"西多摩郡奥多摩町","address":"西多摩郡奥多摩町氷川1111","lat":35.8236,"lon":139.09344},{"name":"奥多摩町保健福祉センター","province":"東京都","city":"西多摩郡奥多摩町","address":"西多摩郡奥多摩町氷川1111","lat":35.82361,"lon":139.09345},{"name":"奥多摩町選挙管理委員会","province":"東京都","city":"西多摩郡奥多摩町","address":"西多摩郡奥多摩町氷川215-6","lat":35.809523,"lon":139.096235},{"name":"奥多摩町保健福祉センター","province":"東京都","city":"西多摩郡奥多摩町","address":"西多摩郡奥多摩町氷川1111","lat":35.800485,"lon":139.088556},{"name":"奥多摩町保健福祉センター","province":"東京都","city":"西多摩郡奥多摩町","address":"東京都西多摩郡奥多摩町氷川1111","lat":35.80056794,"lon":139.0886364},{"name":"奥多摩町保健福祉センター","province":"東京都","city":"西多摩郡奥多摩町","address":"西多摩郡奥多摩町氷川1111","lat":35.8236,"lon":139.09344},{"name":"奥多摩町保健福祉センター","province":"東京都","city":"西多摩郡奥多摩町","address":"西多摩郡奥多摩町氷川1111","lat":35.82361,"lon":139.09345},{"name":"奥多摩町選挙管理委員会","province":"東京都","city":"西多摩郡奥多摩町","address":"西多摩郡奥多摩町氷川215-6","lat":35.809523,"lon":139.096235},{"name":"奥多摩町保健福祉センター","province":"東京都","city":"西多摩郡奥多摩町","address":"西多摩郡奥多摩町氷川1111","lat":35.800485,"lon":139.088556},{"name":"奥多摩町保健福祉センター","province":"東京都","city":"西多摩郡奥多摩町","address":"東京都西多摩郡奥多摩町氷川1111","lat":35.80056794,"lon":139.0886364},{"name":"奥多摩町保健福祉センター","province":"東京都","city":"西多摩郡奥多摩町","address":"西多摩郡奥多摩町氷川1111","lat":35.8236,"lon":139.09344},{"name":"奥多摩町保健福祉センター","province":"東京都","city":"西多摩郡奥多摩町","address":"西多摩郡奥多摩町氷川1111","lat":35.82361,"lon":139.09345},{"name":"奥多摩町選挙管理委員会","province":"東京都","city":"西多摩郡奥多摩町","address":"西多摩郡奥多摩町氷川215-6","lat":35.809523,"lon":139.096235},{"name":"奥多摩町保健福祉センター","province":"東京都","city":"西多摩郡奥多摩町","address":"西多摩郡奥多摩町氷川1111","lat":35.800485,"lon":139.088556},{"name":"奥多摩町保健福祉センター","province":"東京都","city":"西多摩郡奥多摩町","address":"東京都西多摩郡奥多摩町氷川1111","lat":35.80056794,"lon":139.0886364},{"name":"奥多摩町保健福祉センター","province":"東京都","city":"西多摩郡奥多摩町","address":"西多摩郡奥多摩町氷川1111","lat":35.8236,"lon":139.09344},{"name":"奥多摩町保健福祉センター","province":"東京都","city":"西多摩郡奥多摩町","address":"西多摩郡奥多摩町氷川1111","lat":35.82361,"lon":139.09345},{"name":"奥多摩町選挙管理委員会","province":"東京都","city":"西多摩郡奥多摩町","address":"西多摩郡奥多摩町氷川215-6","lat":35.809523,"lon":139.096235},{"name":"奥多摩町保健福祉センター","province":"東京都","city":"西多摩郡奥多摩町","address":"西多摩郡奥多摩町氷川1111","lat":35.800485,"lon":139.088556},{"name":"奥多摩町保健福祉センター","province":"東京都","city":"西多摩郡奥多摩町","address":"東京都西多摩郡奥多摩町氷川1111","lat":35.80056794,"lon":139.0886364},{"name":"奥多摩町保健福祉センター","province":"東京都","city":"西多摩郡奥多摩町","address":"西多摩郡奥多摩町氷川1111","lat":35.8236,"lon":139.09344},{"name":"奥多摩町保健福祉センター","province":"東京都","city":"西多摩郡奥多摩町","address":"西多摩郡奥多摩町氷川1111","lat":35.82361,"lon":139.09345},{"name":"奥多摩町選挙管理委員会","province":"東京都","city":"西多摩郡奥多摩町","address":"西多摩郡奥多摩町氷川215-6","lat":35.809523,"lon":139.096235},{"name":"奥多摩町保健福祉センター","province":"東京都","city":"西多摩郡奥多摩町","address":"西多摩郡奥多摩町氷川1111","lat":35.800485,"lon":139.088556},{"name":"奥多摩町保健福祉センター","province":"東京都","city":"西多摩郡奥多摩町","address":"東京都西多摩郡奥多摩町氷川1111","lat":35.80056794,"lon":139.0886364},{"name":"奥多摩町保健福祉センター","province":"東京都","city":"西多摩郡奥多摩町","address":"西多摩郡奥多摩町氷川1111","lat":35.8236,"lon":139.09344},{"name":"奥多摩町保健福祉センター","province":"東京都","city":"西多摩郡奥多摩町","address":"西多摩郡奥多摩町氷川1111","lat":35.82361,"lon":139.09345},{"name":"奥多摩町選挙管理委員会","province":"東京都","city":"西多摩郡奥多摩町","address":"西多摩郡奥多摩町氷川215-6","lat":35.809523,"lon":139.096235},{"name":"奥多摩町保健福祉センター","province":"東京都","city":"西多摩郡奥多摩町","address":"西多摩郡奥多摩町氷川1111","lat":35.800485,"lon":139.088556},{"name":"奥多摩町保健福祉センター","province":"東京都","city":"西多摩郡奥多摩町","address":"東京都西多摩郡奥多摩町氷川1111","lat":35.80056794,"lon":139.0886364},{"name":"奥多摩町保健福祉センター","province":"東京都","city":"西多摩郡奥多摩町","address":"西多摩郡奥多摩町氷川1111","lat":35.8236,"lon":139.09344},{"name":"奥多摩町保健福祉センター","province":"東京都","city":"西多摩郡奥多摩町","address":"西多摩郡奥多摩町氷川1111","lat":35.82361,"lon":139.09345},{"name":"奥多摩町選挙管理委員会","province":"東京都","city":"西多摩郡奥多摩町","address":"西多摩郡奥多摩町氷川215-6","lat":35.809523,"lon":139.096235},{"name":"奥多摩町保健福祉センター","province":"東京都","city":"西多摩郡奥多摩町","address":"西多摩郡奥多摩町氷川1111","lat":35.800485,"lon":139.088556},{"name":"奥多摩町保健福祉センター","province":"東京都","city":"西多摩郡奥多摩町","address":"東京都西多摩郡奥多摩町氷川1111","lat":35.80056794,"lon":139.0886364},{"name":"奥多摩町保健福祉センター","province":"東京都","city":"西多摩郡奥多摩町","address":"西多摩郡奥多摩町氷川1111","lat":35.8236,"lon":139.09344},{"name":"奥多摩町保健福祉センター","province":"東京都","city":"西多摩郡奥多摩町","address":"西多摩郡奥多摩町氷川1111","lat":35.82361,"lon":139.09345},{"name":"奥多摩町選挙管理委員会","province":"東京都","city":"西多摩郡奥多摩町","address":"西多摩郡奥多摩町氷川215-6","lat":35.809523,"lon":139.096235},{"name":"奥多摩町保健福祉センター","province":"東京都","city":"西多摩郡奥多摩町","address":"西多摩郡奥多摩町氷川1111","lat":35.800485,"lon":139.088556},{"name":"奥多摩町保健福祉センター","province":"東京都","city":"西多摩郡奥多摩町","address":"東京都西多摩郡奥多摩町氷川1111","lat":35.80056794,"lon":139.0886364},{"name":"奥多摩町保健福祉センター","province":"東京都","city":"西多摩郡奥多摩町","address":"西多摩郡奥多摩町氷川1111","lat":35.8236,"lon":139.09344},{"name":"奥多摩町保健福祉センター","province":"東京都","city":"西多摩郡奥多摩町","address":"西多摩郡奥多摩町氷川1111","lat":35.82361,"lon":139.09345},{"name":"奥多摩町選挙管理委員会","province":"東京都","city":"西多摩郡奥多摩町","address":"西多摩郡奥多摩町氷川215-6","lat":35.809523,"lon":139.096235},{"name":"奥多摩町保健福祉センター","province":"東京都","city":"西多摩郡奥多摩町","address":"西多摩郡奥多摩町氷川1111","lat":35.800485,"lon":139.088556},{"name":"奥多摩町保健福祉センター","province":"東京都","city":"西多摩郡奥多摩町","address":"東京都西多摩郡奥多摩町氷川1111","lat":35.80056794,"lon":139.0886364},{"name":"奥多摩町保健福祉センター","province":"東京都","city":"西多摩郡奥多摩町","address":"西多摩郡奥多摩町氷川1111","lat":35.8236,"lon":139.09344},{"name":"奥多摩町保健福祉センター","province":"東京都","city":"西多摩郡奥多摩町","address":"西多摩郡奥多摩町氷川1111","lat":35.82361,"lon":139.09345},{"name":"奥多摩町選挙管理委員会","province":"東京都","city":"西多摩郡奥多摩町","address":"西多摩郡奥多摩町氷川215-6","lat":35.809523,"lon":139.096235},{"name":"奥多摩町保健福祉センター","province":"東京都","city":"西多摩郡奥多摩町","address":"西多摩郡奥多摩町氷川1111","lat":35.800485,"lon":139.088556},{"name":"奥多摩町保健福祉センター","province":"東京都","city":"西多摩郡奥多摩町","address":"東京都西多摩郡奥多摩町氷川1111","lat":35.80056794,"lon":139.0886364},{"name":"奥多摩町保健福祉センター","province":"東京都","city":"西多摩郡奥多摩町","address":"西多摩郡奥多摩町氷川1111","lat":35.8236,"lon":139.09344},{"name":"奥多摩町保健福祉センター","province":"東京都","city":"西多摩郡奥多摩町","address":"西多摩郡奥多摩町氷川1111","lat":35.82361,"lon":139.09345},{"name":"奥多摩町選挙管理委員会","province":"東京都","city":"西多摩郡奥多摩町","address":"西多摩郡奥多摩町氷川215-6","lat":35.809523,"lon":139.096235},{"name":"奥多摩町保健福祉センター","province":"東京都","city":"西多摩郡奥多摩町","address":"西多摩郡奥多摩町氷川1111","lat":35.800485,"lon":139.088556},{"name":"奥多摩町保健福祉センター","province":"東京都","city":"西多摩郡奥多摩町","address":"東京都西多摩郡奥多摩町氷川1111","lat":35.80056794,"lon":139.0886364},{"name":"奥多摩町保健福祉センター","province":"東京都","city":"西多摩郡奥多摩町","address":"西多摩郡奥多摩町氷川1111","lat":35.8236,"lon":139.09344},{"name":"奥多摩町保健福祉センター","province":"東京都","city":"西多摩郡奥多摩町","address":"西多摩郡奥多摩町氷川1111","lat":35.82361,"lon":139.09345},{"name":"奥多摩町選挙管理委員会","province":"東京都","city":"西多摩郡奥多摩町","address":"西多摩郡奥多摩町氷川215-6","lat":35.809523,"lon":139.096235},{"name":"奥多摩町保健福祉センター","province":"東京都","city":"西多摩郡奥多摩町","address":"西多摩郡奥多摩町氷川1111","lat":35.800485,"lon":139.088556},{"name":"奥多摩町保健福祉センター","province":"東京都","city":"西多摩郡奥多摩町","address":"東京都西多摩郡奥多摩町氷川1111","lat":35.80056794,"lon":139.0886364},{"name":"奥多摩町保健福祉センター","province":"東京都","city":"西多摩郡奥多摩町","address":"西多摩郡奥多摩町氷川1111","lat":35.8236,"lon":139.09344},{"name":"奥多摩町保健福祉センター","province":"東京都","city":"西多摩郡奥多摩町","address":"西多摩郡奥多摩町氷川1111","lat":35.82361,"lon":139.09345},{"name":"奥多摩町選挙管理委員会","province":"東京都","city":"西多摩郡奥多摩町","address":"西多摩郡奥多摩町氷川215-6","lat":35.809523,"lon":139.096235},{"name":"奥多摩町保健福祉センター","province":"東京都","city":"西多摩郡奥多摩町","address":"西多摩郡奥多摩町氷川1111","lat":35.800485,"lon":139.088556},{"name":"奥多摩町保健福祉センター","province":"東京都","city":"西多摩郡奥多摩町","address":"東京都西多摩郡奥多摩町氷川1111","lat":35.80056794,"lon":139.0886364},{"name":"奥多摩町保健福祉センター","province":"東京都","city":"西多摩郡奥多摩町","address":"西多摩郡奥多摩町氷川1111","lat":35.8236,"lon":139.09344},{"name":"奥多摩町保健福祉センター","province":"東京都","city":"西多摩郡奥多摩町","address":"西多摩郡奥多摩町氷川1111","lat":35.82361,"lon":139.09345},{"name":"奥多摩町選挙管理委員会","province":"東京都","city":"西多摩郡奥多摩町","address":"西多摩郡奥多摩町氷川215-6","lat":35.809523,"lon":139.096235},{"name":"奥多摩町保健福祉センター","province":"東京都","city":"西多摩郡奥多摩町","address":"西多摩郡奥多摩町氷川1111","lat":35.800485,"lon":139.088556},{"name":"奥多摩町保健福祉センター","province":"東京都","city":"西多摩郡奥多摩町","address":"東京都西多摩郡奥多摩町氷川1111","lat":35.80056794,"lon":139.0886364},{"name":"奥多摩町保健福祉センター","province":"東京都","city":"西多摩郡奥多摩町","address":"西多摩郡奥多摩町氷川1111","lat":35.8236,"lon":139.09344},{"name":"奥多摩町保健福祉センター","province":"東京都","city":"西多摩郡奥多摩町","address":"西多摩郡奥多摩町氷川1111","lat":35.82361,"lon":139.09345},{"name":"奥多摩町選挙管理委員会","province":"東京都","city":"西多摩郡奥多摩町","address":"西多摩郡奥多摩町氷川215-6","lat":35.809523,"lon":139.096235},{"name":"奥多摩町保健福祉センター","province":"東京都","city":"西多摩郡奥多摩町","address":"西多摩郡奥多摩町氷川1111","lat":35.800485,"lon":139.088556},{"name":"奥多摩町保健福祉センター","province":"東京都","city":"西多摩郡奥多摩町","address":"東京都西多摩郡奥多摩町氷川1111","lat":35.80056794,"lon":139.0886364},{"name":"奥多摩町保健福祉センター","province":"東京都","city":"西多摩郡奥多摩町","address":"西多摩郡奥多摩町氷川1111","lat":35.8236,"lon":139.09344},{"name":"奥多摩町保健福祉センター","province":"東京都","city":"西多摩郡奥多摩町","address":"西多摩郡奥多摩町氷川1111","lat":35.82361,"lon":139.09345},{"name":"奥多摩町選挙管理委員会","province":"東京都","city":"西多摩郡奥多摩町","address":"西多摩郡奥多摩町氷川215-6","lat":35.809523,"lon":139.096235},{"name":"奥多摩町保健福祉センター","province":"東京都","city":"西多摩郡奥多摩町","address":"西多摩郡奥多摩町氷川1111","lat":35.800485,"lon":139.088556},{"name":"奥多摩町保健福祉センター","province":"東京都","city":"西多摩郡奥多摩町","address":"東京都西多摩郡奥多摩町氷川1111","lat":35.80056794,"lon":139.0886364},{"name":"奥多摩町保健福祉センター","province":"東京都","city":"西多摩郡奥多摩町","address":"西多摩郡奥多摩町氷川1111","lat":35.8236,"lon":139.09344},{"name":"奥多摩町保健福祉センター","province":"東京都","city":"西多摩郡奥多摩町","address":"西多摩郡奥多摩町氷川1111","lat":35.82361,"lon":139.09345},{"name":"奥多摩町選挙管理委員会","province":"東京都","city":"西多摩郡奥多摩町","address":"西多摩郡奥多摩町氷川215-6","lat":35.809523,"lon":139.096235},{"name":"奥多摩町保健福祉センター","province":"東京都","city":"西多摩郡奥多摩町","address":"西多摩郡奥多摩町氷川1111","lat":35.800485,"lon":139.088556},{"name":"奥多摩町保健福祉センター","province":"東京都","city":"西多摩郡奥多摩町","address":"東京都西多摩郡奥多摩町氷川1111","lat":35.80056794,"lon":139.0886364},{"name":"奥多摩町保健福祉センター","province":"東京都","city":"西多摩郡奥多摩町","address":"西多摩郡奥多摩町氷川1111","lat":35.8236,"lon":139.09344},{"name":"奥多摩町保健福祉センター","province":"東京都","city":"西多摩郡奥多摩町","address":"西多摩郡奥多摩町氷川1111","lat":35.82361,"lon":139.09345},{"name":"奥多摩町選挙管理委員会","province":"東京都","city":"西多摩郡奥多摩町","address":"西多摩郡奥多摩町氷川215-6","lat":35.809523,"lon":139.096235},{"name":"奥多摩町保健福祉センター","province":"東京都","city":"西多摩郡奥多摩町","address":"西多摩郡奥多摩町氷川1111","lat":35.800485,"lon":139.088556},{"name":"奥多摩町保健福祉センター","province":"東京都","city":"西多摩郡奥多摩町","address":"東京都西多摩郡奥多摩町氷川1111","lat":35.80056794,"lon":139.0886364},{"name":"奥多摩町保健福祉センター","province":"東京都","city":"西多摩郡奥多摩町","address":"西多摩郡奥多摩町氷川1111","lat":35.8236,"lon":139.09344},{"name":"奥多摩町保健福祉センター","province":"東京都","city":"西多摩郡奥多摩町","address":"西多摩郡奥多摩町氷川1111","lat":35.82361,"lon":139.09345},{"name":"奥多摩町選挙管理委員会","province":"東京都","city":"西多摩郡奥多摩町","address":"西多摩郡奥多摩町氷川215-6","lat":35.809523,"lon":139.096235},{"name":"奥多摩町保健福祉センター","province":"東京都","city":"西多摩郡奥多摩町","address":"西多摩郡奥多摩町氷川1111","lat":35.800485,"lon":139.088556},{"name":"奥多摩町保健福祉センター","province":"東京都","city":"西多摩郡奥多摩町","address":"東京都西多摩郡奥多摩町氷川1111","lat":35.80056794,"lon":139.0886364},{"name":"奥多摩町保健福祉センター","province":"東京都","city":"西多摩郡奥多摩町","address":"西多摩郡奥多摩町氷川1111","lat":35.8236,"lon":139.09344},{"name":"奥多摩町保健福祉センター","province":"東京都","city":"西多摩郡奥多摩町","address":"西多摩郡奥多摩町氷川1111","lat":35.82361,"lon":139.09345},{"name":"奥多摩町選挙管理委員会","province":"東京都","city":"西多摩郡奥多摩町","address":"西多摩郡奥多摩町氷川215-6","lat":35.809523,"lon":139.096235},{"name":"奥多摩町保健福祉センター","province":"東京都","city":"西多摩郡奥多摩町","address":"西多摩郡奥多摩町氷川1111","lat":35.800485,"lon":139.088556},{"name":"奥多摩町保健福祉センター","province":"東京都","city":"西多摩郡奥多摩町","address":"東京都西多摩郡奥多摩町氷川1111","lat":35.80056794,"lon":139.0886364},{"name":"奥多摩町保健福祉センター","province":"東京都","city":"西多摩郡奥多摩町","address":"西多摩郡奥多摩町氷川1111","lat":35.8236,"lon":139.09344},{"name":"奥多摩町保健福祉センター","province":"東京都","city":"西多摩郡奥多摩町","address":"西多摩郡奥多摩町氷川1111","lat":35.82361,"lon":139.09345},{"name":"奥多摩町保健福祉センター","province":"東京都","city":"西多摩郡奥多摩町","address":"西多摩郡奥多摩町氷川1111","lat":35.800485,"lon":139.088556},{"name":"奥多摩町保健福祉センター","province":"東京都","city":"西多摩郡奥多摩町","address":"東京都西多摩郡奥多摩町氷川1111","lat":35.80056794,"lon":139.0886364},{"name":"奥多摩町保健福祉センター","province":"東京都","city":"西多摩郡奥多摩町","address":"西多摩郡奥多摩町氷川1111","lat":35.8236,"lon":139.09344},{"name":"奥多摩町保健福祉センター","province":"東京都","city":"西多摩郡奥多摩町","address":"西多摩郡奥多摩町氷川1111","lat":35.82361,"lon":139.09345},{"name":"奥多摩町保健福祉センター","province":"東京都","city":"西多摩郡奥多摩町","address":"西多摩郡奥多摩町氷川1111","lat":35.800485,"lon":139.088556},{"name":"奥多摩町保健福祉センター","province":"東京都","city":"西多摩郡奥多摩町","address":"東京都西多摩郡奥多摩町氷川1111","lat":35.80056794,"lon":139.0886364},{"name":"奥多摩町保健福祉センター","province":"東京都","city":"西多摩郡奥多摩町","address":"西多摩郡奥多摩町氷川1111","lat":35.8236,"lon":139.09344},{"name":"奥多摩町保健福祉センター","province":"東京都","city":"西多摩郡奥多摩町","address":"西多摩郡奥多摩町氷川1111","lat":35.82361,"lon":139.09345},{"name":"奥多摩町保健福祉センター","province":"東京都","city":"西多摩郡奥多摩町","address":"西多摩郡奥多摩町氷川1111","lat":35.800485,"lon":139.088556},{"name":"奥多摩町保健福祉センター","province":"東京都","city":"西多摩郡奥多摩町","address":"東京都西多摩郡奥多摩町氷川1111","lat":35.80056794,"lon":139.0886364},{"name":"奥多摩町保健福祉センター","province":"東京都","city":"西多摩郡奥多摩町","address":"西多摩郡奥多摩町氷川1111","lat":35.8236,"lon":139.09344},{"name":"奥多摩町保健福祉センター","province":"東京都","city":"西多摩郡奥多摩町","address":"西多摩郡奥多摩町氷川1111","lat":35.82361,"lon":139.09345}]}