{"keyword":"トンネル","data":[{"name":"鳩の巣トンネル","province":"東京都","city":"西多摩郡奥多摩町","address":"東京都西多摩郡奥多摩町","lat":35.80954564,"lon":139.09619943},{"name":"花折トンネル","province":"東京都","city":"西多摩郡奥多摩町","address":"東京都西多摩郡奥多摩町","lat":35.80954564,"lon":139.09619943},{"name":"橋詰トンネル","province":"東京都","city":"西多摩郡奥多摩町","address":"東京都西多摩郡奥多摩町","lat":35.80954564,"lon":139.09619943},{"name":"中山トンネル","province":"東京都","city":"西多摩郡奥多摩町","address":"東京都西多摩郡奥多摩町","lat":35.80954564,"lon":139.09619943},{"name":"大麦代トンネル","province":"東京都","city":"西多摩郡奥多摩町","address":"東京都西多摩郡奥多摩町","lat":35.80954564,"lon":139.09619943},{"name":"室沢トンネル","province":"東京都","city":"西多摩郡奥多摩町","address":"東京都西多摩郡奥多摩町","lat":35.80954564,"lon":139.09619943},{"name":"女の湯トンネル","province":"東京都","city":"西多摩郡奥多摩町","address":"東京都西多摩郡奥多摩町","lat":35.80954564,"lon":139.09619943},{"name":"あづまいトンネル","province":"東京都","city":"西多摩郡奥多摩町","address":"東京都西多摩郡奥多摩町","lat":35.80954564,"lon":139.09619943},{"name":"川野トンネル","province":"東京都","city":"西多摩郡奥多摩町","address":"東京都西多摩郡奥多摩町","lat":35.80954564,"lon":139.09619943},{"name":"竹の花トンネル","province":"東京都","city":"西多摩郡奥多摩町","address":"東京都西多摩郡奥多摩町","lat":35.80954564,"lon":139.09619943},{"name":"日原トンネル","province":"東京都","city":"西多摩郡奥多摩町","address":"東京都西多摩郡奥多摩町","lat":35.80954564,"lon":139.09619943}]}