{"keyword":"収蔵","data":[{"name":"登計原山林広場運動公園","province":"東京都","city":"西多摩郡奥多摩町","address":"東京都西多摩郡奥多摩町氷川940","lat":35.80334886,"lon":139.09433293},{"name":"小河内ダム緊急離着陸場","province":"東京都","city":"西多摩郡奥多摩町","address":"東京都西多摩郡奥多摩町原5","lat":35.79240913,"lon":139.04891347},{"name":"町立古里小学校校庭","province":"東京都","city":"西多摩郡奥多摩町","address":"東京都西多摩郡奥多摩町小丹波75","lat":35.81497705,"lon":139.15089924},{"name":"登計原山林広場運動公園","province":"東京都","city":"西多摩郡奥多摩町","address":"東京都西多摩郡奥多摩町氷川940","lat":35.80334886,"lon":139.09433293},{"name":"小河内ダム緊急離着陸場","province":"東京都","city":"西多摩郡奥多摩町","address":"東京都西多摩郡奥多摩町原5","lat":35.79240913,"lon":139.04891347},{"name":"町立古里小学校校庭","province":"東京都","city":"西多摩郡奥多摩町","address":"東京都西多摩郡奥多摩町小丹波75","lat":35.81497705,"lon":139.15089924},{"name":"登計原山林広場運動公園","province":"東京都","city":"西多摩郡奥多摩町","address":"東京都西多摩郡奥多摩町氷川940","lat":35.80334886,"lon":139.09433293},{"name":"小河内ダム緊急離着陸場","province":"東京都","city":"西多摩郡奥多摩町","address":"東京都西多摩郡奥多摩町原5","lat":35.79240913,"lon":139.04891347},{"name":"町立古里小学校校庭","province":"東京都","city":"西多摩郡奥多摩町","address":"東京都西多摩郡奥多摩町小丹波75","lat":35.81497705,"lon":139.15089924},{"name":"登計原山林広場運動公園","province":"東京都","city":"西多摩郡奥多摩町","address":"東京都西多摩郡奥多摩町氷川940","lat":35.80334886,"lon":139.09433293},{"name":"小河内ダム緊急離着陸場","province":"東京都","city":"西多摩郡奥多摩町","address":"東京都西多摩郡奥多摩町原5","lat":35.79240913,"lon":139.04891347},{"name":"町立古里小学校校庭","province":"東京都","city":"西多摩郡奥多摩町","address":"東京都西多摩郡奥多摩町小丹波75","lat":35.81497705,"lon":139.15089924}]}