{"keyword":"命令","data":[{"name":"古里保育園","province":"東京都","city":"西多摩郡奥多摩町","address":"西多摩郡奥多摩町小丹波528","lat":35.81846,"lon":139.1485},{"name":"氷川保育園","province":"東京都","city":"西多摩郡奥多摩町","address":"西多摩郡奥多摩町氷川1416","lat":35.8236,"lon":139.09344},{"name":"氷川保育園","province":"東京都","city":"西多摩郡奥多摩町","address":"西多摩郡奥多摩町氷川1416","lat":35.82361,"lon":139.09345},{"name":"奥多摩町福祉会館","province":"東京都","city":"西多摩郡奥多摩町","address":"東京都西多摩郡奥多摩町氷川199","lat":35.80875703,"lon":139.09735199},{"name":"古里保育園","province":"東京都","city":"西多摩郡奥多摩町","address":"西多摩郡奥多摩町小丹波528","lat":35.81846,"lon":139.1485},{"name":"氷川保育園","province":"東京都","city":"西多摩郡奥多摩町","address":"西多摩郡奥多摩町氷川1416","lat":35.8236,"lon":139.09344},{"name":"氷川保育園","province":"東京都","city":"西多摩郡奥多摩町","address":"西多摩郡奥多摩町氷川1416","lat":35.82361,"lon":139.09345},{"name":"奥多摩町福祉会館","province":"東京都","city":"西多摩郡奥多摩町","address":"東京都西多摩郡奥多摩町氷川199","lat":35.80875703,"lon":139.09735199},{"name":"古里保育園","province":"東京都","city":"西多摩郡奥多摩町","address":"西多摩郡奥多摩町小丹波528","lat":35.81846,"lon":139.1485},{"name":"氷川保育園","province":"東京都","city":"西多摩郡奥多摩町","address":"西多摩郡奥多摩町氷川1416","lat":35.8236,"lon":139.09344},{"name":"氷川保育園","province":"東京都","city":"西多摩郡奥多摩町","address":"西多摩郡奥多摩町氷川1416","lat":35.82361,"lon":139.09345},{"name":"古里保育園","province":"東京都","city":"西多摩郡奥多摩町","address":"西多摩郡奥多摩町小丹波528","lat":35.81846,"lon":139.1485},{"name":"氷川保育園","province":"東京都","city":"西多摩郡奥多摩町","address":"西多摩郡奥多摩町氷川1416","lat":35.8236,"lon":139.09344},{"name":"氷川保育園","province":"東京都","city":"西多摩郡奥多摩町","address":"西多摩郡奥多摩町氷川1416","lat":35.82361,"lon":139.09345},{"name":"古里保育園","province":"東京都","city":"西多摩郡奥多摩町","address":"西多摩郡奥多摩町小丹波528","lat":35.81846,"lon":139.1485},{"name":"氷川保育園","province":"東京都","city":"西多摩郡奥多摩町","address":"西多摩郡奥多摩町氷川1416","lat":35.8236,"lon":139.09344},{"name":"氷川保育園","province":"東京都","city":"西多摩郡奥多摩町","address":"西多摩郡奥多摩町氷川1416","lat":35.82361,"lon":139.09345},{"name":"古里保育園","province":"東京都","city":"西多摩郡奥多摩町","address":"西多摩郡奥多摩町小丹波528","lat":35.81846,"lon":139.1485},{"name":"氷川保育園","province":"東京都","city":"西多摩郡奥多摩町","address":"西多摩郡奥多摩町氷川1416","lat":35.8236,"lon":139.09344},{"name":"氷川保育園","province":"東京都","city":"西多摩郡奥多摩町","address":"西多摩郡奥多摩町氷川1416","lat":35.82361,"lon":139.09345},{"name":"古里保育園","province":"東京都","city":"西多摩郡奥多摩町","address":"西多摩郡奥多摩町小丹波528","lat":35.81846,"lon":139.1485},{"name":"氷川保育園","province":"東京都","city":"西多摩郡奥多摩町","address":"西多摩郡奥多摩町氷川1416","lat":35.8236,"lon":139.09344},{"name":"氷川保育園","province":"東京都","city":"西多摩郡奥多摩町","address":"西多摩郡奥多摩町氷川1416","lat":35.82361,"lon":139.09345},{"name":"古里保育園","province":"東京都","city":"西多摩郡奥多摩町","address":"西多摩郡奥多摩町小丹波528","lat":35.81846,"lon":139.1485},{"name":"氷川保育園","province":"東京都","city":"西多摩郡奥多摩町","address":"西多摩郡奥多摩町氷川1416","lat":35.8236,"lon":139.09344},{"name":"氷川保育園","province":"東京都","city":"西多摩郡奥多摩町","address":"西多摩郡奥多摩町氷川1416","lat":35.82361,"lon":139.09345},{"name":"古里保育園","province":"東京都","city":"西多摩郡奥多摩町","address":"西多摩郡奥多摩町小丹波528","lat":35.81846,"lon":139.1485},{"name":"氷川保育園","province":"東京都","city":"西多摩郡奥多摩町","address":"西多摩郡奥多摩町氷川1416","lat":35.8236,"lon":139.09344},{"name":"氷川保育園","province":"東京都","city":"西多摩郡奥多摩町","address":"西多摩郡奥多摩町氷川1416","lat":35.82361,"lon":139.09345},{"name":"古里保育園","province":"東京都","city":"西多摩郡奥多摩町","address":"西多摩郡奥多摩町小丹波528","lat":35.81846,"lon":139.1485},{"name":"氷川保育園","province":"東京都","city":"西多摩郡奥多摩町","address":"西多摩郡奥多摩町氷川1416","lat":35.8236,"lon":139.09344},{"name":"氷川保育園","province":"東京都","city":"西多摩郡奥多摩町","address":"西多摩郡奥多摩町氷川1416","lat":35.82361,"lon":139.09345},{"name":"古里保育園","province":"東京都","city":"西多摩郡奥多摩町","address":"西多摩郡奥多摩町小丹波528","lat":35.81846,"lon":139.1485},{"name":"氷川保育園","province":"東京都","city":"西多摩郡奥多摩町","address":"西多摩郡奥多摩町氷川1416","lat":35.8236,"lon":139.09344},{"name":"氷川保育園","province":"東京都","city":"西多摩郡奥多摩町","address":"西多摩郡奥多摩町氷川1416","lat":35.82361,"lon":139.09345},{"name":"古里保育園","province":"東京都","city":"西多摩郡奥多摩町","address":"西多摩郡奥多摩町小丹波528","lat":35.81846,"lon":139.1485},{"name":"氷川保育園","province":"東京都","city":"西多摩郡奥多摩町","address":"西多摩郡奥多摩町氷川1416","lat":35.8236,"lon":139.09344},{"name":"氷川保育園","province":"東京都","city":"西多摩郡奥多摩町","address":"西多摩郡奥多摩町氷川1416","lat":35.82361,"lon":139.09345},{"name":"古里保育園","province":"東京都","city":"西多摩郡奥多摩町","address":"西多摩郡奥多摩町小丹波528","lat":35.81846,"lon":139.1485},{"name":"氷川保育園","province":"東京都","city":"西多摩郡奥多摩町","address":"西多摩郡奥多摩町氷川1416","lat":35.8236,"lon":139.09344},{"name":"氷川保育園","province":"東京都","city":"西多摩郡奥多摩町","address":"西多摩郡奥多摩町氷川1416","lat":35.82361,"lon":139.09345},{"name":"古里保育園","province":"東京都","city":"西多摩郡奥多摩町","address":"西多摩郡奥多摩町小丹波528","lat":35.81846,"lon":139.1485},{"name":"氷川保育園","province":"東京都","city":"西多摩郡奥多摩町","address":"西多摩郡奥多摩町氷川1416","lat":35.8236,"lon":139.09344},{"name":"氷川保育園","province":"東京都","city":"西多摩郡奥多摩町","address":"西多摩郡奥多摩町氷川1416","lat":35.82361,"lon":139.09345},{"name":"古里保育園","province":"東京都","city":"西多摩郡奥多摩町","address":"西多摩郡奥多摩町小丹波528","lat":35.81846,"lon":139.1485},{"name":"氷川保育園","province":"東京都","city":"西多摩郡奥多摩町","address":"西多摩郡奥多摩町氷川1416","lat":35.8236,"lon":139.09344},{"name":"氷川保育園","province":"東京都","city":"西多摩郡奥多摩町","address":"西多摩郡奥多摩町氷川1416","lat":35.82361,"lon":139.09345},{"name":"古里保育園","province":"東京都","city":"西多摩郡奥多摩町","address":"西多摩郡奥多摩町小丹波528","lat":35.81846,"lon":139.1485},{"name":"氷川保育園","province":"東京都","city":"西多摩郡奥多摩町","address":"西多摩郡奥多摩町氷川1416","lat":35.8236,"lon":139.09344},{"name":"氷川保育園","province":"東京都","city":"西多摩郡奥多摩町","address":"西多摩郡奥多摩町氷川1416","lat":35.82361,"lon":139.09345},{"name":"古里保育園","province":"東京都","city":"西多摩郡奥多摩町","address":"西多摩郡奥多摩町小丹波528","lat":35.81846,"lon":139.1485},{"name":"氷川保育園","province":"東京都","city":"西多摩郡奥多摩町","address":"西多摩郡奥多摩町氷川1416","lat":35.8236,"lon":139.09344},{"name":"氷川保育園","province":"東京都","city":"西多摩郡奥多摩町","address":"西多摩郡奥多摩町氷川1416","lat":35.82361,"lon":139.09345},{"name":"古里保育園","province":"東京都","city":"西多摩郡奥多摩町","address":"西多摩郡奥多摩町小丹波528","lat":35.81846,"lon":139.1485},{"name":"氷川保育園","province":"東京都","city":"西多摩郡奥多摩町","address":"西多摩郡奥多摩町氷川1416","lat":35.8236,"lon":139.09344},{"name":"氷川保育園","province":"東京都","city":"西多摩郡奥多摩町","address":"西多摩郡奥多摩町氷川1416","lat":35.82361,"lon":139.09345},{"name":"古里保育園","province":"東京都","city":"西多摩郡奥多摩町","address":"西多摩郡奥多摩町小丹波528","lat":35.81846,"lon":139.1485},{"name":"氷川保育園","province":"東京都","city":"西多摩郡奥多摩町","address":"西多摩郡奥多摩町氷川1416","lat":35.8236,"lon":139.09344},{"name":"氷川保育園","province":"東京都","city":"西多摩郡奥多摩町","address":"西多摩郡奥多摩町氷川1416","lat":35.82361,"lon":139.09345},{"name":"古里保育園","province":"東京都","city":"西多摩郡奥多摩町","address":"西多摩郡奥多摩町小丹波528","lat":35.81846,"lon":139.1485},{"name":"氷川保育園","province":"東京都","city":"西多摩郡奥多摩町","address":"西多摩郡奥多摩町氷川1416","lat":35.8236,"lon":139.09344},{"name":"氷川保育園","province":"東京都","city":"西多摩郡奥多摩町","address":"西多摩郡奥多摩町氷川1416","lat":35.82361,"lon":139.09345},{"name":"古里保育園","province":"東京都","city":"西多摩郡奥多摩町","address":"西多摩郡奥多摩町小丹波528","lat":35.81846,"lon":139.1485},{"name":"氷川保育園","province":"東京都","city":"西多摩郡奥多摩町","address":"西多摩郡奥多摩町氷川1416","lat":35.8236,"lon":139.09344},{"name":"氷川保育園","province":"東京都","city":"西多摩郡奥多摩町","address":"西多摩郡奥多摩町氷川1416","lat":35.82361,"lon":139.09345},{"name":"古里保育園","province":"東京都","city":"西多摩郡奥多摩町","address":"西多摩郡奥多摩町小丹波528","lat":35.81846,"lon":139.1485},{"name":"氷川保育園","province":"東京都","city":"西多摩郡奥多摩町","address":"西多摩郡奥多摩町氷川1416","lat":35.8236,"lon":139.09344},{"name":"氷川保育園","province":"東京都","city":"西多摩郡奥多摩町","address":"西多摩郡奥多摩町氷川1416","lat":35.82361,"lon":139.09345},{"name":"古里保育園","province":"東京都","city":"西多摩郡奥多摩町","address":"西多摩郡奥多摩町小丹波528","lat":35.81846,"lon":139.1485},{"name":"氷川保育園","province":"東京都","city":"西多摩郡奥多摩町","address":"西多摩郡奥多摩町氷川1416","lat":35.8236,"lon":139.09344},{"name":"氷川保育園","province":"東京都","city":"西多摩郡奥多摩町","address":"西多摩郡奥多摩町氷川1416","lat":35.82361,"lon":139.09345},{"name":"古里保育園","province":"東京都","city":"西多摩郡奥多摩町","address":"西多摩郡奥多摩町小丹波528","lat":35.81846,"lon":139.1485},{"name":"氷川保育園","province":"東京都","city":"西多摩郡奥多摩町","address":"西多摩郡奥多摩町氷川1416","lat":35.8236,"lon":139.09344},{"name":"氷川保育園","province":"東京都","city":"西多摩郡奥多摩町","address":"西多摩郡奥多摩町氷川1416","lat":35.82361,"lon":139.09345},{"name":"古里保育園","province":"東京都","city":"西多摩郡奥多摩町","address":"西多摩郡奥多摩町小丹波528","lat":35.81846,"lon":139.1485},{"name":"氷川保育園","province":"東京都","city":"西多摩郡奥多摩町","address":"西多摩郡奥多摩町氷川1416","lat":35.8236,"lon":139.09344},{"name":"氷川保育園","province":"東京都","city":"西多摩郡奥多摩町","address":"西多摩郡奥多摩町氷川1416","lat":35.82361,"lon":139.09345},{"name":"古里保育園","province":"東京都","city":"西多摩郡奥多摩町","address":"西多摩郡奥多摩町小丹波528","lat":35.81846,"lon":139.1485},{"name":"氷川保育園","province":"東京都","city":"西多摩郡奥多摩町","address":"西多摩郡奥多摩町氷川1416","lat":35.8236,"lon":139.09344},{"name":"氷川保育園","province":"東京都","city":"西多摩郡奥多摩町","address":"西多摩郡奥多摩町氷川1416","lat":35.82361,"lon":139.09345},{"name":"古里保育園","province":"東京都","city":"西多摩郡奥多摩町","address":"西多摩郡奥多摩町小丹波528","lat":35.81846,"lon":139.1485},{"name":"氷川保育園","province":"東京都","city":"西多摩郡奥多摩町","address":"西多摩郡奥多摩町氷川1416","lat":35.8236,"lon":139.09344},{"name":"氷川保育園","province":"東京都","city":"西多摩郡奥多摩町","address":"西多摩郡奥多摩町氷川1416","lat":35.82361,"lon":139.09345},{"name":"古里保育園","province":"東京都","city":"西多摩郡奥多摩町","address":"西多摩郡奥多摩町小丹波528","lat":35.81846,"lon":139.1485},{"name":"氷川保育園","province":"東京都","city":"西多摩郡奥多摩町","address":"西多摩郡奥多摩町氷川1416","lat":35.8236,"lon":139.09344},{"name":"氷川保育園","province":"東京都","city":"西多摩郡奥多摩町","address":"西多摩郡奥多摩町氷川1416","lat":35.82361,"lon":139.09345},{"name":"古里保育園","province":"東京都","city":"西多摩郡奥多摩町","address":"西多摩郡奥多摩町小丹波528","lat":35.81846,"lon":139.1485},{"name":"氷川保育園","province":"東京都","city":"西多摩郡奥多摩町","address":"西多摩郡奥多摩町氷川1416","lat":35.8236,"lon":139.09344},{"name":"氷川保育園","province":"東京都","city":"西多摩郡奥多摩町","address":"西多摩郡奥多摩町氷川1416","lat":35.82361,"lon":139.09345},{"name":"古里保育園","province":"東京都","city":"西多摩郡奥多摩町","address":"西多摩郡奥多摩町小丹波528","lat":35.81846,"lon":139.1485},{"name":"氷川保育園","province":"東京都","city":"西多摩郡奥多摩町","address":"西多摩郡奥多摩町氷川1416","lat":35.8236,"lon":139.09344},{"name":"氷川保育園","province":"東京都","city":"西多摩郡奥多摩町","address":"西多摩郡奥多摩町氷川1416","lat":35.82361,"lon":139.09345},{"name":"古里保育園","province":"東京都","city":"西多摩郡奥多摩町","address":"西多摩郡奥多摩町小丹波528","lat":35.81846,"lon":139.1485},{"name":"氷川保育園","province":"東京都","city":"西多摩郡奥多摩町","address":"西多摩郡奥多摩町氷川1416","lat":35.8236,"lon":139.09344},{"name":"氷川保育園","province":"東京都","city":"西多摩郡奥多摩町","address":"西多摩郡奥多摩町氷川1416","lat":35.82361,"lon":139.09345},{"name":"古里保育園","province":"東京都","city":"西多摩郡奥多摩町","address":"西多摩郡奥多摩町小丹波528","lat":35.81846,"lon":139.1485},{"name":"氷川保育園","province":"東京都","city":"西多摩郡奥多摩町","address":"西多摩郡奥多摩町氷川1416","lat":35.8236,"lon":139.09344},{"name":"氷川保育園","province":"東京都","city":"西多摩郡奥多摩町","address":"西多摩郡奥多摩町氷川1416","lat":35.82361,"lon":139.09345},{"name":"古里保育園","province":"東京都","city":"西多摩郡奥多摩町","address":"西多摩郡奥多摩町小丹波528","lat":35.81846,"lon":139.1485},{"name":"氷川保育園","province":"東京都","city":"西多摩郡奥多摩町","address":"西多摩郡奥多摩町氷川1416","lat":35.8236,"lon":139.09344},{"name":"氷川保育園","province":"東京都","city":"西多摩郡奥多摩町","address":"西多摩郡奥多摩町氷川1416","lat":35.82361,"lon":139.09345},{"name":"古里保育園","province":"東京都","city":"西多摩郡奥多摩町","address":"西多摩郡奥多摩町小丹波528","lat":35.81846,"lon":139.1485},{"name":"氷川保育園","province":"東京都","city":"西多摩郡奥多摩町","address":"西多摩郡奥多摩町氷川1416","lat":35.8236,"lon":139.09344},{"name":"氷川保育園","province":"東京都","city":"西多摩郡奥多摩町","address":"西多摩郡奥多摩町氷川1416","lat":35.82361,"lon":139.09345},{"name":"古里保育園","province":"東京都","city":"西多摩郡奥多摩町","address":"西多摩郡奥多摩町小丹波528","lat":35.81846,"lon":139.1485},{"name":"氷川保育園","province":"東京都","city":"西多摩郡奥多摩町","address":"西多摩郡奥多摩町氷川1416","lat":35.8236,"lon":139.09344},{"name":"氷川保育園","province":"東京都","city":"西多摩郡奥多摩町","address":"西多摩郡奥多摩町氷川1416","lat":35.82361,"lon":139.09345},{"name":"古里保育園","province":"東京都","city":"西多摩郡奥多摩町","address":"西多摩郡奥多摩町小丹波528","lat":35.81846,"lon":139.1485},{"name":"氷川保育園","province":"東京都","city":"西多摩郡奥多摩町","address":"西多摩郡奥多摩町氷川1416","lat":35.8236,"lon":139.09344},{"name":"氷川保育園","province":"東京都","city":"西多摩郡奥多摩町","address":"西多摩郡奥多摩町氷川1416","lat":35.82361,"lon":139.09345},{"name":"古里保育園","province":"東京都","city":"西多摩郡奥多摩町","address":"西多摩郡奥多摩町小丹波528","lat":35.81846,"lon":139.1485},{"name":"氷川保育園","province":"東京都","city":"西多摩郡奥多摩町","address":"西多摩郡奥多摩町氷川1416","lat":35.8236,"lon":139.09344},{"name":"氷川保育園","province":"東京都","city":"西多摩郡奥多摩町","address":"西多摩郡奥多摩町氷川1416","lat":35.82361,"lon":139.09345},{"name":"古里保育園","province":"東京都","city":"西多摩郡奥多摩町","address":"西多摩郡奥多摩町小丹波528","lat":35.81846,"lon":139.1485},{"name":"氷川保育園","province":"東京都","city":"西多摩郡奥多摩町","address":"西多摩郡奥多摩町氷川1416","lat":35.8236,"lon":139.09344},{"name":"氷川保育園","province":"東京都","city":"西多摩郡奥多摩町","address":"西多摩郡奥多摩町氷川1416","lat":35.82361,"lon":139.09345},{"name":"古里保育園","province":"東京都","city":"西多摩郡奥多摩町","address":"西多摩郡奥多摩町小丹波528","lat":35.81846,"lon":139.1485},{"name":"氷川保育園","province":"東京都","city":"西多摩郡奥多摩町","address":"西多摩郡奥多摩町氷川1416","lat":35.8236,"lon":139.09344},{"name":"氷川保育園","province":"東京都","city":"西多摩郡奥多摩町","address":"西多摩郡奥多摩町氷川1416","lat":35.82361,"lon":139.09345},{"name":"古里保育園","province":"東京都","city":"西多摩郡奥多摩町","address":"西多摩郡奥多摩町小丹波528","lat":35.81846,"lon":139.1485},{"name":"氷川保育園","province":"東京都","city":"西多摩郡奥多摩町","address":"西多摩郡奥多摩町氷川1416","lat":35.8236,"lon":139.09344},{"name":"氷川保育園","province":"東京都","city":"西多摩郡奥多摩町","address":"西多摩郡奥多摩町氷川1416","lat":35.82361,"lon":139.09345},{"name":"古里保育園","province":"東京都","city":"西多摩郡奥多摩町","address":"西多摩郡奥多摩町小丹波528","lat":35.81846,"lon":139.1485},{"name":"氷川保育園","province":"東京都","city":"西多摩郡奥多摩町","address":"西多摩郡奥多摩町氷川1416","lat":35.8236,"lon":139.09344},{"name":"氷川保育園","province":"東京都","city":"西多摩郡奥多摩町","address":"西多摩郡奥多摩町氷川1416","lat":35.82361,"lon":139.09345},{"name":"古里保育園","province":"東京都","city":"西多摩郡奥多摩町","address":"西多摩郡奥多摩町小丹波528","lat":35.81846,"lon":139.1485},{"name":"氷川保育園","province":"東京都","city":"西多摩郡奥多摩町","address":"西多摩郡奥多摩町氷川1416","lat":35.8236,"lon":139.09344},{"name":"氷川保育園","province":"東京都","city":"西多摩郡奥多摩町","address":"西多摩郡奥多摩町氷川1416","lat":35.82361,"lon":139.09345},{"name":"古里保育園","province":"東京都","city":"西多摩郡奥多摩町","address":"西多摩郡奥多摩町小丹波528","lat":35.81846,"lon":139.1485},{"name":"氷川保育園","province":"東京都","city":"西多摩郡奥多摩町","address":"西多摩郡奥多摩町氷川1416","lat":35.8236,"lon":139.09344},{"name":"氷川保育園","province":"東京都","city":"西多摩郡奥多摩町","address":"西多摩郡奥多摩町氷川1416","lat":35.82361,"lon":139.09345},{"name":"古里保育園","province":"東京都","city":"西多摩郡奥多摩町","address":"西多摩郡奥多摩町小丹波528","lat":35.81846,"lon":139.1485},{"name":"氷川保育園","province":"東京都","city":"西多摩郡奥多摩町","address":"西多摩郡奥多摩町氷川1416","lat":35.8236,"lon":139.09344},{"name":"氷川保育園","province":"東京都","city":"西多摩郡奥多摩町","address":"西多摩郡奥多摩町氷川1416","lat":35.82361,"lon":139.09345},{"name":"古里保育園","province":"東京都","city":"西多摩郡奥多摩町","address":"西多摩郡奥多摩町小丹波528","lat":35.81846,"lon":139.1485},{"name":"氷川保育園","province":"東京都","city":"西多摩郡奥多摩町","address":"西多摩郡奥多摩町氷川1416","lat":35.8236,"lon":139.09344},{"name":"氷川保育園","province":"東京都","city":"西多摩郡奥多摩町","address":"西多摩郡奥多摩町氷川1416","lat":35.82361,"lon":139.09345},{"name":"古里保育園","province":"東京都","city":"西多摩郡奥多摩町","address":"西多摩郡奥多摩町小丹波528","lat":35.81846,"lon":139.1485},{"name":"氷川保育園","province":"東京都","city":"西多摩郡奥多摩町","address":"西多摩郡奥多摩町氷川1416","lat":35.8236,"lon":139.09344},{"name":"氷川保育園","province":"東京都","city":"西多摩郡奥多摩町","address":"西多摩郡奥多摩町氷川1416","lat":35.82361,"lon":139.09345},{"name":"古里保育園","province":"東京都","city":"西多摩郡奥多摩町","address":"西多摩郡奥多摩町小丹波528","lat":35.81846,"lon":139.1485},{"name":"氷川保育園","province":"東京都","city":"西多摩郡奥多摩町","address":"西多摩郡奥多摩町氷川1416","lat":35.8236,"lon":139.09344},{"name":"氷川保育園","province":"東京都","city":"西多摩郡奥多摩町","address":"西多摩郡奥多摩町氷川1416","lat":35.82361,"lon":139.09345},{"name":"古里保育園","province":"東京都","city":"西多摩郡奥多摩町","address":"西多摩郡奥多摩町小丹波528","lat":35.81846,"lon":139.1485},{"name":"氷川保育園","province":"東京都","city":"西多摩郡奥多摩町","address":"西多摩郡奥多摩町氷川1416","lat":35.8236,"lon":139.09344},{"name":"氷川保育園","province":"東京都","city":"西多摩郡奥多摩町","address":"西多摩郡奥多摩町氷川1416","lat":35.82361,"lon":139.09345},{"name":"古里保育園","province":"東京都","city":"西多摩郡奥多摩町","address":"西多摩郡奥多摩町小丹波528","lat":35.81846,"lon":139.1485},{"name":"氷川保育園","province":"東京都","city":"西多摩郡奥多摩町","address":"西多摩郡奥多摩町氷川1416","lat":35.8236,"lon":139.09344},{"name":"氷川保育園","province":"東京都","city":"西多摩郡奥多摩町","address":"西多摩郡奥多摩町氷川1416","lat":35.82361,"lon":139.09345}]}