{"keyword":"週","data":[{"name":"奥多摩町社会福祉協議会","province":"東京都","city":"西多摩郡奥多摩町","address":"西多摩郡奥多摩町氷川199福祉会館内","lat":35.80876,"lon":139.097263},{"name":"倉沢のヒノキ","province":"東京都","city":"西多摩郡奥多摩町","address":"東京都西多摩郡奥多摩町日原567","lat":35.841557,"lon":139.043247},{"name":"古里図書館","province":"東京都","city":"西多摩郡奥多摩町","address":"東京都西多摩郡奥多摩町小丹波82","lat":35.8153027,"lon":139.1499127},{"name":"氷川図書館","province":"東京都","city":"西多摩郡奥多摩町","address":"東京都西多摩郡奥多摩町氷川199-ロ","lat":35.8088211,"lon":139.0973034},{"name":"奥多摩町社会福祉協議会","province":"東京都","city":"西多摩郡奥多摩町","address":"西多摩郡奥多摩町氷川199","lat":35.8236,"lon":139.09344},{"name":"奥多摩町社会福祉協議会","province":"東京都","city":"西多摩郡奥多摩町","address":"西多摩郡奥多摩町氷川199","lat":35.82361,"lon":139.09345},{"name":"登計原山林広場運動公園","province":"東京都","city":"西多摩郡奥多摩町","address":"東京都西多摩郡奥多摩町氷川940","lat":35.80334886,"lon":139.09433293},{"name":"小河内ダム緊急離着陸場","province":"東京都","city":"西多摩郡奥多摩町","address":"東京都西多摩郡奥多摩町原5","lat":35.79240913,"lon":139.04891347},{"name":"町立古里小学校校庭","province":"東京都","city":"西多摩郡奥多摩町","address":"東京都西多摩郡奥多摩町小丹波75","lat":35.81497705,"lon":139.15089924},{"name":"＊?奥多摩町立せせらぎの里美術館","province":"東京都","city":"西多摩郡奥多摩町","address":"奥多摩町川井53","lat":35.807353,"lon":139.173765},{"name":"＊?奥多摩町立氷川図書館","province":"東京都","city":"西多摩郡奥多摩町","address":"奥多摩町氷川199-ロ奥多摩町福祉会館内","lat":35.80878,"lon":139.097301},{"name":"＊?奥多摩町立古里図書館","province":"東京都","city":"西多摩郡奥多摩町","address":"奥多摩町小丹波82奥多摩文化会館内","lat":35.815303,"lon":139.149913},{"name":"奥多摩町クリーンセンター","province":"東京都","city":"西多摩郡奥多摩町","address":"奥多摩町海沢850-1","lat":35.787006,"lon":139.124954},{"name":"奥多摩町社会福祉協議会","province":"東京都","city":"西多摩郡奥多摩町","address":"西多摩郡奥多摩町氷川199福祉会館内","lat":35.80876,"lon":139.097263},{"name":"倉沢のヒノキ","province":"東京都","city":"西多摩郡奥多摩町","address":"東京都西多摩郡奥多摩町日原567","lat":35.841557,"lon":139.043247},{"name":"古里図書館","province":"東京都","city":"西多摩郡奥多摩町","address":"東京都西多摩郡奥多摩町小丹波82","lat":35.8153027,"lon":139.1499127},{"name":"氷川図書館","province":"東京都","city":"西多摩郡奥多摩町","address":"東京都西多摩郡奥多摩町氷川199-ロ","lat":35.8088211,"lon":139.0973034},{"name":"奥多摩町社会福祉協議会","province":"東京都","city":"西多摩郡奥多摩町","address":"西多摩郡奥多摩町氷川199","lat":35.8236,"lon":139.09344},{"name":"奥多摩町社会福祉協議会","province":"東京都","city":"西多摩郡奥多摩町","address":"西多摩郡奥多摩町氷川199","lat":35.82361,"lon":139.09345},{"name":"＊?奥多摩町立せせらぎの里美術館","province":"東京都","city":"西多摩郡奥多摩町","address":"奥多摩町川井53","lat":35.807353,"lon":139.173765},{"name":"＊?奥多摩町立氷川図書館","province":"東京都","city":"西多摩郡奥多摩町","address":"奥多摩町氷川199-ロ奥多摩町福祉会館内","lat":35.80878,"lon":139.097301},{"name":"＊?奥多摩町立古里図書館","province":"東京都","city":"西多摩郡奥多摩町","address":"奥多摩町小丹波82奥多摩文化会館内","lat":35.815303,"lon":139.149913},{"name":"奥多摩町クリーンセンター","province":"東京都","city":"西多摩郡奥多摩町","address":"奥多摩町海沢850-1","lat":35.787006,"lon":139.124954},{"name":"奥多摩町社会福祉協議会","province":"東京都","city":"西多摩郡奥多摩町","address":"西多摩郡奥多摩町氷川199福祉会館内","lat":35.80876,"lon":139.097263},{"name":"倉沢のヒノキ","province":"東京都","city":"西多摩郡奥多摩町","address":"東京都西多摩郡奥多摩町日原567","lat":35.841557,"lon":139.043247},{"name":"古里図書館","province":"東京都","city":"西多摩郡奥多摩町","address":"東京都西多摩郡奥多摩町小丹波82","lat":35.8153027,"lon":139.1499127},{"name":"氷川図書館","province":"東京都","city":"西多摩郡奥多摩町","address":"東京都西多摩郡奥多摩町氷川199-ロ","lat":35.8088211,"lon":139.0973034},{"name":"奥多摩町社会福祉協議会","province":"東京都","city":"西多摩郡奥多摩町","address":"西多摩郡奥多摩町氷川199","lat":35.8236,"lon":139.09344},{"name":"奥多摩町社会福祉協議会","province":"東京都","city":"西多摩郡奥多摩町","address":"西多摩郡奥多摩町氷川199","lat":35.82361,"lon":139.09345},{"name":"＊?奥多摩町立せせらぎの里美術館","province":"東京都","city":"西多摩郡奥多摩町","address":"奥多摩町川井53","lat":35.807353,"lon":139.173765},{"name":"＊?奥多摩町立氷川図書館","province":"東京都","city":"西多摩郡奥多摩町","address":"奥多摩町氷川199-ロ奥多摩町福祉会館内","lat":35.80878,"lon":139.097301},{"name":"＊?奥多摩町立古里図書館","province":"東京都","city":"西多摩郡奥多摩町","address":"奥多摩町小丹波82奥多摩文化会館内","lat":35.815303,"lon":139.149913},{"name":"奥多摩町クリーンセンター","province":"東京都","city":"西多摩郡奥多摩町","address":"奥多摩町海沢850-1","lat":35.787006,"lon":139.124954},{"name":"奥多摩町社会福祉協議会","province":"東京都","city":"西多摩郡奥多摩町","address":"西多摩郡奥多摩町氷川199福祉会館内","lat":35.80876,"lon":139.097263},{"name":"倉沢のヒノキ","province":"東京都","city":"西多摩郡奥多摩町","address":"東京都西多摩郡奥多摩町日原567","lat":35.841557,"lon":139.043247},{"name":"古里図書館","province":"東京都","city":"西多摩郡奥多摩町","address":"東京都西多摩郡奥多摩町小丹波82","lat":35.8153027,"lon":139.1499127},{"name":"氷川図書館","province":"東京都","city":"西多摩郡奥多摩町","address":"東京都西多摩郡奥多摩町氷川199-ロ","lat":35.8088211,"lon":139.0973034},{"name":"奥多摩町社会福祉協議会","province":"東京都","city":"西多摩郡奥多摩町","address":"西多摩郡奥多摩町氷川199","lat":35.8236,"lon":139.09344},{"name":"奥多摩町社会福祉協議会","province":"東京都","city":"西多摩郡奥多摩町","address":"西多摩郡奥多摩町氷川199","lat":35.82361,"lon":139.09345},{"name":"＊?奥多摩町立せせらぎの里美術館","province":"東京都","city":"西多摩郡奥多摩町","address":"奥多摩町川井53","lat":35.807353,"lon":139.173765},{"name":"＊?奥多摩町立氷川図書館","province":"東京都","city":"西多摩郡奥多摩町","address":"奥多摩町氷川199-ロ奥多摩町福祉会館内","lat":35.80878,"lon":139.097301},{"name":"＊?奥多摩町立古里図書館","province":"東京都","city":"西多摩郡奥多摩町","address":"奥多摩町小丹波82奥多摩文化会館内","lat":35.815303,"lon":139.149913},{"name":"奥多摩町クリーンセンター","province":"東京都","city":"西多摩郡奥多摩町","address":"奥多摩町海沢850-1","lat":35.787006,"lon":139.124954},{"name":"倉沢のヒノキ","province":"東京都","city":"西多摩郡奥多摩町","address":"東京都西多摩郡奥多摩町日原567","lat":35.841557,"lon":139.043247},{"name":"古里図書館","province":"東京都","city":"西多摩郡奥多摩町","address":"東京都西多摩郡奥多摩町小丹波82","lat":35.8153027,"lon":139.1499127},{"name":"氷川図書館","province":"東京都","city":"西多摩郡奥多摩町","address":"東京都西多摩郡奥多摩町氷川199-ロ","lat":35.8088211,"lon":139.0973034},{"name":"＊?奥多摩町立せせらぎの里美術館","province":"東京都","city":"西多摩郡奥多摩町","address":"奥多摩町川井53","lat":35.807353,"lon":139.173765},{"name":"＊?奥多摩町立氷川図書館","province":"東京都","city":"西多摩郡奥多摩町","address":"奥多摩町氷川199-ロ奥多摩町福祉会館内","lat":35.80878,"lon":139.097301},{"name":"＊?奥多摩町立古里図書館","province":"東京都","city":"西多摩郡奥多摩町","address":"奥多摩町小丹波82奥多摩文化会館内","lat":35.815303,"lon":139.149913},{"name":"奥多摩町クリーンセンター","province":"東京都","city":"西多摩郡奥多摩町","address":"奥多摩町海沢850-1","lat":35.787006,"lon":139.124954},{"name":"倉沢のヒノキ","province":"東京都","city":"西多摩郡奥多摩町","address":"東京都西多摩郡奥多摩町日原567","lat":35.841557,"lon":139.043247},{"name":"古里図書館","province":"東京都","city":"西多摩郡奥多摩町","address":"東京都西多摩郡奥多摩町小丹波82","lat":35.8153027,"lon":139.1499127},{"name":"氷川図書館","province":"東京都","city":"西多摩郡奥多摩町","address":"東京都西多摩郡奥多摩町氷川199-ロ","lat":35.8088211,"lon":139.0973034},{"name":"＊?奥多摩町立せせらぎの里美術館","province":"東京都","city":"西多摩郡奥多摩町","address":"奥多摩町川井53","lat":35.807353,"lon":139.173765},{"name":"＊?奥多摩町立氷川図書館","province":"東京都","city":"西多摩郡奥多摩町","address":"奥多摩町氷川199-ロ奥多摩町福祉会館内","lat":35.80878,"lon":139.097301},{"name":"＊?奥多摩町立古里図書館","province":"東京都","city":"西多摩郡奥多摩町","address":"奥多摩町小丹波82奥多摩文化会館内","lat":35.815303,"lon":139.149913},{"name":"奥多摩町クリーンセンター","province":"東京都","city":"西多摩郡奥多摩町","address":"奥多摩町海沢850-1","lat":35.787006,"lon":139.124954},{"name":"倉沢のヒノキ","province":"東京都","city":"西多摩郡奥多摩町","address":"東京都西多摩郡奥多摩町日原567","lat":35.841557,"lon":139.043247},{"name":"古里図書館","province":"東京都","city":"西多摩郡奥多摩町","address":"東京都西多摩郡奥多摩町小丹波82","lat":35.8153027,"lon":139.1499127},{"name":"氷川図書館","province":"東京都","city":"西多摩郡奥多摩町","address":"東京都西多摩郡奥多摩町氷川199-ロ","lat":35.8088211,"lon":139.0973034},{"name":"＊?奥多摩町立せせらぎの里美術館","province":"東京都","city":"西多摩郡奥多摩町","address":"奥多摩町川井53","lat":35.807353,"lon":139.173765},{"name":"＊?奥多摩町立氷川図書館","province":"東京都","city":"西多摩郡奥多摩町","address":"奥多摩町氷川199-ロ奥多摩町福祉会館内","lat":35.80878,"lon":139.097301},{"name":"＊?奥多摩町立古里図書館","province":"東京都","city":"西多摩郡奥多摩町","address":"奥多摩町小丹波82奥多摩文化会館内","lat":35.815303,"lon":139.149913},{"name":"奥多摩町クリーンセンター","province":"東京都","city":"西多摩郡奥多摩町","address":"奥多摩町海沢850-1","lat":35.787006,"lon":139.124954},{"name":"倉沢のヒノキ","province":"東京都","city":"西多摩郡奥多摩町","address":"東京都西多摩郡奥多摩町日原567","lat":35.841557,"lon":139.043247},{"name":"古里図書館","province":"東京都","city":"西多摩郡奥多摩町","address":"東京都西多摩郡奥多摩町小丹波82","lat":35.8153027,"lon":139.1499127},{"name":"氷川図書館","province":"東京都","city":"西多摩郡奥多摩町","address":"東京都西多摩郡奥多摩町氷川199-ロ","lat":35.8088211,"lon":139.0973034},{"name":"＊?奥多摩町立せせらぎの里美術館","province":"東京都","city":"西多摩郡奥多摩町","address":"奥多摩町川井53","lat":35.807353,"lon":139.173765},{"name":"＊?奥多摩町立氷川図書館","province":"東京都","city":"西多摩郡奥多摩町","address":"奥多摩町氷川199-ロ奥多摩町福祉会館内","lat":35.80878,"lon":139.097301},{"name":"＊?奥多摩町立古里図書館","province":"東京都","city":"西多摩郡奥多摩町","address":"奥多摩町小丹波82奥多摩文化会館内","lat":35.815303,"lon":139.149913},{"name":"奥多摩町クリーンセンター","province":"東京都","city":"西多摩郡奥多摩町","address":"奥多摩町海沢850-1","lat":35.787006,"lon":139.124954},{"name":"倉沢のヒノキ","province":"東京都","city":"西多摩郡奥多摩町","address":"東京都西多摩郡奥多摩町日原567","lat":35.841557,"lon":139.043247},{"name":"古里図書館","province":"東京都","city":"西多摩郡奥多摩町","address":"東京都西多摩郡奥多摩町小丹波82","lat":35.8153027,"lon":139.1499127},{"name":"氷川図書館","province":"東京都","city":"西多摩郡奥多摩町","address":"東京都西多摩郡奥多摩町氷川199-ロ","lat":35.8088211,"lon":139.0973034},{"name":"＊?奥多摩町立せせらぎの里美術館","province":"東京都","city":"西多摩郡奥多摩町","address":"奥多摩町川井53","lat":35.807353,"lon":139.173765},{"name":"＊?奥多摩町立氷川図書館","province":"東京都","city":"西多摩郡奥多摩町","address":"奥多摩町氷川199-ロ奥多摩町福祉会館内","lat":35.80878,"lon":139.097301},{"name":"＊?奥多摩町立古里図書館","province":"東京都","city":"西多摩郡奥多摩町","address":"奥多摩町小丹波82奥多摩文化会館内","lat":35.815303,"lon":139.149913},{"name":"奥多摩町クリーンセンター","province":"東京都","city":"西多摩郡奥多摩町","address":"奥多摩町海沢850-1","lat":35.787006,"lon":139.124954},{"name":"倉沢のヒノキ","province":"東京都","city":"西多摩郡奥多摩町","address":"東京都西多摩郡奥多摩町日原567","lat":35.841557,"lon":139.043247},{"name":"古里図書館","province":"東京都","city":"西多摩郡奥多摩町","address":"東京都西多摩郡奥多摩町小丹波82","lat":35.8153027,"lon":139.1499127},{"name":"氷川図書館","province":"東京都","city":"西多摩郡奥多摩町","address":"東京都西多摩郡奥多摩町氷川199-ロ","lat":35.8088211,"lon":139.0973034},{"name":"＊?奥多摩町立氷川図書館","province":"東京都","city":"西多摩郡奥多摩町","address":"奥多摩町氷川199-ロ奥多摩町福祉会館内","lat":35.80878,"lon":139.097301},{"name":"＊?奥多摩町立古里図書館","province":"東京都","city":"西多摩郡奥多摩町","address":"奥多摩町小丹波82奥多摩文化会館内","lat":35.815303,"lon":139.149913},{"name":"奥多摩町クリーンセンター","province":"東京都","city":"西多摩郡奥多摩町","address":"奥多摩町海沢850-1","lat":35.787006,"lon":139.124954},{"name":"倉沢のヒノキ","province":"東京都","city":"西多摩郡奥多摩町","address":"東京都西多摩郡奥多摩町日原567","lat":35.841557,"lon":139.043247},{"name":"古里図書館","province":"東京都","city":"西多摩郡奥多摩町","address":"東京都西多摩郡奥多摩町小丹波82","lat":35.8153027,"lon":139.1499127},{"name":"氷川図書館","province":"東京都","city":"西多摩郡奥多摩町","address":"東京都西多摩郡奥多摩町氷川199-ロ","lat":35.8088211,"lon":139.0973034},{"name":"＊?奥多摩町立氷川図書館","province":"東京都","city":"西多摩郡奥多摩町","address":"奥多摩町氷川199-ロ奥多摩町福祉会館内","lat":35.80878,"lon":139.097301},{"name":"＊?奥多摩町立古里図書館","province":"東京都","city":"西多摩郡奥多摩町","address":"奥多摩町小丹波82奥多摩文化会館内","lat":35.815303,"lon":139.149913},{"name":"奥多摩町クリーンセンター","province":"東京都","city":"西多摩郡奥多摩町","address":"奥多摩町海沢850-1","lat":35.787006,"lon":139.124954},{"name":"倉沢のヒノキ","province":"東京都","city":"西多摩郡奥多摩町","address":"東京都西多摩郡奥多摩町日原567","lat":35.841557,"lon":139.043247},{"name":"古里図書館","province":"東京都","city":"西多摩郡奥多摩町","address":"東京都西多摩郡奥多摩町小丹波82","lat":35.8153027,"lon":139.1499127},{"name":"氷川図書館","province":"東京都","city":"西多摩郡奥多摩町","address":"東京都西多摩郡奥多摩町氷川199-ロ","lat":35.8088211,"lon":139.0973034},{"name":"＊?奥多摩町立氷川図書館","province":"東京都","city":"西多摩郡奥多摩町","address":"奥多摩町氷川199-ロ奥多摩町福祉会館内","lat":35.80878,"lon":139.097301},{"name":"＊?奥多摩町立古里図書館","province":"東京都","city":"西多摩郡奥多摩町","address":"奥多摩町小丹波82奥多摩文化会館内","lat":35.815303,"lon":139.149913},{"name":"奥多摩町クリーンセンター","province":"東京都","city":"西多摩郡奥多摩町","address":"奥多摩町海沢850-1","lat":35.787006,"lon":139.124954},{"name":"倉沢のヒノキ","province":"東京都","city":"西多摩郡奥多摩町","address":"東京都西多摩郡奥多摩町日原567","lat":35.841557,"lon":139.043247},{"name":"古里図書館","province":"東京都","city":"西多摩郡奥多摩町","address":"東京都西多摩郡奥多摩町小丹波82","lat":35.8153027,"lon":139.1499127},{"name":"氷川図書館","province":"東京都","city":"西多摩郡奥多摩町","address":"東京都西多摩郡奥多摩町氷川199-ロ","lat":35.8088211,"lon":139.0973034},{"name":"＊?奥多摩町立氷川図書館","province":"東京都","city":"西多摩郡奥多摩町","address":"奥多摩町氷川199-ロ奥多摩町福祉会館内","lat":35.80878,"lon":139.097301},{"name":"＊?奥多摩町立古里図書館","province":"東京都","city":"西多摩郡奥多摩町","address":"奥多摩町小丹波82奥多摩文化会館内","lat":35.815303,"lon":139.149913},{"name":"奥多摩町クリーンセンター","province":"東京都","city":"西多摩郡奥多摩町","address":"奥多摩町海沢850-1","lat":35.787006,"lon":139.124954},{"name":"倉沢のヒノキ","province":"東京都","city":"西多摩郡奥多摩町","address":"東京都西多摩郡奥多摩町日原567","lat":35.841557,"lon":139.043247},{"name":"古里図書館","province":"東京都","city":"西多摩郡奥多摩町","address":"東京都西多摩郡奥多摩町小丹波82","lat":35.8153027,"lon":139.1499127},{"name":"氷川図書館","province":"東京都","city":"西多摩郡奥多摩町","address":"東京都西多摩郡奥多摩町氷川199-ロ","lat":35.8088211,"lon":139.0973034},{"name":"＊?奥多摩町立氷川図書館","province":"東京都","city":"西多摩郡奥多摩町","address":"奥多摩町氷川199-ロ奥多摩町福祉会館内","lat":35.80878,"lon":139.097301},{"name":"＊?奥多摩町立古里図書館","province":"東京都","city":"西多摩郡奥多摩町","address":"奥多摩町小丹波82奥多摩文化会館内","lat":35.815303,"lon":139.149913},{"name":"奥多摩町クリーンセンター","province":"東京都","city":"西多摩郡奥多摩町","address":"奥多摩町海沢850-1","lat":35.787006,"lon":139.124954},{"name":"倉沢のヒノキ","province":"東京都","city":"西多摩郡奥多摩町","address":"東京都西多摩郡奥多摩町日原567","lat":35.841557,"lon":139.043247},{"name":"古里図書館","province":"東京都","city":"西多摩郡奥多摩町","address":"東京都西多摩郡奥多摩町小丹波82","lat":35.8153027,"lon":139.1499127},{"name":"氷川図書館","province":"東京都","city":"西多摩郡奥多摩町","address":"東京都西多摩郡奥多摩町氷川199-ロ","lat":35.8088211,"lon":139.0973034},{"name":"＊?奥多摩町立氷川図書館","province":"東京都","city":"西多摩郡奥多摩町","address":"奥多摩町氷川199-ロ奥多摩町福祉会館内","lat":35.80878,"lon":139.097301},{"name":"＊?奥多摩町立古里図書館","province":"東京都","city":"西多摩郡奥多摩町","address":"奥多摩町小丹波82奥多摩文化会館内","lat":35.815303,"lon":139.149913},{"name":"奥多摩町クリーンセンター","province":"東京都","city":"西多摩郡奥多摩町","address":"奥多摩町海沢850-1","lat":35.787006,"lon":139.124954},{"name":"倉沢のヒノキ","province":"東京都","city":"西多摩郡奥多摩町","address":"東京都西多摩郡奥多摩町日原567","lat":35.841557,"lon":139.043247},{"name":"古里図書館","province":"東京都","city":"西多摩郡奥多摩町","address":"東京都西多摩郡奥多摩町小丹波82","lat":35.8153027,"lon":139.1499127},{"name":"氷川図書館","province":"東京都","city":"西多摩郡奥多摩町","address":"東京都西多摩郡奥多摩町氷川199-ロ","lat":35.8088211,"lon":139.0973034},{"name":"＊?奥多摩町立氷川図書館","province":"東京都","city":"西多摩郡奥多摩町","address":"奥多摩町氷川199-ロ奥多摩町福祉会館内","lat":35.80878,"lon":139.097301},{"name":"＊?奥多摩町立古里図書館","province":"東京都","city":"西多摩郡奥多摩町","address":"奥多摩町小丹波82奥多摩文化会館内","lat":35.815303,"lon":139.149913},{"name":"奥多摩町クリーンセンター","province":"東京都","city":"西多摩郡奥多摩町","address":"奥多摩町海沢850-1","lat":35.787006,"lon":139.124954},{"name":"倉沢のヒノキ","province":"東京都","city":"西多摩郡奥多摩町","address":"東京都西多摩郡奥多摩町日原567","lat":35.841557,"lon":139.043247},{"name":"古里図書館","province":"東京都","city":"西多摩郡奥多摩町","address":"東京都西多摩郡奥多摩町小丹波82","lat":35.8153027,"lon":139.1499127},{"name":"氷川図書館","province":"東京都","city":"西多摩郡奥多摩町","address":"東京都西多摩郡奥多摩町氷川199-ロ","lat":35.8088211,"lon":139.0973034},{"name":"＊?奥多摩町立氷川図書館","province":"東京都","city":"西多摩郡奥多摩町","address":"奥多摩町氷川199-ロ奥多摩町福祉会館内","lat":35.80878,"lon":139.097301},{"name":"＊?奥多摩町立古里図書館","province":"東京都","city":"西多摩郡奥多摩町","address":"奥多摩町小丹波82奥多摩文化会館内","lat":35.815303,"lon":139.149913},{"name":"奥多摩町クリーンセンター","province":"東京都","city":"西多摩郡奥多摩町","address":"奥多摩町海沢850-1","lat":35.787006,"lon":139.124954},{"name":"倉沢のヒノキ","province":"東京都","city":"西多摩郡奥多摩町","address":"東京都西多摩郡奥多摩町日原567","lat":35.841557,"lon":139.043247},{"name":"古里図書館","province":"東京都","city":"西多摩郡奥多摩町","address":"東京都西多摩郡奥多摩町小丹波82","lat":35.8153027,"lon":139.1499127},{"name":"氷川図書館","province":"東京都","city":"西多摩郡奥多摩町","address":"東京都西多摩郡奥多摩町氷川199-ロ","lat":35.8088211,"lon":139.0973034},{"name":"＊?奥多摩町立氷川図書館","province":"東京都","city":"西多摩郡奥多摩町","address":"奥多摩町氷川199-ロ奥多摩町福祉会館内","lat":35.80878,"lon":139.097301},{"name":"＊?奥多摩町立古里図書館","province":"東京都","city":"西多摩郡奥多摩町","address":"奥多摩町小丹波82奥多摩文化会館内","lat":35.815303,"lon":139.149913},{"name":"奥多摩町クリーンセンター","province":"東京都","city":"西多摩郡奥多摩町","address":"奥多摩町海沢850-1","lat":35.787006,"lon":139.124954},{"name":"倉沢のヒノキ","province":"東京都","city":"西多摩郡奥多摩町","address":"東京都西多摩郡奥多摩町日原567","lat":35.841557,"lon":139.043247},{"name":"古里図書館","province":"東京都","city":"西多摩郡奥多摩町","address":"東京都西多摩郡奥多摩町小丹波82","lat":35.8153027,"lon":139.1499127},{"name":"氷川図書館","province":"東京都","city":"西多摩郡奥多摩町","address":"東京都西多摩郡奥多摩町氷川199-ロ","lat":35.8088211,"lon":139.0973034},{"name":"＊?奥多摩町立氷川図書館","province":"東京都","city":"西多摩郡奥多摩町","address":"奥多摩町氷川199-ロ奥多摩町福祉会館内","lat":35.80878,"lon":139.097301},{"name":"＊?奥多摩町立古里図書館","province":"東京都","city":"西多摩郡奥多摩町","address":"奥多摩町小丹波82奥多摩文化会館内","lat":35.815303,"lon":139.149913},{"name":"奥多摩町クリーンセンター","province":"東京都","city":"西多摩郡奥多摩町","address":"奥多摩町海沢850-1","lat":35.787006,"lon":139.124954},{"name":"倉沢のヒノキ","province":"東京都","city":"西多摩郡奥多摩町","address":"東京都西多摩郡奥多摩町日原567","lat":35.841557,"lon":139.043247},{"name":"古里図書館","province":"東京都","city":"西多摩郡奥多摩町","address":"東京都西多摩郡奥多摩町小丹波82","lat":35.8153027,"lon":139.1499127},{"name":"氷川図書館","province":"東京都","city":"西多摩郡奥多摩町","address":"東京都西多摩郡奥多摩町氷川199-ロ","lat":35.8088211,"lon":139.0973034},{"name":"＊?奥多摩町立氷川図書館","province":"東京都","city":"西多摩郡奥多摩町","address":"奥多摩町氷川199-ロ奥多摩町福祉会館内","lat":35.80878,"lon":139.097301},{"name":"＊?奥多摩町立古里図書館","province":"東京都","city":"西多摩郡奥多摩町","address":"奥多摩町小丹波82奥多摩文化会館内","lat":35.815303,"lon":139.149913},{"name":"奥多摩町クリーンセンター","province":"東京都","city":"西多摩郡奥多摩町","address":"奥多摩町海沢850-1","lat":35.787006,"lon":139.124954},{"name":"倉沢のヒノキ","province":"東京都","city":"西多摩郡奥多摩町","address":"東京都西多摩郡奥多摩町日原567","lat":35.841557,"lon":139.043247},{"name":"古里図書館","province":"東京都","city":"西多摩郡奥多摩町","address":"東京都西多摩郡奥多摩町小丹波82","lat":35.8153027,"lon":139.1499127},{"name":"氷川図書館","province":"東京都","city":"西多摩郡奥多摩町","address":"東京都西多摩郡奥多摩町氷川199-ロ","lat":35.8088211,"lon":139.0973034},{"name":"＊?奥多摩町立氷川図書館","province":"東京都","city":"西多摩郡奥多摩町","address":"奥多摩町氷川199-ロ奥多摩町福祉会館内","lat":35.80878,"lon":139.097301},{"name":"＊?奥多摩町立古里図書館","province":"東京都","city":"西多摩郡奥多摩町","address":"奥多摩町小丹波82奥多摩文化会館内","lat":35.815303,"lon":139.149913},{"name":"奥多摩町クリーンセンター","province":"東京都","city":"西多摩郡奥多摩町","address":"奥多摩町海沢850-1","lat":35.787006,"lon":139.124954},{"name":"倉沢のヒノキ","province":"東京都","city":"西多摩郡奥多摩町","address":"東京都西多摩郡奥多摩町日原567","lat":35.841557,"lon":139.043247},{"name":"古里図書館","province":"東京都","city":"西多摩郡奥多摩町","address":"東京都西多摩郡奥多摩町小丹波82","lat":35.8153027,"lon":139.1499127},{"name":"氷川図書館","province":"東京都","city":"西多摩郡奥多摩町","address":"東京都西多摩郡奥多摩町氷川199-ロ","lat":35.8088211,"lon":139.0973034},{"name":"＊?奥多摩町立氷川図書館","province":"東京都","city":"西多摩郡奥多摩町","address":"奥多摩町氷川199-ロ奥多摩町福祉会館内","lat":35.80878,"lon":139.097301},{"name":"＊?奥多摩町立古里図書館","province":"東京都","city":"西多摩郡奥多摩町","address":"奥多摩町小丹波82奥多摩文化会館内","lat":35.815303,"lon":139.149913},{"name":"奥多摩町クリーンセンター","province":"東京都","city":"西多摩郡奥多摩町","address":"奥多摩町海沢850-1","lat":35.787006,"lon":139.124954},{"name":"倉沢のヒノキ","province":"東京都","city":"西多摩郡奥多摩町","address":"東京都西多摩郡奥多摩町日原567","lat":35.841557,"lon":139.043247},{"name":"古里図書館","province":"東京都","city":"西多摩郡奥多摩町","address":"東京都西多摩郡奥多摩町小丹波82","lat":35.8153027,"lon":139.1499127},{"name":"氷川図書館","province":"東京都","city":"西多摩郡奥多摩町","address":"東京都西多摩郡奥多摩町氷川199-ロ","lat":35.8088211,"lon":139.0973034},{"name":"＊?奥多摩町立氷川図書館","province":"東京都","city":"西多摩郡奥多摩町","address":"奥多摩町氷川199-ロ奥多摩町福祉会館内","lat":35.80878,"lon":139.097301},{"name":"＊?奥多摩町立古里図書館","province":"東京都","city":"西多摩郡奥多摩町","address":"奥多摩町小丹波82奥多摩文化会館内","lat":35.815303,"lon":139.149913},{"name":"倉沢のヒノキ","province":"東京都","city":"西多摩郡奥多摩町","address":"東京都西多摩郡奥多摩町日原567","lat":35.841557,"lon":139.043247},{"name":"古里図書館","province":"東京都","city":"西多摩郡奥多摩町","address":"東京都西多摩郡奥多摩町小丹波82","lat":35.8153027,"lon":139.1499127},{"name":"氷川図書館","province":"東京都","city":"西多摩郡奥多摩町","address":"東京都西多摩郡奥多摩町氷川199-ロ","lat":35.8088211,"lon":139.0973034},{"name":"＊?奥多摩町立氷川図書館","province":"東京都","city":"西多摩郡奥多摩町","address":"奥多摩町氷川199-ロ奥多摩町福祉会館内","lat":35.80878,"lon":139.097301},{"name":"＊?奥多摩町立古里図書館","province":"東京都","city":"西多摩郡奥多摩町","address":"奥多摩町小丹波82奥多摩文化会館内","lat":35.815303,"lon":139.149913},{"name":"倉沢のヒノキ","province":"東京都","city":"西多摩郡奥多摩町","address":"東京都西多摩郡奥多摩町日原567","lat":35.841557,"lon":139.043247},{"name":"古里図書館","province":"東京都","city":"西多摩郡奥多摩町","address":"東京都西多摩郡奥多摩町小丹波82","lat":35.8153027,"lon":139.1499127},{"name":"氷川図書館","province":"東京都","city":"西多摩郡奥多摩町","address":"東京都西多摩郡奥多摩町氷川199-ロ","lat":35.8088211,"lon":139.0973034},{"name":"＊?奥多摩町立氷川図書館","province":"東京都","city":"西多摩郡奥多摩町","address":"奥多摩町氷川199-ロ奥多摩町福祉会館内","lat":35.80878,"lon":139.097301},{"name":"＊?奥多摩町立古里図書館","province":"東京都","city":"西多摩郡奥多摩町","address":"奥多摩町小丹波82奥多摩文化会館内","lat":35.815303,"lon":139.149913},{"name":"倉沢のヒノキ","province":"東京都","city":"西多摩郡奥多摩町","address":"東京都西多摩郡奥多摩町日原567","lat":35.841557,"lon":139.043247},{"name":"古里図書館","province":"東京都","city":"西多摩郡奥多摩町","address":"東京都西多摩郡奥多摩町小丹波82","lat":35.8153027,"lon":139.1499127},{"name":"氷川図書館","province":"東京都","city":"西多摩郡奥多摩町","address":"東京都西多摩郡奥多摩町氷川199-ロ","lat":35.8088211,"lon":139.0973034},{"name":"＊?奥多摩町立氷川図書館","province":"東京都","city":"西多摩郡奥多摩町","address":"奥多摩町氷川199-ロ奥多摩町福祉会館内","lat":35.80878,"lon":139.097301},{"name":"＊?奥多摩町立古里図書館","province":"東京都","city":"西多摩郡奥多摩町","address":"奥多摩町小丹波82奥多摩文化会館内","lat":35.815303,"lon":139.149913},{"name":"倉沢のヒノキ","province":"東京都","city":"西多摩郡奥多摩町","address":"東京都西多摩郡奥多摩町日原567","lat":35.841557,"lon":139.043247},{"name":"古里図書館","province":"東京都","city":"西多摩郡奥多摩町","address":"東京都西多摩郡奥多摩町小丹波82","lat":35.8153027,"lon":139.1499127},{"name":"氷川図書館","province":"東京都","city":"西多摩郡奥多摩町","address":"東京都西多摩郡奥多摩町氷川199-ロ","lat":35.8088211,"lon":139.0973034},{"name":"＊?奥多摩町立氷川図書館","province":"東京都","city":"西多摩郡奥多摩町","address":"奥多摩町氷川199-ロ奥多摩町福祉会館内","lat":35.80878,"lon":139.097301},{"name":"＊?奥多摩町立古里図書館","province":"東京都","city":"西多摩郡奥多摩町","address":"奥多摩町小丹波82奥多摩文化会館内","lat":35.815303,"lon":139.149913},{"name":"倉沢のヒノキ","province":"東京都","city":"西多摩郡奥多摩町","address":"東京都西多摩郡奥多摩町日原567","lat":35.841557,"lon":139.043247},{"name":"古里図書館","province":"東京都","city":"西多摩郡奥多摩町","address":"東京都西多摩郡奥多摩町小丹波82","lat":35.8153027,"lon":139.1499127},{"name":"氷川図書館","province":"東京都","city":"西多摩郡奥多摩町","address":"東京都西多摩郡奥多摩町氷川199-ロ","lat":35.8088211,"lon":139.0973034},{"name":"＊?奥多摩町立氷川図書館","province":"東京都","city":"西多摩郡奥多摩町","address":"奥多摩町氷川199-ロ奥多摩町福祉会館内","lat":35.80878,"lon":139.097301},{"name":"＊?奥多摩町立古里図書館","province":"東京都","city":"西多摩郡奥多摩町","address":"奥多摩町小丹波82奥多摩文化会館内","lat":35.815303,"lon":139.149913},{"name":"倉沢のヒノキ","province":"東京都","city":"西多摩郡奥多摩町","address":"東京都西多摩郡奥多摩町日原567","lat":35.841557,"lon":139.043247},{"name":"古里図書館","province":"東京都","city":"西多摩郡奥多摩町","address":"東京都西多摩郡奥多摩町小丹波82","lat":35.8153027,"lon":139.1499127},{"name":"氷川図書館","province":"東京都","city":"西多摩郡奥多摩町","address":"東京都西多摩郡奥多摩町氷川199-ロ","lat":35.8088211,"lon":139.0973034},{"name":"＊?奥多摩町立氷川図書館","province":"東京都","city":"西多摩郡奥多摩町","address":"奥多摩町氷川199-ロ奥多摩町福祉会館内","lat":35.80878,"lon":139.097301},{"name":"＊?奥多摩町立古里図書館","province":"東京都","city":"西多摩郡奥多摩町","address":"奥多摩町小丹波82奥多摩文化会館内","lat":35.815303,"lon":139.149913},{"name":"倉沢のヒノキ","province":"東京都","city":"西多摩郡奥多摩町","address":"東京都西多摩郡奥多摩町日原567","lat":35.841557,"lon":139.043247},{"name":"古里図書館","province":"東京都","city":"西多摩郡奥多摩町","address":"東京都西多摩郡奥多摩町小丹波82","lat":35.8153027,"lon":139.1499127},{"name":"氷川図書館","province":"東京都","city":"西多摩郡奥多摩町","address":"東京都西多摩郡奥多摩町氷川199-ロ","lat":35.8088211,"lon":139.0973034},{"name":"＊?奥多摩町立氷川図書館","province":"東京都","city":"西多摩郡奥多摩町","address":"奥多摩町氷川199-ロ奥多摩町福祉会館内","lat":35.80878,"lon":139.097301},{"name":"＊?奥多摩町立古里図書館","province":"東京都","city":"西多摩郡奥多摩町","address":"奥多摩町小丹波82奥多摩文化会館内","lat":35.815303,"lon":139.149913},{"name":"倉沢のヒノキ","province":"東京都","city":"西多摩郡奥多摩町","address":"東京都西多摩郡奥多摩町日原567","lat":35.841557,"lon":139.043247},{"name":"古里図書館","province":"東京都","city":"西多摩郡奥多摩町","address":"東京都西多摩郡奥多摩町小丹波82","lat":35.8153027,"lon":139.1499127},{"name":"氷川図書館","province":"東京都","city":"西多摩郡奥多摩町","address":"東京都西多摩郡奥多摩町氷川199-ロ","lat":35.8088211,"lon":139.0973034},{"name":"＊?奥多摩町立氷川図書館","province":"東京都","city":"西多摩郡奥多摩町","address":"奥多摩町氷川199-ロ奥多摩町福祉会館内","lat":35.80878,"lon":139.097301},{"name":"＊?奥多摩町立古里図書館","province":"東京都","city":"西多摩郡奥多摩町","address":"奥多摩町小丹波82奥多摩文化会館内","lat":35.815303,"lon":139.149913},{"name":"倉沢のヒノキ","province":"東京都","city":"西多摩郡奥多摩町","address":"東京都西多摩郡奥多摩町日原567","lat":35.841557,"lon":139.043247},{"name":"古里図書館","province":"東京都","city":"西多摩郡奥多摩町","address":"東京都西多摩郡奥多摩町小丹波82","lat":35.8153027,"lon":139.1499127},{"name":"氷川図書館","province":"東京都","city":"西多摩郡奥多摩町","address":"東京都西多摩郡奥多摩町氷川199-ロ","lat":35.8088211,"lon":139.0973034},{"name":"＊?奥多摩町立氷川図書館","province":"東京都","city":"西多摩郡奥多摩町","address":"奥多摩町氷川199-ロ奥多摩町福祉会館内","lat":35.80878,"lon":139.097301},{"name":"＊?奥多摩町立古里図書館","province":"東京都","city":"西多摩郡奥多摩町","address":"奥多摩町小丹波82奥多摩文化会館内","lat":35.815303,"lon":139.149913},{"name":"倉沢のヒノキ","province":"東京都","city":"西多摩郡奥多摩町","address":"東京都西多摩郡奥多摩町日原567","lat":35.841557,"lon":139.043247},{"name":"古里図書館","province":"東京都","city":"西多摩郡奥多摩町","address":"東京都西多摩郡奥多摩町小丹波82","lat":35.8153027,"lon":139.1499127},{"name":"氷川図書館","province":"東京都","city":"西多摩郡奥多摩町","address":"東京都西多摩郡奥多摩町氷川199-ロ","lat":35.8088211,"lon":139.0973034},{"name":"＊?奥多摩町立氷川図書館","province":"東京都","city":"西多摩郡奥多摩町","address":"奥多摩町氷川199-ロ奥多摩町福祉会館内","lat":35.80878,"lon":139.097301},{"name":"＊?奥多摩町立古里図書館","province":"東京都","city":"西多摩郡奥多摩町","address":"奥多摩町小丹波82奥多摩文化会館内","lat":35.815303,"lon":139.149913},{"name":"倉沢のヒノキ","province":"東京都","city":"西多摩郡奥多摩町","address":"東京都西多摩郡奥多摩町日原567","lat":35.841557,"lon":139.043247},{"name":"古里図書館","province":"東京都","city":"西多摩郡奥多摩町","address":"東京都西多摩郡奥多摩町小丹波82","lat":35.8153027,"lon":139.1499127},{"name":"氷川図書館","province":"東京都","city":"西多摩郡奥多摩町","address":"東京都西多摩郡奥多摩町氷川199-ロ","lat":35.8088211,"lon":139.0973034},{"name":"＊?奥多摩町立氷川図書館","province":"東京都","city":"西多摩郡奥多摩町","address":"奥多摩町氷川199-ロ奥多摩町福祉会館内","lat":35.80878,"lon":139.097301},{"name":"＊?奥多摩町立古里図書館","province":"東京都","city":"西多摩郡奥多摩町","address":"奥多摩町小丹波82奥多摩文化会館内","lat":35.815303,"lon":139.149913},{"name":"倉沢のヒノキ","province":"東京都","city":"西多摩郡奥多摩町","address":"東京都西多摩郡奥多摩町日原567","lat":35.841557,"lon":139.043247},{"name":"古里図書館","province":"東京都","city":"西多摩郡奥多摩町","address":"東京都西多摩郡奥多摩町小丹波82","lat":35.8153027,"lon":139.1499127},{"name":"氷川図書館","province":"東京都","city":"西多摩郡奥多摩町","address":"東京都西多摩郡奥多摩町氷川199-ロ","lat":35.8088211,"lon":139.0973034},{"name":"＊?奥多摩町立氷川図書館","province":"東京都","city":"西多摩郡奥多摩町","address":"奥多摩町氷川199-ロ奥多摩町福祉会館内","lat":35.80878,"lon":139.097301},{"name":"＊?奥多摩町立古里図書館","province":"東京都","city":"西多摩郡奥多摩町","address":"奥多摩町小丹波82奥多摩文化会館内","lat":35.815303,"lon":139.149913},{"name":"倉沢のヒノキ","province":"東京都","city":"西多摩郡奥多摩町","address":"東京都西多摩郡奥多摩町日原567","lat":35.841557,"lon":139.043247},{"name":"古里図書館","province":"東京都","city":"西多摩郡奥多摩町","address":"東京都西多摩郡奥多摩町小丹波82","lat":35.8153027,"lon":139.1499127},{"name":"氷川図書館","province":"東京都","city":"西多摩郡奥多摩町","address":"東京都西多摩郡奥多摩町氷川199-ロ","lat":35.8088211,"lon":139.0973034},{"name":"＊?奥多摩町立氷川図書館","province":"東京都","city":"西多摩郡奥多摩町","address":"奥多摩町氷川199-ロ奥多摩町福祉会館内","lat":35.80878,"lon":139.097301},{"name":"＊?奥多摩町立古里図書館","province":"東京都","city":"西多摩郡奥多摩町","address":"奥多摩町小丹波82奥多摩文化会館内","lat":35.815303,"lon":139.149913},{"name":"倉沢のヒノキ","province":"東京都","city":"西多摩郡奥多摩町","address":"東京都西多摩郡奥多摩町日原567","lat":35.841557,"lon":139.043247},{"name":"古里図書館","province":"東京都","city":"西多摩郡奥多摩町","address":"東京都西多摩郡奥多摩町小丹波82","lat":35.8153027,"lon":139.1499127},{"name":"氷川図書館","province":"東京都","city":"西多摩郡奥多摩町","address":"東京都西多摩郡奥多摩町氷川199-ロ","lat":35.8088211,"lon":139.0973034},{"name":"＊?奥多摩町立氷川図書館","province":"東京都","city":"西多摩郡奥多摩町","address":"奥多摩町氷川199-ロ奥多摩町福祉会館内","lat":35.80878,"lon":139.097301},{"name":"＊?奥多摩町立古里図書館","province":"東京都","city":"西多摩郡奥多摩町","address":"奥多摩町小丹波82奥多摩文化会館内","lat":35.815303,"lon":139.149913},{"name":"倉沢のヒノキ","province":"東京都","city":"西多摩郡奥多摩町","address":"東京都西多摩郡奥多摩町日原567","lat":35.841557,"lon":139.043247},{"name":"古里図書館","province":"東京都","city":"西多摩郡奥多摩町","address":"東京都西多摩郡奥多摩町小丹波82","lat":35.8153027,"lon":139.1499127},{"name":"氷川図書館","province":"東京都","city":"西多摩郡奥多摩町","address":"東京都西多摩郡奥多摩町氷川199-ロ","lat":35.8088211,"lon":139.0973034},{"name":"＊?奥多摩町立氷川図書館","province":"東京都","city":"西多摩郡奥多摩町","address":"奥多摩町氷川199-ロ奥多摩町福祉会館内","lat":35.80878,"lon":139.097301},{"name":"＊?奥多摩町立古里図書館","province":"東京都","city":"西多摩郡奥多摩町","address":"奥多摩町小丹波82奥多摩文化会館内","lat":35.815303,"lon":139.149913},{"name":"倉沢のヒノキ","province":"東京都","city":"西多摩郡奥多摩町","address":"東京都西多摩郡奥多摩町日原567","lat":35.841557,"lon":139.043247},{"name":"古里図書館","province":"東京都","city":"西多摩郡奥多摩町","address":"東京都西多摩郡奥多摩町小丹波82","lat":35.8153027,"lon":139.1499127},{"name":"氷川図書館","province":"東京都","city":"西多摩郡奥多摩町","address":"東京都西多摩郡奥多摩町氷川199-ロ","lat":35.8088211,"lon":139.0973034},{"name":"＊?奥多摩町立氷川図書館","province":"東京都","city":"西多摩郡奥多摩町","address":"奥多摩町氷川199-ロ奥多摩町福祉会館内","lat":35.80878,"lon":139.097301},{"name":"＊?奥多摩町立古里図書館","province":"東京都","city":"西多摩郡奥多摩町","address":"奥多摩町小丹波82奥多摩文化会館内","lat":35.815303,"lon":139.149913},{"name":"倉沢のヒノキ","province":"東京都","city":"西多摩郡奥多摩町","address":"東京都西多摩郡奥多摩町日原567","lat":35.841557,"lon":139.043247},{"name":"古里図書館","province":"東京都","city":"西多摩郡奥多摩町","address":"東京都西多摩郡奥多摩町小丹波82","lat":35.8153027,"lon":139.1499127},{"name":"氷川図書館","province":"東京都","city":"西多摩郡奥多摩町","address":"東京都西多摩郡奥多摩町氷川199-ロ","lat":35.8088211,"lon":139.0973034},{"name":"＊?奥多摩町立氷川図書館","province":"東京都","city":"西多摩郡奥多摩町","address":"奥多摩町氷川199-ロ奥多摩町福祉会館内","lat":35.80878,"lon":139.097301},{"name":"＊?奥多摩町立古里図書館","province":"東京都","city":"西多摩郡奥多摩町","address":"奥多摩町小丹波82奥多摩文化会館内","lat":35.815303,"lon":139.149913},{"name":"倉沢のヒノキ","province":"東京都","city":"西多摩郡奥多摩町","address":"東京都西多摩郡奥多摩町日原567","lat":35.841557,"lon":139.043247},{"name":"古里図書館","province":"東京都","city":"西多摩郡奥多摩町","address":"東京都西多摩郡奥多摩町小丹波82","lat":35.8153027,"lon":139.1499127},{"name":"氷川図書館","province":"東京都","city":"西多摩郡奥多摩町","address":"東京都西多摩郡奥多摩町氷川199-ロ","lat":35.8088211,"lon":139.0973034},{"name":"＊?奥多摩町立氷川図書館","province":"東京都","city":"西多摩郡奥多摩町","address":"奥多摩町氷川199-ロ奥多摩町福祉会館内","lat":35.80878,"lon":139.097301},{"name":"＊?奥多摩町立古里図書館","province":"東京都","city":"西多摩郡奥多摩町","address":"奥多摩町小丹波82奥多摩文化会館内","lat":35.815303,"lon":139.149913},{"name":"倉沢のヒノキ","province":"東京都","city":"西多摩郡奥多摩町","address":"東京都西多摩郡奥多摩町日原567","lat":35.841557,"lon":139.043247},{"name":"古里図書館","province":"東京都","city":"西多摩郡奥多摩町","address":"東京都西多摩郡奥多摩町小丹波82","lat":35.8153027,"lon":139.1499127},{"name":"氷川図書館","province":"東京都","city":"西多摩郡奥多摩町","address":"東京都西多摩郡奥多摩町氷川199-ロ","lat":35.8088211,"lon":139.0973034},{"name":"＊?奥多摩町立氷川図書館","province":"東京都","city":"西多摩郡奥多摩町","address":"奥多摩町氷川199-ロ奥多摩町福祉会館内","lat":35.80878,"lon":139.097301},{"name":"＊?奥多摩町立古里図書館","province":"東京都","city":"西多摩郡奥多摩町","address":"奥多摩町小丹波82奥多摩文化会館内","lat":35.815303,"lon":139.149913},{"name":"倉沢のヒノキ","province":"東京都","city":"西多摩郡奥多摩町","address":"東京都西多摩郡奥多摩町日原567","lat":35.841557,"lon":139.043247},{"name":"古里図書館","province":"東京都","city":"西多摩郡奥多摩町","address":"東京都西多摩郡奥多摩町小丹波82","lat":35.8153027,"lon":139.1499127},{"name":"氷川図書館","province":"東京都","city":"西多摩郡奥多摩町","address":"東京都西多摩郡奥多摩町氷川199-ロ","lat":35.8088211,"lon":139.0973034},{"name":"＊?奥多摩町立氷川図書館","province":"東京都","city":"西多摩郡奥多摩町","address":"奥多摩町氷川199-ロ奥多摩町福祉会館内","lat":35.80878,"lon":139.097301},{"name":"＊?奥多摩町立古里図書館","province":"東京都","city":"西多摩郡奥多摩町","address":"奥多摩町小丹波82奥多摩文化会館内","lat":35.815303,"lon":139.149913},{"name":"倉沢のヒノキ","province":"東京都","city":"西多摩郡奥多摩町","address":"東京都西多摩郡奥多摩町日原567","lat":35.841557,"lon":139.043247},{"name":"古里図書館","province":"東京都","city":"西多摩郡奥多摩町","address":"東京都西多摩郡奥多摩町小丹波82","lat":35.8153027,"lon":139.1499127},{"name":"氷川図書館","province":"東京都","city":"西多摩郡奥多摩町","address":"東京都西多摩郡奥多摩町氷川199-ロ","lat":35.8088211,"lon":139.0973034},{"name":"＊?奥多摩町立氷川図書館","province":"東京都","city":"西多摩郡奥多摩町","address":"奥多摩町氷川199-ロ奥多摩町福祉会館内","lat":35.80878,"lon":139.097301},{"name":"＊?奥多摩町立古里図書館","province":"東京都","city":"西多摩郡奥多摩町","address":"奥多摩町小丹波82奥多摩文化会館内","lat":35.815303,"lon":139.149913},{"name":"倉沢のヒノキ","province":"東京都","city":"西多摩郡奥多摩町","address":"東京都西多摩郡奥多摩町日原567","lat":35.841557,"lon":139.043247},{"name":"古里図書館","province":"東京都","city":"西多摩郡奥多摩町","address":"東京都西多摩郡奥多摩町小丹波82","lat":35.8153027,"lon":139.1499127},{"name":"氷川図書館","province":"東京都","city":"西多摩郡奥多摩町","address":"東京都西多摩郡奥多摩町氷川199-ロ","lat":35.8088211,"lon":139.0973034},{"name":"＊?奥多摩町立氷川図書館","province":"東京都","city":"西多摩郡奥多摩町","address":"奥多摩町氷川199-ロ奥多摩町福祉会館内","lat":35.80878,"lon":139.097301},{"name":"＊?奥多摩町立古里図書館","province":"東京都","city":"西多摩郡奥多摩町","address":"奥多摩町小丹波82奥多摩文化会館内","lat":35.815303,"lon":139.149913},{"name":"倉沢のヒノキ","province":"東京都","city":"西多摩郡奥多摩町","address":"東京都西多摩郡奥多摩町日原567","lat":35.841557,"lon":139.043247},{"name":"古里図書館","province":"東京都","city":"西多摩郡奥多摩町","address":"東京都西多摩郡奥多摩町小丹波82","lat":35.8153027,"lon":139.1499127},{"name":"氷川図書館","province":"東京都","city":"西多摩郡奥多摩町","address":"東京都西多摩郡奥多摩町氷川199-ロ","lat":35.8088211,"lon":139.0973034},{"name":"＊?奥多摩町立氷川図書館","province":"東京都","city":"西多摩郡奥多摩町","address":"奥多摩町氷川199-ロ奥多摩町福祉会館内","lat":35.80878,"lon":139.097301},{"name":"＊?奥多摩町立古里図書館","province":"東京都","city":"西多摩郡奥多摩町","address":"奥多摩町小丹波82奥多摩文化会館内","lat":35.815303,"lon":139.149913},{"name":"倉沢のヒノキ","province":"東京都","city":"西多摩郡奥多摩町","address":"東京都西多摩郡奥多摩町日原567","lat":35.841557,"lon":139.043247},{"name":"古里図書館","province":"東京都","city":"西多摩郡奥多摩町","address":"東京都西多摩郡奥多摩町小丹波82","lat":35.8153027,"lon":139.1499127},{"name":"氷川図書館","province":"東京都","city":"西多摩郡奥多摩町","address":"東京都西多摩郡奥多摩町氷川199-ロ","lat":35.8088211,"lon":139.0973034},{"name":"＊?奥多摩町立氷川図書館","province":"東京都","city":"西多摩郡奥多摩町","address":"奥多摩町氷川199-ロ奥多摩町福祉会館内","lat":35.80878,"lon":139.097301},{"name":"＊?奥多摩町立古里図書館","province":"東京都","city":"西多摩郡奥多摩町","address":"奥多摩町小丹波82奥多摩文化会館内","lat":35.815303,"lon":139.149913},{"name":"倉沢のヒノキ","province":"東京都","city":"西多摩郡奥多摩町","address":"東京都西多摩郡奥多摩町日原567","lat":35.841557,"lon":139.043247},{"name":"古里図書館","province":"東京都","city":"西多摩郡奥多摩町","address":"東京都西多摩郡奥多摩町小丹波82","lat":35.8153027,"lon":139.1499127},{"name":"氷川図書館","province":"東京都","city":"西多摩郡奥多摩町","address":"東京都西多摩郡奥多摩町氷川199-ロ","lat":35.8088211,"lon":139.0973034},{"name":"＊?奥多摩町立氷川図書館","province":"東京都","city":"西多摩郡奥多摩町","address":"奥多摩町氷川199-ロ奥多摩町福祉会館内","lat":35.80878,"lon":139.097301},{"name":"＊?奥多摩町立古里図書館","province":"東京都","city":"西多摩郡奥多摩町","address":"奥多摩町小丹波82奥多摩文化会館内","lat":35.815303,"lon":139.149913},{"name":"倉沢のヒノキ","province":"東京都","city":"西多摩郡奥多摩町","address":"東京都西多摩郡奥多摩町日原567","lat":35.841557,"lon":139.043247},{"name":"古里図書館","province":"東京都","city":"西多摩郡奥多摩町","address":"東京都西多摩郡奥多摩町小丹波82","lat":35.8153027,"lon":139.1499127},{"name":"氷川図書館","province":"東京都","city":"西多摩郡奥多摩町","address":"東京都西多摩郡奥多摩町氷川199-ロ","lat":35.8088211,"lon":139.0973034},{"name":"＊?奥多摩町立氷川図書館","province":"東京都","city":"西多摩郡奥多摩町","address":"奥多摩町氷川199-ロ奥多摩町福祉会館内","lat":35.80878,"lon":139.097301},{"name":"＊?奥多摩町立古里図書館","province":"東京都","city":"西多摩郡奥多摩町","address":"奥多摩町小丹波82奥多摩文化会館内","lat":35.815303,"lon":139.149913},{"name":"倉沢のヒノキ","province":"東京都","city":"西多摩郡奥多摩町","address":"東京都西多摩郡奥多摩町日原567","lat":35.841557,"lon":139.043247},{"name":"古里図書館","province":"東京都","city":"西多摩郡奥多摩町","address":"東京都西多摩郡奥多摩町小丹波82","lat":35.8153027,"lon":139.1499127},{"name":"氷川図書館","province":"東京都","city":"西多摩郡奥多摩町","address":"東京都西多摩郡奥多摩町氷川199-ロ","lat":35.8088211,"lon":139.0973034},{"name":"＊?奥多摩町立氷川図書館","province":"東京都","city":"西多摩郡奥多摩町","address":"奥多摩町氷川199-ロ奥多摩町福祉会館内","lat":35.80878,"lon":139.097301},{"name":"＊?奥多摩町立古里図書館","province":"東京都","city":"西多摩郡奥多摩町","address":"奥多摩町小丹波82奥多摩文化会館内","lat":35.815303,"lon":139.149913},{"name":"倉沢のヒノキ","province":"東京都","city":"西多摩郡奥多摩町","address":"東京都西多摩郡奥多摩町日原567","lat":35.841557,"lon":139.043247},{"name":"古里図書館","province":"東京都","city":"西多摩郡奥多摩町","address":"東京都西多摩郡奥多摩町小丹波82","lat":35.8153027,"lon":139.1499127},{"name":"氷川図書館","province":"東京都","city":"西多摩郡奥多摩町","address":"東京都西多摩郡奥多摩町氷川199-ロ","lat":35.8088211,"lon":139.0973034},{"name":"＊?奥多摩町立氷川図書館","province":"東京都","city":"西多摩郡奥多摩町","address":"奥多摩町氷川199-ロ奥多摩町福祉会館内","lat":35.80878,"lon":139.097301},{"name":"＊?奥多摩町立古里図書館","province":"東京都","city":"西多摩郡奥多摩町","address":"奥多摩町小丹波82奥多摩文化会館内","lat":35.815303,"lon":139.149913},{"name":"倉沢のヒノキ","province":"東京都","city":"西多摩郡奥多摩町","address":"東京都西多摩郡奥多摩町日原567","lat":35.841557,"lon":139.043247},{"name":"古里図書館","province":"東京都","city":"西多摩郡奥多摩町","address":"東京都西多摩郡奥多摩町小丹波82","lat":35.8153027,"lon":139.1499127},{"name":"氷川図書館","province":"東京都","city":"西多摩郡奥多摩町","address":"東京都西多摩郡奥多摩町氷川199-ロ","lat":35.8088211,"lon":139.0973034},{"name":"＊?奥多摩町立氷川図書館","province":"東京都","city":"西多摩郡奥多摩町","address":"奥多摩町氷川199-ロ奥多摩町福祉会館内","lat":35.80878,"lon":139.097301},{"name":"＊?奥多摩町立古里図書館","province":"東京都","city":"西多摩郡奥多摩町","address":"奥多摩町小丹波82奥多摩文化会館内","lat":35.815303,"lon":139.149913}]}