{"keyword":"協議","data":[{"name":"渋谷区社会福祉協議会","province":"東京都","city":"渋谷区","address":"渋谷区宇田川町1-1渋谷区役所内","lat":35.663475,"lon":139.697189},{"name":"豊島区民社会福祉協議会","province":"東京都","city":"豊島区","address":"豊島区東池袋1-39-2東池袋分庁舎3、4階","lat":35.732564,"lon":139.714344},{"name":"西東京市社会福祉協議会","province":"東京都","city":"西東京市","address":"西東京市田無町5-5-12田無総合福祉センター1階","lat":35.731819,"lon":139.535995},{"name":"東京都社会福祉協議会","province":"東京都","city":"新宿区","address":"新宿区神楽河岸1-1セントラルプラザ5階","lat":35.70101,"lon":139.7436},{"name":"豊島区民社会福祉協議会","province":"東京都","city":"豊島区","address":"豊島区東池袋1-39-2区役所東池袋分庁舎3、4階","lat":35.73244,"lon":139.71433},{"name":"北区社会福祉協議会","province":"東京都","city":"北区","address":"北区岸町1-6-17","lat":35.75477,"lon":139.735},{"name":"江戸川区社会福祉協議会","province":"東京都","city":"江戸川区","address":"江戸川区松島1-38-1グリーンパレス内","lat":35.70606,"lon":139.86636},{"name":"武蔵野市民社会福祉協議会","province":"東京都","city":"武蔵野市","address":"武蔵野市吉祥寺北町1-9-11階","lat":35.70857,"lon":139.57874},{"name":"東村山市社会福祉協議会","province":"東京都","city":"東村山市","address":"東村山市野口町1-25-15東村山市地域福祉センター","lat":35.75862,"lon":139.46401},{"name":"東大和市社会福祉協議会","province":"東京都","city":"東大和市","address":"東大和市中央3-912-3","lat":35.74624,"lon":139.42656},{"name":"あきる野市社会福祉協議会","province":"東京都","city":"あきる野市","address":"あきる野市平沢175-4秋川ふれあいセンター内","lat":35.73215,"lon":139.30248},{"name":"檜原村社会福祉協議会","province":"東京都","city":"西多摩郡檜原村","address":"西多摩郡檜原村2717やすらぎの里ふれあい館3階","lat":35.72683,"lon":139.16281},{"name":"奥多摩町社会福祉協議会","province":"東京都","city":"西多摩郡奥多摩町","address":"西多摩郡奥多摩町氷川199","lat":35.82361,"lon":139.09345},{"name":"利島村社会福祉協議会","province":"","city":"","address":"利島村105","lat":34.52999,"lon":139.27802},{"name":"御蔵島社会福祉協議会","province":"東京都","city":"御蔵島村","address":"御蔵島村字かんぶり御蔵島村福祉保健センター2階","lat":33.86452,"lon":139.58795},{"name":"青ヶ島村社会福祉協議会","province":"東京都","city":"青ヶ島村","address":"青ヶ島村無番地役場内","lat":32.46708,"lon":139.76553}]}