{"keyword":"認証","data":[{"name":"ムーミン保育室","province":"東京都","city":"墨田区","address":"墨田区太平三丁目19番1号","lat":35.7024639,"lon":139.813185},{"name":"ピノキオ幼児舎鐘ヶ淵園","province":"東京都","city":"墨田区","address":"墨田区堤通二丁目8番2号","lat":35.735087,"lon":139.817538},{"name":"こすもす保育園","province":"東京都","city":"墨田区","address":"墨田区錦糸一丁目14番7号","lat":35.699278,"lon":139.81151},{"name":"ポピンズナーサリースクールすみだ","province":"東京都","city":"墨田区","address":"墨田区太平四丁目1番1号","lat":35.7003974,"lon":139.8161542},{"name":"ゆらりん曳舟保育園","province":"東京都","city":"墨田区","address":"墨田区京島一丁目38番1-107号","lat":35.718049,"lon":139.81832},{"name":"マミーズエンジェル墨田みなみ保育園","province":"東京都","city":"墨田区","address":"墨田区亀沢四丁目24番13号","lat":35.6983866,"lon":139.8058635},{"name":"保育園夢未来錦糸町園","province":"東京都","city":"墨田区","address":"墨田区太平三丁目3番12号","lat":35.699717,"lon":139.814096},{"name":"エデュケアセンター・めぐろ","province":"東京都","city":"目黒区","address":"東京都目黒区東山3-10-7","lat":35.64886444,"lon":139.688951},{"name":"モンテッソーリ学芸大学子どもの家","province":"東京都","city":"目黒区","address":"東京都目黒区鷹番2-2-10","lat":35.62982345,"lon":139.6889288},{"name":"ゆらりん自由が丘保育園","province":"東京都","city":"目黒区","address":"東京都目黒区自由が丘1-25-20","lat":35.60979271,"lon":139.6693197},{"name":"東大駒場地区保育所","province":"東京都","city":"目黒区","address":"東京都目黒区駒場3-8-1","lat":35.660009,"lon":139.684969},{"name":"アンジェリカ保育園中目黒園","province":"東京都","city":"目黒区","address":"東京都目黒区上目黒2-44-23","lat":35.64197046,"lon":139.6967388},{"name":"たけのこ保育園","province":"東京都","city":"目黒区","address":"東京都目黒区自由が丘1-3-17","lat":35.60877102,"lon":139.6705908},{"name":"共同保育所コロちゃんの家","province":"東京都","city":"目黒区","address":"東京都目黒区目黒本町3-12-15","lat":35.62358626,"lon":139.7010697},{"name":"ニコニコ保育園","province":"東京都","city":"目黒区","address":"東京都目黒区中町1-39-7","lat":35.62970886,"lon":139.6946919},{"name":"マグハウス都立大学","province":"東京都","city":"目黒区","address":"東京都目黒区中根2-11-4","lat":35.61521468,"lon":139.6771135},{"name":"ムーミン保育室","province":"新潟県","city":"新潟市東区","address":"新潟県新潟市東区太平3丁目19-1","lat":37.94468894,"lon":139.1113799},{"name":"ひまわり保育園","province":"東京都","city":"墨田区","address":"東京都墨田区押上2丁目32-10","lat":35.7156524,"lon":139.81605305},{"name":"アスク両国保育園","province":"東京都","city":"墨田区","address":"東京都墨田区亀沢2丁目14-9","lat":35.69765017,"lon":139.8012701},{"name":"ポピンズナーサリースクールすみだ","province":"東京都","city":"墨田区","address":"東京都墨田区太平4丁目1-1","lat":35.70039682,"lon":139.81615422},{"name":"マミーズエンジェル墨田みなみ保育園","province":"東京都","city":"墨田区","address":"東京都墨田区亀沢4丁目24-13","lat":35.69838615,"lon":139.80586383},{"name":"保育園夢未来錦糸町園","province":"東京都","city":"墨田区","address":"東京都墨田区太平3丁目3-12","lat":35.69971642,"lon":139.8140961}]}