{"keyword":"店舗","data":[{"name":"ローソン赤坂インターシティAIR店","province":"東京都","city":"港区","address":"東京都港区赤坂一丁目8番1号","lat":35.67005,"lon":139.742701,"業態":"店舗販売業","施設方書":"B1","許可番号":"31港み生薬第30号","許可開始日":"2019/9/4","施設電話番号":"03-3583-3939"},{"name":"トモズ アークヒルズ店","province":"東京都","city":"港区","address":"東京都港区赤坂一丁目12番32号","lat":35.667137,"lon":139.740015,"業態":"店舗販売業","施設方書":"2階","許可番号":"5港み生薬第10号","許可開始日":"2023/7/7","施設電話番号":"03-6277-6381"},{"name":"薬マツモトキヨシ 溜池山王メトロピア店","province":"東京都","city":"港区","address":"東京都港区赤坂二丁目3番7号先","lat":35.67144,"lon":139.742096,"業態":"店舗販売業","施設方書":"銀座線溜池山王駅構内","許可番号":"29港み生薬第87号","許可開始日":"2018/4/25","施設電話番号":"03-3582-7800"},{"name":"ココカラファイン 赤坂二丁目店","province":"東京都","city":"港区","address":"東京都港区赤坂二丁目19番2号","lat":35.668769,"lon":139.740195,"業態":"店舗販売業","施設方書":"加藤ビル1階","許可番号":"30港み生薬第100号","許可開始日":"2019/4/1","施設電話番号":"03-3560-3871"},{"name":"ビックドラッグ 赤坂見附駅店","province":"東京都","city":"港区","address":"東京都港区赤坂三丁目1番6号","lat":35.677101,"lon":139.736775,"業態":"店舗販売業","施設方書":"ビックカメラ赤坂見附駅店 地下1階","許可番号":"31港み生薬第2号","許可開始日":"2019/5/16","施設電話番号":"03-6230-1111"},{"name":"薬マツモトキヨシ 赤坂見附店","province":"東京都","city":"港区","address":"東京都港区赤坂三丁目9番5号","lat":35.676943,"lon":139.736405,"業態":"店舗販売業","施設方書":"","許可番号":"31港み生薬第21号","許可開始日":"2019/7/25","施設電話番号":"03-5545-3768"},{"name":"スギドラッグ 赤坂見附店","province":"東京都","city":"港区","address":"東京都港区赤坂三丁目9番7号","lat":35.676733,"lon":139.736616,"業態":"店舗販売業","施設方書":"","許可番号":"31港み生薬第8号","許可開始日":"2019/5/9","施設電話番号":"03-5797-8622"},{"name":"ココカラファイン 赤坂店","province":"東京都","city":"港区","address":"東京都港区赤坂三丁目13番14号","lat":35.673506,"lon":139.737161,"業態":"店舗販売業","施設方書":"赤坂313ビル1階","許可番号":"30港み生薬第101号","許可開始日":"2019/4/1","施設電話番号":"03-3224-6450"},{"name":"トモズ 赤坂店","province":"東京都","city":"港区","address":"東京都港区赤坂四丁目2番8号","lat":35.675296,"lon":139.735869,"業態":"店舗販売業","施設方書":"1階","許可番号":"3港み生薬第22号","許可開始日":"2021/6/22","施設電話番号":"03-3586-7480"},{"name":"薬マツモトキヨシ 赤坂Bizタワー店","province":"東京都","city":"港区","address":"東京都港区赤坂五丁目3番1号","lat":35.673175,"lon":139.736359,"業態":"店舗販売業","施設方書":"赤坂BizタワーB10-2","許可番号":"3港み生薬第41号","許可開始日":"2021/10/14","施設電話番号":"03-5574-6172"},{"name":"明伸堂","province":"東京都","city":"港区","address":"東京都港区赤坂六丁目4番20号","lat":35.670619,"lon":139.734816,"業態":"店舗販売業","施設方書":"赤坂ヴィラージュ602","許可番号":"3港み生薬第63号","許可開始日":"2021/12/28","施設電話番号":"03-3586-3289"},{"name":"薬店 フューチャーラボ","province":"東京都","city":"港区","address":"東京都港区赤坂八丁目5番32号","lat":35.671947,"lon":139.726372,"業態":"店舗販売業","施設方書":"田中駒ビル4階","許可番号":"5港み生薬第58号","許可開始日":"2024/2/6","施設電話番号":"03-6406-8933"},{"name":"SALUS","province":"東京都","city":"港区","address":"東京都港区赤坂九丁目1番7号","lat":35.668055,"lon":139.732763,"業態":"店舗販売業","施設方書":"赤坂レジデンシャルホテル103号室","許可番号":"3港み生薬第70号","許可開始日":"2022/4/19","施設電話番号":"03-6459-2737"},{"name":"ナチュラルローソン 乃木坂店","province":"東京都","city":"港区","address":"東京都港区赤坂九丁目6番29号","lat":35.666619,"lon":139.728221,"業態":"店舗販売業","施設方書":"パシフィック乃木坂1階","許可番号":"4港み生薬第65号","許可開始日":"2023/3/8","施設電話番号":"03-5785-1509"},{"name":"ファミリーマート 東京ミッドタウン店","province":"東京都","city":"港区","address":"東京都港区赤坂九丁目7番1号","lat":35.666126,"lon":139.731247,"業態":"店舗販売業","施設方書":"33階","許可番号":"31港み生薬第60号","許可開始日":"2020/4/1","施設電話番号":"03-5775-7568"},{"name":"トモズ 東京ミッドタウン店","province":"東京都","city":"港区","address":"東京都港区赤坂九丁目7番2号","lat":35.665261,"lon":139.731308,"業態":"店舗販売業","施設方書":"B-B104,105","許可番号":"2港み生薬第27号","許可開始日":"2020/9/22","施設電話番号":"03-5413-3118"},{"name":"麻布漢方 Herbal Room","province":"東京都","city":"港区","address":"東京都港区麻布十番一丁目5番2号","lat":35.657581,"lon":139.732691,"業態":"店舗販売業","施設方書":"フローラ麻布3階","許可番号":"4港み生薬第71号","許可開始日":"2023/3/17","施設電話番号":"03-6435-5866"},{"name":"ソレイユ漢方薬店","province":"東京都","city":"港区","address":"東京都港区麻布十番一丁目8番11号","lat":35.656016,"lon":139.735405,"業態":"店舗販売業","施設方書":"TAKADEN麻布十番6階","許可番号":"31港み生薬第51号","許可開始日":"2019/12/13","施設電話番号":"03-5797-7155"},{"name":"くすりの福太郎 麻布十番店","province":"東京都","city":"港区","address":"東京都港区麻布十番二丁目3番9号","lat":35.655421,"lon":139.735086,"業態":"店舗販売業","施設方書":"桂亭ビル1階","許可番号":"4港み生薬第59号","許可開始日":"2023/3/1","施設電話番号":"03-5765-5629"},{"name":"薬マツモトキヨシ 麻布十番店","province":"東京都","city":"港区","address":"東京都港区麻布十番二丁目8番10号","lat":35.655416,"lon":139.734447,"業態":"店舗販売業","施設方書":"","許可番号":"3港み生薬第40号","許可開始日":"2021/10/23","施設電話番号":"03-5443-2278"},{"name":"ウエルシア麻布十番店","province":"東京都","city":"港区","address":"東京都港区麻布十番二丁目9番2号","lat":35.655056,"lon":139.734454,"業態":"店舗販売業","施設方書":"2階","許可番号":"4港み生薬第45号","許可開始日":"2022/11/28","施設電話番号":"03-5439-5237"},{"name":"ドラッグセイムス麻布十番駅前店","province":"東京都","city":"港区","address":"東京都港区麻布十番二丁目20番16号","lat":35.655197,"lon":139.736762,"業態":"店舗販売業","施設方書":"麻布十番ハイツ1階","許可番号":"31港み生薬第75号","許可開始日":"2020/3/1","施設電話番号":"03-3456-5739"},{"name":"トモズ 麻布十番店","province":"東京都","city":"港区","address":"東京都港区麻布十番三丁目7番11号","lat":35.653587,"lon":139.734806,"業態":"店舗販売業","施設方書":"シャトーデスポワール麻布101号","許可番号":"3港み生薬第16号","許可開始日":"2021/6/22","施設電話番号":"03-5440-3250"},{"name":"くすり城南","province":"東京都","city":"港区","address":"東京都港区麻布十番三丁目14番3号","lat":35.652833,"lon":139.736255,"業態":"店舗販売業","施設方書":"","許可番号":"3港み生薬第62号","許可開始日":"2021/12/7","施設電話番号":"03-3451-8400"},{"name":"ローソン麻布台一丁目店","province":"東京都","city":"港区","address":"東京都港区麻布台一丁目7番8号","lat":35.661116,"lon":139.74222,"業態":"店舗販売業","施設方書":"霊友会第一ビル1階","許可番号":"31港み生薬第78号","許可開始日":"2020/3/25","施設電話番号":"03-3585-3963"},{"name":"ファミリーマート 愛宕グリーンヒルズ店","province":"東京都","city":"港区","address":"東京都港区愛宕二丁目5番1号","lat":35.662142,"lon":139.748881,"業態":"店舗販売業","施設方書":"愛宕グリーンヒルズMORIタワー2F","許可番号":"31港み生薬第27号","許可開始日":"2019/8/26","施設電話番号":"03-6402-1072"},{"name":"ファミリーマート南山堂竹芝駅前店","province":"東京都","city":"港区","address":"東京都港区海岸一丁目13番3号","lat":35.654688,"lon":139.762094,"業態":"店舗販売業","施設方書":"","許可番号":"31港み生薬第28号","許可開始日":"2019/8/26","施設電話番号":"03-6402-3027"},{"name":"クラシエ薬品株式会社","province":"東京都","city":"港区","address":"東京都港区海岸三丁目20番20号","lat":35.640025,"lon":139.756503,"業態":"店舗販売業","施設方書":"ヨコソーレインボータワー6階","許可番号":"30港み生薬第4号","許可開始日":"2018/5/22","施設電話番号":"03-5446-3300"},{"name":"どらっぐぱぱす 北青山店","province":"東京都","city":"港区","address":"東京都港区北青山二丁目12番31号","lat":35.670168,"lon":139.714953,"業態":"店舗販売業","施設方書":"イノセビル1階","許可番号":"3港み生薬第47号","許可開始日":"2021/12/4","施設電話番号":"03-3405-4493"},{"name":"薬マツモトキヨシ 青山店","province":"東京都","city":"港区","address":"東京都港区北青山三丁目12番7号","lat":35.663371,"lon":139.710305,"業態":"店舗販売業","施設方書":"カプリース青山ビル1階","許可番号":"30港み生薬第5号","許可開始日":"2018/5/9","施設電話番号":"03-6418-5195"},{"name":"アクシスアン 青山店","province":"東京都","city":"港区","address":"東京都港区北青山三丁目15番13号","lat":35.664208,"lon":139.709056,"業態":"店舗販売業","施設方書":"秀和北青山レジデンス502","許可番号":"4港み生薬第72号","許可開始日":"2023/4/27","施設電話番号":"03-5778-9880"},{"name":"どらっぐぱぱす 品川フロントビル店","province":"東京都","city":"港区","address":"東京都港区港南二丁目3番13号","lat":35.629068,"lon":139.744207,"業態":"店舗販売業","施設方書":"品川フロントビル1階","許可番号":"2港み生薬第54号","許可開始日":"2021/2/15","施設電話番号":"03-6433-9400"},{"name":"くすりの一生堂","province":"東京都","city":"港区","address":"東京都港区港南二丁目7番19号","lat":35.62782,"lon":139.743924,"業態":"店舗販売業","施設方書":"東京都中央卸売市場食肉市場内","許可番号":"5港み生薬第73号","許可開始日":"2024/4/2","施設電話番号":"03-5460-7868"},{"name":"トモズ 品川インターシティ店","province":"東京都","city":"港区","address":"東京都港区港南二丁目15番2号","lat":35.627117,"lon":139.741899,"業態":"店舗販売業","施設方書":"品川インターシティ2階","許可番号":"3港み生薬第18号","許可開始日":"2021/6/12","施設電話番号":"03-5782-8889"},{"name":"ローソン 品川インターシティ店","province":"東京都","city":"港区","address":"東京都港区港南二丁目15番2号","lat":35.626576,"lon":139.741363,"業態":"店舗販売業","施設方書":"品川インターシティS&R棟205","許可番号":"31港み生薬第50号","許可開始日":"2019/12/25","施設電話番号":"03-5461-1970"},{"name":"AP FOOD&TIME ISETAN アトレ品川店","province":"東京都","city":"港区","address":"東京都港区港南二丁目18番1号","lat":35.629001,"lon":139.740833,"業態":"店舗販売業","施設方書":"3階","許可番号":"5港み生薬第30号","許可開始日":"2023/10/19","施設電話番号":"03-6433-9771"},{"name":"ビーイードラッグ","province":"東京都","city":"港区","address":"東京都港区芝一丁目11番16号","lat":35.650879,"lon":139.754023,"業態":"店舗販売業","施設方書":"ニチリンビル4F","許可番号":"3港み生薬第35号","許可開始日":"2021/10/4","施設電話番号":"03-6453-8988"},{"name":"ファミリーマート南山堂第一京浜芝店","province":"東京都","city":"港区","address":"東京都港区芝二丁目14番5号","lat":35.650807,"lon":139.753526,"業態":"店舗販売業","施設方書":"大広ビル1F","許可番号":"3港み生薬第28号","許可開始日":"2021/7/12","施設電話番号":"03-5765-6061"},{"name":"本物漢方堂","province":"東京都","city":"港区","address":"東京都港区芝四丁目5番10号","lat":35.648743,"lon":139.750956,"業態":"店舗販売業","施設方書":"ユニゾ芝四丁目ビル8階","許可番号":"2港み生薬第64号","許可開始日":"2021/4/14","施設電話番号":"03-3457-1271"},{"name":"古岡ドラッグ","province":"東京都","city":"港区","address":"東京都港区芝四丁目6番4号","lat":35.649452,"lon":139.751343,"業態":"店舗販売業","施設方書":"ヒロソフィー三田ビル1階","許可番号":"3港み生薬第11号","許可開始日":"2021/7/12","施設電話番号":""},{"name":"ココカラファイン 三田店","province":"東京都","city":"港区","address":"東京都港区芝五丁目25番11号","lat":35.647551,"lon":139.744845,"業態":"店舗販売業","施設方書":"ヒューリック三田ビル1階","許可番号":"30港み生薬第102号","許可開始日":"2019/4/1","施設電話番号":"03-5439-6754"},{"name":"ドラッグセイムス田町西口店","province":"東京都","city":"港区","address":"東京都港区芝五丁目32番12号","lat":35.647171,"lon":139.747269,"業態":"店舗販売業","施設方書":"シャーメゾンステージ田町1階、2階","許可番号":"2港み生薬第50号","許可開始日":"2021/1/13","施設電話番号":"03-6435-4070"},{"name":"ココカラファイン芝浦店","province":"東京都","city":"港区","address":"東京都港区芝浦一丁目2番2号","lat":35.649914,"lon":139.756485,"業態":"店舗販売業","施設方書":"シーバンス・ア・モール1階","許可番号":"31港み生薬第15号","許可開始日":"2019/6/1","施設電話番号":"03-5440-6324"},{"name":"ローソン 芝浦シーバンス・ア・モール店","province":"東京都","city":"港区","address":"東京都港区芝浦一丁目2番2号","lat":35.649914,"lon":139.756485,"業態":"店舗販売業","施設方書":"1階103号","許可番号":"2港み生薬第15号","許可開始日":"2020/8/12","施設電話番号":"03-5440-6323"},{"name":"薬マツモトキヨシ ムスブ田町店","province":"東京都","city":"港区","address":"東京都港区芝浦三丁目1番21号","lat":35.645424,"lon":139.749466,"業態":"店舗販売業","施設方書":"msb tamachi 田町ステーションタワーS 2階","許可番号":"30港み生薬第71号","許可開始日":"2018/11/1","施設電話番号":"03-5439-4177"},{"name":"ドラッグセイムス芝浦3丁目店","province":"東京都","city":"港区","address":"東京都港区芝浦三丁目2番22号","lat":35.644302,"lon":139.749614,"業態":"店舗販売業","施設方書":"","許可番号":"31港み生薬第74号","許可開始日":"2020/3/1","施設電話番号":"03-6459-4886"},{"name":"ウエルシア田町グランパーク店","province":"東京都","city":"港区","address":"東京都港区芝浦三丁目4番1号","lat":35.643577,"lon":139.745802,"業態":"店舗販売業","施設方書":"グランパークB1F","許可番号":"4港み生薬第13号","許可開始日":"2022/6/13","施設電話番号":"03-6271-9562"},{"name":"ドラッグセイムス田町東口店","province":"東京都","city":"港区","address":"東京都港区芝浦三丁目13番2号","lat":35.643161,"lon":139.749197,"業態":"店舗販売業","施設方書":"Yビル1階","許可番号":"31港み生薬第71号","許可開始日":"2020/3/1","施設電話番号":"03-3798-8021"},{"name":"ドラッグセイムス芝浦海岸通店","province":"東京都","city":"港区","address":"東京都港区芝浦四丁目13番23号","lat":35.64024,"lon":139.748062,"業態":"店舗販売業","施設方書":"MS芝浦ビル1階","許可番号":"31港み生薬第73号","許可開始日":"2020/3/1","施設電話番号":"03-6459-4117"},{"name":"ナチュラルローソン芝浦アイランドケープ店","province":"東京都","city":"港区","address":"東京都港区芝浦四丁目19番1号","lat":35.63754,"lon":139.750358,"業態":"店舗販売業","施設方書":"芝浦アイランドケープタワー1階","許可番号":"4港み生薬第12号","許可開始日":"2022/5/25","施設電話番号":"03-3455-6272"},{"name":"富士化学工業株式会社 東京薬店","province":"東京都","city":"港区","address":"東京都港区芝公園一丁目8番21号","lat":35.6577,"lon":139.751053,"業態":"店舗販売業","施設方書":"芝公園リッジビル2階","許可番号":"4港み生薬第22号","許可開始日":"2022/7/1","施設電話番号":"03-6809-1252"},{"name":"ナチュラルローソン京王プレッソイン浜松町店","province":"東京都","city":"港区","address":"東京都港区芝大門一丁目1番26号","lat":35.65921,"lon":139.752838,"業態":"店舗販売業","施設方書":"京王プレッソイン浜松町1階","許可番号":"2港み生薬第23号","許可開始日":"2020/8/11","施設電話番号":"03-3432-7110"},{"name":"スギドラッグ 芝大門店","province":"東京都","city":"港区","address":"東京都港区芝大門二丁目2番1号","lat":35.656628,"lon":139.753387,"業態":"店舗販売業","施設方書":"ACN芝大門ビルディング1F","許可番号":"3港み生薬第31号","許可開始日":"2021/7/29","施設電話番号":"03-6435-7676"},{"name":"ローソン 芝大門二丁目店","province":"東京都","city":"港区","address":"東京都港区芝大門二丁目9番16号","lat":35.6544,"lon":139.752856,"業態":"店舗販売業","施設方書":"","許可番号":"4港み生薬第58号","許可開始日":"2023/2/9","施設電話番号":"03-3432-9550"},{"name":"ローソン 港白金店","province":"東京都","city":"港区","address":"東京都港区白金一丁目1番12号","lat":35.64696,"lon":139.731836,"業態":"店舗販売業","施設方書":"","許可番号":"30港み生薬第41号","許可開始日":"2018/8/15","施設電話番号":"03-6450-3280"},{"name":"トモズ 白金プラザ店","province":"東京都","city":"港区","address":"東京都港区白金一丁目17番2号","lat":35.644257,"lon":139.734027,"業態":"店舗販売業","施設方書":"白金プラザB-101","許可番号":"3港み生薬第17号","許可開始日":"2021/6/3","施設電話番号":"03-5793-4561"},{"name":"ナチュラルローソン 高輪台駅前店","province":"東京都","city":"港区","address":"東京都港区白金台二丁目26番10号","lat":35.631766,"lon":139.729948,"業態":"店舗販売業","施設方書":"グリーンオーク高輪台1階","許可番号":"30港み生薬第51号","許可開始日":"2018/10/1","施設電話番号":"03-5421-7963"},{"name":"ツルハドラッグ 白金台店","province":"東京都","city":"港区","address":"東京都港区白金台三丁目15番6号","lat":35.63666,"lon":139.724079,"業態":"店舗販売業","施設方書":"マスレンビル1階","許可番号":"3港み生薬第1号","許可開始日":"2021/5/16","施設電話番号":"03-5475-1321"},{"name":"ココカラファイン 白金台店","province":"東京都","city":"港区","address":"東京都港区白金台四丁目3番19号","lat":35.639029,"lon":139.727802,"業態":"店舗販売業","施設方書":"","許可番号":"31港み生薬第68号","許可開始日":"2020/3/1","施設電話番号":"03-5791-9285"},{"name":"ミテミィドラッグ","province":"東京都","city":"港区","address":"東京都港区新橋一丁目4番5号","lat":35.667902,"lon":139.759065,"業態":"店舗販売業","施設方書":"ヒューリックG10ビル6階","許可番号":"3港み生薬第78号","許可開始日":"2022/3/9","施設電話番号":"03-6263-8636"},{"name":"GINZA151ドラックストア","province":"東京都","city":"港区","address":"東京都港区新橋一丁目5番1号","lat":35.667405,"lon":139.760676,"業態":"店舗販売業","施設方書":"ステファニー銀座中央通ビルB1","許可番号":"30港み生薬第85号","許可開始日":"2018/12/26","施設電話番号":"03-6264-6910"},{"name":"スギドラッグ 新橋駅前店","province":"東京都","city":"港区","address":"東京都港区新橋一丁目12番9号","lat":35.667649,"lon":139.758848,"業態":"店舗販売業","施設方書":"新橋プレイス1階","許可番号":"30港み生薬第31号","許可開始日":"2018/7/2","施設電話番号":"03-6263-8992"},{"name":"ドラッグセイムス新橋日比谷口店","province":"東京都","city":"港区","address":"東京都港区新橋二丁目6番2号","lat":35.667648,"lon":139.756942,"業態":"店舗販売業","施設方書":"新橋アイマークビル1階","許可番号":"3港み生薬第8号","許可開始日":"2021/5/17","施設電話番号":"03-6811-2045"},{"name":"薬マツモトキヨシ 新橋駅前店","province":"東京都","city":"港区","address":"東京都港区新橋二丁目7番1号","lat":35.667412,"lon":139.75766,"業態":"店舗販売業","施設方書":"ファロシティビル1階","許可番号":"3港み生薬第54号","許可開始日":"2022/1/5","施設電話番号":"03-3597-8830"},{"name":"ミネドラッグ 新橋店","province":"東京都","city":"港区","address":"東京都港区新橋二丁目16番1号","lat":35.666423,"lon":139.757358,"業態":"店舗販売業","施設方書":"ニュー新橋ビル112号","許可番号":"4港み生薬第2号","許可開始日":"2022/5/12","施設電話番号":"03-3500-1340"},{"name":"スギドラッグ ニュー新橋ビル店","province":"東京都","city":"港区","address":"東京都港区新橋二丁目16番1号","lat":35.666423,"lon":139.757358,"業態":"店舗販売業","施設方書":"ニュー新橋ビル1階","許可番号":"31港み生薬第25号","許可開始日":"2019/8/16","施設電話番号":"03-6550-9310"},{"name":"あおぞらドラッグ 新橋店","province":"東京都","city":"港区","address":"東京都港区新橋二丁目16番1号","lat":35.666423,"lon":139.757358,"業態":"店舗販売業","施設方書":"ニュー新橋ビル3階320","許可番号":"3港み生薬第45号","許可開始日":"2021/9/9","施設電話番号":"03-3506-8882"},{"name":"トモズエキュートエディション新橋店","province":"東京都","city":"港区","address":"東京都港区新橋二丁目17番14号","lat":35.667109,"lon":139.758454,"業態":"店舗販売業","施設方書":"グランゲート新橋","許可番号":"2港み生薬第25号","許可開始日":"2020/9/9","施設電話番号":"03-5537-5030"},{"name":"ドラッグインキムラヤ新橋日比谷口店","province":"東京都","city":"港区","address":"東京都港区新橋二丁目17番35号","lat":35.667339,"lon":139.757867,"業態":"店舗販売業","施設方書":"","許可番号":"5港み生薬第7号","許可開始日":"2023/6/1","施設電話番号":"03-3569-0200"},{"name":"株式会社ジェイエイワン","province":"東京都","city":"港区","address":"東京都港区新橋二丁目20番15号","lat":35.666214,"lon":139.759538,"業態":"店舗販売業","施設方書":"新橋駅前ビル1号館313","許可番号":"2港み生薬第35号","許可開始日":"2020/12/22","施設電話番号":"03-6280-6322"},{"name":"博厚堂","province":"東京都","city":"港区","address":"東京都港区新橋四丁目7番4号","lat":35.664623,"lon":139.755402,"業態":"店舗販売業","施設方書":"STトミタ","許可番号":"5港み生薬第9号","許可開始日":"2023/6/16","施設電話番号":"03-3459-8341"},{"name":"あいたけ化粧品店","province":"東京都","city":"港区","address":"東京都港区新橋四丁目18番3号","lat":35.664461,"lon":139.757275,"業態":"店舗販売業","施設方書":"","許可番号":"31港み生薬第42号","許可開始日":"2019/12/25","施設電話番号":"03-3433-3761"},{"name":"ミヤモトドラッグ 御成門店","province":"東京都","city":"港区","address":"東京都港区新橋六丁目17番15号","lat":35.661225,"lon":139.751778,"業態":"店舗販売業","施設方書":"フロントプレイス御成門","許可番号":"2港み生薬第59号","許可開始日":"2021/5/1","施設電話番号":"03-6809-2271"},{"name":"薬マツモトキヨシ デックス東京ビーチ店","province":"東京都","city":"港区","address":"東京都港区台場一丁目6番1号","lat":35.62921,"lon":139.775911,"業態":"店舗販売業","施設方書":"","許可番号":"3港み生薬第34号","許可開始日":"2021/10/7","施設電話番号":"03-3599-1410"},{"name":"ミュゼ・ド・ポゥ アクアシティお台場店","province":"東京都","city":"港区","address":"東京都港区台場一丁目7番1号","lat":35.627948,"lon":139.773834,"業態":"店舗販売業","施設方書":"アクアシティお台場3階","許可番号":"5港み生薬第1号","許可開始日":"2023/5/22","施設電話番号":"03-3599-2530"},{"name":"Air BicCamera アクアシティお台場店","province":"東京都","city":"港区","address":"東京都港区台場一丁目7番1号","lat":35.627948,"lon":139.773834,"業態":"店舗販売業","施設方書":"アクアシティお台場3階","許可番号":"3港み生薬第65号","許可開始日":"2022/1/17","施設電話番号":"03-5564-7111"},{"name":"ローソン フジテレビ","province":"東京都","city":"港区","address":"東京都港区台場二丁目4番8号","lat":35.626804,"lon":139.774457,"業態":"店舗販売業","施設方書":"フジテレビ本社屋1階","許可番号":"31港み生薬第39号","許可開始日":"2019/11/1","施設電話番号":"03-5564-5270"},{"name":"トモズ 白金高輪店","province":"東京都","city":"港区","address":"東京都港区高輪一丁目3番1号","lat":35.643617,"lon":139.735347,"業態":"店舗販売業","施設方書":"プレミストタワー白金高輪1階","許可番号":"4港み生薬第67号","許可開始日":"2023/3/10","施設電話番号":"03-6432-5037"},{"name":"ドラッグストアマツモトキヨシ 白金高輪店","province":"東京都","city":"港区","address":"東京都港区高輪一丁目3番13号","lat":35.643965,"lon":139.735909,"業態":"店舗販売業","施設方書":"NBF高輪ビル1階","許可番号":"4港み生薬第42号","許可開始日":"2022/12/28","施設電話番号":"03-5795-2515"},{"name":"ビュティ アンド ドラッグ マロニエ","province":"東京都","city":"港区","address":"東京都港区高輪一丁目27番19号","lat":35.636768,"lon":139.733224,"業態":"店舗販売業","施設方書":"","許可番号":"30港み生薬第10号","許可開始日":"2018/5/14","施設電話番号":"03-3441-9656"},{"name":"ツルハドラッグ 高輪台店","province":"東京都","city":"港区","address":"東京都港区高輪三丁目10番1号","lat":35.631939,"lon":139.731234,"業態":"店舗販売業","施設方書":"藤ビル1階","許可番号":"3港み生薬第2号","許可開始日":"2021/5/16","施設電話番号":"03-5739-1626"},{"name":"白金癒淹","province":"東京都","city":"港区","address":"東京都港区高輪三丁目11番1号","lat":35.631077,"lon":139.730053,"業態":"店舗販売業","施設方書":"505号","許可番号":"3港み生薬第57号","許可開始日":"2021/11/12","施設電話番号":""},{"name":"NEWDAYS+くすり ecute品川店","province":"東京都","city":"港区","address":"東京都港区高輪三丁目26番27号","lat":35.628773,"lon":139.738443,"業態":"店舗販売業","施設方書":"JR品川駅構内","許可番号":"4港み生薬第37号","許可開始日":"2022/12/24","施設電話番号":"03-5421-8004"},{"name":"薬の志村","province":"東京都","city":"港区","address":"東京都港区高輪四丁目5番10号","lat":35.627064,"lon":139.73317,"業態":"店舗販売業","施設方書":"ランパール高輪2F","許可番号":"5港み生薬第21号","許可開始日":"2023/11/28","施設電話番号":""},{"name":"薬マツモトキヨシウイング高輪店","province":"東京都","city":"港区","address":"東京都港区高輪四丁目10番18号","lat":35.628889,"lon":139.736667,"業態":"店舗販売業","施設方書":"ウイング高輪WEST2階","許可番号":"30港み生薬第45号","許可開始日":"2018/10/1","施設電話番号":"03-5488-6234"},{"name":"ミュゼ・ド・ポゥ品川プリンスホテル店","province":"東京都","city":"港区","address":"東京都港区高輪四丁目10番30号","lat":35.628317,"lon":139.73597,"業態":"店舗販売業","施設方書":"品川プリンスホテル アネックスタワー1階","許可番号":"30港み生薬第33号","許可開始日":"2018/7/11","施設電話番号":"03-5793-1456"},{"name":"スギドラッグ 虎ノ門ヒルズ駅前店","province":"東京都","city":"港区","address":"東京都港区虎ノ門一丁目21番17号","lat":35.667985,"lon":139.748478,"業態":"店舗販売業","施設方書":"虎ノ門NNビル1階","許可番号":"31港み生薬第23号","許可開始日":"2019/7/26","施設電話番号":"03-5860-9555"},{"name":"トモズ 虎ノ門ヒルズ森タワー店","province":"東京都","city":"港区","address":"東京都港区虎ノ門一丁目23番1号","lat":35.666953,"lon":139.749203,"業態":"店舗販売業","施設方書":"虎ノ門ヒルズ3階","許可番号":"31港み生薬第37号","許可開始日":"2019/10/31","施設電話番号":"03-5860-9545"},{"name":"トモズ虎ノ門ヒルズステーションタワー店","province":"東京都","city":"港区","address":"東京都港区虎ノ門二丁目6番3号","lat":35.666953,"lon":139.749203,"業態":"店舗販売業","施設方書":"虎ノ門ヒルズステーションタワー地下1F","許可番号":"5港み生薬第19号","許可開始日":"2023/8/1","施設電話番号":"03-6457-9629"},{"name":"改造社書店","province":"東京都","city":"港区","address":"東京都港区虎ノ門二丁目10番4号","lat":35.666911,"lon":139.743999,"業態":"店舗販売業","施設方書":"THE OKURA PRESTIGE TOWER4階","許可番号":"31港み生薬第31号","許可開始日":"2019/9/4","施設電話番号":"03-5561-3711"},{"name":"どらっぐぱぱす 神谷町店","province":"東京都","city":"港区","address":"東京都港区虎ノ門三丁目17番1号","lat":35.664043,"lon":139.746454,"業態":"店舗販売業","施設方書":"TOKYU REIT虎ノ門ビル1階","許可番号":"5港み生薬第20号","許可開始日":"2023/8/15","施設電話番号":"03-6435-6923"},{"name":"ナチュラルローソン 城山トラストタワー店","province":"東京都","city":"港区","address":"東京都港区虎ノ門四丁目3番1号","lat":35.66464,"lon":139.743089,"業態":"店舗販売業","施設方書":"城山トラストタワー1階","許可番号":"30港み生薬第54号","許可開始日":"2018/10/1","施設電話番号":"03-3436-1590"},{"name":"トモズ 神谷町店","province":"東京都","city":"港区","address":"東京都港区虎ノ門五丁目1番5号","lat":35.663595,"lon":139.745402,"業態":"店舗販売業","施設方書":"メトロシティ神谷町地下1階","許可番号":"3港み生薬第21号","許可開始日":"2021/6/30","施設電話番号":"03-5425-2977"},{"name":"DUCA 神谷町店","province":"東京都","city":"港区","address":"東京都港区虎ノ門五丁目11番13号","lat":35.662236,"lon":139.744676,"業態":"店舗販売業","施設方書":"RICHビル1階","許可番号":"29港み生薬第91号","許可開始日":"2018/6/1","施設電話番号":"03-5402-1019"},{"name":"おび薬品","province":"東京都","city":"港区","address":"東京都港区西麻布三丁目3番3号","lat":35.658054,"lon":139.727233,"業態":"店舗販売業","施設方書":"第6谷沢ビル 4階","許可番号":"30港み生薬第106号","許可開始日":"2019/4/17","施設電話番号":"03-5411-0702"},{"name":"TOKYO LIFESTYLE(東京生活館) 新橋店","province":"東京都","city":"港区","address":"東京都港区西新橋三丁目8番3号","lat":35.664408,"lon":139.752677,"業態":"店舗販売業","施設方書":"","許可番号":"31港み生薬第18号","許可開始日":"2019/6/20","施設電話番号":"03-6452-8848"},{"name":"トモズ 浜松町店","province":"東京都","city":"港区","address":"東京都港区浜松町一丁目29番6号","lat":35.656912,"lon":139.756024,"業態":"店舗販売業","施設方書":"浜松町セントラルビル1階","許可番号":"3港み生薬第19号","許可開始日":"2021/6/22","施設電話番号":"03-5402-8683"},{"name":"ミネドラッグ浜松町クレアタワー店","province":"東京都","city":"港区","address":"東京都港区浜松町二丁目3番1号","lat":35.656067,"lon":139.755541,"業態":"店舗販売業","施設方書":"403","許可番号":"2港み生薬第34号","許可開始日":"2020/12/15","施設電話番号":"03-5843-8311"},{"name":"どらっぐぱぱす 赤羽橋駅前店","province":"東京都","city":"港区","address":"東京都港区東麻布一丁目28番12号","lat":35.655181,"lon":139.743725,"業態":"店舗販売業","施設方書":"VORT麻布maxim1階","許可番号":"3港み生薬第24号","許可開始日":"2021/7/8","施設電話番号":"03-6441-0886"},{"name":"くすりの福太郎 東麻布店","province":"東京都","city":"港区","address":"東京都港区東麻布三丁目10番5号","lat":35.65587,"lon":139.738853,"業態":"店舗販売業","施設方書":"オークウッドホテル&アパートメンツ麻布1階","許可番号":"3港み生薬第56号","許可開始日":"2021/11/10","施設電話番号":"03-5545-5436"},{"name":"トモズ 汐留シティセンター店","province":"東京都","city":"港区","address":"東京都港区東新橋一丁目5番2号","lat":35.665497,"lon":139.760881,"業態":"店舗販売業","施設方書":"汐留シティセンター地下2階","許可番号":"5港み生薬第11号","許可開始日":"2023/7/16","施設電話番号":"03-6215-9933"},{"name":"意一堂日本株式会社","province":"東京都","city":"港区","address":"東京都港区三田五丁目1番2号","lat":35.64833,"lon":139.737441,"業態":"店舗販売業","施設方書":"","許可番号":"5港み生薬第63号","許可開始日":"2024/2/28","施設電話番号":"03-6441-3750"},{"name":"ドラッグストア ベリー新青山","province":"東京都","city":"港区","address":"東京都港区南青山一丁目1番1号","lat":35.672567,"lon":139.724714,"業態":"店舗販売業","施設方書":"新青山ビル地下1階","許可番号":"30港み生薬第20号","許可開始日":"2018/5/25","施設電話番号":"03-5414-3444"},{"name":"薬のヒグチ 外苑前店","province":"東京都","city":"港区","address":"東京都港区南青山二丁目11番13号","lat":35.671437,"lon":139.720843,"業態":"店舗販売業","施設方書":"南青山サクセスビル1階","許可番号":"31港み生薬第10号","許可開始日":"2019/6/1","施設電話番号":"03-3497-5122"},{"name":"薬マツモトキヨシ 南青山店","province":"東京都","city":"港区","address":"東京都港区南青山二丁目27番27号","lat":35.669569,"lon":139.716811,"業態":"店舗販売業","施設方書":"丸八青山ビル1階","許可番号":"3港み生薬第58号","許可開始日":"2022/2/1","施設電話番号":"03-5413-4725"},{"name":"もりもの薬箱","province":"東京都","city":"港区","address":"東京都港区南青山三丁目8番5号","lat":35.66736,"lon":139.715661,"業態":"店舗販売業","施設方書":"ホーク南青山3階","許可番号":"31港み生薬第4号","許可開始日":"2019/5/21","施設電話番号":"050-5361-1113"},{"name":"南青山ステラハウス","province":"東京都","city":"港区","address":"東京都港区南青山五丁目6番24号","lat":35.663853,"lon":139.711861,"業態":"店舗販売業","施設方書":"南青山ステラハウス7F","許可番号":"31港み生薬第55号","許可開始日":"2020/1/17","施設電話番号":"03-5843-9169"},{"name":"ナチュラルローソン南麻布二丁目店","province":"東京都","city":"港区","address":"東京都港区南麻布二丁目1番9号","lat":35.649716,"lon":139.734518,"業態":"店舗販売業","施設方書":"ASYLCOURT麻布十番1階","許可番号":"3港み生薬第71号","許可開始日":"2022/2/16","施設電話番号":""},{"name":"子安ドラッグストアー 広尾ガーデン店","province":"東京都","city":"港区","address":"東京都港区南麻布四丁目1番29号","lat":35.649909,"lon":139.722641,"業態":"店舗販売業","施設方書":"広尾ガーデン1階","許可番号":"4港み生薬第46号","許可開始日":"2022/12/16","施設電話番号":"03-3446-4701"},{"name":"ウエルシア南麻布店","province":"東京都","city":"港区","address":"東京都港区南麻布五丁目1番11号","lat":35.654895,"lon":139.722624,"業態":"店舗販売業","施設方書":"1F","許可番号":"3港み生薬第27号","許可開始日":"2021/7/7","施設電話番号":""},{"name":"漢方 四月一日庭","province":"東京都","city":"港区","address":"東京都港区南麻布五丁目5番7号","lat":35.653975,"lon":139.725954,"業態":"店舗販売業","施設方書":"有栖川ヒルトップ5階","許可番号":"4港み生薬第20号","許可開始日":"2022/6/8","施設電話番号":"03-6450-3038"},{"name":"ドラッグストアー サトウ","province":"東京都","city":"港区","address":"東京都港区元赤坂一丁目5番10号","lat":35.677444,"lon":139.733342,"業態":"店舗販売業","施設方書":"AHC2ビル1階","許可番号":"30港み生薬第16号","許可開始日":"2018/6/1","施設電話番号":"03-5412-7326"},{"name":"漢方保和堂","province":"東京都","city":"港区","address":"東京都港区六本木三丁目4番5号","lat":35.66468,"lon":139.736662,"業態":"店舗販売業","施設方書":"コープ野村六本木2 103室","許可番号":"5港み生薬第43号","許可開始日":"2023/11/28","施設電話番号":"03-5544-8483"},{"name":"薬店 私の救急箱","province":"東京都","city":"港区","address":"東京都港区六本木三丁目5番21号","lat":35.663873,"lon":139.735352,"業態":"店舗販売業","施設方書":"2階","許可番号":"28港み生薬第76号","許可開始日":"2016/12/7","施設電話番号":"03-3586-5281"},{"name":"ドン・キホーテ 六本木店","province":"東京都","city":"港区","address":"東京都港区六本木三丁目14番10号","lat":35.662452,"lon":139.734692,"業態":"店舗販売業","施設方書":"1F","許可番号":"31港み生薬第41号","許可開始日":"2019/12/2","施設電話番号":"0570-010-831"},{"name":"薬マツモトキヨシ 六本木店","province":"東京都","city":"港区","address":"東京都港区六本木六丁目1番26号","lat":35.662909,"lon":139.732074,"業態":"店舗販売業","施設方書":"","許可番号":"3港み生薬第55号","許可開始日":"2021/12/28","施設電話番号":"03-3470-6244"},{"name":"トモズ 六本木ヒルズ店","province":"東京都","city":"港区","address":"東京都港区六本木六丁目10番3号","lat":35.660705,"lon":139.729207,"業態":"店舗販売業","施設方書":"六本木ヒルズウエストウォーク1階","許可番号":"3港み生薬第20号","許可開始日":"2021/6/25","施設電話番号":"03-5786-7717"},{"name":"スギドラッグ 六本木店","province":"東京都","city":"港区","address":"東京都港区六本木七丁目14番10号","lat":35.663342,"lon":139.731853,"業態":"店舗販売業","施設方書":"誠志堂ビル1階","許可番号":"31港み生薬第44号","許可開始日":"2019/11/27","施設電話番号":"03-5843-1361"},{"name":"メディスン カスミ","province":"東京都","city":"港区","address":"東京都港区高輪二丁目16番10号","lat":35.639859,"lon":139.739756,"年月":"202111","業態":"店舗販売業","収受日":"2021/11/17","届出種類":"新規","施設方書":"","許可番号":"3港み生薬第59号","許可開始日":"2021/11/29","施設電話番号":"03-6277-1208"},{"name":"Femone ドラッグストア","province":"東京都","city":"港区","address":"東京都港区三田五丁目18番12号","lat":35.644807,"lon":139.737211,"年月":"202212","業態":"店舗販売業","収受日":"2022/12/9","届出種類":"新規","施設方書":"AOI 1F","許可番号":"4港み生薬第54号","許可開始日":"2022/12/14","施設電話番号":"03-6277-4835"},{"name":"くすりの福太郎 新橋店","province":"東京都","city":"港区","address":"東京都港区新橋二丁目18番9号","lat":35.666979,"lon":139.75873,"年月":"202206","業態":"店舗販売業","収受日":"2022/6/3","届出種類":"廃止","施設方書":"1階","許可番号":"31港み生薬第33号","業態廃止日":"2022/5/15","施設電話番号":"03-6228-5923"},{"name":"大里厚養堂","province":"東京都","city":"港区","address":"東京都港区三田五丁目12番3‐101号","lat":35.645361,"lon":139.738459,"年月":"202206","業態":"店舗販売業","収受日":"2022/6/10","届出種類":"廃止","施設方書":"","許可番号":"28港み生薬第98号","業態廃止日":"2022/5/31","施設電話番号":"03-3451-6708"},{"name":"三田ひふみ","province":"東京都","city":"港区","address":"東京都港区芝四丁目1番23号","lat":35.649063,"lon":139.749451,"年月":"202207","業態":"店舗販売業","収受日":"2022/7/1","届出種類":"廃止","施設方書":"三田N.N.ビル地下1階","許可番号":"3港み生薬第14号","業態廃止日":"2022/6/24","施設電話番号":"03-5443-2558"},{"name":"白金癒淹","province":"東京都","city":"港区","address":"東京都港区白金台一丁目1番16号","lat":35.639061,"lon":139.72871,"年月":"202209","業態":"店舗販売業","収受日":"2022/9/15","届出種類":"廃止","施設方書":"S-SHIROKANEDAI 1階","許可番号":"28港み生薬第13号","業態廃止日":"2022/9/22","施設電話番号":"03-5422-9425"},{"name":"六本木グランドタワードラッグ","province":"東京都","city":"港区","address":"東京都港区六本木三丁目2番1号","lat":35.664718,"lon":139.73776,"年月":"202210","業態":"店舗販売業","収受日":"2022/10/31","届出種類":"廃止","施設方書":"住友不動産六本木グランドタワー1階","許可番号":"30港み生薬第12号","業態廃止日":"2022/10/27","施設電話番号":"03-5545-5455"},{"name":"株式会社コーケン コーケン薬店","province":"東京都","city":"港区","address":"東京都港区芝公園二丁目9番5号","lat":35.654808,"lon":139.75209,"年月":"202211","業態":"店舗販売業","収受日":"2022/11/7","届出種類":"廃止","施設方書":"向陽ビル5階","許可番号":"2港み生薬第62号","業態廃止日":"2022/10/28","施設電話番号":"03-3434-7681"},{"name":"アズドラッグ","province":"東京都","city":"港区","address":"東京都港区虎ノ門三丁目16番13号","lat":35.663866,"lon":139.746616,"年月":"202212","業態":"店舗販売業","収受日":"2022/12/22","届出種類":"廃止","施設方書":"","許可番号":"23港み生薬第4号","業態廃止日":"2022/12/27","施設電話番号":"03-3435-7234"},{"name":"株式会社ナチュラリ","province":"東京都","city":"港区","address":"東京都港区南青山二丁目27番27号","lat":35.669569,"lon":139.716811,"年月":"202301","業態":"店舗販売業","収受日":"2023/1/31","届出種類":"廃止","施設方書":"丸八青山ビル3階","許可番号":"2港み生薬第1号","業態廃止日":"2022/6/1","施設電話番号":"03-6721-1570"},{"name":"スマイル芝浦店","province":"東京都","city":"港区","address":"東京都港区芝浦三丁目6番12号","lat":35.642971,"lon":139.747699,"年月":"202302","業態":"店舗販売業","収受日":"2023/2/28","届出種類":"廃止","施設方書":"サンテ芝浦ビル1階","許可番号":"31港み生薬第70号","業態廃止日":"2023/2/20","施設電話番号":"03-3451-4515"},{"name":"麻布漢方 Herbal Room","province":"東京都","city":"港区","address":"東京都港区麻布十番一丁目4番8号","lat":35.657047,"lon":139.734846,"年月":"202303","業態":"店舗販売業","収受日":"2023/3/17","届出種類":"廃止","施設方書":"永坂ビル202号室","許可番号":"30港み生薬第61号","業態廃止日":"2023/3/16","施設電話番号":"03-6435-5866"},{"name":"株式会社再春館製薬所 高輪「伝統薬房」","province":"東京都","city":"港区","address":"東京都港区高輪四丁目10番58号","lat":35.627411,"lon":139.733384,"年月":"202303","業態":"店舗販売業","収受日":"2023/3/28","届出種類":"廃止","施設方書":"1階","許可番号":"30港み生薬第15号","業態廃止日":"2023/3/24","施設電話番号":"03-3444-4444"},{"name":"ミネドラッグ 三田店","province":"東京都","city":"港区","address":"東京都港区芝五丁目20番20号","lat":35.647784,"lon":139.746901,"年月":"202306","業態":"店舗販売業","収受日":"2023/6/7","届出種類":"廃止","施設方書":"","許可番号":"4港み生薬第3号","業態廃止日":"2023/5/31","施設電話番号":"03-5441-5306"},{"name":"ドラッグインキムラヤ 新橋日比谷口店","province":"東京都","city":"港区","address":"東京都港区新橋二丁目17番35号","lat":35.667339,"lon":139.757867,"年月":"202306","業態":"店舗販売業","収受日":"2023/6/6","届出種類":"廃止","施設方書":"","許可番号":"3港み生薬第12号","業態廃止日":"2023/5/31","施設電話番号":"03-3569-0200"},{"name":"KAMPO MANIA TOKYO","province":"東京都","city":"港区","address":"東京都港区南青山四丁目18番21号","lat":35.663814,"lon":139.717347,"年月":"202306","業態":"店舗販売業","収受日":"2023/6/5","届出種類":"廃止","施設方書":"南青山スカイハイツ112号室","許可番号":"3港み生薬第29号","業態廃止日":"2023/5/15","施設電話番号":"03-6804-3596"},{"name":"株式会社メビウス製薬","province":"東京都","city":"港区","address":"東京都港区赤坂二丁目5番1号","lat":35.673086,"lon":139.739298,"年月":"202312","業態":"店舗販売業","収受日":"2023/12/18","届出種類":"廃止","施設方書":"S‐GATE赤坂山王6F","許可番号":"29港み生薬第74号","業態廃止日":"2023/11/20","施設電話番号":"03-6804-5777"},{"name":"スマイル三田店","province":"東京都","city":"港区","address":"東京都港区芝五丁目13番14号","lat":35.649132,"lon":139.744985,"年月":"202402","業態":"店舗販売業","収受日":"2024/2/5","届出種類":"廃止","施設方書":"MAビル芝3 1階","許可番号":"31港み生薬第72号","業態廃止日":"2024/1/31","施設電話番号":"03-5232-2992"},{"name":"ドラッグセイムス芝浦海岸通店","province":"東京都","city":"港区","address":"東京都港区芝浦四丁目13番23号","lat":35.6402,"lon":139.74801,"年月":"202309","業態":"店舗販売業","旧名称":"スマイル芝浦海岸通店","発生日":"2023/9/29","施設方書":"","施設電話番号":"03-6459-4117"},{"name":"ソレイユ麻布漢方薬店","province":"東京都","city":"港区","address":"東京都港区麻布十番二丁目5番12号","lat":35.656318,"lon":139.733192,"年月":"202404","業態":"店舗販売業","収受日":"2024/3/25","届出種類":"新規","施設方書":"アザブビルディングNo.3 3階","許可番号":"5港み生薬第74号","許可開始日":"2024/4/17","施設電話番号":"03-5545-5151"},{"name":"Shiori","province":"東京都","city":"港区","address":"東京都港区北青山三丁目12番7号","lat":35.663371,"lon":139.710305,"年月":"202404","業態":"店舗販売業","収受日":"2024/3/19","届出種類":"新規","施設方書":"カプリース青山1003号","許可番号":"5港み生薬第75号","許可開始日":"2024/4/2","施設電話番号":""},{"name":"本物漢方堂","province":"東京都","city":"港区","address":"東京都港区芝五丁目13番18号","lat":35.649557,"lon":139.744991,"年月":"202405","業態":"店舗販売業","収受日":"2024/4/22","届出種類":"新規","施設方書":"いちご三田ビル4階","許可番号":"6港み生薬第5号","許可開始日":"2024/5/13","施設電話番号":""}]}